{"last_updated":1728936674,"ttl":60,"version":"2.2","data":{"bikes":[{"bike_id":"adc68721-afb0-41b5-969e-fdbb2fbdfdf7","system_id":"levelo_inurba_marseille","lat":43.290161,"lon":5.398648,"is_reserved":false,"is_disabled":false,"rental_uris":{"android":"levelo://app?vid=adc68721-afb0-41b5-969e-fdbb2fbdfdf7","ios":"levelo://app?vid=adc68721-afb0-41b5-969e-fdbb2fbdfdf7"},"vehicle_type_id":"4","last_reported":1728936674,"current_range_meters":33600,"station_id":"ce4bh412rcd13ifvqdr0","pricing_plan_id":"cebpf4jnsgd1na2vs0mg"},{"bike_id":"10530386-7ea2-4630-9cfd-fe14c55cdb58","system_id":"levelo_inurba_marseille","lat":43.31757,"lon":5.39019,"is_reserved":false,"is_disabled":false,"rental_uris":{"android":"levelo://app?vid=10530386-7ea2-4630-9cfd-fe14c55cdb58","ios":"levelo://app?vid=10530386-7ea2-4630-9cfd-fe14c55cdb58"},"vehicle_type_id":"4","last_reported":1728936674,"current_range_meters":10800,"station_id":"ce4bhqp2rcd13ifvqhng","pricing_plan_id":"cebpf4jnsgd1na2vs0mg"},{"bike_id":"0e00236d-6c78-40f2-aabc-967513e135d4","system_id":"levelo_inurba_marseille","lat":43.28694,"lon":5.37383,"is_reserved":false,"is_disabled":false,"rental_uris":{"android":"levelo://app?vid=0e00236d-6c78-40f2-aabc-967513e135d4","ios":"levelo://app?vid=0e00236d-6c78-40f2-aabc-967513e135d4"},"vehicle_type_id":"4","last_reported":1728936674,"current_range_meters":38800,"station_id":"ce4bh3p2rcd13ifvqdq0","pricing_plan_id":"cebpf4jnsgd1na2vs0mg"},{"bike_id":"cf4cabc2-1787-4d02-a606-03a61104119e","system_id":"levelo_inurba_marseille","lat":43.31328,"lon":5.39699,"is_reserved":false,"is_disabled":false,"rental_uris":{"android":"levelo://app?vid=cf4cabc2-1787-4d02-a606-03a61104119e","ios":"levelo://app?vid=cf4cabc2-1787-4d02-a606-03a61104119e"},"vehicle_type_id":"4","last_reported":1728936674,"current_range_meters":30400,"station_id":"ce4bgvp2rcd13ifvqcu0","pricing_plan_id":"cebpf4jnsgd1na2vs0mg"},{"bike_id":"ac788206-ab8f-4ef0-a827-047740674c33","system_id":"levelo_inurba_marseille","lat":43.312269,"lon":5.394468,"is_reserved":false,"is_disabled":false,"rental_uris":{"android":"levelo://app?vid=ac788206-ab8f-4ef0-a827-047740674c33","ios":"levelo://app?vid=ac788206-ab8f-4ef0-a827-047740674c33"},"vehicle_type_id":"4","last_reported":1728936674,"current_range_meters":21600,"station_id":"","pricing_plan_id":"cebpf4jnsgd1na2vs0mg"},{"bike_id":"5e412de0-c175-41d4-9e01-bd8b62064c0c","system_id":"levelo_inurba_marseille","lat":43.27373,"lon":5.36259,"is_reserved":false,"is_disabled":false,"rental_uris":{"android":"levelo://app?vid=5e412de0-c175-41d4-9e01-bd8b62064c0c","ios":"levelo://app?vid=5e412de0-c175-41d4-9e01-bd8b62064c0c"},"vehicle_type_id":"4","last_reported":1728936674,"current_range_meters":21600,"station_id":"ce4bhbh2rcd13ifvqeo0","pricing_plan_id":"cebpf4jnsgd1na2vs0mg"},{"bike_id":"ab06f5b3-3c08-4bb2-ab1c-a3aa34c68d36","system_id":"levelo_inurba_marseille","lat":43.25093,"lon":5.39521,"is_reserved":false,"is_disabled":false,"rental_uris":{"android":"levelo://app?vid=ab06f5b3-3c08-4bb2-ab1c-a3aa34c68d36","ios":"levelo://app?vid=ab06f5b3-3c08-4bb2-ab1c-a3aa34c68d36"},"vehicle_type_id":"4","last_reported":1728936674,"current_range_meters":4400,"station_id":"ce4bhm12rcd13ifvqgkg","pricing_plan_id":"cebpf4jnsgd1na2vs0mg"},{"bike_id":"6c769316-75e3-4eba-8bca-7dffbdb7e41c","system_id":"levelo_inurba_marseille","lat":43.28452,"lon":5.35894,"is_reserved":false,"is_disabled":false,"rental_uris":{"android":"levelo://app?vid=6c769316-75e3-4eba-8bca-7dffbdb7e41c","ios":"levelo://app?vid=6c769316-75e3-4eba-8bca-7dffbdb7e41c"},"vehicle_type_id":"4","last_reported":1728936674,"current_range_meters":38800,"station_id":"ce4bhah2rcd13ifvqei0","pricing_plan_id":"cebpf4jnsgd1na2vs0mg"},{"bike_id":"609b9f4a-7b05-4898-b31b-0b23a1bc6908","system_id":"levelo_inurba_marseille","lat":43.27317,"lon":5.39074,"is_reserved":false,"is_disabled":false,"rental_uris":{"android":"levelo://app?vid=609b9f4a-7b05-4898-b31b-0b23a1bc6908","ios":"levelo://app?vid=609b9f4a-7b05-4898-b31b-0b23a1bc6908"},"vehicle_type_id":"4","last_reported":1728936674,"current_range_meters":35600,"station_id":"ce4bhgp2rcd13ifvqfe0","pricing_plan_id":"cebpf4jnsgd1na2vs0mg"},{"bike_id":"3cf5a3d5-252e-45dd-9bc5-16f0049b6608","system_id":"levelo_inurba_marseille","lat":43.23963,"lon":5.36631,"is_reserved":false,"is_disabled":false,"rental_uris":{"android":"levelo://app?vid=3cf5a3d5-252e-45dd-9bc5-16f0049b6608","ios":"levelo://app?vid=3cf5a3d5-252e-45dd-9bc5-16f0049b6608"},"vehicle_type_id":"4","last_reported":1728936674,"current_range_meters":12400,"station_id":"ce4bhi12rcd13ifvqfp0","pricing_plan_id":"cebpf4jnsgd1na2vs0mg"},{"bike_id":"bced8efc-368a-4d8a-981b-084d4cd96d72","system_id":"levelo_inurba_marseille","lat":43.29735,"lon":5.36616,"is_reserved":false,"is_disabled":false,"rental_uris":{"android":"levelo://app?vid=bced8efc-368a-4d8a-981b-084d4cd96d72","ios":"levelo://app?vid=bced8efc-368a-4d8a-981b-084d4cd96d72"},"vehicle_type_id":"4","last_reported":1728936674,"current_range_meters":34800,"station_id":"ce4bgn12rcd13ifvqbt0","pricing_plan_id":"cebpf4jnsgd1na2vs0mg"},{"bike_id":"0e27d2a3-05c1-4ee1-8499-176b54a59476","system_id":"levelo_inurba_marseille","lat":43.29795,"lon":5.39347,"is_reserved":false,"is_disabled":false,"rental_uris":{"android":"levelo://app?vid=0e27d2a3-05c1-4ee1-8499-176b54a59476","ios":"levelo://app?vid=0e27d2a3-05c1-4ee1-8499-176b54a59476"},"vehicle_type_id":"4","last_reported":1728936674,"current_range_meters":38800,"station_id":"chh1huq6cuj3fo74tm60","pricing_plan_id":"cebpf4jnsgd1na2vs0mg"},{"bike_id":"462d97be-2e9e-49fe-bd45-7f5ff0b6b015","system_id":"levelo_inurba_marseille","lat":43.29873,"lon":5.3974,"is_reserved":false,"is_disabled":false,"rental_uris":{"android":"levelo://app?vid=462d97be-2e9e-49fe-bd45-7f5ff0b6b015","ios":"levelo://app?vid=462d97be-2e9e-49fe-bd45-7f5ff0b6b015"},"vehicle_type_id":"4","last_reported":1728936674,"current_range_meters":35200,"station_id":"ce4bh0h2rcd13ifvqd50","pricing_plan_id":"cebpf4jnsgd1na2vs0mg"},{"bike_id":"aedc2950-8b7b-4e89-9368-59c434adb633","system_id":"levelo_inurba_marseille","lat":43.2827,"lon":5.35079,"is_reserved":false,"is_disabled":false,"rental_uris":{"android":"levelo://app?vid=aedc2950-8b7b-4e89-9368-59c434adb633","ios":"levelo://app?vid=aedc2950-8b7b-4e89-9368-59c434adb633"},"vehicle_type_id":"4","last_reported":1728936674,"current_range_meters":38800,"station_id":"ce4bhbp2rcd13ifvqerg","pricing_plan_id":"cebpf4jnsgd1na2vs0mg"},{"bike_id":"a47655d0-cfb0-49a0-8f76-4b99088f9d15","system_id":"levelo_inurba_marseille","lat":43.30907,"lon":5.36843,"is_reserved":false,"is_disabled":false,"rental_uris":{"android":"levelo://app?vid=a47655d0-cfb0-49a0-8f76-4b99088f9d15","ios":"levelo://app?vid=a47655d0-cfb0-49a0-8f76-4b99088f9d15"},"vehicle_type_id":"4","last_reported":1728936674,"current_range_meters":8000,"station_id":"ce4bgn92rcd13ifvqbvg","pricing_plan_id":"cebpf4jnsgd1na2vs0mg"},{"bike_id":"758bd0a3-3085-46f3-bfff-87c0aaf6f640","system_id":"levelo_inurba_marseille","lat":43.30358,"lon":5.41878,"is_reserved":false,"is_disabled":false,"rental_uris":{"android":"levelo://app?vid=758bd0a3-3085-46f3-bfff-87c0aaf6f640","ios":"levelo://app?vid=758bd0a3-3085-46f3-bfff-87c0aaf6f640"},"vehicle_type_id":"4","last_reported":1728936674,"current_range_meters":37600,"station_id":"ce4bhop2rcd13ifvqh7g","pricing_plan_id":"cebpf4jnsgd1na2vs0mg"},{"bike_id":"4fb899fb-c7f7-4299-8856-d588065fcc96","system_id":"levelo_inurba_marseille","lat":43.31727,"lon":5.42401,"is_reserved":false,"is_disabled":false,"rental_uris":{"android":"levelo://app?vid=4fb899fb-c7f7-4299-8856-d588065fcc96","ios":"levelo://app?vid=4fb899fb-c7f7-4299-8856-d588065fcc96"},"vehicle_type_id":"4","last_reported":1728936674,"current_range_meters":39200,"station_id":"ce4bhp92rcd13ifvqhbg","pricing_plan_id":"cebpf4jnsgd1na2vs0mg"},{"bike_id":"58f13e0b-f545-4df4-bc1f-4c6e95704afc","system_id":"levelo_inurba_marseille","lat":43.28426,"lon":5.37509,"is_reserved":false,"is_disabled":false,"rental_uris":{"android":"levelo://app?vid=58f13e0b-f545-4df4-bc1f-4c6e95704afc","ios":"levelo://app?vid=58f13e0b-f545-4df4-bc1f-4c6e95704afc"},"vehicle_type_id":"4","last_reported":1728936674,"current_range_meters":38800,"station_id":"ce4bh412rcd13ifvqds0","pricing_plan_id":"cebpf4jnsgd1na2vs0mg"},{"bike_id":"dfe8030c-37d8-4b9c-a9e4-185e78aae511","system_id":"levelo_inurba_marseille","lat":43.31756,"lon":5.39022,"is_reserved":false,"is_disabled":false,"rental_uris":{"android":"levelo://app?vid=dfe8030c-37d8-4b9c-a9e4-185e78aae511","ios":"levelo://app?vid=dfe8030c-37d8-4b9c-a9e4-185e78aae511"},"vehicle_type_id":"4","last_reported":1728936674,"current_range_meters":38800,"station_id":"ce4bhqp2rcd13ifvqhng","pricing_plan_id":"cebpf4jnsgd1na2vs0mg"},{"bike_id":"009e1944-5320-46ff-a5bd-7f170a6cc59c","system_id":"levelo_inurba_marseille","lat":43.31076,"lon":5.38343,"is_reserved":false,"is_disabled":false,"rental_uris":{"android":"levelo://app?vid=009e1944-5320-46ff-a5bd-7f170a6cc59c","ios":"levelo://app?vid=009e1944-5320-46ff-a5bd-7f170a6cc59c"},"vehicle_type_id":"4","last_reported":1728936674,"current_range_meters":38800,"station_id":"ce4bgv92rcd13ifvqcr0","pricing_plan_id":"cebpf4jnsgd1na2vs0mg"},{"bike_id":"73f9a39c-7690-4438-b647-f6ccb95b7ed4","system_id":"levelo_inurba_marseille","lat":43.32482,"lon":5.36567,"is_reserved":false,"is_disabled":false,"rental_uris":{"android":"levelo://app?vid=73f9a39c-7690-4438-b647-f6ccb95b7ed4","ios":"levelo://app?vid=73f9a39c-7690-4438-b647-f6ccb95b7ed4"},"vehicle_type_id":"4","last_reported":1728936674,"current_range_meters":19600,"station_id":"ce4bhs12rcd13ifvqhvg","pricing_plan_id":"cebpf4jnsgd1na2vs0mg"},{"bike_id":"dd30d729-ef81-469d-8935-30e47eb8010d","system_id":"levelo_inurba_marseille","lat":43.289124,"lon":5.384293,"is_reserved":false,"is_disabled":false,"rental_uris":{"android":"levelo://app?vid=dd30d729-ef81-469d-8935-30e47eb8010d","ios":"levelo://app?vid=dd30d729-ef81-469d-8935-30e47eb8010d"},"vehicle_type_id":"4","last_reported":1728936674,"current_range_meters":36800,"station_id":"ce4bh612rcd13ifvqe6g","pricing_plan_id":"cebpf4jnsgd1na2vs0mg"},{"bike_id":"2023e189-93eb-415b-8125-a50a06418b8a","system_id":"levelo_inurba_marseille","lat":43.28611,"lon":5.37068,"is_reserved":false,"is_disabled":false,"rental_uris":{"android":"levelo://app?vid=2023e189-93eb-415b-8125-a50a06418b8a","ios":"levelo://app?vid=2023e189-93eb-415b-8125-a50a06418b8a"},"vehicle_type_id":"4","last_reported":1728936674,"current_range_meters":4000,"station_id":"ce4bht12rcd13ifvqi60","pricing_plan_id":"cebpf4jnsgd1na2vs0mg"},{"bike_id":"1c9343e4-7b78-402e-b1fe-6599c269887e","system_id":"levelo_inurba_marseille","lat":43.314515,"lon":5.37384,"is_reserved":false,"is_disabled":false,"rental_uris":{"android":"levelo://app?vid=1c9343e4-7b78-402e-b1fe-6599c269887e","ios":"levelo://app?vid=1c9343e4-7b78-402e-b1fe-6599c269887e"},"vehicle_type_id":"4","last_reported":1728936674,"current_range_meters":26800,"station_id":"","pricing_plan_id":"cebpf4jnsgd1na2vs0mg"},{"bike_id":"0f436496-4da5-49a1-8b18-624ffd1d6246","system_id":"levelo_inurba_marseille","lat":43.28463,"lon":5.35884,"is_reserved":false,"is_disabled":false,"rental_uris":{"android":"levelo://app?vid=0f436496-4da5-49a1-8b18-624ffd1d6246","ios":"levelo://app?vid=0f436496-4da5-49a1-8b18-624ffd1d6246"},"vehicle_type_id":"4","last_reported":1728936674,"current_range_meters":36000,"station_id":"ce4bhah2rcd13ifvqei0","pricing_plan_id":"cebpf4jnsgd1na2vs0mg"},{"bike_id":"4ce36c20-12dd-4756-aa25-bc5b7c147c19","system_id":"levelo_inurba_marseille","lat":43.3148,"lon":5.37303,"is_reserved":false,"is_disabled":false,"rental_uris":{"android":"levelo://app?vid=4ce36c20-12dd-4756-aa25-bc5b7c147c19","ios":"levelo://app?vid=4ce36c20-12dd-4756-aa25-bc5b7c147c19"},"vehicle_type_id":"4","last_reported":1728936674,"current_range_meters":38800,"station_id":"ce4bgt12rcd13ifvqcd0","pricing_plan_id":"cebpf4jnsgd1na2vs0mg"},{"bike_id":"a1fadbf3-9314-4264-9d24-d4ec99f0e426","system_id":"levelo_inurba_marseille","lat":43.29028,"lon":5.38641,"is_reserved":false,"is_disabled":false,"rental_uris":{"android":"levelo://app?vid=a1fadbf3-9314-4264-9d24-d4ec99f0e426","ios":"levelo://app?vid=a1fadbf3-9314-4264-9d24-d4ec99f0e426"},"vehicle_type_id":"4","last_reported":1728936674,"current_range_meters":3200,"station_id":"ce4bh4p2rcd13ifvqe0g","pricing_plan_id":"cebpf4jnsgd1na2vs0mg"},{"bike_id":"b35fcd0d-0b0b-4c33-b438-02cf58ed0ee3","system_id":"levelo_inurba_marseille","lat":43.27565,"lon":5.38424,"is_reserved":false,"is_disabled":false,"rental_uris":{"android":"levelo://app?vid=b35fcd0d-0b0b-4c33-b438-02cf58ed0ee3","ios":"levelo://app?vid=b35fcd0d-0b0b-4c33-b438-02cf58ed0ee3"},"vehicle_type_id":"4","last_reported":1728936674,"current_range_meters":38400,"station_id":"ce4bhh92rcd13ifvqfi0","pricing_plan_id":"cebpf4jnsgd1na2vs0mg"},{"bike_id":"0aa0a823-4192-4039-a41f-8b7be20c611d","system_id":"levelo_inurba_marseille","lat":43.31502,"lon":5.37309,"is_reserved":false,"is_disabled":false,"rental_uris":{"android":"levelo://app?vid=0aa0a823-4192-4039-a41f-8b7be20c611d","ios":"levelo://app?vid=0aa0a823-4192-4039-a41f-8b7be20c611d"},"vehicle_type_id":"4","last_reported":1728936674,"current_range_meters":10800,"station_id":"ce4bgt12rcd13ifvqcd0","pricing_plan_id":"cebpf4jnsgd1na2vs0mg"},{"bike_id":"5fe20323-0016-4ce7-9d5f-2acc9cf04e86","system_id":"levelo_inurba_marseille","lat":43.31738,"lon":5.37171,"is_reserved":false,"is_disabled":false,"rental_uris":{"android":"levelo://app?vid=5fe20323-0016-4ce7-9d5f-2acc9cf04e86","ios":"levelo://app?vid=5fe20323-0016-4ce7-9d5f-2acc9cf04e86"},"vehicle_type_id":"4","last_reported":1728936674,"current_range_meters":20400,"station_id":"","pricing_plan_id":"cebpf4jnsgd1na2vs0mg"},{"bike_id":"2b85a6e0-def7-4a19-ab1f-dffd44eebd82","system_id":"levelo_inurba_marseille","lat":43.32365,"lon":5.38884,"is_reserved":false,"is_disabled":false,"rental_uris":{"android":"levelo://app?vid=2b85a6e0-def7-4a19-ab1f-dffd44eebd82","ios":"levelo://app?vid=2b85a6e0-def7-4a19-ab1f-dffd44eebd82"},"vehicle_type_id":"4","last_reported":1728936674,"current_range_meters":14000,"station_id":"ce4bhqp2rcd13ifvqhog","pricing_plan_id":"cebpf4jnsgd1na2vs0mg"},{"bike_id":"811759de-7405-429c-8d49-29bb7371b392","system_id":"levelo_inurba_marseille","lat":43.30204,"lon":5.39468,"is_reserved":false,"is_disabled":false,"rental_uris":{"android":"levelo://app?vid=811759de-7405-429c-8d49-29bb7371b392","ios":"levelo://app?vid=811759de-7405-429c-8d49-29bb7371b392"},"vehicle_type_id":"4","last_reported":1728936674,"current_range_meters":31200,"station_id":"ce4bh0p2rcd13ifvqd70","pricing_plan_id":"cebpf4jnsgd1na2vs0mg"},{"bike_id":"9212eb05-896b-452a-8023-968a3a350064","system_id":"levelo_inurba_marseille","lat":43.268,"lon":5.40262,"is_reserved":false,"is_disabled":false,"rental_uris":{"android":"levelo://app?vid=9212eb05-896b-452a-8023-968a3a350064","ios":"levelo://app?vid=9212eb05-896b-452a-8023-968a3a350064"},"vehicle_type_id":"4","last_reported":1728936674,"current_range_meters":4400,"station_id":"ce501612rcd8frsf0b60","pricing_plan_id":"cebpf4jnsgd1na2vs0mg"},{"bike_id":"02d20c80-1832-49a8-b20c-d886b909e3b2","system_id":"levelo_inurba_marseille","lat":43.29249,"lon":5.40917,"is_reserved":false,"is_disabled":false,"rental_uris":{"android":"levelo://app?vid=02d20c80-1832-49a8-b20c-d886b909e3b2","ios":"levelo://app?vid=02d20c80-1832-49a8-b20c-d886b909e3b2"},"vehicle_type_id":"4","last_reported":1728936674,"current_range_meters":36000,"station_id":"ce4bh192rcd13ifvqdc0","pricing_plan_id":"cebpf4jnsgd1na2vs0mg"},{"bike_id":"1eb0d291-c980-43c3-897c-b678fe3f7bcf","system_id":"levelo_inurba_marseille","lat":43.32343,"lon":5.40624,"is_reserved":false,"is_disabled":false,"rental_uris":{"android":"levelo://app?vid=1eb0d291-c980-43c3-897c-b678fe3f7bcf","ios":"levelo://app?vid=1eb0d291-c980-43c3-897c-b678fe3f7bcf"},"vehicle_type_id":"4","last_reported":1728936674,"current_range_meters":34000,"station_id":"ce4bhq92rcd13ifvqhjg","pricing_plan_id":"cebpf4jnsgd1na2vs0mg"},{"bike_id":"16108f92-6bb6-4625-8e86-043bb5e3efc3","system_id":"levelo_inurba_marseille","lat":43.336,"lon":5.41036,"is_reserved":false,"is_disabled":false,"rental_uris":{"android":"levelo://app?vid=16108f92-6bb6-4625-8e86-043bb5e3efc3","ios":"levelo://app?vid=16108f92-6bb6-4625-8e86-043bb5e3efc3"},"vehicle_type_id":"4","last_reported":1728936674,"current_range_meters":10000,"station_id":"ce4bhqh2rcd13ifvqhmg","pricing_plan_id":"cebpf4jnsgd1na2vs0mg"},{"bike_id":"38f8e82f-b32d-4209-9f63-50ee9fadf9e5","system_id":"levelo_inurba_marseille","lat":43.27073,"lon":5.42284,"is_reserved":false,"is_disabled":false,"rental_uris":{"android":"levelo://app?vid=38f8e82f-b32d-4209-9f63-50ee9fadf9e5","ios":"levelo://app?vid=38f8e82f-b32d-4209-9f63-50ee9fadf9e5"},"vehicle_type_id":"4","last_reported":1728936674,"current_range_meters":11600,"station_id":"ce4bhk92rcd13ifvqgb0","pricing_plan_id":"cebpf4jnsgd1na2vs0mg"},{"bike_id":"06841b70-b5e4-460e-841a-12ab90e231d7","system_id":"levelo_inurba_marseille","lat":43.28713,"lon":5.37922,"is_reserved":false,"is_disabled":false,"rental_uris":{"android":"levelo://app?vid=06841b70-b5e4-460e-841a-12ab90e231d7","ios":"levelo://app?vid=06841b70-b5e4-460e-841a-12ab90e231d7"},"vehicle_type_id":"4","last_reported":1728936674,"current_range_meters":11200,"station_id":"ce4bh9p2rcd13ifvqec0","pricing_plan_id":"cebpf4jnsgd1na2vs0mg"},{"bike_id":"27521189-a10b-488a-82b8-973812fa95e1","system_id":"levelo_inurba_marseille","lat":43.32484,"lon":5.36589,"is_reserved":false,"is_disabled":false,"rental_uris":{"android":"levelo://app?vid=27521189-a10b-488a-82b8-973812fa95e1","ios":"levelo://app?vid=27521189-a10b-488a-82b8-973812fa95e1"},"vehicle_type_id":"4","last_reported":1728936674,"current_range_meters":38800,"station_id":"ce4bhs12rcd13ifvqhvg","pricing_plan_id":"cebpf4jnsgd1na2vs0mg"},{"bike_id":"a22a8a35-b4ab-47e4-804c-38eb7a985434","system_id":"levelo_inurba_marseille","lat":43.29524,"lon":5.39401,"is_reserved":false,"is_disabled":false,"rental_uris":{"android":"levelo://app?vid=a22a8a35-b4ab-47e4-804c-38eb7a985434","ios":"levelo://app?vid=a22a8a35-b4ab-47e4-804c-38eb7a985434"},"vehicle_type_id":"4","last_reported":1728936674,"current_range_meters":17200,"station_id":"ce4bh292rcd13ifvqdf0","pricing_plan_id":"cebpf4jnsgd1na2vs0mg"},{"bike_id":"e581f6d3-14ea-4c5b-a54e-de5866a1660a","system_id":"levelo_inurba_marseille","lat":43.28728,"lon":5.37908,"is_reserved":false,"is_disabled":false,"rental_uris":{"android":"levelo://app?vid=e581f6d3-14ea-4c5b-a54e-de5866a1660a","ios":"levelo://app?vid=e581f6d3-14ea-4c5b-a54e-de5866a1660a"},"vehicle_type_id":"4","last_reported":1728936674,"current_range_meters":8800,"station_id":"ce4bh9p2rcd13ifvqec0","pricing_plan_id":"cebpf4jnsgd1na2vs0mg"},{"bike_id":"340002eb-f659-433d-885b-50b16d2bf94c","system_id":"levelo_inurba_marseille","lat":43.28616,"lon":5.3511,"is_reserved":false,"is_disabled":false,"rental_uris":{"android":"levelo://app?vid=340002eb-f659-433d-885b-50b16d2bf94c","ios":"levelo://app?vid=340002eb-f659-433d-885b-50b16d2bf94c"},"vehicle_type_id":"4","last_reported":1728936674,"current_range_meters":38800,"station_id":"ce4bhch2rcd13ifvqeug","pricing_plan_id":"cebpf4jnsgd1na2vs0mg"},{"bike_id":"ec60b8aa-794d-41bc-b6da-9d6f8437a1a8","system_id":"levelo_inurba_marseille","lat":43.28029,"lon":5.36938,"is_reserved":false,"is_disabled":false,"rental_uris":{"android":"levelo://app?vid=ec60b8aa-794d-41bc-b6da-9d6f8437a1a8","ios":"levelo://app?vid=ec60b8aa-794d-41bc-b6da-9d6f8437a1a8"},"vehicle_type_id":"4","last_reported":1728936674,"current_range_meters":2800,"station_id":"ce4bha12rcd13ifvqef0","pricing_plan_id":"cebpf4jnsgd1na2vs0mg"},{"bike_id":"09a2e575-ef21-47f1-afdd-66b4617de5a0","system_id":"levelo_inurba_marseille","lat":43.28074,"lon":5.39658,"is_reserved":false,"is_disabled":false,"rental_uris":{"android":"levelo://app?vid=09a2e575-ef21-47f1-afdd-66b4617de5a0","ios":"levelo://app?vid=09a2e575-ef21-47f1-afdd-66b4617de5a0"},"vehicle_type_id":"4","last_reported":1728936674,"current_range_meters":38800,"station_id":"ce4bho12rcd13ifvqh2g","pricing_plan_id":"cebpf4jnsgd1na2vs0mg"},{"bike_id":"178ffa1d-6e55-4dbc-8608-9864abd16bc1","system_id":"levelo_inurba_marseille","lat":43.30241,"lon":5.40041,"is_reserved":false,"is_disabled":false,"rental_uris":{"android":"levelo://app?vid=178ffa1d-6e55-4dbc-8608-9864abd16bc1","ios":"levelo://app?vid=178ffa1d-6e55-4dbc-8608-9864abd16bc1"},"vehicle_type_id":"4","last_reported":1728936674,"current_range_meters":12800,"station_id":"ce4bgvh2rcd13ifvqcs0","pricing_plan_id":"cebpf4jnsgd1na2vs0mg"},{"bike_id":"a1d435ad-1f3c-4d6c-9324-8976bf230afc","system_id":"levelo_inurba_marseille","lat":43.30407,"lon":5.3976,"is_reserved":false,"is_disabled":false,"rental_uris":{"android":"levelo://app?vid=a1d435ad-1f3c-4d6c-9324-8976bf230afc","ios":"levelo://app?vid=a1d435ad-1f3c-4d6c-9324-8976bf230afc"},"vehicle_type_id":"4","last_reported":1728936674,"current_range_meters":10800,"station_id":"ce4bh092rcd13ifvqd20","pricing_plan_id":"cebpf4jnsgd1na2vs0mg"},{"bike_id":"4482dbd3-0d31-4b43-bbd3-5cfbb130291d","system_id":"levelo_inurba_marseille","lat":43.2319,"lon":5.35546,"is_reserved":false,"is_disabled":false,"rental_uris":{"android":"levelo://app?vid=4482dbd3-0d31-4b43-bbd3-5cfbb130291d","ios":"levelo://app?vid=4482dbd3-0d31-4b43-bbd3-5cfbb130291d"},"vehicle_type_id":"4","last_reported":1728936674,"current_range_meters":3600,"station_id":"ce4bhu92rcd13ifvqi70","pricing_plan_id":"cebpf4jnsgd1na2vs0mg"},{"bike_id":"c8494d27-94c9-4698-8891-72599bc047a3","system_id":"levelo_inurba_marseille","lat":43.28268,"lon":5.35073,"is_reserved":false,"is_disabled":false,"rental_uris":{"android":"levelo://app?vid=c8494d27-94c9-4698-8891-72599bc047a3","ios":"levelo://app?vid=c8494d27-94c9-4698-8891-72599bc047a3"},"vehicle_type_id":"4","last_reported":1728936674,"current_range_meters":38800,"station_id":"ce4bhbp2rcd13ifvqerg","pricing_plan_id":"cebpf4jnsgd1na2vs0mg"},{"bike_id":"c3d7c0eb-3d86-4cb2-9661-09e5ae2b8029","system_id":"levelo_inurba_marseille","lat":43.27902,"lon":5.38008,"is_reserved":false,"is_disabled":false,"rental_uris":{"android":"levelo://app?vid=c3d7c0eb-3d86-4cb2-9661-09e5ae2b8029","ios":"levelo://app?vid=c3d7c0eb-3d86-4cb2-9661-09e5ae2b8029"},"vehicle_type_id":"4","last_reported":1728936674,"current_range_meters":16000,"station_id":"ce4bhf92rcd13ifvqf50","pricing_plan_id":"cebpf4jnsgd1na2vs0mg"},{"bike_id":"390a1ac8-d5d3-4a47-9976-b57c67b3d839","system_id":"levelo_inurba_marseille","lat":43.29187,"lon":5.35794,"is_reserved":false,"is_disabled":false,"rental_uris":{"android":"levelo://app?vid=390a1ac8-d5d3-4a47-9976-b57c67b3d839","ios":"levelo://app?vid=390a1ac8-d5d3-4a47-9976-b57c67b3d839"},"vehicle_type_id":"4","last_reported":1728936674,"current_range_meters":38800,"station_id":"ce4bhb12rcd13ifvqel0","pricing_plan_id":"cebpf4jnsgd1na2vs0mg"},{"bike_id":"9c8cb654-7f8a-4a5f-a683-e38679e192c9","system_id":"levelo_inurba_marseille","lat":43.32661,"lon":5.40992,"is_reserved":false,"is_disabled":false,"rental_uris":{"android":"levelo://app?vid=9c8cb654-7f8a-4a5f-a683-e38679e192c9","ios":"levelo://app?vid=9c8cb654-7f8a-4a5f-a683-e38679e192c9"},"vehicle_type_id":"4","last_reported":1728936674,"current_range_meters":2800,"station_id":"ce4bhpp2rcd13ifvqhgg","pricing_plan_id":"cebpf4jnsgd1na2vs0mg"},{"bike_id":"dbaf8835-7f44-4909-87a4-bceca8ad21af","system_id":"levelo_inurba_marseille","lat":43.26493,"lon":5.39549,"is_reserved":false,"is_disabled":false,"rental_uris":{"android":"levelo://app?vid=dbaf8835-7f44-4909-87a4-bceca8ad21af","ios":"levelo://app?vid=dbaf8835-7f44-4909-87a4-bceca8ad21af"},"vehicle_type_id":"4","last_reported":1728936674,"current_range_meters":32400,"station_id":"ce4bhi12rcd13ifvqfq0","pricing_plan_id":"cebpf4jnsgd1na2vs0mg"},{"bike_id":"7788dc4b-4f54-41ed-a1d3-a1984d58b388","system_id":"levelo_inurba_marseille","lat":43.28617,"lon":5.35106,"is_reserved":false,"is_disabled":false,"rental_uris":{"android":"levelo://app?vid=7788dc4b-4f54-41ed-a1d3-a1984d58b388","ios":"levelo://app?vid=7788dc4b-4f54-41ed-a1d3-a1984d58b388"},"vehicle_type_id":"4","last_reported":1728936674,"current_range_meters":38800,"station_id":"ce4bhch2rcd13ifvqeug","pricing_plan_id":"cebpf4jnsgd1na2vs0mg"},{"bike_id":"995213a4-b0e8-4737-b0b6-5f59e564978e","system_id":"levelo_inurba_marseille","lat":43.33603,"lon":5.41025,"is_reserved":false,"is_disabled":false,"rental_uris":{"android":"levelo://app?vid=995213a4-b0e8-4737-b0b6-5f59e564978e","ios":"levelo://app?vid=995213a4-b0e8-4737-b0b6-5f59e564978e"},"vehicle_type_id":"4","last_reported":1728936674,"current_range_meters":12800,"station_id":"ce4bhqh2rcd13ifvqhmg","pricing_plan_id":"cebpf4jnsgd1na2vs0mg"},{"bike_id":"b178b062-35cd-4f92-91db-f4ae171fe0ea","system_id":"levelo_inurba_marseille","lat":43.292851,"lon":5.368404,"is_reserved":false,"is_disabled":false,"rental_uris":{"android":"levelo://app?vid=b178b062-35cd-4f92-91db-f4ae171fe0ea","ios":"levelo://app?vid=b178b062-35cd-4f92-91db-f4ae171fe0ea"},"vehicle_type_id":"4","last_reported":1728936674,"current_range_meters":13600,"station_id":"","pricing_plan_id":"cebpf4jnsgd1na2vs0mg"},{"bike_id":"252d1b20-655d-4314-9684-3fb736d1a505","system_id":"levelo_inurba_marseille","lat":43.30883,"lon":5.39632,"is_reserved":false,"is_disabled":false,"rental_uris":{"android":"levelo://app?vid=252d1b20-655d-4314-9684-3fb736d1a505","ios":"levelo://app?vid=252d1b20-655d-4314-9684-3fb736d1a505"},"vehicle_type_id":"4","last_reported":1728936674,"current_range_meters":38800,"station_id":"ce4bh012rcd13ifvqcv0","pricing_plan_id":"cebpf4jnsgd1na2vs0mg"},{"bike_id":"d302fb41-2c47-4a95-b7f9-3d90b4fa95cf","system_id":"levelo_inurba_marseille","lat":43.27163,"lon":5.38377,"is_reserved":false,"is_disabled":false,"rental_uris":{"android":"levelo://app?vid=d302fb41-2c47-4a95-b7f9-3d90b4fa95cf","ios":"levelo://app?vid=d302fb41-2c47-4a95-b7f9-3d90b4fa95cf"},"vehicle_type_id":"4","last_reported":1728936674,"current_range_meters":17200,"station_id":"","pricing_plan_id":"cebpf4jnsgd1na2vs0mg"},{"bike_id":"b17bd6a0-4c14-4c8c-96d0-fdc1bec84ba5","system_id":"levelo_inurba_marseille","lat":43.31071,"lon":5.38354,"is_reserved":false,"is_disabled":false,"rental_uris":{"android":"levelo://app?vid=b17bd6a0-4c14-4c8c-96d0-fdc1bec84ba5","ios":"levelo://app?vid=b17bd6a0-4c14-4c8c-96d0-fdc1bec84ba5"},"vehicle_type_id":"4","last_reported":1728936674,"current_range_meters":11600,"station_id":"ce4bgv92rcd13ifvqcr0","pricing_plan_id":"cebpf4jnsgd1na2vs0mg"},{"bike_id":"a0004b86-0108-4a59-8420-8474f739e195","system_id":"levelo_inurba_marseille","lat":43.31765,"lon":5.39015,"is_reserved":false,"is_disabled":false,"rental_uris":{"android":"levelo://app?vid=a0004b86-0108-4a59-8420-8474f739e195","ios":"levelo://app?vid=a0004b86-0108-4a59-8420-8474f739e195"},"vehicle_type_id":"4","last_reported":1728936674,"current_range_meters":38400,"station_id":"ce4bhqp2rcd13ifvqhng","pricing_plan_id":"cebpf4jnsgd1na2vs0mg"},{"bike_id":"c0670d96-b06e-446b-a07e-6b5eeebc59d7","system_id":"levelo_inurba_marseille","lat":43.274948,"lon":5.424466,"is_reserved":false,"is_disabled":false,"rental_uris":{"android":"levelo://app?vid=c0670d96-b06e-446b-a07e-6b5eeebc59d7","ios":"levelo://app?vid=c0670d96-b06e-446b-a07e-6b5eeebc59d7"},"vehicle_type_id":"4","last_reported":1728936674,"current_range_meters":15200,"station_id":"ce4bhn92rcd13ifvqgrg","pricing_plan_id":"cebpf4jnsgd1na2vs0mg"},{"bike_id":"fc75fa28-69db-4cb3-85fb-3c7ea9927cfe","system_id":"levelo_inurba_marseille","lat":43.24667,"lon":5.38157,"is_reserved":false,"is_disabled":false,"rental_uris":{"android":"levelo://app?vid=fc75fa28-69db-4cb3-85fb-3c7ea9927cfe","ios":"levelo://app?vid=fc75fa28-69db-4cb3-85fb-3c7ea9927cfe"},"vehicle_type_id":"4","last_reported":1728936674,"current_range_meters":19200,"station_id":"ce4bhih2rcd13ifvqfr0","pricing_plan_id":"cebpf4jnsgd1na2vs0mg"},{"bike_id":"66f19c86-2913-454e-ad63-aada6244fa0f","system_id":"levelo_inurba_marseille","lat":43.30952,"lon":5.39029,"is_reserved":false,"is_disabled":false,"rental_uris":{"android":"levelo://app?vid=66f19c86-2913-454e-ad63-aada6244fa0f","ios":"levelo://app?vid=66f19c86-2913-454e-ad63-aada6244fa0f"},"vehicle_type_id":"4","last_reported":1728936674,"current_range_meters":38400,"station_id":"ce4bgup2rcd13ifvqco0","pricing_plan_id":"cebpf4jnsgd1na2vs0mg"},{"bike_id":"a0d3d324-fa7e-4417-aee7-85012ecab44e","system_id":"levelo_inurba_marseille","lat":43.34219,"lon":5.44545,"is_reserved":false,"is_disabled":false,"rental_uris":{"android":"levelo://app?vid=a0d3d324-fa7e-4417-aee7-85012ecab44e","ios":"levelo://app?vid=a0d3d324-fa7e-4417-aee7-85012ecab44e"},"vehicle_type_id":"4","last_reported":1728936674,"current_range_meters":26800,"station_id":"","pricing_plan_id":"cebpf4jnsgd1na2vs0mg"},{"bike_id":"724c8533-6c2a-4d58-9645-9dc7cc8cde49","system_id":"levelo_inurba_marseille","lat":43.27188,"lon":5.40999,"is_reserved":false,"is_disabled":false,"rental_uris":{"android":"levelo://app?vid=724c8533-6c2a-4d58-9645-9dc7cc8cde49","ios":"levelo://app?vid=724c8533-6c2a-4d58-9645-9dc7cc8cde49"},"vehicle_type_id":"4","last_reported":1728936674,"current_range_meters":38800,"station_id":"ce4bhl12rcd13ifvqgf0","pricing_plan_id":"cebpf4jnsgd1na2vs0mg"},{"bike_id":"8cc0af02-a9b6-447f-b7d9-1199130a99cb","system_id":"levelo_inurba_marseille","lat":43.28264,"lon":5.35064,"is_reserved":false,"is_disabled":false,"rental_uris":{"android":"levelo://app?vid=8cc0af02-a9b6-447f-b7d9-1199130a99cb","ios":"levelo://app?vid=8cc0af02-a9b6-447f-b7d9-1199130a99cb"},"vehicle_type_id":"4","last_reported":1728936674,"current_range_meters":12000,"station_id":"ce4bhbp2rcd13ifvqerg","pricing_plan_id":"cebpf4jnsgd1na2vs0mg"},{"bike_id":"9b4cc07a-8e06-4f52-bccc-0f5b961a7294","system_id":"levelo_inurba_marseille","lat":43.24179,"lon":5.39729,"is_reserved":false,"is_disabled":false,"rental_uris":{"android":"levelo://app?vid=9b4cc07a-8e06-4f52-bccc-0f5b961a7294","ios":"levelo://app?vid=9b4cc07a-8e06-4f52-bccc-0f5b961a7294"},"vehicle_type_id":"4","last_reported":1728936674,"current_range_meters":27200,"station_id":"ce4bhn12rcd13ifvqgpg","pricing_plan_id":"cebpf4jnsgd1na2vs0mg"},{"bike_id":"6a6e8901-7cf8-4ec1-b6aa-3e523137d174","system_id":"levelo_inurba_marseille","lat":43.31185,"lon":5.3871,"is_reserved":false,"is_disabled":false,"rental_uris":{"android":"levelo://app?vid=6a6e8901-7cf8-4ec1-b6aa-3e523137d174","ios":"levelo://app?vid=6a6e8901-7cf8-4ec1-b6aa-3e523137d174"},"vehicle_type_id":"4","last_reported":1728936674,"current_range_meters":9200,"station_id":"ce4bgv12rcd13ifvqcp0","pricing_plan_id":"cebpf4jnsgd1na2vs0mg"},{"bike_id":"9506a29b-26a3-4661-a672-c82dfab809d7","system_id":"levelo_inurba_marseille","lat":43.28576,"lon":5.39495,"is_reserved":false,"is_disabled":false,"rental_uris":{"android":"levelo://app?vid=9506a29b-26a3-4661-a672-c82dfab809d7","ios":"levelo://app?vid=9506a29b-26a3-4661-a672-c82dfab809d7"},"vehicle_type_id":"4","last_reported":1728936674,"current_range_meters":38800,"station_id":"ce4bh292rcd13ifvqdg0","pricing_plan_id":"cebpf4jnsgd1na2vs0mg"},{"bike_id":"d3e7b90d-b6d9-4822-af46-f8fcdffef043","system_id":"levelo_inurba_marseille","lat":43.29525,"lon":5.39402,"is_reserved":false,"is_disabled":false,"rental_uris":{"android":"levelo://app?vid=d3e7b90d-b6d9-4822-af46-f8fcdffef043","ios":"levelo://app?vid=d3e7b90d-b6d9-4822-af46-f8fcdffef043"},"vehicle_type_id":"4","last_reported":1728936674,"current_range_meters":26000,"station_id":"ce4bh292rcd13ifvqdf0","pricing_plan_id":"cebpf4jnsgd1na2vs0mg"},{"bike_id":"ca9222a6-108d-4b8a-89d7-5995e078e5a5","system_id":"levelo_inurba_marseille","lat":43.29276,"lon":5.4012,"is_reserved":false,"is_disabled":false,"rental_uris":{"android":"levelo://app?vid=ca9222a6-108d-4b8a-89d7-5995e078e5a5","ios":"levelo://app?vid=ca9222a6-108d-4b8a-89d7-5995e078e5a5"},"vehicle_type_id":"4","last_reported":1728936674,"current_range_meters":9200,"station_id":"ce4bh312rcd13ifvqdk0","pricing_plan_id":"cebpf4jnsgd1na2vs0mg"},{"bike_id":"32d1701e-8e83-4dec-94b0-d75c44530480","system_id":"levelo_inurba_marseille","lat":43.30919,"lon":5.4015,"is_reserved":false,"is_disabled":false,"rental_uris":{"android":"levelo://app?vid=32d1701e-8e83-4dec-94b0-d75c44530480","ios":"levelo://app?vid=32d1701e-8e83-4dec-94b0-d75c44530480"},"vehicle_type_id":"4","last_reported":1728936674,"current_range_meters":38000,"station_id":"ce4bgvp2rcd13ifvqct0","pricing_plan_id":"cebpf4jnsgd1na2vs0mg"},{"bike_id":"fc924f89-26d7-4ada-a207-e40983d3351a","system_id":"levelo_inurba_marseille","lat":43.27565,"lon":5.38421,"is_reserved":false,"is_disabled":false,"rental_uris":{"android":"levelo://app?vid=fc924f89-26d7-4ada-a207-e40983d3351a","ios":"levelo://app?vid=fc924f89-26d7-4ada-a207-e40983d3351a"},"vehicle_type_id":"4","last_reported":1728936674,"current_range_meters":20000,"station_id":"ce4bhh92rcd13ifvqfi0","pricing_plan_id":"cebpf4jnsgd1na2vs0mg"},{"bike_id":"3afb0681-8fbd-47fe-8917-e12bc3cf488b","system_id":"levelo_inurba_marseille","lat":43.3372,"lon":5.39179,"is_reserved":false,"is_disabled":false,"rental_uris":{"android":"levelo://app?vid=3afb0681-8fbd-47fe-8917-e12bc3cf488b","ios":"levelo://app?vid=3afb0681-8fbd-47fe-8917-e12bc3cf488b"},"vehicle_type_id":"4","last_reported":1728936674,"current_range_meters":38800,"station_id":"ce4bhr92rcd13ifvqhsg","pricing_plan_id":"cebpf4jnsgd1na2vs0mg"},{"bike_id":"f25b9087-5c61-492d-8a81-c981d671dc2b","system_id":"levelo_inurba_marseille","lat":43.28281,"lon":5.35075,"is_reserved":false,"is_disabled":false,"rental_uris":{"android":"levelo://app?vid=f25b9087-5c61-492d-8a81-c981d671dc2b","ios":"levelo://app?vid=f25b9087-5c61-492d-8a81-c981d671dc2b"},"vehicle_type_id":"4","last_reported":1728936674,"current_range_meters":10000,"station_id":"ce4bhbp2rcd13ifvqerg","pricing_plan_id":"cebpf4jnsgd1na2vs0mg"},{"bike_id":"a732941c-85bc-42aa-bd93-04ae552d110c","system_id":"levelo_inurba_marseille","lat":43.30802,"lon":5.43523,"is_reserved":false,"is_disabled":false,"rental_uris":{"android":"levelo://app?vid=a732941c-85bc-42aa-bd93-04ae552d110c","ios":"levelo://app?vid=a732941c-85bc-42aa-bd93-04ae552d110c"},"vehicle_type_id":"4","last_reported":1728936674,"current_range_meters":8000,"station_id":"ce4bhph2rcd13ifvqheg","pricing_plan_id":"cebpf4jnsgd1na2vs0mg"},{"bike_id":"5f9bbca4-c275-4b1d-bb90-de4434b02e5b","system_id":"levelo_inurba_marseille","lat":43.27498,"lon":5.42452,"is_reserved":false,"is_disabled":false,"rental_uris":{"android":"levelo://app?vid=5f9bbca4-c275-4b1d-bb90-de4434b02e5b","ios":"levelo://app?vid=5f9bbca4-c275-4b1d-bb90-de4434b02e5b"},"vehicle_type_id":"4","last_reported":1728936674,"current_range_meters":19600,"station_id":"ce4bhn92rcd13ifvqgrg","pricing_plan_id":"cebpf4jnsgd1na2vs0mg"},{"bike_id":"71cdb9e1-5075-490f-bf25-59e6d36abd3d","system_id":"levelo_inurba_marseille","lat":43.3136,"lon":5.38492,"is_reserved":false,"is_disabled":false,"rental_uris":{"android":"levelo://app?vid=71cdb9e1-5075-490f-bf25-59e6d36abd3d","ios":"levelo://app?vid=71cdb9e1-5075-490f-bf25-59e6d36abd3d"},"vehicle_type_id":"4","last_reported":1728936674,"current_range_meters":38800,"station_id":"ce4bgt92rcd13ifvqcf0","pricing_plan_id":"cebpf4jnsgd1na2vs0mg"},{"bike_id":"80353c3e-1b6d-42f7-a7b6-4c3ffb8a063e","system_id":"levelo_inurba_marseille","lat":43.30321,"lon":5.36898,"is_reserved":false,"is_disabled":false,"rental_uris":{"android":"levelo://app?vid=80353c3e-1b6d-42f7-a7b6-4c3ffb8a063e","ios":"levelo://app?vid=80353c3e-1b6d-42f7-a7b6-4c3ffb8a063e"},"vehicle_type_id":"4","last_reported":1728936674,"current_range_meters":38400,"station_id":"ce4bgqh2rcd13ifvqc5g","pricing_plan_id":"cebpf4jnsgd1na2vs0mg"},{"bike_id":"a32ac163-48ce-4b32-900d-2f39da2712bd","system_id":"levelo_inurba_marseille","lat":43.31763,"lon":5.39018,"is_reserved":false,"is_disabled":false,"rental_uris":{"android":"levelo://app?vid=a32ac163-48ce-4b32-900d-2f39da2712bd","ios":"levelo://app?vid=a32ac163-48ce-4b32-900d-2f39da2712bd"},"vehicle_type_id":"4","last_reported":1728936674,"current_range_meters":19200,"station_id":"ce4bhqp2rcd13ifvqhng","pricing_plan_id":"cebpf4jnsgd1na2vs0mg"},{"bike_id":"7509c6f2-a27f-48e3-98e4-3995d3d4f318","system_id":"levelo_inurba_marseille","lat":43.31067,"lon":5.38349,"is_reserved":false,"is_disabled":false,"rental_uris":{"android":"levelo://app?vid=7509c6f2-a27f-48e3-98e4-3995d3d4f318","ios":"levelo://app?vid=7509c6f2-a27f-48e3-98e4-3995d3d4f318"},"vehicle_type_id":"4","last_reported":1728936674,"current_range_meters":26800,"station_id":"ce4bgv92rcd13ifvqcr0","pricing_plan_id":"cebpf4jnsgd1na2vs0mg"},{"bike_id":"b97ac990-8c0e-4aa6-a428-6bf3d623b8ab","system_id":"levelo_inurba_marseille","lat":43.24547,"lon":5.39523,"is_reserved":false,"is_disabled":false,"rental_uris":{"android":"levelo://app?vid=b97ac990-8c0e-4aa6-a428-6bf3d623b8ab","ios":"levelo://app?vid=b97ac990-8c0e-4aa6-a428-6bf3d623b8ab"},"vehicle_type_id":"4","last_reported":1728936674,"current_range_meters":4000,"station_id":"ce4bhlp2rcd13ifvqgjg","pricing_plan_id":"cebpf4jnsgd1na2vs0mg"},{"bike_id":"fe807989-b9c1-43a0-95c2-09c08a27bcfc","system_id":"levelo_inurba_marseille","lat":43.30282,"lon":5.37687,"is_reserved":false,"is_disabled":false,"rental_uris":{"android":"levelo://app?vid=fe807989-b9c1-43a0-95c2-09c08a27bcfc","ios":"levelo://app?vid=fe807989-b9c1-43a0-95c2-09c08a27bcfc"},"vehicle_type_id":"4","last_reported":1728936674,"current_range_meters":22800,"station_id":"ce4bguh2rcd13ifvqcj0","pricing_plan_id":"cebpf4jnsgd1na2vs0mg"},{"bike_id":"d2ae8d7f-7b3a-472e-9aef-617bbb91fe40","system_id":"levelo_inurba_marseille","lat":43.30086,"lon":5.3909,"is_reserved":false,"is_disabled":false,"rental_uris":{"android":"levelo://app?vid=d2ae8d7f-7b3a-472e-9aef-617bbb91fe40","ios":"levelo://app?vid=d2ae8d7f-7b3a-472e-9aef-617bbb91fe40"},"vehicle_type_id":"4","last_reported":1728936674,"current_range_meters":15200,"station_id":"ce4bh192rcd13ifvqdb0","pricing_plan_id":"cebpf4jnsgd1na2vs0mg"},{"bike_id":"c3859e9b-f515-430b-a811-8bbd3362718f","system_id":"levelo_inurba_marseille","lat":43.32337,"lon":5.40619,"is_reserved":false,"is_disabled":false,"rental_uris":{"android":"levelo://app?vid=c3859e9b-f515-430b-a811-8bbd3362718f","ios":"levelo://app?vid=c3859e9b-f515-430b-a811-8bbd3362718f"},"vehicle_type_id":"4","last_reported":1728936674,"current_range_meters":6000,"station_id":"ce4bhq92rcd13ifvqhjg","pricing_plan_id":"cebpf4jnsgd1na2vs0mg"},{"bike_id":"07538918-d507-49c7-b40a-4119b7a280f9","system_id":"levelo_inurba_marseille","lat":43.25868,"lon":5.39898,"is_reserved":false,"is_disabled":false,"rental_uris":{"android":"levelo://app?vid=07538918-d507-49c7-b40a-4119b7a280f9","ios":"levelo://app?vid=07538918-d507-49c7-b40a-4119b7a280f9"},"vehicle_type_id":"4","last_reported":1728936674,"current_range_meters":32400,"station_id":"ce4bhl92rcd13ifvqghg","pricing_plan_id":"cebpf4jnsgd1na2vs0mg"},{"bike_id":"b80c714b-6a66-4d5c-832e-bd487c535a72","system_id":"levelo_inurba_marseille","lat":43.31109,"lon":5.38064,"is_reserved":false,"is_disabled":false,"rental_uris":{"android":"levelo://app?vid=b80c714b-6a66-4d5c-832e-bd487c535a72","ios":"levelo://app?vid=b80c714b-6a66-4d5c-832e-bd487c535a72"},"vehicle_type_id":"4","last_reported":1728936674,"current_range_meters":18000,"station_id":"ce4bgt92rcd13ifvqcf0","pricing_plan_id":"cebpf4jnsgd1na2vs0mg"},{"bike_id":"2140b6a3-5118-4150-823e-9225aeb56201","system_id":"levelo_inurba_marseille","lat":43.23187,"lon":5.35544,"is_reserved":false,"is_disabled":false,"rental_uris":{"android":"levelo://app?vid=2140b6a3-5118-4150-823e-9225aeb56201","ios":"levelo://app?vid=2140b6a3-5118-4150-823e-9225aeb56201"},"vehicle_type_id":"4","last_reported":1728936674,"current_range_meters":10000,"station_id":"ce4bhu92rcd13ifvqi70","pricing_plan_id":"cebpf4jnsgd1na2vs0mg"},{"bike_id":"2f8faa3c-4069-4865-affa-126f6c4d8ffa","system_id":"levelo_inurba_marseille","lat":43.29868,"lon":5.3974,"is_reserved":false,"is_disabled":false,"rental_uris":{"android":"levelo://app?vid=2f8faa3c-4069-4865-affa-126f6c4d8ffa","ios":"levelo://app?vid=2f8faa3c-4069-4865-affa-126f6c4d8ffa"},"vehicle_type_id":"4","last_reported":1728936674,"current_range_meters":8400,"station_id":"ce4bh0h2rcd13ifvqd50","pricing_plan_id":"cebpf4jnsgd1na2vs0mg"},{"bike_id":"478f5959-9690-4265-aea1-95006faa579d","system_id":"levelo_inurba_marseille","lat":43.27174,"lon":5.41,"is_reserved":false,"is_disabled":false,"rental_uris":{"android":"levelo://app?vid=478f5959-9690-4265-aea1-95006faa579d","ios":"levelo://app?vid=478f5959-9690-4265-aea1-95006faa579d"},"vehicle_type_id":"4","last_reported":1728936674,"current_range_meters":38400,"station_id":"ce4bhl12rcd13ifvqgf0","pricing_plan_id":"cebpf4jnsgd1na2vs0mg"},{"bike_id":"4feb6e83-4e00-42b7-9314-22283312911b","system_id":"levelo_inurba_marseille","lat":43.28154,"lon":5.42646,"is_reserved":false,"is_disabled":false,"rental_uris":{"android":"levelo://app?vid=4feb6e83-4e00-42b7-9314-22283312911b","ios":"levelo://app?vid=4feb6e83-4e00-42b7-9314-22283312911b"},"vehicle_type_id":"4","last_reported":1728936674,"current_range_meters":20400,"station_id":"ce4bhnh2rcd13ifvqgug","pricing_plan_id":"cebpf4jnsgd1na2vs0mg"},{"bike_id":"7d3f6e62-f699-489c-93cd-ad87333ffafe","system_id":"levelo_inurba_marseille","lat":43.28476,"lon":5.38421,"is_reserved":false,"is_disabled":false,"rental_uris":{"android":"levelo://app?vid=7d3f6e62-f699-489c-93cd-ad87333ffafe","ios":"levelo://app?vid=7d3f6e62-f699-489c-93cd-ad87333ffafe"},"vehicle_type_id":"4","last_reported":1728936674,"current_range_meters":26000,"station_id":"ce4bh512rcd13ifvqe3g","pricing_plan_id":"cebpf4jnsgd1na2vs0mg"},{"bike_id":"79e9e570-a13a-4836-affc-e20102298a8c","system_id":"levelo_inurba_marseille","lat":43.2872,"lon":5.37947,"is_reserved":false,"is_disabled":false,"rental_uris":{"android":"levelo://app?vid=79e9e570-a13a-4836-affc-e20102298a8c","ios":"levelo://app?vid=79e9e570-a13a-4836-affc-e20102298a8c"},"vehicle_type_id":"4","last_reported":1728936674,"current_range_meters":38800,"station_id":"ce4bh9p2rcd13ifvqec0","pricing_plan_id":"cebpf4jnsgd1na2vs0mg"},{"bike_id":"982be6c0-e2a4-43ec-b318-18332fe02ad7","system_id":"levelo_inurba_marseille","lat":43.28661,"lon":5.36357,"is_reserved":false,"is_disabled":false,"rental_uris":{"android":"levelo://app?vid=982be6c0-e2a4-43ec-b318-18332fe02ad7","ios":"levelo://app?vid=982be6c0-e2a4-43ec-b318-18332fe02ad7"},"vehicle_type_id":"4","last_reported":1728936674,"current_range_meters":39200,"station_id":"ce4bhah2rcd13ifvqej0","pricing_plan_id":"cebpf4jnsgd1na2vs0mg"},{"bike_id":"7eaa335e-af99-4f56-a328-5a2f2385e3f0","system_id":"levelo_inurba_marseille","lat":43.29029,"lon":5.38628,"is_reserved":false,"is_disabled":false,"rental_uris":{"android":"levelo://app?vid=7eaa335e-af99-4f56-a328-5a2f2385e3f0","ios":"levelo://app?vid=7eaa335e-af99-4f56-a328-5a2f2385e3f0"},"vehicle_type_id":"4","last_reported":1728936674,"current_range_meters":39200,"station_id":"ce4bh4p2rcd13ifvqe0g","pricing_plan_id":"cebpf4jnsgd1na2vs0mg"},{"bike_id":"02edf250-0bdc-44d6-9936-04b527fbc30e","system_id":"levelo_inurba_marseille","lat":43.24395,"lon":5.37057,"is_reserved":false,"is_disabled":false,"rental_uris":{"android":"levelo://app?vid=02edf250-0bdc-44d6-9936-04b527fbc30e","ios":"levelo://app?vid=02edf250-0bdc-44d6-9936-04b527fbc30e"},"vehicle_type_id":"4","last_reported":1728936674,"current_range_meters":14000,"station_id":"ce4bhhh2rcd13ifvqfk0","pricing_plan_id":"cebpf4jnsgd1na2vs0mg"},{"bike_id":"78f45471-69e8-489d-9df0-9c63ad0dd53a","system_id":"levelo_inurba_marseille","lat":43.29223,"lon":5.42668,"is_reserved":false,"is_disabled":false,"rental_uris":{"android":"levelo://app?vid=78f45471-69e8-489d-9df0-9c63ad0dd53a","ios":"levelo://app?vid=78f45471-69e8-489d-9df0-9c63ad0dd53a"},"vehicle_type_id":"4","last_reported":1728936674,"current_range_meters":8400,"station_id":"","pricing_plan_id":"cebpf4jnsgd1na2vs0mg"},{"bike_id":"c338c00c-5db0-4f4d-8b25-e23ab1033e65","system_id":"levelo_inurba_marseille","lat":43.28862,"lon":5.39318,"is_reserved":false,"is_disabled":false,"rental_uris":{"android":"levelo://app?vid=c338c00c-5db0-4f4d-8b25-e23ab1033e65","ios":"levelo://app?vid=c338c00c-5db0-4f4d-8b25-e23ab1033e65"},"vehicle_type_id":"4","last_reported":1728936674,"current_range_meters":38000,"station_id":"ce4bh2p2rcd13ifvqdi0","pricing_plan_id":"cebpf4jnsgd1na2vs0mg"},{"bike_id":"de5fb6c9-1629-41d4-994d-0b513290afbf","system_id":"levelo_inurba_marseille","lat":43.30317,"lon":5.40437,"is_reserved":false,"is_disabled":false,"rental_uris":{"android":"levelo://app?vid=de5fb6c9-1629-41d4-994d-0b513290afbf","ios":"levelo://app?vid=de5fb6c9-1629-41d4-994d-0b513290afbf"},"vehicle_type_id":"4","last_reported":1728936674,"current_range_meters":38800,"station_id":"ce4bh012rcd13ifvqd10","pricing_plan_id":"cebpf4jnsgd1na2vs0mg"},{"bike_id":"8208a166-bcf1-4d0b-b25f-f093f677c6a0","system_id":"levelo_inurba_marseille","lat":43.25498,"lon":5.37651,"is_reserved":false,"is_disabled":false,"rental_uris":{"android":"levelo://app?vid=8208a166-bcf1-4d0b-b25f-f093f677c6a0","ios":"levelo://app?vid=8208a166-bcf1-4d0b-b25f-f093f677c6a0"},"vehicle_type_id":"4","last_reported":1728936674,"current_range_meters":38000,"station_id":"ce4bhh12rcd13ifvqff0","pricing_plan_id":"cebpf4jnsgd1na2vs0mg"},{"bike_id":"cda1b611-cb93-422a-8b06-efbe92015dbe","system_id":"levelo_inurba_marseille","lat":43.28449,"lon":5.392156,"is_reserved":false,"is_disabled":false,"rental_uris":{"android":"levelo://app?vid=cda1b611-cb93-422a-8b06-efbe92015dbe","ios":"levelo://app?vid=cda1b611-cb93-422a-8b06-efbe92015dbe"},"vehicle_type_id":"4","last_reported":1728936674,"current_range_meters":12800,"station_id":"ce4bhoh2rcd13ifvqh5g","pricing_plan_id":"cebpf4jnsgd1na2vs0mg"},{"bike_id":"a210394c-e316-4bed-81bd-3697504c3a30","system_id":"levelo_inurba_marseille","lat":43.29253,"lon":5.40911,"is_reserved":false,"is_disabled":false,"rental_uris":{"android":"levelo://app?vid=a210394c-e316-4bed-81bd-3697504c3a30","ios":"levelo://app?vid=a210394c-e316-4bed-81bd-3697504c3a30"},"vehicle_type_id":"4","last_reported":1728936674,"current_range_meters":32800,"station_id":"ce4bh192rcd13ifvqdc0","pricing_plan_id":"cebpf4jnsgd1na2vs0mg"},{"bike_id":"dd6b0298-1ac4-47af-b2c9-a5e8035b2f43","system_id":"levelo_inurba_marseille","lat":43.239657,"lon":5.366303,"is_reserved":false,"is_disabled":false,"rental_uris":{"android":"levelo://app?vid=dd6b0298-1ac4-47af-b2c9-a5e8035b2f43","ios":"levelo://app?vid=dd6b0298-1ac4-47af-b2c9-a5e8035b2f43"},"vehicle_type_id":"4","last_reported":1728936674,"current_range_meters":17600,"station_id":"ce4bhi12rcd13ifvqfp0","pricing_plan_id":"cebpf4jnsgd1na2vs0mg"},{"bike_id":"a5f275bc-6a4b-411f-8340-4931f52cd5c6","system_id":"levelo_inurba_marseille","lat":43.26567,"lon":5.39016,"is_reserved":false,"is_disabled":false,"rental_uris":{"android":"levelo://app?vid=a5f275bc-6a4b-411f-8340-4931f52cd5c6","ios":"levelo://app?vid=a5f275bc-6a4b-411f-8340-4931f52cd5c6"},"vehicle_type_id":"4","last_reported":1728936674,"current_range_meters":8400,"station_id":"ce4bhe12rcd13ifvqf30","pricing_plan_id":"cebpf4jnsgd1na2vs0mg"},{"bike_id":"1183d7b5-9c89-4b9a-87ff-0ccc49010bcd","system_id":"levelo_inurba_marseille","lat":43.31268,"lon":5.40169,"is_reserved":false,"is_disabled":false,"rental_uris":{"android":"levelo://app?vid=1183d7b5-9c89-4b9a-87ff-0ccc49010bcd","ios":"levelo://app?vid=1183d7b5-9c89-4b9a-87ff-0ccc49010bcd"},"vehicle_type_id":"4","last_reported":1728936674,"current_range_meters":14400,"station_id":"ce4bh092rcd13ifvqd30","pricing_plan_id":"cebpf4jnsgd1na2vs0mg"},{"bike_id":"c6f1c670-56f1-422c-b84d-3a04939da413","system_id":"levelo_inurba_marseille","lat":43.24389,"lon":5.37058,"is_reserved":false,"is_disabled":false,"rental_uris":{"android":"levelo://app?vid=c6f1c670-56f1-422c-b84d-3a04939da413","ios":"levelo://app?vid=c6f1c670-56f1-422c-b84d-3a04939da413"},"vehicle_type_id":"4","last_reported":1728936674,"current_range_meters":29600,"station_id":"ce4bhhh2rcd13ifvqfk0","pricing_plan_id":"cebpf4jnsgd1na2vs0mg"},{"bike_id":"e01e41b6-906b-4d38-bd47-8409331ef9cb","system_id":"levelo_inurba_marseille","lat":43.24165,"lon":5.36397,"is_reserved":false,"is_disabled":false,"rental_uris":{"android":"levelo://app?vid=e01e41b6-906b-4d38-bd47-8409331ef9cb","ios":"levelo://app?vid=e01e41b6-906b-4d38-bd47-8409331ef9cb"},"vehicle_type_id":"4","last_reported":1728936674,"current_range_meters":36400,"station_id":"cpo36qri1sfpv3e86is0","pricing_plan_id":"cebpf4jnsgd1na2vs0mg"},{"bike_id":"0eafdba6-2b03-4430-88b8-4e60c6aa4b07","system_id":"levelo_inurba_marseille","lat":43.30419,"lon":5.41289,"is_reserved":false,"is_disabled":false,"rental_uris":{"android":"levelo://app?vid=0eafdba6-2b03-4430-88b8-4e60c6aa4b07","ios":"levelo://app?vid=0eafdba6-2b03-4430-88b8-4e60c6aa4b07"},"vehicle_type_id":"4","last_reported":1728936674,"current_range_meters":21600,"station_id":"ce4bhop2rcd13ifvqh8g","pricing_plan_id":"cebpf4jnsgd1na2vs0mg"},{"bike_id":"93abdbdf-1438-45e5-8756-442e7e3c29f1","system_id":"levelo_inurba_marseille","lat":43.31172,"lon":5.38707,"is_reserved":false,"is_disabled":false,"rental_uris":{"android":"levelo://app?vid=93abdbdf-1438-45e5-8756-442e7e3c29f1","ios":"levelo://app?vid=93abdbdf-1438-45e5-8756-442e7e3c29f1"},"vehicle_type_id":"4","last_reported":1728936674,"current_range_meters":38800,"station_id":"ce4bgv12rcd13ifvqcp0","pricing_plan_id":"cebpf4jnsgd1na2vs0mg"},{"bike_id":"89211ee2-076f-4df3-92bd-cd8885f2e76d","system_id":"levelo_inurba_marseille","lat":43.232,"lon":5.35561,"is_reserved":false,"is_disabled":false,"rental_uris":{"android":"levelo://app?vid=89211ee2-076f-4df3-92bd-cd8885f2e76d","ios":"levelo://app?vid=89211ee2-076f-4df3-92bd-cd8885f2e76d"},"vehicle_type_id":"4","last_reported":1728936674,"current_range_meters":38800,"station_id":"ce4bhu92rcd13ifvqi70","pricing_plan_id":"cebpf4jnsgd1na2vs0mg"},{"bike_id":"6f108c79-169f-46fd-b08b-6b93e5050ee6","system_id":"levelo_inurba_marseille","lat":43.33724,"lon":5.39195,"is_reserved":false,"is_disabled":false,"rental_uris":{"android":"levelo://app?vid=6f108c79-169f-46fd-b08b-6b93e5050ee6","ios":"levelo://app?vid=6f108c79-169f-46fd-b08b-6b93e5050ee6"},"vehicle_type_id":"4","last_reported":1728936674,"current_range_meters":9200,"station_id":"ce4bhr92rcd13ifvqhsg","pricing_plan_id":"cebpf4jnsgd1na2vs0mg"},{"bike_id":"1bc071b0-ef11-4a17-a55c-f61e4b777c1f","system_id":"levelo_inurba_marseille","lat":43.33024,"lon":5.39038,"is_reserved":false,"is_disabled":false,"rental_uris":{"android":"levelo://app?vid=1bc071b0-ef11-4a17-a55c-f61e4b777c1f","ios":"levelo://app?vid=1bc071b0-ef11-4a17-a55c-f61e4b777c1f"},"vehicle_type_id":"4","last_reported":1728936674,"current_range_meters":36800,"station_id":"ce4bhr92rcd13ifvqhrg","pricing_plan_id":"cebpf4jnsgd1na2vs0mg"},{"bike_id":"d9486349-c332-407f-893d-bef322644bb8","system_id":"levelo_inurba_marseille","lat":43.30917,"lon":5.40144,"is_reserved":false,"is_disabled":false,"rental_uris":{"android":"levelo://app?vid=d9486349-c332-407f-893d-bef322644bb8","ios":"levelo://app?vid=d9486349-c332-407f-893d-bef322644bb8"},"vehicle_type_id":"4","last_reported":1728936674,"current_range_meters":24400,"station_id":"ce4bgvp2rcd13ifvqct0","pricing_plan_id":"cebpf4jnsgd1na2vs0mg"},{"bike_id":"eb81d905-3f26-4419-a77a-1acbd9d1e76c","system_id":"levelo_inurba_marseille","lat":43.2909,"lon":5.38141,"is_reserved":false,"is_disabled":false,"rental_uris":{"android":"levelo://app?vid=eb81d905-3f26-4419-a77a-1acbd9d1e76c","ios":"levelo://app?vid=eb81d905-3f26-4419-a77a-1acbd9d1e76c"},"vehicle_type_id":"4","last_reported":1728936674,"current_range_meters":7200,"station_id":"ce4bh512rcd13ifvqe2g","pricing_plan_id":"cebpf4jnsgd1na2vs0mg"},{"bike_id":"4401e9fe-8fae-4df0-be02-0119e3aeedbd","system_id":"levelo_inurba_marseille","lat":43.33765,"lon":5.37428,"is_reserved":false,"is_disabled":false,"rental_uris":{"android":"levelo://app?vid=4401e9fe-8fae-4df0-be02-0119e3aeedbd","ios":"levelo://app?vid=4401e9fe-8fae-4df0-be02-0119e3aeedbd"},"vehicle_type_id":"4","last_reported":1728936674,"current_range_meters":35200,"station_id":"","pricing_plan_id":"cebpf4jnsgd1na2vs0mg"},{"bike_id":"3add3e84-b225-403f-b543-64d331d87139","system_id":"levelo_inurba_marseille","lat":43.26211,"lon":5.37441,"is_reserved":false,"is_disabled":false,"rental_uris":{"android":"levelo://app?vid=3add3e84-b225-403f-b543-64d331d87139","ios":"levelo://app?vid=3add3e84-b225-403f-b543-64d331d87139"},"vehicle_type_id":"4","last_reported":1728936674,"current_range_meters":18800,"station_id":"ce4bhgp2rcd13ifvqfc0","pricing_plan_id":"cebpf4jnsgd1na2vs0mg"},{"bike_id":"7407b431-bff5-4398-a903-ce772c985ca2","system_id":"levelo_inurba_marseille","lat":43.24394,"lon":5.37065,"is_reserved":false,"is_disabled":false,"rental_uris":{"android":"levelo://app?vid=7407b431-bff5-4398-a903-ce772c985ca2","ios":"levelo://app?vid=7407b431-bff5-4398-a903-ce772c985ca2"},"vehicle_type_id":"4","last_reported":1728936674,"current_range_meters":22400,"station_id":"ce4bhhh2rcd13ifvqfk0","pricing_plan_id":"cebpf4jnsgd1na2vs0mg"},{"bike_id":"1ffa878e-7475-4e16-bedf-e1edad73f932","system_id":"levelo_inurba_marseille","lat":43.26803,"lon":5.40266,"is_reserved":false,"is_disabled":false,"rental_uris":{"android":"levelo://app?vid=1ffa878e-7475-4e16-bedf-e1edad73f932","ios":"levelo://app?vid=1ffa878e-7475-4e16-bedf-e1edad73f932"},"vehicle_type_id":"4","last_reported":1728936674,"current_range_meters":26000,"station_id":"ce501612rcd8frsf0b60","pricing_plan_id":"cebpf4jnsgd1na2vs0mg"},{"bike_id":"8afc2d11-5f30-4024-8dd1-bcca6caac62e","system_id":"levelo_inurba_marseille","lat":43.31889,"lon":5.40728,"is_reserved":false,"is_disabled":false,"rental_uris":{"android":"levelo://app?vid=8afc2d11-5f30-4024-8dd1-bcca6caac62e","ios":"levelo://app?vid=8afc2d11-5f30-4024-8dd1-bcca6caac62e"},"vehicle_type_id":"4","last_reported":1728936674,"current_range_meters":36800,"station_id":"ce4bhq12rcd13ifvqhig","pricing_plan_id":"cebpf4jnsgd1na2vs0mg"},{"bike_id":"f86c0e4c-e675-4813-89ef-9c087542fa2b","system_id":"levelo_inurba_marseille","lat":43.28464,"lon":5.35876,"is_reserved":false,"is_disabled":false,"rental_uris":{"android":"levelo://app?vid=f86c0e4c-e675-4813-89ef-9c087542fa2b","ios":"levelo://app?vid=f86c0e4c-e675-4813-89ef-9c087542fa2b"},"vehicle_type_id":"4","last_reported":1728936674,"current_range_meters":4800,"station_id":"ce4bhah2rcd13ifvqei0","pricing_plan_id":"cebpf4jnsgd1na2vs0mg"},{"bike_id":"1e6882e8-decb-480c-ba8e-cfd3f6a75517","system_id":"levelo_inurba_marseille","lat":43.30138,"lon":5.39866,"is_reserved":false,"is_disabled":false,"rental_uris":{"android":"levelo://app?vid=1e6882e8-decb-480c-ba8e-cfd3f6a75517","ios":"levelo://app?vid=1e6882e8-decb-480c-ba8e-cfd3f6a75517"},"vehicle_type_id":"4","last_reported":1728936674,"current_range_meters":20000,"station_id":"ce4bh0h2rcd13ifvqd40","pricing_plan_id":"cebpf4jnsgd1na2vs0mg"},{"bike_id":"de9fce36-42d5-4f27-b0a2-d390f9b6b1c9","system_id":"levelo_inurba_marseille","lat":43.25117,"lon":5.40325,"is_reserved":false,"is_disabled":false,"rental_uris":{"android":"levelo://app?vid=de9fce36-42d5-4f27-b0a2-d390f9b6b1c9","ios":"levelo://app?vid=de9fce36-42d5-4f27-b0a2-d390f9b6b1c9"},"vehicle_type_id":"4","last_reported":1728936674,"current_range_meters":14400,"station_id":"ce4bhlh2rcd13ifvqgig","pricing_plan_id":"cebpf4jnsgd1na2vs0mg"},{"bike_id":"a86e9317-8e6c-4b41-8893-53b286195a2b","system_id":"levelo_inurba_marseille","lat":43.29973,"lon":5.38494,"is_reserved":false,"is_disabled":false,"rental_uris":{"android":"levelo://app?vid=a86e9317-8e6c-4b41-8893-53b286195a2b","ios":"levelo://app?vid=a86e9317-8e6c-4b41-8893-53b286195a2b"},"vehicle_type_id":"4","last_reported":1728936674,"current_range_meters":26000,"station_id":"ce4bgj92rcd13ifvqbd0","pricing_plan_id":"cebpf4jnsgd1na2vs0mg"},{"bike_id":"544b8d64-8bbe-4ff8-b401-1ae6d24b3eb1","system_id":"levelo_inurba_marseille","lat":43.30922,"lon":5.40148,"is_reserved":false,"is_disabled":false,"rental_uris":{"android":"levelo://app?vid=544b8d64-8bbe-4ff8-b401-1ae6d24b3eb1","ios":"levelo://app?vid=544b8d64-8bbe-4ff8-b401-1ae6d24b3eb1"},"vehicle_type_id":"4","last_reported":1728936674,"current_range_meters":22800,"station_id":"ce4bgvp2rcd13ifvqct0","pricing_plan_id":"cebpf4jnsgd1na2vs0mg"},{"bike_id":"8eca1db8-c7a5-4c55-a530-7e36502bac8b","system_id":"levelo_inurba_marseille","lat":43.33024,"lon":5.39036,"is_reserved":false,"is_disabled":false,"rental_uris":{"android":"levelo://app?vid=8eca1db8-c7a5-4c55-a530-7e36502bac8b","ios":"levelo://app?vid=8eca1db8-c7a5-4c55-a530-7e36502bac8b"},"vehicle_type_id":"4","last_reported":1728936674,"current_range_meters":30400,"station_id":"ce4bhr92rcd13ifvqhrg","pricing_plan_id":"cebpf4jnsgd1na2vs0mg"},{"bike_id":"dbe7101e-7e85-4bc1-9465-6537ea426ba5","system_id":"levelo_inurba_marseille","lat":43.28269,"lon":5.35063,"is_reserved":false,"is_disabled":false,"rental_uris":{"android":"levelo://app?vid=dbe7101e-7e85-4bc1-9465-6537ea426ba5","ios":"levelo://app?vid=dbe7101e-7e85-4bc1-9465-6537ea426ba5"},"vehicle_type_id":"4","last_reported":1728936674,"current_range_meters":8400,"station_id":"ce4bhbp2rcd13ifvqerg","pricing_plan_id":"cebpf4jnsgd1na2vs0mg"},{"bike_id":"84ca229a-6154-4cc3-b977-69ec1f6a3da2","system_id":"levelo_inurba_marseille","lat":43.27617,"lon":5.38361,"is_reserved":false,"is_disabled":false,"rental_uris":{"android":"levelo://app?vid=84ca229a-6154-4cc3-b977-69ec1f6a3da2","ios":"levelo://app?vid=84ca229a-6154-4cc3-b977-69ec1f6a3da2"},"vehicle_type_id":"4","last_reported":1728936674,"current_range_meters":8000,"station_id":"","pricing_plan_id":"cebpf4jnsgd1na2vs0mg"},{"bike_id":"3c9a80a7-6d68-4bb8-9474-fe0e2b009cb0","system_id":"levelo_inurba_marseille","lat":43.3176,"lon":5.39022,"is_reserved":false,"is_disabled":false,"rental_uris":{"android":"levelo://app?vid=3c9a80a7-6d68-4bb8-9474-fe0e2b009cb0","ios":"levelo://app?vid=3c9a80a7-6d68-4bb8-9474-fe0e2b009cb0"},"vehicle_type_id":"4","last_reported":1728936674,"current_range_meters":9200,"station_id":"ce4bhqp2rcd13ifvqhng","pricing_plan_id":"cebpf4jnsgd1na2vs0mg"},{"bike_id":"fb7882f2-e1f5-44f3-9e70-beca0518866a","system_id":"levelo_inurba_marseille","lat":43.27321,"lon":5.3907,"is_reserved":false,"is_disabled":false,"rental_uris":{"android":"levelo://app?vid=fb7882f2-e1f5-44f3-9e70-beca0518866a","ios":"levelo://app?vid=fb7882f2-e1f5-44f3-9e70-beca0518866a"},"vehicle_type_id":"4","last_reported":1728936674,"current_range_meters":38000,"station_id":"ce4bhgp2rcd13ifvqfe0","pricing_plan_id":"cebpf4jnsgd1na2vs0mg"},{"bike_id":"d10a2797-8bfb-48fc-ac0b-0d32358ad7d5","system_id":"levelo_inurba_marseille","lat":43.30273,"lon":5.377,"is_reserved":false,"is_disabled":false,"rental_uris":{"android":"levelo://app?vid=d10a2797-8bfb-48fc-ac0b-0d32358ad7d5","ios":"levelo://app?vid=d10a2797-8bfb-48fc-ac0b-0d32358ad7d5"},"vehicle_type_id":"4","last_reported":1728936674,"current_range_meters":3600,"station_id":"ce4bguh2rcd13ifvqcj0","pricing_plan_id":"cebpf4jnsgd1na2vs0mg"},{"bike_id":"ff96eee3-1ac8-4888-9ae7-e4b6cc8154af","system_id":"levelo_inurba_marseille","lat":43.33739,"lon":5.3746,"is_reserved":false,"is_disabled":false,"rental_uris":{"android":"levelo://app?vid=ff96eee3-1ac8-4888-9ae7-e4b6cc8154af","ios":"levelo://app?vid=ff96eee3-1ac8-4888-9ae7-e4b6cc8154af"},"vehicle_type_id":"4","last_reported":1728936674,"current_range_meters":36800,"station_id":"","pricing_plan_id":"cebpf4jnsgd1na2vs0mg"},{"bike_id":"87070b4b-67ca-46ca-bb7f-d5a97d044803","system_id":"levelo_inurba_marseille","lat":43.29792,"lon":5.38107,"is_reserved":false,"is_disabled":false,"rental_uris":{"android":"levelo://app?vid=87070b4b-67ca-46ca-bb7f-d5a97d044803","ios":"levelo://app?vid=87070b4b-67ca-46ca-bb7f-d5a97d044803"},"vehicle_type_id":"4","last_reported":1728936674,"current_range_meters":8000,"station_id":"ce4bgt92rcd13ifvqcg0","pricing_plan_id":"cebpf4jnsgd1na2vs0mg"},{"bike_id":"c9eb4109-536a-4530-b289-4c5c7c4c8979","system_id":"levelo_inurba_marseille","lat":43.29026,"lon":5.3864,"is_reserved":false,"is_disabled":false,"rental_uris":{"android":"levelo://app?vid=c9eb4109-536a-4530-b289-4c5c7c4c8979","ios":"levelo://app?vid=c9eb4109-536a-4530-b289-4c5c7c4c8979"},"vehicle_type_id":"4","last_reported":1728936674,"current_range_meters":9200,"station_id":"ce4bh4p2rcd13ifvqe0g","pricing_plan_id":"cebpf4jnsgd1na2vs0mg"},{"bike_id":"45ec75c3-8fad-4f46-b4c9-d3a51e06604f","system_id":"levelo_inurba_marseille","lat":43.30889,"lon":5.39653,"is_reserved":false,"is_disabled":false,"rental_uris":{"android":"levelo://app?vid=45ec75c3-8fad-4f46-b4c9-d3a51e06604f","ios":"levelo://app?vid=45ec75c3-8fad-4f46-b4c9-d3a51e06604f"},"vehicle_type_id":"4","last_reported":1728936674,"current_range_meters":22800,"station_id":"ce4bh012rcd13ifvqcv0","pricing_plan_id":"cebpf4jnsgd1na2vs0mg"},{"bike_id":"c50c599b-7eb4-4ae0-bc1f-a366e21ec0ac","system_id":"levelo_inurba_marseille","lat":43.33026,"lon":5.3904,"is_reserved":false,"is_disabled":false,"rental_uris":{"android":"levelo://app?vid=c50c599b-7eb4-4ae0-bc1f-a366e21ec0ac","ios":"levelo://app?vid=c50c599b-7eb4-4ae0-bc1f-a366e21ec0ac"},"vehicle_type_id":"4","last_reported":1728936674,"current_range_meters":37600,"station_id":"ce4bhr92rcd13ifvqhrg","pricing_plan_id":"cebpf4jnsgd1na2vs0mg"},{"bike_id":"4e65694f-00d8-44f2-9aaf-8930e2be5a38","system_id":"levelo_inurba_marseille","lat":43.28847,"lon":5.35845,"is_reserved":false,"is_disabled":false,"rental_uris":{"android":"levelo://app?vid=4e65694f-00d8-44f2-9aaf-8930e2be5a38","ios":"levelo://app?vid=4e65694f-00d8-44f2-9aaf-8930e2be5a38"},"vehicle_type_id":"4","last_reported":1728936674,"current_range_meters":9200,"station_id":"ce4bhb12rcd13ifvqem0","pricing_plan_id":"cebpf4jnsgd1na2vs0mg"},{"bike_id":"affbb959-d301-4244-bb79-4c72a90d3c33","system_id":"levelo_inurba_marseille","lat":43.28282,"lon":5.40903,"is_reserved":false,"is_disabled":false,"rental_uris":{"android":"levelo://app?vid=affbb959-d301-4244-bb79-4c72a90d3c33","ios":"levelo://app?vid=affbb959-d301-4244-bb79-4c72a90d3c33"},"vehicle_type_id":"4","last_reported":1728936674,"current_range_meters":29600,"station_id":"","pricing_plan_id":"cebpf4jnsgd1na2vs0mg"},{"bike_id":"9824d324-d859-48cc-9cb5-90b3cf898ef8","system_id":"levelo_inurba_marseille","lat":43.28463,"lon":5.35885,"is_reserved":false,"is_disabled":false,"rental_uris":{"android":"levelo://app?vid=9824d324-d859-48cc-9cb5-90b3cf898ef8","ios":"levelo://app?vid=9824d324-d859-48cc-9cb5-90b3cf898ef8"},"vehicle_type_id":"4","last_reported":1728936674,"current_range_meters":24800,"station_id":"ce4bhah2rcd13ifvqei0","pricing_plan_id":"cebpf4jnsgd1na2vs0mg"},{"bike_id":"124fe4c8-d877-453b-88bd-af8d62d24653","system_id":"levelo_inurba_marseille","lat":43.2465,"lon":5.389,"is_reserved":false,"is_disabled":false,"rental_uris":{"android":"levelo://app?vid=124fe4c8-d877-453b-88bd-af8d62d24653","ios":"levelo://app?vid=124fe4c8-d877-453b-88bd-af8d62d24653"},"vehicle_type_id":"4","last_reported":1728936674,"current_range_meters":9200,"station_id":"ce4bhg12rcd13ifvqf60","pricing_plan_id":"cebpf4jnsgd1na2vs0mg"},{"bike_id":"d6fed98b-6f3d-4ee9-b77c-30a41d4f3bbb","system_id":"levelo_inurba_marseille","lat":43.28454,"lon":5.35889,"is_reserved":false,"is_disabled":false,"rental_uris":{"android":"levelo://app?vid=d6fed98b-6f3d-4ee9-b77c-30a41d4f3bbb","ios":"levelo://app?vid=d6fed98b-6f3d-4ee9-b77c-30a41d4f3bbb"},"vehicle_type_id":"4","last_reported":1728936674,"current_range_meters":36800,"station_id":"ce4bhah2rcd13ifvqei0","pricing_plan_id":"cebpf4jnsgd1na2vs0mg"},{"bike_id":"8baf3ed0-85e9-466a-a670-790e9cbe4c4a","system_id":"levelo_inurba_marseille","lat":43.29274,"lon":5.40121,"is_reserved":false,"is_disabled":false,"rental_uris":{"android":"levelo://app?vid=8baf3ed0-85e9-466a-a670-790e9cbe4c4a","ios":"levelo://app?vid=8baf3ed0-85e9-466a-a670-790e9cbe4c4a"},"vehicle_type_id":"4","last_reported":1728936674,"current_range_meters":33600,"station_id":"ce4bh312rcd13ifvqdk0","pricing_plan_id":"cebpf4jnsgd1na2vs0mg"},{"bike_id":"f57f4d6f-75e3-40c2-8b37-fd35a15bf7ea","system_id":"levelo_inurba_marseille","lat":43.28102,"lon":5.37842,"is_reserved":false,"is_disabled":false,"rental_uris":{"android":"levelo://app?vid=f57f4d6f-75e3-40c2-8b37-fd35a15bf7ea","ios":"levelo://app?vid=f57f4d6f-75e3-40c2-8b37-fd35a15bf7ea"},"vehicle_type_id":"4","last_reported":1728936674,"current_range_meters":38000,"station_id":"ce4bha12rcd13ifvqee0","pricing_plan_id":"cebpf4jnsgd1na2vs0mg"},{"bike_id":"8bf5b36e-884a-4ead-a687-4aeaa5d33435","system_id":"levelo_inurba_marseille","lat":43.25867,"lon":5.39893,"is_reserved":false,"is_disabled":false,"rental_uris":{"android":"levelo://app?vid=8bf5b36e-884a-4ead-a687-4aeaa5d33435","ios":"levelo://app?vid=8bf5b36e-884a-4ead-a687-4aeaa5d33435"},"vehicle_type_id":"4","last_reported":1728936674,"current_range_meters":38800,"station_id":"ce4bhl92rcd13ifvqghg","pricing_plan_id":"cebpf4jnsgd1na2vs0mg"},{"bike_id":"1dbf2079-5d28-4396-bafd-88b3e19a6a88","system_id":"levelo_inurba_marseille","lat":43.27999,"lon":5.40012,"is_reserved":false,"is_disabled":false,"rental_uris":{"android":"levelo://app?vid=1dbf2079-5d28-4396-bafd-88b3e19a6a88","ios":"levelo://app?vid=1dbf2079-5d28-4396-bafd-88b3e19a6a88"},"vehicle_type_id":"4","last_reported":1728936674,"current_range_meters":38000,"station_id":"ce4bho92rcd13ifvqh4g","pricing_plan_id":"cebpf4jnsgd1na2vs0mg"},{"bike_id":"e55ce7e2-8e60-47b5-844e-977029bd08ba","system_id":"levelo_inurba_marseille","lat":43.29556,"lon":5.42285,"is_reserved":false,"is_disabled":false,"rental_uris":{"android":"levelo://app?vid=e55ce7e2-8e60-47b5-844e-977029bd08ba","ios":"levelo://app?vid=e55ce7e2-8e60-47b5-844e-977029bd08ba"},"vehicle_type_id":"4","last_reported":1728936674,"current_range_meters":38800,"station_id":"ce4bhph2rcd13ifvqhdg","pricing_plan_id":"cebpf4jnsgd1na2vs0mg"},{"bike_id":"07d70820-54c8-485a-b04b-017096cc6e14","system_id":"levelo_inurba_marseille","lat":43.33026,"lon":5.3904,"is_reserved":false,"is_disabled":false,"rental_uris":{"android":"levelo://app?vid=07d70820-54c8-485a-b04b-017096cc6e14","ios":"levelo://app?vid=07d70820-54c8-485a-b04b-017096cc6e14"},"vehicle_type_id":"4","last_reported":1728936674,"current_range_meters":38800,"station_id":"ce4bhr92rcd13ifvqhrg","pricing_plan_id":"cebpf4jnsgd1na2vs0mg"},{"bike_id":"292b9425-1372-40d4-bf0a-fe57aa779a41","system_id":"levelo_inurba_marseille","lat":43.23058,"lon":5.35495,"is_reserved":false,"is_disabled":false,"rental_uris":{"android":"levelo://app?vid=292b9425-1372-40d4-bf0a-fe57aa779a41","ios":"levelo://app?vid=292b9425-1372-40d4-bf0a-fe57aa779a41"},"vehicle_type_id":"4","last_reported":1728936674,"current_range_meters":36800,"station_id":"cpo3342slgdg3j2ifvpg","pricing_plan_id":"cebpf4jnsgd1na2vs0mg"},{"bike_id":"4fbf2fbd-a2ae-483f-80e9-346906bb2da9","system_id":"levelo_inurba_marseille","lat":43.30132,"lon":5.39867,"is_reserved":false,"is_disabled":false,"rental_uris":{"android":"levelo://app?vid=4fbf2fbd-a2ae-483f-80e9-346906bb2da9","ios":"levelo://app?vid=4fbf2fbd-a2ae-483f-80e9-346906bb2da9"},"vehicle_type_id":"4","last_reported":1728936674,"current_range_meters":38800,"station_id":"ce4bh0h2rcd13ifvqd40","pricing_plan_id":"cebpf4jnsgd1na2vs0mg"},{"bike_id":"b68f8757-1097-4507-84e5-165dca7c43a6","system_id":"levelo_inurba_marseille","lat":43.28699,"lon":5.39988,"is_reserved":false,"is_disabled":false,"rental_uris":{"android":"levelo://app?vid=b68f8757-1097-4507-84e5-165dca7c43a6","ios":"levelo://app?vid=b68f8757-1097-4507-84e5-165dca7c43a6"},"vehicle_type_id":"4","last_reported":1728936674,"current_range_meters":36800,"station_id":"ce4bho92rcd13ifvqh3g","pricing_plan_id":"cebpf4jnsgd1na2vs0mg"},{"bike_id":"dd9af789-aa40-4376-bf59-4df30148c3ad","system_id":"levelo_inurba_marseille","lat":43.25865,"lon":5.39895,"is_reserved":false,"is_disabled":false,"rental_uris":{"android":"levelo://app?vid=dd9af789-aa40-4376-bf59-4df30148c3ad","ios":"levelo://app?vid=dd9af789-aa40-4376-bf59-4df30148c3ad"},"vehicle_type_id":"4","last_reported":1728936674,"current_range_meters":27200,"station_id":"ce4bhl92rcd13ifvqghg","pricing_plan_id":"cebpf4jnsgd1na2vs0mg"},{"bike_id":"6dba08da-54a1-4d59-b230-f3753f15200e","system_id":"levelo_inurba_marseille","lat":43.28355,"lon":5.38641,"is_reserved":false,"is_disabled":false,"rental_uris":{"android":"levelo://app?vid=6dba08da-54a1-4d59-b230-f3753f15200e","ios":"levelo://app?vid=6dba08da-54a1-4d59-b230-f3753f15200e"},"vehicle_type_id":"4","last_reported":1728936674,"current_range_meters":38800,"station_id":"ce4bh492rcd13ifvqdvg","pricing_plan_id":"cebpf4jnsgd1na2vs0mg"},{"bike_id":"5da4ff11-4dc5-4867-b83a-2e81b9bf257b","system_id":"levelo_inurba_marseille","lat":43.27676,"lon":5.38885,"is_reserved":false,"is_disabled":false,"rental_uris":{"android":"levelo://app?vid=5da4ff11-4dc5-4867-b83a-2e81b9bf257b","ios":"levelo://app?vid=5da4ff11-4dc5-4867-b83a-2e81b9bf257b"},"vehicle_type_id":"4","last_reported":1728936674,"current_range_meters":18800,"station_id":"ce4bhi12rcd13ifvqfo0","pricing_plan_id":"cebpf4jnsgd1na2vs0mg"},{"bike_id":"fa5ad1a7-0adb-40fe-a8e8-f0b90066109f","system_id":"levelo_inurba_marseille","lat":43.29278,"lon":5.36846,"is_reserved":false,"is_disabled":false,"rental_uris":{"android":"levelo://app?vid=fa5ad1a7-0adb-40fe-a8e8-f0b90066109f","ios":"levelo://app?vid=fa5ad1a7-0adb-40fe-a8e8-f0b90066109f"},"vehicle_type_id":"4","last_reported":1728936674,"current_range_meters":28000,"station_id":"ce4bhbp2rcd13ifvqesg","pricing_plan_id":"cebpf4jnsgd1na2vs0mg"},{"bike_id":"f9431acc-4158-4e63-bbe0-7544277cc35e","system_id":"levelo_inurba_marseille","lat":43.29032,"lon":5.37567,"is_reserved":false,"is_disabled":false,"rental_uris":{"android":"levelo://app?vid=f9431acc-4158-4e63-bbe0-7544277cc35e","ios":"levelo://app?vid=f9431acc-4158-4e63-bbe0-7544277cc35e"},"vehicle_type_id":"4","last_reported":1728936674,"current_range_meters":29600,"station_id":"ce4bh692rcd13ifvqe90","pricing_plan_id":"cebpf4jnsgd1na2vs0mg"},{"bike_id":"e42a5c5b-19d2-48bc-8dfc-c8514ef28621","system_id":"levelo_inurba_marseille","lat":43.24167,"lon":5.36407,"is_reserved":false,"is_disabled":false,"rental_uris":{"android":"levelo://app?vid=e42a5c5b-19d2-48bc-8dfc-c8514ef28621","ios":"levelo://app?vid=e42a5c5b-19d2-48bc-8dfc-c8514ef28621"},"vehicle_type_id":"4","last_reported":1728936674,"current_range_meters":28800,"station_id":"cpo36qri1sfpv3e86is0","pricing_plan_id":"cebpf4jnsgd1na2vs0mg"},{"bike_id":"96312f5f-0242-4af5-8904-5da6da457ea0","system_id":"levelo_inurba_marseille","lat":43.288536,"lon":5.358387,"is_reserved":false,"is_disabled":false,"rental_uris":{"android":"levelo://app?vid=96312f5f-0242-4af5-8904-5da6da457ea0","ios":"levelo://app?vid=96312f5f-0242-4af5-8904-5da6da457ea0"},"vehicle_type_id":"4","last_reported":1728936674,"current_range_meters":38800,"station_id":"ce4bhb12rcd13ifvqem0","pricing_plan_id":"cebpf4jnsgd1na2vs0mg"},{"bike_id":"1e9462cf-eb62-40fa-b817-ae3905be444d","system_id":"levelo_inurba_marseille","lat":43.30175,"lon":5.36618,"is_reserved":false,"is_disabled":false,"rental_uris":{"android":"levelo://app?vid=1e9462cf-eb62-40fa-b817-ae3905be444d","ios":"levelo://app?vid=1e9462cf-eb62-40fa-b817-ae3905be444d"},"vehicle_type_id":"4","last_reported":1728936674,"current_range_meters":35600,"station_id":"ce4bgrh2rcd13ifvqc8g","pricing_plan_id":"cebpf4jnsgd1na2vs0mg"},{"bike_id":"0262a9fe-feca-45d9-bcc5-0db5cd20149e","system_id":"levelo_inurba_marseille","lat":43.31277,"lon":5.40162,"is_reserved":false,"is_disabled":false,"rental_uris":{"android":"levelo://app?vid=0262a9fe-feca-45d9-bcc5-0db5cd20149e","ios":"levelo://app?vid=0262a9fe-feca-45d9-bcc5-0db5cd20149e"},"vehicle_type_id":"4","last_reported":1728936674,"current_range_meters":36400,"station_id":"ce4bh092rcd13ifvqd30","pricing_plan_id":"cebpf4jnsgd1na2vs0mg"},{"bike_id":"e2269ceb-628a-46bc-99be-000f6b18d412","system_id":"levelo_inurba_marseille","lat":43.30213,"lon":5.3947,"is_reserved":false,"is_disabled":false,"rental_uris":{"android":"levelo://app?vid=e2269ceb-628a-46bc-99be-000f6b18d412","ios":"levelo://app?vid=e2269ceb-628a-46bc-99be-000f6b18d412"},"vehicle_type_id":"4","last_reported":1728936674,"current_range_meters":36000,"station_id":"ce4bh0p2rcd13ifvqd70","pricing_plan_id":"cebpf4jnsgd1na2vs0mg"},{"bike_id":"d06f24f3-1961-4c39-8b26-c72733863fe9","system_id":"levelo_inurba_marseille","lat":43.33781,"lon":5.37443,"is_reserved":false,"is_disabled":false,"rental_uris":{"android":"levelo://app?vid=d06f24f3-1961-4c39-8b26-c72733863fe9","ios":"levelo://app?vid=d06f24f3-1961-4c39-8b26-c72733863fe9"},"vehicle_type_id":"4","last_reported":1728936674,"current_range_meters":27600,"station_id":"","pricing_plan_id":"cebpf4jnsgd1na2vs0mg"},{"bike_id":"6723724c-dabe-4801-a548-188759cc12a0","system_id":"levelo_inurba_marseille","lat":43.30548,"lon":5.36702,"is_reserved":false,"is_disabled":false,"rental_uris":{"android":"levelo://app?vid=6723724c-dabe-4801-a548-188759cc12a0","ios":"levelo://app?vid=6723724c-dabe-4801-a548-188759cc12a0"},"vehicle_type_id":"4","last_reported":1728936674,"current_range_meters":38800,"station_id":"ce4bgrp2rcd13ifvqc9g","pricing_plan_id":"cebpf4jnsgd1na2vs0mg"},{"bike_id":"2da6aa54-ad0c-484f-8279-5aac8ad1d94b","system_id":"levelo_inurba_marseille","lat":43.31715,"lon":5.4241,"is_reserved":false,"is_disabled":false,"rental_uris":{"android":"levelo://app?vid=2da6aa54-ad0c-484f-8279-5aac8ad1d94b","ios":"levelo://app?vid=2da6aa54-ad0c-484f-8279-5aac8ad1d94b"},"vehicle_type_id":"4","last_reported":1728936674,"current_range_meters":38400,"station_id":"ce4bhp92rcd13ifvqhbg","pricing_plan_id":"cebpf4jnsgd1na2vs0mg"},{"bike_id":"63304442-e2bc-4af6-8535-c489369107ce","system_id":"levelo_inurba_marseille","lat":43.28476,"lon":5.38412,"is_reserved":false,"is_disabled":false,"rental_uris":{"android":"levelo://app?vid=63304442-e2bc-4af6-8535-c489369107ce","ios":"levelo://app?vid=63304442-e2bc-4af6-8535-c489369107ce"},"vehicle_type_id":"4","last_reported":1728936674,"current_range_meters":30400,"station_id":"ce4bh512rcd13ifvqe3g","pricing_plan_id":"cebpf4jnsgd1na2vs0mg"},{"bike_id":"59801407-972f-4a36-807e-85d5772337bc","system_id":"levelo_inurba_marseille","lat":43.28083,"lon":5.3966,"is_reserved":false,"is_disabled":false,"rental_uris":{"android":"levelo://app?vid=59801407-972f-4a36-807e-85d5772337bc","ios":"levelo://app?vid=59801407-972f-4a36-807e-85d5772337bc"},"vehicle_type_id":"4","last_reported":1728936674,"current_range_meters":18800,"station_id":"ce4bho12rcd13ifvqh2g","pricing_plan_id":"cebpf4jnsgd1na2vs0mg"},{"bike_id":"de55ef64-fd38-455a-b0e1-1ae601486694","system_id":"levelo_inurba_marseille","lat":43.28459,"lon":5.35895,"is_reserved":false,"is_disabled":false,"rental_uris":{"android":"levelo://app?vid=de55ef64-fd38-455a-b0e1-1ae601486694","ios":"levelo://app?vid=de55ef64-fd38-455a-b0e1-1ae601486694"},"vehicle_type_id":"4","last_reported":1728936674,"current_range_meters":29600,"station_id":"ce4bhah2rcd13ifvqei0","pricing_plan_id":"cebpf4jnsgd1na2vs0mg"},{"bike_id":"d41309ab-1a1f-4395-acaa-455483c3f8e1","system_id":"levelo_inurba_marseille","lat":43.23192,"lon":5.35556,"is_reserved":false,"is_disabled":false,"rental_uris":{"android":"levelo://app?vid=d41309ab-1a1f-4395-acaa-455483c3f8e1","ios":"levelo://app?vid=d41309ab-1a1f-4395-acaa-455483c3f8e1"},"vehicle_type_id":"4","last_reported":1728936674,"current_range_meters":36800,"station_id":"ce4bhu92rcd13ifvqi70","pricing_plan_id":"cebpf4jnsgd1na2vs0mg"},{"bike_id":"b6c39945-7fde-45ca-a309-2c86ade80641","system_id":"levelo_inurba_marseille","lat":43.2796,"lon":5.38712,"is_reserved":false,"is_disabled":false,"rental_uris":{"android":"levelo://app?vid=b6c39945-7fde-45ca-a309-2c86ade80641","ios":"levelo://app?vid=b6c39945-7fde-45ca-a309-2c86ade80641"},"vehicle_type_id":"4","last_reported":1728936674,"current_range_meters":38800,"station_id":"ce4bhg12rcd13ifvqf80","pricing_plan_id":"cebpf4jnsgd1na2vs0mg"},{"bike_id":"4d61dae6-15fa-4e8d-92b6-002cd41e2abc","system_id":"levelo_inurba_marseille","lat":43.29316,"lon":5.37458,"is_reserved":false,"is_disabled":false,"rental_uris":{"android":"levelo://app?vid=4d61dae6-15fa-4e8d-92b6-002cd41e2abc","ios":"levelo://app?vid=4d61dae6-15fa-4e8d-92b6-002cd41e2abc"},"vehicle_type_id":"4","last_reported":1728936674,"current_range_meters":16400,"station_id":"ce4bhbp2rcd13ifvqerg","pricing_plan_id":"cebpf4jnsgd1na2vs0mg"},{"bike_id":"710523a7-e306-4ecb-ab43-7eb6b3a30162","system_id":"levelo_inurba_marseille","lat":43.30452,"lon":5.40188,"is_reserved":false,"is_disabled":false,"rental_uris":{"android":"levelo://app?vid=710523a7-e306-4ecb-ab43-7eb6b3a30162","ios":"levelo://app?vid=710523a7-e306-4ecb-ab43-7eb6b3a30162"},"vehicle_type_id":"4","last_reported":1728936674,"current_range_meters":25600,"station_id":"","pricing_plan_id":"cebpf4jnsgd1na2vs0mg"},{"bike_id":"6b5e2892-4954-452d-841f-a72fd2ae32dc","system_id":"levelo_inurba_marseille","lat":43.28264,"lon":5.35061,"is_reserved":false,"is_disabled":false,"rental_uris":{"android":"levelo://app?vid=6b5e2892-4954-452d-841f-a72fd2ae32dc","ios":"levelo://app?vid=6b5e2892-4954-452d-841f-a72fd2ae32dc"},"vehicle_type_id":"4","last_reported":1728936674,"current_range_meters":8000,"station_id":"ce4bhbp2rcd13ifvqerg","pricing_plan_id":"cebpf4jnsgd1na2vs0mg"},{"bike_id":"fca53f66-742d-44ee-956a-20e7ae576730","system_id":"levelo_inurba_marseille","lat":43.31263,"lon":5.40169,"is_reserved":false,"is_disabled":false,"rental_uris":{"android":"levelo://app?vid=fca53f66-742d-44ee-956a-20e7ae576730","ios":"levelo://app?vid=fca53f66-742d-44ee-956a-20e7ae576730"},"vehicle_type_id":"4","last_reported":1728936674,"current_range_meters":10800,"station_id":"ce4bh092rcd13ifvqd30","pricing_plan_id":"cebpf4jnsgd1na2vs0mg"},{"bike_id":"eaedc49c-645c-4444-a4d2-8456bbc17d70","system_id":"levelo_inurba_marseille","lat":43.299,"lon":5.43665,"is_reserved":false,"is_disabled":false,"rental_uris":{"android":"levelo://app?vid=eaedc49c-645c-4444-a4d2-8456bbc17d70","ios":"levelo://app?vid=eaedc49c-645c-4444-a4d2-8456bbc17d70"},"vehicle_type_id":"4","last_reported":1728936674,"current_range_meters":16400,"station_id":"ce4bhpp2rcd13ifvqhfg","pricing_plan_id":"cebpf4jnsgd1na2vs0mg"},{"bike_id":"20cf49f9-1944-454b-98be-038481d3426a","system_id":"levelo_inurba_marseille","lat":43.32488,"lon":5.36566,"is_reserved":false,"is_disabled":false,"rental_uris":{"android":"levelo://app?vid=20cf49f9-1944-454b-98be-038481d3426a","ios":"levelo://app?vid=20cf49f9-1944-454b-98be-038481d3426a"},"vehicle_type_id":"4","last_reported":1728936674,"current_range_meters":38800,"station_id":"ce4bhs12rcd13ifvqhvg","pricing_plan_id":"cebpf4jnsgd1na2vs0mg"},{"bike_id":"841fb6f8-2296-487b-9f27-17f776d3e1ac","system_id":"levelo_inurba_marseille","lat":43.24184,"lon":5.39732,"is_reserved":false,"is_disabled":false,"rental_uris":{"android":"levelo://app?vid=841fb6f8-2296-487b-9f27-17f776d3e1ac","ios":"levelo://app?vid=841fb6f8-2296-487b-9f27-17f776d3e1ac"},"vehicle_type_id":"4","last_reported":1728936674,"current_range_meters":25600,"station_id":"ce4bhn12rcd13ifvqgpg","pricing_plan_id":"cebpf4jnsgd1na2vs0mg"},{"bike_id":"70c95378-a25a-4142-a216-c8b3cf7fb134","system_id":"levelo_inurba_marseille","lat":43.26056,"lon":5.39398,"is_reserved":false,"is_disabled":false,"rental_uris":{"android":"levelo://app?vid=70c95378-a25a-4142-a216-c8b3cf7fb134","ios":"levelo://app?vid=70c95378-a25a-4142-a216-c8b3cf7fb134"},"vehicle_type_id":"4","last_reported":1728936674,"current_range_meters":37600,"station_id":"ce4bhh92rcd13ifvqfj0","pricing_plan_id":"cebpf4jnsgd1na2vs0mg"},{"bike_id":"69b09ac4-905b-4dfb-80eb-2afebc7708ea","system_id":"levelo_inurba_marseille","lat":43.27837,"lon":5.39198,"is_reserved":false,"is_disabled":false,"rental_uris":{"android":"levelo://app?vid=69b09ac4-905b-4dfb-80eb-2afebc7708ea","ios":"levelo://app?vid=69b09ac4-905b-4dfb-80eb-2afebc7708ea"},"vehicle_type_id":"4","last_reported":1728936674,"current_range_meters":30400,"station_id":"ce4bhjp2rcd13ifvqga0","pricing_plan_id":"cebpf4jnsgd1na2vs0mg"},{"bike_id":"a21f51de-eadd-4f06-8be1-122fdd1bc7b6","system_id":"levelo_inurba_marseille","lat":43.27997,"lon":5.41657,"is_reserved":false,"is_disabled":false,"rental_uris":{"android":"levelo://app?vid=a21f51de-eadd-4f06-8be1-122fdd1bc7b6","ios":"levelo://app?vid=a21f51de-eadd-4f06-8be1-122fdd1bc7b6"},"vehicle_type_id":"4","last_reported":1728936674,"current_range_meters":37600,"station_id":"ce4bho12rcd13ifvqh1g","pricing_plan_id":"cebpf4jnsgd1na2vs0mg"},{"bike_id":"f33ca04e-0fdd-4816-b4fc-80bcd342b78a","system_id":"levelo_inurba_marseille","lat":43.29555,"lon":5.42288,"is_reserved":false,"is_disabled":false,"rental_uris":{"android":"levelo://app?vid=f33ca04e-0fdd-4816-b4fc-80bcd342b78a","ios":"levelo://app?vid=f33ca04e-0fdd-4816-b4fc-80bcd342b78a"},"vehicle_type_id":"4","last_reported":1728936674,"current_range_meters":6400,"station_id":"ce4bhph2rcd13ifvqhdg","pricing_plan_id":"cebpf4jnsgd1na2vs0mg"},{"bike_id":"2cf15b1d-2fb1-44d4-be33-95809d4858fd","system_id":"levelo_inurba_marseille","lat":43.27498,"lon":5.42445,"is_reserved":false,"is_disabled":false,"rental_uris":{"android":"levelo://app?vid=2cf15b1d-2fb1-44d4-be33-95809d4858fd","ios":"levelo://app?vid=2cf15b1d-2fb1-44d4-be33-95809d4858fd"},"vehicle_type_id":"4","last_reported":1728936674,"current_range_meters":27200,"station_id":"ce4bhn92rcd13ifvqgrg","pricing_plan_id":"cebpf4jnsgd1na2vs0mg"},{"bike_id":"eeeaf89a-2451-4a2b-8e6b-5ef5e62ca9bc","system_id":"levelo_inurba_marseille","lat":43.28437,"lon":5.39193,"is_reserved":false,"is_disabled":false,"rental_uris":{"android":"levelo://app?vid=eeeaf89a-2451-4a2b-8e6b-5ef5e62ca9bc","ios":"levelo://app?vid=eeeaf89a-2451-4a2b-8e6b-5ef5e62ca9bc"},"vehicle_type_id":"4","last_reported":1728936674,"current_range_meters":22000,"station_id":"ce4bhoh2rcd13ifvqh5g","pricing_plan_id":"cebpf4jnsgd1na2vs0mg"},{"bike_id":"ab4b5dd5-7da7-49ec-b6b1-7716be5592e7","system_id":"levelo_inurba_marseille","lat":43.3088,"lon":5.39631,"is_reserved":false,"is_disabled":false,"rental_uris":{"android":"levelo://app?vid=ab4b5dd5-7da7-49ec-b6b1-7716be5592e7","ios":"levelo://app?vid=ab4b5dd5-7da7-49ec-b6b1-7716be5592e7"},"vehicle_type_id":"4","last_reported":1728936674,"current_range_meters":25200,"station_id":"ce4bh012rcd13ifvqcv0","pricing_plan_id":"cebpf4jnsgd1na2vs0mg"},{"bike_id":"ec0517e8-ec18-4fe5-8d34-e381fe5d101f","system_id":"levelo_inurba_marseille","lat":43.30212,"lon":5.39474,"is_reserved":false,"is_disabled":false,"rental_uris":{"android":"levelo://app?vid=ec0517e8-ec18-4fe5-8d34-e381fe5d101f","ios":"levelo://app?vid=ec0517e8-ec18-4fe5-8d34-e381fe5d101f"},"vehicle_type_id":"4","last_reported":1728936674,"current_range_meters":30400,"station_id":"ce4bh0p2rcd13ifvqd70","pricing_plan_id":"cebpf4jnsgd1na2vs0mg"},{"bike_id":"006ce50b-1d1b-4781-a031-2d7cf4fe67be","system_id":"levelo_inurba_marseille","lat":43.24545,"lon":5.39526,"is_reserved":false,"is_disabled":false,"rental_uris":{"android":"levelo://app?vid=006ce50b-1d1b-4781-a031-2d7cf4fe67be","ios":"levelo://app?vid=006ce50b-1d1b-4781-a031-2d7cf4fe67be"},"vehicle_type_id":"4","last_reported":1728936674,"current_range_meters":14400,"station_id":"ce4bhlp2rcd13ifvqgjg","pricing_plan_id":"cebpf4jnsgd1na2vs0mg"},{"bike_id":"00f7f99a-d45a-43de-905c-50f86815ff55","system_id":"levelo_inurba_marseille","lat":43.30963,"lon":5.39049,"is_reserved":false,"is_disabled":false,"rental_uris":{"android":"levelo://app?vid=00f7f99a-d45a-43de-905c-50f86815ff55","ios":"levelo://app?vid=00f7f99a-d45a-43de-905c-50f86815ff55"},"vehicle_type_id":"4","last_reported":1728936674,"current_range_meters":38400,"station_id":"ce4bgup2rcd13ifvqco0","pricing_plan_id":"cebpf4jnsgd1na2vs0mg"},{"bike_id":"851d95b9-311b-4a9b-9406-5dbe2a7d862e","system_id":"levelo_inurba_marseille","lat":43.28696,"lon":5.37401,"is_reserved":false,"is_disabled":false,"rental_uris":{"android":"levelo://app?vid=851d95b9-311b-4a9b-9406-5dbe2a7d862e","ios":"levelo://app?vid=851d95b9-311b-4a9b-9406-5dbe2a7d862e"},"vehicle_type_id":"4","last_reported":1728936674,"current_range_meters":38800,"station_id":"ce4bh3p2rcd13ifvqdq0","pricing_plan_id":"cebpf4jnsgd1na2vs0mg"},{"bike_id":"1af2813b-98a0-4b62-aaf8-89652b30f639","system_id":"levelo_inurba_marseille","lat":43.22936,"lon":5.35378,"is_reserved":false,"is_disabled":false,"rental_uris":{"android":"levelo://app?vid=1af2813b-98a0-4b62-aaf8-89652b30f639","ios":"levelo://app?vid=1af2813b-98a0-4b62-aaf8-89652b30f639"},"vehicle_type_id":"4","last_reported":1728936674,"current_range_meters":34800,"station_id":"cpo3532slgdg3j2ikp40","pricing_plan_id":"cebpf4jnsgd1na2vs0mg"},{"bike_id":"0cbadcb5-3fe6-4596-8b56-c6ceb898aff4","system_id":"levelo_inurba_marseille","lat":43.26503,"lon":5.39537,"is_reserved":false,"is_disabled":false,"rental_uris":{"android":"levelo://app?vid=0cbadcb5-3fe6-4596-8b56-c6ceb898aff4","ios":"levelo://app?vid=0cbadcb5-3fe6-4596-8b56-c6ceb898aff4"},"vehicle_type_id":"4","last_reported":1728936674,"current_range_meters":37600,"station_id":"ce4bhi12rcd13ifvqfq0","pricing_plan_id":"cebpf4jnsgd1na2vs0mg"},{"bike_id":"9bd3a53b-c078-45a8-910b-e51538946572","system_id":"levelo_inurba_marseille","lat":43.301269,"lon":5.398564,"is_reserved":false,"is_disabled":false,"rental_uris":{"android":"levelo://app?vid=9bd3a53b-c078-45a8-910b-e51538946572","ios":"levelo://app?vid=9bd3a53b-c078-45a8-910b-e51538946572"},"vehicle_type_id":"4","last_reported":1728936674,"current_range_meters":38800,"station_id":"ce4bh0h2rcd13ifvqd40","pricing_plan_id":"cebpf4jnsgd1na2vs0mg"},{"bike_id":"cdff0018-74fc-4ff1-8c39-032611a0d384","system_id":"levelo_inurba_marseille","lat":43.28444,"lon":5.39185,"is_reserved":false,"is_disabled":false,"rental_uris":{"android":"levelo://app?vid=cdff0018-74fc-4ff1-8c39-032611a0d384","ios":"levelo://app?vid=cdff0018-74fc-4ff1-8c39-032611a0d384"},"vehicle_type_id":"4","last_reported":1728936674,"current_range_meters":38800,"station_id":"ce4bhoh2rcd13ifvqh5g","pricing_plan_id":"cebpf4jnsgd1na2vs0mg"},{"bike_id":"f93454e1-a669-4c63-a4ca-b572042c7971","system_id":"levelo_inurba_marseille","lat":43.23198,"lon":5.3555,"is_reserved":false,"is_disabled":false,"rental_uris":{"android":"levelo://app?vid=f93454e1-a669-4c63-a4ca-b572042c7971","ios":"levelo://app?vid=f93454e1-a669-4c63-a4ca-b572042c7971"},"vehicle_type_id":"4","last_reported":1728936674,"current_range_meters":28400,"station_id":"ce4bhu92rcd13ifvqi70","pricing_plan_id":"cebpf4jnsgd1na2vs0mg"},{"bike_id":"fee5316d-4b75-4d34-b8e6-8aa7856f957f","system_id":"levelo_inurba_marseille","lat":43.28347,"lon":5.3811,"is_reserved":false,"is_disabled":false,"rental_uris":{"android":"levelo://app?vid=fee5316d-4b75-4d34-b8e6-8aa7856f957f","ios":"levelo://app?vid=fee5316d-4b75-4d34-b8e6-8aa7856f957f"},"vehicle_type_id":"4","last_reported":1728936674,"current_range_meters":16400,"station_id":"ce4bh412rcd13ifvqdr0","pricing_plan_id":"cebpf4jnsgd1na2vs0mg"},{"bike_id":"b29b8739-7b8e-43f9-a215-d5ca7f770e17","system_id":"levelo_inurba_marseille","lat":43.28569,"lon":5.39497,"is_reserved":false,"is_disabled":false,"rental_uris":{"android":"levelo://app?vid=b29b8739-7b8e-43f9-a215-d5ca7f770e17","ios":"levelo://app?vid=b29b8739-7b8e-43f9-a215-d5ca7f770e17"},"vehicle_type_id":"4","last_reported":1728936674,"current_range_meters":9200,"station_id":"ce4bh292rcd13ifvqdg0","pricing_plan_id":"cebpf4jnsgd1na2vs0mg"},{"bike_id":"93facf5b-31f4-420f-ab00-d15967580d37","system_id":"levelo_inurba_marseille","lat":43.29778,"lon":5.39338,"is_reserved":false,"is_disabled":false,"rental_uris":{"android":"levelo://app?vid=93facf5b-31f4-420f-ab00-d15967580d37","ios":"levelo://app?vid=93facf5b-31f4-420f-ab00-d15967580d37"},"vehicle_type_id":"4","last_reported":1728936674,"current_range_meters":33200,"station_id":"chh1huq6cuj3fo74tm60","pricing_plan_id":"cebpf4jnsgd1na2vs0mg"},{"bike_id":"1ebdfdb5-a230-4d5c-b364-d4fea7e19ee6","system_id":"levelo_inurba_marseille","lat":43.28577,"lon":5.39483,"is_reserved":false,"is_disabled":false,"rental_uris":{"android":"levelo://app?vid=1ebdfdb5-a230-4d5c-b364-d4fea7e19ee6","ios":"levelo://app?vid=1ebdfdb5-a230-4d5c-b364-d4fea7e19ee6"},"vehicle_type_id":"4","last_reported":1728936674,"current_range_meters":6400,"station_id":"ce4bh292rcd13ifvqdg0","pricing_plan_id":"cebpf4jnsgd1na2vs0mg"},{"bike_id":"1c4360e4-6aca-4a49-a72b-026589aa10d7","system_id":"levelo_inurba_marseille","lat":43.24808,"lon":5.37459,"is_reserved":false,"is_disabled":false,"rental_uris":{"android":"levelo://app?vid=1c4360e4-6aca-4a49-a72b-026589aa10d7","ios":"levelo://app?vid=1c4360e4-6aca-4a49-a72b-026589aa10d7"},"vehicle_type_id":"4","last_reported":1728936674,"current_range_meters":10800,"station_id":"ce4bhgh2rcd13ifvqfb0","pricing_plan_id":"cebpf4jnsgd1na2vs0mg"},{"bike_id":"8df94bb5-9315-45f7-aecb-13efe2780616","system_id":"levelo_inurba_marseille","lat":43.31329,"lon":5.39684,"is_reserved":false,"is_disabled":false,"rental_uris":{"android":"levelo://app?vid=8df94bb5-9315-45f7-aecb-13efe2780616","ios":"levelo://app?vid=8df94bb5-9315-45f7-aecb-13efe2780616"},"vehicle_type_id":"4","last_reported":1728936674,"current_range_meters":37600,"station_id":"ce4bgvp2rcd13ifvqcu0","pricing_plan_id":"cebpf4jnsgd1na2vs0mg"},{"bike_id":"476ab3bb-9455-4401-9423-faa80f6c98d8","system_id":"levelo_inurba_marseille","lat":43.29191,"lon":5.39315,"is_reserved":false,"is_disabled":false,"rental_uris":{"android":"levelo://app?vid=476ab3bb-9455-4401-9423-faa80f6c98d8","ios":"levelo://app?vid=476ab3bb-9455-4401-9423-faa80f6c98d8"},"vehicle_type_id":"4","last_reported":1728936674,"current_range_meters":38800,"station_id":"ce4bh192rcd13ifvqdd0","pricing_plan_id":"cebpf4jnsgd1na2vs0mg"},{"bike_id":"6a344486-14e7-432e-98bf-b8beed8e06c6","system_id":"levelo_inurba_marseille","lat":43.32336,"lon":5.38328,"is_reserved":false,"is_disabled":false,"rental_uris":{"android":"levelo://app?vid=6a344486-14e7-432e-98bf-b8beed8e06c6","ios":"levelo://app?vid=6a344486-14e7-432e-98bf-b8beed8e06c6"},"vehicle_type_id":"4","last_reported":1728936674,"current_range_meters":33600,"station_id":"","pricing_plan_id":"cebpf4jnsgd1na2vs0mg"},{"bike_id":"1c29ea6a-d424-450d-9c36-6b427ab42330","system_id":"levelo_inurba_marseille","lat":43.34143,"lon":5.40908,"is_reserved":false,"is_disabled":false,"rental_uris":{"android":"levelo://app?vid=1c29ea6a-d424-450d-9c36-6b427ab42330","ios":"levelo://app?vid=1c29ea6a-d424-450d-9c36-6b427ab42330"},"vehicle_type_id":"4","last_reported":1728936674,"current_range_meters":38800,"station_id":"ce4bhqh2rcd13ifvqhlg","pricing_plan_id":"cebpf4jnsgd1na2vs0mg"},{"bike_id":"9b8845d4-eac8-47c1-9fcb-2671037ed195","system_id":"levelo_inurba_marseille","lat":43.31757,"lon":5.39021,"is_reserved":false,"is_disabled":false,"rental_uris":{"android":"levelo://app?vid=9b8845d4-eac8-47c1-9fcb-2671037ed195","ios":"levelo://app?vid=9b8845d4-eac8-47c1-9fcb-2671037ed195"},"vehicle_type_id":"4","last_reported":1728936674,"current_range_meters":8400,"station_id":"ce4bhqp2rcd13ifvqhng","pricing_plan_id":"cebpf4jnsgd1na2vs0mg"},{"bike_id":"72a79d72-22a5-45d1-9521-3624cd089d7a","system_id":"levelo_inurba_marseille","lat":43.24811,"lon":5.37463,"is_reserved":false,"is_disabled":false,"rental_uris":{"android":"levelo://app?vid=72a79d72-22a5-45d1-9521-3624cd089d7a","ios":"levelo://app?vid=72a79d72-22a5-45d1-9521-3624cd089d7a"},"vehicle_type_id":"4","last_reported":1728936674,"current_range_meters":3600,"station_id":"ce4bhgh2rcd13ifvqfb0","pricing_plan_id":"cebpf4jnsgd1na2vs0mg"},{"bike_id":"826e67a1-1f1b-48d5-9965-734aa482296d","system_id":"levelo_inurba_marseille","lat":43.30797,"lon":5.43521,"is_reserved":false,"is_disabled":false,"rental_uris":{"android":"levelo://app?vid=826e67a1-1f1b-48d5-9965-734aa482296d","ios":"levelo://app?vid=826e67a1-1f1b-48d5-9965-734aa482296d"},"vehicle_type_id":"4","last_reported":1728936674,"current_range_meters":9600,"station_id":"ce4bhph2rcd13ifvqheg","pricing_plan_id":"cebpf4jnsgd1na2vs0mg"},{"bike_id":"879b010f-a05b-441e-b4db-8bee165e430f","system_id":"levelo_inurba_marseille","lat":43.30962,"lon":5.3794,"is_reserved":false,"is_disabled":false,"rental_uris":{"android":"levelo://app?vid=879b010f-a05b-441e-b4db-8bee165e430f","ios":"levelo://app?vid=879b010f-a05b-441e-b4db-8bee165e430f"},"vehicle_type_id":"4","last_reported":1728936674,"current_range_meters":26800,"station_id":"ce4bgt92rcd13ifvqcf0","pricing_plan_id":"cebpf4jnsgd1na2vs0mg"},{"bike_id":"754da881-cbc9-4b35-beb2-51d368048841","system_id":"levelo_inurba_marseille","lat":43.33743,"lon":5.37456,"is_reserved":false,"is_disabled":false,"rental_uris":{"android":"levelo://app?vid=754da881-cbc9-4b35-beb2-51d368048841","ios":"levelo://app?vid=754da881-cbc9-4b35-beb2-51d368048841"},"vehicle_type_id":"4","last_reported":1728936674,"current_range_meters":36800,"station_id":"","pricing_plan_id":"cebpf4jnsgd1na2vs0mg"},{"bike_id":"568c26d9-ec54-4cb3-b3fb-7c6fb70a2b67","system_id":"levelo_inurba_marseille","lat":43.229316,"lon":5.353772,"is_reserved":false,"is_disabled":false,"rental_uris":{"android":"levelo://app?vid=568c26d9-ec54-4cb3-b3fb-7c6fb70a2b67","ios":"levelo://app?vid=568c26d9-ec54-4cb3-b3fb-7c6fb70a2b67"},"vehicle_type_id":"4","last_reported":1728936674,"current_range_meters":21600,"station_id":"cpo3532slgdg3j2ikp40","pricing_plan_id":"cebpf4jnsgd1na2vs0mg"},{"bike_id":"80004c0b-1888-4bc4-861c-1bb18fe1efd7","system_id":"levelo_inurba_marseille","lat":43.29548,"lon":5.42283,"is_reserved":false,"is_disabled":false,"rental_uris":{"android":"levelo://app?vid=80004c0b-1888-4bc4-861c-1bb18fe1efd7","ios":"levelo://app?vid=80004c0b-1888-4bc4-861c-1bb18fe1efd7"},"vehicle_type_id":"4","last_reported":1728936674,"current_range_meters":38800,"station_id":"ce4bhph2rcd13ifvqhdg","pricing_plan_id":"cebpf4jnsgd1na2vs0mg"},{"bike_id":"1fb7a0ce-7273-4298-9046-691a2796121e","system_id":"levelo_inurba_marseille","lat":43.316859,"lon":5.404671,"is_reserved":false,"is_disabled":false,"rental_uris":{"android":"levelo://app?vid=1fb7a0ce-7273-4298-9046-691a2796121e","ios":"levelo://app?vid=1fb7a0ce-7273-4298-9046-691a2796121e"},"vehicle_type_id":"4","last_reported":1728936674,"current_range_meters":8400,"station_id":"ce4bh012rcd13ifvqd00","pricing_plan_id":"cebpf4jnsgd1na2vs0mg"},{"bike_id":"6514b9a6-8e99-464e-be55-93af0d95018a","system_id":"levelo_inurba_marseille","lat":43.2586,"lon":5.39903,"is_reserved":false,"is_disabled":false,"rental_uris":{"android":"levelo://app?vid=6514b9a6-8e99-464e-be55-93af0d95018a","ios":"levelo://app?vid=6514b9a6-8e99-464e-be55-93af0d95018a"},"vehicle_type_id":"4","last_reported":1728936674,"current_range_meters":24400,"station_id":"ce4bhl92rcd13ifvqghg","pricing_plan_id":"cebpf4jnsgd1na2vs0mg"},{"bike_id":"ae9b16fd-48f0-4328-a0f5-df7780625e01","system_id":"levelo_inurba_marseille","lat":43.2706,"lon":5.40264,"is_reserved":false,"is_disabled":false,"rental_uris":{"android":"levelo://app?vid=ae9b16fd-48f0-4328-a0f5-df7780625e01","ios":"levelo://app?vid=ae9b16fd-48f0-4328-a0f5-df7780625e01"},"vehicle_type_id":"4","last_reported":1728936674,"current_range_meters":22800,"station_id":"ce4bhk92rcd13ifvqgc0","pricing_plan_id":"cebpf4jnsgd1na2vs0mg"},{"bike_id":"b2010510-dd63-41d3-8b90-2e846603a936","system_id":"levelo_inurba_marseille","lat":43.29151,"lon":5.38295,"is_reserved":false,"is_disabled":false,"rental_uris":{"android":"levelo://app?vid=b2010510-dd63-41d3-8b90-2e846603a936","ios":"levelo://app?vid=b2010510-dd63-41d3-8b90-2e846603a936"},"vehicle_type_id":"4","last_reported":1728936674,"current_range_meters":38000,"station_id":"ce4bgqh2rcd13ifvqc4g","pricing_plan_id":"cebpf4jnsgd1na2vs0mg"},{"bike_id":"f6626015-e450-4c3f-9833-1201f357d67e","system_id":"levelo_inurba_marseille","lat":43.24805,"lon":5.37455,"is_reserved":false,"is_disabled":false,"rental_uris":{"android":"levelo://app?vid=f6626015-e450-4c3f-9833-1201f357d67e","ios":"levelo://app?vid=f6626015-e450-4c3f-9833-1201f357d67e"},"vehicle_type_id":"4","last_reported":1728936674,"current_range_meters":35600,"station_id":"ce4bhgh2rcd13ifvqfb0","pricing_plan_id":"cebpf4jnsgd1na2vs0mg"},{"bike_id":"5999a0ca-8866-4f3f-814e-4c6f25dc5bfe","system_id":"levelo_inurba_marseille","lat":43.27319,"lon":5.39093,"is_reserved":false,"is_disabled":false,"rental_uris":{"android":"levelo://app?vid=5999a0ca-8866-4f3f-814e-4c6f25dc5bfe","ios":"levelo://app?vid=5999a0ca-8866-4f3f-814e-4c6f25dc5bfe"},"vehicle_type_id":"4","last_reported":1728936674,"current_range_meters":24800,"station_id":"ce4bhgp2rcd13ifvqfe0","pricing_plan_id":"cebpf4jnsgd1na2vs0mg"},{"bike_id":"04db13e5-15de-4328-8e82-610f4fe6069f","system_id":"levelo_inurba_marseille","lat":43.28352,"lon":5.38103,"is_reserved":false,"is_disabled":false,"rental_uris":{"android":"levelo://app?vid=04db13e5-15de-4328-8e82-610f4fe6069f","ios":"levelo://app?vid=04db13e5-15de-4328-8e82-610f4fe6069f"},"vehicle_type_id":"4","last_reported":1728936674,"current_range_meters":19600,"station_id":"ce4bh412rcd13ifvqdr0","pricing_plan_id":"cebpf4jnsgd1na2vs0mg"},{"bike_id":"24da4e31-e90f-4b53-8020-13d1f2074222","system_id":"levelo_inurba_marseille","lat":43.31074,"lon":5.38354,"is_reserved":false,"is_disabled":false,"rental_uris":{"android":"levelo://app?vid=24da4e31-e90f-4b53-8020-13d1f2074222","ios":"levelo://app?vid=24da4e31-e90f-4b53-8020-13d1f2074222"},"vehicle_type_id":"4","last_reported":1728936674,"current_range_meters":32400,"station_id":"ce4bgv92rcd13ifvqcr0","pricing_plan_id":"cebpf4jnsgd1na2vs0mg"},{"bike_id":"55dd8029-2b99-4612-b130-3b07d2bd9ade","system_id":"levelo_inurba_marseille","lat":43.2902,"lon":5.38132,"is_reserved":false,"is_disabled":false,"rental_uris":{"android":"levelo://app?vid=55dd8029-2b99-4612-b130-3b07d2bd9ade","ios":"levelo://app?vid=55dd8029-2b99-4612-b130-3b07d2bd9ade"},"vehicle_type_id":"4","last_reported":1728936674,"current_range_meters":38800,"station_id":"ce4bh4p2rcd13ifvqe1g","pricing_plan_id":"cebpf4jnsgd1na2vs0mg"},{"bike_id":"f269126c-1b0b-4a1a-a1d6-f8c3716f5336","system_id":"levelo_inurba_marseille","lat":43.23196,"lon":5.35552,"is_reserved":false,"is_disabled":false,"rental_uris":{"android":"levelo://app?vid=f269126c-1b0b-4a1a-a1d6-f8c3716f5336","ios":"levelo://app?vid=f269126c-1b0b-4a1a-a1d6-f8c3716f5336"},"vehicle_type_id":"4","last_reported":1728936674,"current_range_meters":36400,"station_id":"ce4bhu92rcd13ifvqi70","pricing_plan_id":"cebpf4jnsgd1na2vs0mg"},{"bike_id":"e4d6fdca-f6a4-4199-b205-8b46ac82b750","system_id":"levelo_inurba_marseille","lat":43.28922,"lon":5.38395,"is_reserved":false,"is_disabled":false,"rental_uris":{"android":"levelo://app?vid=e4d6fdca-f6a4-4199-b205-8b46ac82b750","ios":"levelo://app?vid=e4d6fdca-f6a4-4199-b205-8b46ac82b750"},"vehicle_type_id":"4","last_reported":1728936674,"current_range_meters":21600,"station_id":"ce4bh612rcd13ifvqe6g","pricing_plan_id":"cebpf4jnsgd1na2vs0mg"},{"bike_id":"bc05b9d8-9a63-4a0d-8460-a6af2f7d865b","system_id":"levelo_inurba_marseille","lat":43.29035,"lon":5.35911,"is_reserved":false,"is_disabled":false,"rental_uris":{"android":"levelo://app?vid=bc05b9d8-9a63-4a0d-8460-a6af2f7d865b","ios":"levelo://app?vid=bc05b9d8-9a63-4a0d-8460-a6af2f7d865b"},"vehicle_type_id":"4","last_reported":1728936674,"current_range_meters":28400,"station_id":"ce4bha92rcd13ifvqeg0","pricing_plan_id":"cebpf4jnsgd1na2vs0mg"},{"bike_id":"206337a7-d6c1-42aa-8425-762634b39d82","system_id":"levelo_inurba_marseille","lat":43.34138,"lon":5.40901,"is_reserved":false,"is_disabled":false,"rental_uris":{"android":"levelo://app?vid=206337a7-d6c1-42aa-8425-762634b39d82","ios":"levelo://app?vid=206337a7-d6c1-42aa-8425-762634b39d82"},"vehicle_type_id":"4","last_reported":1728936674,"current_range_meters":37600,"station_id":"ce4bhqh2rcd13ifvqhlg","pricing_plan_id":"cebpf4jnsgd1na2vs0mg"},{"bike_id":"69c89ccb-175a-40d8-859c-b8dbd67d14df","system_id":"levelo_inurba_marseille","lat":43.29896,"lon":5.4366,"is_reserved":false,"is_disabled":false,"rental_uris":{"android":"levelo://app?vid=69c89ccb-175a-40d8-859c-b8dbd67d14df","ios":"levelo://app?vid=69c89ccb-175a-40d8-859c-b8dbd67d14df"},"vehicle_type_id":"4","last_reported":1728936674,"current_range_meters":19200,"station_id":"ce4bhpp2rcd13ifvqhfg","pricing_plan_id":"cebpf4jnsgd1na2vs0mg"},