{"last_updated":1723381787,"ttl":30,"version":"2.2","data":{"bikes":[{"bike_id":"7b2822fc-d303-4723-a08e-1fb9488d8b1c","system_id":"levelo_inurba_marseille","lat":43.313391,"lon":5.36706,"is_reserved":false,"is_disabled":false,"rental_uris":{"android":"levelo://app?vid=7b2822fc-d303-4723-a08e-1fb9488d8b1c","ios":"levelo://app?vid=7b2822fc-d303-4723-a08e-1fb9488d8b1c"},"vehicle_type_id":"4","last_reported":1723381787,"current_range_meters":8000,"station_id":"ce4bgr92rcd13ifvqc6g","pricing_plan_id":"cebpf4jnsgd1na2vs0mg"},{"bike_id":"199b63d0-f531-4cad-ae95-ecd76c9d89d7","system_id":"levelo_inurba_marseille","lat":43.312239,"lon":5.368562,"is_reserved":false,"is_disabled":false,"rental_uris":{"android":"levelo://app?vid=199b63d0-f531-4cad-ae95-ecd76c9d89d7","ios":"levelo://app?vid=199b63d0-f531-4cad-ae95-ecd76c9d89d7"},"vehicle_type_id":"4","last_reported":1723381787,"current_range_meters":5600,"station_id":"ce4bgl92rcd13ifvqbq0","pricing_plan_id":"cebpf4jnsgd1na2vs0mg"},{"bike_id":"2cc4610e-26b0-454c-8f9e-6a87ac4bc7f3","system_id":"levelo_inurba_marseille","lat":43.312239,"lon":5.368562,"is_reserved":false,"is_disabled":false,"rental_uris":{"android":"levelo://app?vid=2cc4610e-26b0-454c-8f9e-6a87ac4bc7f3","ios":"levelo://app?vid=2cc4610e-26b0-454c-8f9e-6a87ac4bc7f3"},"vehicle_type_id":"4","last_reported":1723381787,"current_range_meters":2800,"station_id":"ce4bgl92rcd13ifvqbq0","pricing_plan_id":"cebpf4jnsgd1na2vs0mg"},{"bike_id":"03a81a6b-cd3d-4872-8f5d-fc3546580f39","system_id":"levelo_inurba_marseille","lat":43.314811,"lon":5.373103,"is_reserved":false,"is_disabled":false,"rental_uris":{"android":"levelo://app?vid=03a81a6b-cd3d-4872-8f5d-fc3546580f39","ios":"levelo://app?vid=03a81a6b-cd3d-4872-8f5d-fc3546580f39"},"vehicle_type_id":"4","last_reported":1723381787,"current_range_meters":22000,"station_id":"ce4bgt12rcd13ifvqcd0","pricing_plan_id":"cebpf4jnsgd1na2vs0mg"},{"bike_id":"5ab3f5a1-56ad-4744-bca1-7c7ffbe3c823","system_id":"levelo_inurba_marseille","lat":43.314811,"lon":5.373103,"is_reserved":false,"is_disabled":false,"rental_uris":{"android":"levelo://app?vid=5ab3f5a1-56ad-4744-bca1-7c7ffbe3c823","ios":"levelo://app?vid=5ab3f5a1-56ad-4744-bca1-7c7ffbe3c823"},"vehicle_type_id":"4","last_reported":1723381787,"current_range_meters":13200,"station_id":"ce4bgt12rcd13ifvqcd0","pricing_plan_id":"cebpf4jnsgd1na2vs0mg"},{"bike_id":"034615bd-8c24-4018-b96c-ca28097057f6","system_id":"levelo_inurba_marseille","lat":43.314811,"lon":5.373103,"is_reserved":false,"is_disabled":false,"rental_uris":{"android":"levelo://app?vid=034615bd-8c24-4018-b96c-ca28097057f6","ios":"levelo://app?vid=034615bd-8c24-4018-b96c-ca28097057f6"},"vehicle_type_id":"4","last_reported":1723381787,"current_range_meters":29600,"station_id":"ce4bgt12rcd13ifvqcd0","pricing_plan_id":"cebpf4jnsgd1na2vs0mg"},{"bike_id":"34a5c2cf-957a-4daa-93b2-59fbfd61cecb","system_id":"levelo_inurba_marseille","lat":43.314811,"lon":5.373104,"is_reserved":false,"is_disabled":false,"rental_uris":{"android":"levelo://app?vid=34a5c2cf-957a-4daa-93b2-59fbfd61cecb","ios":"levelo://app?vid=34a5c2cf-957a-4daa-93b2-59fbfd61cecb"},"vehicle_type_id":"4","last_reported":1723381787,"current_range_meters":16800,"station_id":"ce4bgt12rcd13ifvqcd0","pricing_plan_id":"cebpf4jnsgd1na2vs0mg"},{"bike_id":"245972cf-9e43-413e-b5a8-a55f3128a91d","system_id":"levelo_inurba_marseille","lat":43.309039,"lon":5.371797,"is_reserved":false,"is_disabled":false,"rental_uris":{"android":"levelo://app?vid=245972cf-9e43-413e-b5a8-a55f3128a91d","ios":"levelo://app?vid=245972cf-9e43-413e-b5a8-a55f3128a91d"},"vehicle_type_id":"4","last_reported":1723381787,"current_range_meters":10400,"station_id":"ce4bguh2rcd13ifvqckg","pricing_plan_id":"cebpf4jnsgd1na2vs0mg"},{"bike_id":"0a0d1504-0816-45d1-a14b-7aedf3610e22","system_id":"levelo_inurba_marseille","lat":43.3145,"lon":5.37374,"is_reserved":false,"is_disabled":false,"rental_uris":{"android":"levelo://app?vid=0a0d1504-0816-45d1-a14b-7aedf3610e22","ios":"levelo://app?vid=0a0d1504-0816-45d1-a14b-7aedf3610e22"},"vehicle_type_id":"4","last_reported":1723381787,"current_range_meters":6400,"station_id":"","pricing_plan_id":"cebpf4jnsgd1na2vs0mg"},{"bike_id":"0a7a4cad-eba6-4da1-9cbf-52604b7b0f18","system_id":"levelo_inurba_marseille","lat":43.309039,"lon":5.371797,"is_reserved":false,"is_disabled":false,"rental_uris":{"android":"levelo://app?vid=0a7a4cad-eba6-4da1-9cbf-52604b7b0f18","ios":"levelo://app?vid=0a7a4cad-eba6-4da1-9cbf-52604b7b0f18"},"vehicle_type_id":"4","last_reported":1723381787,"current_range_meters":29600,"station_id":"ce4bguh2rcd13ifvqckg","pricing_plan_id":"cebpf4jnsgd1na2vs0mg"},{"bike_id":"a96f00f3-df5a-4dca-a817-8cc6f5e2b4eb","system_id":"levelo_inurba_marseille","lat":43.309039,"lon":5.371797,"is_reserved":false,"is_disabled":false,"rental_uris":{"android":"levelo://app?vid=a96f00f3-df5a-4dca-a817-8cc6f5e2b4eb","ios":"levelo://app?vid=a96f00f3-df5a-4dca-a817-8cc6f5e2b4eb"},"vehicle_type_id":"4","last_reported":1723381787,"current_range_meters":19600,"station_id":"ce4bguh2rcd13ifvqckg","pricing_plan_id":"cebpf4jnsgd1na2vs0mg"},{"bike_id":"570686ca-7aa5-4758-8d86-401ec870c875","system_id":"levelo_inurba_marseille","lat":43.309039,"lon":5.371797,"is_reserved":false,"is_disabled":false,"rental_uris":{"android":"levelo://app?vid=570686ca-7aa5-4758-8d86-401ec870c875","ios":"levelo://app?vid=570686ca-7aa5-4758-8d86-401ec870c875"},"vehicle_type_id":"4","last_reported":1723381787,"current_range_meters":18400,"station_id":"ce4bguh2rcd13ifvqckg","pricing_plan_id":"cebpf4jnsgd1na2vs0mg"},{"bike_id":"75a6d855-95b9-4510-a633-4e3a2fbb767c","system_id":"levelo_inurba_marseille","lat":43.30547,"lon":5.36554,"is_reserved":false,"is_disabled":false,"rental_uris":{"android":"levelo://app?vid=75a6d855-95b9-4510-a633-4e3a2fbb767c","ios":"levelo://app?vid=75a6d855-95b9-4510-a633-4e3a2fbb767c"},"vehicle_type_id":"4","last_reported":1723381787,"current_range_meters":800,"station_id":"ce4bgs12rcd13ifvqcag","pricing_plan_id":"cebpf4jnsgd1na2vs0mg"},{"bike_id":"9cb1b35d-4c60-44e7-9b70-f8e918507c16","system_id":"levelo_inurba_marseille","lat":43.305368,"lon":5.367343,"is_reserved":false,"is_disabled":false,"rental_uris":{"android":"levelo://app?vid=9cb1b35d-4c60-44e7-9b70-f8e918507c16","ios":"levelo://app?vid=9cb1b35d-4c60-44e7-9b70-f8e918507c16"},"vehicle_type_id":"4","last_reported":1723381787,"current_range_meters":2000,"station_id":"ce4bgrp2rcd13ifvqc9g","pricing_plan_id":"cebpf4jnsgd1na2vs0mg"},{"bike_id":"30e0934b-38bf-412d-b304-1249a15bcaff","system_id":"levelo_inurba_marseille","lat":43.305387,"lon":5.36552,"is_reserved":false,"is_disabled":false,"rental_uris":{"android":"levelo://app?vid=30e0934b-38bf-412d-b304-1249a15bcaff","ios":"levelo://app?vid=30e0934b-38bf-412d-b304-1249a15bcaff"},"vehicle_type_id":"4","last_reported":1723381787,"current_range_meters":21200,"station_id":"ce4bgs12rcd13ifvqcag","pricing_plan_id":"cebpf4jnsgd1na2vs0mg"},{"bike_id":"e4fbb306-8e6a-4919-ae66-9ca4489eaa61","system_id":"levelo_inurba_marseille","lat":43.305706,"lon":5.365654,"is_reserved":false,"is_disabled":false,"rental_uris":{"android":"levelo://app?vid=e4fbb306-8e6a-4919-ae66-9ca4489eaa61","ios":"levelo://app?vid=e4fbb306-8e6a-4919-ae66-9ca4489eaa61"},"vehicle_type_id":"4","last_reported":1723381787,"current_range_meters":18400,"station_id":"ce4bgs12rcd13ifvqcag","pricing_plan_id":"cebpf4jnsgd1na2vs0mg"},{"bike_id":"0e83acb6-22c1-437a-a816-ccd3ab31219d","system_id":"levelo_inurba_marseille","lat":43.305706,"lon":5.365654,"is_reserved":false,"is_disabled":false,"rental_uris":{"android":"levelo://app?vid=0e83acb6-22c1-437a-a816-ccd3ab31219d","ios":"levelo://app?vid=0e83acb6-22c1-437a-a816-ccd3ab31219d"},"vehicle_type_id":"4","last_reported":1723381787,"current_range_meters":32000,"station_id":"ce4bgs12rcd13ifvqcag","pricing_plan_id":"cebpf4jnsgd1na2vs0mg"},{"bike_id":"1c3992cc-dea5-4fa4-b64f-663745fcb92e","system_id":"levelo_inurba_marseille","lat":43.305706,"lon":5.365654,"is_reserved":false,"is_disabled":false,"rental_uris":{"android":"levelo://app?vid=1c3992cc-dea5-4fa4-b64f-663745fcb92e","ios":"levelo://app?vid=1c3992cc-dea5-4fa4-b64f-663745fcb92e"},"vehicle_type_id":"4","last_reported":1723381787,"current_range_meters":16000,"station_id":"ce4bgs12rcd13ifvqcag","pricing_plan_id":"cebpf4jnsgd1na2vs0mg"},{"bike_id":"b0e070fc-fe07-49f1-be51-e86741f34330","system_id":"levelo_inurba_marseille","lat":43.305714,"lon":5.365633,"is_reserved":false,"is_disabled":false,"rental_uris":{"android":"levelo://app?vid=b0e070fc-fe07-49f1-be51-e86741f34330","ios":"levelo://app?vid=b0e070fc-fe07-49f1-be51-e86741f34330"},"vehicle_type_id":"4","last_reported":1723381787,"current_range_meters":19600,"station_id":"ce4bgs12rcd13ifvqcag","pricing_plan_id":"cebpf4jnsgd1na2vs0mg"},{"bike_id":"7986e019-3541-425e-8da1-2067c65221b6","system_id":"levelo_inurba_marseille","lat":43.305706,"lon":5.365654,"is_reserved":false,"is_disabled":false,"rental_uris":{"android":"levelo://app?vid=7986e019-3541-425e-8da1-2067c65221b6","ios":"levelo://app?vid=7986e019-3541-425e-8da1-2067c65221b6"},"vehicle_type_id":"4","last_reported":1723381787,"current_range_meters":14400,"station_id":"ce4bgs12rcd13ifvqcag","pricing_plan_id":"cebpf4jnsgd1na2vs0mg"},{"bike_id":"a3046e46-ff92-41bd-9730-3b3e5d7c2a02","system_id":"levelo_inurba_marseille","lat":43.305706,"lon":5.365654,"is_reserved":false,"is_disabled":false,"rental_uris":{"android":"levelo://app?vid=a3046e46-ff92-41bd-9730-3b3e5d7c2a02","ios":"levelo://app?vid=a3046e46-ff92-41bd-9730-3b3e5d7c2a02"},"vehicle_type_id":"4","last_reported":1723381787,"current_range_meters":17200,"station_id":"ce4bgs12rcd13ifvqcag","pricing_plan_id":"cebpf4jnsgd1na2vs0mg"},{"bike_id":"0b734ed8-9e10-460c-b6d0-12029dc62820","system_id":"levelo_inurba_marseille","lat":43.305706,"lon":5.365654,"is_reserved":false,"is_disabled":false,"rental_uris":{"android":"levelo://app?vid=0b734ed8-9e10-460c-b6d0-12029dc62820","ios":"levelo://app?vid=0b734ed8-9e10-460c-b6d0-12029dc62820"},"vehicle_type_id":"4","last_reported":1723381787,"current_range_meters":17600,"station_id":"ce4bgs12rcd13ifvqcag","pricing_plan_id":"cebpf4jnsgd1na2vs0mg"},{"bike_id":"2d79ef6d-297c-4dcc-94b8-7cfde09b6da1","system_id":"levelo_inurba_marseille","lat":43.305714,"lon":5.365633,"is_reserved":false,"is_disabled":false,"rental_uris":{"android":"levelo://app?vid=2d79ef6d-297c-4dcc-94b8-7cfde09b6da1","ios":"levelo://app?vid=2d79ef6d-297c-4dcc-94b8-7cfde09b6da1"},"vehicle_type_id":"4","last_reported":1723381787,"current_range_meters":19200,"station_id":"ce4bgs12rcd13ifvqcag","pricing_plan_id":"cebpf4jnsgd1na2vs0mg"},{"bike_id":"5f500dd6-fa60-431c-9aa8-914bb9daf1fb","system_id":"levelo_inurba_marseille","lat":43.305989,"lon":5.37225,"is_reserved":false,"is_disabled":false,"rental_uris":{"android":"levelo://app?vid=5f500dd6-fa60-431c-9aa8-914bb9daf1fb","ios":"levelo://app?vid=5f500dd6-fa60-431c-9aa8-914bb9daf1fb"},"vehicle_type_id":"4","last_reported":1723381787,"current_range_meters":3600,"station_id":"ce4bgqh2rcd13ifvqc4g","pricing_plan_id":"cebpf4jnsgd1na2vs0mg"},{"bike_id":"b62b34e4-9656-4ce9-9e10-09484d0fae89","system_id":"levelo_inurba_marseille","lat":43.305989,"lon":5.37225,"is_reserved":false,"is_disabled":false,"rental_uris":{"android":"levelo://app?vid=b62b34e4-9656-4ce9-9e10-09484d0fae89","ios":"levelo://app?vid=b62b34e4-9656-4ce9-9e10-09484d0fae89"},"vehicle_type_id":"4","last_reported":1723381787,"current_range_meters":23600,"station_id":"ce4bgqh2rcd13ifvqc4g","pricing_plan_id":"cebpf4jnsgd1na2vs0mg"},{"bike_id":"d0e8aa12-aece-42b2-bcd1-0b96f673031f","system_id":"levelo_inurba_marseille","lat":43.305989,"lon":5.37225,"is_reserved":false,"is_disabled":false,"rental_uris":{"android":"levelo://app?vid=d0e8aa12-aece-42b2-bcd1-0b96f673031f","ios":"levelo://app?vid=d0e8aa12-aece-42b2-bcd1-0b96f673031f"},"vehicle_type_id":"4","last_reported":1723381787,"current_range_meters":20400,"station_id":"ce4bgqh2rcd13ifvqc4g","pricing_plan_id":"cebpf4jnsgd1na2vs0mg"},{"bike_id":"e248e727-3277-44db-9f95-662ff07b3896","system_id":"levelo_inurba_marseille","lat":43.311125,"lon":5.377624,"is_reserved":false,"is_disabled":false,"rental_uris":{"android":"levelo://app?vid=e248e727-3277-44db-9f95-662ff07b3896","ios":"levelo://app?vid=e248e727-3277-44db-9f95-662ff07b3896"},"vehicle_type_id":"4","last_reported":1723381787,"current_range_meters":31200,"station_id":"ce4bgt92rcd13ifvqcg0","pricing_plan_id":"cebpf4jnsgd1na2vs0mg"},{"bike_id":"a3eb2fc7-4bde-4745-af81-b7087b6b7db5","system_id":"levelo_inurba_marseille","lat":43.30772,"lon":5.37662,"is_reserved":false,"is_disabled":false,"rental_uris":{"android":"levelo://app?vid=a3eb2fc7-4bde-4745-af81-b7087b6b7db5","ios":"levelo://app?vid=a3eb2fc7-4bde-4745-af81-b7087b6b7db5"},"vehicle_type_id":"4","last_reported":1723381787,"current_range_meters":31200,"station_id":"","pricing_plan_id":"cebpf4jnsgd1na2vs0mg"},{"bike_id":"f0427ece-42a1-479c-95f3-63e91234fed4","system_id":"levelo_inurba_marseille","lat":43.31248,"lon":5.37995,"is_reserved":false,"is_disabled":false,"rental_uris":{"android":"levelo://app?vid=f0427ece-42a1-479c-95f3-63e91234fed4","ios":"levelo://app?vid=f0427ece-42a1-479c-95f3-63e91234fed4"},"vehicle_type_id":"4","last_reported":1723381787,"current_range_meters":13600,"station_id":"","pricing_plan_id":"cebpf4jnsgd1na2vs0mg"},{"bike_id":"791ae837-38cf-4054-b9d8-d1b1c38d15df","system_id":"levelo_inurba_marseille","lat":43.315289,"lon":5.380349,"is_reserved":false,"is_disabled":false,"rental_uris":{"android":"levelo://app?vid=791ae837-38cf-4054-b9d8-d1b1c38d15df","ios":"levelo://app?vid=791ae837-38cf-4054-b9d8-d1b1c38d15df"},"vehicle_type_id":"4","last_reported":1723381787,"current_range_meters":8800,"station_id":"ce4bhsp2rcd13ifvqi50","pricing_plan_id":"cebpf4jnsgd1na2vs0mg"},{"bike_id":"d45bea40-a486-4637-bc45-ab3f963f68eb","system_id":"levelo_inurba_marseille","lat":43.315289,"lon":5.380349,"is_reserved":false,"is_disabled":false,"rental_uris":{"android":"levelo://app?vid=d45bea40-a486-4637-bc45-ab3f963f68eb","ios":"levelo://app?vid=d45bea40-a486-4637-bc45-ab3f963f68eb"},"vehicle_type_id":"4","last_reported":1723381787,"current_range_meters":26400,"station_id":"ce4bhsp2rcd13ifvqi50","pricing_plan_id":"cebpf4jnsgd1na2vs0mg"},{"bike_id":"b1cdf9e0-43f6-4942-988c-f8d63da1882e","system_id":"levelo_inurba_marseille","lat":43.304606,"lon":5.379026,"is_reserved":false,"is_disabled":false,"rental_uris":{"android":"levelo://app?vid=b1cdf9e0-43f6-4942-988c-f8d63da1882e","ios":"levelo://app?vid=b1cdf9e0-43f6-4942-988c-f8d63da1882e"},"vehicle_type_id":"4","last_reported":1723381787,"current_range_meters":28800,"station_id":"ce4bgup2rcd13ifvqcn0","pricing_plan_id":"cebpf4jnsgd1na2vs0mg"},{"bike_id":"5559099b-b75c-42a1-8379-93d2a40ac2ea","system_id":"levelo_inurba_marseille","lat":43.324771,"lon":5.36557,"is_reserved":false,"is_disabled":false,"rental_uris":{"android":"levelo://app?vid=5559099b-b75c-42a1-8379-93d2a40ac2ea","ios":"levelo://app?vid=5559099b-b75c-42a1-8379-93d2a40ac2ea"},"vehicle_type_id":"4","last_reported":1723381787,"current_range_meters":5600,"station_id":"ce4bhs12rcd13ifvqhvg","pricing_plan_id":"cebpf4jnsgd1na2vs0mg"},{"bike_id":"a3c741c2-052e-4da0-bfee-31ef42076999","system_id":"levelo_inurba_marseille","lat":43.324771,"lon":5.36557,"is_reserved":false,"is_disabled":false,"rental_uris":{"android":"levelo://app?vid=a3c741c2-052e-4da0-bfee-31ef42076999","ios":"levelo://app?vid=a3c741c2-052e-4da0-bfee-31ef42076999"},"vehicle_type_id":"4","last_reported":1723381787,"current_range_meters":22000,"station_id":"ce4bhs12rcd13ifvqhvg","pricing_plan_id":"cebpf4jnsgd1na2vs0mg"},{"bike_id":"fcb8a6fa-6156-4b33-80d5-0ede5b76cb5b","system_id":"levelo_inurba_marseille","lat":43.324771,"lon":5.36557,"is_reserved":false,"is_disabled":false,"rental_uris":{"android":"levelo://app?vid=fcb8a6fa-6156-4b33-80d5-0ede5b76cb5b","ios":"levelo://app?vid=fcb8a6fa-6156-4b33-80d5-0ede5b76cb5b"},"vehicle_type_id":"4","last_reported":1723381787,"current_range_meters":2400,"station_id":"ce4bhs12rcd13ifvqhvg","pricing_plan_id":"cebpf4jnsgd1na2vs0mg"},{"bike_id":"57e8995c-1fc9-4244-abcf-1bf85026f973","system_id":"levelo_inurba_marseille","lat":43.324824,"lon":5.365778,"is_reserved":false,"is_disabled":false,"rental_uris":{"android":"levelo://app?vid=57e8995c-1fc9-4244-abcf-1bf85026f973","ios":"levelo://app?vid=57e8995c-1fc9-4244-abcf-1bf85026f973"},"vehicle_type_id":"4","last_reported":1723381787,"current_range_meters":10000,"station_id":"ce4bhs12rcd13ifvqhvg","pricing_plan_id":"cebpf4jnsgd1na2vs0mg"},{"bike_id":"081007f9-31dc-4b77-b8f2-8dffedab8808","system_id":"levelo_inurba_marseille","lat":43.324771,"lon":5.36557,"is_reserved":false,"is_disabled":false,"rental_uris":{"android":"levelo://app?vid=081007f9-31dc-4b77-b8f2-8dffedab8808","ios":"levelo://app?vid=081007f9-31dc-4b77-b8f2-8dffedab8808"},"vehicle_type_id":"4","last_reported":1723381787,"current_range_meters":17200,"station_id":"ce4bhs12rcd13ifvqhvg","pricing_plan_id":"cebpf4jnsgd1na2vs0mg"},{"bike_id":"1ffad33b-bb6d-44b8-aa35-c11639d0650c","system_id":"levelo_inurba_marseille","lat":43.324771,"lon":5.36557,"is_reserved":false,"is_disabled":false,"rental_uris":{"android":"levelo://app?vid=1ffad33b-bb6d-44b8-aa35-c11639d0650c","ios":"levelo://app?vid=1ffad33b-bb6d-44b8-aa35-c11639d0650c"},"vehicle_type_id":"4","last_reported":1723381787,"current_range_meters":27200,"station_id":"ce4bhs12rcd13ifvqhvg","pricing_plan_id":"cebpf4jnsgd1na2vs0mg"},{"bike_id":"e808a47c-f1ab-49c8-9868-162ce164be9e","system_id":"levelo_inurba_marseille","lat":43.324771,"lon":5.36557,"is_reserved":false,"is_disabled":false,"rental_uris":{"android":"levelo://app?vid=e808a47c-f1ab-49c8-9868-162ce164be9e","ios":"levelo://app?vid=e808a47c-f1ab-49c8-9868-162ce164be9e"},"vehicle_type_id":"4","last_reported":1723381787,"current_range_meters":31200,"station_id":"ce4bhs12rcd13ifvqhvg","pricing_plan_id":"cebpf4jnsgd1na2vs0mg"},{"bike_id":"75a43ee6-e251-4740-af8e-bff42a826b72","system_id":"levelo_inurba_marseille","lat":43.324771,"lon":5.36557,"is_reserved":false,"is_disabled":false,"rental_uris":{"android":"levelo://app?vid=75a43ee6-e251-4740-af8e-bff42a826b72","ios":"levelo://app?vid=75a43ee6-e251-4740-af8e-bff42a826b72"},"vehicle_type_id":"4","last_reported":1723381787,"current_range_meters":7200,"station_id":"ce4bhs12rcd13ifvqhvg","pricing_plan_id":"cebpf4jnsgd1na2vs0mg"},{"bike_id":"4bf5be37-0c95-48b4-b540-09fa58a1f6ed","system_id":"levelo_inurba_marseille","lat":43.324771,"lon":5.36557,"is_reserved":false,"is_disabled":false,"rental_uris":{"android":"levelo://app?vid=4bf5be37-0c95-48b4-b540-09fa58a1f6ed","ios":"levelo://app?vid=4bf5be37-0c95-48b4-b540-09fa58a1f6ed"},"vehicle_type_id":"4","last_reported":1723381787,"current_range_meters":28800,"station_id":"ce4bhs12rcd13ifvqhvg","pricing_plan_id":"cebpf4jnsgd1na2vs0mg"},{"bike_id":"e5000063-db07-4064-adf1-e6b77f0e18ee","system_id":"levelo_inurba_marseille","lat":43.324771,"lon":5.36557,"is_reserved":false,"is_disabled":false,"rental_uris":{"android":"levelo://app?vid=e5000063-db07-4064-adf1-e6b77f0e18ee","ios":"levelo://app?vid=e5000063-db07-4064-adf1-e6b77f0e18ee"},"vehicle_type_id":"4","last_reported":1723381787,"current_range_meters":31600,"station_id":"ce4bhs12rcd13ifvqhvg","pricing_plan_id":"cebpf4jnsgd1na2vs0mg"},{"bike_id":"ace94ede-ceef-4bfb-a31b-760bf3dff518","system_id":"levelo_inurba_marseille","lat":43.324845,"lon":5.365563,"is_reserved":false,"is_disabled":false,"rental_uris":{"android":"levelo://app?vid=ace94ede-ceef-4bfb-a31b-760bf3dff518","ios":"levelo://app?vid=ace94ede-ceef-4bfb-a31b-760bf3dff518"},"vehicle_type_id":"4","last_reported":1723381787,"current_range_meters":10800,"station_id":"ce4bhs12rcd13ifvqhvg","pricing_plan_id":"cebpf4jnsgd1na2vs0mg"},{"bike_id":"19361ee9-48d5-412d-ac99-d0c97d7bccb4","system_id":"levelo_inurba_marseille","lat":43.32486,"lon":5.36562,"is_reserved":false,"is_disabled":false,"rental_uris":{"android":"levelo://app?vid=19361ee9-48d5-412d-ac99-d0c97d7bccb4","ios":"levelo://app?vid=19361ee9-48d5-412d-ac99-d0c97d7bccb4"},"vehicle_type_id":"4","last_reported":1723381787,"current_range_meters":24800,"station_id":"ce4bhs12rcd13ifvqhvg","pricing_plan_id":"cebpf4jnsgd1na2vs0mg"},{"bike_id":"215f455d-9f3f-4115-9c69-061f44aeac88","system_id":"levelo_inurba_marseille","lat":43.324771,"lon":5.36557,"is_reserved":false,"is_disabled":false,"rental_uris":{"android":"levelo://app?vid=215f455d-9f3f-4115-9c69-061f44aeac88","ios":"levelo://app?vid=215f455d-9f3f-4115-9c69-061f44aeac88"},"vehicle_type_id":"4","last_reported":1723381787,"current_range_meters":23600,"station_id":"ce4bhs12rcd13ifvqhvg","pricing_plan_id":"cebpf4jnsgd1na2vs0mg"},{"bike_id":"5fc0d868-3327-4e5f-a8aa-7409c11b9642","system_id":"levelo_inurba_marseille","lat":43.310804,"lon":5.38359,"is_reserved":false,"is_disabled":false,"rental_uris":{"android":"levelo://app?vid=5fc0d868-3327-4e5f-a8aa-7409c11b9642","ios":"levelo://app?vid=5fc0d868-3327-4e5f-a8aa-7409c11b9642"},"vehicle_type_id":"4","last_reported":1723381787,"current_range_meters":5600,"station_id":"ce4bgv92rcd13ifvqcr0","pricing_plan_id":"cebpf4jnsgd1na2vs0mg"},{"bike_id":"2470ea96-18cd-4ac8-8e07-62e6d8655a10","system_id":"levelo_inurba_marseille","lat":43.310804,"lon":5.38359,"is_reserved":false,"is_disabled":false,"rental_uris":{"android":"levelo://app?vid=2470ea96-18cd-4ac8-8e07-62e6d8655a10","ios":"levelo://app?vid=2470ea96-18cd-4ac8-8e07-62e6d8655a10"},"vehicle_type_id":"4","last_reported":1723381787,"current_range_meters":19600,"station_id":"ce4bgv92rcd13ifvqcr0","pricing_plan_id":"cebpf4jnsgd1na2vs0mg"},{"bike_id":"7eb59b7e-1c86-4471-ac54-19f9c09b6982","system_id":"levelo_inurba_marseille","lat":43.30284,"lon":5.37702,"is_reserved":false,"is_disabled":false,"rental_uris":{"android":"levelo://app?vid=7eb59b7e-1c86-4471-ac54-19f9c09b6982","ios":"levelo://app?vid=7eb59b7e-1c86-4471-ac54-19f9c09b6982"},"vehicle_type_id":"4","last_reported":1723381787,"current_range_meters":31200,"station_id":"ce4bguh2rcd13ifvqcj0","pricing_plan_id":"cebpf4jnsgd1na2vs0mg"},{"bike_id":"5185cd0f-0564-4338-846c-ea22dab447ea","system_id":"levelo_inurba_marseille","lat":43.301429,"lon":5.37413,"is_reserved":false,"is_disabled":false,"rental_uris":{"android":"levelo://app?vid=5185cd0f-0564-4338-846c-ea22dab447ea","ios":"levelo://app?vid=5185cd0f-0564-4338-846c-ea22dab447ea"},"vehicle_type_id":"4","last_reported":1723381787,"current_range_meters":2800,"station_id":"ce4bgs92rcd13ifvqcc0","pricing_plan_id":"cebpf4jnsgd1na2vs0mg"},{"bike_id":"f6eea011-7f7d-4856-bde3-e11ba87ec3ae","system_id":"levelo_inurba_marseille","lat":43.301429,"lon":5.37413,"is_reserved":false,"is_disabled":false,"rental_uris":{"android":"levelo://app?vid=f6eea011-7f7d-4856-bde3-e11ba87ec3ae","ios":"levelo://app?vid=f6eea011-7f7d-4856-bde3-e11ba87ec3ae"},"vehicle_type_id":"4","last_reported":1723381787,"current_range_meters":0,"station_id":"ce4bgs92rcd13ifvqcc0","pricing_plan_id":"cebpf4jnsgd1na2vs0mg"},{"bike_id":"aeadd2bb-a707-490a-b3e7-3783fdf2747c","system_id":"levelo_inurba_marseille","lat":43.30143,"lon":5.37413,"is_reserved":false,"is_disabled":false,"rental_uris":{"android":"levelo://app?vid=aeadd2bb-a707-490a-b3e7-3783fdf2747c","ios":"levelo://app?vid=aeadd2bb-a707-490a-b3e7-3783fdf2747c"},"vehicle_type_id":"4","last_reported":1723381787,"current_range_meters":0,"station_id":"ce4bgs92rcd13ifvqcc0","pricing_plan_id":"cebpf4jnsgd1na2vs0mg"},{"bike_id":"7976ce96-c818-4aba-8874-77f6dc726cad","system_id":"levelo_inurba_marseille","lat":43.30143,"lon":5.37413,"is_reserved":false,"is_disabled":false,"rental_uris":{"android":"levelo://app?vid=7976ce96-c818-4aba-8874-77f6dc726cad","ios":"levelo://app?vid=7976ce96-c818-4aba-8874-77f6dc726cad"},"vehicle_type_id":"4","last_reported":1723381787,"current_range_meters":24400,"station_id":"ce4bgs92rcd13ifvqcc0","pricing_plan_id":"cebpf4jnsgd1na2vs0mg"},{"bike_id":"210acbf1-2c7b-4bfa-a723-7e91ac1093ae","system_id":"levelo_inurba_marseille","lat":43.301429,"lon":5.37413,"is_reserved":false,"is_disabled":false,"rental_uris":{"android":"levelo://app?vid=210acbf1-2c7b-4bfa-a723-7e91ac1093ae","ios":"levelo://app?vid=210acbf1-2c7b-4bfa-a723-7e91ac1093ae"},"vehicle_type_id":"4","last_reported":1723381787,"current_range_meters":20000,"station_id":"ce4bgs92rcd13ifvqcc0","pricing_plan_id":"cebpf4jnsgd1na2vs0mg"},{"bike_id":"057ccf9f-39fa-445b-aa8c-1553727eb8e1","system_id":"levelo_inurba_marseille","lat":43.319959,"lon":5.381501,"is_reserved":false,"is_disabled":false,"rental_uris":{"android":"levelo://app?vid=057ccf9f-39fa-445b-aa8c-1553727eb8e1","ios":"levelo://app?vid=057ccf9f-39fa-445b-aa8c-1553727eb8e1"},"vehicle_type_id":"4","last_reported":1723381787,"current_range_meters":30400,"station_id":"ce4bhr12rcd13ifvqhpg","pricing_plan_id":"cebpf4jnsgd1na2vs0mg"},{"bike_id":"ff39d0c8-ba61-4ae1-abef-c721ee1fd9c8","system_id":"levelo_inurba_marseille","lat":43.313977,"lon":5.384624,"is_reserved":false,"is_disabled":false,"rental_uris":{"android":"levelo://app?vid=ff39d0c8-ba61-4ae1-abef-c721ee1fd9c8","ios":"levelo://app?vid=ff39d0c8-ba61-4ae1-abef-c721ee1fd9c8"},"vehicle_type_id":"4","last_reported":1723381787,"current_range_meters":8800,"station_id":"ce4bgt92rcd13ifvqcf0","pricing_plan_id":"cebpf4jnsgd1na2vs0mg"},{"bike_id":"a2b3897f-2435-48c6-a187-3ed391985a2e","system_id":"levelo_inurba_marseille","lat":43.313571,"lon":5.384829,"is_reserved":false,"is_disabled":false,"rental_uris":{"android":"levelo://app?vid=a2b3897f-2435-48c6-a187-3ed391985a2e","ios":"levelo://app?vid=a2b3897f-2435-48c6-a187-3ed391985a2e"},"vehicle_type_id":"4","last_reported":1723381787,"current_range_meters":12400,"station_id":"ce4bgt92rcd13ifvqcf0","pricing_plan_id":"cebpf4jnsgd1na2vs0mg"},{"bike_id":"528d743e-8f25-4e3e-92d7-d5aa2189a900","system_id":"levelo_inurba_marseille","lat":43.299222,"lon":5.365554,"is_reserved":false,"is_disabled":false,"rental_uris":{"android":"levelo://app?vid=528d743e-8f25-4e3e-92d7-d5aa2189a900","ios":"levelo://app?vid=528d743e-8f25-4e3e-92d7-d5aa2189a900"},"vehicle_type_id":"4","last_reported":1723381787,"current_range_meters":30000,"station_id":"ce4bgm92rcd13ifvqbr0","pricing_plan_id":"cebpf4jnsgd1na2vs0mg"},{"bike_id":"bd58ae18-981c-4a11-be2f-d3389651aab5","system_id":"levelo_inurba_marseille","lat":43.299724,"lon":5.371829,"is_reserved":false,"is_disabled":false,"rental_uris":{"android":"levelo://app?vid=bd58ae18-981c-4a11-be2f-d3389651aab5","ios":"levelo://app?vid=bd58ae18-981c-4a11-be2f-d3389651aab5"},"vehicle_type_id":"4","last_reported":1723381787,"current_range_meters":18400,"station_id":"ce4bgr92rcd13ifvqc7g","pricing_plan_id":"cebpf4jnsgd1na2vs0mg"},{"bike_id":"87cff13a-d627-441e-9f8c-656c66c7ad58","system_id":"levelo_inurba_marseille","lat":43.298433,"lon":5.362774,"is_reserved":false,"is_disabled":false,"rental_uris":{"android":"levelo://app?vid=87cff13a-d627-441e-9f8c-656c66c7ad58","ios":"levelo://app?vid=87cff13a-d627-441e-9f8c-656c66c7ad58"},"vehicle_type_id":"4","last_reported":1723381787,"current_range_meters":6000,"station_id":"ce4bgpp2rcd13ifvqc3g","pricing_plan_id":"cebpf4jnsgd1na2vs0mg"},{"bike_id":"c8b2ba9d-ebf1-45fa-8e77-34feb1ca03c5","system_id":"levelo_inurba_marseille","lat":43.298433,"lon":5.362774,"is_reserved":false,"is_disabled":false,"rental_uris":{"android":"levelo://app?vid=c8b2ba9d-ebf1-45fa-8e77-34feb1ca03c5","ios":"levelo://app?vid=c8b2ba9d-ebf1-45fa-8e77-34feb1ca03c5"},"vehicle_type_id":"4","last_reported":1723381787,"current_range_meters":30400,"station_id":"ce4bgpp2rcd13ifvqc3g","pricing_plan_id":"cebpf4jnsgd1na2vs0mg"},{"bike_id":"3e790d6e-b011-4480-960e-66b7e264e2d2","system_id":"levelo_inurba_marseille","lat":43.298433,"lon":5.362774,"is_reserved":false,"is_disabled":false,"rental_uris":{"android":"levelo://app?vid=3e790d6e-b011-4480-960e-66b7e264e2d2","ios":"levelo://app?vid=3e790d6e-b011-4480-960e-66b7e264e2d2"},"vehicle_type_id":"4","last_reported":1723381787,"current_range_meters":25200,"station_id":"ce4bgpp2rcd13ifvqc3g","pricing_plan_id":"cebpf4jnsgd1na2vs0mg"},{"bike_id":"780ea3e5-038b-4b48-9ce8-496088702bff","system_id":"levelo_inurba_marseille","lat":43.298433,"lon":5.362774,"is_reserved":false,"is_disabled":false,"rental_uris":{"android":"levelo://app?vid=780ea3e5-038b-4b48-9ce8-496088702bff","ios":"levelo://app?vid=780ea3e5-038b-4b48-9ce8-496088702bff"},"vehicle_type_id":"4","last_reported":1723381787,"current_range_meters":31200,"station_id":"ce4bgpp2rcd13ifvqc3g","pricing_plan_id":"cebpf4jnsgd1na2vs0mg"},{"bike_id":"959192ce-d1f0-46a9-b75b-9dee4f07fe61","system_id":"levelo_inurba_marseille","lat":43.298433,"lon":5.362774,"is_reserved":false,"is_disabled":false,"rental_uris":{"android":"levelo://app?vid=959192ce-d1f0-46a9-b75b-9dee4f07fe61","ios":"levelo://app?vid=959192ce-d1f0-46a9-b75b-9dee4f07fe61"},"vehicle_type_id":"4","last_reported":1723381787,"current_range_meters":5600,"station_id":"ce4bgpp2rcd13ifvqc3g","pricing_plan_id":"cebpf4jnsgd1na2vs0mg"},{"bike_id":"93a4565b-5931-4b57-8d40-6c5c2ae7f125","system_id":"levelo_inurba_marseille","lat":43.298433,"lon":5.362774,"is_reserved":false,"is_disabled":false,"rental_uris":{"android":"levelo://app?vid=93a4565b-5931-4b57-8d40-6c5c2ae7f125","ios":"levelo://app?vid=93a4565b-5931-4b57-8d40-6c5c2ae7f125"},"vehicle_type_id":"4","last_reported":1723381787,"current_range_meters":30000,"station_id":"ce4bgpp2rcd13ifvqc3g","pricing_plan_id":"cebpf4jnsgd1na2vs0mg"},{"bike_id":"0ddd17ed-716e-4d4a-8033-1b4097295dec","system_id":"levelo_inurba_marseille","lat":43.298433,"lon":5.362774,"is_reserved":false,"is_disabled":false,"rental_uris":{"android":"levelo://app?vid=0ddd17ed-716e-4d4a-8033-1b4097295dec","ios":"levelo://app?vid=0ddd17ed-716e-4d4a-8033-1b4097295dec"},"vehicle_type_id":"4","last_reported":1723381787,"current_range_meters":27600,"station_id":"ce4bgpp2rcd13ifvqc3g","pricing_plan_id":"cebpf4jnsgd1na2vs0mg"},{"bike_id":"c568f253-f437-40d7-91e0-8a0c20115011","system_id":"levelo_inurba_marseille","lat":43.322942,"lon":5.382712,"is_reserved":false,"is_disabled":false,"rental_uris":{"android":"levelo://app?vid=c568f253-f437-40d7-91e0-8a0c20115011","ios":"levelo://app?vid=c568f253-f437-40d7-91e0-8a0c20115011"},"vehicle_type_id":"4","last_reported":1723381787,"current_range_meters":14000,"station_id":"ce4bhr12rcd13ifvqhqg","pricing_plan_id":"cebpf4jnsgd1na2vs0mg"},{"bike_id":"ed788100-5403-4e53-b131-ed76e6e22485","system_id":"levelo_inurba_marseille","lat":43.322957,"lon":5.38273,"is_reserved":false,"is_disabled":false,"rental_uris":{"android":"levelo://app?vid=ed788100-5403-4e53-b131-ed76e6e22485","ios":"levelo://app?vid=ed788100-5403-4e53-b131-ed76e6e22485"},"vehicle_type_id":"4","last_reported":1723381787,"current_range_meters":0,"station_id":"ce4bhr12rcd13ifvqhqg","pricing_plan_id":"cebpf4jnsgd1na2vs0mg"},{"bike_id":"b8be12a0-19e2-49a6-9d7a-b26feec8a2f6","system_id":"levelo_inurba_marseille","lat":43.297163,"lon":5.365866,"is_reserved":false,"is_disabled":false,"rental_uris":{"android":"levelo://app?vid=b8be12a0-19e2-49a6-9d7a-b26feec8a2f6","ios":"levelo://app?vid=b8be12a0-19e2-49a6-9d7a-b26feec8a2f6"},"vehicle_type_id":"4","last_reported":1723381787,"current_range_meters":21600,"station_id":"ce4bgn12rcd13ifvqbt0","pricing_plan_id":"cebpf4jnsgd1na2vs0mg"},{"bike_id":"7bcded8d-b70b-4846-b39c-4672817d89fe","system_id":"levelo_inurba_marseille","lat":43.297017,"lon":5.366423,"is_reserved":false,"is_disabled":false,"rental_uris":{"android":"levelo://app?vid=7bcded8d-b70b-4846-b39c-4672817d89fe","ios":"levelo://app?vid=7bcded8d-b70b-4846-b39c-4672817d89fe"},"vehicle_type_id":"4","last_reported":1723381787,"current_range_meters":20800,"station_id":"","pricing_plan_id":"cebpf4jnsgd1na2vs0mg"},{"bike_id":"93757ec6-2d6d-4b2e-82ab-1ed77dc163be","system_id":"levelo_inurba_marseille","lat":43.297163,"lon":5.365866,"is_reserved":false,"is_disabled":false,"rental_uris":{"android":"levelo://app?vid=93757ec6-2d6d-4b2e-82ab-1ed77dc163be","ios":"levelo://app?vid=93757ec6-2d6d-4b2e-82ab-1ed77dc163be"},"vehicle_type_id":"4","last_reported":1723381787,"current_range_meters":20800,"station_id":"ce4bgn12rcd13ifvqbt0","pricing_plan_id":"cebpf4jnsgd1na2vs0mg"},{"bike_id":"80f9f110-4ffc-4297-bf57-2bf2a710da39","system_id":"levelo_inurba_marseille","lat":43.323708,"lon":5.384195,"is_reserved":false,"is_disabled":false,"rental_uris":{"android":"levelo://app?vid=80f9f110-4ffc-4297-bf57-2bf2a710da39","ios":"levelo://app?vid=80f9f110-4ffc-4297-bf57-2bf2a710da39"},"vehicle_type_id":"4","last_reported":1723381787,"current_range_meters":13200,"station_id":"","pricing_plan_id":"cebpf4jnsgd1na2vs0mg"},{"bike_id":"51ea4a43-542a-4cb9-a149-0600aa1eb68d","system_id":"levelo_inurba_marseille","lat":43.301396,"lon":5.387812,"is_reserved":false,"is_disabled":false,"rental_uris":{"android":"levelo://app?vid=51ea4a43-542a-4cb9-a149-0600aa1eb68d","ios":"levelo://app?vid=51ea4a43-542a-4cb9-a149-0600aa1eb68d"},"vehicle_type_id":"4","last_reported":1723381787,"current_range_meters":14000,"station_id":"ce4bghh2rcd13ifvqb60","pricing_plan_id":"cebpf4jnsgd1na2vs0mg"},{"bike_id":"51586cd4-f2c0-4f81-82f4-4b075892c0ad","system_id":"levelo_inurba_marseille","lat":43.31742,"lon":5.38978,"is_reserved":false,"is_disabled":false,"rental_uris":{"android":"levelo://app?vid=51586cd4-f2c0-4f81-82f4-4b075892c0ad","ios":"levelo://app?vid=51586cd4-f2c0-4f81-82f4-4b075892c0ad"},"vehicle_type_id":"4","last_reported":1723381787,"current_range_meters":9200,"station_id":"","pricing_plan_id":"cebpf4jnsgd1na2vs0mg"},{"bike_id":"c3e655f8-c4b7-42d0-a1f1-f9dbda0f69e6","system_id":"levelo_inurba_marseille","lat":43.29569,"lon":5.37523,"is_reserved":false,"is_disabled":false,"rental_uris":{"android":"levelo://app?vid=c3e655f8-c4b7-42d0-a1f1-f9dbda0f69e6","ios":"levelo://app?vid=c3e655f8-c4b7-42d0-a1f1-f9dbda0f69e6"},"vehicle_type_id":"4","last_reported":1723381787,"current_range_meters":12400,"station_id":"ce4bgh92rcd13ifvqb50","pricing_plan_id":"cebpf4jnsgd1na2vs0mg"},{"bike_id":"62114a39-980b-497c-a748-0c707401b6d5","system_id":"levelo_inurba_marseille","lat":43.295748,"lon":5.37522,"is_reserved":false,"is_disabled":false,"rental_uris":{"android":"levelo://app?vid=62114a39-980b-497c-a748-0c707401b6d5","ios":"levelo://app?vid=62114a39-980b-497c-a748-0c707401b6d5"},"vehicle_type_id":"4","last_reported":1723381787,"current_range_meters":23200,"station_id":"ce4bgh92rcd13ifvqb50","pricing_plan_id":"cebpf4jnsgd1na2vs0mg"},{"bike_id":"c46f1db9-ade2-438b-8a08-80f37662143d","system_id":"levelo_inurba_marseille","lat":43.295748,"lon":5.37522,"is_reserved":false,"is_disabled":false,"rental_uris":{"android":"levelo://app?vid=c46f1db9-ade2-438b-8a08-80f37662143d","ios":"levelo://app?vid=c46f1db9-ade2-438b-8a08-80f37662143d"},"vehicle_type_id":"4","last_reported":1723381787,"current_range_meters":400,"station_id":"ce4bgh92rcd13ifvqb50","pricing_plan_id":"cebpf4jnsgd1na2vs0mg"},{"bike_id":"8b4ebce2-145d-4456-bd55-400f0308d4b7","system_id":"levelo_inurba_marseille","lat":43.299717,"lon":5.384845,"is_reserved":false,"is_disabled":false,"rental_uris":{"android":"levelo://app?vid=8b4ebce2-145d-4456-bd55-400f0308d4b7","ios":"levelo://app?vid=8b4ebce2-145d-4456-bd55-400f0308d4b7"},"vehicle_type_id":"4","last_reported":1723381787,"current_range_meters":4800,"station_id":"ce4bgj92rcd13ifvqbd0","pricing_plan_id":"cebpf4jnsgd1na2vs0mg"},{"bike_id":"77192461-172c-4d40-8ca2-f5aa19dcb034","system_id":"levelo_inurba_marseille","lat":43.33053,"lon":5.35889,"is_reserved":false,"is_disabled":false,"rental_uris":{"android":"levelo://app?vid=77192461-172c-4d40-8ca2-f5aa19dcb034","ios":"levelo://app?vid=77192461-172c-4d40-8ca2-f5aa19dcb034"},"vehicle_type_id":"4","last_reported":1723381787,"current_range_meters":11600,"station_id":"","pricing_plan_id":"cebpf4jnsgd1na2vs0mg"},{"bike_id":"63d1a119-6e7b-40cf-8b73-bd2fea40c5de","system_id":"levelo_inurba_marseille","lat":43.32367,"lon":5.388836,"is_reserved":false,"is_disabled":false,"rental_uris":{"android":"levelo://app?vid=63d1a119-6e7b-40cf-8b73-bd2fea40c5de","ios":"levelo://app?vid=63d1a119-6e7b-40cf-8b73-bd2fea40c5de"},"vehicle_type_id":"4","last_reported":1723381787,"current_range_meters":0,"station_id":"ce4bhqp2rcd13ifvqhog","pricing_plan_id":"cebpf4jnsgd1na2vs0mg"},{"bike_id":"db7ec17e-c076-4566-adf2-b4a0382a9208","system_id":"levelo_inurba_marseille","lat":43.305994,"lon":5.393687,"is_reserved":false,"is_disabled":false,"rental_uris":{"android":"levelo://app?vid=db7ec17e-c076-4566-adf2-b4a0382a9208","ios":"levelo://app?vid=db7ec17e-c076-4566-adf2-b4a0382a9208"},"vehicle_type_id":"4","last_reported":1723381787,"current_range_meters":10400,"station_id":"ce4bh0p2rcd13ifvqd80","pricing_plan_id":"cebpf4jnsgd1na2vs0mg"},{"bike_id":"8d37495d-9961-45f8-ba67-ee81725ae3ae","system_id":"levelo_inurba_marseille","lat":43.29228,"lon":5.36363,"is_reserved":false,"is_disabled":false,"rental_uris":{"android":"levelo://app?vid=8d37495d-9961-45f8-ba67-ee81725ae3ae","ios":"levelo://app?vid=8d37495d-9961-45f8-ba67-ee81725ae3ae"},"vehicle_type_id":"4","last_reported":1723381787,"current_range_meters":5200,"station_id":"","pricing_plan_id":"cebpf4jnsgd1na2vs0mg"},{"bike_id":"337723d7-6e94-49c5-ae4d-41d565cca153","system_id":"levelo_inurba_marseille","lat":43.292311,"lon":5.360731,"is_reserved":false,"is_disabled":false,"rental_uris":{"android":"levelo://app?vid=337723d7-6e94-49c5-ae4d-41d565cca153","ios":"levelo://app?vid=337723d7-6e94-49c5-ae4d-41d565cca153"},"vehicle_type_id":"4","last_reported":1723381787,"current_range_meters":28000,"station_id":"ce4bhbh2rcd13ifvqeqg","pricing_plan_id":"cebpf4jnsgd1na2vs0mg"},{"bike_id":"f43dad31-d046-44ef-924e-27059c86dee6","system_id":"levelo_inurba_marseille","lat":43.30085,"lon":5.390856,"is_reserved":false,"is_disabled":false,"rental_uris":{"android":"levelo://app?vid=f43dad31-d046-44ef-924e-27059c86dee6","ios":"levelo://app?vid=f43dad31-d046-44ef-924e-27059c86dee6"},"vehicle_type_id":"4","last_reported":1723381787,"current_range_meters":14000,"station_id":"ce4bh192rcd13ifvqdb0","pricing_plan_id":"cebpf4jnsgd1na2vs0mg"},{"bike_id":"8669c215-f64f-4991-918a-38e605b47e3d","system_id":"levelo_inurba_marseille","lat":43.292904,"lon":5.355534,"is_reserved":false,"is_disabled":false,"rental_uris":{"android":"levelo://app?vid=8669c215-f64f-4991-918a-38e605b47e3d","ios":"levelo://app?vid=8669c215-f64f-4991-918a-38e605b47e3d"},"vehicle_type_id":"4","last_reported":1723381787,"current_range_meters":2800,"station_id":"","pricing_plan_id":"cebpf4jnsgd1na2vs0mg"},{"bike_id":"9d4b68a5-c93f-4844-a235-5ff4a055b660","system_id":"levelo_inurba_marseille","lat":43.292385,"lon":5.37767,"is_reserved":false,"is_disabled":false,"rental_uris":{"android":"levelo://app?vid=9d4b68a5-c93f-4844-a235-5ff4a055b660","ios":"levelo://app?vid=9d4b68a5-c93f-4844-a235-5ff4a055b660"},"vehicle_type_id":"4","last_reported":1723381787,"current_range_meters":8000,"station_id":"","pricing_plan_id":"cebpf4jnsgd1na2vs0mg"},{"bike_id":"f487b378-cf2d-4387-b118-1081f1938911","system_id":"levelo_inurba_marseille","lat":43.292979,"lon":5.382519,"is_reserved":false,"is_disabled":false,"rental_uris":{"android":"levelo://app?vid=f487b378-cf2d-4387-b118-1081f1938911","ios":"levelo://app?vid=f487b378-cf2d-4387-b118-1081f1938911"},"vehicle_type_id":"4","last_reported":1723381787,"current_range_meters":800,"station_id":"","pricing_plan_id":"cebpf4jnsgd1na2vs0mg"},{"bike_id":"034b10a2-344b-4a9e-8bf2-967f16894609","system_id":"levelo_inurba_marseille","lat":43.290624,"lon":5.359245,"is_reserved":false,"is_disabled":false,"rental_uris":{"android":"levelo://app?vid=034b10a2-344b-4a9e-8bf2-967f16894609","ios":"levelo://app?vid=034b10a2-344b-4a9e-8bf2-967f16894609"},"vehicle_type_id":"4","last_reported":1723381787,"current_range_meters":12000,"station_id":"ce4bha92rcd13ifvqeg0","pricing_plan_id":"cebpf4jnsgd1na2vs0mg"},{"bike_id":"5303a807-97b5-4a68-8a5c-d9edacffe115","system_id":"levelo_inurba_marseille","lat":43.290631,"lon":5.359244,"is_reserved":false,"is_disabled":false,"rental_uris":{"android":"levelo://app?vid=5303a807-97b5-4a68-8a5c-d9edacffe115","ios":"levelo://app?vid=5303a807-97b5-4a68-8a5c-d9edacffe115"},"vehicle_type_id":"4","last_reported":1723381787,"current_range_meters":26000,"station_id":"ce4bha92rcd13ifvqeg0","pricing_plan_id":"cebpf4jnsgd1na2vs0mg"},{"bike_id":"d022b4e5-b127-4761-b5ab-7d51669d1b27","system_id":"levelo_inurba_marseille","lat":43.292644,"lon":5.384257,"is_reserved":false,"is_disabled":false,"rental_uris":{"android":"levelo://app?vid=d022b4e5-b127-4761-b5ab-7d51669d1b27","ios":"levelo://app?vid=d022b4e5-b127-4761-b5ab-7d51669d1b27"},"vehicle_type_id":"4","last_reported":1723381787,"current_range_meters":24400,"station_id":"ce4bh692rcd13ifvqea0","pricing_plan_id":"cebpf4jnsgd1na2vs0mg"},{"bike_id":"e9bc658d-fd9a-4e6b-86b2-2a8bc9664929","system_id":"levelo_inurba_marseille","lat":43.292644,"lon":5.384257,"is_reserved":false,"is_disabled":false,"rental_uris":{"android":"levelo://app?vid=e9bc658d-fd9a-4e6b-86b2-2a8bc9664929","ios":"levelo://app?vid=e9bc658d-fd9a-4e6b-86b2-2a8bc9664929"},"vehicle_type_id":"4","last_reported":1723381787,"current_range_meters":7200,"station_id":"ce4bh692rcd13ifvqea0","pricing_plan_id":"cebpf4jnsgd1na2vs0mg"},{"bike_id":"8e0b0e6a-9a94-4b40-a89c-f759c62cf441","system_id":"levelo_inurba_marseille","lat":43.292509,"lon":5.384208,"is_reserved":false,"is_disabled":false,"rental_uris":{"android":"levelo://app?vid=8e0b0e6a-9a94-4b40-a89c-f759c62cf441","ios":"levelo://app?vid=8e0b0e6a-9a94-4b40-a89c-f759c62cf441"},"vehicle_type_id":"4","last_reported":1723381787,"current_range_meters":20800,"station_id":"","pricing_plan_id":"cebpf4jnsgd1na2vs0mg"},{"bike_id":"61b7f34b-f14a-45b9-ad5f-e70f1f6a183a","system_id":"levelo_inurba_marseille","lat":43.29009,"lon":5.35613,"is_reserved":false,"is_disabled":false,"rental_uris":{"android":"levelo://app?vid=61b7f34b-f14a-45b9-ad5f-e70f1f6a183a","ios":"levelo://app?vid=61b7f34b-f14a-45b9-ad5f-e70f1f6a183a"},"vehicle_type_id":"4","last_reported":1723381787,"current_range_meters":24800,"station_id":"ce4bhb92rcd13ifvqen0","pricing_plan_id":"cebpf4jnsgd1na2vs0mg"},{"bike_id":"22d1d83c-4904-425b-9707-2fe7c9f62818","system_id":"levelo_inurba_marseille","lat":43.290104,"lon":5.356111,"is_reserved":false,"is_disabled":false,"rental_uris":{"android":"levelo://app?vid=22d1d83c-4904-425b-9707-2fe7c9f62818","ios":"levelo://app?vid=22d1d83c-4904-425b-9707-2fe7c9f62818"},"vehicle_type_id":"4","last_reported":1723381787,"current_range_meters":23200,"station_id":"ce4bhb92rcd13ifvqen0","pricing_plan_id":"cebpf4jnsgd1na2vs0mg"},{"bike_id":"80e2414f-d4c3-4770-b7a3-7222a96359fc","system_id":"levelo_inurba_marseille","lat":43.290014,"lon":5.356123,"is_reserved":false,"is_disabled":false,"rental_uris":{"android":"levelo://app?vid=80e2414f-d4c3-4770-b7a3-7222a96359fc","ios":"levelo://app?vid=80e2414f-d4c3-4770-b7a3-7222a96359fc"},"vehicle_type_id":"4","last_reported":1723381787,"current_range_meters":23600,"station_id":"","pricing_plan_id":"cebpf4jnsgd1na2vs0mg"},{"bike_id":"c3cf305c-692c-41ed-b07c-7ebbc13f240d","system_id":"levelo_inurba_marseille","lat":43.337405,"lon":5.374624,"is_reserved":false,"is_disabled":false,"rental_uris":{"android":"levelo://app?vid=c3cf305c-692c-41ed-b07c-7ebbc13f240d","ios":"levelo://app?vid=c3cf305c-692c-41ed-b07c-7ebbc13f240d"},"vehicle_type_id":"4","last_reported":1723381787,"current_range_meters":14400,"station_id":"","pricing_plan_id":"cebpf4jnsgd1na2vs0mg"},{"bike_id":"ac75d8e5-5139-4e43-a64e-51e7994c2517","system_id":"levelo_inurba_marseille","lat":43.337444,"lon":5.374475,"is_reserved":false,"is_disabled":false,"rental_uris":{"android":"levelo://app?vid=ac75d8e5-5139-4e43-a64e-51e7994c2517","ios":"levelo://app?vid=ac75d8e5-5139-4e43-a64e-51e7994c2517"},"vehicle_type_id":"3","last_reported":1723381787,"current_range_meters":24800,"station_id":"","pricing_plan_id":"cebpf4jnsgd1na2vs0mg"},{"bike_id":"43f21911-683d-4ba4-93d3-8a7e20e1c78c","system_id":"levelo_inurba_marseille","lat":43.337416,"lon":5.374647,"is_reserved":false,"is_disabled":false,"rental_uris":{"android":"levelo://app?vid=43f21911-683d-4ba4-93d3-8a7e20e1c78c","ios":"levelo://app?vid=43f21911-683d-4ba4-93d3-8a7e20e1c78c"},"vehicle_type_id":"4","last_reported":1723381787,"current_range_meters":27200,"station_id":"","pricing_plan_id":"cebpf4jnsgd1na2vs0mg"},{"bike_id":"8b5f6228-3582-497c-9919-c849c8ef0c9b","system_id":"levelo_inurba_marseille","lat":43.337436,"lon":5.374589,"is_reserved":false,"is_disabled":false,"rental_uris":{"android":"levelo://app?vid=8b5f6228-3582-497c-9919-c849c8ef0c9b","ios":"levelo://app?vid=8b5f6228-3582-497c-9919-c849c8ef0c9b"},"vehicle_type_id":"4","last_reported":1723381787,"current_range_meters":400,"station_id":"","pricing_plan_id":"cebpf4jnsgd1na2vs0mg"},{"bike_id":"7553d7c6-8eef-4b21-9dca-534ec43256a6","system_id":"levelo_inurba_marseille","lat":43.33745,"lon":5.37456,"is_reserved":false,"is_disabled":false,"rental_uris":{"android":"levelo://app?vid=7553d7c6-8eef-4b21-9dca-534ec43256a6","ios":"levelo://app?vid=7553d7c6-8eef-4b21-9dca-534ec43256a6"},"vehicle_type_id":"4","last_reported":1723381787,"current_range_meters":10000,"station_id":"","pricing_plan_id":"cebpf4jnsgd1na2vs0mg"},{"bike_id":"a99690a8-3e4f-41a1-9b6a-5b43249a269f","system_id":"levelo_inurba_marseille","lat":43.33746,"lon":5.37457,"is_reserved":false,"is_disabled":false,"rental_uris":{"android":"levelo://app?vid=a99690a8-3e4f-41a1-9b6a-5b43249a269f","ios":"levelo://app?vid=a99690a8-3e4f-41a1-9b6a-5b43249a269f"},"vehicle_type_id":"4","last_reported":1723381787,"current_range_meters":1200,"station_id":"","pricing_plan_id":"cebpf4jnsgd1na2vs0mg"},{"bike_id":"99ff80d6-767c-4ca9-81b5-c19f253f3bd3","system_id":"levelo_inurba_marseille","lat":43.337486,"lon":5.37454,"is_reserved":false,"is_disabled":false,"rental_uris":{"android":"levelo://app?vid=99ff80d6-767c-4ca9-81b5-c19f253f3bd3","ios":"levelo://app?vid=99ff80d6-767c-4ca9-81b5-c19f253f3bd3"},"vehicle_type_id":"4","last_reported":1723381787,"current_range_meters":0,"station_id":"","pricing_plan_id":"cebpf4jnsgd1na2vs0mg"},{"bike_id":"4dd3df97-f042-4ef0-9fba-47ec4b401346","system_id":"levelo_inurba_marseille","lat":43.28784,"lon":5.37362,"is_reserved":false,"is_disabled":false,"rental_uris":{"android":"levelo://app?vid=4dd3df97-f042-4ef0-9fba-47ec4b401346","ios":"levelo://app?vid=4dd3df97-f042-4ef0-9fba-47ec4b401346"},"vehicle_type_id":"4","last_reported":1723381787,"current_range_meters":25200,"station_id":"","pricing_plan_id":"cebpf4jnsgd1na2vs0mg"},{"bike_id":"6137b86e-8de9-4c4f-94ef-bfa372175031","system_id":"levelo_inurba_marseille","lat":43.337513,"lon":5.37454,"is_reserved":false,"is_disabled":false,"rental_uris":{"android":"levelo://app?vid=6137b86e-8de9-4c4f-94ef-bfa372175031","ios":"levelo://app?vid=6137b86e-8de9-4c4f-94ef-bfa372175031"},"vehicle_type_id":"4","last_reported":1723381787,"current_range_meters":12000,"station_id":"","pricing_plan_id":"cebpf4jnsgd1na2vs0mg"},{"bike_id":"ea1cc1bc-b3f0-4093-8f5f-6dfff1fa63d9","system_id":"levelo_inurba_marseille","lat":43.337575,"lon":5.37485,"is_reserved":false,"is_disabled":false,"rental_uris":{"android":"levelo://app?vid=ea1cc1bc-b3f0-4093-8f5f-6dfff1fa63d9","ios":"levelo://app?vid=ea1cc1bc-b3f0-4093-8f5f-6dfff1fa63d9"},"vehicle_type_id":"4","last_reported":1723381787,"current_range_meters":30000,"station_id":"","pricing_plan_id":"cebpf4jnsgd1na2vs0mg"},{"bike_id":"1ece39e8-5ec5-465b-b0d5-bdea3554c74d","system_id":"levelo_inurba_marseille","lat":43.337633,"lon":5.374531,"is_reserved":false,"is_disabled":false,"rental_uris":{"android":"levelo://app?vid=1ece39e8-5ec5-465b-b0d5-bdea3554c74d","ios":"levelo://app?vid=1ece39e8-5ec5-465b-b0d5-bdea3554c74d"},"vehicle_type_id":"4","last_reported":1723381787,"current_range_meters":21200,"station_id":"","pricing_plan_id":"cebpf4jnsgd1na2vs0mg"},{"bike_id":"e0da458e-1309-458b-956b-aab617b2ea05","system_id":"levelo_inurba_marseille","lat":43.3376,"lon":5.37473,"is_reserved":false,"is_disabled":false,"rental_uris":{"android":"levelo://app?vid=e0da458e-1309-458b-956b-aab617b2ea05","ios":"levelo://app?vid=e0da458e-1309-458b-956b-aab617b2ea05"},"vehicle_type_id":"4","last_reported":1723381787,"current_range_meters":23600,"station_id":"","pricing_plan_id":"cebpf4jnsgd1na2vs0mg"},{"bike_id":"a7e71684-8757-4c0e-98c0-cd5b05cd0ba7","system_id":"levelo_inurba_marseille","lat":43.337583,"lon":5.374932,"is_reserved":false,"is_disabled":false,"rental_uris":{"android":"levelo://app?vid=a7e71684-8757-4c0e-98c0-cd5b05cd0ba7","ios":"levelo://app?vid=a7e71684-8757-4c0e-98c0-cd5b05cd0ba7"},"vehicle_type_id":"4","last_reported":1723381787,"current_range_meters":29600,"station_id":"","pricing_plan_id":"cebpf4jnsgd1na2vs0mg"},{"bike_id":"5cb0d0f3-eacc-40eb-a46e-542fc59e15f6","system_id":"levelo_inurba_marseille","lat":43.33762,"lon":5.3749,"is_reserved":false,"is_disabled":false,"rental_uris":{"android":"levelo://app?vid=5cb0d0f3-eacc-40eb-a46e-542fc59e15f6","ios":"levelo://app?vid=5cb0d0f3-eacc-40eb-a46e-542fc59e15f6"},"vehicle_type_id":"4","last_reported":1723381787,"current_range_meters":29600,"station_id":"","pricing_plan_id":"cebpf4jnsgd1na2vs0mg"},{"bike_id":"475ed14f-5d86-4ce1-9e44-9d4d1bef7035","system_id":"levelo_inurba_marseille","lat":43.33765,"lon":5.37486,"is_reserved":false,"is_disabled":false,"rental_uris":{"android":"levelo://app?vid=475ed14f-5d86-4ce1-9e44-9d4d1bef7035","ios":"levelo://app?vid=475ed14f-5d86-4ce1-9e44-9d4d1bef7035"},"vehicle_type_id":"4","last_reported":1723381787,"current_range_meters":21600,"station_id":"","pricing_plan_id":"cebpf4jnsgd1na2vs0mg"},{"bike_id":"6f8a75ef-cfde-4da5-99c7-85f9ae9b026b","system_id":"levelo_inurba_marseille","lat":43.33776,"lon":5.37431,"is_reserved":false,"is_disabled":false,"rental_uris":{"android":"levelo://app?vid=6f8a75ef-cfde-4da5-99c7-85f9ae9b026b","ios":"levelo://app?vid=6f8a75ef-cfde-4da5-99c7-85f9ae9b026b"},"vehicle_type_id":"4","last_reported":1723381787,"current_range_meters":22400,"station_id":"","pricing_plan_id":"cebpf4jnsgd1na2vs0mg"},{"bike_id":"57da0337-159a-4148-be4f-fc6e9aca3c31","system_id":"levelo_inurba_marseille","lat":43.337088,"lon":5.355727,"is_reserved":false,"is_disabled":false,"rental_uris":{"android":"levelo://app?vid=57da0337-159a-4148-be4f-fc6e9aca3c31","ios":"levelo://app?vid=57da0337-159a-4148-be4f-fc6e9aca3c31"},"vehicle_type_id":"4","last_reported":1723381787,"current_range_meters":4800,"station_id":"","pricing_plan_id":"cebpf4jnsgd1na2vs0mg"},{"bike_id":"64cf273d-e4ee-4d4c-9653-2f6b87b8bdf1","system_id":"levelo_inurba_marseille","lat":43.286961,"lon":5.373785,"is_reserved":false,"is_disabled":false,"rental_uris":{"android":"levelo://app?vid=64cf273d-e4ee-4d4c-9653-2f6b87b8bdf1","ios":"levelo://app?vid=64cf273d-e4ee-4d4c-9653-2f6b87b8bdf1"},"vehicle_type_id":"4","last_reported":1723381787,"current_range_meters":21200,"station_id":"ce4bh3p2rcd13ifvqdq0","pricing_plan_id":"cebpf4jnsgd1na2vs0mg"},{"bike_id":"8a6bc165-ba36-4136-9a44-e9f8303c6bed","system_id":"levelo_inurba_marseille","lat":43.286591,"lon":5.363346,"is_reserved":false,"is_disabled":false,"rental_uris":{"android":"levelo://app?vid=8a6bc165-ba36-4136-9a44-e9f8303c6bed","ios":"levelo://app?vid=8a6bc165-ba36-4136-9a44-e9f8303c6bed"},"vehicle_type_id":"4","last_reported":1723381787,"current_range_meters":11200,"station_id":"ce4bhah2rcd13ifvqej0","pricing_plan_id":"cebpf4jnsgd1na2vs0mg"},{"bike_id":"6181f186-530d-467e-a804-0a2d8d6aca81","system_id":"levelo_inurba_marseille","lat":43.286591,"lon":5.363346,"is_reserved":false,"is_disabled":false,"rental_uris":{"android":"levelo://app?vid=6181f186-530d-467e-a804-0a2d8d6aca81","ios":"levelo://app?vid=6181f186-530d-467e-a804-0a2d8d6aca81"},"vehicle_type_id":"4","last_reported":1723381787,"current_range_meters":0,"station_id":"ce4bhah2rcd13ifvqej0","pricing_plan_id":"cebpf4jnsgd1na2vs0mg"},{"bike_id":"eaaeaac8-8c11-46b6-b6c0-ae92a8fb94dc","system_id":"levelo_inurba_marseille","lat":43.286591,"lon":5.363346,"is_reserved":false,"is_disabled":false,"rental_uris":{"android":"levelo://app?vid=eaaeaac8-8c11-46b6-b6c0-ae92a8fb94dc","ios":"levelo://app?vid=eaaeaac8-8c11-46b6-b6c0-ae92a8fb94dc"},"vehicle_type_id":"4","last_reported":1723381787,"current_range_meters":4800,"station_id":"ce4bhah2rcd13ifvqej0","pricing_plan_id":"cebpf4jnsgd1na2vs0mg"},{"bike_id":"976d0109-9de7-4d45-bd81-5491eb52ebe8","system_id":"levelo_inurba_marseille","lat":43.33034,"lon":5.39356,"is_reserved":false,"is_disabled":false,"rental_uris":{"android":"levelo://app?vid=976d0109-9de7-4d45-bd81-5491eb52ebe8","ios":"levelo://app?vid=976d0109-9de7-4d45-bd81-5491eb52ebe8"},"vehicle_type_id":"4","last_reported":1723381787,"current_range_meters":6000,"station_id":"","pricing_plan_id":"cebpf4jnsgd1na2vs0mg"},{"bike_id":"b268e6dd-f58f-4b56-a8e7-9370cde2137b","system_id":"levelo_inurba_marseille","lat":43.286591,"lon":5.363346,"is_reserved":false,"is_disabled":false,"rental_uris":{"android":"levelo://app?vid=b268e6dd-f58f-4b56-a8e7-9370cde2137b","ios":"levelo://app?vid=b268e6dd-f58f-4b56-a8e7-9370cde2137b"},"vehicle_type_id":"4","last_reported":1723381787,"current_range_meters":21600,"station_id":"ce4bhah2rcd13ifvqej0","pricing_plan_id":"cebpf4jnsgd1na2vs0mg"},{"bike_id":"589fc1b6-06df-4765-8b24-9f5f3b55ed62","system_id":"levelo_inurba_marseille","lat":43.286591,"lon":5.363346,"is_reserved":false,"is_disabled":false,"rental_uris":{"android":"levelo://app?vid=589fc1b6-06df-4765-8b24-9f5f3b55ed62","ios":"levelo://app?vid=589fc1b6-06df-4765-8b24-9f5f3b55ed62"},"vehicle_type_id":"4","last_reported":1723381787,"current_range_meters":32000,"station_id":"ce4bhah2rcd13ifvqej0","pricing_plan_id":"cebpf4jnsgd1na2vs0mg"},{"bike_id":"5fa29a3e-2474-4432-83f3-2c772adcd89c","system_id":"levelo_inurba_marseille","lat":43.286593,"lon":5.363346,"is_reserved":false,"is_disabled":false,"rental_uris":{"android":"levelo://app?vid=5fa29a3e-2474-4432-83f3-2c772adcd89c","ios":"levelo://app?vid=5fa29a3e-2474-4432-83f3-2c772adcd89c"},"vehicle_type_id":"4","last_reported":1723381787,"current_range_meters":9600,"station_id":"ce4bhah2rcd13ifvqej0","pricing_plan_id":"cebpf4jnsgd1na2vs0mg"},{"bike_id":"464319e8-bbc0-4a93-9546-8fbc2dd213c8","system_id":"levelo_inurba_marseille","lat":43.298806,"lon":5.397594,"is_reserved":false,"is_disabled":false,"rental_uris":{"android":"levelo://app?vid=464319e8-bbc0-4a93-9546-8fbc2dd213c8","ios":"levelo://app?vid=464319e8-bbc0-4a93-9546-8fbc2dd213c8"},"vehicle_type_id":"4","last_reported":1723381787,"current_range_meters":6400,"station_id":"ce4bh0h2rcd13ifvqd50","pricing_plan_id":"cebpf4jnsgd1na2vs0mg"},{"bike_id":"9602f9a8-780d-499e-b5ad-b38afef02f58","system_id":"levelo_inurba_marseille","lat":43.28039,"lon":5.369297,"is_reserved":false,"is_disabled":false,"rental_uris":{"android":"levelo://app?vid=9602f9a8-780d-499e-b5ad-b38afef02f58","ios":"levelo://app?vid=9602f9a8-780d-499e-b5ad-b38afef02f58"},"vehicle_type_id":"4","last_reported":1723381787,"current_range_meters":20400,"station_id":"ce4bha12rcd13ifvqef0","pricing_plan_id":"cebpf4jnsgd1na2vs0mg"},{"bike_id":"8be89e19-b6fe-4193-ba4c-f031a570e1a3","system_id":"levelo_inurba_marseille","lat":43.28608,"lon":5.37064,"is_reserved":false,"is_disabled":false,"rental_uris":{"android":"levelo://app?vid=8be89e19-b6fe-4193-ba4c-f031a570e1a3","ios":"levelo://app?vid=8be89e19-b6fe-4193-ba4c-f031a570e1a3"},"vehicle_type_id":"4","last_reported":1723381787,"current_range_meters":22000,"station_id":"ce4bht12rcd13ifvqi60","pricing_plan_id":"cebpf4jnsgd1na2vs0mg"},{"bike_id":"4205e1af-9b6c-41bc-bb40-7ddc59846133","system_id":"levelo_inurba_marseille","lat":43.3169,"lon":5.40467,"is_reserved":false,"is_disabled":false,"rental_uris":{"android":"levelo://app?vid=4205e1af-9b6c-41bc-bb40-7ddc59846133","ios":"levelo://app?vid=4205e1af-9b6c-41bc-bb40-7ddc59846133"},"vehicle_type_id":"4","last_reported":1723381787,"current_range_meters":2000,"station_id":"ce4bh012rcd13ifvqd00","pricing_plan_id":"cebpf4jnsgd1na2vs0mg"},{"bike_id":"bfb425fd-2ed1-451b-aedc-779e827f7136","system_id":"levelo_inurba_marseille","lat":43.284621,"lon":5.358906,"is_reserved":false,"is_disabled":false,"rental_uris":{"android":"levelo://app?vid=bfb425fd-2ed1-451b-aedc-779e827f7136","ios":"levelo://app?vid=bfb425fd-2ed1-451b-aedc-779e827f7136"},"vehicle_type_id":"4","last_reported":1723381787,"current_range_meters":30800,"station_id":"ce4bhah2rcd13ifvqei0","pricing_plan_id":"cebpf4jnsgd1na2vs0mg"},{"bike_id":"aaec2b7f-d873-4209-924a-93e116ed4aec","system_id":"levelo_inurba_marseille","lat":43.2846,"lon":5.358994,"is_reserved":false,"is_disabled":false,"rental_uris":{"android":"levelo://app?vid=aaec2b7f-d873-4209-924a-93e116ed4aec","ios":"levelo://app?vid=aaec2b7f-d873-4209-924a-93e116ed4aec"},"vehicle_type_id":"4","last_reported":1723381787,"current_range_meters":31200,"station_id":"ce4bhah2rcd13ifvqei0","pricing_plan_id":"cebpf4jnsgd1na2vs0mg"},{"bike_id":"92e205ee-a93f-446c-a8e5-c685b1801314","system_id":"levelo_inurba_marseille","lat":43.28461,"lon":5.35887,"is_reserved":false,"is_disabled":false,"rental_uris":{"android":"levelo://app?vid=92e205ee-a93f-446c-a8e5-c685b1801314","ios":"levelo://app?vid=92e205ee-a93f-446c-a8e5-c685b1801314"},"vehicle_type_id":"4","last_reported":1723381787,"current_range_meters":31200,"station_id":"ce4bhah2rcd13ifvqei0","pricing_plan_id":"cebpf4jnsgd1na2vs0mg"},{"bike_id":"dee13e0c-b0a4-4517-b1cf-cc7f397ec332","system_id":"levelo_inurba_marseille","lat":43.28459,"lon":5.35898,"is_reserved":false,"is_disabled":false,"rental_uris":{"android":"levelo://app?vid=dee13e0c-b0a4-4517-b1cf-cc7f397ec332","ios":"levelo://app?vid=dee13e0c-b0a4-4517-b1cf-cc7f397ec332"},"vehicle_type_id":"4","last_reported":1723381787,"current_range_meters":31200,"station_id":"ce4bhah2rcd13ifvqei0","pricing_plan_id":"cebpf4jnsgd1na2vs0mg"},{"bike_id":"d18c7bde-96a1-4720-874b-5b8ad12ad24f","system_id":"levelo_inurba_marseille","lat":43.284599,"lon":5.358825,"is_reserved":false,"is_disabled":false,"rental_uris":{"android":"levelo://app?vid=d18c7bde-96a1-4720-874b-5b8ad12ad24f","ios":"levelo://app?vid=d18c7bde-96a1-4720-874b-5b8ad12ad24f"},"vehicle_type_id":"4","last_reported":1723381787,"current_range_meters":17600,"station_id":"ce4bhah2rcd13ifvqei0","pricing_plan_id":"cebpf4jnsgd1na2vs0mg"},{"bike_id":"a9a0cd45-c768-4027-9ddb-00e1aea0353a","system_id":"levelo_inurba_marseille","lat":43.294314,"lon":5.397498,"is_reserved":false,"is_disabled":false,"rental_uris":{"android":"levelo://app?vid=a9a0cd45-c768-4027-9ddb-00e1aea0353a","ios":"levelo://app?vid=a9a0cd45-c768-4027-9ddb-00e1aea0353a"},"vehicle_type_id":"4","last_reported":1723381787,"current_range_meters":0,"station_id":"ce4bh3h2rcd13ifvqdo0","pricing_plan_id":"cebpf4jnsgd1na2vs0mg"},{"bike_id":"b7898993-bf32-415f-bb4c-31761749f5ae","system_id":"levelo_inurba_marseille","lat":43.284605,"lon":5.358722,"is_reserved":false,"is_disabled":false,"rental_uris":{"android":"levelo://app?vid=b7898993-bf32-415f-bb4c-31761749f5ae","ios":"levelo://app?vid=b7898993-bf32-415f-bb4c-31761749f5ae"},"vehicle_type_id":"4","last_reported":1723381787,"current_range_meters":19200,"station_id":"ce4bhah2rcd13ifvqei0","pricing_plan_id":"cebpf4jnsgd1na2vs0mg"},{"bike_id":"e66da9aa-f9a0-479e-a06a-3261de070e32","system_id":"levelo_inurba_marseille","lat":43.294314,"lon":5.397498,"is_reserved":false,"is_disabled":false,"rental_uris":{"android":"levelo://app?vid=e66da9aa-f9a0-479e-a06a-3261de070e32","ios":"levelo://app?vid=e66da9aa-f9a0-479e-a06a-3261de070e32"},"vehicle_type_id":"4","last_reported":1723381787,"current_range_meters":18000,"station_id":"ce4bh3h2rcd13ifvqdo0","pricing_plan_id":"cebpf4jnsgd1na2vs0mg"},{"bike_id":"d0e27fa6-b185-4f27-826e-b40390b667ea","system_id":"levelo_inurba_marseille","lat":43.285848,"lon":5.350787,"is_reserved":false,"is_disabled":false,"rental_uris":{"android":"levelo://app?vid=d0e27fa6-b185-4f27-826e-b40390b667ea","ios":"levelo://app?vid=d0e27fa6-b185-4f27-826e-b40390b667ea"},"vehicle_type_id":"4","last_reported":1723381787,"current_range_meters":5600,"station_id":"ce4bhch2rcd13ifvqeug","pricing_plan_id":"cebpf4jnsgd1na2vs0mg"},{"bike_id":"98b5471a-053d-4de5-90b7-76b235f1ad47","system_id":"levelo_inurba_marseille","lat":43.285856,"lon":5.350771,"is_reserved":false,"is_disabled":false,"rental_uris":{"android":"levelo://app?vid=98b5471a-053d-4de5-90b7-76b235f1ad47","ios":"levelo://app?vid=98b5471a-053d-4de5-90b7-76b235f1ad47"},"vehicle_type_id":"4","last_reported":1723381787,"current_range_meters":31200,"station_id":"ce4bhch2rcd13ifvqeug","pricing_plan_id":"cebpf4jnsgd1na2vs0mg"},{"bike_id":"7ebe08a0-0018-42d5-8396-59a564ff6afd","system_id":"levelo_inurba_marseille","lat":43.28621,"lon":5.35106,"is_reserved":false,"is_disabled":false,"rental_uris":{"android":"levelo://app?vid=7ebe08a0-0018-42d5-8396-59a564ff6afd","ios":"levelo://app?vid=7ebe08a0-0018-42d5-8396-59a564ff6afd"},"vehicle_type_id":"4","last_reported":1723381787,"current_range_meters":20000,"station_id":"ce4bhch2rcd13ifvqeug","pricing_plan_id":"cebpf4jnsgd1na2vs0mg"},{"bike_id":"8d8a8364-af71-4f41-a419-ca8e1c18d618","system_id":"levelo_inurba_marseille","lat":43.285848,"lon":5.350787,"is_reserved":false,"is_disabled":false,"rental_uris":{"android":"levelo://app?vid=8d8a8364-af71-4f41-a419-ca8e1c18d618","ios":"levelo://app?vid=8d8a8364-af71-4f41-a419-ca8e1c18d618"},"vehicle_type_id":"4","last_reported":1723381787,"current_range_meters":16800,"station_id":"ce4bhch2rcd13ifvqeug","pricing_plan_id":"cebpf4jnsgd1na2vs0mg"},{"bike_id":"573c8b72-a74f-4f3c-8ec5-60e28a893554","system_id":"levelo_inurba_marseille","lat":43.285848,"lon":5.350787,"is_reserved":false,"is_disabled":false,"rental_uris":{"android":"levelo://app?vid=573c8b72-a74f-4f3c-8ec5-60e28a893554","ios":"levelo://app?vid=573c8b72-a74f-4f3c-8ec5-60e28a893554"},"vehicle_type_id":"4","last_reported":1723381787,"current_range_meters":23600,"station_id":"ce4bhch2rcd13ifvqeug","pricing_plan_id":"cebpf4jnsgd1na2vs0mg"},{"bike_id":"951db9c6-ace4-4a49-a133-49542671abd5","system_id":"levelo_inurba_marseille","lat":43.285848,"lon":5.350787,"is_reserved":false,"is_disabled":false,"rental_uris":{"android":"levelo://app?vid=951db9c6-ace4-4a49-a133-49542671abd5","ios":"levelo://app?vid=951db9c6-ace4-4a49-a133-49542671abd5"},"vehicle_type_id":"4","last_reported":1723381787,"current_range_meters":11200,"station_id":"ce4bhch2rcd13ifvqeug","pricing_plan_id":"cebpf4jnsgd1na2vs0mg"},{"bike_id":"a404f76c-763e-419d-85a9-584bbf46e753","system_id":"levelo_inurba_marseille","lat":43.2862,"lon":5.35103,"is_reserved":false,"is_disabled":false,"rental_uris":{"android":"levelo://app?vid=a404f76c-763e-419d-85a9-584bbf46e753","ios":"levelo://app?vid=a404f76c-763e-419d-85a9-584bbf46e753"},"vehicle_type_id":"4","last_reported":1723381787,"current_range_meters":10000,"station_id":"ce4bhch2rcd13ifvqeug","pricing_plan_id":"cebpf4jnsgd1na2vs0mg"},{"bike_id":"0903bb75-016d-43aa-8cb7-12c2bd3e3d3e","system_id":"levelo_inurba_marseille","lat":43.285856,"lon":5.350771,"is_reserved":false,"is_disabled":false,"rental_uris":{"android":"levelo://app?vid=0903bb75-016d-43aa-8cb7-12c2bd3e3d3e","ios":"levelo://app?vid=0903bb75-016d-43aa-8cb7-12c2bd3e3d3e"},"vehicle_type_id":"4","last_reported":1723381787,"current_range_meters":30000,"station_id":"ce4bhch2rcd13ifvqeug","pricing_plan_id":"cebpf4jnsgd1na2vs0mg"},{"bike_id":"20a14a37-2980-467a-a238-0459ac671738","system_id":"levelo_inurba_marseille","lat":43.28617,"lon":5.35107,"is_reserved":false,"is_disabled":false,"rental_uris":{"android":"levelo://app?vid=20a14a37-2980-467a-a238-0459ac671738","ios":"levelo://app?vid=20a14a37-2980-467a-a238-0459ac671738"},"vehicle_type_id":"4","last_reported":1723381787,"current_range_meters":0,"station_id":"ce4bhch2rcd13ifvqeug","pricing_plan_id":"cebpf4jnsgd1na2vs0mg"},{"bike_id":"33e8d44b-1b03-4fc4-af6f-351631ed0797","system_id":"levelo_inurba_marseille","lat":43.28617,"lon":5.35107,"is_reserved":false,"is_disabled":false,"rental_uris":{"android":"levelo://app?vid=33e8d44b-1b03-4fc4-af6f-351631ed0797","ios":"levelo://app?vid=33e8d44b-1b03-4fc4-af6f-351631ed0797"},"vehicle_type_id":"4","last_reported":1723381787,"current_range_meters":28000,"station_id":"ce4bhch2rcd13ifvqeug","pricing_plan_id":"cebpf4jnsgd1na2vs0mg"},{"bike_id":"bb7fc2eb-d23d-4626-9260-b0ecad75de9b","system_id":"levelo_inurba_marseille","lat":43.285856,"lon":5.350771,"is_reserved":false,"is_disabled":false,"rental_uris":{"android":"levelo://app?vid=bb7fc2eb-d23d-4626-9260-b0ecad75de9b","ios":"levelo://app?vid=bb7fc2eb-d23d-4626-9260-b0ecad75de9b"},"vehicle_type_id":"4","last_reported":1723381787,"current_range_meters":12400,"station_id":"ce4bhch2rcd13ifvqeug","pricing_plan_id":"cebpf4jnsgd1na2vs0mg"},{"bike_id":"6f3da740-64fc-47a7-a216-06fbd38047aa","system_id":"levelo_inurba_marseille","lat":43.285848,"lon":5.350787,"is_reserved":false,"is_disabled":false,"rental_uris":{"android":"levelo://app?vid=6f3da740-64fc-47a7-a216-06fbd38047aa","ios":"levelo://app?vid=6f3da740-64fc-47a7-a216-06fbd38047aa"},"vehicle_type_id":"4","last_reported":1723381787,"current_range_meters":8400,"station_id":"ce4bhch2rcd13ifvqeug","pricing_plan_id":"cebpf4jnsgd1na2vs0mg"},{"bike_id":"a0345ed0-4240-46ea-8b15-86d1d3acdaf7","system_id":"levelo_inurba_marseille","lat":43.285856,"lon":5.350771,"is_reserved":false,"is_disabled":false,"rental_uris":{"android":"levelo://app?vid=a0345ed0-4240-46ea-8b15-86d1d3acdaf7","ios":"levelo://app?vid=a0345ed0-4240-46ea-8b15-86d1d3acdaf7"},"vehicle_type_id":"4","last_reported":1723381787,"current_range_meters":10800,"station_id":"ce4bhch2rcd13ifvqeug","pricing_plan_id":"cebpf4jnsgd1na2vs0mg"},{"bike_id":"7db1471f-14a5-43d9-b019-711dd8e39fc1","system_id":"levelo_inurba_marseille","lat":43.28616,"lon":5.35105,"is_reserved":false,"is_disabled":false,"rental_uris":{"android":"levelo://app?vid=7db1471f-14a5-43d9-b019-711dd8e39fc1","ios":"levelo://app?vid=7db1471f-14a5-43d9-b019-711dd8e39fc1"},"vehicle_type_id":"4","last_reported":1723381787,"current_range_meters":31200,"station_id":"ce4bhch2rcd13ifvqeug","pricing_plan_id":"cebpf4jnsgd1na2vs0mg"},{"bike_id":"a08fb2cf-b132-4a49-975a-2edbc16ced72","system_id":"levelo_inurba_marseille","lat":43.285856,"lon":5.350771,"is_reserved":false,"is_disabled":false,"rental_uris":{"android":"levelo://app?vid=a08fb2cf-b132-4a49-975a-2edbc16ced72","ios":"levelo://app?vid=a08fb2cf-b132-4a49-975a-2edbc16ced72"},"vehicle_type_id":"4","last_reported":1723381787,"current_range_meters":10000,"station_id":"ce4bhch2rcd13ifvqeug","pricing_plan_id":"cebpf4jnsgd1na2vs0mg"},{"bike_id":"05a417bc-00f7-483f-bb45-384ead096d86","system_id":"levelo_inurba_marseille","lat":43.285856,"lon":5.350771,"is_reserved":false,"is_disabled":false,"rental_uris":{"android":"levelo://app?vid=05a417bc-00f7-483f-bb45-384ead096d86","ios":"levelo://app?vid=05a417bc-00f7-483f-bb45-384ead096d86"},"vehicle_type_id":"4","last_reported":1723381787,"current_range_meters":15200,"station_id":"ce4bhch2rcd13ifvqeug","pricing_plan_id":"cebpf4jnsgd1na2vs0mg"},{"bike_id":"1a6aa141-0249-4c2d-a459-57beb2dca183","system_id":"levelo_inurba_marseille","lat":43.28616,"lon":5.35104,"is_reserved":false,"is_disabled":false,"rental_uris":{"android":"levelo://app?vid=1a6aa141-0249-4c2d-a459-57beb2dca183","ios":"levelo://app?vid=1a6aa141-0249-4c2d-a459-57beb2dca183"},"vehicle_type_id":"4","last_reported":1723381787,"current_range_meters":26800,"station_id":"ce4bhch2rcd13ifvqeug","pricing_plan_id":"cebpf4jnsgd1na2vs0mg"},{"bike_id":"4ced472f-f4b7-4f24-a55e-de229557c8c7","system_id":"levelo_inurba_marseille","lat":43.285856,"lon":5.350771,"is_reserved":false,"is_disabled":false,"rental_uris":{"android":"levelo://app?vid=4ced472f-f4b7-4f24-a55e-de229557c8c7","ios":"levelo://app?vid=4ced472f-f4b7-4f24-a55e-de229557c8c7"},"vehicle_type_id":"4","last_reported":1723381787,"current_range_meters":24400,"station_id":"ce4bhch2rcd13ifvqeug","pricing_plan_id":"cebpf4jnsgd1na2vs0mg"},{"bike_id":"fb9d9799-22f2-4f48-94e3-b6fdf5b74142","system_id":"levelo_inurba_marseille","lat":43.285848,"lon":5.350787,"is_reserved":false,"is_disabled":false,"rental_uris":{"android":"levelo://app?vid=fb9d9799-22f2-4f48-94e3-b6fdf5b74142","ios":"levelo://app?vid=fb9d9799-22f2-4f48-94e3-b6fdf5b74142"},"vehicle_type_id":"4","last_reported":1723381787,"current_range_meters":28800,"station_id":"ce4bhch2rcd13ifvqeug","pricing_plan_id":"cebpf4jnsgd1na2vs0mg"},{"bike_id":"af685ef5-ffc2-4a56-be4f-944d92de5104","system_id":"levelo_inurba_marseille","lat":43.285856,"lon":5.350771,"is_reserved":false,"is_disabled":false,"rental_uris":{"android":"levelo://app?vid=af685ef5-ffc2-4a56-be4f-944d92de5104","ios":"levelo://app?vid=af685ef5-ffc2-4a56-be4f-944d92de5104"},"vehicle_type_id":"4","last_reported":1723381787,"current_range_meters":31200,"station_id":"ce4bhch2rcd13ifvqeug","pricing_plan_id":"cebpf4jnsgd1na2vs0mg"},{"bike_id":"2a7c3b96-f236-4990-978e-60892bfb1509","system_id":"levelo_inurba_marseille","lat":43.285856,"lon":5.350771,"is_reserved":false,"is_disabled":false,"rental_uris":{"android":"levelo://app?vid=2a7c3b96-f236-4990-978e-60892bfb1509","ios":"levelo://app?vid=2a7c3b96-f236-4990-978e-60892bfb1509"},"vehicle_type_id":"4","last_reported":1723381787,"current_range_meters":31200,"station_id":"ce4bhch2rcd13ifvqeug","pricing_plan_id":"cebpf4jnsgd1na2vs0mg"},{"bike_id":"8da99f23-5f09-4b58-af22-ec9682388e78","system_id":"levelo_inurba_marseille","lat":43.285856,"lon":5.350771,"is_reserved":false,"is_disabled":false,"rental_uris":{"android":"levelo://app?vid=8da99f23-5f09-4b58-af22-ec9682388e78","ios":"levelo://app?vid=8da99f23-5f09-4b58-af22-ec9682388e78"},"vehicle_type_id":"4","last_reported":1723381787,"current_range_meters":11600,"station_id":"ce4bhch2rcd13ifvqeug","pricing_plan_id":"cebpf4jnsgd1na2vs0mg"},{"bike_id":"d4c300d2-5532-475d-b59f-eff111caf924","system_id":"levelo_inurba_marseille","lat":43.28613,"lon":5.35109,"is_reserved":false,"is_disabled":false,"rental_uris":{"android":"levelo://app?vid=d4c300d2-5532-475d-b59f-eff111caf924","ios":"levelo://app?vid=d4c300d2-5532-475d-b59f-eff111caf924"},"vehicle_type_id":"4","last_reported":1723381787,"current_range_meters":6800,"station_id":"ce4bhch2rcd13ifvqeug","pricing_plan_id":"cebpf4jnsgd1na2vs0mg"},{"bike_id":"8cef176a-597e-44d4-8570-8a0a5ffa1d70","system_id":"levelo_inurba_marseille","lat":43.28615,"lon":5.35101,"is_reserved":false,"is_disabled":false,"rental_uris":{"android":"levelo://app?vid=8cef176a-597e-44d4-8570-8a0a5ffa1d70","ios":"levelo://app?vid=8cef176a-597e-44d4-8570-8a0a5ffa1d70"},"vehicle_type_id":"4","last_reported":1723381787,"current_range_meters":18400,"station_id":"ce4bhch2rcd13ifvqeug","pricing_plan_id":"cebpf4jnsgd1na2vs0mg"},{"bike_id":"c35c656c-3d21-433c-859d-03574d37f4d9","system_id":"levelo_inurba_marseille","lat":43.28614,"lon":5.35104,"is_reserved":false,"is_disabled":false,"rental_uris":{"android":"levelo://app?vid=c35c656c-3d21-433c-859d-03574d37f4d9","ios":"levelo://app?vid=c35c656c-3d21-433c-859d-03574d37f4d9"},"vehicle_type_id":"4","last_reported":1723381787,"current_range_meters":31200,"station_id":"ce4bhch2rcd13ifvqeug","pricing_plan_id":"cebpf4jnsgd1na2vs0mg"},{"bike_id":"ab6748c2-1ba0-46b7-b706-d63d0922f9de","system_id":"levelo_inurba_marseille","lat":43.28615,"lon":5.351,"is_reserved":false,"is_disabled":false,"rental_uris":{"android":"levelo://app?vid=ab6748c2-1ba0-46b7-b706-d63d0922f9de","ios":"levelo://app?vid=ab6748c2-1ba0-46b7-b706-d63d0922f9de"},"vehicle_type_id":"4","last_reported":1723381787,"current_range_meters":16400,"station_id":"ce4bhch2rcd13ifvqeug","pricing_plan_id":"cebpf4jnsgd1na2vs0mg"},{"bike_id":"fa889433-54d7-45fa-bbfa-bad791d321f7","system_id":"levelo_inurba_marseille","lat":43.28614,"lon":5.35103,"is_reserved":false,"is_disabled":false,"rental_uris":{"android":"levelo://app?vid=fa889433-54d7-45fa-bbfa-bad791d321f7","ios":"levelo://app?vid=fa889433-54d7-45fa-bbfa-bad791d321f7"},"vehicle_type_id":"4","last_reported":1723381787,"current_range_meters":31200,"station_id":"ce4bhch2rcd13ifvqeug","pricing_plan_id":"cebpf4jnsgd1na2vs0mg"},{"bike_id":"0f16659c-ee13-4cd1-af1b-325a992a41d9","system_id":"levelo_inurba_marseille","lat":43.285848,"lon":5.350787,"is_reserved":false,"is_disabled":false,"rental_uris":{"android":"levelo://app?vid=0f16659c-ee13-4cd1-af1b-325a992a41d9","ios":"levelo://app?vid=0f16659c-ee13-4cd1-af1b-325a992a41d9"},"vehicle_type_id":"4","last_reported":1723381787,"current_range_meters":22000,"station_id":"ce4bhch2rcd13ifvqeug","pricing_plan_id":"cebpf4jnsgd1na2vs0mg"},{"bike_id":"76d0b81c-2467-4aa7-9f3e-09d3c24edc2c","system_id":"levelo_inurba_marseille","lat":43.28608,"lon":5.35116,"is_reserved":false,"is_disabled":false,"rental_uris":{"android":"levelo://app?vid=76d0b81c-2467-4aa7-9f3e-09d3c24edc2c","ios":"levelo://app?vid=76d0b81c-2467-4aa7-9f3e-09d3c24edc2c"},"vehicle_type_id":"4","last_reported":1723381787,"current_range_meters":31200,"station_id":"ce4bhch2rcd13ifvqeug","pricing_plan_id":"cebpf4jnsgd1na2vs0mg"},{"bike_id":"a4a3c5af-62b2-4159-814e-c4c7be7a58b1","system_id":"levelo_inurba_marseille","lat":43.285856,"lon":5.350771,"is_reserved":false,"is_disabled":false,"rental_uris":{"android":"levelo://app?vid=a4a3c5af-62b2-4159-814e-c4c7be7a58b1","ios":"levelo://app?vid=a4a3c5af-62b2-4159-814e-c4c7be7a58b1"},"vehicle_type_id":"4","last_reported":1723381787,"current_range_meters":11200,"station_id":"ce4bhch2rcd13ifvqeug","pricing_plan_id":"cebpf4jnsgd1na2vs0mg"},{"bike_id":"38ab68cc-cb12-4f73-b098-877db3a848a3","system_id":"levelo_inurba_marseille","lat":43.285856,"lon":5.350771,"is_reserved":false,"is_disabled":false,"rental_uris":{"android":"levelo://app?vid=38ab68cc-cb12-4f73-b098-877db3a848a3","ios":"levelo://app?vid=38ab68cc-cb12-4f73-b098-877db3a848a3"},"vehicle_type_id":"4","last_reported":1723381787,"current_range_meters":30400,"station_id":"ce4bhch2rcd13ifvqeug","pricing_plan_id":"cebpf4jnsgd1na2vs0mg"},{"bike_id":"45004342-90cf-4859-9654-92df203b7128","system_id":"levelo_inurba_marseille","lat":43.285856,"lon":5.350771,"is_reserved":false,"is_disabled":false,"rental_uris":{"android":"levelo://app?vid=45004342-90cf-4859-9654-92df203b7128","ios":"levelo://app?vid=45004342-90cf-4859-9654-92df203b7128"},"vehicle_type_id":"4","last_reported":1723381787,"current_range_meters":31200,"station_id":"ce4bhch2rcd13ifvqeug","pricing_plan_id":"cebpf4jnsgd1na2vs0mg"},{"bike_id":"c9780652-99f7-4a59-b2d8-be4f1032a557","system_id":"levelo_inurba_marseille","lat":43.285848,"lon":5.350787,"is_reserved":false,"is_disabled":false,"rental_uris":{"android":"levelo://app?vid=c9780652-99f7-4a59-b2d8-be4f1032a557","ios":"levelo://app?vid=c9780652-99f7-4a59-b2d8-be4f1032a557"},"vehicle_type_id":"4","last_reported":1723381787,"current_range_meters":23200,"station_id":"ce4bhch2rcd13ifvqeug","pricing_plan_id":"cebpf4jnsgd1na2vs0mg"},{"bike_id":"7fd29c65-9299-456a-8ef2-3e0ecf83dcda","system_id":"levelo_inurba_marseille","lat":43.2861,"lon":5.35106,"is_reserved":false,"is_disabled":false,"rental_uris":{"android":"levelo://app?vid=7fd29c65-9299-456a-8ef2-3e0ecf83dcda","ios":"levelo://app?vid=7fd29c65-9299-456a-8ef2-3e0ecf83dcda"},"vehicle_type_id":"4","last_reported":1723381787,"current_range_meters":11200,"station_id":"ce4bhch2rcd13ifvqeug","pricing_plan_id":"cebpf4jnsgd1na2vs0mg"},{"bike_id":"6383a9ad-866b-4bac-8362-755138db86a0","system_id":"levelo_inurba_marseille","lat":43.286098,"lon":5.351043,"is_reserved":false,"is_disabled":false,"rental_uris":{"android":"levelo://app?vid=6383a9ad-866b-4bac-8362-755138db86a0","ios":"levelo://app?vid=6383a9ad-866b-4bac-8362-755138db86a0"},"vehicle_type_id":"4","last_reported":1723381787,"current_range_meters":31200,"station_id":"ce4bhch2rcd13ifvqeug","pricing_plan_id":"cebpf4jnsgd1na2vs0mg"},{"bike_id":"99428698-1ed5-4669-a3bb-43daae6070ee","system_id":"levelo_inurba_marseille","lat":43.285856,"lon":5.350771,"is_reserved":false,"is_disabled":false,"rental_uris":{"android":"levelo://app?vid=99428698-1ed5-4669-a3bb-43daae6070ee","ios":"levelo://app?vid=99428698-1ed5-4669-a3bb-43daae6070ee"},"vehicle_type_id":"4","last_reported":1723381787,"current_range_meters":29600,"station_id":"ce4bhch2rcd13ifvqeug","pricing_plan_id":"cebpf4jnsgd1na2vs0mg"},{"bike_id":"d9abf2a6-cbfa-4871-b077-83b42684f21e","system_id":"levelo_inurba_marseille","lat":43.283998,"lon":5.375062,"is_reserved":false,"is_disabled":false,"rental_uris":{"android":"levelo://app?vid=d9abf2a6-cbfa-4871-b077-83b42684f21e","ios":"levelo://app?vid=d9abf2a6-cbfa-4871-b077-83b42684f21e"},"vehicle_type_id":"4","last_reported":1723381787,"current_range_meters":32000,"station_id":"ce4bh412rcd13ifvqds0","pricing_plan_id":"cebpf4jnsgd1na2vs0mg"},{"bike_id":"0c7f6120-0c35-4a17-8cb3-6b911795b85c","system_id":"levelo_inurba_marseille","lat":43.284793,"lon":5.384113,"is_reserved":false,"is_disabled":false,"rental_uris":{"android":"levelo://app?vid=0c7f6120-0c35-4a17-8cb3-6b911795b85c","ios":"levelo://app?vid=0c7f6120-0c35-4a17-8cb3-6b911795b85c"},"vehicle_type_id":"4","last_reported":1723381787,"current_range_meters":16400,"station_id":"ce4bh512rcd13ifvqe3g","pricing_plan_id":"cebpf4jnsgd1na2vs0mg"},{"bike_id":"05124221-3ef8-447b-85d6-62538af724d5","system_id":"levelo_inurba_marseille","lat":43.262012,"lon":5.379307,"is_reserved":false,"is_disabled":false,"rental_uris":{"android":"levelo://app?vid=05124221-3ef8-447b-85d6-62538af724d5","ios":"levelo://app?vid=05124221-3ef8-447b-85d6-62538af724d5"},"vehicle_type_id":"4","last_reported":1723381787,"current_range_meters":26000,"station_id":"ce4bhjp2rcd13ifvqg90","pricing_plan_id":"cebpf4jnsgd1na2vs0mg"},{"bike_id":"8ec970b8-c34f-4815-915a-88fb606cc116","system_id":"levelo_inurba_marseille","lat":43.31892,"lon":5.40741,"is_reserved":false,"is_disabled":false,"rental_uris":{"android":"levelo://app?vid=8ec970b8-c34f-4815-915a-88fb606cc116","ios":"levelo://app?vid=8ec970b8-c34f-4815-915a-88fb606cc116"},"vehicle_type_id":"4","last_reported":1723381787,"current_range_meters":6400,"station_id":"ce4bhq12rcd13ifvqhig","pricing_plan_id":"cebpf4jnsgd1na2vs0mg"},{"bike_id":"05eda3da-4c13-4efe-bf1e-3187d465dc56","system_id":"levelo_inurba_marseille","lat":43.323464,"lon":5.406297,"is_reserved":false,"is_disabled":false,"rental_uris":{"android":"levelo://app?vid=05eda3da-4c13-4efe-bf1e-3187d465dc56","ios":"levelo://app?vid=05eda3da-4c13-4efe-bf1e-3187d465dc56"},"vehicle_type_id":"4","last_reported":1723381787,"current_range_meters":31600,"station_id":"ce4bhq92rcd13ifvqhjg","pricing_plan_id":"cebpf4jnsgd1na2vs0mg"},{"bike_id":"933911d4-c8a7-4496-a945-a9c0ddc2e717","system_id":"levelo_inurba_marseille","lat":43.323464,"lon":5.406297,"is_reserved":false,"is_disabled":false,"rental_uris":{"android":"levelo://app?vid=933911d4-c8a7-4496-a945-a9c0ddc2e717","ios":"levelo://app?vid=933911d4-c8a7-4496-a945-a9c0ddc2e717"},"vehicle_type_id":"4","last_reported":1723381787,"current_range_meters":31600,"station_id":"ce4bhq92rcd13ifvqhjg","pricing_plan_id":"cebpf4jnsgd1na2vs0mg"},{"bike_id":"1bb2a016-3dbf-4a49-a8eb-0623cbc13d9d","system_id":"levelo_inurba_marseille","lat":43.323464,"lon":5.406297,"is_reserved":false,"is_disabled":false,"rental_uris":{"android":"levelo://app?vid=1bb2a016-3dbf-4a49-a8eb-0623cbc13d9d","ios":"levelo://app?vid=1bb2a016-3dbf-4a49-a8eb-0623cbc13d9d"},"vehicle_type_id":"4","last_reported":1723381787,"current_range_meters":30800,"station_id":"ce4bhq92rcd13ifvqhjg","pricing_plan_id":"cebpf4jnsgd1na2vs0mg"},{"bike_id":"eacf47d1-16af-4807-80af-71403d29e5c1","system_id":"levelo_inurba_marseille","lat":43.32342,"lon":5.40623,"is_reserved":false,"is_disabled":false,"rental_uris":{"android":"levelo://app?vid=eacf47d1-16af-4807-80af-71403d29e5c1","ios":"levelo://app?vid=eacf47d1-16af-4807-80af-71403d29e5c1"},"vehicle_type_id":"4","last_reported":1723381787,"current_range_meters":400,"station_id":"ce4bhq92rcd13ifvqhjg","pricing_plan_id":"cebpf4jnsgd1na2vs0mg"},{"bike_id":"35c6728d-4b90-4f23-85bf-feb1928a9847","system_id":"levelo_inurba_marseille","lat":43.323464,"lon":5.406297,"is_reserved":false,"is_disabled":false,"rental_uris":{"android":"levelo://app?vid=35c6728d-4b90-4f23-85bf-feb1928a9847","ios":"levelo://app?vid=35c6728d-4b90-4f23-85bf-feb1928a9847"},"vehicle_type_id":"4","last_reported":1723381787,"current_range_meters":25600,"station_id":"ce4bhq92rcd13ifvqhjg","pricing_plan_id":"cebpf4jnsgd1na2vs0mg"},{"bike_id":"2fdddb01-d401-431e-8c9e-ac6113b6a4c8","system_id":"levelo_inurba_marseille","lat":43.297946,"lon":5.404063,"is_reserved":false,"is_disabled":false,"rental_uris":{"android":"levelo://app?vid=2fdddb01-d401-431e-8c9e-ac6113b6a4c8","ios":"levelo://app?vid=2fdddb01-d401-431e-8c9e-ac6113b6a4c8"},"vehicle_type_id":"4","last_reported":1723381787,"current_range_meters":23200,"station_id":"ce4bh112rcd13ifvqd90","pricing_plan_id":"cebpf4jnsgd1na2vs0mg"},{"bike_id":"60f38dfe-bc05-4d22-ae9e-a47002cd4267","system_id":"levelo_inurba_marseille","lat":43.284793,"lon":5.384113,"is_reserved":false,"is_disabled":false,"rental_uris":{"android":"levelo://app?vid=60f38dfe-bc05-4d22-ae9e-a47002cd4267","ios":"levelo://app?vid=60f38dfe-bc05-4d22-ae9e-a47002cd4267"},"vehicle_type_id":"4","last_reported":1723381787,"current_range_meters":31200,"station_id":"ce4bh512rcd13ifvqe3g","pricing_plan_id":"cebpf4jnsgd1na2vs0mg"},{"bike_id":"ec45def5-e3ce-4519-ac54-793ff574a9fc","system_id":"levelo_inurba_marseille","lat":43.297946,"lon":5.404063,"is_reserved":false,"is_disabled":false,"rental_uris":{"android":"levelo://app?vid=ec45def5-e3ce-4519-ac54-793ff574a9fc","ios":"levelo://app?vid=ec45def5-e3ce-4519-ac54-793ff574a9fc"},"vehicle_type_id":"4","last_reported":1723381787,"current_range_meters":8000,"station_id":"ce4bh112rcd13ifvqd90","pricing_plan_id":"cebpf4jnsgd1na2vs0mg"},{"bike_id":"43b3433a-abf4-47c6-a515-1495a232df2a","system_id":"levelo_inurba_marseille","lat":43.283494,"lon":5.380945,"is_reserved":false,"is_disabled":false,"rental_uris":{"android":"levelo://app?vid=43b3433a-abf4-47c6-a515-1495a232df2a","ios":"levelo://app?vid=43b3433a-abf4-47c6-a515-1495a232df2a"},"vehicle_type_id":"4","last_reported":1723381787,"current_range_meters":15600,"station_id":"ce4bh412rcd13ifvqdr0","pricing_plan_id":"cebpf4jnsgd1na2vs0mg"},{"bike_id":"770c5715-b5e4-4ffa-925f-f1d071cdd616","system_id":"levelo_inurba_marseille","lat":43.29795,"lon":5.404086,"is_reserved":false,"is_disabled":false,"rental_uris":{"android":"levelo://app?vid=770c5715-b5e4-4ffa-925f-f1d071cdd616","ios":"levelo://app?vid=770c5715-b5e4-4ffa-925f-f1d071cdd616"},"vehicle_type_id":"4","last_reported":1723381787,"current_range_meters":18000,"station_id":"ce4bh112rcd13ifvqd90","pricing_plan_id":"cebpf4jnsgd1na2vs0mg"},{"bike_id":"0a3ed474-4dac-4a8d-9f1b-d53770cc8c44","system_id":"levelo_inurba_marseille","lat":43.323464,"lon":5.406297,"is_reserved":false,"is_disabled":false,"rental_uris":{"android":"levelo://app?vid=0a3ed474-4dac-4a8d-9f1b-d53770cc8c44","ios":"levelo://app?vid=0a3ed474-4dac-4a8d-9f1b-d53770cc8c44"},"vehicle_type_id":"4","last_reported":1723381787,"current_range_meters":9200,"station_id":"ce4bhq92rcd13ifvqhjg","pricing_plan_id":"cebpf4jnsgd1na2vs0mg"},{"bike_id":"53fe97b9-1a28-48ec-9c78-51e283ebb310","system_id":"levelo_inurba_marseille","lat":43.284776,"lon":5.385603,"is_reserved":false,"is_disabled":false,"rental_uris":{"android":"levelo://app?vid=53fe97b9-1a28-48ec-9c78-51e283ebb310","ios":"levelo://app?vid=53fe97b9-1a28-48ec-9c78-51e283ebb310"},"vehicle_type_id":"4","last_reported":1723381787,"current_range_meters":4400,"station_id":"ce4bh8p2rcd13ifvqeb0","pricing_plan_id":"cebpf4jnsgd1na2vs0mg"},{"bike_id":"5db581e4-060b-46e8-ab12-6528adcac79d","system_id":"levelo_inurba_marseille","lat":43.283494,"lon":5.380945,"is_reserved":false,"is_disabled":false,"rental_uris":{"android":"levelo://app?vid=5db581e4-060b-46e8-ab12-6528adcac79d","ios":"levelo://app?vid=5db581e4-060b-46e8-ab12-6528adcac79d"},"vehicle_type_id":"4","last_reported":1723381787,"current_range_meters":18800,"station_id":"ce4bh412rcd13ifvqdr0","pricing_plan_id":"cebpf4jnsgd1na2vs0mg"},{"bike_id":"d1b4a59c-4ff0-4f22-809f-0462ec524038","system_id":"levelo_inurba_marseille","lat":43.28427,"lon":5.34998,"is_reserved":false,"is_disabled":false,"rental_uris":{"android":"levelo://app?vid=d1b4a59c-4ff0-4f22-809f-0462ec524038","ios":"levelo://app?vid=d1b4a59c-4ff0-4f22-809f-0462ec524038"},"vehicle_type_id":"4","last_reported":1723381787,"current_range_meters":16400,"station_id":"ce4bhbh2rcd13ifvqepg","pricing_plan_id":"cebpf4jnsgd1na2vs0mg"},{"bike_id":"8cf982e2-38b2-4fcd-8356-588f9a386b85","system_id":"levelo_inurba_marseille","lat":43.284217,"lon":5.349697,"is_reserved":false,"is_disabled":false,"rental_uris":{"android":"levelo://app?vid=8cf982e2-38b2-4fcd-8356-588f9a386b85","ios":"levelo://app?vid=8cf982e2-38b2-4fcd-8356-588f9a386b85"},"vehicle_type_id":"4","last_reported":1723381787,"current_range_meters":17600,"station_id":"ce4bhbh2rcd13ifvqepg","pricing_plan_id":"cebpf4jnsgd1na2vs0mg"},{"bike_id":"1dfe1b81-fb50-4158-9747-b5348d6ecc4a","system_id":"levelo_inurba_marseille","lat":43.284217,"lon":5.349697,"is_reserved":false,"is_disabled":false,"rental_uris":{"android":"levelo://app?vid=1dfe1b81-fb50-4158-9747-b5348d6ecc4a","ios":"levelo://app?vid=1dfe1b81-fb50-4158-9747-b5348d6ecc4a"},"vehicle_type_id":"4","last_reported":1723381787,"current_range_meters":32000,"station_id":"ce4bhbh2rcd13ifvqepg","pricing_plan_id":"cebpf4jnsgd1na2vs0mg"},{"bike_id":"1c64057c-042b-4a99-998c-01f9121fbc9e","system_id":"levelo_inurba_marseille","lat":43.284244,"lon":5.34997,"is_reserved":false,"is_disabled":false,"rental_uris":{"android":"levelo://app?vid=1c64057c-042b-4a99-998c-01f9121fbc9e","ios":"levelo://app?vid=1c64057c-042b-4a99-998c-01f9121fbc9e"},"vehicle_type_id":"4","last_reported":1723381787,"current_range_meters":31200,"station_id":"ce4bhbh2rcd13ifvqepg","pricing_plan_id":"cebpf4jnsgd1na2vs0mg"},{"bike_id":"1e54a4ed-41d9-4930-b1f0-55c9401e8da1","system_id":"levelo_inurba_marseille","lat":43.284217,"lon":5.349697,"is_reserved":false,"is_disabled":false,"rental_uris":{"android":"levelo://app?vid=1e54a4ed-41d9-4930-b1f0-55c9401e8da1","ios":"levelo://app?vid=1e54a4ed-41d9-4930-b1f0-55c9401e8da1"},"vehicle_type_id":"4","last_reported":1723381787,"current_range_meters":32000,"station_id":"ce4bhbh2rcd13ifvqepg","pricing_plan_id":"cebpf4jnsgd1na2vs0mg"},{"bike_id":"10fdca3c-fdb9-4d47-a559-e9f914d604b6","system_id":"levelo_inurba_marseille","lat":43.28423,"lon":5.35001,"is_reserved":false,"is_disabled":false,"rental_uris":{"android":"levelo://app?vid=10fdca3c-fdb9-4d47-a559-e9f914d604b6","ios":"levelo://app?vid=10fdca3c-fdb9-4d47-a559-e9f914d604b6"},"vehicle_type_id":"4","last_reported":1723381787,"current_range_meters":28800,"station_id":"ce4bhbh2rcd13ifvqepg","pricing_plan_id":"cebpf4jnsgd1na2vs0mg"},{"bike_id":"4479625d-2f26-4b54-ae0f-aa518617e167","system_id":"levelo_inurba_marseille","lat":43.284214,"lon":5.349706,"is_reserved":false,"is_disabled":false,"rental_uris":{"android":"levelo://app?vid=4479625d-2f26-4b54-ae0f-aa518617e167","ios":"levelo://app?vid=4479625d-2f26-4b54-ae0f-aa518617e167"},"vehicle_type_id":"4","last_reported":1723381787,"current_range_meters":18800,"station_id":"ce4bhbh2rcd13ifvqepg","pricing_plan_id":"cebpf4jnsgd1na2vs0mg"},{"bike_id":"b9028d3e-6f07-4e3b-b943-d16df31e3233","system_id":"levelo_inurba_marseille","lat":43.284217,"lon":5.349697,"is_reserved":false,"is_disabled":false,"rental_uris":{"android":"levelo://app?vid=b9028d3e-6f07-4e3b-b943-d16df31e3233","ios":"levelo://app?vid=b9028d3e-6f07-4e3b-b943-d16df31e3233"},"vehicle_type_id":"4","last_reported":1723381787,"current_range_meters":9200,"station_id":"ce4bhbh2rcd13ifvqepg","pricing_plan_id":"cebpf4jnsgd1na2vs0mg"},{"bike_id":"e055aec2-e8bb-4c50-9960-2074355b72cc","system_id":"levelo_inurba_marseille","lat":43.284217,"lon":5.349697,"is_reserved":false,"is_disabled":false,"rental_uris":{"android":"levelo://app?vid=e055aec2-e8bb-4c50-9960-2074355b72cc","ios":"levelo://app?vid=e055aec2-e8bb-4c50-9960-2074355b72cc"},"vehicle_type_id":"4","last_reported":1723381787,"current_range_meters":8000,"station_id":"ce4bhbh2rcd13ifvqepg","pricing_plan_id":"cebpf4jnsgd1na2vs0mg"},{"bike_id":"22236361-64af-4337-9143-5b489176cad0","system_id":"levelo_inurba_marseille","lat":43.28426,"lon":5.3499,"is_reserved":false,"is_disabled":false,"rental_uris":{"android":"levelo://app?vid=22236361-64af-4337-9143-5b489176cad0","ios":"levelo://app?vid=22236361-64af-4337-9143-5b489176cad0"},"vehicle_type_id":"4","last_reported":1723381787,"current_range_meters":12000,"station_id":"ce4bhbh2rcd13ifvqepg","pricing_plan_id":"cebpf4jnsgd1na2vs0mg"},{"bike_id":"983e0bf7-c078-40b3-b1e2-dee41115a9c9","system_id":"levelo_inurba_marseille","lat":43.28424,"lon":5.34992,"is_reserved":false,"is_disabled":false,"rental_uris":{"android":"levelo://app?vid=983e0bf7-c078-40b3-b1e2-dee41115a9c9","ios":"levelo://app?vid=983e0bf7-c078-40b3-b1e2-dee41115a9c9"},"vehicle_type_id":"4","last_reported":1723381787,"current_range_meters":26800,"station_id":"ce4bhbh2rcd13ifvqepg","pricing_plan_id":"cebpf4jnsgd1na2vs0mg"},{"bike_id":"0eca502d-98b8-48ac-9612-44051efbecd6","system_id":"levelo_inurba_marseille","lat":43.284217,"lon":5.349697,"is_reserved":false,"is_disabled":false,"rental_uris":{"android":"levelo://app?vid=0eca502d-98b8-48ac-9612-44051efbecd6","ios":"levelo://app?vid=0eca502d-98b8-48ac-9612-44051efbecd6"},"vehicle_type_id":"4","last_reported":1723381787,"current_range_meters":29600,"station_id":"ce4bhbh2rcd13ifvqepg","pricing_plan_id":"cebpf4jnsgd1na2vs0mg"},{"bike_id":"790248bf-2657-40ea-a6a9-bd05123e3e2c","system_id":"levelo_inurba_marseille","lat":43.284217,"lon":5.349697,"is_reserved":false,"is_disabled":false,"rental_uris":{"android":"levelo://app?vid=790248bf-2657-40ea-a6a9-bd05123e3e2c","ios":"levelo://app?vid=790248bf-2657-40ea-a6a9-bd05123e3e2c"},"vehicle_type_id":"4","last_reported":1723381787,"current_range_meters":31200,"station_id":"ce4bhbh2rcd13ifvqepg","pricing_plan_id":"cebpf4jnsgd1na2vs0mg"},{"bike_id":"f2130e26-5141-4bdd-a5de-04f6ed909f8b","system_id":"levelo_inurba_marseille","lat":43.284214,"lon":5.349706,"is_reserved":false,"is_disabled":false,"rental_uris":{"android":"levelo://app?vid=f2130e26-5141-4bdd-a5de-04f6ed909f8b","ios":"levelo://app?vid=f2130e26-5141-4bdd-a5de-04f6ed909f8b"},"vehicle_type_id":"4","last_reported":1723381787,"current_range_meters":20000,"station_id":"ce4bhbh2rcd13ifvqepg","pricing_plan_id":"cebpf4jnsgd1na2vs0mg"},{"bike_id":"628bf91a-fa5f-49de-8897-725536acb746","system_id":"levelo_inurba_marseille","lat":43.28419,"lon":5.34993,"is_reserved":false,"is_disabled":false,"rental_uris":{"android":"levelo://app?vid=628bf91a-fa5f-49de-8897-725536acb746","ios":"levelo://app?vid=628bf91a-fa5f-49de-8897-725536acb746"},"vehicle_type_id":"4","last_reported":1723381787,"current_range_meters":16800,"station_id":"ce4bhbh2rcd13ifvqepg","pricing_plan_id":"cebpf4jnsgd1na2vs0mg"},{"bike_id":"6fb120ee-1cb7-49ed-9d30-b85a02edef55","system_id":"levelo_inurba_marseille","lat":43.28418,"lon":5.34992,"is_reserved":false,"is_disabled":false,"rental_uris":{"android":"levelo://app?vid=6fb120ee-1cb7-49ed-9d30-b85a02edef55","ios":"levelo://app?vid=6fb120ee-1cb7-49ed-9d30-b85a02edef55"},"vehicle_type_id":"4","last_reported":1723381787,"current_range_meters":7600,"station_id":"ce4bhbh2rcd13ifvqepg","pricing_plan_id":"cebpf4jnsgd1na2vs0mg"},{"bike_id":"7fc3d50c-e2ba-444f-b963-3d8c961f6108","system_id":"levelo_inurba_marseille","lat":43.284214,"lon":5.349706,"is_reserved":false,"is_disabled":false,"rental_uris":{"android":"levelo://app?vid=7fc3d50c-e2ba-444f-b963-3d8c961f6108","ios":"levelo://app?vid=7fc3d50c-e2ba-444f-b963-3d8c961f6108"},"vehicle_type_id":"4","last_reported":1723381787,"current_range_meters":31200,"station_id":"ce4bhbh2rcd13ifvqepg","pricing_plan_id":"cebpf4jnsgd1na2vs0mg"},{"bike_id":"6bcbf69c-7cf5-4a9c-a0e6-476a428a4eb0","system_id":"levelo_inurba_marseille","lat":43.28419,"lon":5.34981,"is_reserved":false,"is_disabled":false,"rental_uris":{"android":"levelo://app?vid=6bcbf69c-7cf5-4a9c-a0e6-476a428a4eb0","ios":"levelo://app?vid=6bcbf69c-7cf5-4a9c-a0e6-476a428a4eb0"},"vehicle_type_id":"4","last_reported":1723381787,"current_range_meters":10800,"station_id":"ce4bhbh2rcd13ifvqepg","pricing_plan_id":"cebpf4jnsgd1na2vs0mg"},{"bike_id":"855443ca-e626-462d-9fa6-6c99df11dd6b","system_id":"levelo_inurba_marseille","lat":43.284217,"lon":5.349697,"is_reserved":false,"is_disabled":false,"rental_uris":{"android":"levelo://app?vid=855443ca-e626-462d-9fa6-6c99df11dd6b","ios":"levelo://app?vid=855443ca-e626-462d-9fa6-6c99df11dd6b"},"vehicle_type_id":"4","last_reported":1723381787,"current_range_meters":10800,"station_id":"ce4bhbh2rcd13ifvqepg","pricing_plan_id":"cebpf4jnsgd1na2vs0mg"},{"bike_id":"3b355fe7-6f8c-4dcf-abb7-00c0e0faebe8","system_id":"levelo_inurba_marseille","lat":43.284217,"lon":5.349697,"is_reserved":false,"is_disabled":false,"rental_uris":{"android":"levelo://app?vid=3b355fe7-6f8c-4dcf-abb7-00c0e0faebe8","ios":"levelo://app?vid=3b355fe7-6f8c-4dcf-abb7-00c0e0faebe8"},"vehicle_type_id":"4","last_reported":1723381787,"current_range_meters":31200,"station_id":"ce4bhbh2rcd13ifvqepg","pricing_plan_id":"cebpf4jnsgd1na2vs0mg"},{"bike_id":"d48d4b9b-cf6f-42d9-a22d-fa6e05a888af","system_id":"levelo_inurba_marseille","lat":43.28421,"lon":5.34971,"is_reserved":false,"is_disabled":false,"rental_uris":{"android":"levelo://app?vid=d48d4b9b-cf6f-42d9-a22d-fa6e05a888af","ios":"levelo://app?vid=d48d4b9b-cf6f-42d9-a22d-fa6e05a888af"},"vehicle_type_id":"4","last_reported":1723381787,"current_range_meters":31200,"station_id":"ce4bhbh2rcd13ifvqepg","pricing_plan_id":"cebpf4jnsgd1na2vs0mg"},{"bike_id":"6ebe516e-3164-45ee-b8ef-fcb189e1d292","system_id":"levelo_inurba_marseille","lat":43.284217,"lon":5.349697,"is_reserved":false,"is_disabled":false,"rental_uris":{"android":"levelo://app?vid=6ebe516e-3164-45ee-b8ef-fcb189e1d292","ios":"levelo://app?vid=6ebe516e-3164-45ee-b8ef-fcb189e1d292"},"vehicle_type_id":"4","last_reported":1723381787,"current_range_meters":22000,"station_id":"ce4bhbh2rcd13ifvqepg","pricing_plan_id":"cebpf4jnsgd1na2vs0mg"},{"bike_id":"e962f910-9601-4bae-b4e2-9a5a9375a0c4","system_id":"levelo_inurba_marseille","lat":43.284214,"lon":5.349706,"is_reserved":false,"is_disabled":false,"rental_uris":{"android":"levelo://app?vid=e962f910-9601-4bae-b4e2-9a5a9375a0c4","ios":"levelo://app?vid=e962f910-9601-4bae-b4e2-9a5a9375a0c4"},"vehicle_type_id":"4","last_reported":1723381787,"current_range_meters":14800,"station_id":"ce4bhbh2rcd13ifvqepg","pricing_plan_id":"cebpf4jnsgd1na2vs0mg"},{"bike_id":"e6b19038-8e5e-4e35-beb4-a994162d0222","system_id":"levelo_inurba_marseille","lat":43.28415,"lon":5.34983,"is_reserved":false,"is_disabled":false,"rental_uris":{"android":"levelo://app?vid=e6b19038-8e5e-4e35-beb4-a994162d0222","ios":"levelo://app?vid=e6b19038-8e5e-4e35-beb4-a994162d0222"},"vehicle_type_id":"4","last_reported":1723381787,"current_range_meters":31200,"station_id":"ce4bhbh2rcd13ifvqepg","pricing_plan_id":"cebpf4jnsgd1na2vs0mg"},{"bike_id":"f5217974-d24f-4796-808c-9ad1702c065e","system_id":"levelo_inurba_marseille","lat":43.284214,"lon":5.349706,"is_reserved":false,"is_disabled":false,"rental_uris":{"android":"levelo://app?vid=f5217974-d24f-4796-808c-9ad1702c065e","ios":"levelo://app?vid=f5217974-d24f-4796-808c-9ad1702c065e"},"vehicle_type_id":"4","last_reported":1723381787,"current_range_meters":31200,"station_id":"ce4bhbh2rcd13ifvqepg","pricing_plan_id":"cebpf4jnsgd1na2vs0mg"},{"bike_id":"483a6382-6ac0-46d4-b06d-b534d6c048e9","system_id":"levelo_inurba_marseille","lat":43.284217,"lon":5.349697,"is_reserved":false,"is_disabled":false,"rental_uris":{"android":"levelo://app?vid=483a6382-6ac0-46d4-b06d-b534d6c048e9","ios":"levelo://app?vid=483a6382-6ac0-46d4-b06d-b534d6c048e9"},"vehicle_type_id":"4","last_reported":1723381787,"current_range_meters":8800,"station_id":"ce4bhbh2rcd13ifvqepg","pricing_plan_id":"cebpf4jnsgd1na2vs0mg"},{"bike_id":"ddf95f7b-5eaa-46d5-b4b3-db65e8a30e62","system_id":"levelo_inurba_marseille","lat":43.28416,"lon":5.34977,"is_reserved":false,"is_disabled":false,"rental_uris":{"android":"levelo://app?vid=ddf95f7b-5eaa-46d5-b4b3-db65e8a30e62","ios":"levelo://app?vid=ddf95f7b-5eaa-46d5-b4b3-db65e8a30e62"},"vehicle_type_id":"4","last_reported":1723381787,"current_range_meters":24000,"station_id":"ce4bhbh2rcd13ifvqepg","pricing_plan_id":"cebpf4jnsgd1na2vs0mg"},{"bike_id":"ecf901c0-f9cc-4fcc-8422-4ae67e6bb030","system_id":"levelo_inurba_marseille","lat":43.284217,"lon":5.349697,"is_reserved":false,"is_disabled":false,"rental_uris":{"android":"levelo://app?vid=ecf901c0-f9cc-4fcc-8422-4ae67e6bb030","ios":"levelo://app?vid=ecf901c0-f9cc-4fcc-8422-4ae67e6bb030"},"vehicle_type_id":"4","last_reported":1723381787,"current_range_meters":7200,"station_id":"ce4bhbh2rcd13ifvqepg","pricing_plan_id":"cebpf4jnsgd1na2vs0mg"},{"bike_id":"97289d8b-ede1-43da-a0e0-cb44297dc664","system_id":"levelo_inurba_marseille","lat":43.284214,"lon":5.349706,"is_reserved":false,"is_disabled":false,"rental_uris":{"android":"levelo://app?vid=97289d8b-ede1-43da-a0e0-cb44297dc664","ios":"levelo://app?vid=97289d8b-ede1-43da-a0e0-cb44297dc664"},"vehicle_type_id":"4","last_reported":1723381787,"current_range_meters":31200,"station_id":"ce4bhbh2rcd13ifvqepg","pricing_plan_id":"cebpf4jnsgd1na2vs0mg"},{"bike_id":"fb087923-960e-4511-8ca7-4f1c3a5a4940","system_id":"levelo_inurba_marseille","lat":43.28413,"lon":5.3498,"is_reserved":false,"is_disabled":false,"rental_uris":{"android":"levelo://app?vid=fb087923-960e-4511-8ca7-4f1c3a5a4940","ios":"levelo://app?vid=fb087923-960e-4511-8ca7-4f1c3a5a4940"},"vehicle_type_id":"4","last_reported":1723381787,"current_range_meters":24000,"station_id":"ce4bhbh2rcd13ifvqepg","pricing_plan_id":"cebpf4jnsgd1na2vs0mg"},{"bike_id":"f67b1dac-4283-4c8a-b874-51ea2c10f0a0","system_id":"levelo_inurba_marseille","lat":43.284121,"lon":5.349807,"is_reserved":false,"is_disabled":false,"rental_uris":{"android":"levelo://app?vid=f67b1dac-4283-4c8a-b874-51ea2c10f0a0","ios":"levelo://app?vid=f67b1dac-4283-4c8a-b874-51ea2c10f0a0"},"vehicle_type_id":"4","last_reported":1723381787,"current_range_meters":1600,"station_id":"ce4bhbh2rcd13ifvqepg","pricing_plan_id":"cebpf4jnsgd1na2vs0mg"},{"bike_id":"e65d181f-20fb-420a-a207-e5285699aa30","system_id":"levelo_inurba_marseille","lat":43.284214,"lon":5.349706,"is_reserved":false,"is_disabled":false,"rental_uris":{"android":"levelo://app?vid=e65d181f-20fb-420a-a207-e5285699aa30","ios":"levelo://app?vid=e65d181f-20fb-420a-a207-e5285699aa30"},"vehicle_type_id":"4","last_reported":1723381787,"current_range_meters":28400,"station_id":"ce4bhbh2rcd13ifvqepg","pricing_plan_id":"cebpf4jnsgd1na2vs0mg"},{"bike_id":"8a9edcbb-f2f1-4906-ba91-4f3c595d1806","system_id":"levelo_inurba_marseille","lat":43.284217,"lon":5.349697,"is_reserved":false,"is_disabled":false,"rental_uris":{"android":"levelo://app?vid=8a9edcbb-f2f1-4906-ba91-4f3c595d1806","ios":"levelo://app?vid=8a9edcbb-f2f1-4906-ba91-4f3c595d1806"},"vehicle_type_id":"4","last_reported":1723381787,"current_range_meters":12000,"station_id":"ce4bhbh2rcd13ifvqepg","pricing_plan_id":"cebpf4jnsgd1na2vs0mg"},{"bike_id":"4ee5a10e-8e7e-4a22-9f47-39a2ac606387","system_id":"levelo_inurba_marseille","lat":43.28405,"lon":5.3499,"is_reserved":false,"is_disabled":false,"rental_uris":{"android":"levelo://app?vid=4ee5a10e-8e7e-4a22-9f47-39a2ac606387","ios":"levelo://app?vid=4ee5a10e-8e7e-4a22-9f47-39a2ac606387"},"vehicle_type_id":"4","last_reported":1723381787,"current_range_meters":28000,"station_id":"ce4bhbh2rcd13ifvqepg","pricing_plan_id":"cebpf4jnsgd1na2vs0mg"},{"bike_id":"5e8a731a-a5cb-41cc-ae8f-ac4d996c4f90","system_id":"levelo_inurba_marseille","lat":43.284214,"lon":5.349706,"is_reserved":false,"is_disabled":false,"rental_uris":{"android":"levelo://app?vid=5e8a731a-a5cb-41cc-ae8f-ac4d996c4f90","ios":"levelo://app?vid=5e8a731a-a5cb-41cc-ae8f-ac4d996c4f90"},"vehicle_type_id":"4","last_reported":1723381787,"current_range_meters":10000,"station_id":"ce4bhbh2rcd13ifvqepg","pricing_plan_id":"cebpf4jnsgd1na2vs0mg"},