{"last_updated":1768292235,"ttl":60,"version":"2.2","data":{"bikes":[{"bike_id":"a16392da-5207-4df7-9429-2df19a8a41ee","system_id":"levelo_inurba_marseille","lat":43.329548,"lon":5.390409,"is_reserved":false,"is_disabled":false,"rental_uris":{"android":"levelo://app?vid=a16392da-5207-4df7-9429-2df19a8a41ee","ios":"levelo://app?vid=a16392da-5207-4df7-9429-2df19a8a41ee"},"vehicle_type_id":"4","last_reported":1768292235,"current_range_meters":2800,"station_id":"","pricing_plan_id":"cebpf4jnsgd1na2vs0mg"},{"bike_id":"a10cebfe-81dc-4dff-bad4-c25d976b2067","system_id":"levelo_inurba_marseille","lat":43.28423,"lon":5.35004,"is_reserved":false,"is_disabled":false,"rental_uris":{"android":"levelo://app?vid=a10cebfe-81dc-4dff-bad4-c25d976b2067","ios":"levelo://app?vid=a10cebfe-81dc-4dff-bad4-c25d976b2067"},"vehicle_type_id":"4","last_reported":1768292235,"current_range_meters":2800,"station_id":"ce4bhbh2rcd13ifvqepg","pricing_plan_id":"cebpf4jnsgd1na2vs0mg"},{"bike_id":"4788ece5-a883-4bfe-ba00-be4c6b0fd216","system_id":"levelo_inurba_marseille","lat":43.309482,"lon":5.390297,"is_reserved":false,"is_disabled":false,"rental_uris":{"android":"levelo://app?vid=4788ece5-a883-4bfe-ba00-be4c6b0fd216","ios":"levelo://app?vid=4788ece5-a883-4bfe-ba00-be4c6b0fd216"},"vehicle_type_id":"4","last_reported":1768292235,"current_range_meters":2800,"station_id":"ce4bgup2rcd13ifvqco0","pricing_plan_id":"cebpf4jnsgd1na2vs0mg"},{"bike_id":"2587eba2-f80d-4b3a-88e3-bb85d27a199d","system_id":"levelo_inurba_marseille","lat":43.22558,"lon":5.41628,"is_reserved":false,"is_disabled":false,"rental_uris":{"android":"levelo://app?vid=2587eba2-f80d-4b3a-88e3-bb85d27a199d","ios":"levelo://app?vid=2587eba2-f80d-4b3a-88e3-bb85d27a199d"},"vehicle_type_id":"4","last_reported":1768292235,"current_range_meters":2800,"station_id":"st_d2o4gvlbi1j2169b742g","pricing_plan_id":"cebpf4jnsgd1na2vs0mg"},{"bike_id":"cf7ff780-5cc1-488c-bf59-2cc02d1f230b","system_id":"levelo_inurba_marseille","lat":43.23792,"lon":5.36637,"is_reserved":false,"is_disabled":false,"rental_uris":{"android":"levelo://app?vid=cf7ff780-5cc1-488c-bf59-2cc02d1f230b","ios":"levelo://app?vid=cf7ff780-5cc1-488c-bf59-2cc02d1f230b"},"vehicle_type_id":"4","last_reported":1768292235,"current_range_meters":2800,"station_id":"st_d3nk18o9ro0c73en2l3g","pricing_plan_id":"cebpf4jnsgd1na2vs0mg"},{"bike_id":"b0d8414b-9ec4-4d2d-ada4-4b5a508ba76c","system_id":"levelo_inurba_marseille","lat":43.259314,"lon":5.409094,"is_reserved":false,"is_disabled":false,"rental_uris":{"android":"levelo://app?vid=b0d8414b-9ec4-4d2d-ada4-4b5a508ba76c","ios":"levelo://app?vid=b0d8414b-9ec4-4d2d-ada4-4b5a508ba76c"},"vehicle_type_id":"4","last_reported":1768292235,"current_range_meters":2800,"station_id":"ce4bhm92rcd13ifvqglg","pricing_plan_id":"cebpf4jnsgd1na2vs0mg"},{"bike_id":"0d6861ac-ec4e-4d10-98d8-4b15db17966f","system_id":"levelo_inurba_marseille","lat":43.290826,"lon":5.371451,"is_reserved":false,"is_disabled":false,"rental_uris":{"android":"levelo://app?vid=0d6861ac-ec4e-4d10-98d8-4b15db17966f","ios":"levelo://app?vid=0d6861ac-ec4e-4d10-98d8-4b15db17966f"},"vehicle_type_id":"4","last_reported":1768292235,"current_range_meters":2800,"station_id":"ce4bhgp2rcd13ifvqfe0","pricing_plan_id":"cebpf4jnsgd1na2vs0mg"},{"bike_id":"dd67a0b3-d5e0-4276-b1a4-1926be74a790","system_id":"levelo_inurba_marseille","lat":43.30014,"lon":5.37637,"is_reserved":false,"is_disabled":false,"rental_uris":{"android":"levelo://app?vid=dd67a0b3-d5e0-4276-b1a4-1926be74a790","ios":"levelo://app?vid=dd67a0b3-d5e0-4276-b1a4-1926be74a790"},"vehicle_type_id":"4","last_reported":1768292235,"current_range_meters":2800,"station_id":"","pricing_plan_id":"cebpf4jnsgd1na2vs0mg"},{"bike_id":"56f33d1a-63a6-44cd-9b0f-4476e7b7806c","system_id":"levelo_inurba_marseille","lat":43.24072,"lon":5.37761,"is_reserved":false,"is_disabled":false,"rental_uris":{"android":"levelo://app?vid=56f33d1a-63a6-44cd-9b0f-4476e7b7806c","ios":"levelo://app?vid=56f33d1a-63a6-44cd-9b0f-4476e7b7806c"},"vehicle_type_id":"4","last_reported":1768292235,"current_range_meters":2800,"station_id":"ce4bhnp2rcd13ifvqgvg","pricing_plan_id":"cebpf4jnsgd1na2vs0mg"},{"bike_id":"bce5bef6-66c0-48f9-9494-83e46be9a229","system_id":"levelo_inurba_marseille","lat":43.32331,"lon":5.36728,"is_reserved":false,"is_disabled":false,"rental_uris":{"android":"levelo://app?vid=bce5bef6-66c0-48f9-9494-83e46be9a229","ios":"levelo://app?vid=bce5bef6-66c0-48f9-9494-83e46be9a229"},"vehicle_type_id":"4","last_reported":1768292235,"current_range_meters":2800,"station_id":"ce4bhsh2rcd13ifvqi2g","pricing_plan_id":"cebpf4jnsgd1na2vs0mg"},{"bike_id":"886f6a48-d8c9-4f03-9c08-fa6700bc8f85","system_id":"levelo_inurba_marseille","lat":43.229347,"lon":5.353771,"is_reserved":false,"is_disabled":false,"rental_uris":{"android":"levelo://app?vid=886f6a48-d8c9-4f03-9c08-fa6700bc8f85","ios":"levelo://app?vid=886f6a48-d8c9-4f03-9c08-fa6700bc8f85"},"vehicle_type_id":"4","last_reported":1768292235,"current_range_meters":2800,"station_id":"cpo3532slgdg3j2ikp40","pricing_plan_id":"cebpf4jnsgd1na2vs0mg"},{"bike_id":"87d2e836-66b2-4b54-8e1b-5859da189744","system_id":"levelo_inurba_marseille","lat":43.26685,"lon":5.38274,"is_reserved":false,"is_disabled":false,"rental_uris":{"android":"levelo://app?vid=87d2e836-66b2-4b54-8e1b-5859da189744","ios":"levelo://app?vid=87d2e836-66b2-4b54-8e1b-5859da189744"},"vehicle_type_id":"4","last_reported":1768292235,"current_range_meters":2800,"station_id":"ce4bhg92rcd13ifvqf90","pricing_plan_id":"cebpf4jnsgd1na2vs0mg"},{"bike_id":"38b39450-3195-45d5-b465-938994e14bc8","system_id":"levelo_inurba_marseille","lat":43.28935,"lon":5.36648,"is_reserved":false,"is_disabled":false,"rental_uris":{"android":"levelo://app?vid=38b39450-3195-45d5-b465-938994e14bc8","ios":"levelo://app?vid=38b39450-3195-45d5-b465-938994e14bc8"},"vehicle_type_id":"4","last_reported":1768292235,"current_range_meters":2800,"station_id":"ce4bhap2rcd13ifvqek0","pricing_plan_id":"cebpf4jnsgd1na2vs0mg"},{"bike_id":"6cfafae2-24e3-4bb5-9336-a15339de06af","system_id":"levelo_inurba_marseille","lat":43.23785,"lon":5.36628,"is_reserved":false,"is_disabled":false,"rental_uris":{"android":"levelo://app?vid=6cfafae2-24e3-4bb5-9336-a15339de06af","ios":"levelo://app?vid=6cfafae2-24e3-4bb5-9336-a15339de06af"},"vehicle_type_id":"4","last_reported":1768292235,"current_range_meters":3200,"station_id":"st_d3nk18o9ro0c73en2l3g","pricing_plan_id":"cebpf4jnsgd1na2vs0mg"},{"bike_id":"35254f06-efb2-4d00-b949-89c11838f9ec","system_id":"levelo_inurba_marseille","lat":43.23195,"lon":5.35551,"is_reserved":false,"is_disabled":false,"rental_uris":{"android":"levelo://app?vid=35254f06-efb2-4d00-b949-89c11838f9ec","ios":"levelo://app?vid=35254f06-efb2-4d00-b949-89c11838f9ec"},"vehicle_type_id":"4","last_reported":1768292235,"current_range_meters":3200,"station_id":"ce4bhu92rcd13ifvqi70","pricing_plan_id":"cebpf4jnsgd1na2vs0mg"},{"bike_id":"18959285-a787-476c-a26f-440113181d13","system_id":"levelo_inurba_marseille","lat":43.28491,"lon":5.38453,"is_reserved":false,"is_disabled":true,"rental_uris":{"android":"levelo://app?vid=18959285-a787-476c-a26f-440113181d13","ios":"levelo://app?vid=18959285-a787-476c-a26f-440113181d13"},"vehicle_type_id":"4","last_reported":1768292235,"current_range_meters":3200,"station_id":"ce4bh512rcd13ifvqe3g","pricing_plan_id":"cebpf4jnsgd1na2vs0mg"},{"bike_id":"857213d5-7353-4d98-a3cc-a303673faf43","system_id":"levelo_inurba_marseille","lat":43.255809,"lon":5.382161,"is_reserved":false,"is_disabled":false,"rental_uris":{"android":"levelo://app?vid=857213d5-7353-4d98-a3cc-a303673faf43","ios":"levelo://app?vid=857213d5-7353-4d98-a3cc-a303673faf43"},"vehicle_type_id":"4","last_reported":1768292235,"current_range_meters":3200,"station_id":"","pricing_plan_id":"cebpf4jnsgd1na2vs0mg"},{"bike_id":"cddcf2c2-04b5-4843-b385-219618c4a20f","system_id":"levelo_inurba_marseille","lat":43.28618,"lon":5.35124,"is_reserved":false,"is_disabled":false,"rental_uris":{"android":"levelo://app?vid=cddcf2c2-04b5-4843-b385-219618c4a20f","ios":"levelo://app?vid=cddcf2c2-04b5-4843-b385-219618c4a20f"},"vehicle_type_id":"4","last_reported":1768292235,"current_range_meters":3200,"station_id":"ce4bhch2rcd13ifvqeug","pricing_plan_id":"cebpf4jnsgd1na2vs0mg"},{"bike_id":"3c388ee4-b696-4e20-bf8d-9607c33545e9","system_id":"levelo_inurba_marseille","lat":43.2904,"lon":5.3996,"is_reserved":false,"is_disabled":false,"rental_uris":{"android":"levelo://app?vid=3c388ee4-b696-4e20-bf8d-9607c33545e9","ios":"levelo://app?vid=3c388ee4-b696-4e20-bf8d-9607c33545e9"},"vehicle_type_id":"4","last_reported":1768292235,"current_range_meters":3200,"station_id":"ce4bh392rcd13ifvqdm0","pricing_plan_id":"cebpf4jnsgd1na2vs0mg"},{"bike_id":"623f82e1-1993-441f-a6e6-43e2ffee1c43","system_id":"levelo_inurba_marseille","lat":43.25712,"lon":5.41108,"is_reserved":false,"is_disabled":false,"rental_uris":{"android":"levelo://app?vid=623f82e1-1993-441f-a6e6-43e2ffee1c43","ios":"levelo://app?vid=623f82e1-1993-441f-a6e6-43e2ffee1c43"},"vehicle_type_id":"4","last_reported":1768292235,"current_range_meters":3200,"station_id":"ce4bhkp2rcd13ifvqgd0","pricing_plan_id":"cebpf4jnsgd1na2vs0mg"},{"bike_id":"2f6b0b3e-f1a1-487e-a055-63a60d47e9eb","system_id":"levelo_inurba_marseille","lat":43.30314,"lon":5.369,"is_reserved":false,"is_disabled":false,"rental_uris":{"android":"levelo://app?vid=2f6b0b3e-f1a1-487e-a055-63a60d47e9eb","ios":"levelo://app?vid=2f6b0b3e-f1a1-487e-a055-63a60d47e9eb"},"vehicle_type_id":"4","last_reported":1768292235,"current_range_meters":3200,"station_id":"ce4bgqh2rcd13ifvqc5g","pricing_plan_id":"cebpf4jnsgd1na2vs0mg"},{"bike_id":"833c6aae-1551-4ad2-9cd6-685f0cd0612c","system_id":"levelo_inurba_marseille","lat":43.26951,"lon":5.386277,"is_reserved":false,"is_disabled":false,"rental_uris":{"android":"levelo://app?vid=833c6aae-1551-4ad2-9cd6-685f0cd0612c","ios":"levelo://app?vid=833c6aae-1551-4ad2-9cd6-685f0cd0612c"},"vehicle_type_id":"4","last_reported":1768292235,"current_range_meters":3200,"station_id":"ce4bhh92rcd13ifvqfh0","pricing_plan_id":"cebpf4jnsgd1na2vs0mg"},{"bike_id":"24f0a2da-aa1b-495a-8bd2-5db4872b3634","system_id":"levelo_inurba_marseille","lat":43.2256,"lon":5.41625,"is_reserved":false,"is_disabled":false,"rental_uris":{"android":"levelo://app?vid=24f0a2da-aa1b-495a-8bd2-5db4872b3634","ios":"levelo://app?vid=24f0a2da-aa1b-495a-8bd2-5db4872b3634"},"vehicle_type_id":"4","last_reported":1768292235,"current_range_meters":3200,"station_id":"st_d2o4gvlbi1j2169b742g","pricing_plan_id":"cebpf4jnsgd1na2vs0mg"},{"bike_id":"e5b92296-b086-419a-a871-19aeb3f2fd08","system_id":"levelo_inurba_marseille","lat":43.297839,"lon":5.374058,"is_reserved":false,"is_disabled":false,"rental_uris":{"android":"levelo://app?vid=e5b92296-b086-419a-a871-19aeb3f2fd08","ios":"levelo://app?vid=e5b92296-b086-419a-a871-19aeb3f2fd08"},"vehicle_type_id":"4","last_reported":1768292235,"current_range_meters":3200,"station_id":"ce4bgs92rcd13ifvqcc0","pricing_plan_id":"cebpf4jnsgd1na2vs0mg"},{"bike_id":"2e02cc71-3e50-4a35-806f-7e9a5398a999","system_id":"levelo_inurba_marseille","lat":43.29207,"lon":5.36268,"is_reserved":false,"is_disabled":true,"rental_uris":{"android":"levelo://app?vid=2e02cc71-3e50-4a35-806f-7e9a5398a999","ios":"levelo://app?vid=2e02cc71-3e50-4a35-806f-7e9a5398a999"},"vehicle_type_id":"4","last_reported":1768292235,"current_range_meters":3600,"station_id":"","pricing_plan_id":"cebpf4jnsgd1na2vs0mg"},{"bike_id":"21f594df-8489-4ed1-9833-71f4d7d5f3e6","system_id":"levelo_inurba_marseille","lat":43.27616,"lon":5.36101,"is_reserved":false,"is_disabled":false,"rental_uris":{"android":"levelo://app?vid=21f594df-8489-4ed1-9833-71f4d7d5f3e6","ios":"levelo://app?vid=21f594df-8489-4ed1-9833-71f4d7d5f3e6"},"vehicle_type_id":"4","last_reported":1768292235,"current_range_meters":3600,"station_id":"ce4bgj92rcd13ifvqbe0","pricing_plan_id":"cebpf4jnsgd1na2vs0mg"},{"bike_id":"5b74f76c-7655-4a1b-bf0f-ee1d1ac9b692","system_id":"levelo_inurba_marseille","lat":43.3138,"lon":5.36807,"is_reserved":false,"is_disabled":false,"rental_uris":{"android":"levelo://app?vid=5b74f76c-7655-4a1b-bf0f-ee1d1ac9b692","ios":"levelo://app?vid=5b74f76c-7655-4a1b-bf0f-ee1d1ac9b692"},"vehicle_type_id":"4","last_reported":1768292235,"current_range_meters":3600,"station_id":"","pricing_plan_id":"cebpf4jnsgd1na2vs0mg"},{"bike_id":"b0efd0f2-bc5c-4dff-bc29-9743c461b4d7","system_id":"levelo_inurba_marseille","lat":43.24068,"lon":5.37767,"is_reserved":false,"is_disabled":false,"rental_uris":{"android":"levelo://app?vid=b0efd0f2-bc5c-4dff-bc29-9743c461b4d7","ios":"levelo://app?vid=b0efd0f2-bc5c-4dff-bc29-9743c461b4d7"},"vehicle_type_id":"4","last_reported":1768292235,"current_range_meters":3600,"station_id":"ce4bhnp2rcd13ifvqgvg","pricing_plan_id":"cebpf4jnsgd1na2vs0mg"},{"bike_id":"bd6756f7-511c-452a-8ef8-3b85fe093b5c","system_id":"levelo_inurba_marseille","lat":43.284821,"lon":5.384126,"is_reserved":false,"is_disabled":false,"rental_uris":{"android":"levelo://app?vid=bd6756f7-511c-452a-8ef8-3b85fe093b5c","ios":"levelo://app?vid=bd6756f7-511c-452a-8ef8-3b85fe093b5c"},"vehicle_type_id":"4","last_reported":1768292235,"current_range_meters":3600,"station_id":"","pricing_plan_id":"cebpf4jnsgd1na2vs0mg"},{"bike_id":"f2f6879c-c6f8-4aad-a64c-976ab5b32f9c","system_id":"levelo_inurba_marseille","lat":43.24086,"lon":5.37725,"is_reserved":false,"is_disabled":false,"rental_uris":{"android":"levelo://app?vid=f2f6879c-c6f8-4aad-a64c-976ab5b32f9c","ios":"levelo://app?vid=f2f6879c-c6f8-4aad-a64c-976ab5b32f9c"},"vehicle_type_id":"4","last_reported":1768292235,"current_range_meters":3600,"station_id":"ce4bhnp2rcd13ifvqgvg","pricing_plan_id":"cebpf4jnsgd1na2vs0mg"},{"bike_id":"824e0100-c6fc-4a0d-bafe-328ab4a682ff","system_id":"levelo_inurba_marseille","lat":43.3236,"lon":5.3677,"is_reserved":false,"is_disabled":false,"rental_uris":{"android":"levelo://app?vid=824e0100-c6fc-4a0d-bafe-328ab4a682ff","ios":"levelo://app?vid=824e0100-c6fc-4a0d-bafe-328ab4a682ff"},"vehicle_type_id":"4","last_reported":1768292235,"current_range_meters":3600,"station_id":"ce4bhsh2rcd13ifvqi2g","pricing_plan_id":"cebpf4jnsgd1na2vs0mg"},{"bike_id":"ffe2f2b5-162a-4197-84c5-bb14f9e8df87","system_id":"levelo_inurba_marseille","lat":43.24807,"lon":5.37454,"is_reserved":false,"is_disabled":false,"rental_uris":{"android":"levelo://app?vid=ffe2f2b5-162a-4197-84c5-bb14f9e8df87","ios":"levelo://app?vid=ffe2f2b5-162a-4197-84c5-bb14f9e8df87"},"vehicle_type_id":"4","last_reported":1768292235,"current_range_meters":3600,"station_id":"ce4bhgh2rcd13ifvqfb0","pricing_plan_id":"cebpf4jnsgd1na2vs0mg"},{"bike_id":"d4c76a3c-be64-4255-845b-8ccc9f87b7d9","system_id":"levelo_inurba_marseille","lat":43.29999,"lon":5.37335,"is_reserved":false,"is_disabled":false,"rental_uris":{"android":"levelo://app?vid=d4c76a3c-be64-4255-845b-8ccc9f87b7d9","ios":"levelo://app?vid=d4c76a3c-be64-4255-845b-8ccc9f87b7d9"},"vehicle_type_id":"4","last_reported":1768292235,"current_range_meters":3600,"station_id":"","pricing_plan_id":"cebpf4jnsgd1na2vs0mg"},{"bike_id":"682a25db-2229-438e-a91a-bd8e0ed43f7f","system_id":"levelo_inurba_marseille","lat":43.30183,"lon":5.37068,"is_reserved":false,"is_disabled":false,"rental_uris":{"android":"levelo://app?vid=682a25db-2229-438e-a91a-bd8e0ed43f7f","ios":"levelo://app?vid=682a25db-2229-438e-a91a-bd8e0ed43f7f"},"vehicle_type_id":"4","last_reported":1768292235,"current_range_meters":4000,"station_id":"","pricing_plan_id":"cebpf4jnsgd1na2vs0mg"},{"bike_id":"7b6f12be-65ff-469f-954c-5bc823eb23e6","system_id":"levelo_inurba_marseille","lat":43.3251,"lon":5.36477,"is_reserved":false,"is_disabled":false,"rental_uris":{"android":"levelo://app?vid=7b6f12be-65ff-469f-954c-5bc823eb23e6","ios":"levelo://app?vid=7b6f12be-65ff-469f-954c-5bc823eb23e6"},"vehicle_type_id":"4","last_reported":1768292235,"current_range_meters":4000,"station_id":"","pricing_plan_id":"cebpf4jnsgd1na2vs0mg"},{"bike_id":"63a8ad53-0407-4bea-a09c-eee796fd0c2b","system_id":"levelo_inurba_marseille","lat":43.27804,"lon":5.40723,"is_reserved":false,"is_disabled":false,"rental_uris":{"android":"levelo://app?vid=63a8ad53-0407-4bea-a09c-eee796fd0c2b","ios":"levelo://app?vid=63a8ad53-0407-4bea-a09c-eee796fd0c2b"},"vehicle_type_id":"4","last_reported":1768292235,"current_range_meters":4000,"station_id":"ce4bhnh2rcd13ifvqgtg","pricing_plan_id":"cebpf4jnsgd1na2vs0mg"},{"bike_id":"4c422a98-1882-4c90-beac-cc731051280c","system_id":"levelo_inurba_marseille","lat":43.30541,"lon":5.38436,"is_reserved":false,"is_disabled":false,"rental_uris":{"android":"levelo://app?vid=4c422a98-1882-4c90-beac-cc731051280c","ios":"levelo://app?vid=4c422a98-1882-4c90-beac-cc731051280c"},"vehicle_type_id":"4","last_reported":1768292235,"current_range_meters":4000,"station_id":"ce4bgg92rcd13ifvqb30","pricing_plan_id":"cebpf4jnsgd1na2vs0mg"},{"bike_id":"8049ab61-e378-4478-bef4-ac0f529d7d1a","system_id":"levelo_inurba_marseille","lat":43.23188,"lon":5.35558,"is_reserved":false,"is_disabled":false,"rental_uris":{"android":"levelo://app?vid=8049ab61-e378-4478-bef4-ac0f529d7d1a","ios":"levelo://app?vid=8049ab61-e378-4478-bef4-ac0f529d7d1a"},"vehicle_type_id":"4","last_reported":1768292235,"current_range_meters":4000,"station_id":"ce4bhu92rcd13ifvqi70","pricing_plan_id":"cebpf4jnsgd1na2vs0mg"},{"bike_id":"a9e59faf-e98e-482c-a491-0e6d2cc3814e","system_id":"levelo_inurba_marseille","lat":43.29301,"lon":5.374623,"is_reserved":false,"is_disabled":false,"rental_uris":{"android":"levelo://app?vid=a9e59faf-e98e-482c-a491-0e6d2cc3814e","ios":"levelo://app?vid=a9e59faf-e98e-482c-a491-0e6d2cc3814e"},"vehicle_type_id":"4","last_reported":1768292235,"current_range_meters":4000,"station_id":"ce4bgi12rcd13ifvqb70","pricing_plan_id":"cebpf4jnsgd1na2vs0mg"},{"bike_id":"cf004c33-9bd1-431c-b6c4-107c8f4afae6","system_id":"levelo_inurba_marseille","lat":43.29786,"lon":5.37101,"is_reserved":false,"is_disabled":false,"rental_uris":{"android":"levelo://app?vid=cf004c33-9bd1-431c-b6c4-107c8f4afae6","ios":"levelo://app?vid=cf004c33-9bd1-431c-b6c4-107c8f4afae6"},"vehicle_type_id":"4","last_reported":1768292235,"current_range_meters":4000,"station_id":"ce4bgop2rcd13ifvqc1g","pricing_plan_id":"cebpf4jnsgd1na2vs0mg"},{"bike_id":"0cb7c07f-7d6d-4094-b8f5-473476bf2226","system_id":"levelo_inurba_marseille","lat":43.25329,"lon":5.42177,"is_reserved":false,"is_disabled":false,"rental_uris":{"android":"levelo://app?vid=0cb7c07f-7d6d-4094-b8f5-473476bf2226","ios":"levelo://app?vid=0cb7c07f-7d6d-4094-b8f5-473476bf2226"},"vehicle_type_id":"4","last_reported":1768292235,"current_range_meters":4000,"station_id":"st_d2m65c5bi1j21697t3ng","pricing_plan_id":"cebpf4jnsgd1na2vs0mg"},{"bike_id":"b81a771e-796c-40e5-98d5-2c3857393d80","system_id":"levelo_inurba_marseille","lat":43.284918,"lon":5.483867,"is_reserved":false,"is_disabled":false,"rental_uris":{"android":"levelo://app?vid=b81a771e-796c-40e5-98d5-2c3857393d80","ios":"levelo://app?vid=b81a771e-796c-40e5-98d5-2c3857393d80"},"vehicle_type_id":"4","last_reported":1768292235,"current_range_meters":4000,"station_id":"st_d3svhcjqgbts73a3dn0g","pricing_plan_id":"cebpf4jnsgd1na2vs0mg"},{"bike_id":"85dc5f08-fb49-4186-a244-2b21b776c4f8","system_id":"levelo_inurba_marseille","lat":43.30414,"lon":5.41276,"is_reserved":false,"is_disabled":false,"rental_uris":{"android":"levelo://app?vid=85dc5f08-fb49-4186-a244-2b21b776c4f8","ios":"levelo://app?vid=85dc5f08-fb49-4186-a244-2b21b776c4f8"},"vehicle_type_id":"4","last_reported":1768292235,"current_range_meters":4000,"station_id":"ce4bhop2rcd13ifvqh8g","pricing_plan_id":"cebpf4jnsgd1na2vs0mg"},{"bike_id":"aa31326d-ec2e-47d2-b45d-596ae63d733d","system_id":"levelo_inurba_marseille","lat":43.2849,"lon":5.38419,"is_reserved":false,"is_disabled":false,"rental_uris":{"android":"levelo://app?vid=aa31326d-ec2e-47d2-b45d-596ae63d733d","ios":"levelo://app?vid=aa31326d-ec2e-47d2-b45d-596ae63d733d"},"vehicle_type_id":"4","last_reported":1768292235,"current_range_meters":4000,"station_id":"ce4bh512rcd13ifvqe3g","pricing_plan_id":"cebpf4jnsgd1na2vs0mg"},{"bike_id":"8f9c5fef-eb25-471f-abc7-43f55327e6a6","system_id":"levelo_inurba_marseille","lat":43.27809,"lon":5.40711,"is_reserved":false,"is_disabled":false,"rental_uris":{"android":"levelo://app?vid=8f9c5fef-eb25-471f-abc7-43f55327e6a6","ios":"levelo://app?vid=8f9c5fef-eb25-471f-abc7-43f55327e6a6"},"vehicle_type_id":"4","last_reported":1768292235,"current_range_meters":4400,"station_id":"ce4bhnh2rcd13ifvqgtg","pricing_plan_id":"cebpf4jnsgd1na2vs0mg"},{"bike_id":"48e0d58e-bd7e-4b90-92d4-898fdf7abd39","system_id":"levelo_inurba_marseille","lat":43.30863,"lon":5.40587,"is_reserved":false,"is_disabled":false,"rental_uris":{"android":"levelo://app?vid=48e0d58e-bd7e-4b90-92d4-898fdf7abd39","ios":"levelo://app?vid=48e0d58e-bd7e-4b90-92d4-898fdf7abd39"},"vehicle_type_id":"4","last_reported":1768292235,"current_range_meters":4400,"station_id":"","pricing_plan_id":"cebpf4jnsgd1na2vs0mg"},{"bike_id":"d09f6bda-7c74-4aeb-aa68-aecbccafb22f","system_id":"levelo_inurba_marseille","lat":43.2594,"lon":5.40901,"is_reserved":false,"is_disabled":false,"rental_uris":{"android":"levelo://app?vid=d09f6bda-7c74-4aeb-aa68-aecbccafb22f","ios":"levelo://app?vid=d09f6bda-7c74-4aeb-aa68-aecbccafb22f"},"vehicle_type_id":"4","last_reported":1768292235,"current_range_meters":4400,"station_id":"ce4bhm92rcd13ifvqglg","pricing_plan_id":"cebpf4jnsgd1na2vs0mg"},{"bike_id":"d84786fe-606f-4cea-8819-113abea8f013","system_id":"levelo_inurba_marseille","lat":43.288617,"lon":5.425148,"is_reserved":false,"is_disabled":false,"rental_uris":{"android":"levelo://app?vid=d84786fe-606f-4cea-8819-113abea8f013","ios":"levelo://app?vid=d84786fe-606f-4cea-8819-113abea8f013"},"vehicle_type_id":"4","last_reported":1768292235,"current_range_meters":4400,"station_id":"st_d3b462108ojc7389ooeg","pricing_plan_id":"cebpf4jnsgd1na2vs0mg"},{"bike_id":"a3b66a73-aef3-42a6-bf24-ef2935218f23","system_id":"levelo_inurba_marseille","lat":43.32357,"lon":5.36752,"is_reserved":false,"is_disabled":false,"rental_uris":{"android":"levelo://app?vid=a3b66a73-aef3-42a6-bf24-ef2935218f23","ios":"levelo://app?vid=a3b66a73-aef3-42a6-bf24-ef2935218f23"},"vehicle_type_id":"4","last_reported":1768292235,"current_range_meters":4400,"station_id":"ce4bhsh2rcd13ifvqi2g","pricing_plan_id":"cebpf4jnsgd1na2vs0mg"},{"bike_id":"af10b59b-2cc5-4a8a-a255-a836789dbcb1","system_id":"levelo_inurba_marseille","lat":43.29968,"lon":5.38507,"is_reserved":false,"is_disabled":false,"rental_uris":{"android":"levelo://app?vid=af10b59b-2cc5-4a8a-a255-a836789dbcb1","ios":"levelo://app?vid=af10b59b-2cc5-4a8a-a255-a836789dbcb1"},"vehicle_type_id":"4","last_reported":1768292235,"current_range_meters":4400,"station_id":"ce4bgj92rcd13ifvqbd0","pricing_plan_id":"cebpf4jnsgd1na2vs0mg"},{"bike_id":"38d076d2-a3a0-46d0-b800-0eaafad476d4","system_id":"levelo_inurba_marseille","lat":43.2821,"lon":5.40373,"is_reserved":false,"is_disabled":false,"rental_uris":{"android":"levelo://app?vid=38d076d2-a3a0-46d0-b800-0eaafad476d4","ios":"levelo://app?vid=38d076d2-a3a0-46d0-b800-0eaafad476d4"},"vehicle_type_id":"4","last_reported":1768292235,"current_range_meters":4400,"station_id":"","pricing_plan_id":"cebpf4jnsgd1na2vs0mg"},{"bike_id":"1dba3e81-740c-4446-a739-c7a379d3755e","system_id":"levelo_inurba_marseille","lat":43.3055,"lon":5.36528,"is_reserved":false,"is_disabled":false,"rental_uris":{"android":"levelo://app?vid=1dba3e81-740c-4446-a739-c7a379d3755e","ios":"levelo://app?vid=1dba3e81-740c-4446-a739-c7a379d3755e"},"vehicle_type_id":"4","last_reported":1768292235,"current_range_meters":4400,"station_id":"ce4bgs12rcd13ifvqcag","pricing_plan_id":"cebpf4jnsgd1na2vs0mg"},{"bike_id":"db31902a-a404-4e40-9944-22ba0a545ab1","system_id":"levelo_inurba_marseille","lat":43.29784,"lon":5.39336,"is_reserved":false,"is_disabled":false,"rental_uris":{"android":"levelo://app?vid=db31902a-a404-4e40-9944-22ba0a545ab1","ios":"levelo://app?vid=db31902a-a404-4e40-9944-22ba0a545ab1"},"vehicle_type_id":"4","last_reported":1768292235,"current_range_meters":4400,"station_id":"chh1huq6cuj3fo74tm60","pricing_plan_id":"cebpf4jnsgd1na2vs0mg"},{"bike_id":"d4e448ef-1fe0-4a95-8364-c8d8662a9864","system_id":"levelo_inurba_marseille","lat":43.29028,"lon":5.39977,"is_reserved":false,"is_disabled":false,"rental_uris":{"android":"levelo://app?vid=d4e448ef-1fe0-4a95-8364-c8d8662a9864","ios":"levelo://app?vid=d4e448ef-1fe0-4a95-8364-c8d8662a9864"},"vehicle_type_id":"4","last_reported":1768292235,"current_range_meters":4400,"station_id":"ce4bh392rcd13ifvqdm0","pricing_plan_id":"cebpf4jnsgd1na2vs0mg"},{"bike_id":"d1d7ed20-2fc0-4bb0-b335-bddc0f061a5f","system_id":"levelo_inurba_marseille","lat":43.31042,"lon":5.37132,"is_reserved":false,"is_disabled":false,"rental_uris":{"android":"levelo://app?vid=d1d7ed20-2fc0-4bb0-b335-bddc0f061a5f","ios":"levelo://app?vid=d1d7ed20-2fc0-4bb0-b335-bddc0f061a5f"},"vehicle_type_id":"4","last_reported":1768292235,"current_range_meters":4400,"station_id":"st_d4kl2rp97mjs73e7tdfg","pricing_plan_id":"cebpf4jnsgd1na2vs0mg"},{"bike_id":"cd0221e4-8d5e-4481-a072-4408c503f646","system_id":"levelo_inurba_marseille","lat":43.27995,"lon":5.41669,"is_reserved":false,"is_disabled":false,"rental_uris":{"android":"levelo://app?vid=cd0221e4-8d5e-4481-a072-4408c503f646","ios":"levelo://app?vid=cd0221e4-8d5e-4481-a072-4408c503f646"},"vehicle_type_id":"4","last_reported":1768292235,"current_range_meters":4400,"station_id":"ce4bho12rcd13ifvqh1g","pricing_plan_id":"cebpf4jnsgd1na2vs0mg"},{"bike_id":"bad9d05b-2efd-4707-af1a-d48b0eeaba21","system_id":"levelo_inurba_marseille","lat":43.2447,"lon":5.42557,"is_reserved":false,"is_disabled":false,"rental_uris":{"android":"levelo://app?vid=bad9d05b-2efd-4707-af1a-d48b0eeaba21","ios":"levelo://app?vid=bad9d05b-2efd-4707-af1a-d48b0eeaba21"},"vehicle_type_id":"4","last_reported":1768292235,"current_range_meters":4800,"station_id":"st_d4a3vfp97mjs738cd8kg","pricing_plan_id":"cebpf4jnsgd1na2vs0mg"},{"bike_id":"a0750e8b-6f08-4dec-ad7b-75931873cace","system_id":"levelo_inurba_marseille","lat":43.30144,"lon":5.37427,"is_reserved":false,"is_disabled":false,"rental_uris":{"android":"levelo://app?vid=a0750e8b-6f08-4dec-ad7b-75931873cace","ios":"levelo://app?vid=a0750e8b-6f08-4dec-ad7b-75931873cace"},"vehicle_type_id":"4","last_reported":1768292235,"current_range_meters":4800,"station_id":"ce4bgs92rcd13ifvqcc0","pricing_plan_id":"cebpf4jnsgd1na2vs0mg"},{"bike_id":"7fb0d18d-87f0-4490-ac9a-259338a041dc","system_id":"levelo_inurba_marseille","lat":43.2353,"lon":5.35947,"is_reserved":false,"is_disabled":false,"rental_uris":{"android":"levelo://app?vid=7fb0d18d-87f0-4490-ac9a-259338a041dc","ios":"levelo://app?vid=7fb0d18d-87f0-4490-ac9a-259338a041dc"},"vehicle_type_id":"4","last_reported":1768292235,"current_range_meters":4800,"station_id":"","pricing_plan_id":"cebpf4jnsgd1na2vs0mg"},{"bike_id":"eebd70f2-6f12-4ff1-962d-5316ef45045d","system_id":"levelo_inurba_marseille","lat":43.29683,"lon":5.37292,"is_reserved":false,"is_disabled":false,"rental_uris":{"android":"levelo://app?vid=eebd70f2-6f12-4ff1-962d-5316ef45045d","ios":"levelo://app?vid=eebd70f2-6f12-4ff1-962d-5316ef45045d"},"vehicle_type_id":"4","last_reported":1768292235,"current_range_meters":4800,"station_id":"ce4bgk12rcd13ifvqbj0","pricing_plan_id":"cebpf4jnsgd1na2vs0mg"},{"bike_id":"f2feb58b-2e1d-410d-a362-6a4d0a6ad00a","system_id":"levelo_inurba_marseille","lat":43.26948,"lon":5.40244,"is_reserved":false,"is_disabled":false,"rental_uris":{"android":"levelo://app?vid=f2feb58b-2e1d-410d-a362-6a4d0a6ad00a","ios":"levelo://app?vid=f2feb58b-2e1d-410d-a362-6a4d0a6ad00a"},"vehicle_type_id":"4","last_reported":1768292235,"current_range_meters":4800,"station_id":"cjm6bp8fraef2m0cb0m0","pricing_plan_id":"cebpf4jnsgd1na2vs0mg"},{"bike_id":"85350876-e62d-4f96-bfae-1d6a5f000069","system_id":"levelo_inurba_marseille","lat":43.26689,"lon":5.38281,"is_reserved":false,"is_disabled":false,"rental_uris":{"android":"levelo://app?vid=85350876-e62d-4f96-bfae-1d6a5f000069","ios":"levelo://app?vid=85350876-e62d-4f96-bfae-1d6a5f000069"},"vehicle_type_id":"4","last_reported":1768292235,"current_range_meters":4800,"station_id":"ce4bhg92rcd13ifvqf90","pricing_plan_id":"cebpf4jnsgd1na2vs0mg"},{"bike_id":"5f2874b2-b16d-4ad9-ada9-339423441eb0","system_id":"levelo_inurba_marseille","lat":43.341431,"lon":5.409164,"is_reserved":false,"is_disabled":false,"rental_uris":{"android":"levelo://app?vid=5f2874b2-b16d-4ad9-ada9-339423441eb0","ios":"levelo://app?vid=5f2874b2-b16d-4ad9-ada9-339423441eb0"},"vehicle_type_id":"4","last_reported":1768292235,"current_range_meters":4800,"station_id":"","pricing_plan_id":"cebpf4jnsgd1na2vs0mg"},{"bike_id":"4202e215-6f29-4f58-ace8-2e6289f05e81","system_id":"levelo_inurba_marseille","lat":43.2396,"lon":5.36618,"is_reserved":false,"is_disabled":false,"rental_uris":{"android":"levelo://app?vid=4202e215-6f29-4f58-ace8-2e6289f05e81","ios":"levelo://app?vid=4202e215-6f29-4f58-ace8-2e6289f05e81"},"vehicle_type_id":"4","last_reported":1768292235,"current_range_meters":4800,"station_id":"ce4bhi12rcd13ifvqfp0","pricing_plan_id":"cebpf4jnsgd1na2vs0mg"},{"bike_id":"8fadb16c-f49e-4001-96df-0a0b58d4f5f4","system_id":"levelo_inurba_marseille","lat":43.33162,"lon":5.37686,"is_reserved":false,"is_disabled":false,"rental_uris":{"android":"levelo://app?vid=8fadb16c-f49e-4001-96df-0a0b58d4f5f4","ios":"levelo://app?vid=8fadb16c-f49e-4001-96df-0a0b58d4f5f4"},"vehicle_type_id":"4","last_reported":1768292235,"current_range_meters":4800,"station_id":"st_d46cu089ee8s73dldbu0","pricing_plan_id":"cebpf4jnsgd1na2vs0mg"},{"bike_id":"90dfc0c4-0044-4337-8331-b045fdb00361","system_id":"levelo_inurba_marseille","lat":43.33151,"lon":5.37678,"is_reserved":false,"is_disabled":false,"rental_uris":{"android":"levelo://app?vid=90dfc0c4-0044-4337-8331-b045fdb00361","ios":"levelo://app?vid=90dfc0c4-0044-4337-8331-b045fdb00361"},"vehicle_type_id":"4","last_reported":1768292235,"current_range_meters":4800,"station_id":"st_d46cu089ee8s73dldbu0","pricing_plan_id":"cebpf4jnsgd1na2vs0mg"},{"bike_id":"0e990c8c-3ebb-4f57-b5ac-304f1f37cf5c","system_id":"levelo_inurba_marseille","lat":43.28713,"lon":5.37924,"is_reserved":false,"is_disabled":false,"rental_uris":{"android":"levelo://app?vid=0e990c8c-3ebb-4f57-b5ac-304f1f37cf5c","ios":"levelo://app?vid=0e990c8c-3ebb-4f57-b5ac-304f1f37cf5c"},"vehicle_type_id":"4","last_reported":1768292235,"current_range_meters":4800,"station_id":"ce4bh9p2rcd13ifvqec0","pricing_plan_id":"cebpf4jnsgd1na2vs0mg"},{"bike_id":"952412d5-8359-4eb6-9ee8-294a4128a280","system_id":"levelo_inurba_marseille","lat":43.29297,"lon":5.37359,"is_reserved":false,"is_disabled":false,"rental_uris":{"android":"levelo://app?vid=952412d5-8359-4eb6-9ee8-294a4128a280","ios":"levelo://app?vid=952412d5-8359-4eb6-9ee8-294a4128a280"},"vehicle_type_id":"4","last_reported":1768292235,"current_range_meters":4800,"station_id":"","pricing_plan_id":"cebpf4jnsgd1na2vs0mg"},{"bike_id":"cf45a52d-7a23-4ce3-af0d-6c019a570fda","system_id":"levelo_inurba_marseille","lat":43.29952,"lon":5.41312,"is_reserved":false,"is_disabled":false,"rental_uris":{"android":"levelo://app?vid=cf45a52d-7a23-4ce3-af0d-6c019a570fda","ios":"levelo://app?vid=cf45a52d-7a23-4ce3-af0d-6c019a570fda"},"vehicle_type_id":"4","last_reported":1768292235,"current_range_meters":4800,"station_id":"ce4bhp12rcd13ifvqh9g","pricing_plan_id":"cebpf4jnsgd1na2vs0mg"},{"bike_id":"42b6dfec-3e09-4e3a-9a6d-1e9fb82fbfba","system_id":"levelo_inurba_marseille","lat":43.27048,"lon":5.40286,"is_reserved":false,"is_disabled":false,"rental_uris":{"android":"levelo://app?vid=42b6dfec-3e09-4e3a-9a6d-1e9fb82fbfba","ios":"levelo://app?vid=42b6dfec-3e09-4e3a-9a6d-1e9fb82fbfba"},"vehicle_type_id":"4","last_reported":1768292235,"current_range_meters":4800,"station_id":"ce4bhk92rcd13ifvqgc0","pricing_plan_id":"cebpf4jnsgd1na2vs0mg"},{"bike_id":"16f4e2f5-760f-4cb9-9d48-e621f5e2e8d1","system_id":"levelo_inurba_marseille","lat":43.307786,"lon":5.376247,"is_reserved":false,"is_disabled":false,"rental_uris":{"android":"levelo://app?vid=16f4e2f5-760f-4cb9-9d48-e621f5e2e8d1","ios":"levelo://app?vid=16f4e2f5-760f-4cb9-9d48-e621f5e2e8d1"},"vehicle_type_id":"4","last_reported":1768292235,"current_range_meters":4800,"station_id":"ce4bgv92rcd13ifvqcq0","pricing_plan_id":"cebpf4jnsgd1na2vs0mg"},{"bike_id":"f4d56beb-17a4-43ae-a1b7-ece3f3acf3f9","system_id":"levelo_inurba_marseille","lat":43.279937,"lon":5.416574,"is_reserved":false,"is_disabled":false,"rental_uris":{"android":"levelo://app?vid=f4d56beb-17a4-43ae-a1b7-ece3f3acf3f9","ios":"levelo://app?vid=f4d56beb-17a4-43ae-a1b7-ece3f3acf3f9"},"vehicle_type_id":"4","last_reported":1768292235,"current_range_meters":4800,"station_id":"ce4bho12rcd13ifvqh1g","pricing_plan_id":"cebpf4jnsgd1na2vs0mg"},{"bike_id":"e5576008-bfc7-442b-81af-0e23e3cd7c0c","system_id":"levelo_inurba_marseille","lat":43.290291,"lon":5.399954,"is_reserved":false,"is_disabled":false,"rental_uris":{"android":"levelo://app?vid=e5576008-bfc7-442b-81af-0e23e3cd7c0c","ios":"levelo://app?vid=e5576008-bfc7-442b-81af-0e23e3cd7c0c"},"vehicle_type_id":"4","last_reported":1768292235,"current_range_meters":5600,"station_id":"ce4bh392rcd13ifvqdm0","pricing_plan_id":"cebpf4jnsgd1na2vs0mg"},{"bike_id":"d82f2577-1bef-4096-a0af-a4f4f06ae13c","system_id":"levelo_inurba_marseille","lat":43.27809,"lon":5.4071,"is_reserved":false,"is_disabled":false,"rental_uris":{"android":"levelo://app?vid=d82f2577-1bef-4096-a0af-a4f4f06ae13c","ios":"levelo://app?vid=d82f2577-1bef-4096-a0af-a4f4f06ae13c"},"vehicle_type_id":"4","last_reported":1768292235,"current_range_meters":5600,"station_id":"ce4bhnh2rcd13ifvqgtg","pricing_plan_id":"cebpf4jnsgd1na2vs0mg"},{"bike_id":"a38bcbb1-c226-4bc2-8672-2e7d0273da8d","system_id":"levelo_inurba_marseille","lat":43.32345,"lon":5.36745,"is_reserved":false,"is_disabled":false,"rental_uris":{"android":"levelo://app?vid=a38bcbb1-c226-4bc2-8672-2e7d0273da8d","ios":"levelo://app?vid=a38bcbb1-c226-4bc2-8672-2e7d0273da8d"},"vehicle_type_id":"4","last_reported":1768292235,"current_range_meters":5600,"station_id":"ce4bhsh2rcd13ifvqi2g","pricing_plan_id":"cebpf4jnsgd1na2vs0mg"},{"bike_id":"e3615a85-f48a-4303-a1b7-ba1422ee46f8","system_id":"levelo_inurba_marseille","lat":43.29956,"lon":5.41314,"is_reserved":false,"is_disabled":false,"rental_uris":{"android":"levelo://app?vid=e3615a85-f48a-4303-a1b7-ba1422ee46f8","ios":"levelo://app?vid=e3615a85-f48a-4303-a1b7-ba1422ee46f8"},"vehicle_type_id":"4","last_reported":1768292235,"current_range_meters":5600,"station_id":"ce4bhp12rcd13ifvqh9g","pricing_plan_id":"cebpf4jnsgd1na2vs0mg"},{"bike_id":"d195700f-dd48-4a4d-8da2-ab1e15e93935","system_id":"levelo_inurba_marseille","lat":43.29549,"lon":5.3751,"is_reserved":false,"is_disabled":false,"rental_uris":{"android":"levelo://app?vid=d195700f-dd48-4a4d-8da2-ab1e15e93935","ios":"levelo://app?vid=d195700f-dd48-4a4d-8da2-ab1e15e93935"},"vehicle_type_id":"4","last_reported":1768292235,"current_range_meters":5600,"station_id":"ce4bgkp2rcd13ifvqbmg","pricing_plan_id":"cebpf4jnsgd1na2vs0mg"},{"bike_id":"c5cacf13-0b9c-41b5-94a2-55e05bf702f3","system_id":"levelo_inurba_marseille","lat":43.29723,"lon":5.37863,"is_reserved":false,"is_disabled":false,"rental_uris":{"android":"levelo://app?vid=c5cacf13-0b9c-41b5-94a2-55e05bf702f3","ios":"levelo://app?vid=c5cacf13-0b9c-41b5-94a2-55e05bf702f3"},"vehicle_type_id":"4","last_reported":1768292235,"current_range_meters":5600,"station_id":"","pricing_plan_id":"cebpf4jnsgd1na2vs0mg"},{"bike_id":"2455333c-abb5-40b2-83d1-6df58226f70a","system_id":"levelo_inurba_marseille","lat":43.328965,"lon":5.389481,"is_reserved":false,"is_disabled":false,"rental_uris":{"android":"levelo://app?vid=2455333c-abb5-40b2-83d1-6df58226f70a","ios":"levelo://app?vid=2455333c-abb5-40b2-83d1-6df58226f70a"},"vehicle_type_id":"4","last_reported":1768292235,"current_range_meters":5600,"station_id":"","pricing_plan_id":"cebpf4jnsgd1na2vs0mg"},{"bike_id":"fd5c22af-551e-4b5c-a587-8bd6f93a7d5e","system_id":"levelo_inurba_marseille","lat":43.27945,"lon":5.41031,"is_reserved":false,"is_disabled":false,"rental_uris":{"android":"levelo://app?vid=fd5c22af-551e-4b5c-a587-8bd6f93a7d5e","ios":"levelo://app?vid=fd5c22af-551e-4b5c-a587-8bd6f93a7d5e"},"vehicle_type_id":"4","last_reported":1768292235,"current_range_meters":5600,"station_id":"","pricing_plan_id":"cebpf4jnsgd1na2vs0mg"},{"bike_id":"95d1a547-8b14-44f2-9976-03f9cf0f6b77","system_id":"levelo_inurba_marseille","lat":43.260526,"lon":5.393917,"is_reserved":false,"is_disabled":false,"rental_uris":{"android":"levelo://app?vid=95d1a547-8b14-44f2-9976-03f9cf0f6b77","ios":"levelo://app?vid=95d1a547-8b14-44f2-9976-03f9cf0f6b77"},"vehicle_type_id":"4","last_reported":1768292235,"current_range_meters":5600,"station_id":"ce4bhh92rcd13ifvqfj0","pricing_plan_id":"cebpf4jnsgd1na2vs0mg"},{"bike_id":"1bc4dd22-8b42-4ae1-b96e-ede97fc223cf","system_id":"levelo_inurba_marseille","lat":43.29898,"lon":5.37797,"is_reserved":false,"is_disabled":false,"rental_uris":{"android":"levelo://app?vid=1bc4dd22-8b42-4ae1-b96e-ede97fc223cf","ios":"levelo://app?vid=1bc4dd22-8b42-4ae1-b96e-ede97fc223cf"},"vehicle_type_id":"4","last_reported":1768292235,"current_range_meters":5600,"station_id":"","pricing_plan_id":"cebpf4jnsgd1na2vs0mg"},{"bike_id":"9bd81498-1c2d-46cc-b134-62e2c3cd9ba1","system_id":"levelo_inurba_marseille","lat":43.28869,"lon":5.42548,"is_reserved":false,"is_disabled":false,"rental_uris":{"android":"levelo://app?vid=9bd81498-1c2d-46cc-b134-62e2c3cd9ba1","ios":"levelo://app?vid=9bd81498-1c2d-46cc-b134-62e2c3cd9ba1"},"vehicle_type_id":"4","last_reported":1768292235,"current_range_meters":5600,"station_id":"st_d3b462108ojc7389ooeg","pricing_plan_id":"cebpf4jnsgd1na2vs0mg"},{"bike_id":"bb872cf3-111a-4da5-8326-64266a28cac2","system_id":"levelo_inurba_marseille","lat":43.26065,"lon":5.39412,"is_reserved":false,"is_disabled":false,"rental_uris":{"android":"levelo://app?vid=bb872cf3-111a-4da5-8326-64266a28cac2","ios":"levelo://app?vid=bb872cf3-111a-4da5-8326-64266a28cac2"},"vehicle_type_id":"4","last_reported":1768292235,"current_range_meters":5600,"station_id":"ce4bhh92rcd13ifvqfj0","pricing_plan_id":"cebpf4jnsgd1na2vs0mg"},{"bike_id":"da93e506-e3ad-40bf-8141-c8b61f0486e3","system_id":"levelo_inurba_marseille","lat":43.29706,"lon":5.366,"is_reserved":false,"is_disabled":false,"rental_uris":{"android":"levelo://app?vid=da93e506-e3ad-40bf-8141-c8b61f0486e3","ios":"levelo://app?vid=da93e506-e3ad-40bf-8141-c8b61f0486e3"},"vehicle_type_id":"4","last_reported":1768292235,"current_range_meters":5600,"station_id":"ce4bgn12rcd13ifvqbt0","pricing_plan_id":"cebpf4jnsgd1na2vs0mg"},{"bike_id":"c256e529-78e6-4444-9a7c-cdcd0c105600","system_id":"levelo_inurba_marseille","lat":43.30874,"lon":5.39659,"is_reserved":false,"is_disabled":false,"rental_uris":{"android":"levelo://app?vid=c256e529-78e6-4444-9a7c-cdcd0c105600","ios":"levelo://app?vid=c256e529-78e6-4444-9a7c-cdcd0c105600"},"vehicle_type_id":"4","last_reported":1768292235,"current_range_meters":5600,"station_id":"ce4bh012rcd13ifvqcv0","pricing_plan_id":"cebpf4jnsgd1na2vs0mg"},{"bike_id":"9f295e7a-65c6-4272-9043-5a3d89670383","system_id":"levelo_inurba_marseille","lat":43.24809,"lon":5.37452,"is_reserved":false,"is_disabled":false,"rental_uris":{"android":"levelo://app?vid=9f295e7a-65c6-4272-9043-5a3d89670383","ios":"levelo://app?vid=9f295e7a-65c6-4272-9043-5a3d89670383"},"vehicle_type_id":"4","last_reported":1768292235,"current_range_meters":5600,"station_id":"ce4bhgh2rcd13ifvqfb0","pricing_plan_id":"cebpf4jnsgd1na2vs0mg"},{"bike_id":"c6558a22-9f7a-48a8-a77a-9e77a81116a4","system_id":"levelo_inurba_marseille","lat":43.30601,"lon":5.37235,"is_reserved":false,"is_disabled":false,"rental_uris":{"android":"levelo://app?vid=c6558a22-9f7a-48a8-a77a-9e77a81116a4","ios":"levelo://app?vid=c6558a22-9f7a-48a8-a77a-9e77a81116a4"},"vehicle_type_id":"4","last_reported":1768292235,"current_range_meters":5600,"station_id":"ce4bgqh2rcd13ifvqc4g","pricing_plan_id":"cebpf4jnsgd1na2vs0mg"},{"bike_id":"4b7e622a-4d92-44a0-b6d5-24d6b5445f5c","system_id":"levelo_inurba_marseille","lat":43.32686,"lon":5.39558,"is_reserved":false,"is_disabled":false,"rental_uris":{"android":"levelo://app?vid=4b7e622a-4d92-44a0-b6d5-24d6b5445f5c","ios":"levelo://app?vid=4b7e622a-4d92-44a0-b6d5-24d6b5445f5c"},"vehicle_type_id":"4","last_reported":1768292235,"current_range_meters":5600,"station_id":"","pricing_plan_id":"cebpf4jnsgd1na2vs0mg"},{"bike_id":"1fab451c-a69a-44ca-b2c3-fe8939fd9580","system_id":"levelo_inurba_marseille","lat":43.31521,"lon":5.414,"is_reserved":false,"is_disabled":false,"rental_uris":{"android":"levelo://app?vid=1fab451c-a69a-44ca-b2c3-fe8939fd9580","ios":"levelo://app?vid=1fab451c-a69a-44ca-b2c3-fe8939fd9580"},"vehicle_type_id":"4","last_reported":1768292235,"current_range_meters":5600,"station_id":"","pricing_plan_id":"cebpf4jnsgd1na2vs0mg"},{"bike_id":"a27f6a61-689d-49de-951e-01c7ddaa0581","system_id":"levelo_inurba_marseille","lat":43.2417,"lon":5.36399,"is_reserved":false,"is_disabled":false,"rental_uris":{"android":"levelo://app?vid=a27f6a61-689d-49de-951e-01c7ddaa0581","ios":"levelo://app?vid=a27f6a61-689d-49de-951e-01c7ddaa0581"},"vehicle_type_id":"4","last_reported":1768292235,"current_range_meters":6000,"station_id":"cpo36qri1sfpv3e86is0","pricing_plan_id":"cebpf4jnsgd1na2vs0mg"},{"bike_id":"3b1ca331-2583-480a-802a-f17a662fbc70","system_id":"levelo_inurba_marseille","lat":43.23115,"lon":5.43708,"is_reserved":false,"is_disabled":false,"rental_uris":{"android":"levelo://app?vid=3b1ca331-2583-480a-802a-f17a662fbc70","ios":"levelo://app?vid=3b1ca331-2583-480a-802a-f17a662fbc70"},"vehicle_type_id":"4","last_reported":1768292235,"current_range_meters":6000,"station_id":"ce4bhmp2rcd13ifvqgog","pricing_plan_id":"cebpf4jnsgd1na2vs0mg"},{"bike_id":"47fa8c07-02d3-44db-8c89-106a6ddb4f66","system_id":"levelo_inurba_marseille","lat":43.2954,"lon":5.3854,"is_reserved":false,"is_disabled":false,"rental_uris":{"android":"levelo://app?vid=47fa8c07-02d3-44db-8c89-106a6ddb4f66","ios":"levelo://app?vid=47fa8c07-02d3-44db-8c89-106a6ddb4f66"},"vehicle_type_id":"4","last_reported":1768292235,"current_range_meters":6000,"station_id":"ce4bgih2rcd13ifvqba0","pricing_plan_id":"cebpf4jnsgd1na2vs0mg"},{"bike_id":"e17a9c82-8846-45df-b367-7545f106e168","system_id":"levelo_inurba_marseille","lat":43.31329,"lon":5.38424,"is_reserved":false,"is_disabled":false,"rental_uris":{"android":"levelo://app?vid=e17a9c82-8846-45df-b367-7545f106e168","ios":"levelo://app?vid=e17a9c82-8846-45df-b367-7545f106e168"},"vehicle_type_id":"4","last_reported":1768292235,"current_range_meters":6000,"station_id":"","pricing_plan_id":"cebpf4jnsgd1na2vs0mg"},{"bike_id":"4e3d6d82-906c-4359-bb4c-5b997113e1ff","system_id":"levelo_inurba_marseille","lat":43.30558,"lon":5.3652,"is_reserved":false,"is_disabled":false,"rental_uris":{"android":"levelo://app?vid=4e3d6d82-906c-4359-bb4c-5b997113e1ff","ios":"levelo://app?vid=4e3d6d82-906c-4359-bb4c-5b997113e1ff"},"vehicle_type_id":"4","last_reported":1768292235,"current_range_meters":6000,"station_id":"ce4bgs12rcd13ifvqcag","pricing_plan_id":"cebpf4jnsgd1na2vs0mg"},{"bike_id":"d57094ce-7af8-428e-9753-4201f05f4a86","system_id":"levelo_inurba_marseille","lat":43.248102,"lon":5.374587,"is_reserved":false,"is_disabled":false,"rental_uris":{"android":"levelo://app?vid=d57094ce-7af8-428e-9753-4201f05f4a86","ios":"levelo://app?vid=d57094ce-7af8-428e-9753-4201f05f4a86"},"vehicle_type_id":"4","last_reported":1768292235,"current_range_meters":6000,"station_id":"ce4bhgh2rcd13ifvqfb0","pricing_plan_id":"cebpf4jnsgd1na2vs0mg"},{"bike_id":"724de0f9-0a1e-4ba0-a5b2-659a4663c10c","system_id":"levelo_inurba_marseille","lat":43.25067,"lon":5.39489,"is_reserved":false,"is_disabled":false,"rental_uris":{"android":"levelo://app?vid=724de0f9-0a1e-4ba0-a5b2-659a4663c10c","ios":"levelo://app?vid=724de0f9-0a1e-4ba0-a5b2-659a4663c10c"},"vehicle_type_id":"4","last_reported":1768292235,"current_range_meters":6000,"station_id":"ce4bhm12rcd13ifvqgkg","pricing_plan_id":"cebpf4jnsgd1na2vs0mg"},{"bike_id":"b72b93cb-6c8e-4cf4-ac55-2a683c755517","system_id":"levelo_inurba_marseille","lat":43.29276,"lon":5.36851,"is_reserved":false,"is_disabled":false,"rental_uris":{"android":"levelo://app?vid=b72b93cb-6c8e-4cf4-ac55-2a683c755517","ios":"levelo://app?vid=b72b93cb-6c8e-4cf4-ac55-2a683c755517"},"vehicle_type_id":"4","last_reported":1768292235,"current_range_meters":6000,"station_id":"ce4bhbp2rcd13ifvqesg","pricing_plan_id":"cebpf4jnsgd1na2vs0mg"},{"bike_id":"16945599-a8b0-427a-bfa0-436fe89b6d82","system_id":"levelo_inurba_marseille","lat":43.3105,"lon":5.3718,"is_reserved":false,"is_disabled":false,"rental_uris":{"android":"levelo://app?vid=16945599-a8b0-427a-bfa0-436fe89b6d82","ios":"levelo://app?vid=16945599-a8b0-427a-bfa0-436fe89b6d82"},"vehicle_type_id":"4","last_reported":1768292235,"current_range_meters":6000,"station_id":"st_d4kl2rp97mjs73e7tdfg","pricing_plan_id":"cebpf4jnsgd1na2vs0mg"},{"bike_id":"c5b0e4e4-c0dd-441f-992f-a632a50a9951","system_id":"levelo_inurba_marseille","lat":43.27622,"lon":5.36122,"is_reserved":false,"is_disabled":false,"rental_uris":{"android":"levelo://app?vid=c5b0e4e4-c0dd-441f-992f-a632a50a9951","ios":"levelo://app?vid=c5b0e4e4-c0dd-441f-992f-a632a50a9951"},"vehicle_type_id":"4","last_reported":1768292235,"current_range_meters":6000,"station_id":"ce4bgj92rcd13ifvqbe0","pricing_plan_id":"cebpf4jnsgd1na2vs0mg"},{"bike_id":"62a6a880-8c2f-4973-954e-dca5b666173d","system_id":"levelo_inurba_marseille","lat":43.29949,"lon":5.37353,"is_reserved":false,"is_disabled":false,"rental_uris":{"android":"levelo://app?vid=62a6a880-8c2f-4973-954e-dca5b666173d","ios":"levelo://app?vid=62a6a880-8c2f-4973-954e-dca5b666173d"},"vehicle_type_id":"4","last_reported":1768292235,"current_range_meters":6000,"station_id":"","pricing_plan_id":"cebpf4jnsgd1na2vs0mg"},{"bike_id":"9c6ac982-85bd-4de8-bac0-c36b3d884f3d","system_id":"levelo_inurba_marseille","lat":43.32113,"lon":5.36777,"is_reserved":false,"is_disabled":false,"rental_uris":{"android":"levelo://app?vid=9c6ac982-85bd-4de8-bac0-c36b3d884f3d","ios":"levelo://app?vid=9c6ac982-85bd-4de8-bac0-c36b3d884f3d"},"vehicle_type_id":"4","last_reported":1768292235,"current_range_meters":6000,"station_id":"ce4bhrh2rcd13ifvqhug","pricing_plan_id":"cebpf4jnsgd1na2vs0mg"},{"bike_id":"f49b5bee-e2f5-416e-ae69-8940360ec155","system_id":"levelo_inurba_marseille","lat":43.3016,"lon":5.38094,"is_reserved":false,"is_disabled":false,"rental_uris":{"android":"levelo://app?vid=f49b5bee-e2f5-416e-ae69-8940360ec155","ios":"levelo://app?vid=f49b5bee-e2f5-416e-ae69-8940360ec155"},"vehicle_type_id":"4","last_reported":1768292235,"current_range_meters":6000,"station_id":"ce4bgjp2rcd13ifvqbh0","pricing_plan_id":"cebpf4jnsgd1na2vs0mg"},{"bike_id":"1b1a670a-fcf4-4828-aa79-e1b72cfec18c","system_id":"levelo_inurba_marseille","lat":43.2319,"lon":5.35533,"is_reserved":false,"is_disabled":false,"rental_uris":{"android":"levelo://app?vid=1b1a670a-fcf4-4828-aa79-e1b72cfec18c","ios":"levelo://app?vid=1b1a670a-fcf4-4828-aa79-e1b72cfec18c"},"vehicle_type_id":"4","last_reported":1768292235,"current_range_meters":6000,"station_id":"ce4bhu92rcd13ifvqi70","pricing_plan_id":"cebpf4jnsgd1na2vs0mg"},{"bike_id":"a8568ed8-cd88-4557-9248-157fa51dd8d0","system_id":"levelo_inurba_marseille","lat":43.28347,"lon":5.38102,"is_reserved":false,"is_disabled":false,"rental_uris":{"android":"levelo://app?vid=a8568ed8-cd88-4557-9248-157fa51dd8d0","ios":"levelo://app?vid=a8568ed8-cd88-4557-9248-157fa51dd8d0"},"vehicle_type_id":"4","last_reported":1768292235,"current_range_meters":6000,"station_id":"ce4bh412rcd13ifvqdr0","pricing_plan_id":"cebpf4jnsgd1na2vs0mg"},{"bike_id":"cdb7f885-d79c-4a7f-be8b-87d7e51ae524","system_id":"levelo_inurba_marseille","lat":43.30656,"lon":5.40512,"is_reserved":false,"is_disabled":false,"rental_uris":{"android":"levelo://app?vid=cdb7f885-d79c-4a7f-be8b-87d7e51ae524","ios":"levelo://app?vid=cdb7f885-d79c-4a7f-be8b-87d7e51ae524"},"vehicle_type_id":"4","last_reported":1768292235,"current_range_meters":6000,"station_id":"ce4bh112rcd13ifvqda0","pricing_plan_id":"cebpf4jnsgd1na2vs0mg"},{"bike_id":"73995964-5fd9-40f3-be62-12151c415e47","system_id":"levelo_inurba_marseille","lat":43.25025,"lon":5.38914,"is_reserved":false,"is_disabled":false,"rental_uris":{"android":"levelo://app?vid=73995964-5fd9-40f3-be62-12151c415e47","ios":"levelo://app?vid=73995964-5fd9-40f3-be62-12151c415e47"},"vehicle_type_id":"4","last_reported":1768292235,"current_range_meters":6400,"station_id":"ce4bhgp2rcd13ifvqfd0","pricing_plan_id":"cebpf4jnsgd1na2vs0mg"},{"bike_id":"15b21ccb-bd0e-47c3-8259-e27d2855772d","system_id":"levelo_inurba_marseille","lat":43.24611,"lon":5.38399,"is_reserved":false,"is_disabled":false,"rental_uris":{"android":"levelo://app?vid=15b21ccb-bd0e-47c3-8259-e27d2855772d","ios":"levelo://app?vid=15b21ccb-bd0e-47c3-8259-e27d2855772d"},"vehicle_type_id":"4","last_reported":1768292235,"current_range_meters":6400,"station_id":"","pricing_plan_id":"cebpf4jnsgd1na2vs0mg"},{"bike_id":"c9aa61c2-bf79-4eea-867a-5fdf9f19baaf","system_id":"levelo_inurba_marseille","lat":43.25507,"lon":5.37653,"is_reserved":false,"is_disabled":false,"rental_uris":{"android":"levelo://app?vid=c9aa61c2-bf79-4eea-867a-5fdf9f19baaf","ios":"levelo://app?vid=c9aa61c2-bf79-4eea-867a-5fdf9f19baaf"},"vehicle_type_id":"4","last_reported":1768292235,"current_range_meters":6400,"station_id":"ce4bhh12rcd13ifvqff0","pricing_plan_id":"cebpf4jnsgd1na2vs0mg"},{"bike_id":"c4fcc189-751d-4eb2-af69-d5ccf6bfb543","system_id":"levelo_inurba_marseille","lat":43.28491,"lon":5.48381,"is_reserved":false,"is_disabled":false,"rental_uris":{"android":"levelo://app?vid=c4fcc189-751d-4eb2-af69-d5ccf6bfb543","ios":"levelo://app?vid=c4fcc189-751d-4eb2-af69-d5ccf6bfb543"},"vehicle_type_id":"4","last_reported":1768292235,"current_range_meters":6400,"station_id":"","pricing_plan_id":"cebpf4jnsgd1na2vs0mg"},{"bike_id":"7b7c4d5a-48b0-4253-8d68-ce9bdb9244be","system_id":"levelo_inurba_marseille","lat":43.26522,"lon":5.37295,"is_reserved":false,"is_disabled":false,"rental_uris":{"android":"levelo://app?vid=7b7c4d5a-48b0-4253-8d68-ce9bdb9244be","ios":"levelo://app?vid=7b7c4d5a-48b0-4253-8d68-ce9bdb9244be"},"vehicle_type_id":"4","last_reported":1768292235,"current_range_meters":6400,"station_id":"","pricing_plan_id":"cebpf4jnsgd1na2vs0mg"},{"bike_id":"aa71df00-ac67-458a-bb07-9f22d4867495","system_id":"levelo_inurba_marseille","lat":43.24393,"lon":5.37066,"is_reserved":false,"is_disabled":false,"rental_uris":{"android":"levelo://app?vid=aa71df00-ac67-458a-bb07-9f22d4867495","ios":"levelo://app?vid=aa71df00-ac67-458a-bb07-9f22d4867495"},"vehicle_type_id":"4","last_reported":1768292235,"current_range_meters":6400,"station_id":"ce4bhhh2rcd13ifvqfk0","pricing_plan_id":"cebpf4jnsgd1na2vs0mg"},{"bike_id":"f177f7bc-1ed5-42e0-a608-82886412a4e4","system_id":"levelo_inurba_marseille","lat":43.23963,"lon":5.36623,"is_reserved":false,"is_disabled":false,"rental_uris":{"android":"levelo://app?vid=f177f7bc-1ed5-42e0-a608-82886412a4e4","ios":"levelo://app?vid=f177f7bc-1ed5-42e0-a608-82886412a4e4"},"vehicle_type_id":"4","last_reported":1768292235,"current_range_meters":6400,"station_id":"ce4bhi12rcd13ifvqfp0","pricing_plan_id":"cebpf4jnsgd1na2vs0mg"},{"bike_id":"e0390093-e93c-4352-a447-1922bd291a25","system_id":"levelo_inurba_marseille","lat":43.241593,"lon":5.364043,"is_reserved":false,"is_disabled":false,"rental_uris":{"android":"levelo://app?vid=e0390093-e93c-4352-a447-1922bd291a25","ios":"levelo://app?vid=e0390093-e93c-4352-a447-1922bd291a25"},"vehicle_type_id":"4","last_reported":1768292235,"current_range_meters":6400,"station_id":"cpo36qri1sfpv3e86is0","pricing_plan_id":"cebpf4jnsgd1na2vs0mg"},{"bike_id":"889365ac-dd9e-4bc8-95c4-120ab5729ad1","system_id":"levelo_inurba_marseille","lat":43.25587,"lon":5.38271,"is_reserved":false,"is_disabled":false,"rental_uris":{"android":"levelo://app?vid=889365ac-dd9e-4bc8-95c4-120ab5729ad1","ios":"levelo://app?vid=889365ac-dd9e-4bc8-95c4-120ab5729ad1"},"vehicle_type_id":"4","last_reported":1768292235,"current_range_meters":6400,"station_id":"ce4bhih2rcd13ifvqfs0","pricing_plan_id":"cebpf4jnsgd1na2vs0mg"},{"bike_id":"b3940cd9-99e9-416d-932b-b96244c66170","system_id":"levelo_inurba_marseille","lat":43.31329,"lon":5.36811,"is_reserved":false,"is_disabled":false,"rental_uris":{"android":"levelo://app?vid=b3940cd9-99e9-416d-932b-b96244c66170","ios":"levelo://app?vid=b3940cd9-99e9-416d-932b-b96244c66170"},"vehicle_type_id":"4","last_reported":1768292235,"current_range_meters":6400,"station_id":"","pricing_plan_id":"cebpf4jnsgd1na2vs0mg"},{"bike_id":"ba9aa4b5-9ae3-4347-ba16-0b79f803aee5","system_id":"levelo_inurba_marseille","lat":43.298606,"lon":5.409144,"is_reserved":false,"is_disabled":false,"rental_uris":{"android":"levelo://app?vid=ba9aa4b5-9ae3-4347-ba16-0b79f803aee5","ios":"levelo://app?vid=ba9aa4b5-9ae3-4347-ba16-0b79f803aee5"},"vehicle_type_id":"4","last_reported":1768292235,"current_range_meters":6400,"station_id":"","pricing_plan_id":"cebpf4jnsgd1na2vs0mg"},{"bike_id":"c4719649-1dbc-4c5a-b782-8fce65146957","system_id":"levelo_inurba_marseille","lat":43.28552,"lon":5.44078,"is_reserved":false,"is_disabled":false,"rental_uris":{"android":"levelo://app?vid=c4719649-1dbc-4c5a-b782-8fce65146957","ios":"levelo://app?vid=c4719649-1dbc-4c5a-b782-8fce65146957"},"vehicle_type_id":"4","last_reported":1768292235,"current_range_meters":6400,"station_id":"st_d3j3df2ikq2c7380ej80","pricing_plan_id":"cebpf4jnsgd1na2vs0mg"},{"bike_id":"fbaef028-ec74-4c9f-8bef-75df8753715b","system_id":"levelo_inurba_marseille","lat":43.29077,"lon":5.37076,"is_reserved":false,"is_disabled":false,"rental_uris":{"android":"levelo://app?vid=fbaef028-ec74-4c9f-8bef-75df8753715b","ios":"levelo://app?vid=fbaef028-ec74-4c9f-8bef-75df8753715b"},"vehicle_type_id":"4","last_reported":1768292235,"current_range_meters":6400,"station_id":"","pricing_plan_id":"cebpf4jnsgd1na2vs0mg"},{"bike_id":"6ab62250-5818-43ed-b656-9cf3ea931848","system_id":"levelo_inurba_marseille","lat":43.282688,"lon":5.350575,"is_reserved":false,"is_disabled":false,"rental_uris":{"android":"levelo://app?vid=6ab62250-5818-43ed-b656-9cf3ea931848","ios":"levelo://app?vid=6ab62250-5818-43ed-b656-9cf3ea931848"},"vehicle_type_id":"4","last_reported":1768292235,"current_range_meters":6400,"station_id":"ce4bhbp2rcd13ifvqerg","pricing_plan_id":"cebpf4jnsgd1na2vs0mg"},{"bike_id":"a714f418-ed3b-4b59-9c3d-b14acbf5c7c6","system_id":"levelo_inurba_marseille","lat":43.25086,"lon":5.39526,"is_reserved":false,"is_disabled":false,"rental_uris":{"android":"levelo://app?vid=a714f418-ed3b-4b59-9c3d-b14acbf5c7c6","ios":"levelo://app?vid=a714f418-ed3b-4b59-9c3d-b14acbf5c7c6"},"vehicle_type_id":"4","last_reported":1768292235,"current_range_meters":6400,"station_id":"ce4bhm12rcd13ifvqgkg","pricing_plan_id":"cebpf4jnsgd1na2vs0mg"},{"bike_id":"e7f880b9-9ced-4dbf-8dbc-b70fe3a8fb49","system_id":"levelo_inurba_marseille","lat":43.32356,"lon":5.36731,"is_reserved":false,"is_disabled":false,"rental_uris":{"android":"levelo://app?vid=e7f880b9-9ced-4dbf-8dbc-b70fe3a8fb49","ios":"levelo://app?vid=e7f880b9-9ced-4dbf-8dbc-b70fe3a8fb49"},"vehicle_type_id":"4","last_reported":1768292235,"current_range_meters":6400,"station_id":"ce4bhsh2rcd13ifvqi2g","pricing_plan_id":"cebpf4jnsgd1na2vs0mg"},{"bike_id":"2cc9db73-43c9-4a56-a963-4c4c6878c41f","system_id":"levelo_inurba_marseille","lat":43.23842,"lon":5.36647,"is_reserved":false,"is_disabled":false,"rental_uris":{"android":"levelo://app?vid=2cc9db73-43c9-4a56-a963-4c4c6878c41f","ios":"levelo://app?vid=2cc9db73-43c9-4a56-a963-4c4c6878c41f"},"vehicle_type_id":"4","last_reported":1768292235,"current_range_meters":6400,"station_id":"","pricing_plan_id":"cebpf4jnsgd1na2vs0mg"},{"bike_id":"63b1856a-5e73-4949-8313-642a7aae66aa","system_id":"levelo_inurba_marseille","lat":43.22925,"lon":5.35382,"is_reserved":false,"is_disabled":false,"rental_uris":{"android":"levelo://app?vid=63b1856a-5e73-4949-8313-642a7aae66aa","ios":"levelo://app?vid=63b1856a-5e73-4949-8313-642a7aae66aa"},"vehicle_type_id":"4","last_reported":1768292235,"current_range_meters":6400,"station_id":"cpo3532slgdg3j2ikp40","pricing_plan_id":"cebpf4jnsgd1na2vs0mg"},{"bike_id":"a5fdd8c3-d5e0-4c98-a5d1-c952389257b2","system_id":"levelo_inurba_marseille","lat":43.24614,"lon":5.43151,"is_reserved":false,"is_disabled":false,"rental_uris":{"android":"levelo://app?vid=a5fdd8c3-d5e0-4c98-a5d1-c952389257b2","ios":"levelo://app?vid=a5fdd8c3-d5e0-4c98-a5d1-c952389257b2"},"vehicle_type_id":"4","last_reported":1768292235,"current_range_meters":6400,"station_id":"st_d2m6c4gdas8pm72e190g","pricing_plan_id":"cebpf4jnsgd1na2vs0mg"},{"bike_id":"66aef6c6-a7a1-4c0b-b851-f3bd6b2fb92e","system_id":"levelo_inurba_marseille","lat":43.27565,"lon":5.38417,"is_reserved":false,"is_disabled":false,"rental_uris":{"android":"levelo://app?vid=66aef6c6-a7a1-4c0b-b851-f3bd6b2fb92e","ios":"levelo://app?vid=66aef6c6-a7a1-4c0b-b851-f3bd6b2fb92e"},"vehicle_type_id":"4","last_reported":1768292235,"current_range_meters":6400,"station_id":"ce4bhh92rcd13ifvqfi0","pricing_plan_id":"cebpf4jnsgd1na2vs0mg"},{"bike_id":"b0bc2330-6b9e-4d53-b00a-689195be20e3","system_id":"levelo_inurba_marseille","lat":43.28937,"lon":5.36652,"is_reserved":false,"is_disabled":false,"rental_uris":{"android":"levelo://app?vid=b0bc2330-6b9e-4d53-b00a-689195be20e3","ios":"levelo://app?vid=b0bc2330-6b9e-4d53-b00a-689195be20e3"},"vehicle_type_id":"4","last_reported":1768292235,"current_range_meters":6400,"station_id":"ce4bhap2rcd13ifvqek0","pricing_plan_id":"cebpf4jnsgd1na2vs0mg"},{"bike_id":"b659a5a2-a6de-438e-b560-ec4a8dc93085","system_id":"levelo_inurba_marseille","lat":43.262222,"lon":5.404529,"is_reserved":false,"is_disabled":false,"rental_uris":{"android":"levelo://app?vid=b659a5a2-a6de-438e-b560-ec4a8dc93085","ios":"levelo://app?vid=b659a5a2-a6de-438e-b560-ec4a8dc93085"},"vehicle_type_id":"4","last_reported":1768292235,"current_range_meters":6400,"station_id":"ce4bhmh2rcd13ifvqgmg","pricing_plan_id":"cebpf4jnsgd1na2vs0mg"},{"bike_id":"b60c8777-50a1-4187-b012-61c8b2392d61","system_id":"levelo_inurba_marseille","lat":43.24162,"lon":5.36396,"is_reserved":false,"is_disabled":false,"rental_uris":{"android":"levelo://app?vid=b60c8777-50a1-4187-b012-61c8b2392d61","ios":"levelo://app?vid=b60c8777-50a1-4187-b012-61c8b2392d61"},"vehicle_type_id":"4","last_reported":1768292235,"current_range_meters":6400,"station_id":"cpo36qri1sfpv3e86is0","pricing_plan_id":"cebpf4jnsgd1na2vs0mg"},{"bike_id":"73159171-0e70-4889-87e6-07eac0d40625","system_id":"levelo_inurba_marseille","lat":43.22568,"lon":5.41624,"is_reserved":false,"is_disabled":false,"rental_uris":{"android":"levelo://app?vid=73159171-0e70-4889-87e6-07eac0d40625","ios":"levelo://app?vid=73159171-0e70-4889-87e6-07eac0d40625"},"vehicle_type_id":"4","last_reported":1768292235,"current_range_meters":6400,"station_id":"st_d2o4gvlbi1j2169b742g","pricing_plan_id":"cebpf4jnsgd1na2vs0mg"},{"bike_id":"0623fbf7-8f4b-4fe1-ae28-5d4b2c84383f","system_id":"levelo_inurba_marseille","lat":43.26224,"lon":5.404633,"is_reserved":false,"is_disabled":false,"rental_uris":{"android":"levelo://app?vid=0623fbf7-8f4b-4fe1-ae28-5d4b2c84383f","ios":"levelo://app?vid=0623fbf7-8f4b-4fe1-ae28-5d4b2c84383f"},"vehicle_type_id":"4","last_reported":1768292235,"current_range_meters":6800,"station_id":"ce4bhmh2rcd13ifvqgmg","pricing_plan_id":"cebpf4jnsgd1na2vs0mg"},{"bike_id":"af0b862d-1b21-408c-b115-209a492a88a8","system_id":"levelo_inurba_marseille","lat":43.32359,"lon":5.36763,"is_reserved":false,"is_disabled":false,"rental_uris":{"android":"levelo://app?vid=af0b862d-1b21-408c-b115-209a492a88a8","ios":"levelo://app?vid=af0b862d-1b21-408c-b115-209a492a88a8"},"vehicle_type_id":"4","last_reported":1768292235,"current_range_meters":6800,"station_id":"ce4bhsh2rcd13ifvqi2g","pricing_plan_id":"cebpf4jnsgd1na2vs0mg"},{"bike_id":"c52a3b2e-2d80-494e-a251-95eca3abe920","system_id":"levelo_inurba_marseille","lat":43.30891,"lon":5.37187,"is_reserved":false,"is_disabled":false,"rental_uris":{"android":"levelo://app?vid=c52a3b2e-2d80-494e-a251-95eca3abe920","ios":"levelo://app?vid=c52a3b2e-2d80-494e-a251-95eca3abe920"},"vehicle_type_id":"4","last_reported":1768292235,"current_range_meters":6800,"station_id":"ce4bguh2rcd13ifvqckg","pricing_plan_id":"cebpf4jnsgd1na2vs0mg"},{"bike_id":"bd89181b-eae8-480c-8877-39f41c6230d8","system_id":"levelo_inurba_marseille","lat":43.30136,"lon":5.3742,"is_reserved":false,"is_disabled":false,"rental_uris":{"android":"levelo://app?vid=bd89181b-eae8-480c-8877-39f41c6230d8","ios":"levelo://app?vid=bd89181b-eae8-480c-8877-39f41c6230d8"},"vehicle_type_id":"4","last_reported":1768292235,"current_range_meters":6800,"station_id":"ce4bgs92rcd13ifvqcc0","pricing_plan_id":"cebpf4jnsgd1na2vs0mg"},{"bike_id":"0fafc9bc-eab3-4497-b4de-e36867104d5a","system_id":"levelo_inurba_marseille","lat":43.260669,"lon":5.393914,"is_reserved":false,"is_disabled":false,"rental_uris":{"android":"levelo://app?vid=0fafc9bc-eab3-4497-b4de-e36867104d5a","ios":"levelo://app?vid=0fafc9bc-eab3-4497-b4de-e36867104d5a"},"vehicle_type_id":"4","last_reported":1768292235,"current_range_meters":6800,"station_id":"ce4bhh92rcd13ifvqfj0","pricing_plan_id":"cebpf4jnsgd1na2vs0mg"},{"bike_id":"1d349845-2c26-4ed0-acb5-c40065571ab2","system_id":"levelo_inurba_marseille","lat":43.27913,"lon":5.39591,"is_reserved":false,"is_disabled":false,"rental_uris":{"android":"levelo://app?vid=1d349845-2c26-4ed0-acb5-c40065571ab2","ios":"levelo://app?vid=1d349845-2c26-4ed0-acb5-c40065571ab2"},"vehicle_type_id":"4","last_reported":1768292235,"current_range_meters":6800,"station_id":"ce4bhf92rcd13ifvqf40","pricing_plan_id":"cebpf4jnsgd1na2vs0mg"},{"bike_id":"0fccdfe4-16bf-4a0e-a9a6-49fb9e17b3b5","system_id":"levelo_inurba_marseille","lat":43.27918,"lon":5.39575,"is_reserved":false,"is_disabled":false,"rental_uris":{"android":"levelo://app?vid=0fccdfe4-16bf-4a0e-a9a6-49fb9e17b3b5","ios":"levelo://app?vid=0fccdfe4-16bf-4a0e-a9a6-49fb9e17b3b5"},"vehicle_type_id":"4","last_reported":1768292235,"current_range_meters":6800,"station_id":"ce4bhf92rcd13ifvqf40","pricing_plan_id":"cebpf4jnsgd1na2vs0mg"},{"bike_id":"4fcf8939-d9e5-44a3-8f16-b04dcd32071a","system_id":"levelo_inurba_marseille","lat":43.24167,"lon":5.36392,"is_reserved":false,"is_disabled":false,"rental_uris":{"android":"levelo://app?vid=4fcf8939-d9e5-44a3-8f16-b04dcd32071a","ios":"levelo://app?vid=4fcf8939-d9e5-44a3-8f16-b04dcd32071a"},"vehicle_type_id":"4","last_reported":1768292235,"current_range_meters":6800,"station_id":"cpo36qri1sfpv3e86is0","pricing_plan_id":"cebpf4jnsgd1na2vs0mg"},{"bike_id":"af67faee-83f6-4f76-86a9-d995cb3cacec","system_id":"levelo_inurba_marseille","lat":43.28708,"lon":5.39989,"is_reserved":false,"is_disabled":false,"rental_uris":{"android":"levelo://app?vid=af67faee-83f6-4f76-86a9-d995cb3cacec","ios":"levelo://app?vid=af67faee-83f6-4f76-86a9-d995cb3cacec"},"vehicle_type_id":"4","last_reported":1768292235,"current_range_meters":6800,"station_id":"ce4bho92rcd13ifvqh3g","pricing_plan_id":"cebpf4jnsgd1na2vs0mg"},{"bike_id":"63fc7043-c019-4251-abc3-87e8519908fa","system_id":"levelo_inurba_marseille","lat":43.26691,"lon":5.38277,"is_reserved":false,"is_disabled":true,"rental_uris":{"android":"levelo://app?vid=63fc7043-c019-4251-abc3-87e8519908fa","ios":"levelo://app?vid=63fc7043-c019-4251-abc3-87e8519908fa"},"vehicle_type_id":"4","last_reported":1768292235,"current_range_meters":6800,"station_id":"ce4bhg92rcd13ifvqf90","pricing_plan_id":"cebpf4jnsgd1na2vs0mg"},{"bike_id":"822bf8c4-2107-4985-9caf-c60c9968427e","system_id":"levelo_inurba_marseille","lat":43.283069,"lon":5.483986,"is_reserved":false,"is_disabled":false,"rental_uris":{"android":"levelo://app?vid=822bf8c4-2107-4985-9caf-c60c9968427e","ios":"levelo://app?vid=822bf8c4-2107-4985-9caf-c60c9968427e"},"vehicle_type_id":"4","last_reported":1768292235,"current_range_meters":6800,"station_id":"","pricing_plan_id":"cebpf4jnsgd1na2vs0mg"},{"bike_id":"312681fa-4d84-401f-8387-2d987d0df7e0","system_id":"levelo_inurba_marseille","lat":43.323601,"lon":5.36725,"is_reserved":false,"is_disabled":false,"rental_uris":{"android":"levelo://app?vid=312681fa-4d84-401f-8387-2d987d0df7e0","ios":"levelo://app?vid=312681fa-4d84-401f-8387-2d987d0df7e0"},"vehicle_type_id":"4","last_reported":1768292235,"current_range_meters":6800,"station_id":"ce4bhsh2rcd13ifvqi2g","pricing_plan_id":"cebpf4jnsgd1na2vs0mg"},{"bike_id":"8b08bb50-6a89-4b43-8d1d-7b39db0febba","system_id":"levelo_inurba_marseille","lat":43.239665,"lon":5.366309,"is_reserved":false,"is_disabled":false,"rental_uris":{"android":"levelo://app?vid=8b08bb50-6a89-4b43-8d1d-7b39db0febba","ios":"levelo://app?vid=8b08bb50-6a89-4b43-8d1d-7b39db0febba"},"vehicle_type_id":"4","last_reported":1768292235,"current_range_meters":6800,"station_id":"ce4bhi12rcd13ifvqfp0","pricing_plan_id":"cebpf4jnsgd1na2vs0mg"},{"bike_id":"53aca186-986f-4166-a157-7b9e063797f8","system_id":"levelo_inurba_marseille","lat":43.274938,"lon":5.424517,"is_reserved":false,"is_disabled":false,"rental_uris":{"android":"levelo://app?vid=53aca186-986f-4166-a157-7b9e063797f8","ios":"levelo://app?vid=53aca186-986f-4166-a157-7b9e063797f8"},"vehicle_type_id":"4","last_reported":1768292235,"current_range_meters":6800,"station_id":"ce4bhn92rcd13ifvqgrg","pricing_plan_id":"cebpf4jnsgd1na2vs0mg"},{"bike_id":"c982d76b-7fd6-451c-9063-ebda7a233a9e","system_id":"levelo_inurba_marseille","lat":43.269394,"lon":5.402561,"is_reserved":false,"is_disabled":false,"rental_uris":{"android":"levelo://app?vid=c982d76b-7fd6-451c-9063-ebda7a233a9e","ios":"levelo://app?vid=c982d76b-7fd6-451c-9063-ebda7a233a9e"},"vehicle_type_id":"4","last_reported":1768292235,"current_range_meters":6800,"station_id":"cjm6bp8fraef2m0cb0m0","pricing_plan_id":"cebpf4jnsgd1na2vs0mg"},{"bike_id":"98381cda-b3a9-4a41-913e-3012641b7216","system_id":"levelo_inurba_marseille","lat":43.29831,"lon":5.37655,"is_reserved":false,"is_disabled":false,"rental_uris":{"android":"levelo://app?vid=98381cda-b3a9-4a41-913e-3012641b7216","ios":"levelo://app?vid=98381cda-b3a9-4a41-913e-3012641b7216"},"vehicle_type_id":"4","last_reported":1768292235,"current_range_meters":6800,"station_id":"","pricing_plan_id":"cebpf4jnsgd1na2vs0mg"},{"bike_id":"f72a0330-2774-442c-a3bd-2da9f092a731","system_id":"levelo_inurba_marseille","lat":43.32363,"lon":5.36746,"is_reserved":false,"is_disabled":false,"rental_uris":{"android":"levelo://app?vid=f72a0330-2774-442c-a3bd-2da9f092a731","ios":"levelo://app?vid=f72a0330-2774-442c-a3bd-2da9f092a731"},"vehicle_type_id":"4","last_reported":1768292235,"current_range_meters":6800,"station_id":"ce4bhsh2rcd13ifvqi2g","pricing_plan_id":"cebpf4jnsgd1na2vs0mg"},{"bike_id":"b563b9ee-f431-483e-9b3a-89ae67e2e8da","system_id":"levelo_inurba_marseille","lat":43.261963,"lon":5.379189,"is_reserved":false,"is_disabled":false,"rental_uris":{"android":"levelo://app?vid=b563b9ee-f431-483e-9b3a-89ae67e2e8da","ios":"levelo://app?vid=b563b9ee-f431-483e-9b3a-89ae67e2e8da"},"vehicle_type_id":"4","last_reported":1768292235,"current_range_meters":7200,"station_id":"ce4bhjp2rcd13ifvqg90","pricing_plan_id":"cebpf4jnsgd1na2vs0mg"},{"bike_id":"6846db8e-90fb-4e30-93fa-8789900d77b9","system_id":"levelo_inurba_marseille","lat":43.25926,"lon":5.40901,"is_reserved":false,"is_disabled":false,"rental_uris":{"android":"levelo://app?vid=6846db8e-90fb-4e30-93fa-8789900d77b9","ios":"levelo://app?vid=6846db8e-90fb-4e30-93fa-8789900d77b9"},"vehicle_type_id":"4","last_reported":1768292235,"current_range_meters":7200,"station_id":"ce4bhm92rcd13ifvqglg","pricing_plan_id":"cebpf4jnsgd1na2vs0mg"},{"bike_id":"3131342a-e8d7-4b61-a752-64517a314409","system_id":"levelo_inurba_marseille","lat":43.24078,"lon":5.37748,"is_reserved":false,"is_disabled":false,"rental_uris":{"android":"levelo://app?vid=3131342a-e8d7-4b61-a752-64517a314409","ios":"levelo://app?vid=3131342a-e8d7-4b61-a752-64517a314409"},"vehicle_type_id":"4","last_reported":1768292235,"current_range_meters":7200,"station_id":"ce4bhnp2rcd13ifvqgvg","pricing_plan_id":"cebpf4jnsgd1na2vs0mg"},{"bike_id":"50df1513-8882-4403-8f50-7facfcd0de34","system_id":"levelo_inurba_marseille","lat":43.241639,"lon":5.364036,"is_reserved":false,"is_disabled":false,"rental_uris":{"android":"levelo://app?vid=50df1513-8882-4403-8f50-7facfcd0de34","ios":"levelo://app?vid=50df1513-8882-4403-8f50-7facfcd0de34"},"vehicle_type_id":"4","last_reported":1768292235,"current_range_meters":7200,"station_id":"cpo36qri1sfpv3e86is0","pricing_plan_id":"cebpf4jnsgd1na2vs0mg"},{"bike_id":"ce421665-3c26-4baa-b8ec-61eb8aef5e07","system_id":"levelo_inurba_marseille","lat":43.2807,"lon":5.40742,"is_reserved":false,"is_disabled":false,"rental_uris":{"android":"levelo://app?vid=ce421665-3c26-4baa-b8ec-61eb8aef5e07","ios":"levelo://app?vid=ce421665-3c26-4baa-b8ec-61eb8aef5e07"},"vehicle_type_id":"4","last_reported":1768292235,"current_range_meters":7200,"station_id":"","pricing_plan_id":"cebpf4jnsgd1na2vs0mg"},{"bike_id":"d21624bd-c474-47d2-a770-cf5d5a2cb126","system_id":"levelo_inurba_marseille","lat":43.24459,"lon":5.425399,"is_reserved":false,"is_disabled":false,"rental_uris":{"android":"levelo://app?vid=d21624bd-c474-47d2-a770-cf5d5a2cb126","ios":"levelo://app?vid=d21624bd-c474-47d2-a770-cf5d5a2cb126"},"vehicle_type_id":"4","last_reported":1768292235,"current_range_meters":7200,"station_id":"st_d4a3vfp97mjs738cd8kg","pricing_plan_id":"cebpf4jnsgd1na2vs0mg"},{"bike_id":"378babbb-f455-4392-b7b1-63d0b2114d6f","system_id":"levelo_inurba_marseille","lat":43.27614,"lon":5.361079,"is_reserved":false,"is_disabled":false,"rental_uris":{"android":"levelo://app?vid=378babbb-f455-4392-b7b1-63d0b2114d6f","ios":"levelo://app?vid=378babbb-f455-4392-b7b1-63d0b2114d6f"},"vehicle_type_id":"4","last_reported":1768292235,"current_range_meters":7200,"station_id":"ce4bgj92rcd13ifvqbe0","pricing_plan_id":"cebpf4jnsgd1na2vs0mg"},{"bike_id":"e399ba8e-3aeb-41ec-83ca-00b734a486d1","system_id":"levelo_inurba_marseille","lat":43.29569,"lon":5.37528,"is_reserved":false,"is_disabled":false,"rental_uris":{"android":"levelo://app?vid=e399ba8e-3aeb-41ec-83ca-00b734a486d1","ios":"levelo://app?vid=e399ba8e-3aeb-41ec-83ca-00b734a486d1"},"vehicle_type_id":"4","last_reported":1768292235,"current_range_meters":7200,"station_id":"ce4bgh92rcd13ifvqb50","pricing_plan_id":"cebpf4jnsgd1na2vs0mg"},{"bike_id":"57effd47-00ac-4489-b2f4-1fcd170adb3b","system_id":"levelo_inurba_marseille","lat":43.295691,"lon":5.375204,"is_reserved":false,"is_disabled":false,"rental_uris":{"android":"levelo://app?vid=57effd47-00ac-4489-b2f4-1fcd170adb3b","ios":"levelo://app?vid=57effd47-00ac-4489-b2f4-1fcd170adb3b"},"vehicle_type_id":"4","last_reported":1768292235,"current_range_meters":7200,"station_id":"ce4bgh92rcd13ifvqb50","pricing_plan_id":"cebpf4jnsgd1na2vs0mg"},{"bike_id":"40a5f518-4ec1-4f9c-ada8-7bc0d6856aa5","system_id":"levelo_inurba_marseille","lat":43.24168,"lon":5.36395,"is_reserved":false,"is_disabled":false,"rental_uris":{"android":"levelo://app?vid=40a5f518-4ec1-4f9c-ada8-7bc0d6856aa5","ios":"levelo://app?vid=40a5f518-4ec1-4f9c-ada8-7bc0d6856aa5"},"vehicle_type_id":"4","last_reported":1768292235,"current_range_meters":7200,"station_id":"cpo36qri1sfpv3e86is0","pricing_plan_id":"cebpf4jnsgd1na2vs0mg"},{"bike_id":"5dcbf14e-a8f8-4eab-bca3-17dae5f91ea7","system_id":"levelo_inurba_marseille","lat":43.27429,"lon":5.39416,"is_reserved":false,"is_disabled":false,"rental_uris":{"android":"levelo://app?vid=5dcbf14e-a8f8-4eab-bca3-17dae5f91ea7","ios":"levelo://app?vid=5dcbf14e-a8f8-4eab-bca3-17dae5f91ea7"},"vehicle_type_id":"4","last_reported":1768292235,"current_range_meters":7200,"station_id":"ce4bhdp2rcd13ifvqf20","pricing_plan_id":"cebpf4jnsgd1na2vs0mg"},{"bike_id":"54e3878d-bcb6-4cc9-8446-e62a75e67dcb","system_id":"levelo_inurba_marseille","lat":43.231848,"lon":5.399684,"is_reserved":false,"is_disabled":false,"rental_uris":{"android":"levelo://app?vid=54e3878d-bcb6-4cc9-8446-e62a75e67dcb","ios":"levelo://app?vid=54e3878d-bcb6-4cc9-8446-e62a75e67dcb"},"vehicle_type_id":"4","last_reported":1768292235,"current_range_meters":7200,"station_id":"ce4bhn12rcd13ifvqgqg","pricing_plan_id":"cebpf4jnsgd1na2vs0mg"},{"bike_id":"c07b2509-7bf4-4660-ac84-a23bb9f415fc","system_id":"levelo_inurba_marseille","lat":43.311224,"lon":5.377769,"is_reserved":false,"is_disabled":false,"rental_uris":{"android":"levelo://app?vid=c07b2509-7bf4-4660-ac84-a23bb9f415fc","ios":"levelo://app?vid=c07b2509-7bf4-4660-ac84-a23bb9f415fc"},"vehicle_type_id":"4","last_reported":1768292235,"current_range_meters":7200,"station_id":"ce4bgt92rcd13ifvqcg0","pricing_plan_id":"cebpf4jnsgd1na2vs0mg"},{"bike_id":"573219be-8449-4b0b-914b-5825e3035243","system_id":"levelo_inurba_marseille","lat":43.23193,"lon":5.35543,"is_reserved":false,"is_disabled":false,"rental_uris":{"android":"levelo://app?vid=573219be-8449-4b0b-914b-5825e3035243","ios":"levelo://app?vid=573219be-8449-4b0b-914b-5825e3035243"},"vehicle_type_id":"4","last_reported":1768292235,"current_range_meters":7200,"station_id":"ce4bhu92rcd13ifvqi70","pricing_plan_id":"cebpf4jnsgd1na2vs0mg"},{"bike_id":"5f8fee54-d2a5-449a-bb41-fb1b767b5315","system_id":"levelo_inurba_marseille","lat":43.26543,"lon":5.37284,"is_reserved":false,"is_disabled":false,"rental_uris":{"android":"levelo://app?vid=5f8fee54-d2a5-449a-bb41-fb1b767b5315","ios":"levelo://app?vid=5f8fee54-d2a5-449a-bb41-fb1b767b5315"},"vehicle_type_id":"4","last_reported":1768292235,"current_range_meters":8000,"station_id":"ce4bhg12rcd13ifvqf70","pricing_plan_id":"cebpf4jnsgd1na2vs0mg"},{"bike_id":"d06fb8ff-b65e-46fe-ba3f-114fbfe14af3","system_id":"levelo_inurba_marseille","lat":43.26694,"lon":5.39943,"is_reserved":false,"is_disabled":false,"rental_uris":{"android":"levelo://app?vid=d06fb8ff-b65e-46fe-ba3f-114fbfe14af3","ios":"levelo://app?vid=d06fb8ff-b65e-46fe-ba3f-114fbfe14af3"},"vehicle_type_id":"4","last_reported":1768292235,"current_range_meters":8000,"station_id":"","pricing_plan_id":"cebpf4jnsgd1na2vs0mg"},{"bike_id":"0af2e9a9-67f2-424c-9c61-d5f1c2c48c7b","system_id":"levelo_inurba_marseille","lat":43.25934,"lon":5.40908,"is_reserved":false,"is_disabled":false,"rental_uris":{"android":"levelo://app?vid=0af2e9a9-67f2-424c-9c61-d5f1c2c48c7b","ios":"levelo://app?vid=0af2e9a9-67f2-424c-9c61-d5f1c2c48c7b"},"vehicle_type_id":"4","last_reported":1768292235,"current_range_meters":8000,"station_id":"ce4bhm92rcd13ifvqglg","pricing_plan_id":"cebpf4jnsgd1na2vs0mg"},{"bike_id":"402c0417-9325-41d9-813b-15556cd44618","system_id":"levelo_inurba_marseille","lat":43.29266,"lon":5.37641,"is_reserved":false,"is_disabled":false,"rental_uris":{"android":"levelo://app?vid=402c0417-9325-41d9-813b-15556cd44618","ios":"levelo://app?vid=402c0417-9325-41d9-813b-15556cd44618"},"vehicle_type_id":"4","last_reported":1768292235,"current_range_meters":8000,"station_id":"ce4bgi12rcd13ifvqb80","pricing_plan_id":"cebpf4jnsgd1na2vs0mg"},{"bike_id":"51e89195-8b4b-4f5e-a89d-fb7217b1f1c1","system_id":"levelo_inurba_marseille","lat":43.3055,"lon":5.38387,"is_reserved":false,"is_disabled":false,"rental_uris":{"android":"levelo://app?vid=51e89195-8b4b-4f5e-a89d-fb7217b1f1c1","ios":"levelo://app?vid=51e89195-8b4b-4f5e-a89d-fb7217b1f1c1"},"vehicle_type_id":"4","last_reported":1768292235,"current_range_meters":8000,"station_id":"ce4bgg92rcd13ifvqb30","pricing_plan_id":"cebpf4jnsgd1na2vs0mg"},{"bike_id":"9b1adbdc-a09f-4c2c-967f-18b3146ce981","system_id":"levelo_inurba_marseille","lat":43.27635,"lon":5.36119,"is_reserved":false,"is_disabled":false,"rental_uris":{"android":"levelo://app?vid=9b1adbdc-a09f-4c2c-967f-18b3146ce981","ios":"levelo://app?vid=9b1adbdc-a09f-4c2c-967f-18b3146ce981"},"vehicle_type_id":"4","last_reported":1768292235,"current_range_meters":8000,"station_id":"ce4bgj92rcd13ifvqbe0","pricing_plan_id":"cebpf4jnsgd1na2vs0mg"},{"bike_id":"e853b517-debd-478b-aff7-6b473902a918","system_id":"levelo_inurba_marseille","lat":43.3134,"lon":5.36728,"is_reserved":false,"is_disabled":false,"rental_uris":{"android":"levelo://app?vid=e853b517-debd-478b-aff7-6b473902a918","ios":"levelo://app?vid=e853b517-debd-478b-aff7-6b473902a918"},"vehicle_type_id":"4","last_reported":1768292235,"current_range_meters":8000,"station_id":"ce4bgr92rcd13ifvqc6g","pricing_plan_id":"cebpf4jnsgd1na2vs0mg"},{"bike_id":"f7d36b9d-bf7c-43f6-b8d1-8e54d4f4e01e","system_id":"levelo_inurba_marseille","lat":43.315151,"lon":5.380328,"is_reserved":false,"is_disabled":false,"rental_uris":{"android":"levelo://app?vid=f7d36b9d-bf7c-43f6-b8d1-8e54d4f4e01e","ios":"levelo://app?vid=f7d36b9d-bf7c-43f6-b8d1-8e54d4f4e01e"},"vehicle_type_id":"4","last_reported":1768292235,"current_range_meters":8000,"station_id":"ce4bghh2rcd13ifvqb60","pricing_plan_id":"cebpf4jnsgd1na2vs0mg"},{"bike_id":"1f52d0ac-6457-4a7f-99e0-3b28afb15cf9","system_id":"levelo_inurba_marseille","lat":43.26374,"lon":5.41083,"is_reserved":false,"is_disabled":false,"rental_uris":{"android":"levelo://app?vid=1f52d0ac-6457-4a7f-99e0-3b28afb15cf9","ios":"levelo://app?vid=1f52d0ac-6457-4a7f-99e0-3b28afb15cf9"},"vehicle_type_id":"4","last_reported":1768292235,"current_range_meters":8000,"station_id":"st_d4e5ca6na9uc73bfl5fg","pricing_plan_id":"cebpf4jnsgd1na2vs0mg"},{"bike_id":"dbca4029-d08e-4725-b682-eaca4b614f30","system_id":"levelo_inurba_marseille","lat":43.32303,"lon":5.36701,"is_reserved":false,"is_disabled":false,"rental_uris":{"android":"levelo://app?vid=dbca4029-d08e-4725-b682-eaca4b614f30","ios":"levelo://app?vid=dbca4029-d08e-4725-b682-eaca4b614f30"},"vehicle_type_id":"4","last_reported":1768292235,"current_range_meters":8000,"station_id":"","pricing_plan_id":"cebpf4jnsgd1na2vs0mg"},{"bike_id":"dc2113b1-2f8d-4c2f-ab99-e0406a41f773","system_id":"levelo_inurba_marseille","lat":43.24807,"lon":5.37461,"is_reserved":false,"is_disabled":false,"rental_uris":{"android":"levelo://app?vid=dc2113b1-2f8d-4c2f-ab99-e0406a41f773","ios":"levelo://app?vid=dc2113b1-2f8d-4c2f-ab99-e0406a41f773"},"vehicle_type_id":"4","last_reported":1768292235,"current_range_meters":8000,"station_id":"ce4bhgh2rcd13ifvqfb0","pricing_plan_id":"cebpf4jnsgd1na2vs0mg"},{"bike_id":"29b1656a-cfc4-41bd-94a0-2dce72db0285","system_id":"levelo_inurba_marseille","lat":43.313647,"lon":5.384922,"is_reserved":false,"is_disabled":false,"rental_uris":{"android":"levelo://app?vid=29b1656a-cfc4-41bd-94a0-2dce72db0285","ios":"levelo://app?vid=29b1656a-cfc4-41bd-94a0-2dce72db0285"},"vehicle_type_id":"4","last_reported":1768292235,"current_range_meters":8000,"station_id":"ce4bgt92rcd13ifvqcf0","pricing_plan_id":"cebpf4jnsgd1na2vs0mg"},{"bike_id":"52b1b30e-1138-4a1f-b356-134dbb57994d","system_id":"levelo_inurba_marseille","lat":43.29572,"lon":5.37532,"is_reserved":false,"is_disabled":false,"rental_uris":{"android":"levelo://app?vid=52b1b30e-1138-4a1f-b356-134dbb57994d","ios":"levelo://app?vid=52b1b30e-1138-4a1f-b356-134dbb57994d"},"vehicle_type_id":"4","last_reported":1768292235,"current_range_meters":8000,"station_id":"ce4bgh92rcd13ifvqb50","pricing_plan_id":"cebpf4jnsgd1na2vs0mg"},{"bike_id":"40c6fab1-fc17-4c7a-8060-24756a12055b","system_id":"levelo_inurba_marseille","lat":43.31358,"lon":5.36731,"is_reserved":false,"is_disabled":false,"rental_uris":{"android":"levelo://app?vid=40c6fab1-fc17-4c7a-8060-24756a12055b","ios":"levelo://app?vid=40c6fab1-fc17-4c7a-8060-24756a12055b"},"vehicle_type_id":"4","last_reported":1768292235,"current_range_meters":8000,"station_id":"ce4bgr92rcd13ifvqc6g","pricing_plan_id":"cebpf4jnsgd1na2vs0mg"},{"bike_id":"88de65bc-f1ab-4009-9187-4c5979b992e7","system_id":"levelo_inurba_marseille","lat":43.289907,"lon":5.390481,"is_reserved":false,"is_disabled":false,"rental_uris":{"android":"levelo://app?vid=88de65bc-f1ab-4009-9187-4c5979b992e7","ios":"levelo://app?vid=88de65bc-f1ab-4009-9187-4c5979b992e7"},"vehicle_type_id":"4","last_reported":1768292235,"current_range_meters":8000,"station_id":"","pricing_plan_id":"cebpf4jnsgd1na2vs0mg"},{"bike_id":"ebd1fc42-c5d0-4e23-955e-afc603443586","system_id":"levelo_inurba_marseille","lat":43.28698,"lon":5.39981,"is_reserved":false,"is_disabled":false,"rental_uris":{"android":"levelo://app?vid=ebd1fc42-c5d0-4e23-955e-afc603443586","ios":"levelo://app?vid=ebd1fc42-c5d0-4e23-955e-afc603443586"},"vehicle_type_id":"4","last_reported":1768292235,"current_range_meters":8000,"station_id":"ce4bho92rcd13ifvqh3g","pricing_plan_id":"cebpf4jnsgd1na2vs0mg"},{"bike_id":"b088ad58-7f41-4ab8-80da-21ba2cb9e467","system_id":"levelo_inurba_marseille","lat":43.2255,"lon":5.41627,"is_reserved":false,"is_disabled":false,"rental_uris":{"android":"levelo://app?vid=b088ad58-7f41-4ab8-80da-21ba2cb9e467","ios":"levelo://app?vid=b088ad58-7f41-4ab8-80da-21ba2cb9e467"},"vehicle_type_id":"4","last_reported":1768292235,"current_range_meters":8000,"station_id":"st_d2o4gvlbi1j2169b742g","pricing_plan_id":"cebpf4jnsgd1na2vs0mg"},{"bike_id":"cb7933d8-d861-42e2-9166-370355de4b93","system_id":"levelo_inurba_marseille","lat":43.25722,"lon":5.41112,"is_reserved":false,"is_disabled":false,"rental_uris":{"android":"levelo://app?vid=cb7933d8-d861-42e2-9166-370355de4b93","ios":"levelo://app?vid=cb7933d8-d861-42e2-9166-370355de4b93"},"vehicle_type_id":"4","last_reported":1768292235,"current_range_meters":8000,"station_id":"ce4bhkp2rcd13ifvqgd0","pricing_plan_id":"cebpf4jnsgd1na2vs0mg"},{"bike_id":"a5e4775c-fe09-4d93-916a-5022170bcc25","system_id":"levelo_inurba_marseille","lat":43.241649,"lon":5.363955,"is_reserved":false,"is_disabled":false,"rental_uris":{"android":"levelo://app?vid=a5e4775c-fe09-4d93-916a-5022170bcc25","ios":"levelo://app?vid=a5e4775c-fe09-4d93-916a-5022170bcc25"},"vehicle_type_id":"4","last_reported":1768292235,"current_range_meters":8000,"station_id":"cpo36qri1sfpv3e86is0","pricing_plan_id":"cebpf4jnsgd1na2vs0mg"},{"bike_id":"a8dcba00-43a9-40b6-84b5-ecb3b0546762","system_id":"levelo_inurba_marseille","lat":43.30147,"lon":5.38073,"is_reserved":false,"is_disabled":false,"rental_uris":{"android":"levelo://app?vid=a8dcba00-43a9-40b6-84b5-ecb3b0546762","ios":"levelo://app?vid=a8dcba00-43a9-40b6-84b5-ecb3b0546762"},"vehicle_type_id":"4","last_reported":1768292235,"current_range_meters":8000,"station_id":"ce4bgjp2rcd13ifvqbh0","pricing_plan_id":"cebpf4jnsgd1na2vs0mg"},{"bike_id":"09930ce9-70d7-41d0-bc8a-b57bdff415b5","system_id":"levelo_inurba_marseille","lat":43.26553,"lon":5.37283,"is_reserved":false,"is_disabled":false,"rental_uris":{"android":"levelo://app?vid=09930ce9-70d7-41d0-bc8a-b57bdff415b5","ios":"levelo://app?vid=09930ce9-70d7-41d0-bc8a-b57bdff415b5"},"vehicle_type_id":"4","last_reported":1768292235,"current_range_meters":8000,"station_id":"ce4bhg12rcd13ifvqf70","pricing_plan_id":"cebpf4jnsgd1na2vs0mg"},{"bike_id":"725558b1-3a15-4f38-8c18-ee0a96f9ef90","system_id":"levelo_inurba_marseille","lat":43.31221,"lon":5.38168,"is_reserved":false,"is_disabled":false,"rental_uris":{"android":"levelo://app?vid=725558b1-3a15-4f38-8c18-ee0a96f9ef90","ios":"levelo://app?vid=725558b1-3a15-4f38-8c18-ee0a96f9ef90"},"vehicle_type_id":"4","last_reported":1768292235,"current_range_meters":8000,"station_id":"","pricing_plan_id":"cebpf4jnsgd1na2vs0mg"},{"bike_id":"397ab187-fc7e-4b08-94c8-d7a1cbd7c07b","system_id":"levelo_inurba_marseille","lat":43.29289,"lon":5.37462,"is_reserved":false,"is_disabled":false,"rental_uris":{"android":"levelo://app?vid=397ab187-fc7e-4b08-94c8-d7a1cbd7c07b","ios":"levelo://app?vid=397ab187-fc7e-4b08-94c8-d7a1cbd7c07b"},"vehicle_type_id":"4","last_reported":1768292235,"current_range_meters":8400,"station_id":"ce4bgi12rcd13ifvqb70","pricing_plan_id":"cebpf4jnsgd1na2vs0mg"},{"bike_id":"6ad2ac5d-0d69-4ff0-8680-3b5339e0db0c","system_id":"levelo_inurba_marseille","lat":43.26709,"lon":5.38255,"is_reserved":false,"is_disabled":true,"rental_uris":{"android":"levelo://app?vid=6ad2ac5d-0d69-4ff0-8680-3b5339e0db0c","ios":"levelo://app?vid=6ad2ac5d-0d69-4ff0-8680-3b5339e0db0c"},"vehicle_type_id":"4","last_reported":1768292235,"current_range_meters":8400,"station_id":"ce4bhg92rcd13ifvqf90","pricing_plan_id":"cebpf4jnsgd1na2vs0mg"},{"bike_id":"459ceeec-6531-408e-af1d-7d8585dacaef","system_id":"levelo_inurba_marseille","lat":43.25497,"lon":5.37682,"is_reserved":false,"is_disabled":false,"rental_uris":{"android":"levelo://app?vid=459ceeec-6531-408e-af1d-7d8585dacaef","ios":"levelo://app?vid=459ceeec-6531-408e-af1d-7d8585dacaef"},"vehicle_type_id":"4","last_reported":1768292235,"current_range_meters":8400,"station_id":"ce4bhh12rcd13ifvqff0","pricing_plan_id":"cebpf4jnsgd1na2vs0mg"},{"bike_id":"d3b801a7-a321-4c0e-9d17-d7d38e6bbae6","system_id":"levelo_inurba_marseille","lat":43.27944,"lon":5.38705,"is_reserved":false,"is_disabled":false,"rental_uris":{"android":"levelo://app?vid=d3b801a7-a321-4c0e-9d17-d7d38e6bbae6","ios":"levelo://app?vid=d3b801a7-a321-4c0e-9d17-d7d38e6bbae6"},"vehicle_type_id":"4","last_reported":1768292235,"current_range_meters":8400,"station_id":"ce4bhg12rcd13ifvqf80","pricing_plan_id":"cebpf4jnsgd1na2vs0mg"},{"bike_id":"dc2e72fe-caf4-4d2f-991e-42441efcbc35","system_id":"levelo_inurba_marseille","lat":43.24463,"lon":5.42549,"is_reserved":false,"is_disabled":false,"rental_uris":{"android":"levelo://app?vid=dc2e72fe-caf4-4d2f-991e-42441efcbc35","ios":"levelo://app?vid=dc2e72fe-caf4-4d2f-991e-42441efcbc35"},"vehicle_type_id":"4","last_reported":1768292235,"current_range_meters":8400,"station_id":"st_d4a3vfp97mjs738cd8kg","pricing_plan_id":"cebpf4jnsgd1na2vs0mg"},{"bike_id":"8125e88c-461b-4905-b86d-3923932af4fb","system_id":"levelo_inurba_marseille","lat":43.27993,"lon":5.40029,"is_reserved":false,"is_disabled":false,"rental_uris":{"android":"levelo://app?vid=8125e88c-461b-4905-b86d-3923932af4fb","ios":"levelo://app?vid=8125e88c-461b-4905-b86d-3923932af4fb"},"vehicle_type_id":"4","last_reported":1768292235,"current_range_meters":8400,"station_id":"ce4bho92rcd13ifvqh4g","pricing_plan_id":"cebpf4jnsgd1na2vs0mg"},{"bike_id":"1a410dc3-ec66-418e-b61d-e6ababbd00ea","system_id":"levelo_inurba_marseille","lat":43.25512,"lon":5.37654,"is_reserved":false,"is_disabled":false,"rental_uris":{"android":"levelo://app?vid=1a410dc3-ec66-418e-b61d-e6ababbd00ea","ios":"levelo://app?vid=1a410dc3-ec66-418e-b61d-e6ababbd00ea"},"vehicle_type_id":"4","last_reported":1768292235,"current_range_meters":8400,"station_id":"ce4bhh12rcd13ifvqff0","pricing_plan_id":"cebpf4jnsgd1na2vs0mg"},{"bike_id":"a701274b-baae-4465-83b6-97b2b3f97e3e","system_id":"levelo_inurba_marseille","lat":43.28475,"lon":5.4839,"is_reserved":false,"is_disabled":false,"rental_uris":{"android":"levelo://app?vid=a701274b-baae-4465-83b6-97b2b3f97e3e","ios":"levelo://app?vid=a701274b-baae-4465-83b6-97b2b3f97e3e"},"vehicle_type_id":"4","last_reported":1768292235,"current_range_meters":8400,"station_id":"","pricing_plan_id":"cebpf4jnsgd1na2vs0mg"},{"bike_id":"ff070e94-ae5b-4c98-ac75-4ace6dc6f074","system_id":"levelo_inurba_marseille","lat":43.336,"lon":5.41058,"is_reserved":false,"is_disabled":false,"rental_uris":{"android":"levelo://app?vid=ff070e94-ae5b-4c98-ac75-4ace6dc6f074","ios":"levelo://app?vid=ff070e94-ae5b-4c98-ac75-4ace6dc6f074"},"vehicle_type_id":"4","last_reported":1768292235,"current_range_meters":8400,"station_id":"ce4bhqh2rcd13ifvqhmg","pricing_plan_id":"cebpf4jnsgd1na2vs0mg"},{"bike_id":"4decab12-4aea-443b-993f-b32cadac6871","system_id":"levelo_inurba_marseille","lat":43.239724,"lon":5.366142,"is_reserved":false,"is_disabled":false,"rental_uris":{"android":"levelo://app?vid=4decab12-4aea-443b-993f-b32cadac6871","ios":"levelo://app?vid=4decab12-4aea-443b-993f-b32cadac6871"},"vehicle_type_id":"4","last_reported":1768292235,"current_range_meters":8400,"station_id":"ce4bhi12rcd13ifvqfp0","pricing_plan_id":"cebpf4jnsgd1na2vs0mg"},{"bike_id":"e4e84cc9-74ba-47e5-96cf-d3b67ecc7919","system_id":"levelo_inurba_marseille","lat":43.30151,"lon":5.38087,"is_reserved":false,"is_disabled":false,"rental_uris":{"android":"levelo://app?vid=e4e84cc9-74ba-47e5-96cf-d3b67ecc7919","ios":"levelo://app?vid=e4e84cc9-74ba-47e5-96cf-d3b67ecc7919"},"vehicle_type_id":"4","last_reported":1768292235,"current_range_meters":8400,"station_id":"ce4bgk12rcd13ifvqbj0","pricing_plan_id":"cebpf4jnsgd1na2vs0mg"},{"bike_id":"e171e7e2-3bd5-4df8-ba94-8c663077fc99","system_id":"levelo_inurba_marseille","lat":43.32511,"lon":5.36872,"is_reserved":false,"is_disabled":false,"rental_uris":{"android":"levelo://app?vid=e171e7e2-3bd5-4df8-ba94-8c663077fc99","ios":"levelo://app?vid=e171e7e2-3bd5-4df8-ba94-8c663077fc99"},"vehicle_type_id":"4","last_reported":1768292235,"current_range_meters":8400,"station_id":"","pricing_plan_id":"cebpf4jnsgd1na2vs0mg"},{"bike_id":"24ed2218-ac15-4b34-8944-518112198ea0","system_id":"levelo_inurba_marseille","lat":43.30473,"lon":5.37918,"is_reserved":false,"is_disabled":false,"rental_uris":{"android":"levelo://app?vid=24ed2218-ac15-4b34-8944-518112198ea0","ios":"levelo://app?vid=24ed2218-ac15-4b34-8944-518112198ea0"},"vehicle_type_id":"4","last_reported":1768292235,"current_range_meters":8400,"station_id":"ce4bgup2rcd13ifvqcn0","pricing_plan_id":"cebpf4jnsgd1na2vs0mg"},{"bike_id":"22e07c03-7cc2-4f12-9e49-6993b190163f","system_id":"levelo_inurba_marseille","lat":43.29895,"lon":5.396696,"is_reserved":false,"is_disabled":false,"rental_uris":{"android":"levelo://app?vid=22e07c03-7cc2-4f12-9e49-6993b190163f","ios":"levelo://app?vid=22e07c03-7cc2-4f12-9e49-6993b190163f"},"vehicle_type_id":"4","last_reported":1768292235,"current_range_meters":8400,"station_id":"","pricing_plan_id":"cebpf4jnsgd1na2vs0mg"},{"bike_id":"97ab96cf-33a7-4d4a-accb-f53c1ef3e0be","system_id":"levelo_inurba_marseille","lat":43.31485,"lon":5.37317,"is_reserved":false,"is_disabled":false,"rental_uris":{"android":"levelo://app?vid=97ab96cf-33a7-4d4a-accb-f53c1ef3e0be","ios":"levelo://app?vid=97ab96cf-33a7-4d4a-accb-f53c1ef3e0be"},"vehicle_type_id":"4","last_reported":1768292235,"current_range_meters":8400,"station_id":"ce4bgt12rcd13ifvqcd0","pricing_plan_id":"cebpf4jnsgd1na2vs0mg"},{"bike_id":"352c9ae4-be27-46f4-b169-0b6057cefca1","system_id":"levelo_inurba_marseille","lat":43.26556,"lon":5.40339,"is_reserved":false,"is_disabled":false,"rental_uris":{"android":"levelo://app?vid=352c9ae4-be27-46f4-b169-0b6057cefca1","ios":"levelo://app?vid=352c9ae4-be27-46f4-b169-0b6057cefca1"},"vehicle_type_id":"4","last_reported":1768292235,"current_range_meters":8400,"station_id":"ce4bhmp2rcd13ifvqgng","pricing_plan_id":"cebpf4jnsgd1na2vs0mg"},{"bike_id":"b99a9135-a609-4f31-8229-5031d5c53d46","system_id":"levelo_inurba_marseille","lat":43.29756,"lon":5.42802,"is_reserved":false,"is_disabled":false,"rental_uris":{"android":"levelo://app?vid=b99a9135-a609-4f31-8229-5031d5c53d46","ios":"levelo://app?vid=b99a9135-a609-4f31-8229-5031d5c53d46"},"vehicle_type_id":"4","last_reported":1768292235,"current_range_meters":8800,"station_id":"st_d3md5207bmas73dh9klg","pricing_plan_id":"cebpf4jnsgd1na2vs0mg"},{"bike_id":"dda038f7-07c0-4d6c-8466-8d667f6d8821","system_id":"levelo_inurba_marseille","lat":43.248144,"lon":5.374616,"is_reserved":false,"is_disabled":false,"rental_uris":{"android":"levelo://app?vid=dda038f7-07c0-4d6c-8466-8d667f6d8821","ios":"levelo://app?vid=dda038f7-07c0-4d6c-8466-8d667f6d8821"},"vehicle_type_id":"4","last_reported":1768292235,"current_range_meters":8800,"station_id":"ce4bhgh2rcd13ifvqfb0","pricing_plan_id":"cebpf4jnsgd1na2vs0mg"},{"bike_id":"31a380eb-4621-4d35-a10b-7ca54c0a3d6e","system_id":"levelo_inurba_marseille","lat":43.31212,"lon":5.36865,"is_reserved":false,"is_disabled":false,"rental_uris":{"android":"levelo://app?vid=31a380eb-4621-4d35-a10b-7ca54c0a3d6e","ios":"levelo://app?vid=31a380eb-4621-4d35-a10b-7ca54c0a3d6e"},"vehicle_type_id":"4","last_reported":1768292235,"current_range_meters":8800,"station_id":"ce4bgl92rcd13ifvqbq0","pricing_plan_id":"cebpf4jnsgd1na2vs0mg"},{"bike_id":"0f54686d-84c1-4f5b-987e-452996540277","system_id":"levelo_inurba_marseille","lat":43.26366,"lon":5.41087,"is_reserved":false,"is_disabled":false,"rental_uris":{"android":"levelo://app?vid=0f54686d-84c1-4f5b-987e-452996540277","ios":"levelo://app?vid=0f54686d-84c1-4f5b-987e-452996540277"},"vehicle_type_id":"4","last_reported":1768292235,"current_range_meters":8800,"station_id":"st_d4e5ca6na9uc73bfl5fg","pricing_plan_id":"cebpf4jnsgd1na2vs0mg"},{"bike_id":"64e147a8-1bbb-419c-b69b-662d9db7e72a","system_id":"levelo_inurba_marseille","lat":43.25885,"lon":5.39923,"is_reserved":false,"is_disabled":true,"rental_uris":{"android":"levelo://app?vid=64e147a8-1bbb-419c-b69b-662d9db7e72a","ios":"levelo://app?vid=64e147a8-1bbb-419c-b69b-662d9db7e72a"},"vehicle_type_id":"4","last_reported":1768292235,"current_range_meters":8800,"station_id":"ce4bhl92rcd13ifvqghg","pricing_plan_id":"cebpf4jnsgd1na2vs0mg"},{"bike_id":"65565dd8-9a5e-4580-a2c2-22f04b62de03","system_id":"levelo_inurba_marseille","lat":43.29522,"lon":5.38543,"is_reserved":false,"is_disabled":false,"rental_uris":{"android":"levelo://app?vid=65565dd8-9a5e-4580-a2c2-22f04b62de03","ios":"levelo://app?vid=65565dd8-9a5e-4580-a2c2-22f04b62de03"},"vehicle_type_id":"4","last_reported":1768292235,"current_range_meters":8800,"station_id":"ce4bgih2rcd13ifvqba0","pricing_plan_id":"cebpf4jnsgd1na2vs0mg"},{"bike_id":"99475782-9f22-4001-a2ed-de835e3c7087","system_id":"levelo_inurba_marseille","lat":43.29265,"lon":5.4094,"is_reserved":false,"is_disabled":true,"rental_uris":{"android":"levelo://app?vid=99475782-9f22-4001-a2ed-de835e3c7087","ios":"levelo://app?vid=99475782-9f22-4001-a2ed-de835e3c7087"},"vehicle_type_id":"4","last_reported":1768292235,"current_range_meters":8800,"station_id":"ce4bh192rcd13ifvqdc0","pricing_plan_id":"cebpf4jnsgd1na2vs0mg"},{"bike_id":"9a14d189-1477-4059-bd92-10dee77ad1a4","system_id":"levelo_inurba_marseille","lat":43.24952,"lon":5.40486,"is_reserved":false,"is_disabled":false,"rental_uris":{"android":"levelo://app?vid=9a14d189-1477-4059-bd92-10dee77ad1a4","ios":"levelo://app?vid=9a14d189-1477-4059-bd92-10dee77ad1a4"},"vehicle_type_id":"4","last_reported":1768292235,"current_range_meters":8800,"station_id":"st_d2ngiaodas8pm72gd1h0","pricing_plan_id":"cebpf4jnsgd1na2vs0mg"},{"bike_id":"a0b7b981-3bec-4da2-b144-abbdd1055425","system_id":"levelo_inurba_marseille","lat":43.25589,"lon":5.38217,"is_reserved":false,"is_disabled":false,"rental_uris":{"android":"levelo://app?vid=a0b7b981-3bec-4da2-b144-abbdd1055425","ios":"levelo://app?vid=a0b7b981-3bec-4da2-b144-abbdd1055425"},"vehicle_type_id":"4","last_reported":1768292235,"current_range_meters":8800,"station_id":"ce4bhih2rcd13ifvqfs0","pricing_plan_id":"cebpf4jnsgd1na2vs0mg"},{"bike_id":"35ec3b8e-e652-4929-aab7-9563a05529be","system_id":"levelo_inurba_marseille","lat":43.30142,"lon":5.37414,"is_reserved":false,"is_disabled":false,"rental_uris":{"android":"levelo://app?vid=35ec3b8e-e652-4929-aab7-9563a05529be","ios":"levelo://app?vid=35ec3b8e-e652-4929-aab7-9563a05529be"},"vehicle_type_id":"4","last_reported":1768292235,"current_range_meters":8800,"station_id":"ce4bgs92rcd13ifvqcc0","pricing_plan_id":"cebpf4jnsgd1na2vs0mg"},{"bike_id":"6e5a0f7a-dfaf-4562-ba76-e9ecf3bc201d","system_id":"levelo_inurba_marseille","lat":43.292685,"lon":5.372059,"is_reserved":false,"is_disabled":false,"rental_uris":{"android":"levelo://app?vid=6e5a0f7a-dfaf-4562-ba76-e9ecf3bc201d","ios":"levelo://app?vid=6e5a0f7a-dfaf-4562-ba76-e9ecf3bc201d"},"vehicle_type_id":"4","last_reported":1768292235,"current_range_meters":8800,"station_id":"ce4bgh92rcd13ifvqb40","pricing_plan_id":"cebpf4jnsgd1na2vs0mg"},{"bike_id":"1871e0c7-ef88-44e9-99e1-0df673e67e2d","system_id":"levelo_inurba_marseille","lat":43.24407,"lon":5.3707,"is_reserved":false,"is_disabled":false,"rental_uris":{"android":"levelo://app?vid=1871e0c7-ef88-44e9-99e1-0df673e67e2d","ios":"levelo://app?vid=1871e0c7-ef88-44e9-99e1-0df673e67e2d"},"vehicle_type_id":"4","last_reported":1768292235,"current_range_meters":8800,"station_id":"ce4bhhh2rcd13ifvqfk0","pricing_plan_id":"cebpf4jnsgd1na2vs0mg"},{"bike_id":"8dd1de03-db4d-4ee0-a83c-49af5a854fab","system_id":"levelo_inurba_marseille","lat":43.28824,"lon":5.42633,"is_reserved":false,"is_disabled":false,"rental_uris":{"android":"levelo://app?vid=8dd1de03-db4d-4ee0-a83c-49af5a854fab","ios":"levelo://app?vid=8dd1de03-db4d-4ee0-a83c-49af5a854fab"},"vehicle_type_id":"4","last_reported":1768292235,"current_range_meters":8800,"station_id":"","pricing_plan_id":"cebpf4jnsgd1na2vs0mg"},{"bike_id":"cd18cb12-978b-44a2-bdd9-747ceee4c592","system_id":"levelo_inurba_marseille","lat":43.30517,"lon":5.36695,"is_reserved":false,"is_disabled":false,"rental_uris":{"android":"levelo://app?vid=cd18cb12-978b-44a2-bdd9-747ceee4c592","ios":"levelo://app?vid=cd18cb12-978b-44a2-bdd9-747ceee4c592"},"vehicle_type_id":"4","last_reported":1768292235,"current_range_meters":8800,"station_id":"ce4bgrp2rcd13ifvqc9g","pricing_plan_id":"cebpf4jnsgd1na2vs0mg"},{"bike_id":"d837fa6c-222e-496d-8553-222c58e024bd","system_id":"levelo_inurba_marseille","lat":43.22933,"lon":5.35407,"is_reserved":false,"is_disabled":false,"rental_uris":{"android":"levelo://app?vid=d837fa6c-222e-496d-8553-222c58e024bd","ios":"levelo://app?vid=d837fa6c-222e-496d-8553-222c58e024bd"},"vehicle_type_id":"4","last_reported":1768292235,"current_range_meters":8800,"station_id":"cpo3532slgdg3j2ikp40","pricing_plan_id":"cebpf4jnsgd1na2vs0mg"},{"bike_id":"a17cc6ee-d889-4b4c-b8b9-758246faa400","system_id":"levelo_inurba_marseille","lat":43.28538,"lon":5.44093,"is_reserved":false,"is_disabled":false,"rental_uris":{"android":"levelo://app?vid=a17cc6ee-d889-4b4c-b8b9-758246faa400","ios":"levelo://app?vid=a17cc6ee-d889-4b4c-b8b9-758246faa400"},"vehicle_type_id":"4","last_reported":1768292235,"current_range_meters":8800,"station_id":"st_d3j3df2ikq2c7380ej80","pricing_plan_id":"cebpf4jnsgd1na2vs0mg"},{"bike_id":"93e218a6-d8b6-4b0c-9abd-03b0921e8c78","system_id":"levelo_inurba_marseille","lat":43.32347,"lon":5.38508,"is_reserved":false,"is_disabled":false,"rental_uris":{"android":"levelo://app?vid=93e218a6-d8b6-4b0c-9abd-03b0921e8c78","ios":"levelo://app?vid=93e218a6-d8b6-4b0c-9abd-03b0921e8c78"},"vehicle_type_id":"4","last_reported":1768292235,"current_range_meters":8800,"station_id":"st_d45171o9ee8s73djdqug","pricing_plan_id":"cebpf4jnsgd1na2vs0mg"},{"bike_id":"25377a8a-f8c0-42a5-8439-f16217ba2e63","system_id":"levelo_inurba_marseille","lat":43.32918,"lon":5.39211,"is_reserved":false,"is_disabled":false,"rental_uris":{"android":"levelo://app?vid=25377a8a-f8c0-42a5-8439-f16217ba2e63","ios":"levelo://app?vid=25377a8a-f8c0-42a5-8439-f16217ba2e63"},"vehicle_type_id":"4","last_reported":1768292235,"current_range_meters":8800,"station_id":"","pricing_plan_id":"cebpf4jnsgd1na2vs0mg"},{"bike_id":"0e5df7ef-4f3f-4918-aa70-7dd918ba921c","system_id":"levelo_inurba_marseille","lat":43.3235,"lon":5.3676,"is_reserved":false,"is_disabled":false,"rental_uris":{"android":"levelo://app?vid=0e5df7ef-4f3f-4918-aa70-7dd918ba921c","ios":"levelo://app?vid=0e5df7ef-4f3f-4918-aa70-7dd918ba921c"},"vehicle_type_id":"4","last_reported":1768292235,"current_range_meters":9200,"station_id":"ce4bhsh2rcd13ifvqi2g","pricing_plan_id":"cebpf4jnsgd1na2vs0mg"},{"bike_id":"eaa12c7d-9ceb-4fcf-8441-5efb65234d28","system_id":"levelo_inurba_marseille","lat":43.2481,"lon":5.37451,"is_reserved":false,"is_disabled":false,"rental_uris":{"android":"levelo://app?vid=eaa12c7d-9ceb-4fcf-8441-5efb65234d28","ios":"levelo://app?vid=eaa12c7d-9ceb-4fcf-8441-5efb65234d28"},"vehicle_type_id":"4","last_reported":1768292235,"current_range_meters":9200,"station_id":"ce4bhgh2rcd13ifvqfb0","pricing_plan_id":"cebpf4jnsgd1na2vs0mg"},{"bike_id":"5b027b49-ddf4-41e2-96f1-1cc8b60b6d10","system_id":"levelo_inurba_marseille","lat":43.225335,"lon":5.348332,"is_reserved":false,"is_disabled":false,"rental_uris":{"android":"levelo://app?vid=5b027b49-ddf4-41e2-96f1-1cc8b60b6d10","ios":"levelo://app?vid=5b027b49-ddf4-41e2-96f1-1cc8b60b6d10"},"vehicle_type_id":"4","last_reported":1768292235,"current_range_meters":9200,"station_id":"st_cvj5dfep6f1abm77gieg","pricing_plan_id":"cebpf4jnsgd1na2vs0mg"},{"bike_id":"a8391018-3556-4ffb-8d1c-791324d0e007","system_id":"levelo_inurba_marseille","lat":43.28274,"lon":5.35073,"is_reserved":false,"is_disabled":false,"rental_uris":{"android":"levelo://app?vid=a8391018-3556-4ffb-8d1c-791324d0e007","ios":"levelo://app?vid=a8391018-3556-4ffb-8d1c-791324d0e007"},