{"last_updated":1733411401,"ttl":60,"version":"2.2","data":{"bikes":[{"bike_id":"7434c157-28ee-4348-85ae-33703fb2c445","system_id":"levelo_inurba_marseille","lat":43.29271,"lon":5.38442,"is_reserved":false,"is_disabled":false,"rental_uris":{"android":"levelo://app?vid=7434c157-28ee-4348-85ae-33703fb2c445","ios":"levelo://app?vid=7434c157-28ee-4348-85ae-33703fb2c445"},"vehicle_type_id":"4","last_reported":1733411401,"current_range_meters":38400,"station_id":"ce4bh692rcd13ifvqea0","pricing_plan_id":"cebpf4jnsgd1na2vs0mg"},{"bike_id":"ae65d194-e576-4d71-b947-a44a1bf404bf","system_id":"levelo_inurba_marseille","lat":43.30434,"lon":5.39753,"is_reserved":false,"is_disabled":false,"rental_uris":{"android":"levelo://app?vid=ae65d194-e576-4d71-b947-a44a1bf404bf","ios":"levelo://app?vid=ae65d194-e576-4d71-b947-a44a1bf404bf"},"vehicle_type_id":"4","last_reported":1733411401,"current_range_meters":24800,"station_id":"ce4bh092rcd13ifvqd20","pricing_plan_id":"cebpf4jnsgd1na2vs0mg"},{"bike_id":"a91fa1e8-32b4-471d-9ab1-72d0db7092c4","system_id":"levelo_inurba_marseille","lat":43.25931,"lon":5.40907,"is_reserved":false,"is_disabled":false,"rental_uris":{"android":"levelo://app?vid=a91fa1e8-32b4-471d-9ab1-72d0db7092c4","ios":"levelo://app?vid=a91fa1e8-32b4-471d-9ab1-72d0db7092c4"},"vehicle_type_id":"4","last_reported":1733411401,"current_range_meters":32800,"station_id":"ce4bhm92rcd13ifvqglg","pricing_plan_id":"cebpf4jnsgd1na2vs0mg"},{"bike_id":"8356fe94-c940-4bd6-a331-6aafd61d2873","system_id":"levelo_inurba_marseille","lat":43.31892,"lon":5.40743,"is_reserved":false,"is_disabled":false,"rental_uris":{"android":"levelo://app?vid=8356fe94-c940-4bd6-a331-6aafd61d2873","ios":"levelo://app?vid=8356fe94-c940-4bd6-a331-6aafd61d2873"},"vehicle_type_id":"4","last_reported":1733411401,"current_range_meters":33200,"station_id":"ce4bhq12rcd13ifvqhig","pricing_plan_id":"cebpf4jnsgd1na2vs0mg"},{"bike_id":"df479c2c-35ac-44ad-b9d6-81c89ed769ce","system_id":"levelo_inurba_marseille","lat":43.29699,"lon":5.37054,"is_reserved":false,"is_disabled":true,"rental_uris":{"android":"levelo://app?vid=df479c2c-35ac-44ad-b9d6-81c89ed769ce","ios":"levelo://app?vid=df479c2c-35ac-44ad-b9d6-81c89ed769ce"},"vehicle_type_id":"4","last_reported":1733411401,"current_range_meters":0,"station_id":"","pricing_plan_id":"cebpf4jnsgd1na2vs0mg"},{"bike_id":"8e029eaf-e104-4c5d-858d-6cd39de73d09","system_id":"levelo_inurba_marseille","lat":43.24127,"lon":5.36441,"is_reserved":false,"is_disabled":false,"rental_uris":{"android":"levelo://app?vid=8e029eaf-e104-4c5d-858d-6cd39de73d09","ios":"levelo://app?vid=8e029eaf-e104-4c5d-858d-6cd39de73d09"},"vehicle_type_id":"4","last_reported":1733411401,"current_range_meters":6400,"station_id":"cpo36qri1sfpv3e86is0","pricing_plan_id":"cebpf4jnsgd1na2vs0mg"},{"bike_id":"0c8518ec-51b8-4b7d-9708-41197f035c27","system_id":"levelo_inurba_marseille","lat":43.26496,"lon":5.39542,"is_reserved":false,"is_disabled":false,"rental_uris":{"android":"levelo://app?vid=0c8518ec-51b8-4b7d-9708-41197f035c27","ios":"levelo://app?vid=0c8518ec-51b8-4b7d-9708-41197f035c27"},"vehicle_type_id":"4","last_reported":1733411401,"current_range_meters":38800,"station_id":"ce4bhi12rcd13ifvqfq0","pricing_plan_id":"cebpf4jnsgd1na2vs0mg"},{"bike_id":"efaac46c-d946-4360-8674-93c30250c734","system_id":"levelo_inurba_marseille","lat":43.2987,"lon":5.39734,"is_reserved":false,"is_disabled":false,"rental_uris":{"android":"levelo://app?vid=efaac46c-d946-4360-8674-93c30250c734","ios":"levelo://app?vid=efaac46c-d946-4360-8674-93c30250c734"},"vehicle_type_id":"4","last_reported":1733411401,"current_range_meters":3200,"station_id":"ce4bh0h2rcd13ifvqd50","pricing_plan_id":"cebpf4jnsgd1na2vs0mg"},{"bike_id":"f7f1177a-9fa2-4c01-9bd7-56528650247f","system_id":"levelo_inurba_marseille","lat":43.26552,"lon":5.37286,"is_reserved":false,"is_disabled":false,"rental_uris":{"android":"levelo://app?vid=f7f1177a-9fa2-4c01-9bd7-56528650247f","ios":"levelo://app?vid=f7f1177a-9fa2-4c01-9bd7-56528650247f"},"vehicle_type_id":"4","last_reported":1733411401,"current_range_meters":10800,"station_id":"ce4bhg12rcd13ifvqf70","pricing_plan_id":"cebpf4jnsgd1na2vs0mg"},{"bike_id":"9ce02dcc-d28a-42a8-9a42-f0966d75fca7","system_id":"levelo_inurba_marseille","lat":43.30894,"lon":5.37188,"is_reserved":false,"is_disabled":false,"rental_uris":{"android":"levelo://app?vid=9ce02dcc-d28a-42a8-9a42-f0966d75fca7","ios":"levelo://app?vid=9ce02dcc-d28a-42a8-9a42-f0966d75fca7"},"vehicle_type_id":"4","last_reported":1733411401,"current_range_meters":32800,"station_id":"ce4bguh2rcd13ifvqckg","pricing_plan_id":"cebpf4jnsgd1na2vs0mg"},{"bike_id":"be407bbe-d1ce-48de-8db2-09114af9efd7","system_id":"levelo_inurba_marseille","lat":43.32367,"lon":5.36767,"is_reserved":false,"is_disabled":false,"rental_uris":{"android":"levelo://app?vid=be407bbe-d1ce-48de-8db2-09114af9efd7","ios":"levelo://app?vid=be407bbe-d1ce-48de-8db2-09114af9efd7"},"vehicle_type_id":"4","last_reported":1733411401,"current_range_meters":28400,"station_id":"ce4bhsh2rcd13ifvqi2g","pricing_plan_id":"cebpf4jnsgd1na2vs0mg"},{"bike_id":"f3bad640-db68-47b8-8f51-4546567c6911","system_id":"levelo_inurba_marseille","lat":43.25915,"lon":5.40926,"is_reserved":false,"is_disabled":false,"rental_uris":{"android":"levelo://app?vid=f3bad640-db68-47b8-8f51-4546567c6911","ios":"levelo://app?vid=f3bad640-db68-47b8-8f51-4546567c6911"},"vehicle_type_id":"4","last_reported":1733411401,"current_range_meters":16000,"station_id":"ce4bhm92rcd13ifvqglg","pricing_plan_id":"cebpf4jnsgd1na2vs0mg"},{"bike_id":"a54880d1-e8d9-4d8b-9bb0-23ef95f91d8c","system_id":"levelo_inurba_marseille","lat":43.27614,"lon":5.36114,"is_reserved":false,"is_disabled":false,"rental_uris":{"android":"levelo://app?vid=a54880d1-e8d9-4d8b-9bb0-23ef95f91d8c","ios":"levelo://app?vid=a54880d1-e8d9-4d8b-9bb0-23ef95f91d8c"},"vehicle_type_id":"4","last_reported":1733411401,"current_range_meters":32800,"station_id":"ce4bgj92rcd13ifvqbe0","pricing_plan_id":"cebpf4jnsgd1na2vs0mg"},{"bike_id":"8bd642b2-0279-44c7-9ee2-fc3b57332c83","system_id":"levelo_inurba_marseille","lat":43.27455,"lon":5.40073,"is_reserved":false,"is_disabled":true,"rental_uris":{"android":"levelo://app?vid=8bd642b2-0279-44c7-9ee2-fc3b57332c83","ios":"levelo://app?vid=8bd642b2-0279-44c7-9ee2-fc3b57332c83"},"vehicle_type_id":"4","last_reported":1733411401,"current_range_meters":0,"station_id":"","pricing_plan_id":"cebpf4jnsgd1na2vs0mg"},{"bike_id":"54c411da-c2d3-46bc-9dca-8068a9dd815e","system_id":"levelo_inurba_marseille","lat":43.23182,"lon":5.39986,"is_reserved":false,"is_disabled":false,"rental_uris":{"android":"levelo://app?vid=54c411da-c2d3-46bc-9dca-8068a9dd815e","ios":"levelo://app?vid=54c411da-c2d3-46bc-9dca-8068a9dd815e"},"vehicle_type_id":"4","last_reported":1733411401,"current_range_meters":22000,"station_id":"ce4bhn12rcd13ifvqgqg","pricing_plan_id":"cebpf4jnsgd1na2vs0mg"},{"bike_id":"85bfa7a2-20ac-447f-9164-df145e81fe5f","system_id":"levelo_inurba_marseille","lat":43.28855,"lon":5.3586,"is_reserved":false,"is_disabled":false,"rental_uris":{"android":"levelo://app?vid=85bfa7a2-20ac-447f-9164-df145e81fe5f","ios":"levelo://app?vid=85bfa7a2-20ac-447f-9164-df145e81fe5f"},"vehicle_type_id":"4","last_reported":1733411401,"current_range_meters":30000,"station_id":"ce4bhb12rcd13ifvqem0","pricing_plan_id":"cebpf4jnsgd1na2vs0mg"},{"bike_id":"1b016848-2708-41ba-ab8c-3214b9323609","system_id":"levelo_inurba_marseille","lat":43.2998,"lon":5.38498,"is_reserved":false,"is_disabled":false,"rental_uris":{"android":"levelo://app?vid=1b016848-2708-41ba-ab8c-3214b9323609","ios":"levelo://app?vid=1b016848-2708-41ba-ab8c-3214b9323609"},"vehicle_type_id":"4","last_reported":1733411401,"current_range_meters":36000,"station_id":"ce4bgj92rcd13ifvqbd0","pricing_plan_id":"cebpf4jnsgd1na2vs0mg"},{"bike_id":"2d30f57c-61ff-4552-bdfc-3c825b67086e","system_id":"levelo_inurba_marseille","lat":43.25579,"lon":5.38233,"is_reserved":false,"is_disabled":true,"rental_uris":{"android":"levelo://app?vid=2d30f57c-61ff-4552-bdfc-3c825b67086e","ios":"levelo://app?vid=2d30f57c-61ff-4552-bdfc-3c825b67086e"},"vehicle_type_id":"4","last_reported":1733411401,"current_range_meters":2000,"station_id":"ce4bhih2rcd13ifvqfs0","pricing_plan_id":"cebpf4jnsgd1na2vs0mg"},{"bike_id":"8382dc99-f92d-4ca6-a114-05384b76d37c","system_id":"levelo_inurba_marseille","lat":43.28858,"lon":5.39323,"is_reserved":false,"is_disabled":false,"rental_uris":{"android":"levelo://app?vid=8382dc99-f92d-4ca6-a114-05384b76d37c","ios":"levelo://app?vid=8382dc99-f92d-4ca6-a114-05384b76d37c"},"vehicle_type_id":"4","last_reported":1733411401,"current_range_meters":32400,"station_id":"ce4bh2p2rcd13ifvqdi0","pricing_plan_id":"cebpf4jnsgd1na2vs0mg"},{"bike_id":"1bf211ca-7147-44b8-ac36-689743368a32","system_id":"levelo_inurba_marseille","lat":43.23204,"lon":5.39975,"is_reserved":false,"is_disabled":false,"rental_uris":{"android":"levelo://app?vid=1bf211ca-7147-44b8-ac36-689743368a32","ios":"levelo://app?vid=1bf211ca-7147-44b8-ac36-689743368a32"},"vehicle_type_id":"4","last_reported":1733411401,"current_range_meters":39200,"station_id":"ce4bhn12rcd13ifvqgqg","pricing_plan_id":"cebpf4jnsgd1na2vs0mg"},{"bike_id":"f67dfab3-abcc-4688-bfd7-4284bf8c7187","system_id":"levelo_inurba_marseille","lat":43.33027,"lon":5.39053,"is_reserved":false,"is_disabled":false,"rental_uris":{"android":"levelo://app?vid=f67dfab3-abcc-4688-bfd7-4284bf8c7187","ios":"levelo://app?vid=f67dfab3-abcc-4688-bfd7-4284bf8c7187"},"vehicle_type_id":"4","last_reported":1733411401,"current_range_meters":10000,"station_id":"ce4bhr92rcd13ifvqhrg","pricing_plan_id":"cebpf4jnsgd1na2vs0mg"},{"bike_id":"3174d4cd-190c-48b4-afb8-369bbe1346e3","system_id":"levelo_inurba_marseille","lat":43.28277,"lon":5.35065,"is_reserved":false,"is_disabled":false,"rental_uris":{"android":"levelo://app?vid=3174d4cd-190c-48b4-afb8-369bbe1346e3","ios":"levelo://app?vid=3174d4cd-190c-48b4-afb8-369bbe1346e3"},"vehicle_type_id":"4","last_reported":1733411401,"current_range_meters":9200,"station_id":"ce4bhbp2rcd13ifvqerg","pricing_plan_id":"cebpf4jnsgd1na2vs0mg"},{"bike_id":"7a5314fa-1ace-4c0c-abc2-7a2312483754","system_id":"levelo_inurba_marseille","lat":43.32291,"lon":5.38266,"is_reserved":false,"is_disabled":false,"rental_uris":{"android":"levelo://app?vid=7a5314fa-1ace-4c0c-abc2-7a2312483754","ios":"levelo://app?vid=7a5314fa-1ace-4c0c-abc2-7a2312483754"},"vehicle_type_id":"4","last_reported":1733411401,"current_range_meters":20400,"station_id":"ce4bhr12rcd13ifvqhqg","pricing_plan_id":"cebpf4jnsgd1na2vs0mg"},{"bike_id":"28b52837-d828-49e4-b4be-cfbac010c328","system_id":"levelo_inurba_marseille","lat":43.33734,"lon":5.39186,"is_reserved":false,"is_disabled":false,"rental_uris":{"android":"levelo://app?vid=28b52837-d828-49e4-b4be-cfbac010c328","ios":"levelo://app?vid=28b52837-d828-49e4-b4be-cfbac010c328"},"vehicle_type_id":"4","last_reported":1733411401,"current_range_meters":29600,"station_id":"ce4bhr92rcd13ifvqhsg","pricing_plan_id":"cebpf4jnsgd1na2vs0mg"},{"bike_id":"b3f478ac-3b05-4edf-bdbf-76399090f8e9","system_id":"levelo_inurba_marseille","lat":43.29994,"lon":5.37639,"is_reserved":false,"is_disabled":true,"rental_uris":{"android":"levelo://app?vid=b3f478ac-3b05-4edf-bdbf-76399090f8e9","ios":"levelo://app?vid=b3f478ac-3b05-4edf-bdbf-76399090f8e9"},"vehicle_type_id":"4","last_reported":1733411401,"current_range_meters":0,"station_id":"","pricing_plan_id":"cebpf4jnsgd1na2vs0mg"},{"bike_id":"925f6366-7c56-4696-98df-a75e5b9cde00","system_id":"levelo_inurba_marseille","lat":43.30139,"lon":5.37416,"is_reserved":false,"is_disabled":false,"rental_uris":{"android":"levelo://app?vid=925f6366-7c56-4696-98df-a75e5b9cde00","ios":"levelo://app?vid=925f6366-7c56-4696-98df-a75e5b9cde00"},"vehicle_type_id":"4","last_reported":1733411401,"current_range_meters":17600,"station_id":"ce4bgs92rcd13ifvqcc0","pricing_plan_id":"cebpf4jnsgd1na2vs0mg"},{"bike_id":"b7b669ad-335f-4f1e-812a-bf72a034cc0d","system_id":"levelo_inurba_marseille","lat":43.33729,"lon":5.39185,"is_reserved":false,"is_disabled":false,"rental_uris":{"android":"levelo://app?vid=b7b669ad-335f-4f1e-812a-bf72a034cc0d","ios":"levelo://app?vid=b7b669ad-335f-4f1e-812a-bf72a034cc0d"},"vehicle_type_id":"4","last_reported":1733411401,"current_range_meters":6000,"station_id":"ce4bhr92rcd13ifvqhsg","pricing_plan_id":"cebpf4jnsgd1na2vs0mg"},{"bike_id":"890e1560-a904-4d0a-b4e0-c3993151a990","system_id":"levelo_inurba_marseille","lat":43.31715,"lon":5.43705,"is_reserved":false,"is_disabled":false,"rental_uris":{"android":"levelo://app?vid=890e1560-a904-4d0a-b4e0-c3993151a990","ios":"levelo://app?vid=890e1560-a904-4d0a-b4e0-c3993151a990"},"vehicle_type_id":"4","last_reported":1733411401,"current_range_meters":20800,"station_id":"ce4bhp92rcd13ifvqhcg","pricing_plan_id":"cebpf4jnsgd1na2vs0mg"},{"bike_id":"47446314-3377-4eeb-ac99-7c7c1d340bea","system_id":"levelo_inurba_marseille","lat":43.27813,"lon":5.40714,"is_reserved":false,"is_disabled":false,"rental_uris":{"android":"levelo://app?vid=47446314-3377-4eeb-ac99-7c7c1d340bea","ios":"levelo://app?vid=47446314-3377-4eeb-ac99-7c7c1d340bea"},"vehicle_type_id":"4","last_reported":1733411401,"current_range_meters":38000,"station_id":"ce4bhnh2rcd13ifvqgtg","pricing_plan_id":"cebpf4jnsgd1na2vs0mg"},{"bike_id":"5c083d02-635a-4f08-a834-f3cad1cfc37c","system_id":"levelo_inurba_marseille","lat":43.27207,"lon":5.39176,"is_reserved":false,"is_disabled":false,"rental_uris":{"android":"levelo://app?vid=5c083d02-635a-4f08-a834-f3cad1cfc37c","ios":"levelo://app?vid=5c083d02-635a-4f08-a834-f3cad1cfc37c"},"vehicle_type_id":"4","last_reported":1733411401,"current_range_meters":35600,"station_id":"ce4bhhp2rcd13ifvqfm0","pricing_plan_id":"cebpf4jnsgd1na2vs0mg"},{"bike_id":"c6a6048a-5561-407c-8b09-50f397e870a8","system_id":"levelo_inurba_marseille","lat":43.27916,"lon":5.39575,"is_reserved":false,"is_disabled":true,"rental_uris":{"android":"levelo://app?vid=c6a6048a-5561-407c-8b09-50f397e870a8","ios":"levelo://app?vid=c6a6048a-5561-407c-8b09-50f397e870a8"},"vehicle_type_id":"4","last_reported":1733411401,"current_range_meters":1200,"station_id":"ce4bhf92rcd13ifvqf40","pricing_plan_id":"cebpf4jnsgd1na2vs0mg"},{"bike_id":"86994610-e066-47a7-a511-1982534cbc16","system_id":"levelo_inurba_marseille","lat":43.31088,"lon":5.42432,"is_reserved":false,"is_disabled":false,"rental_uris":{"android":"levelo://app?vid=86994610-e066-47a7-a511-1982534cbc16","ios":"levelo://app?vid=86994610-e066-47a7-a511-1982534cbc16"},"vehicle_type_id":"4","last_reported":1733411401,"current_range_meters":4800,"station_id":"ce4bhp92rcd13ifvqhag","pricing_plan_id":"cebpf4jnsgd1na2vs0mg"},{"bike_id":"0b24a9d2-6f7a-4ca6-9cba-b2ab457d7ae9","system_id":"levelo_inurba_marseille","lat":43.31358,"lon":5.38494,"is_reserved":false,"is_disabled":false,"rental_uris":{"android":"levelo://app?vid=0b24a9d2-6f7a-4ca6-9cba-b2ab457d7ae9","ios":"levelo://app?vid=0b24a9d2-6f7a-4ca6-9cba-b2ab457d7ae9"},"vehicle_type_id":"4","last_reported":1733411401,"current_range_meters":34000,"station_id":"ce4bgt92rcd13ifvqcf0","pricing_plan_id":"cebpf4jnsgd1na2vs0mg"},{"bike_id":"00bf02e0-c73e-4a53-a36f-068ca3ac542b","system_id":"levelo_inurba_marseille","lat":43.29578,"lon":5.39967,"is_reserved":false,"is_disabled":false,"rental_uris":{"android":"levelo://app?vid=00bf02e0-c73e-4a53-a36f-068ca3ac542b","ios":"levelo://app?vid=00bf02e0-c73e-4a53-a36f-068ca3ac542b"},"vehicle_type_id":"4","last_reported":1733411401,"current_range_meters":18000,"station_id":"ce4bh312rcd13ifvqdj0","pricing_plan_id":"cebpf4jnsgd1na2vs0mg"},{"bike_id":"2f3968e7-9336-4ee4-ba78-8e92c0a818cc","system_id":"levelo_inurba_marseille","lat":43.31322,"lon":5.36647,"is_reserved":false,"is_disabled":true,"rental_uris":{"android":"levelo://app?vid=2f3968e7-9336-4ee4-ba78-8e92c0a818cc","ios":"levelo://app?vid=2f3968e7-9336-4ee4-ba78-8e92c0a818cc"},"vehicle_type_id":"4","last_reported":1733411401,"current_range_meters":0,"station_id":"","pricing_plan_id":"cebpf4jnsgd1na2vs0mg"},{"bike_id":"64c8fb1d-770f-48d3-a730-8f654a683d35","system_id":"levelo_inurba_marseille","lat":43.27993,"lon":5.40029,"is_reserved":false,"is_disabled":false,"rental_uris":{"android":"levelo://app?vid=64c8fb1d-770f-48d3-a730-8f654a683d35","ios":"levelo://app?vid=64c8fb1d-770f-48d3-a730-8f654a683d35"},"vehicle_type_id":"4","last_reported":1733411401,"current_range_meters":38800,"station_id":"ce4bho92rcd13ifvqh4g","pricing_plan_id":"cebpf4jnsgd1na2vs0mg"},{"bike_id":"9aded1fd-28b2-485b-aa1d-02cd137f431b","system_id":"levelo_inurba_marseille","lat":43.26494,"lon":5.39549,"is_reserved":false,"is_disabled":true,"rental_uris":{"android":"levelo://app?vid=9aded1fd-28b2-485b-aa1d-02cd137f431b","ios":"levelo://app?vid=9aded1fd-28b2-485b-aa1d-02cd137f431b"},"vehicle_type_id":"4","last_reported":1733411401,"current_range_meters":0,"station_id":"ce4bhi12rcd13ifvqfq0","pricing_plan_id":"cebpf4jnsgd1na2vs0mg"},{"bike_id":"77d0a172-f926-4a59-ae6b-9addec636f80","system_id":"levelo_inurba_marseille","lat":43.28929,"lon":5.38402,"is_reserved":false,"is_disabled":true,"rental_uris":{"android":"levelo://app?vid=77d0a172-f926-4a59-ae6b-9addec636f80","ios":"levelo://app?vid=77d0a172-f926-4a59-ae6b-9addec636f80"},"vehicle_type_id":"4","last_reported":1733411401,"current_range_meters":1200,"station_id":"ce4bh612rcd13ifvqe6g","pricing_plan_id":"cebpf4jnsgd1na2vs0mg"},{"bike_id":"a6f6b77f-6d5a-472c-8e03-99d17a6614a2","system_id":"levelo_inurba_marseille","lat":43.25497,"lon":5.37645,"is_reserved":false,"is_disabled":false,"rental_uris":{"android":"levelo://app?vid=a6f6b77f-6d5a-472c-8e03-99d17a6614a2","ios":"levelo://app?vid=a6f6b77f-6d5a-472c-8e03-99d17a6614a2"},"vehicle_type_id":"4","last_reported":1733411401,"current_range_meters":23200,"station_id":"ce4bhh12rcd13ifvqff0","pricing_plan_id":"cebpf4jnsgd1na2vs0mg"},{"bike_id":"588d48c6-4b33-451e-9751-36dee1e96e41","system_id":"levelo_inurba_marseille","lat":43.26812,"lon":5.40263,"is_reserved":false,"is_disabled":false,"rental_uris":{"android":"levelo://app?vid=588d48c6-4b33-451e-9751-36dee1e96e41","ios":"levelo://app?vid=588d48c6-4b33-451e-9751-36dee1e96e41"},"vehicle_type_id":"4","last_reported":1733411401,"current_range_meters":16800,"station_id":"ce501612rcd8frsf0b60","pricing_plan_id":"cebpf4jnsgd1na2vs0mg"},{"bike_id":"8b9b896f-9b83-4678-94f1-dcfa69832afa","system_id":"levelo_inurba_marseille","lat":43.2828,"lon":5.35083,"is_reserved":false,"is_disabled":false,"rental_uris":{"android":"levelo://app?vid=8b9b896f-9b83-4678-94f1-dcfa69832afa","ios":"levelo://app?vid=8b9b896f-9b83-4678-94f1-dcfa69832afa"},"vehicle_type_id":"4","last_reported":1733411401,"current_range_meters":38800,"station_id":"ce4bhbp2rcd13ifvqerg","pricing_plan_id":"cebpf4jnsgd1na2vs0mg"},{"bike_id":"18c465ad-16a0-4d72-a337-11a15929aab8","system_id":"levelo_inurba_marseille","lat":43.23966,"lon":5.36624,"is_reserved":false,"is_disabled":false,"rental_uris":{"android":"levelo://app?vid=18c465ad-16a0-4d72-a337-11a15929aab8","ios":"levelo://app?vid=18c465ad-16a0-4d72-a337-11a15929aab8"},"vehicle_type_id":"4","last_reported":1733411401,"current_range_meters":12000,"station_id":"ce4bhi12rcd13ifvqfp0","pricing_plan_id":"cebpf4jnsgd1na2vs0mg"},{"bike_id":"da9cfd76-5796-4c48-8486-043fb1d4045d","system_id":"levelo_inurba_marseille","lat":43.27062,"lon":5.40271,"is_reserved":false,"is_disabled":false,"rental_uris":{"android":"levelo://app?vid=da9cfd76-5796-4c48-8486-043fb1d4045d","ios":"levelo://app?vid=da9cfd76-5796-4c48-8486-043fb1d4045d"},"vehicle_type_id":"4","last_reported":1733411401,"current_range_meters":38800,"station_id":"ce4bhk92rcd13ifvqgc0","pricing_plan_id":"cebpf4jnsgd1na2vs0mg"},{"bike_id":"b0025f03-f4b7-4e1f-b2ae-d738bfb01f75","system_id":"levelo_inurba_marseille","lat":43.31854,"lon":5.38811,"is_reserved":false,"is_disabled":true,"rental_uris":{"android":"levelo://app?vid=b0025f03-f4b7-4e1f-b2ae-d738bfb01f75","ios":"levelo://app?vid=b0025f03-f4b7-4e1f-b2ae-d738bfb01f75"},"vehicle_type_id":"4","last_reported":1733411401,"current_range_meters":36800,"station_id":"","pricing_plan_id":"cebpf4jnsgd1na2vs0mg"},{"bike_id":"bc81d803-4738-4595-ab4c-a782adea9091","system_id":"levelo_inurba_marseille","lat":43.25909,"lon":5.4086,"is_reserved":false,"is_disabled":false,"rental_uris":{"android":"levelo://app?vid=bc81d803-4738-4595-ab4c-a782adea9091","ios":"levelo://app?vid=bc81d803-4738-4595-ab4c-a782adea9091"},"vehicle_type_id":"4","last_reported":1733411401,"current_range_meters":14800,"station_id":"ce4bhm92rcd13ifvqglg","pricing_plan_id":"cebpf4jnsgd1na2vs0mg"},{"bike_id":"1ffd879e-fccb-4aae-bff6-2e0770d1b924","system_id":"levelo_inurba_marseille","lat":43.25575,"lon":5.38256,"is_reserved":false,"is_disabled":false,"rental_uris":{"android":"levelo://app?vid=1ffd879e-fccb-4aae-bff6-2e0770d1b924","ios":"levelo://app?vid=1ffd879e-fccb-4aae-bff6-2e0770d1b924"},"vehicle_type_id":"4","last_reported":1733411401,"current_range_meters":30000,"station_id":"ce4bhih2rcd13ifvqfs0","pricing_plan_id":"cebpf4jnsgd1na2vs0mg"},{"bike_id":"eabcb28c-85de-41ac-9762-9f68d01ef8bc","system_id":"levelo_inurba_marseille","lat":43.29518,"lon":5.3904,"is_reserved":false,"is_disabled":false,"rental_uris":{"android":"levelo://app?vid=eabcb28c-85de-41ac-9762-9f68d01ef8bc","ios":"levelo://app?vid=eabcb28c-85de-41ac-9762-9f68d01ef8bc"},"vehicle_type_id":"4","last_reported":1733411401,"current_range_meters":36800,"station_id":"ce4bh3p2rcd13ifvqdp0","pricing_plan_id":"cebpf4jnsgd1na2vs0mg"},{"bike_id":"f10c5e90-601b-4bd4-87e7-4cbb6a13a4fb","system_id":"levelo_inurba_marseille","lat":43.26091,"lon":5.39291,"is_reserved":false,"is_disabled":false,"rental_uris":{"android":"levelo://app?vid=f10c5e90-601b-4bd4-87e7-4cbb6a13a4fb","ios":"levelo://app?vid=f10c5e90-601b-4bd4-87e7-4cbb6a13a4fb"},"vehicle_type_id":"4","last_reported":1733411401,"current_range_meters":6400,"station_id":"","pricing_plan_id":"cebpf4jnsgd1na2vs0mg"},{"bike_id":"609f1141-b084-4311-afaa-08cdd05e9e96","system_id":"levelo_inurba_marseille","lat":43.29046,"lon":5.35913,"is_reserved":false,"is_disabled":false,"rental_uris":{"android":"levelo://app?vid=609f1141-b084-4311-afaa-08cdd05e9e96","ios":"levelo://app?vid=609f1141-b084-4311-afaa-08cdd05e9e96"},"vehicle_type_id":"4","last_reported":1733411401,"current_range_meters":38800,"station_id":"ce4bha92rcd13ifvqeg0","pricing_plan_id":"cebpf4jnsgd1na2vs0mg"},{"bike_id":"d1f8c815-16d1-4fc3-ad0e-ed7a579adc20","system_id":"levelo_inurba_marseille","lat":43.29471,"lon":5.38141,"is_reserved":false,"is_disabled":false,"rental_uris":{"android":"levelo://app?vid=d1f8c815-16d1-4fc3-ad0e-ed7a579adc20","ios":"levelo://app?vid=d1f8c815-16d1-4fc3-ad0e-ed7a579adc20"},"vehicle_type_id":"4","last_reported":1733411401,"current_range_meters":9600,"station_id":"","pricing_plan_id":"cebpf4jnsgd1na2vs0mg"},{"bike_id":"925bdba5-d6af-4d54-8e70-a687a422cb18","system_id":"levelo_inurba_marseille","lat":43.28273,"lon":5.35086,"is_reserved":false,"is_disabled":false,"rental_uris":{"android":"levelo://app?vid=925bdba5-d6af-4d54-8e70-a687a422cb18","ios":"levelo://app?vid=925bdba5-d6af-4d54-8e70-a687a422cb18"},"vehicle_type_id":"4","last_reported":1733411401,"current_range_meters":26000,"station_id":"ce4bhbp2rcd13ifvqerg","pricing_plan_id":"cebpf4jnsgd1na2vs0mg"},{"bike_id":"d280ac25-f831-45c6-a3f2-e65a1ff6cffd","system_id":"levelo_inurba_marseille","lat":43.30272,"lon":5.37699,"is_reserved":false,"is_disabled":false,"rental_uris":{"android":"levelo://app?vid=d280ac25-f831-45c6-a3f2-e65a1ff6cffd","ios":"levelo://app?vid=d280ac25-f831-45c6-a3f2-e65a1ff6cffd"},"vehicle_type_id":"4","last_reported":1733411401,"current_range_meters":28000,"station_id":"ce4bguh2rcd13ifvqcj0","pricing_plan_id":"cebpf4jnsgd1na2vs0mg"},{"bike_id":"ef8dccf7-5c02-4648-910c-2c64ce488a65","system_id":"levelo_inurba_marseille","lat":43.28156,"lon":5.42792,"is_reserved":false,"is_disabled":false,"rental_uris":{"android":"levelo://app?vid=ef8dccf7-5c02-4648-910c-2c64ce488a65","ios":"levelo://app?vid=ef8dccf7-5c02-4648-910c-2c64ce488a65"},"vehicle_type_id":"4","last_reported":1733411401,"current_range_meters":6800,"station_id":"","pricing_plan_id":"cebpf4jnsgd1na2vs0mg"},{"bike_id":"1344e52e-ef08-41c0-9e57-5acc5f7aeef3","system_id":"levelo_inurba_marseille","lat":43.29028,"lon":5.38645,"is_reserved":false,"is_disabled":false,"rental_uris":{"android":"levelo://app?vid=1344e52e-ef08-41c0-9e57-5acc5f7aeef3","ios":"levelo://app?vid=1344e52e-ef08-41c0-9e57-5acc5f7aeef3"},"vehicle_type_id":"4","last_reported":1733411401,"current_range_meters":3600,"station_id":"ce4bh4p2rcd13ifvqe0g","pricing_plan_id":"cebpf4jnsgd1na2vs0mg"},{"bike_id":"2fa3b8e6-7de9-491c-8cce-ce1fa3995b0e","system_id":"levelo_inurba_marseille","lat":43.29853,"lon":5.36268,"is_reserved":false,"is_disabled":false,"rental_uris":{"android":"levelo://app?vid=2fa3b8e6-7de9-491c-8cce-ce1fa3995b0e","ios":"levelo://app?vid=2fa3b8e6-7de9-491c-8cce-ce1fa3995b0e"},"vehicle_type_id":"4","last_reported":1733411401,"current_range_meters":37600,"station_id":"ce4bgpp2rcd13ifvqc3g","pricing_plan_id":"cebpf4jnsgd1na2vs0mg"},{"bike_id":"c0ecc308-ccc4-492f-bcda-d659d2cd5777","system_id":"levelo_inurba_marseille","lat":43.25112,"lon":5.40322,"is_reserved":false,"is_disabled":true,"rental_uris":{"android":"levelo://app?vid=c0ecc308-ccc4-492f-bcda-d659d2cd5777","ios":"levelo://app?vid=c0ecc308-ccc4-492f-bcda-d659d2cd5777"},"vehicle_type_id":"4","last_reported":1733411401,"current_range_meters":0,"station_id":"ce4bhlh2rcd13ifvqgig","pricing_plan_id":"cebpf4jnsgd1na2vs0mg"},{"bike_id":"f5bd5773-3df4-400a-9c89-e449e0b42a96","system_id":"levelo_inurba_marseille","lat":43.2481,"lon":5.3746,"is_reserved":false,"is_disabled":true,"rental_uris":{"android":"levelo://app?vid=f5bd5773-3df4-400a-9c89-e449e0b42a96","ios":"levelo://app?vid=f5bd5773-3df4-400a-9c89-e449e0b42a96"},"vehicle_type_id":"4","last_reported":1733411401,"current_range_meters":5600,"station_id":"ce4bhgh2rcd13ifvqfb0","pricing_plan_id":"cebpf4jnsgd1na2vs0mg"},{"bike_id":"b80bca7d-9fc8-493f-bab0-d5c85623c1ff","system_id":"levelo_inurba_marseille","lat":43.31068,"lon":5.38354,"is_reserved":false,"is_disabled":false,"rental_uris":{"android":"levelo://app?vid=b80bca7d-9fc8-493f-bab0-d5c85623c1ff","ios":"levelo://app?vid=b80bca7d-9fc8-493f-bab0-d5c85623c1ff"},"vehicle_type_id":"4","last_reported":1733411401,"current_range_meters":38400,"station_id":"ce4bgv92rcd13ifvqcr0","pricing_plan_id":"cebpf4jnsgd1na2vs0mg"},{"bike_id":"f5ba14a5-0e0e-4553-bb3d-771504ad031b","system_id":"levelo_inurba_marseille","lat":43.28479,"lon":5.38416,"is_reserved":false,"is_disabled":false,"rental_uris":{"android":"levelo://app?vid=f5ba14a5-0e0e-4553-bb3d-771504ad031b","ios":"levelo://app?vid=f5ba14a5-0e0e-4553-bb3d-771504ad031b"},"vehicle_type_id":"4","last_reported":1733411401,"current_range_meters":33200,"station_id":"ce4bh512rcd13ifvqe3g","pricing_plan_id":"cebpf4jnsgd1na2vs0mg"},{"bike_id":"6f535613-23eb-45cf-bab8-06df9b7116b0","system_id":"levelo_inurba_marseille","lat":43.30497,"lon":5.3674,"is_reserved":false,"is_disabled":false,"rental_uris":{"android":"levelo://app?vid=6f535613-23eb-45cf-bab8-06df9b7116b0","ios":"levelo://app?vid=6f535613-23eb-45cf-bab8-06df9b7116b0"},"vehicle_type_id":"4","last_reported":1733411401,"current_range_meters":18000,"station_id":"ce4bgrp2rcd13ifvqc9g","pricing_plan_id":"cebpf4jnsgd1na2vs0mg"},{"bike_id":"cdfe6590-4984-4014-86c8-6dd70747c27a","system_id":"levelo_inurba_marseille","lat":43.29737,"lon":5.37434,"is_reserved":false,"is_disabled":true,"rental_uris":{"android":"levelo://app?vid=cdfe6590-4984-4014-86c8-6dd70747c27a","ios":"levelo://app?vid=cdfe6590-4984-4014-86c8-6dd70747c27a"},"vehicle_type_id":"4","last_reported":1733411401,"current_range_meters":0,"station_id":"","pricing_plan_id":"cebpf4jnsgd1na2vs0mg"},{"bike_id":"4e04831b-e6db-4ee0-9778-911063b342c0","system_id":"levelo_inurba_marseille","lat":43.31324,"lon":5.39694,"is_reserved":false,"is_disabled":true,"rental_uris":{"android":"levelo://app?vid=4e04831b-e6db-4ee0-9778-911063b342c0","ios":"levelo://app?vid=4e04831b-e6db-4ee0-9778-911063b342c0"},"vehicle_type_id":"4","last_reported":1733411401,"current_range_meters":400,"station_id":"ce4bgvp2rcd13ifvqcu0","pricing_plan_id":"cebpf4jnsgd1na2vs0mg"},{"bike_id":"314d2dcd-ab9b-401f-81c1-243659a2dd96","system_id":"levelo_inurba_marseille","lat":43.30218,"lon":5.39468,"is_reserved":false,"is_disabled":false,"rental_uris":{"android":"levelo://app?vid=314d2dcd-ab9b-401f-81c1-243659a2dd96","ios":"levelo://app?vid=314d2dcd-ab9b-401f-81c1-243659a2dd96"},"vehicle_type_id":"4","last_reported":1733411401,"current_range_meters":33600,"station_id":"ce4bh0p2rcd13ifvqd70","pricing_plan_id":"cebpf4jnsgd1na2vs0mg"},{"bike_id":"deb2fbc3-87fc-47e5-981f-441f312371a0","system_id":"levelo_inurba_marseille","lat":43.27813,"lon":5.40712,"is_reserved":false,"is_disabled":false,"rental_uris":{"android":"levelo://app?vid=deb2fbc3-87fc-47e5-981f-441f312371a0","ios":"levelo://app?vid=deb2fbc3-87fc-47e5-981f-441f312371a0"},"vehicle_type_id":"4","last_reported":1733411401,"current_range_meters":22000,"station_id":"ce4bhnh2rcd13ifvqgtg","pricing_plan_id":"cebpf4jnsgd1na2vs0mg"},{"bike_id":"c8b81c10-68ef-4f12-b188-70bd6f7d0025","system_id":"levelo_inurba_marseille","lat":43.27816,"lon":5.4072,"is_reserved":false,"is_disabled":false,"rental_uris":{"android":"levelo://app?vid=c8b81c10-68ef-4f12-b188-70bd6f7d0025","ios":"levelo://app?vid=c8b81c10-68ef-4f12-b188-70bd6f7d0025"},"vehicle_type_id":"4","last_reported":1733411401,"current_range_meters":38800,"station_id":"ce4bhnh2rcd13ifvqgtg","pricing_plan_id":"cebpf4jnsgd1na2vs0mg"},{"bike_id":"6fb00969-21f8-4503-a74e-e887bd6407a1","system_id":"levelo_inurba_marseille","lat":43.27491,"lon":5.42458,"is_reserved":false,"is_disabled":true,"rental_uris":{"android":"levelo://app?vid=6fb00969-21f8-4503-a74e-e887bd6407a1","ios":"levelo://app?vid=6fb00969-21f8-4503-a74e-e887bd6407a1"},"vehicle_type_id":"4","last_reported":1733411401,"current_range_meters":0,"station_id":"ce4bhn92rcd13ifvqgrg","pricing_plan_id":"cebpf4jnsgd1na2vs0mg"},{"bike_id":"987a5ab4-d60c-480c-94b6-7cab38975402","system_id":"levelo_inurba_marseille","lat":43.29748,"lon":5.37971,"is_reserved":false,"is_disabled":true,"rental_uris":{"android":"levelo://app?vid=987a5ab4-d60c-480c-94b6-7cab38975402","ios":"levelo://app?vid=987a5ab4-d60c-480c-94b6-7cab38975402"},"vehicle_type_id":"4","last_reported":1733411401,"current_range_meters":0,"station_id":"","pricing_plan_id":"cebpf4jnsgd1na2vs0mg"},{"bike_id":"2c4596ad-0ad9-4016-b92b-0093349de2b4","system_id":"levelo_inurba_marseille","lat":43.30755,"lon":5.38187,"is_reserved":false,"is_disabled":true,"rental_uris":{"android":"levelo://app?vid=2c4596ad-0ad9-4016-b92b-0093349de2b4","ios":"levelo://app?vid=2c4596ad-0ad9-4016-b92b-0093349de2b4"},"vehicle_type_id":"4","last_reported":1733411401,"current_range_meters":0,"station_id":"","pricing_plan_id":"cebpf4jnsgd1na2vs0mg"},{"bike_id":"910020e1-6d6b-414f-8f90-15d17ed804de","system_id":"levelo_inurba_marseille","lat":43.239745,"lon":5.36625,"is_reserved":false,"is_disabled":false,"rental_uris":{"android":"levelo://app?vid=910020e1-6d6b-414f-8f90-15d17ed804de","ios":"levelo://app?vid=910020e1-6d6b-414f-8f90-15d17ed804de"},"vehicle_type_id":"4","last_reported":1733411401,"current_range_meters":21600,"station_id":"ce4bhi12rcd13ifvqfp0","pricing_plan_id":"cebpf4jnsgd1na2vs0mg"},{"bike_id":"62c70eba-ed8c-4a26-a2a9-1d2081648d0d","system_id":"levelo_inurba_marseille","lat":43.30303,"lon":5.37722,"is_reserved":false,"is_disabled":false,"rental_uris":{"android":"levelo://app?vid=62c70eba-ed8c-4a26-a2a9-1d2081648d0d","ios":"levelo://app?vid=62c70eba-ed8c-4a26-a2a9-1d2081648d0d"},"vehicle_type_id":"4","last_reported":1733411401,"current_range_meters":38800,"station_id":"ce4bguh2rcd13ifvqcj0","pricing_plan_id":"cebpf4jnsgd1na2vs0mg"},{"bike_id":"b7ab8c01-033f-4395-8276-23c850ad3d02","system_id":"levelo_inurba_marseille","lat":43.30348,"lon":5.36626,"is_reserved":false,"is_disabled":true,"rental_uris":{"android":"levelo://app?vid=b7ab8c01-033f-4395-8276-23c850ad3d02","ios":"levelo://app?vid=b7ab8c01-033f-4395-8276-23c850ad3d02"},"vehicle_type_id":"4","last_reported":1733411401,"current_range_meters":0,"station_id":"","pricing_plan_id":"cebpf4jnsgd1na2vs0mg"},{"bike_id":"9f513dda-4455-464b-927c-e911f6d7e572","system_id":"levelo_inurba_marseille","lat":43.26688,"lon":5.38274,"is_reserved":false,"is_disabled":true,"rental_uris":{"android":"levelo://app?vid=9f513dda-4455-464b-927c-e911f6d7e572","ios":"levelo://app?vid=9f513dda-4455-464b-927c-e911f6d7e572"},"vehicle_type_id":"4","last_reported":1733411401,"current_range_meters":0,"station_id":"ce4bhg92rcd13ifvqf90","pricing_plan_id":"cebpf4jnsgd1na2vs0mg"},{"bike_id":"8d8e0fa8-5804-434e-8d70-c625034a5032","system_id":"levelo_inurba_marseille","lat":43.30655,"lon":5.40102,"is_reserved":false,"is_disabled":false,"rental_uris":{"android":"levelo://app?vid=8d8e0fa8-5804-434e-8d70-c625034a5032","ios":"levelo://app?vid=8d8e0fa8-5804-434e-8d70-c625034a5032"},"vehicle_type_id":"4","last_reported":1733411401,"current_range_meters":16000,"station_id":"ce4bh112rcd13ifvqda0","pricing_plan_id":"cebpf4jnsgd1na2vs0mg"},{"bike_id":"969a4522-7927-4480-8d10-4af3beb69ed0","system_id":"levelo_inurba_marseille","lat":43.29431,"lon":5.38621,"is_reserved":false,"is_disabled":false,"rental_uris":{"android":"levelo://app?vid=969a4522-7927-4480-8d10-4af3beb69ed0","ios":"levelo://app?vid=969a4522-7927-4480-8d10-4af3beb69ed0"},"vehicle_type_id":"4","last_reported":1733411401,"current_range_meters":32000,"station_id":"ce4bh2h2rcd13ifvqdh0","pricing_plan_id":"cebpf4jnsgd1na2vs0mg"},{"bike_id":"eaca397e-bf13-4245-a040-d39779804355","system_id":"levelo_inurba_marseille","lat":43.25498,"lon":5.37652,"is_reserved":false,"is_disabled":false,"rental_uris":{"android":"levelo://app?vid=eaca397e-bf13-4245-a040-d39779804355","ios":"levelo://app?vid=eaca397e-bf13-4245-a040-d39779804355"},"vehicle_type_id":"4","last_reported":1733411401,"current_range_meters":21600,"station_id":"ce4bhh12rcd13ifvqff0","pricing_plan_id":"cebpf4jnsgd1na2vs0mg"},{"bike_id":"d0fd18c1-3898-46e2-812b-d16b1dad312a","system_id":"levelo_inurba_marseille","lat":43.27881,"lon":5.38828,"is_reserved":false,"is_disabled":false,"rental_uris":{"android":"levelo://app?vid=d0fd18c1-3898-46e2-812b-d16b1dad312a","ios":"levelo://app?vid=d0fd18c1-3898-46e2-812b-d16b1dad312a"},"vehicle_type_id":"4","last_reported":1733411401,"current_range_meters":9600,"station_id":"","pricing_plan_id":"cebpf4jnsgd1na2vs0mg"},{"bike_id":"6cc6805f-c0ca-4585-bdf1-b5a0339762b0","system_id":"levelo_inurba_marseille","lat":43.29022,"lon":5.42808,"is_reserved":false,"is_disabled":true,"rental_uris":{"android":"levelo://app?vid=6cc6805f-c0ca-4585-bdf1-b5a0339762b0","ios":"levelo://app?vid=6cc6805f-c0ca-4585-bdf1-b5a0339762b0"},"vehicle_type_id":"4","last_reported":1733411401,"current_range_meters":0,"station_id":"","pricing_plan_id":"cebpf4jnsgd1na2vs0mg"},{"bike_id":"47aae0d1-9d8d-4209-8ddb-a63ad33560f0","system_id":"levelo_inurba_marseille","lat":43.31329,"lon":5.39694,"is_reserved":false,"is_disabled":false,"rental_uris":{"android":"levelo://app?vid=47aae0d1-9d8d-4209-8ddb-a63ad33560f0","ios":"levelo://app?vid=47aae0d1-9d8d-4209-8ddb-a63ad33560f0"},"vehicle_type_id":"4","last_reported":1733411401,"current_range_meters":6800,"station_id":"ce4bgvp2rcd13ifvqcu0","pricing_plan_id":"cebpf4jnsgd1na2vs0mg"},{"bike_id":"0bfb3d4e-359d-4927-881b-5e84aa873cc8","system_id":"levelo_inurba_marseille","lat":43.32318,"lon":5.36729,"is_reserved":false,"is_disabled":false,"rental_uris":{"android":"levelo://app?vid=0bfb3d4e-359d-4927-881b-5e84aa873cc8","ios":"levelo://app?vid=0bfb3d4e-359d-4927-881b-5e84aa873cc8"},"vehicle_type_id":"4","last_reported":1733411401,"current_range_meters":14000,"station_id":"ce4bhsh2rcd13ifvqi2g","pricing_plan_id":"cebpf4jnsgd1na2vs0mg"},{"bike_id":"8d1c8b92-79bb-4181-b0d2-5e94db1a14d0","system_id":"levelo_inurba_marseille","lat":43.300115,"lon":5.382636,"is_reserved":false,"is_disabled":true,"rental_uris":{"android":"levelo://app?vid=8d1c8b92-79bb-4181-b0d2-5e94db1a14d0","ios":"levelo://app?vid=8d1c8b92-79bb-4181-b0d2-5e94db1a14d0"},"vehicle_type_id":"4","last_reported":1733411401,"current_range_meters":0,"station_id":"","pricing_plan_id":"cebpf4jnsgd1na2vs0mg"},{"bike_id":"98d0333e-bd89-45b5-baf8-d45020125228","system_id":"levelo_inurba_marseille","lat":43.28573,"lon":5.39505,"is_reserved":false,"is_disabled":false,"rental_uris":{"android":"levelo://app?vid=98d0333e-bd89-45b5-baf8-d45020125228","ios":"levelo://app?vid=98d0333e-bd89-45b5-baf8-d45020125228"},"vehicle_type_id":"4","last_reported":1733411401,"current_range_meters":4000,"station_id":"ce4bh292rcd13ifvqdg0","pricing_plan_id":"cebpf4jnsgd1na2vs0mg"},{"bike_id":"2371e20f-9c66-4012-83e9-87fddbe9ff86","system_id":"levelo_inurba_marseille","lat":43.26948,"lon":5.40258,"is_reserved":false,"is_disabled":false,"rental_uris":{"android":"levelo://app?vid=2371e20f-9c66-4012-83e9-87fddbe9ff86","ios":"levelo://app?vid=2371e20f-9c66-4012-83e9-87fddbe9ff86"},"vehicle_type_id":"4","last_reported":1733411401,"current_range_meters":32400,"station_id":"cjm6bp8fraef2m0cb0m0","pricing_plan_id":"cebpf4jnsgd1na2vs0mg"},{"bike_id":"68beafbe-6ac6-4797-99db-e075dfb63cf5","system_id":"levelo_inurba_marseille","lat":43.30263,"lon":5.37736,"is_reserved":false,"is_disabled":false,"rental_uris":{"android":"levelo://app?vid=68beafbe-6ac6-4797-99db-e075dfb63cf5","ios":"levelo://app?vid=68beafbe-6ac6-4797-99db-e075dfb63cf5"},"vehicle_type_id":"4","last_reported":1733411401,"current_range_meters":4000,"station_id":"ce4bguh2rcd13ifvqcj0","pricing_plan_id":"cebpf4jnsgd1na2vs0mg"},{"bike_id":"28696324-8c73-4918-ba73-5b1b952f2c65","system_id":"levelo_inurba_marseille","lat":43.27939,"lon":5.41045,"is_reserved":false,"is_disabled":false,"rental_uris":{"android":"levelo://app?vid=28696324-8c73-4918-ba73-5b1b952f2c65","ios":"levelo://app?vid=28696324-8c73-4918-ba73-5b1b952f2c65"},"vehicle_type_id":"4","last_reported":1733411401,"current_range_meters":8400,"station_id":"ce4bhnp2rcd13ifvqh0g","pricing_plan_id":"cebpf4jnsgd1na2vs0mg"},{"bike_id":"830ff18b-2d8a-42ee-b837-986dd864b940","system_id":"levelo_inurba_marseille","lat":43.2512,"lon":5.40326,"is_reserved":false,"is_disabled":false,"rental_uris":{"android":"levelo://app?vid=830ff18b-2d8a-42ee-b837-986dd864b940","ios":"levelo://app?vid=830ff18b-2d8a-42ee-b837-986dd864b940"},"vehicle_type_id":"4","last_reported":1733411401,"current_range_meters":5600,"station_id":"ce4bhlh2rcd13ifvqgig","pricing_plan_id":"cebpf4jnsgd1na2vs0mg"},{"bike_id":"7401184e-dcdc-4f69-89e9-1615045c1f8c","system_id":"levelo_inurba_marseille","lat":43.30035,"lon":5.38917,"is_reserved":false,"is_disabled":true,"rental_uris":{"android":"levelo://app?vid=7401184e-dcdc-4f69-89e9-1615045c1f8c","ios":"levelo://app?vid=7401184e-dcdc-4f69-89e9-1615045c1f8c"},"vehicle_type_id":"4","last_reported":1733411401,"current_range_meters":0,"station_id":"","pricing_plan_id":"cebpf4jnsgd1na2vs0mg"},{"bike_id":"c7463e61-ecc0-48f4-afe9-da99e7c007cf","system_id":"levelo_inurba_marseille","lat":43.26214,"lon":5.37448,"is_reserved":false,"is_disabled":false,"rental_uris":{"android":"levelo://app?vid=c7463e61-ecc0-48f4-afe9-da99e7c007cf","ios":"levelo://app?vid=c7463e61-ecc0-48f4-afe9-da99e7c007cf"},"vehicle_type_id":"4","last_reported":1733411401,"current_range_meters":23200,"station_id":"ce4bhgp2rcd13ifvqfc0","pricing_plan_id":"cebpf4jnsgd1na2vs0mg"},{"bike_id":"05f2348b-bbfc-40d1-accf-dfbb16039c20","system_id":"levelo_inurba_marseille","lat":43.29805,"lon":5.40402,"is_reserved":false,"is_disabled":false,"rental_uris":{"android":"levelo://app?vid=05f2348b-bbfc-40d1-accf-dfbb16039c20","ios":"levelo://app?vid=05f2348b-bbfc-40d1-accf-dfbb16039c20"},"vehicle_type_id":"4","last_reported":1733411401,"current_range_meters":2800,"station_id":"ce4bh112rcd13ifvqd90","pricing_plan_id":"cebpf4jnsgd1na2vs0mg"},{"bike_id":"2919082c-bb97-4bc7-90f8-3e0ebcc92af0","system_id":"levelo_inurba_marseille","lat":43.30529,"lon":5.36533,"is_reserved":false,"is_disabled":false,"rental_uris":{"android":"levelo://app?vid=2919082c-bb97-4bc7-90f8-3e0ebcc92af0","ios":"levelo://app?vid=2919082c-bb97-4bc7-90f8-3e0ebcc92af0"},"vehicle_type_id":"4","last_reported":1733411401,"current_range_meters":5600,"station_id":"ce4bgs12rcd13ifvqcag","pricing_plan_id":"cebpf4jnsgd1na2vs0mg"},{"bike_id":"076836e8-b6e7-421f-ab97-9faf73412f84","system_id":"levelo_inurba_marseille","lat":43.28571,"lon":5.39505,"is_reserved":false,"is_disabled":false,"rental_uris":{"android":"levelo://app?vid=076836e8-b6e7-421f-ab97-9faf73412f84","ios":"levelo://app?vid=076836e8-b6e7-421f-ab97-9faf73412f84"},"vehicle_type_id":"4","last_reported":1733411401,"current_range_meters":38000,"station_id":"ce4bh292rcd13ifvqdg0","pricing_plan_id":"cebpf4jnsgd1na2vs0mg"},{"bike_id":"9c5dda24-96e6-41dc-9546-01c4d8af28dc","system_id":"levelo_inurba_marseille","lat":43.29633,"lon":5.40598,"is_reserved":false,"is_disabled":false,"rental_uris":{"android":"levelo://app?vid=9c5dda24-96e6-41dc-9546-01c4d8af28dc","ios":"levelo://app?vid=9c5dda24-96e6-41dc-9546-01c4d8af28dc"},"vehicle_type_id":"4","last_reported":1733411401,"current_range_meters":24800,"station_id":"ce4bh0h2rcd13ifvqd60","pricing_plan_id":"cebpf4jnsgd1na2vs0mg"},{"bike_id":"7c65069b-dc3f-48d2-bc8a-00f5d50846e2","system_id":"levelo_inurba_marseille","lat":43.26216,"lon":5.3744,"is_reserved":false,"is_disabled":false,"rental_uris":{"android":"levelo://app?vid=7c65069b-dc3f-48d2-bc8a-00f5d50846e2","ios":"levelo://app?vid=7c65069b-dc3f-48d2-bc8a-00f5d50846e2"},"vehicle_type_id":"4","last_reported":1733411401,"current_range_meters":31200,"station_id":"ce4bhgp2rcd13ifvqfc0","pricing_plan_id":"cebpf4jnsgd1na2vs0mg"},{"bike_id":"31e6fc3b-f821-47c0-8265-070531f4b97c","system_id":"levelo_inurba_marseille","lat":43.24181,"lon":5.3973,"is_reserved":false,"is_disabled":false,"rental_uris":{"android":"levelo://app?vid=31e6fc3b-f821-47c0-8265-070531f4b97c","ios":"levelo://app?vid=31e6fc3b-f821-47c0-8265-070531f4b97c"},"vehicle_type_id":"4","last_reported":1733411401,"current_range_meters":33200,"station_id":"ce4bhn12rcd13ifvqgpg","pricing_plan_id":"cebpf4jnsgd1na2vs0mg"},{"bike_id":"97caf237-85e4-434f-9ad0-53e6794457f3","system_id":"levelo_inurba_marseille","lat":43.2319,"lon":5.40008,"is_reserved":false,"is_disabled":true,"rental_uris":{"android":"levelo://app?vid=97caf237-85e4-434f-9ad0-53e6794457f3","ios":"levelo://app?vid=97caf237-85e4-434f-9ad0-53e6794457f3"},"vehicle_type_id":"4","last_reported":1733411401,"current_range_meters":0,"station_id":"ce4bhn12rcd13ifvqgqg","pricing_plan_id":"cebpf4jnsgd1na2vs0mg"},{"bike_id":"810ad3f6-38e4-4a0a-85ac-bbcddc349661","system_id":"levelo_inurba_marseille","lat":43.27376,"lon":5.36257,"is_reserved":false,"is_disabled":false,"rental_uris":{"android":"levelo://app?vid=810ad3f6-38e4-4a0a-85ac-bbcddc349661","ios":"levelo://app?vid=810ad3f6-38e4-4a0a-85ac-bbcddc349661"},"vehicle_type_id":"4","last_reported":1733411401,"current_range_meters":8000,"station_id":"ce4bhbh2rcd13ifvqeo0","pricing_plan_id":"cebpf4jnsgd1na2vs0mg"},{"bike_id":"7935c03e-5549-4cc9-ad53-f8cf90906261","system_id":"levelo_inurba_marseille","lat":43.26034,"lon":5.37548,"is_reserved":false,"is_disabled":false,"rental_uris":{"android":"levelo://app?vid=7935c03e-5549-4cc9-ad53-f8cf90906261","ios":"levelo://app?vid=7935c03e-5549-4cc9-ad53-f8cf90906261"},"vehicle_type_id":"4","last_reported":1733411401,"current_range_meters":38800,"station_id":"ce4bhgh2rcd13ifvqfa0","pricing_plan_id":"cebpf4jnsgd1na2vs0mg"},{"bike_id":"9c77a68d-2e99-44e9-b903-950fb6644d35","system_id":"levelo_inurba_marseille","lat":43.25265,"lon":5.39465,"is_reserved":false,"is_disabled":true,"rental_uris":{"android":"levelo://app?vid=9c77a68d-2e99-44e9-b903-950fb6644d35","ios":"levelo://app?vid=9c77a68d-2e99-44e9-b903-950fb6644d35"},"vehicle_type_id":"4","last_reported":1733411401,"current_range_meters":0,"station_id":"","pricing_plan_id":"cebpf4jnsgd1na2vs0mg"},{"bike_id":"5fd3a644-a652-49dc-a34f-3c7582247439","system_id":"levelo_inurba_marseille","lat":43.31714,"lon":5.43707,"is_reserved":false,"is_disabled":false,"rental_uris":{"android":"levelo://app?vid=5fd3a644-a652-49dc-a34f-3c7582247439","ios":"levelo://app?vid=5fd3a644-a652-49dc-a34f-3c7582247439"},"vehicle_type_id":"4","last_reported":1733411401,"current_range_meters":7200,"station_id":"ce4bhp92rcd13ifvqhcg","pricing_plan_id":"cebpf4jnsgd1na2vs0mg"},{"bike_id":"e9662eb8-9883-4b5f-9900-e60b2e5b4735","system_id":"levelo_inurba_marseille","lat":43.28854,"lon":5.35845,"is_reserved":false,"is_disabled":false,"rental_uris":{"android":"levelo://app?vid=e9662eb8-9883-4b5f-9900-e60b2e5b4735","ios":"levelo://app?vid=e9662eb8-9883-4b5f-9900-e60b2e5b4735"},"vehicle_type_id":"4","last_reported":1733411401,"current_range_meters":34000,"station_id":"ce4bhb12rcd13ifvqem0","pricing_plan_id":"cebpf4jnsgd1na2vs0mg"},{"bike_id":"22ea69b5-5f2f-4022-90e1-81c6f143f10d","system_id":"levelo_inurba_marseille","lat":43.28604,"lon":5.37059,"is_reserved":false,"is_disabled":false,"rental_uris":{"android":"levelo://app?vid=22ea69b5-5f2f-4022-90e1-81c6f143f10d","ios":"levelo://app?vid=22ea69b5-5f2f-4022-90e1-81c6f143f10d"},"vehicle_type_id":"4","last_reported":1733411401,"current_range_meters":26800,"station_id":"ce4bht12rcd13ifvqi60","pricing_plan_id":"cebpf4jnsgd1na2vs0mg"},{"bike_id":"0a226e75-2081-4c88-83b4-37a1421ad10c","system_id":"levelo_inurba_marseille","lat":43.30799,"lon":5.38145,"is_reserved":false,"is_disabled":false,"rental_uris":{"android":"levelo://app?vid=0a226e75-2081-4c88-83b4-37a1421ad10c","ios":"levelo://app?vid=0a226e75-2081-4c88-83b4-37a1421ad10c"},"vehicle_type_id":"4","last_reported":1733411401,"current_range_meters":38800,"station_id":"ce4bgt12rcd13ifvqce0","pricing_plan_id":"cebpf4jnsgd1na2vs0mg"},{"bike_id":"83985555-c848-4b28-808f-8a7e7cf8519e","system_id":"levelo_inurba_marseille","lat":43.28115,"lon":5.43955,"is_reserved":false,"is_disabled":true,"rental_uris":{"android":"levelo://app?vid=83985555-c848-4b28-808f-8a7e7cf8519e","ios":"levelo://app?vid=83985555-c848-4b28-808f-8a7e7cf8519e"},"vehicle_type_id":"4","last_reported":1733411401,"current_range_meters":0,"station_id":"","pricing_plan_id":"cebpf4jnsgd1na2vs0mg"},{"bike_id":"76f22b2b-4267-4978-afb4-a70105660a0f","system_id":"levelo_inurba_marseille","lat":43.31234,"lon":5.36862,"is_reserved":false,"is_disabled":true,"rental_uris":{"android":"levelo://app?vid=76f22b2b-4267-4978-afb4-a70105660a0f","ios":"levelo://app?vid=76f22b2b-4267-4978-afb4-a70105660a0f"},"vehicle_type_id":"4","last_reported":1733411401,"current_range_meters":0,"station_id":"ce4bgl92rcd13ifvqbq0","pricing_plan_id":"cebpf4jnsgd1na2vs0mg"},{"bike_id":"903ec8f1-f4c3-441f-a117-ff7454fcb959","system_id":"levelo_inurba_marseille","lat":43.29478,"lon":5.39404,"is_reserved":false,"is_disabled":true,"rental_uris":{"android":"levelo://app?vid=903ec8f1-f4c3-441f-a117-ff7454fcb959","ios":"levelo://app?vid=903ec8f1-f4c3-441f-a117-ff7454fcb959"},"vehicle_type_id":"4","last_reported":1733411401,"current_range_meters":0,"station_id":"ce4bh292rcd13ifvqdf0","pricing_plan_id":"cebpf4jnsgd1na2vs0mg"},{"bike_id":"c91d7e7d-8210-4a19-9ed3-3a8c04159826","system_id":"levelo_inurba_marseille","lat":43.28936,"lon":5.38411,"is_reserved":false,"is_disabled":false,"rental_uris":{"android":"levelo://app?vid=c91d7e7d-8210-4a19-9ed3-3a8c04159826","ios":"levelo://app?vid=c91d7e7d-8210-4a19-9ed3-3a8c04159826"},"vehicle_type_id":"4","last_reported":1733411401,"current_range_meters":31200,"station_id":"ce4bh612rcd13ifvqe6g","pricing_plan_id":"cebpf4jnsgd1na2vs0mg"},{"bike_id":"76cd990e-7c17-4d77-947f-0cbf4cddc831","system_id":"levelo_inurba_marseille","lat":43.29733,"lon":5.37684,"is_reserved":false,"is_disabled":false,"rental_uris":{"android":"levelo://app?vid=76cd990e-7c17-4d77-947f-0cbf4cddc831","ios":"levelo://app?vid=76cd990e-7c17-4d77-947f-0cbf4cddc831"},"vehicle_type_id":"4","last_reported":1733411401,"current_range_meters":30800,"station_id":"ce4bgkh2rcd13ifvqbl0","pricing_plan_id":"cebpf4jnsgd1na2vs0mg"},{"bike_id":"f01c079e-081d-4d3a-b1fb-1464ed8b3d03","system_id":"levelo_inurba_marseille","lat":43.2558,"lon":5.38231,"is_reserved":false,"is_disabled":false,"rental_uris":{"android":"levelo://app?vid=f01c079e-081d-4d3a-b1fb-1464ed8b3d03","ios":"levelo://app?vid=f01c079e-081d-4d3a-b1fb-1464ed8b3d03"},"vehicle_type_id":"4","last_reported":1733411401,"current_range_meters":3600,"station_id":"ce4bhih2rcd13ifvqfs0","pricing_plan_id":"cebpf4jnsgd1na2vs0mg"},{"bike_id":"2297a41a-6898-4c8c-a3e9-5a62154a0ae2","system_id":"levelo_inurba_marseille","lat":43.29777,"lon":5.37092,"is_reserved":false,"is_disabled":false,"rental_uris":{"android":"levelo://app?vid=2297a41a-6898-4c8c-a3e9-5a62154a0ae2","ios":"levelo://app?vid=2297a41a-6898-4c8c-a3e9-5a62154a0ae2"},"vehicle_type_id":"4","last_reported":1733411401,"current_range_meters":16000,"station_id":"ce4bgop2rcd13ifvqc1g","pricing_plan_id":"cebpf4jnsgd1na2vs0mg"},{"bike_id":"72f2a7e7-a5e8-44ff-b50f-c3391acb1c6a","system_id":"levelo_inurba_marseille","lat":43.30426,"lon":5.39757,"is_reserved":false,"is_disabled":false,"rental_uris":{"android":"levelo://app?vid=72f2a7e7-a5e8-44ff-b50f-c3391acb1c6a","ios":"levelo://app?vid=72f2a7e7-a5e8-44ff-b50f-c3391acb1c6a"},"vehicle_type_id":"4","last_reported":1733411401,"current_range_meters":31200,"station_id":"ce4bh092rcd13ifvqd20","pricing_plan_id":"cebpf4jnsgd1na2vs0mg"},{"bike_id":"020719d4-c29b-4e35-be4b-81ca932ddaa9","system_id":"levelo_inurba_marseille","lat":43.30247,"lon":5.40077,"is_reserved":false,"is_disabled":true,"rental_uris":{"android":"levelo://app?vid=020719d4-c29b-4e35-be4b-81ca932ddaa9","ios":"levelo://app?vid=020719d4-c29b-4e35-be4b-81ca932ddaa9"},"vehicle_type_id":"4","last_reported":1733411401,"current_range_meters":30400,"station_id":"ce4bgvh2rcd13ifvqcs0","pricing_plan_id":"cebpf4jnsgd1na2vs0mg"},{"bike_id":"74f2c6ad-da2b-41d7-a969-54c1c27f59b8","system_id":"levelo_inurba_marseille","lat":43.26219,"lon":5.37939,"is_reserved":false,"is_disabled":false,"rental_uris":{"android":"levelo://app?vid=74f2c6ad-da2b-41d7-a969-54c1c27f59b8","ios":"levelo://app?vid=74f2c6ad-da2b-41d7-a969-54c1c27f59b8"},"vehicle_type_id":"4","last_reported":1733411401,"current_range_meters":38800,"station_id":"ce4bhjp2rcd13ifvqg90","pricing_plan_id":"cebpf4jnsgd1na2vs0mg"},{"bike_id":"1f64aba5-e87b-4297-87d8-7cd73969405c","system_id":"levelo_inurba_marseille","lat":43.29615,"lon":5.38105,"is_reserved":false,"is_disabled":false,"rental_uris":{"android":"levelo://app?vid=1f64aba5-e87b-4297-87d8-7cd73969405c","ios":"levelo://app?vid=1f64aba5-e87b-4297-87d8-7cd73969405c"},"vehicle_type_id":"4","last_reported":1733411401,"current_range_meters":24400,"station_id":"ce4bgl12rcd13ifvqbo0","pricing_plan_id":"cebpf4jnsgd1na2vs0mg"},{"bike_id":"2cd8bcc2-6973-4bbb-a4df-236cf5858163","system_id":"levelo_inurba_marseille","lat":43.23208,"lon":5.3554,"is_reserved":false,"is_disabled":false,"rental_uris":{"android":"levelo://app?vid=2cd8bcc2-6973-4bbb-a4df-236cf5858163","ios":"levelo://app?vid=2cd8bcc2-6973-4bbb-a4df-236cf5858163"},"vehicle_type_id":"4","last_reported":1733411401,"current_range_meters":39200,"station_id":"ce4bhu92rcd13ifvqi70","pricing_plan_id":"cebpf4jnsgd1na2vs0mg"},{"bike_id":"7aa9d129-4eb3-4c28-b956-1652ca555e9c","system_id":"levelo_inurba_marseille","lat":43.29526,"lon":5.38556,"is_reserved":false,"is_disabled":false,"rental_uris":{"android":"levelo://app?vid=7aa9d129-4eb3-4c28-b956-1652ca555e9c","ios":"levelo://app?vid=7aa9d129-4eb3-4c28-b956-1652ca555e9c"},"vehicle_type_id":"4","last_reported":1733411401,"current_range_meters":28000,"station_id":"ce4bgih2rcd13ifvqba0","pricing_plan_id":"cebpf4jnsgd1na2vs0mg"},{"bike_id":"8f753f0a-2f10-4092-a331-86096a8eda7e","system_id":"levelo_inurba_marseille","lat":43.2512,"lon":5.40318,"is_reserved":false,"is_disabled":true,"rental_uris":{"android":"levelo://app?vid=8f753f0a-2f10-4092-a331-86096a8eda7e","ios":"levelo://app?vid=8f753f0a-2f10-4092-a331-86096a8eda7e"},"vehicle_type_id":"4","last_reported":1733411401,"current_range_meters":0,"station_id":"ce4bhlh2rcd13ifvqgig","pricing_plan_id":"cebpf4jnsgd1na2vs0mg"},{"bike_id":"506c09f4-6c9b-4fb3-996c-4c7f86dd75a8","system_id":"levelo_inurba_marseille","lat":43.25492,"lon":5.37652,"is_reserved":false,"is_disabled":true,"rental_uris":{"android":"levelo://app?vid=506c09f4-6c9b-4fb3-996c-4c7f86dd75a8","ios":"levelo://app?vid=506c09f4-6c9b-4fb3-996c-4c7f86dd75a8"},"vehicle_type_id":"4","last_reported":1733411401,"current_range_meters":0,"station_id":"","pricing_plan_id":"cebpf4jnsgd1na2vs0mg"},{"bike_id":"91ce04db-2714-450f-b5b6-ab07058eade5","system_id":"levelo_inurba_marseille","lat":43.29631,"lon":5.40597,"is_reserved":false,"is_disabled":true,"rental_uris":{"android":"levelo://app?vid=91ce04db-2714-450f-b5b6-ab07058eade5","ios":"levelo://app?vid=91ce04db-2714-450f-b5b6-ab07058eade5"},"vehicle_type_id":"4","last_reported":1733411401,"current_range_meters":0,"station_id":"ce4bh0h2rcd13ifvqd60","pricing_plan_id":"cebpf4jnsgd1na2vs0mg"},{"bike_id":"922f3b44-7b9e-4dd1-a700-8b77eb26ab13","system_id":"levelo_inurba_marseille","lat":43.251112,"lon":5.403234,"is_reserved":false,"is_disabled":false,"rental_uris":{"android":"levelo://app?vid=922f3b44-7b9e-4dd1-a700-8b77eb26ab13","ios":"levelo://app?vid=922f3b44-7b9e-4dd1-a700-8b77eb26ab13"},"vehicle_type_id":"4","last_reported":1733411401,"current_range_meters":19600,"station_id":"ce4bhlh2rcd13ifvqgig","pricing_plan_id":"cebpf4jnsgd1na2vs0mg"},{"bike_id":"9202c63e-372c-4469-a5c1-8e35757d1940","system_id":"levelo_inurba_marseille","lat":43.30053,"lon":5.38832,"is_reserved":false,"is_disabled":true,"rental_uris":{"android":"levelo://app?vid=9202c63e-372c-4469-a5c1-8e35757d1940","ios":"levelo://app?vid=9202c63e-372c-4469-a5c1-8e35757d1940"},"vehicle_type_id":"4","last_reported":1733411401,"current_range_meters":0,"station_id":"","pricing_plan_id":"cebpf4jnsgd1na2vs0mg"},{"bike_id":"6ecb3c62-f91d-48ef-b6a8-68939ca1e3c9","system_id":"levelo_inurba_marseille","lat":43.31269,"lon":5.40176,"is_reserved":false,"is_disabled":false,"rental_uris":{"android":"levelo://app?vid=6ecb3c62-f91d-48ef-b6a8-68939ca1e3c9","ios":"levelo://app?vid=6ecb3c62-f91d-48ef-b6a8-68939ca1e3c9"},"vehicle_type_id":"4","last_reported":1733411401,"current_range_meters":34800,"station_id":"ce4bh092rcd13ifvqd30","pricing_plan_id":"cebpf4jnsgd1na2vs0mg"},{"bike_id":"1d1e223d-f3f8-4945-8923-f4bdebc5ab9c","system_id":"levelo_inurba_marseille","lat":43.32071,"lon":5.41547,"is_reserved":false,"is_disabled":true,"rental_uris":{"android":"levelo://app?vid=1d1e223d-f3f8-4945-8923-f4bdebc5ab9c","ios":"levelo://app?vid=1d1e223d-f3f8-4945-8923-f4bdebc5ab9c"},"vehicle_type_id":"4","last_reported":1733411401,"current_range_meters":38800,"station_id":"ce4bhq92rcd13ifvqhkg","pricing_plan_id":"cebpf4jnsgd1na2vs0mg"},{"bike_id":"cb7edd42-a337-4f96-acc3-c58d3679bbad","system_id":"levelo_inurba_marseille","lat":43.32659,"lon":5.41001,"is_reserved":false,"is_disabled":false,"rental_uris":{"android":"levelo://app?vid=cb7edd42-a337-4f96-acc3-c58d3679bbad","ios":"levelo://app?vid=cb7edd42-a337-4f96-acc3-c58d3679bbad"},"vehicle_type_id":"4","last_reported":1733411401,"current_range_meters":38800,"station_id":"ce4bhpp2rcd13ifvqhgg","pricing_plan_id":"cebpf4jnsgd1na2vs0mg"},{"bike_id":"f2b78bf7-7510-4e40-8dfe-059387b3a142","system_id":"levelo_inurba_marseille","lat":43.28878,"lon":5.35858,"is_reserved":false,"is_disabled":true,"rental_uris":{"android":"levelo://app?vid=f2b78bf7-7510-4e40-8dfe-059387b3a142","ios":"levelo://app?vid=f2b78bf7-7510-4e40-8dfe-059387b3a142"},"vehicle_type_id":"4","last_reported":1733411401,"current_range_meters":0,"station_id":"ce4bhb12rcd13ifvqem0","pricing_plan_id":"cebpf4jnsgd1na2vs0mg"},{"bike_id":"f4baaaf3-5729-45c6-81a9-b069f42d75d5","system_id":"levelo_inurba_marseille","lat":43.28939,"lon":5.39623,"is_reserved":false,"is_disabled":true,"rental_uris":{"android":"levelo://app?vid=f4baaaf3-5729-45c6-81a9-b069f42d75d5","ios":"levelo://app?vid=f4baaaf3-5729-45c6-81a9-b069f42d75d5"},"vehicle_type_id":"4","last_reported":1733411401,"current_range_meters":11600,"station_id":"ce4bh3h2rcd13ifvqdn0","pricing_plan_id":"cebpf4jnsgd1na2vs0mg"},{"bike_id":"cf3e6ea0-09ff-406c-b357-28a6a6117f94","system_id":"levelo_inurba_marseille","lat":43.22935,"lon":5.35381,"is_reserved":false,"is_disabled":false,"rental_uris":{"android":"levelo://app?vid=cf3e6ea0-09ff-406c-b357-28a6a6117f94","ios":"levelo://app?vid=cf3e6ea0-09ff-406c-b357-28a6a6117f94"},"vehicle_type_id":"4","last_reported":1733411401,"current_range_meters":38800,"station_id":"cpo3532slgdg3j2ikp40","pricing_plan_id":"cebpf4jnsgd1na2vs0mg"},{"bike_id":"fd7dea6a-aa83-4656-baae-4085b6e7d8d6","system_id":"levelo_inurba_marseille","lat":43.33723,"lon":5.39182,"is_reserved":false,"is_disabled":false,"rental_uris":{"android":"levelo://app?vid=fd7dea6a-aa83-4656-baae-4085b6e7d8d6","ios":"levelo://app?vid=fd7dea6a-aa83-4656-baae-4085b6e7d8d6"},"vehicle_type_id":"4","last_reported":1733411401,"current_range_meters":16800,"station_id":"ce4bhr92rcd13ifvqhsg","pricing_plan_id":"cebpf4jnsgd1na2vs0mg"},{"bike_id":"86c53782-2ee0-41a4-b9e7-0ad492962151","system_id":"levelo_inurba_marseille","lat":43.26206,"lon":5.37928,"is_reserved":false,"is_disabled":false,"rental_uris":{"android":"levelo://app?vid=86c53782-2ee0-41a4-b9e7-0ad492962151","ios":"levelo://app?vid=86c53782-2ee0-41a4-b9e7-0ad492962151"},"vehicle_type_id":"4","last_reported":1733411401,"current_range_meters":38000,"station_id":"ce4bhjp2rcd13ifvqg90","pricing_plan_id":"cebpf4jnsgd1na2vs0mg"},{"bike_id":"efaf9da4-c2af-45bd-bd08-b8ba9cf8297f","system_id":"levelo_inurba_marseille","lat":43.28394,"lon":5.37524,"is_reserved":false,"is_disabled":false,"rental_uris":{"android":"levelo://app?vid=efaf9da4-c2af-45bd-bd08-b8ba9cf8297f","ios":"levelo://app?vid=efaf9da4-c2af-45bd-bd08-b8ba9cf8297f"},"vehicle_type_id":"4","last_reported":1733411401,"current_range_meters":24400,"station_id":"","pricing_plan_id":"cebpf4jnsgd1na2vs0mg"},{"bike_id":"719e509a-25e4-4b1b-9830-f708d85d7593","system_id":"levelo_inurba_marseille","lat":43.29283,"lon":5.37397,"is_reserved":false,"is_disabled":true,"rental_uris":{"android":"levelo://app?vid=719e509a-25e4-4b1b-9830-f708d85d7593","ios":"levelo://app?vid=719e509a-25e4-4b1b-9830-f708d85d7593"},"vehicle_type_id":"4","last_reported":1733411401,"current_range_meters":0,"station_id":"","pricing_plan_id":"cebpf4jnsgd1na2vs0mg"},{"bike_id":"305dde0f-2c1c-4e4a-8da4-b0904b35ca09","system_id":"levelo_inurba_marseille","lat":43.26687,"lon":5.38275,"is_reserved":false,"is_disabled":false,"rental_uris":{"android":"levelo://app?vid=305dde0f-2c1c-4e4a-8da4-b0904b35ca09","ios":"levelo://app?vid=305dde0f-2c1c-4e4a-8da4-b0904b35ca09"},"vehicle_type_id":"4","last_reported":1733411401,"current_range_meters":36800,"station_id":"ce4bhg92rcd13ifvqf90","pricing_plan_id":"cebpf4jnsgd1na2vs0mg"},{"bike_id":"56b8c28e-50dd-4839-a64c-58139e01fe83","system_id":"levelo_inurba_marseille","lat":43.3087,"lon":5.39634,"is_reserved":false,"is_disabled":false,"rental_uris":{"android":"levelo://app?vid=56b8c28e-50dd-4839-a64c-58139e01fe83","ios":"levelo://app?vid=56b8c28e-50dd-4839-a64c-58139e01fe83"},"vehicle_type_id":"4","last_reported":1733411401,"current_range_meters":36800,"station_id":"ce4bh012rcd13ifvqcv0","pricing_plan_id":"cebpf4jnsgd1na2vs0mg"},{"bike_id":"d95209e3-40ae-4f00-8b59-b4ffc15d99e1","system_id":"levelo_inurba_marseille","lat":43.30887,"lon":5.39656,"is_reserved":false,"is_disabled":false,"rental_uris":{"android":"levelo://app?vid=d95209e3-40ae-4f00-8b59-b4ffc15d99e1","ios":"levelo://app?vid=d95209e3-40ae-4f00-8b59-b4ffc15d99e1"},"vehicle_type_id":"4","last_reported":1733411401,"current_range_meters":3600,"station_id":"ce4bh012rcd13ifvqcv0","pricing_plan_id":"cebpf4jnsgd1na2vs0mg"},{"bike_id":"66620224-8f06-4b4d-83da-c52f962d50a8","system_id":"levelo_inurba_marseille","lat":43.26214,"lon":5.37441,"is_reserved":false,"is_disabled":false,"rental_uris":{"android":"levelo://app?vid=66620224-8f06-4b4d-83da-c52f962d50a8","ios":"levelo://app?vid=66620224-8f06-4b4d-83da-c52f962d50a8"},"vehicle_type_id":"4","last_reported":1733411401,"current_range_meters":26800,"station_id":"ce4bhgp2rcd13ifvqfc0","pricing_plan_id":"cebpf4jnsgd1na2vs0mg"},{"bike_id":"b25042bc-3b70-4493-bfab-6c959cca2837","system_id":"levelo_inurba_marseille","lat":43.28939,"lon":5.39634,"is_reserved":false,"is_disabled":false,"rental_uris":{"android":"levelo://app?vid=b25042bc-3b70-4493-bfab-6c959cca2837","ios":"levelo://app?vid=b25042bc-3b70-4493-bfab-6c959cca2837"},"vehicle_type_id":"4","last_reported":1733411401,"current_range_meters":38000,"station_id":"ce4bh3h2rcd13ifvqdn0","pricing_plan_id":"cebpf4jnsgd1na2vs0mg"},{"bike_id":"3fcaf175-4c90-4582-9215-7da579990224","system_id":"levelo_inurba_marseille","lat":43.28572,"lon":5.3951,"is_reserved":false,"is_disabled":false,"rental_uris":{"android":"levelo://app?vid=3fcaf175-4c90-4582-9215-7da579990224","ios":"levelo://app?vid=3fcaf175-4c90-4582-9215-7da579990224"},"vehicle_type_id":"4","last_reported":1733411401,"current_range_meters":38000,"station_id":"ce4bh292rcd13ifvqdg0","pricing_plan_id":"cebpf4jnsgd1na2vs0mg"},{"bike_id":"3b110cba-3e2f-4cc6-b6be-4bf9fca6ce34","system_id":"levelo_inurba_marseille","lat":43.29871,"lon":5.39726,"is_reserved":false,"is_disabled":false,"rental_uris":{"android":"levelo://app?vid=3b110cba-3e2f-4cc6-b6be-4bf9fca6ce34","ios":"levelo://app?vid=3b110cba-3e2f-4cc6-b6be-4bf9fca6ce34"},"vehicle_type_id":"4","last_reported":1733411401,"current_range_meters":19200,"station_id":"ce4bh0h2rcd13ifvqd50","pricing_plan_id":"cebpf4jnsgd1na2vs0mg"},{"bike_id":"9851003b-2c4e-4d0c-a2dc-30ebd1704e3d","system_id":"levelo_inurba_marseille","lat":43.336168,"lon":5.410472,"is_reserved":false,"is_disabled":true,"rental_uris":{"android":"levelo://app?vid=9851003b-2c4e-4d0c-a2dc-30ebd1704e3d","ios":"levelo://app?vid=9851003b-2c4e-4d0c-a2dc-30ebd1704e3d"},"vehicle_type_id":"4","last_reported":1733411401,"current_range_meters":0,"station_id":"ce4bhqh2rcd13ifvqhmg","pricing_plan_id":"cebpf4jnsgd1na2vs0mg"},{"bike_id":"b01ba929-1580-401b-973d-e4a15d746d4a","system_id":"levelo_inurba_marseille","lat":43.22929,"lon":5.35379,"is_reserved":false,"is_disabled":false,"rental_uris":{"android":"levelo://app?vid=b01ba929-1580-401b-973d-e4a15d746d4a","ios":"levelo://app?vid=b01ba929-1580-401b-973d-e4a15d746d4a"},"vehicle_type_id":"4","last_reported":1733411401,"current_range_meters":15200,"station_id":"cpo3532slgdg3j2ikp40","pricing_plan_id":"cebpf4jnsgd1na2vs0mg"},{"bike_id":"8c1e28b4-904f-48d7-ba6d-d3b5b5d05922","system_id":"levelo_inurba_marseille","lat":43.29272,"lon":5.40113,"is_reserved":false,"is_disabled":true,"rental_uris":{"android":"levelo://app?vid=8c1e28b4-904f-48d7-ba6d-d3b5b5d05922","ios":"levelo://app?vid=8c1e28b4-904f-48d7-ba6d-d3b5b5d05922"},"vehicle_type_id":"4","last_reported":1733411401,"current_range_meters":34800,"station_id":"ce4bh312rcd13ifvqdk0","pricing_plan_id":"cebpf4jnsgd1na2vs0mg"},{"bike_id":"cd18f8b5-8a45-4462-81aa-3ec8754838d3","system_id":"levelo_inurba_marseille","lat":43.29281,"lon":5.40119,"is_reserved":false,"is_disabled":false,"rental_uris":{"android":"levelo://app?vid=cd18f8b5-8a45-4462-81aa-3ec8754838d3","ios":"levelo://app?vid=cd18f8b5-8a45-4462-81aa-3ec8754838d3"},"vehicle_type_id":"4","last_reported":1733411401,"current_range_meters":35600,"station_id":"ce4bh312rcd13ifvqdk0","pricing_plan_id":"cebpf4jnsgd1na2vs0mg"},{"bike_id":"8c5ec253-0fb0-4867-bdb9-80f9f9780a61","system_id":"levelo_inurba_marseille","lat":43.28742,"lon":5.37946,"is_reserved":false,"is_disabled":false,"rental_uris":{"android":"levelo://app?vid=8c5ec253-0fb0-4867-bdb9-80f9f9780a61","ios":"levelo://app?vid=8c5ec253-0fb0-4867-bdb9-80f9f9780a61"},"vehicle_type_id":"4","last_reported":1733411401,"current_range_meters":12800,"station_id":"ce4bh9p2rcd13ifvqec0","pricing_plan_id":"cebpf4jnsgd1na2vs0mg"},{"bike_id":"1d9a4b4c-056a-4257-82be-cdf0089ad0fc","system_id":"levelo_inurba_marseille","lat":43.26943,"lon":5.40254,"is_reserved":false,"is_disabled":false,"rental_uris":{"android":"levelo://app?vid=1d9a4b4c-056a-4257-82be-cdf0089ad0fc","ios":"levelo://app?vid=1d9a4b4c-056a-4257-82be-cdf0089ad0fc"},"vehicle_type_id":"4","last_reported":1733411401,"current_range_meters":38800,"station_id":"cjm6bp8fraef2m0cb0m0","pricing_plan_id":"cebpf4jnsgd1na2vs0mg"},{"bike_id":"010f1ddc-a5dd-4595-9905-ebf82317a65f","system_id":"levelo_inurba_marseille","lat":43.33029,"lon":5.39052,"is_reserved":false,"is_disabled":false,"rental_uris":{"android":"levelo://app?vid=010f1ddc-a5dd-4595-9905-ebf82317a65f","ios":"levelo://app?vid=010f1ddc-a5dd-4595-9905-ebf82317a65f"},"vehicle_type_id":"4","last_reported":1733411401,"current_range_meters":38800,"station_id":"ce4bhr92rcd13ifvqhrg","pricing_plan_id":"cebpf4jnsgd1na2vs0mg"},{"bike_id":"27c28732-8864-42aa-ad2a-eb132bf8af3c","system_id":"levelo_inurba_marseille","lat":43.2512,"lon":5.40321,"is_reserved":false,"is_disabled":false,"rental_uris":{"android":"levelo://app?vid=27c28732-8864-42aa-ad2a-eb132bf8af3c","ios":"levelo://app?vid=27c28732-8864-42aa-ad2a-eb132bf8af3c"},"vehicle_type_id":"4","last_reported":1733411401,"current_range_meters":28400,"station_id":"ce4bhlh2rcd13ifvqgig","pricing_plan_id":"cebpf4jnsgd1na2vs0mg"},{"bike_id":"28bab570-bdc1-468d-96dd-acdf4af145b4","system_id":"levelo_inurba_marseille","lat":43.27898,"lon":5.3801,"is_reserved":false,"is_disabled":false,"rental_uris":{"android":"levelo://app?vid=28bab570-bdc1-468d-96dd-acdf4af145b4","ios":"levelo://app?vid=28bab570-bdc1-468d-96dd-acdf4af145b4"},"vehicle_type_id":"4","last_reported":1733411401,"current_range_meters":36000,"station_id":"ce4bhf92rcd13ifvqf50","pricing_plan_id":"cebpf4jnsgd1na2vs0mg"},{"bike_id":"0ac04cca-6098-4356-8d64-b468a7e92f43","system_id":"levelo_inurba_marseille","lat":43.28422,"lon":5.34982,"is_reserved":false,"is_disabled":false,"rental_uris":{"android":"levelo://app?vid=0ac04cca-6098-4356-8d64-b468a7e92f43","ios":"levelo://app?vid=0ac04cca-6098-4356-8d64-b468a7e92f43"},"vehicle_type_id":"4","last_reported":1733411401,"current_range_meters":8400,"station_id":"ce4bhbh2rcd13ifvqepg","pricing_plan_id":"cebpf4jnsgd1na2vs0mg"},{"bike_id":"14757c55-869a-4b0b-afac-0faeea29372b","system_id":"levelo_inurba_marseille","lat":43.330292,"lon":5.390349,"is_reserved":false,"is_disabled":false,"rental_uris":{"android":"levelo://app?vid=14757c55-869a-4b0b-afac-0faeea29372b","ios":"levelo://app?vid=14757c55-869a-4b0b-afac-0faeea29372b"},"vehicle_type_id":"4","last_reported":1733411401,"current_range_meters":38800,"station_id":"ce4bhr92rcd13ifvqhrg","pricing_plan_id":"cebpf4jnsgd1na2vs0mg"},{"bike_id":"79c4f90f-4380-411f-9a38-4dd6328e931f","system_id":"levelo_inurba_marseille","lat":43.2792,"lon":5.39576,"is_reserved":false,"is_disabled":false,"rental_uris":{"android":"levelo://app?vid=79c4f90f-4380-411f-9a38-4dd6328e931f","ios":"levelo://app?vid=79c4f90f-4380-411f-9a38-4dd6328e931f"},"vehicle_type_id":"4","last_reported":1733411401,"current_range_meters":10800,"station_id":"ce4bhf92rcd13ifvqf40","pricing_plan_id":"cebpf4jnsgd1na2vs0mg"},{"bike_id":"27d53372-b7b2-4ff7-bf50-eeabb54e51cf","system_id":"levelo_inurba_marseille","lat":43.29061,"lon":5.37172,"is_reserved":false,"is_disabled":false,"rental_uris":{"android":"levelo://app?vid=27d53372-b7b2-4ff7-bf50-eeabb54e51cf","ios":"levelo://app?vid=27d53372-b7b2-4ff7-bf50-eeabb54e51cf"},"vehicle_type_id":"4","last_reported":1733411401,"current_range_meters":4000,"station_id":"ce4bh5p2rcd13ifvqe4g","pricing_plan_id":"cebpf4jnsgd1na2vs0mg"},{"bike_id":"3e592e74-64b6-427b-a9f3-9c85b0d07de7","system_id":"levelo_inurba_marseille","lat":43.23191,"lon":5.40005,"is_reserved":false,"is_disabled":false,"rental_uris":{"android":"levelo://app?vid=3e592e74-64b6-427b-a9f3-9c85b0d07de7","ios":"levelo://app?vid=3e592e74-64b6-427b-a9f3-9c85b0d07de7"},"vehicle_type_id":"4","last_reported":1733411401,"current_range_meters":28800,"station_id":"ce4bhn12rcd13ifvqgqg","pricing_plan_id":"cebpf4jnsgd1na2vs0mg"},{"bike_id":"75a777ef-92fc-4c24-b09b-c5646e5f12a4","system_id":"levelo_inurba_marseille","lat":43.28435,"lon":5.39176,"is_reserved":false,"is_disabled":false,"rental_uris":{"android":"levelo://app?vid=75a777ef-92fc-4c24-b09b-c5646e5f12a4","ios":"levelo://app?vid=75a777ef-92fc-4c24-b09b-c5646e5f12a4"},"vehicle_type_id":"4","last_reported":1733411401,"current_range_meters":800,"station_id":"ce4bhoh2rcd13ifvqh5g","pricing_plan_id":"cebpf4jnsgd1na2vs0mg"},{"bike_id":"d63696b7-a311-4467-ac5d-08bf3f7fcfa3","system_id":"levelo_inurba_marseille","lat":43.30449,"lon":5.39771,"is_reserved":false,"is_disabled":false,"rental_uris":{"android":"levelo://app?vid=d63696b7-a311-4467-ac5d-08bf3f7fcfa3","ios":"levelo://app?vid=d63696b7-a311-4467-ac5d-08bf3f7fcfa3"},"vehicle_type_id":"4","last_reported":1733411401,"current_range_meters":38800,"station_id":"ce4bh092rcd13ifvqd20","pricing_plan_id":"cebpf4jnsgd1na2vs0mg"},{"bike_id":"704edf0a-9774-4ca2-8fd4-44a2b86045e9","system_id":"levelo_inurba_marseille","lat":43.27382,"lon":5.36266,"is_reserved":false,"is_disabled":false,"rental_uris":{"android":"levelo://app?vid=704edf0a-9774-4ca2-8fd4-44a2b86045e9","ios":"levelo://app?vid=704edf0a-9774-4ca2-8fd4-44a2b86045e9"},"vehicle_type_id":"4","last_reported":1733411401,"current_range_meters":18800,"station_id":"ce4bhbh2rcd13ifvqeo0","pricing_plan_id":"cebpf4jnsgd1na2vs0mg"},{"bike_id":"6cbba370-4cb2-4753-957d-8c3113d16189","system_id":"levelo_inurba_marseille","lat":43.32484,"lon":5.3656,"is_reserved":false,"is_disabled":false,"rental_uris":{"android":"levelo://app?vid=6cbba370-4cb2-4753-957d-8c3113d16189","ios":"levelo://app?vid=6cbba370-4cb2-4753-957d-8c3113d16189"},"vehicle_type_id":"4","last_reported":1733411401,"current_range_meters":38800,"station_id":"ce4bhs12rcd13ifvqhvg","pricing_plan_id":"cebpf4jnsgd1na2vs0mg"},{"bike_id":"a4b9e425-64b8-4ce2-a5ab-5fcc5d1230a4","system_id":"levelo_inurba_marseille","lat":43.32104,"lon":5.3678,"is_reserved":false,"is_disabled":false,"rental_uris":{"android":"levelo://app?vid=a4b9e425-64b8-4ce2-a5ab-5fcc5d1230a4","ios":"levelo://app?vid=a4b9e425-64b8-4ce2-a5ab-5fcc5d1230a4"},"vehicle_type_id":"4","last_reported":1733411401,"current_range_meters":36000,"station_id":"ce4bhrh2rcd13ifvqhug","pricing_plan_id":"cebpf4jnsgd1na2vs0mg"},{"bike_id":"fd98eaa9-4d55-4e7b-aa90-0d14707466d9","system_id":"levelo_inurba_marseille","lat":43.337444,"lon":5.374475,"is_reserved":false,"is_disabled":true,"rental_uris":{"android":"levelo://app?vid=fd98eaa9-4d55-4e7b-aa90-0d14707466d9","ios":"levelo://app?vid=fd98eaa9-4d55-4e7b-aa90-0d14707466d9"},"vehicle_type_id":"4","last_reported":1733411401,"current_range_meters":0,"station_id":"","pricing_plan_id":"cebpf4jnsgd1na2vs0mg"},{"bike_id":"5b103fd6-7920-4475-ac5f-a0eec3bddf23","system_id":"levelo_inurba_marseille","lat":43.30329,"lon":5.40432,"is_reserved":false,"is_disabled":false,"rental_uris":{"android":"levelo://app?vid=5b103fd6-7920-4475-ac5f-a0eec3bddf23","ios":"levelo://app?vid=5b103fd6-7920-4475-ac5f-a0eec3bddf23"},"vehicle_type_id":"4","last_reported":1733411401,"current_range_meters":38000,"station_id":"ce4bh012rcd13ifvqd10","pricing_plan_id":"cebpf4jnsgd1na2vs0mg"},{"bike_id":"7739e7e5-bcce-43a6-9d41-f90a9ba836ed","system_id":"levelo_inurba_marseille","lat":43.29605,"lon":5.38108,"is_reserved":false,"is_disabled":true,"rental_uris":{"android":"levelo://app?vid=7739e7e5-bcce-43a6-9d41-f90a9ba836ed","ios":"levelo://app?vid=7739e7e5-bcce-43a6-9d41-f90a9ba836ed"},"vehicle_type_id":"4","last_reported":1733411401,"current_range_meters":36000,"station_id":"ce4bgl12rcd13ifvqbo0","pricing_plan_id":"cebpf4jnsgd1na2vs0mg"},{"bike_id":"e25dc6e3-1f83-4e32-ad60-7f8ea4cb5b47","system_id":"levelo_inurba_marseille","lat":43.29794,"lon":5.39351,"is_reserved":false,"is_disabled":true,"rental_uris":{"android":"levelo://app?vid=e25dc6e3-1f83-4e32-ad60-7f8ea4cb5b47","ios":"levelo://app?vid=e25dc6e3-1f83-4e32-ad60-7f8ea4cb5b47"},"vehicle_type_id":"4","last_reported":1733411401,"current_range_meters":0,"station_id":"chh1huq6cuj3fo74tm60","pricing_plan_id":"cebpf4jnsgd1na2vs0mg"},{"bike_id":"9f166179-3cc0-42ca-860b-06242525cca2","system_id":"levelo_inurba_marseille","lat":43.32,"lon":5.4157,"is_reserved":false,"is_disabled":false,"rental_uris":{"android":"levelo://app?vid=9f166179-3cc0-42ca-860b-06242525cca2","ios":"levelo://app?vid=9f166179-3cc0-42ca-860b-06242525cca2"},"vehicle_type_id":"4","last_reported":1733411401,"current_range_meters":33600,"station_id":"ce4bhq92rcd13ifvqhkg","pricing_plan_id":"cebpf4jnsgd1na2vs0mg"},{"bike_id":"cbf578cc-cc2f-4189-9de2-b212a0c21f11","system_id":"levelo_inurba_marseille","lat":43.29463,"lon":5.39046,"is_reserved":false,"is_disabled":false,"rental_uris":{"android":"levelo://app?vid=cbf578cc-cc2f-4189-9de2-b212a0c21f11","ios":"levelo://app?vid=cbf578cc-cc2f-4189-9de2-b212a0c21f11"},"vehicle_type_id":"4","last_reported":1733411401,"current_range_meters":24400,"station_id":"","pricing_plan_id":"cebpf4jnsgd1na2vs0mg"},{"bike_id":"c2d8a1c2-d166-4a36-b32f-beec95c93bd5","system_id":"levelo_inurba_marseille","lat":43.33756,"lon":5.37459,"is_reserved":false,"is_disabled":false,"rental_uris":{"android":"levelo://app?vid=c2d8a1c2-d166-4a36-b32f-beec95c93bd5","ios":"levelo://app?vid=c2d8a1c2-d166-4a36-b32f-beec95c93bd5"},"vehicle_type_id":"4","last_reported":1733411401,"current_range_meters":8800,"station_id":"","pricing_plan_id":"cebpf4jnsgd1na2vs0mg"},{"bike_id":"37d8295a-5ca3-485d-9b20-b0ca929d7974","system_id":"levelo_inurba_marseille","lat":43.28554,"lon":5.39485,"is_reserved":false,"is_disabled":false,"rental_uris":{"android":"levelo://app?vid=37d8295a-5ca3-485d-9b20-b0ca929d7974","ios":"levelo://app?vid=37d8295a-5ca3-485d-9b20-b0ca929d7974"},"vehicle_type_id":"4","last_reported":1733411401,"current_range_meters":38800,"station_id":"ce4bh292rcd13ifvqdg0","pricing_plan_id":"cebpf4jnsgd1na2vs0mg"},{"bike_id":"92082d8a-97f0-49a7-b8a0-486fa692acc0","system_id":"levelo_inurba_marseille","lat":43.29633,"lon":5.37728,"is_reserved":false,"is_disabled":false,"rental_uris":{"android":"levelo://app?vid=92082d8a-97f0-49a7-b8a0-486fa692acc0","ios":"levelo://app?vid=92082d8a-97f0-49a7-b8a0-486fa692acc0"},"vehicle_type_id":"4","last_reported":1733411401,"current_range_meters":38000,"station_id":"ce4bgi92rcd13ifvqb90","pricing_plan_id":"cebpf4jnsgd1na2vs0mg"},{"bike_id":"530908a1-6ad3-42d1-982f-10b39e1bf269","system_id":"levelo_inurba_marseille","lat":43.31695,"lon":5.4046,"is_reserved":false,"is_disabled":false,"rental_uris":{"android":"levelo://app?vid=530908a1-6ad3-42d1-982f-10b39e1bf269","ios":"levelo://app?vid=530908a1-6ad3-42d1-982f-10b39e1bf269"},"vehicle_type_id":"4","last_reported":1733411401,"current_range_meters":18800,"station_id":"ce4bh012rcd13ifvqd00","pricing_plan_id":"cebpf4jnsgd1na2vs0mg"},{"bike_id":"35a4be8c-29e0-4025-925f-11c47636baaa","system_id":"levelo_inurba_marseille","lat":43.27904,"lon":5.38008,"is_reserved":false,"is_disabled":false,"rental_uris":{"android":"levelo://app?vid=35a4be8c-29e0-4025-925f-11c47636baaa","ios":"levelo://app?vid=35a4be8c-29e0-4025-925f-11c47636baaa"},"vehicle_type_id":"4","last_reported":1733411401,"current_range_meters":28800,"station_id":"ce4bhf92rcd13ifvqf50","pricing_plan_id":"cebpf4jnsgd1na2vs0mg"},{"bike_id":"5605d362-7a6b-439d-b82f-b1eebcb406f8","system_id":"levelo_inurba_marseille","lat":43.26686,"lon":5.38271,"is_reserved":false,"is_disabled":false,"rental_uris":{"android":"levelo://app?vid=5605d362-7a6b-439d-b82f-b1eebcb406f8","ios":"levelo://app?vid=5605d362-7a6b-439d-b82f-b1eebcb406f8"},"vehicle_type_id":"4","last_reported":1733411401,"current_range_meters":38800,"station_id":"ce4bhg92rcd13ifvqf90","pricing_plan_id":"cebpf4jnsgd1na2vs0mg"},{"bike_id":"89f2c213-f91c-4014-95f9-43fa31a22420","system_id":"levelo_inurba_marseille","lat":43.2704,"lon":5.40271,"is_reserved":false,"is_disabled":false,"rental_uris":{"android":"levelo://app?vid=89f2c213-f91c-4014-95f9-43fa31a22420","ios":"levelo://app?vid=89f2c213-f91c-4014-95f9-43fa31a22420"},"vehicle_type_id":"4","last_reported":1733411401,"current_range_meters":36000,"station_id":"ce4bhk92rcd13ifvqgc0","pricing_plan_id":"cebpf4jnsgd1na2vs0mg"},{"bike_id":"dce35d6a-08b0-4b4c-b89b-7b5e69e85874","system_id":"levelo_inurba_marseille","lat":43.32476,"lon":5.36563,"is_reserved":false,"is_disabled":false,"rental_uris":{"android":"levelo://app?vid=dce35d6a-08b0-4b4c-b89b-7b5e69e85874","ios":"levelo://app?vid=dce35d6a-08b0-4b4c-b89b-7b5e69e85874"},"vehicle_type_id":"4","last_reported":1733411401,"current_range_meters":10000,"station_id":"ce4bhs12rcd13ifvqhvg","pricing_plan_id":"cebpf4jnsgd1na2vs0mg"},{"bike_id":"37727576-2d28-4525-b065-40affdaee0f8","system_id":"levelo_inurba_marseille","lat":43.32369,"lon":5.38881,"is_reserved":false,"is_disabled":false,"rental_uris":{"android":"levelo://app?vid=37727576-2d28-4525-b065-40affdaee0f8","ios":"levelo://app?vid=37727576-2d28-4525-b065-40affdaee0f8"},"vehicle_type_id":"4","last_reported":1733411401,"current_range_meters":38800,"station_id":"ce4bhqp2rcd13ifvqhog","pricing_plan_id":"cebpf4jnsgd1na2vs0mg"},{"bike_id":"737bdef3-e4f9-4d42-9b3b-45164c8dc58f","system_id":"levelo_inurba_marseille","lat":43.24094,"lon":5.37723,"is_reserved":false,"is_disabled":true,"rental_uris":{"android":"levelo://app?vid=737bdef3-e4f9-4d42-9b3b-45164c8dc58f","ios":"levelo://app?vid=737bdef3-e4f9-4d42-9b3b-45164c8dc58f"},"vehicle_type_id":"4","last_reported":1733411401,"current_range_meters":12400,"station_id":"ce4bhnp2rcd13ifvqgvg","pricing_plan_id":"cebpf4jnsgd1na2vs0mg"},{"bike_id":"7d17b023-36ab-4c61-a766-3d7376951ed8","system_id":"levelo_inurba_marseille","lat":43.25497,"lon":5.37644,"is_reserved":false,"is_disabled":false,"rental_uris":{"android":"levelo://app?vid=7d17b023-36ab-4c61-a766-3d7376951ed8","ios":"levelo://app?vid=7d17b023-36ab-4c61-a766-3d7376951ed8"},"vehicle_type_id":"4","last_reported":1733411401,"current_range_meters":28000,"station_id":"ce4bhh12rcd13ifvqff0","pricing_plan_id":"cebpf4jnsgd1na2vs0mg"},{"bike_id":"220b08fe-d754-47ef-8480-f3b4bbcc4a78","system_id":"levelo_inurba_marseille","lat":43.28038,"lon":5.36962,"is_reserved":false,"is_disabled":false,"rental_uris":{"android":"levelo://app?vid=220b08fe-d754-47ef-8480-f3b4bbcc4a78","ios":"levelo://app?vid=220b08fe-d754-47ef-8480-f3b4bbcc4a78"},"vehicle_type_id":"4","last_reported":1733411401,"current_range_meters":27200,"station_id":"ce4bha12rcd13ifvqef0","pricing_plan_id":"cebpf4jnsgd1na2vs0mg"},{"bike_id":"bd019733-b285-43d6-9d13-b5c534a12ecb","system_id":"levelo_inurba_marseille","lat":43.30496,"lon":5.37373,"is_reserved":false,"is_disabled":false,"rental_uris":{"android":"levelo://app?vid=bd019733-b285-43d6-9d13-b5c534a12ecb","ios":"levelo://app?vid=bd019733-b285-43d6-9d13-b5c534a12ecb"},"vehicle_type_id":"4","last_reported":1733411401,"current_range_meters":6400,"station_id":"","pricing_plan_id":"cebpf4jnsgd1na2vs0mg"},{"bike_id":"e226538b-2fc4-424c-82b4-171da8c7f5a4","system_id":"levelo_inurba_marseille","lat":43.297794,"lon":5.393293,"is_reserved":false,"is_disabled":false,"rental_uris":{"android":"levelo://app?vid=e226538b-2fc4-424c-82b4-171da8c7f5a4","ios":"levelo://app?vid=e226538b-2fc4-424c-82b4-171da8c7f5a4"},"vehicle_type_id":"4","last_reported":1733411401,"current_range_meters":36800,"station_id":"chh1huq6cuj3fo74tm60","pricing_plan_id":"cebpf4jnsgd1na2vs0mg"},{"bike_id":"450f6500-945d-4d93-b2a3-570933aade1f","system_id":"levelo_inurba_marseille","lat":43.29018,"lon":5.3813,"is_reserved":false,"is_disabled":false,"rental_uris":{"android":"levelo://app?vid=450f6500-945d-4d93-b2a3-570933aade1f","ios":"levelo://app?vid=450f6500-945d-4d93-b2a3-570933aade1f"},"vehicle_type_id":"4","last_reported":1733411401,"current_range_meters":38400,"station_id":"ce4bh4p2rcd13ifvqe1g","pricing_plan_id":"cebpf4jnsgd1na2vs0mg"},{"bike_id":"97697ece-320c-4aaf-97ae-7ee094a77b54","system_id":"levelo_inurba_marseille","lat":43.25944,"lon":5.40903,"is_reserved":false,"is_disabled":false,"rental_uris":{"android":"levelo://app?vid=97697ece-320c-4aaf-97ae-7ee094a77b54","ios":"levelo://app?vid=97697ece-320c-4aaf-97ae-7ee094a77b54"},"vehicle_type_id":"4","last_reported":1733411401,"current_range_meters":4400,"station_id":"ce4bhm92rcd13ifvqglg","pricing_plan_id":"cebpf4jnsgd1na2vs0mg"},{"bike_id":"04b05fa9-702b-4d56-91ab-e64e1006fa16","system_id":"levelo_inurba_marseille","lat":43.29971,"lon":5.38497,"is_reserved":false,"is_disabled":false,"rental_uris":{"android":"levelo://app?vid=04b05fa9-702b-4d56-91ab-e64e1006fa16","ios":"levelo://app?vid=04b05fa9-702b-4d56-91ab-e64e1006fa16"},"vehicle_type_id":"4","last_reported":1733411401,"current_range_meters":8800,"station_id":"ce4bgj92rcd13ifvqbd0","pricing_plan_id":"cebpf4jnsgd1na2vs0mg"},{"bike_id":"55993fce-6a3c-4944-b365-61e19c6fe4f5","system_id":"levelo_inurba_marseille","lat":43.337444,"lon":5.374475,"is_reserved":false,"is_disabled":false,"rental_uris":{"android":"levelo://app?vid=55993fce-6a3c-4944-b365-61e19c6fe4f5","ios":"levelo://app?vid=55993fce-6a3c-4944-b365-61e19c6fe4f5"},"vehicle_type_id":"4","last_reported":1733411401,"current_range_meters":10800,"station_id":"ce4bhh12rcd13ifvqff0","pricing_plan_id":"cebpf4jnsgd1na2vs0mg"},{"bike_id":"21c61b3f-2ae1-41ed-96e8-21fc1b01a387","system_id":"levelo_inurba_marseille","lat":43.30125,"lon":5.37246,"is_reserved":false,"is_disabled":false,"rental_uris":{"android":"levelo://app?vid=21c61b3f-2ae1-41ed-96e8-21fc1b01a387","ios":"levelo://app?vid=21c61b3f-2ae1-41ed-96e8-21fc1b01a387"},"vehicle_type_id":"4","last_reported":1733411401,"current_range_meters":16000,"station_id":"","pricing_plan_id":"cebpf4jnsgd1na2vs0mg"},{"bike_id":"b48c3bbb-c47e-4553-9a31-654beef93043","system_id":"levelo_inurba_marseille","lat":43.24391,"lon":5.37064,"is_reserved":false,"is_disabled":false,"rental_uris":{"android":"levelo://app?vid=b48c3bbb-c47e-4553-9a31-654beef93043","ios":"levelo://app?vid=b48c3bbb-c47e-4553-9a31-654beef93043"},"vehicle_type_id":"4","last_reported":1733411401,"current_range_meters":24000,"station_id":"ce4bhhh2rcd13ifvqfk0","pricing_plan_id":"cebpf4jnsgd1na2vs0mg"},{"bike_id":"a973a091-189e-4ef9-b649-e80f0be35396","system_id":"levelo_inurba_marseille","lat":43.33762,"lon":5.37449,"is_reserved":false,"is_disabled":false,"rental_uris":{"android":"levelo://app?vid=a973a091-189e-4ef9-b649-e80f0be35396","ios":"levelo://app?vid=a973a091-189e-4ef9-b649-e80f0be35396"},"vehicle_type_id":"4","last_reported":1733411401,"current_range_meters":34800,"station_id":"","pricing_plan_id":"cebpf4jnsgd1na2vs0mg"},{"bike_id":"3a9149f3-357c-4d0a-859b-18382ef024a5","system_id":"levelo_inurba_marseille","lat":43.32112,"lon":5.36769,"is_reserved":false,"is_disabled":false,"rental_uris":{"android":"levelo://app?vid=3a9149f3-357c-4d0a-859b-18382ef024a5","ios":"levelo://app?vid=3a9149f3-357c-4d0a-859b-18382ef024a5"},"vehicle_type_id":"4","last_reported":1733411401,"current_range_meters":24000,"station_id":"ce4bhrh2rcd13ifvqhug","pricing_plan_id":"cebpf4jnsgd1na2vs0mg"},{"bike_id":"bbcbfa71-d8f5-4b8e-9040-d67356b9ece4","system_id":"levelo_inurba_marseille","lat":43.31358,"lon":5.385,"is_reserved":false,"is_disabled":true,"rental_uris":{"android":"levelo://app?vid=bbcbfa71-d8f5-4b8e-9040-d67356b9ece4","ios":"levelo://app?vid=bbcbfa71-d8f5-4b8e-9040-d67356b9ece4"},"vehicle_type_id":"4","last_reported":1733411401,"current_range_meters":10000,"station_id":"ce4bgt92rcd13ifvqcf0","pricing_plan_id":"cebpf4jnsgd1na2vs0mg"},{"bike_id":"2b31ee04-854c-494a-96a0-3d7d5ff4c4dc","system_id":"levelo_inurba_marseille","lat":43.2923,"lon":5.36071,"is_reserved":false,"is_disabled":false,"rental_uris":{"android":"levelo://app?vid=2b31ee04-854c-494a-96a0-3d7d5ff4c4dc","ios":"levelo://app?vid=2b31ee04-854c-494a-96a0-3d7d5ff4c4dc"},"vehicle_type_id":"4","last_reported":1733411401,"current_range_meters":37600,"station_id":"ce4bhbh2rcd13ifvqeqg","pricing_plan_id":"cebpf4jnsgd1na2vs0mg"},{"bike_id":"e9173a2f-d190-4567-a5b0-3b3d7626fee8","system_id":"levelo_inurba_marseille","lat":43.2962,"lon":5.37155,"is_reserved":false,"is_disabled":false,"rental_uris":{"android":"levelo://app?vid=e9173a2f-d190-4567-a5b0-3b3d7626fee8","ios":"levelo://app?vid=e9173a2f-d190-4567-a5b0-3b3d7626fee8"},"vehicle_type_id":"4","last_reported":1733411401,"current_range_meters":30800,"station_id":"ce4bgnh2rcd13ifvqc0g","pricing_plan_id":"cebpf4jnsgd1na2vs0mg"},{"bike_id":"721f5feb-b378-4dac-af39-7801c98d73b6","system_id":"levelo_inurba_marseille","lat":43.3016,"lon":5.38096,"is_reserved":false,"is_disabled":true,"rental_uris":{"android":"levelo://app?vid=721f5feb-b378-4dac-af39-7801c98d73b6","ios":"levelo://app?vid=721f5feb-b378-4dac-af39-7801c98d73b6"},"vehicle_type_id":"4","last_reported":1733411401,"current_range_meters":0,"station_id":"ce4bgjp2rcd13ifvqbh0","pricing_plan_id":"cebpf4jnsgd1na2vs0mg"},{"bike_id":"da6a7a1d-e653-4950-af8c-8137b06f7d40","system_id":"levelo_inurba_marseille","lat":43.3004,"lon":5.37551,"is_reserved":false,"is_disabled":true,"rental_uris":{"android":"levelo://app?vid=da6a7a1d-e653-4950-af8c-8137b06f7d40","ios":"levelo://app?vid=da6a7a1d-e653-4950-af8c-8137b06f7d40"},"vehicle_type_id":"4","last_reported":1733411401,"current_range_meters":0,"station_id":"","pricing_plan_id":"cebpf4jnsgd1na2vs0mg"},{"bike_id":"30325550-3818-4efa-9771-6461afc09b47","system_id":"levelo_inurba_marseille","lat":43.25937,"lon":5.40908,"is_reserved":false,"is_disabled":false,"rental_uris":{"android":"levelo://app?vid=30325550-3818-4efa-9771-6461afc09b47","ios":"levelo://app?vid=30325550-3818-4efa-9771-6461afc09b47"},"vehicle_type_id":"4","last_reported":1733411401,"current_range_meters":8400,"station_id":"ce4bhm92rcd13ifvqglg","pricing_plan_id":"cebpf4jnsgd1na2vs0mg"},{"bike_id":"9d90ec25-102d-409e-b607-d91e9ff85400","system_id":"levelo_inurba_marseille","lat":43.28352,"lon":5.38117,"is_reserved":false,"is_disabled":false,"rental_uris":{"android":"levelo://app?vid=9d90ec25-102d-409e-b607-d91e9ff85400","ios":"levelo://app?vid=9d90ec25-102d-409e-b607-d91e9ff85400"},"vehicle_type_id":"4","last_reported":1733411401,"current_range_meters":37600,"station_id":"ce4bh412rcd13ifvqdr0","pricing_plan_id":"cebpf4jnsgd1na2vs0mg"},{"bike_id":"055f094c-d378-4f0a-bb86-072811811d59","system_id":"levelo_inurba_marseille","lat":43.25955,"lon":5.40886,"is_reserved":false,"is_disabled":false,"rental_uris":{"android":"levelo://app?vid=055f094c-d378-4f0a-bb86-072811811d59","ios":"levelo://app?vid=055f094c-d378-4f0a-bb86-072811811d59"},"vehicle_type_id":"4","last_reported":1733411401,"current_range_meters":36800,"station_id":"ce4bhm92rcd13ifvqglg","pricing_plan_id":"cebpf4jnsgd1na2vs0mg"},{"bike_id":"bfa9c56b-35c4-4f99-ae49-916dce471158","system_id":"levelo_inurba_marseille","lat":43.31091,"lon":5.42433,"is_reserved":false,"is_disabled":false,"rental_uris":{"android":"levelo://app?vid=bfa9c56b-35c4-4f99-ae49-916dce471158","ios":"levelo://app?vid=bfa9c56b-35c4-4f99-ae49-916dce471158"},"vehicle_type_id":"4","last_reported":1733411401,"current_range_meters":10000,"station_id":"ce4bhp92rcd13ifvqhag","pricing_plan_id":"cebpf4jnsgd1na2vs0mg"},{"bike_id":"3565aaa5-0e96-461a-bee0-8d06de81efe3","system_id":"levelo_inurba_marseille","lat":43.29603,"lon":5.38103,"is_reserved":false,"is_disabled":false,"rental_uris":{"android":"levelo://app?vid=3565aaa5-0e96-461a-bee0-8d06de81efe3","ios":"levelo://app?vid=3565aaa5-0e96-461a-bee0-8d06de81efe3"},"vehicle_type_id":"4","last_reported":1733411401,"current_range_meters":24400,"station_id":"ce4bgl12rcd13ifvqbo0","pricing_plan_id":"cebpf4jnsgd1na2vs0mg"},{"bike_id":"3dc3bbfc-7a8e-4230-9bd4-cf0c0009f96d","system_id":"levelo_inurba_marseille","lat":43.30431,"lon":5.39746,"is_reserved":false,"is_disabled":false,"rental_uris":{"android":"levelo://app?vid=3dc3bbfc-7a8e-4230-9bd4-cf0c0009f96d","ios":"levelo://app?vid=3dc3bbfc-7a8e-4230-9bd4-cf0c0009f96d"},"vehicle_type_id":"4","last_reported":1733411401,"current_range_meters":38800,"station_id":"ce4bh092rcd13ifvqd20","pricing_plan_id":"cebpf4jnsgd1na2vs0mg"},{"bike_id":"51ce032a-8a99-4609-9244-61ceef9466c8","system_id":"levelo_inurba_marseille","lat":43.29941,"lon":5.36547,"is_reserved":false,"is_disabled":false,"rental_uris":{"android":"levelo://app?vid=51ce032a-8a99-4609-9244-61ceef9466c8","ios":"levelo://app?vid=51ce032a-8a99-4609-9244-61ceef9466c8"},"vehicle_type_id":"4","last_reported":1733411401,"current_range_meters":24000,"station_id":"ce4bgm92rcd13ifvqbr0","pricing_plan_id":"cebpf4jnsgd1na2vs0mg"},{"bike_id":"2db7f5fd-afd5-494c-99fe-e965dfdef234","system_id":"levelo_inurba_marseille","lat":43.32484,"lon":5.36574,"is_reserved":false,"is_disabled":false,"rental_uris":{"android":"levelo://app?vid=2db7f5fd-afd5-494c-99fe-e965dfdef234","ios":"levelo://app?vid=2db7f5fd-afd5-494c-99fe-e965dfdef234"},"vehicle_type_id":"4","last_reported":1733411401,"current_range_meters":37600,"station_id":"ce4bhs12rcd13ifvqhvg","pricing_plan_id":"cebpf4jnsgd1na2vs0mg"},{"bike_id":"b983f700-39e1-418f-84a3-1c3c95a84b96","system_id":"levelo_inurba_marseille","lat":43.3377,"lon":5.37465,"is_reserved":false,"is_disabled":false,"rental_uris":{"android":"levelo://app?vid=b983f700-39e1-418f-84a3-1c3c95a84b96","ios":"levelo://app?vid=b983f700-39e1-418f-84a3-1c3c95a84b96"},"vehicle_type_id":"4","last_reported":1733411401,"current_range_meters":38000,"station_id":"","pricing_plan_id":"cebpf4jnsgd1na2vs0mg"},{"bike_id":"30de221a-4ae9-44c8-af60-f5843b67f535","system_id":"levelo_inurba_marseille","lat":43.337444,"lon":5.374475,"is_reserved":false,"is_disabled":false,"rental_uris":{"android":"levelo://app?vid=30de221a-4ae9-44c8-af60-f5843b67f535","ios":"levelo://app?vid=30de221a-4ae9-44c8-af60-f5843b67f535"},"vehicle_type_id":"4","last_reported":1733411401,"current_range_meters":38000,"station_id":"","pricing_plan_id":"cebpf4jnsgd1na2vs0mg"},{"bike_id":"36586262-6f5a-4a0a-8533-73a20a5b43b8","system_id":"levelo_inurba_marseille","lat":43.25118,"lon":5.40325,"is_reserved":false,"is_disabled":false,"rental_uris":{"android":"levelo://app?vid=36586262-6f5a-4a0a-8533-73a20a5b43b8","ios":"levelo://app?vid=36586262-6f5a-4a0a-8533-73a20a5b43b8"},"vehicle_type_id":"4","last_reported":1733411401,"current_range_meters":34000,"station_id":"ce4bhlh2rcd13ifvqgig","pricing_plan_id":"cebpf4jnsgd1na2vs0mg"},{"bike_id":"7554aeb7-4805-4ba2-830a-7ea67d5a0fd1","system_id":"levelo_inurba_marseille","lat":43.27585,"lon":5.38414,"is_reserved":false,"is_disabled":false,"rental_uris":{"android":"levelo://app?vid=7554aeb7-4805-4ba2-830a-7ea67d5a0fd1","ios":"levelo://app?vid=7554aeb7-4805-4ba2-830a-7ea67d5a0fd1"},"vehicle_type_id":"4","last_reported":1733411401,"current_range_meters":12000,"station_id":"ce4bhh92rcd13ifvqfi0","pricing_plan_id":"cebpf4jnsgd1na2vs0mg"},{"bike_id":"795d32a5-a428-423c-a523-bd980e7834c3","system_id":"levelo_inurba_marseille","lat":43.31356,"lon":5.36703,"is_reserved":false,"is_disabled":false,"rental_uris":{"android":"levelo://app?vid=795d32a5-a428-423c-a523-bd980e7834c3","ios":"levelo://app?vid=795d32a5-a428-423c-a523-bd980e7834c3"},"vehicle_type_id":"4","last_reported":1733411401,"current_range_meters":28800,"station_id":"ce4bgr92rcd13ifvqc6g","pricing_plan_id":"cebpf4jnsgd1na2vs0mg"},{"bike_id":"5ee984fd-ad4a-4905-a134-6c56ecba5028","system_id":"levelo_inurba_marseille","lat":43.32483,"lon":5.36587,"is_reserved":false,"is_disabled":false,"rental_uris":{"android":"levelo://app?vid=5ee984fd-ad4a-4905-a134-6c56ecba5028","ios":"levelo://app?vid=5ee984fd-ad4a-4905-a134-6c56ecba5028"},"vehicle_type_id":"4","last_reported":1733411401,"current_range_meters":21600,"station_id":"ce4bhs12rcd13ifvqhvg","pricing_plan_id":"cebpf4jnsgd1na2vs0mg"},{"bike_id":"7714ce30-465c-426d-9621-0f0245a19ff8","system_id":"levelo_inurba_marseille","lat":43.2718,"lon":5.41,"is_reserved":false,"is_disabled":false,"rental_uris":{"android":"levelo://app?vid=7714ce30-465c-426d-9621-0f0245a19ff8","ios":"levelo://app?vid=7714ce30-465c-426d-9621-0f0245a19ff8"},"vehicle_type_id":"4","last_reported":1733411401,"current_range_meters":26800,"station_id":"ce4bhl12rcd13ifvqgf0","pricing_plan_id":"cebpf4jnsgd1na2vs0mg"},{"bike_id":"1f45d0c2-7f68-4eed-8512-9c1dbdfb45c9","system_id":"levelo_inurba_marseille","lat":43.31486,"lon":5.37306,"is_reserved":false,"is_disabled":false,"rental_uris":{"android":"levelo://app?vid=1f45d0c2-7f68-4eed-8512-9c1dbdfb45c9","ios":"levelo://app?vid=1f45d0c2-7f68-4eed-8512-9c1dbdfb45c9"},"vehicle_type_id":"4","last_reported":1733411401,"current_range_meters":21600,"station_id":"ce4bgt12rcd13ifvqcd0","pricing_plan_id":"cebpf4jnsgd1na2vs0mg"},{"bike_id":"8c93071a-3320-40fe-8205-d5c60ca2a220","system_id":"levelo_inurba_marseille","lat":43.27564,"lon":5.38419,"is_reserved":false,"is_disabled":false,"rental_uris":{"android":"levelo://app?vid=8c93071a-3320-40fe-8205-d5c60ca2a220","ios":"levelo://app?vid=8c93071a-3320-40fe-8205-d5c60ca2a220"},"vehicle_type_id":"4","last_reported":1733411401,"current_range_meters":38400,"station_id":"ce4bhh92rcd13ifvqfi0","pricing_plan_id":"cebpf4jnsgd1na2vs0mg"},{"bike_id":"e23bf580-e13e-4799-9f3e-2860872af368","system_id":"levelo_inurba_marseille","lat":43.28861,"lon":5.35853,"is_reserved":false,"is_disabled":false,"rental_uris":{"android":"levelo://app?vid=e23bf580-e13e-4799-9f3e-2860872af368","ios":"levelo://app?vid=e23bf580-e13e-4799-9f3e-2860872af368"},"vehicle_type_id":"4","last_reported":1733411401,"current_range_meters":12000,"station_id":"ce4bhb12rcd13ifvqem0","pricing_plan_id":"cebpf4jnsgd1na2vs0mg"},{"bike_id":"914e2da6-b203-455d-bab7-6e3debbf268a","system_id":"levelo_inurba_marseille","lat":43.265574,"lon":5.372838,"is_reserved":false,"is_disabled":false,"rental_uris":{"android":"levelo://app?vid=914e2da6-b203-455d-bab7-6e3debbf268a","ios":"levelo://app?vid=914e2da6-b203-455d-bab7-6e3debbf268a"},"vehicle_type_id":"4","last_reported":1733411401,"current_range_meters":16000,"station_id":"ce4bhg12rcd13ifvqf70","pricing_plan_id":"cebpf4jnsgd1na2vs0mg"},{"bike_id":"84eba625-3bd6-465e-ade7-7dc701a08392","system_id":"levelo_inurba_marseille","lat":43.302,"lon":5.36623,"is_reserved":false,"is_disabled":false,"rental_uris":{"android":"levelo://app?vid=84eba625-3bd6-465e-ade7-7dc701a08392","ios":"levelo://app?vid=84eba625-3bd6-465e-ade7-7dc701a08392"},"vehicle_type_id":"4","last_reported":1733411401,"current_range_meters":28800,"station_id":"ce4bgrh2rcd13ifvqc8g","pricing_plan_id":"cebpf4jnsgd1na2vs0mg"},{"bike_id":"eaba7670-b58d-4da3-98e2-9aa758641e7c","system_id":"levelo_inurba_marseille","lat":43.29566,"lon":5.39961,"is_reserved":false,"is_disabled":true,"rental_uris":{"android":"levelo://app?vid=eaba7670-b58d-4da3-98e2-9aa758641e7c","ios":"levelo://app?vid=eaba7670-b58d-4da3-98e2-9aa758641e7c"},"vehicle_type_id":"4","last_reported":1733411401,"current_range_meters":0,"station_id":"ce4bh312rcd13ifvqdj0","pricing_plan_id":"cebpf4jnsgd1na2vs0mg"},{"bike_id":"2771713d-36f2-44e1-bfd1-a0898e0b5428","system_id":"levelo_inurba_marseille","lat":43.285739,"lon":5.394951,"is_reserved":false,"is_disabled":false,"rental_uris":{"android":"levelo://app?vid=2771713d-36f2-44e1-bfd1-a0898e0b5428","ios":"levelo://app?vid=2771713d-36f2-44e1-bfd1-a0898e0b5428"},"vehicle_type_id":"4","last_reported":1733411401,"current_range_meters":6800,"station_id":"ce4bh292rcd13ifvqdg0","pricing_plan_id":"cebpf4jnsgd1na2vs0mg"},{"bike_id":"a7de9e87-b975-4c9f-a9be-a0864e40c098","system_id":"levelo_inurba_marseille","lat":43.29979,"lon":5.37187,"is_reserved":false,"is_disabled":false,"rental_uris":{"android":"levelo://app?vid=a7de9e87-b975-4c9f-a9be-a0864e40c098","ios":"levelo://app?vid=a7de9e87-b975-4c9f-a9be-a0864e40c098"},"vehicle_type_id":"4","last_reported":1733411401,"current_range_meters":16000,"station_id":"ce4bgr92rcd13ifvqc7g","pricing_plan_id":"cebpf4jnsgd1na2vs0mg"},{"bike_id":"7b50f138-3d9b-4c08-ad1a-829acce15bb8","system_id":"levelo_inurba_marseille","lat":43.28003,"lon":5.40011,"is_reserved":false,"is_disabled":false,"rental_uris":{"android":"levelo://app?vid=7b50f138-3d9b-4c08-ad1a-829acce15bb8","ios":"levelo://app?vid=7b50f138-3d9b-4c08-ad1a-829acce15bb8"},"vehicle_type_id":"4","last_reported":1733411401,"current_range_meters":16000,"station_id":"ce4bho92rcd13ifvqh4g","pricing_plan_id":"cebpf4jnsgd1na2vs0mg"},{"bike_id":"faf5dc35-a04b-47bd-bd50-fbe55864b701","system_id":"levelo_inurba_marseille","lat":43.29429,"lon":5.37895,"is_reserved":false,"is_disabled":false,"rental_uris":{"android":"levelo://app?vid=faf5dc35-a04b-47bd-bd50-fbe55864b701","ios":"levelo://app?vid=faf5dc35-a04b-47bd-bd50-fbe55864b701"},"vehicle_type_id":"4","last_reported":1733411401,"current_range_meters":22400,"station_id":"ce4bgs92rcd13ifvqcc0","pricing_plan_id":"cebpf4jnsgd1na2vs0mg"},{"bike_id":"bdf41ec4-a4a1-4aac-aead-f0648e9595cc","system_id":"levelo_inurba_marseille","lat":43.30424,"lon":5.41285,"is_reserved":false,"is_disabled":false,"rental_uris":{"android":"levelo://app?vid=bdf41ec4-a4a1-4aac-aead-f0648e9595cc","ios":"levelo://app?vid=bdf41ec4-a4a1-4aac-aead-f0648e9595cc"},"vehicle_type_id":"4","last_reported":1733411401,"current_range_meters":37600,"station_id":"ce4bhop2rcd13ifvqh8g","pricing_plan_id":"cebpf4jnsgd1na2vs0mg"},{"bike_id":"be8cd377-bf58-414c-876c-45495911bc5b","system_id":"levelo_inurba_marseille","lat":43.28685,"lon":5.41077,"is_reserved":false,"is_disabled":true,"rental_uris":{"android":"levelo://app?vid=be8cd377-bf58-414c-876c-45495911bc5b","ios":"levelo://app?vid=be8cd377-bf58-414c-876c-45495911bc5b"},"vehicle_type_id":"4","last_reported":1733411401,"current_range_meters":4800,"station_id":"","pricing_plan_id":"cebpf4jnsgd1na2vs0mg"},{"bike_id":"f40b62bf-c280-4518-a3f4-b31c36526f6a","system_id":"levelo_inurba_marseille","lat":43.30788,"lon":5.37336,"is_reserved":false,"is_disabled":false,"rental_uris":{"android":"levelo://app?vid=f40b62bf-c280-4518-a3f4-b31c36526f6a","ios":"levelo://app?vid=f40b62bf-c280-4518-a3f4-b31c36526f6a"},"vehicle_type_id":"4","last_reported":1733411401,"current_range_meters":35200,"station_id":"","pricing_plan_id":"cebpf4jnsgd1na2vs0mg"},{"bike_id":"16cda22d-a315-4b28-bc5a-3ad9f2eafa22","system_id":"levelo_inurba_marseille","lat":43.23158,"lon":5.43715,"is_reserved":false,"is_disabled":false,"rental_uris":{"android":"levelo://app?vid=16cda22d-a315-4b28-bc5a-3ad9f2eafa22","ios":"levelo://app?vid=16cda22d-a315-4b28-bc5a-3ad9f2eafa22"},"vehicle_type_id":"4","last_reported":1733411401,"current_range_meters":10000,"station_id":"ce4bhmp2rcd13ifvqgog","pricing_plan_id":"cebpf4jnsgd1na2vs0mg"},{"bike_id":"0770995c-964d-42cb-80de-55f4fd5ee79a","system_id":"levelo_inurba_marseille","lat":43.337444,"lon":5.374475,"is_reserved":false,"is_disabled":false,"rental_uris":{"android":"levelo://app?vid=0770995c-964d-42cb-80de-55f4fd5ee79a","ios":"levelo://app?vid=0770995c-964d-42cb-80de-55f4fd5ee79a"},"vehicle_type_id":"4","last_reported":1733411401,"current_range_meters":22800,"station_id":"","pricing_plan_id":"cebpf4jnsgd1na2vs0mg"},{"bike_id":"20e9db8d-d68b-4418-94af-d9d63f8c2b96","system_id":"levelo_inurba_marseille","lat":43.337444,"lon":5.374475,"is_reserved":false,"is_disabled":true,"rental_uris":{"android":"levelo://app?vid=20e9db8d-d68b-4418-94af-d9d63f8c2b96","ios":"levelo://app?vid=20e9db8d-d68b-4418-94af-d9d63f8c2b96"},"vehicle_type_id":"4","last_reported":1733411401,"current_range_meters":0,"station_id":"","pricing_plan_id":"cebpf4jnsgd1na2vs0mg"},{"bike_id":"88bd4630-1684-48a2-b33a-f80d98b6825f","system_id":"levelo_inurba_marseille","lat":43.33756,"lon":5.37433,"is_reserved":false,"is_disabled":false,"rental_uris":{"android":"levelo://app?vid=88bd4630-1684-48a2-b33a-f80d98b6825f","ios":"levelo://app?vid=88bd4630-1684-48a2-b33a-f80d98b6825f"},"vehicle_type_id":"4","last_reported":1733411401,"current_range_meters":35200,"station_id":"","pricing_plan_id":"cebpf4jnsgd1na2vs0mg"},{"bike_id":"ab74d258-8d56-4ed9-9cb7-57ae1639ee73","system_id":"levelo_inurba_marseille","lat":43.26312,"lon":5.40146,"is_reserved":false,"is_disabled":true,"rental_uris":{"android":"levelo://app?vid=ab74d258-8d56-4ed9-9cb7-57ae1639ee73","ios":"levelo://app?vid=ab74d258-8d56-4ed9-9cb7-57ae1639ee73"},