{"last_updated":1727082659,"ttl":30,"version":"2.2","data":{"bikes":[{"bike_id":"f5c238ac-7405-44c2-9675-f88338a58a7a","system_id":"levelo_inurba_marseille","lat":43.30469,"lon":5.37907,"is_reserved":false,"is_disabled":false,"rental_uris":{"android":"levelo://app?vid=f5c238ac-7405-44c2-9675-f88338a58a7a","ios":"levelo://app?vid=f5c238ac-7405-44c2-9675-f88338a58a7a"},"vehicle_type_id":"4","last_reported":1727082659,"current_range_meters":39200,"station_id":"ce4bgup2rcd13ifvqcn0","pricing_plan_id":"cebpf4jnsgd1na2vs0mg"},{"bike_id":"6eb7f531-9740-4e0f-b657-d61ca2788893","system_id":"levelo_inurba_marseille","lat":43.27495,"lon":5.42467,"is_reserved":false,"is_disabled":false,"rental_uris":{"android":"levelo://app?vid=6eb7f531-9740-4e0f-b657-d61ca2788893","ios":"levelo://app?vid=6eb7f531-9740-4e0f-b657-d61ca2788893"},"vehicle_type_id":"4","last_reported":1727082659,"current_range_meters":9600,"station_id":"ce4bhn92rcd13ifvqgrg","pricing_plan_id":"cebpf4jnsgd1na2vs0mg"},{"bike_id":"aff0c6cb-554e-4b16-8e39-06587389be86","system_id":"levelo_inurba_marseille","lat":43.30478,"lon":5.37903,"is_reserved":false,"is_disabled":false,"rental_uris":{"android":"levelo://app?vid=aff0c6cb-554e-4b16-8e39-06587389be86","ios":"levelo://app?vid=aff0c6cb-554e-4b16-8e39-06587389be86"},"vehicle_type_id":"4","last_reported":1727082659,"current_range_meters":38800,"station_id":"ce4bgup2rcd13ifvqcn0","pricing_plan_id":"cebpf4jnsgd1na2vs0mg"},{"bike_id":"c3092ca8-ae64-4d17-8b92-19e1ce991720","system_id":"levelo_inurba_marseille","lat":43.26063,"lon":5.39393,"is_reserved":false,"is_disabled":false,"rental_uris":{"android":"levelo://app?vid=c3092ca8-ae64-4d17-8b92-19e1ce991720","ios":"levelo://app?vid=c3092ca8-ae64-4d17-8b92-19e1ce991720"},"vehicle_type_id":"4","last_reported":1727082659,"current_range_meters":28800,"station_id":"ce4bhh92rcd13ifvqfj0","pricing_plan_id":"cebpf4jnsgd1na2vs0mg"},{"bike_id":"2b4e9e8e-e7fa-4b3e-a314-0d1f4bf6b13a","system_id":"levelo_inurba_marseille","lat":43.33754,"lon":5.37454,"is_reserved":false,"is_disabled":false,"rental_uris":{"android":"levelo://app?vid=2b4e9e8e-e7fa-4b3e-a314-0d1f4bf6b13a","ios":"levelo://app?vid=2b4e9e8e-e7fa-4b3e-a314-0d1f4bf6b13a"},"vehicle_type_id":"4","last_reported":1727082659,"current_range_meters":23200,"station_id":"","pricing_plan_id":"cebpf4jnsgd1na2vs0mg"},{"bike_id":"b95d69b8-f5fc-4845-b8f4-ce215b06664a","system_id":"levelo_inurba_marseille","lat":43.30949,"lon":5.39043,"is_reserved":false,"is_disabled":false,"rental_uris":{"android":"levelo://app?vid=b95d69b8-f5fc-4845-b8f4-ce215b06664a","ios":"levelo://app?vid=b95d69b8-f5fc-4845-b8f4-ce215b06664a"},"vehicle_type_id":"4","last_reported":1727082659,"current_range_meters":9200,"station_id":"ce4bgup2rcd13ifvqco0","pricing_plan_id":"cebpf4jnsgd1na2vs0mg"},{"bike_id":"caa858ae-aae0-431c-9f2e-117255e96f96","system_id":"levelo_inurba_marseille","lat":43.2594,"lon":5.4091,"is_reserved":false,"is_disabled":false,"rental_uris":{"android":"levelo://app?vid=caa858ae-aae0-431c-9f2e-117255e96f96","ios":"levelo://app?vid=caa858ae-aae0-431c-9f2e-117255e96f96"},"vehicle_type_id":"4","last_reported":1727082659,"current_range_meters":30000,"station_id":"ce4bhm92rcd13ifvqglg","pricing_plan_id":"cebpf4jnsgd1na2vs0mg"},{"bike_id":"184b35f6-f4a6-413f-818e-4fcb736211a1","system_id":"levelo_inurba_marseille","lat":43.32656,"lon":5.41001,"is_reserved":false,"is_disabled":false,"rental_uris":{"android":"levelo://app?vid=184b35f6-f4a6-413f-818e-4fcb736211a1","ios":"levelo://app?vid=184b35f6-f4a6-413f-818e-4fcb736211a1"},"vehicle_type_id":"4","last_reported":1727082659,"current_range_meters":28000,"station_id":"ce4bhpp2rcd13ifvqhgg","pricing_plan_id":"cebpf4jnsgd1na2vs0mg"},{"bike_id":"433b0daf-7543-4186-817f-8e74dac7e53f","system_id":"levelo_inurba_marseille","lat":43.31358,"lon":5.36704,"is_reserved":false,"is_disabled":false,"rental_uris":{"android":"levelo://app?vid=433b0daf-7543-4186-817f-8e74dac7e53f","ios":"levelo://app?vid=433b0daf-7543-4186-817f-8e74dac7e53f"},"vehicle_type_id":"4","last_reported":1727082659,"current_range_meters":30400,"station_id":"ce4bgr92rcd13ifvqc6g","pricing_plan_id":"cebpf4jnsgd1na2vs0mg"},{"bike_id":"f93783c1-483b-4be3-a13d-638761853638","system_id":"levelo_inurba_marseille","lat":43.31712,"lon":5.43707,"is_reserved":false,"is_disabled":false,"rental_uris":{"android":"levelo://app?vid=f93783c1-483b-4be3-a13d-638761853638","ios":"levelo://app?vid=f93783c1-483b-4be3-a13d-638761853638"},"vehicle_type_id":"4","last_reported":1727082659,"current_range_meters":16000,"station_id":"ce4bhp92rcd13ifvqhcg","pricing_plan_id":"cebpf4jnsgd1na2vs0mg"},{"bike_id":"526b20eb-a75f-40c5-bb76-a03dedac1a2d","system_id":"levelo_inurba_marseille","lat":43.29514,"lon":5.37512,"is_reserved":false,"is_disabled":false,"rental_uris":{"android":"levelo://app?vid=526b20eb-a75f-40c5-bb76-a03dedac1a2d","ios":"levelo://app?vid=526b20eb-a75f-40c5-bb76-a03dedac1a2d"},"vehicle_type_id":"4","last_reported":1727082659,"current_range_meters":19200,"station_id":"ce4bgkp2rcd13ifvqbmg","pricing_plan_id":"cebpf4jnsgd1na2vs0mg"},{"bike_id":"6b97b311-01f6-4da4-8541-32e924b4d4c5","system_id":"levelo_inurba_marseille","lat":43.26704,"lon":5.38257,"is_reserved":false,"is_disabled":false,"rental_uris":{"android":"levelo://app?vid=6b97b311-01f6-4da4-8541-32e924b4d4c5","ios":"levelo://app?vid=6b97b311-01f6-4da4-8541-32e924b4d4c5"},"vehicle_type_id":"4","last_reported":1727082659,"current_range_meters":38400,"station_id":"ce4bhg92rcd13ifvqf90","pricing_plan_id":"cebpf4jnsgd1na2vs0mg"},{"bike_id":"dfecea0a-0422-4bc0-a57a-bf86bc071c86","system_id":"levelo_inurba_marseille","lat":43.25933,"lon":5.40908,"is_reserved":false,"is_disabled":false,"rental_uris":{"android":"levelo://app?vid=dfecea0a-0422-4bc0-a57a-bf86bc071c86","ios":"levelo://app?vid=dfecea0a-0422-4bc0-a57a-bf86bc071c86"},"vehicle_type_id":"4","last_reported":1727082659,"current_range_meters":24800,"station_id":"ce4bhm92rcd13ifvqglg","pricing_plan_id":"cebpf4jnsgd1na2vs0mg"},{"bike_id":"a1df6bef-8573-4247-ad4b-de77871636bc","system_id":"levelo_inurba_marseille","lat":43.30315,"lon":5.36899,"is_reserved":false,"is_disabled":false,"rental_uris":{"android":"levelo://app?vid=a1df6bef-8573-4247-ad4b-de77871636bc","ios":"levelo://app?vid=a1df6bef-8573-4247-ad4b-de77871636bc"},"vehicle_type_id":"4","last_reported":1727082659,"current_range_meters":38000,"station_id":"ce4bgqh2rcd13ifvqc5g","pricing_plan_id":"cebpf4jnsgd1na2vs0mg"},{"bike_id":"9e491187-6eae-4713-bd6c-e99251300247","system_id":"levelo_inurba_marseille","lat":43.2594,"lon":5.40901,"is_reserved":false,"is_disabled":false,"rental_uris":{"android":"levelo://app?vid=9e491187-6eae-4713-bd6c-e99251300247","ios":"levelo://app?vid=9e491187-6eae-4713-bd6c-e99251300247"},"vehicle_type_id":"4","last_reported":1727082659,"current_range_meters":28800,"station_id":"ce4bhm92rcd13ifvqglg","pricing_plan_id":"cebpf4jnsgd1na2vs0mg"},{"bike_id":"a51337f3-ac88-44d3-92c2-0ec04361545f","system_id":"levelo_inurba_marseille","lat":43.26951,"lon":5.38638,"is_reserved":false,"is_disabled":false,"rental_uris":{"android":"levelo://app?vid=a51337f3-ac88-44d3-92c2-0ec04361545f","ios":"levelo://app?vid=a51337f3-ac88-44d3-92c2-0ec04361545f"},"vehicle_type_id":"4","last_reported":1727082659,"current_range_meters":25200,"station_id":"ce4bhh92rcd13ifvqfh0","pricing_plan_id":"cebpf4jnsgd1na2vs0mg"},{"bike_id":"20a042f1-81aa-4cde-8548-4f002e395336","system_id":"levelo_inurba_marseille","lat":43.30352,"lon":5.3998,"is_reserved":false,"is_disabled":false,"rental_uris":{"android":"levelo://app?vid=20a042f1-81aa-4cde-8548-4f002e395336","ios":"levelo://app?vid=20a042f1-81aa-4cde-8548-4f002e395336"},"vehicle_type_id":"4","last_reported":1727082659,"current_range_meters":32800,"station_id":"ce4bgvp2rcd13ifvqct0","pricing_plan_id":"cebpf4jnsgd1na2vs0mg"},{"bike_id":"ecad1443-9a19-423b-a944-44b9cff9c66b","system_id":"levelo_inurba_marseille","lat":43.2749,"lon":5.42461,"is_reserved":false,"is_disabled":false,"rental_uris":{"android":"levelo://app?vid=ecad1443-9a19-423b-a944-44b9cff9c66b","ios":"levelo://app?vid=ecad1443-9a19-423b-a944-44b9cff9c66b"},"vehicle_type_id":"4","last_reported":1727082659,"current_range_meters":28000,"station_id":"ce4bhn92rcd13ifvqgrg","pricing_plan_id":"cebpf4jnsgd1na2vs0mg"},{"bike_id":"d50713dc-a63f-4b72-9699-b87f071005a8","system_id":"levelo_inurba_marseille","lat":43.26553,"lon":5.37292,"is_reserved":false,"is_disabled":false,"rental_uris":{"android":"levelo://app?vid=d50713dc-a63f-4b72-9699-b87f071005a8","ios":"levelo://app?vid=d50713dc-a63f-4b72-9699-b87f071005a8"},"vehicle_type_id":"4","last_reported":1727082659,"current_range_meters":27600,"station_id":"ce4bhg12rcd13ifvqf70","pricing_plan_id":"cebpf4jnsgd1na2vs0mg"},{"bike_id":"f490f488-1f0e-45bf-b06b-2a8cc8f44dbb","system_id":"levelo_inurba_marseille","lat":43.27489,"lon":5.42462,"is_reserved":false,"is_disabled":false,"rental_uris":{"android":"levelo://app?vid=f490f488-1f0e-45bf-b06b-2a8cc8f44dbb","ios":"levelo://app?vid=f490f488-1f0e-45bf-b06b-2a8cc8f44dbb"},"vehicle_type_id":"4","last_reported":1727082659,"current_range_meters":14800,"station_id":"ce4bhn92rcd13ifvqgrg","pricing_plan_id":"cebpf4jnsgd1na2vs0mg"},{"bike_id":"294515d0-9789-48d8-be7e-14c4a5ca9341","system_id":"levelo_inurba_marseille","lat":43.3055,"lon":5.36542,"is_reserved":false,"is_disabled":false,"rental_uris":{"android":"levelo://app?vid=294515d0-9789-48d8-be7e-14c4a5ca9341","ios":"levelo://app?vid=294515d0-9789-48d8-be7e-14c4a5ca9341"},"vehicle_type_id":"4","last_reported":1727082659,"current_range_meters":38800,"station_id":"ce4bgs12rcd13ifvqcag","pricing_plan_id":"cebpf4jnsgd1na2vs0mg"},{"bike_id":"f7adb0ea-e195-40b9-9d71-9b4f032c7ddb","system_id":"levelo_inurba_marseille","lat":43.23154,"lon":5.43711,"is_reserved":false,"is_disabled":false,"rental_uris":{"android":"levelo://app?vid=f7adb0ea-e195-40b9-9d71-9b4f032c7ddb","ios":"levelo://app?vid=f7adb0ea-e195-40b9-9d71-9b4f032c7ddb"},"vehicle_type_id":"4","last_reported":1727082659,"current_range_meters":2800,"station_id":"ce4bhmp2rcd13ifvqgog","pricing_plan_id":"cebpf4jnsgd1na2vs0mg"},{"bike_id":"0714da29-a0a1-42a1-abb8-0bde4d975694","system_id":"levelo_inurba_marseille","lat":43.30136,"lon":5.37408,"is_reserved":false,"is_disabled":false,"rental_uris":{"android":"levelo://app?vid=0714da29-a0a1-42a1-abb8-0bde4d975694","ios":"levelo://app?vid=0714da29-a0a1-42a1-abb8-0bde4d975694"},"vehicle_type_id":"4","last_reported":1727082659,"current_range_meters":27600,"station_id":"ce4bgs92rcd13ifvqcc0","pricing_plan_id":"cebpf4jnsgd1na2vs0mg"},{"bike_id":"8b96b25e-fea6-4801-9d15-c8f4f14a911c","system_id":"levelo_inurba_marseille","lat":43.337444,"lon":5.374475,"is_reserved":false,"is_disabled":false,"rental_uris":{"android":"levelo://app?vid=8b96b25e-fea6-4801-9d15-c8f4f14a911c","ios":"levelo://app?vid=8b96b25e-fea6-4801-9d15-c8f4f14a911c"},"vehicle_type_id":"4","last_reported":1727082659,"current_range_meters":16000,"station_id":"","pricing_plan_id":"cebpf4jnsgd1na2vs0mg"},{"bike_id":"c07fce87-525e-4e21-9516-0f2e830a5ac7","system_id":"levelo_inurba_marseille","lat":43.30942,"lon":5.39047,"is_reserved":false,"is_disabled":false,"rental_uris":{"android":"levelo://app?vid=c07fce87-525e-4e21-9516-0f2e830a5ac7","ios":"levelo://app?vid=c07fce87-525e-4e21-9516-0f2e830a5ac7"},"vehicle_type_id":"4","last_reported":1727082659,"current_range_meters":24400,"station_id":"ce4bgup2rcd13ifvqco0","pricing_plan_id":"cebpf4jnsgd1na2vs0mg"},{"bike_id":"5488c762-fe4e-484d-98c7-aa214f44af68","system_id":"levelo_inurba_marseille","lat":43.3053,"lon":5.38433,"is_reserved":false,"is_disabled":false,"rental_uris":{"android":"levelo://app?vid=5488c762-fe4e-484d-98c7-aa214f44af68","ios":"levelo://app?vid=5488c762-fe4e-484d-98c7-aa214f44af68"},"vehicle_type_id":"4","last_reported":1727082659,"current_range_meters":38000,"station_id":"ce4bgg92rcd13ifvqb30","pricing_plan_id":"cebpf4jnsgd1na2vs0mg"},{"bike_id":"b63a7517-b344-439c-8696-0515ea04521b","system_id":"levelo_inurba_marseille","lat":43.27811,"lon":5.40724,"is_reserved":false,"is_disabled":false,"rental_uris":{"android":"levelo://app?vid=b63a7517-b344-439c-8696-0515ea04521b","ios":"levelo://app?vid=b63a7517-b344-439c-8696-0515ea04521b"},"vehicle_type_id":"4","last_reported":1727082659,"current_range_meters":7200,"station_id":"ce4bhnh2rcd13ifvqgtg","pricing_plan_id":"cebpf4jnsgd1na2vs0mg"},{"bike_id":"d2f4e5aa-2e0d-453f-b494-5652d2ebdb60","system_id":"levelo_inurba_marseille","lat":43.24999,"lon":5.38928,"is_reserved":false,"is_disabled":false,"rental_uris":{"android":"levelo://app?vid=d2f4e5aa-2e0d-453f-b494-5652d2ebdb60","ios":"levelo://app?vid=d2f4e5aa-2e0d-453f-b494-5652d2ebdb60"},"vehicle_type_id":"4","last_reported":1727082659,"current_range_meters":38000,"station_id":"ce4bhgp2rcd13ifvqfd0","pricing_plan_id":"cebpf4jnsgd1na2vs0mg"},{"bike_id":"4117225d-fbf7-489f-a9f9-a7903758f15d","system_id":"levelo_inurba_marseille","lat":43.337444,"lon":5.374475,"is_reserved":false,"is_disabled":false,"rental_uris":{"android":"levelo://app?vid=4117225d-fbf7-489f-a9f9-a7903758f15d","ios":"levelo://app?vid=4117225d-fbf7-489f-a9f9-a7903758f15d"},"vehicle_type_id":"4","last_reported":1727082659,"current_range_meters":26800,"station_id":"","pricing_plan_id":"cebpf4jnsgd1na2vs0mg"},{"bike_id":"2148917b-abb0-45d6-9b63-83c65d68b536","system_id":"levelo_inurba_marseille","lat":43.2894,"lon":5.36641,"is_reserved":false,"is_disabled":false,"rental_uris":{"android":"levelo://app?vid=2148917b-abb0-45d6-9b63-83c65d68b536","ios":"levelo://app?vid=2148917b-abb0-45d6-9b63-83c65d68b536"},"vehicle_type_id":"4","last_reported":1727082659,"current_range_meters":10800,"station_id":"ce4bhap2rcd13ifvqek0","pricing_plan_id":"cebpf4jnsgd1na2vs0mg"},{"bike_id":"02d5df92-b0f5-4285-b2b5-179ae47ff3ba","system_id":"levelo_inurba_marseille","lat":43.33607,"lon":5.4104,"is_reserved":false,"is_disabled":false,"rental_uris":{"android":"levelo://app?vid=02d5df92-b0f5-4285-b2b5-179ae47ff3ba","ios":"levelo://app?vid=02d5df92-b0f5-4285-b2b5-179ae47ff3ba"},"vehicle_type_id":"4","last_reported":1727082659,"current_range_meters":7200,"station_id":"ce4bhqh2rcd13ifvqhmg","pricing_plan_id":"cebpf4jnsgd1na2vs0mg"},{"bike_id":"239ec48f-994b-4040-8039-b9729ee0db86","system_id":"levelo_inurba_marseille","lat":43.241,"lon":5.37763,"is_reserved":false,"is_disabled":false,"rental_uris":{"android":"levelo://app?vid=239ec48f-994b-4040-8039-b9729ee0db86","ios":"levelo://app?vid=239ec48f-994b-4040-8039-b9729ee0db86"},"vehicle_type_id":"4","last_reported":1727082659,"current_range_meters":27200,"station_id":"ce4bhnp2rcd13ifvqgvg","pricing_plan_id":"cebpf4jnsgd1na2vs0mg"},{"bike_id":"2fc34bba-a2b4-4632-bf54-64bcff937e6e","system_id":"levelo_inurba_marseille","lat":43.32487,"lon":5.36566,"is_reserved":false,"is_disabled":false,"rental_uris":{"android":"levelo://app?vid=2fc34bba-a2b4-4632-bf54-64bcff937e6e","ios":"levelo://app?vid=2fc34bba-a2b4-4632-bf54-64bcff937e6e"},"vehicle_type_id":"4","last_reported":1727082659,"current_range_meters":12800,"station_id":"ce4bhs12rcd13ifvqhvg","pricing_plan_id":"cebpf4jnsgd1na2vs0mg"},{"bike_id":"23ca7a8f-e35c-4afc-8c57-aaf8717d5c66","system_id":"levelo_inurba_marseille","lat":43.337444,"lon":5.374475,"is_reserved":false,"is_disabled":false,"rental_uris":{"android":"levelo://app?vid=23ca7a8f-e35c-4afc-8c57-aaf8717d5c66","ios":"levelo://app?vid=23ca7a8f-e35c-4afc-8c57-aaf8717d5c66"},"vehicle_type_id":"4","last_reported":1727082659,"current_range_meters":36800,"station_id":"","pricing_plan_id":"cebpf4jnsgd1na2vs0mg"},{"bike_id":"87801148-94d1-4bd8-ae45-d2a18e6c4bd6","system_id":"levelo_inurba_marseille","lat":43.26945,"lon":5.38645,"is_reserved":false,"is_disabled":false,"rental_uris":{"android":"levelo://app?vid=87801148-94d1-4bd8-ae45-d2a18e6c4bd6","ios":"levelo://app?vid=87801148-94d1-4bd8-ae45-d2a18e6c4bd6"},"vehicle_type_id":"4","last_reported":1727082659,"current_range_meters":30800,"station_id":"ce4bhh92rcd13ifvqfh0","pricing_plan_id":"cebpf4jnsgd1na2vs0mg"},{"bike_id":"7d47dc26-ff90-4064-9c81-d84f45b89463","system_id":"levelo_inurba_marseille","lat":43.26554,"lon":5.37296,"is_reserved":false,"is_disabled":false,"rental_uris":{"android":"levelo://app?vid=7d47dc26-ff90-4064-9c81-d84f45b89463","ios":"levelo://app?vid=7d47dc26-ff90-4064-9c81-d84f45b89463"},"vehicle_type_id":"4","last_reported":1727082659,"current_range_meters":16000,"station_id":"ce4bhg12rcd13ifvqf70","pricing_plan_id":"cebpf4jnsgd1na2vs0mg"},{"bike_id":"a0edd235-9112-4738-ae17-f58c690ab2f4","system_id":"levelo_inurba_marseille","lat":43.32483,"lon":5.36559,"is_reserved":false,"is_disabled":false,"rental_uris":{"android":"levelo://app?vid=a0edd235-9112-4738-ae17-f58c690ab2f4","ios":"levelo://app?vid=a0edd235-9112-4738-ae17-f58c690ab2f4"},"vehicle_type_id":"4","last_reported":1727082659,"current_range_meters":39200,"station_id":"ce4bhs12rcd13ifvqhvg","pricing_plan_id":"cebpf4jnsgd1na2vs0mg"},{"bike_id":"1f2ffeb2-701e-45ba-8c52-e42e4286e03a","system_id":"levelo_inurba_marseille","lat":43.26951,"lon":5.38641,"is_reserved":false,"is_disabled":false,"rental_uris":{"android":"levelo://app?vid=1f2ffeb2-701e-45ba-8c52-e42e4286e03a","ios":"levelo://app?vid=1f2ffeb2-701e-45ba-8c52-e42e4286e03a"},"vehicle_type_id":"4","last_reported":1727082659,"current_range_meters":10800,"station_id":"ce4bhh92rcd13ifvqfh0","pricing_plan_id":"cebpf4jnsgd1na2vs0mg"},{"bike_id":"a1d6c87d-255a-4ba8-9073-948a2f6045ed","system_id":"levelo_inurba_marseille","lat":43.294121,"lon":5.386187,"is_reserved":false,"is_disabled":false,"rental_uris":{"android":"levelo://app?vid=a1d6c87d-255a-4ba8-9073-948a2f6045ed","ios":"levelo://app?vid=a1d6c87d-255a-4ba8-9073-948a2f6045ed"},"vehicle_type_id":"4","last_reported":1727082659,"current_range_meters":5600,"station_id":"ce4bgn12rcd13ifvqbt0","pricing_plan_id":"cebpf4jnsgd1na2vs0mg"},{"bike_id":"3c079497-4f0f-4dd3-8bef-c3f7cdf08ea0","system_id":"levelo_inurba_marseille","lat":43.2407,"lon":5.37763,"is_reserved":false,"is_disabled":false,"rental_uris":{"android":"levelo://app?vid=3c079497-4f0f-4dd3-8bef-c3f7cdf08ea0","ios":"levelo://app?vid=3c079497-4f0f-4dd3-8bef-c3f7cdf08ea0"},"vehicle_type_id":"4","last_reported":1727082659,"current_range_meters":36800,"station_id":"ce4bhnp2rcd13ifvqgvg","pricing_plan_id":"cebpf4jnsgd1na2vs0mg"},{"bike_id":"ec37c7bf-8a44-4917-809e-ca227799986e","system_id":"levelo_inurba_marseille","lat":43.231822,"lon":5.399839,"is_reserved":false,"is_disabled":false,"rental_uris":{"android":"levelo://app?vid=ec37c7bf-8a44-4917-809e-ca227799986e","ios":"levelo://app?vid=ec37c7bf-8a44-4917-809e-ca227799986e"},"vehicle_type_id":"4","last_reported":1727082659,"current_range_meters":13600,"station_id":"ce4bhn12rcd13ifvqgqg","pricing_plan_id":"cebpf4jnsgd1na2vs0mg"},{"bike_id":"860c8e9d-4001-4aaa-b1f1-ab02b2cccfa4","system_id":"levelo_inurba_marseille","lat":43.32478,"lon":5.36577,"is_reserved":false,"is_disabled":false,"rental_uris":{"android":"levelo://app?vid=860c8e9d-4001-4aaa-b1f1-ab02b2cccfa4","ios":"levelo://app?vid=860c8e9d-4001-4aaa-b1f1-ab02b2cccfa4"},"vehicle_type_id":"4","last_reported":1727082659,"current_range_meters":25200,"station_id":"ce4bhs12rcd13ifvqhvg","pricing_plan_id":"cebpf4jnsgd1na2vs0mg"},{"bike_id":"11658d4c-2567-4b0f-8e71-8ec83d6896ed","system_id":"levelo_inurba_marseille","lat":43.30535,"lon":5.3656,"is_reserved":false,"is_disabled":false,"rental_uris":{"android":"levelo://app?vid=11658d4c-2567-4b0f-8e71-8ec83d6896ed","ios":"levelo://app?vid=11658d4c-2567-4b0f-8e71-8ec83d6896ed"},"vehicle_type_id":"4","last_reported":1727082659,"current_range_meters":38000,"station_id":"ce4bgs12rcd13ifvqcag","pricing_plan_id":"cebpf4jnsgd1na2vs0mg"},{"bike_id":"20599fda-93e8-4f0a-8767-2870330651f5","system_id":"levelo_inurba_marseille","lat":43.28149,"lon":5.42648,"is_reserved":false,"is_disabled":false,"rental_uris":{"android":"levelo://app?vid=20599fda-93e8-4f0a-8767-2870330651f5","ios":"levelo://app?vid=20599fda-93e8-4f0a-8767-2870330651f5"},"vehicle_type_id":"4","last_reported":1727082659,"current_range_meters":10800,"station_id":"ce4bhnh2rcd13ifvqgug","pricing_plan_id":"cebpf4jnsgd1na2vs0mg"},{"bike_id":"9598e7a9-b3aa-4a58-aa71-0179f5862c88","system_id":"levelo_inurba_marseille","lat":43.33759,"lon":5.37454,"is_reserved":false,"is_disabled":false,"rental_uris":{"android":"levelo://app?vid=9598e7a9-b3aa-4a58-aa71-0179f5862c88","ios":"levelo://app?vid=9598e7a9-b3aa-4a58-aa71-0179f5862c88"},"vehicle_type_id":"4","last_reported":1727082659,"current_range_meters":35200,"station_id":"","pricing_plan_id":"cebpf4jnsgd1na2vs0mg"},{"bike_id":"c4c39e66-9ed5-447d-9a70-518b2971b8fd","system_id":"levelo_inurba_marseille","lat":43.305554,"lon":5.365596,"is_reserved":false,"is_disabled":false,"rental_uris":{"android":"levelo://app?vid=c4c39e66-9ed5-447d-9a70-518b2971b8fd","ios":"levelo://app?vid=c4c39e66-9ed5-447d-9a70-518b2971b8fd"},"vehicle_type_id":"4","last_reported":1727082659,"current_range_meters":25600,"station_id":"ce4bgs12rcd13ifvqcag","pricing_plan_id":"cebpf4jnsgd1na2vs0mg"},{"bike_id":"3ebaaaec-15d2-494c-ab9e-13e8bcbe1874","system_id":"levelo_inurba_marseille","lat":43.29276,"lon":5.3686,"is_reserved":false,"is_disabled":false,"rental_uris":{"android":"levelo://app?vid=3ebaaaec-15d2-494c-ab9e-13e8bcbe1874","ios":"levelo://app?vid=3ebaaaec-15d2-494c-ab9e-13e8bcbe1874"},"vehicle_type_id":"4","last_reported":1727082659,"current_range_meters":31200,"station_id":"ce4bhbp2rcd13ifvqesg","pricing_plan_id":"cebpf4jnsgd1na2vs0mg"},{"bike_id":"0f07811e-4ddd-4d97-be92-b594c3eca864","system_id":"levelo_inurba_marseille","lat":43.31074,"lon":5.38364,"is_reserved":false,"is_disabled":false,"rental_uris":{"android":"levelo://app?vid=0f07811e-4ddd-4d97-be92-b594c3eca864","ios":"levelo://app?vid=0f07811e-4ddd-4d97-be92-b594c3eca864"},"vehicle_type_id":"4","last_reported":1727082659,"current_range_meters":18800,"station_id":"ce4bgv92rcd13ifvqcr0","pricing_plan_id":"cebpf4jnsgd1na2vs0mg"},{"bike_id":"d76a87e2-bc0c-499d-86d1-c7a6e8a7de26","system_id":"levelo_inurba_marseille","lat":43.25575,"lon":5.38239,"is_reserved":false,"is_disabled":false,"rental_uris":{"android":"levelo://app?vid=d76a87e2-bc0c-499d-86d1-c7a6e8a7de26","ios":"levelo://app?vid=d76a87e2-bc0c-499d-86d1-c7a6e8a7de26"},"vehicle_type_id":"4","last_reported":1727082659,"current_range_meters":22000,"station_id":"ce4bhih2rcd13ifvqfs0","pricing_plan_id":"cebpf4jnsgd1na2vs0mg"},{"bike_id":"de29b561-59b2-44dc-ae00-0f630a9bf7cb","system_id":"levelo_inurba_marseille","lat":43.337625,"lon":5.374797,"is_reserved":false,"is_disabled":false,"rental_uris":{"android":"levelo://app?vid=de29b561-59b2-44dc-ae00-0f630a9bf7cb","ios":"levelo://app?vid=de29b561-59b2-44dc-ae00-0f630a9bf7cb"},"vehicle_type_id":"4","last_reported":1727082659,"current_range_meters":16400,"station_id":"","pricing_plan_id":"cebpf4jnsgd1na2vs0mg"},{"bike_id":"2b26ac36-e341-4854-a9d6-915450d3500a","system_id":"levelo_inurba_marseille","lat":43.2707,"lon":5.42275,"is_reserved":false,"is_disabled":false,"rental_uris":{"android":"levelo://app?vid=2b26ac36-e341-4854-a9d6-915450d3500a","ios":"levelo://app?vid=2b26ac36-e341-4854-a9d6-915450d3500a"},"vehicle_type_id":"4","last_reported":1727082659,"current_range_meters":38000,"station_id":"ce4bhk92rcd13ifvqgb0","pricing_plan_id":"cebpf4jnsgd1na2vs0mg"},{"bike_id":"a93d105c-3012-4c8d-bc5a-35a122507788","system_id":"levelo_inurba_marseille","lat":43.27948,"lon":5.4105,"is_reserved":false,"is_disabled":false,"rental_uris":{"android":"levelo://app?vid=a93d105c-3012-4c8d-bc5a-35a122507788","ios":"levelo://app?vid=a93d105c-3012-4c8d-bc5a-35a122507788"},"vehicle_type_id":"4","last_reported":1727082659,"current_range_meters":22000,"station_id":"ce4bhnp2rcd13ifvqh0g","pricing_plan_id":"cebpf4jnsgd1na2vs0mg"},{"bike_id":"c58899bf-0fa3-4eea-b6c6-96b07b2adcfe","system_id":"levelo_inurba_marseille","lat":43.3361,"lon":5.41021,"is_reserved":false,"is_disabled":false,"rental_uris":{"android":"levelo://app?vid=c58899bf-0fa3-4eea-b6c6-96b07b2adcfe","ios":"levelo://app?vid=c58899bf-0fa3-4eea-b6c6-96b07b2adcfe"},"vehicle_type_id":"4","last_reported":1727082659,"current_range_meters":27600,"station_id":"ce4bhqh2rcd13ifvqhmg","pricing_plan_id":"cebpf4jnsgd1na2vs0mg"},{"bike_id":"5ac02ac5-91f4-4bb5-a9b4-f7275115ed59","system_id":"levelo_inurba_marseille","lat":43.23153,"lon":5.43711,"is_reserved":false,"is_disabled":false,"rental_uris":{"android":"levelo://app?vid=5ac02ac5-91f4-4bb5-a9b4-f7275115ed59","ios":"levelo://app?vid=5ac02ac5-91f4-4bb5-a9b4-f7275115ed59"},"vehicle_type_id":"4","last_reported":1727082659,"current_range_meters":24000,"station_id":"ce4bhmp2rcd13ifvqgog","pricing_plan_id":"cebpf4jnsgd1na2vs0mg"},{"bike_id":"4ddde0f4-ed31-496d-853b-f1f942e79195","system_id":"levelo_inurba_marseille","lat":43.26199,"lon":5.37934,"is_reserved":false,"is_disabled":false,"rental_uris":{"android":"levelo://app?vid=4ddde0f4-ed31-496d-853b-f1f942e79195","ios":"levelo://app?vid=4ddde0f4-ed31-496d-853b-f1f942e79195"},"vehicle_type_id":"4","last_reported":1727082659,"current_range_meters":14400,"station_id":"ce4bhjp2rcd13ifvqg90","pricing_plan_id":"cebpf4jnsgd1na2vs0mg"},{"bike_id":"3f1eb253-289f-441f-bdc0-a14a537f3b7b","system_id":"levelo_inurba_marseille","lat":43.28381,"lon":5.38633,"is_reserved":false,"is_disabled":false,"rental_uris":{"android":"levelo://app?vid=3f1eb253-289f-441f-bdc0-a14a537f3b7b","ios":"levelo://app?vid=3f1eb253-289f-441f-bdc0-a14a537f3b7b"},"vehicle_type_id":"4","last_reported":1727082659,"current_range_meters":38800,"station_id":"ce4bh492rcd13ifvqdvg","pricing_plan_id":"cebpf4jnsgd1na2vs0mg"},{"bike_id":"446bf0de-eab2-4312-849a-b0ff98337180","system_id":"levelo_inurba_marseille","lat":43.24089,"lon":5.37826,"is_reserved":false,"is_disabled":false,"rental_uris":{"android":"levelo://app?vid=446bf0de-eab2-4312-849a-b0ff98337180","ios":"levelo://app?vid=446bf0de-eab2-4312-849a-b0ff98337180"},"vehicle_type_id":"4","last_reported":1727082659,"current_range_meters":25200,"station_id":"ce4bhnp2rcd13ifvqgvg","pricing_plan_id":"cebpf4jnsgd1na2vs0mg"},{"bike_id":"b46a0750-bd07-4ba9-8b52-8abd2c69029e","system_id":"levelo_inurba_marseille","lat":43.24083,"lon":5.37765,"is_reserved":false,"is_disabled":false,"rental_uris":{"android":"levelo://app?vid=b46a0750-bd07-4ba9-8b52-8abd2c69029e","ios":"levelo://app?vid=b46a0750-bd07-4ba9-8b52-8abd2c69029e"},"vehicle_type_id":"4","last_reported":1727082659,"current_range_meters":32400,"station_id":"ce4bhnp2rcd13ifvqgvg","pricing_plan_id":"cebpf4jnsgd1na2vs0mg"},{"bike_id":"3edce45b-faf5-4fd3-850c-bf98d21f0c88","system_id":"levelo_inurba_marseille","lat":43.27181,"lon":5.40993,"is_reserved":false,"is_disabled":false,"rental_uris":{"android":"levelo://app?vid=3edce45b-faf5-4fd3-850c-bf98d21f0c88","ios":"levelo://app?vid=3edce45b-faf5-4fd3-850c-bf98d21f0c88"},"vehicle_type_id":"4","last_reported":1727082659,"current_range_meters":24000,"station_id":"ce4bhl12rcd13ifvqgf0","pricing_plan_id":"cebpf4jnsgd1na2vs0mg"},{"bike_id":"36c416da-9158-44af-aa3a-06b103bea7bf","system_id":"levelo_inurba_marseille","lat":43.337444,"lon":5.374475,"is_reserved":false,"is_disabled":false,"rental_uris":{"android":"levelo://app?vid=36c416da-9158-44af-aa3a-06b103bea7bf","ios":"levelo://app?vid=36c416da-9158-44af-aa3a-06b103bea7bf"},"vehicle_type_id":"4","last_reported":1727082659,"current_range_meters":24400,"station_id":"","pricing_plan_id":"cebpf4jnsgd1na2vs0mg"},{"bike_id":"95ffbc36-69cc-4999-b92e-43fb053da9b5","system_id":"levelo_inurba_marseille","lat":43.24072,"lon":5.37769,"is_reserved":false,"is_disabled":false,"rental_uris":{"android":"levelo://app?vid=95ffbc36-69cc-4999-b92e-43fb053da9b5","ios":"levelo://app?vid=95ffbc36-69cc-4999-b92e-43fb053da9b5"},"vehicle_type_id":"4","last_reported":1727082659,"current_range_meters":8000,"station_id":"ce4bhnp2rcd13ifvqgvg","pricing_plan_id":"cebpf4jnsgd1na2vs0mg"},{"bike_id":"32e9b728-deff-4a3c-8d8d-2c902d83ed55","system_id":"levelo_inurba_marseille","lat":43.26065,"lon":5.39392,"is_reserved":false,"is_disabled":false,"rental_uris":{"android":"levelo://app?vid=32e9b728-deff-4a3c-8d8d-2c902d83ed55","ios":"levelo://app?vid=32e9b728-deff-4a3c-8d8d-2c902d83ed55"},"vehicle_type_id":"4","last_reported":1727082659,"current_range_meters":8000,"station_id":"ce4bhh92rcd13ifvqfj0","pricing_plan_id":"cebpf4jnsgd1na2vs0mg"},{"bike_id":"dca116e1-becc-4cc1-b63c-e024d941dc63","system_id":"levelo_inurba_marseille","lat":43.30595,"lon":5.37218,"is_reserved":false,"is_disabled":false,"rental_uris":{"android":"levelo://app?vid=dca116e1-becc-4cc1-b63c-e024d941dc63","ios":"levelo://app?vid=dca116e1-becc-4cc1-b63c-e024d941dc63"},"vehicle_type_id":"4","last_reported":1727082659,"current_range_meters":32400,"station_id":"ce4bgqh2rcd13ifvqc4g","pricing_plan_id":"cebpf4jnsgd1na2vs0mg"},{"bike_id":"dcf3d7bc-c35f-4647-a9ab-733122a04faf","system_id":"levelo_inurba_marseille","lat":43.25104,"lon":5.40322,"is_reserved":false,"is_disabled":false,"rental_uris":{"android":"levelo://app?vid=dcf3d7bc-c35f-4647-a9ab-733122a04faf","ios":"levelo://app?vid=dcf3d7bc-c35f-4647-a9ab-733122a04faf"},"vehicle_type_id":"4","last_reported":1727082659,"current_range_meters":37600,"station_id":"ce4bhlh2rcd13ifvqgig","pricing_plan_id":"cebpf4jnsgd1na2vs0mg"},{"bike_id":"a946714b-2b93-4282-8940-2934c541cd65","system_id":"levelo_inurba_marseille","lat":43.29553,"lon":5.42282,"is_reserved":false,"is_disabled":false,"rental_uris":{"android":"levelo://app?vid=a946714b-2b93-4282-8940-2934c541cd65","ios":"levelo://app?vid=a946714b-2b93-4282-8940-2934c541cd65"},"vehicle_type_id":"4","last_reported":1727082659,"current_range_meters":10800,"station_id":"ce4bhph2rcd13ifvqhdg","pricing_plan_id":"cebpf4jnsgd1na2vs0mg"},{"bike_id":"8e975919-49f3-4c9f-8eda-6d98788fb7bc","system_id":"levelo_inurba_marseille","lat":43.337444,"lon":5.374475,"is_reserved":false,"is_disabled":false,"rental_uris":{"android":"levelo://app?vid=8e975919-49f3-4c9f-8eda-6d98788fb7bc","ios":"levelo://app?vid=8e975919-49f3-4c9f-8eda-6d98788fb7bc"},"vehicle_type_id":"4","last_reported":1727082659,"current_range_meters":16000,"station_id":"","pricing_plan_id":"cebpf4jnsgd1na2vs0mg"},{"bike_id":"09df6003-1789-4c3f-8efe-30466811f6e2","system_id":"levelo_inurba_marseille","lat":43.2834,"lon":5.38114,"is_reserved":false,"is_disabled":false,"rental_uris":{"android":"levelo://app?vid=09df6003-1789-4c3f-8efe-30466811f6e2","ios":"levelo://app?vid=09df6003-1789-4c3f-8efe-30466811f6e2"},"vehicle_type_id":"4","last_reported":1727082659,"current_range_meters":38800,"station_id":"ce4bh412rcd13ifvqdr0","pricing_plan_id":"cebpf4jnsgd1na2vs0mg"},{"bike_id":"2e9e18af-79ce-478a-97f6-7d21e48d3e93","system_id":"levelo_inurba_marseille","lat":43.29635,"lon":5.40609,"is_reserved":false,"is_disabled":false,"rental_uris":{"android":"levelo://app?vid=2e9e18af-79ce-478a-97f6-7d21e48d3e93","ios":"levelo://app?vid=2e9e18af-79ce-478a-97f6-7d21e48d3e93"},"vehicle_type_id":"4","last_reported":1727082659,"current_range_meters":27600,"station_id":"ce4bh0h2rcd13ifvqd60","pricing_plan_id":"cebpf4jnsgd1na2vs0mg"},{"bike_id":"fee847b2-684e-4f0f-b3c3-0910bdb1f06e","system_id":"levelo_inurba_marseille","lat":43.28153,"lon":5.42638,"is_reserved":false,"is_disabled":false,"rental_uris":{"android":"levelo://app?vid=fee847b2-684e-4f0f-b3c3-0910bdb1f06e","ios":"levelo://app?vid=fee847b2-684e-4f0f-b3c3-0910bdb1f06e"},"vehicle_type_id":"4","last_reported":1727082659,"current_range_meters":9200,"station_id":"ce4bhnh2rcd13ifvqgug","pricing_plan_id":"cebpf4jnsgd1na2vs0mg"},{"bike_id":"c0bc9895-e89e-49ff-8b0c-ac97cfe349f1","system_id":"levelo_inurba_marseille","lat":43.24178,"lon":5.39734,"is_reserved":false,"is_disabled":false,"rental_uris":{"android":"levelo://app?vid=c0bc9895-e89e-49ff-8b0c-ac97cfe349f1","ios":"levelo://app?vid=c0bc9895-e89e-49ff-8b0c-ac97cfe349f1"},"vehicle_type_id":"4","last_reported":1727082659,"current_range_meters":27200,"station_id":"ce4bhn12rcd13ifvqgpg","pricing_plan_id":"cebpf4jnsgd1na2vs0mg"},{"bike_id":"93772755-0dc5-41dd-9c35-aabd36eebeb5","system_id":"levelo_inurba_marseille","lat":43.33602,"lon":5.41024,"is_reserved":false,"is_disabled":false,"rental_uris":{"android":"levelo://app?vid=93772755-0dc5-41dd-9c35-aabd36eebeb5","ios":"levelo://app?vid=93772755-0dc5-41dd-9c35-aabd36eebeb5"},"vehicle_type_id":"4","last_reported":1727082659,"current_range_meters":14400,"station_id":"ce4bhqh2rcd13ifvqhmg","pricing_plan_id":"cebpf4jnsgd1na2vs0mg"},{"bike_id":"43043176-26c4-426a-b720-127ae8f9740f","system_id":"levelo_inurba_marseille","lat":43.23154,"lon":5.43717,"is_reserved":false,"is_disabled":false,"rental_uris":{"android":"levelo://app?vid=43043176-26c4-426a-b720-127ae8f9740f","ios":"levelo://app?vid=43043176-26c4-426a-b720-127ae8f9740f"},"vehicle_type_id":"4","last_reported":1727082659,"current_range_meters":6400,"station_id":"ce4bhmp2rcd13ifvqgog","pricing_plan_id":"cebpf4jnsgd1na2vs0mg"},{"bike_id":"d3ca0159-cfe7-4123-b3ff-93589f2bbfa1","system_id":"levelo_inurba_marseille","lat":43.30265,"lon":5.40077,"is_reserved":false,"is_disabled":false,"rental_uris":{"android":"levelo://app?vid=d3ca0159-cfe7-4123-b3ff-93589f2bbfa1","ios":"levelo://app?vid=d3ca0159-cfe7-4123-b3ff-93589f2bbfa1"},"vehicle_type_id":"4","last_reported":1727082659,"current_range_meters":22400,"station_id":"ce4bgvh2rcd13ifvqcs0","pricing_plan_id":"cebpf4jnsgd1na2vs0mg"},{"bike_id":"e3d2532e-31d6-42bf-aab1-460af77668ca","system_id":"levelo_inurba_marseille","lat":43.23071,"lon":5.35495,"is_reserved":false,"is_disabled":false,"rental_uris":{"android":"levelo://app?vid=e3d2532e-31d6-42bf-aab1-460af77668ca","ios":"levelo://app?vid=e3d2532e-31d6-42bf-aab1-460af77668ca"},"vehicle_type_id":"4","last_reported":1727082659,"current_range_meters":6400,"station_id":"cpo3342slgdg3j2ifvpg","pricing_plan_id":"cebpf4jnsgd1na2vs0mg"},{"bike_id":"1997a282-f32c-402f-966b-5a3f72e63e3f","system_id":"levelo_inurba_marseille","lat":43.28609,"lon":5.35108,"is_reserved":false,"is_disabled":false,"rental_uris":{"android":"levelo://app?vid=1997a282-f32c-402f-966b-5a3f72e63e3f","ios":"levelo://app?vid=1997a282-f32c-402f-966b-5a3f72e63e3f"},"vehicle_type_id":"4","last_reported":1727082659,"current_range_meters":38400,"station_id":"ce4bhch2rcd13ifvqeug","pricing_plan_id":"cebpf4jnsgd1na2vs0mg"},{"bike_id":"149779fc-bc45-458a-857f-33707eedaf6a","system_id":"levelo_inurba_marseille","lat":43.2319,"lon":5.35559,"is_reserved":false,"is_disabled":false,"rental_uris":{"android":"levelo://app?vid=149779fc-bc45-458a-857f-33707eedaf6a","ios":"levelo://app?vid=149779fc-bc45-458a-857f-33707eedaf6a"},"vehicle_type_id":"4","last_reported":1727082659,"current_range_meters":9600,"station_id":"ce4bhu92rcd13ifvqi70","pricing_plan_id":"cebpf4jnsgd1na2vs0mg"},{"bike_id":"dcd9b5d2-0de8-47f5-a370-a19a6ea66e01","system_id":"levelo_inurba_marseille","lat":43.28263,"lon":5.35066,"is_reserved":false,"is_disabled":false,"rental_uris":{"android":"levelo://app?vid=dcd9b5d2-0de8-47f5-a370-a19a6ea66e01","ios":"levelo://app?vid=dcd9b5d2-0de8-47f5-a370-a19a6ea66e01"},"vehicle_type_id":"4","last_reported":1727082659,"current_range_meters":35200,"station_id":"ce4bhbp2rcd13ifvqerg","pricing_plan_id":"cebpf4jnsgd1na2vs0mg"},{"bike_id":"0887ada4-7ace-4f9e-83e0-036cffcd8a08","system_id":"levelo_inurba_marseille","lat":43.24072,"lon":5.37762,"is_reserved":false,"is_disabled":false,"rental_uris":{"android":"levelo://app?vid=0887ada4-7ace-4f9e-83e0-036cffcd8a08","ios":"levelo://app?vid=0887ada4-7ace-4f9e-83e0-036cffcd8a08"},"vehicle_type_id":"4","last_reported":1727082659,"current_range_meters":36000,"station_id":"ce4bhnp2rcd13ifvqgvg","pricing_plan_id":"cebpf4jnsgd1na2vs0mg"},{"bike_id":"a26009ca-19fd-40f1-9a97-33c2f9a91c0a","system_id":"levelo_inurba_marseille","lat":43.30953,"lon":5.39042,"is_reserved":false,"is_disabled":false,"rental_uris":{"android":"levelo://app?vid=a26009ca-19fd-40f1-9a97-33c2f9a91c0a","ios":"levelo://app?vid=a26009ca-19fd-40f1-9a97-33c2f9a91c0a"},"vehicle_type_id":"4","last_reported":1727082659,"current_range_meters":30800,"station_id":"ce4bgup2rcd13ifvqco0","pricing_plan_id":"cebpf4jnsgd1na2vs0mg"},{"bike_id":"a6c39d01-09e0-4044-b43c-14ab61eb02ea","system_id":"levelo_inurba_marseille","lat":43.33024,"lon":5.39047,"is_reserved":false,"is_disabled":false,"rental_uris":{"android":"levelo://app?vid=a6c39d01-09e0-4044-b43c-14ab61eb02ea","ios":"levelo://app?vid=a6c39d01-09e0-4044-b43c-14ab61eb02ea"},"vehicle_type_id":"4","last_reported":1727082659,"current_range_meters":38800,"station_id":"ce4bhr92rcd13ifvqhrg","pricing_plan_id":"cebpf4jnsgd1na2vs0mg"},{"bike_id":"a318a54c-1a94-4002-8c6b-54930f4f6aa6","system_id":"levelo_inurba_marseille","lat":43.311473,"lon":5.393399,"is_reserved":false,"is_disabled":false,"rental_uris":{"android":"levelo://app?vid=a318a54c-1a94-4002-8c6b-54930f4f6aa6","ios":"levelo://app?vid=a318a54c-1a94-4002-8c6b-54930f4f6aa6"},"vehicle_type_id":"4","last_reported":1727082659,"current_range_meters":36800,"station_id":"","pricing_plan_id":"cebpf4jnsgd1na2vs0mg"},{"bike_id":"02fa9452-9fc1-4abb-b317-caf3e864d656","system_id":"levelo_inurba_marseille","lat":43.27489,"lon":5.42468,"is_reserved":false,"is_disabled":false,"rental_uris":{"android":"levelo://app?vid=02fa9452-9fc1-4abb-b317-caf3e864d656","ios":"levelo://app?vid=02fa9452-9fc1-4abb-b317-caf3e864d656"},"vehicle_type_id":"4","last_reported":1727082659,"current_range_meters":30800,"station_id":"ce4bhn92rcd13ifvqgrg","pricing_plan_id":"cebpf4jnsgd1na2vs0mg"},{"bike_id":"4af52b1e-6747-4991-81d8-f22b8a526591","system_id":"levelo_inurba_marseille","lat":43.25,"lon":5.38928,"is_reserved":false,"is_disabled":false,"rental_uris":{"android":"levelo://app?vid=4af52b1e-6747-4991-81d8-f22b8a526591","ios":"levelo://app?vid=4af52b1e-6747-4991-81d8-f22b8a526591"},"vehicle_type_id":"4","last_reported":1727082659,"current_range_meters":8400,"station_id":"ce4bhgp2rcd13ifvqfd0","pricing_plan_id":"cebpf4jnsgd1na2vs0mg"},{"bike_id":"ddfcd70b-34c6-4951-954a-716fca15a3e0","system_id":"levelo_inurba_marseille","lat":43.2621,"lon":5.37917,"is_reserved":false,"is_disabled":false,"rental_uris":{"android":"levelo://app?vid=ddfcd70b-34c6-4951-954a-716fca15a3e0","ios":"levelo://app?vid=ddfcd70b-34c6-4951-954a-716fca15a3e0"},"vehicle_type_id":"4","last_reported":1727082659,"current_range_meters":36800,"station_id":"ce4bhjp2rcd13ifvqg90","pricing_plan_id":"cebpf4jnsgd1na2vs0mg"},{"bike_id":"c501f88e-9fbe-4981-8abd-1de6df1bf2b5","system_id":"levelo_inurba_marseille","lat":43.24078,"lon":5.37746,"is_reserved":false,"is_disabled":false,"rental_uris":{"android":"levelo://app?vid=c501f88e-9fbe-4981-8abd-1de6df1bf2b5","ios":"levelo://app?vid=c501f88e-9fbe-4981-8abd-1de6df1bf2b5"},"vehicle_type_id":"4","last_reported":1727082659,"current_range_meters":28400,"station_id":"ce4bhnp2rcd13ifvqgvg","pricing_plan_id":"cebpf4jnsgd1na2vs0mg"},{"bike_id":"ea5fe93e-6580-4e99-aa85-80a9330c74ed","system_id":"levelo_inurba_marseille","lat":43.29038,"lon":5.39973,"is_reserved":false,"is_disabled":false,"rental_uris":{"android":"levelo://app?vid=ea5fe93e-6580-4e99-aa85-80a9330c74ed","ios":"levelo://app?vid=ea5fe93e-6580-4e99-aa85-80a9330c74ed"},"vehicle_type_id":"4","last_reported":1727082659,"current_range_meters":38800,"station_id":"ce4bh392rcd13ifvqdm0","pricing_plan_id":"cebpf4jnsgd1na2vs0mg"},{"bike_id":"558dab0c-ec64-4fc1-a0ae-710c2fb28efb","system_id":"levelo_inurba_marseille","lat":43.255,"lon":5.37652,"is_reserved":false,"is_disabled":false,"rental_uris":{"android":"levelo://app?vid=558dab0c-ec64-4fc1-a0ae-710c2fb28efb","ios":"levelo://app?vid=558dab0c-ec64-4fc1-a0ae-710c2fb28efb"},"vehicle_type_id":"4","last_reported":1727082659,"current_range_meters":37600,"station_id":"ce4bhh12rcd13ifvqff0","pricing_plan_id":"cebpf4jnsgd1na2vs0mg"},{"bike_id":"cafc1892-d38a-400e-9753-0536b0eb5bd7","system_id":"levelo_inurba_marseille","lat":43.27493,"lon":5.42454,"is_reserved":false,"is_disabled":false,"rental_uris":{"android":"levelo://app?vid=cafc1892-d38a-400e-9753-0536b0eb5bd7","ios":"levelo://app?vid=cafc1892-d38a-400e-9753-0536b0eb5bd7"},"vehicle_type_id":"4","last_reported":1727082659,"current_range_meters":10800,"station_id":"ce4bhn92rcd13ifvqgrg","pricing_plan_id":"cebpf4jnsgd1na2vs0mg"},{"bike_id":"bed459a2-dc9a-4c2d-b8a7-3be3610d8afa","system_id":"levelo_inurba_marseille","lat":43.30467,"lon":5.37898,"is_reserved":false,"is_disabled":false,"rental_uris":{"android":"levelo://app?vid=bed459a2-dc9a-4c2d-b8a7-3be3610d8afa","ios":"levelo://app?vid=bed459a2-dc9a-4c2d-b8a7-3be3610d8afa"},"vehicle_type_id":"4","last_reported":1727082659,"current_range_meters":10000,"station_id":"ce4bgup2rcd13ifvqcn0","pricing_plan_id":"cebpf4jnsgd1na2vs0mg"},{"bike_id":"a1130285-14c1-471d-a411-fb2eed577eff","system_id":"levelo_inurba_marseille","lat":43.23137,"lon":5.43718,"is_reserved":false,"is_disabled":false,"rental_uris":{"android":"levelo://app?vid=a1130285-14c1-471d-a411-fb2eed577eff","ios":"levelo://app?vid=a1130285-14c1-471d-a411-fb2eed577eff"},"vehicle_type_id":"4","last_reported":1727082659,"current_range_meters":28400,"station_id":"ce4bhmp2rcd13ifvqgog","pricing_plan_id":"cebpf4jnsgd1na2vs0mg"},{"bike_id":"b972412e-115f-45e1-a782-73485c3c7b69","system_id":"levelo_inurba_marseille","lat":43.32055,"lon":5.41551,"is_reserved":false,"is_disabled":false,"rental_uris":{"android":"levelo://app?vid=b972412e-115f-45e1-a782-73485c3c7b69","ios":"levelo://app?vid=b972412e-115f-45e1-a782-73485c3c7b69"},"vehicle_type_id":"4","last_reported":1727082659,"current_range_meters":36400,"station_id":"ce4bhq92rcd13ifvqhkg","pricing_plan_id":"cebpf4jnsgd1na2vs0mg"},{"bike_id":"75c228dd-5d22-472e-8a3b-5da67fad73ae","system_id":"levelo_inurba_marseille","lat":43.30536,"lon":5.36708,"is_reserved":false,"is_disabled":false,"rental_uris":{"android":"levelo://app?vid=75c228dd-5d22-472e-8a3b-5da67fad73ae","ios":"levelo://app?vid=75c228dd-5d22-472e-8a3b-5da67fad73ae"},"vehicle_type_id":"4","last_reported":1727082659,"current_range_meters":17600,"station_id":"ce4bgrp2rcd13ifvqc9g","pricing_plan_id":"cebpf4jnsgd1na2vs0mg"},{"bike_id":"a478c4e2-b12d-45da-a8a8-14e5ecfa0723","system_id":"levelo_inurba_marseille","lat":43.30536,"lon":5.36704,"is_reserved":false,"is_disabled":false,"rental_uris":{"android":"levelo://app?vid=a478c4e2-b12d-45da-a8a8-14e5ecfa0723","ios":"levelo://app?vid=a478c4e2-b12d-45da-a8a8-14e5ecfa0723"},"vehicle_type_id":"4","last_reported":1727082659,"current_range_meters":10000,"station_id":"ce4bgrp2rcd13ifvqc9g","pricing_plan_id":"cebpf4jnsgd1na2vs0mg"},{"bike_id":"3788f45a-3be9-4c81-8b77-2cb3b52e22fe","system_id":"levelo_inurba_marseille","lat":43.28146,"lon":5.42643,"is_reserved":false,"is_disabled":false,"rental_uris":{"android":"levelo://app?vid=3788f45a-3be9-4c81-8b77-2cb3b52e22fe","ios":"levelo://app?vid=3788f45a-3be9-4c81-8b77-2cb3b52e22fe"},"vehicle_type_id":"4","last_reported":1727082659,"current_range_meters":30800,"station_id":"ce4bhnh2rcd13ifvqgug","pricing_plan_id":"cebpf4jnsgd1na2vs0mg"},{"bike_id":"88e4c0fa-72f1-440f-996a-774d6383e494","system_id":"levelo_inurba_marseille","lat":43.29844,"lon":5.36272,"is_reserved":false,"is_disabled":false,"rental_uris":{"android":"levelo://app?vid=88e4c0fa-72f1-440f-996a-774d6383e494","ios":"levelo://app?vid=88e4c0fa-72f1-440f-996a-774d6383e494"},"vehicle_type_id":"4","last_reported":1727082659,"current_range_meters":38800,"station_id":"ce4bgpp2rcd13ifvqc3g","pricing_plan_id":"cebpf4jnsgd1na2vs0mg"},{"bike_id":"44b50cd5-9fec-40b7-88e0-c89ccba3762c","system_id":"levelo_inurba_marseille","lat":43.2315,"lon":5.43707,"is_reserved":false,"is_disabled":false,"rental_uris":{"android":"levelo://app?vid=44b50cd5-9fec-40b7-88e0-c89ccba3762c","ios":"levelo://app?vid=44b50cd5-9fec-40b7-88e0-c89ccba3762c"},"vehicle_type_id":"4","last_reported":1727082659,"current_range_meters":39200,"station_id":"ce4bhmp2rcd13ifvqgog","pricing_plan_id":"cebpf4jnsgd1na2vs0mg"},{"bike_id":"22505be1-a6da-4331-b891-e92225cf91d7","system_id":"levelo_inurba_marseille","lat":43.28999,"lon":5.35617,"is_reserved":false,"is_disabled":false,"rental_uris":{"android":"levelo://app?vid=22505be1-a6da-4331-b891-e92225cf91d7","ios":"levelo://app?vid=22505be1-a6da-4331-b891-e92225cf91d7"},"vehicle_type_id":"4","last_reported":1727082659,"current_range_meters":37600,"station_id":"ce4bhb92rcd13ifvqen0","pricing_plan_id":"cebpf4jnsgd1na2vs0mg"},{"bike_id":"e9c8c3ef-6dbb-4dc9-97d7-c75a8bd608e2","system_id":"levelo_inurba_marseille","lat":43.24074,"lon":5.37761,"is_reserved":false,"is_disabled":false,"rental_uris":{"android":"levelo://app?vid=e9c8c3ef-6dbb-4dc9-97d7-c75a8bd608e2","ios":"levelo://app?vid=e9c8c3ef-6dbb-4dc9-97d7-c75a8bd608e2"},"vehicle_type_id":"4","last_reported":1727082659,"current_range_meters":6800,"station_id":"ce4bhnp2rcd13ifvqgvg","pricing_plan_id":"cebpf4jnsgd1na2vs0mg"},{"bike_id":"49651c6b-106a-4630-9e3a-edc809336fd2","system_id":"levelo_inurba_marseille","lat":43.25819,"lon":5.39426,"is_reserved":false,"is_disabled":false,"rental_uris":{"android":"levelo://app?vid=49651c6b-106a-4630-9e3a-edc809336fd2","ios":"levelo://app?vid=49651c6b-106a-4630-9e3a-edc809336fd2"},"vehicle_type_id":"4","last_reported":1727082659,"current_range_meters":39200,"station_id":"ce4bhip2rcd13ifvqft0","pricing_plan_id":"cebpf4jnsgd1na2vs0mg"},{"bike_id":"eb8227e8-104f-4426-9476-43d7a6074195","system_id":"levelo_inurba_marseille","lat":43.26785,"lon":5.39413,"is_reserved":false,"is_disabled":false,"rental_uris":{"android":"levelo://app?vid=eb8227e8-104f-4426-9476-43d7a6074195","ios":"levelo://app?vid=eb8227e8-104f-4426-9476-43d7a6074195"},"vehicle_type_id":"4","last_reported":1727082659,"current_range_meters":27600,"station_id":"ce4bhh12rcd13ifvqfg0","pricing_plan_id":"cebpf4jnsgd1na2vs0mg"},{"bike_id":"6cbc2fdc-96a1-4bca-b822-56394ecb85a1","system_id":"levelo_inurba_marseille","lat":43.29563,"lon":5.42281,"is_reserved":false,"is_disabled":false,"rental_uris":{"android":"levelo://app?vid=6cbc2fdc-96a1-4bca-b822-56394ecb85a1","ios":"levelo://app?vid=6cbc2fdc-96a1-4bca-b822-56394ecb85a1"},"vehicle_type_id":"4","last_reported":1727082659,"current_range_meters":38000,"station_id":"ce4bhph2rcd13ifvqhdg","pricing_plan_id":"cebpf4jnsgd1na2vs0mg"},{"bike_id":"a7a2630d-54d4-495a-8506-d0472b9b9a1a","system_id":"levelo_inurba_marseille","lat":43.29549,"lon":5.42292,"is_reserved":false,"is_disabled":false,"rental_uris":{"android":"levelo://app?vid=a7a2630d-54d4-495a-8506-d0472b9b9a1a","ios":"levelo://app?vid=a7a2630d-54d4-495a-8506-d0472b9b9a1a"},"vehicle_type_id":"4","last_reported":1727082659,"current_range_meters":36400,"station_id":"ce4bhph2rcd13ifvqhdg","pricing_plan_id":"cebpf4jnsgd1na2vs0mg"},{"bike_id":"b427738b-8602-4009-98cd-001979e04fe0","system_id":"levelo_inurba_marseille","lat":43.29595,"lon":5.38113,"is_reserved":false,"is_disabled":false,"rental_uris":{"android":"levelo://app?vid=b427738b-8602-4009-98cd-001979e04fe0","ios":"levelo://app?vid=b427738b-8602-4009-98cd-001979e04fe0"},"vehicle_type_id":"4","last_reported":1727082659,"current_range_meters":9200,"station_id":"ce4bgl12rcd13ifvqbo0","pricing_plan_id":"cebpf4jnsgd1na2vs0mg"},{"bike_id":"22c2433e-56a2-4e59-9d36-d34c2cf124b6","system_id":"levelo_inurba_marseille","lat":43.337444,"lon":5.374475,"is_reserved":false,"is_disabled":false,"rental_uris":{"android":"levelo://app?vid=22c2433e-56a2-4e59-9d36-d34c2cf124b6","ios":"levelo://app?vid=22c2433e-56a2-4e59-9d36-d34c2cf124b6"},"vehicle_type_id":"4","last_reported":1727082659,"current_range_meters":28800,"station_id":"ce4bh192rcd13ifvqdb0","pricing_plan_id":"cebpf4jnsgd1na2vs0mg"},{"bike_id":"5524e161-1116-48ae-a9c2-520fcecf51a9","system_id":"levelo_inurba_marseille","lat":43.24079,"lon":5.37755,"is_reserved":false,"is_disabled":false,"rental_uris":{"android":"levelo://app?vid=5524e161-1116-48ae-a9c2-520fcecf51a9","ios":"levelo://app?vid=5524e161-1116-48ae-a9c2-520fcecf51a9"},"vehicle_type_id":"4","last_reported":1727082659,"current_range_meters":28400,"station_id":"ce4bhnp2rcd13ifvqgvg","pricing_plan_id":"cebpf4jnsgd1na2vs0mg"},{"bike_id":"5e43abb1-7db1-435e-a343-e4d467dda962","system_id":"levelo_inurba_marseille","lat":43.30543,"lon":5.36714,"is_reserved":false,"is_disabled":false,"rental_uris":{"android":"levelo://app?vid=5e43abb1-7db1-435e-a343-e4d467dda962","ios":"levelo://app?vid=5e43abb1-7db1-435e-a343-e4d467dda962"},"vehicle_type_id":"4","last_reported":1727082659,"current_range_meters":38800,"station_id":"ce4bgrp2rcd13ifvqc9g","pricing_plan_id":"cebpf4jnsgd1na2vs0mg"},{"bike_id":"ed54be99-fc57-4d5a-a64d-283a09df8194","system_id":"levelo_inurba_marseille","lat":43.27416,"lon":5.36183,"is_reserved":false,"is_disabled":false,"rental_uris":{"android":"levelo://app?vid=ed54be99-fc57-4d5a-a64d-283a09df8194","ios":"levelo://app?vid=ed54be99-fc57-4d5a-a64d-283a09df8194"},"vehicle_type_id":"4","last_reported":1727082659,"current_range_meters":38000,"station_id":"","pricing_plan_id":"cebpf4jnsgd1na2vs0mg"},{"bike_id":"ba9fc08a-f268-4c0a-9705-8cab093e0b4b","system_id":"levelo_inurba_marseille","lat":43.2315,"lon":5.43719,"is_reserved":false,"is_disabled":false,"rental_uris":{"android":"levelo://app?vid=ba9fc08a-f268-4c0a-9705-8cab093e0b4b","ios":"levelo://app?vid=ba9fc08a-f268-4c0a-9705-8cab093e0b4b"},"vehicle_type_id":"4","last_reported":1727082659,"current_range_meters":33200,"station_id":"ce4bhmp2rcd13ifvqgog","pricing_plan_id":"cebpf4jnsgd1na2vs0mg"},{"bike_id":"b12d2f34-f97d-49cb-a7f7-4ed462dc25a9","system_id":"levelo_inurba_marseille","lat":43.3055,"lon":5.3671,"is_reserved":false,"is_disabled":false,"rental_uris":{"android":"levelo://app?vid=b12d2f34-f97d-49cb-a7f7-4ed462dc25a9","ios":"levelo://app?vid=b12d2f34-f97d-49cb-a7f7-4ed462dc25a9"},"vehicle_type_id":"4","last_reported":1727082659,"current_range_meters":22000,"station_id":"ce4bgrp2rcd13ifvqc9g","pricing_plan_id":"cebpf4jnsgd1na2vs0mg"},{"bike_id":"45499a73-170e-453f-b9c0-3d944f618237","system_id":"levelo_inurba_marseille","lat":43.296332,"lon":5.377135,"is_reserved":false,"is_disabled":false,"rental_uris":{"android":"levelo://app?vid=45499a73-170e-453f-b9c0-3d944f618237","ios":"levelo://app?vid=45499a73-170e-453f-b9c0-3d944f618237"},"vehicle_type_id":"4","last_reported":1727082659,"current_range_meters":20400,"station_id":"ce4bhgp2rcd13ifvqfe0","pricing_plan_id":"cebpf4jnsgd1na2vs0mg"},{"bike_id":"1091ef48-8ed2-48a9-a7b0-5670679a3e40","system_id":"levelo_inurba_marseille","lat":43.24081,"lon":5.37739,"is_reserved":false,"is_disabled":false,"rental_uris":{"android":"levelo://app?vid=1091ef48-8ed2-48a9-a7b0-5670679a3e40","ios":"levelo://app?vid=1091ef48-8ed2-48a9-a7b0-5670679a3e40"},"vehicle_type_id":"4","last_reported":1727082659,"current_range_meters":35200,"station_id":"ce4bhnp2rcd13ifvqgvg","pricing_plan_id":"cebpf4jnsgd1na2vs0mg"},{"bike_id":"3b2b32b1-081b-464a-b5e2-ce0b7792839b","system_id":"levelo_inurba_marseille","lat":43.26814,"lon":5.38031,"is_reserved":false,"is_disabled":false,"rental_uris":{"android":"levelo://app?vid=3b2b32b1-081b-464a-b5e2-ce0b7792839b","ios":"levelo://app?vid=3b2b32b1-081b-464a-b5e2-ce0b7792839b"},"vehicle_type_id":"4","last_reported":1727082659,"current_range_meters":25200,"station_id":"","pricing_plan_id":"cebpf4jnsgd1na2vs0mg"},{"bike_id":"71aa8592-ddf7-4343-aed4-c00d3433340f","system_id":"levelo_inurba_marseille","lat":43.337444,"lon":5.374475,"is_reserved":false,"is_disabled":false,"rental_uris":{"android":"levelo://app?vid=71aa8592-ddf7-4343-aed4-c00d3433340f","ios":"levelo://app?vid=71aa8592-ddf7-4343-aed4-c00d3433340f"},"vehicle_type_id":"4","last_reported":1727082659,"current_range_meters":27600,"station_id":"","pricing_plan_id":"cebpf4jnsgd1na2vs0mg"},{"bike_id":"3740c6df-06cd-419b-9ae6-b8d9e5eff548","system_id":"levelo_inurba_marseille","lat":43.2753,"lon":5.40935,"is_reserved":false,"is_disabled":false,"rental_uris":{"android":"levelo://app?vid=3740c6df-06cd-419b-9ae6-b8d9e5eff548","ios":"levelo://app?vid=3740c6df-06cd-419b-9ae6-b8d9e5eff548"},"vehicle_type_id":"4","last_reported":1727082659,"current_range_meters":9600,"station_id":"","pricing_plan_id":"cebpf4jnsgd1na2vs0mg"},{"bike_id":"6673e914-081e-4533-8a59-e8ee0c2cf18c","system_id":"levelo_inurba_marseille","lat":43.30946,"lon":5.39037,"is_reserved":false,"is_disabled":false,"rental_uris":{"android":"levelo://app?vid=6673e914-081e-4533-8a59-e8ee0c2cf18c","ios":"levelo://app?vid=6673e914-081e-4533-8a59-e8ee0c2cf18c"},"vehicle_type_id":"4","last_reported":1727082659,"current_range_meters":28800,"station_id":"ce4bgup2rcd13ifvqco0","pricing_plan_id":"cebpf4jnsgd1na2vs0mg"},{"bike_id":"5d228be1-f3d1-47dc-848d-f130a3471fc7","system_id":"levelo_inurba_marseille","lat":43.27494,"lon":5.42459,"is_reserved":false,"is_disabled":false,"rental_uris":{"android":"levelo://app?vid=5d228be1-f3d1-47dc-848d-f130a3471fc7","ios":"levelo://app?vid=5d228be1-f3d1-47dc-848d-f130a3471fc7"},"vehicle_type_id":"4","last_reported":1727082659,"current_range_meters":20800,"station_id":"ce4bhn92rcd13ifvqgrg","pricing_plan_id":"cebpf4jnsgd1na2vs0mg"},{"bike_id":"37cfea08-a4a9-4194-96d9-f325f70d9e4d","system_id":"levelo_inurba_marseille","lat":43.25575,"lon":5.38244,"is_reserved":false,"is_disabled":false,"rental_uris":{"android":"levelo://app?vid=37cfea08-a4a9-4194-96d9-f325f70d9e4d","ios":"levelo://app?vid=37cfea08-a4a9-4194-96d9-f325f70d9e4d"},"vehicle_type_id":"4","last_reported":1727082659,"current_range_meters":8000,"station_id":"ce4bhih2rcd13ifvqfs0","pricing_plan_id":"cebpf4jnsgd1na2vs0mg"},{"bike_id":"1190a69f-3376-4c5c-8353-291b41658ea5","system_id":"levelo_inurba_marseille","lat":43.28707,"lon":5.37943,"is_reserved":false,"is_disabled":false,"rental_uris":{"android":"levelo://app?vid=1190a69f-3376-4c5c-8353-291b41658ea5","ios":"levelo://app?vid=1190a69f-3376-4c5c-8353-291b41658ea5"},"vehicle_type_id":"4","last_reported":1727082659,"current_range_meters":26000,"station_id":"ce4bh9p2rcd13ifvqec0","pricing_plan_id":"cebpf4jnsgd1na2vs0mg"},{"bike_id":"37129aa8-05a3-4467-8fa1-1fc6f7f9028c","system_id":"levelo_inurba_marseille","lat":43.30948,"lon":5.39048,"is_reserved":false,"is_disabled":false,"rental_uris":{"android":"levelo://app?vid=37129aa8-05a3-4467-8fa1-1fc6f7f9028c","ios":"levelo://app?vid=37129aa8-05a3-4467-8fa1-1fc6f7f9028c"},"vehicle_type_id":"4","last_reported":1727082659,"current_range_meters":38800,"station_id":"ce4bgup2rcd13ifvqco0","pricing_plan_id":"cebpf4jnsgd1na2vs0mg"},{"bike_id":"6b1bfc7c-4a19-4e40-a1e6-7bc55c265373","system_id":"levelo_inurba_marseille","lat":43.27728,"lon":5.42444,"is_reserved":false,"is_disabled":false,"rental_uris":{"android":"levelo://app?vid=6b1bfc7c-4a19-4e40-a1e6-7bc55c265373","ios":"levelo://app?vid=6b1bfc7c-4a19-4e40-a1e6-7bc55c265373"},"vehicle_type_id":"4","last_reported":1727082659,"current_range_meters":30800,"station_id":"","pricing_plan_id":"cebpf4jnsgd1na2vs0mg"},{"bike_id":"715c4804-6a86-4398-98ec-b57358573177","system_id":"levelo_inurba_marseille","lat":43.22931,"lon":5.35374,"is_reserved":false,"is_disabled":false,"rental_uris":{"android":"levelo://app?vid=715c4804-6a86-4398-98ec-b57358573177","ios":"levelo://app?vid=715c4804-6a86-4398-98ec-b57358573177"},"vehicle_type_id":"4","last_reported":1727082659,"current_range_meters":35600,"station_id":"cpo3532slgdg3j2ikp40","pricing_plan_id":"cebpf4jnsgd1na2vs0mg"},{"bike_id":"80ef7279-b375-4587-b39b-77c91fd7500b","system_id":"levelo_inurba_marseille","lat":43.33604,"lon":5.41027,"is_reserved":false,"is_disabled":false,"rental_uris":{"android":"levelo://app?vid=80ef7279-b375-4587-b39b-77c91fd7500b","ios":"levelo://app?vid=80ef7279-b375-4587-b39b-77c91fd7500b"},"vehicle_type_id":"4","last_reported":1727082659,"current_range_meters":38800,"station_id":"ce4bhqh2rcd13ifvqhmg","pricing_plan_id":"cebpf4jnsgd1na2vs0mg"},{"bike_id":"ed07235a-0b57-4787-8dcc-b6b10037f799","system_id":"levelo_inurba_marseille","lat":43.29301,"lon":5.37455,"is_reserved":false,"is_disabled":false,"rental_uris":{"android":"levelo://app?vid=ed07235a-0b57-4787-8dcc-b6b10037f799","ios":"levelo://app?vid=ed07235a-0b57-4787-8dcc-b6b10037f799"},"vehicle_type_id":"4","last_reported":1727082659,"current_range_meters":38800,"station_id":"ce4bgi12rcd13ifvqb70","pricing_plan_id":"cebpf4jnsgd1na2vs0mg"},{"bike_id":"3881f3ba-c430-446d-8492-6446cdc89c2c","system_id":"levelo_inurba_marseille","lat":43.29901,"lon":5.3814,"is_reserved":false,"is_disabled":false,"rental_uris":{"android":"levelo://app?vid=3881f3ba-c430-446d-8492-6446cdc89c2c","ios":"levelo://app?vid=3881f3ba-c430-446d-8492-6446cdc89c2c"},"vehicle_type_id":"4","last_reported":1727082659,"current_range_meters":38800,"station_id":"ce4bgj12rcd13ifvqbc0","pricing_plan_id":"cebpf4jnsgd1na2vs0mg"},{"bike_id":"ba2542eb-4a30-47aa-b57a-68ac954d789a","system_id":"levelo_inurba_marseille","lat":43.23192,"lon":5.35571,"is_reserved":false,"is_disabled":false,"rental_uris":{"android":"levelo://app?vid=ba2542eb-4a30-47aa-b57a-68ac954d789a","ios":"levelo://app?vid=ba2542eb-4a30-47aa-b57a-68ac954d789a"},"vehicle_type_id":"4","last_reported":1727082659,"current_range_meters":18800,"station_id":"ce4bhu92rcd13ifvqi70","pricing_plan_id":"cebpf4jnsgd1na2vs0mg"},{"bike_id":"f3e8cb19-10d9-4643-858a-f12028fda91d","system_id":"levelo_inurba_marseille","lat":43.26025,"lon":5.37553,"is_reserved":false,"is_disabled":false,"rental_uris":{"android":"levelo://app?vid=f3e8cb19-10d9-4643-858a-f12028fda91d","ios":"levelo://app?vid=f3e8cb19-10d9-4643-858a-f12028fda91d"},"vehicle_type_id":"4","last_reported":1727082659,"current_range_meters":8800,"station_id":"ce4bhgh2rcd13ifvqfa0","pricing_plan_id":"cebpf4jnsgd1na2vs0mg"},{"bike_id":"18716341-81aa-4bf4-8224-0a0eb12ee2f4","system_id":"levelo_inurba_marseille","lat":43.30478,"lon":5.37907,"is_reserved":false,"is_disabled":false,"rental_uris":{"android":"levelo://app?vid=18716341-81aa-4bf4-8224-0a0eb12ee2f4","ios":"levelo://app?vid=18716341-81aa-4bf4-8224-0a0eb12ee2f4"},"vehicle_type_id":"4","last_reported":1727082659,"current_range_meters":30800,"station_id":"ce4bgup2rcd13ifvqcn0","pricing_plan_id":"cebpf4jnsgd1na2vs0mg"},{"bike_id":"9acd705f-50cc-49dd-82e9-a44effdf1cb1","system_id":"levelo_inurba_marseille","lat":43.30649,"lon":5.40089,"is_reserved":false,"is_disabled":false,"rental_uris":{"android":"levelo://app?vid=9acd705f-50cc-49dd-82e9-a44effdf1cb1","ios":"levelo://app?vid=9acd705f-50cc-49dd-82e9-a44effdf1cb1"},"vehicle_type_id":"4","last_reported":1727082659,"current_range_meters":38800,"station_id":"ce4bh112rcd13ifvqda0","pricing_plan_id":"cebpf4jnsgd1na2vs0mg"},{"bike_id":"95de4d13-3bc8-4171-9bae-71ad4d896484","system_id":"levelo_inurba_marseille","lat":43.28776,"lon":5.37806,"is_reserved":false,"is_disabled":false,"rental_uris":{"android":"levelo://app?vid=95de4d13-3bc8-4171-9bae-71ad4d896484","ios":"levelo://app?vid=95de4d13-3bc8-4171-9bae-71ad4d896484"},"vehicle_type_id":"4","last_reported":1727082659,"current_range_meters":24400,"station_id":"","pricing_plan_id":"cebpf4jnsgd1na2vs0mg"},{"bike_id":"4005ca99-f427-4dc0-9662-be0c3492a9c6","system_id":"levelo_inurba_marseille","lat":43.28716,"lon":5.37952,"is_reserved":false,"is_disabled":false,"rental_uris":{"android":"levelo://app?vid=4005ca99-f427-4dc0-9662-be0c3492a9c6","ios":"levelo://app?vid=4005ca99-f427-4dc0-9662-be0c3492a9c6"},"vehicle_type_id":"4","last_reported":1727082659,"current_range_meters":29600,"station_id":"ce4bh9p2rcd13ifvqec0","pricing_plan_id":"cebpf4jnsgd1na2vs0mg"},{"bike_id":"b6be7281-305f-4cff-b5d9-59ddfbbdef54","system_id":"levelo_inurba_marseille","lat":43.28266,"lon":5.3509,"is_reserved":false,"is_disabled":false,"rental_uris":{"android":"levelo://app?vid=b6be7281-305f-4cff-b5d9-59ddfbbdef54","ios":"levelo://app?vid=b6be7281-305f-4cff-b5d9-59ddfbbdef54"},"vehicle_type_id":"4","last_reported":1727082659,"current_range_meters":20400,"station_id":"ce4bhbp2rcd13ifvqerg","pricing_plan_id":"cebpf4jnsgd1na2vs0mg"},{"bike_id":"43ef4bd2-25c5-4c2b-a818-b6bc5e6bf5a7","system_id":"levelo_inurba_marseille","lat":43.24548,"lon":5.39517,"is_reserved":false,"is_disabled":false,"rental_uris":{"android":"levelo://app?vid=43ef4bd2-25c5-4c2b-a818-b6bc5e6bf5a7","ios":"levelo://app?vid=43ef4bd2-25c5-4c2b-a818-b6bc5e6bf5a7"},"vehicle_type_id":"4","last_reported":1727082659,"current_range_meters":35200,"station_id":"ce4bhlp2rcd13ifvqgjg","pricing_plan_id":"cebpf4jnsgd1na2vs0mg"},{"bike_id":"2c0ed085-e024-4c7a-86c9-f3c3cb5deaef","system_id":"levelo_inurba_marseille","lat":43.26204,"lon":5.37934,"is_reserved":false,"is_disabled":false,"rental_uris":{"android":"levelo://app?vid=2c0ed085-e024-4c7a-86c9-f3c3cb5deaef","ios":"levelo://app?vid=2c0ed085-e024-4c7a-86c9-f3c3cb5deaef"},"vehicle_type_id":"4","last_reported":1727082659,"current_range_meters":9200,"station_id":"ce4bhjp2rcd13ifvqg90","pricing_plan_id":"cebpf4jnsgd1na2vs0mg"},{"bike_id":"88de7929-7efa-466d-9e2a-ea683c637482","system_id":"levelo_inurba_marseille","lat":43.25576,"lon":5.38241,"is_reserved":false,"is_disabled":false,"rental_uris":{"android":"levelo://app?vid=88de7929-7efa-466d-9e2a-ea683c637482","ios":"levelo://app?vid=88de7929-7efa-466d-9e2a-ea683c637482"},"vehicle_type_id":"4","last_reported":1727082659,"current_range_meters":32800,"station_id":"ce4bhih2rcd13ifvqfs0","pricing_plan_id":"cebpf4jnsgd1na2vs0mg"},{"bike_id":"1575e777-51f8-479e-bd95-714cef91a125","system_id":"levelo_inurba_marseille","lat":43.24188,"lon":5.39724,"is_reserved":false,"is_disabled":false,"rental_uris":{"android":"levelo://app?vid=1575e777-51f8-479e-bd95-714cef91a125","ios":"levelo://app?vid=1575e777-51f8-479e-bd95-714cef91a125"},"vehicle_type_id":"4","last_reported":1727082659,"current_range_meters":22800,"station_id":"ce4bhn12rcd13ifvqgpg","pricing_plan_id":"cebpf4jnsgd1na2vs0mg"},{"bike_id":"a453e980-a368-4894-97ab-18198a6ac1d6","system_id":"levelo_inurba_marseille","lat":43.33751,"lon":5.37463,"is_reserved":false,"is_disabled":false,"rental_uris":{"android":"levelo://app?vid=a453e980-a368-4894-97ab-18198a6ac1d6","ios":"levelo://app?vid=a453e980-a368-4894-97ab-18198a6ac1d6"},"vehicle_type_id":"4","last_reported":1727082659,"current_range_meters":23200,"station_id":"","pricing_plan_id":"cebpf4jnsgd1na2vs0mg"},{"bike_id":"25c9cc21-5d60-4426-b421-70b8d5c0c5b8","system_id":"levelo_inurba_marseille","lat":43.29612,"lon":5.3771,"is_reserved":false,"is_disabled":false,"rental_uris":{"android":"levelo://app?vid=25c9cc21-5d60-4426-b421-70b8d5c0c5b8","ios":"levelo://app?vid=25c9cc21-5d60-4426-b421-70b8d5c0c5b8"},"vehicle_type_id":"4","last_reported":1727082659,"current_range_meters":24000,"station_id":"ce4bgi92rcd13ifvqb90","pricing_plan_id":"cebpf4jnsgd1na2vs0mg"},{"bike_id":"2c3baefd-e174-4a0f-b3c0-c1acdaa422ad","system_id":"levelo_inurba_marseille","lat":43.25936,"lon":5.40912,"is_reserved":false,"is_disabled":false,"rental_uris":{"android":"levelo://app?vid=2c3baefd-e174-4a0f-b3c0-c1acdaa422ad","ios":"levelo://app?vid=2c3baefd-e174-4a0f-b3c0-c1acdaa422ad"},"vehicle_type_id":"4","last_reported":1727082659,"current_range_meters":34000,"station_id":"ce4bhm92rcd13ifvqglg","pricing_plan_id":"cebpf4jnsgd1na2vs0mg"},{"bike_id":"54db8160-556f-4838-beec-11d78ced79da","system_id":"levelo_inurba_marseille","lat":43.28151,"lon":5.42642,"is_reserved":false,"is_disabled":false,"rental_uris":{"android":"levelo://app?vid=54db8160-556f-4838-beec-11d78ced79da","ios":"levelo://app?vid=54db8160-556f-4838-beec-11d78ced79da"},"vehicle_type_id":"4","last_reported":1727082659,"current_range_meters":12000,"station_id":"ce4bhnh2rcd13ifvqgug","pricing_plan_id":"cebpf4jnsgd1na2vs0mg"},{"bike_id":"cf904d8e-dd56-4449-9634-5ec8fcd061ab","system_id":"levelo_inurba_marseille","lat":43.3375,"lon":5.37453,"is_reserved":false,"is_disabled":false,"rental_uris":{"android":"levelo://app?vid=cf904d8e-dd56-4449-9634-5ec8fcd061ab","ios":"levelo://app?vid=cf904d8e-dd56-4449-9634-5ec8fcd061ab"},"vehicle_type_id":"4","last_reported":1727082659,"current_range_meters":38800,"station_id":"","pricing_plan_id":"cebpf4jnsgd1na2vs0mg"},{"bike_id":"02486d64-1a8b-4bbe-b235-713b4d9a1f6e","system_id":"levelo_inurba_marseille","lat":43.24075,"lon":5.37761,"is_reserved":false,"is_disabled":false,"rental_uris":{"android":"levelo://app?vid=02486d64-1a8b-4bbe-b235-713b4d9a1f6e","ios":"levelo://app?vid=02486d64-1a8b-4bbe-b235-713b4d9a1f6e"},"vehicle_type_id":"4","last_reported":1727082659,"current_range_meters":28400,"station_id":"ce4bhnp2rcd13ifvqgvg","pricing_plan_id":"cebpf4jnsgd1na2vs0mg"},{"bike_id":"c8e51b48-153b-4ef3-b8a3-de3ee7e4bdc6","system_id":"levelo_inurba_marseille","lat":43.24071,"lon":5.37761,"is_reserved":false,"is_disabled":false,"rental_uris":{"android":"levelo://app?vid=c8e51b48-153b-4ef3-b8a3-de3ee7e4bdc6","ios":"levelo://app?vid=c8e51b48-153b-4ef3-b8a3-de3ee7e4bdc6"},"vehicle_type_id":"4","last_reported":1727082659,"current_range_meters":28000,"station_id":"ce4bhnp2rcd13ifvqgvg","pricing_plan_id":"cebpf4jnsgd1na2vs0mg"},{"bike_id":"595ab009-7e8f-4eb2-8e57-800280dd9ff9","system_id":"levelo_inurba_marseille","lat":43.279755,"lon":5.387375,"is_reserved":false,"is_disabled":false,"rental_uris":{"android":"levelo://app?vid=595ab009-7e8f-4eb2-8e57-800280dd9ff9","ios":"levelo://app?vid=595ab009-7e8f-4eb2-8e57-800280dd9ff9"},"vehicle_type_id":"4","last_reported":1727082659,"current_range_meters":18000,"station_id":"ce4bhg12rcd13ifvqf80","pricing_plan_id":"cebpf4jnsgd1na2vs0mg"},{"bike_id":"d765ecc6-f24e-4e18-aeb0-429ef33b50a7","system_id":"levelo_inurba_marseille","lat":43.23189,"lon":5.39979,"is_reserved":false,"is_disabled":false,"rental_uris":{"android":"levelo://app?vid=d765ecc6-f24e-4e18-aeb0-429ef33b50a7","ios":"levelo://app?vid=d765ecc6-f24e-4e18-aeb0-429ef33b50a7"},"vehicle_type_id":"4","last_reported":1727082659,"current_range_meters":38800,"station_id":"ce4bhn12rcd13ifvqgqg","pricing_plan_id":"cebpf4jnsgd1na2vs0mg"},{"bike_id":"09b0c39f-a13f-4fb3-b353-5833cb9ecfc5","system_id":"levelo_inurba_marseille","lat":43.31332,"lon":5.36744,"is_reserved":false,"is_disabled":false,"rental_uris":{"android":"levelo://app?vid=09b0c39f-a13f-4fb3-b353-5833cb9ecfc5","ios":"levelo://app?vid=09b0c39f-a13f-4fb3-b353-5833cb9ecfc5"},"vehicle_type_id":"4","last_reported":1727082659,"current_range_meters":38800,"station_id":"ce4bgr92rcd13ifvqc6g","pricing_plan_id":"cebpf4jnsgd1na2vs0mg"},{"bike_id":"feb42740-c719-4916-9efa-d99f861e0e6d","system_id":"levelo_inurba_marseille","lat":43.32477,"lon":5.36576,"is_reserved":false,"is_disabled":false,"rental_uris":{"android":"levelo://app?vid=feb42740-c719-4916-9efa-d99f861e0e6d","ios":"levelo://app?vid=feb42740-c719-4916-9efa-d99f861e0e6d"},"vehicle_type_id":"4","last_reported":1727082659,"current_range_meters":30800,"station_id":"ce4bhs12rcd13ifvqhvg","pricing_plan_id":"cebpf4jnsgd1na2vs0mg"},{"bike_id":"914ae7ef-1ebe-4882-be25-0c3aa3dad21f","system_id":"levelo_inurba_marseille","lat":43.30539,"lon":5.367,"is_reserved":false,"is_disabled":false,"rental_uris":{"android":"levelo://app?vid=914ae7ef-1ebe-4882-be25-0c3aa3dad21f","ios":"levelo://app?vid=914ae7ef-1ebe-4882-be25-0c3aa3dad21f"},"vehicle_type_id":"4","last_reported":1727082659,"current_range_meters":27200,"station_id":"ce4bgrp2rcd13ifvqc9g","pricing_plan_id":"cebpf4jnsgd1na2vs0mg"},{"bike_id":"acf74238-e053-4d9d-839b-01e3f7b5551f","system_id":"levelo_inurba_marseille","lat":43.29364,"lon":5.37861,"is_reserved":false,"is_disabled":false,"rental_uris":{"android":"levelo://app?vid=acf74238-e053-4d9d-839b-01e3f7b5551f","ios":"levelo://app?vid=acf74238-e053-4d9d-839b-01e3f7b5551f"},"vehicle_type_id":"4","last_reported":1727082659,"current_range_meters":33600,"station_id":"ce4bgjh2rcd13ifvqbf0","pricing_plan_id":"cebpf4jnsgd1na2vs0mg"},{"bike_id":"3b7312f9-6244-4b71-a8bc-65ca3c008c21","system_id":"levelo_inurba_marseille","lat":43.30598,"lon":5.37238,"is_reserved":false,"is_disabled":false,"rental_uris":{"android":"levelo://app?vid=3b7312f9-6244-4b71-a8bc-65ca3c008c21","ios":"levelo://app?vid=3b7312f9-6244-4b71-a8bc-65ca3c008c21"},"vehicle_type_id":"4","last_reported":1727082659,"current_range_meters":20800,"station_id":"ce4bgqh2rcd13ifvqc4g","pricing_plan_id":"cebpf4jnsgd1na2vs0mg"},{"bike_id":"9966dd17-bcc2-4b18-a145-0c104b1a0e60","system_id":"levelo_inurba_marseille","lat":43.3031,"lon":5.36891,"is_reserved":false,"is_disabled":false,"rental_uris":{"android":"levelo://app?vid=9966dd17-bcc2-4b18-a145-0c104b1a0e60","ios":"levelo://app?vid=9966dd17-bcc2-4b18-a145-0c104b1a0e60"},"vehicle_type_id":"4","last_reported":1727082659,"current_range_meters":18000,"station_id":"ce4bgqh2rcd13ifvqc5g","pricing_plan_id":"cebpf4jnsgd1na2vs0mg"},{"bike_id":"fce734b4-6c36-4cb6-983c-c95238702258","system_id":"levelo_inurba_marseille","lat":43.31074,"lon":5.38113,"is_reserved":false,"is_disabled":false,"rental_uris":{"android":"levelo://app?vid=fce734b4-6c36-4cb6-983c-c95238702258","ios":"levelo://app?vid=fce734b4-6c36-4cb6-983c-c95238702258"},"vehicle_type_id":"4","last_reported":1727082659,"current_range_meters":8400,"station_id":"","pricing_plan_id":"cebpf4jnsgd1na2vs0mg"},{"bike_id":"3392fbd0-8f08-40e0-ab48-b0062035775d","system_id":"levelo_inurba_marseille","lat":43.28485,"lon":5.38547,"is_reserved":false,"is_disabled":false,"rental_uris":{"android":"levelo://app?vid=3392fbd0-8f08-40e0-ab48-b0062035775d","ios":"levelo://app?vid=3392fbd0-8f08-40e0-ab48-b0062035775d"},"vehicle_type_id":"4","last_reported":1727082659,"current_range_meters":37600,"station_id":"ce4bh8p2rcd13ifvqeb0","pricing_plan_id":"cebpf4jnsgd1na2vs0mg"},{"bike_id":"55312e9c-8d7a-4104-aea6-b6bceb05f2bb","system_id":"levelo_inurba_marseille","lat":43.3014,"lon":5.37428,"is_reserved":false,"is_disabled":false,"rental_uris":{"android":"levelo://app?vid=55312e9c-8d7a-4104-aea6-b6bceb05f2bb","ios":"levelo://app?vid=55312e9c-8d7a-4104-aea6-b6bceb05f2bb"},"vehicle_type_id":"4","last_reported":1727082659,"current_range_meters":39200,"station_id":"ce4bgs92rcd13ifvqcc0","pricing_plan_id":"cebpf4jnsgd1na2vs0mg"},{"bike_id":"e9ff8a04-d08a-4e53-ba15-13ed3974ebbf","system_id":"levelo_inurba_marseille","lat":43.29902,"lon":5.43672,"is_reserved":false,"is_disabled":false,"rental_uris":{"android":"levelo://app?vid=e9ff8a04-d08a-4e53-ba15-13ed3974ebbf","ios":"levelo://app?vid=e9ff8a04-d08a-4e53-ba15-13ed3974ebbf"},"vehicle_type_id":"4","last_reported":1727082659,"current_range_meters":10000,"station_id":"ce4bhpp2rcd13ifvqhfg","pricing_plan_id":"cebpf4jnsgd1na2vs0mg"},{"bike_id":"0ec38933-5a98-4d42-b084-ca5f237b215a","system_id":"levelo_inurba_marseille","lat":43.30137,"lon":5.37417,"is_reserved":false,"is_disabled":false,"rental_uris":{"android":"levelo://app?vid=0ec38933-5a98-4d42-b084-ca5f237b215a","ios":"levelo://app?vid=0ec38933-5a98-4d42-b084-ca5f237b215a"},"vehicle_type_id":"4","last_reported":1727082659,"current_range_meters":21600,"station_id":"ce4bgs92rcd13ifvqcc0","pricing_plan_id":"cebpf4jnsgd1na2vs0mg"},{"bike_id":"13aed5f1-c255-40bb-923e-72956c25d1fe","system_id":"levelo_inurba_marseille","lat":43.30947,"lon":5.39048,"is_reserved":false,"is_disabled":false,"rental_uris":{"android":"levelo://app?vid=13aed5f1-c255-40bb-923e-72956c25d1fe","ios":"levelo://app?vid=13aed5f1-c255-40bb-923e-72956c25d1fe"},"vehicle_type_id":"4","last_reported":1727082659,"current_range_meters":16000,"station_id":"ce4bgup2rcd13ifvqco0","pricing_plan_id":"cebpf4jnsgd1na2vs0mg"},{"bike_id":"e5afe0f9-2845-4770-8a8a-1f97c66f27dc","system_id":"levelo_inurba_marseille","lat":43.25934,"lon":5.40915,"is_reserved":false,"is_disabled":false,"rental_uris":{"android":"levelo://app?vid=e5afe0f9-2845-4770-8a8a-1f97c66f27dc","ios":"levelo://app?vid=e5afe0f9-2845-4770-8a8a-1f97c66f27dc"},"vehicle_type_id":"4","last_reported":1727082659,"current_range_meters":29600,"station_id":"ce4bhm92rcd13ifvqglg","pricing_plan_id":"cebpf4jnsgd1na2vs0mg"},{"bike_id":"25d05282-6b5a-48d1-8587-ef49257c7481","system_id":"levelo_inurba_marseille","lat":43.26946,"lon":5.38645,"is_reserved":false,"is_disabled":false,"rental_uris":{"android":"levelo://app?vid=25d05282-6b5a-48d1-8587-ef49257c7481","ios":"levelo://app?vid=25d05282-6b5a-48d1-8587-ef49257c7481"},"vehicle_type_id":"4","last_reported":1727082659,"current_range_meters":27600,"station_id":"ce4bhh92rcd13ifvqfh0","pricing_plan_id":"cebpf4jnsgd1na2vs0mg"},{"bike_id":"1845e067-fb2d-4468-9ad6-e842c7ed756f","system_id":"levelo_inurba_marseille","lat":43.29785,"lon":5.3811,"is_reserved":false,"is_disabled":false,"rental_uris":{"android":"levelo://app?vid=1845e067-fb2d-4468-9ad6-e842c7ed756f","ios":"levelo://app?vid=1845e067-fb2d-4468-9ad6-e842c7ed756f"},"vehicle_type_id":"4","last_reported":1727082659,"current_range_meters":24000,"station_id":"ce4bgip2rcd13ifvqbb0","pricing_plan_id":"cebpf4jnsgd1na2vs0mg"},{"bike_id":"d4858cb3-fdd7-461d-933f-149a4030e532","system_id":"levelo_inurba_marseille","lat":43.2971,"lon":5.36595,"is_reserved":false,"is_disabled":false,"rental_uris":{"android":"levelo://app?vid=d4858cb3-fdd7-461d-933f-149a4030e532","ios":"levelo://app?vid=d4858cb3-fdd7-461d-933f-149a4030e532"},"vehicle_type_id":"4","last_reported":1727082659,"current_range_meters":38400,"station_id":"ce4bgn12rcd13ifvqbt0","pricing_plan_id":"cebpf4jnsgd1na2vs0mg"},{"bike_id":"28284f2d-af6a-41fc-ad17-2d5e99e0773a","system_id":"levelo_inurba_marseille","lat":43.30538,"lon":5.36555,"is_reserved":false,"is_disabled":false,"rental_uris":{"android":"levelo://app?vid=28284f2d-af6a-41fc-ad17-2d5e99e0773a","ios":"levelo://app?vid=28284f2d-af6a-41fc-ad17-2d5e99e0773a"},"vehicle_type_id":"4","last_reported":1727082659,"current_range_meters":39200,"station_id":"ce4bgs12rcd13ifvqcag","pricing_plan_id":"cebpf4jnsgd1na2vs0mg"},{"bike_id":"effd8d86-e6b4-4eb5-a698-dd8d37ea6e0b","system_id":"levelo_inurba_marseille","lat":43.337444,"lon":5.374475,"is_reserved":false,"is_disabled":false,"rental_uris":{"android":"levelo://app?vid=effd8d86-e6b4-4eb5-a698-dd8d37ea6e0b","ios":"levelo://app?vid=effd8d86-e6b4-4eb5-a698-dd8d37ea6e0b"},"vehicle_type_id":"4","last_reported":1727082659,"current_range_meters":16800,"station_id":"","pricing_plan_id":"cebpf4jnsgd1na2vs0mg"},{"bike_id":"b8551345-00a8-413b-a6da-b44b1e50d1de","system_id":"levelo_inurba_marseille","lat":43.27491,"lon":5.42459,"is_reserved":false,"is_disabled":false,"rental_uris":{"android":"levelo://app?vid=b8551345-00a8-413b-a6da-b44b1e50d1de","ios":"levelo://app?vid=b8551345-00a8-413b-a6da-b44b1e50d1de"},"vehicle_type_id":"4","last_reported":1727082659,"current_range_meters":35200,"station_id":"ce4bhn92rcd13ifvqgrg","pricing_plan_id":"cebpf4jnsgd1na2vs0mg"},{"bike_id":"c73f2d31-529c-4bf4-8ff9-b1048db97e1d","system_id":"levelo_inurba_marseille","lat":43.28659,"lon":5.38681,"is_reserved":false,"is_disabled":false,"rental_uris":{"android":"levelo://app?vid=c73f2d31-529c-4bf4-8ff9-b1048db97e1d","ios":"levelo://app?vid=c73f2d31-529c-4bf4-8ff9-b1048db97e1d"},"vehicle_type_id":"4","last_reported":1727082659,"current_range_meters":36400,"station_id":"ce4bh492rcd13ifvqdug","pricing_plan_id":"cebpf4jnsgd1na2vs0mg"},{"bike_id":"1e1abea0-0a0d-4a35-9831-5fa529704ae6","system_id":"levelo_inurba_marseille","lat":43.288605,"lon":5.358606,"is_reserved":false,"is_disabled":false,"rental_uris":{"android":"levelo://app?vid=1e1abea0-0a0d-4a35-9831-5fa529704ae6","ios":"levelo://app?vid=1e1abea0-0a0d-4a35-9831-5fa529704ae6"},"vehicle_type_id":"4","last_reported":1727082659,"current_range_meters":24800,"station_id":"ce4bhb12rcd13ifvqem0","pricing_plan_id":"cebpf4jnsgd1na2vs0mg"},{"bike_id":"cb660a1f-39c0-4b29-b61c-d5403f8d97e7","system_id":"levelo_inurba_marseille","lat":43.26683,"lon":5.38269,"is_reserved":false,"is_disabled":false,"rental_uris":{"android":"levelo://app?vid=cb660a1f-39c0-4b29-b61c-d5403f8d97e7","ios":"levelo://app?vid=cb660a1f-39c0-4b29-b61c-d5403f8d97e7"},"vehicle_type_id":"4","last_reported":1727082659,"current_range_meters":35200,"station_id":"ce4bhg92rcd13ifvqf90","pricing_plan_id":"cebpf4jnsgd1na2vs0mg"},{"bike_id":"ecf4b33f-81ea-4160-9af9-1dcfa360846e","system_id":"levelo_inurba_marseille","lat":43.29868,"lon":5.389272,"is_reserved":false,"is_disabled":false,"rental_uris":{"android":"levelo://app?vid=ecf4b33f-81ea-4160-9af9-1dcfa360846e","ios":"levelo://app?vid=ecf4b33f-81ea-4160-9af9-1dcfa360846e"},"vehicle_type_id":"4","last_reported":1727082659,"current_range_meters":24000,"station_id":"ce4bh392rcd13ifvqdl0","pricing_plan_id":"cebpf4jnsgd1na2vs0mg"},{"bike_id":"4fbb5250-9647-470b-8d93-052750ba4685","system_id":"levelo_inurba_marseille","lat":43.287806,"lon":5.373697,"is_reserved":false,"is_disabled":false,"rental_uris":{"android":"levelo://app?vid=4fbb5250-9647-470b-8d93-052750ba4685","ios":"levelo://app?vid=4fbb5250-9647-470b-8d93-052750ba4685"},"vehicle_type_id":"4","last_reported":1727082659,"current_range_meters":20400,"station_id":"ce4bh692rcd13ifvqe90","pricing_plan_id":"cebpf4jnsgd1na2vs0mg"},{"bike_id":"ad4fa942-d5b9-422b-bd70-10f63308ed2c","system_id":"levelo_inurba_marseille","lat":43.27923,"lon":5.39575,"is_reserved":false,"is_disabled":false,"rental_uris":{"android":"levelo://app?vid=ad4fa942-d5b9-422b-bd70-10f63308ed2c","ios":"levelo://app?vid=ad4fa942-d5b9-422b-bd70-10f63308ed2c"},"vehicle_type_id":"4","last_reported":1727082659,"current_range_meters":12400,"station_id":"ce4bhf92rcd13ifvqf40","pricing_plan_id":"cebpf4jnsgd1na2vs0mg"},{"bike_id":"c4d81431-ee19-4b2b-9a19-a027dc40bf9b","system_id":"levelo_inurba_marseille","lat":43.270732,"lon":5.422815,"is_reserved":false,"is_disabled":false,"rental_uris":{"android":"levelo://app?vid=c4d81431-ee19-4b2b-9a19-a027dc40bf9b","ios":"levelo://app?vid=c4d81431-ee19-4b2b-9a19-a027dc40bf9b"},"vehicle_type_id":"4","last_reported":1727082659,"current_range_meters":28800,"station_id":"ce4bhk92rcd13ifvqgb0","pricing_plan_id":"cebpf4jnsgd1na2vs0mg"},{"bike_id":"fa690805-233a-4a70-a9f3-33f1b67cdb1f","system_id":"levelo_inurba_marseille","lat":43.32291,"lon":5.38274,"is_reserved":false,"is_disabled":false,"rental_uris":{"android":"levelo://app?vid=fa690805-233a-4a70-a9f3-33f1b67cdb1f","ios":"levelo://app?vid=fa690805-233a-4a70-a9f3-33f1b67cdb1f"},"vehicle_type_id":"4","last_reported":1727082659,"current_range_meters":38000,"station_id":"ce4bhr12rcd13ifvqhqg","pricing_plan_id":"cebpf4jnsgd1na2vs0mg"},{"bike_id":"b822cc6d-cc2a-4807-8c01-331dacee03c1","system_id":"levelo_inurba_marseille","lat":43.29201,"lon":5.39335,"is_reserved":false,"is_disabled":false,"rental_uris":{"android":"levelo://app?vid=b822cc6d-cc2a-4807-8c01-331dacee03c1","ios":"levelo://app?vid=b822cc6d-cc2a-4807-8c01-331dacee03c1"},"vehicle_type_id":"4","last_reported":1727082659,"current_range_meters":38800,"station_id":"ce4bh192rcd13ifvqdd0","pricing_plan_id":"cebpf4jnsgd1na2vs0mg"},{"bike_id":"c7a5c9a2-9c90-4677-8e5f-4be40a154f91","system_id":"levelo_inurba_marseille","lat":43.30313,"lon":5.36892,"is_reserved":false,"is_disabled":false,"rental_uris":{"android":"levelo://app?vid=c7a5c9a2-9c90-4677-8e5f-4be40a154f91","ios":"levelo://app?vid=c7a5c9a2-9c90-4677-8e5f-4be40a154f91"},"vehicle_type_id":"4","last_reported":1727082659,"current_range_meters":38800,"station_id":"ce4bgqh2rcd13ifvqc5g","pricing_plan_id":"cebpf4jnsgd1na2vs0mg"},{"bike_id":"7de67f75-7e3b-4a49-9cf3-b09ec2ff7e13","system_id":"levelo_inurba_marseille","lat":43.26032,"lon":5.37545,"is_reserved":false,"is_disabled":false,"rental_uris":{"android":"levelo://app?vid=7de67f75-7e3b-4a49-9cf3-b09ec2ff7e13","ios":"levelo://app?vid=7de67f75-7e3b-4a49-9cf3-b09ec2ff7e13"},"vehicle_type_id":"4","last_reported":1727082659,"current_range_meters":37600,"station_id":"ce4bhgh2rcd13ifvqfa0","pricing_plan_id":"cebpf4jnsgd1na2vs0mg"},{"bike_id":"93f0b4b5-f3b9-492d-b443-c1709870bc24","system_id":"levelo_inurba_marseille","lat":43.30093,"lon":5.39068,"is_reserved":false,"is_disabled":false,"rental_uris":{"android":"levelo://app?vid=93f0b4b5-f3b9-492d-b443-c1709870bc24","ios":"levelo://app?vid=93f0b4b5-f3b9-492d-b443-c1709870bc24"},"vehicle_type_id":"4","last_reported":1727082659,"current_range_meters":32000,"station_id":"ce4bh192rcd13ifvqdb0","pricing_plan_id":"cebpf4jnsgd1na2vs0mg"},{"bike_id":"a76702a0-509a-43f8-a842-e6003087d2a9","system_id":"levelo_inurba_marseille","lat":43.2961,"lon":5.37718,"is_reserved":false,"is_disabled":false,"rental_uris":{"android":"levelo://app?vid=a76702a0-509a-43f8-a842-e6003087d2a9","ios":"levelo://app?vid=a76702a0-509a-43f8-a842-e6003087d2a9"},"vehicle_type_id":"4","last_reported":1727082659,"current_range_meters":22800,"station_id":"ce4bgi92rcd13ifvqb90","pricing_plan_id":"cebpf4jnsgd1na2vs0mg"},{"bike_id":"bfe5e99e-e79a-4847-9746-0580bd584448","system_id":"levelo_inurba_marseille","lat":43.26948,"lon":5.38623,"is_reserved":false,"is_disabled":false,"rental_uris":{"android":"levelo://app?vid=bfe5e99e-e79a-4847-9746-0580bd584448","ios":"levelo://app?vid=bfe5e99e-e79a-4847-9746-0580bd584448"},"vehicle_type_id":"4","last_reported":1727082659,"current_range_meters":28000,"station_id":"ce4bhh92rcd13ifvqfh0","pricing_plan_id":"cebpf4jnsgd1na2vs0mg"},{"bike_id":"1953203c-f700-4715-8512-dffe8b385af7","system_id":"levelo_inurba_marseille","lat":43.29317,"lon":5.37191,"is_reserved":false,"is_disabled":false,"rental_uris":{"android":"levelo://app?vid=1953203c-f700-4715-8512-dffe8b385af7","ios":"levelo://app?vid=1953203c-f700-4715-8512-dffe8b385af7"},"vehicle_type_id":"4","last_reported":1727082659,"current_range_meters":29600,"station_id":"ce4bgh92rcd13ifvqb40","pricing_plan_id":"cebpf4jnsgd1na2vs0mg"},{"bike_id":"63837e2f-9e9e-4ca3-8127-3738fe4726e5","system_id":"levelo_inurba_marseille","lat":43.27486,"lon":5.42468,"is_reserved":false,"is_disabled":false,"rental_uris":{"android":"levelo://app?vid=63837e2f-9e9e-4ca3-8127-3738fe4726e5","ios":"levelo://app?vid=63837e2f-9e9e-4ca3-8127-3738fe4726e5"},"vehicle_type_id":"4","last_reported":1727082659,"current_range_meters":38000,"station_id":"ce4bhn92rcd13ifvqgrg","pricing_plan_id":"cebpf4jnsgd1na2vs0mg"},{"bike_id":"b9676bc6-39c1-4a22-94b4-02bce4ff8d0c","system_id":"levelo_inurba_marseille","lat":43.30546,"lon":5.3653,"is_reserved":false,"is_disabled":false,"rental_uris":{"android":"levelo://app?vid=b9676bc6-39c1-4a22-94b4-02bce4ff8d0c","ios":"levelo://app?vid=b9676bc6-39c1-4a22-94b4-02bce4ff8d0c"},"vehicle_type_id":"4","last_reported":1727082659,"current_range_meters":31200,"station_id":"ce4bgs12rcd13ifvqcag","pricing_plan_id":"cebpf4jnsgd1na2vs0mg"},{"bike_id":"8a895d1e-a48e-4a1c-bb13-7ad98ad48584","system_id":"levelo_inurba_marseille","lat":43.24172,"lon":5.39743,"is_reserved":false,"is_disabled":false,"rental_uris":{"android":"levelo://app?vid=8a895d1e-a48e-4a1c-bb13-7ad98ad48584","ios":"levelo://app?vid=8a895d1e-a48e-4a1c-bb13-7ad98ad48584"},"vehicle_type_id":"4","last_reported":1727082659,"current_range_meters":33600,"station_id":"ce4bhn12rcd13ifvqgpg","pricing_plan_id":"cebpf4jnsgd1na2vs0mg"},{"bike_id":"66b2c133-5fd5-4893-b1f3-5b3968364ab2","system_id":"levelo_inurba_marseille","lat":43.23966,"lon":5.36637,"is_reserved":false,"is_disabled":false,"rental_uris":{"android":"levelo://app?vid=66b2c133-5fd5-4893-b1f3-5b3968364ab2","ios":"levelo://app?vid=66b2c133-5fd5-4893-b1f3-5b3968364ab2"},"vehicle_type_id":"4","last_reported":1727082659,"current_range_meters":20800,"station_id":"ce4bhi12rcd13ifvqfp0","pricing_plan_id":"cebpf4jnsgd1na2vs0mg"},{"bike_id":"3c42f047-a2a9-4729-9bc0-d33f1e8e8a51","system_id":"levelo_inurba_marseille","lat":43.337444,"lon":5.374475,"is_reserved":false,"is_disabled":false,"rental_uris":{"android":"levelo://app?vid=3c42f047-a2a9-4729-9bc0-d33f1e8e8a51","ios":"levelo://app?vid=3c42f047-a2a9-4729-9bc0-d33f1e8e8a51"},"vehicle_type_id":"4","last_reported":1727082659,"current_range_meters":27600,"station_id":"","pricing_plan_id":"cebpf4jnsgd1na2vs0mg"},{"bike_id":"85d649fa-68c6-4dd0-8e34-0988c7e58de8","system_id":"levelo_inurba_marseille","lat":43.30536,"lon":5.36707,"is_reserved":false,"is_disabled":false,"rental_uris":{"android":"levelo://app?vid=85d649fa-68c6-4dd0-8e34-0988c7e58de8","ios":"levelo://app?vid=85d649fa-68c6-4dd0-8e34-0988c7e58de8"},"vehicle_type_id":"4","last_reported":1727082659,"current_range_meters":10000,"station_id":"ce4bgrp2rcd13ifvqc9g","pricing_plan_id":"cebpf4jnsgd1na2vs0mg"},{"bike_id":"7f3dfbf8-58c2-48bd-89d3-6f61b05952bf","system_id":"levelo_inurba_marseille","lat":43.29524,"lon":5.37499,"is_reserved":false,"is_disabled":false,"rental_uris":{"android":"levelo://app?vid=7f3dfbf8-58c2-48bd-89d3-6f61b05952bf","ios":"levelo://app?vid=7f3dfbf8-58c2-48bd-89d3-6f61b05952bf"},"vehicle_type_id":"4","last_reported":1727082659,"current_range_meters":38400,"station_id":"ce4bgkp2rcd13ifvqbmg","pricing_plan_id":"cebpf4jnsgd1na2vs0mg"},{"bike_id":"cfeee407-8b39-4bc1-8323-7a8cae6f5d1d","system_id":"levelo_inurba_marseille","lat":43.32481,"lon":5.3657,"is_reserved":false,"is_disabled":false,"rental_uris":{"android":"levelo://app?vid=cfeee407-8b39-4bc1-8323-7a8cae6f5d1d","ios":"levelo://app?vid=cfeee407-8b39-4bc1-8323-7a8cae6f5d1d"},"vehicle_type_id":"4","last_reported":1727082659,"current_range_meters":22400,"station_id":"ce4bhs12rcd13ifvqhvg","pricing_plan_id":"cebpf4jnsgd1na2vs0mg"},{"bike_id":"eb086655-d604-43c2-8733-bcce23465dc8","system_id":"levelo_inurba_marseille","lat":43.29299,"lon":5.37465,"is_reserved":false,"is_disabled":false,"rental_uris":{"android":"levelo://app?vid=eb086655-d604-43c2-8733-bcce23465dc8","ios":"levelo://app?vid=eb086655-d604-43c2-8733-bcce23465dc8"},"vehicle_type_id":"4","last_reported":1727082659,"current_range_meters":24800,"station_id":"ce4bgi12rcd13ifvqb70","pricing_plan_id":"cebpf4jnsgd1na2vs0mg"},{"bike_id":"73c95d91-4339-4d75-b1c4-461a3daf1b5f","system_id":"levelo_inurba_marseille","lat":43.29561,"lon":5.42284,"is_reserved":false,"is_disabled":false,"rental_uris":{"android":"levelo://app?vid=73c95d91-4339-4d75-b1c4-461a3daf1b5f","ios":"levelo://app?vid=73c95d91-4339-4d75-b1c4-461a3daf1b5f"},"vehicle_type_id":"4","last_reported":1727082659,"current_range_meters":37600,"station_id":"ce4bhph2rcd13ifvqhdg","pricing_plan_id":"cebpf4jnsgd1na2vs0mg"},{"bike_id":"a18ab7b7-a6f9-4eb0-9ad1-dd7ee1f578dd","system_id":"levelo_inurba_marseille","lat":43.33606,"lon":5.41025,"is_reserved":false,"is_disabled":false,"rental_uris":{"android":"levelo://app?vid=a18ab7b7-a6f9-4eb0-9ad1-dd7ee1f578dd","ios":"levelo://app?vid=a18ab7b7-a6f9-4eb0-9ad1-dd7ee1f578dd"},"vehicle_type_id":"4","last_reported":1727082659,"current_range_meters":26800,"station_id":"ce4bhqh2rcd13ifvqhmg","pricing_plan_id":"cebpf4jnsgd1na2vs0mg"},{"bike_id":"b1a7fb4a-ae89-41de-a5ab-b75f021e2309","system_id":"levelo_inurba_marseille","lat":43.29515,"lon":5.3904,"is_reserved":false,"is_disabled":false,"rental_uris":{"android":"levelo://app?vid=b1a7fb4a-ae89-41de-a5ab-b75f021e2309","ios":"levelo://app?vid=b1a7fb4a-ae89-41de-a5ab-b75f021e2309"},"vehicle_type_id":"4","last_reported":1727082659,"current_range_meters":38400,"station_id":"ce4bh3p2rcd13ifvqdp0","pricing_plan_id":"cebpf4jnsgd1na2vs0mg"},{"bike_id":"b24a8981-b962-49bc-aa89-652fa18d4cfd","system_id":"levelo_inurba_marseille","lat":43.26553,"lon":5.37296,"is_reserved":false,"is_disabled":false,"rental_uris":{"android":"levelo://app?vid=b24a8981-b962-49bc-aa89-652fa18d4cfd","ios":"levelo://app?vid=b24a8981-b962-49bc-aa89-652fa18d4cfd"},"vehicle_type_id":"4","last_reported":1727082659,"current_range_meters":36800,"station_id":"ce4bhg12rcd13ifvqf70","pricing_plan_id":"cebpf4jnsgd1na2vs0mg"},{"bike_id":"88aaab0c-5265-46d6-adae-0168eaf23240","system_id":"levelo_inurba_marseille","lat":43.33751,"lon":5.37452,"is_reserved":false,"is_disabled":false,"rental_uris":{"android":"levelo://app?vid=88aaab0c-5265-46d6-adae-0168eaf23240","ios":"levelo://app?vid=88aaab0c-5265-46d6-adae-0168eaf23240"},"vehicle_type_id":"4","last_reported":1727082659,"current_range_meters":32400,"station_id":"","pricing_plan_id":"cebpf4jnsgd1na2vs0mg"},{"bike_id":"41e3be79-0483-4710-aecf-a207e49d16f8","system_id":"levelo_inurba_marseille","lat":43.29552,"lon":5.42285,"is_reserved":false,"is_disabled":false,"rental_uris":{"android":"levelo://app?vid=41e3be79-0483-4710-aecf-a207e49d16f8","ios":"levelo://app?vid=41e3be79-0483-4710-aecf-a207e49d16f8"},"vehicle_type_id":"4","last_reported":1727082659,"current_range_meters":15200,"station_id":"ce4bhph2rcd13ifvqhdg","pricing_plan_id":"cebpf4jnsgd1na2vs0mg"},{"bike_id":"70866c3f-d3d7-40cb-8dca-ba47f614494f","system_id":"levelo_inurba_marseille","lat":43.32535,"lon":5.41445,"is_reserved":false,"is_disabled":false,"rental_uris":{"android":"levelo://app?vid=70866c3f-d3d7-40cb-8dca-ba47f614494f","ios":"levelo://app?vid=70866c3f-d3d7-40cb-8dca-ba47f614494f"},"vehicle_type_id":"4","last_reported":1727082659,"current_range_meters":13600,"station_id":"ce4bhq12rcd13ifvqhhg","pricing_plan_id":"cebpf4jnsgd1na2vs0mg"},{"bike_id":"eee05696-6b55-4ea5-a62a-8149d3287208","system_id":"levelo_inurba_marseille","lat":43.30536,"lon":5.36551,"is_reserved":false,"is_disabled":false,"rental_uris":{"android":"levelo://app?vid=eee05696-6b55-4ea5-a62a-8149d3287208","ios":"levelo://app?vid=eee05696-6b55-4ea5-a62a-8149d3287208"},"vehicle_type_id":"4","last_reported":1727082659,"current_range_meters":39200,"station_id":"ce4bgs12rcd13ifvqcag","pricing_plan_id":"cebpf4jnsgd1na2vs0mg"},{"bike_id":"22ee1109-ea0e-4dfc-8d22-0bd01ce46ff4","system_id":"levelo_inurba_marseille","lat":43.28846,"lon":5.35868,"is_reserved":false,"is_disabled":false,"rental_uris":{"android":"levelo://app?vid=22ee1109-ea0e-4dfc-8d22-0bd01ce46ff4","ios":"levelo://app?vid=22ee1109-ea0e-4dfc-8d22-0bd01ce46ff4"},"vehicle_type_id":"4","last_reported":1727082659,"current_range_meters":16800,"station_id":"ce4bhb12rcd13ifvqem0","pricing_plan_id":"cebpf4jnsgd1na2vs0mg"},{"bike_id":"45e12e89-d706-4a76-b8da-b5ff7a99a24a","system_id":"levelo_inurba_marseille","lat":43.32542,"lon":5.41453,"is_reserved":false,"is_disabled":false,"rental_uris":{"android":"levelo://app?vid=45e12e89-d706-4a76-b8da-b5ff7a99a24a","ios":"levelo://app?vid=45e12e89-d706-4a76-b8da-b5ff7a99a24a"},"vehicle_type_id":"4","last_reported":1727082659,"current_range_meters":35200,"station_id":"ce4bhq12rcd13ifvqhhg","pricing_plan_id":"cebpf4jnsgd1na2vs0mg"},{"bike_id":"16769c62-ef42-4ceb-a21c-ebd104723172","system_id":"levelo_inurba_marseille","lat":43.30475,"lon":5.37908,"is_reserved":false,"is_disabled":false,"rental_uris":{"android":"levelo://app?vid=16769c62-ef42-4ceb-a21c-ebd104723172","ios":"levelo://app?vid=16769c62-ef42-4ceb-a21c-ebd104723172"},"vehicle_type_id":"4","last_reported":1727082659,"current_range_meters":19200,"station_id":"ce4bgup2rcd13ifvqcn0","pricing_plan_id":"cebpf4jnsgd1na2vs0mg"},{"bike_id":"02dc5c43-5b84-4817-a3c7-01bfe693dc51","system_id":"levelo_inurba_marseille","lat":43.33604,"lon":5.41012,"is_reserved":false,"is_disabled":false,"rental_uris":{"android":"levelo://app?vid=02dc5c43-5b84-4817-a3c7-01bfe693dc51","ios":"levelo://app?vid=02dc5c43-5b84-4817-a3c7-01bfe693dc51"},"vehicle_type_id":"4","last_reported":1727082659,"current_range_meters":22800,"station_id":"ce4bhqh2rcd13ifvqhmg","pricing_plan_id":"cebpf4jnsgd1na2vs0mg"},{"bike_id":"71633d89-8187-400b-b3bd-254d8aa061f9","system_id":"levelo_inurba_marseille","lat":43.30138,"lon":5.37417,"is_reserved":false,"is_disabled":false,"rental_uris":{"android":"levelo://app?vid=71633d89-8187-400b-b3bd-254d8aa061f9","ios":"levelo://app?vid=71633d89-8187-400b-b3bd-254d8aa061f9"},"vehicle_type_id":"4","last_reported":1727082659,"current_range_meters":28400,"station_id":"ce4bgs92rcd13ifvqcc0","pricing_plan_id":"cebpf4jnsgd1na2vs0mg"},{"bike_id":"4e56de4b-b8f5-4c57-bb50-52bc5d85ff96","system_id":"levelo_inurba_marseille","lat":43.29262,"lon":5.38437,"is_reserved":false,"is_disabled":false,"rental_uris":{"android":"levelo://app?vid=4e56de4b-b8f5-4c57-bb50-52bc5d85ff96","ios":"levelo://app?vid=4e56de4b-b8f5-4c57-bb50-52bc5d85ff96"},"vehicle_type_id":"4","last_reported":1727082659,"current_range_meters":19600,"station_id":"ce4bh692rcd13ifvqea0","pricing_plan_id":"cebpf4jnsgd1na2vs0mg"},{"bike_id":"361ee900-a932-45dd-923f-ce99aa9db72c","system_id":"levelo_inurba_marseille","lat":43.30544,"lon":5.36539,"is_reserved":false,"is_disabled":false,"rental_uris":{"android":"levelo://app?vid=361ee900-a932-45dd-923f-ce99aa9db72c","ios":"levelo://app?vid=361ee900-a932-45dd-923f-ce99aa9db72c"},"vehicle_type_id":"4","last_reported":1727082659,"current_range_meters":7200,"station_id":"ce4bgs12rcd13ifvqcag","pricing_plan_id":"cebpf4jnsgd1na2vs0mg"},{"bike_id":"0f30add4-a156-4b7c-8d38-3528b70e9737","system_id":"levelo_inurba_marseille","lat":43.31345,"lon":5.36724,"is_reserved":false,"is_disabled":false,"rental_uris":{"android":"levelo://app?vid=0f30add4-a156-4b7c-8d38-3528b70e9737","ios":"levelo://app?vid=0f30add4-a156-4b7c-8d38-3528b70e9737"},"vehicle_type_id":"4","last_reported":1727082659,"current_range_meters":39200,"station_id":"ce4bgr92rcd13ifvqc6g","pricing_plan_id":"cebpf4jnsgd1na2vs0mg"},{"bike_id":"d0e4b5b7-9019-4bbe-8507-2030a28bac33","system_id":"levelo_inurba_marseille","lat":43.29794,"lon":5.39351,"is_reserved":false,"is_disabled":false,"rental_uris":{"android":"levelo://app?vid=d0e4b5b7-9019-4bbe-8507-2030a28bac33","ios":"levelo://app?vid=d0e4b5b7-9019-4bbe-8507-2030a28bac33"},"vehicle_type_id":"4","last_reported":1727082659,"current_range_meters":37600,"station_id":"chh1huq6cuj3fo74tm60","pricing_plan_id":"cebpf4jnsgd1na2vs0mg"},{"bike_id":"395b358c-6839-44b3-8ad9-b39f7a8b1197","system_id":"levelo_inurba_marseille","lat":43.30548,"lon":5.36708,"is_reserved":false,"is_disabled":false,"rental_uris":{"android":"levelo://app?vid=395b358c-6839-44b3-8ad9-b39f7a8b1197","ios":"levelo://app?vid=395b358c-6839-44b3-8ad9-b39f7a8b1197"},"vehicle_type_id":"4","last_reported":1727082659,"current_range_meters":35200,"station_id":"ce4bgrp2rcd13ifvqc9g","pricing_plan_id":"cebpf4jnsgd1na2vs0mg"},{"bike_id":"eef24188-a7bf-4248-be14-965b49f9d488","system_id":"levelo_inurba_marseille","lat":43.23151,"lon":5.43726,"is_reserved":false,"is_disabled":false,"rental_uris":{"android":"levelo://app?vid=eef24188-a7bf-4248-be14-965b49f9d488","ios":"levelo://app?vid=eef24188-a7bf-4248-be14-965b49f9d488"},"vehicle_type_id":"4","last_reported":1727082659,"current_range_meters":14400,"station_id":"ce4bhmp2rcd13ifvqgog","pricing_plan_id":"cebpf4jnsgd1na2vs0mg"},{"bike_id":"3a19030d-3607-4273-b80a-5184a27534db","system_id":"levelo_inurba_marseille","lat":43.31121,"lon":5.37762,"is_reserved":false,"is_disabled":false,"rental_uris":{"android":"levelo://app?vid=3a19030d-3607-4273-b80a-5184a27534db","ios":"levelo://app?vid=3a19030d-3607-4273-b80a-5184a27534db"},"vehicle_type_id":"4","last_reported":1727082659,"current_range_meters":38400,"station_id":"ce4bgt92rcd13ifvqcg0","pricing_plan_id":"cebpf4jnsgd1na2vs0mg"},{"bike_id":"9d832db1-b618-4c31-8c41-fea099a3b1bc","system_id":"levelo_inurba_marseille","lat":43.2558,"lon":5.3824,"is_reserved":false,"is_disabled":false,"rental_uris":{"android":"levelo://app?vid=9d832db1-b618-4c31-8c41-fea099a3b1bc","ios":"levelo://app?vid=9d832db1-b618-4c31-8c41-fea099a3b1bc"},"vehicle_type_id":"4","last_reported":1727082659,"current_range_meters":33200,"station_id":"ce4bhih2rcd13ifvqfs0","pricing_plan_id":"cebpf4jnsgd1na2vs0mg"},{"bike_id":"df42f132-93bd-456a-9a0b-6da80ae47c3c","system_id":"levelo_inurba_marseille","lat":43.30946,"lon":5.39042,"is_reserved":false,"is_disabled":false,"rental_uris":{"android":"levelo://app?vid=df42f132-93bd-456a-9a0b-6da80ae47c3c","ios":"levelo://app?vid=df42f132-93bd-456a-9a0b-6da80ae47c3c"},"vehicle_type_id":"4","last_reported":1727082659,"current_range_meters":39200,"station_id":"ce4bgup2rcd13ifvqco0","pricing_plan_id":"cebpf4jnsgd1na2vs0mg"},{"bike_id":"fc693e5c-96a8-4fa2-af0c-22895bc22319","system_id":"levelo_inurba_marseille","lat":43.29839,"lon":5.36265,"is_reserved":false,"is_disabled":false,"rental_uris":{"android":"levelo://app?vid=fc693e5c-96a8-4fa2-af0c-22895bc22319","ios":"levelo://app?vid=fc693e5c-96a8-4fa2-af0c-22895bc22319"},"vehicle_type_id":"4","last_reported":1727082659,"current_range_meters":8400,"station_id":"ce4bgpp2rcd13ifvqc3g","pricing_plan_id":"cebpf4jnsgd1na2vs0mg"},{"bike_id":"c8b3fe6f-5d80-455e-8ffb-4ab4d7c5ffed","system_id":"levelo_inurba_marseille","lat":43.2408,"lon":5.37768,"is_reserved":false,"is_disabled":false,"rental_uris":{"android":"levelo://app?vid=c8b3fe6f-5d80-455e-8ffb-4ab4d7c5ffed","ios":"levelo://app?vid=c8b3fe6f-5d80-455e-8ffb-4ab4d7c5ffed"},"vehicle_type_id":"4","last_reported":1727082659,"current_range_meters":36000,"station_id":"ce4bhnp2rcd13ifvqgvg","pricing_plan_id":"cebpf4jnsgd1na2vs0mg"},{"bike_id":"ac8d10f9-8786-4e3d-9c02-910ccfe078d4","system_id":"levelo_inurba_marseille","lat":43.265675,"lon":5.390317,"is_reserved":false,"is_disabled":false,"rental_uris":{"android":"levelo://app?vid=ac8d10f9-8786-4e3d-9c02-910ccfe078d4","ios":"levelo://app?vid=ac8d10f9-8786-4e3d-9c02-910ccfe078d4"},"vehicle_type_id":"4","last_reported":1727082659,"current_range_meters":36800,"station_id":"ce4bhe12rcd13ifvqf30","pricing_plan_id":"cebpf4jnsgd1na2vs0mg"},{"bike_id":"7a33b472-09a7-4f45-8518-e5e286eff93d","system_id":"levelo_inurba_marseille","lat":43.30139,"lon":5.37415,"is_reserved":false,"is_disabled":false,"rental_uris":{"android":"levelo://app?vid=7a33b472-09a7-4f45-8518-e5e286eff93d","ios":"levelo://app?vid=7a33b472-09a7-4f45-8518-e5e286eff93d"},"vehicle_type_id":"4","last_reported":1727082659,"current_range_meters":12800,"station_id":"ce4bgs92rcd13ifvqcc0","pricing_plan_id":"cebpf4jnsgd1na2vs0mg"},{"bike_id":"dfd81baf-ea42-4012-9101-d6a8a9f831d4","system_id":"levelo_inurba_marseille","lat":43.29858,"lon":5.38845,"is_reserved":false,"is_disabled":false,"rental_uris":{"android":"levelo://app?vid=dfd81baf-ea42-4012-9101-d6a8a9f831d4","ios":"levelo://app?vid=dfd81baf-ea42-4012-9101-d6a8a9f831d4"},"vehicle_type_id":"4","last_reported":1727082659,"current_range_meters":15200,"station_id":"ce4bh2h2rcd13ifvqdh0","pricing_plan_id":"cebpf4jnsgd1na2vs0mg"},{"bike_id":"da7e4c21-aacb-4d94-a6c8-f6a53378657c","system_id":"levelo_inurba_marseille","lat":43.30538,"lon":5.36551,"is_reserved":false,"is_disabled":false,"rental_uris":{"android":"levelo://app?vid=da7e4c21-aacb-4d94-a6c8-f6a53378657c","ios":"levelo://app?vid=da7e4c21-aacb-4d94-a6c8-f6a53378657c"},"vehicle_type_id":"4","last_reported":1727082659,"current_range_meters":12800,"station_id":"ce4bgs12rcd13ifvqcag","pricing_plan_id":"cebpf4jnsgd1na2vs0mg"},{"bike_id":"840f3e47-074d-4b22-ab80-8cfe985e5e84","system_id":"levelo_inurba_marseille","lat":43.24081,"lon":5.3775,"is_reserved":false,"is_disabled":false,"rental_uris":{"android":"levelo://app?vid=840f3e47-074d-4b22-ab80-8cfe985e5e84","ios":"levelo://app?vid=840f3e47-074d-4b22-ab80-8cfe985e5e84"},"vehicle_type_id":"4","last_reported":1727082659,"current_range_meters":30000,"station_id":"ce4bhnp2rcd13ifvqgvg","pricing_plan_id":"cebpf4jnsgd1na2vs0mg"},{"bike_id":"46e00b83-533f-4119-9a41-dd1653542916","system_id":"levelo_inurba_marseille","lat":43.30946,"lon":5.39035,"is_reserved":false,"is_disabled":false,"rental_uris":{"android":"levelo://app?vid=46e00b83-533f-4119-9a41-dd1653542916","ios":"levelo://app?vid=46e00b83-533f-4119-9a41-dd1653542916"},"vehicle_type_id":"4","last_reported":1727082659,"current_range_meters":16400,"station_id":"ce4bgup2rcd13ifvqco0","pricing_plan_id":"cebpf4jnsgd1na2vs0mg"},{"bike_id":"547028ad-8f58-4f77-ab70-8070a41a78eb","system_id":"levelo_inurba_marseille","lat":43.291229,"lon":5.377815,"is_reserved":false,"is_disabled":false,"rental_uris":{"android":"levelo://app?vid=547028ad-8f58-4f77-ab70-8070a41a78eb","ios":"levelo://app?vid=547028ad-8f58-4f77-ab70-8070a41a78eb"},"vehicle_type_id":"4","last_reported":1727082659,"current_range_meters":8800,"station_id":"ce4bh9p2rcd13ifvqed0","pricing_plan_id":"cebpf4jnsgd1na2vs0mg"},{"bike_id":"27f21d3f-4bca-41bd-80c4-8337e0fb7265","system_id":"levelo_inurba_marseille","lat":43.29902,"lon":5.38163,"is_reserved":false,"is_disabled":false,"rental_uris":{"android":"levelo://app?vid=27f21d3f-4bca-41bd-80c4-8337e0fb7265","ios":"levelo://app?vid=27f21d3f-4bca-41bd-80c4-8337e0fb7265"},"vehicle_type_id":"4","last_reported":1727082659,"current_range_meters":16400,"station_id":"ce4bgj12rcd13ifvqbc0","pricing_plan_id":"cebpf4jnsgd1na2vs0mg"},