{"last_updated":1726164769,"ttl":30,"version":"2.2","data":{"bikes":[{"bike_id":"2ca2fd52-6283-4397-ac7e-8db28b0c8f78","system_id":"levelo_inurba_marseille","lat":43.23192,"lon":5.35545,"is_reserved":false,"is_disabled":false,"rental_uris":{"android":"levelo://app?vid=2ca2fd52-6283-4397-ac7e-8db28b0c8f78","ios":"levelo://app?vid=2ca2fd52-6283-4397-ac7e-8db28b0c8f78"},"vehicle_type_id":"4","last_reported":1726164769,"current_range_meters":16800,"station_id":"ce4bhu92rcd13ifvqi70","pricing_plan_id":"cebpf4jnsgd1na2vs0mg"},{"bike_id":"9b633d55-16bf-493b-aaf9-bf563c4bdace","system_id":"levelo_inurba_marseille","lat":43.28456,"lon":5.35887,"is_reserved":false,"is_disabled":false,"rental_uris":{"android":"levelo://app?vid=9b633d55-16bf-493b-aaf9-bf563c4bdace","ios":"levelo://app?vid=9b633d55-16bf-493b-aaf9-bf563c4bdace"},"vehicle_type_id":"4","last_reported":1726164769,"current_range_meters":38400,"station_id":"ce4bhah2rcd13ifvqei0","pricing_plan_id":"cebpf4jnsgd1na2vs0mg"},{"bike_id":"b3a742b9-6777-4614-be6f-f3beb09f093e","system_id":"levelo_inurba_marseille","lat":43.30647,"lon":5.40095,"is_reserved":false,"is_disabled":false,"rental_uris":{"android":"levelo://app?vid=b3a742b9-6777-4614-be6f-f3beb09f093e","ios":"levelo://app?vid=b3a742b9-6777-4614-be6f-f3beb09f093e"},"vehicle_type_id":"4","last_reported":1726164769,"current_range_meters":4800,"station_id":"ce4bh112rcd13ifvqda0","pricing_plan_id":"cebpf4jnsgd1na2vs0mg"},{"bike_id":"ae8c7bd4-e320-4650-aaec-5acdea38c512","system_id":"levelo_inurba_marseille","lat":43.2805,"lon":5.38759,"is_reserved":false,"is_disabled":false,"rental_uris":{"android":"levelo://app?vid=ae8c7bd4-e320-4650-aaec-5acdea38c512","ios":"levelo://app?vid=ae8c7bd4-e320-4650-aaec-5acdea38c512"},"vehicle_type_id":"4","last_reported":1726164769,"current_range_meters":24800,"station_id":"","pricing_plan_id":"cebpf4jnsgd1na2vs0mg"},{"bike_id":"4559dba1-b0cb-4c88-804d-ea24100e4a9a","system_id":"levelo_inurba_marseille","lat":43.2921,"lon":5.39319,"is_reserved":false,"is_disabled":false,"rental_uris":{"android":"levelo://app?vid=4559dba1-b0cb-4c88-804d-ea24100e4a9a","ios":"levelo://app?vid=4559dba1-b0cb-4c88-804d-ea24100e4a9a"},"vehicle_type_id":"4","last_reported":1726164769,"current_range_meters":11200,"station_id":"ce4bh192rcd13ifvqdd0","pricing_plan_id":"cebpf4jnsgd1na2vs0mg"},{"bike_id":"c65dddda-a8c2-403d-aabf-6050eaba46d6","system_id":"levelo_inurba_marseille","lat":43.2979,"lon":5.38107,"is_reserved":false,"is_disabled":false,"rental_uris":{"android":"levelo://app?vid=c65dddda-a8c2-403d-aabf-6050eaba46d6","ios":"levelo://app?vid=c65dddda-a8c2-403d-aabf-6050eaba46d6"},"vehicle_type_id":"4","last_reported":1726164769,"current_range_meters":10800,"station_id":"ce4bgip2rcd13ifvqbb0","pricing_plan_id":"cebpf4jnsgd1na2vs0mg"},{"bike_id":"9aa53c72-dc15-4daf-ad46-2b43293b89a8","system_id":"levelo_inurba_marseille","lat":43.29445,"lon":5.39744,"is_reserved":false,"is_disabled":false,"rental_uris":{"android":"levelo://app?vid=9aa53c72-dc15-4daf-ad46-2b43293b89a8","ios":"levelo://app?vid=9aa53c72-dc15-4daf-ad46-2b43293b89a8"},"vehicle_type_id":"4","last_reported":1726164769,"current_range_meters":38800,"station_id":"ce4bh3h2rcd13ifvqdo0","pricing_plan_id":"cebpf4jnsgd1na2vs0mg"},{"bike_id":"676d4b35-6db4-4269-99fc-bf2f943408de","system_id":"levelo_inurba_marseille","lat":43.302826,"lon":5.367154,"is_reserved":false,"is_disabled":false,"rental_uris":{"android":"levelo://app?vid=676d4b35-6db4-4269-99fc-bf2f943408de","ios":"levelo://app?vid=676d4b35-6db4-4269-99fc-bf2f943408de"},"vehicle_type_id":"4","last_reported":1726164769,"current_range_meters":38800,"station_id":"ce4bgrp2rcd13ifvqc9g","pricing_plan_id":"cebpf4jnsgd1na2vs0mg"},{"bike_id":"af94052c-d55c-4818-9eeb-aa95b86b1861","system_id":"levelo_inurba_marseille","lat":43.24811,"lon":5.37458,"is_reserved":false,"is_disabled":false,"rental_uris":{"android":"levelo://app?vid=af94052c-d55c-4818-9eeb-aa95b86b1861","ios":"levelo://app?vid=af94052c-d55c-4818-9eeb-aa95b86b1861"},"vehicle_type_id":"4","last_reported":1726164769,"current_range_meters":14000,"station_id":"ce4bhgh2rcd13ifvqfb0","pricing_plan_id":"cebpf4jnsgd1na2vs0mg"},{"bike_id":"f8d0fba0-b375-496d-9fb6-aac6b8a7715f","system_id":"levelo_inurba_marseille","lat":43.31707,"lon":5.37746,"is_reserved":false,"is_disabled":false,"rental_uris":{"android":"levelo://app?vid=f8d0fba0-b375-496d-9fb6-aac6b8a7715f","ios":"levelo://app?vid=f8d0fba0-b375-496d-9fb6-aac6b8a7715f"},"vehicle_type_id":"4","last_reported":1726164769,"current_range_meters":14400,"station_id":"ce4bgth2rcd13ifvqch0","pricing_plan_id":"cebpf4jnsgd1na2vs0mg"},{"bike_id":"5a0f079c-d0a6-48b9-8663-daaee15addc8","system_id":"levelo_inurba_marseille","lat":43.24819,"lon":5.37461,"is_reserved":false,"is_disabled":false,"rental_uris":{"android":"levelo://app?vid=5a0f079c-d0a6-48b9-8663-daaee15addc8","ios":"levelo://app?vid=5a0f079c-d0a6-48b9-8663-daaee15addc8"},"vehicle_type_id":"4","last_reported":1726164769,"current_range_meters":30000,"station_id":"ce4bhgh2rcd13ifvqfb0","pricing_plan_id":"cebpf4jnsgd1na2vs0mg"},{"bike_id":"e328ed0d-10f1-468f-84b9-a6672423af5e","system_id":"levelo_inurba_marseille","lat":43.23965,"lon":5.36623,"is_reserved":false,"is_disabled":false,"rental_uris":{"android":"levelo://app?vid=e328ed0d-10f1-468f-84b9-a6672423af5e","ios":"levelo://app?vid=e328ed0d-10f1-468f-84b9-a6672423af5e"},"vehicle_type_id":"4","last_reported":1726164769,"current_range_meters":34000,"station_id":"ce4bhi12rcd13ifvqfp0","pricing_plan_id":"cebpf4jnsgd1na2vs0mg"},{"bike_id":"13ec4916-f0ea-4897-8afc-596425b42c42","system_id":"levelo_inurba_marseille","lat":43.23194,"lon":5.35551,"is_reserved":false,"is_disabled":false,"rental_uris":{"android":"levelo://app?vid=13ec4916-f0ea-4897-8afc-596425b42c42","ios":"levelo://app?vid=13ec4916-f0ea-4897-8afc-596425b42c42"},"vehicle_type_id":"4","last_reported":1726164769,"current_range_meters":36400,"station_id":"ce4bhu92rcd13ifvqi70","pricing_plan_id":"cebpf4jnsgd1na2vs0mg"},{"bike_id":"b620d509-8da0-4979-9d23-fef6c70ac3cc","system_id":"levelo_inurba_marseille","lat":43.28406,"lon":5.37498,"is_reserved":false,"is_disabled":false,"rental_uris":{"android":"levelo://app?vid=b620d509-8da0-4979-9d23-fef6c70ac3cc","ios":"levelo://app?vid=b620d509-8da0-4979-9d23-fef6c70ac3cc"},"vehicle_type_id":"4","last_reported":1726164769,"current_range_meters":36000,"station_id":"ce4bh412rcd13ifvqds0","pricing_plan_id":"cebpf4jnsgd1na2vs0mg"},{"bike_id":"376db200-0cc2-4eb8-a162-4d3bc8ff1066","system_id":"levelo_inurba_marseille","lat":43.3172,"lon":5.43717,"is_reserved":false,"is_disabled":false,"rental_uris":{"android":"levelo://app?vid=376db200-0cc2-4eb8-a162-4d3bc8ff1066","ios":"levelo://app?vid=376db200-0cc2-4eb8-a162-4d3bc8ff1066"},"vehicle_type_id":"4","last_reported":1726164769,"current_range_meters":38400,"station_id":"ce4bhp92rcd13ifvqhcg","pricing_plan_id":"cebpf4jnsgd1na2vs0mg"},{"bike_id":"d13844ac-d8d5-4630-a735-d14a8cd8cfc2","system_id":"levelo_inurba_marseille","lat":43.24667,"lon":5.38165,"is_reserved":false,"is_disabled":false,"rental_uris":{"android":"levelo://app?vid=d13844ac-d8d5-4630-a735-d14a8cd8cfc2","ios":"levelo://app?vid=d13844ac-d8d5-4630-a735-d14a8cd8cfc2"},"vehicle_type_id":"4","last_reported":1726164769,"current_range_meters":38000,"station_id":"ce4bhih2rcd13ifvqfr0","pricing_plan_id":"cebpf4jnsgd1na2vs0mg"},{"bike_id":"a59d64a6-0c90-478e-8726-6eda2f84c2f7","system_id":"levelo_inurba_marseille","lat":43.26032,"lon":5.37548,"is_reserved":false,"is_disabled":false,"rental_uris":{"android":"levelo://app?vid=a59d64a6-0c90-478e-8726-6eda2f84c2f7","ios":"levelo://app?vid=a59d64a6-0c90-478e-8726-6eda2f84c2f7"},"vehicle_type_id":"4","last_reported":1726164769,"current_range_meters":8400,"station_id":"ce4bhgh2rcd13ifvqfa0","pricing_plan_id":"cebpf4jnsgd1na2vs0mg"},{"bike_id":"d035d579-2e69-4a79-8e97-e3875f643f43","system_id":"levelo_inurba_marseille","lat":43.2583,"lon":5.3944,"is_reserved":false,"is_disabled":false,"rental_uris":{"android":"levelo://app?vid=d035d579-2e69-4a79-8e97-e3875f643f43","ios":"levelo://app?vid=d035d579-2e69-4a79-8e97-e3875f643f43"},"vehicle_type_id":"4","last_reported":1726164769,"current_range_meters":3200,"station_id":"ce4bhip2rcd13ifvqft0","pricing_plan_id":"cebpf4jnsgd1na2vs0mg"},{"bike_id":"acd8a3d5-a9db-4ea3-b234-2a790cfd605a","system_id":"levelo_inurba_marseille","lat":43.23964,"lon":5.36625,"is_reserved":false,"is_disabled":false,"rental_uris":{"android":"levelo://app?vid=acd8a3d5-a9db-4ea3-b234-2a790cfd605a","ios":"levelo://app?vid=acd8a3d5-a9db-4ea3-b234-2a790cfd605a"},"vehicle_type_id":"4","last_reported":1726164769,"current_range_meters":19600,"station_id":"ce4bhi12rcd13ifvqfp0","pricing_plan_id":"cebpf4jnsgd1na2vs0mg"},{"bike_id":"ace0ecad-0c66-4c3c-adfb-8d60c244cb6d","system_id":"levelo_inurba_marseille","lat":43.31991,"lon":5.38152,"is_reserved":false,"is_disabled":false,"rental_uris":{"android":"levelo://app?vid=ace0ecad-0c66-4c3c-adfb-8d60c244cb6d","ios":"levelo://app?vid=ace0ecad-0c66-4c3c-adfb-8d60c244cb6d"},"vehicle_type_id":"4","last_reported":1726164769,"current_range_meters":17600,"station_id":"ce4bhr12rcd13ifvqhpg","pricing_plan_id":"cebpf4jnsgd1na2vs0mg"},{"bike_id":"ee5bd0a5-1257-48de-9343-ea8521c36cdd","system_id":"levelo_inurba_marseille","lat":43.23194,"lon":5.35552,"is_reserved":false,"is_disabled":false,"rental_uris":{"android":"levelo://app?vid=ee5bd0a5-1257-48de-9343-ea8521c36cdd","ios":"levelo://app?vid=ee5bd0a5-1257-48de-9343-ea8521c36cdd"},"vehicle_type_id":"4","last_reported":1726164769,"current_range_meters":8000,"station_id":"ce4bhu92rcd13ifvqi70","pricing_plan_id":"cebpf4jnsgd1na2vs0mg"},{"bike_id":"995d3a7e-289e-4ebd-b785-9d2da426ad57","system_id":"levelo_inurba_marseille","lat":43.23196,"lon":5.35548,"is_reserved":false,"is_disabled":false,"rental_uris":{"android":"levelo://app?vid=995d3a7e-289e-4ebd-b785-9d2da426ad57","ios":"levelo://app?vid=995d3a7e-289e-4ebd-b785-9d2da426ad57"},"vehicle_type_id":"4","last_reported":1726164769,"current_range_meters":28000,"station_id":"ce4bhu92rcd13ifvqi70","pricing_plan_id":"cebpf4jnsgd1na2vs0mg"},{"bike_id":"74c67d55-8a5f-40c9-8066-d68354718f8c","system_id":"levelo_inurba_marseille","lat":43.23188,"lon":5.35551,"is_reserved":false,"is_disabled":false,"rental_uris":{"android":"levelo://app?vid=74c67d55-8a5f-40c9-8066-d68354718f8c","ios":"levelo://app?vid=74c67d55-8a5f-40c9-8066-d68354718f8c"},"vehicle_type_id":"4","last_reported":1726164769,"current_range_meters":30400,"station_id":"ce4bhu92rcd13ifvqi70","pricing_plan_id":"cebpf4jnsgd1na2vs0mg"},{"bike_id":"86a397a5-5a46-427a-884b-f528ef77038a","system_id":"levelo_inurba_marseille","lat":43.28616,"lon":5.351,"is_reserved":false,"is_disabled":false,"rental_uris":{"android":"levelo://app?vid=86a397a5-5a46-427a-884b-f528ef77038a","ios":"levelo://app?vid=86a397a5-5a46-427a-884b-f528ef77038a"},"vehicle_type_id":"4","last_reported":1726164769,"current_range_meters":17600,"station_id":"ce4bhch2rcd13ifvqeug","pricing_plan_id":"cebpf4jnsgd1na2vs0mg"},{"bike_id":"018ddaac-86f9-4227-86fb-4180d13d371b","system_id":"levelo_inurba_marseille","lat":43.34142,"lon":5.40909,"is_reserved":false,"is_disabled":false,"rental_uris":{"android":"levelo://app?vid=018ddaac-86f9-4227-86fb-4180d13d371b","ios":"levelo://app?vid=018ddaac-86f9-4227-86fb-4180d13d371b"},"vehicle_type_id":"4","last_reported":1726164769,"current_range_meters":23200,"station_id":"ce4bhqh2rcd13ifvqhlg","pricing_plan_id":"cebpf4jnsgd1na2vs0mg"},{"bike_id":"03700b80-744f-470e-981c-03002de9fd01","system_id":"levelo_inurba_marseille","lat":43.24076,"lon":5.37753,"is_reserved":false,"is_disabled":false,"rental_uris":{"android":"levelo://app?vid=03700b80-744f-470e-981c-03002de9fd01","ios":"levelo://app?vid=03700b80-744f-470e-981c-03002de9fd01"},"vehicle_type_id":"4","last_reported":1726164769,"current_range_meters":38400,"station_id":"ce4bhnp2rcd13ifvqgvg","pricing_plan_id":"cebpf4jnsgd1na2vs0mg"},{"bike_id":"c7a72c95-d3e6-46b3-8c83-3114a189ce35","system_id":"levelo_inurba_marseille","lat":43.25581,"lon":5.38242,"is_reserved":false,"is_disabled":false,"rental_uris":{"android":"levelo://app?vid=c7a72c95-d3e6-46b3-8c83-3114a189ce35","ios":"levelo://app?vid=c7a72c95-d3e6-46b3-8c83-3114a189ce35"},"vehicle_type_id":"4","last_reported":1726164769,"current_range_meters":12400,"station_id":"ce4bhih2rcd13ifvqfs0","pricing_plan_id":"cebpf4jnsgd1na2vs0mg"},{"bike_id":"2518b103-2087-4e9f-ada3-03685009aa2b","system_id":"levelo_inurba_marseille","lat":43.31995,"lon":5.38166,"is_reserved":false,"is_disabled":false,"rental_uris":{"android":"levelo://app?vid=2518b103-2087-4e9f-ada3-03685009aa2b","ios":"levelo://app?vid=2518b103-2087-4e9f-ada3-03685009aa2b"},"vehicle_type_id":"4","last_reported":1726164769,"current_range_meters":18000,"station_id":"ce4bhr12rcd13ifvqhpg","pricing_plan_id":"cebpf4jnsgd1na2vs0mg"},{"bike_id":"df0bd303-515f-4ed3-aa5e-108ee6ca6d18","system_id":"levelo_inurba_marseille","lat":43.310303,"lon":5.378955,"is_reserved":false,"is_disabled":false,"rental_uris":{"android":"levelo://app?vid=df0bd303-515f-4ed3-aa5e-108ee6ca6d18","ios":"levelo://app?vid=df0bd303-515f-4ed3-aa5e-108ee6ca6d18"},"vehicle_type_id":"4","last_reported":1726164769,"current_range_meters":6000,"station_id":"ce4bh612rcd13ifvqe6g","pricing_plan_id":"cebpf4jnsgd1na2vs0mg"},{"bike_id":"67e0d3c8-b23a-4911-8498-45ff234d66dc","system_id":"levelo_inurba_marseille","lat":43.23183,"lon":5.39994,"is_reserved":false,"is_disabled":false,"rental_uris":{"android":"levelo://app?vid=67e0d3c8-b23a-4911-8498-45ff234d66dc","ios":"levelo://app?vid=67e0d3c8-b23a-4911-8498-45ff234d66dc"},"vehicle_type_id":"4","last_reported":1726164769,"current_range_meters":26800,"station_id":"ce4bhn12rcd13ifvqgqg","pricing_plan_id":"cebpf4jnsgd1na2vs0mg"},{"bike_id":"a41d64cd-c173-465d-9c1c-9361adf830bd","system_id":"levelo_inurba_marseille","lat":43.28614,"lon":5.37074,"is_reserved":false,"is_disabled":false,"rental_uris":{"android":"levelo://app?vid=a41d64cd-c173-465d-9c1c-9361adf830bd","ios":"levelo://app?vid=a41d64cd-c173-465d-9c1c-9361adf830bd"},"vehicle_type_id":"4","last_reported":1726164769,"current_range_meters":8800,"station_id":"ce4bht12rcd13ifvqi60","pricing_plan_id":"cebpf4jnsgd1na2vs0mg"},{"bike_id":"f9f57bca-688a-4038-827a-88f532b45907","system_id":"levelo_inurba_marseille","lat":43.27963,"lon":5.38727,"is_reserved":false,"is_disabled":false,"rental_uris":{"android":"levelo://app?vid=f9f57bca-688a-4038-827a-88f532b45907","ios":"levelo://app?vid=f9f57bca-688a-4038-827a-88f532b45907"},"vehicle_type_id":"4","last_reported":1726164769,"current_range_meters":38800,"station_id":"ce4bhg12rcd13ifvqf80","pricing_plan_id":"cebpf4jnsgd1na2vs0mg"},{"bike_id":"ab24ee1b-8265-4bf0-801b-e21958bcadd5","system_id":"levelo_inurba_marseille","lat":43.29906,"lon":5.38164,"is_reserved":false,"is_disabled":false,"rental_uris":{"android":"levelo://app?vid=ab24ee1b-8265-4bf0-801b-e21958bcadd5","ios":"levelo://app?vid=ab24ee1b-8265-4bf0-801b-e21958bcadd5"},"vehicle_type_id":"4","last_reported":1726164769,"current_range_meters":14000,"station_id":"ce4bgj12rcd13ifvqbc0","pricing_plan_id":"cebpf4jnsgd1na2vs0mg"},{"bike_id":"d4591193-9b1a-4580-af95-9335fbbc6910","system_id":"levelo_inurba_marseille","lat":43.29908,"lon":5.38148,"is_reserved":false,"is_disabled":false,"rental_uris":{"android":"levelo://app?vid=d4591193-9b1a-4580-af95-9335fbbc6910","ios":"levelo://app?vid=d4591193-9b1a-4580-af95-9335fbbc6910"},"vehicle_type_id":"4","last_reported":1726164769,"current_range_meters":9200,"station_id":"ce4bgj12rcd13ifvqbc0","pricing_plan_id":"cebpf4jnsgd1na2vs0mg"},{"bike_id":"7a4bb132-9391-429c-90f9-118bc841f78d","system_id":"levelo_inurba_marseille","lat":43.30138,"lon":5.39854,"is_reserved":false,"is_disabled":false,"rental_uris":{"android":"levelo://app?vid=7a4bb132-9391-429c-90f9-118bc841f78d","ios":"levelo://app?vid=7a4bb132-9391-429c-90f9-118bc841f78d"},"vehicle_type_id":"4","last_reported":1726164769,"current_range_meters":34800,"station_id":"ce4bh0h2rcd13ifvqd40","pricing_plan_id":"cebpf4jnsgd1na2vs0mg"},{"bike_id":"d54209f6-3398-4e00-8b3a-a3ed0a88f3b6","system_id":"levelo_inurba_marseille","lat":43.24556,"lon":5.37325,"is_reserved":false,"is_disabled":false,"rental_uris":{"android":"levelo://app?vid=d54209f6-3398-4e00-8b3a-a3ed0a88f3b6","ios":"levelo://app?vid=d54209f6-3398-4e00-8b3a-a3ed0a88f3b6"},"vehicle_type_id":"4","last_reported":1726164769,"current_range_meters":32400,"station_id":"","pricing_plan_id":"cebpf4jnsgd1na2vs0mg"},{"bike_id":"8f8acd34-b5ec-42d7-8eff-8a3155e32c59","system_id":"levelo_inurba_marseille","lat":43.28617,"lon":5.35105,"is_reserved":false,"is_disabled":false,"rental_uris":{"android":"levelo://app?vid=8f8acd34-b5ec-42d7-8eff-8a3155e32c59","ios":"levelo://app?vid=8f8acd34-b5ec-42d7-8eff-8a3155e32c59"},"vehicle_type_id":"4","last_reported":1726164769,"current_range_meters":28000,"station_id":"ce4bhch2rcd13ifvqeug","pricing_plan_id":"cebpf4jnsgd1na2vs0mg"},{"bike_id":"9d302fd2-cf2d-4d06-b7d7-4f621dedcd6a","system_id":"levelo_inurba_marseille","lat":43.32365,"lon":5.389,"is_reserved":false,"is_disabled":false,"rental_uris":{"android":"levelo://app?vid=9d302fd2-cf2d-4d06-b7d7-4f621dedcd6a","ios":"levelo://app?vid=9d302fd2-cf2d-4d06-b7d7-4f621dedcd6a"},"vehicle_type_id":"4","last_reported":1726164769,"current_range_meters":24400,"station_id":"ce4bhqp2rcd13ifvqhog","pricing_plan_id":"cebpf4jnsgd1na2vs0mg"},{"bike_id":"71c3de57-ffeb-47cb-b615-dc460f5eca84","system_id":"levelo_inurba_marseille","lat":43.30211,"lon":5.3947,"is_reserved":false,"is_disabled":false,"rental_uris":{"android":"levelo://app?vid=71c3de57-ffeb-47cb-b615-dc460f5eca84","ios":"levelo://app?vid=71c3de57-ffeb-47cb-b615-dc460f5eca84"},"vehicle_type_id":"4","last_reported":1726164769,"current_range_meters":4800,"station_id":"ce4bh0p2rcd13ifvqd70","pricing_plan_id":"cebpf4jnsgd1na2vs0mg"},{"bike_id":"9c9b713c-81bc-4640-b34d-00fe3eeb98a5","system_id":"levelo_inurba_marseille","lat":43.26604,"lon":5.39257,"is_reserved":false,"is_disabled":false,"rental_uris":{"android":"levelo://app?vid=9c9b713c-81bc-4640-b34d-00fe3eeb98a5","ios":"levelo://app?vid=9c9b713c-81bc-4640-b34d-00fe3eeb98a5"},"vehicle_type_id":"4","last_reported":1726164769,"current_range_meters":7200,"station_id":"","pricing_plan_id":"cebpf4jnsgd1na2vs0mg"},{"bike_id":"d80f338e-c7b9-4843-a0cc-56dcfe3a81de","system_id":"levelo_inurba_marseille","lat":43.26216,"lon":5.37439,"is_reserved":false,"is_disabled":false,"rental_uris":{"android":"levelo://app?vid=d80f338e-c7b9-4843-a0cc-56dcfe3a81de","ios":"levelo://app?vid=d80f338e-c7b9-4843-a0cc-56dcfe3a81de"},"vehicle_type_id":"4","last_reported":1726164769,"current_range_meters":38800,"station_id":"ce4bhgp2rcd13ifvqfc0","pricing_plan_id":"cebpf4jnsgd1na2vs0mg"},{"bike_id":"3fd95b83-0fdb-4146-a785-5a14738680ad","system_id":"levelo_inurba_marseille","lat":43.25718,"lon":5.41126,"is_reserved":false,"is_disabled":false,"rental_uris":{"android":"levelo://app?vid=3fd95b83-0fdb-4146-a785-5a14738680ad","ios":"levelo://app?vid=3fd95b83-0fdb-4146-a785-5a14738680ad"},"vehicle_type_id":"4","last_reported":1726164769,"current_range_meters":16400,"station_id":"ce4bhkp2rcd13ifvqgd0","pricing_plan_id":"cebpf4jnsgd1na2vs0mg"},{"bike_id":"d4ca384e-a23d-4802-be23-f450736c27cb","system_id":"levelo_inurba_marseille","lat":43.27907,"lon":5.38011,"is_reserved":false,"is_disabled":false,"rental_uris":{"android":"levelo://app?vid=d4ca384e-a23d-4802-be23-f450736c27cb","ios":"levelo://app?vid=d4ca384e-a23d-4802-be23-f450736c27cb"},"vehicle_type_id":"4","last_reported":1726164769,"current_range_meters":26000,"station_id":"ce4bhf92rcd13ifvqf50","pricing_plan_id":"cebpf4jnsgd1na2vs0mg"},{"bike_id":"bc636461-3003-4d4f-ba31-40e8a967846e","system_id":"levelo_inurba_marseille","lat":43.26684,"lon":5.38279,"is_reserved":false,"is_disabled":false,"rental_uris":{"android":"levelo://app?vid=bc636461-3003-4d4f-ba31-40e8a967846e","ios":"levelo://app?vid=bc636461-3003-4d4f-ba31-40e8a967846e"},"vehicle_type_id":"4","last_reported":1726164769,"current_range_meters":14000,"station_id":"ce4bhg92rcd13ifvqf90","pricing_plan_id":"cebpf4jnsgd1na2vs0mg"},{"bike_id":"8a56c336-9f3e-4009-a046-b9dc9345c4dd","system_id":"levelo_inurba_marseille","lat":43.310547,"lon":5.38097,"is_reserved":false,"is_disabled":false,"rental_uris":{"android":"levelo://app?vid=8a56c336-9f3e-4009-a046-b9dc9345c4dd","ios":"levelo://app?vid=8a56c336-9f3e-4009-a046-b9dc9345c4dd"},"vehicle_type_id":"4","last_reported":1726164769,"current_range_meters":18800,"station_id":"ce4bh392rcd13ifvqdl0","pricing_plan_id":"cebpf4jnsgd1na2vs0mg"},{"bike_id":"0a1f63c4-8197-4edd-9c0f-886e05340093","system_id":"levelo_inurba_marseille","lat":43.26214,"lon":5.37444,"is_reserved":false,"is_disabled":false,"rental_uris":{"android":"levelo://app?vid=0a1f63c4-8197-4edd-9c0f-886e05340093","ios":"levelo://app?vid=0a1f63c4-8197-4edd-9c0f-886e05340093"},"vehicle_type_id":"4","last_reported":1726164769,"current_range_meters":37600,"station_id":"ce4bhgp2rcd13ifvqfc0","pricing_plan_id":"cebpf4jnsgd1na2vs0mg"},{"bike_id":"c5cba1c4-5d62-494b-9dbe-75faa51bf8d0","system_id":"levelo_inurba_marseille","lat":43.2804,"lon":5.36944,"is_reserved":false,"is_disabled":false,"rental_uris":{"android":"levelo://app?vid=c5cba1c4-5d62-494b-9dbe-75faa51bf8d0","ios":"levelo://app?vid=c5cba1c4-5d62-494b-9dbe-75faa51bf8d0"},"vehicle_type_id":"4","last_reported":1726164769,"current_range_meters":10800,"station_id":"ce4bha12rcd13ifvqef0","pricing_plan_id":"cebpf4jnsgd1na2vs0mg"},{"bike_id":"335d1eaa-695e-4659-9432-afd1d6cb4f48","system_id":"levelo_inurba_marseille","lat":43.2927,"lon":5.38446,"is_reserved":false,"is_disabled":false,"rental_uris":{"android":"levelo://app?vid=335d1eaa-695e-4659-9432-afd1d6cb4f48","ios":"levelo://app?vid=335d1eaa-695e-4659-9432-afd1d6cb4f48"},"vehicle_type_id":"4","last_reported":1726164769,"current_range_meters":34000,"station_id":"ce4bh692rcd13ifvqea0","pricing_plan_id":"cebpf4jnsgd1na2vs0mg"},{"bike_id":"ed13e5fc-1f73-4d37-85f0-688a6556d0e3","system_id":"levelo_inurba_marseille","lat":43.29047,"lon":5.35909,"is_reserved":false,"is_disabled":false,"rental_uris":{"android":"levelo://app?vid=ed13e5fc-1f73-4d37-85f0-688a6556d0e3","ios":"levelo://app?vid=ed13e5fc-1f73-4d37-85f0-688a6556d0e3"},"vehicle_type_id":"4","last_reported":1726164769,"current_range_meters":24000,"station_id":"ce4bha92rcd13ifvqeg0","pricing_plan_id":"cebpf4jnsgd1na2vs0mg"},{"bike_id":"86b6a2b1-86a4-46ee-8c7e-90cb86d3d820","system_id":"levelo_inurba_marseille","lat":43.31326,"lon":5.39722,"is_reserved":false,"is_disabled":false,"rental_uris":{"android":"levelo://app?vid=86b6a2b1-86a4-46ee-8c7e-90cb86d3d820","ios":"levelo://app?vid=86b6a2b1-86a4-46ee-8c7e-90cb86d3d820"},"vehicle_type_id":"4","last_reported":1726164769,"current_range_meters":38800,"station_id":"ce4bgvp2rcd13ifvqcu0","pricing_plan_id":"cebpf4jnsgd1na2vs0mg"},{"bike_id":"84093d93-5b0e-4199-b275-e716110e675a","system_id":"levelo_inurba_marseille","lat":43.29666,"lon":5.37703,"is_reserved":false,"is_disabled":false,"rental_uris":{"android":"levelo://app?vid=84093d93-5b0e-4199-b275-e716110e675a","ios":"levelo://app?vid=84093d93-5b0e-4199-b275-e716110e675a"},"vehicle_type_id":"4","last_reported":1726164769,"current_range_meters":1600,"station_id":"ce4bgi92rcd13ifvqb90","pricing_plan_id":"cebpf4jnsgd1na2vs0mg"},{"bike_id":"4dd8b997-408c-4479-91b7-0e4b7b6a988d","system_id":"levelo_inurba_marseille","lat":43.30134,"lon":5.39874,"is_reserved":false,"is_disabled":false,"rental_uris":{"android":"levelo://app?vid=4dd8b997-408c-4479-91b7-0e4b7b6a988d","ios":"levelo://app?vid=4dd8b997-408c-4479-91b7-0e4b7b6a988d"},"vehicle_type_id":"4","last_reported":1726164769,"current_range_meters":38800,"station_id":"ce4bh0h2rcd13ifvqd40","pricing_plan_id":"cebpf4jnsgd1na2vs0mg"},{"bike_id":"4b2399a3-cc27-44fe-adc2-89e6d567f3f6","system_id":"levelo_inurba_marseille","lat":43.28155,"lon":5.42646,"is_reserved":false,"is_disabled":false,"rental_uris":{"android":"levelo://app?vid=4b2399a3-cc27-44fe-adc2-89e6d567f3f6","ios":"levelo://app?vid=4b2399a3-cc27-44fe-adc2-89e6d567f3f6"},"vehicle_type_id":"4","last_reported":1726164769,"current_range_meters":36800,"station_id":"ce4bhnh2rcd13ifvqgug","pricing_plan_id":"cebpf4jnsgd1na2vs0mg"},{"bike_id":"5c3ce468-2a1d-4084-afb8-c54c00b56887","system_id":"levelo_inurba_marseille","lat":43.24079,"lon":5.37755,"is_reserved":false,"is_disabled":false,"rental_uris":{"android":"levelo://app?vid=5c3ce468-2a1d-4084-afb8-c54c00b56887","ios":"levelo://app?vid=5c3ce468-2a1d-4084-afb8-c54c00b56887"},"vehicle_type_id":"4","last_reported":1726164769,"current_range_meters":16000,"station_id":"ce4bhnp2rcd13ifvqgvg","pricing_plan_id":"cebpf4jnsgd1na2vs0mg"},{"bike_id":"af86506f-f8fe-4c34-9939-464ebed8523b","system_id":"levelo_inurba_marseille","lat":43.31764,"lon":5.39018,"is_reserved":false,"is_disabled":false,"rental_uris":{"android":"levelo://app?vid=af86506f-f8fe-4c34-9939-464ebed8523b","ios":"levelo://app?vid=af86506f-f8fe-4c34-9939-464ebed8523b"},"vehicle_type_id":"4","last_reported":1726164769,"current_range_meters":27600,"station_id":"ce4bhqp2rcd13ifvqhng","pricing_plan_id":"cebpf4jnsgd1na2vs0mg"},{"bike_id":"4067cf6c-6e3d-4ac9-99bf-c1b92b69f736","system_id":"levelo_inurba_marseille","lat":43.32492,"lon":5.36571,"is_reserved":false,"is_disabled":false,"rental_uris":{"android":"levelo://app?vid=4067cf6c-6e3d-4ac9-99bf-c1b92b69f736","ios":"levelo://app?vid=4067cf6c-6e3d-4ac9-99bf-c1b92b69f736"},"vehicle_type_id":"4","last_reported":1726164769,"current_range_meters":28000,"station_id":"ce4bhs12rcd13ifvqhvg","pricing_plan_id":"cebpf4jnsgd1na2vs0mg"},{"bike_id":"b78e87d5-a952-480d-8fc1-376d74182b72","system_id":"levelo_inurba_marseille","lat":43.28371,"lon":5.38647,"is_reserved":false,"is_disabled":false,"rental_uris":{"android":"levelo://app?vid=b78e87d5-a952-480d-8fc1-376d74182b72","ios":"levelo://app?vid=b78e87d5-a952-480d-8fc1-376d74182b72"},"vehicle_type_id":"4","last_reported":1726164769,"current_range_meters":13600,"station_id":"ce4bh492rcd13ifvqdvg","pricing_plan_id":"cebpf4jnsgd1na2vs0mg"},{"bike_id":"790bd815-cb1d-4d38-9b83-3c4bf066e581","system_id":"levelo_inurba_marseille","lat":43.29198,"lon":5.39333,"is_reserved":false,"is_disabled":false,"rental_uris":{"android":"levelo://app?vid=790bd815-cb1d-4d38-9b83-3c4bf066e581","ios":"levelo://app?vid=790bd815-cb1d-4d38-9b83-3c4bf066e581"},"vehicle_type_id":"4","last_reported":1726164769,"current_range_meters":38800,"station_id":"ce4bh192rcd13ifvqdd0","pricing_plan_id":"cebpf4jnsgd1na2vs0mg"},{"bike_id":"20766e73-8f5d-4704-bd77-5acdbdf3c1b7","system_id":"levelo_inurba_marseille","lat":43.27945,"lon":5.41051,"is_reserved":false,"is_disabled":false,"rental_uris":{"android":"levelo://app?vid=20766e73-8f5d-4704-bd77-5acdbdf3c1b7","ios":"levelo://app?vid=20766e73-8f5d-4704-bd77-5acdbdf3c1b7"},"vehicle_type_id":"4","last_reported":1726164769,"current_range_meters":26800,"station_id":"ce4bhnp2rcd13ifvqh0g","pricing_plan_id":"cebpf4jnsgd1na2vs0mg"},{"bike_id":"30c5461d-7b46-4308-8093-e0b50e32091f","system_id":"levelo_inurba_marseille","lat":43.292938,"lon":5.374534,"is_reserved":false,"is_disabled":false,"rental_uris":{"android":"levelo://app?vid=30c5461d-7b46-4308-8093-e0b50e32091f","ios":"levelo://app?vid=30c5461d-7b46-4308-8093-e0b50e32091f"},"vehicle_type_id":"4","last_reported":1726164769,"current_range_meters":6800,"station_id":"ce4bgi12rcd13ifvqb70","pricing_plan_id":"cebpf4jnsgd1na2vs0mg"},{"bike_id":"138c325e-83a7-48f7-8739-a25602aaee06","system_id":"levelo_inurba_marseille","lat":43.30461,"lon":5.37909,"is_reserved":false,"is_disabled":false,"rental_uris":{"android":"levelo://app?vid=138c325e-83a7-48f7-8739-a25602aaee06","ios":"levelo://app?vid=138c325e-83a7-48f7-8739-a25602aaee06"},"vehicle_type_id":"4","last_reported":1726164769,"current_range_meters":17600,"station_id":"ce4bgup2rcd13ifvqcn0","pricing_plan_id":"cebpf4jnsgd1na2vs0mg"},{"bike_id":"55ca0545-1d89-4d20-a1ad-dd41648ab3d8","system_id":"levelo_inurba_marseille","lat":43.29529,"lon":5.39042,"is_reserved":false,"is_disabled":false,"rental_uris":{"android":"levelo://app?vid=55ca0545-1d89-4d20-a1ad-dd41648ab3d8","ios":"levelo://app?vid=55ca0545-1d89-4d20-a1ad-dd41648ab3d8"},"vehicle_type_id":"4","last_reported":1726164769,"current_range_meters":14400,"station_id":"ce4bh3p2rcd13ifvqdp0","pricing_plan_id":"cebpf4jnsgd1na2vs0mg"},{"bike_id":"c29b0356-be48-405b-a82d-23daf94f552b","system_id":"levelo_inurba_marseille","lat":43.2894,"lon":5.36643,"is_reserved":false,"is_disabled":false,"rental_uris":{"android":"levelo://app?vid=c29b0356-be48-405b-a82d-23daf94f552b","ios":"levelo://app?vid=c29b0356-be48-405b-a82d-23daf94f552b"},"vehicle_type_id":"4","last_reported":1726164769,"current_range_meters":39200,"station_id":"ce4bhap2rcd13ifvqek0","pricing_plan_id":"cebpf4jnsgd1na2vs0mg"},{"bike_id":"15013559-656d-45f9-ad12-095b01387ef3","system_id":"levelo_inurba_marseille","lat":43.301286,"lon":5.398606,"is_reserved":false,"is_disabled":false,"rental_uris":{"android":"levelo://app?vid=15013559-656d-45f9-ad12-095b01387ef3","ios":"levelo://app?vid=15013559-656d-45f9-ad12-095b01387ef3"},"vehicle_type_id":"4","last_reported":1726164769,"current_range_meters":3200,"station_id":"ce4bh0h2rcd13ifvqd40","pricing_plan_id":"cebpf4jnsgd1na2vs0mg"},{"bike_id":"4c68d7ee-afb1-4202-a3b5-b0d2c4004821","system_id":"levelo_inurba_marseille","lat":43.292601,"lon":5.384435,"is_reserved":false,"is_disabled":false,"rental_uris":{"android":"levelo://app?vid=4c68d7ee-afb1-4202-a3b5-b0d2c4004821","ios":"levelo://app?vid=4c68d7ee-afb1-4202-a3b5-b0d2c4004821"},"vehicle_type_id":"4","last_reported":1726164769,"current_range_meters":10000,"station_id":"ce4bh0h2rcd13ifvqd50","pricing_plan_id":"cebpf4jnsgd1na2vs0mg"},{"bike_id":"b413d41f-7993-42f5-a3cc-daaaeaf22886","system_id":"levelo_inurba_marseille","lat":43.32486,"lon":5.36564,"is_reserved":false,"is_disabled":false,"rental_uris":{"android":"levelo://app?vid=b413d41f-7993-42f5-a3cc-daaaeaf22886","ios":"levelo://app?vid=b413d41f-7993-42f5-a3cc-daaaeaf22886"},"vehicle_type_id":"4","last_reported":1726164769,"current_range_meters":26800,"station_id":"ce4bhs12rcd13ifvqhvg","pricing_plan_id":"cebpf4jnsgd1na2vs0mg"},{"bike_id":"256f4fd0-a55d-421e-8be3-ea51fa260e66","system_id":"levelo_inurba_marseille","lat":43.29959,"lon":5.41324,"is_reserved":false,"is_disabled":false,"rental_uris":{"android":"levelo://app?vid=256f4fd0-a55d-421e-8be3-ea51fa260e66","ios":"levelo://app?vid=256f4fd0-a55d-421e-8be3-ea51fa260e66"},"vehicle_type_id":"4","last_reported":1726164769,"current_range_meters":24400,"station_id":"ce4bhp12rcd13ifvqh9g","pricing_plan_id":"cebpf4jnsgd1na2vs0mg"},{"bike_id":"0db0d8bf-e700-4bf2-95ad-c3a031c587ec","system_id":"levelo_inurba_marseille","lat":43.295364,"lon":5.385363,"is_reserved":false,"is_disabled":false,"rental_uris":{"android":"levelo://app?vid=0db0d8bf-e700-4bf2-95ad-c3a031c587ec","ios":"levelo://app?vid=0db0d8bf-e700-4bf2-95ad-c3a031c587ec"},"vehicle_type_id":"4","last_reported":1726164769,"current_range_meters":7200,"station_id":"ce4bgih2rcd13ifvqba0","pricing_plan_id":"cebpf4jnsgd1na2vs0mg"},{"bike_id":"96cb29cb-8da1-4dd6-bd35-ee190827a973","system_id":"levelo_inurba_marseille","lat":43.26563,"lon":5.37283,"is_reserved":false,"is_disabled":false,"rental_uris":{"android":"levelo://app?vid=96cb29cb-8da1-4dd6-bd35-ee190827a973","ios":"levelo://app?vid=96cb29cb-8da1-4dd6-bd35-ee190827a973"},"vehicle_type_id":"4","last_reported":1726164769,"current_range_meters":9200,"station_id":"ce4bhg12rcd13ifvqf70","pricing_plan_id":"cebpf4jnsgd1na2vs0mg"},{"bike_id":"a61c9e04-bce5-4e44-99ea-7dd65bcde295","system_id":"levelo_inurba_marseille","lat":43.29006,"lon":5.35611,"is_reserved":false,"is_disabled":false,"rental_uris":{"android":"levelo://app?vid=a61c9e04-bce5-4e44-99ea-7dd65bcde295","ios":"levelo://app?vid=a61c9e04-bce5-4e44-99ea-7dd65bcde295"},"vehicle_type_id":"4","last_reported":1726164769,"current_range_meters":28800,"station_id":"ce4bhb92rcd13ifvqen0","pricing_plan_id":"cebpf4jnsgd1na2vs0mg"},{"bike_id":"cd75701b-d41a-41fb-929e-c69d8fbf02a7","system_id":"levelo_inurba_marseille","lat":43.23967,"lon":5.36621,"is_reserved":false,"is_disabled":false,"rental_uris":{"android":"levelo://app?vid=cd75701b-d41a-41fb-929e-c69d8fbf02a7","ios":"levelo://app?vid=cd75701b-d41a-41fb-929e-c69d8fbf02a7"},"vehicle_type_id":"4","last_reported":1726164769,"current_range_meters":30800,"station_id":"ce4bhi12rcd13ifvqfp0","pricing_plan_id":"cebpf4jnsgd1na2vs0mg"},{"bike_id":"22b3c4bd-d760-4a85-8195-c9066092af2f","system_id":"levelo_inurba_marseille","lat":43.31712,"lon":5.43711,"is_reserved":false,"is_disabled":false,"rental_uris":{"android":"levelo://app?vid=22b3c4bd-d760-4a85-8195-c9066092af2f","ios":"levelo://app?vid=22b3c4bd-d760-4a85-8195-c9066092af2f"},"vehicle_type_id":"4","last_reported":1726164769,"current_range_meters":6000,"station_id":"ce4bhp92rcd13ifvqhcg","pricing_plan_id":"cebpf4jnsgd1na2vs0mg"},{"bike_id":"a8839b11-6066-4b34-aa10-173ebf2d506c","system_id":"levelo_inurba_marseille","lat":43.29799,"lon":5.38092,"is_reserved":false,"is_disabled":false,"rental_uris":{"android":"levelo://app?vid=a8839b11-6066-4b34-aa10-173ebf2d506c","ios":"levelo://app?vid=a8839b11-6066-4b34-aa10-173ebf2d506c"},"vehicle_type_id":"4","last_reported":1726164769,"current_range_meters":3600,"station_id":"ce4bgip2rcd13ifvqbb0","pricing_plan_id":"cebpf4jnsgd1na2vs0mg"},{"bike_id":"2a5b8669-a39c-418c-95de-04ed7a3b697d","system_id":"levelo_inurba_marseille","lat":43.28109,"lon":5.37844,"is_reserved":false,"is_disabled":false,"rental_uris":{"android":"levelo://app?vid=2a5b8669-a39c-418c-95de-04ed7a3b697d","ios":"levelo://app?vid=2a5b8669-a39c-418c-95de-04ed7a3b697d"},"vehicle_type_id":"4","last_reported":1726164769,"current_range_meters":30400,"station_id":"ce4bha12rcd13ifvqee0","pricing_plan_id":"cebpf4jnsgd1na2vs0mg"},{"bike_id":"e23d83a0-a081-44dc-a4f4-1eabd0244c06","system_id":"levelo_inurba_marseille","lat":43.28154,"lon":5.42644,"is_reserved":false,"is_disabled":false,"rental_uris":{"android":"levelo://app?vid=e23d83a0-a081-44dc-a4f4-1eabd0244c06","ios":"levelo://app?vid=e23d83a0-a081-44dc-a4f4-1eabd0244c06"},"vehicle_type_id":"4","last_reported":1726164769,"current_range_meters":4000,"station_id":"ce4bhnh2rcd13ifvqgug","pricing_plan_id":"cebpf4jnsgd1na2vs0mg"},{"bike_id":"08e1f1ce-5e43-498d-a9d4-ba436714cce8","system_id":"levelo_inurba_marseille","lat":43.30219,"lon":5.40026,"is_reserved":false,"is_disabled":false,"rental_uris":{"android":"levelo://app?vid=08e1f1ce-5e43-498d-a9d4-ba436714cce8","ios":"levelo://app?vid=08e1f1ce-5e43-498d-a9d4-ba436714cce8"},"vehicle_type_id":"4","last_reported":1726164769,"current_range_meters":38000,"station_id":"","pricing_plan_id":"cebpf4jnsgd1na2vs0mg"},{"bike_id":"185f5d18-e661-44f4-bcb6-2d0b90541f29","system_id":"levelo_inurba_marseille","lat":43.27944,"lon":5.38707,"is_reserved":false,"is_disabled":false,"rental_uris":{"android":"levelo://app?vid=185f5d18-e661-44f4-bcb6-2d0b90541f29","ios":"levelo://app?vid=185f5d18-e661-44f4-bcb6-2d0b90541f29"},"vehicle_type_id":"4","last_reported":1726164769,"current_range_meters":38800,"station_id":"ce4bhg12rcd13ifvqf80","pricing_plan_id":"cebpf4jnsgd1na2vs0mg"},{"bike_id":"cac78a6e-a1e0-4f97-9b48-10fba0a2004d","system_id":"levelo_inurba_marseille","lat":43.23189,"lon":5.35556,"is_reserved":false,"is_disabled":false,"rental_uris":{"android":"levelo://app?vid=cac78a6e-a1e0-4f97-9b48-10fba0a2004d","ios":"levelo://app?vid=cac78a6e-a1e0-4f97-9b48-10fba0a2004d"},"vehicle_type_id":"4","last_reported":1726164769,"current_range_meters":6800,"station_id":"ce4bhu92rcd13ifvqi70","pricing_plan_id":"cebpf4jnsgd1na2vs0mg"},{"bike_id":"87106bbb-5858-42a8-85c6-232aa030bbd4","system_id":"levelo_inurba_marseille","lat":43.25721,"lon":5.41114,"is_reserved":false,"is_disabled":false,"rental_uris":{"android":"levelo://app?vid=87106bbb-5858-42a8-85c6-232aa030bbd4","ios":"levelo://app?vid=87106bbb-5858-42a8-85c6-232aa030bbd4"},"vehicle_type_id":"4","last_reported":1726164769,"current_range_meters":22000,"station_id":"ce4bhkp2rcd13ifvqgd0","pricing_plan_id":"cebpf4jnsgd1na2vs0mg"},{"bike_id":"5969c9fb-1a4e-44e7-9a7a-83c73b1c5d8d","system_id":"levelo_inurba_marseille","lat":43.28681,"lon":5.38664,"is_reserved":false,"is_disabled":false,"rental_uris":{"android":"levelo://app?vid=5969c9fb-1a4e-44e7-9a7a-83c73b1c5d8d","ios":"levelo://app?vid=5969c9fb-1a4e-44e7-9a7a-83c73b1c5d8d"},"vehicle_type_id":"4","last_reported":1726164769,"current_range_meters":37600,"station_id":"ce4bh492rcd13ifvqdug","pricing_plan_id":"cebpf4jnsgd1na2vs0mg"},{"bike_id":"018da085-3d8a-4aa7-828e-b6f9b01d5458","system_id":"levelo_inurba_marseille","lat":43.26197,"lon":5.37447,"is_reserved":false,"is_disabled":false,"rental_uris":{"android":"levelo://app?vid=018da085-3d8a-4aa7-828e-b6f9b01d5458","ios":"levelo://app?vid=018da085-3d8a-4aa7-828e-b6f9b01d5458"},"vehicle_type_id":"4","last_reported":1726164769,"current_range_meters":24800,"station_id":"ce4bhgp2rcd13ifvqfc0","pricing_plan_id":"cebpf4jnsgd1na2vs0mg"},{"bike_id":"e92230da-e971-40af-a243-a3b894c345e3","system_id":"levelo_inurba_marseille","lat":43.298676,"lon":5.389047,"is_reserved":false,"is_disabled":false,"rental_uris":{"android":"levelo://app?vid=e92230da-e971-40af-a243-a3b894c345e3","ios":"levelo://app?vid=e92230da-e971-40af-a243-a3b894c345e3"},"vehicle_type_id":"4","last_reported":1726164769,"current_range_meters":33200,"station_id":"ce4bgrp2rcd13ifvqc9g","pricing_plan_id":"cebpf4jnsgd1na2vs0mg"},{"bike_id":"a2cd8b1a-5149-423f-b006-3a9bf1a7a464","system_id":"levelo_inurba_marseille","lat":43.27495,"lon":5.42452,"is_reserved":false,"is_disabled":false,"rental_uris":{"android":"levelo://app?vid=a2cd8b1a-5149-423f-b006-3a9bf1a7a464","ios":"levelo://app?vid=a2cd8b1a-5149-423f-b006-3a9bf1a7a464"},"vehicle_type_id":"4","last_reported":1726164769,"current_range_meters":12800,"station_id":"ce4bhn92rcd13ifvqgrg","pricing_plan_id":"cebpf4jnsgd1na2vs0mg"},{"bike_id":"afa68221-424c-42d2-b5bb-706b5f4d1384","system_id":"levelo_inurba_marseille","lat":43.29525,"lon":5.38546,"is_reserved":false,"is_disabled":false,"rental_uris":{"android":"levelo://app?vid=afa68221-424c-42d2-b5bb-706b5f4d1384","ios":"levelo://app?vid=afa68221-424c-42d2-b5bb-706b5f4d1384"},"vehicle_type_id":"4","last_reported":1726164769,"current_range_meters":38000,"station_id":"ce4bgih2rcd13ifvqba0","pricing_plan_id":"cebpf4jnsgd1na2vs0mg"},{"bike_id":"2c4577b3-3689-495e-a3c3-a78eafd4dc43","system_id":"levelo_inurba_marseille","lat":43.26555,"lon":5.37285,"is_reserved":false,"is_disabled":false,"rental_uris":{"android":"levelo://app?vid=2c4577b3-3689-495e-a3c3-a78eafd4dc43","ios":"levelo://app?vid=2c4577b3-3689-495e-a3c3-a78eafd4dc43"},"vehicle_type_id":"4","last_reported":1726164769,"current_range_meters":25600,"station_id":"ce4bhg12rcd13ifvqf70","pricing_plan_id":"cebpf4jnsgd1na2vs0mg"},{"bike_id":"f53b2a9b-f9e3-4c12-bb12-74eb55367ba2","system_id":"levelo_inurba_marseille","lat":43.33607,"lon":5.41021,"is_reserved":false,"is_disabled":false,"rental_uris":{"android":"levelo://app?vid=f53b2a9b-f9e3-4c12-bb12-74eb55367ba2","ios":"levelo://app?vid=f53b2a9b-f9e3-4c12-bb12-74eb55367ba2"},"vehicle_type_id":"4","last_reported":1726164769,"current_range_meters":31200,"station_id":"ce4bhqh2rcd13ifvqhmg","pricing_plan_id":"cebpf4jnsgd1na2vs0mg"},{"bike_id":"f4e6b18b-6ab8-4ad7-8995-f695057b258e","system_id":"levelo_inurba_marseille","lat":43.27074,"lon":5.42293,"is_reserved":false,"is_disabled":false,"rental_uris":{"android":"levelo://app?vid=f4e6b18b-6ab8-4ad7-8995-f695057b258e","ios":"levelo://app?vid=f4e6b18b-6ab8-4ad7-8995-f695057b258e"},"vehicle_type_id":"4","last_reported":1726164769,"current_range_meters":28000,"station_id":"ce4bhk92rcd13ifvqgb0","pricing_plan_id":"cebpf4jnsgd1na2vs0mg"},{"bike_id":"7dea9175-0fb5-4d49-ac6e-d13b7c47ac00","system_id":"levelo_inurba_marseille","lat":43.25719,"lon":5.41125,"is_reserved":false,"is_disabled":false,"rental_uris":{"android":"levelo://app?vid=7dea9175-0fb5-4d49-ac6e-d13b7c47ac00","ios":"levelo://app?vid=7dea9175-0fb5-4d49-ac6e-d13b7c47ac00"},"vehicle_type_id":"4","last_reported":1726164769,"current_range_meters":28000,"station_id":"ce4bhkp2rcd13ifvqgd0","pricing_plan_id":"cebpf4jnsgd1na2vs0mg"},{"bike_id":"60d5bda9-f640-405a-935d-62d1314e50fa","system_id":"levelo_inurba_marseille","lat":43.23968,"lon":5.36639,"is_reserved":false,"is_disabled":false,"rental_uris":{"android":"levelo://app?vid=60d5bda9-f640-405a-935d-62d1314e50fa","ios":"levelo://app?vid=60d5bda9-f640-405a-935d-62d1314e50fa"},"vehicle_type_id":"4","last_reported":1726164769,"current_range_meters":28800,"station_id":"ce4bhi12rcd13ifvqfp0","pricing_plan_id":"cebpf4jnsgd1na2vs0mg"},{"bike_id":"33f03670-cf2a-43f9-bafe-26c48df8fd80","system_id":"levelo_inurba_marseille","lat":43.31082,"lon":5.42428,"is_reserved":false,"is_disabled":false,"rental_uris":{"android":"levelo://app?vid=33f03670-cf2a-43f9-bafe-26c48df8fd80","ios":"levelo://app?vid=33f03670-cf2a-43f9-bafe-26c48df8fd80"},"vehicle_type_id":"4","last_reported":1726164769,"current_range_meters":15200,"station_id":"ce4bhp92rcd13ifvqhag","pricing_plan_id":"cebpf4jnsgd1na2vs0mg"},{"bike_id":"5728f16a-a8a2-4873-8c0e-ce1236af0cc2","system_id":"levelo_inurba_marseille","lat":43.25583,"lon":5.38239,"is_reserved":false,"is_disabled":false,"rental_uris":{"android":"levelo://app?vid=5728f16a-a8a2-4873-8c0e-ce1236af0cc2","ios":"levelo://app?vid=5728f16a-a8a2-4873-8c0e-ce1236af0cc2"},"vehicle_type_id":"4","last_reported":1726164769,"current_range_meters":2000,"station_id":"ce4bhih2rcd13ifvqfs0","pricing_plan_id":"cebpf4jnsgd1na2vs0mg"},{"bike_id":"423a4cab-8a31-4718-8b7a-239bcdca67af","system_id":"levelo_inurba_marseille","lat":43.24175,"lon":5.39708,"is_reserved":false,"is_disabled":false,"rental_uris":{"android":"levelo://app?vid=423a4cab-8a31-4718-8b7a-239bcdca67af","ios":"levelo://app?vid=423a4cab-8a31-4718-8b7a-239bcdca67af"},"vehicle_type_id":"4","last_reported":1726164769,"current_range_meters":38800,"station_id":"ce4bhn12rcd13ifvqgpg","pricing_plan_id":"cebpf4jnsgd1na2vs0mg"},{"bike_id":"9163cc20-d457-4a59-bb69-e012a5ecf5a9","system_id":"levelo_inurba_marseille","lat":43.28457,"lon":5.35894,"is_reserved":false,"is_disabled":false,"rental_uris":{"android":"levelo://app?vid=9163cc20-d457-4a59-bb69-e012a5ecf5a9","ios":"levelo://app?vid=9163cc20-d457-4a59-bb69-e012a5ecf5a9"},"vehicle_type_id":"4","last_reported":1726164769,"current_range_meters":38800,"station_id":"ce4bhah2rcd13ifvqei0","pricing_plan_id":"cebpf4jnsgd1na2vs0mg"},{"bike_id":"35af00e1-5203-40a4-8877-247e8b8e5c90","system_id":"levelo_inurba_marseille","lat":43.28943,"lon":5.36634,"is_reserved":false,"is_disabled":false,"rental_uris":{"android":"levelo://app?vid=35af00e1-5203-40a4-8877-247e8b8e5c90","ios":"levelo://app?vid=35af00e1-5203-40a4-8877-247e8b8e5c90"},"vehicle_type_id":"4","last_reported":1726164769,"current_range_meters":38400,"station_id":"ce4bhap2rcd13ifvqek0","pricing_plan_id":"cebpf4jnsgd1na2vs0mg"},{"bike_id":"96296b06-953b-4a27-8f25-5de1930132b9","system_id":"levelo_inurba_marseille","lat":43.29531,"lon":5.38538,"is_reserved":false,"is_disabled":false,"rental_uris":{"android":"levelo://app?vid=96296b06-953b-4a27-8f25-5de1930132b9","ios":"levelo://app?vid=96296b06-953b-4a27-8f25-5de1930132b9"},"vehicle_type_id":"4","last_reported":1726164769,"current_range_meters":39200,"station_id":"ce4bgih2rcd13ifvqba0","pricing_plan_id":"cebpf4jnsgd1na2vs0mg"},{"bike_id":"9f88bd99-8fe1-4f0f-91f9-75a031787425","system_id":"levelo_inurba_marseille","lat":43.29542,"lon":5.38547,"is_reserved":false,"is_disabled":false,"rental_uris":{"android":"levelo://app?vid=9f88bd99-8fe1-4f0f-91f9-75a031787425","ios":"levelo://app?vid=9f88bd99-8fe1-4f0f-91f9-75a031787425"},"vehicle_type_id":"4","last_reported":1726164769,"current_range_meters":38800,"station_id":"ce4bho92rcd13ifvqh3g","pricing_plan_id":"cebpf4jnsgd1na2vs0mg"},{"bike_id":"2d9f6a36-1e8d-46ce-8819-b2bb04006d43","system_id":"levelo_inurba_marseille","lat":43.25582,"lon":5.38218,"is_reserved":false,"is_disabled":false,"rental_uris":{"android":"levelo://app?vid=2d9f6a36-1e8d-46ce-8819-b2bb04006d43","ios":"levelo://app?vid=2d9f6a36-1e8d-46ce-8819-b2bb04006d43"},"vehicle_type_id":"4","last_reported":1726164769,"current_range_meters":36400,"station_id":"ce4bhih2rcd13ifvqfs0","pricing_plan_id":"cebpf4jnsgd1na2vs0mg"},{"bike_id":"a9f6b724-38c1-4e47-bf6e-8849f2f9295d","system_id":"levelo_inurba_marseille","lat":43.29171,"lon":5.37161,"is_reserved":false,"is_disabled":false,"rental_uris":{"android":"levelo://app?vid=a9f6b724-38c1-4e47-bf6e-8849f2f9295d","ios":"levelo://app?vid=a9f6b724-38c1-4e47-bf6e-8849f2f9295d"},"vehicle_type_id":"4","last_reported":1726164769,"current_range_meters":24400,"station_id":"ce4bha92rcd13ifvqeh0","pricing_plan_id":"cebpf4jnsgd1na2vs0mg"},{"bike_id":"1e0df5ba-fa4d-4573-807a-e855b81fe691","system_id":"levelo_inurba_marseille","lat":43.23965,"lon":5.36626,"is_reserved":false,"is_disabled":false,"rental_uris":{"android":"levelo://app?vid=1e0df5ba-fa4d-4573-807a-e855b81fe691","ios":"levelo://app?vid=1e0df5ba-fa4d-4573-807a-e855b81fe691"},"vehicle_type_id":"4","last_reported":1726164769,"current_range_meters":33600,"station_id":"ce4bhi12rcd13ifvqfp0","pricing_plan_id":"cebpf4jnsgd1na2vs0mg"},{"bike_id":"e62c8c71-b14f-4c94-8aa4-e0afcaaf93b6","system_id":"levelo_inurba_marseille","lat":43.24812,"lon":5.37473,"is_reserved":false,"is_disabled":false,"rental_uris":{"android":"levelo://app?vid=e62c8c71-b14f-4c94-8aa4-e0afcaaf93b6","ios":"levelo://app?vid=e62c8c71-b14f-4c94-8aa4-e0afcaaf93b6"},"vehicle_type_id":"4","last_reported":1726164769,"current_range_meters":36800,"station_id":"ce4bhgh2rcd13ifvqfb0","pricing_plan_id":"cebpf4jnsgd1na2vs0mg"},{"bike_id":"22dd33dc-88ea-4776-bffc-0ee74de3cbb7","system_id":"levelo_inurba_marseille","lat":43.23965,"lon":5.36634,"is_reserved":false,"is_disabled":false,"rental_uris":{"android":"levelo://app?vid=22dd33dc-88ea-4776-bffc-0ee74de3cbb7","ios":"levelo://app?vid=22dd33dc-88ea-4776-bffc-0ee74de3cbb7"},"vehicle_type_id":"4","last_reported":1726164769,"current_range_meters":5600,"station_id":"ce4bhi12rcd13ifvqfp0","pricing_plan_id":"cebpf4jnsgd1na2vs0mg"},{"bike_id":"c2ff5890-e834-499f-9ff8-6286b5402085","system_id":"levelo_inurba_marseille","lat":43.24671,"lon":5.38164,"is_reserved":false,"is_disabled":false,"rental_uris":{"android":"levelo://app?vid=c2ff5890-e834-499f-9ff8-6286b5402085","ios":"levelo://app?vid=c2ff5890-e834-499f-9ff8-6286b5402085"},"vehicle_type_id":"4","last_reported":1726164769,"current_range_meters":16800,"station_id":"ce4bhih2rcd13ifvqfr0","pricing_plan_id":"cebpf4jnsgd1na2vs0mg"},{"bike_id":"768174ed-8e87-4dfb-8f24-a534a0005560","system_id":"levelo_inurba_marseille","lat":43.29002,"lon":5.35616,"is_reserved":false,"is_disabled":false,"rental_uris":{"android":"levelo://app?vid=768174ed-8e87-4dfb-8f24-a534a0005560","ios":"levelo://app?vid=768174ed-8e87-4dfb-8f24-a534a0005560"},"vehicle_type_id":"4","last_reported":1726164769,"current_range_meters":38800,"station_id":"ce4bhb92rcd13ifvqen0","pricing_plan_id":"cebpf4jnsgd1na2vs0mg"},{"bike_id":"59a2b5a9-0f56-40d5-a59c-cb2592419b75","system_id":"levelo_inurba_marseille","lat":43.25588,"lon":5.38268,"is_reserved":false,"is_disabled":false,"rental_uris":{"android":"levelo://app?vid=59a2b5a9-0f56-40d5-a59c-cb2592419b75","ios":"levelo://app?vid=59a2b5a9-0f56-40d5-a59c-cb2592419b75"},"vehicle_type_id":"4","last_reported":1726164769,"current_range_meters":38800,"station_id":"ce4bhih2rcd13ifvqfs0","pricing_plan_id":"cebpf4jnsgd1na2vs0mg"},{"bike_id":"7dc55c88-404a-433c-90d5-05daf2e2d002","system_id":"levelo_inurba_marseille","lat":43.28274,"lon":5.3507,"is_reserved":false,"is_disabled":false,"rental_uris":{"android":"levelo://app?vid=7dc55c88-404a-433c-90d5-05daf2e2d002","ios":"levelo://app?vid=7dc55c88-404a-433c-90d5-05daf2e2d002"},"vehicle_type_id":"4","last_reported":1726164769,"current_range_meters":36000,"station_id":"ce4bhbp2rcd13ifvqerg","pricing_plan_id":"cebpf4jnsgd1na2vs0mg"},{"bike_id":"e65e08ad-c38a-4907-9ad5-7dcaf436def7","system_id":"levelo_inurba_marseille","lat":43.292884,"lon":5.374673,"is_reserved":false,"is_disabled":false,"rental_uris":{"android":"levelo://app?vid=e65e08ad-c38a-4907-9ad5-7dcaf436def7","ios":"levelo://app?vid=e65e08ad-c38a-4907-9ad5-7dcaf436def7"},"vehicle_type_id":"4","last_reported":1726164769,"current_range_meters":24400,"station_id":"ce4bgi12rcd13ifvqb70","pricing_plan_id":"cebpf4jnsgd1na2vs0mg"},{"bike_id":"1313cae7-15de-406b-a5f5-d010a9b56489","system_id":"levelo_inurba_marseille","lat":43.31713,"lon":5.43711,"is_reserved":false,"is_disabled":false,"rental_uris":{"android":"levelo://app?vid=1313cae7-15de-406b-a5f5-d010a9b56489","ios":"levelo://app?vid=1313cae7-15de-406b-a5f5-d010a9b56489"},"vehicle_type_id":"4","last_reported":1726164769,"current_range_meters":33200,"station_id":"ce4bhp92rcd13ifvqhcg","pricing_plan_id":"cebpf4jnsgd1na2vs0mg"},{"bike_id":"59997ff0-fbe3-4cc2-af6c-f62abe4a8211","system_id":"levelo_inurba_marseille","lat":43.29712,"lon":5.3769,"is_reserved":false,"is_disabled":false,"rental_uris":{"android":"levelo://app?vid=59997ff0-fbe3-4cc2-af6c-f62abe4a8211","ios":"levelo://app?vid=59997ff0-fbe3-4cc2-af6c-f62abe4a8211"},"vehicle_type_id":"4","last_reported":1726164769,"current_range_meters":36800,"station_id":"ce4bgkh2rcd13ifvqbl0","pricing_plan_id":"cebpf4jnsgd1na2vs0mg"},{"bike_id":"6f94ccb4-e5b0-4f7a-90a2-94c6f5d54a44","system_id":"levelo_inurba_marseille","lat":43.28372,"lon":5.38644,"is_reserved":false,"is_disabled":false,"rental_uris":{"android":"levelo://app?vid=6f94ccb4-e5b0-4f7a-90a2-94c6f5d54a44","ios":"levelo://app?vid=6f94ccb4-e5b0-4f7a-90a2-94c6f5d54a44"},"vehicle_type_id":"4","last_reported":1726164769,"current_range_meters":18800,"station_id":"ce4bh492rcd13ifvqdvg","pricing_plan_id":"cebpf4jnsgd1na2vs0mg"},{"bike_id":"a9f31859-2a66-4809-bd36-b673dbfc9140","system_id":"levelo_inurba_marseille","lat":43.28474,"lon":5.38423,"is_reserved":false,"is_disabled":false,"rental_uris":{"android":"levelo://app?vid=a9f31859-2a66-4809-bd36-b673dbfc9140","ios":"levelo://app?vid=a9f31859-2a66-4809-bd36-b673dbfc9140"},"vehicle_type_id":"4","last_reported":1726164769,"current_range_meters":15200,"station_id":"ce4bh512rcd13ifvqe3g","pricing_plan_id":"cebpf4jnsgd1na2vs0mg"},{"bike_id":"a7225787-a1fe-4f9c-8189-093e4e1002aa","system_id":"levelo_inurba_marseille","lat":43.29002,"lon":5.35613,"is_reserved":false,"is_disabled":false,"rental_uris":{"android":"levelo://app?vid=a7225787-a1fe-4f9c-8189-093e4e1002aa","ios":"levelo://app?vid=a7225787-a1fe-4f9c-8189-093e4e1002aa"},"vehicle_type_id":"4","last_reported":1726164769,"current_range_meters":39200,"station_id":"ce4bhb92rcd13ifvqen0","pricing_plan_id":"cebpf4jnsgd1na2vs0mg"},{"bike_id":"dc5dca54-8ebf-43b2-acf8-9ae498c9992e","system_id":"levelo_inurba_marseille","lat":43.29534,"lon":5.3855,"is_reserved":false,"is_disabled":false,"rental_uris":{"android":"levelo://app?vid=dc5dca54-8ebf-43b2-acf8-9ae498c9992e","ios":"levelo://app?vid=dc5dca54-8ebf-43b2-acf8-9ae498c9992e"},"vehicle_type_id":"4","last_reported":1726164769,"current_range_meters":34000,"station_id":"ce4bgih2rcd13ifvqba0","pricing_plan_id":"cebpf4jnsgd1na2vs0mg"},{"bike_id":"deaeb920-23ab-4b51-a90a-3a4d369b9959","system_id":"levelo_inurba_marseille","lat":43.26552,"lon":5.37289,"is_reserved":false,"is_disabled":false,"rental_uris":{"android":"levelo://app?vid=deaeb920-23ab-4b51-a90a-3a4d369b9959","ios":"levelo://app?vid=deaeb920-23ab-4b51-a90a-3a4d369b9959"},"vehicle_type_id":"4","last_reported":1726164769,"current_range_meters":10800,"station_id":"ce4bhg12rcd13ifvqf70","pricing_plan_id":"cebpf4jnsgd1na2vs0mg"},{"bike_id":"2978c8ef-7735-4057-b33e-747fe355072e","system_id":"levelo_inurba_marseille","lat":43.25909,"lon":5.37601,"is_reserved":false,"is_disabled":false,"rental_uris":{"android":"levelo://app?vid=2978c8ef-7735-4057-b33e-747fe355072e","ios":"levelo://app?vid=2978c8ef-7735-4057-b33e-747fe355072e"},"vehicle_type_id":"4","last_reported":1726164769,"current_range_meters":5600,"station_id":"","pricing_plan_id":"cebpf4jnsgd1na2vs0mg"},{"bike_id":"348911a2-65e6-4a51-bfc5-f6c774e52cba","system_id":"levelo_inurba_marseille","lat":43.25729,"lon":5.41109,"is_reserved":false,"is_disabled":false,"rental_uris":{"android":"levelo://app?vid=348911a2-65e6-4a51-bfc5-f6c774e52cba","ios":"levelo://app?vid=348911a2-65e6-4a51-bfc5-f6c774e52cba"},"vehicle_type_id":"4","last_reported":1726164769,"current_range_meters":19200,"station_id":"ce4bhkp2rcd13ifvqgd0","pricing_plan_id":"cebpf4jnsgd1na2vs0mg"},{"bike_id":"a6776ff0-a78f-43e4-9609-fec2671800a7","system_id":"levelo_inurba_marseille","lat":43.29197,"lon":5.35815,"is_reserved":false,"is_disabled":false,"rental_uris":{"android":"levelo://app?vid=a6776ff0-a78f-43e4-9609-fec2671800a7","ios":"levelo://app?vid=a6776ff0-a78f-43e4-9609-fec2671800a7"},"vehicle_type_id":"4","last_reported":1726164769,"current_range_meters":38800,"station_id":"ce4bhb12rcd13ifvqel0","pricing_plan_id":"cebpf4jnsgd1na2vs0mg"},{"bike_id":"dd332fda-665c-45f4-a043-c551b8b3248d","system_id":"levelo_inurba_marseille","lat":43.30801,"lon":5.43522,"is_reserved":false,"is_disabled":false,"rental_uris":{"android":"levelo://app?vid=dd332fda-665c-45f4-a043-c551b8b3248d","ios":"levelo://app?vid=dd332fda-665c-45f4-a043-c551b8b3248d"},"vehicle_type_id":"4","last_reported":1726164769,"current_range_meters":18800,"station_id":"ce4bhph2rcd13ifvqheg","pricing_plan_id":"cebpf4jnsgd1na2vs0mg"},{"bike_id":"4803fd1e-7b74-4c02-8e24-055c99930fd0","system_id":"levelo_inurba_marseille","lat":43.2901,"lon":5.35618,"is_reserved":false,"is_disabled":false,"rental_uris":{"android":"levelo://app?vid=4803fd1e-7b74-4c02-8e24-055c99930fd0","ios":"levelo://app?vid=4803fd1e-7b74-4c02-8e24-055c99930fd0"},"vehicle_type_id":"4","last_reported":1726164769,"current_range_meters":30400,"station_id":"ce4bhb92rcd13ifvqen0","pricing_plan_id":"cebpf4jnsgd1na2vs0mg"},{"bike_id":"bb5eaf38-497e-49ba-8e71-ca00197dce54","system_id":"levelo_inurba_marseille","lat":43.30946,"lon":5.39035,"is_reserved":false,"is_disabled":false,"rental_uris":{"android":"levelo://app?vid=bb5eaf38-497e-49ba-8e71-ca00197dce54","ios":"levelo://app?vid=bb5eaf38-497e-49ba-8e71-ca00197dce54"},"vehicle_type_id":"4","last_reported":1726164769,"current_range_meters":5600,"station_id":"ce4bgup2rcd13ifvqco0","pricing_plan_id":"cebpf4jnsgd1na2vs0mg"},{"bike_id":"b4dc56c2-df76-4f42-99e5-048e950006ec","system_id":"levelo_inurba_marseille","lat":43.27951,"lon":5.38699,"is_reserved":false,"is_disabled":false,"rental_uris":{"android":"levelo://app?vid=b4dc56c2-df76-4f42-99e5-048e950006ec","ios":"levelo://app?vid=b4dc56c2-df76-4f42-99e5-048e950006ec"},"vehicle_type_id":"4","last_reported":1726164769,"current_range_meters":38800,"station_id":"ce4bhg12rcd13ifvqf80","pricing_plan_id":"cebpf4jnsgd1na2vs0mg"},{"bike_id":"c5e96473-727a-418c-919e-8d3acae62332","system_id":"levelo_inurba_marseille","lat":43.29225,"lon":5.36059,"is_reserved":false,"is_disabled":false,"rental_uris":{"android":"levelo://app?vid=c5e96473-727a-418c-919e-8d3acae62332","ios":"levelo://app?vid=c5e96473-727a-418c-919e-8d3acae62332"},"vehicle_type_id":"4","last_reported":1726164769,"current_range_meters":38800,"station_id":"ce4bhbh2rcd13ifvqeqg","pricing_plan_id":"cebpf4jnsgd1na2vs0mg"},{"bike_id":"586a8a04-2bc4-442a-9e9b-fc6e8ce7cc89","system_id":"levelo_inurba_marseille","lat":43.292,"lon":5.39323,"is_reserved":false,"is_disabled":false,"rental_uris":{"android":"levelo://app?vid=586a8a04-2bc4-442a-9e9b-fc6e8ce7cc89","ios":"levelo://app?vid=586a8a04-2bc4-442a-9e9b-fc6e8ce7cc89"},"vehicle_type_id":"4","last_reported":1726164769,"current_range_meters":11600,"station_id":"ce4bh192rcd13ifvqdd0","pricing_plan_id":"cebpf4jnsgd1na2vs0mg"},{"bike_id":"1b6b4677-9c6b-4e29-9bf6-abb793cfb377","system_id":"levelo_inurba_marseille","lat":43.2923,"lon":5.36057,"is_reserved":false,"is_disabled":false,"rental_uris":{"android":"levelo://app?vid=1b6b4677-9c6b-4e29-9bf6-abb793cfb377","ios":"levelo://app?vid=1b6b4677-9c6b-4e29-9bf6-abb793cfb377"},"vehicle_type_id":"4","last_reported":1726164769,"current_range_meters":38800,"station_id":"ce4bhbh2rcd13ifvqeqg","pricing_plan_id":"cebpf4jnsgd1na2vs0mg"},{"bike_id":"42730b64-4326-485c-ac36-4ff31138a499","system_id":"levelo_inurba_marseille","lat":43.31334,"lon":5.39698,"is_reserved":false,"is_disabled":false,"rental_uris":{"android":"levelo://app?vid=42730b64-4326-485c-ac36-4ff31138a499","ios":"levelo://app?vid=42730b64-4326-485c-ac36-4ff31138a499"},"vehicle_type_id":"4","last_reported":1726164769,"current_range_meters":10000,"station_id":"ce4bgvp2rcd13ifvqcu0","pricing_plan_id":"cebpf4jnsgd1na2vs0mg"},{"bike_id":"9cb9ab69-3148-4b2f-a970-03143086caba","system_id":"levelo_inurba_marseille","lat":43.29009,"lon":5.35618,"is_reserved":false,"is_disabled":false,"rental_uris":{"android":"levelo://app?vid=9cb9ab69-3148-4b2f-a970-03143086caba","ios":"levelo://app?vid=9cb9ab69-3148-4b2f-a970-03143086caba"},"vehicle_type_id":"4","last_reported":1726164769,"current_range_meters":39200,"station_id":"ce4bhb92rcd13ifvqen0","pricing_plan_id":"cebpf4jnsgd1na2vs0mg"},{"bike_id":"bb7acf50-b6bc-4b2d-adf4-833abc23b24c","system_id":"levelo_inurba_marseille","lat":43.2319,"lon":5.35553,"is_reserved":false,"is_disabled":false,"rental_uris":{"android":"levelo://app?vid=bb7acf50-b6bc-4b2d-adf4-833abc23b24c","ios":"levelo://app?vid=bb7acf50-b6bc-4b2d-adf4-833abc23b24c"},"vehicle_type_id":"4","last_reported":1726164769,"current_range_meters":26000,"station_id":"ce4bhu92rcd13ifvqi70","pricing_plan_id":"cebpf4jnsgd1na2vs0mg"},{"bike_id":"8eff384a-46bc-44b5-a7c3-c23a94eadd4c","system_id":"levelo_inurba_marseille","lat":43.24391,"lon":5.37056,"is_reserved":false,"is_disabled":false,"rental_uris":{"android":"levelo://app?vid=8eff384a-46bc-44b5-a7c3-c23a94eadd4c","ios":"levelo://app?vid=8eff384a-46bc-44b5-a7c3-c23a94eadd4c"},"vehicle_type_id":"4","last_reported":1726164769,"current_range_meters":30400,"station_id":"ce4bhhh2rcd13ifvqfk0","pricing_plan_id":"cebpf4jnsgd1na2vs0mg"},{"bike_id":"f0688d67-cf24-485f-b6eb-5709935e8360","system_id":"levelo_inurba_marseille","lat":43.31326,"lon":5.397,"is_reserved":false,"is_disabled":false,"rental_uris":{"android":"levelo://app?vid=f0688d67-cf24-485f-b6eb-5709935e8360","ios":"levelo://app?vid=f0688d67-cf24-485f-b6eb-5709935e8360"},"vehicle_type_id":"4","last_reported":1726164769,"current_range_meters":2800,"station_id":"ce4bgvp2rcd13ifvqcu0","pricing_plan_id":"cebpf4jnsgd1na2vs0mg"},{"bike_id":"86f19a36-bb1a-4269-88e8-5864eaf9f751","system_id":"levelo_inurba_marseille","lat":43.25088,"lon":5.39521,"is_reserved":false,"is_disabled":false,"rental_uris":{"android":"levelo://app?vid=86f19a36-bb1a-4269-88e8-5864eaf9f751","ios":"levelo://app?vid=86f19a36-bb1a-4269-88e8-5864eaf9f751"},"vehicle_type_id":"4","last_reported":1726164769,"current_range_meters":38800,"station_id":"ce4bhm12rcd13ifvqgkg","pricing_plan_id":"cebpf4jnsgd1na2vs0mg"},{"bike_id":"c9b14fc9-b657-4fe6-8cc7-59e86abfa354","system_id":"levelo_inurba_marseille","lat":43.279094,"lon":5.380187,"is_reserved":false,"is_disabled":false,"rental_uris":{"android":"levelo://app?vid=c9b14fc9-b657-4fe6-8cc7-59e86abfa354","ios":"levelo://app?vid=c9b14fc9-b657-4fe6-8cc7-59e86abfa354"},"vehicle_type_id":"4","last_reported":1726164769,"current_range_meters":25200,"station_id":"ce4bhf92rcd13ifvqf50","pricing_plan_id":"cebpf4jnsgd1na2vs0mg"},{"bike_id":"122a7256-bb08-44be-a52d-61d7798a2fb3","system_id":"levelo_inurba_marseille","lat":43.29031,"lon":5.38643,"is_reserved":false,"is_disabled":false,"rental_uris":{"android":"levelo://app?vid=122a7256-bb08-44be-a52d-61d7798a2fb3","ios":"levelo://app?vid=122a7256-bb08-44be-a52d-61d7798a2fb3"},"vehicle_type_id":"4","last_reported":1726164769,"current_range_meters":38800,"station_id":"ce4bh4p2rcd13ifvqe0g","pricing_plan_id":"cebpf4jnsgd1na2vs0mg"},{"bike_id":"af5208da-4062-421b-9888-91b1105f63da","system_id":"levelo_inurba_marseille","lat":43.24813,"lon":5.37456,"is_reserved":false,"is_disabled":false,"rental_uris":{"android":"levelo://app?vid=af5208da-4062-421b-9888-91b1105f63da","ios":"levelo://app?vid=af5208da-4062-421b-9888-91b1105f63da"},"vehicle_type_id":"4","last_reported":1726164769,"current_range_meters":11600,"station_id":"ce4bhgh2rcd13ifvqfb0","pricing_plan_id":"cebpf4jnsgd1na2vs0mg"},{"bike_id":"65d9cfc8-cdb1-4395-9373-8cee8f6f4e88","system_id":"levelo_inurba_marseille","lat":43.314218,"lon":5.392831,"is_reserved":false,"is_disabled":false,"rental_uris":{"android":"levelo://app?vid=65d9cfc8-cdb1-4395-9373-8cee8f6f4e88","ios":"levelo://app?vid=65d9cfc8-cdb1-4395-9373-8cee8f6f4e88"},"vehicle_type_id":"4","last_reported":1726164769,"current_range_meters":34000,"station_id":"","pricing_plan_id":"cebpf4jnsgd1na2vs0mg"},{"bike_id":"dd2d66a6-976d-43e6-83be-d6211ff78acc","system_id":"levelo_inurba_marseille","lat":43.33722,"lon":5.39176,"is_reserved":false,"is_disabled":false,"rental_uris":{"android":"levelo://app?vid=dd2d66a6-976d-43e6-83be-d6211ff78acc","ios":"levelo://app?vid=dd2d66a6-976d-43e6-83be-d6211ff78acc"},"vehicle_type_id":"4","last_reported":1726164769,"current_range_meters":10800,"station_id":"ce4bhr92rcd13ifvqhsg","pricing_plan_id":"cebpf4jnsgd1na2vs0mg"},{"bike_id":"5ef7b96a-1cb8-4f42-af16-3a0d049b19cc","system_id":"levelo_inurba_marseille","lat":43.29558,"lon":5.42298,"is_reserved":false,"is_disabled":false,"rental_uris":{"android":"levelo://app?vid=5ef7b96a-1cb8-4f42-af16-3a0d049b19cc","ios":"levelo://app?vid=5ef7b96a-1cb8-4f42-af16-3a0d049b19cc"},"vehicle_type_id":"4","last_reported":1726164769,"current_range_meters":14400,"station_id":"ce4bhph2rcd13ifvqhdg","pricing_plan_id":"cebpf4jnsgd1na2vs0mg"},{"bike_id":"19605eff-a9d4-4043-afc8-70475aded119","system_id":"levelo_inurba_marseille","lat":43.294394,"lon":5.397344,"is_reserved":false,"is_disabled":false,"rental_uris":{"android":"levelo://app?vid=19605eff-a9d4-4043-afc8-70475aded119","ios":"levelo://app?vid=19605eff-a9d4-4043-afc8-70475aded119"},"vehicle_type_id":"4","last_reported":1726164769,"current_range_meters":29600,"station_id":"ce4bh3h2rcd13ifvqdo0","pricing_plan_id":"cebpf4jnsgd1na2vs0mg"},{"bike_id":"f5636a68-0379-41fa-8f47-f8ba767dfc1a","system_id":"levelo_inurba_marseille","lat":43.27428,"lon":5.39411,"is_reserved":false,"is_disabled":false,"rental_uris":{"android":"levelo://app?vid=f5636a68-0379-41fa-8f47-f8ba767dfc1a","ios":"levelo://app?vid=f5636a68-0379-41fa-8f47-f8ba767dfc1a"},"vehicle_type_id":"4","last_reported":1726164769,"current_range_meters":6800,"station_id":"ce4bhdp2rcd13ifvqf20","pricing_plan_id":"cebpf4jnsgd1na2vs0mg"},{"bike_id":"f88de659-42f9-425c-94b6-8432653529f5","system_id":"levelo_inurba_marseille","lat":43.27955,"lon":5.41054,"is_reserved":false,"is_disabled":false,"rental_uris":{"android":"levelo://app?vid=f88de659-42f9-425c-94b6-8432653529f5","ios":"levelo://app?vid=f88de659-42f9-425c-94b6-8432653529f5"},"vehicle_type_id":"4","last_reported":1726164769,"current_range_meters":2800,"station_id":"ce4bhnp2rcd13ifvqh0g","pricing_plan_id":"cebpf4jnsgd1na2vs0mg"},{"bike_id":"c28ff0f1-1713-431a-bccf-4e7a21e8e39b","system_id":"levelo_inurba_marseille","lat":43.25503,"lon":5.37653,"is_reserved":false,"is_disabled":false,"rental_uris":{"android":"levelo://app?vid=c28ff0f1-1713-431a-bccf-4e7a21e8e39b","ios":"levelo://app?vid=c28ff0f1-1713-431a-bccf-4e7a21e8e39b"},"vehicle_type_id":"4","last_reported":1726164769,"current_range_meters":4800,"station_id":"ce4bhh12rcd13ifvqff0","pricing_plan_id":"cebpf4jnsgd1na2vs0mg"},{"bike_id":"87692f4e-dc87-48f5-85ba-80f054d01568","system_id":"levelo_inurba_marseille","lat":43.30139,"lon":5.39889,"is_reserved":false,"is_disabled":false,"rental_uris":{"android":"levelo://app?vid=87692f4e-dc87-48f5-85ba-80f054d01568","ios":"levelo://app?vid=87692f4e-dc87-48f5-85ba-80f054d01568"},"vehicle_type_id":"4","last_reported":1726164769,"current_range_meters":39200,"station_id":"ce4bh0h2rcd13ifvqd40","pricing_plan_id":"cebpf4jnsgd1na2vs0mg"},{"bike_id":"d63b08fd-7716-422a-94e4-8f1dfff5bb11","system_id":"levelo_inurba_marseille","lat":43.28616,"lon":5.35102,"is_reserved":false,"is_disabled":false,"rental_uris":{"android":"levelo://app?vid=d63b08fd-7716-422a-94e4-8f1dfff5bb11","ios":"levelo://app?vid=d63b08fd-7716-422a-94e4-8f1dfff5bb11"},"vehicle_type_id":"4","last_reported":1726164769,"current_range_meters":17200,"station_id":"ce4bhch2rcd13ifvqeug","pricing_plan_id":"cebpf4jnsgd1na2vs0mg"},{"bike_id":"db736409-d976-4eff-82ea-cdd3cb2c3187","system_id":"levelo_inurba_marseille","lat":43.28929,"lon":5.38402,"is_reserved":false,"is_disabled":false,"rental_uris":{"android":"levelo://app?vid=db736409-d976-4eff-82ea-cdd3cb2c3187","ios":"levelo://app?vid=db736409-d976-4eff-82ea-cdd3cb2c3187"},"vehicle_type_id":"4","last_reported":1726164769,"current_range_meters":16000,"station_id":"ce4bh612rcd13ifvqe6g","pricing_plan_id":"cebpf4jnsgd1na2vs0mg"},{"bike_id":"599eaaf8-a1b9-4b78-8074-8ec83fd4d3da","system_id":"levelo_inurba_marseille","lat":43.23193,"lon":5.3555,"is_reserved":false,"is_disabled":false,"rental_uris":{"android":"levelo://app?vid=599eaaf8-a1b9-4b78-8074-8ec83fd4d3da","ios":"levelo://app?vid=599eaaf8-a1b9-4b78-8074-8ec83fd4d3da"},"vehicle_type_id":"4","last_reported":1726164769,"current_range_meters":7200,"station_id":"ce4bhu92rcd13ifvqi70","pricing_plan_id":"cebpf4jnsgd1na2vs0mg"},{"bike_id":"4551c52b-7c04-4aae-a3b5-84c484bf4ee7","system_id":"levelo_inurba_marseille","lat":43.2956,"lon":5.42294,"is_reserved":false,"is_disabled":false,"rental_uris":{"android":"levelo://app?vid=4551c52b-7c04-4aae-a3b5-84c484bf4ee7","ios":"levelo://app?vid=4551c52b-7c04-4aae-a3b5-84c484bf4ee7"},"vehicle_type_id":"4","last_reported":1726164769,"current_range_meters":37600,"station_id":"ce4bhph2rcd13ifvqhdg","pricing_plan_id":"cebpf4jnsgd1na2vs0mg"},{"bike_id":"680dc768-0acb-456e-8ccd-04aa53eb4c6d","system_id":"levelo_inurba_marseille","lat":43.31332,"lon":5.39706,"is_reserved":false,"is_disabled":false,"rental_uris":{"android":"levelo://app?vid=680dc768-0acb-456e-8ccd-04aa53eb4c6d","ios":"levelo://app?vid=680dc768-0acb-456e-8ccd-04aa53eb4c6d"},"vehicle_type_id":"4","last_reported":1726164769,"current_range_meters":16800,"station_id":"ce4bgvp2rcd13ifvqcu0","pricing_plan_id":"cebpf4jnsgd1na2vs0mg"},{"bike_id":"71e5bd5f-9941-45ed-83eb-1729c01b5303","system_id":"levelo_inurba_marseille","lat":43.22929,"lon":5.35374,"is_reserved":false,"is_disabled":false,"rental_uris":{"android":"levelo://app?vid=71e5bd5f-9941-45ed-83eb-1729c01b5303","ios":"levelo://app?vid=71e5bd5f-9941-45ed-83eb-1729c01b5303"},"vehicle_type_id":"4","last_reported":1726164769,"current_range_meters":38800,"station_id":"cpo3532slgdg3j2ikp40","pricing_plan_id":"cebpf4jnsgd1na2vs0mg"},{"bike_id":"f40d933f-001d-480a-9c32-a9179a899c6d","system_id":"levelo_inurba_marseille","lat":43.31752,"lon":5.39017,"is_reserved":false,"is_disabled":false,"rental_uris":{"android":"levelo://app?vid=f40d933f-001d-480a-9c32-a9179a899c6d","ios":"levelo://app?vid=f40d933f-001d-480a-9c32-a9179a899c6d"},"vehicle_type_id":"4","last_reported":1726164769,"current_range_meters":9200,"station_id":"ce4bhqp2rcd13ifvqhng","pricing_plan_id":"cebpf4jnsgd1na2vs0mg"},{"bike_id":"3c0f725e-5bd7-4a7d-8d4d-10bfd925df87","system_id":"levelo_inurba_marseille","lat":43.26781,"lon":5.3942,"is_reserved":false,"is_disabled":false,"rental_uris":{"android":"levelo://app?vid=3c0f725e-5bd7-4a7d-8d4d-10bfd925df87","ios":"levelo://app?vid=3c0f725e-5bd7-4a7d-8d4d-10bfd925df87"},"vehicle_type_id":"4","last_reported":1726164769,"current_range_meters":3200,"station_id":"ce4bhh12rcd13ifvqfg0","pricing_plan_id":"cebpf4jnsgd1na2vs0mg"},{"bike_id":"e248b26e-33bc-4275-95f1-25ad4258b257","system_id":"levelo_inurba_marseille","lat":43.29259,"lon":5.38448,"is_reserved":false,"is_disabled":false,"rental_uris":{"android":"levelo://app?vid=e248b26e-33bc-4275-95f1-25ad4258b257","ios":"levelo://app?vid=e248b26e-33bc-4275-95f1-25ad4258b257"},"vehicle_type_id":"4","last_reported":1726164769,"current_range_meters":10800,"station_id":"ce4bh692rcd13ifvqea0","pricing_plan_id":"cebpf4jnsgd1na2vs0mg"},{"bike_id":"fa02e1ab-12a4-42d7-99e9-040959fdad4f","system_id":"levelo_inurba_marseille","lat":43.22931,"lon":5.35374,"is_reserved":false,"is_disabled":false,"rental_uris":{"android":"levelo://app?vid=fa02e1ab-12a4-42d7-99e9-040959fdad4f","ios":"levelo://app?vid=fa02e1ab-12a4-42d7-99e9-040959fdad4f"},"vehicle_type_id":"4","last_reported":1726164769,"current_range_meters":34000,"station_id":"cpo3532slgdg3j2ikp40","pricing_plan_id":"cebpf4jnsgd1na2vs0mg"},{"bike_id":"a0759d5c-b2dd-4c6d-a3fa-33fc37f5f9bb","system_id":"levelo_inurba_marseille","lat":43.25498,"lon":5.37648,"is_reserved":false,"is_disabled":false,"rental_uris":{"android":"levelo://app?vid=a0759d5c-b2dd-4c6d-a3fa-33fc37f5f9bb","ios":"levelo://app?vid=a0759d5c-b2dd-4c6d-a3fa-33fc37f5f9bb"},"vehicle_type_id":"4","last_reported":1726164769,"current_range_meters":32000,"station_id":"ce4bhh12rcd13ifvqff0","pricing_plan_id":"cebpf4jnsgd1na2vs0mg"},{"bike_id":"33627f34-12b9-4cac-9171-9c6f8641e380","system_id":"levelo_inurba_marseille","lat":43.29875,"lon":5.38904,"is_reserved":false,"is_disabled":false,"rental_uris":{"android":"levelo://app?vid=33627f34-12b9-4cac-9171-9c6f8641e380","ios":"levelo://app?vid=33627f34-12b9-4cac-9171-9c6f8641e380"},"vehicle_type_id":"4","last_reported":1726164769,"current_range_meters":9200,"station_id":"ce4bh392rcd13ifvqdl0","pricing_plan_id":"cebpf4jnsgd1na2vs0mg"},{"bike_id":"dc686f47-01f5-4a98-ac1c-77d1cebffb8c","system_id":"levelo_inurba_marseille","lat":43.2396,"lon":5.36636,"is_reserved":false,"is_disabled":false,"rental_uris":{"android":"levelo://app?vid=dc686f47-01f5-4a98-ac1c-77d1cebffb8c","ios":"levelo://app?vid=dc686f47-01f5-4a98-ac1c-77d1cebffb8c"},"vehicle_type_id":"4","last_reported":1726164769,"current_range_meters":25600,"station_id":"ce4bhi12rcd13ifvqfp0","pricing_plan_id":"cebpf4jnsgd1na2vs0mg"},{"bike_id":"6beb15ed-2c8d-4076-af9f-d4d302e6aee1","system_id":"levelo_inurba_marseille","lat":43.24087,"lon":5.3774,"is_reserved":false,"is_disabled":false,"rental_uris":{"android":"levelo://app?vid=6beb15ed-2c8d-4076-af9f-d4d302e6aee1","ios":"levelo://app?vid=6beb15ed-2c8d-4076-af9f-d4d302e6aee1"},"vehicle_type_id":"4","last_reported":1726164769,"current_range_meters":38000,"station_id":"ce4bhnp2rcd13ifvqgvg","pricing_plan_id":"cebpf4jnsgd1na2vs0mg"},{"bike_id":"8499aa7d-3df7-4854-8a3b-728308216b5a","system_id":"levelo_inurba_marseille","lat":43.25495,"lon":5.37657,"is_reserved":false,"is_disabled":false,"rental_uris":{"android":"levelo://app?vid=8499aa7d-3df7-4854-8a3b-728308216b5a","ios":"levelo://app?vid=8499aa7d-3df7-4854-8a3b-728308216b5a"},"vehicle_type_id":"4","last_reported":1726164769,"current_range_meters":35600,"station_id":"ce4bhh12rcd13ifvqff0","pricing_plan_id":"cebpf4jnsgd1na2vs0mg"},{"bike_id":"2d8cb670-bf24-4704-bf01-55da6ccdd101","system_id":"levelo_inurba_marseille","lat":43.29521,"lon":5.39043,"is_reserved":false,"is_disabled":false,"rental_uris":{"android":"levelo://app?vid=2d8cb670-bf24-4704-bf01-55da6ccdd101","ios":"levelo://app?vid=2d8cb670-bf24-4704-bf01-55da6ccdd101"},"vehicle_type_id":"4","last_reported":1726164769,"current_range_meters":39200,"station_id":"ce4bh3p2rcd13ifvqdp0","pricing_plan_id":"cebpf4jnsgd1na2vs0mg"},{"bike_id":"dd817cbd-eac4-4a32-9aff-4ea2f11d1f3b","system_id":"levelo_inurba_marseille","lat":43.2841,"lon":5.37518,"is_reserved":false,"is_disabled":false,"rental_uris":{"android":"levelo://app?vid=dd817cbd-eac4-4a32-9aff-4ea2f11d1f3b","ios":"levelo://app?vid=dd817cbd-eac4-4a32-9aff-4ea2f11d1f3b"},"vehicle_type_id":"4","last_reported":1726164769,"current_range_meters":38800,"station_id":"ce4bh412rcd13ifvqds0","pricing_plan_id":"cebpf4jnsgd1na2vs0mg"},{"bike_id":"f6ede3ad-1831-43e5-bbb3-2527288aa19a","system_id":"levelo_inurba_marseille","lat":43.29933,"lon":5.36555,"is_reserved":false,"is_disabled":false,"rental_uris":{"android":"levelo://app?vid=f6ede3ad-1831-43e5-bbb3-2527288aa19a","ios":"levelo://app?vid=f6ede3ad-1831-43e5-bbb3-2527288aa19a"},"vehicle_type_id":"4","last_reported":1726164769,"current_range_meters":33200,"station_id":"ce4bgm92rcd13ifvqbr0","pricing_plan_id":"cebpf4jnsgd1na2vs0mg"},{"bike_id":"a1091efe-c138-41d2-96bf-7a1d952b7a7b","system_id":"levelo_inurba_marseille","lat":43.29007,"lon":5.3562,"is_reserved":false,"is_disabled":false,"rental_uris":{"android":"levelo://app?vid=a1091efe-c138-41d2-96bf-7a1d952b7a7b","ios":"levelo://app?vid=a1091efe-c138-41d2-96bf-7a1d952b7a7b"},"vehicle_type_id":"4","last_reported":1726164769,"current_range_meters":22800,"station_id":"ce4bhb92rcd13ifvqen0","pricing_plan_id":"cebpf4jnsgd1na2vs0mg"},{"bike_id":"391d034e-bd6b-4116-80ac-c06aa0a0a46a","system_id":"levelo_inurba_marseille","lat":43.2958,"lon":5.37512,"is_reserved":false,"is_disabled":false,"rental_uris":{"android":"levelo://app?vid=391d034e-bd6b-4116-80ac-c06aa0a0a46a","ios":"levelo://app?vid=391d034e-bd6b-4116-80ac-c06aa0a0a46a"},"vehicle_type_id":"4","last_reported":1726164769,"current_range_meters":37600,"station_id":"ce4bgh92rcd13ifvqb50","pricing_plan_id":"cebpf4jnsgd1na2vs0mg"},{"bike_id":"798c3691-470d-4734-b192-0f1e9e604573","system_id":"levelo_inurba_marseille","lat":43.302287,"lon":5.389883,"is_reserved":false,"is_disabled":false,"rental_uris":{"android":"levelo://app?vid=798c3691-470d-4734-b192-0f1e9e604573","ios":"levelo://app?vid=798c3691-470d-4734-b192-0f1e9e604573"},"vehicle_type_id":"4","last_reported":1726164769,"current_range_meters":36400,"station_id":"ce4bgkh2rcd13ifvqbk0","pricing_plan_id":"cebpf4jnsgd1na2vs0mg"},{"bike_id":"5596ce60-9839-4211-8445-311576022290","system_id":"levelo_inurba_marseille","lat":43.25578,"lon":5.38244,"is_reserved":false,"is_disabled":false,"rental_uris":{"android":"levelo://app?vid=5596ce60-9839-4211-8445-311576022290","ios":"levelo://app?vid=5596ce60-9839-4211-8445-311576022290"},"vehicle_type_id":"4","last_reported":1726164769,"current_range_meters":38400,"station_id":"ce4bhih2rcd13ifvqfs0","pricing_plan_id":"cebpf4jnsgd1na2vs0mg"},{"bike_id":"0e7a2a12-7489-46fe-8319-6b8c6fb975b4","system_id":"levelo_inurba_marseille","lat":43.24388,"lon":5.37058,"is_reserved":false,"is_disabled":false,"rental_uris":{"android":"levelo://app?vid=0e7a2a12-7489-46fe-8319-6b8c6fb975b4","ios":"levelo://app?vid=0e7a2a12-7489-46fe-8319-6b8c6fb975b4"},"vehicle_type_id":"4","last_reported":1726164769,"current_range_meters":11200,"station_id":"ce4bhhh2rcd13ifvqfk0","pricing_plan_id":"cebpf4jnsgd1na2vs0mg"},{"bike_id":"7e30533e-4494-4f63-98a5-7809aac44858","system_id":"levelo_inurba_marseille","lat":43.29556,"lon":5.42287,"is_reserved":false,"is_disabled":false,"rental_uris":{"android":"levelo://app?vid=7e30533e-4494-4f63-98a5-7809aac44858","ios":"levelo://app?vid=7e30533e-4494-4f63-98a5-7809aac44858"},"vehicle_type_id":"4","last_reported":1726164769,"current_range_meters":19200,"station_id":"ce4bhph2rcd13ifvqhdg","pricing_plan_id":"cebpf4jnsgd1na2vs0mg"},{"bike_id":"d1fa7054-10fc-4d2e-81a7-664942ef33d9","system_id":"levelo_inurba_marseille","lat":43.29205,"lon":5.39324,"is_reserved":false,"is_disabled":false,"rental_uris":{"android":"levelo://app?vid=d1fa7054-10fc-4d2e-81a7-664942ef33d9","ios":"levelo://app?vid=d1fa7054-10fc-4d2e-81a7-664942ef33d9"},"vehicle_type_id":"4","last_reported":1726164769,"current_range_meters":14800,"station_id":"ce4bh192rcd13ifvqdd0","pricing_plan_id":"cebpf4jnsgd1na2vs0mg"},{"bike_id":"c8fe9262-060b-4378-aaa3-300e4e21dd6c","system_id":"levelo_inurba_marseille","lat":43.24668,"lon":5.38158,"is_reserved":false,"is_disabled":false,"rental_uris":{"android":"levelo://app?vid=c8fe9262-060b-4378-aaa3-300e4e21dd6c","ios":"levelo://app?vid=c8fe9262-060b-4378-aaa3-300e4e21dd6c"},"vehicle_type_id":"4","last_reported":1726164769,"current_range_meters":13600,"station_id":"ce4bhih2rcd13ifvqfr0","pricing_plan_id":"cebpf4jnsgd1na2vs0mg"},{"bike_id":"36db3206-212e-4f5b-857a-92f06b8eec80","system_id":"levelo_inurba_marseille","lat":43.28617,"lon":5.35106,"is_reserved":false,"is_disabled":false,"rental_uris":{"android":"levelo://app?vid=36db3206-212e-4f5b-857a-92f06b8eec80","ios":"levelo://app?vid=36db3206-212e-4f5b-857a-92f06b8eec80"},"vehicle_type_id":"4","last_reported":1726164769,"current_range_meters":38800,"station_id":"ce4bhch2rcd13ifvqeug","pricing_plan_id":"cebpf4jnsgd1na2vs0mg"},{"bike_id":"2f16c72b-bc8e-4aea-9414-dde97b34b3f4","system_id":"levelo_inurba_marseille","lat":43.2718,"lon":5.40985,"is_reserved":false,"is_disabled":false,"rental_uris":{"android":"levelo://app?vid=2f16c72b-bc8e-4aea-9414-dde97b34b3f4","ios":"levelo://app?vid=2f16c72b-bc8e-4aea-9414-dde97b34b3f4"},"vehicle_type_id":"4","last_reported":1726164769,"current_range_meters":23200,"station_id":"ce4bhl12rcd13ifvqgf0","pricing_plan_id":"cebpf4jnsgd1na2vs0mg"},{"bike_id":"40460302-338d-49f3-bed1-a91ee5c68a33","system_id":"levelo_inurba_marseille","lat":43.29037,"lon":5.35924,"is_reserved":false,"is_disabled":false,"rental_uris":{"android":"levelo://app?vid=40460302-338d-49f3-bed1-a91ee5c68a33","ios":"levelo://app?vid=40460302-338d-49f3-bed1-a91ee5c68a33"},"vehicle_type_id":"4","last_reported":1726164769,"current_range_meters":30800,"station_id":"ce4bha92rcd13ifvqeg0","pricing_plan_id":"cebpf4jnsgd1na2vs0mg"},{"bike_id":"23d5c119-7027-478d-9cc6-069e27023580","system_id":"levelo_inurba_marseille","lat":43.28104,"lon":5.37847,"is_reserved":false,"is_disabled":false,"rental_uris":{"android":"levelo://app?vid=23d5c119-7027-478d-9cc6-069e27023580","ios":"levelo://app?vid=23d5c119-7027-478d-9cc6-069e27023580"},"vehicle_type_id":"4","last_reported":1726164769,"current_range_meters":38800,"station_id":"ce4bha12rcd13ifvqee0","pricing_plan_id":"cebpf4jnsgd1na2vs0mg"},{"bike_id":"d20b0a13-70b5-4637-85ce-6a000cdd5b04","system_id":"levelo_inurba_marseille","lat":43.28465,"lon":5.35892,"is_reserved":false,"is_disabled":false,"rental_uris":{"android":"levelo://app?vid=d20b0a13-70b5-4637-85ce-6a000cdd5b04","ios":"levelo://app?vid=d20b0a13-70b5-4637-85ce-6a000cdd5b04"},"vehicle_type_id":"4","last_reported":1726164769,"current_range_meters":29600,"station_id":"ce4bhah2rcd13ifvqei0","pricing_plan_id":"cebpf4jnsgd1na2vs0mg"},{"bike_id":"04829fc2-803b-4e7f-badc-b83bd2b8bea4","system_id":"levelo_inurba_marseille","lat":43.28153,"lon":5.42644,"is_reserved":false,"is_disabled":false,"rental_uris":{"android":"levelo://app?vid=04829fc2-803b-4e7f-badc-b83bd2b8bea4","ios":"levelo://app?vid=04829fc2-803b-4e7f-badc-b83bd2b8bea4"},"vehicle_type_id":"4","last_reported":1726164769,"current_range_meters":6000,"station_id":"ce4bhnh2rcd13ifvqgug","pricing_plan_id":"cebpf4jnsgd1na2vs0mg"},{"bike_id":"609febba-551c-4014-a00c-3eae7e7f9f2a","system_id":"levelo_inurba_marseille","lat":43.27964,"lon":5.38725,"is_reserved":false,"is_disabled":false,"rental_uris":{"android":"levelo://app?vid=609febba-551c-4014-a00c-3eae7e7f9f2a","ios":"levelo://app?vid=609febba-551c-4014-a00c-3eae7e7f9f2a"},"vehicle_type_id":"4","last_reported":1726164769,"current_range_meters":32800,"station_id":"ce4bhg12rcd13ifvqf80","pricing_plan_id":"cebpf4jnsgd1na2vs0mg"},{"bike_id":"37391d25-87c0-4505-bac8-a768bab779a6","system_id":"levelo_inurba_marseille","lat":43.32487,"lon":5.36571,"is_reserved":false,"is_disabled":false,"rental_uris":{"android":"levelo://app?vid=37391d25-87c0-4505-bac8-a768bab779a6","ios":"levelo://app?vid=37391d25-87c0-4505-bac8-a768bab779a6"},"vehicle_type_id":"4","last_reported":1726164769,"current_range_meters":18000,"station_id":"ce4bhs12rcd13ifvqhvg","pricing_plan_id":"cebpf4jnsgd1na2vs0mg"},{"bike_id":"b0be07d4-19b6-4274-8907-a86f59b58d39","system_id":"levelo_inurba_marseille","lat":43.30333,"lon":5.40444,"is_reserved":false,"is_disabled":false,"rental_uris":{"android":"levelo://app?vid=b0be07d4-19b6-4274-8907-a86f59b58d39","ios":"levelo://app?vid=b0be07d4-19b6-4274-8907-a86f59b58d39"},"vehicle_type_id":"4","last_reported":1726164769,"current_range_meters":8000,"station_id":"ce4bh012rcd13ifvqd10","pricing_plan_id":"cebpf4jnsgd1na2vs0mg"},{"bike_id":"920d1643-b73a-4cc4-845d-4078a3cd9ad8","system_id":"levelo_inurba_marseille","lat":43.27555,"lon":5.38429,"is_reserved":false,"is_disabled":false,"rental_uris":{"android":"levelo://app?vid=920d1643-b73a-4cc4-845d-4078a3cd9ad8","ios":"levelo://app?vid=920d1643-b73a-4cc4-845d-4078a3cd9ad8"},"vehicle_type_id":"4","last_reported":1726164769,"current_range_meters":26800,"station_id":"ce4bhh92rcd13ifvqfi0","pricing_plan_id":"cebpf4jnsgd1na2vs0mg"},{"bike_id":"54c2147b-e0d2-46f7-8fc8-b78a74ed5229","system_id":"levelo_inurba_marseille","lat":43.2928,"lon":5.40122,"is_reserved":false,"is_disabled":false,"rental_uris":{"android":"levelo://app?vid=54c2147b-e0d2-46f7-8fc8-b78a74ed5229","ios":"levelo://app?vid=54c2147b-e0d2-46f7-8fc8-b78a74ed5229"},"vehicle_type_id":"4","last_reported":1726164769,"current_range_meters":12800,"station_id":"ce4bh312rcd13ifvqdk0","pricing_plan_id":"cebpf4jnsgd1na2vs0mg"},{"bike_id":"9a1a9d3e-c3b7-4006-a99e-05c92d91f517","system_id":"levelo_inurba_marseille","lat":43.27898,"lon":5.38018,"is_reserved":false,"is_disabled":false,"rental_uris":{"android":"levelo://app?vid=9a1a9d3e-c3b7-4006-a99e-05c92d91f517","ios":"levelo://app?vid=9a1a9d3e-c3b7-4006-a99e-05c92d91f517"},"vehicle_type_id":"4","last_reported":1726164769,"current_range_meters":14800,"station_id":"ce4bhf92rcd13ifvqf50","pricing_plan_id":"cebpf4jnsgd1na2vs0mg"},{"bike_id":"fddbbc94-0258-4625-baa0-6642d27848b0","system_id":"levelo_inurba_marseille","lat":43.28612,"lon":5.35111,"is_reserved":false,"is_disabled":false,"rental_uris":{"android":"levelo://app?vid=fddbbc94-0258-4625-baa0-6642d27848b0","ios":"levelo://app?vid=fddbbc94-0258-4625-baa0-6642d27848b0"},"vehicle_type_id":"4","last_reported":1726164769,"current_range_meters":35600,"station_id":"ce4bhch2rcd13ifvqeug","pricing_plan_id":"cebpf4jnsgd1na2vs0mg"},{"bike_id":"1a8ea2fa-505f-4bc7-a9bf-4eea4727ec73","system_id":"levelo_inurba_marseille","lat":43.25109,"lon":5.40334,"is_reserved":false,"is_disabled":false,"rental_uris":{"android":"levelo://app?vid=1a8ea2fa-505f-4bc7-a9bf-4eea4727ec73","ios":"levelo://app?vid=1a8ea2fa-505f-4bc7-a9bf-4eea4727ec73"},"vehicle_type_id":"4","last_reported":1726164769,"current_range_meters":3200,"station_id":"ce4bhlh2rcd13ifvqgig","pricing_plan_id":"cebpf4jnsgd1na2vs0mg"},{"bike_id":"758086df-df83-4507-b9e4-b2904f2908f6","system_id":"levelo_inurba_marseille","lat":43.30429,"lon":5.3975,"is_reserved":false,"is_disabled":false,"rental_uris":{"android":"levelo://app?vid=758086df-df83-4507-b9e4-b2904f2908f6","ios":"levelo://app?vid=758086df-df83-4507-b9e4-b2904f2908f6"},"vehicle_type_id":"4","last_reported":1726164769,"current_range_meters":36800,"station_id":"ce4bh092rcd13ifvqd20","pricing_plan_id":"cebpf4jnsgd1na2vs0mg"},{"bike_id":"5e507e4e-1322-4b0c-91da-ba9f0aa7d1f7","system_id":"levelo_inurba_marseille","lat":43.27854,"lon":5.41214,"is_reserved":false,"is_disabled":false,"rental_uris":{"android":"levelo://app?vid=5e507e4e-1322-4b0c-91da-ba9f0aa7d1f7","ios":"levelo://app?vid=5e507e4e-1322-4b0c-91da-ba9f0aa7d1f7"},"vehicle_type_id":"4","last_reported":1726164769,"current_range_meters":25600,"station_id":"","pricing_plan_id":"cebpf4jnsgd1na2vs0mg"},{"bike_id":"9a66a9f9-de3b-435d-a5d2-1daf35d4a655","system_id":"levelo_inurba_marseille","lat":43.28731,"lon":5.36084,"is_reserved":false,"is_disabled":false,"rental_uris":{"android":"levelo://app?vid=9a66a9f9-de3b-435d-a5d2-1daf35d4a655","ios":"levelo://app?vid=9a66a9f9-de3b-435d-a5d2-1daf35d4a655"},"vehicle_type_id":"4","last_reported":1726164769,"current_range_meters":9200,"station_id":"cki0cbj6b192h4jlfktg","pricing_plan_id":"cebpf4jnsgd1na2vs0mg"},{"bike_id":"af9421c8-e08e-45c9-9f79-72574fc04e9d","system_id":"levelo_inurba_marseille","lat":43.24169,"lon":5.36395,"is_reserved":false,"is_disabled":false,"rental_uris":{"android":"levelo://app?vid=af9421c8-e08e-45c9-9f79-72574fc04e9d","ios":"levelo://app?vid=af9421c8-e08e-45c9-9f79-72574fc04e9d"},"vehicle_type_id":"4","last_reported":1726164769,"current_range_meters":34000,"station_id":"cpo36qri1sfpv3e86is0","pricing_plan_id":"cebpf4jnsgd1na2vs0mg"},{"bike_id":"f401b188-e1ae-447d-84ab-cd3ae134b015","system_id":"levelo_inurba_marseille","lat":43.28462,"lon":5.35901,"is_reserved":false,"is_disabled":false,"rental_uris":{"android":"levelo://app?vid=f401b188-e1ae-447d-84ab-cd3ae134b015","ios":"levelo://app?vid=f401b188-e1ae-447d-84ab-cd3ae134b015"},"vehicle_type_id":"4","last_reported":1726164769,"current_range_meters":38800,"station_id":"ce4bhah2rcd13ifvqei0","pricing_plan_id":"cebpf4jnsgd1na2vs0mg"},{"bike_id":"2d17714a-824b-4815-a2a1-0c6b667a206d","system_id":"levelo_inurba_marseille","lat":43.25581,"lon":5.38228,"is_reserved":false,"is_disabled":false,"rental_uris":{"android":"levelo://app?vid=2d17714a-824b-4815-a2a1-0c6b667a206d","ios":"levelo://app?vid=2d17714a-824b-4815-a2a1-0c6b667a206d"},"vehicle_type_id":"4","last_reported":1726164769,"current_range_meters":12000,"station_id":"ce4bhih2rcd13ifvqfs0","pricing_plan_id":"cebpf4jnsgd1na2vs0mg"},{"bike_id":"eb26547d-d2dc-4271-9b46-5531bc5409a9","system_id":"levelo_inurba_marseille","lat":43.26069,"lon":5.39393,"is_reserved":false,"is_disabled":false,"rental_uris":{"android":"levelo://app?vid=eb26547d-d2dc-4271-9b46-5531bc5409a9","ios":"levelo://app?vid=eb26547d-d2dc-4271-9b46-5531bc5409a9"},"vehicle_type_id":"4","last_reported":1726164769,"current_range_meters":9600,"station_id":"ce4bhh92rcd13ifvqfj0","pricing_plan_id":"cebpf4jnsgd1na2vs0mg"},{"bike_id":"f400d370-a20e-4ced-86f0-64f62510749c","system_id":"levelo_inurba_marseille","lat":43.3237,"lon":5.38926,"is_reserved":false,"is_disabled":false,"rental_uris":{"android":"levelo://app?vid=f400d370-a20e-4ced-86f0-64f62510749c","ios":"levelo://app?vid=f400d370-a20e-4ced-86f0-64f62510749c"},"vehicle_type_id":"4","last_reported":1726164769,"current_range_meters":8400,"station_id":"","pricing_plan_id":"cebpf4jnsgd1na2vs0mg"},{"bike_id":"961cc949-e5cc-493e-a641-ca051338d3cb","system_id":"levelo_inurba_marseille","lat":43.25864,"lon":5.39916,"is_reserved":false,"is_disabled":false,"rental_uris":{"android":"levelo://app?vid=961cc949-e5cc-493e-a641-ca051338d3cb","ios":"levelo://app?vid=961cc949-e5cc-493e-a641-ca051338d3cb"},"vehicle_type_id":"4","last_reported":1726164769,"current_range_meters":22000,"station_id":"ce4bhl92rcd13ifvqghg","pricing_plan_id":"cebpf4jnsgd1na2vs0mg"},{"bike_id":"c5cab20c-2620-4323-8fb5-375d90b59c57","system_id":"levelo_inurba_marseille","lat":43.28113,"lon":5.37846,"is_reserved":false,"is_disabled":false,"rental_uris":{"android":"levelo://app?vid=c5cab20c-2620-4323-8fb5-375d90b59c57","ios":"levelo://app?vid=c5cab20c-2620-4323-8fb5-375d90b59c57"},"vehicle_type_id":"4","last_reported":1726164769,"current_range_meters":38800,"station_id":"ce4bha12rcd13ifvqee0","pricing_plan_id":"cebpf4jnsgd1na2vs0mg"},{"bike_id":"66299fb8-62eb-434c-a897-557842b54838","system_id":"levelo_inurba_marseille","lat":43.28704,"lon":5.39988,"is_reserved":false,"is_disabled":false,"rental_uris":{"android":"levelo://app?vid=66299fb8-62eb-434c-a897-557842b54838","ios":"levelo://app?vid=66299fb8-62eb-434c-a897-557842b54838"},"vehicle_type_id":"4","last_reported":1726164769,"current_range_meters":8000,"station_id":"ce4bho92rcd13ifvqh3g","pricing_plan_id":"cebpf4jnsgd1na2vs0mg"},{"bike_id":"16903f7a-6148-4a14-8b59-bfa3ef9d6102","system_id":"levelo_inurba_marseille","lat":43.31886,"lon":5.40733,"is_reserved":false,"is_disabled":false,"rental_uris":{"android":"levelo://app?vid=16903f7a-6148-4a14-8b59-bfa3ef9d6102","ios":"levelo://app?vid=16903f7a-6148-4a14-8b59-bfa3ef9d6102"},"vehicle_type_id":"4","last_reported":1726164769,"current_range_meters":28400,"station_id":"ce4bhq12rcd13ifvqhig","pricing_plan_id":"cebpf4jnsgd1na2vs0mg"},{"bike_id":"6ff3ff57-d0ae-4f63-a455-9d85f48ac51a","system_id":"levelo_inurba_marseille","lat":43.295358,"lon":5.390417,"is_reserved":false,"is_disabled":false,"rental_uris":{"android":"levelo://app?vid=6ff3ff57-d0ae-4f63-a455-9d85f48ac51a","ios":"levelo://app?vid=6ff3ff57-d0ae-4f63-a455-9d85f48ac51a"},"vehicle_type_id":"4","last_reported":1726164769,"current_range_meters":5600,"station_id":"ce4bh3p2rcd13ifvqdp0","pricing_plan_id":"cebpf4jnsgd1na2vs0mg"},{"bike_id":"0f7d57ee-4fa2-437c-a4fd-528a69438a75","system_id":"levelo_inurba_marseille","lat":43.30147,"lon":5.38083,"is_reserved":false,"is_disabled":false,"rental_uris":{"android":"levelo://app?vid=0f7d57ee-4fa2-437c-a4fd-528a69438a75","ios":"levelo://app?vid=0f7d57ee-4fa2-437c-a4fd-528a69438a75"},"vehicle_type_id":"4","last_reported":1726164769,"current_range_meters":22000,"station_id":"ce4bgjp2rcd13ifvqbh0","pricing_plan_id":"cebpf4jnsgd1na2vs0mg"},{"bike_id":"92bf36bc-26ea-41a1-8daa-f9fc8c463e29","system_id":"levelo_inurba_marseille","lat":43.255,"lon":5.37652,"is_reserved":false,"is_disabled":false,"rental_uris":{"android":"levelo://app?vid=92bf36bc-26ea-41a1-8daa-f9fc8c463e29","ios":"levelo://app?vid=92bf36bc-26ea-41a1-8daa-f9fc8c463e29"},"vehicle_type_id":"4","last_reported":1726164769,"current_range_meters":38000,"station_id":"ce4bhh12rcd13ifvqff0","pricing_plan_id":"cebpf4jnsgd1na2vs0mg"},{"bike_id":"0bf4be2c-494d-4e1b-bdc9-54b279e7c939","system_id":"levelo_inurba_marseille","lat":43.33026,"lon":5.3904,"is_reserved":false,"is_disabled":false,"rental_uris":{"android":"levelo://app?vid=0bf4be2c-494d-4e1b-bdc9-54b279e7c939","ios":"levelo://app?vid=0bf4be2c-494d-4e1b-bdc9-54b279e7c939"},"vehicle_type_id":"4","last_reported":1726164769,"current_range_meters":24000,"station_id":"ce4bhr92rcd13ifvqhrg","pricing_plan_id":"cebpf4jnsgd1na2vs0mg"},{"bike_id":"7bde2310-4d92-4536-a4c3-91e611fca5c2","system_id":"levelo_inurba_marseille","lat":43.23153,"lon":5.4371,"is_reserved":false,"is_disabled":false,"rental_uris":{"android":"levelo://app?vid=7bde2310-4d92-4536-a4c3-91e611fca5c2","ios":"levelo://app?vid=7bde2310-4d92-4536-a4c3-91e611fca5c2"},"vehicle_type_id":"4","last_reported":1726164769,"current_range_meters":11600,"station_id":"ce4bhmp2rcd13ifvqgog","pricing_plan_id":"cebpf4jnsgd1na2vs0mg"},{"bike_id":"8dd8b49c-eb99-4b3a-8f15-677feae6a56f","system_id":"levelo_inurba_marseille","lat":43.30213,"lon":5.39463,"is_reserved":false,"is_disabled":false,"rental_uris":{"android":"levelo://app?vid=8dd8b49c-eb99-4b3a-8f15-677feae6a56f","ios":"levelo://app?vid=8dd8b49c-eb99-4b3a-8f15-677feae6a56f"},"vehicle_type_id":"4","last_reported":1726164769,"current_range_meters":26800,"station_id":"ce4bh0p2rcd13ifvqd70","pricing_plan_id":"cebpf4jnsgd1na2vs0mg"},{"bike_id":"d65f8df5-e63b-42fc-bc6d-64021fdd57f8","system_id":"levelo_inurba_marseille","lat":43.26813,"lon":5.40268,"is_reserved":false,"is_disabled":false,"rental_uris":{"android":"levelo://app?vid=d65f8df5-e63b-42fc-bc6d-64021fdd57f8","ios":"levelo://app?vid=d65f8df5-e63b-42fc-bc6d-64021fdd57f8"},"vehicle_type_id":"4","last_reported":1726164769,"current_range_meters":22000,"station_id":"ce501612rcd8frsf0b60","pricing_plan_id":"cebpf4jnsgd1na2vs0mg"},{"bike_id":"61ecd83a-39a5-48b1-9f3f-a0053d2f233e","system_id":"levelo_inurba_marseille","lat":43.28734,"lon":5.36088,"is_reserved":false,"is_disabled":false,"rental_uris":{"android":"levelo://app?vid=61ecd83a-39a5-48b1-9f3f-a0053d2f233e","ios":"levelo://app?vid=61ecd83a-39a5-48b1-9f3f-a0053d2f233e"},"vehicle_type_id":"4","last_reported":1726164769,"current_range_meters":38000,"station_id":"cki0cbj6b192h4jlfktg","pricing_plan_id":"cebpf4jnsgd1na2vs0mg"},{"bike_id":"a5ea61f6-7355-458f-85cc-568abaef7ad5","system_id":"levelo_inurba_marseille","lat":43.29049,"lon":5.35928,"is_reserved":false,"is_disabled":false,"rental_uris":{"android":"levelo://app?vid=a5ea61f6-7355-458f-85cc-568abaef7ad5","ios":"levelo://app?vid=a5ea61f6-7355-458f-85cc-568abaef7ad5"},"vehicle_type_id":"4","last_reported":1726164769,"current_range_meters":37600,"station_id":"ce4bha92rcd13ifvqeg0","pricing_plan_id":"cebpf4jnsgd1na2vs0mg"},{"bike_id":"3e5f8dab-1d28-4e73-a6bc-6a99a4b8cec7","system_id":"levelo_inurba_marseille","lat":43.31264,"lon":5.40168,"is_reserved":false,"is_disabled":false,"rental_uris":{"android":"levelo://app?vid=3e5f8dab-1d28-4e73-a6bc-6a99a4b8cec7","ios":"levelo://app?vid=3e5f8dab-1d28-4e73-a6bc-6a99a4b8cec7"},"vehicle_type_id":"4","last_reported":1726164769,"current_range_meters":11600,"station_id":"ce4bh092rcd13ifvqd30","pricing_plan_id":"cebpf4jnsgd1na2vs0mg"},{"bike_id":"221456a8-5574-41ec-9758-8f29196df510","system_id":"levelo_inurba_marseille","lat":43.29028,"lon":5.399719,"is_reserved":false,"is_disabled":false,"rental_uris":{"android":"levelo://app?vid=221456a8-5574-41ec-9758-8f29196df510","ios":"levelo://app?vid=221456a8-5574-41ec-9758-8f29196df510"},"vehicle_type_id":"4","last_reported":1726164769,"current_range_meters":25600,"station_id":"ce4bh392rcd13ifvqdm0","pricing_plan_id":"cebpf4jnsgd1na2vs0mg"},{"bike_id":"5f6c7927-1103-40ec-8ce0-63fa69131cb1","system_id":"levelo_inurba_marseille","lat":43.28672,"lon":5.38666,"is_reserved":false,"is_disabled":false,"rental_uris":{"android":"levelo://app?vid=5f6c7927-1103-40ec-8ce0-63fa69131cb1","ios":"levelo://app?vid=5f6c7927-1103-40ec-8ce0-63fa69131cb1"},"vehicle_type_id":"4","last_reported":1726164769,"current_range_meters":22800,"station_id":"ce4bh492rcd13ifvqdug","pricing_plan_id":"cebpf4jnsgd1na2vs0mg"},{"bike_id":"c099387e-2d72-4170-961b-b4d6d95e440d","system_id":"levelo_inurba_marseille","lat":43.30646,"lon":5.40091,"is_reserved":false,"is_disabled":false,"rental_uris":{"android":"levelo://app?vid=c099387e-2d72-4170-961b-b4d6d95e440d","ios":"levelo://app?vid=c099387e-2d72-4170-961b-b4d6d95e440d"},"vehicle_type_id":"4","last_reported":1726164769,"current_range_meters":31200,"station_id":"ce4bh112rcd13ifvqda0","pricing_plan_id":"cebpf4jnsgd1na2vs0mg"},{"bike_id":"8dd8438a-605c-4e2e-b3e7-6ddb4b97ab5b","system_id":"levelo_inurba_marseille","lat":43.28463,"lon":5.35886,"is_reserved":false,"is_disabled":false,"rental_uris":{"android":"levelo://app?vid=8dd8438a-605c-4e2e-b3e7-6ddb4b97ab5b","ios":"levelo://app?vid=8dd8438a-605c-4e2e-b3e7-6ddb4b97ab5b"},"vehicle_type_id":"4","last_reported":1726164769,"current_range_meters":38800,"station_id":"ce4bhah2rcd13ifvqei0","pricing_plan_id":"cebpf4jnsgd1na2vs0mg"},{"bike_id":"65148b5c-f89d-4e87-9245-446a2d6a4c11","system_id":"levelo_inurba_marseille","lat":43.28155,"lon":5.42645,"is_reserved":false,"is_disabled":false,"rental_uris":{"android":"levelo://app?vid=65148b5c-f89d-4e87-9245-446a2d6a4c11","ios":"levelo://app?vid=65148b5c-f89d-4e87-9245-446a2d6a4c11"},"vehicle_type_id":"4","last_reported":1726164769,"current_range_meters":9200,"station_id":"ce4bhnh2rcd13ifvqgug","pricing_plan_id":"cebpf4jnsgd1na2vs0mg"},{"bike_id":"58900521-f788-4090-90d4-8129e5641ef0","system_id":"levelo_inurba_marseille","lat":43.28614,"lon":5.35102,"is_reserved":false,"is_disabled":false,"rental_uris":{"android":"levelo://app?vid=58900521-f788-4090-90d4-8129e5641ef0","ios":"levelo://app?vid=58900521-f788-4090-90d4-8129e5641ef0"},"vehicle_type_id":"4","last_reported":1726164769,"current_range_meters":27600,"station_id":"ce4bhch2rcd13ifvqeug","pricing_plan_id":"cebpf4jnsgd1na2vs0mg"},{"bike_id":"51f06222-6b05-4930-84d5-69e953c99472","system_id":"levelo_inurba_marseille","lat":43.29034,"lon":5.35903,"is_reserved":false,"is_disabled":false,"rental_uris":{"android":"levelo://app?vid=51f06222-6b05-4930-84d5-69e953c99472","ios":"levelo://app?vid=51f06222-6b05-4930-84d5-69e953c99472"},"vehicle_type_id":"4","last_reported":1726164769,"current_range_meters":4800,"station_id":"ce4bha92rcd13ifvqeg0","pricing_plan_id":"cebpf4jnsgd1na2vs0mg"},{"bike_id":"aabbb97b-a90f-465e-9fe1-2283a462b843","system_id":"levelo_inurba_marseille","lat":43.24805,"lon":5.37454,"is_reserved":false,"is_disabled":false,"rental_uris":{"android":"levelo://app?vid=aabbb97b-a90f-465e-9fe1-2283a462b843","ios":"levelo://app?vid=aabbb97b-a90f-465e-9fe1-2283a462b843"},"vehicle_type_id":"4","last_reported":1726164769,"current_range_meters":25200,"station_id":"ce4bhgh2rcd13ifvqfb0","pricing_plan_id":"cebpf4jnsgd1na2vs0mg"},{"bike_id":"2b60e27d-1f44-4c23-bac7-d8b550fa25ea","system_id":"levelo_inurba_marseille","lat":43.25584,"lon":5.38232,"is_reserved":false,"is_disabled":false,"rental_uris":{"android":"levelo://app?vid=2b60e27d-1f44-4c23-bac7-d8b550fa25ea","ios":"levelo://app?vid=2b60e27d-1f44-4c23-bac7-d8b550fa25ea"},"vehicle_type_id":"4","last_reported":1726164769,"current_range_meters":6800,"station_id":"ce4bhih2rcd13ifvqfs0","pricing_plan_id":"cebpf4jnsgd1na2vs0mg"},{"bike_id":"08b464e5-6e06-46d4-b181-c88ef74fa402","system_id":"levelo_inurba_marseille","lat":43.283522,"lon":5.381019,"is_reserved":false,"is_disabled":false,"rental_uris":{"android":"levelo://app?vid=08b464e5-6e06-46d4-b181-c88ef74fa402","ios":"levelo://app?vid=08b464e5-6e06-46d4-b181-c88ef74fa402"},"vehicle_type_id":"4","last_reported":1726164769,"current_range_meters":6800,"station_id":"ce4bh412rcd13ifvqdr0","pricing_plan_id":"cebpf4jnsgd1na2vs0mg"},{"bike_id":"47c11662-ff3d-401b-a332-8096021c4077","system_id":"levelo_inurba_marseille","lat":43.31995,"lon":5.38167,"is_reserved":false,"is_disabled":false,"rental_uris":{"android":"levelo://app?vid=47c11662-ff3d-401b-a332-8096021c4077","ios":"levelo://app?vid=47c11662-ff3d-401b-a332-8096021c4077"},"vehicle_type_id":"4","last_reported":1726164769,"current_range_meters":13600,"station_id":"ce4bhr12rcd13ifvqhpg","pricing_plan_id":"cebpf4jnsgd1na2vs0mg"},{"bike_id":"0e2116c5-2612-49a0-9302-87a4b28803e1","system_id":"levelo_inurba_marseille","lat":43.23964,"lon":5.36629,"is_reserved":false,"is_disabled":false,"rental_uris":{"android":"levelo://app?vid=0e2116c5-2612-49a0-9302-87a4b28803e1","ios":"levelo://app?vid=0e2116c5-2612-49a0-9302-87a4b28803e1"},"vehicle_type_id":"4","last_reported":1726164769,"current_range_meters":25200,"station_id":"ce4bhi12rcd13ifvqfp0","pricing_plan_id":"cebpf4jnsgd1na2vs0mg"},{"bike_id":"c731313d-f2f9-4b34-9cd4-fffcb4bd880b","system_id":"levelo_inurba_marseille","lat":43.27072,"lon":5.42285,"is_reserved":false,"is_disabled":false,"rental_uris":{"android":"levelo://app?vid=c731313d-f2f9-4b34-9cd4-fffcb4bd880b","ios":"levelo://app?vid=c731313d-f2f9-4b34-9cd4-fffcb4bd880b"},"vehicle_type_id":"4","last_reported":1726164769,"current_range_meters":10000,"station_id":"ce4bhk92rcd13ifvqgb0","pricing_plan_id":"cebpf4jnsgd1na2vs0mg"},{"bike_id":"b09e7907-dd6f-4b82-b0ba-78c354621e88","system_id":"levelo_inurba_marseille","lat":43.30249,"lon":5.40081,"is_reserved":false,"is_disabled":false,"rental_uris":{"android":"levelo://app?vid=b09e7907-dd6f-4b82-b0ba-78c354621e88","ios":"levelo://app?vid=b09e7907-dd6f-4b82-b0ba-78c354621e88"},"vehicle_type_id":"4","last_reported":1726164769,"current_range_meters":38800,"station_id":"ce4bgvh2rcd13ifvqcs0","pricing_plan_id":"cebpf4jnsgd1na2vs0mg"},{"bike_id":"70a8929d-39dc-4d10-9a57-c650f6c9ebae","system_id":"levelo_inurba_marseille","lat":43.28105,"lon":5.3784,"is_reserved":false,"is_disabled":false,"rental_uris":{"android":"levelo://app?vid=70a8929d-39dc-4d10-9a57-c650f6c9ebae","ios":"levelo://app?vid=70a8929d-39dc-4d10-9a57-c650f6c9ebae"},"vehicle_type_id":"4","last_reported":1726164769,"current_range_meters":24400,"station_id":"ce4bha12rcd13ifvqee0","pricing_plan_id":"cebpf4jnsgd1na2vs0mg"},{"bike_id":"6aecc4cb-24e5-44d2-8a3e-bdaded0103c7","system_id":"levelo_inurba_marseille","lat":43.295593,"lon":5.379215,"is_reserved":false,"is_disabled":false,"rental_uris":{"android":"levelo://app?vid=6aecc4cb-24e5-44d2-8a3e-bdaded0103c7","ios":"levelo://app?vid=6aecc4cb-24e5-44d2-8a3e-bdaded0103c7"},"vehicle_type_id":"4","last_reported":1726164769,"current_range_meters":28000,"station_id":"cki0cbj6b192h4jlfktg","pricing_plan_id":"cebpf4jnsgd1na2vs0mg"},{"bike_id":"2ac1ce92-e83f-48c1-8be0-35e4da4cb98f","system_id":"levelo_inurba_marseille","lat":43.2418,"lon":5.3973,"is_reserved":false,"is_disabled":false,"rental_uris":{"android":"levelo://app?vid=2ac1ce92-e83f-48c1-8be0-35e4da4cb98f","ios":"levelo://app?vid=2ac1ce92-e83f-48c1-8be0-35e4da4cb98f"},"vehicle_type_id":"4","last_reported":1726164769,"current_range_meters":17200,"station_id":"ce4bhn12rcd13ifvqgpg","pricing_plan_id":"cebpf4jnsgd1na2vs0mg"},