{"last_updated":1710965283,"ttl":30,"version":"2.2","data":{"bikes":[{"bike_id":"0d7525a4-2238-4a6a-8aa3-1fb052302b0c","system_id":"levelo_inurba_marseille","lat":43.312239,"lon":5.368562,"is_reserved":false,"is_disabled":false,"rental_uris":{"android":"levelo://app?vid=0d7525a4-2238-4a6a-8aa3-1fb052302b0c","ios":"levelo://app?vid=0d7525a4-2238-4a6a-8aa3-1fb052302b0c"},"vehicle_type_id":"4","last_reported":1710965283,"current_range_meters":27600,"station_id":"ce4bgl92rcd13ifvqbq0","pricing_plan_id":"cebpf4jnsgd1na2vs0mg"},{"bike_id":"d9166ad4-b821-42cc-83dd-3f6d9326ea1a","system_id":"levelo_inurba_marseille","lat":43.309039,"lon":5.371797,"is_reserved":false,"is_disabled":false,"rental_uris":{"android":"levelo://app?vid=d9166ad4-b821-42cc-83dd-3f6d9326ea1a","ios":"levelo://app?vid=d9166ad4-b821-42cc-83dd-3f6d9326ea1a"},"vehicle_type_id":"4","last_reported":1710965283,"current_range_meters":8400,"station_id":"ce4bguh2rcd13ifvqckg","pricing_plan_id":"cebpf4jnsgd1na2vs0mg"},{"bike_id":"01edccaf-6fed-47de-a838-db434983f7d0","system_id":"levelo_inurba_marseille","lat":43.309039,"lon":5.371797,"is_reserved":false,"is_disabled":false,"rental_uris":{"android":"levelo://app?vid=01edccaf-6fed-47de-a838-db434983f7d0","ios":"levelo://app?vid=01edccaf-6fed-47de-a838-db434983f7d0"},"vehicle_type_id":"4","last_reported":1710965283,"current_range_meters":2000,"station_id":"ce4bguh2rcd13ifvqckg","pricing_plan_id":"cebpf4jnsgd1na2vs0mg"},{"bike_id":"5e82865c-3848-4503-9ce5-876f20e1f6ed","system_id":"levelo_inurba_marseille","lat":43.30895,"lon":5.37213,"is_reserved":false,"is_disabled":false,"rental_uris":{"android":"levelo://app?vid=5e82865c-3848-4503-9ce5-876f20e1f6ed","ios":"levelo://app?vid=5e82865c-3848-4503-9ce5-876f20e1f6ed"},"vehicle_type_id":"4","last_reported":1710965283,"current_range_meters":400,"station_id":"ce4bguh2rcd13ifvqckg","pricing_plan_id":"cebpf4jnsgd1na2vs0mg"},{"bike_id":"5a0cbda0-f201-41f7-bc2a-fa9feea09c0f","system_id":"levelo_inurba_marseille","lat":43.310273,"lon":5.377,"is_reserved":false,"is_disabled":false,"rental_uris":{"android":"levelo://app?vid=5a0cbda0-f201-41f7-bc2a-fa9feea09c0f","ios":"levelo://app?vid=5a0cbda0-f201-41f7-bc2a-fa9feea09c0f"},"vehicle_type_id":"4","last_reported":1710965283,"current_range_meters":0,"station_id":"","pricing_plan_id":"cebpf4jnsgd1na2vs0mg"},{"bike_id":"38f1898e-8568-4200-a2eb-51af3249e054","system_id":"levelo_inurba_marseille","lat":43.305989,"lon":5.37225,"is_reserved":false,"is_disabled":false,"rental_uris":{"android":"levelo://app?vid=38f1898e-8568-4200-a2eb-51af3249e054","ios":"levelo://app?vid=38f1898e-8568-4200-a2eb-51af3249e054"},"vehicle_type_id":"4","last_reported":1710965283,"current_range_meters":16800,"station_id":"ce4bgqh2rcd13ifvqc4g","pricing_plan_id":"cebpf4jnsgd1na2vs0mg"},{"bike_id":"9c459124-cac9-4a1f-b210-1244a486894d","system_id":"levelo_inurba_marseille","lat":43.305989,"lon":5.37225,"is_reserved":false,"is_disabled":false,"rental_uris":{"android":"levelo://app?vid=9c459124-cac9-4a1f-b210-1244a486894d","ios":"levelo://app?vid=9c459124-cac9-4a1f-b210-1244a486894d"},"vehicle_type_id":"4","last_reported":1710965283,"current_range_meters":19600,"station_id":"ce4bgqh2rcd13ifvqc4g","pricing_plan_id":"cebpf4jnsgd1na2vs0mg"},{"bike_id":"146bc911-02bd-47a9-9903-ea7b88230886","system_id":"levelo_inurba_marseille","lat":43.305989,"lon":5.37225,"is_reserved":false,"is_disabled":false,"rental_uris":{"android":"levelo://app?vid=146bc911-02bd-47a9-9903-ea7b88230886","ios":"levelo://app?vid=146bc911-02bd-47a9-9903-ea7b88230886"},"vehicle_type_id":"4","last_reported":1710965283,"current_range_meters":9600,"station_id":"ce4bgqh2rcd13ifvqc4g","pricing_plan_id":"cebpf4jnsgd1na2vs0mg"},{"bike_id":"cc0103d6-3cca-4ed7-a644-ab0a1c2daedb","system_id":"levelo_inurba_marseille","lat":43.311141,"lon":5.377753,"is_reserved":false,"is_disabled":false,"rental_uris":{"android":"levelo://app?vid=cc0103d6-3cca-4ed7-a644-ab0a1c2daedb","ios":"levelo://app?vid=cc0103d6-3cca-4ed7-a644-ab0a1c2daedb"},"vehicle_type_id":"4","last_reported":1710965283,"current_range_meters":0,"station_id":"ce4bgt92rcd13ifvqcg0","pricing_plan_id":"cebpf4jnsgd1na2vs0mg"},{"bike_id":"37ba464b-025e-451a-99c5-70ea4b86d2f8","system_id":"levelo_inurba_marseille","lat":43.307945,"lon":5.376487,"is_reserved":false,"is_disabled":false,"rental_uris":{"android":"levelo://app?vid=37ba464b-025e-451a-99c5-70ea4b86d2f8","ios":"levelo://app?vid=37ba464b-025e-451a-99c5-70ea4b86d2f8"},"vehicle_type_id":"4","last_reported":1710965283,"current_range_meters":3600,"station_id":"ce4bgv92rcd13ifvqcq0","pricing_plan_id":"cebpf4jnsgd1na2vs0mg"},{"bike_id":"5e809663-0fe6-45da-bb32-63f78af0e1b7","system_id":"levelo_inurba_marseille","lat":43.307945,"lon":5.376487,"is_reserved":false,"is_disabled":false,"rental_uris":{"android":"levelo://app?vid=5e809663-0fe6-45da-bb32-63f78af0e1b7","ios":"levelo://app?vid=5e809663-0fe6-45da-bb32-63f78af0e1b7"},"vehicle_type_id":"4","last_reported":1710965283,"current_range_meters":18000,"station_id":"ce4bgv92rcd13ifvqcq0","pricing_plan_id":"cebpf4jnsgd1na2vs0mg"},{"bike_id":"dab9bedb-882e-43e8-975d-dc75c2ad0809","system_id":"levelo_inurba_marseille","lat":43.31691,"lon":5.37723,"is_reserved":false,"is_disabled":false,"rental_uris":{"android":"levelo://app?vid=dab9bedb-882e-43e8-975d-dc75c2ad0809","ios":"levelo://app?vid=dab9bedb-882e-43e8-975d-dc75c2ad0809"},"vehicle_type_id":"4","last_reported":1710965283,"current_range_meters":8800,"station_id":"ce4bgth2rcd13ifvqch0","pricing_plan_id":"cebpf4jnsgd1na2vs0mg"},{"bike_id":"f67449ba-e913-4b6e-bfff-4ae73c598d70","system_id":"levelo_inurba_marseille","lat":43.317075,"lon":5.377367,"is_reserved":false,"is_disabled":false,"rental_uris":{"android":"levelo://app?vid=f67449ba-e913-4b6e-bfff-4ae73c598d70","ios":"levelo://app?vid=f67449ba-e913-4b6e-bfff-4ae73c598d70"},"vehicle_type_id":"4","last_reported":1710965283,"current_range_meters":11600,"station_id":"ce4bgth2rcd13ifvqch0","pricing_plan_id":"cebpf4jnsgd1na2vs0mg"},{"bike_id":"9e0086b8-d2c2-417c-896f-41e8c0c8b303","system_id":"levelo_inurba_marseille","lat":43.317075,"lon":5.377367,"is_reserved":false,"is_disabled":false,"rental_uris":{"android":"levelo://app?vid=9e0086b8-d2c2-417c-896f-41e8c0c8b303","ios":"levelo://app?vid=9e0086b8-d2c2-417c-896f-41e8c0c8b303"},"vehicle_type_id":"4","last_reported":1710965283,"current_range_meters":23600,"station_id":"ce4bgth2rcd13ifvqch0","pricing_plan_id":"cebpf4jnsgd1na2vs0mg"},{"bike_id":"4dc41018-fcb8-4852-8454-a58dc8ab8391","system_id":"levelo_inurba_marseille","lat":43.317075,"lon":5.377367,"is_reserved":false,"is_disabled":false,"rental_uris":{"android":"levelo://app?vid=4dc41018-fcb8-4852-8454-a58dc8ab8391","ios":"levelo://app?vid=4dc41018-fcb8-4852-8454-a58dc8ab8391"},"vehicle_type_id":"4","last_reported":1710965283,"current_range_meters":26400,"station_id":"ce4bgth2rcd13ifvqch0","pricing_plan_id":"cebpf4jnsgd1na2vs0mg"},{"bike_id":"128e354c-76d0-4497-98a9-0cf7be694c3b","system_id":"levelo_inurba_marseille","lat":43.317075,"lon":5.377367,"is_reserved":false,"is_disabled":false,"rental_uris":{"android":"levelo://app?vid=128e354c-76d0-4497-98a9-0cf7be694c3b","ios":"levelo://app?vid=128e354c-76d0-4497-98a9-0cf7be694c3b"},"vehicle_type_id":"4","last_reported":1710965283,"current_range_meters":8400,"station_id":"ce4bgth2rcd13ifvqch0","pricing_plan_id":"cebpf4jnsgd1na2vs0mg"},{"bike_id":"e187f5fd-114f-415f-9a22-341ee0a6c4b4","system_id":"levelo_inurba_marseille","lat":43.317075,"lon":5.377367,"is_reserved":false,"is_disabled":false,"rental_uris":{"android":"levelo://app?vid=e187f5fd-114f-415f-9a22-341ee0a6c4b4","ios":"levelo://app?vid=e187f5fd-114f-415f-9a22-341ee0a6c4b4"},"vehicle_type_id":"4","last_reported":1710965283,"current_range_meters":6400,"station_id":"ce4bgth2rcd13ifvqch0","pricing_plan_id":"cebpf4jnsgd1na2vs0mg"},{"bike_id":"d39817aa-89c3-4ef0-9356-a4056cd22a0e","system_id":"levelo_inurba_marseille","lat":43.31703,"lon":5.377585,"is_reserved":false,"is_disabled":false,"rental_uris":{"android":"levelo://app?vid=d39817aa-89c3-4ef0-9356-a4056cd22a0e","ios":"levelo://app?vid=d39817aa-89c3-4ef0-9356-a4056cd22a0e"},"vehicle_type_id":"4","last_reported":1710965283,"current_range_meters":5600,"station_id":"ce4bgth2rcd13ifvqch0","pricing_plan_id":"cebpf4jnsgd1na2vs0mg"},{"bike_id":"20e1f459-34dd-42d5-9ecc-0745bc8dce57","system_id":"levelo_inurba_marseille","lat":43.303046,"lon":5.368981,"is_reserved":false,"is_disabled":false,"rental_uris":{"android":"levelo://app?vid=20e1f459-34dd-42d5-9ecc-0745bc8dce57","ios":"levelo://app?vid=20e1f459-34dd-42d5-9ecc-0745bc8dce57"},"vehicle_type_id":"4","last_reported":1710965283,"current_range_meters":0,"station_id":"ce4bgqh2rcd13ifvqc5g","pricing_plan_id":"cebpf4jnsgd1na2vs0mg"},{"bike_id":"62863dfe-424b-4686-ab60-dfeb394604f3","system_id":"levelo_inurba_marseille","lat":43.30302,"lon":5.36897,"is_reserved":false,"is_disabled":false,"rental_uris":{"android":"levelo://app?vid=62863dfe-424b-4686-ab60-dfeb394604f3","ios":"levelo://app?vid=62863dfe-424b-4686-ab60-dfeb394604f3"},"vehicle_type_id":"4","last_reported":1710965283,"current_range_meters":0,"station_id":"ce4bgqh2rcd13ifvqc5g","pricing_plan_id":"cebpf4jnsgd1na2vs0mg"},{"bike_id":"a0b83547-6500-4266-b8ce-0706e0389551","system_id":"levelo_inurba_marseille","lat":43.32006,"lon":5.37623,"is_reserved":false,"is_disabled":false,"rental_uris":{"android":"levelo://app?vid=a0b83547-6500-4266-b8ce-0706e0389551","ios":"levelo://app?vid=a0b83547-6500-4266-b8ce-0706e0389551"},"vehicle_type_id":"4","last_reported":1710965283,"current_range_meters":16000,"station_id":"","pricing_plan_id":"cebpf4jnsgd1na2vs0mg"},{"bike_id":"8ae7f2ce-eb6b-4407-b201-7ef78929c4cb","system_id":"levelo_inurba_marseille","lat":43.30192,"lon":5.36622,"is_reserved":false,"is_disabled":false,"rental_uris":{"android":"levelo://app?vid=8ae7f2ce-eb6b-4407-b201-7ef78929c4cb","ios":"levelo://app?vid=8ae7f2ce-eb6b-4407-b201-7ef78929c4cb"},"vehicle_type_id":"4","last_reported":1710965283,"current_range_meters":0,"station_id":"ce4bgrh2rcd13ifvqc8g","pricing_plan_id":"cebpf4jnsgd1na2vs0mg"},{"bike_id":"52981e36-8302-4094-80b2-aeec17270e6a","system_id":"levelo_inurba_marseille","lat":43.308012,"lon":5.381511,"is_reserved":false,"is_disabled":false,"rental_uris":{"android":"levelo://app?vid=52981e36-8302-4094-80b2-aeec17270e6a","ios":"levelo://app?vid=52981e36-8302-4094-80b2-aeec17270e6a"},"vehicle_type_id":"4","last_reported":1710965283,"current_range_meters":17600,"station_id":"ce4bgt12rcd13ifvqce0","pricing_plan_id":"cebpf4jnsgd1na2vs0mg"},{"bike_id":"0390248a-02b7-4871-82e7-4e4d3cbfe26e","system_id":"levelo_inurba_marseille","lat":43.30472,"lon":5.37893,"is_reserved":false,"is_disabled":false,"rental_uris":{"android":"levelo://app?vid=0390248a-02b7-4871-82e7-4e4d3cbfe26e","ios":"levelo://app?vid=0390248a-02b7-4871-82e7-4e4d3cbfe26e"},"vehicle_type_id":"4","last_reported":1710965283,"current_range_meters":0,"station_id":"ce4bgup2rcd13ifvqcn0","pricing_plan_id":"cebpf4jnsgd1na2vs0mg"},{"bike_id":"16d76e96-2948-4ccb-9708-b85e1044abac","system_id":"levelo_inurba_marseille","lat":43.304606,"lon":5.379026,"is_reserved":false,"is_disabled":false,"rental_uris":{"android":"levelo://app?vid=16d76e96-2948-4ccb-9708-b85e1044abac","ios":"levelo://app?vid=16d76e96-2948-4ccb-9708-b85e1044abac"},"vehicle_type_id":"4","last_reported":1710965283,"current_range_meters":10400,"station_id":"ce4bgup2rcd13ifvqcn0","pricing_plan_id":"cebpf4jnsgd1na2vs0mg"},{"bike_id":"bd6c4a17-46ef-4b75-b038-cc4fb9e303c7","system_id":"levelo_inurba_marseille","lat":43.304606,"lon":5.379026,"is_reserved":false,"is_disabled":false,"rental_uris":{"android":"levelo://app?vid=bd6c4a17-46ef-4b75-b038-cc4fb9e303c7","ios":"levelo://app?vid=bd6c4a17-46ef-4b75-b038-cc4fb9e303c7"},"vehicle_type_id":"4","last_reported":1710965283,"current_range_meters":0,"station_id":"ce4bgup2rcd13ifvqcn0","pricing_plan_id":"cebpf4jnsgd1na2vs0mg"},{"bike_id":"976ca96d-8648-4a1b-a0c9-c71b47d4776d","system_id":"levelo_inurba_marseille","lat":43.324771,"lon":5.36557,"is_reserved":false,"is_disabled":false,"rental_uris":{"android":"levelo://app?vid=976ca96d-8648-4a1b-a0c9-c71b47d4776d","ios":"levelo://app?vid=976ca96d-8648-4a1b-a0c9-c71b47d4776d"},"vehicle_type_id":"4","last_reported":1710965283,"current_range_meters":10000,"station_id":"ce4bhs12rcd13ifvqhvg","pricing_plan_id":"cebpf4jnsgd1na2vs0mg"},{"bike_id":"e66613de-216a-4676-b06f-8995d96803b6","system_id":"levelo_inurba_marseille","lat":43.324771,"lon":5.36557,"is_reserved":false,"is_disabled":false,"rental_uris":{"android":"levelo://app?vid=e66613de-216a-4676-b06f-8995d96803b6","ios":"levelo://app?vid=e66613de-216a-4676-b06f-8995d96803b6"},"vehicle_type_id":"4","last_reported":1710965283,"current_range_meters":17200,"station_id":"ce4bhs12rcd13ifvqhvg","pricing_plan_id":"cebpf4jnsgd1na2vs0mg"},{"bike_id":"2fce2e5e-317a-4865-8219-cd30090cd416","system_id":"levelo_inurba_marseille","lat":43.324897,"lon":5.365717,"is_reserved":false,"is_disabled":false,"rental_uris":{"android":"levelo://app?vid=2fce2e5e-317a-4865-8219-cd30090cd416","ios":"levelo://app?vid=2fce2e5e-317a-4865-8219-cd30090cd416"},"vehicle_type_id":"4","last_reported":1710965283,"current_range_meters":0,"station_id":"ce4bhs12rcd13ifvqhvg","pricing_plan_id":"cebpf4jnsgd1na2vs0mg"},{"bike_id":"bc5fab7a-7656-44e5-9ee2-5c1c721f0d3a","system_id":"levelo_inurba_marseille","lat":43.31075,"lon":5.383519,"is_reserved":false,"is_disabled":false,"rental_uris":{"android":"levelo://app?vid=bc5fab7a-7656-44e5-9ee2-5c1c721f0d3a","ios":"levelo://app?vid=bc5fab7a-7656-44e5-9ee2-5c1c721f0d3a"},"vehicle_type_id":"4","last_reported":1710965283,"current_range_meters":0,"station_id":"ce4bgv92rcd13ifvqcr0","pricing_plan_id":"cebpf4jnsgd1na2vs0mg"},{"bike_id":"64f268a0-a959-474d-a637-a4f53ba92d5e","system_id":"levelo_inurba_marseille","lat":43.31079,"lon":5.38353,"is_reserved":false,"is_disabled":false,"rental_uris":{"android":"levelo://app?vid=64f268a0-a959-474d-a637-a4f53ba92d5e","ios":"levelo://app?vid=64f268a0-a959-474d-a637-a4f53ba92d5e"},"vehicle_type_id":"4","last_reported":1710965283,"current_range_meters":14800,"station_id":"ce4bgv92rcd13ifvqcr0","pricing_plan_id":"cebpf4jnsgd1na2vs0mg"},{"bike_id":"472b8a95-6576-4dd9-86aa-3ce410e32ad3","system_id":"levelo_inurba_marseille","lat":43.3107,"lon":5.38357,"is_reserved":false,"is_disabled":false,"rental_uris":{"android":"levelo://app?vid=472b8a95-6576-4dd9-86aa-3ce410e32ad3","ios":"levelo://app?vid=472b8a95-6576-4dd9-86aa-3ce410e32ad3"},"vehicle_type_id":"4","last_reported":1710965283,"current_range_meters":0,"station_id":"ce4bgv92rcd13ifvqcr0","pricing_plan_id":"cebpf4jnsgd1na2vs0mg"},{"bike_id":"5b1a0abc-fa6f-43bf-a88f-7ae949c24098","system_id":"levelo_inurba_marseille","lat":43.31073,"lon":5.3836,"is_reserved":false,"is_disabled":false,"rental_uris":{"android":"levelo://app?vid=5b1a0abc-fa6f-43bf-a88f-7ae949c24098","ios":"levelo://app?vid=5b1a0abc-fa6f-43bf-a88f-7ae949c24098"},"vehicle_type_id":"4","last_reported":1710965283,"current_range_meters":0,"station_id":"ce4bgv92rcd13ifvqcr0","pricing_plan_id":"cebpf4jnsgd1na2vs0mg"},{"bike_id":"daeca1bf-26a4-41cb-9a57-9fb13544ff87","system_id":"levelo_inurba_marseille","lat":43.31075,"lon":5.38362,"is_reserved":false,"is_disabled":false,"rental_uris":{"android":"levelo://app?vid=daeca1bf-26a4-41cb-9a57-9fb13544ff87","ios":"levelo://app?vid=daeca1bf-26a4-41cb-9a57-9fb13544ff87"},"vehicle_type_id":"4","last_reported":1710965283,"current_range_meters":8800,"station_id":"ce4bgv92rcd13ifvqcr0","pricing_plan_id":"cebpf4jnsgd1na2vs0mg"},{"bike_id":"04e9d777-b3f0-4fa6-838c-f929404b7662","system_id":"levelo_inurba_marseille","lat":43.30144,"lon":5.37407,"is_reserved":false,"is_disabled":false,"rental_uris":{"android":"levelo://app?vid=04e9d777-b3f0-4fa6-838c-f929404b7662","ios":"levelo://app?vid=04e9d777-b3f0-4fa6-838c-f929404b7662"},"vehicle_type_id":"4","last_reported":1710965283,"current_range_meters":0,"station_id":"ce4bgs92rcd13ifvqcc0","pricing_plan_id":"cebpf4jnsgd1na2vs0mg"},{"bike_id":"80ba746d-8a89-4a6a-815f-720b1d3f7302","system_id":"levelo_inurba_marseille","lat":43.30146,"lon":5.37413,"is_reserved":false,"is_disabled":false,"rental_uris":{"android":"levelo://app?vid=80ba746d-8a89-4a6a-815f-720b1d3f7302","ios":"levelo://app?vid=80ba746d-8a89-4a6a-815f-720b1d3f7302"},"vehicle_type_id":"4","last_reported":1710965283,"current_range_meters":12800,"station_id":"ce4bgs92rcd13ifvqcc0","pricing_plan_id":"cebpf4jnsgd1na2vs0mg"},{"bike_id":"2208fbd5-7cb1-466e-9f92-dfd6f131d41b","system_id":"levelo_inurba_marseille","lat":43.302784,"lon":5.377158,"is_reserved":false,"is_disabled":false,"rental_uris":{"android":"levelo://app?vid=2208fbd5-7cb1-466e-9f92-dfd6f131d41b","ios":"levelo://app?vid=2208fbd5-7cb1-466e-9f92-dfd6f131d41b"},"vehicle_type_id":"4","last_reported":1710965283,"current_range_meters":7200,"station_id":"ce4bguh2rcd13ifvqcj0","pricing_plan_id":"cebpf4jnsgd1na2vs0mg"},{"bike_id":"c5888602-c39a-4a5d-b745-ebbd3f4db101","system_id":"levelo_inurba_marseille","lat":43.319935,"lon":5.381699,"is_reserved":false,"is_disabled":false,"rental_uris":{"android":"levelo://app?vid=c5888602-c39a-4a5d-b745-ebbd3f4db101","ios":"levelo://app?vid=c5888602-c39a-4a5d-b745-ebbd3f4db101"},"vehicle_type_id":"4","last_reported":1710965283,"current_range_meters":8800,"station_id":"ce4bhr12rcd13ifvqhpg","pricing_plan_id":"cebpf4jnsgd1na2vs0mg"},{"bike_id":"be83824f-cd7e-44ed-bda3-89905b40ab1f","system_id":"levelo_inurba_marseille","lat":43.319977,"lon":5.381475,"is_reserved":false,"is_disabled":false,"rental_uris":{"android":"levelo://app?vid=be83824f-cd7e-44ed-bda3-89905b40ab1f","ios":"levelo://app?vid=be83824f-cd7e-44ed-bda3-89905b40ab1f"},"vehicle_type_id":"4","last_reported":1710965283,"current_range_meters":1200,"station_id":"ce4bhr12rcd13ifvqhpg","pricing_plan_id":"cebpf4jnsgd1na2vs0mg"},{"bike_id":"bacf9ea7-7b6f-4771-b57c-c8a34d4f67a3","system_id":"levelo_inurba_marseille","lat":43.319935,"lon":5.381699,"is_reserved":false,"is_disabled":false,"rental_uris":{"android":"levelo://app?vid=bacf9ea7-7b6f-4771-b57c-c8a34d4f67a3","ios":"levelo://app?vid=bacf9ea7-7b6f-4771-b57c-c8a34d4f67a3"},"vehicle_type_id":"4","last_reported":1710965283,"current_range_meters":0,"station_id":"ce4bhr12rcd13ifvqhpg","pricing_plan_id":"cebpf4jnsgd1na2vs0mg"},{"bike_id":"5aa8d1d9-d2a3-4970-834f-6317bc174708","system_id":"levelo_inurba_marseille","lat":43.319935,"lon":5.381699,"is_reserved":false,"is_disabled":false,"rental_uris":{"android":"levelo://app?vid=5aa8d1d9-d2a3-4970-834f-6317bc174708","ios":"levelo://app?vid=5aa8d1d9-d2a3-4970-834f-6317bc174708"},"vehicle_type_id":"4","last_reported":1710965283,"current_range_meters":18800,"station_id":"ce4bhr12rcd13ifvqhpg","pricing_plan_id":"cebpf4jnsgd1na2vs0mg"},{"bike_id":"53ae1eb9-01b2-4850-b667-39dda217df16","system_id":"levelo_inurba_marseille","lat":43.319935,"lon":5.381699,"is_reserved":false,"is_disabled":false,"rental_uris":{"android":"levelo://app?vid=53ae1eb9-01b2-4850-b667-39dda217df16","ios":"levelo://app?vid=53ae1eb9-01b2-4850-b667-39dda217df16"},"vehicle_type_id":"4","last_reported":1710965283,"current_range_meters":4400,"station_id":"ce4bhr12rcd13ifvqhpg","pricing_plan_id":"cebpf4jnsgd1na2vs0mg"},{"bike_id":"7447f4a7-65fa-4127-a289-941c1f0c603e","system_id":"levelo_inurba_marseille","lat":43.319935,"lon":5.381699,"is_reserved":false,"is_disabled":false,"rental_uris":{"android":"levelo://app?vid=7447f4a7-65fa-4127-a289-941c1f0c603e","ios":"levelo://app?vid=7447f4a7-65fa-4127-a289-941c1f0c603e"},"vehicle_type_id":"4","last_reported":1710965283,"current_range_meters":12800,"station_id":"ce4bhr12rcd13ifvqhpg","pricing_plan_id":"cebpf4jnsgd1na2vs0mg"},{"bike_id":"e8eec59e-f875-48a1-a99b-4940e92b519b","system_id":"levelo_inurba_marseille","lat":43.32004,"lon":5.381539,"is_reserved":false,"is_disabled":false,"rental_uris":{"android":"levelo://app?vid=e8eec59e-f875-48a1-a99b-4940e92b519b","ios":"levelo://app?vid=e8eec59e-f875-48a1-a99b-4940e92b519b"},"vehicle_type_id":"4","last_reported":1710965283,"current_range_meters":11200,"station_id":"ce4bhr12rcd13ifvqhpg","pricing_plan_id":"cebpf4jnsgd1na2vs0mg"},{"bike_id":"5c8cf22e-b31b-4c10-9b7a-acf0c71cb5bf","system_id":"levelo_inurba_marseille","lat":43.319935,"lon":5.381699,"is_reserved":false,"is_disabled":false,"rental_uris":{"android":"levelo://app?vid=5c8cf22e-b31b-4c10-9b7a-acf0c71cb5bf","ios":"levelo://app?vid=5c8cf22e-b31b-4c10-9b7a-acf0c71cb5bf"},"vehicle_type_id":"4","last_reported":1710965283,"current_range_meters":10000,"station_id":"ce4bhr12rcd13ifvqhpg","pricing_plan_id":"cebpf4jnsgd1na2vs0mg"},{"bike_id":"18754159-673b-4be5-8318-8a2c545ac8ac","system_id":"levelo_inurba_marseille","lat":43.319935,"lon":5.381699,"is_reserved":false,"is_disabled":false,"rental_uris":{"android":"levelo://app?vid=18754159-673b-4be5-8318-8a2c545ac8ac","ios":"levelo://app?vid=18754159-673b-4be5-8318-8a2c545ac8ac"},"vehicle_type_id":"4","last_reported":1710965283,"current_range_meters":6400,"station_id":"ce4bhr12rcd13ifvqhpg","pricing_plan_id":"cebpf4jnsgd1na2vs0mg"},{"bike_id":"12eb73df-2a4a-42f9-baf0-a0158d3f526d","system_id":"levelo_inurba_marseille","lat":43.320045,"lon":5.381603,"is_reserved":false,"is_disabled":false,"rental_uris":{"android":"levelo://app?vid=12eb73df-2a4a-42f9-baf0-a0158d3f526d","ios":"levelo://app?vid=12eb73df-2a4a-42f9-baf0-a0158d3f526d"},"vehicle_type_id":"4","last_reported":1710965283,"current_range_meters":5200,"station_id":"ce4bhr12rcd13ifvqhpg","pricing_plan_id":"cebpf4jnsgd1na2vs0mg"},{"bike_id":"11af88b5-ee1f-40b4-b03c-143e8c1aec07","system_id":"levelo_inurba_marseille","lat":43.319935,"lon":5.381699,"is_reserved":false,"is_disabled":false,"rental_uris":{"android":"levelo://app?vid=11af88b5-ee1f-40b4-b03c-143e8c1aec07","ios":"levelo://app?vid=11af88b5-ee1f-40b4-b03c-143e8c1aec07"},"vehicle_type_id":"4","last_reported":1710965283,"current_range_meters":13600,"station_id":"ce4bhr12rcd13ifvqhpg","pricing_plan_id":"cebpf4jnsgd1na2vs0mg"},{"bike_id":"94ab1b93-8107-4823-8160-526e675d9bb6","system_id":"levelo_inurba_marseille","lat":43.31361,"lon":5.38497,"is_reserved":false,"is_disabled":false,"rental_uris":{"android":"levelo://app?vid=94ab1b93-8107-4823-8160-526e675d9bb6","ios":"levelo://app?vid=94ab1b93-8107-4823-8160-526e675d9bb6"},"vehicle_type_id":"4","last_reported":1710965283,"current_range_meters":0,"station_id":"ce4bgt92rcd13ifvqcf0","pricing_plan_id":"cebpf4jnsgd1na2vs0mg"},{"bike_id":"f6653f4c-adc5-48aa-9fbd-85e21f281f50","system_id":"levelo_inurba_marseille","lat":43.299724,"lon":5.371829,"is_reserved":false,"is_disabled":false,"rental_uris":{"android":"levelo://app?vid=f6653f4c-adc5-48aa-9fbd-85e21f281f50","ios":"levelo://app?vid=f6653f4c-adc5-48aa-9fbd-85e21f281f50"},"vehicle_type_id":"4","last_reported":1710965283,"current_range_meters":28000,"station_id":"ce4bgr92rcd13ifvqc7g","pricing_plan_id":"cebpf4jnsgd1na2vs0mg"},{"bike_id":"14d2e6ac-25a4-424d-a785-97e72c90b72d","system_id":"levelo_inurba_marseille","lat":43.299724,"lon":5.371829,"is_reserved":false,"is_disabled":false,"rental_uris":{"android":"levelo://app?vid=14d2e6ac-25a4-424d-a785-97e72c90b72d","ios":"levelo://app?vid=14d2e6ac-25a4-424d-a785-97e72c90b72d"},"vehicle_type_id":"4","last_reported":1710965283,"current_range_meters":0,"station_id":"ce4bgr92rcd13ifvqc7g","pricing_plan_id":"cebpf4jnsgd1na2vs0mg"},{"bike_id":"2916b20e-1315-4ccd-b687-0d8da4639f9e","system_id":"levelo_inurba_marseille","lat":43.299724,"lon":5.371829,"is_reserved":false,"is_disabled":false,"rental_uris":{"android":"levelo://app?vid=2916b20e-1315-4ccd-b687-0d8da4639f9e","ios":"levelo://app?vid=2916b20e-1315-4ccd-b687-0d8da4639f9e"},"vehicle_type_id":"4","last_reported":1710965283,"current_range_meters":12400,"station_id":"ce4bgr92rcd13ifvqc7g","pricing_plan_id":"cebpf4jnsgd1na2vs0mg"},{"bike_id":"581eeb80-55bd-4df0-a489-db41a3788d1e","system_id":"levelo_inurba_marseille","lat":43.299222,"lon":5.365554,"is_reserved":false,"is_disabled":false,"rental_uris":{"android":"levelo://app?vid=581eeb80-55bd-4df0-a489-db41a3788d1e","ios":"levelo://app?vid=581eeb80-55bd-4df0-a489-db41a3788d1e"},"vehicle_type_id":"4","last_reported":1710965283,"current_range_meters":25200,"station_id":"ce4bgm92rcd13ifvqbr0","pricing_plan_id":"cebpf4jnsgd1na2vs0mg"},{"bike_id":"ad2251d7-a990-4e8b-8de1-0d1a9fd11152","system_id":"levelo_inurba_marseille","lat":43.299222,"lon":5.365554,"is_reserved":false,"is_disabled":false,"rental_uris":{"android":"levelo://app?vid=ad2251d7-a990-4e8b-8de1-0d1a9fd11152","ios":"levelo://app?vid=ad2251d7-a990-4e8b-8de1-0d1a9fd11152"},"vehicle_type_id":"4","last_reported":1710965283,"current_range_meters":0,"station_id":"ce4bgm92rcd13ifvqbr0","pricing_plan_id":"cebpf4jnsgd1na2vs0mg"},{"bike_id":"d072040e-1351-446f-b424-92181ecd8747","system_id":"levelo_inurba_marseille","lat":43.299724,"lon":5.371829,"is_reserved":false,"is_disabled":false,"rental_uris":{"android":"levelo://app?vid=d072040e-1351-446f-b424-92181ecd8747","ios":"levelo://app?vid=d072040e-1351-446f-b424-92181ecd8747"},"vehicle_type_id":"4","last_reported":1710965283,"current_range_meters":1200,"station_id":"ce4bgr92rcd13ifvqc7g","pricing_plan_id":"cebpf4jnsgd1na2vs0mg"},{"bike_id":"935f564b-92c9-4573-a132-59c52ec639d1","system_id":"levelo_inurba_marseille","lat":43.3026,"lon":5.37973,"is_reserved":false,"is_disabled":false,"rental_uris":{"android":"levelo://app?vid=935f564b-92c9-4573-a132-59c52ec639d1","ios":"levelo://app?vid=935f564b-92c9-4573-a132-59c52ec639d1"},"vehicle_type_id":"4","last_reported":1710965283,"current_range_meters":1600,"station_id":"","pricing_plan_id":"cebpf4jnsgd1na2vs0mg"},{"bike_id":"91bfd13b-ef1c-4cb9-b3d4-d7f9e4e7e47a","system_id":"levelo_inurba_marseille","lat":43.298433,"lon":5.362774,"is_reserved":false,"is_disabled":false,"rental_uris":{"android":"levelo://app?vid=91bfd13b-ef1c-4cb9-b3d4-d7f9e4e7e47a","ios":"levelo://app?vid=91bfd13b-ef1c-4cb9-b3d4-d7f9e4e7e47a"},"vehicle_type_id":"4","last_reported":1710965283,"current_range_meters":29200,"station_id":"ce4bgpp2rcd13ifvqc3g","pricing_plan_id":"cebpf4jnsgd1na2vs0mg"},{"bike_id":"f7afd12d-48c1-4530-9fcd-d1674bedd322","system_id":"levelo_inurba_marseille","lat":43.298433,"lon":5.362774,"is_reserved":false,"is_disabled":false,"rental_uris":{"android":"levelo://app?vid=f7afd12d-48c1-4530-9fcd-d1674bedd322","ios":"levelo://app?vid=f7afd12d-48c1-4530-9fcd-d1674bedd322"},"vehicle_type_id":"4","last_reported":1710965283,"current_range_meters":14000,"station_id":"ce4bgpp2rcd13ifvqc3g","pricing_plan_id":"cebpf4jnsgd1na2vs0mg"},{"bike_id":"acb7d57b-f572-449f-9aac-e49ea554ab2f","system_id":"levelo_inurba_marseille","lat":43.298433,"lon":5.362774,"is_reserved":false,"is_disabled":false,"rental_uris":{"android":"levelo://app?vid=acb7d57b-f572-449f-9aac-e49ea554ab2f","ios":"levelo://app?vid=acb7d57b-f572-449f-9aac-e49ea554ab2f"},"vehicle_type_id":"4","last_reported":1710965283,"current_range_meters":0,"station_id":"ce4bgpp2rcd13ifvqc3g","pricing_plan_id":"cebpf4jnsgd1na2vs0mg"},{"bike_id":"ac36d5f9-eaf9-4095-bcaf-7b02e8496e5c","system_id":"levelo_inurba_marseille","lat":43.305364,"lon":5.384119,"is_reserved":false,"is_disabled":false,"rental_uris":{"android":"levelo://app?vid=ac36d5f9-eaf9-4095-bcaf-7b02e8496e5c","ios":"levelo://app?vid=ac36d5f9-eaf9-4095-bcaf-7b02e8496e5c"},"vehicle_type_id":"4","last_reported":1710965283,"current_range_meters":5600,"station_id":"ce4bgg92rcd13ifvqb30","pricing_plan_id":"cebpf4jnsgd1na2vs0mg"},{"bike_id":"4a13b7d0-5b39-4af5-96e5-68b486ddcd34","system_id":"levelo_inurba_marseille","lat":43.299243,"lon":5.374807,"is_reserved":false,"is_disabled":false,"rental_uris":{"android":"levelo://app?vid=4a13b7d0-5b39-4af5-96e5-68b486ddcd34","ios":"levelo://app?vid=4a13b7d0-5b39-4af5-96e5-68b486ddcd34"},"vehicle_type_id":"4","last_reported":1710965283,"current_range_meters":6000,"station_id":"ce4bgjh2rcd13ifvqbg0","pricing_plan_id":"cebpf4jnsgd1na2vs0mg"},{"bike_id":"91af17e6-21c0-4ccf-b122-550057a51d78","system_id":"levelo_inurba_marseille","lat":43.299243,"lon":5.374807,"is_reserved":false,"is_disabled":false,"rental_uris":{"android":"levelo://app?vid=91af17e6-21c0-4ccf-b122-550057a51d78","ios":"levelo://app?vid=91af17e6-21c0-4ccf-b122-550057a51d78"},"vehicle_type_id":"4","last_reported":1710965283,"current_range_meters":22000,"station_id":"ce4bgjh2rcd13ifvqbg0","pricing_plan_id":"cebpf4jnsgd1na2vs0mg"},{"bike_id":"d79645d4-9d2d-4852-87a0-252439e8892b","system_id":"levelo_inurba_marseille","lat":43.31183,"lon":5.38714,"is_reserved":false,"is_disabled":false,"rental_uris":{"android":"levelo://app?vid=d79645d4-9d2d-4852-87a0-252439e8892b","ios":"levelo://app?vid=d79645d4-9d2d-4852-87a0-252439e8892b"},"vehicle_type_id":"4","last_reported":1710965283,"current_range_meters":0,"station_id":"ce4bgv12rcd13ifvqcp0","pricing_plan_id":"cebpf4jnsgd1na2vs0mg"},{"bike_id":"de9bf31e-63c0-498b-8997-f8d842261a32","system_id":"levelo_inurba_marseille","lat":43.299243,"lon":5.374807,"is_reserved":false,"is_disabled":false,"rental_uris":{"android":"levelo://app?vid=de9bf31e-63c0-498b-8997-f8d842261a32","ios":"levelo://app?vid=de9bf31e-63c0-498b-8997-f8d842261a32"},"vehicle_type_id":"4","last_reported":1710965283,"current_range_meters":0,"station_id":"ce4bgjh2rcd13ifvqbg0","pricing_plan_id":"cebpf4jnsgd1na2vs0mg"},{"bike_id":"cf5721e5-72de-404a-beea-1dde0055f196","system_id":"levelo_inurba_marseille","lat":43.311722,"lon":5.387247,"is_reserved":false,"is_disabled":false,"rental_uris":{"android":"levelo://app?vid=cf5721e5-72de-404a-beea-1dde0055f196","ios":"levelo://app?vid=cf5721e5-72de-404a-beea-1dde0055f196"},"vehicle_type_id":"4","last_reported":1710965283,"current_range_meters":2400,"station_id":"ce4bgv12rcd13ifvqcp0","pricing_plan_id":"cebpf4jnsgd1na2vs0mg"},{"bike_id":"52d63c4c-4ccf-4e6c-af0d-15ad88848159","system_id":"levelo_inurba_marseille","lat":43.297774,"lon":5.370875,"is_reserved":false,"is_disabled":false,"rental_uris":{"android":"levelo://app?vid=52d63c4c-4ccf-4e6c-af0d-15ad88848159","ios":"levelo://app?vid=52d63c4c-4ccf-4e6c-af0d-15ad88848159"},"vehicle_type_id":"4","last_reported":1710965283,"current_range_meters":5600,"station_id":"ce4bgop2rcd13ifvqc1g","pricing_plan_id":"cebpf4jnsgd1na2vs0mg"},{"bike_id":"c865e649-189a-49c7-bd44-564091b00a26","system_id":"levelo_inurba_marseille","lat":43.322862,"lon":5.382536,"is_reserved":false,"is_disabled":false,"rental_uris":{"android":"levelo://app?vid=c865e649-189a-49c7-bd44-564091b00a26","ios":"levelo://app?vid=c865e649-189a-49c7-bd44-564091b00a26"},"vehicle_type_id":"4","last_reported":1710965283,"current_range_meters":9200,"station_id":"ce4bhr12rcd13ifvqhqg","pricing_plan_id":"cebpf4jnsgd1na2vs0mg"},{"bike_id":"feead7e7-9cee-4c57-94a6-da647512767c","system_id":"levelo_inurba_marseille","lat":43.322896,"lon":5.382515,"is_reserved":false,"is_disabled":false,"rental_uris":{"android":"levelo://app?vid=feead7e7-9cee-4c57-94a6-da647512767c","ios":"levelo://app?vid=feead7e7-9cee-4c57-94a6-da647512767c"},"vehicle_type_id":"4","last_reported":1710965283,"current_range_meters":17600,"station_id":"ce4bhr12rcd13ifvqhqg","pricing_plan_id":"cebpf4jnsgd1na2vs0mg"},{"bike_id":"9fd1b0a3-c4e5-4bb5-b930-60a1070ab499","system_id":"levelo_inurba_marseille","lat":43.32286,"lon":5.38259,"is_reserved":false,"is_disabled":false,"rental_uris":{"android":"levelo://app?vid=9fd1b0a3-c4e5-4bb5-b930-60a1070ab499","ios":"levelo://app?vid=9fd1b0a3-c4e5-4bb5-b930-60a1070ab499"},"vehicle_type_id":"4","last_reported":1710965283,"current_range_meters":800,"station_id":"ce4bhr12rcd13ifvqhqg","pricing_plan_id":"cebpf4jnsgd1na2vs0mg"},{"bike_id":"8805e5c2-5ebc-4d17-aa66-b7acbedf72f2","system_id":"levelo_inurba_marseille","lat":43.32289,"lon":5.38257,"is_reserved":false,"is_disabled":false,"rental_uris":{"android":"levelo://app?vid=8805e5c2-5ebc-4d17-aa66-b7acbedf72f2","ios":"levelo://app?vid=8805e5c2-5ebc-4d17-aa66-b7acbedf72f2"},"vehicle_type_id":"4","last_reported":1710965283,"current_range_meters":26800,"station_id":"ce4bhr12rcd13ifvqhqg","pricing_plan_id":"cebpf4jnsgd1na2vs0mg"},{"bike_id":"b95a6c75-914a-4657-89de-306b3f28611a","system_id":"levelo_inurba_marseille","lat":43.32288,"lon":5.3826,"is_reserved":false,"is_disabled":false,"rental_uris":{"android":"levelo://app?vid=b95a6c75-914a-4657-89de-306b3f28611a","ios":"levelo://app?vid=b95a6c75-914a-4657-89de-306b3f28611a"},"vehicle_type_id":"4","last_reported":1710965283,"current_range_meters":3200,"station_id":"ce4bhr12rcd13ifvqhqg","pricing_plan_id":"cebpf4jnsgd1na2vs0mg"},{"bike_id":"36727d06-0af4-4c64-88de-4193d3d2494b","system_id":"levelo_inurba_marseille","lat":43.32289,"lon":5.3826,"is_reserved":false,"is_disabled":false,"rental_uris":{"android":"levelo://app?vid=36727d06-0af4-4c64-88de-4193d3d2494b","ios":"levelo://app?vid=36727d06-0af4-4c64-88de-4193d3d2494b"},"vehicle_type_id":"4","last_reported":1710965283,"current_range_meters":10400,"station_id":"ce4bhr12rcd13ifvqhqg","pricing_plan_id":"cebpf4jnsgd1na2vs0mg"},{"bike_id":"5f8b4803-e4ba-4452-a9f1-55c7a87b5d2b","system_id":"levelo_inurba_marseille","lat":43.322872,"lon":5.38263,"is_reserved":false,"is_disabled":false,"rental_uris":{"android":"levelo://app?vid=5f8b4803-e4ba-4452-a9f1-55c7a87b5d2b","ios":"levelo://app?vid=5f8b4803-e4ba-4452-a9f1-55c7a87b5d2b"},"vehicle_type_id":"4","last_reported":1710965283,"current_range_meters":11600,"station_id":"ce4bhr12rcd13ifvqhqg","pricing_plan_id":"cebpf4jnsgd1na2vs0mg"},{"bike_id":"accb2f69-ca20-4b2f-9b54-89cf5f810bdd","system_id":"levelo_inurba_marseille","lat":43.3229,"lon":5.3826,"is_reserved":false,"is_disabled":false,"rental_uris":{"android":"levelo://app?vid=accb2f69-ca20-4b2f-9b54-89cf5f810bdd","ios":"levelo://app?vid=accb2f69-ca20-4b2f-9b54-89cf5f810bdd"},"vehicle_type_id":"4","last_reported":1710965283,"current_range_meters":20000,"station_id":"ce4bhr12rcd13ifvqhqg","pricing_plan_id":"cebpf4jnsgd1na2vs0mg"},{"bike_id":"4f4a75fa-11e1-4b9c-9fc5-7e2938322638","system_id":"levelo_inurba_marseille","lat":43.32291,"lon":5.38259,"is_reserved":false,"is_disabled":false,"rental_uris":{"android":"levelo://app?vid=4f4a75fa-11e1-4b9c-9fc5-7e2938322638","ios":"levelo://app?vid=4f4a75fa-11e1-4b9c-9fc5-7e2938322638"},"vehicle_type_id":"4","last_reported":1710965283,"current_range_meters":21600,"station_id":"ce4bhr12rcd13ifvqhqg","pricing_plan_id":"cebpf4jnsgd1na2vs0mg"},{"bike_id":"bd6b6545-b45a-4dc0-b743-d330ab6c2563","system_id":"levelo_inurba_marseille","lat":43.322915,"lon":5.382588,"is_reserved":false,"is_disabled":false,"rental_uris":{"android":"levelo://app?vid=bd6b6545-b45a-4dc0-b743-d330ab6c2563","ios":"levelo://app?vid=bd6b6545-b45a-4dc0-b743-d330ab6c2563"},"vehicle_type_id":"4","last_reported":1710965283,"current_range_meters":25600,"station_id":"ce4bhr12rcd13ifvqhqg","pricing_plan_id":"cebpf4jnsgd1na2vs0mg"},{"bike_id":"8973ff5d-a4d0-464c-86c8-35e87f7c0565","system_id":"levelo_inurba_marseille","lat":43.297794,"lon":5.370888,"is_reserved":false,"is_disabled":false,"rental_uris":{"android":"levelo://app?vid=8973ff5d-a4d0-464c-86c8-35e87f7c0565","ios":"levelo://app?vid=8973ff5d-a4d0-464c-86c8-35e87f7c0565"},"vehicle_type_id":"4","last_reported":1710965283,"current_range_meters":18400,"station_id":"ce4bgop2rcd13ifvqc1g","pricing_plan_id":"cebpf4jnsgd1na2vs0mg"},{"bike_id":"fe2c0272-b23e-47ab-9983-08819dc287f5","system_id":"levelo_inurba_marseille","lat":43.32297,"lon":5.38253,"is_reserved":false,"is_disabled":false,"rental_uris":{"android":"levelo://app?vid=fe2c0272-b23e-47ab-9983-08819dc287f5","ios":"levelo://app?vid=fe2c0272-b23e-47ab-9983-08819dc287f5"},"vehicle_type_id":"4","last_reported":1710965283,"current_range_meters":9200,"station_id":"ce4bhr12rcd13ifvqhqg","pricing_plan_id":"cebpf4jnsgd1na2vs0mg"},{"bike_id":"51390439-271e-4df1-b83d-c4d9e297d411","system_id":"levelo_inurba_marseille","lat":43.32287,"lon":5.382653,"is_reserved":false,"is_disabled":false,"rental_uris":{"android":"levelo://app?vid=51390439-271e-4df1-b83d-c4d9e297d411","ios":"levelo://app?vid=51390439-271e-4df1-b83d-c4d9e297d411"},"vehicle_type_id":"4","last_reported":1710965283,"current_range_meters":3600,"station_id":"ce4bhr12rcd13ifvqhqg","pricing_plan_id":"cebpf4jnsgd1na2vs0mg"},{"bike_id":"62e90e97-975b-4b7d-879f-5a0c84df8cc7","system_id":"levelo_inurba_marseille","lat":43.322929,"lon":5.382582,"is_reserved":false,"is_disabled":false,"rental_uris":{"android":"levelo://app?vid=62e90e97-975b-4b7d-879f-5a0c84df8cc7","ios":"levelo://app?vid=62e90e97-975b-4b7d-879f-5a0c84df8cc7"},"vehicle_type_id":"4","last_reported":1710965283,"current_range_meters":2800,"station_id":"ce4bhr12rcd13ifvqhqg","pricing_plan_id":"cebpf4jnsgd1na2vs0mg"},{"bike_id":"183f89e5-652b-456d-96f6-2eb9b5cab6e7","system_id":"levelo_inurba_marseille","lat":43.32289,"lon":5.38264,"is_reserved":false,"is_disabled":false,"rental_uris":{"android":"levelo://app?vid=183f89e5-652b-456d-96f6-2eb9b5cab6e7","ios":"levelo://app?vid=183f89e5-652b-456d-96f6-2eb9b5cab6e7"},"vehicle_type_id":"4","last_reported":1710965283,"current_range_meters":20400,"station_id":"ce4bhr12rcd13ifvqhqg","pricing_plan_id":"cebpf4jnsgd1na2vs0mg"},{"bike_id":"3f897b5a-cdff-4477-8cbe-02af1e3040aa","system_id":"levelo_inurba_marseille","lat":43.32288,"lon":5.38268,"is_reserved":false,"is_disabled":false,"rental_uris":{"android":"levelo://app?vid=3f897b5a-cdff-4477-8cbe-02af1e3040aa","ios":"levelo://app?vid=3f897b5a-cdff-4477-8cbe-02af1e3040aa"},"vehicle_type_id":"4","last_reported":1710965283,"current_range_meters":25600,"station_id":"ce4bhr12rcd13ifvqhqg","pricing_plan_id":"cebpf4jnsgd1na2vs0mg"},{"bike_id":"3ff125a5-dff1-4591-b6cc-449dc2424878","system_id":"levelo_inurba_marseille","lat":43.3229,"lon":5.38266,"is_reserved":false,"is_disabled":false,"rental_uris":{"android":"levelo://app?vid=3ff125a5-dff1-4591-b6cc-449dc2424878","ios":"levelo://app?vid=3ff125a5-dff1-4591-b6cc-449dc2424878"},"vehicle_type_id":"4","last_reported":1710965283,"current_range_meters":14000,"station_id":"ce4bhr12rcd13ifvqhqg","pricing_plan_id":"cebpf4jnsgd1na2vs0mg"},{"bike_id":"f32c3800-2880-49c9-b647-144d107e7f9a","system_id":"levelo_inurba_marseille","lat":43.32287,"lon":5.38273,"is_reserved":false,"is_disabled":false,"rental_uris":{"android":"levelo://app?vid=f32c3800-2880-49c9-b647-144d107e7f9a","ios":"levelo://app?vid=f32c3800-2880-49c9-b647-144d107e7f9a"},"vehicle_type_id":"4","last_reported":1710965283,"current_range_meters":21600,"station_id":"ce4bhr12rcd13ifvqhqg","pricing_plan_id":"cebpf4jnsgd1na2vs0mg"},{"bike_id":"91866b6c-0f1d-4595-a374-74c3f3fe3718","system_id":"levelo_inurba_marseille","lat":43.32288,"lon":5.38272,"is_reserved":false,"is_disabled":false,"rental_uris":{"android":"levelo://app?vid=91866b6c-0f1d-4595-a374-74c3f3fe3718","ios":"levelo://app?vid=91866b6c-0f1d-4595-a374-74c3f3fe3718"},"vehicle_type_id":"4","last_reported":1710965283,"current_range_meters":27600,"station_id":"ce4bhr12rcd13ifvqhqg","pricing_plan_id":"cebpf4jnsgd1na2vs0mg"},{"bike_id":"7a6e1e34-499e-43d0-812f-75e422b0fa90","system_id":"levelo_inurba_marseille","lat":43.322872,"lon":5.382756,"is_reserved":false,"is_disabled":false,"rental_uris":{"android":"levelo://app?vid=7a6e1e34-499e-43d0-812f-75e422b0fa90","ios":"levelo://app?vid=7a6e1e34-499e-43d0-812f-75e422b0fa90"},"vehicle_type_id":"4","last_reported":1710965283,"current_range_meters":11600,"station_id":"ce4bhr12rcd13ifvqhqg","pricing_plan_id":"cebpf4jnsgd1na2vs0mg"},{"bike_id":"85d4d71c-b2c1-426a-b0b8-be8461195f7e","system_id":"levelo_inurba_marseille","lat":43.322872,"lon":5.382756,"is_reserved":false,"is_disabled":false,"rental_uris":{"android":"levelo://app?vid=85d4d71c-b2c1-426a-b0b8-be8461195f7e","ios":"levelo://app?vid=85d4d71c-b2c1-426a-b0b8-be8461195f7e"},"vehicle_type_id":"4","last_reported":1710965283,"current_range_meters":31200,"station_id":"ce4bhr12rcd13ifvqhqg","pricing_plan_id":"cebpf4jnsgd1na2vs0mg"},{"bike_id":"fce59515-b65f-4fd7-900f-f5b5f1306799","system_id":"levelo_inurba_marseille","lat":43.322903,"lon":5.38274,"is_reserved":false,"is_disabled":false,"rental_uris":{"android":"levelo://app?vid=fce59515-b65f-4fd7-900f-f5b5f1306799","ios":"levelo://app?vid=fce59515-b65f-4fd7-900f-f5b5f1306799"},"vehicle_type_id":"4","last_reported":1710965283,"current_range_meters":22000,"station_id":"ce4bhr12rcd13ifvqhqg","pricing_plan_id":"cebpf4jnsgd1na2vs0mg"},{"bike_id":"a256d229-a5a5-41a4-8cd4-9c14e8c38553","system_id":"levelo_inurba_marseille","lat":43.32287,"lon":5.38282,"is_reserved":false,"is_disabled":false,"rental_uris":{"android":"levelo://app?vid=a256d229-a5a5-41a4-8cd4-9c14e8c38553","ios":"levelo://app?vid=a256d229-a5a5-41a4-8cd4-9c14e8c38553"},"vehicle_type_id":"4","last_reported":1710965283,"current_range_meters":20000,"station_id":"ce4bhr12rcd13ifvqhqg","pricing_plan_id":"cebpf4jnsgd1na2vs0mg"},{"bike_id":"575af3fb-33bf-4a22-a056-670f8999c1ee","system_id":"levelo_inurba_marseille","lat":43.322872,"lon":5.382756,"is_reserved":false,"is_disabled":false,"rental_uris":{"android":"levelo://app?vid=575af3fb-33bf-4a22-a056-670f8999c1ee","ios":"levelo://app?vid=575af3fb-33bf-4a22-a056-670f8999c1ee"},"vehicle_type_id":"4","last_reported":1710965283,"current_range_meters":31600,"station_id":"ce4bhr12rcd13ifvqhqg","pricing_plan_id":"cebpf4jnsgd1na2vs0mg"},{"bike_id":"f15b0355-2112-4631-980d-d37c34e26c81","system_id":"levelo_inurba_marseille","lat":43.322872,"lon":5.382756,"is_reserved":false,"is_disabled":false,"rental_uris":{"android":"levelo://app?vid=f15b0355-2112-4631-980d-d37c34e26c81","ios":"levelo://app?vid=f15b0355-2112-4631-980d-d37c34e26c81"},"vehicle_type_id":"4","last_reported":1710965283,"current_range_meters":23600,"station_id":"ce4bhr12rcd13ifvqhqg","pricing_plan_id":"cebpf4jnsgd1na2vs0mg"},{"bike_id":"0101811f-2904-4098-b22e-eba997643946","system_id":"levelo_inurba_marseille","lat":43.297163,"lon":5.365866,"is_reserved":false,"is_disabled":false,"rental_uris":{"android":"levelo://app?vid=0101811f-2904-4098-b22e-eba997643946","ios":"levelo://app?vid=0101811f-2904-4098-b22e-eba997643946"},"vehicle_type_id":"4","last_reported":1710965283,"current_range_meters":16400,"station_id":"ce4bgn12rcd13ifvqbt0","pricing_plan_id":"cebpf4jnsgd1na2vs0mg"},{"bike_id":"411f69bd-6029-4e81-afe9-fe385faac392","system_id":"levelo_inurba_marseille","lat":43.31795,"lon":5.38785,"is_reserved":false,"is_disabled":false,"rental_uris":{"android":"levelo://app?vid=411f69bd-6029-4e81-afe9-fe385faac392","ios":"levelo://app?vid=411f69bd-6029-4e81-afe9-fe385faac392"},"vehicle_type_id":"4","last_reported":1710965283,"current_range_meters":17600,"station_id":"","pricing_plan_id":"cebpf4jnsgd1na2vs0mg"},{"bike_id":"0eb28720-4851-4135-b3af-76b432a2117c","system_id":"levelo_inurba_marseille","lat":43.317937,"lon":5.387903,"is_reserved":false,"is_disabled":false,"rental_uris":{"android":"levelo://app?vid=0eb28720-4851-4135-b3af-76b432a2117c","ios":"levelo://app?vid=0eb28720-4851-4135-b3af-76b432a2117c"},"vehicle_type_id":"4","last_reported":1710965283,"current_range_meters":30400,"station_id":"","pricing_plan_id":"cebpf4jnsgd1na2vs0mg"},{"bike_id":"7121d19e-7d4c-4025-b32c-b928cf73d913","system_id":"levelo_inurba_marseille","lat":43.2968,"lon":5.37291,"is_reserved":false,"is_disabled":false,"rental_uris":{"android":"levelo://app?vid=7121d19e-7d4c-4025-b32c-b928cf73d913","ios":"levelo://app?vid=7121d19e-7d4c-4025-b32c-b928cf73d913"},"vehicle_type_id":"4","last_reported":1710965283,"current_range_meters":10800,"station_id":"ce4bgk12rcd13ifvqbj0","pricing_plan_id":"cebpf4jnsgd1na2vs0mg"},{"bike_id":"e85417f0-1e2a-4b6c-9dab-b1be1e806110","system_id":"levelo_inurba_marseille","lat":43.29857,"lon":5.37912,"is_reserved":false,"is_disabled":false,"rental_uris":{"android":"levelo://app?vid=e85417f0-1e2a-4b6c-9dab-b1be1e806110","ios":"levelo://app?vid=e85417f0-1e2a-4b6c-9dab-b1be1e806110"},"vehicle_type_id":"4","last_reported":1710965283,"current_range_meters":31200,"station_id":"","pricing_plan_id":"cebpf4jnsgd1na2vs0mg"},{"bike_id":"e9913cce-f3d4-47be-ac6d-045959ed8af8","system_id":"levelo_inurba_marseille","lat":43.296003,"lon":5.367987,"is_reserved":false,"is_disabled":false,"rental_uris":{"android":"levelo://app?vid=e9913cce-f3d4-47be-ac6d-045959ed8af8","ios":"levelo://app?vid=e9913cce-f3d4-47be-ac6d-045959ed8af8"},"vehicle_type_id":"4","last_reported":1710965283,"current_range_meters":3200,"station_id":"ce4bgph2rcd13ifvqc2g","pricing_plan_id":"cebpf4jnsgd1na2vs0mg"},{"bike_id":"ccd72d97-d35c-4579-b3c1-3604f352fc40","system_id":"levelo_inurba_marseille","lat":43.29573,"lon":5.367355,"is_reserved":false,"is_disabled":false,"rental_uris":{"android":"levelo://app?vid=ccd72d97-d35c-4579-b3c1-3604f352fc40","ios":"levelo://app?vid=ccd72d97-d35c-4579-b3c1-3604f352fc40"},"vehicle_type_id":"4","last_reported":1710965283,"current_range_meters":5600,"station_id":"ce4bgph2rcd13ifvqc2g","pricing_plan_id":"cebpf4jnsgd1na2vs0mg"},{"bike_id":"9845398d-937e-4738-b83c-cd712c4c7735","system_id":"levelo_inurba_marseille","lat":43.29573,"lon":5.367355,"is_reserved":false,"is_disabled":false,"rental_uris":{"android":"levelo://app?vid=9845398d-937e-4738-b83c-cd712c4c7735","ios":"levelo://app?vid=9845398d-937e-4738-b83c-cd712c4c7735"},"vehicle_type_id":"4","last_reported":1710965283,"current_range_meters":10800,"station_id":"ce4bgph2rcd13ifvqc2g","pricing_plan_id":"cebpf4jnsgd1na2vs0mg"},{"bike_id":"54181ff5-7086-4a04-89aa-f484365ed9f1","system_id":"levelo_inurba_marseille","lat":43.29573,"lon":5.367355,"is_reserved":false,"is_disabled":false,"rental_uris":{"android":"levelo://app?vid=54181ff5-7086-4a04-89aa-f484365ed9f1","ios":"levelo://app?vid=54181ff5-7086-4a04-89aa-f484365ed9f1"},"vehicle_type_id":"4","last_reported":1710965283,"current_range_meters":22400,"station_id":"ce4bgph2rcd13ifvqc2g","pricing_plan_id":"cebpf4jnsgd1na2vs0mg"},{"bike_id":"16a95406-208f-4c43-a908-68262ba53191","system_id":"levelo_inurba_marseille","lat":43.29573,"lon":5.367355,"is_reserved":false,"is_disabled":false,"rental_uris":{"android":"levelo://app?vid=16a95406-208f-4c43-a908-68262ba53191","ios":"levelo://app?vid=16a95406-208f-4c43-a908-68262ba53191"},"vehicle_type_id":"4","last_reported":1710965283,"current_range_meters":2400,"station_id":"ce4bgph2rcd13ifvqc2g","pricing_plan_id":"cebpf4jnsgd1na2vs0mg"},{"bike_id":"f936351e-f579-44e5-8f26-67df53707d75","system_id":"levelo_inurba_marseille","lat":43.296921,"lon":5.376579,"is_reserved":false,"is_disabled":false,"rental_uris":{"android":"levelo://app?vid=f936351e-f579-44e5-8f26-67df53707d75","ios":"levelo://app?vid=f936351e-f579-44e5-8f26-67df53707d75"},"vehicle_type_id":"4","last_reported":1710965283,"current_range_meters":23200,"station_id":"ce4bgkh2rcd13ifvqbl0","pricing_plan_id":"cebpf4jnsgd1na2vs0mg"},{"bike_id":"3b3cd188-4ebe-43d3-bd05-30243602cad8","system_id":"levelo_inurba_marseille","lat":43.296935,"lon":5.376544,"is_reserved":false,"is_disabled":false,"rental_uris":{"android":"levelo://app?vid=3b3cd188-4ebe-43d3-bd05-30243602cad8","ios":"levelo://app?vid=3b3cd188-4ebe-43d3-bd05-30243602cad8"},"vehicle_type_id":"4","last_reported":1710965283,"current_range_meters":8400,"station_id":"ce4bgkh2rcd13ifvqbl0","pricing_plan_id":"cebpf4jnsgd1na2vs0mg"},{"bike_id":"c74d5de8-82c7-4747-b3d0-698314ced6aa","system_id":"levelo_inurba_marseille","lat":43.296921,"lon":5.376579,"is_reserved":false,"is_disabled":false,"rental_uris":{"android":"levelo://app?vid=c74d5de8-82c7-4747-b3d0-698314ced6aa","ios":"levelo://app?vid=c74d5de8-82c7-4747-b3d0-698314ced6aa"},"vehicle_type_id":"4","last_reported":1710965283,"current_range_meters":7200,"station_id":"ce4bgkh2rcd13ifvqbl0","pricing_plan_id":"cebpf4jnsgd1na2vs0mg"},{"bike_id":"700f7fa0-9e2b-4bc8-850a-c4d12a64ca8a","system_id":"levelo_inurba_marseille","lat":43.296921,"lon":5.376579,"is_reserved":false,"is_disabled":false,"rental_uris":{"android":"levelo://app?vid=700f7fa0-9e2b-4bc8-850a-c4d12a64ca8a","ios":"levelo://app?vid=700f7fa0-9e2b-4bc8-850a-c4d12a64ca8a"},"vehicle_type_id":"4","last_reported":1710965283,"current_range_meters":12400,"station_id":"ce4bgkh2rcd13ifvqbl0","pricing_plan_id":"cebpf4jnsgd1na2vs0mg"},{"bike_id":"9563ebb2-9240-4d3e-a6cd-45438e1f377b","system_id":"levelo_inurba_marseille","lat":43.299028,"lon":5.381509,"is_reserved":false,"is_disabled":false,"rental_uris":{"android":"levelo://app?vid=9563ebb2-9240-4d3e-a6cd-45438e1f377b","ios":"levelo://app?vid=9563ebb2-9240-4d3e-a6cd-45438e1f377b"},"vehicle_type_id":"4","last_reported":1710965283,"current_range_meters":22000,"station_id":"ce4bgj12rcd13ifvqbc0","pricing_plan_id":"cebpf4jnsgd1na2vs0mg"},{"bike_id":"af3107b2-4200-476b-b000-8476e79f1bf4","system_id":"levelo_inurba_marseille","lat":43.299028,"lon":5.381509,"is_reserved":false,"is_disabled":false,"rental_uris":{"android":"levelo://app?vid=af3107b2-4200-476b-b000-8476e79f1bf4","ios":"levelo://app?vid=af3107b2-4200-476b-b000-8476e79f1bf4"},"vehicle_type_id":"4","last_reported":1710965283,"current_range_meters":26400,"station_id":"ce4bgj12rcd13ifvqbc0","pricing_plan_id":"cebpf4jnsgd1na2vs0mg"},{"bike_id":"e4af0c09-1298-4dd6-b008-bb2895a61fb8","system_id":"levelo_inurba_marseille","lat":43.309589,"lon":5.390258,"is_reserved":false,"is_disabled":false,"rental_uris":{"android":"levelo://app?vid=e4af0c09-1298-4dd6-b008-bb2895a61fb8","ios":"levelo://app?vid=e4af0c09-1298-4dd6-b008-bb2895a61fb8"},"vehicle_type_id":"4","last_reported":1710965283,"current_range_meters":1600,"station_id":"ce4bgup2rcd13ifvqco0","pricing_plan_id":"cebpf4jnsgd1na2vs0mg"},{"bike_id":"4cb6b1d7-4c6a-4b03-9bdd-833c736ab3b8","system_id":"levelo_inurba_marseille","lat":43.30957,"lon":5.39041,"is_reserved":false,"is_disabled":false,"rental_uris":{"android":"levelo://app?vid=4cb6b1d7-4c6a-4b03-9bdd-833c736ab3b8","ios":"levelo://app?vid=4cb6b1d7-4c6a-4b03-9bdd-833c736ab3b8"},"vehicle_type_id":"4","last_reported":1710965283,"current_range_meters":0,"station_id":"ce4bgup2rcd13ifvqco0","pricing_plan_id":"cebpf4jnsgd1na2vs0mg"},{"bike_id":"1de76df7-334b-4e69-b866-99cb406b5ba9","system_id":"levelo_inurba_marseille","lat":43.296935,"lon":5.376544,"is_reserved":false,"is_disabled":false,"rental_uris":{"android":"levelo://app?vid=1de76df7-334b-4e69-b866-99cb406b5ba9","ios":"levelo://app?vid=1de76df7-334b-4e69-b866-99cb406b5ba9"},"vehicle_type_id":"4","last_reported":1710965283,"current_range_meters":0,"station_id":"ce4bgkh2rcd13ifvqbl0","pricing_plan_id":"cebpf4jnsgd1na2vs0mg"},{"bike_id":"36bec338-2565-4a1b-80c8-29dedeeeaebb","system_id":"levelo_inurba_marseille","lat":43.317557,"lon":5.390173,"is_reserved":false,"is_disabled":false,"rental_uris":{"android":"levelo://app?vid=36bec338-2565-4a1b-80c8-29dedeeeaebb","ios":"levelo://app?vid=36bec338-2565-4a1b-80c8-29dedeeeaebb"},"vehicle_type_id":"4","last_reported":1710965283,"current_range_meters":17200,"station_id":"ce4bhqp2rcd13ifvqhng","pricing_plan_id":"cebpf4jnsgd1na2vs0mg"},{"bike_id":"e2a7c663-01e5-46c8-ab3f-6eb0785905ac","system_id":"levelo_inurba_marseille","lat":43.317557,"lon":5.390173,"is_reserved":false,"is_disabled":false,"rental_uris":{"android":"levelo://app?vid=e2a7c663-01e5-46c8-ab3f-6eb0785905ac","ios":"levelo://app?vid=e2a7c663-01e5-46c8-ab3f-6eb0785905ac"},"vehicle_type_id":"4","last_reported":1710965283,"current_range_meters":20400,"station_id":"ce4bhqp2rcd13ifvqhng","pricing_plan_id":"cebpf4jnsgd1na2vs0mg"},{"bike_id":"fe43c0ec-6acb-4a46-b174-423dd9a513b3","system_id":"levelo_inurba_marseille","lat":43.317557,"lon":5.390173,"is_reserved":false,"is_disabled":false,"rental_uris":{"android":"levelo://app?vid=fe43c0ec-6acb-4a46-b174-423dd9a513b3","ios":"levelo://app?vid=fe43c0ec-6acb-4a46-b174-423dd9a513b3"},"vehicle_type_id":"4","last_reported":1710965283,"current_range_meters":9600,"station_id":"ce4bhqp2rcd13ifvqhng","pricing_plan_id":"cebpf4jnsgd1na2vs0mg"},{"bike_id":"ad877fa6-1705-46b3-afb5-9e66766bfc1f","system_id":"levelo_inurba_marseille","lat":43.317557,"lon":5.390173,"is_reserved":false,"is_disabled":false,"rental_uris":{"android":"levelo://app?vid=ad877fa6-1705-46b3-afb5-9e66766bfc1f","ios":"levelo://app?vid=ad877fa6-1705-46b3-afb5-9e66766bfc1f"},"vehicle_type_id":"4","last_reported":1710965283,"current_range_meters":12000,"station_id":"ce4bhqp2rcd13ifvqhng","pricing_plan_id":"cebpf4jnsgd1na2vs0mg"},{"bike_id":"e60e4f05-f586-4e0d-87e7-aeac09f2f1c4","system_id":"levelo_inurba_marseille","lat":43.317557,"lon":5.390173,"is_reserved":false,"is_disabled":false,"rental_uris":{"android":"levelo://app?vid=e60e4f05-f586-4e0d-87e7-aeac09f2f1c4","ios":"levelo://app?vid=e60e4f05-f586-4e0d-87e7-aeac09f2f1c4"},"vehicle_type_id":"4","last_reported":1710965283,"current_range_meters":0,"station_id":"ce4bhqp2rcd13ifvqhng","pricing_plan_id":"cebpf4jnsgd1na2vs0mg"},{"bike_id":"a7936f9f-71c0-4704-adbb-9c0e55004743","system_id":"levelo_inurba_marseille","lat":43.317557,"lon":5.390173,"is_reserved":false,"is_disabled":false,"rental_uris":{"android":"levelo://app?vid=a7936f9f-71c0-4704-adbb-9c0e55004743","ios":"levelo://app?vid=a7936f9f-71c0-4704-adbb-9c0e55004743"},"vehicle_type_id":"4","last_reported":1710965283,"current_range_meters":16800,"station_id":"ce4bhqp2rcd13ifvqhng","pricing_plan_id":"cebpf4jnsgd1na2vs0mg"},{"bike_id":"ce5abcb4-cefa-4ef7-b3b5-71eea159d814","system_id":"levelo_inurba_marseille","lat":43.317557,"lon":5.390173,"is_reserved":false,"is_disabled":false,"rental_uris":{"android":"levelo://app?vid=ce5abcb4-cefa-4ef7-b3b5-71eea159d814","ios":"levelo://app?vid=ce5abcb4-cefa-4ef7-b3b5-71eea159d814"},"vehicle_type_id":"4","last_reported":1710965283,"current_range_meters":6800,"station_id":"ce4bhqp2rcd13ifvqhng","pricing_plan_id":"cebpf4jnsgd1na2vs0mg"},{"bike_id":"caa9ad54-c544-48ce-86c7-66bd7a54a8af","system_id":"levelo_inurba_marseille","lat":43.317557,"lon":5.390173,"is_reserved":false,"is_disabled":false,"rental_uris":{"android":"levelo://app?vid=caa9ad54-c544-48ce-86c7-66bd7a54a8af","ios":"levelo://app?vid=caa9ad54-c544-48ce-86c7-66bd7a54a8af"},"vehicle_type_id":"4","last_reported":1710965283,"current_range_meters":7200,"station_id":"ce4bhqp2rcd13ifvqhng","pricing_plan_id":"cebpf4jnsgd1na2vs0mg"},{"bike_id":"46515374-5184-4073-9785-447380ba9363","system_id":"levelo_inurba_marseille","lat":43.317557,"lon":5.390173,"is_reserved":false,"is_disabled":false,"rental_uris":{"android":"levelo://app?vid=46515374-5184-4073-9785-447380ba9363","ios":"levelo://app?vid=46515374-5184-4073-9785-447380ba9363"},"vehicle_type_id":"4","last_reported":1710965283,"current_range_meters":8000,"station_id":"ce4bhqp2rcd13ifvqhng","pricing_plan_id":"cebpf4jnsgd1na2vs0mg"},{"bike_id":"ca6e0641-0642-4d40-b0af-b10f497ad613","system_id":"levelo_inurba_marseille","lat":43.298037,"lon":5.381066,"is_reserved":false,"is_disabled":false,"rental_uris":{"android":"levelo://app?vid=ca6e0641-0642-4d40-b0af-b10f497ad613","ios":"levelo://app?vid=ca6e0641-0642-4d40-b0af-b10f497ad613"},"vehicle_type_id":"4","last_reported":1710965283,"current_range_meters":19200,"station_id":"ce4bgip2rcd13ifvqbb0","pricing_plan_id":"cebpf4jnsgd1na2vs0mg"},{"bike_id":"025f250a-30cb-47f0-8687-d04f3ca7e1f7","system_id":"levelo_inurba_marseille","lat":43.29586,"lon":5.37511,"is_reserved":false,"is_disabled":false,"rental_uris":{"android":"levelo://app?vid=025f250a-30cb-47f0-8687-d04f3ca7e1f7","ios":"levelo://app?vid=025f250a-30cb-47f0-8687-d04f3ca7e1f7"},"vehicle_type_id":"4","last_reported":1710965283,"current_range_meters":0,"station_id":"ce4bgh92rcd13ifvqb50","pricing_plan_id":"cebpf4jnsgd1na2vs0mg"},{"bike_id":"22f5f29c-7a0e-4d4e-828a-5cb502fef61b","system_id":"levelo_inurba_marseille","lat":43.298037,"lon":5.381066,"is_reserved":false,"is_disabled":false,"rental_uris":{"android":"levelo://app?vid=22f5f29c-7a0e-4d4e-828a-5cb502fef61b","ios":"levelo://app?vid=22f5f29c-7a0e-4d4e-828a-5cb502fef61b"},"vehicle_type_id":"4","last_reported":1710965283,"current_range_meters":5200,"station_id":"ce4bgip2rcd13ifvqbb0","pricing_plan_id":"cebpf4jnsgd1na2vs0mg"},{"bike_id":"8a1b8adf-eca8-45b4-925e-cc88409a7d43","system_id":"levelo_inurba_marseille","lat":43.304274,"lon":5.388873,"is_reserved":false,"is_disabled":false,"rental_uris":{"android":"levelo://app?vid=8a1b8adf-eca8-45b4-925e-cc88409a7d43","ios":"levelo://app?vid=8a1b8adf-eca8-45b4-925e-cc88409a7d43"},"vehicle_type_id":"4","last_reported":1710965283,"current_range_meters":0,"station_id":"ce4bgk12rcd13ifvqbi0","pricing_plan_id":"cebpf4jnsgd1na2vs0mg"},{"bike_id":"9e858a22-f3a1-4aff-809e-221edaedfa56","system_id":"levelo_inurba_marseille","lat":43.295748,"lon":5.37522,"is_reserved":false,"is_disabled":false,"rental_uris":{"android":"levelo://app?vid=9e858a22-f3a1-4aff-809e-221edaedfa56","ios":"levelo://app?vid=9e858a22-f3a1-4aff-809e-221edaedfa56"},"vehicle_type_id":"4","last_reported":1710965283,"current_range_meters":17200,"station_id":"ce4bgh92rcd13ifvqb50","pricing_plan_id":"cebpf4jnsgd1na2vs0mg"},{"bike_id":"fd7c9b4e-e4c8-4bdc-a5c6-5b6540207474","system_id":"levelo_inurba_marseille","lat":43.298037,"lon":5.381066,"is_reserved":false,"is_disabled":false,"rental_uris":{"android":"levelo://app?vid=fd7c9b4e-e4c8-4bdc-a5c6-5b6540207474","ios":"levelo://app?vid=fd7c9b4e-e4c8-4bdc-a5c6-5b6540207474"},"vehicle_type_id":"4","last_reported":1710965283,"current_range_meters":16000,"station_id":"ce4bgip2rcd13ifvqbb0","pricing_plan_id":"cebpf4jnsgd1na2vs0mg"},{"bike_id":"161c52f3-cce4-48b9-9f76-ec156c2297b6","system_id":"levelo_inurba_marseille","lat":43.298037,"lon":5.381066,"is_reserved":false,"is_disabled":false,"rental_uris":{"android":"levelo://app?vid=161c52f3-cce4-48b9-9f76-ec156c2297b6","ios":"levelo://app?vid=161c52f3-cce4-48b9-9f76-ec156c2297b6"},"vehicle_type_id":"4","last_reported":1710965283,"current_range_meters":5600,"station_id":"ce4bgip2rcd13ifvqbb0","pricing_plan_id":"cebpf4jnsgd1na2vs0mg"},{"bike_id":"2edc0795-fccc-47c0-beca-45a4afdfc33b","system_id":"levelo_inurba_marseille","lat":43.295718,"lon":5.37505,"is_reserved":false,"is_disabled":false,"rental_uris":{"android":"levelo://app?vid=2edc0795-fccc-47c0-beca-45a4afdfc33b","ios":"levelo://app?vid=2edc0795-fccc-47c0-beca-45a4afdfc33b"},"vehicle_type_id":"4","last_reported":1710965283,"current_range_meters":0,"station_id":"ce4bgh92rcd13ifvqb50","pricing_plan_id":"cebpf4jnsgd1na2vs0mg"},{"bike_id":"c5ac7b64-fc88-44d0-af70-74b3de378fd2","system_id":"levelo_inurba_marseille","lat":43.295748,"lon":5.37522,"is_reserved":false,"is_disabled":false,"rental_uris":{"android":"levelo://app?vid=c5ac7b64-fc88-44d0-af70-74b3de378fd2","ios":"levelo://app?vid=c5ac7b64-fc88-44d0-af70-74b3de378fd2"},"vehicle_type_id":"4","last_reported":1710965283,"current_range_meters":6400,"station_id":"ce4bgh92rcd13ifvqb50","pricing_plan_id":"cebpf4jnsgd1na2vs0mg"},{"bike_id":"23bef054-53c8-47cb-a767-b83514bd3a8d","system_id":"levelo_inurba_marseille","lat":43.298037,"lon":5.381066,"is_reserved":false,"is_disabled":false,"rental_uris":{"android":"levelo://app?vid=23bef054-53c8-47cb-a767-b83514bd3a8d","ios":"levelo://app?vid=23bef054-53c8-47cb-a767-b83514bd3a8d"},"vehicle_type_id":"4","last_reported":1710965283,"current_range_meters":5600,"station_id":"ce4bgip2rcd13ifvqbb0","pricing_plan_id":"cebpf4jnsgd1na2vs0mg"},{"bike_id":"4e6c40cd-9667-4f69-be87-7b10f33b502d","system_id":"levelo_inurba_marseille","lat":43.304274,"lon":5.388873,"is_reserved":false,"is_disabled":false,"rental_uris":{"android":"levelo://app?vid=4e6c40cd-9667-4f69-be87-7b10f33b502d","ios":"levelo://app?vid=4e6c40cd-9667-4f69-be87-7b10f33b502d"},"vehicle_type_id":"4","last_reported":1710965283,"current_range_meters":0,"station_id":"ce4bgk12rcd13ifvqbi0","pricing_plan_id":"cebpf4jnsgd1na2vs0mg"},{"bike_id":"35e85a87-30cf-41fc-8c56-058a23b082ea","system_id":"levelo_inurba_marseille","lat":43.30436,"lon":5.38886,"is_reserved":false,"is_disabled":false,"rental_uris":{"android":"levelo://app?vid=35e85a87-30cf-41fc-8c56-058a23b082ea","ios":"levelo://app?vid=35e85a87-30cf-41fc-8c56-058a23b082ea"},"vehicle_type_id":"4","last_reported":1710965283,"current_range_meters":0,"station_id":"ce4bgk12rcd13ifvqbi0","pricing_plan_id":"cebpf4jnsgd1na2vs0mg"},{"bike_id":"aaa26adb-7912-428a-a3e8-f957cb95df44","system_id":"levelo_inurba_marseille","lat":43.298037,"lon":5.381066,"is_reserved":false,"is_disabled":false,"rental_uris":{"android":"levelo://app?vid=aaa26adb-7912-428a-a3e8-f957cb95df44","ios":"levelo://app?vid=aaa26adb-7912-428a-a3e8-f957cb95df44"},"vehicle_type_id":"4","last_reported":1710965283,"current_range_meters":18800,"station_id":"ce4bgip2rcd13ifvqbb0","pricing_plan_id":"cebpf4jnsgd1na2vs0mg"},{"bike_id":"85ad2883-e5a1-459c-a92d-2eee3237f311","system_id":"levelo_inurba_marseille","lat":43.304327,"lon":5.388847,"is_reserved":false,"is_disabled":false,"rental_uris":{"android":"levelo://app?vid=85ad2883-e5a1-459c-a92d-2eee3237f311","ios":"levelo://app?vid=85ad2883-e5a1-459c-a92d-2eee3237f311"},"vehicle_type_id":"4","last_reported":1710965283,"current_range_meters":14000,"station_id":"ce4bgk12rcd13ifvqbi0","pricing_plan_id":"cebpf4jnsgd1na2vs0mg"},{"bike_id":"e11e02cb-d73e-4790-a4d3-5b5190dbce92","system_id":"levelo_inurba_marseille","lat":43.304274,"lon":5.388873,"is_reserved":false,"is_disabled":false,"rental_uris":{"android":"levelo://app?vid=e11e02cb-d73e-4790-a4d3-5b5190dbce92","ios":"levelo://app?vid=e11e02cb-d73e-4790-a4d3-5b5190dbce92"},"vehicle_type_id":"4","last_reported":1710965283,"current_range_meters":0,"station_id":"ce4bgk12rcd13ifvqbi0","pricing_plan_id":"cebpf4jnsgd1na2vs0mg"},{"bike_id":"9e2577da-a71b-4ccb-9cef-c58a1f9db946","system_id":"levelo_inurba_marseille","lat":43.304274,"lon":5.388873,"is_reserved":false,"is_disabled":false,"rental_uris":{"android":"levelo://app?vid=9e2577da-a71b-4ccb-9cef-c58a1f9db946","ios":"levelo://app?vid=9e2577da-a71b-4ccb-9cef-c58a1f9db946"},"vehicle_type_id":"4","last_reported":1710965283,"current_range_meters":5200,"station_id":"ce4bgk12rcd13ifvqbi0","pricing_plan_id":"cebpf4jnsgd1na2vs0mg"},{"bike_id":"91d6649a-c2d9-41c8-a25d-854156933a51","system_id":"levelo_inurba_marseille","lat":43.304274,"lon":5.388873,"is_reserved":false,"is_disabled":false,"rental_uris":{"android":"levelo://app?vid=91d6649a-c2d9-41c8-a25d-854156933a51","ios":"levelo://app?vid=91d6649a-c2d9-41c8-a25d-854156933a51"},"vehicle_type_id":"4","last_reported":1710965283,"current_range_meters":25200,"station_id":"ce4bgk12rcd13ifvqbi0","pricing_plan_id":"cebpf4jnsgd1na2vs0mg"},{"bike_id":"22b808e3-8a19-4384-bf41-926a4525c56e","system_id":"levelo_inurba_marseille","lat":43.30432,"lon":5.38889,"is_reserved":false,"is_disabled":false,"rental_uris":{"android":"levelo://app?vid=22b808e3-8a19-4384-bf41-926a4525c56e","ios":"levelo://app?vid=22b808e3-8a19-4384-bf41-926a4525c56e"},"vehicle_type_id":"4","last_reported":1710965283,"current_range_meters":6800,"station_id":"ce4bgk12rcd13ifvqbi0","pricing_plan_id":"cebpf4jnsgd1na2vs0mg"},{"bike_id":"d80ede5c-bcca-4227-a85a-cf39a145569c","system_id":"levelo_inurba_marseille","lat":43.304274,"lon":5.388873,"is_reserved":false,"is_disabled":false,"rental_uris":{"android":"levelo://app?vid=d80ede5c-bcca-4227-a85a-cf39a145569c","ios":"levelo://app?vid=d80ede5c-bcca-4227-a85a-cf39a145569c"},"vehicle_type_id":"4","last_reported":1710965283,"current_range_meters":20800,"station_id":"ce4bgk12rcd13ifvqbi0","pricing_plan_id":"cebpf4jnsgd1na2vs0mg"},{"bike_id":"11bd2a2f-0398-484e-98dc-fd92f205ebc1","system_id":"levelo_inurba_marseille","lat":43.298037,"lon":5.381066,"is_reserved":false,"is_disabled":false,"rental_uris":{"android":"levelo://app?vid=11bd2a2f-0398-484e-98dc-fd92f205ebc1","ios":"levelo://app?vid=11bd2a2f-0398-484e-98dc-fd92f205ebc1"},"vehicle_type_id":"4","last_reported":1710965283,"current_range_meters":29600,"station_id":"ce4bgip2rcd13ifvqbb0","pricing_plan_id":"cebpf4jnsgd1na2vs0mg"},{"bike_id":"173e22ce-7fa9-48a5-9062-b0d5356b5dd8","system_id":"levelo_inurba_marseille","lat":43.298037,"lon":5.381066,"is_reserved":false,"is_disabled":false,"rental_uris":{"android":"levelo://app?vid=173e22ce-7fa9-48a5-9062-b0d5356b5dd8","ios":"levelo://app?vid=173e22ce-7fa9-48a5-9062-b0d5356b5dd8"},"vehicle_type_id":"4","last_reported":1710965283,"current_range_meters":14800,"station_id":"ce4bgip2rcd13ifvqbb0","pricing_plan_id":"cebpf4jnsgd1na2vs0mg"},{"bike_id":"d91bc28d-5fc6-41cd-8aff-df813a9864b5","system_id":"levelo_inurba_marseille","lat":43.298037,"lon":5.381066,"is_reserved":false,"is_disabled":false,"rental_uris":{"android":"levelo://app?vid=d91bc28d-5fc6-41cd-8aff-df813a9864b5","ios":"levelo://app?vid=d91bc28d-5fc6-41cd-8aff-df813a9864b5"},"vehicle_type_id":"4","last_reported":1710965283,"current_range_meters":10000,"station_id":"ce4bgip2rcd13ifvqbb0","pricing_plan_id":"cebpf4jnsgd1na2vs0mg"},{"bike_id":"966979b6-3c23-4a99-8603-216c8ea20e18","system_id":"levelo_inurba_marseille","lat":43.29624,"lon":5.37715,"is_reserved":false,"is_disabled":false,"rental_uris":{"android":"levelo://app?vid=966979b6-3c23-4a99-8603-216c8ea20e18","ios":"levelo://app?vid=966979b6-3c23-4a99-8603-216c8ea20e18"},"vehicle_type_id":"4","last_reported":1710965283,"current_range_meters":6400,"station_id":"ce4bgi92rcd13ifvqb90","pricing_plan_id":"cebpf4jnsgd1na2vs0mg"},{"bike_id":"edbd8d16-af0a-426c-ae41-a3677ef13e26","system_id":"levelo_inurba_marseille","lat":43.30433,"lon":5.38898,"is_reserved":false,"is_disabled":false,"rental_uris":{"android":"levelo://app?vid=edbd8d16-af0a-426c-ae41-a3677ef13e26","ios":"levelo://app?vid=edbd8d16-af0a-426c-ae41-a3677ef13e26"},"vehicle_type_id":"4","last_reported":1710965283,"current_range_meters":20800,"station_id":"ce4bgk12rcd13ifvqbi0","pricing_plan_id":"cebpf4jnsgd1na2vs0mg"},{"bike_id":"f976af9b-8b4f-4581-afa4-00a9eae396ef","system_id":"levelo_inurba_marseille","lat":43.296263,"lon":5.377094,"is_reserved":false,"is_disabled":false,"rental_uris":{"android":"levelo://app?vid=f976af9b-8b4f-4581-afa4-00a9eae396ef","ios":"levelo://app?vid=f976af9b-8b4f-4581-afa4-00a9eae396ef"},"vehicle_type_id":"4","last_reported":1710965283,"current_range_meters":5600,"station_id":"ce4bgi92rcd13ifvqb90","pricing_plan_id":"cebpf4jnsgd1na2vs0mg"},{"bike_id":"b2ed1f3d-8493-4adb-973f-bd159334052a","system_id":"levelo_inurba_marseille","lat":43.296263,"lon":5.377094,"is_reserved":false,"is_disabled":false,"rental_uris":{"android":"levelo://app?vid=b2ed1f3d-8493-4adb-973f-bd159334052a","ios":"levelo://app?vid=b2ed1f3d-8493-4adb-973f-bd159334052a"},"vehicle_type_id":"4","last_reported":1710965283,"current_range_meters":17600,"station_id":"ce4bgi92rcd13ifvqb90","pricing_plan_id":"cebpf4jnsgd1na2vs0mg"},{"bike_id":"193d8368-ae58-42d1-9ef2-df690ad89e32","system_id":"levelo_inurba_marseille","lat":43.304277,"lon":5.389051,"is_reserved":false,"is_disabled":false,"rental_uris":{"android":"levelo://app?vid=193d8368-ae58-42d1-9ef2-df690ad89e32","ios":"levelo://app?vid=193d8368-ae58-42d1-9ef2-df690ad89e32"},"vehicle_type_id":"4","last_reported":1710965283,"current_range_meters":0,"station_id":"ce4bgk12rcd13ifvqbi0","pricing_plan_id":"cebpf4jnsgd1na2vs0mg"},{"bike_id":"77e45d43-0c5d-469b-9808-2c6fdba5d50c","system_id":"levelo_inurba_marseille","lat":43.29986,"lon":5.38464,"is_reserved":false,"is_disabled":false,"rental_uris":{"android":"levelo://app?vid=77e45d43-0c5d-469b-9808-2c6fdba5d50c","ios":"levelo://app?vid=77e45d43-0c5d-469b-9808-2c6fdba5d50c"},"vehicle_type_id":"4","last_reported":1710965283,"current_range_meters":3200,"station_id":"ce4bgj92rcd13ifvqbd0","pricing_plan_id":"cebpf4jnsgd1na2vs0mg"},{"bike_id":"246773ba-f404-4919-bc59-04786100e211","system_id":"levelo_inurba_marseille","lat":43.299783,"lon":5.384875,"is_reserved":false,"is_disabled":false,"rental_uris":{"android":"levelo://app?vid=246773ba-f404-4919-bc59-04786100e211","ios":"levelo://app?vid=246773ba-f404-4919-bc59-04786100e211"},"vehicle_type_id":"4","last_reported":1710965283,"current_range_meters":20400,"station_id":"ce4bgj92rcd13ifvqbd0","pricing_plan_id":"cebpf4jnsgd1na2vs0mg"},{"bike_id":"8358a533-624e-4ee3-b4db-6ba27ff534fd","system_id":"levelo_inurba_marseille","lat":43.2952,"lon":5.37457,"is_reserved":false,"is_disabled":false,"rental_uris":{"android":"levelo://app?vid=8358a533-624e-4ee3-b4db-6ba27ff534fd","ios":"levelo://app?vid=8358a533-624e-4ee3-b4db-6ba27ff534fd"},"vehicle_type_id":"4","last_reported":1710965283,"current_range_meters":5600,"station_id":"ce4bgkp2rcd13ifvqbmg","pricing_plan_id":"cebpf4jnsgd1na2vs0mg"},{"bike_id":"452c0d51-dcae-48a8-9abc-6a9519f24498","system_id":"levelo_inurba_marseille","lat":43.29977,"lon":5.38489,"is_reserved":false,"is_disabled":false,"rental_uris":{"android":"levelo://app?vid=452c0d51-dcae-48a8-9abc-6a9519f24498","ios":"levelo://app?vid=452c0d51-dcae-48a8-9abc-6a9519f24498"},"vehicle_type_id":"4","last_reported":1710965283,"current_range_meters":30000,"station_id":"ce4bgj92rcd13ifvqbd0","pricing_plan_id":"cebpf4jnsgd1na2vs0mg"},{"bike_id":"b32ea662-9897-49af-a47d-c8ca46790935","system_id":"levelo_inurba_marseille","lat":43.29979,"lon":5.38494,"is_reserved":false,"is_disabled":false,"rental_uris":{"android":"levelo://app?vid=b32ea662-9897-49af-a47d-c8ca46790935","ios":"levelo://app?vid=b32ea662-9897-49af-a47d-c8ca46790935"},"vehicle_type_id":"4","last_reported":1710965283,"current_range_meters":9600,"station_id":"ce4bgj92rcd13ifvqbd0","pricing_plan_id":"cebpf4jnsgd1na2vs0mg"},{"bike_id":"8c763531-f036-4836-a624-1d16cc6f6c01","system_id":"levelo_inurba_marseille","lat":43.29974,"lon":5.38489,"is_reserved":false,"is_disabled":false,"rental_uris":{"android":"levelo://app?vid=8c763531-f036-4836-a624-1d16cc6f6c01","ios":"levelo://app?vid=8c763531-f036-4836-a624-1d16cc6f6c01"},"vehicle_type_id":"4","last_reported":1710965283,"current_range_meters":20000,"station_id":"ce4bgj92rcd13ifvqbd0","pricing_plan_id":"cebpf4jnsgd1na2vs0mg"},{"bike_id":"10686fd7-0e31-436f-a627-b3511e0b4dc7","system_id":"levelo_inurba_marseille","lat":43.299707,"lon":5.384859,"is_reserved":false,"is_disabled":false,"rental_uris":{"android":"levelo://app?vid=10686fd7-0e31-436f-a627-b3511e0b4dc7","ios":"levelo://app?vid=10686fd7-0e31-436f-a627-b3511e0b4dc7"},"vehicle_type_id":"4","last_reported":1710965283,"current_range_meters":28000,"station_id":"ce4bgj92rcd13ifvqbd0","pricing_plan_id":"cebpf4jnsgd1na2vs0mg"},{"bike_id":"76b35381-6b84-479d-8d6d-c3fe64536fd0","system_id":"levelo_inurba_marseille","lat":43.29974,"lon":5.38491,"is_reserved":false,"is_disabled":false,"rental_uris":{"android":"levelo://app?vid=76b35381-6b84-479d-8d6d-c3fe64536fd0","ios":"levelo://app?vid=76b35381-6b84-479d-8d6d-c3fe64536fd0"},"vehicle_type_id":"4","last_reported":1710965283,"current_range_meters":31200,"station_id":"ce4bgj92rcd13ifvqbd0","pricing_plan_id":"cebpf4jnsgd1na2vs0mg"},{"bike_id":"0e41d00e-0aee-47b7-9c97-9898e070cded","system_id":"levelo_inurba_marseille","lat":43.29971,"lon":5.38488,"is_reserved":false,"is_disabled":false,"rental_uris":{"android":"levelo://app?vid=0e41d00e-0aee-47b7-9c97-9898e070cded","ios":"levelo://app?vid=0e41d00e-0aee-47b7-9c97-9898e070cded"},"vehicle_type_id":"4","last_reported":1710965283,"current_range_meters":4400,"station_id":"ce4bgj92rcd13ifvqbd0","pricing_plan_id":"cebpf4jnsgd1na2vs0mg"},{"bike_id":"2ac9d545-4fc5-40ed-b9f9-d5eb800dc019","system_id":"levelo_inurba_marseille","lat":43.29977,"lon":5.385,"is_reserved":false,"is_disabled":false,"rental_uris":{"android":"levelo://app?vid=2ac9d545-4fc5-40ed-b9f9-d5eb800dc019","ios":"levelo://app?vid=2ac9d545-4fc5-40ed-b9f9-d5eb800dc019"},"vehicle_type_id":"4","last_reported":1710965283,"current_range_meters":31200,"station_id":"ce4bgj92rcd13ifvqbd0","pricing_plan_id":"cebpf4jnsgd1na2vs0mg"},{"bike_id":"bf90cc8c-dfd4-4060-9ca8-ebc1bd0099a1","system_id":"levelo_inurba_marseille","lat":43.299724,"lon":5.384848,"is_reserved":false,"is_disabled":false,"rental_uris":{"android":"levelo://app?vid=bf90cc8c-dfd4-4060-9ca8-ebc1bd0099a1","ios":"levelo://app?vid=bf90cc8c-dfd4-4060-9ca8-ebc1bd0099a1"},"vehicle_type_id":"4","last_reported":1710965283,"current_range_meters":20400,"station_id":"ce4bgj92rcd13ifvqbd0","pricing_plan_id":"cebpf4jnsgd1na2vs0mg"},{"bike_id":"8b53724a-18b5-482f-a36c-e1747970f310","system_id":"levelo_inurba_marseille","lat":43.299707,"lon":5.384859,"is_reserved":false,"is_disabled":false,"rental_uris":{"android":"levelo://app?vid=8b53724a-18b5-482f-a36c-e1747970f310","ios":"levelo://app?vid=8b53724a-18b5-482f-a36c-e1747970f310"},"vehicle_type_id":"4","last_reported":1710965283,"current_range_meters":25200,"station_id":"ce4bgj92rcd13ifvqbd0","pricing_plan_id":"cebpf4jnsgd1na2vs0mg"},{"bike_id":"2483faa6-dbe8-4e26-ae8a-d7acf2d7ee9c","system_id":"levelo_inurba_marseille","lat":43.29972,"lon":5.38503,"is_reserved":false,"is_disabled":false,"rental_uris":{"android":"levelo://app?vid=2483faa6-dbe8-4e26-ae8a-d7acf2d7ee9c","ios":"levelo://app?vid=2483faa6-dbe8-4e26-ae8a-d7acf2d7ee9c"},"vehicle_type_id":"4","last_reported":1710965283,"current_range_meters":12000,"station_id":"ce4bgj92rcd13ifvqbd0","pricing_plan_id":"cebpf4jnsgd1na2vs0mg"},{"bike_id":"a5a3753a-ca38-43df-a570-eb39d20ed9ed","system_id":"levelo_inurba_marseille","lat":43.29968,"lon":5.38511,"is_reserved":false,"is_disabled":false,"rental_uris":{"android":"levelo://app?vid=a5a3753a-ca38-43df-a570-eb39d20ed9ed","ios":"levelo://app?vid=a5a3753a-ca38-43df-a570-eb39d20ed9ed"},"vehicle_type_id":"4","last_reported":1710965283,"current_range_meters":20400,"station_id":"ce4bgj92rcd13ifvqbd0","pricing_plan_id":"cebpf4jnsgd1na2vs0mg"},{"bike_id":"617b0e6f-676e-40f0-bbaf-c9395e5b4dcd","system_id":"levelo_inurba_marseille","lat":43.31444,"lon":5.39281,"is_reserved":false,"is_disabled":false,"rental_uris":{"android":"levelo://app?vid=617b0e6f-676e-40f0-bbaf-c9395e5b4dcd","ios":"levelo://app?vid=617b0e6f-676e-40f0-bbaf-c9395e5b4dcd"},"vehicle_type_id":"4","last_reported":1710965283,"current_range_meters":23600,"station_id":"","pricing_plan_id":"cebpf4jnsgd1na2vs0mg"},{"bike_id":"b4471fdd-b50b-42ae-ad58-4fbb3d0be6ad","system_id":"levelo_inurba_marseille","lat":43.29507,"lon":5.37623,"is_reserved":false,"is_disabled":false,"rental_uris":{"android":"levelo://app?vid=b4471fdd-b50b-42ae-ad58-4fbb3d0be6ad","ios":"levelo://app?vid=b4471fdd-b50b-42ae-ad58-4fbb3d0be6ad"},"vehicle_type_id":"4","last_reported":1710965283,"current_range_meters":12800,"station_id":"","pricing_plan_id":"cebpf4jnsgd1na2vs0mg"},{"bike_id":"4388708f-f465-4dd9-9120-9f4bdae9d416","system_id":"levelo_inurba_marseille","lat":43.322283,"lon":5.38971,"is_reserved":false,"is_disabled":false,"rental_uris":{"android":"levelo://app?vid=4388708f-f465-4dd9-9120-9f4bdae9d416","ios":"levelo://app?vid=4388708f-f465-4dd9-9120-9f4bdae9d416"},"vehicle_type_id":"4","last_reported":1710965283,"current_range_meters":6000,"station_id":"","pricing_plan_id":"cebpf4jnsgd1na2vs0mg"},{"bike_id":"c1ddfa93-1c2b-4c93-9b7e-27d323eae885","system_id":"levelo_inurba_marseille","lat":43.32365,"lon":5.38877,"is_reserved":false,"is_disabled":false,"rental_uris":{"android":"levelo://app?vid=c1ddfa93-1c2b-4c93-9b7e-27d323eae885","ios":"levelo://app?vid=c1ddfa93-1c2b-4c93-9b7e-27d323eae885"},"vehicle_type_id":"4","last_reported":1710965283,"current_range_meters":400,"station_id":"ce4bhqp2rcd13ifvqhog","pricing_plan_id":"cebpf4jnsgd1na2vs0mg"},{"bike_id":"576966bc-fe06-4a37-8ac5-8dfdb56cfdc7","system_id":"levelo_inurba_marseille","lat":43.32367,"lon":5.38878,"is_reserved":false,"is_disabled":false,"rental_uris":{"android":"levelo://app?vid=576966bc-fe06-4a37-8ac5-8dfdb56cfdc7","ios":"levelo://app?vid=576966bc-fe06-4a37-8ac5-8dfdb56cfdc7"},"vehicle_type_id":"4","last_reported":1710965283,"current_range_meters":22000,"station_id":"ce4bhqp2rcd13ifvqhog","pricing_plan_id":"cebpf4jnsgd1na2vs0mg"},{"bike_id":"d1c473ef-8f57-4a45-a518-f2821a73640e","system_id":"levelo_inurba_marseille","lat":43.323632,"lon":5.388819,"is_reserved":false,"is_disabled":false,"rental_uris":{"android":"levelo://app?vid=d1c473ef-8f57-4a45-a518-f2821a73640e","ios":"levelo://app?vid=d1c473ef-8f57-4a45-a518-f2821a73640e"},"vehicle_type_id":"4","last_reported":1710965283,"current_range_meters":9200,"station_id":"ce4bhqp2rcd13ifvqhog","pricing_plan_id":"cebpf4jnsgd1na2vs0mg"},{"bike_id":"1ff02ba1-73ab-4e30-ace5-f210683ab2a0","system_id":"levelo_inurba_marseille","lat":43.32369,"lon":5.38881,"is_reserved":false,"is_disabled":false,"rental_uris":{"android":"levelo://app?vid=1ff02ba1-73ab-4e30-ace5-f210683ab2a0","ios":"levelo://app?vid=1ff02ba1-73ab-4e30-ace5-f210683ab2a0"},"vehicle_type_id":"4","last_reported":1710965283,"current_range_meters":20400,"station_id":"ce4bhqp2rcd13ifvqhog","pricing_plan_id":"cebpf4jnsgd1na2vs0mg"},{"bike_id":"9b43ae9f-97c3-4da0-938b-50afec46d2a5","system_id":"levelo_inurba_marseille","lat":43.32371,"lon":5.38883,"is_reserved":false,"is_disabled":false,"rental_uris":{"android":"levelo://app?vid=9b43ae9f-97c3-4da0-938b-50afec46d2a5","ios":"levelo://app?vid=9b43ae9f-97c3-4da0-938b-50afec46d2a5"},"vehicle_type_id":"4","last_reported":1710965283,"current_range_meters":12800,"station_id":"ce4bhqp2rcd13ifvqhog","pricing_plan_id":"cebpf4jnsgd1na2vs0mg"},{"bike_id":"8c5a09a7-6627-40b5-958f-7a7763e76ce2","system_id":"levelo_inurba_marseille","lat":43.3237,"lon":5.38884,"is_reserved":false,"is_disabled":false,"rental_uris":{"android":"levelo://app?vid=8c5a09a7-6627-40b5-958f-7a7763e76ce2","ios":"levelo://app?vid=8c5a09a7-6627-40b5-958f-7a7763e76ce2"},"vehicle_type_id":"4","last_reported":1710965283,"current_range_meters":10000,"station_id":"ce4bhqp2rcd13ifvqhog","pricing_plan_id":"cebpf4jnsgd1na2vs0mg"},{"bike_id":"9a76c06c-1b70-4f20-ab2d-d3281463a57c","system_id":"levelo_inurba_marseille","lat":43.32368,"lon":5.38887,"is_reserved":false,"is_disabled":false,"rental_uris":{"android":"levelo://app?vid=9a76c06c-1b70-4f20-ab2d-d3281463a57c","ios":"levelo://app?vid=9a76c06c-1b70-4f20-ab2d-d3281463a57c"},"vehicle_type_id":"4","last_reported":1710965283,"current_range_meters":13200,"station_id":"ce4bhqp2rcd13ifvqhog","pricing_plan_id":"cebpf4jnsgd1na2vs0mg"},{"bike_id":"88c09819-0132-49e1-a848-b83c3e55111a","system_id":"levelo_inurba_marseille","lat":43.32367,"lon":5.388836,"is_reserved":false,"is_disabled":false,"rental_uris":{"android":"levelo://app?vid=88c09819-0132-49e1-a848-b83c3e55111a","ios":"levelo://app?vid=88c09819-0132-49e1-a848-b83c3e55111a"},"vehicle_type_id":"4","last_reported":1710965283,"current_range_meters":16000,"station_id":"ce4bhqp2rcd13ifvqhog","pricing_plan_id":"cebpf4jnsgd1na2vs0mg"},{"bike_id":"77d915da-b00f-431f-9fb4-10a630781629","system_id":"levelo_inurba_marseille","lat":43.32371,"lon":5.38886,"is_reserved":false,"is_disabled":false,"rental_uris":{"android":"levelo://app?vid=77d915da-b00f-431f-9fb4-10a630781629","ios":"levelo://app?vid=77d915da-b00f-431f-9fb4-10a630781629"},"vehicle_type_id":"4","last_reported":1710965283,"current_range_meters":17200,"station_id":"ce4bhqp2rcd13ifvqhog","pricing_plan_id":"cebpf4jnsgd1na2vs0mg"},{"bike_id":"e37c32ea-6d8c-404c-81bf-a340e415fa51","system_id":"levelo_inurba_marseille","lat":43.32367,"lon":5.388836,"is_reserved":false,"is_disabled":false,"rental_uris":{"android":"levelo://app?vid=e37c32ea-6d8c-404c-81bf-a340e415fa51","ios":"levelo://app?vid=e37c32ea-6d8c-404c-81bf-a340e415fa51"},"vehicle_type_id":"4","last_reported":1710965283,"current_range_meters":22400,"station_id":"ce4bhqp2rcd13ifvqhog","pricing_plan_id":"cebpf4jnsgd1na2vs0mg"},{"bike_id":"26c32cc7-d39e-4fc4-a43e-de6013a6a9d5","system_id":"levelo_inurba_marseille","lat":43.298764,"lon":5.388973,"is_reserved":false,"is_disabled":false,"rental_uris":{"android":"levelo://app?vid=26c32cc7-d39e-4fc4-a43e-de6013a6a9d5","ios":"levelo://app?vid=26c32cc7-d39e-4fc4-a43e-de6013a6a9d5"},"vehicle_type_id":"4","last_reported":1710965283,"current_range_meters":7200,"station_id":"ce4bh392rcd13ifvqdl0","pricing_plan_id":"cebpf4jnsgd1na2vs0mg"},{"bike_id":"80eb6f3c-7dad-4186-9ec8-bba5dd0c9f98","system_id":"levelo_inurba_marseille","lat":43.32365,"lon":5.389,"is_reserved":false,"is_disabled":false,"rental_uris":{"android":"levelo://app?vid=80eb6f3c-7dad-4186-9ec8-bba5dd0c9f98","ios":"levelo://app?vid=80eb6f3c-7dad-4186-9ec8-bba5dd0c9f98"},"vehicle_type_id":"4","last_reported":1710965283,"current_range_meters":22800,"station_id":"ce4bhqp2rcd13ifvqhog","pricing_plan_id":"cebpf4jnsgd1na2vs0mg"},{"bike_id":"f79acb19-b963-4546-8c55-8bb05e41d694","system_id":"levelo_inurba_marseille","lat":43.29602,"lon":5.381084,"is_reserved":false,"is_disabled":false,"rental_uris":{"android":"levelo://app?vid=f79acb19-b963-4546-8c55-8bb05e41d694","ios":"levelo://app?vid=f79acb19-b963-4546-8c55-8bb05e41d694"},"vehicle_type_id":"4","last_reported":1710965283,"current_range_meters":22400,"station_id":"ce4bgl12rcd13ifvqbo0","pricing_plan_id":"cebpf4jnsgd1na2vs0mg"},{"bike_id":"1f20446f-bdcd-45be-a88c-906ca0a8b06a","system_id":"levelo_inurba_marseille","lat":43.29602,"lon":5.381084,"is_reserved":false,"is_disabled":false,"rental_uris":{"android":"levelo://app?vid=1f20446f-bdcd-45be-a88c-906ca0a8b06a","ios":"levelo://app?vid=1f20446f-bdcd-45be-a88c-906ca0a8b06a"},"vehicle_type_id":"4","last_reported":1710965283,"current_range_meters":16800,"station_id":"ce4bgl12rcd13ifvqbo0","pricing_plan_id":"cebpf4jnsgd1na2vs0mg"},{"bike_id":"4d831f12-0c3f-4c69-ad72-846265dbde46","system_id":"levelo_inurba_marseille","lat":43.29601,"lon":5.381084,"is_reserved":false,"is_disabled":false,"rental_uris":{"android":"levelo://app?vid=4d831f12-0c3f-4c69-ad72-846265dbde46","ios":"levelo://app?vid=4d831f12-0c3f-4c69-ad72-846265dbde46"},"vehicle_type_id":"4","last_reported":1710965283,"current_range_meters":4400,"station_id":"ce4bgl12rcd13ifvqbo0","pricing_plan_id":"cebpf4jnsgd1na2vs0mg"},{"bike_id":"7f12af2a-d9c6-4261-ab34-c6d6346e35a8","system_id":"levelo_inurba_marseille","lat":43.29602,"lon":5.381084,"is_reserved":false,"is_disabled":false,"rental_uris":{"android":"levelo://app?vid=7f12af2a-d9c6-4261-ab34-c6d6346e35a8","ios":"levelo://app?vid=7f12af2a-d9c6-4261-ab34-c6d6346e35a8"},"vehicle_type_id":"4","last_reported":1710965283,"current_range_meters":27600,"station_id":"ce4bgl12rcd13ifvqbo0","pricing_plan_id":"cebpf4jnsgd1na2vs0mg"},{"bike_id":"62f41b1b-48e3-4614-9dee-004a59eccf3a","system_id":"levelo_inurba_marseille","lat":43.30591,"lon":5.39261,"is_reserved":false,"is_disabled":false,"rental_uris":{"android":"levelo://app?vid=62f41b1b-48e3-4614-9dee-004a59eccf3a","ios":"levelo://app?vid=62f41b1b-48e3-4614-9dee-004a59eccf3a"},"vehicle_type_id":"4","last_reported":1710965283,"current_range_meters":0,"station_id":"","pricing_plan_id":"cebpf4jnsgd1na2vs0mg"},{"bike_id":"00c63019-97a6-41be-97b3-8ae53978efed","system_id":"levelo_inurba_marseille","lat":43.293259,"lon":5.371586,"is_reserved":false,"is_disabled":false,"rental_uris":{"android":"levelo://app?vid=00c63019-97a6-41be-97b3-8ae53978efed","ios":"levelo://app?vid=00c63019-97a6-41be-97b3-8ae53978efed"},"vehicle_type_id":"4","last_reported":1710965283,"current_range_meters":30800,"station_id":"ce4bgh92rcd13ifvqb40","pricing_plan_id":"cebpf4jnsgd1na2vs0mg"},{"bike_id":"6c7fef70-3607-4e11-8e49-a1de3b89ecec","system_id":"levelo_inurba_marseille","lat":43.293259,"lon":5.371586,"is_reserved":false,"is_disabled":false,"rental_uris":{"android":"levelo://app?vid=6c7fef70-3607-4e11-8e49-a1de3b89ecec","ios":"levelo://app?vid=6c7fef70-3607-4e11-8e49-a1de3b89ecec"},"vehicle_type_id":"4","last_reported":1710965283,"current_range_meters":14400,"station_id":"ce4bgh92rcd13ifvqb40","pricing_plan_id":"cebpf4jnsgd1na2vs0mg"},{"bike_id":"f6955b7c-ee91-4d49-95c2-f249818a25ae","system_id":"levelo_inurba_marseille","lat":43.293009,"lon":5.374584,"is_reserved":false,"is_disabled":false,"rental_uris":{"android":"levelo://app?vid=f6955b7c-ee91-4d49-95c2-f249818a25ae","ios":"levelo://app?vid=f6955b7c-ee91-4d49-95c2-f249818a25ae"},"vehicle_type_id":"4","last_reported":1710965283,"current_range_meters":0,"station_id":"ce4bgi12rcd13ifvqb70","pricing_plan_id":"cebpf4jnsgd1na2vs0mg"},{"bike_id":"8d7866f0-bf26-4878-9af5-bda0d326b93e","system_id":"levelo_inurba_marseille","lat":43.305994,"lon":5.393687,"is_reserved":false,"is_disabled":false,"rental_uris":{"android":"levelo://app?vid=8d7866f0-bf26-4878-9af5-bda0d326b93e","ios":"levelo://app?vid=8d7866f0-bf26-4878-9af5-bda0d326b93e"},"vehicle_type_id":"4","last_reported":1710965283,"current_range_meters":17200,"station_id":"ce4bh0p2rcd13ifvqd80","pricing_plan_id":"cebpf4jnsgd1na2vs0mg"},{"bike_id":"1d17d727-b520-4450-8ccb-d7fcbbee9d3e","system_id":"levelo_inurba_marseille","lat":43.305994,"lon":5.393687,"is_reserved":false,"is_disabled":false,"rental_uris":{"android":"levelo://app?vid=1d17d727-b520-4450-8ccb-d7fcbbee9d3e","ios":"levelo://app?vid=1d17d727-b520-4450-8ccb-d7fcbbee9d3e"},"vehicle_type_id":"4","last_reported":1710965283,"current_range_meters":0,"station_id":"ce4bh0p2rcd13ifvqd80","pricing_plan_id":"cebpf4jnsgd1na2vs0mg"},{"bike_id":"c67d5229-093e-421d-a2fa-0b421b3a65f1","system_id":"levelo_inurba_marseille","lat":43.305994,"lon":5.393687,"is_reserved":false,"is_disabled":false,"rental_uris":{"android":"levelo://app?vid=c67d5229-093e-421d-a2fa-0b421b3a65f1","ios":"levelo://app?vid=c67d5229-093e-421d-a2fa-0b421b3a65f1"},"vehicle_type_id":"4","last_reported":1710965283,"current_range_meters":13600,"station_id":"ce4bh0p2rcd13ifvqd80","pricing_plan_id":"cebpf4jnsgd1na2vs0mg"},{"bike_id":"57bf510a-38d8-4f3f-9eba-457c28b4f725","system_id":"levelo_inurba_marseille","lat":43.2936,"lon":5.37835,"is_reserved":false,"is_disabled":false,"rental_uris":{"android":"levelo://app?vid=57bf510a-38d8-4f3f-9eba-457c28b4f725","ios":"levelo://app?vid=57bf510a-38d8-4f3f-9eba-457c28b4f725"},"vehicle_type_id":"4","last_reported":1710965283,"current_range_meters":20000,"station_id":"ce4bgjh2rcd13ifvqbf0","pricing_plan_id":"cebpf4jnsgd1na2vs0mg"},{"bike_id":"e2d11a2f-ed1e-4a76-8dad-b55cac0bc341","system_id":"levelo_inurba_marseille","lat":43.296921,"lon":5.376579,"is_reserved":false,"is_disabled":false,"rental_uris":{"android":"levelo://app?vid=e2d11a2f-ed1e-4a76-8dad-b55cac0bc341","ios":"levelo://app?vid=e2d11a2f-ed1e-4a76-8dad-b55cac0bc341"},"vehicle_type_id":"4","last_reported":1710965283,"current_range_meters":0,"station_id":"ce4bgkh2rcd13ifvqbl0","pricing_plan_id":"cebpf4jnsgd1na2vs0mg"},{"bike_id":"f7915e1c-7eee-4183-9938-5eada7b4b146","system_id":"levelo_inurba_marseille","lat":43.30289,"lon":5.39197,"is_reserved":false,"is_disabled":false,"rental_uris":{"android":"levelo://app?vid=f7915e1c-7eee-4183-9938-5eada7b4b146","ios":"levelo://app?vid=f7915e1c-7eee-4183-9938-5eada7b4b146"},"vehicle_type_id":"4","last_reported":1710965283,"current_range_meters":5600,"station_id":"ce4bgkh2rcd13ifvqbk0","pricing_plan_id":"cebpf4jnsgd1na2vs0mg"},{"bike_id":"1c8d832b-9c08-45d3-a08e-9467501c2a5d","system_id":"levelo_inurba_marseille","lat":43.300852,"lon":5.390859,"is_reserved":false,"is_disabled":false,"rental_uris":{"android":"levelo://app?vid=1c8d832b-9c08-45d3-a08e-9467501c2a5d","ios":"levelo://app?vid=1c8d832b-9c08-45d3-a08e-9467501c2a5d"},"vehicle_type_id":"4","last_reported":1710965283,"current_range_meters":20800,"station_id":"ce4bh192rcd13ifvqdb0","pricing_plan_id":"cebpf4jnsgd1na2vs0mg"},{"bike_id":"c0127c6a-0445-4b85-8bca-5e0e34e15576","system_id":"levelo_inurba_marseille","lat":43.2936,"lon":5.37835,"is_reserved":false,"is_disabled":false,"rental_uris":{"android":"levelo://app?vid=c0127c6a-0445-4b85-8bca-5e0e34e15576","ios":"levelo://app?vid=c0127c6a-0445-4b85-8bca-5e0e34e15576"},"vehicle_type_id":"4","last_reported":1710965283,"current_range_meters":26400,"station_id":"ce4bgjh2rcd13ifvqbf0","pricing_plan_id":"cebpf4jnsgd1na2vs0mg"},{"bike_id":"03bc29be-bb68-4298-b185-8dcd5f402f47","system_id":"levelo_inurba_marseille","lat":43.30292,"lon":5.39218,"is_reserved":false,"is_disabled":false,"rental_uris":{"android":"levelo://app?vid=03bc29be-bb68-4298-b185-8dcd5f402f47","ios":"levelo://app?vid=03bc29be-bb68-4298-b185-8dcd5f402f47"},"vehicle_type_id":"4","last_reported":1710965283,"current_range_meters":0,"station_id":"ce4bgkh2rcd13ifvqbk0","pricing_plan_id":"cebpf4jnsgd1na2vs0mg"},{"bike_id":"9f1a9a47-e2fa-4fdb-9de0-647e3faa8083","system_id":"levelo_inurba_marseille","lat":43.293591,"lon":5.378253,"is_reserved":false,"is_disabled":false,"rental_uris":{"android":"levelo://app?vid=9f1a9a47-e2fa-4fdb-9de0-647e3faa8083","ios":"levelo://app?vid=9f1a9a47-e2fa-4fdb-9de0-647e3faa8083"},"vehicle_type_id":"4","last_reported":1710965283,"current_range_meters":0,"station_id":"ce4bgjh2rcd13ifvqbf0","pricing_plan_id":"cebpf4jnsgd1na2vs0mg"},{"bike_id":"3cba200b-f279-4484-8333-9cdad3c32245","system_id":"levelo_inurba_marseille","lat":43.2936,"lon":5.37835,"is_reserved":false,"is_disabled":false,"rental_uris":{"android":"levelo://app?vid=3cba200b-f279-4484-8333-9cdad3c32245","ios":"levelo://app?vid=3cba200b-f279-4484-8333-9cdad3c32245"},"vehicle_type_id":"4","last_reported":1710965283,"current_range_meters":30800,"station_id":"ce4bgjh2rcd13ifvqbf0","pricing_plan_id":"cebpf4jnsgd1na2vs0mg"},{"bike_id":"b18ba490-263d-4ea3-9b43-ce6d75a82c5f","system_id":"levelo_inurba_marseille","lat":43.300979,"lon":5.390689,"is_reserved":false,"is_disabled":false,"rental_uris":{"android":"levelo://app?vid=b18ba490-263d-4ea3-9b43-ce6d75a82c5f","ios":"levelo://app?vid=b18ba490-263d-4ea3-9b43-ce6d75a82c5f"},"vehicle_type_id":"4","last_reported":1710965283,"current_range_meters":400,"station_id":"ce4bh192rcd13ifvqdb0","pricing_plan_id":"cebpf4jnsgd1na2vs0mg"},{"bike_id":"43034b62-4c80-42ff-94db-4430368bdd40","system_id":"levelo_inurba_marseille","lat":43.2936,"lon":5.37835,"is_reserved":false,"is_disabled":false,"rental_uris":{"android":"levelo://app?vid=43034b62-4c80-42ff-94db-4430368bdd40","ios":"levelo://app?vid=43034b62-4c80-42ff-94db-4430368bdd40"},"vehicle_type_id":"4","last_reported":1710965283,"current_range_meters":27600,"station_id":"ce4bgjh2rcd13ifvqbf0","pricing_plan_id":"cebpf4jnsgd1na2vs0mg"},{"bike_id":"04413125-895a-4ffc-8429-5683d6aeea05","system_id":"levelo_inurba_marseille","lat":43.292311,"lon":5.360731,"is_reserved":false,"is_disabled":false,"rental_uris":{"android":"levelo://app?vid=04413125-895a-4ffc-8429-5683d6aeea05","ios":"levelo://app?vid=04413125-895a-4ffc-8429-5683d6aeea05"},"vehicle_type_id":"4","last_reported":1710965283,"current_range_meters":5200,"station_id":"ce4bhbh2rcd13ifvqeqg","pricing_plan_id":"cebpf4jnsgd1na2vs0mg"},{"bike_id":"4636feb4-075b-4843-aae4-27bfaa27d1a7","system_id":"levelo_inurba_marseille","lat":43.30085,"lon":5.390856,"is_reserved":false,"is_disabled":false,"rental_uris":{"android":"levelo://app?vid=4636feb4-075b-4843-aae4-27bfaa27d1a7","ios":"levelo://app?vid=4636feb4-075b-4843-aae4-27bfaa27d1a7"},"vehicle_type_id":"4","last_reported":1710965283,"current_range_meters":8800,"station_id":"ce4bh192rcd13ifvqdb0","pricing_plan_id":"cebpf4jnsgd1na2vs0mg"},{"bike_id":"1be1b536-a61f-43df-a307-d85f95ac89c3","system_id":"levelo_inurba_marseille","lat":43.293009,"lon":5.374584,"is_reserved":false,"is_disabled":false,"rental_uris":{"android":"levelo://app?vid=1be1b536-a61f-43df-a307-d85f95ac89c3","ios":"levelo://app?vid=1be1b536-a61f-43df-a307-d85f95ac89c3"},"vehicle_type_id":"4","last_reported":1710965283,"current_range_meters":19600,"station_id":"ce4bgi12rcd13ifvqb70","pricing_plan_id":"cebpf4jnsgd1na2vs0mg"},{"bike_id":"3284db4d-505c-4396-b5c0-09c1d63a1909","system_id":"levelo_inurba_marseille","lat":43.298764,"lon":5.388973,"is_reserved":false,"is_disabled":false,"rental_uris":{"android":"levelo://app?vid=3284db4d-505c-4396-b5c0-09c1d63a1909","ios":"levelo://app?vid=3284db4d-505c-4396-b5c0-09c1d63a1909"},"vehicle_type_id":"4","last_reported":1710965283,"current_range_meters":2400,"station_id":"ce4bh392rcd13ifvqdl0","pricing_plan_id":"cebpf4jnsgd1na2vs0mg"},{"bike_id":"cee06ba5-810e-4f98-a682-32a5ad4f4db6","system_id":"levelo_inurba_marseille","lat":43.298764,"lon":5.388973,"is_reserved":false,"is_disabled":false,"rental_uris":{"android":"levelo://app?vid=cee06ba5-810e-4f98-a682-32a5ad4f4db6","ios":"levelo://app?vid=cee06ba5-810e-4f98-a682-32a5ad4f4db6"},"vehicle_type_id":"4","last_reported":1710965283,"current_range_meters":31600,"station_id":"ce4bh392rcd13ifvqdl0","pricing_plan_id":"cebpf4jnsgd1na2vs0mg"},{"bike_id":"0c4faaa9-7957-4bff-bfc2-76b636dea1f4","system_id":"levelo_inurba_marseille","lat":43.291675,"lon":5.371583,"is_reserved":false,"is_disabled":false,"rental_uris":{"android":"levelo://app?vid=0c4faaa9-7957-4bff-bfc2-76b636dea1f4","ios":"levelo://app?vid=0c4faaa9-7957-4bff-bfc2-76b636dea1f4"},"vehicle_type_id":"4","last_reported":1710965283,"current_range_meters":7600,"station_id":"ce4bha92rcd13ifvqeh0","pricing_plan_id":"cebpf4jnsgd1na2vs0mg"},{"bike_id":"20ae81eb-b842-4a06-a9b0-43ba2fa9f3fd","system_id":"levelo_inurba_marseille","lat":43.298764,"lon":5.388973,"is_reserved":false,"is_disabled":false,"rental_uris":{"android":"levelo://app?vid=20ae81eb-b842-4a06-a9b0-43ba2fa9f3fd","ios":"levelo://app?vid=20ae81eb-b842-4a06-a9b0-43ba2fa9f3fd"},"vehicle_type_id":"4","last_reported":1710965283,"current_range_meters":18800,"station_id":"ce4bh392rcd13ifvqdl0","pricing_plan_id":"cebpf4jnsgd1na2vs0mg"},{"bike_id":"74064550-6a79-4406-b042-ba286a910741","system_id":"levelo_inurba_marseille","lat":43.298743,"lon":5.389024,"is_reserved":false,"is_disabled":false,"rental_uris":{"android":"levelo://app?vid=74064550-6a79-4406-b042-ba286a910741","ios":"levelo://app?vid=74064550-6a79-4406-b042-ba286a910741"},"vehicle_type_id":"4","last_reported":1710965283,"current_range_meters":6000,"station_id":"ce4bh392rcd13ifvqdl0","pricing_plan_id":"cebpf4jnsgd1na2vs0mg"},{"bike_id":"ae0b1428-2a50-4ecf-b5eb-269e8b5edeaa","system_id":"levelo_inurba_marseille","lat":43.291671,"lon":5.371575,"is_reserved":false,"is_disabled":false,"rental_uris":{"android":"levelo://app?vid=ae0b1428-2a50-4ecf-b5eb-269e8b5edeaa","ios":"levelo://app?vid=ae0b1428-2a50-4ecf-b5eb-269e8b5edeaa"},"vehicle_type_id":"4","last_reported":1710965283,"current_range_meters":6400,"station_id":"ce4bha92rcd13ifvqeh0","pricing_plan_id":"cebpf4jnsgd1na2vs0mg"},{"bike_id":"3a7ceca4-7be1-4952-85c8-443c14109763","system_id":"levelo_inurba_marseille","lat":43.298764,"lon":5.388973,"is_reserved":false,"is_disabled":false,"rental_uris":{"android":"levelo://app?vid=3a7ceca4-7be1-4952-85c8-443c14109763","ios":"levelo://app?vid=3a7ceca4-7be1-4952-85c8-443c14109763"},"vehicle_type_id":"4","last_reported":1710965283,"current_range_meters":4800,"station_id":"ce4bh392rcd13ifvqdl0","pricing_plan_id":"cebpf4jnsgd1na2vs0mg"},{"bike_id":"e2b5eb95-0d56-46ba-87f5-bd9886698267","system_id":"levelo_inurba_marseille","lat":43.298764,"lon":5.388973,"is_reserved":false,"is_disabled":false,"rental_uris":{"android":"levelo://app?vid=e2b5eb95-0d56-46ba-87f5-bd9886698267","ios":"levelo://app?vid=e2b5eb95-0d56-46ba-87f5-bd9886698267"},"vehicle_type_id":"4","last_reported":1710965283,"current_range_meters":4400,"station_id":"ce4bh392rcd13ifvqdl0","pricing_plan_id":"cebpf4jnsgd1na2vs0mg"},{"bike_id":"f399e40b-2880-4463-8f21-2301aa18a7ea","system_id":"levelo_inurba_marseille","lat":43.313291,"lon":5.396838,"is_reserved":false,"is_disabled":false,"rental_uris":{"android":"levelo://app?vid=f399e40b-2880-4463-8f21-2301aa18a7ea","ios":"levelo://app?vid=f399e40b-2880-4463-8f21-2301aa18a7ea"},"vehicle_type_id":"4","last_reported":1710965283,"current_range_meters":30000,"station_id":"ce4bgvp2rcd13ifvqcu0","pricing_plan_id":"cebpf4jnsgd1na2vs0mg"},{"bike_id":"1a14467e-0740-4237-9f0a-9b5f7fd6fd5d","system_id":"levelo_inurba_marseille","lat":43.313291,"lon":5.396838,"is_reserved":false,"is_disabled":false,"rental_uris":{"android":"levelo://app?vid=1a14467e-0740-4237-9f0a-9b5f7fd6fd5d","ios":"levelo://app?vid=1a14467e-0740-4237-9f0a-9b5f7fd6fd5d"},"vehicle_type_id":"4","last_reported":1710965283,"current_range_meters":8000,"station_id":"ce4bgvp2rcd13ifvqcu0","pricing_plan_id":"cebpf4jnsgd1na2vs0mg"},{"bike_id":"a4ec75aa-eee5-48f5-a43d-7787c34eb39d","system_id":"levelo_inurba_marseille","lat":43.29188,"lon":5.35803,"is_reserved":false,"is_disabled":false,"rental_uris":{"android":"levelo://app?vid=a4ec75aa-eee5-48f5-a43d-7787c34eb39d","ios":"levelo://app?vid=a4ec75aa-eee5-48f5-a43d-7787c34eb39d"},"vehicle_type_id":"4","last_reported":1710965283,"current_range_meters":0,"station_id":"ce4bhb12rcd13ifvqel0","pricing_plan_id":"cebpf4jnsgd1na2vs0mg"},{"bike_id":"92cc4c09-e988-4c1a-bc77-00fb021b508c","system_id":"levelo_inurba_marseille","lat":43.30882,"lon":5.39654,"is_reserved":false,"is_disabled":false,"rental_uris":{"android":"levelo://app?vid=92cc4c09-e988-4c1a-bc77-00fb021b508c","ios":"levelo://app?vid=92cc4c09-e988-4c1a-bc77-00fb021b508c"},"vehicle_type_id":"4","last_reported":1710965283,"current_range_meters":400,"station_id":"ce4bh012rcd13ifvqcv0","pricing_plan_id":"cebpf4jnsgd1na2vs0mg"},{"bike_id":"55f4ef9a-0884-4104-bfa3-bb2197ceea08","system_id":"levelo_inurba_marseille","lat":43.309038,"lon":5.396546,"is_reserved":false,"is_disabled":false,"rental_uris":{"android":"levelo://app?vid=55f4ef9a-0884-4104-bfa3-bb2197ceea08","ios":"levelo://app?vid=55f4ef9a-0884-4104-bfa3-bb2197ceea08"},"vehicle_type_id":"4","last_reported":1710965283,"current_range_meters":29200,"station_id":"ce4bh012rcd13ifvqcv0","pricing_plan_id":"cebpf4jnsgd1na2vs0mg"},{"bike_id":"9c1df4af-feb8-42f0-ae2a-b38635e74ab3","system_id":"levelo_inurba_marseille","lat":43.309047,"lon":5.396551,"is_reserved":false,"is_disabled":false,"rental_uris":{"android":"levelo://app?vid=9c1df4af-feb8-42f0-ae2a-b38635e74ab3","ios":"levelo://app?vid=9c1df4af-feb8-42f0-ae2a-b38635e74ab3"},"vehicle_type_id":"4","last_reported":1710965283,"current_range_meters":16400,"station_id":"ce4bh012rcd13ifvqcv0","pricing_plan_id":"cebpf4jnsgd1na2vs0mg"},{"bike_id":"4bdd8f65-06e2-4fde-a516-71334bd6c790","system_id":"levelo_inurba_marseille","lat":43.309047,"lon":5.396551,"is_reserved":false,"is_disabled":false,"rental_uris":{"android":"levelo://app?vid=4bdd8f65-06e2-4fde-a516-71334bd6c790","ios":"levelo://app?vid=4bdd8f65-06e2-4fde-a516-71334bd6c790"},"vehicle_type_id":"4","last_reported":1710965283,"current_range_meters":28000,"station_id":"ce4bh012rcd13ifvqcv0","pricing_plan_id":"cebpf4jnsgd1na2vs0mg"},{"bike_id":"406ef3d2-5f98-4f58-8803-abf5cb2113ab","system_id":"levelo_inurba_marseille","lat":43.29529,"lon":5.385581,"is_reserved":false,"is_disabled":false,"rental_uris":{"android":"levelo://app?vid=406ef3d2-5f98-4f58-8803-abf5cb2113ab","ios":"levelo://app?vid=406ef3d2-5f98-4f58-8803-abf5cb2113ab"},"vehicle_type_id":"4","last_reported":1710965283,"current_range_meters":30000,"station_id":"ce4bgih2rcd13ifvqba0","pricing_plan_id":"cebpf4jnsgd1na2vs0mg"},{"bike_id":"aa69654d-f42b-483a-a42c-59813cca4c31","system_id":"levelo_inurba_marseille","lat":43.309047,"lon":5.396551,"is_reserved":false,"is_disabled":false,"rental_uris":{"android":"levelo://app?vid=aa69654d-f42b-483a-a42c-59813cca4c31","ios":"levelo://app?vid=aa69654d-f42b-483a-a42c-59813cca4c31"},"vehicle_type_id":"4","last_reported":1710965283,"current_range_meters":4400,"station_id":"ce4bh012rcd13ifvqcv0","pricing_plan_id":"cebpf4jnsgd1na2vs0mg"},{"bike_id":"e8b5911a-ecb5-42db-8ef6-6ecd0ac438a8","system_id":"levelo_inurba_marseille","lat":43.309047,"lon":5.396551,"is_reserved":false,"is_disabled":false,"rental_uris":{"android":"levelo://app?vid=e8b5911a-ecb5-42db-8ef6-6ecd0ac438a8","ios":"levelo://app?vid=e8b5911a-ecb5-42db-8ef6-6ecd0ac438a8"},"vehicle_type_id":"4","last_reported":1710965283,"current_range_meters":11200,"station_id":"ce4bh012rcd13ifvqcv0","pricing_plan_id":"cebpf4jnsgd1na2vs0mg"},{"bike_id":"b3896fd2-1c60-41a4-a222-3cfd585b8c9b","system_id":"levelo_inurba_marseille","lat":43.29529,"lon":5.385581,"is_reserved":false,"is_disabled":false,"rental_uris":{"android":"levelo://app?vid=b3896fd2-1c60-41a4-a222-3cfd585b8c9b","ios":"levelo://app?vid=b3896fd2-1c60-41a4-a222-3cfd585b8c9b"},"vehicle_type_id":"4","last_reported":1710965283,"current_range_meters":17600,"station_id":"ce4bgih2rcd13ifvqba0","pricing_plan_id":"cebpf4jnsgd1na2vs0mg"},{"bike_id":"e6a63688-83d2-48b8-9edb-4a69dbb3fa35","system_id":"levelo_inurba_marseille","lat":43.309047,"lon":5.396551,"is_reserved":false,"is_disabled":false,"rental_uris":{"android":"levelo://app?vid=e6a63688-83d2-48b8-9edb-4a69dbb3fa35","ios":"levelo://app?vid=e6a63688-83d2-48b8-9edb-4a69dbb3fa35"},"vehicle_type_id":"4","last_reported":1710965283,"current_range_meters":8000,"station_id":"ce4bh012rcd13ifvqcv0","pricing_plan_id":"cebpf4jnsgd1na2vs0mg"},