{"last_updated":1738393656,"ttl":60,"version":"2.2","data":{"bikes":[{"bike_id":"5121270c-1c11-4ce0-892b-9a8960db6210","system_id":"levelo_inurba_marseille","lat":43.31748,"lon":5.39009,"is_reserved":false,"is_disabled":false,"rental_uris":{"android":"levelo://app?vid=5121270c-1c11-4ce0-892b-9a8960db6210","ios":"levelo://app?vid=5121270c-1c11-4ce0-892b-9a8960db6210"},"vehicle_type_id":"4","last_reported":1738393656,"current_range_meters":31200,"station_id":"ce4bhqp2rcd13ifvqhng","pricing_plan_id":"cebpf4jnsgd1na2vs0mg"},{"bike_id":"99c8e731-f913-430f-a2bc-32d57a5fab53","system_id":"levelo_inurba_marseille","lat":43.28464,"lon":5.38419,"is_reserved":false,"is_disabled":true,"rental_uris":{"android":"levelo://app?vid=99c8e731-f913-430f-a2bc-32d57a5fab53","ios":"levelo://app?vid=99c8e731-f913-430f-a2bc-32d57a5fab53"},"vehicle_type_id":"4","last_reported":1738393656,"current_range_meters":25600,"station_id":"ce4bh512rcd13ifvqe3g","pricing_plan_id":"cebpf4jnsgd1na2vs0mg"},{"bike_id":"7cd8bbc3-c329-45c2-8089-7bdf34779d45","system_id":"levelo_inurba_marseille","lat":43.28425,"lon":5.34997,"is_reserved":false,"is_disabled":false,"rental_uris":{"android":"levelo://app?vid=7cd8bbc3-c329-45c2-8089-7bdf34779d45","ios":"levelo://app?vid=7cd8bbc3-c329-45c2-8089-7bdf34779d45"},"vehicle_type_id":"4","last_reported":1738393656,"current_range_meters":27200,"station_id":"ce4bhbh2rcd13ifvqepg","pricing_plan_id":"cebpf4jnsgd1na2vs0mg"},{"bike_id":"c504137f-ac89-4c5c-b85f-fd4388c88811","system_id":"levelo_inurba_marseille","lat":43.28099,"lon":5.37843,"is_reserved":false,"is_disabled":false,"rental_uris":{"android":"levelo://app?vid=c504137f-ac89-4c5c-b85f-fd4388c88811","ios":"levelo://app?vid=c504137f-ac89-4c5c-b85f-fd4388c88811"},"vehicle_type_id":"4","last_reported":1738393656,"current_range_meters":13600,"station_id":"ce4bha12rcd13ifvqee0","pricing_plan_id":"cebpf4jnsgd1na2vs0mg"},{"bike_id":"50dba4e6-d441-43cb-81b3-18b5b479c80a","system_id":"levelo_inurba_marseille","lat":43.273719,"lon":5.362494,"is_reserved":false,"is_disabled":false,"rental_uris":{"android":"levelo://app?vid=50dba4e6-d441-43cb-81b3-18b5b479c80a","ios":"levelo://app?vid=50dba4e6-d441-43cb-81b3-18b5b479c80a"},"vehicle_type_id":"4","last_reported":1738393656,"current_range_meters":28000,"station_id":"ce4bhbh2rcd13ifvqeo0","pricing_plan_id":"cebpf4jnsgd1na2vs0mg"},{"bike_id":"11a4d244-c59c-4823-b704-9c99e46e7c29","system_id":"levelo_inurba_marseille","lat":43.29297,"lon":5.3745,"is_reserved":false,"is_disabled":true,"rental_uris":{"android":"levelo://app?vid=11a4d244-c59c-4823-b704-9c99e46e7c29","ios":"levelo://app?vid=11a4d244-c59c-4823-b704-9c99e46e7c29"},"vehicle_type_id":"4","last_reported":1738393656,"current_range_meters":38800,"station_id":"ce4bgi12rcd13ifvqb70","pricing_plan_id":"cebpf4jnsgd1na2vs0mg"},{"bike_id":"68ec889f-fbad-4ec7-bbe1-dbda6b88a3f5","system_id":"levelo_inurba_marseille","lat":43.29106,"lon":5.38571,"is_reserved":false,"is_disabled":true,"rental_uris":{"android":"levelo://app?vid=68ec889f-fbad-4ec7-bbe1-dbda6b88a3f5","ios":"levelo://app?vid=68ec889f-fbad-4ec7-bbe1-dbda6b88a3f5"},"vehicle_type_id":"4","last_reported":1738393656,"current_range_meters":30400,"station_id":"ce4bh4p2rcd13ifvqe0g","pricing_plan_id":"cebpf4jnsgd1na2vs0mg"},{"bike_id":"ec8f6058-6100-4152-a231-a6e2b63a93a4","system_id":"levelo_inurba_marseille","lat":43.25844,"lon":5.39416,"is_reserved":false,"is_disabled":false,"rental_uris":{"android":"levelo://app?vid=ec8f6058-6100-4152-a231-a6e2b63a93a4","ios":"levelo://app?vid=ec8f6058-6100-4152-a231-a6e2b63a93a4"},"vehicle_type_id":"4","last_reported":1738393656,"current_range_meters":24800,"station_id":"ce4bhip2rcd13ifvqft0","pricing_plan_id":"cebpf4jnsgd1na2vs0mg"},{"bike_id":"287d3655-58cc-45d7-aa96-7665da7e837d","system_id":"levelo_inurba_marseille","lat":43.3088,"lon":5.39647,"is_reserved":false,"is_disabled":false,"rental_uris":{"android":"levelo://app?vid=287d3655-58cc-45d7-aa96-7665da7e837d","ios":"levelo://app?vid=287d3655-58cc-45d7-aa96-7665da7e837d"},"vehicle_type_id":"4","last_reported":1738393656,"current_range_meters":3200,"station_id":"ce4bh012rcd13ifvqcv0","pricing_plan_id":"cebpf4jnsgd1na2vs0mg"},{"bike_id":"775ea6c8-830e-43b4-8783-0f1b578a59f2","system_id":"levelo_inurba_marseille","lat":43.25876,"lon":5.39862,"is_reserved":false,"is_disabled":false,"rental_uris":{"android":"levelo://app?vid=775ea6c8-830e-43b4-8783-0f1b578a59f2","ios":"levelo://app?vid=775ea6c8-830e-43b4-8783-0f1b578a59f2"},"vehicle_type_id":"4","last_reported":1738393656,"current_range_meters":16000,"station_id":"ce4bhl92rcd13ifvqghg","pricing_plan_id":"cebpf4jnsgd1na2vs0mg"},{"bike_id":"ed3b7fbe-dd9d-4bab-8f42-a2405c5dd34c","system_id":"levelo_inurba_marseille","lat":43.26932,"lon":5.4025,"is_reserved":false,"is_disabled":false,"rental_uris":{"android":"levelo://app?vid=ed3b7fbe-dd9d-4bab-8f42-a2405c5dd34c","ios":"levelo://app?vid=ed3b7fbe-dd9d-4bab-8f42-a2405c5dd34c"},"vehicle_type_id":"4","last_reported":1738393656,"current_range_meters":37600,"station_id":"cjm6bp8fraef2m0cb0m0","pricing_plan_id":"cebpf4jnsgd1na2vs0mg"},{"bike_id":"7540a426-281b-48ba-b8a4-9fc34e02059c","system_id":"levelo_inurba_marseille","lat":43.29874,"lon":5.39727,"is_reserved":false,"is_disabled":false,"rental_uris":{"android":"levelo://app?vid=7540a426-281b-48ba-b8a4-9fc34e02059c","ios":"levelo://app?vid=7540a426-281b-48ba-b8a4-9fc34e02059c"},"vehicle_type_id":"4","last_reported":1738393656,"current_range_meters":38800,"station_id":"ce4bh0h2rcd13ifvqd50","pricing_plan_id":"cebpf4jnsgd1na2vs0mg"},{"bike_id":"9b30898d-4d89-4ff8-83e8-b34dc554358f","system_id":"levelo_inurba_marseille","lat":43.336081,"lon":5.410129,"is_reserved":false,"is_disabled":false,"rental_uris":{"android":"levelo://app?vid=9b30898d-4d89-4ff8-83e8-b34dc554358f","ios":"levelo://app?vid=9b30898d-4d89-4ff8-83e8-b34dc554358f"},"vehicle_type_id":"4","last_reported":1738393656,"current_range_meters":16400,"station_id":"ce4bhqh2rcd13ifvqhmg","pricing_plan_id":"cebpf4jnsgd1na2vs0mg"},{"bike_id":"0ecc64b3-d50a-4d78-ac5b-36c0d0f58ab4","system_id":"levelo_inurba_marseille","lat":43.309309,"lon":5.40151,"is_reserved":false,"is_disabled":false,"rental_uris":{"android":"levelo://app?vid=0ecc64b3-d50a-4d78-ac5b-36c0d0f58ab4","ios":"levelo://app?vid=0ecc64b3-d50a-4d78-ac5b-36c0d0f58ab4"},"vehicle_type_id":"4","last_reported":1738393656,"current_range_meters":38800,"station_id":"ce4bgvp2rcd13ifvqct0","pricing_plan_id":"cebpf4jnsgd1na2vs0mg"},{"bike_id":"2fbb8cae-bc83-4d9f-a595-dbdebd811247","system_id":"levelo_inurba_marseille","lat":43.27916,"lon":5.39592,"is_reserved":false,"is_disabled":true,"rental_uris":{"android":"levelo://app?vid=2fbb8cae-bc83-4d9f-a595-dbdebd811247","ios":"levelo://app?vid=2fbb8cae-bc83-4d9f-a595-dbdebd811247"},"vehicle_type_id":"4","last_reported":1738393656,"current_range_meters":0,"station_id":"ce4bhf92rcd13ifvqf40","pricing_plan_id":"cebpf4jnsgd1na2vs0mg"},{"bike_id":"364eb652-69b2-4cd0-85cc-79efa41d2c35","system_id":"levelo_inurba_marseille","lat":43.268034,"lon":5.402641,"is_reserved":false,"is_disabled":false,"rental_uris":{"android":"levelo://app?vid=364eb652-69b2-4cd0-85cc-79efa41d2c35","ios":"levelo://app?vid=364eb652-69b2-4cd0-85cc-79efa41d2c35"},"vehicle_type_id":"4","last_reported":1738393656,"current_range_meters":6400,"station_id":"ce501612rcd8frsf0b60","pricing_plan_id":"cebpf4jnsgd1na2vs0mg"},{"bike_id":"8126c25c-c3a2-4cdd-a2e4-d380d215e724","system_id":"levelo_inurba_marseille","lat":43.268126,"lon":5.402559,"is_reserved":false,"is_disabled":false,"rental_uris":{"android":"levelo://app?vid=8126c25c-c3a2-4cdd-a2e4-d380d215e724","ios":"levelo://app?vid=8126c25c-c3a2-4cdd-a2e4-d380d215e724"},"vehicle_type_id":"4","last_reported":1738393656,"current_range_meters":38000,"station_id":"ce501612rcd8frsf0b60","pricing_plan_id":"cebpf4jnsgd1na2vs0mg"},{"bike_id":"2e717bd1-6f1e-4705-ac56-fd230708337b","system_id":"levelo_inurba_marseille","lat":43.23974,"lon":5.36615,"is_reserved":false,"is_disabled":false,"rental_uris":{"android":"levelo://app?vid=2e717bd1-6f1e-4705-ac56-fd230708337b","ios":"levelo://app?vid=2e717bd1-6f1e-4705-ac56-fd230708337b"},"vehicle_type_id":"4","last_reported":1738393656,"current_range_meters":5600,"station_id":"ce4bhi12rcd13ifvqfp0","pricing_plan_id":"cebpf4jnsgd1na2vs0mg"},{"bike_id":"f8284def-f46e-4261-b5b7-65a73beff522","system_id":"levelo_inurba_marseille","lat":43.33599,"lon":5.41025,"is_reserved":false,"is_disabled":false,"rental_uris":{"android":"levelo://app?vid=f8284def-f46e-4261-b5b7-65a73beff522","ios":"levelo://app?vid=f8284def-f46e-4261-b5b7-65a73beff522"},"vehicle_type_id":"4","last_reported":1738393656,"current_range_meters":5600,"station_id":"ce4bhqh2rcd13ifvqhmg","pricing_plan_id":"cebpf4jnsgd1na2vs0mg"},{"bike_id":"b128003f-52ff-4cd6-b985-fdc8dfb8deb5","system_id":"levelo_inurba_marseille","lat":43.31279,"lon":5.40157,"is_reserved":false,"is_disabled":false,"rental_uris":{"android":"levelo://app?vid=b128003f-52ff-4cd6-b985-fdc8dfb8deb5","ios":"levelo://app?vid=b128003f-52ff-4cd6-b985-fdc8dfb8deb5"},"vehicle_type_id":"4","last_reported":1738393656,"current_range_meters":38800,"station_id":"ce4bh092rcd13ifvqd30","pricing_plan_id":"cebpf4jnsgd1na2vs0mg"},{"bike_id":"661644af-f6d5-4e30-b98d-4cca5657f33b","system_id":"levelo_inurba_marseille","lat":43.3211,"lon":5.36797,"is_reserved":false,"is_disabled":false,"rental_uris":{"android":"levelo://app?vid=661644af-f6d5-4e30-b98d-4cca5657f33b","ios":"levelo://app?vid=661644af-f6d5-4e30-b98d-4cca5657f33b"},"vehicle_type_id":"4","last_reported":1738393656,"current_range_meters":6800,"station_id":"ce4bhrh2rcd13ifvqhug","pricing_plan_id":"cebpf4jnsgd1na2vs0mg"},{"bike_id":"1fbf3f20-0930-4b85-8900-561217e5a0eb","system_id":"levelo_inurba_marseille","lat":43.304146,"lon":5.412781,"is_reserved":false,"is_disabled":false,"rental_uris":{"android":"levelo://app?vid=1fbf3f20-0930-4b85-8900-561217e5a0eb","ios":"levelo://app?vid=1fbf3f20-0930-4b85-8900-561217e5a0eb"},"vehicle_type_id":"4","last_reported":1738393656,"current_range_meters":25600,"station_id":"ce4bhop2rcd13ifvqh8g","pricing_plan_id":"cebpf4jnsgd1na2vs0mg"},{"bike_id":"0ed8a6c6-eadb-4bd0-a58f-0b8be240ba0c","system_id":"levelo_inurba_marseille","lat":43.27845,"lon":5.40682,"is_reserved":false,"is_disabled":false,"rental_uris":{"android":"levelo://app?vid=0ed8a6c6-eadb-4bd0-a58f-0b8be240ba0c","ios":"levelo://app?vid=0ed8a6c6-eadb-4bd0-a58f-0b8be240ba0c"},"vehicle_type_id":"4","last_reported":1738393656,"current_range_meters":24000,"station_id":"ce4bhnh2rcd13ifvqgtg","pricing_plan_id":"cebpf4jnsgd1na2vs0mg"},{"bike_id":"0aad324c-11ba-4f73-8791-19071414bf4a","system_id":"levelo_inurba_marseille","lat":43.29255,"lon":5.40927,"is_reserved":false,"is_disabled":false,"rental_uris":{"android":"levelo://app?vid=0aad324c-11ba-4f73-8791-19071414bf4a","ios":"levelo://app?vid=0aad324c-11ba-4f73-8791-19071414bf4a"},"vehicle_type_id":"4","last_reported":1738393656,"current_range_meters":24800,"station_id":"ce4bh192rcd13ifvqdc0","pricing_plan_id":"cebpf4jnsgd1na2vs0mg"},{"bike_id":"b53cf432-0e47-4b61-a305-952377a64c88","system_id":"levelo_inurba_marseille","lat":43.308094,"lon":5.38151,"is_reserved":false,"is_disabled":true,"rental_uris":{"android":"levelo://app?vid=b53cf432-0e47-4b61-a305-952377a64c88","ios":"levelo://app?vid=b53cf432-0e47-4b61-a305-952377a64c88"},"vehicle_type_id":"4","last_reported":1738393656,"current_range_meters":0,"station_id":"ce4bgt12rcd13ifvqce0","pricing_plan_id":"cebpf4jnsgd1na2vs0mg"},{"bike_id":"7b3e02c5-0818-4fc4-813c-4a89f3c75475","system_id":"levelo_inurba_marseille","lat":43.28,"lon":5.40003,"is_reserved":false,"is_disabled":false,"rental_uris":{"android":"levelo://app?vid=7b3e02c5-0818-4fc4-813c-4a89f3c75475","ios":"levelo://app?vid=7b3e02c5-0818-4fc4-813c-4a89f3c75475"},"vehicle_type_id":"4","last_reported":1738393656,"current_range_meters":27200,"station_id":"ce4bho92rcd13ifvqh4g","pricing_plan_id":"cebpf4jnsgd1na2vs0mg"},{"bike_id":"13a71ca0-af90-4e61-a6f2-18a028732efe","system_id":"levelo_inurba_marseille","lat":43.25087,"lon":5.39514,"is_reserved":false,"is_disabled":false,"rental_uris":{"android":"levelo://app?vid=13a71ca0-af90-4e61-a6f2-18a028732efe","ios":"levelo://app?vid=13a71ca0-af90-4e61-a6f2-18a028732efe"},"vehicle_type_id":"4","last_reported":1738393656,"current_range_meters":34000,"station_id":"ce4bhm12rcd13ifvqgkg","pricing_plan_id":"cebpf4jnsgd1na2vs0mg"},{"bike_id":"b3111fc0-fa6a-4a4f-8998-7c16befb8b0d","system_id":"levelo_inurba_marseille","lat":43.29275,"lon":5.39871,"is_reserved":false,"is_disabled":false,"rental_uris":{"android":"levelo://app?vid=b3111fc0-fa6a-4a4f-8998-7c16befb8b0d","ios":"levelo://app?vid=b3111fc0-fa6a-4a4f-8998-7c16befb8b0d"},"vehicle_type_id":"4","last_reported":1738393656,"current_range_meters":26800,"station_id":"","pricing_plan_id":"cebpf4jnsgd1na2vs0mg"},{"bike_id":"5b1bf038-eb5d-4224-ab2e-5308b8a41098","system_id":"levelo_inurba_marseille","lat":43.3414,"lon":5.40905,"is_reserved":false,"is_disabled":false,"rental_uris":{"android":"levelo://app?vid=5b1bf038-eb5d-4224-ab2e-5308b8a41098","ios":"levelo://app?vid=5b1bf038-eb5d-4224-ab2e-5308b8a41098"},"vehicle_type_id":"4","last_reported":1738393656,"current_range_meters":14800,"station_id":"ce4bhqh2rcd13ifvqhlg","pricing_plan_id":"cebpf4jnsgd1na2vs0mg"},{"bike_id":"8784a30a-a330-4b05-89bf-f5db332a6fc3","system_id":"levelo_inurba_marseille","lat":43.28726,"lon":5.37932,"is_reserved":false,"is_disabled":false,"rental_uris":{"android":"levelo://app?vid=8784a30a-a330-4b05-89bf-f5db332a6fc3","ios":"levelo://app?vid=8784a30a-a330-4b05-89bf-f5db332a6fc3"},"vehicle_type_id":"4","last_reported":1738393656,"current_range_meters":36800,"station_id":"ce4bh9p2rcd13ifvqec0","pricing_plan_id":"cebpf4jnsgd1na2vs0mg"},{"bike_id":"b62c15b8-1724-4cf4-addc-7e8eea0a7cb3","system_id":"levelo_inurba_marseille","lat":43.29801,"lon":5.40406,"is_reserved":false,"is_disabled":false,"rental_uris":{"android":"levelo://app?vid=b62c15b8-1724-4cf4-addc-7e8eea0a7cb3","ios":"levelo://app?vid=b62c15b8-1724-4cf4-addc-7e8eea0a7cb3"},"vehicle_type_id":"4","last_reported":1738393656,"current_range_meters":38800,"station_id":"ce4bh112rcd13ifvqd90","pricing_plan_id":"cebpf4jnsgd1na2vs0mg"},{"bike_id":"2695662c-299c-44d1-b484-f50232d31624","system_id":"levelo_inurba_marseille","lat":43.30414,"lon":5.39752,"is_reserved":false,"is_disabled":false,"rental_uris":{"android":"levelo://app?vid=2695662c-299c-44d1-b484-f50232d31624","ios":"levelo://app?vid=2695662c-299c-44d1-b484-f50232d31624"},"vehicle_type_id":"4","last_reported":1738393656,"current_range_meters":38800,"station_id":"ce4bh092rcd13ifvqd20","pricing_plan_id":"cebpf4jnsgd1na2vs0mg"},{"bike_id":"887ee306-41a1-4a22-bc1f-16f99762f5ef","system_id":"levelo_inurba_marseille","lat":43.31527,"lon":5.38028,"is_reserved":false,"is_disabled":false,"rental_uris":{"android":"levelo://app?vid=887ee306-41a1-4a22-bc1f-16f99762f5ef","ios":"levelo://app?vid=887ee306-41a1-4a22-bc1f-16f99762f5ef"},"vehicle_type_id":"4","last_reported":1738393656,"current_range_meters":38800,"station_id":"ce4bhsp2rcd13ifvqi50","pricing_plan_id":"cebpf4jnsgd1na2vs0mg"},{"bike_id":"af349cd6-266b-415e-b9bc-a72df1d08c63","system_id":"levelo_inurba_marseille","lat":43.29715,"lon":5.366,"is_reserved":false,"is_disabled":false,"rental_uris":{"android":"levelo://app?vid=af349cd6-266b-415e-b9bc-a72df1d08c63","ios":"levelo://app?vid=af349cd6-266b-415e-b9bc-a72df1d08c63"},"vehicle_type_id":"4","last_reported":1738393656,"current_range_meters":38800,"station_id":"ce4bgn12rcd13ifvqbt0","pricing_plan_id":"cebpf4jnsgd1na2vs0mg"},{"bike_id":"cc47836a-b908-432f-8e0e-2f793407f141","system_id":"levelo_inurba_marseille","lat":43.22932,"lon":5.35374,"is_reserved":false,"is_disabled":false,"rental_uris":{"android":"levelo://app?vid=cc47836a-b908-432f-8e0e-2f793407f141","ios":"levelo://app?vid=cc47836a-b908-432f-8e0e-2f793407f141"},"vehicle_type_id":"4","last_reported":1738393656,"current_range_meters":7200,"station_id":"cpo3532slgdg3j2ikp40","pricing_plan_id":"cebpf4jnsgd1na2vs0mg"},{"bike_id":"b7b8b73a-0c1c-45e0-b545-54a4098ad50c","system_id":"levelo_inurba_marseille","lat":43.27568,"lon":5.38407,"is_reserved":false,"is_disabled":false,"rental_uris":{"android":"levelo://app?vid=b7b8b73a-0c1c-45e0-b545-54a4098ad50c","ios":"levelo://app?vid=b7b8b73a-0c1c-45e0-b545-54a4098ad50c"},"vehicle_type_id":"4","last_reported":1738393656,"current_range_meters":36400,"station_id":"ce4bhh92rcd13ifvqfi0","pricing_plan_id":"cebpf4jnsgd1na2vs0mg"},{"bike_id":"eccf3e1b-479c-430a-81d9-b77c081460ec","system_id":"levelo_inurba_marseille","lat":43.31765,"lon":5.39024,"is_reserved":false,"is_disabled":true,"rental_uris":{"android":"levelo://app?vid=eccf3e1b-479c-430a-81d9-b77c081460ec","ios":"levelo://app?vid=eccf3e1b-479c-430a-81d9-b77c081460ec"},"vehicle_type_id":"4","last_reported":1738393656,"current_range_meters":16400,"station_id":"ce4bhqp2rcd13ifvqhng","pricing_plan_id":"cebpf4jnsgd1na2vs0mg"},{"bike_id":"d71d72c3-6ab1-418b-a776-4e0c7c5959e7","system_id":"levelo_inurba_marseille","lat":43.25825,"lon":5.39424,"is_reserved":false,"is_disabled":false,"rental_uris":{"android":"levelo://app?vid=d71d72c3-6ab1-418b-a776-4e0c7c5959e7","ios":"levelo://app?vid=d71d72c3-6ab1-418b-a776-4e0c7c5959e7"},"vehicle_type_id":"4","last_reported":1738393656,"current_range_meters":37600,"station_id":"ce4bhip2rcd13ifvqft0","pricing_plan_id":"cebpf4jnsgd1na2vs0mg"},{"bike_id":"e39c6af1-d071-46d1-930b-6a3559a80a00","system_id":"levelo_inurba_marseille","lat":43.30613,"lon":5.37228,"is_reserved":false,"is_disabled":false,"rental_uris":{"android":"levelo://app?vid=e39c6af1-d071-46d1-930b-6a3559a80a00","ios":"levelo://app?vid=e39c6af1-d071-46d1-930b-6a3559a80a00"},"vehicle_type_id":"4","last_reported":1738393656,"current_range_meters":36000,"station_id":"ce4bgqh2rcd13ifvqc4g","pricing_plan_id":"cebpf4jnsgd1na2vs0mg"},{"bike_id":"0edaa840-e8b0-4f2c-ad98-c123355c590c","system_id":"levelo_inurba_marseille","lat":43.26058,"lon":5.39395,"is_reserved":false,"is_disabled":true,"rental_uris":{"android":"levelo://app?vid=0edaa840-e8b0-4f2c-ad98-c123355c590c","ios":"levelo://app?vid=0edaa840-e8b0-4f2c-ad98-c123355c590c"},"vehicle_type_id":"4","last_reported":1738393656,"current_range_meters":36000,"station_id":"ce4bhh92rcd13ifvqfj0","pricing_plan_id":"cebpf4jnsgd1na2vs0mg"},{"bike_id":"0c8187f5-988a-4457-bbb8-4cf908ac31d3","system_id":"levelo_inurba_marseille","lat":43.25828,"lon":5.39441,"is_reserved":false,"is_disabled":false,"rental_uris":{"android":"levelo://app?vid=0c8187f5-988a-4457-bbb8-4cf908ac31d3","ios":"levelo://app?vid=0c8187f5-988a-4457-bbb8-4cf908ac31d3"},"vehicle_type_id":"4","last_reported":1738393656,"current_range_meters":20000,"station_id":"ce4bhip2rcd13ifvqft0","pricing_plan_id":"cebpf4jnsgd1na2vs0mg"},{"bike_id":"38a465ff-8f6d-48e8-9160-52e370985fc1","system_id":"levelo_inurba_marseille","lat":43.24558,"lon":5.39514,"is_reserved":false,"is_disabled":false,"rental_uris":{"android":"levelo://app?vid=38a465ff-8f6d-48e8-9160-52e370985fc1","ios":"levelo://app?vid=38a465ff-8f6d-48e8-9160-52e370985fc1"},"vehicle_type_id":"4","last_reported":1738393656,"current_range_meters":18000,"station_id":"ce4bhlp2rcd13ifvqgjg","pricing_plan_id":"cebpf4jnsgd1na2vs0mg"},{"bike_id":"7fbc607b-e12b-47bd-a53f-1c18ac62adfd","system_id":"levelo_inurba_marseille","lat":43.27812,"lon":5.40716,"is_reserved":false,"is_disabled":false,"rental_uris":{"android":"levelo://app?vid=7fbc607b-e12b-47bd-a53f-1c18ac62adfd","ios":"levelo://app?vid=7fbc607b-e12b-47bd-a53f-1c18ac62adfd"},"vehicle_type_id":"4","last_reported":1738393656,"current_range_meters":30400,"station_id":"ce4bhnh2rcd13ifvqgtg","pricing_plan_id":"cebpf4jnsgd1na2vs0mg"},{"bike_id":"09a2ccc2-f6c2-4e8e-88a7-79d9bb9e4e90","system_id":"levelo_inurba_marseille","lat":43.2898,"lon":5.37838,"is_reserved":false,"is_disabled":false,"rental_uris":{"android":"levelo://app?vid=09a2ccc2-f6c2-4e8e-88a7-79d9bb9e4e90","ios":"levelo://app?vid=09a2ccc2-f6c2-4e8e-88a7-79d9bb9e4e90"},"vehicle_type_id":"4","last_reported":1738393656,"current_range_meters":14800,"station_id":"ce4bh9p2rcd13ifvqed0","pricing_plan_id":"cebpf4jnsgd1na2vs0mg"},{"bike_id":"db7f3b10-3249-4ef1-b2d2-417c75340e93","system_id":"levelo_inurba_marseille","lat":43.26826,"lon":5.40256,"is_reserved":false,"is_disabled":false,"rental_uris":{"android":"levelo://app?vid=db7f3b10-3249-4ef1-b2d2-417c75340e93","ios":"levelo://app?vid=db7f3b10-3249-4ef1-b2d2-417c75340e93"},"vehicle_type_id":"4","last_reported":1738393656,"current_range_meters":35600,"station_id":"ce501612rcd8frsf0b60","pricing_plan_id":"cebpf4jnsgd1na2vs0mg"},{"bike_id":"606053f9-3da2-4594-b4df-8e24b5fa812c","system_id":"levelo_inurba_marseille","lat":43.26917,"lon":5.40277,"is_reserved":false,"is_disabled":false,"rental_uris":{"android":"levelo://app?vid=606053f9-3da2-4594-b4df-8e24b5fa812c","ios":"levelo://app?vid=606053f9-3da2-4594-b4df-8e24b5fa812c"},"vehicle_type_id":"4","last_reported":1738393656,"current_range_meters":36400,"station_id":"cjm6bp8fraef2m0cb0m0","pricing_plan_id":"cebpf4jnsgd1na2vs0mg"},{"bike_id":"386de2ed-79d7-483f-aab9-de7573f3be92","system_id":"levelo_inurba_marseille","lat":43.315316,"lon":5.380382,"is_reserved":false,"is_disabled":false,"rental_uris":{"android":"levelo://app?vid=386de2ed-79d7-483f-aab9-de7573f3be92","ios":"levelo://app?vid=386de2ed-79d7-483f-aab9-de7573f3be92"},"vehicle_type_id":"4","last_reported":1738393656,"current_range_meters":38000,"station_id":"ce4bhsp2rcd13ifvqi50","pricing_plan_id":"cebpf4jnsgd1na2vs0mg"},{"bike_id":"c1dac6bc-1d5f-442d-823d-1945bf1b35b3","system_id":"levelo_inurba_marseille","lat":43.23203,"lon":5.35556,"is_reserved":false,"is_disabled":false,"rental_uris":{"android":"levelo://app?vid=c1dac6bc-1d5f-442d-823d-1945bf1b35b3","ios":"levelo://app?vid=c1dac6bc-1d5f-442d-823d-1945bf1b35b3"},"vehicle_type_id":"4","last_reported":1738393656,"current_range_meters":12000,"station_id":"ce4bhu92rcd13ifvqi70","pricing_plan_id":"cebpf4jnsgd1na2vs0mg"},{"bike_id":"25d1abb7-38f7-4aa9-b93a-52bf90780279","system_id":"levelo_inurba_marseille","lat":43.28074,"lon":5.39631,"is_reserved":false,"is_disabled":false,"rental_uris":{"android":"levelo://app?vid=25d1abb7-38f7-4aa9-b93a-52bf90780279","ios":"levelo://app?vid=25d1abb7-38f7-4aa9-b93a-52bf90780279"},"vehicle_type_id":"4","last_reported":1738393656,"current_range_meters":38800,"station_id":"ce4bho12rcd13ifvqh2g","pricing_plan_id":"cebpf4jnsgd1na2vs0mg"},{"bike_id":"5cd5a23a-ab00-4fbc-8a6c-45981dcdea3e","system_id":"levelo_inurba_marseille","lat":43.23966,"lon":5.36623,"is_reserved":false,"is_disabled":false,"rental_uris":{"android":"levelo://app?vid=5cd5a23a-ab00-4fbc-8a6c-45981dcdea3e","ios":"levelo://app?vid=5cd5a23a-ab00-4fbc-8a6c-45981dcdea3e"},"vehicle_type_id":"4","last_reported":1738393656,"current_range_meters":8000,"station_id":"ce4bhi12rcd13ifvqfp0","pricing_plan_id":"cebpf4jnsgd1na2vs0mg"},{"bike_id":"aeb28cb0-9273-4ef7-9710-c6f716294219","system_id":"levelo_inurba_marseille","lat":43.29641,"lon":5.4058,"is_reserved":false,"is_disabled":false,"rental_uris":{"android":"levelo://app?vid=aeb28cb0-9273-4ef7-9710-c6f716294219","ios":"levelo://app?vid=aeb28cb0-9273-4ef7-9710-c6f716294219"},"vehicle_type_id":"4","last_reported":1738393656,"current_range_meters":30000,"station_id":"ce4bh0h2rcd13ifvqd60","pricing_plan_id":"cebpf4jnsgd1na2vs0mg"},{"bike_id":"808232f1-e991-4dd8-8765-6f4f5aba4517","system_id":"levelo_inurba_marseille","lat":43.33621,"lon":5.40979,"is_reserved":false,"is_disabled":true,"rental_uris":{"android":"levelo://app?vid=808232f1-e991-4dd8-8765-6f4f5aba4517","ios":"levelo://app?vid=808232f1-e991-4dd8-8765-6f4f5aba4517"},"vehicle_type_id":"4","last_reported":1738393656,"current_range_meters":38800,"station_id":"ce4bhqh2rcd13ifvqhmg","pricing_plan_id":"cebpf4jnsgd1na2vs0mg"},{"bike_id":"26f0c763-2955-4920-a58a-d28d6a489be6","system_id":"levelo_inurba_marseille","lat":43.30463,"lon":5.37904,"is_reserved":false,"is_disabled":false,"rental_uris":{"android":"levelo://app?vid=26f0c763-2955-4920-a58a-d28d6a489be6","ios":"levelo://app?vid=26f0c763-2955-4920-a58a-d28d6a489be6"},"vehicle_type_id":"4","last_reported":1738393656,"current_range_meters":28000,"station_id":"ce4bgup2rcd13ifvqcn0","pricing_plan_id":"cebpf4jnsgd1na2vs0mg"},{"bike_id":"9199bf8c-07d0-469c-977d-d5098d8aa34d","system_id":"levelo_inurba_marseille","lat":43.302817,"lon":5.376954,"is_reserved":false,"is_disabled":false,"rental_uris":{"android":"levelo://app?vid=9199bf8c-07d0-469c-977d-d5098d8aa34d","ios":"levelo://app?vid=9199bf8c-07d0-469c-977d-d5098d8aa34d"},"vehicle_type_id":"4","last_reported":1738393656,"current_range_meters":38000,"station_id":"ce4bguh2rcd13ifvqcj0","pricing_plan_id":"cebpf4jnsgd1na2vs0mg"},{"bike_id":"095e5291-f842-4478-bc34-3769cd441c0c","system_id":"levelo_inurba_marseille","lat":43.28158,"lon":5.42636,"is_reserved":false,"is_disabled":false,"rental_uris":{"android":"levelo://app?vid=095e5291-f842-4478-bc34-3769cd441c0c","ios":"levelo://app?vid=095e5291-f842-4478-bc34-3769cd441c0c"},"vehicle_type_id":"4","last_reported":1738393656,"current_range_meters":20000,"station_id":"ce4bhnh2rcd13ifvqgug","pricing_plan_id":"cebpf4jnsgd1na2vs0mg"},{"bike_id":"bc7cb576-b4d8-434c-9311-4faf0afef938","system_id":"levelo_inurba_marseille","lat":43.31114,"lon":5.377714,"is_reserved":false,"is_disabled":false,"rental_uris":{"android":"levelo://app?vid=bc7cb576-b4d8-434c-9311-4faf0afef938","ios":"levelo://app?vid=bc7cb576-b4d8-434c-9311-4faf0afef938"},"vehicle_type_id":"4","last_reported":1738393656,"current_range_meters":30400,"station_id":"ce4bgt92rcd13ifvqcg0","pricing_plan_id":"cebpf4jnsgd1na2vs0mg"},{"bike_id":"9f7cbc3c-6e0b-4442-8c70-64c0b2a1452e","system_id":"levelo_inurba_marseille","lat":43.23056,"lon":5.35513,"is_reserved":false,"is_disabled":false,"rental_uris":{"android":"levelo://app?vid=9f7cbc3c-6e0b-4442-8c70-64c0b2a1452e","ios":"levelo://app?vid=9f7cbc3c-6e0b-4442-8c70-64c0b2a1452e"},"vehicle_type_id":"4","last_reported":1738393656,"current_range_meters":37600,"station_id":"cpo3342slgdg3j2ifvpg","pricing_plan_id":"cebpf4jnsgd1na2vs0mg"},{"bike_id":"c8a3a0ed-dff2-4f3c-87dc-2e6b47b1ad28","system_id":"levelo_inurba_marseille","lat":43.337444,"lon":5.374475,"is_reserved":false,"is_disabled":true,"rental_uris":{"android":"levelo://app?vid=c8a3a0ed-dff2-4f3c-87dc-2e6b47b1ad28","ios":"levelo://app?vid=c8a3a0ed-dff2-4f3c-87dc-2e6b47b1ad28"},"vehicle_type_id":"4","last_reported":1738393656,"current_range_meters":0,"station_id":"","pricing_plan_id":"cebpf4jnsgd1na2vs0mg"},{"bike_id":"9273438e-7bd8-48df-b2ed-deb581b23b41","system_id":"levelo_inurba_marseille","lat":43.27832,"lon":5.40725,"is_reserved":false,"is_disabled":false,"rental_uris":{"android":"levelo://app?vid=9273438e-7bd8-48df-b2ed-deb581b23b41","ios":"levelo://app?vid=9273438e-7bd8-48df-b2ed-deb581b23b41"},"vehicle_type_id":"4","last_reported":1738393656,"current_range_meters":25200,"station_id":"ce4bhnh2rcd13ifvqgtg","pricing_plan_id":"cebpf4jnsgd1na2vs0mg"},{"bike_id":"5fb4a66f-51bf-426e-9b3d-d6ab543456f5","system_id":"levelo_inurba_marseille","lat":43.29933,"lon":5.36531,"is_reserved":false,"is_disabled":false,"rental_uris":{"android":"levelo://app?vid=5fb4a66f-51bf-426e-9b3d-d6ab543456f5","ios":"levelo://app?vid=5fb4a66f-51bf-426e-9b3d-d6ab543456f5"},"vehicle_type_id":"4","last_reported":1738393656,"current_range_meters":6800,"station_id":"ce4bgm92rcd13ifvqbr0","pricing_plan_id":"cebpf4jnsgd1na2vs0mg"},{"bike_id":"b813fe64-8dbc-4195-b584-e56261d93ee7","system_id":"levelo_inurba_marseille","lat":43.27977,"lon":5.41656,"is_reserved":false,"is_disabled":false,"rental_uris":{"android":"levelo://app?vid=b813fe64-8dbc-4195-b584-e56261d93ee7","ios":"levelo://app?vid=b813fe64-8dbc-4195-b584-e56261d93ee7"},"vehicle_type_id":"4","last_reported":1738393656,"current_range_meters":38000,"station_id":"ce4bho12rcd13ifvqh1g","pricing_plan_id":"cebpf4jnsgd1na2vs0mg"},{"bike_id":"d3c16a37-16e7-46ce-a2fa-4472ecce2fd1","system_id":"levelo_inurba_marseille","lat":43.28484,"lon":5.38415,"is_reserved":false,"is_disabled":false,"rental_uris":{"android":"levelo://app?vid=d3c16a37-16e7-46ce-a2fa-4472ecce2fd1","ios":"levelo://app?vid=d3c16a37-16e7-46ce-a2fa-4472ecce2fd1"},"vehicle_type_id":"4","last_reported":1738393656,"current_range_meters":30000,"station_id":"ce4bh512rcd13ifvqe3g","pricing_plan_id":"cebpf4jnsgd1na2vs0mg"},{"bike_id":"b9dfdd12-ed8d-4873-9fc8-0a1849f2020b","system_id":"levelo_inurba_marseille","lat":43.268063,"lon":5.402766,"is_reserved":false,"is_disabled":false,"rental_uris":{"android":"levelo://app?vid=b9dfdd12-ed8d-4873-9fc8-0a1849f2020b","ios":"levelo://app?vid=b9dfdd12-ed8d-4873-9fc8-0a1849f2020b"},"vehicle_type_id":"4","last_reported":1738393656,"current_range_meters":36400,"station_id":"ce501612rcd8frsf0b60","pricing_plan_id":"cebpf4jnsgd1na2vs0mg"},{"bike_id":"8a0b0f71-ea58-479d-ae37-94ecd5d87664","system_id":"levelo_inurba_marseille","lat":43.28038,"lon":5.36951,"is_reserved":false,"is_disabled":false,"rental_uris":{"android":"levelo://app?vid=8a0b0f71-ea58-479d-ae37-94ecd5d87664","ios":"levelo://app?vid=8a0b0f71-ea58-479d-ae37-94ecd5d87664"},"vehicle_type_id":"4","last_reported":1738393656,"current_range_meters":28000,"station_id":"ce4bha12rcd13ifvqef0","pricing_plan_id":"cebpf4jnsgd1na2vs0mg"},{"bike_id":"5e3b520f-d62c-4b62-8a56-6e20bab6654b","system_id":"levelo_inurba_marseille","lat":43.27817,"lon":5.4071,"is_reserved":false,"is_disabled":false,"rental_uris":{"android":"levelo://app?vid=5e3b520f-d62c-4b62-8a56-6e20bab6654b","ios":"levelo://app?vid=5e3b520f-d62c-4b62-8a56-6e20bab6654b"},"vehicle_type_id":"4","last_reported":1738393656,"current_range_meters":24000,"station_id":"ce4bhnh2rcd13ifvqgtg","pricing_plan_id":"cebpf4jnsgd1na2vs0mg"},{"bike_id":"32802d31-82e5-49aa-928e-45336ddb5e58","system_id":"levelo_inurba_marseille","lat":43.25009,"lon":5.38937,"is_reserved":false,"is_disabled":false,"rental_uris":{"android":"levelo://app?vid=32802d31-82e5-49aa-928e-45336ddb5e58","ios":"levelo://app?vid=32802d31-82e5-49aa-928e-45336ddb5e58"},"vehicle_type_id":"4","last_reported":1738393656,"current_range_meters":38800,"station_id":"ce4bhgp2rcd13ifvqfd0","pricing_plan_id":"cebpf4jnsgd1na2vs0mg"},{"bike_id":"d06240a3-8895-42e8-9212-5c068d44e9d2","system_id":"levelo_inurba_marseille","lat":43.28693,"lon":5.35056,"is_reserved":false,"is_disabled":false,"rental_uris":{"android":"levelo://app?vid=d06240a3-8895-42e8-9212-5c068d44e9d2","ios":"levelo://app?vid=d06240a3-8895-42e8-9212-5c068d44e9d2"},"vehicle_type_id":"4","last_reported":1738393656,"current_range_meters":24000,"station_id":"","pricing_plan_id":"cebpf4jnsgd1na2vs0mg"},{"bike_id":"083d9d25-314d-4840-9aef-6bc4136697d8","system_id":"levelo_inurba_marseille","lat":43.2757,"lon":5.38422,"is_reserved":false,"is_disabled":false,"rental_uris":{"android":"levelo://app?vid=083d9d25-314d-4840-9aef-6bc4136697d8","ios":"levelo://app?vid=083d9d25-314d-4840-9aef-6bc4136697d8"},"vehicle_type_id":"4","last_reported":1738393656,"current_range_meters":25200,"station_id":"ce4bhh92rcd13ifvqfi0","pricing_plan_id":"cebpf4jnsgd1na2vs0mg"},{"bike_id":"c6ad9228-2f33-41f3-a929-9e0a226fedef","system_id":"levelo_inurba_marseille","lat":43.245483,"lon":5.39529,"is_reserved":false,"is_disabled":false,"rental_uris":{"android":"levelo://app?vid=c6ad9228-2f33-41f3-a929-9e0a226fedef","ios":"levelo://app?vid=c6ad9228-2f33-41f3-a929-9e0a226fedef"},"vehicle_type_id":"4","last_reported":1738393656,"current_range_meters":38800,"station_id":"ce4bhlp2rcd13ifvqgjg","pricing_plan_id":"cebpf4jnsgd1na2vs0mg"},{"bike_id":"fbda516c-63aa-4550-b5e1-91f009f6a84d","system_id":"levelo_inurba_marseille","lat":43.28461,"lon":5.35895,"is_reserved":false,"is_disabled":false,"rental_uris":{"android":"levelo://app?vid=fbda516c-63aa-4550-b5e1-91f009f6a84d","ios":"levelo://app?vid=fbda516c-63aa-4550-b5e1-91f009f6a84d"},"vehicle_type_id":"4","last_reported":1738393656,"current_range_meters":38800,"station_id":"ce4bhah2rcd13ifvqei0","pricing_plan_id":"cebpf4jnsgd1na2vs0mg"},{"bike_id":"59536372-f104-4170-8095-fcb99d0d8f05","system_id":"levelo_inurba_marseille","lat":43.30891,"lon":5.37193,"is_reserved":false,"is_disabled":false,"rental_uris":{"android":"levelo://app?vid=59536372-f104-4170-8095-fcb99d0d8f05","ios":"levelo://app?vid=59536372-f104-4170-8095-fcb99d0d8f05"},"vehicle_type_id":"4","last_reported":1738393656,"current_range_meters":38000,"station_id":"ce4bguh2rcd13ifvqckg","pricing_plan_id":"cebpf4jnsgd1na2vs0mg"},{"bike_id":"73f7238e-30c9-4488-be99-7dcbc311013d","system_id":"levelo_inurba_marseille","lat":43.308812,"lon":5.396356,"is_reserved":false,"is_disabled":false,"rental_uris":{"android":"levelo://app?vid=73f7238e-30c9-4488-be99-7dcbc311013d","ios":"levelo://app?vid=73f7238e-30c9-4488-be99-7dcbc311013d"},"vehicle_type_id":"4","last_reported":1738393656,"current_range_meters":6000,"station_id":"ce4bh012rcd13ifvqcv0","pricing_plan_id":"cebpf4jnsgd1na2vs0mg"},{"bike_id":"e30ef50d-892f-4fe0-938d-57369caf2166","system_id":"levelo_inurba_marseille","lat":43.22933,"lon":5.35376,"is_reserved":false,"is_disabled":false,"rental_uris":{"android":"levelo://app?vid=e30ef50d-892f-4fe0-938d-57369caf2166","ios":"levelo://app?vid=e30ef50d-892f-4fe0-938d-57369caf2166"},"vehicle_type_id":"4","last_reported":1738393656,"current_range_meters":16400,"station_id":"cpo3532slgdg3j2ikp40","pricing_plan_id":"cebpf4jnsgd1na2vs0mg"},{"bike_id":"2e0b6bc5-45e8-4fe9-bcd1-009b1c57757f","system_id":"levelo_inurba_marseille","lat":43.27959,"lon":5.38721,"is_reserved":false,"is_disabled":false,"rental_uris":{"android":"levelo://app?vid=2e0b6bc5-45e8-4fe9-bcd1-009b1c57757f","ios":"levelo://app?vid=2e0b6bc5-45e8-4fe9-bcd1-009b1c57757f"},"vehicle_type_id":"4","last_reported":1738393656,"current_range_meters":38800,"station_id":"ce4bhg12rcd13ifvqf80","pricing_plan_id":"cebpf4jnsgd1na2vs0mg"},{"bike_id":"9838cc78-2b53-49d3-ae13-82df62c4fd64","system_id":"levelo_inurba_marseille","lat":43.28412,"lon":5.40934,"is_reserved":false,"is_disabled":true,"rental_uris":{"android":"levelo://app?vid=9838cc78-2b53-49d3-ae13-82df62c4fd64","ios":"levelo://app?vid=9838cc78-2b53-49d3-ae13-82df62c4fd64"},"vehicle_type_id":"4","last_reported":1738393656,"current_range_meters":0,"station_id":"","pricing_plan_id":"cebpf4jnsgd1na2vs0mg"},{"bike_id":"0c15d129-0013-4406-bfc7-ea5516c12f82","system_id":"levelo_inurba_marseille","lat":43.28368,"lon":5.38614,"is_reserved":false,"is_disabled":false,"rental_uris":{"android":"levelo://app?vid=0c15d129-0013-4406-bfc7-ea5516c12f82","ios":"levelo://app?vid=0c15d129-0013-4406-bfc7-ea5516c12f82"},"vehicle_type_id":"4","last_reported":1738393656,"current_range_meters":38800,"station_id":"ce4bh492rcd13ifvqdvg","pricing_plan_id":"cebpf4jnsgd1na2vs0mg"},{"bike_id":"9a8eece3-f174-4517-bbe9-65daeb021c0c","system_id":"levelo_inurba_marseille","lat":43.2619,"lon":5.3793,"is_reserved":false,"is_disabled":false,"rental_uris":{"android":"levelo://app?vid=9a8eece3-f174-4517-bbe9-65daeb021c0c","ios":"levelo://app?vid=9a8eece3-f174-4517-bbe9-65daeb021c0c"},"vehicle_type_id":"4","last_reported":1738393656,"current_range_meters":38800,"station_id":"ce4bhjp2rcd13ifvqg90","pricing_plan_id":"cebpf4jnsgd1na2vs0mg"},{"bike_id":"cfdc3e36-f1ca-4859-b324-931a3f1626bd","system_id":"levelo_inurba_marseille","lat":43.25585,"lon":5.38231,"is_reserved":false,"is_disabled":false,"rental_uris":{"android":"levelo://app?vid=cfdc3e36-f1ca-4859-b324-931a3f1626bd","ios":"levelo://app?vid=cfdc3e36-f1ca-4859-b324-931a3f1626bd"},"vehicle_type_id":"4","last_reported":1738393656,"current_range_meters":38800,"station_id":"ce4bhih2rcd13ifvqfs0","pricing_plan_id":"cebpf4jnsgd1na2vs0mg"},{"bike_id":"7f476690-f1b5-43de-833f-9dc71e2f79b2","system_id":"levelo_inurba_marseille","lat":43.31704,"lon":5.43711,"is_reserved":false,"is_disabled":false,"rental_uris":{"android":"levelo://app?vid=7f476690-f1b5-43de-833f-9dc71e2f79b2","ios":"levelo://app?vid=7f476690-f1b5-43de-833f-9dc71e2f79b2"},"vehicle_type_id":"4","last_reported":1738393656,"current_range_meters":38800,"station_id":"ce4bhp92rcd13ifvqhcg","pricing_plan_id":"cebpf4jnsgd1na2vs0mg"},{"bike_id":"78b43ac5-e91a-459f-a654-a1d5375a0672","system_id":"levelo_inurba_marseille","lat":43.29887,"lon":5.43693,"is_reserved":false,"is_disabled":false,"rental_uris":{"android":"levelo://app?vid=78b43ac5-e91a-459f-a654-a1d5375a0672","ios":"levelo://app?vid=78b43ac5-e91a-459f-a654-a1d5375a0672"},"vehicle_type_id":"4","last_reported":1738393656,"current_range_meters":9600,"station_id":"ce4bhpp2rcd13ifvqhfg","pricing_plan_id":"cebpf4jnsgd1na2vs0mg"},{"bike_id":"1fcbaa48-9a76-43b5-95fc-cc01a37fb9c5","system_id":"levelo_inurba_marseille","lat":43.27949,"lon":5.41041,"is_reserved":false,"is_disabled":false,"rental_uris":{"android":"levelo://app?vid=1fcbaa48-9a76-43b5-95fc-cc01a37fb9c5","ios":"levelo://app?vid=1fcbaa48-9a76-43b5-95fc-cc01a37fb9c5"},"vehicle_type_id":"4","last_reported":1738393656,"current_range_meters":32800,"station_id":"ce4bhnp2rcd13ifvqh0g","pricing_plan_id":"cebpf4jnsgd1na2vs0mg"},{"bike_id":"99ada82f-98f9-42c9-be08-39ee133997ac","system_id":"levelo_inurba_marseille","lat":43.28626,"lon":5.35111,"is_reserved":false,"is_disabled":false,"rental_uris":{"android":"levelo://app?vid=99ada82f-98f9-42c9-be08-39ee133997ac","ios":"levelo://app?vid=99ada82f-98f9-42c9-be08-39ee133997ac"},"vehicle_type_id":"4","last_reported":1738393656,"current_range_meters":22000,"station_id":"ce4bhch2rcd13ifvqeug","pricing_plan_id":"cebpf4jnsgd1na2vs0mg"},{"bike_id":"1578e201-14fb-4182-b6c7-4611fdea4258","system_id":"levelo_inurba_marseille","lat":43.30784,"lon":5.37656,"is_reserved":false,"is_disabled":false,"rental_uris":{"android":"levelo://app?vid=1578e201-14fb-4182-b6c7-4611fdea4258","ios":"levelo://app?vid=1578e201-14fb-4182-b6c7-4611fdea4258"},"vehicle_type_id":"4","last_reported":1738393656,"current_range_meters":38800,"station_id":"ce4bgv92rcd13ifvqcq0","pricing_plan_id":"cebpf4jnsgd1na2vs0mg"},{"bike_id":"e36db7bd-314f-4fd3-ada1-10478b463cf0","system_id":"levelo_inurba_marseille","lat":43.27899,"lon":5.380044,"is_reserved":false,"is_disabled":false,"rental_uris":{"android":"levelo://app?vid=e36db7bd-314f-4fd3-ada1-10478b463cf0","ios":"levelo://app?vid=e36db7bd-314f-4fd3-ada1-10478b463cf0"},"vehicle_type_id":"4","last_reported":1738393656,"current_range_meters":38000,"station_id":"ce4bhf92rcd13ifvqf50","pricing_plan_id":"cebpf4jnsgd1na2vs0mg"},{"bike_id":"3d3683d0-6fa2-4625-8b79-882bbb185c30","system_id":"levelo_inurba_marseille","lat":43.32273,"lon":5.38236,"is_reserved":false,"is_disabled":false,"rental_uris":{"android":"levelo://app?vid=3d3683d0-6fa2-4625-8b79-882bbb185c30","ios":"levelo://app?vid=3d3683d0-6fa2-4625-8b79-882bbb185c30"},"vehicle_type_id":"4","last_reported":1738393656,"current_range_meters":25200,"station_id":"ce4bhr12rcd13ifvqhqg","pricing_plan_id":"cebpf4jnsgd1na2vs0mg"},{"bike_id":"49ec1a60-c709-436e-9451-39667baa706d","system_id":"levelo_inurba_marseille","lat":43.25094,"lon":5.40342,"is_reserved":false,"is_disabled":false,"rental_uris":{"android":"levelo://app?vid=49ec1a60-c709-436e-9451-39667baa706d","ios":"levelo://app?vid=49ec1a60-c709-436e-9451-39667baa706d"},"vehicle_type_id":"4","last_reported":1738393656,"current_range_meters":6800,"station_id":"ce4bhlh2rcd13ifvqgig","pricing_plan_id":"cebpf4jnsgd1na2vs0mg"},{"bike_id":"32198985-a692-4203-a9d2-0a36a316cc12","system_id":"levelo_inurba_marseille","lat":43.27197,"lon":5.39211,"is_reserved":false,"is_disabled":false,"rental_uris":{"android":"levelo://app?vid=32198985-a692-4203-a9d2-0a36a316cc12","ios":"levelo://app?vid=32198985-a692-4203-a9d2-0a36a316cc12"},"vehicle_type_id":"4","last_reported":1738393656,"current_range_meters":38400,"station_id":"ce4bhhp2rcd13ifvqfm0","pricing_plan_id":"cebpf4jnsgd1na2vs0mg"},{"bike_id":"59e98682-9355-45ca-aaa0-29b37b791d30","system_id":"levelo_inurba_marseille","lat":43.29568,"lon":5.42283,"is_reserved":false,"is_disabled":false,"rental_uris":{"android":"levelo://app?vid=59e98682-9355-45ca-aaa0-29b37b791d30","ios":"levelo://app?vid=59e98682-9355-45ca-aaa0-29b37b791d30"},"vehicle_type_id":"4","last_reported":1738393656,"current_range_meters":8000,"station_id":"ce4bhph2rcd13ifvqhdg","pricing_plan_id":"cebpf4jnsgd1na2vs0mg"},{"bike_id":"c14643b9-ff56-44c6-a4b7-4e03687c6372","system_id":"levelo_inurba_marseille","lat":43.25001,"lon":5.38929,"is_reserved":false,"is_disabled":false,"rental_uris":{"android":"levelo://app?vid=c14643b9-ff56-44c6-a4b7-4e03687c6372","ios":"levelo://app?vid=c14643b9-ff56-44c6-a4b7-4e03687c6372"},"vehicle_type_id":"4","last_reported":1738393656,"current_range_meters":25200,"station_id":"ce4bhgp2rcd13ifvqfd0","pricing_plan_id":"cebpf4jnsgd1na2vs0mg"},{"bike_id":"a5536eb2-7c9b-4d87-87fa-195cc64f7ed9","system_id":"levelo_inurba_marseille","lat":43.30943,"lon":5.39546,"is_reserved":false,"is_disabled":false,"rental_uris":{"android":"levelo://app?vid=a5536eb2-7c9b-4d87-87fa-195cc64f7ed9","ios":"levelo://app?vid=a5536eb2-7c9b-4d87-87fa-195cc64f7ed9"},"vehicle_type_id":"4","last_reported":1738393656,"current_range_meters":38800,"station_id":"ce4bh012rcd13ifvqcv0","pricing_plan_id":"cebpf4jnsgd1na2vs0mg"},{"bike_id":"e2c49145-d80d-4c68-8184-02b30e52c755","system_id":"levelo_inurba_marseille","lat":43.30788,"lon":5.43518,"is_reserved":false,"is_disabled":false,"rental_uris":{"android":"levelo://app?vid=e2c49145-d80d-4c68-8184-02b30e52c755","ios":"levelo://app?vid=e2c49145-d80d-4c68-8184-02b30e52c755"},"vehicle_type_id":"4","last_reported":1738393656,"current_range_meters":26000,"station_id":"ce4bhph2rcd13ifvqheg","pricing_plan_id":"cebpf4jnsgd1na2vs0mg"},{"bike_id":"d6b47bfc-0113-463d-bb25-e907a6c4126a","system_id":"levelo_inurba_marseille","lat":43.24088,"lon":5.37735,"is_reserved":false,"is_disabled":false,"rental_uris":{"android":"levelo://app?vid=d6b47bfc-0113-463d-bb25-e907a6c4126a","ios":"levelo://app?vid=d6b47bfc-0113-463d-bb25-e907a6c4126a"},"vehicle_type_id":"4","last_reported":1738393656,"current_range_meters":38800,"station_id":"ce4bhnp2rcd13ifvqgvg","pricing_plan_id":"cebpf4jnsgd1na2vs0mg"},{"bike_id":"d979d8d2-ec65-47af-9229-e4270aab279a","system_id":"levelo_inurba_marseille","lat":43.23065,"lon":5.35491,"is_reserved":false,"is_disabled":false,"rental_uris":{"android":"levelo://app?vid=d979d8d2-ec65-47af-9229-e4270aab279a","ios":"levelo://app?vid=d979d8d2-ec65-47af-9229-e4270aab279a"},"vehicle_type_id":"4","last_reported":1738393656,"current_range_meters":6800,"station_id":"cpo3342slgdg3j2ifvpg","pricing_plan_id":"cebpf4jnsgd1na2vs0mg"},{"bike_id":"6c3dc766-6e0f-4499-aa5b-81db1b61e6be","system_id":"levelo_inurba_marseille","lat":43.28832,"lon":5.35844,"is_reserved":false,"is_disabled":false,"rental_uris":{"android":"levelo://app?vid=6c3dc766-6e0f-4499-aa5b-81db1b61e6be","ios":"levelo://app?vid=6c3dc766-6e0f-4499-aa5b-81db1b61e6be"},"vehicle_type_id":"4","last_reported":1738393656,"current_range_meters":38800,"station_id":"ce4bhb12rcd13ifvqem0","pricing_plan_id":"cebpf4jnsgd1na2vs0mg"},{"bike_id":"0eac4d10-00a1-4bf1-9a7b-13a286392fa3","system_id":"levelo_inurba_marseille","lat":43.3201,"lon":5.41585,"is_reserved":false,"is_disabled":true,"rental_uris":{"android":"levelo://app?vid=0eac4d10-00a1-4bf1-9a7b-13a286392fa3","ios":"levelo://app?vid=0eac4d10-00a1-4bf1-9a7b-13a286392fa3"},"vehicle_type_id":"4","last_reported":1738393656,"current_range_meters":30800,"station_id":"ce4bhq92rcd13ifvqhkg","pricing_plan_id":"cebpf4jnsgd1na2vs0mg"},{"bike_id":"f35c5707-b892-43a1-9b0f-bbdf61bc2676","system_id":"levelo_inurba_marseille","lat":43.31194,"lon":5.3872,"is_reserved":false,"is_disabled":false,"rental_uris":{"android":"levelo://app?vid=f35c5707-b892-43a1-9b0f-bbdf61bc2676","ios":"levelo://app?vid=f35c5707-b892-43a1-9b0f-bbdf61bc2676"},"vehicle_type_id":"4","last_reported":1738393656,"current_range_meters":35200,"station_id":"ce4bgv12rcd13ifvqcp0","pricing_plan_id":"cebpf4jnsgd1na2vs0mg"},{"bike_id":"5e247067-8eb1-4b0c-b753-3edbc9392c23","system_id":"levelo_inurba_marseille","lat":43.268055,"lon":5.40263,"is_reserved":false,"is_disabled":false,"rental_uris":{"android":"levelo://app?vid=5e247067-8eb1-4b0c-b753-3edbc9392c23","ios":"levelo://app?vid=5e247067-8eb1-4b0c-b753-3edbc9392c23"},"vehicle_type_id":"4","last_reported":1738393656,"current_range_meters":9200,"station_id":"ce501612rcd8frsf0b60","pricing_plan_id":"cebpf4jnsgd1na2vs0mg"},{"bike_id":"5f54821c-0fbe-49b4-9faa-b664d07c2b1a","system_id":"levelo_inurba_marseille","lat":43.24399,"lon":5.37049,"is_reserved":false,"is_disabled":false,"rental_uris":{"android":"levelo://app?vid=5f54821c-0fbe-49b4-9faa-b664d07c2b1a","ios":"levelo://app?vid=5f54821c-0fbe-49b4-9faa-b664d07c2b1a"},"vehicle_type_id":"4","last_reported":1738393656,"current_range_meters":38800,"station_id":"ce4bhhh2rcd13ifvqfk0","pricing_plan_id":"cebpf4jnsgd1na2vs0mg"},{"bike_id":"6951eebc-7f6d-4e4a-9f3f-5b0ee979e759","system_id":"levelo_inurba_marseille","lat":43.29893,"lon":5.43673,"is_reserved":false,"is_disabled":false,"rental_uris":{"android":"levelo://app?vid=6951eebc-7f6d-4e4a-9f3f-5b0ee979e759","ios":"levelo://app?vid=6951eebc-7f6d-4e4a-9f3f-5b0ee979e759"},"vehicle_type_id":"4","last_reported":1738393656,"current_range_meters":7200,"station_id":"ce4bhpp2rcd13ifvqhfg","pricing_plan_id":"cebpf4jnsgd1na2vs0mg"},{"bike_id":"7d6260ec-6d8c-4d5b-8950-1a493871014c","system_id":"levelo_inurba_marseille","lat":43.29904,"lon":5.43663,"is_reserved":false,"is_disabled":false,"rental_uris":{"android":"levelo://app?vid=7d6260ec-6d8c-4d5b-8950-1a493871014c","ios":"levelo://app?vid=7d6260ec-6d8c-4d5b-8950-1a493871014c"},"vehicle_type_id":"4","last_reported":1738393656,"current_range_meters":27600,"station_id":"ce4bhpp2rcd13ifvqhfg","pricing_plan_id":"cebpf4jnsgd1na2vs0mg"},{"bike_id":"90d8247b-1174-449d-9eb0-b1f3c78024c6","system_id":"levelo_inurba_marseille","lat":43.27974,"lon":5.41657,"is_reserved":false,"is_disabled":false,"rental_uris":{"android":"levelo://app?vid=90d8247b-1174-449d-9eb0-b1f3c78024c6","ios":"levelo://app?vid=90d8247b-1174-449d-9eb0-b1f3c78024c6"},"vehicle_type_id":"4","last_reported":1738393656,"current_range_meters":33600,"station_id":"ce4bho12rcd13ifvqh1g","pricing_plan_id":"cebpf4jnsgd1na2vs0mg"},{"bike_id":"022cd4f7-f0ff-407d-baab-b560a1d769d2","system_id":"levelo_inurba_marseille","lat":43.30582,"lon":5.37223,"is_reserved":false,"is_disabled":false,"rental_uris":{"android":"levelo://app?vid=022cd4f7-f0ff-407d-baab-b560a1d769d2","ios":"levelo://app?vid=022cd4f7-f0ff-407d-baab-b560a1d769d2"},"vehicle_type_id":"4","last_reported":1738393656,"current_range_meters":38000,"station_id":"ce4bgqh2rcd13ifvqc4g","pricing_plan_id":"cebpf4jnsgd1na2vs0mg"},{"bike_id":"f99e91c4-2330-4795-bfe7-3495ca9ba92c","system_id":"levelo_inurba_marseille","lat":43.289431,"lon":5.366279,"is_reserved":false,"is_disabled":true,"rental_uris":{"android":"levelo://app?vid=f99e91c4-2330-4795-bfe7-3495ca9ba92c","ios":"levelo://app?vid=f99e91c4-2330-4795-bfe7-3495ca9ba92c"},"vehicle_type_id":"4","last_reported":1738393656,"current_range_meters":34000,"station_id":"ce4bhap2rcd13ifvqek0","pricing_plan_id":"cebpf4jnsgd1na2vs0mg"},{"bike_id":"682a9e54-ecb8-495c-88d2-a74ee011243f","system_id":"levelo_inurba_marseille","lat":43.231953,"lon":5.355581,"is_reserved":false,"is_disabled":false,"rental_uris":{"android":"levelo://app?vid=682a9e54-ecb8-495c-88d2-a74ee011243f","ios":"levelo://app?vid=682a9e54-ecb8-495c-88d2-a74ee011243f"},"vehicle_type_id":"4","last_reported":1738393656,"current_range_meters":38800,"station_id":"ce4bhu92rcd13ifvqi70","pricing_plan_id":"cebpf4jnsgd1na2vs0mg"},{"bike_id":"396d2bf0-6b5f-403b-bacf-9deaab552e51","system_id":"levelo_inurba_marseille","lat":43.2396,"lon":5.36617,"is_reserved":false,"is_disabled":false,"rental_uris":{"android":"levelo://app?vid=396d2bf0-6b5f-403b-bacf-9deaab552e51","ios":"levelo://app?vid=396d2bf0-6b5f-403b-bacf-9deaab552e51"},"vehicle_type_id":"4","last_reported":1738393656,"current_range_meters":9200,"station_id":"ce4bhi12rcd13ifvqfp0","pricing_plan_id":"cebpf4jnsgd1na2vs0mg"},{"bike_id":"d8b1c3f9-ff6e-4179-8423-4ba0d2a2af0e","system_id":"levelo_inurba_marseille","lat":43.33722,"lon":5.39182,"is_reserved":false,"is_disabled":false,"rental_uris":{"android":"levelo://app?vid=d8b1c3f9-ff6e-4179-8423-4ba0d2a2af0e","ios":"levelo://app?vid=d8b1c3f9-ff6e-4179-8423-4ba0d2a2af0e"},"vehicle_type_id":"4","last_reported":1738393656,"current_range_meters":38800,"station_id":"ce4bhr92rcd13ifvqhsg","pricing_plan_id":"cebpf4jnsgd1na2vs0mg"},{"bike_id":"206fc68c-39bf-482d-b1b0-948a6162fce9","system_id":"levelo_inurba_marseille","lat":43.25108,"lon":5.40326,"is_reserved":false,"is_disabled":true,"rental_uris":{"android":"levelo://app?vid=206fc68c-39bf-482d-b1b0-948a6162fce9","ios":"levelo://app?vid=206fc68c-39bf-482d-b1b0-948a6162fce9"},"vehicle_type_id":"4","last_reported":1738393656,"current_range_meters":400,"station_id":"ce4bhlh2rcd13ifvqgig","pricing_plan_id":"cebpf4jnsgd1na2vs0mg"},{"bike_id":"42a9e3d0-b5f9-40a4-bbd4-19695b9a6333","system_id":"levelo_inurba_marseille","lat":43.330241,"lon":5.390366,"is_reserved":false,"is_disabled":false,"rental_uris":{"android":"levelo://app?vid=42a9e3d0-b5f9-40a4-bbd4-19695b9a6333","ios":"levelo://app?vid=42a9e3d0-b5f9-40a4-bbd4-19695b9a6333"},"vehicle_type_id":"4","last_reported":1738393656,"current_range_meters":38800,"station_id":"ce4bhr92rcd13ifvqhrg","pricing_plan_id":"cebpf4jnsgd1na2vs0mg"},{"bike_id":"23d607b4-9cdd-4843-8952-4da90f95e291","system_id":"levelo_inurba_marseille","lat":43.23189,"lon":5.39978,"is_reserved":false,"is_disabled":false,"rental_uris":{"android":"levelo://app?vid=23d607b4-9cdd-4843-8952-4da90f95e291","ios":"levelo://app?vid=23d607b4-9cdd-4843-8952-4da90f95e291"},"vehicle_type_id":"4","last_reported":1738393656,"current_range_meters":30400,"station_id":"ce4bhn12rcd13ifvqgqg","pricing_plan_id":"cebpf4jnsgd1na2vs0mg"},{"bike_id":"37a316fb-b3fd-47c4-b337-ae3ed2613770","system_id":"levelo_inurba_marseille","lat":43.25864,"lon":5.39949,"is_reserved":false,"is_disabled":false,"rental_uris":{"android":"levelo://app?vid=37a316fb-b3fd-47c4-b337-ae3ed2613770","ios":"levelo://app?vid=37a316fb-b3fd-47c4-b337-ae3ed2613770"},"vehicle_type_id":"4","last_reported":1738393656,"current_range_meters":36800,"station_id":"ce4bhl92rcd13ifvqghg","pricing_plan_id":"cebpf4jnsgd1na2vs0mg"},{"bike_id":"f086b070-9af2-4a12-baa6-4f5148d2f614","system_id":"levelo_inurba_marseille","lat":43.27817,"lon":5.40768,"is_reserved":false,"is_disabled":false,"rental_uris":{"android":"levelo://app?vid=f086b070-9af2-4a12-baa6-4f5148d2f614","ios":"levelo://app?vid=f086b070-9af2-4a12-baa6-4f5148d2f614"},"vehicle_type_id":"4","last_reported":1738393656,"current_range_meters":16400,"station_id":"ce4bhnh2rcd13ifvqgtg","pricing_plan_id":"cebpf4jnsgd1na2vs0mg"},{"bike_id":"f1531728-b8ea-45f6-b10e-94dd52db4db3","system_id":"levelo_inurba_marseille","lat":43.3132,"lon":5.39724,"is_reserved":false,"is_disabled":false,"rental_uris":{"android":"levelo://app?vid=f1531728-b8ea-45f6-b10e-94dd52db4db3","ios":"levelo://app?vid=f1531728-b8ea-45f6-b10e-94dd52db4db3"},"vehicle_type_id":"4","last_reported":1738393656,"current_range_meters":38000,"station_id":"ce4bgvp2rcd13ifvqcu0","pricing_plan_id":"cebpf4jnsgd1na2vs0mg"},{"bike_id":"1ff45b20-08ac-407b-ab5d-b5899df3e90f","system_id":"levelo_inurba_marseille","lat":43.309301,"lon":5.401604,"is_reserved":false,"is_disabled":false,"rental_uris":{"android":"levelo://app?vid=1ff45b20-08ac-407b-ab5d-b5899df3e90f","ios":"levelo://app?vid=1ff45b20-08ac-407b-ab5d-b5899df3e90f"},"vehicle_type_id":"4","last_reported":1738393656,"current_range_meters":38800,"station_id":"ce4bgvp2rcd13ifvqct0","pricing_plan_id":"cebpf4jnsgd1na2vs0mg"},{"bike_id":"3e8ac81e-fafa-4918-bfdd-b6bf11718524","system_id":"levelo_inurba_marseille","lat":43.29039,"lon":5.35916,"is_reserved":false,"is_disabled":false,"rental_uris":{"android":"levelo://app?vid=3e8ac81e-fafa-4918-bfdd-b6bf11718524","ios":"levelo://app?vid=3e8ac81e-fafa-4918-bfdd-b6bf11718524"},"vehicle_type_id":"4","last_reported":1738393656,"current_range_meters":38800,"station_id":"ce4bha92rcd13ifvqeg0","pricing_plan_id":"cebpf4jnsgd1na2vs0mg"},{"bike_id":"d38c6c37-6390-4657-8b2c-678f125ef31d","system_id":"levelo_inurba_marseille","lat":43.31324,"lon":5.39698,"is_reserved":false,"is_disabled":false,"rental_uris":{"android":"levelo://app?vid=d38c6c37-6390-4657-8b2c-678f125ef31d","ios":"levelo://app?vid=d38c6c37-6390-4657-8b2c-678f125ef31d"},"vehicle_type_id":"4","last_reported":1738393656,"current_range_meters":8800,"station_id":"ce4bgvp2rcd13ifvqcu0","pricing_plan_id":"cebpf4jnsgd1na2vs0mg"},{"bike_id":"2047e938-57e3-4375-958a-69a4e97a2c7d","system_id":"levelo_inurba_marseille","lat":43.2318,"lon":5.39994,"is_reserved":false,"is_disabled":false,"rental_uris":{"android":"levelo://app?vid=2047e938-57e3-4375-958a-69a4e97a2c7d","ios":"levelo://app?vid=2047e938-57e3-4375-958a-69a4e97a2c7d"},"vehicle_type_id":"4","last_reported":1738393656,"current_range_meters":10000,"station_id":"ce4bhn12rcd13ifvqgqg","pricing_plan_id":"cebpf4jnsgd1na2vs0mg"},{"bike_id":"5dd8e8c0-c04f-43b6-b935-fb3c1ee809cd","system_id":"levelo_inurba_marseille","lat":43.30156,"lon":5.38084,"is_reserved":false,"is_disabled":false,"rental_uris":{"android":"levelo://app?vid=5dd8e8c0-c04f-43b6-b935-fb3c1ee809cd","ios":"levelo://app?vid=5dd8e8c0-c04f-43b6-b935-fb3c1ee809cd"},"vehicle_type_id":"4","last_reported":1738393656,"current_range_meters":38800,"station_id":"ce4bgjp2rcd13ifvqbh0","pricing_plan_id":"cebpf4jnsgd1na2vs0mg"},{"bike_id":"9a5dd714-85fe-466b-a1c2-d9dcf5c309b2","system_id":"levelo_inurba_marseille","lat":43.28627,"lon":5.35104,"is_reserved":false,"is_disabled":false,"rental_uris":{"android":"levelo://app?vid=9a5dd714-85fe-466b-a1c2-d9dcf5c309b2","ios":"levelo://app?vid=9a5dd714-85fe-466b-a1c2-d9dcf5c309b2"},"vehicle_type_id":"4","last_reported":1738393656,"current_range_meters":12400,"station_id":"ce4bhch2rcd13ifvqeug","pricing_plan_id":"cebpf4jnsgd1na2vs0mg"},{"bike_id":"1c5f32a5-3fae-4ceb-8b01-7113aed4134b","system_id":"levelo_inurba_marseille","lat":43.25577,"lon":5.3824,"is_reserved":false,"is_disabled":false,"rental_uris":{"android":"levelo://app?vid=1c5f32a5-3fae-4ceb-8b01-7113aed4134b","ios":"levelo://app?vid=1c5f32a5-3fae-4ceb-8b01-7113aed4134b"},"vehicle_type_id":"4","last_reported":1738393656,"current_range_meters":8800,"station_id":"ce4bhih2rcd13ifvqfs0","pricing_plan_id":"cebpf4jnsgd1na2vs0mg"},{"bike_id":"fa7fe4a9-29d6-4ebf-8f79-2665f37910aa","system_id":"levelo_inurba_marseille","lat":43.2807,"lon":5.39642,"is_reserved":false,"is_disabled":false,"rental_uris":{"android":"levelo://app?vid=fa7fe4a9-29d6-4ebf-8f79-2665f37910aa","ios":"levelo://app?vid=fa7fe4a9-29d6-4ebf-8f79-2665f37910aa"},"vehicle_type_id":"4","last_reported":1738393656,"current_range_meters":19600,"station_id":"ce4bho12rcd13ifvqh2g","pricing_plan_id":"cebpf4jnsgd1na2vs0mg"},{"bike_id":"fa007fe0-3dc1-405c-9d10-9879e2200643","system_id":"levelo_inurba_marseille","lat":43.32274,"lon":5.40649,"is_reserved":false,"is_disabled":false,"rental_uris":{"android":"levelo://app?vid=fa007fe0-3dc1-405c-9d10-9879e2200643","ios":"levelo://app?vid=fa007fe0-3dc1-405c-9d10-9879e2200643"},"vehicle_type_id":"4","last_reported":1738393656,"current_range_meters":18800,"station_id":"","pricing_plan_id":"cebpf4jnsgd1na2vs0mg"},{"bike_id":"cbc49d74-06e2-4ffd-9ccd-94d694284154","system_id":"levelo_inurba_marseille","lat":43.28077,"lon":5.39661,"is_reserved":false,"is_disabled":false,"rental_uris":{"android":"levelo://app?vid=cbc49d74-06e2-4ffd-9ccd-94d694284154","ios":"levelo://app?vid=cbc49d74-06e2-4ffd-9ccd-94d694284154"},"vehicle_type_id":"4","last_reported":1738393656,"current_range_meters":38000,"station_id":"ce4bho12rcd13ifvqh2g","pricing_plan_id":"cebpf4jnsgd1na2vs0mg"},{"bike_id":"e88eb1f3-8ae0-45d5-b478-7fa0e88e8228","system_id":"levelo_inurba_marseille","lat":43.323,"lon":5.38266,"is_reserved":false,"is_disabled":false,"rental_uris":{"android":"levelo://app?vid=e88eb1f3-8ae0-45d5-b478-7fa0e88e8228","ios":"levelo://app?vid=e88eb1f3-8ae0-45d5-b478-7fa0e88e8228"},"vehicle_type_id":"4","last_reported":1738393656,"current_range_meters":35600,"station_id":"ce4bhr12rcd13ifvqhqg","pricing_plan_id":"cebpf4jnsgd1na2vs0mg"},{"bike_id":"42f18a9b-cba6-4cd5-b00d-5b7ce86cb1f9","system_id":"levelo_inurba_marseille","lat":43.25138,"lon":5.4033,"is_reserved":false,"is_disabled":true,"rental_uris":{"android":"levelo://app?vid=42f18a9b-cba6-4cd5-b00d-5b7ce86cb1f9","ios":"levelo://app?vid=42f18a9b-cba6-4cd5-b00d-5b7ce86cb1f9"},"vehicle_type_id":"4","last_reported":1738393656,"current_range_meters":0,"station_id":"ce4bhlh2rcd13ifvqgig","pricing_plan_id":"cebpf4jnsgd1na2vs0mg"},{"bike_id":"0fc8ef95-5e15-4825-b91c-cf0a986a3e9e","system_id":"levelo_inurba_marseille","lat":43.23181,"lon":5.39995,"is_reserved":false,"is_disabled":false,"rental_uris":{"android":"levelo://app?vid=0fc8ef95-5e15-4825-b91c-cf0a986a3e9e","ios":"levelo://app?vid=0fc8ef95-5e15-4825-b91c-cf0a986a3e9e"},"vehicle_type_id":"4","last_reported":1738393656,"current_range_meters":22400,"station_id":"ce4bhn12rcd13ifvqgqg","pricing_plan_id":"cebpf4jnsgd1na2vs0mg"},{"bike_id":"3a60ebc0-dac7-4b3e-a8c5-4699cca32d17","system_id":"levelo_inurba_marseille","lat":43.30806,"lon":5.43529,"is_reserved":false,"is_disabled":false,"rental_uris":{"android":"levelo://app?vid=3a60ebc0-dac7-4b3e-a8c5-4699cca32d17","ios":"levelo://app?vid=3a60ebc0-dac7-4b3e-a8c5-4699cca32d17"},"vehicle_type_id":"4","last_reported":1738393656,"current_range_meters":36000,"station_id":"ce4bhph2rcd13ifvqheg","pricing_plan_id":"cebpf4jnsgd1na2vs0mg"},{"bike_id":"c9bd489c-cfea-4f67-b873-dfb6c5c512d2","system_id":"levelo_inurba_marseille","lat":43.28728,"lon":5.37932,"is_reserved":false,"is_disabled":false,"rental_uris":{"android":"levelo://app?vid=c9bd489c-cfea-4f67-b873-dfb6c5c512d2","ios":"levelo://app?vid=c9bd489c-cfea-4f67-b873-dfb6c5c512d2"},"vehicle_type_id":"4","last_reported":1738393656,"current_range_meters":8400,"station_id":"ce4bh9p2rcd13ifvqec0","pricing_plan_id":"cebpf4jnsgd1na2vs0mg"},{"bike_id":"0642f651-8df9-43ec-a718-65f2d5b17d34","system_id":"levelo_inurba_marseille","lat":43.33602,"lon":5.40966,"is_reserved":false,"is_disabled":false,"rental_uris":{"android":"levelo://app?vid=0642f651-8df9-43ec-a718-65f2d5b17d34","ios":"levelo://app?vid=0642f651-8df9-43ec-a718-65f2d5b17d34"},"vehicle_type_id":"4","last_reported":1738393656,"current_range_meters":12400,"station_id":"ce4bhqh2rcd13ifvqhmg","pricing_plan_id":"cebpf4jnsgd1na2vs0mg"},{"bike_id":"224b960c-aec0-43e5-81c4-680d7b35f825","system_id":"levelo_inurba_marseille","lat":43.29717,"lon":5.36619,"is_reserved":false,"is_disabled":false,"rental_uris":{"android":"levelo://app?vid=224b960c-aec0-43e5-81c4-680d7b35f825","ios":"levelo://app?vid=224b960c-aec0-43e5-81c4-680d7b35f825"},"vehicle_type_id":"4","last_reported":1738393656,"current_range_meters":38800,"station_id":"ce4bgn12rcd13ifvqbt0","pricing_plan_id":"cebpf4jnsgd1na2vs0mg"},{"bike_id":"d623f1fc-4be6-4ac0-8973-663c4645d52b","system_id":"levelo_inurba_marseille","lat":43.28343,"lon":5.38109,"is_reserved":false,"is_disabled":false,"rental_uris":{"android":"levelo://app?vid=d623f1fc-4be6-4ac0-8973-663c4645d52b","ios":"levelo://app?vid=d623f1fc-4be6-4ac0-8973-663c4645d52b"},"vehicle_type_id":"4","last_reported":1738393656,"current_range_meters":38000,"station_id":"ce4bh412rcd13ifvqdr0","pricing_plan_id":"cebpf4jnsgd1na2vs0mg"},{"bike_id":"56b09552-4219-4565-a734-8e0fd6e4802e","system_id":"levelo_inurba_marseille","lat":43.2555,"lon":5.38239,"is_reserved":false,"is_disabled":false,"rental_uris":{"android":"levelo://app?vid=56b09552-4219-4565-a734-8e0fd6e4802e","ios":"levelo://app?vid=56b09552-4219-4565-a734-8e0fd6e4802e"},"vehicle_type_id":"4","last_reported":1738393656,"current_range_meters":20400,"station_id":"ce4bhih2rcd13ifvqfs0","pricing_plan_id":"cebpf4jnsgd1na2vs0mg"},{"bike_id":"5cc7bc2b-f739-4f31-acac-12272565811d","system_id":"levelo_inurba_marseille","lat":43.30867,"lon":5.3966,"is_reserved":false,"is_disabled":false,"rental_uris":{"android":"levelo://app?vid=5cc7bc2b-f739-4f31-acac-12272565811d","ios":"levelo://app?vid=5cc7bc2b-f739-4f31-acac-12272565811d"},"vehicle_type_id":"4","last_reported":1738393656,"current_range_meters":37600,"station_id":"ce4bh012rcd13ifvqcv0","pricing_plan_id":"cebpf4jnsgd1na2vs0mg"},{"bike_id":"df992793-2c1e-4a77-bff3-45b59f606f19","system_id":"levelo_inurba_marseille","lat":43.308886,"lon":5.371978,"is_reserved":false,"is_disabled":true,"rental_uris":{"android":"levelo://app?vid=df992793-2c1e-4a77-bff3-45b59f606f19","ios":"levelo://app?vid=df992793-2c1e-4a77-bff3-45b59f606f19"},"vehicle_type_id":"4","last_reported":1738393656,"current_range_meters":36400,"station_id":"ce4bguh2rcd13ifvqckg","pricing_plan_id":"cebpf4jnsgd1na2vs0mg"},{"bike_id":"e76772ad-4d7b-4743-aa72-133535f3d9df","system_id":"levelo_inurba_marseille","lat":43.296239,"lon":5.377045,"is_reserved":false,"is_disabled":true,"rental_uris":{"android":"levelo://app?vid=e76772ad-4d7b-4743-aa72-133535f3d9df","ios":"levelo://app?vid=e76772ad-4d7b-4743-aa72-133535f3d9df"},"vehicle_type_id":"4","last_reported":1738393656,"current_range_meters":0,"station_id":"","pricing_plan_id":"cebpf4jnsgd1na2vs0mg"},{"bike_id":"9aee4606-c150-4ae9-8663-a503bb7126aa","system_id":"levelo_inurba_marseille","lat":43.32368,"lon":5.38891,"is_reserved":false,"is_disabled":false,"rental_uris":{"android":"levelo://app?vid=9aee4606-c150-4ae9-8663-a503bb7126aa","ios":"levelo://app?vid=9aee4606-c150-4ae9-8663-a503bb7126aa"},"vehicle_type_id":"4","last_reported":1738393656,"current_range_meters":26800,"station_id":"ce4bhqp2rcd13ifvqhog","pricing_plan_id":"cebpf4jnsgd1na2vs0mg"},{"bike_id":"ab2c796a-c23b-4a3a-9534-777b873d6a05","system_id":"levelo_inurba_marseille","lat":43.24165,"lon":5.36391,"is_reserved":false,"is_disabled":false,"rental_uris":{"android":"levelo://app?vid=ab2c796a-c23b-4a3a-9534-777b873d6a05","ios":"levelo://app?vid=ab2c796a-c23b-4a3a-9534-777b873d6a05"},"vehicle_type_id":"4","last_reported":1738393656,"current_range_meters":34000,"station_id":"cpo36qri1sfpv3e86is0","pricing_plan_id":"cebpf4jnsgd1na2vs0mg"},{"bike_id":"1b857ce7-a20c-4770-9790-7268dce5d355","system_id":"levelo_inurba_marseille","lat":43.28486,"lon":5.38437,"is_reserved":false,"is_disabled":true,"rental_uris":{"android":"levelo://app?vid=1b857ce7-a20c-4770-9790-7268dce5d355","ios":"levelo://app?vid=1b857ce7-a20c-4770-9790-7268dce5d355"},"vehicle_type_id":"4","last_reported":1738393656,"current_range_meters":0,"station_id":"ce4bh512rcd13ifvqe3g","pricing_plan_id":"cebpf4jnsgd1na2vs0mg"},{"bike_id":"2c6a1195-6329-4b24-8888-d2793224fa47","system_id":"levelo_inurba_marseille","lat":43.3172,"lon":5.43714,"is_reserved":false,"is_disabled":false,"rental_uris":{"android":"levelo://app?vid=2c6a1195-6329-4b24-8888-d2793224fa47","ios":"levelo://app?vid=2c6a1195-6329-4b24-8888-d2793224fa47"},"vehicle_type_id":"4","last_reported":1738393656,"current_range_meters":37600,"station_id":"ce4bhp92rcd13ifvqhcg","pricing_plan_id":"cebpf4jnsgd1na2vs0mg"},{"bike_id":"58feef8f-17b5-470d-8151-c7a13f0dbe24","system_id":"levelo_inurba_marseille","lat":43.284121,"lon":5.375198,"is_reserved":false,"is_disabled":true,"rental_uris":{"android":"levelo://app?vid=58feef8f-17b5-470d-8151-c7a13f0dbe24","ios":"levelo://app?vid=58feef8f-17b5-470d-8151-c7a13f0dbe24"},"vehicle_type_id":"4","last_reported":1738393656,"current_range_meters":0,"station_id":"ce4bh412rcd13ifvqds0","pricing_plan_id":"cebpf4jnsgd1na2vs0mg"},{"bike_id":"b4aca081-2829-4899-8a50-ecda8cb48a33","system_id":"levelo_inurba_marseille","lat":43.30936,"lon":5.39068,"is_reserved":false,"is_disabled":false,"rental_uris":{"android":"levelo://app?vid=b4aca081-2829-4899-8a50-ecda8cb48a33","ios":"levelo://app?vid=b4aca081-2829-4899-8a50-ecda8cb48a33"},"vehicle_type_id":"4","last_reported":1738393656,"current_range_meters":24800,"station_id":"ce4bgup2rcd13ifvqco0","pricing_plan_id":"cebpf4jnsgd1na2vs0mg"},{"bike_id":"7b1972b5-4724-4ee7-8ef3-3d52a3645f58","system_id":"levelo_inurba_marseille","lat":43.281526,"lon":5.426399,"is_reserved":false,"is_disabled":false,"rental_uris":{"android":"levelo://app?vid=7b1972b5-4724-4ee7-8ef3-3d52a3645f58","ios":"levelo://app?vid=7b1972b5-4724-4ee7-8ef3-3d52a3645f58"},"vehicle_type_id":"4","last_reported":1738393656,"current_range_meters":31200,"station_id":"ce4bhnh2rcd13ifvqgug","pricing_plan_id":"cebpf4jnsgd1na2vs0mg"},{"bike_id":"758c7df1-b289-413f-9578-cb267f266c2c","system_id":"levelo_inurba_marseille","lat":43.28422,"lon":5.37511,"is_reserved":false,"is_disabled":false,"rental_uris":{"android":"levelo://app?vid=758c7df1-b289-413f-9578-cb267f266c2c","ios":"levelo://app?vid=758c7df1-b289-413f-9578-cb267f266c2c"},"vehicle_type_id":"4","last_reported":1738393656,"current_range_meters":28400,"station_id":"ce4bh412rcd13ifvqds0","pricing_plan_id":"cebpf4jnsgd1na2vs0mg"},{"bike_id":"4681054c-50c8-4647-9070-0bda2359faa0","system_id":"levelo_inurba_marseille","lat":43.28933,"lon":5.3663,"is_reserved":false,"is_disabled":false,"rental_uris":{"android":"levelo://app?vid=4681054c-50c8-4647-9070-0bda2359faa0","ios":"levelo://app?vid=4681054c-50c8-4647-9070-0bda2359faa0"},"vehicle_type_id":"4","last_reported":1738393656,"current_range_meters":19600,"station_id":"ce4bhap2rcd13ifvqek0","pricing_plan_id":"cebpf4jnsgd1na2vs0mg"},{"bike_id":"65c530b5-2aaa-424b-a792-20fcaf1cc087","system_id":"levelo_inurba_marseille","lat":43.28619,"lon":5.35094,"is_reserved":false,"is_disabled":false,"rental_uris":{"android":"levelo://app?vid=65c530b5-2aaa-424b-a792-20fcaf1cc087","ios":"levelo://app?vid=65c530b5-2aaa-424b-a792-20fcaf1cc087"},"vehicle_type_id":"4","last_reported":1738393656,"current_range_meters":16800,"station_id":"ce4bhch2rcd13ifvqeug","pricing_plan_id":"cebpf4jnsgd1na2vs0mg"},{"bike_id":"bb35d158-63a9-4abd-ae90-4e35c2ecb14b","system_id":"levelo_inurba_marseille","lat":43.29811,"lon":5.40407,"is_reserved":false,"is_disabled":false,"rental_uris":{"android":"levelo://app?vid=bb35d158-63a9-4abd-ae90-4e35c2ecb14b","ios":"levelo://app?vid=bb35d158-63a9-4abd-ae90-4e35c2ecb14b"},"vehicle_type_id":"4","last_reported":1738393656,"current_range_meters":38400,"station_id":"ce4bh112rcd13ifvqd90","pricing_plan_id":"cebpf4jnsgd1na2vs0mg"},{"bike_id":"3d855c0e-8d17-48c9-8767-6a9d96231556","system_id":"levelo_inurba_marseille","lat":43.28263,"lon":5.35075,"is_reserved":false,"is_disabled":false,"rental_uris":{"android":"levelo://app?vid=3d855c0e-8d17-48c9-8767-6a9d96231556","ios":"levelo://app?vid=3d855c0e-8d17-48c9-8767-6a9d96231556"},"vehicle_type_id":"4","last_reported":1738393656,"current_range_meters":38800,"station_id":"ce4bhbp2rcd13ifvqerg","pricing_plan_id":"cebpf4jnsgd1na2vs0mg"},{"bike_id":"ee9cf7f5-6038-46af-895e-7032745d06a4","system_id":"levelo_inurba_marseille","lat":43.27492,"lon":5.42448,"is_reserved":false,"is_disabled":false,"rental_uris":{"android":"levelo://app?vid=ee9cf7f5-6038-46af-895e-7032745d06a4","ios":"levelo://app?vid=ee9cf7f5-6038-46af-895e-7032745d06a4"},"vehicle_type_id":"4","last_reported":1738393656,"current_range_meters":28400,"station_id":"ce4bhn92rcd13ifvqgrg","pricing_plan_id":"cebpf4jnsgd1na2vs0mg"},{"bike_id":"e1d4a2f1-c484-42e0-9232-e98e59dd1624","system_id":"levelo_inurba_marseille","lat":43.29029,"lon":5.38644,"is_reserved":false,"is_disabled":true,"rental_uris":{"android":"levelo://app?vid=e1d4a2f1-c484-42e0-9232-e98e59dd1624","ios":"levelo://app?vid=e1d4a2f1-c484-42e0-9232-e98e59dd1624"},"vehicle_type_id":"4","last_reported":1738393656,"current_range_meters":26000,"station_id":"ce4bh4p2rcd13ifvqe0g","pricing_plan_id":"cebpf4jnsgd1na2vs0mg"},{"bike_id":"808e14b4-fd74-47ba-b4df-bdbdfaaddf1d","system_id":"levelo_inurba_marseille","lat":43.293,"lon":5.37436,"is_reserved":false,"is_disabled":true,"rental_uris":{"android":"levelo://app?vid=808e14b4-fd74-47ba-b4df-bdbdfaaddf1d","ios":"levelo://app?vid=808e14b4-fd74-47ba-b4df-bdbdfaaddf1d"},"vehicle_type_id":"4","last_reported":1738393656,"current_range_meters":33200,"station_id":"ce4bgi12rcd13ifvqb70","pricing_plan_id":"cebpf4jnsgd1na2vs0mg"},{"bike_id":"f5192a48-f127-416f-ac25-5dcd6cb43014","system_id":"levelo_inurba_marseille","lat":43.310794,"lon":5.424345,"is_reserved":false,"is_disabled":false,"rental_uris":{"android":"levelo://app?vid=f5192a48-f127-416f-ac25-5dcd6cb43014","ios":"levelo://app?vid=f5192a48-f127-416f-ac25-5dcd6cb43014"},"vehicle_type_id":"4","last_reported":1738393656,"current_range_meters":38000,"station_id":"ce4bhp92rcd13ifvqhag","pricing_plan_id":"cebpf4jnsgd1na2vs0mg"},{"bike_id":"e8e1f7c6-d773-4c38-bfcc-4a6d773355ce","system_id":"levelo_inurba_marseille","lat":43.22933,"lon":5.35389,"is_reserved":false,"is_disabled":false,"rental_uris":{"android":"levelo://app?vid=e8e1f7c6-d773-4c38-bfcc-4a6d773355ce","ios":"levelo://app?vid=e8e1f7c6-d773-4c38-bfcc-4a6d773355ce"},"vehicle_type_id":"4","last_reported":1738393656,"current_range_meters":38800,"station_id":"cpo3532slgdg3j2ikp40","pricing_plan_id":"cebpf4jnsgd1na2vs0mg"},{"bike_id":"10bd0c1b-4113-4b53-b7a9-3c7a990cae19","system_id":"levelo_inurba_marseille","lat":43.30592,"lon":5.39352,"is_reserved":false,"is_disabled":false,"rental_uris":{"android":"levelo://app?vid=10bd0c1b-4113-4b53-b7a9-3c7a990cae19","ios":"levelo://app?vid=10bd0c1b-4113-4b53-b7a9-3c7a990cae19"},"vehicle_type_id":"4","last_reported":1738393656,"current_range_meters":37600,"station_id":"ce4bh0p2rcd13ifvqd80","pricing_plan_id":"cebpf4jnsgd1na2vs0mg"},{"bike_id":"d85a6e09-0217-43ff-9dc5-94ff68be4e98","system_id":"levelo_inurba_marseille","lat":43.27356,"lon":5.36243,"is_reserved":false,"is_disabled":false,"rental_uris":{"android":"levelo://app?vid=d85a6e09-0217-43ff-9dc5-94ff68be4e98","ios":"levelo://app?vid=d85a6e09-0217-43ff-9dc5-94ff68be4e98"},"vehicle_type_id":"4","last_reported":1738393656,"current_range_meters":38000,"station_id":"ce4bhbh2rcd13ifvqeo0","pricing_plan_id":"cebpf4jnsgd1na2vs0mg"},{"bike_id":"eb0c902b-685e-469c-b96f-57a4d12f9b56","system_id":"levelo_inurba_marseille","lat":43.311148,"lon":5.377668,"is_reserved":false,"is_disabled":false,"rental_uris":{"android":"levelo://app?vid=eb0c902b-685e-469c-b96f-57a4d12f9b56","ios":"levelo://app?vid=eb0c902b-685e-469c-b96f-57a4d12f9b56"},"vehicle_type_id":"4","last_reported":1738393656,"current_range_meters":16400,"station_id":"ce4bgt92rcd13ifvqcg0","pricing_plan_id":"cebpf4jnsgd1na2vs0mg"},{"bike_id":"60570eef-8138-407e-8337-7a1e7f7ae42e","system_id":"levelo_inurba_marseille","lat":43.27428,"lon":5.39416,"is_reserved":false,"is_disabled":false,"rental_uris":{"android":"levelo://app?vid=60570eef-8138-407e-8337-7a1e7f7ae42e","ios":"levelo://app?vid=60570eef-8138-407e-8337-7a1e7f7ae42e"},"vehicle_type_id":"4","last_reported":1738393656,"current_range_meters":3600,"station_id":"ce4bhdp2rcd13ifvqf20","pricing_plan_id":"cebpf4jnsgd1na2vs0mg"},{"bike_id":"d0c91751-dc68-40d4-8cca-fe923ac6eb0e","system_id":"levelo_inurba_marseille","lat":43.27931,"lon":5.38728,"is_reserved":false,"is_disabled":false,"rental_uris":{"android":"levelo://app?vid=d0c91751-dc68-40d4-8cca-fe923ac6eb0e","ios":"levelo://app?vid=d0c91751-dc68-40d4-8cca-fe923ac6eb0e"},"vehicle_type_id":"4","last_reported":1738393656,"current_range_meters":38800,"station_id":"ce4bhg12rcd13ifvqf80","pricing_plan_id":"cebpf4jnsgd1na2vs0mg"},{"bike_id":"56dcbbbe-164e-4672-8fea-3957d72881bd","system_id":"levelo_inurba_marseille","lat":43.29543,"lon":5.37487,"is_reserved":false,"is_disabled":true,"rental_uris":{"android":"levelo://app?vid=56dcbbbe-164e-4672-8fea-3957d72881bd","ios":"levelo://app?vid=56dcbbbe-164e-4672-8fea-3957d72881bd"},"vehicle_type_id":"4","last_reported":1738393656,"current_range_meters":31200,"station_id":"ce4bgkp2rcd13ifvqbmg","pricing_plan_id":"cebpf4jnsgd1na2vs0mg"},{"bike_id":"7232e675-58c7-4a1c-b6ce-1859f8e9e2c3","system_id":"levelo_inurba_marseille","lat":43.30796,"lon":5.37632,"is_reserved":false,"is_disabled":false,"rental_uris":{"android":"levelo://app?vid=7232e675-58c7-4a1c-b6ce-1859f8e9e2c3","ios":"levelo://app?vid=7232e675-58c7-4a1c-b6ce-1859f8e9e2c3"},"vehicle_type_id":"4","last_reported":1738393656,"current_range_meters":36400,"station_id":"ce4bgv92rcd13ifvqcq0","pricing_plan_id":"cebpf4jnsgd1na2vs0mg"},{"bike_id":"446cfbd8-380d-483d-82ba-61ff47e31d05","system_id":"levelo_inurba_marseille","lat":43.29276,"lon":5.38452,"is_reserved":false,"is_disabled":true,"rental_uris":{"android":"levelo://app?vid=446cfbd8-380d-483d-82ba-61ff47e31d05","ios":"levelo://app?vid=446cfbd8-380d-483d-82ba-61ff47e31d05"},"vehicle_type_id":"4","last_reported":1738393656,"current_range_meters":36400,"station_id":"ce4bh692rcd13ifvqea0","pricing_plan_id":"cebpf4jnsgd1na2vs0mg"},{"bike_id":"4ec76568-f8af-4b06-b651-04fbe6e9efa7","system_id":"levelo_inurba_marseille","lat":43.27998,"lon":5.41663,"is_reserved":false,"is_disabled":false,"rental_uris":{"android":"levelo://app?vid=4ec76568-f8af-4b06-b651-04fbe6e9efa7","ios":"levelo://app?vid=4ec76568-f8af-4b06-b651-04fbe6e9efa7"},"vehicle_type_id":"4","last_reported":1738393656,"current_range_meters":30400,"station_id":"ce4bho12rcd13ifvqh1g","pricing_plan_id":"cebpf4jnsgd1na2vs0mg"},{"bike_id":"3d2ad4eb-c3df-4be8-82a3-1864655479da","system_id":"levelo_inurba_marseille","lat":43.28613,"lon":5.351,"is_reserved":false,"is_disabled":false,"rental_uris":{"android":"levelo://app?vid=3d2ad4eb-c3df-4be8-82a3-1864655479da","ios":"levelo://app?vid=3d2ad4eb-c3df-4be8-82a3-1864655479da"},"vehicle_type_id":"4","last_reported":1738393656,"current_range_meters":6800,"station_id":"ce4bhch2rcd13ifvqeug","pricing_plan_id":"cebpf4jnsgd1na2vs0mg"},{"bike_id":"a06a794b-bae0-48d7-b9db-073ae5c5a4af","system_id":"levelo_inurba_marseille","lat":43.30417,"lon":5.39763,"is_reserved":false,"is_disabled":true,"rental_uris":{"android":"levelo://app?vid=a06a794b-bae0-48d7-b9db-073ae5c5a4af","ios":"levelo://app?vid=a06a794b-bae0-48d7-b9db-073ae5c5a4af"},"vehicle_type_id":"4","last_reported":1738393656,"current_range_meters":0,"station_id":"ce4bh092rcd13ifvqd20","pricing_plan_id":"cebpf4jnsgd1na2vs0mg"},{"bike_id":"4ff377d9-ff7b-44da-be42-ee1d29eb144f","system_id":"levelo_inurba_marseille","lat":43.251087,"lon":5.403234,"is_reserved":false,"is_disabled":false,"rental_uris":{"android":"levelo://app?vid=4ff377d9-ff7b-44da-be42-ee1d29eb144f","ios":"levelo://app?vid=4ff377d9-ff7b-44da-be42-ee1d29eb144f"},"vehicle_type_id":"4","last_reported":1738393656,"current_range_meters":25600,"station_id":"ce4bhlh2rcd13ifvqgig","pricing_plan_id":"cebpf4jnsgd1na2vs0mg"},{"bike_id":"0b28caef-7b38-4d14-8bdd-7909c38f455f","system_id":"levelo_inurba_marseille","lat":43.2903,"lon":5.39981,"is_reserved":false,"is_disabled":false,"rental_uris":{"android":"levelo://app?vid=0b28caef-7b38-4d14-8bdd-7909c38f455f","ios":"levelo://app?vid=0b28caef-7b38-4d14-8bdd-7909c38f455f"},"vehicle_type_id":"4","last_reported":1738393656,"current_range_meters":29600,"station_id":"ce4bh392rcd13ifvqdm0","pricing_plan_id":"cebpf4jnsgd1na2vs0mg"},{"bike_id":"9f6f0187-b671-46a4-9979-d9f6dd1ed448","system_id":"levelo_inurba_marseille","lat":43.28456,"lon":5.35899,"is_reserved":false,"is_disabled":false,"rental_uris":{"android":"levelo://app?vid=9f6f0187-b671-46a4-9979-d9f6dd1ed448","ios":"levelo://app?vid=9f6f0187-b671-46a4-9979-d9f6dd1ed448"},"vehicle_type_id":"4","last_reported":1738393656,"current_range_meters":38800,"station_id":"ce4bhah2rcd13ifvqei0","pricing_plan_id":"cebpf4jnsgd1na2vs0mg"},{"bike_id":"c6c2d669-6efa-4cf8-b793-5c09e9379cce","system_id":"levelo_inurba_marseille","lat":43.28708,"lon":5.39961,"is_reserved":false,"is_disabled":false,"rental_uris":{"android":"levelo://app?vid=c6c2d669-6efa-4cf8-b793-5c09e9379cce","ios":"levelo://app?vid=c6c2d669-6efa-4cf8-b793-5c09e9379cce"},"vehicle_type_id":"4","last_reported":1738393656,"current_range_meters":27200,"station_id":"ce4bho92rcd13ifvqh3g","pricing_plan_id":"cebpf4jnsgd1na2vs0mg"},{"bike_id":"0a13b4dc-5af9-498e-a6eb-f4bde643bf18","system_id":"levelo_inurba_marseille","lat":43.313295,"lon":5.396892,"is_reserved":false,"is_disabled":false,"rental_uris":{"android":"levelo://app?vid=0a13b4dc-5af9-498e-a6eb-f4bde643bf18","ios":"levelo://app?vid=0a13b4dc-5af9-498e-a6eb-f4bde643bf18"},"vehicle_type_id":"4","last_reported":1738393656,"current_range_meters":25200,"station_id":"ce4bgvp2rcd13ifvqcu0","pricing_plan_id":"cebpf4jnsgd1na2vs0mg"},{"bike_id":"71f34f72-d3b7-46a5-9bd4-1fe057b3152f","system_id":"levelo_inurba_marseille","lat":43.22954,"lon":5.35371,"is_reserved":false,"is_disabled":false,"rental_uris":{"android":"levelo://app?vid=71f34f72-d3b7-46a5-9bd4-1fe057b3152f","ios":"levelo://app?vid=71f34f72-d3b7-46a5-9bd4-1fe057b3152f"},"vehicle_type_id":"4","last_reported":1738393656,"current_range_meters":38800,"station_id":"cpo3532slgdg3j2ikp40","pricing_plan_id":"cebpf4jnsgd1na2vs0mg"},{"bike_id":"20029bdd-9f9c-4ff9-86e4-5ba6ed30f46a","system_id":"levelo_inurba_marseille","lat":43.23148,"lon":5.43705,"is_reserved":false,"is_disabled":true,"rental_uris":{"android":"levelo://app?vid=20029bdd-9f9c-4ff9-86e4-5ba6ed30f46a","ios":"levelo://app?vid=20029bdd-9f9c-4ff9-86e4-5ba6ed30f46a"},"vehicle_type_id":"4","last_reported":1738393656,"current_range_meters":0,"station_id":"ce4bhmp2rcd13ifvqgog","pricing_plan_id":"cebpf4jnsgd1na2vs0mg"},{"bike_id":"11b674a2-b47a-42e2-91bf-c6e6c2cea6f7","system_id":"levelo_inurba_marseille","lat":43.28719,"lon":5.39979,"is_reserved":false,"is_disabled":false,"rental_uris":{"android":"levelo://app?vid=11b674a2-b47a-42e2-91bf-c6e6c2cea6f7","ios":"levelo://app?vid=11b674a2-b47a-42e2-91bf-c6e6c2cea6f7"},"vehicle_type_id":"4","last_reported":1738393656,"current_range_meters":35600,"station_id":"ce4bho92rcd13ifvqh3g","pricing_plan_id":"cebpf4jnsgd1na2vs0mg"},{"bike_id":"3d4b3e0a-4326-4344-bb72-09251a157a11","system_id":"levelo_inurba_marseille","lat":43.30542,"lon":5.36531,"is_reserved":false,"is_disabled":true,"rental_uris":{"android":"levelo://app?vid=3d4b3e0a-4326-4344-bb72-09251a157a11","ios":"levelo://app?vid=3d4b3e0a-4326-4344-bb72-09251a157a11"},"vehicle_type_id":"4","last_reported":1738393656,"current_range_meters":30400,"station_id":"ce4bgs12rcd13ifvqcag","pricing_plan_id":"cebpf4jnsgd1na2vs0mg"},{"bike_id":"59f9c210-f936-4e53-acce-a6b37dacc9d4","system_id":"levelo_inurba_marseille","lat":43.31181,"lon":5.38712,"is_reserved":false,"is_disabled":false,"rental_uris":{"android":"levelo://app?vid=59f9c210-f936-4e53-acce-a6b37dacc9d4","ios":"levelo://app?vid=59f9c210-f936-4e53-acce-a6b37dacc9d4"},"vehicle_type_id":"4","last_reported":1738393656,"current_range_meters":36000,"station_id":"ce4bgv12rcd13ifvqcp0","pricing_plan_id":"cebpf4jnsgd1na2vs0mg"},{"bike_id":"678f5edd-1b4b-476c-bbd1-1e851715e509","system_id":"levelo_inurba_marseille","lat":43.28457,"lon":5.35896,"is_reserved":false,"is_disabled":false,"rental_uris":{"android":"levelo://app?vid=678f5edd-1b4b-476c-bbd1-1e851715e509","ios":"levelo://app?vid=678f5edd-1b4b-476c-bbd1-1e851715e509"},"vehicle_type_id":"4","last_reported":1738393656,"current_range_meters":38800,"station_id":"ce4bhah2rcd13ifvqei0","pricing_plan_id":"cebpf4jnsgd1na2vs0mg"},{"bike_id":"0b4194f3-2972-468f-941d-952f79ac6b26","system_id":"levelo_inurba_marseille","lat":43.279114,"lon":5.395864,"is_reserved":false,"is_disabled":true,"rental_uris":{"android":"levelo://app?vid=0b4194f3-2972-468f-941d-952f79ac6b26","ios":"levelo://app?vid=0b4194f3-2972-468f-941d-952f79ac6b26"},"vehicle_type_id":"4","last_reported":1738393656,"current_range_meters":0,"station_id":"ce4bhf92rcd13ifvqf40","pricing_plan_id":"cebpf4jnsgd1na2vs0mg"},{"bike_id":"ffbe2ac5-1135-48e1-a6e0-38cbbdf275c7","system_id":"levelo_inurba_marseille","lat":43.28455,"lon":5.35889,"is_reserved":false,"is_disabled":false,"rental_uris":{"android":"levelo://app?vid=ffbe2ac5-1135-48e1-a6e0-38cbbdf275c7","ios":"levelo://app?vid=ffbe2ac5-1135-48e1-a6e0-38cbbdf275c7"},"vehicle_type_id":"4","last_reported":1738393656,"current_range_meters":38800,"station_id":"ce4bhah2rcd13ifvqei0","pricing_plan_id":"cebpf4jnsgd1na2vs0mg"},{"bike_id":"2c5e1874-7a66-44cd-9ec7-a0c4c1a6db3a","system_id":"levelo_inurba_marseille","lat":43.286673,"lon":5.363521,"is_reserved":false,"is_disabled":false,"rental_uris":{"android":"levelo://app?vid=2c5e1874-7a66-44cd-9ec7-a0c4c1a6db3a","ios":"levelo://app?vid=2c5e1874-7a66-44cd-9ec7-a0c4c1a6db3a"},"vehicle_type_id":"4","last_reported":1738393656,"current_range_meters":38000,"station_id":"ce4bhah2rcd13ifvqej0","pricing_plan_id":"cebpf4jnsgd1na2vs0mg"},{"bike_id":"4d2fa91d-31d6-4109-9724-1a91084adf8f","system_id":"levelo_inurba_marseille","lat":43.30483,"lon":5.37905,"is_reserved":false,"is_disabled":false,"rental_uris":{"android":"levelo://app?vid=4d2fa91d-31d6-4109-9724-1a91084adf8f","ios":"levelo://app?vid=4d2fa91d-31d6-4109-9724-1a91084adf8f"},"vehicle_type_id":"4","last_reported":1738393656,"current_range_meters":18000,"station_id":"ce4bgup2rcd13ifvqcn0","pricing_plan_id":"cebpf4jnsgd1na2vs0mg"},{"bike_id":"491407c5-a175-44f0-86fc-0f4ccadf82e3","system_id":"levelo_inurba_marseille","lat":43.337444,"lon":5.374475,"is_reserved":false,"is_disabled":true,"rental_uris":{"android":"levelo://app?vid=491407c5-a175-44f0-86fc-0f4ccadf82e3","ios":"levelo://app?vid=491407c5-a175-44f0-86fc-0f4ccadf82e3"},"vehicle_type_id":"4","last_reported":1738393656,"current_range_meters":0,"station_id":"","pricing_plan_id":"cebpf4jnsgd1na2vs0mg"},{"bike_id":"f15b606d-b287-44c9-8e50-29d4fd2445a7","system_id":"levelo_inurba_marseille","lat":43.29795,"lon":5.38073,"is_reserved":false,"is_disabled":false,"rental_uris":{"android":"levelo://app?vid=f15b606d-b287-44c9-8e50-29d4fd2445a7","ios":"levelo://app?vid=f15b606d-b287-44c9-8e50-29d4fd2445a7"},"vehicle_type_id":"4","last_reported":1738393656,"current_range_meters":24400,"station_id":"ce4bgip2rcd13ifvqbb0","pricing_plan_id":"cebpf4jnsgd1na2vs0mg"},{"bike_id":"b28d7184-1266-4471-abe6-13723f5fd964","system_id":"levelo_inurba_marseille","lat":43.32728,"lon":5.39234,"is_reserved":false,"is_disabled":true,"rental_uris":{"android":"levelo://app?vid=b28d7184-1266-4471-abe6-13723f5fd964","ios":"levelo://app?vid=b28d7184-1266-4471-abe6-13723f5fd964"},"vehicle_type_id":"4","last_reported":1738393656,"current_range_meters":2000,"station_id":"","pricing_plan_id":"cebpf4jnsgd1na2vs0mg"},{"bike_id":"39fb374c-1096-41be-b0e4-613d96ed1e82","system_id":"levelo_inurba_marseille","lat":43.295876,"lon":5.367355,"is_reserved":false,"is_disabled":false,"rental_uris":{"android":"levelo://app?vid=39fb374c-1096-41be-b0e4-613d96ed1e82","ios":"levelo://app?vid=39fb374c-1096-41be-b0e4-613d96ed1e82"},"vehicle_type_id":"4","last_reported":1738393656,"current_range_meters":38800,"station_id":"ce4bgph2rcd13ifvqc2g","pricing_plan_id":"cebpf4jnsgd1na2vs0mg"},{"bike_id":"95aee25f-5c57-4ea4-ae9b-fd75ffb2acea","system_id":"levelo_inurba_marseille","lat":43.23191,"lon":5.39975,"is_reserved":false,"is_disabled":false,"rental_uris":{"android":"levelo://app?vid=95aee25f-5c57-4ea4-ae9b-fd75ffb2acea","ios":"levelo://app?vid=95aee25f-5c57-4ea4-ae9b-fd75ffb2acea"},"vehicle_type_id":"4","last_reported":1738393656,"current_range_meters":21600,"station_id":"ce4bhn12rcd13ifvqgqg","pricing_plan_id":"cebpf4jnsgd1na2vs0mg"},{"bike_id":"0b439ceb-bbef-470b-b522-3e20f798d948","system_id":"levelo_inurba_marseille","lat":43.29111,"lon":5.38139,"is_reserved":false,"is_disabled":true,"rental_uris":{"android":"levelo://app?vid=0b439ceb-bbef-470b-b522-3e20f798d948","ios":"levelo://app?vid=0b439ceb-bbef-470b-b522-3e20f798d948"},"vehicle_type_id":"4","last_reported":1738393656,"current_range_meters":24000,"station_id":"ce4bh512rcd13ifvqe2g","pricing_plan_id":"cebpf4jnsgd1na2vs0mg"},{"bike_id":"528fe304-774b-4f5e-99b0-3a6df52f7bd5","system_id":"levelo_inurba_marseille","lat":43.2694,"lon":5.40271,"is_reserved":false,"is_disabled":false,"rental_uris":{"android":"levelo://app?vid=528fe304-774b-4f5e-99b0-3a6df52f7bd5","ios":"levelo://app?vid=528fe304-774b-4f5e-99b0-3a6df52f7bd5"},"vehicle_type_id":"4","last_reported":1738393656,"current_range_meters":22000,"station_id":"cjm6bp8fraef2m0cb0m0","pricing_plan_id":"cebpf4jnsgd1na2vs0mg"},{"bike_id":"693a29bd-5ac5-4712-a645-e5d8a8553060","system_id":"levelo_inurba_marseille","lat":43.29565,"lon":5.39977,"is_reserved":false,"is_disabled":false,"rental_uris":{"android":"levelo://app?vid=693a29bd-5ac5-4712-a645-e5d8a8553060","ios":"levelo://app?vid=693a29bd-5ac5-4712-a645-e5d8a8553060"},"vehicle_type_id":"4","last_reported":1738393656,"current_range_meters":35600,"station_id":"ce4bh312rcd13ifvqdj0","pricing_plan_id":"cebpf4jnsgd1na2vs0mg"},{"bike_id":"f38a9b51-7bc8-4445-89b3-2095fb6b771f","system_id":"levelo_inurba_marseille","lat":43.28694,"lon":5.37399,"is_reserved":false,"is_disabled":true,"rental_uris":{"android":"levelo://app?vid=f38a9b51-7bc8-4445-89b3-2095fb6b771f","ios":"levelo://app?vid=f38a9b51-7bc8-4445-89b3-2095fb6b771f"},"vehicle_type_id":"4","last_reported":1738393656,"current_range_meters":28400,"station_id":"ce4bh3p2rcd13ifvqdq0","pricing_plan_id":"cebpf4jnsgd1na2vs0mg"},{"bike_id":"788b7360-957a-459a-9f1b-1aa24bb6a1f9","system_id":"levelo_inurba_marseille","lat":43.28369,"lon":5.38635,"is_reserved":false,"is_disabled":false,"rental_uris":{"android":"levelo://app?vid=788b7360-957a-459a-9f1b-1aa24bb6a1f9","ios":"levelo://app?vid=788b7360-957a-459a-9f1b-1aa24bb6a1f9"},"vehicle_type_id":"4","last_reported":1738393656,"current_range_meters":29600,"station_id":"ce4bh492rcd13ifvqdvg","pricing_plan_id":"cebpf4jnsgd1na2vs0mg"},{"bike_id":"fe117411-d9ae-46ad-96d7-1d4828206f4a","system_id":"levelo_inurba_marseille","lat":43.24388,"lon":5.37064,"is_reserved":false,"is_disabled":true,"rental_uris":{"android":"levelo://app?vid=fe117411-d9ae-46ad-96d7-1d4828206f4a","ios":"levelo://app?vid=fe117411-d9ae-46ad-96d7-1d4828206f4a"},"vehicle_type_id":"4","last_reported":1738393656,"current_range_meters":1600,"station_id":"ce4bhhh2rcd13ifvqfk0","pricing_plan_id":"cebpf4jnsgd1na2vs0mg"},{"bike_id":"596db8be-c1ef-4532-968e-3ed361605f2d","system_id":"levelo_inurba_marseille","lat":43.27992,"lon":5.40027,"is_reserved":false,"is_disabled":true,"rental_uris":{"android":"levelo://app?vid=596db8be-c1ef-4532-968e-3ed361605f2d","ios":"levelo://app?vid=596db8be-c1ef-4532-968e-3ed361605f2d"},"vehicle_type_id":"4","last_reported":1738393656,"current_range_meters":0,"station_id":"ce4bho92rcd13ifvqh4g","pricing_plan_id":"cebpf4jnsgd1na2vs0mg"},{"bike_id":"51fff4b1-bc51-4973-835a-43898f1c8018","system_id":"levelo_inurba_marseille","lat":43.29627,"lon":5.40605,"is_reserved":false,"is_disabled":false,"rental_uris":{"android":"levelo://app?vid=51fff4b1-bc51-4973-835a-43898f1c8018","ios":"levelo://app?vid=51fff4b1-bc51-4973-835a-43898f1c8018"},"vehicle_type_id":"4","last_reported":1738393656,"current_range_meters":10800,"station_id":"ce4bh0h2rcd13ifvqd60","pricing_plan_id":"cebpf4jnsgd1na2vs0mg"},{"bike_id":"6725a974-636a-4cad-bf4d-273395199ad4","system_id":"levelo_inurba_marseille","lat":43.337295,"lon":5.391836,"is_reserved":false,"is_disabled":false,"rental_uris":{"android":"levelo://app?vid=6725a974-636a-4cad-bf4d-273395199ad4","ios":"levelo://app?vid=6725a974-636a-4cad-bf4d-273395199ad4"},"vehicle_type_id":"4","last_reported":1738393656,"current_range_meters":18800,"station_id":"ce4bhr92rcd13ifvqhsg","pricing_plan_id":"cebpf4jnsgd1na2vs0mg"},{"bike_id":"8d8545fe-b565-43ee-a059-fa0dcd94d7c0","system_id":"levelo_inurba_marseille","lat":43.23963,"lon":5.36615,"is_reserved":false,"is_disabled":false,"rental_uris":{"android":"levelo://app?vid=8d8545fe-b565-43ee-a059-fa0dcd94d7c0","ios":"levelo://app?vid=8d8545fe-b565-43ee-a059-fa0dcd94d7c0"},"vehicle_type_id":"4","last_reported":1738393656,"current_range_meters":16800,"station_id":"ce4bhi12rcd13ifvqfp0","pricing_plan_id":"cebpf4jnsgd1na2vs0mg"},{"bike_id":"0da5f84b-db0b-4287-8bee-544b42c02221","system_id":"levelo_inurba_marseille","lat":43.27181,"lon":5.41018,"is_reserved":false,"is_disabled":false,"rental_uris":{"android":"levelo://app?vid=0da5f84b-db0b-4287-8bee-544b42c02221","ios":"levelo://app?vid=0da5f84b-db0b-4287-8bee-544b42c02221"},"vehicle_type_id":"4","last_reported":1738393656,"current_range_meters":18000,"station_id":"ce4bhl12rcd13ifvqgf0","pricing_plan_id":"cebpf4jnsgd1na2vs0mg"},{"bike_id":"80e147ae-8cbe-4379-8ff7-3b9cda9f16f7","system_id":"levelo_inurba_marseille","lat":43.28846,"lon":5.39341,"is_reserved":false,"is_disabled":false,"rental_uris":{"android":"levelo://app?vid=80e147ae-8cbe-4379-8ff7-3b9cda9f16f7","ios":"levelo://app?vid=80e147ae-8cbe-4379-8ff7-3b9cda9f16f7"},"vehicle_type_id":"4","last_reported":1738393656,"current_range_meters":23200,"station_id":"ce4bh2p2rcd13ifvqdi0","pricing_plan_id":"cebpf4jnsgd1na2vs0mg"},{"bike_id":"7c3a7ddd-c193-4a3e-88c8-536661c7978e","system_id":"levelo_inurba_marseille","lat":43.30176,"lon":5.38058,"is_reserved":false,"is_disabled":false,"rental_uris":{"android":"levelo://app?vid=7c3a7ddd-c193-4a3e-88c8-536661c7978e","ios":"levelo://app?vid=7c3a7ddd-c193-4a3e-88c8-536661c7978e"},"vehicle_type_id":"4","last_reported":1738393656,"current_range_meters":6800,"station_id":"ce4bgjp2rcd13ifvqbh0","pricing_plan_id":"cebpf4jnsgd1na2vs0mg"},{"bike_id":"631e6727-6d53-443b-9edd-9c3622b7b866","system_id":"levelo_inurba_marseille","lat":43.33604,"lon":5.40977,"is_reserved":false,"is_disabled":false,"rental_uris":{"android":"levelo://app?vid=631e6727-6d53-443b-9edd-9c3622b7b866","ios":"levelo://app?vid=631e6727-6d53-443b-9edd-9c3622b7b866"},"vehicle_type_id":"4","last_reported":1738393656,"current_range_meters":33200,"station_id":"ce4bhqh2rcd13ifvqhmg","pricing_plan_id":"cebpf4jnsgd1na2vs0mg"},{"bike_id":"514c2f5a-7564-49c2-b4e5-8195b1295471","system_id":"levelo_inurba_marseille","lat":43.3133,"lon":5.39677,"is_reserved":false,"is_disabled":false,"rental_uris":{"android":"levelo://app?vid=514c2f5a-7564-49c2-b4e5-8195b1295471","ios":"levelo://app?vid=514c2f5a-7564-49c2-b4e5-8195b1295471"},"vehicle_type_id":"4","last_reported":1738393656,"current_range_meters":38800,"station_id":"ce4bgvp2rcd13ifvqcu0","pricing_plan_id":"cebpf4jnsgd1na2vs0mg"},{"bike_id":"a9e57f2a-2e24-4bb9-905f-718f32fa9ec6","system_id":"levelo_inurba_marseille","lat":43.30885,"lon":5.39641,"is_reserved":false,"is_disabled":false,"rental_uris":{"android":"levelo://app?vid=a9e57f2a-2e24-4bb9-905f-718f32fa9ec6","ios":"levelo://app?vid=a9e57f2a-2e24-4bb9-905f-718f32fa9ec6"},"vehicle_type_id":"4","last_reported":1738393656,"current_range_meters":3600,"station_id":"ce4bh012rcd13ifvqcv0","pricing_plan_id":"cebpf4jnsgd1na2vs0mg"},{"bike_id":"abeb2864-0838-48b3-948e-c9e7d153d255","system_id":"levelo_inurba_marseille","lat":43.24089,"lon":5.37718,"is_reserved":false,"is_disabled":false,"rental_uris":{"android":"levelo://app?vid=abeb2864-0838-48b3-948e-c9e7d153d255","ios":"levelo://app?vid=abeb2864-0838-48b3-948e-c9e7d153d255"},"vehicle_type_id":"4","last_reported":1738393656,"current_range_meters":16400,"station_id":"ce4bhnp2rcd13ifvqgvg","pricing_plan_id":"cebpf4jnsgd1na2vs0mg"},{"bike_id":"7048a064-9a8a-41f0-895f-7ca5bd1eb5ce","system_id":"levelo_inurba_marseille","lat":43.28001,"lon":5.40005,"is_reserved":false,"is_disabled":false,"rental_uris":{"android":"levelo://app?vid=7048a064-9a8a-41f0-895f-7ca5bd1eb5ce","ios":"levelo://app?vid=7048a064-9a8a-41f0-895f-7ca5bd1eb5ce"},"vehicle_type_id":"4","last_reported":1738393656,"current_range_meters":32000,"station_id":"ce4bho92rcd13ifvqh4g","pricing_plan_id":"cebpf4jnsgd1na2vs0mg"},{"bike_id":"1f4e4183-ba38-4674-b19d-0c758736fe8e","system_id":"levelo_inurba_marseille","lat":43.25078,"lon":5.39521,"is_reserved":false,"is_disabled":false,"rental_uris":{"android":"levelo://app?vid=1f4e4183-ba38-4674-b19d-0c758736fe8e","ios":"levelo://app?vid=1f4e4183-ba38-4674-b19d-0c758736fe8e"},"vehicle_type_id":"4","last_reported":1738393656,"current_range_meters":29600,"station_id":"ce4bhm12rcd13ifvqgkg","pricing_plan_id":"cebpf4jnsgd1na2vs0mg"},{"bike_id":"f0e2fa26-3c79-4312-9f37-8b61ad7fb1e1","system_id":"levelo_inurba_marseille","lat":43.27493,"lon":5.4245,"is_reserved":false,"is_disabled":false,"rental_uris":{"android":"levelo://app?vid=f0e2fa26-3c79-4312-9f37-8b61ad7fb1e1","ios":"levelo://app?vid=f0e2fa26-3c79-4312-9f37-8b61ad7fb1e1"},"vehicle_type_id":"4","last_reported":1738393656,"current_range_meters":26000,"station_id":"ce4bhn92rcd13ifvqgrg","pricing_plan_id":"cebpf4jnsgd1na2vs0mg"},{"bike_id":"ea610006-d7d6-4867-b151-d1448f73a8d7","system_id":"levelo_inurba_marseille","lat":43.313627,"lon":5.385073,"is_reserved":false,"is_disabled":false,"rental_uris":{"android":"levelo://app?vid=ea610006-d7d6-4867-b151-d1448f73a8d7","ios":"levelo://app?vid=ea610006-d7d6-4867-b151-d1448f73a8d7"},"vehicle_type_id":"4","last_reported":1738393656,"current_range_meters":38800,"station_id":"ce4bgt92rcd13ifvqcf0","pricing_plan_id":"cebpf4jnsgd1na2vs0mg"},{"bike_id":"46b43093-b875-4b52-a6ea-76dd9dc96ba1","system_id":"levelo_inurba_marseille","lat":43.30542,"lon":5.36565,"is_reserved":false,"is_disabled":true,"rental_uris":{"android":"levelo://app?vid=46b43093-b875-4b52-a6ea-76dd9dc96ba1","ios":"levelo://app?vid=46b43093-b875-4b52-a6ea-76dd9dc96ba1"},"vehicle_type_id":"4","last_reported":1738393656,"current_range_meters":38800,"station_id":"ce4bgs12rcd13ifvqcag","pricing_plan_id":"cebpf4jnsgd1na2vs0mg"},{"bike_id":"56d6b97f-30a2-4c2a-8be6-a12a9fc19507","system_id":"levelo_inurba_marseille","lat":43.31768,"lon":5.39021,"is_reserved":false,"is_disabled":false,"rental_uris":{"android":"levelo://app?vid=56d6b97f-30a2-4c2a-8be6-a12a9fc19507","ios":"levelo://app?vid=56d6b97f-30a2-4c2a-8be6-a12a9fc19507"},"vehicle_type_id":"4","last_reported":1738393656,"current_range_meters":10000,"station_id":"ce4bhqp2rcd13ifvqhng","pricing_plan_id":"cebpf4jnsgd1na2vs0mg"},{"bike_id":"6a6bec52-0657-4597-9637-e0f99a945c88","system_id":"levelo_inurba_marseille","lat":43.284965,"lon":5.374611,"is_reserved":false,"is_disabled":false,"rental_uris":{"android":"levelo://app?vid=6a6bec52-0657-4597-9637-e0f99a945c88","ios":"levelo://app?vid=6a6bec52-0657-4597-9637-e0f99a945c88"},"vehicle_type_id":"4","last_reported":1738393656,"current_range_meters":25600,"station_id":"","pricing_plan_id":"cebpf4jnsgd1na2vs0mg"},{"bike_id":"560a2dc7-55ae-402c-b35d-ae893c12aef3","system_id":"levelo_inurba_marseille","lat":43.26496,"lon":5.39552,"is_reserved":false,"is_disabled":false,"rental_uris":{"android":"levelo://app?vid=560a2dc7-55ae-402c-b35d-ae893c12aef3","ios":"levelo://app?vid=560a2dc7-55ae-402c-b35d-ae893c12aef3"},"vehicle_type_id":"4","last_reported":1738393656,"current_range_meters":37600,"station_id":"ce4bhi12rcd13ifvqfq0","pricing_plan_id":"cebpf4jnsgd1na2vs0mg"},{"bike_id":"07d3404c-eaff-498c-a8e2-598dc15aab05","system_id":"levelo_inurba_marseille","lat":43.30159,"lon":5.38084,"is_reserved":false,"is_disabled":false,"rental_uris":{"android":"levelo://app?vid=07d3404c-eaff-498c-a8e2-598dc15aab05","ios":"levelo://app?vid=07d3404c-eaff-498c-a8e2-598dc15aab05"},"vehicle_type_id":"4","last_reported":1738393656,"current_range_meters":18000,"station_id":"ce4bgjp2rcd13ifvqbh0","pricing_plan_id":"cebpf4jnsgd1na2vs0mg"},{"bike_id":"a23ba815-dbd5-4480-a111-8c270e8a3f23","system_id":"levelo_inurba_marseille","lat":43.27836,"lon":5.39199,"is_reserved":false,"is_disabled":false,"rental_uris":{"android":"levelo://app?vid=a23ba815-dbd5-4480-a111-8c270e8a3f23","ios":"levelo://app?vid=a23ba815-dbd5-4480-a111-8c270e8a3f23"},"vehicle_type_id":"4","last_reported":1738393656,"current_range_meters":10000,"station_id":"ce4bhjp2rcd13ifvqga0","pricing_plan_id":"cebpf4jnsgd1na2vs0mg"},{"bike_id":"b46e8e16-3111-4d2d-99e5-1405e9a1b99f","system_id":"levelo_inurba_marseille","lat":43.30602,"lon":5.39366,"is_reserved":false,"is_disabled":true,"rental_uris":{"android":"levelo://app?vid=b46e8e16-3111-4d2d-99e5-1405e9a1b99f","ios":"levelo://app?vid=b46e8e16-3111-4d2d-99e5-1405e9a1b99f"},"vehicle_type_id":"4","last_reported":1738393656,"current_range_meters":5600,"station_id":"ce4bh0p2rcd13ifvqd80","pricing_plan_id":"cebpf4jnsgd1na2vs0mg"},{"bike_id":"e8ad153e-ec2d-48ef-a275-1465b25e0ee0","system_id":"levelo_inurba_marseille","lat":43.29544,"lon":5.42294,"is_reserved":false,"is_disabled":false,"rental_uris":{"android":"levelo://app?vid=e8ad153e-ec2d-48ef-a275-1465b25e0ee0","ios":"levelo://app?vid=e8ad153e-ec2d-48ef-a275-1465b25e0ee0"},"vehicle_type_id":"4","last_reported":1738393656,"current_range_meters":38800,"station_id":"ce4bhph2rcd13ifvqhdg","pricing_plan_id":"cebpf4jnsgd1na2vs0mg"},{"bike_id":"2057393c-a641-4e65-9135-74481f970a33","system_id":"levelo_inurba_marseille","lat":43.31761,"lon":5.39009,"is_reserved":false,"is_disabled":false,"rental_uris":{"android":"levelo://app?vid=2057393c-a641-4e65-9135-74481f970a33","ios":"levelo://app?vid=2057393c-a641-4e65-9135-74481f970a33"},"vehicle_type_id":"4","last_reported":1738393656,"current_range_meters":38400,"station_id":"ce4bhqp2rcd13ifvqhng","pricing_plan_id":"cebpf4jnsgd1na2vs0mg"},{"bike_id":"355f811b-3e6a-4945-85e3-88857d55c0e2","system_id":"levelo_inurba_marseille","lat":43.30263,"lon":5.40069,"is_reserved":false,"is_disabled":false,"rental_uris":{"android":"levelo://app?vid=355f811b-3e6a-4945-85e3-88857d55c0e2","ios":"levelo://app?vid=355f811b-3e6a-4945-85e3-88857d55c0e2"},"vehicle_type_id":"4","last_reported":1738393656,"current_range_meters":38800,"station_id":"ce4bgvh2rcd13ifvqcs0","pricing_plan_id":"cebpf4jnsgd1na2vs0mg"},{"bike_id":"360941fe-5deb-4767-9c88-a4ac407a4f31","system_id":"levelo_inurba_marseille","lat":43.32652,"lon":5.40976,"is_reserved":false,"is_disabled":false,"rental_uris":{"android":"levelo://app?vid=360941fe-5deb-4767-9c88-a4ac407a4f31","ios":"levelo://app?vid=360941fe-5deb-4767-9c88-a4ac407a4f31"},"vehicle_type_id":"4","last_reported":1738393656,"current_range_meters":38400,"station_id":"ce4bhpp2rcd13ifvqhgg","pricing_plan_id":"cebpf4jnsgd1na2vs0mg"},{"bike_id":"b1450470-991f-4116-b468-6c222ee5c105","system_id":"levelo_inurba_marseille","lat":43.29535,"lon":5.39388,"is_reserved":false,"is_disabled":false,"rental_uris":{"android":"levelo://app?vid=b1450470-991f-4116-b468-6c222ee5c105","ios":"levelo://app?vid=b1450470-991f-4116-b468-6c222ee5c105"},"vehicle_type_id":"4","last_reported":1738393656,"current_range_meters":36000,"station_id":"ce4bh292rcd13ifvqdf0","pricing_plan_id":"cebpf4jnsgd1na2vs0mg"},{"bike_id":"a4a92693-f1c4-4686-b2b8-1f286c81e3fd","system_id":"levelo_inurba_marseille","lat":43.2893,"lon":5.36418,"is_reserved":false,"is_disabled":false,"rental_uris":{"android":"levelo://app?vid=a4a92693-f1c4-4686-b2b8-1f286c81e3fd","ios":"levelo://app?vid=a4a92693-f1c4-4686-b2b8-1f286c81e3fd"},"vehicle_type_id":"4","last_reported":1738393656,"current_range_meters":38800,"station_id":"ce4bhc92rcd13ifvqetg","pricing_plan_id":"cebpf4jnsgd1na2vs0mg"},{"bike_id":"c7de6d9a-dde4-4713-b82b-9ecac09bda55","system_id":"levelo_inurba_marseille","lat":43.24075,"lon":5.37768,"is_reserved":false,"is_disabled":false,"rental_uris":{"android":"levelo://app?vid=c7de6d9a-dde4-4713-b82b-9ecac09bda55","ios":"levelo://app?vid=c7de6d9a-dde4-4713-b82b-9ecac09bda55"},"vehicle_type_id":"4","last_reported":1738393656,"current_range_meters":12400,"station_id":"ce4bhnp2rcd13ifvqgvg","pricing_plan_id":"cebpf4jnsgd1na2vs0mg"},{"bike_id":"8949aaa9-8c9b-4225-a8e6-9ae66077d0d6","system_id":"levelo_inurba_marseille","lat":43.28707,"lon":5.37386,"is_reserved":false,"is_disabled":false,"rental_uris":{"android":"levelo://app?vid=8949aaa9-8c9b-4225-a8e6-9ae66077d0d6","ios":"levelo://app?vid=8949aaa9-8c9b-4225-a8e6-9ae66077d0d6"},"vehicle_type_id":"4","last_reported":1738393656,"current_range_meters":16800,"station_id":"ce4bh3p2rcd13ifvqdq0","pricing_plan_id":"cebpf4jnsgd1na2vs0mg"},{"bike_id":"ef516432-8c08-4e7a-a368-244cffd36d5d","system_id":"levelo_inurba_marseille","lat":43.28409,"lon":5.37489,"is_reserved":false,"is_disabled":false,"rental_uris":{"android":"levelo://app?vid=ef516432-8c08-4e7a-a368-244cffd36d5d","ios":"levelo://app?vid=ef516432-8c08-4e7a-a368-244cffd36d5d"},"vehicle_type_id":"4","last_reported":1738393656,"current_range_meters":32000,"station_id":"ce4bh412rcd13ifvqds0","pricing_plan_id":"cebpf4jnsgd1na2vs0mg"},