{"last_updated":1767892716,"ttl":60,"version":"2.2","data":{"bikes":[{"bike_id":"98249e23-d727-42e2-bc64-1013f35aedc9","system_id":"levelo_inurba_marseille","lat":43.23064,"lon":5.35485,"is_reserved":false,"is_disabled":false,"rental_uris":{"android":"levelo://app?vid=98249e23-d727-42e2-bc64-1013f35aedc9","ios":"levelo://app?vid=98249e23-d727-42e2-bc64-1013f35aedc9"},"vehicle_type_id":"4","last_reported":1767892716,"current_range_meters":2800,"station_id":"cpo3342slgdg3j2ifvpg","pricing_plan_id":"cebpf4jnsgd1na2vs0mg"},{"bike_id":"b4567677-b623-48bd-836b-d6ee853c9fc3","system_id":"levelo_inurba_marseille","lat":43.31719,"lon":5.42392,"is_reserved":false,"is_disabled":false,"rental_uris":{"android":"levelo://app?vid=b4567677-b623-48bd-836b-d6ee853c9fc3","ios":"levelo://app?vid=b4567677-b623-48bd-836b-d6ee853c9fc3"},"vehicle_type_id":"4","last_reported":1767892716,"current_range_meters":2800,"station_id":"ce4bhp92rcd13ifvqhbg","pricing_plan_id":"cebpf4jnsgd1na2vs0mg"},{"bike_id":"80c1456b-51ee-4fc1-b2ab-63785d9f6190","system_id":"levelo_inurba_marseille","lat":43.27813,"lon":5.40709,"is_reserved":false,"is_disabled":false,"rental_uris":{"android":"levelo://app?vid=80c1456b-51ee-4fc1-b2ab-63785d9f6190","ios":"levelo://app?vid=80c1456b-51ee-4fc1-b2ab-63785d9f6190"},"vehicle_type_id":"4","last_reported":1767892716,"current_range_meters":2800,"station_id":"ce4bhnh2rcd13ifvqgtg","pricing_plan_id":"cebpf4jnsgd1na2vs0mg"},{"bike_id":"73543345-4ef9-4e98-84ee-ab10ee209479","system_id":"levelo_inurba_marseille","lat":43.310664,"lon":5.383498,"is_reserved":false,"is_disabled":false,"rental_uris":{"android":"levelo://app?vid=73543345-4ef9-4e98-84ee-ab10ee209479","ios":"levelo://app?vid=73543345-4ef9-4e98-84ee-ab10ee209479"},"vehicle_type_id":"4","last_reported":1767892716,"current_range_meters":2800,"station_id":"ce4bgv92rcd13ifvqcr0","pricing_plan_id":"cebpf4jnsgd1na2vs0mg"},{"bike_id":"1474699b-b954-474a-8344-bbf94fd2e604","system_id":"levelo_inurba_marseille","lat":43.25828,"lon":5.39443,"is_reserved":false,"is_disabled":false,"rental_uris":{"android":"levelo://app?vid=1474699b-b954-474a-8344-bbf94fd2e604","ios":"levelo://app?vid=1474699b-b954-474a-8344-bbf94fd2e604"},"vehicle_type_id":"4","last_reported":1767892716,"current_range_meters":2800,"station_id":"ce4bhip2rcd13ifvqft0","pricing_plan_id":"cebpf4jnsgd1na2vs0mg"},{"bike_id":"44833d54-0e08-4546-b788-0c7150b05378","system_id":"levelo_inurba_marseille","lat":43.28463,"lon":5.48421,"is_reserved":false,"is_disabled":false,"rental_uris":{"android":"levelo://app?vid=44833d54-0e08-4546-b788-0c7150b05378","ios":"levelo://app?vid=44833d54-0e08-4546-b788-0c7150b05378"},"vehicle_type_id":"4","last_reported":1767892716,"current_range_meters":2800,"station_id":"st_d3svhcjqgbts73a3dn0g","pricing_plan_id":"cebpf4jnsgd1na2vs0mg"},{"bike_id":"f96412fb-997e-42d9-b749-fc2d5aec351b","system_id":"levelo_inurba_marseille","lat":43.323693,"lon":5.38885,"is_reserved":false,"is_disabled":false,"rental_uris":{"android":"levelo://app?vid=f96412fb-997e-42d9-b749-fc2d5aec351b","ios":"levelo://app?vid=f96412fb-997e-42d9-b749-fc2d5aec351b"},"vehicle_type_id":"4","last_reported":1767892716,"current_range_meters":2800,"station_id":"ce4bhqp2rcd13ifvqhog","pricing_plan_id":"cebpf4jnsgd1na2vs0mg"},{"bike_id":"a7e8b4f8-15c7-4593-b8a1-1dc1d30ad189","system_id":"levelo_inurba_marseille","lat":43.32053,"lon":5.38408,"is_reserved":false,"is_disabled":false,"rental_uris":{"android":"levelo://app?vid=a7e8b4f8-15c7-4593-b8a1-1dc1d30ad189","ios":"levelo://app?vid=a7e8b4f8-15c7-4593-b8a1-1dc1d30ad189"},"vehicle_type_id":"4","last_reported":1767892716,"current_range_meters":2800,"station_id":"","pricing_plan_id":"cebpf4jnsgd1na2vs0mg"},{"bike_id":"bf6caaf5-24ee-4f6b-ab09-7c467cbbf600","system_id":"levelo_inurba_marseille","lat":43.30948,"lon":5.39038,"is_reserved":false,"is_disabled":false,"rental_uris":{"android":"levelo://app?vid=bf6caaf5-24ee-4f6b-ab09-7c467cbbf600","ios":"levelo://app?vid=bf6caaf5-24ee-4f6b-ab09-7c467cbbf600"},"vehicle_type_id":"4","last_reported":1767892716,"current_range_meters":2800,"station_id":"ce4bgup2rcd13ifvqco0","pricing_plan_id":"cebpf4jnsgd1na2vs0mg"},{"bike_id":"9a84455d-66b0-4d3f-8c81-d289293761d8","system_id":"levelo_inurba_marseille","lat":43.241697,"lon":5.363974,"is_reserved":false,"is_disabled":false,"rental_uris":{"android":"levelo://app?vid=9a84455d-66b0-4d3f-8c81-d289293761d8","ios":"levelo://app?vid=9a84455d-66b0-4d3f-8c81-d289293761d8"},"vehicle_type_id":"4","last_reported":1767892716,"current_range_meters":2800,"station_id":"cpo36qri1sfpv3e86is0","pricing_plan_id":"cebpf4jnsgd1na2vs0mg"},{"bike_id":"987c9581-2214-4bb9-b13f-007d0b4b14c1","system_id":"levelo_inurba_marseille","lat":43.26193,"lon":5.37451,"is_reserved":false,"is_disabled":false,"rental_uris":{"android":"levelo://app?vid=987c9581-2214-4bb9-b13f-007d0b4b14c1","ios":"levelo://app?vid=987c9581-2214-4bb9-b13f-007d0b4b14c1"},"vehicle_type_id":"4","last_reported":1767892716,"current_range_meters":2800,"station_id":"ce4bhgp2rcd13ifvqfc0","pricing_plan_id":"cebpf4jnsgd1na2vs0mg"},{"bike_id":"fb7830ff-819f-4608-a3d5-08316a1e8a52","system_id":"levelo_inurba_marseille","lat":43.29034,"lon":5.359192,"is_reserved":false,"is_disabled":false,"rental_uris":{"android":"levelo://app?vid=fb7830ff-819f-4608-a3d5-08316a1e8a52","ios":"levelo://app?vid=fb7830ff-819f-4608-a3d5-08316a1e8a52"},"vehicle_type_id":"4","last_reported":1767892716,"current_range_meters":2800,"station_id":"ce4bha92rcd13ifvqeg0","pricing_plan_id":"cebpf4jnsgd1na2vs0mg"},{"bike_id":"948bd2ed-8fdc-4ef6-9827-a943cc835e12","system_id":"levelo_inurba_marseille","lat":43.30091,"lon":5.4323,"is_reserved":false,"is_disabled":false,"rental_uris":{"android":"levelo://app?vid=948bd2ed-8fdc-4ef6-9827-a943cc835e12","ios":"levelo://app?vid=948bd2ed-8fdc-4ef6-9827-a943cc835e12"},"vehicle_type_id":"4","last_reported":1767892716,"current_range_meters":3200,"station_id":"st_d3js3co5814s73ftftug","pricing_plan_id":"cebpf4jnsgd1na2vs0mg"},{"bike_id":"277782c8-49ba-481f-b8a0-e8f111f06e81","system_id":"levelo_inurba_marseille","lat":43.30884,"lon":5.39646,"is_reserved":false,"is_disabled":false,"rental_uris":{"android":"levelo://app?vid=277782c8-49ba-481f-b8a0-e8f111f06e81","ios":"levelo://app?vid=277782c8-49ba-481f-b8a0-e8f111f06e81"},"vehicle_type_id":"4","last_reported":1767892716,"current_range_meters":3200,"station_id":"ce4bh012rcd13ifvqcv0","pricing_plan_id":"cebpf4jnsgd1na2vs0mg"},{"bike_id":"b149c117-98ef-4c38-aceb-298ce1f4a106","system_id":"levelo_inurba_marseille","lat":43.30779,"lon":5.37656,"is_reserved":false,"is_disabled":false,"rental_uris":{"android":"levelo://app?vid=b149c117-98ef-4c38-aceb-298ce1f4a106","ios":"levelo://app?vid=b149c117-98ef-4c38-aceb-298ce1f4a106"},"vehicle_type_id":"4","last_reported":1767892716,"current_range_meters":3200,"station_id":"ce4bgv92rcd13ifvqcq0","pricing_plan_id":"cebpf4jnsgd1na2vs0mg"},{"bike_id":"3500b756-2d9b-4904-9cf3-89ad34ede79c","system_id":"levelo_inurba_marseille","lat":43.249774,"lon":5.389654,"is_reserved":false,"is_disabled":false,"rental_uris":{"android":"levelo://app?vid=3500b756-2d9b-4904-9cf3-89ad34ede79c","ios":"levelo://app?vid=3500b756-2d9b-4904-9cf3-89ad34ede79c"},"vehicle_type_id":"4","last_reported":1767892716,"current_range_meters":3200,"station_id":"ce4bhgp2rcd13ifvqfd0","pricing_plan_id":"cebpf4jnsgd1na2vs0mg"},{"bike_id":"34d2bd66-4478-4093-83da-7f8b11ee4cb0","system_id":"levelo_inurba_marseille","lat":43.29802,"lon":5.40393,"is_reserved":false,"is_disabled":false,"rental_uris":{"android":"levelo://app?vid=34d2bd66-4478-4093-83da-7f8b11ee4cb0","ios":"levelo://app?vid=34d2bd66-4478-4093-83da-7f8b11ee4cb0"},"vehicle_type_id":"4","last_reported":1767892716,"current_range_meters":3200,"station_id":"ce4bh112rcd13ifvqd90","pricing_plan_id":"cebpf4jnsgd1na2vs0mg"},{"bike_id":"4ad01c95-0381-485d-92ac-6478e0abdc37","system_id":"levelo_inurba_marseille","lat":43.253448,"lon":5.421757,"is_reserved":false,"is_disabled":false,"rental_uris":{"android":"levelo://app?vid=4ad01c95-0381-485d-92ac-6478e0abdc37","ios":"levelo://app?vid=4ad01c95-0381-485d-92ac-6478e0abdc37"},"vehicle_type_id":"4","last_reported":1767892716,"current_range_meters":3200,"station_id":"st_d2m65c5bi1j21697t3ng","pricing_plan_id":"cebpf4jnsgd1na2vs0mg"},{"bike_id":"870a302a-4149-492b-a93d-5631ff07a3cf","system_id":"levelo_inurba_marseille","lat":43.27615,"lon":5.361073,"is_reserved":false,"is_disabled":false,"rental_uris":{"android":"levelo://app?vid=870a302a-4149-492b-a93d-5631ff07a3cf","ios":"levelo://app?vid=870a302a-4149-492b-a93d-5631ff07a3cf"},"vehicle_type_id":"4","last_reported":1767892716,"current_range_meters":3200,"station_id":"ce4bgj92rcd13ifvqbe0","pricing_plan_id":"cebpf4jnsgd1na2vs0mg"},{"bike_id":"9b9e7c0d-8b05-4d0a-9b2e-71cd579eefc9","system_id":"levelo_inurba_marseille","lat":43.32344,"lon":5.36744,"is_reserved":false,"is_disabled":false,"rental_uris":{"android":"levelo://app?vid=9b9e7c0d-8b05-4d0a-9b2e-71cd579eefc9","ios":"levelo://app?vid=9b9e7c0d-8b05-4d0a-9b2e-71cd579eefc9"},"vehicle_type_id":"4","last_reported":1767892716,"current_range_meters":3200,"station_id":"ce4bhsh2rcd13ifvqi2g","pricing_plan_id":"cebpf4jnsgd1na2vs0mg"},{"bike_id":"0a45c8f0-661f-47c8-bf22-39f4c127c766","system_id":"levelo_inurba_marseille","lat":43.24172,"lon":5.39739,"is_reserved":false,"is_disabled":false,"rental_uris":{"android":"levelo://app?vid=0a45c8f0-661f-47c8-bf22-39f4c127c766","ios":"levelo://app?vid=0a45c8f0-661f-47c8-bf22-39f4c127c766"},"vehicle_type_id":"4","last_reported":1767892716,"current_range_meters":3200,"station_id":"ce4bhn12rcd13ifvqgpg","pricing_plan_id":"cebpf4jnsgd1na2vs0mg"},{"bike_id":"d0d67774-3af3-4c86-b7b6-8109c321647b","system_id":"levelo_inurba_marseille","lat":43.22936,"lon":5.35401,"is_reserved":false,"is_disabled":false,"rental_uris":{"android":"levelo://app?vid=d0d67774-3af3-4c86-b7b6-8109c321647b","ios":"levelo://app?vid=d0d67774-3af3-4c86-b7b6-8109c321647b"},"vehicle_type_id":"4","last_reported":1767892716,"current_range_meters":3200,"station_id":"cpo3532slgdg3j2ikp40","pricing_plan_id":"cebpf4jnsgd1na2vs0mg"},{"bike_id":"318ab7ee-cd4e-4fbb-a198-dc67360e53a7","system_id":"levelo_inurba_marseille","lat":43.229276,"lon":5.353752,"is_reserved":false,"is_disabled":false,"rental_uris":{"android":"levelo://app?vid=318ab7ee-cd4e-4fbb-a198-dc67360e53a7","ios":"levelo://app?vid=318ab7ee-cd4e-4fbb-a198-dc67360e53a7"},"vehicle_type_id":"4","last_reported":1767892716,"current_range_meters":3600,"station_id":"cpo3532slgdg3j2ikp40","pricing_plan_id":"cebpf4jnsgd1na2vs0mg"},{"bike_id":"796165dd-6233-4b3e-bc69-5c2707fdcdd0","system_id":"levelo_inurba_marseille","lat":43.25506,"lon":5.37645,"is_reserved":false,"is_disabled":false,"rental_uris":{"android":"levelo://app?vid=796165dd-6233-4b3e-bc69-5c2707fdcdd0","ios":"levelo://app?vid=796165dd-6233-4b3e-bc69-5c2707fdcdd0"},"vehicle_type_id":"4","last_reported":1767892716,"current_range_meters":3600,"station_id":"ce4bhh12rcd13ifvqff0","pricing_plan_id":"cebpf4jnsgd1na2vs0mg"},{"bike_id":"0954c2d6-8ee5-4819-b8e0-2cf3adcdcfc0","system_id":"levelo_inurba_marseille","lat":43.2835,"lon":5.3812,"is_reserved":false,"is_disabled":false,"rental_uris":{"android":"levelo://app?vid=0954c2d6-8ee5-4819-b8e0-2cf3adcdcfc0","ios":"levelo://app?vid=0954c2d6-8ee5-4819-b8e0-2cf3adcdcfc0"},"vehicle_type_id":"4","last_reported":1767892716,"current_range_meters":3600,"station_id":"ce4bh412rcd13ifvqdr0","pricing_plan_id":"cebpf4jnsgd1na2vs0mg"},{"bike_id":"e2027e2d-ad96-4852-93c8-8c07125cd696","system_id":"levelo_inurba_marseille","lat":43.30093,"lon":5.39069,"is_reserved":false,"is_disabled":false,"rental_uris":{"android":"levelo://app?vid=e2027e2d-ad96-4852-93c8-8c07125cd696","ios":"levelo://app?vid=e2027e2d-ad96-4852-93c8-8c07125cd696"},"vehicle_type_id":"4","last_reported":1767892716,"current_range_meters":3600,"station_id":"ce4bh192rcd13ifvqdb0","pricing_plan_id":"cebpf4jnsgd1na2vs0mg"},{"bike_id":"2a9bfd33-8ccd-4ac3-b4d6-d2880a56459c","system_id":"levelo_inurba_marseille","lat":43.30598,"lon":5.37235,"is_reserved":false,"is_disabled":false,"rental_uris":{"android":"levelo://app?vid=2a9bfd33-8ccd-4ac3-b4d6-d2880a56459c","ios":"levelo://app?vid=2a9bfd33-8ccd-4ac3-b4d6-d2880a56459c"},"vehicle_type_id":"4","last_reported":1767892716,"current_range_meters":3600,"station_id":"ce4bgqh2rcd13ifvqc4g","pricing_plan_id":"cebpf4jnsgd1na2vs0mg"},{"bike_id":"a372849d-607b-4dd2-97f9-cb2fb04b6e46","system_id":"levelo_inurba_marseille","lat":43.27997,"lon":5.40003,"is_reserved":false,"is_disabled":false,"rental_uris":{"android":"levelo://app?vid=a372849d-607b-4dd2-97f9-cb2fb04b6e46","ios":"levelo://app?vid=a372849d-607b-4dd2-97f9-cb2fb04b6e46"},"vehicle_type_id":"4","last_reported":1767892716,"current_range_meters":3600,"station_id":"ce4bho92rcd13ifvqh4g","pricing_plan_id":"cebpf4jnsgd1na2vs0mg"},{"bike_id":"02023d95-9604-456c-8393-fe6f6cee5283","system_id":"levelo_inurba_marseille","lat":43.25095,"lon":5.39509,"is_reserved":false,"is_disabled":false,"rental_uris":{"android":"levelo://app?vid=02023d95-9604-456c-8393-fe6f6cee5283","ios":"levelo://app?vid=02023d95-9604-456c-8393-fe6f6cee5283"},"vehicle_type_id":"4","last_reported":1767892716,"current_range_meters":3600,"station_id":"ce4bhm12rcd13ifvqgkg","pricing_plan_id":"cebpf4jnsgd1na2vs0mg"},{"bike_id":"ead8baf0-0c7c-4f03-9fe7-defff8fb4be3","system_id":"levelo_inurba_marseille","lat":43.30125,"lon":5.39031,"is_reserved":false,"is_disabled":false,"rental_uris":{"android":"levelo://app?vid=ead8baf0-0c7c-4f03-9fe7-defff8fb4be3","ios":"levelo://app?vid=ead8baf0-0c7c-4f03-9fe7-defff8fb4be3"},"vehicle_type_id":"4","last_reported":1767892716,"current_range_meters":3600,"station_id":"ce4bh012rcd13ifvqcv0","pricing_plan_id":"cebpf4jnsgd1na2vs0mg"},{"bike_id":"ff8302a9-d32b-4626-86db-b5e36f362cd5","system_id":"levelo_inurba_marseille","lat":43.33759,"lon":5.37472,"is_reserved":false,"is_disabled":false,"rental_uris":{"android":"levelo://app?vid=ff8302a9-d32b-4626-86db-b5e36f362cd5","ios":"levelo://app?vid=ff8302a9-d32b-4626-86db-b5e36f362cd5"},"vehicle_type_id":"4","last_reported":1767892716,"current_range_meters":3600,"station_id":"","pricing_plan_id":"cebpf4jnsgd1na2vs0mg"},{"bike_id":"f9694d4b-6e2f-4fc5-ae06-59dad6b1ea4d","system_id":"levelo_inurba_marseille","lat":43.25012,"lon":5.3753,"is_reserved":false,"is_disabled":false,"rental_uris":{"android":"levelo://app?vid=f9694d4b-6e2f-4fc5-ae06-59dad6b1ea4d","ios":"levelo://app?vid=f9694d4b-6e2f-4fc5-ae06-59dad6b1ea4d"},"vehicle_type_id":"4","last_reported":1767892716,"current_range_meters":4000,"station_id":"","pricing_plan_id":"cebpf4jnsgd1na2vs0mg"},{"bike_id":"417ee56f-6c8f-40f8-8489-e1d26db83e94","system_id":"levelo_inurba_marseille","lat":43.29901,"lon":5.38136,"is_reserved":false,"is_disabled":false,"rental_uris":{"android":"levelo://app?vid=417ee56f-6c8f-40f8-8489-e1d26db83e94","ios":"levelo://app?vid=417ee56f-6c8f-40f8-8489-e1d26db83e94"},"vehicle_type_id":"4","last_reported":1767892716,"current_range_meters":4000,"station_id":"ce4bgj12rcd13ifvqbc0","pricing_plan_id":"cebpf4jnsgd1na2vs0mg"},{"bike_id":"8dea7d65-6286-4c63-84f2-2e0f6db358d0","system_id":"levelo_inurba_marseille","lat":43.27325,"lon":5.39102,"is_reserved":false,"is_disabled":false,"rental_uris":{"android":"levelo://app?vid=8dea7d65-6286-4c63-84f2-2e0f6db358d0","ios":"levelo://app?vid=8dea7d65-6286-4c63-84f2-2e0f6db358d0"},"vehicle_type_id":"4","last_reported":1767892716,"current_range_meters":4000,"station_id":"ce4bhgp2rcd13ifvqfe0","pricing_plan_id":"cebpf4jnsgd1na2vs0mg"},{"bike_id":"24b170ad-2325-4ff2-a3cc-a7aef8427e41","system_id":"levelo_inurba_marseille","lat":43.27669,"lon":5.38903,"is_reserved":false,"is_disabled":false,"rental_uris":{"android":"levelo://app?vid=24b170ad-2325-4ff2-a3cc-a7aef8427e41","ios":"levelo://app?vid=24b170ad-2325-4ff2-a3cc-a7aef8427e41"},"vehicle_type_id":"4","last_reported":1767892716,"current_range_meters":4000,"station_id":"ce4bhi12rcd13ifvqfo0","pricing_plan_id":"cebpf4jnsgd1na2vs0mg"},{"bike_id":"180d89c6-a78f-469f-9195-bf47c219695f","system_id":"levelo_inurba_marseille","lat":43.25585,"lon":5.38233,"is_reserved":false,"is_disabled":false,"rental_uris":{"android":"levelo://app?vid=180d89c6-a78f-469f-9195-bf47c219695f","ios":"levelo://app?vid=180d89c6-a78f-469f-9195-bf47c219695f"},"vehicle_type_id":"4","last_reported":1767892716,"current_range_meters":4000,"station_id":"ce4bhih2rcd13ifvqfs0","pricing_plan_id":"cebpf4jnsgd1na2vs0mg"},{"bike_id":"cbbc2d4b-a90b-4daf-93a7-b6f6262bed66","system_id":"levelo_inurba_marseille","lat":43.28467,"lon":5.37849,"is_reserved":false,"is_disabled":false,"rental_uris":{"android":"levelo://app?vid=cbbc2d4b-a90b-4daf-93a7-b6f6262bed66","ios":"levelo://app?vid=cbbc2d4b-a90b-4daf-93a7-b6f6262bed66"},"vehicle_type_id":"4","last_reported":1767892716,"current_range_meters":4000,"station_id":"","pricing_plan_id":"cebpf4jnsgd1na2vs0mg"},{"bike_id":"8e9cd320-222e-4849-8f3f-db8fcd5c5954","system_id":"levelo_inurba_marseille","lat":43.31809,"lon":5.36849,"is_reserved":false,"is_disabled":false,"rental_uris":{"android":"levelo://app?vid=8e9cd320-222e-4849-8f3f-db8fcd5c5954","ios":"levelo://app?vid=8e9cd320-222e-4849-8f3f-db8fcd5c5954"},"vehicle_type_id":"4","last_reported":1767892716,"current_range_meters":4000,"station_id":"","pricing_plan_id":"cebpf4jnsgd1na2vs0mg"},{"bike_id":"c76ae657-718a-4338-8439-e283c9bbb031","system_id":"levelo_inurba_marseille","lat":43.25207,"lon":5.402735,"is_reserved":false,"is_disabled":false,"rental_uris":{"android":"levelo://app?vid=c76ae657-718a-4338-8439-e283c9bbb031","ios":"levelo://app?vid=c76ae657-718a-4338-8439-e283c9bbb031"},"vehicle_type_id":"4","last_reported":1767892716,"current_range_meters":4000,"station_id":"ce4bhlh2rcd13ifvqgig","pricing_plan_id":"cebpf4jnsgd1na2vs0mg"},{"bike_id":"4ec3a834-98ba-43be-af51-b518410d477e","system_id":"levelo_inurba_marseille","lat":43.27843,"lon":5.39207,"is_reserved":false,"is_disabled":false,"rental_uris":{"android":"levelo://app?vid=4ec3a834-98ba-43be-af51-b518410d477e","ios":"levelo://app?vid=4ec3a834-98ba-43be-af51-b518410d477e"},"vehicle_type_id":"4","last_reported":1767892716,"current_range_meters":4000,"station_id":"ce4bhjp2rcd13ifvqga0","pricing_plan_id":"cebpf4jnsgd1na2vs0mg"},{"bike_id":"8f8477b6-07ed-4fdd-aa03-c89764869fff","system_id":"levelo_inurba_marseille","lat":43.297942,"lon":5.38107,"is_reserved":false,"is_disabled":false,"rental_uris":{"android":"levelo://app?vid=8f8477b6-07ed-4fdd-aa03-c89764869fff","ios":"levelo://app?vid=8f8477b6-07ed-4fdd-aa03-c89764869fff"},"vehicle_type_id":"4","last_reported":1767892716,"current_range_meters":4000,"station_id":"ce4bgip2rcd13ifvqbb0","pricing_plan_id":"cebpf4jnsgd1na2vs0mg"},{"bike_id":"5a68ff48-3ca4-4b8d-81f5-0545c9e06ce5","system_id":"levelo_inurba_marseille","lat":43.28866,"lon":5.42521,"is_reserved":false,"is_disabled":false,"rental_uris":{"android":"levelo://app?vid=5a68ff48-3ca4-4b8d-81f5-0545c9e06ce5","ios":"levelo://app?vid=5a68ff48-3ca4-4b8d-81f5-0545c9e06ce5"},"vehicle_type_id":"4","last_reported":1767892716,"current_range_meters":4400,"station_id":"st_d3b462108ojc7389ooeg","pricing_plan_id":"cebpf4jnsgd1na2vs0mg"},{"bike_id":"9a61422c-66f5-4a7c-9f65-b9a70f298ec1","system_id":"levelo_inurba_marseille","lat":43.24952,"lon":5.40494,"is_reserved":false,"is_disabled":false,"rental_uris":{"android":"levelo://app?vid=9a61422c-66f5-4a7c-9f65-b9a70f298ec1","ios":"levelo://app?vid=9a61422c-66f5-4a7c-9f65-b9a70f298ec1"},"vehicle_type_id":"4","last_reported":1767892716,"current_range_meters":4400,"station_id":"st_d2ngiaodas8pm72gd1h0","pricing_plan_id":"cebpf4jnsgd1na2vs0mg"},{"bike_id":"3678ce70-35cc-4f23-a412-a66d50bba044","system_id":"levelo_inurba_marseille","lat":43.28144,"lon":5.38349,"is_reserved":false,"is_disabled":false,"rental_uris":{"android":"levelo://app?vid=3678ce70-35cc-4f23-a412-a66d50bba044","ios":"levelo://app?vid=3678ce70-35cc-4f23-a412-a66d50bba044"},"vehicle_type_id":"4","last_reported":1767892716,"current_range_meters":4400,"station_id":"","pricing_plan_id":"cebpf4jnsgd1na2vs0mg"},{"bike_id":"75a911db-50bf-4f58-9f92-6bb6f2d03e7c","system_id":"levelo_inurba_marseille","lat":43.29631,"lon":5.40127,"is_reserved":false,"is_disabled":false,"rental_uris":{"android":"levelo://app?vid=75a911db-50bf-4f58-9f92-6bb6f2d03e7c","ios":"levelo://app?vid=75a911db-50bf-4f58-9f92-6bb6f2d03e7c"},"vehicle_type_id":"4","last_reported":1767892716,"current_range_meters":4400,"station_id":"","pricing_plan_id":"cebpf4jnsgd1na2vs0mg"},{"bike_id":"684f787f-e2c7-4a22-8881-493bc1fb2a24","system_id":"levelo_inurba_marseille","lat":43.291716,"lon":5.371563,"is_reserved":false,"is_disabled":false,"rental_uris":{"android":"levelo://app?vid=684f787f-e2c7-4a22-8881-493bc1fb2a24","ios":"levelo://app?vid=684f787f-e2c7-4a22-8881-493bc1fb2a24"},"vehicle_type_id":"4","last_reported":1767892716,"current_range_meters":4400,"station_id":"ce4bha92rcd13ifvqeh0","pricing_plan_id":"cebpf4jnsgd1na2vs0mg"},{"bike_id":"7e56ead6-0dcc-483d-86d1-d4af73c68e4a","system_id":"levelo_inurba_marseille","lat":43.29387,"lon":5.38614,"is_reserved":false,"is_disabled":true,"rental_uris":{"android":"levelo://app?vid=7e56ead6-0dcc-483d-86d1-d4af73c68e4a","ios":"levelo://app?vid=7e56ead6-0dcc-483d-86d1-d4af73c68e4a"},"vehicle_type_id":"4","last_reported":1767892716,"current_range_meters":4400,"station_id":"","pricing_plan_id":"cebpf4jnsgd1na2vs0mg"},{"bike_id":"cca37f41-75c9-4589-a8ae-12bfd7f639e2","system_id":"levelo_inurba_marseille","lat":43.28867,"lon":5.42521,"is_reserved":false,"is_disabled":false,"rental_uris":{"android":"levelo://app?vid=cca37f41-75c9-4589-a8ae-12bfd7f639e2","ios":"levelo://app?vid=cca37f41-75c9-4589-a8ae-12bfd7f639e2"},"vehicle_type_id":"4","last_reported":1767892716,"current_range_meters":4400,"station_id":"st_d3b462108ojc7389ooeg","pricing_plan_id":"cebpf4jnsgd1na2vs0mg"},{"bike_id":"01b7341c-b3a7-4a3f-a5cd-de1c6082dfb5","system_id":"levelo_inurba_marseille","lat":43.27065,"lon":5.38299,"is_reserved":false,"is_disabled":false,"rental_uris":{"android":"levelo://app?vid=01b7341c-b3a7-4a3f-a5cd-de1c6082dfb5","ios":"levelo://app?vid=01b7341c-b3a7-4a3f-a5cd-de1c6082dfb5"},"vehicle_type_id":"4","last_reported":1767892716,"current_range_meters":4400,"station_id":"st_d3n2fo6cfp8s73cte1j0","pricing_plan_id":"cebpf4jnsgd1na2vs0mg"},{"bike_id":"c2e6f05b-b779-4acb-80f0-4511614a12db","system_id":"levelo_inurba_marseille","lat":43.28406,"lon":5.37537,"is_reserved":false,"is_disabled":false,"rental_uris":{"android":"levelo://app?vid=c2e6f05b-b779-4acb-80f0-4511614a12db","ios":"levelo://app?vid=c2e6f05b-b779-4acb-80f0-4511614a12db"},"vehicle_type_id":"4","last_reported":1767892716,"current_range_meters":4400,"station_id":"ce4bh412rcd13ifvqds0","pricing_plan_id":"cebpf4jnsgd1na2vs0mg"},{"bike_id":"f1728ff2-743f-486c-8f42-7b3e7436c935","system_id":"levelo_inurba_marseille","lat":43.29573,"lon":5.39955,"is_reserved":false,"is_disabled":false,"rental_uris":{"android":"levelo://app?vid=f1728ff2-743f-486c-8f42-7b3e7436c935","ios":"levelo://app?vid=f1728ff2-743f-486c-8f42-7b3e7436c935"},"vehicle_type_id":"4","last_reported":1767892716,"current_range_meters":4400,"station_id":"ce4bh312rcd13ifvqdj0","pricing_plan_id":"cebpf4jnsgd1na2vs0mg"},{"bike_id":"4ba7a7c2-cc68-489a-9ee3-f228ca6f635b","system_id":"levelo_inurba_marseille","lat":43.25578,"lon":5.38247,"is_reserved":false,"is_disabled":false,"rental_uris":{"android":"levelo://app?vid=4ba7a7c2-cc68-489a-9ee3-f228ca6f635b","ios":"levelo://app?vid=4ba7a7c2-cc68-489a-9ee3-f228ca6f635b"},"vehicle_type_id":"4","last_reported":1767892716,"current_range_meters":4400,"station_id":"ce4bhih2rcd13ifvqfs0","pricing_plan_id":"cebpf4jnsgd1na2vs0mg"},{"bike_id":"01d8e2c9-d4ce-48e6-afef-8bf3104cf069","system_id":"levelo_inurba_marseille","lat":43.27167,"lon":5.41004,"is_reserved":false,"is_disabled":false,"rental_uris":{"android":"levelo://app?vid=01d8e2c9-d4ce-48e6-afef-8bf3104cf069","ios":"levelo://app?vid=01d8e2c9-d4ce-48e6-afef-8bf3104cf069"},"vehicle_type_id":"4","last_reported":1767892716,"current_range_meters":4400,"station_id":"ce4bhl12rcd13ifvqgf0","pricing_plan_id":"cebpf4jnsgd1na2vs0mg"},{"bike_id":"8ef9aab2-2d6f-4349-b806-4f4d01014c4a","system_id":"levelo_inurba_marseille","lat":43.25109,"lon":5.40334,"is_reserved":false,"is_disabled":false,"rental_uris":{"android":"levelo://app?vid=8ef9aab2-2d6f-4349-b806-4f4d01014c4a","ios":"levelo://app?vid=8ef9aab2-2d6f-4349-b806-4f4d01014c4a"},"vehicle_type_id":"4","last_reported":1767892716,"current_range_meters":4400,"station_id":"ce4bhlh2rcd13ifvqgig","pricing_plan_id":"cebpf4jnsgd1na2vs0mg"},{"bike_id":"627ad4fb-d3f7-406d-9fa6-760355e4142d","system_id":"levelo_inurba_marseille","lat":43.231997,"lon":5.355489,"is_reserved":false,"is_disabled":false,"rental_uris":{"android":"levelo://app?vid=627ad4fb-d3f7-406d-9fa6-760355e4142d","ios":"levelo://app?vid=627ad4fb-d3f7-406d-9fa6-760355e4142d"},"vehicle_type_id":"4","last_reported":1767892716,"current_range_meters":4400,"station_id":"ce4bhu92rcd13ifvqi70","pricing_plan_id":"cebpf4jnsgd1na2vs0mg"},{"bike_id":"e3ffb854-e428-4a18-904d-ea5ddd084e10","system_id":"levelo_inurba_marseille","lat":43.32339,"lon":5.36739,"is_reserved":false,"is_disabled":false,"rental_uris":{"android":"levelo://app?vid=e3ffb854-e428-4a18-904d-ea5ddd084e10","ios":"levelo://app?vid=e3ffb854-e428-4a18-904d-ea5ddd084e10"},"vehicle_type_id":"4","last_reported":1767892716,"current_range_meters":4400,"station_id":"ce4bhsh2rcd13ifvqi2g","pricing_plan_id":"cebpf4jnsgd1na2vs0mg"},{"bike_id":"29b35610-0653-494c-aec2-0c4a256bfcd8","system_id":"levelo_inurba_marseille","lat":43.3093,"lon":5.40146,"is_reserved":false,"is_disabled":false,"rental_uris":{"android":"levelo://app?vid=29b35610-0653-494c-aec2-0c4a256bfcd8","ios":"levelo://app?vid=29b35610-0653-494c-aec2-0c4a256bfcd8"},"vehicle_type_id":"4","last_reported":1767892716,"current_range_meters":4400,"station_id":"ce4bgvp2rcd13ifvqct0","pricing_plan_id":"cebpf4jnsgd1na2vs0mg"},{"bike_id":"49cc43f2-a61c-492c-94fb-20b9013a3563","system_id":"levelo_inurba_marseille","lat":43.22558,"lon":5.41659,"is_reserved":false,"is_disabled":false,"rental_uris":{"android":"levelo://app?vid=49cc43f2-a61c-492c-94fb-20b9013a3563","ios":"levelo://app?vid=49cc43f2-a61c-492c-94fb-20b9013a3563"},"vehicle_type_id":"4","last_reported":1767892716,"current_range_meters":4400,"station_id":"st_d2o4gvlbi1j2169b742g","pricing_plan_id":"cebpf4jnsgd1na2vs0mg"},{"bike_id":"d75a90cd-5dce-4bdd-84ef-6b9526859b57","system_id":"levelo_inurba_marseille","lat":43.32329,"lon":5.38348,"is_reserved":false,"is_disabled":false,"rental_uris":{"android":"levelo://app?vid=d75a90cd-5dce-4bdd-84ef-6b9526859b57","ios":"levelo://app?vid=d75a90cd-5dce-4bdd-84ef-6b9526859b57"},"vehicle_type_id":"4","last_reported":1767892716,"current_range_meters":4400,"station_id":"","pricing_plan_id":"cebpf4jnsgd1na2vs0mg"},{"bike_id":"53018184-84b7-4daa-ae85-4929d6d6f306","system_id":"levelo_inurba_marseille","lat":43.28666,"lon":5.36352,"is_reserved":false,"is_disabled":false,"rental_uris":{"android":"levelo://app?vid=53018184-84b7-4daa-ae85-4929d6d6f306","ios":"levelo://app?vid=53018184-84b7-4daa-ae85-4929d6d6f306"},"vehicle_type_id":"4","last_reported":1767892716,"current_range_meters":4400,"station_id":"ce4bhah2rcd13ifvqej0","pricing_plan_id":"cebpf4jnsgd1na2vs0mg"},{"bike_id":"bcc7f85d-4ed0-44b1-99ca-43b55233d4b3","system_id":"levelo_inurba_marseille","lat":43.2803,"lon":5.36944,"is_reserved":false,"is_disabled":false,"rental_uris":{"android":"levelo://app?vid=bcc7f85d-4ed0-44b1-99ca-43b55233d4b3","ios":"levelo://app?vid=bcc7f85d-4ed0-44b1-99ca-43b55233d4b3"},"vehicle_type_id":"4","last_reported":1767892716,"current_range_meters":4400,"station_id":"ce4bha12rcd13ifvqef0","pricing_plan_id":"cebpf4jnsgd1na2vs0mg"},{"bike_id":"54bf261d-8f8c-4f5e-9d97-c0598fc02432","system_id":"levelo_inurba_marseille","lat":43.24807,"lon":5.37462,"is_reserved":false,"is_disabled":false,"rental_uris":{"android":"levelo://app?vid=54bf261d-8f8c-4f5e-9d97-c0598fc02432","ios":"levelo://app?vid=54bf261d-8f8c-4f5e-9d97-c0598fc02432"},"vehicle_type_id":"4","last_reported":1767892716,"current_range_meters":4400,"station_id":"ce4bhgh2rcd13ifvqfb0","pricing_plan_id":"cebpf4jnsgd1na2vs0mg"},{"bike_id":"8d64f007-e29f-4112-b552-8cde55c43110","system_id":"levelo_inurba_marseille","lat":43.32901,"lon":5.40027,"is_reserved":false,"is_disabled":false,"rental_uris":{"android":"levelo://app?vid=8d64f007-e29f-4112-b552-8cde55c43110","ios":"levelo://app?vid=8d64f007-e29f-4112-b552-8cde55c43110"},"vehicle_type_id":"4","last_reported":1767892716,"current_range_meters":4400,"station_id":"","pricing_plan_id":"cebpf4jnsgd1na2vs0mg"},{"bike_id":"53e89214-edb5-4514-a06a-3d5d9276b872","system_id":"levelo_inurba_marseille","lat":43.29198,"lon":5.35809,"is_reserved":false,"is_disabled":false,"rental_uris":{"android":"levelo://app?vid=53e89214-edb5-4514-a06a-3d5d9276b872","ios":"levelo://app?vid=53e89214-edb5-4514-a06a-3d5d9276b872"},"vehicle_type_id":"4","last_reported":1767892716,"current_range_meters":4800,"station_id":"ce4bhb12rcd13ifvqel0","pricing_plan_id":"cebpf4jnsgd1na2vs0mg"},{"bike_id":"3c369cc7-4253-456a-9de1-f7c48643ff07","system_id":"levelo_inurba_marseille","lat":43.29599,"lon":5.38109,"is_reserved":false,"is_disabled":false,"rental_uris":{"android":"levelo://app?vid=3c369cc7-4253-456a-9de1-f7c48643ff07","ios":"levelo://app?vid=3c369cc7-4253-456a-9de1-f7c48643ff07"},"vehicle_type_id":"4","last_reported":1767892716,"current_range_meters":4800,"station_id":"ce4bgl12rcd13ifvqbo0","pricing_plan_id":"cebpf4jnsgd1na2vs0mg"},{"bike_id":"3e2bd98b-a418-45aa-8930-9a8ee310d453","system_id":"levelo_inurba_marseille","lat":43.28477,"lon":5.38408,"is_reserved":false,"is_disabled":false,"rental_uris":{"android":"levelo://app?vid=3e2bd98b-a418-45aa-8930-9a8ee310d453","ios":"levelo://app?vid=3e2bd98b-a418-45aa-8930-9a8ee310d453"},"vehicle_type_id":"4","last_reported":1767892716,"current_range_meters":4800,"station_id":"ce4bh512rcd13ifvqe3g","pricing_plan_id":"cebpf4jnsgd1na2vs0mg"},{"bike_id":"4c588c1e-13d1-4a61-b254-93c78f63ed91","system_id":"levelo_inurba_marseille","lat":43.29534,"lon":5.38547,"is_reserved":false,"is_disabled":false,"rental_uris":{"android":"levelo://app?vid=4c588c1e-13d1-4a61-b254-93c78f63ed91","ios":"levelo://app?vid=4c588c1e-13d1-4a61-b254-93c78f63ed91"},"vehicle_type_id":"4","last_reported":1767892716,"current_range_meters":4800,"station_id":"ce4bgih2rcd13ifvqba0","pricing_plan_id":"cebpf4jnsgd1na2vs0mg"},{"bike_id":"cec5766b-b25a-4f7c-a1de-8578aaedbf56","system_id":"levelo_inurba_marseille","lat":43.30965,"lon":5.36824,"is_reserved":false,"is_disabled":false,"rental_uris":{"android":"levelo://app?vid=cec5766b-b25a-4f7c-a1de-8578aaedbf56","ios":"levelo://app?vid=cec5766b-b25a-4f7c-a1de-8578aaedbf56"},"vehicle_type_id":"4","last_reported":1767892716,"current_range_meters":4800,"station_id":"","pricing_plan_id":"cebpf4jnsgd1na2vs0mg"},{"bike_id":"e8a4c41a-b780-4c99-84f8-19364167411b","system_id":"levelo_inurba_marseille","lat":43.25715,"lon":5.41112,"is_reserved":false,"is_disabled":false,"rental_uris":{"android":"levelo://app?vid=e8a4c41a-b780-4c99-84f8-19364167411b","ios":"levelo://app?vid=e8a4c41a-b780-4c99-84f8-19364167411b"},"vehicle_type_id":"4","last_reported":1767892716,"current_range_meters":4800,"station_id":"ce4bhkp2rcd13ifvqgd0","pricing_plan_id":"cebpf4jnsgd1na2vs0mg"},{"bike_id":"b8cb3b36-44c4-4a28-8d0b-219548185c74","system_id":"levelo_inurba_marseille","lat":43.290467,"lon":5.377568,"is_reserved":false,"is_disabled":false,"rental_uris":{"android":"levelo://app?vid=b8cb3b36-44c4-4a28-8d0b-219548185c74","ios":"levelo://app?vid=b8cb3b36-44c4-4a28-8d0b-219548185c74"},"vehicle_type_id":"4","last_reported":1767892716,"current_range_meters":4800,"station_id":"ce4bh492rcd13ifvqdug","pricing_plan_id":"cebpf4jnsgd1na2vs0mg"},{"bike_id":"e333ef92-9481-476e-a416-b4070e2823b7","system_id":"levelo_inurba_marseille","lat":43.25491,"lon":5.3765,"is_reserved":false,"is_disabled":false,"rental_uris":{"android":"levelo://app?vid=e333ef92-9481-476e-a416-b4070e2823b7","ios":"levelo://app?vid=e333ef92-9481-476e-a416-b4070e2823b7"},"vehicle_type_id":"4","last_reported":1767892716,"current_range_meters":4800,"station_id":"ce4bhh12rcd13ifvqff0","pricing_plan_id":"cebpf4jnsgd1na2vs0mg"},{"bike_id":"f139dc33-0315-4e3b-806c-1c4763fe230a","system_id":"levelo_inurba_marseille","lat":43.32351,"lon":5.36758,"is_reserved":false,"is_disabled":false,"rental_uris":{"android":"levelo://app?vid=f139dc33-0315-4e3b-806c-1c4763fe230a","ios":"levelo://app?vid=f139dc33-0315-4e3b-806c-1c4763fe230a"},"vehicle_type_id":"4","last_reported":1767892716,"current_range_meters":4800,"station_id":"ce4bhsh2rcd13ifvqi2g","pricing_plan_id":"cebpf4jnsgd1na2vs0mg"},{"bike_id":"d58d1dab-9180-4a83-b12c-da00c5912078","system_id":"levelo_inurba_marseille","lat":43.292527,"lon":5.376313,"is_reserved":false,"is_disabled":false,"rental_uris":{"android":"levelo://app?vid=d58d1dab-9180-4a83-b12c-da00c5912078","ios":"levelo://app?vid=d58d1dab-9180-4a83-b12c-da00c5912078"},"vehicle_type_id":"4","last_reported":1767892716,"current_range_meters":4800,"station_id":"ce4bgi12rcd13ifvqb80","pricing_plan_id":"cebpf4jnsgd1na2vs0mg"},{"bike_id":"028756d9-bfe4-42e7-8035-4b002ff65672","system_id":"levelo_inurba_marseille","lat":43.22929,"lon":5.353776,"is_reserved":false,"is_disabled":false,"rental_uris":{"android":"levelo://app?vid=028756d9-bfe4-42e7-8035-4b002ff65672","ios":"levelo://app?vid=028756d9-bfe4-42e7-8035-4b002ff65672"},"vehicle_type_id":"4","last_reported":1767892716,"current_range_meters":4800,"station_id":"cpo3532slgdg3j2ikp40","pricing_plan_id":"cebpf4jnsgd1na2vs0mg"},{"bike_id":"c8fb46b8-7bb0-4373-895b-8981a20acd26","system_id":"levelo_inurba_marseille","lat":43.29863,"lon":5.39736,"is_reserved":false,"is_disabled":false,"rental_uris":{"android":"levelo://app?vid=c8fb46b8-7bb0-4373-895b-8981a20acd26","ios":"levelo://app?vid=c8fb46b8-7bb0-4373-895b-8981a20acd26"},"vehicle_type_id":"4","last_reported":1767892716,"current_range_meters":4800,"station_id":"ce4bh0h2rcd13ifvqd50","pricing_plan_id":"cebpf4jnsgd1na2vs0mg"},{"bike_id":"80c12dbf-2ba0-4bb0-90cb-c3e8a5e3e1e8","system_id":"levelo_inurba_marseille","lat":43.295781,"lon":5.375066,"is_reserved":false,"is_disabled":false,"rental_uris":{"android":"levelo://app?vid=80c12dbf-2ba0-4bb0-90cb-c3e8a5e3e1e8","ios":"levelo://app?vid=80c12dbf-2ba0-4bb0-90cb-c3e8a5e3e1e8"},"vehicle_type_id":"4","last_reported":1767892716,"current_range_meters":4800,"station_id":"ce4bgh92rcd13ifvqb50","pricing_plan_id":"cebpf4jnsgd1na2vs0mg"},{"bike_id":"5f3933f1-8f15-451a-843e-42960e021121","system_id":"levelo_inurba_marseille","lat":43.29579,"lon":5.37493,"is_reserved":false,"is_disabled":false,"rental_uris":{"android":"levelo://app?vid=5f3933f1-8f15-451a-843e-42960e021121","ios":"levelo://app?vid=5f3933f1-8f15-451a-843e-42960e021121"},"vehicle_type_id":"4","last_reported":1767892716,"current_range_meters":5600,"station_id":"ce4bgh92rcd13ifvqb50","pricing_plan_id":"cebpf4jnsgd1na2vs0mg"},{"bike_id":"aba7ea30-1026-499d-8351-ae41547f888c","system_id":"levelo_inurba_marseille","lat":43.30309,"lon":5.36895,"is_reserved":false,"is_disabled":false,"rental_uris":{"android":"levelo://app?vid=aba7ea30-1026-499d-8351-ae41547f888c","ios":"levelo://app?vid=aba7ea30-1026-499d-8351-ae41547f888c"},"vehicle_type_id":"4","last_reported":1767892716,"current_range_meters":5600,"station_id":"ce4bgqh2rcd13ifvqc5g","pricing_plan_id":"cebpf4jnsgd1na2vs0mg"},{"bike_id":"4df48156-dd6c-425a-aaac-7de4e5d50530","system_id":"levelo_inurba_marseille","lat":43.29005,"lon":5.35753,"is_reserved":false,"is_disabled":false,"rental_uris":{"android":"levelo://app?vid=4df48156-dd6c-425a-aaac-7de4e5d50530","ios":"levelo://app?vid=4df48156-dd6c-425a-aaac-7de4e5d50530"},"vehicle_type_id":"4","last_reported":1767892716,"current_range_meters":5600,"station_id":"","pricing_plan_id":"cebpf4jnsgd1na2vs0mg"},{"bike_id":"212da61f-e45f-49da-8ac8-22c9c61d8835","system_id":"levelo_inurba_marseille","lat":43.31741,"lon":5.38515,"is_reserved":false,"is_disabled":false,"rental_uris":{"android":"levelo://app?vid=212da61f-e45f-49da-8ac8-22c9c61d8835","ios":"levelo://app?vid=212da61f-e45f-49da-8ac8-22c9c61d8835"},"vehicle_type_id":"4","last_reported":1767892716,"current_range_meters":5600,"station_id":"","pricing_plan_id":"cebpf4jnsgd1na2vs0mg"},{"bike_id":"7ae2676e-e662-4a9a-a79a-d5011de94824","system_id":"levelo_inurba_marseille","lat":43.24172,"lon":5.36417,"is_reserved":false,"is_disabled":false,"rental_uris":{"android":"levelo://app?vid=7ae2676e-e662-4a9a-a79a-d5011de94824","ios":"levelo://app?vid=7ae2676e-e662-4a9a-a79a-d5011de94824"},"vehicle_type_id":"4","last_reported":1767892716,"current_range_meters":5600,"station_id":"cpo36qri1sfpv3e86is0","pricing_plan_id":"cebpf4jnsgd1na2vs0mg"},{"bike_id":"fe99a84f-5ce7-4cef-a997-e79fffe9bddd","system_id":"levelo_inurba_marseille","lat":43.32098,"lon":5.36781,"is_reserved":false,"is_disabled":false,"rental_uris":{"android":"levelo://app?vid=fe99a84f-5ce7-4cef-a997-e79fffe9bddd","ios":"levelo://app?vid=fe99a84f-5ce7-4cef-a997-e79fffe9bddd"},"vehicle_type_id":"4","last_reported":1767892716,"current_range_meters":5600,"station_id":"ce4bhrh2rcd13ifvqhug","pricing_plan_id":"cebpf4jnsgd1na2vs0mg"},{"bike_id":"17ffc005-fa72-4d1f-9413-b31aab6a3fd6","system_id":"levelo_inurba_marseille","lat":43.32358,"lon":5.36754,"is_reserved":false,"is_disabled":false,"rental_uris":{"android":"levelo://app?vid=17ffc005-fa72-4d1f-9413-b31aab6a3fd6","ios":"levelo://app?vid=17ffc005-fa72-4d1f-9413-b31aab6a3fd6"},"vehicle_type_id":"4","last_reported":1767892716,"current_range_meters":5600,"station_id":"ce4bhsh2rcd13ifvqi2g","pricing_plan_id":"cebpf4jnsgd1na2vs0mg"},{"bike_id":"c75a9724-95bc-4c92-a25f-90a24a3f07f4","system_id":"levelo_inurba_marseille","lat":43.28606,"lon":5.39872,"is_reserved":false,"is_disabled":false,"rental_uris":{"android":"levelo://app?vid=c75a9724-95bc-4c92-a25f-90a24a3f07f4","ios":"levelo://app?vid=c75a9724-95bc-4c92-a25f-90a24a3f07f4"},"vehicle_type_id":"4","last_reported":1767892716,"current_range_meters":5600,"station_id":"st_d4a7ka997mjs738ck50g","pricing_plan_id":"cebpf4jnsgd1na2vs0mg"},{"bike_id":"e8c34c4a-7c8b-4704-b631-04bf63abaf6b","system_id":"levelo_inurba_marseille","lat":43.25816,"lon":5.39424,"is_reserved":false,"is_disabled":false,"rental_uris":{"android":"levelo://app?vid=e8c34c4a-7c8b-4704-b631-04bf63abaf6b","ios":"levelo://app?vid=e8c34c4a-7c8b-4704-b631-04bf63abaf6b"},"vehicle_type_id":"4","last_reported":1767892716,"current_range_meters":5600,"station_id":"ce4bhip2rcd13ifvqft0","pricing_plan_id":"cebpf4jnsgd1na2vs0mg"},{"bike_id":"e0a852be-a525-4d9b-8ada-b6c41ffa3057","system_id":"levelo_inurba_marseille","lat":43.298653,"lon":5.397574,"is_reserved":false,"is_disabled":false,"rental_uris":{"android":"levelo://app?vid=e0a852be-a525-4d9b-8ada-b6c41ffa3057","ios":"levelo://app?vid=e0a852be-a525-4d9b-8ada-b6c41ffa3057"},"vehicle_type_id":"4","last_reported":1767892716,"current_range_meters":5600,"station_id":"ce4bh0h2rcd13ifvqd50","pricing_plan_id":"cebpf4jnsgd1na2vs0mg"},{"bike_id":"603f13a4-dcb2-4fc7-9498-03fbe7481627","system_id":"levelo_inurba_marseille","lat":43.29271,"lon":5.37285,"is_reserved":false,"is_disabled":false,"rental_uris":{"android":"levelo://app?vid=603f13a4-dcb2-4fc7-9498-03fbe7481627","ios":"levelo://app?vid=603f13a4-dcb2-4fc7-9498-03fbe7481627"},"vehicle_type_id":"4","last_reported":1767892716,"current_range_meters":5600,"station_id":"ce4bgh92rcd13ifvqb40","pricing_plan_id":"cebpf4jnsgd1na2vs0mg"},{"bike_id":"b30b42a5-f140-4b6b-82d4-5c456fa62a3a","system_id":"levelo_inurba_marseille","lat":43.30254,"lon":5.40083,"is_reserved":false,"is_disabled":false,"rental_uris":{"android":"levelo://app?vid=b30b42a5-f140-4b6b-82d4-5c456fa62a3a","ios":"levelo://app?vid=b30b42a5-f140-4b6b-82d4-5c456fa62a3a"},"vehicle_type_id":"4","last_reported":1767892716,"current_range_meters":5600,"station_id":"ce4bgvh2rcd13ifvqcs0","pricing_plan_id":"cebpf4jnsgd1na2vs0mg"},{"bike_id":"04ca6b22-995e-4a22-a561-b7ea4ec24e4b","system_id":"levelo_inurba_marseille","lat":43.28477,"lon":5.484,"is_reserved":false,"is_disabled":false,"rental_uris":{"android":"levelo://app?vid=04ca6b22-995e-4a22-a561-b7ea4ec24e4b","ios":"levelo://app?vid=04ca6b22-995e-4a22-a561-b7ea4ec24e4b"},"vehicle_type_id":"4","last_reported":1767892716,"current_range_meters":5600,"station_id":"st_d3svhcjqgbts73a3dn0g","pricing_plan_id":"cebpf4jnsgd1na2vs0mg"},{"bike_id":"42f02f13-932e-40dd-ae79-3a7a1a874e34","system_id":"levelo_inurba_marseille","lat":43.29495,"lon":5.43291,"is_reserved":false,"is_disabled":false,"rental_uris":{"android":"levelo://app?vid=42f02f13-932e-40dd-ae79-3a7a1a874e34","ios":"levelo://app?vid=42f02f13-932e-40dd-ae79-3a7a1a874e34"},"vehicle_type_id":"4","last_reported":1767892716,"current_range_meters":6000,"station_id":"st_d3j5ugp08ojc73fj9d10","pricing_plan_id":"cebpf4jnsgd1na2vs0mg"},{"bike_id":"6d0a99f0-f979-4bad-ad22-7423652e0a11","system_id":"levelo_inurba_marseille","lat":43.27907,"lon":5.38004,"is_reserved":false,"is_disabled":false,"rental_uris":{"android":"levelo://app?vid=6d0a99f0-f979-4bad-ad22-7423652e0a11","ios":"levelo://app?vid=6d0a99f0-f979-4bad-ad22-7423652e0a11"},"vehicle_type_id":"4","last_reported":1767892716,"current_range_meters":6000,"station_id":"ce4bhf92rcd13ifvqf50","pricing_plan_id":"cebpf4jnsgd1na2vs0mg"},{"bike_id":"6df19930-e3eb-4eb3-9a45-a01da3418078","system_id":"levelo_inurba_marseille","lat":43.25834,"lon":5.39427,"is_reserved":false,"is_disabled":false,"rental_uris":{"android":"levelo://app?vid=6df19930-e3eb-4eb3-9a45-a01da3418078","ios":"levelo://app?vid=6df19930-e3eb-4eb3-9a45-a01da3418078"},"vehicle_type_id":"4","last_reported":1767892716,"current_range_meters":6000,"station_id":"ce4bhip2rcd13ifvqft0","pricing_plan_id":"cebpf4jnsgd1na2vs0mg"},{"bike_id":"d3b33c0a-a219-4753-85af-77f9c8e71c75","system_id":"levelo_inurba_marseille","lat":43.29303,"lon":5.37179,"is_reserved":false,"is_disabled":false,"rental_uris":{"android":"levelo://app?vid=d3b33c0a-a219-4753-85af-77f9c8e71c75","ios":"levelo://app?vid=d3b33c0a-a219-4753-85af-77f9c8e71c75"},"vehicle_type_id":"4","last_reported":1767892716,"current_range_meters":6000,"station_id":"ce4bgh92rcd13ifvqb40","pricing_plan_id":"cebpf4jnsgd1na2vs0mg"},{"bike_id":"6dd96e51-0ed6-4297-9c0e-283504dcbf10","system_id":"levelo_inurba_marseille","lat":43.28089,"lon":5.3966,"is_reserved":false,"is_disabled":false,"rental_uris":{"android":"levelo://app?vid=6dd96e51-0ed6-4297-9c0e-283504dcbf10","ios":"levelo://app?vid=6dd96e51-0ed6-4297-9c0e-283504dcbf10"},"vehicle_type_id":"4","last_reported":1767892716,"current_range_meters":6000,"station_id":"ce4bho12rcd13ifvqh2g","pricing_plan_id":"cebpf4jnsgd1na2vs0mg"},{"bike_id":"806c7c13-7cf6-4c60-8b2c-87780272a0fa","system_id":"levelo_inurba_marseille","lat":43.27189,"lon":5.39178,"is_reserved":false,"is_disabled":false,"rental_uris":{"android":"levelo://app?vid=806c7c13-7cf6-4c60-8b2c-87780272a0fa","ios":"levelo://app?vid=806c7c13-7cf6-4c60-8b2c-87780272a0fa"},"vehicle_type_id":"4","last_reported":1767892716,"current_range_meters":6000,"station_id":"ce4bhhp2rcd13ifvqfm0","pricing_plan_id":"cebpf4jnsgd1na2vs0mg"},{"bike_id":"ecd3c884-b625-4122-929d-6367a66201b9","system_id":"levelo_inurba_marseille","lat":43.30314,"lon":5.36901,"is_reserved":false,"is_disabled":false,"rental_uris":{"android":"levelo://app?vid=ecd3c884-b625-4122-929d-6367a66201b9","ios":"levelo://app?vid=ecd3c884-b625-4122-929d-6367a66201b9"},"vehicle_type_id":"4","last_reported":1767892716,"current_range_meters":6000,"station_id":"ce4bgqh2rcd13ifvqc5g","pricing_plan_id":"cebpf4jnsgd1na2vs0mg"},{"bike_id":"e986fce2-0dcf-4a72-8226-b2117b200211","system_id":"levelo_inurba_marseille","lat":43.231521,"lon":5.437066,"is_reserved":false,"is_disabled":false,"rental_uris":{"android":"levelo://app?vid=e986fce2-0dcf-4a72-8226-b2117b200211","ios":"levelo://app?vid=e986fce2-0dcf-4a72-8226-b2117b200211"},"vehicle_type_id":"4","last_reported":1767892716,"current_range_meters":6000,"station_id":"ce4bhmp2rcd13ifvqgog","pricing_plan_id":"cebpf4jnsgd1na2vs0mg"},{"bike_id":"80bdd1a4-b1ab-42ae-bb23-cfddeda5c12d","system_id":"levelo_inurba_marseille","lat":43.29901,"lon":5.38322,"is_reserved":false,"is_disabled":true,"rental_uris":{"android":"levelo://app?vid=80bdd1a4-b1ab-42ae-bb23-cfddeda5c12d","ios":"levelo://app?vid=80bdd1a4-b1ab-42ae-bb23-cfddeda5c12d"},"vehicle_type_id":"4","last_reported":1767892716,"current_range_meters":6000,"station_id":"","pricing_plan_id":"cebpf4jnsgd1na2vs0mg"},{"bike_id":"83baf7ef-456e-4c72-9805-22aa4846a1b3","system_id":"levelo_inurba_marseille","lat":43.28539,"lon":5.44109,"is_reserved":false,"is_disabled":false,"rental_uris":{"android":"levelo://app?vid=83baf7ef-456e-4c72-9805-22aa4846a1b3","ios":"levelo://app?vid=83baf7ef-456e-4c72-9805-22aa4846a1b3"},"vehicle_type_id":"4","last_reported":1767892716,"current_range_meters":6000,"station_id":"st_d3j3df2ikq2c7380ej80","pricing_plan_id":"cebpf4jnsgd1na2vs0mg"},{"bike_id":"0896a6b0-9fee-43d9-b927-69a576d730d9","system_id":"levelo_inurba_marseille","lat":43.28929,"lon":5.36645,"is_reserved":false,"is_disabled":true,"rental_uris":{"android":"levelo://app?vid=0896a6b0-9fee-43d9-b927-69a576d730d9","ios":"levelo://app?vid=0896a6b0-9fee-43d9-b927-69a576d730d9"},"vehicle_type_id":"4","last_reported":1767892716,"current_range_meters":6000,"station_id":"ce4bhap2rcd13ifvqek0","pricing_plan_id":"cebpf4jnsgd1na2vs0mg"},{"bike_id":"d19d32de-fe7f-42ca-93fe-613a15438278","system_id":"levelo_inurba_marseille","lat":43.28429,"lon":5.35,"is_reserved":false,"is_disabled":false,"rental_uris":{"android":"levelo://app?vid=d19d32de-fe7f-42ca-93fe-613a15438278","ios":"levelo://app?vid=d19d32de-fe7f-42ca-93fe-613a15438278"},"vehicle_type_id":"4","last_reported":1767892716,"current_range_meters":6000,"station_id":"ce4bhbh2rcd13ifvqepg","pricing_plan_id":"cebpf4jnsgd1na2vs0mg"},{"bike_id":"845bee73-fea8-4b21-9671-09bb9a36c361","system_id":"levelo_inurba_marseille","lat":43.25093,"lon":5.39515,"is_reserved":false,"is_disabled":false,"rental_uris":{"android":"levelo://app?vid=845bee73-fea8-4b21-9671-09bb9a36c361","ios":"levelo://app?vid=845bee73-fea8-4b21-9671-09bb9a36c361"},"vehicle_type_id":"4","last_reported":1767892716,"current_range_meters":6000,"station_id":"ce4bhm12rcd13ifvqgkg","pricing_plan_id":"cebpf4jnsgd1na2vs0mg"},{"bike_id":"dbd0edff-ad4a-440b-b23d-0199280d42b0","system_id":"levelo_inurba_marseille","lat":43.29529,"lon":5.39033,"is_reserved":false,"is_disabled":false,"rental_uris":{"android":"levelo://app?vid=dbd0edff-ad4a-440b-b23d-0199280d42b0","ios":"levelo://app?vid=dbd0edff-ad4a-440b-b23d-0199280d42b0"},"vehicle_type_id":"4","last_reported":1767892716,"current_range_meters":6000,"station_id":"ce4bh3p2rcd13ifvqdp0","pricing_plan_id":"cebpf4jnsgd1na2vs0mg"},{"bike_id":"87443bfb-5457-4f00-b585-c231795f3e4c","system_id":"levelo_inurba_marseille","lat":43.28872,"lon":5.42521,"is_reserved":false,"is_disabled":false,"rental_uris":{"android":"levelo://app?vid=87443bfb-5457-4f00-b585-c231795f3e4c","ios":"levelo://app?vid=87443bfb-5457-4f00-b585-c231795f3e4c"},"vehicle_type_id":"4","last_reported":1767892716,"current_range_meters":6000,"station_id":"st_d3b462108ojc7389ooeg","pricing_plan_id":"cebpf4jnsgd1na2vs0mg"},{"bike_id":"193e45c2-364c-423e-a140-ddc02a071b0f","system_id":"levelo_inurba_marseille","lat":43.28418,"lon":5.34996,"is_reserved":false,"is_disabled":false,"rental_uris":{"android":"levelo://app?vid=193e45c2-364c-423e-a140-ddc02a071b0f","ios":"levelo://app?vid=193e45c2-364c-423e-a140-ddc02a071b0f"},"vehicle_type_id":"4","last_reported":1767892716,"current_range_meters":6000,"station_id":"ce4bhbh2rcd13ifvqepg","pricing_plan_id":"cebpf4jnsgd1na2vs0mg"},{"bike_id":"467c9313-557c-481b-8ec1-01b2a4bc8f05","system_id":"levelo_inurba_marseille","lat":43.29017,"lon":5.38652,"is_reserved":false,"is_disabled":false,"rental_uris":{"android":"levelo://app?vid=467c9313-557c-481b-8ec1-01b2a4bc8f05","ios":"levelo://app?vid=467c9313-557c-481b-8ec1-01b2a4bc8f05"},"vehicle_type_id":"4","last_reported":1767892716,"current_range_meters":6000,"station_id":"ce4bh4p2rcd13ifvqe0g","pricing_plan_id":"cebpf4jnsgd1na2vs0mg"},{"bike_id":"84d7a35c-f0ae-49a9-8cd1-325e7f1ca1d6","system_id":"levelo_inurba_marseille","lat":43.30554,"lon":5.36552,"is_reserved":false,"is_disabled":false,"rental_uris":{"android":"levelo://app?vid=84d7a35c-f0ae-49a9-8cd1-325e7f1ca1d6","ios":"levelo://app?vid=84d7a35c-f0ae-49a9-8cd1-325e7f1ca1d6"},"vehicle_type_id":"4","last_reported":1767892716,"current_range_meters":6400,"station_id":"ce4bgs12rcd13ifvqcag","pricing_plan_id":"cebpf4jnsgd1na2vs0mg"},{"bike_id":"19e15d06-cf4c-459d-8887-b3feaa0bcacf","system_id":"levelo_inurba_marseille","lat":43.328432,"lon":5.404579,"is_reserved":false,"is_disabled":false,"rental_uris":{"android":"levelo://app?vid=19e15d06-cf4c-459d-8887-b3feaa0bcacf","ios":"levelo://app?vid=19e15d06-cf4c-459d-8887-b3feaa0bcacf"},"vehicle_type_id":"4","last_reported":1767892716,"current_range_meters":6400,"station_id":"ce4bhq92rcd13ifvqhkg","pricing_plan_id":"cebpf4jnsgd1na2vs0mg"},{"bike_id":"c10c03af-eba1-4f9f-a373-ad08e2aac44e","system_id":"levelo_inurba_marseille","lat":43.25944,"lon":5.40895,"is_reserved":false,"is_disabled":false,"rental_uris":{"android":"levelo://app?vid=c10c03af-eba1-4f9f-a373-ad08e2aac44e","ios":"levelo://app?vid=c10c03af-eba1-4f9f-a373-ad08e2aac44e"},"vehicle_type_id":"4","last_reported":1767892716,"current_range_meters":6400,"station_id":"ce4bhm92rcd13ifvqglg","pricing_plan_id":"cebpf4jnsgd1na2vs0mg"},{"bike_id":"ad4e6056-861a-46d7-8025-a32e40d7e72a","system_id":"levelo_inurba_marseille","lat":43.292245,"lon":5.360555,"is_reserved":false,"is_disabled":false,"rental_uris":{"android":"levelo://app?vid=ad4e6056-861a-46d7-8025-a32e40d7e72a","ios":"levelo://app?vid=ad4e6056-861a-46d7-8025-a32e40d7e72a"},"vehicle_type_id":"4","last_reported":1767892716,"current_range_meters":6400,"station_id":"ce4bhbh2rcd13ifvqeqg","pricing_plan_id":"cebpf4jnsgd1na2vs0mg"},{"bike_id":"55cc6835-83f4-4658-8940-3ac462eb94c0","system_id":"levelo_inurba_marseille","lat":43.27062,"lon":5.38304,"is_reserved":false,"is_disabled":false,"rental_uris":{"android":"levelo://app?vid=55cc6835-83f4-4658-8940-3ac462eb94c0","ios":"levelo://app?vid=55cc6835-83f4-4658-8940-3ac462eb94c0"},"vehicle_type_id":"4","last_reported":1767892716,"current_range_meters":6400,"station_id":"st_d3n2fo6cfp8s73cte1j0","pricing_plan_id":"cebpf4jnsgd1na2vs0mg"},{"bike_id":"b9ef6aa6-7590-46c5-a49a-18293bf99c6e","system_id":"levelo_inurba_marseille","lat":43.273525,"lon":5.390813,"is_reserved":false,"is_disabled":false,"rental_uris":{"android":"levelo://app?vid=b9ef6aa6-7590-46c5-a49a-18293bf99c6e","ios":"levelo://app?vid=b9ef6aa6-7590-46c5-a49a-18293bf99c6e"},"vehicle_type_id":"4","last_reported":1767892716,"current_range_meters":6400,"station_id":"ce4bhgp2rcd13ifvqfe0","pricing_plan_id":"cebpf4jnsgd1na2vs0mg"},{"bike_id":"6ad4edaa-eaf9-4a66-9325-3a219e92b598","system_id":"levelo_inurba_marseille","lat":43.28665,"lon":5.36354,"is_reserved":false,"is_disabled":false,"rental_uris":{"android":"levelo://app?vid=6ad4edaa-eaf9-4a66-9325-3a219e92b598","ios":"levelo://app?vid=6ad4edaa-eaf9-4a66-9325-3a219e92b598"},"vehicle_type_id":"4","last_reported":1767892716,"current_range_meters":6400,"station_id":"ce4bhah2rcd13ifvqej0","pricing_plan_id":"cebpf4jnsgd1na2vs0mg"},{"bike_id":"89d31037-815d-4ebf-9cf1-7e6e32f17ab3","system_id":"levelo_inurba_marseille","lat":43.27198,"lon":5.40991,"is_reserved":false,"is_disabled":false,"rental_uris":{"android":"levelo://app?vid=89d31037-815d-4ebf-9cf1-7e6e32f17ab3","ios":"levelo://app?vid=89d31037-815d-4ebf-9cf1-7e6e32f17ab3"},"vehicle_type_id":"4","last_reported":1767892716,"current_range_meters":6400,"station_id":"ce4bhl12rcd13ifvqgf0","pricing_plan_id":"cebpf4jnsgd1na2vs0mg"},{"bike_id":"a6462651-ffd6-4de0-ac89-ac14a3f92140","system_id":"levelo_inurba_marseille","lat":43.23782,"lon":5.366323,"is_reserved":false,"is_disabled":false,"rental_uris":{"android":"levelo://app?vid=a6462651-ffd6-4de0-ac89-ac14a3f92140","ios":"levelo://app?vid=a6462651-ffd6-4de0-ac89-ac14a3f92140"},"vehicle_type_id":"4","last_reported":1767892716,"current_range_meters":6400,"station_id":"st_d3nk18o9ro0c73en2l3g","pricing_plan_id":"cebpf4jnsgd1na2vs0mg"},{"bike_id":"a457e7c6-4a85-412b-86b2-caa2fd6e4768","system_id":"levelo_inurba_marseille","lat":43.29913,"lon":5.37485,"is_reserved":false,"is_disabled":false,"rental_uris":{"android":"levelo://app?vid=a457e7c6-4a85-412b-86b2-caa2fd6e4768","ios":"levelo://app?vid=a457e7c6-4a85-412b-86b2-caa2fd6e4768"},"vehicle_type_id":"4","last_reported":1767892716,"current_range_meters":6400,"station_id":"ce4bgjh2rcd13ifvqbg0","pricing_plan_id":"cebpf4jnsgd1na2vs0mg"},{"bike_id":"abd4f237-c812-4344-bfeb-7094dc895bf0","system_id":"levelo_inurba_marseille","lat":43.30301,"lon":5.3688,"is_reserved":false,"is_disabled":false,"rental_uris":{"android":"levelo://app?vid=abd4f237-c812-4344-bfeb-7094dc895bf0","ios":"levelo://app?vid=abd4f237-c812-4344-bfeb-7094dc895bf0"},"vehicle_type_id":"4","last_reported":1767892716,"current_range_meters":6400,"station_id":"ce4bgqh2rcd13ifvqc5g","pricing_plan_id":"cebpf4jnsgd1na2vs0mg"},{"bike_id":"83204db6-c8e5-4108-9663-94a615af4645","system_id":"levelo_inurba_marseille","lat":43.29537,"lon":5.37497,"is_reserved":false,"is_disabled":false,"rental_uris":{"android":"levelo://app?vid=83204db6-c8e5-4108-9663-94a615af4645","ios":"levelo://app?vid=83204db6-c8e5-4108-9663-94a615af4645"},"vehicle_type_id":"4","last_reported":1767892716,"current_range_meters":6400,"station_id":"ce4bgkp2rcd13ifvqbmg","pricing_plan_id":"cebpf4jnsgd1na2vs0mg"},{"bike_id":"5df5c3c8-c819-4481-bf37-90026d7491fe","system_id":"levelo_inurba_marseille","lat":43.311706,"lon":5.390353,"is_reserved":false,"is_disabled":false,"rental_uris":{"android":"levelo://app?vid=5df5c3c8-c819-4481-bf37-90026d7491fe","ios":"levelo://app?vid=5df5c3c8-c819-4481-bf37-90026d7491fe"},"vehicle_type_id":"4","last_reported":1767892716,"current_range_meters":6400,"station_id":"","pricing_plan_id":"cebpf4jnsgd1na2vs0mg"},{"bike_id":"26251df8-74b6-4622-a854-fef4826e7216","system_id":"levelo_inurba_marseille","lat":43.29566,"lon":5.375,"is_reserved":false,"is_disabled":false,"rental_uris":{"android":"levelo://app?vid=26251df8-74b6-4622-a854-fef4826e7216","ios":"levelo://app?vid=26251df8-74b6-4622-a854-fef4826e7216"},"vehicle_type_id":"4","last_reported":1767892716,"current_range_meters":6400,"station_id":"ce4bgh92rcd13ifvqb50","pricing_plan_id":"cebpf4jnsgd1na2vs0mg"},{"bike_id":"d24d285e-9609-4a05-b62d-3c973f9ec4cd","system_id":"levelo_inurba_marseille","lat":43.273732,"lon":5.362513,"is_reserved":false,"is_disabled":false,"rental_uris":{"android":"levelo://app?vid=d24d285e-9609-4a05-b62d-3c973f9ec4cd","ios":"levelo://app?vid=d24d285e-9609-4a05-b62d-3c973f9ec4cd"},"vehicle_type_id":"4","last_reported":1767892716,"current_range_meters":6400,"station_id":"ce4bhbh2rcd13ifvqeo0","pricing_plan_id":"cebpf4jnsgd1na2vs0mg"},{"bike_id":"357563d8-d33e-4f70-862e-8fab05436ef0","system_id":"levelo_inurba_marseille","lat":43.289776,"lon":5.378228,"is_reserved":false,"is_disabled":false,"rental_uris":{"android":"levelo://app?vid=357563d8-d33e-4f70-862e-8fab05436ef0","ios":"levelo://app?vid=357563d8-d33e-4f70-862e-8fab05436ef0"},"vehicle_type_id":"4","last_reported":1767892716,"current_range_meters":6400,"station_id":"","pricing_plan_id":"cebpf4jnsgd1na2vs0mg"},{"bike_id":"5d9cf16b-1d31-47c6-9202-9dcf298ecce7","system_id":"levelo_inurba_marseille","lat":43.29165,"lon":5.371545,"is_reserved":false,"is_disabled":false,"rental_uris":{"android":"levelo://app?vid=5d9cf16b-1d31-47c6-9202-9dcf298ecce7","ios":"levelo://app?vid=5d9cf16b-1d31-47c6-9202-9dcf298ecce7"},"vehicle_type_id":"4","last_reported":1767892716,"current_range_meters":6400,"station_id":"ce4bha92rcd13ifvqeh0","pricing_plan_id":"cebpf4jnsgd1na2vs0mg"},{"bike_id":"d0f55402-a426-4c89-a654-75e53989ebf5","system_id":"levelo_inurba_marseille","lat":43.28756,"lon":5.38397,"is_reserved":false,"is_disabled":false,"rental_uris":{"android":"levelo://app?vid=d0f55402-a426-4c89-a654-75e53989ebf5","ios":"levelo://app?vid=d0f55402-a426-4c89-a654-75e53989ebf5"},"vehicle_type_id":"4","last_reported":1767892716,"current_range_meters":6400,"station_id":"","pricing_plan_id":"cebpf4jnsgd1na2vs0mg"},{"bike_id":"e87e13ae-d69b-4129-94d6-fdb38119b5d3","system_id":"levelo_inurba_marseille","lat":43.28406,"lon":5.34984,"is_reserved":false,"is_disabled":false,"rental_uris":{"android":"levelo://app?vid=e87e13ae-d69b-4129-94d6-fdb38119b5d3","ios":"levelo://app?vid=e87e13ae-d69b-4129-94d6-fdb38119b5d3"},"vehicle_type_id":"4","last_reported":1767892716,"current_range_meters":6400,"station_id":"ce4bhbh2rcd13ifvqepg","pricing_plan_id":"cebpf4jnsgd1na2vs0mg"},{"bike_id":"5ddc36fe-25ae-4411-85cc-e5b7ed02f34a","system_id":"levelo_inurba_marseille","lat":43.2861,"lon":5.37014,"is_reserved":false,"is_disabled":false,"rental_uris":{"android":"levelo://app?vid=5ddc36fe-25ae-4411-85cc-e5b7ed02f34a","ios":"levelo://app?vid=5ddc36fe-25ae-4411-85cc-e5b7ed02f34a"},"vehicle_type_id":"4","last_reported":1767892716,"current_range_meters":6400,"station_id":"ce4bht12rcd13ifvqi60","pricing_plan_id":"cebpf4jnsgd1na2vs0mg"},{"bike_id":"7401be6f-cce5-4127-bfd0-4e81a357cf0d","system_id":"levelo_inurba_marseille","lat":43.2558,"lon":5.38262,"is_reserved":false,"is_disabled":false,"rental_uris":{"android":"levelo://app?vid=7401be6f-cce5-4127-bfd0-4e81a357cf0d","ios":"levelo://app?vid=7401be6f-cce5-4127-bfd0-4e81a357cf0d"},"vehicle_type_id":"4","last_reported":1767892716,"current_range_meters":6400,"station_id":"ce4bhih2rcd13ifvqfs0","pricing_plan_id":"cebpf4jnsgd1na2vs0mg"},{"bike_id":"d732fcd7-f8ed-43d6-b6ef-d29b2b97a6d4","system_id":"levelo_inurba_marseille","lat":43.273713,"lon":5.362724,"is_reserved":false,"is_disabled":false,"rental_uris":{"android":"levelo://app?vid=d732fcd7-f8ed-43d6-b6ef-d29b2b97a6d4","ios":"levelo://app?vid=d732fcd7-f8ed-43d6-b6ef-d29b2b97a6d4"},"vehicle_type_id":"4","last_reported":1767892716,"current_range_meters":6400,"station_id":"ce4bhbh2rcd13ifvqeo0","pricing_plan_id":"cebpf4jnsgd1na2vs0mg"},{"bike_id":"105c24dc-55f2-45c6-a67a-b0586dccd52d","system_id":"levelo_inurba_marseille","lat":43.27801,"lon":5.40704,"is_reserved":false,"is_disabled":false,"rental_uris":{"android":"levelo://app?vid=105c24dc-55f2-45c6-a67a-b0586dccd52d","ios":"levelo://app?vid=105c24dc-55f2-45c6-a67a-b0586dccd52d"},"vehicle_type_id":"4","last_reported":1767892716,"current_range_meters":6400,"station_id":"ce4bhnh2rcd13ifvqgtg","pricing_plan_id":"cebpf4jnsgd1na2vs0mg"},{"bike_id":"47d0a8b3-c4fc-4d20-befe-0d9c69ad92a9","system_id":"levelo_inurba_marseille","lat":43.2379,"lon":5.36634,"is_reserved":false,"is_disabled":false,"rental_uris":{"android":"levelo://app?vid=47d0a8b3-c4fc-4d20-befe-0d9c69ad92a9","ios":"levelo://app?vid=47d0a8b3-c4fc-4d20-befe-0d9c69ad92a9"},"vehicle_type_id":"4","last_reported":1767892716,"current_range_meters":6400,"station_id":"st_d3nk18o9ro0c73en2l3g","pricing_plan_id":"cebpf4jnsgd1na2vs0mg"},{"bike_id":"9cfeff17-a54a-4b3c-baa8-c7ed795fc5f2","system_id":"levelo_inurba_marseille","lat":43.24173,"lon":5.36415,"is_reserved":false,"is_disabled":false,"rental_uris":{"android":"levelo://app?vid=9cfeff17-a54a-4b3c-baa8-c7ed795fc5f2","ios":"levelo://app?vid=9cfeff17-a54a-4b3c-baa8-c7ed795fc5f2"},"vehicle_type_id":"4","last_reported":1767892716,"current_range_meters":6800,"station_id":"cpo36qri1sfpv3e86is0","pricing_plan_id":"cebpf4jnsgd1na2vs0mg"},{"bike_id":"eedec567-ccb8-4202-9b5d-d687ea78b3d8","system_id":"levelo_inurba_marseille","lat":43.24811,"lon":5.37466,"is_reserved":false,"is_disabled":false,"rental_uris":{"android":"levelo://app?vid=eedec567-ccb8-4202-9b5d-d687ea78b3d8","ios":"levelo://app?vid=eedec567-ccb8-4202-9b5d-d687ea78b3d8"},"vehicle_type_id":"4","last_reported":1767892716,"current_range_meters":6800,"station_id":"ce4bhgh2rcd13ifvqfb0","pricing_plan_id":"cebpf4jnsgd1na2vs0mg"},{"bike_id":"92ec400a-1816-464b-b776-d8ae8599bbc7","system_id":"levelo_inurba_marseille","lat":43.253127,"lon":5.381125,"is_reserved":false,"is_disabled":false,"rental_uris":{"android":"levelo://app?vid=92ec400a-1816-464b-b776-d8ae8599bbc7","ios":"levelo://app?vid=92ec400a-1816-464b-b776-d8ae8599bbc7"},"vehicle_type_id":"4","last_reported":1767892716,"current_range_meters":6800,"station_id":"","pricing_plan_id":"cebpf4jnsgd1na2vs0mg"},{"bike_id":"9c202c24-a1c8-4fad-95ee-379e797dad6e","system_id":"levelo_inurba_marseille","lat":43.298,"lon":5.38083,"is_reserved":false,"is_disabled":false,"rental_uris":{"android":"levelo://app?vid=9c202c24-a1c8-4fad-95ee-379e797dad6e","ios":"levelo://app?vid=9c202c24-a1c8-4fad-95ee-379e797dad6e"},"vehicle_type_id":"4","last_reported":1767892716,"current_range_meters":6800,"station_id":"ce4bgip2rcd13ifvqbb0","pricing_plan_id":"cebpf4jnsgd1na2vs0mg"},{"bike_id":"873ae146-395a-40ee-8fdf-3d973ffd9442","system_id":"levelo_inurba_marseille","lat":43.25919,"lon":5.40902,"is_reserved":false,"is_disabled":false,"rental_uris":{"android":"levelo://app?vid=873ae146-395a-40ee-8fdf-3d973ffd9442","ios":"levelo://app?vid=873ae146-395a-40ee-8fdf-3d973ffd9442"},"vehicle_type_id":"4","last_reported":1767892716,"current_range_meters":6800,"station_id":"ce4bhm92rcd13ifvqglg","pricing_plan_id":"cebpf4jnsgd1na2vs0mg"},{"bike_id":"173302e6-6e83-436f-a5e7-5728fa6cbe75","system_id":"levelo_inurba_marseille","lat":43.27554,"lon":5.38405,"is_reserved":false,"is_disabled":false,"rental_uris":{"android":"levelo://app?vid=173302e6-6e83-436f-a5e7-5728fa6cbe75","ios":"levelo://app?vid=173302e6-6e83-436f-a5e7-5728fa6cbe75"},"vehicle_type_id":"4","last_reported":1767892716,"current_range_meters":6800,"station_id":"ce4bhh92rcd13ifvqfi0","pricing_plan_id":"cebpf4jnsgd1na2vs0mg"},{"bike_id":"79b07b5a-ec48-494b-80f5-1c129a1f1ef3","system_id":"levelo_inurba_marseille","lat":43.30172,"lon":5.38054,"is_reserved":false,"is_disabled":false,"rental_uris":{"android":"levelo://app?vid=79b07b5a-ec48-494b-80f5-1c129a1f1ef3","ios":"levelo://app?vid=79b07b5a-ec48-494b-80f5-1c129a1f1ef3"},"vehicle_type_id":"4","last_reported":1767892716,"current_range_meters":6800,"station_id":"ce4bgjp2rcd13ifvqbh0","pricing_plan_id":"cebpf4jnsgd1na2vs0mg"},{"bike_id":"a75bac6a-7809-4b22-aa2b-0f08141c4587","system_id":"levelo_inurba_marseille","lat":43.29528,"lon":5.38542,"is_reserved":false,"is_disabled":false,"rental_uris":{"android":"levelo://app?vid=a75bac6a-7809-4b22-aa2b-0f08141c4587","ios":"levelo://app?vid=a75bac6a-7809-4b22-aa2b-0f08141c4587"},"vehicle_type_id":"4","last_reported":1767892716,"current_range_meters":6800,"station_id":"ce4bgih2rcd13ifvqba0","pricing_plan_id":"cebpf4jnsgd1na2vs0mg"},{"bike_id":"bc098567-800c-4912-b379-6accc2bf050c","system_id":"levelo_inurba_marseille","lat":43.304124,"lon":5.412817,"is_reserved":false,"is_disabled":false,"rental_uris":{"android":"levelo://app?vid=bc098567-800c-4912-b379-6accc2bf050c","ios":"levelo://app?vid=bc098567-800c-4912-b379-6accc2bf050c"},"vehicle_type_id":"4","last_reported":1767892716,"current_range_meters":6800,"station_id":"ce4bhop2rcd13ifvqh8g","pricing_plan_id":"cebpf4jnsgd1na2vs0mg"},{"bike_id":"def7dce9-fdc4-4df2-baea-27b2ff2b32ca","system_id":"levelo_inurba_marseille","lat":43.29168,"lon":5.37143,"is_reserved":false,"is_disabled":false,"rental_uris":{"android":"levelo://app?vid=def7dce9-fdc4-4df2-baea-27b2ff2b32ca","ios":"levelo://app?vid=def7dce9-fdc4-4df2-baea-27b2ff2b32ca"},"vehicle_type_id":"4","last_reported":1767892716,"current_range_meters":6800,"station_id":"ce4bha92rcd13ifvqeh0","pricing_plan_id":"cebpf4jnsgd1na2vs0mg"},{"bike_id":"e9fbb55b-45ea-4b51-8726-aff775b6f253","system_id":"levelo_inurba_marseille","lat":43.22921,"lon":5.35386,"is_reserved":false,"is_disabled":false,"rental_uris":{"android":"levelo://app?vid=e9fbb55b-45ea-4b51-8726-aff775b6f253","ios":"levelo://app?vid=e9fbb55b-45ea-4b51-8726-aff775b6f253"},"vehicle_type_id":"4","last_reported":1767892716,"current_range_meters":6800,"station_id":"cpo3532slgdg3j2ikp40","pricing_plan_id":"cebpf4jnsgd1na2vs0mg"},{"bike_id":"63e4976f-7d93-49f6-a2b3-f7ce857422dd","system_id":"levelo_inurba_marseille","lat":43.30291,"lon":5.39211,"is_reserved":false,"is_disabled":true,"rental_uris":{"android":"levelo://app?vid=63e4976f-7d93-49f6-a2b3-f7ce857422dd","ios":"levelo://app?vid=63e4976f-7d93-49f6-a2b3-f7ce857422dd"},"vehicle_type_id":"4","last_reported":1767892716,"current_range_meters":6800,"station_id":"ce4bgkh2rcd13ifvqbk0","pricing_plan_id":"cebpf4jnsgd1na2vs0mg"},{"bike_id":"61e533a6-acc9-488b-a636-f42dc7ec3e94","system_id":"levelo_inurba_marseille","lat":43.23965,"lon":5.36633,"is_reserved":false,"is_disabled":false,"rental_uris":{"android":"levelo://app?vid=61e533a6-acc9-488b-a636-f42dc7ec3e94","ios":"levelo://app?vid=61e533a6-acc9-488b-a636-f42dc7ec3e94"},"vehicle_type_id":"4","last_reported":1767892716,"current_range_meters":6800,"station_id":"ce4bhi12rcd13ifvqfp0","pricing_plan_id":"cebpf4jnsgd1na2vs0mg"},{"bike_id":"00ed0159-9192-42ca-bf9a-113fb0281cb3","system_id":"levelo_inurba_marseille","lat":43.26208,"lon":5.37447,"is_reserved":false,"is_disabled":false,"rental_uris":{"android":"levelo://app?vid=00ed0159-9192-42ca-bf9a-113fb0281cb3","ios":"levelo://app?vid=00ed0159-9192-42ca-bf9a-113fb0281cb3"},"vehicle_type_id":"4","last_reported":1767892716,"current_range_meters":6800,"station_id":"ce4bhgp2rcd13ifvqfc0","pricing_plan_id":"cebpf4jnsgd1na2vs0mg"},{"bike_id":"993e294e-5165-4e68-b8de-23f42d42ab81","system_id":"levelo_inurba_marseille","lat":43.28341,"lon":5.38122,"is_reserved":false,"is_disabled":false,"rental_uris":{"android":"levelo://app?vid=993e294e-5165-4e68-b8de-23f42d42ab81","ios":"levelo://app?vid=993e294e-5165-4e68-b8de-23f42d42ab81"},"vehicle_type_id":"4","last_reported":1767892716,"current_range_meters":6800,"station_id":"ce4bh412rcd13ifvqdr0","pricing_plan_id":"cebpf4jnsgd1na2vs0mg"},{"bike_id":"ef8b8eb6-6226-4146-95a1-d01c656eb60d","system_id":"levelo_inurba_marseille","lat":43.2848,"lon":5.48397,"is_reserved":false,"is_disabled":false,"rental_uris":{"android":"levelo://app?vid=ef8b8eb6-6226-4146-95a1-d01c656eb60d","ios":"levelo://app?vid=ef8b8eb6-6226-4146-95a1-d01c656eb60d"},"vehicle_type_id":"4","last_reported":1767892716,"current_range_meters":6800,"station_id":"st_d3svhcjqgbts73a3dn0g","pricing_plan_id":"cebpf4jnsgd1na2vs0mg"},{"bike_id":"f088d266-b369-473c-af55-6e4052a32a95","system_id":"levelo_inurba_marseille","lat":43.28343,"lon":5.38101,"is_reserved":false,"is_disabled":false,"rental_uris":{"android":"levelo://app?vid=f088d266-b369-473c-af55-6e4052a32a95","ios":"levelo://app?vid=f088d266-b369-473c-af55-6e4052a32a95"},"vehicle_type_id":"4","last_reported":1767892716,"current_range_meters":6800,"station_id":"ce4bh412rcd13ifvqdr0","pricing_plan_id":"cebpf4jnsgd1na2vs0mg"},{"bike_id":"e9be6d9d-169b-4cae-9a40-1aae9b41881f","system_id":"levelo_inurba_marseille","lat":43.28795,"lon":5.38107,"is_reserved":false,"is_disabled":false,"rental_uris":{"android":"levelo://app?vid=e9be6d9d-169b-4cae-9a40-1aae9b41881f","ios":"levelo://app?vid=e9be6d9d-169b-4cae-9a40-1aae9b41881f"},"vehicle_type_id":"4","last_reported":1767892716,"current_range_meters":6800,"station_id":"","pricing_plan_id":"cebpf4jnsgd1na2vs0mg"},{"bike_id":"978ec5f8-496f-4a84-af0e-c84c7fe1cff2","system_id":"levelo_inurba_marseille","lat":43.3093,"lon":5.40151,"is_reserved":false,"is_disabled":false,"rental_uris":{"android":"levelo://app?vid=978ec5f8-496f-4a84-af0e-c84c7fe1cff2","ios":"levelo://app?vid=978ec5f8-496f-4a84-af0e-c84c7fe1cff2"},"vehicle_type_id":"4","last_reported":1767892716,"current_range_meters":6800,"station_id":"ce4bgvp2rcd13ifvqct0","pricing_plan_id":"cebpf4jnsgd1na2vs0mg"},{"bike_id":"500e4e72-a066-4d5d-a9cd-8098abf2c239","system_id":"levelo_inurba_marseille","lat":43.28852,"lon":5.39336,"is_reserved":false,"is_disabled":false,"rental_uris":{"android":"levelo://app?vid=500e4e72-a066-4d5d-a9cd-8098abf2c239","ios":"levelo://app?vid=500e4e72-a066-4d5d-a9cd-8098abf2c239"},"vehicle_type_id":"4","last_reported":1767892716,"current_range_meters":6800,"station_id":"ce4bh2p2rcd13ifvqdi0","pricing_plan_id":"cebpf4jnsgd1na2vs0mg"},{"bike_id":"82664785-e4c9-4181-b9aa-be493b71583d","system_id":"levelo_inurba_marseille","lat":43.30914,"lon":5.36863,"is_reserved":false,"is_disabled":false,"rental_uris":{"android":"levelo://app?vid=82664785-e4c9-4181-b9aa-be493b71583d","ios":"levelo://app?vid=82664785-e4c9-4181-b9aa-be493b71583d"},"vehicle_type_id":"4","last_reported":1767892716,"current_range_meters":6800,"station_id":"ce4bgn92rcd13ifvqbvg","pricing_plan_id":"cebpf4jnsgd1na2vs0mg"},{"bike_id":"223b8f30-21e1-46ea-8b13-c6466bc69617","system_id":"levelo_inurba_marseille","lat":43.279938,"lon":5.416784,"is_reserved":false,"is_disabled":false,"rental_uris":{"android":"levelo://app?vid=223b8f30-21e1-46ea-8b13-c6466bc69617","ios":"levelo://app?vid=223b8f30-21e1-46ea-8b13-c6466bc69617"},"vehicle_type_id":"4","last_reported":1767892716,"current_range_meters":6800,"station_id":"ce4bho12rcd13ifvqh1g","pricing_plan_id":"cebpf4jnsgd1na2vs0mg"},{"bike_id":"0fd80f10-4304-4c12-9af3-a94a305f109a","system_id":"levelo_inurba_marseille","lat":43.26071,"lon":5.39398,"is_reserved":false,"is_disabled":false,"rental_uris":{"android":"levelo://app?vid=0fd80f10-4304-4c12-9af3-a94a305f109a","ios":"levelo://app?vid=0fd80f10-4304-4c12-9af3-a94a305f109a"},"vehicle_type_id":"4","last_reported":1767892716,"current_range_meters":6800,"station_id":"ce4bhh92rcd13ifvqfj0","pricing_plan_id":"cebpf4jnsgd1na2vs0mg"},{"bike_id":"3ada1a6b-6031-458a-b05a-7b349030768e","system_id":"levelo_inurba_marseille","lat":43.30533,"lon":5.36786,"is_reserved":false,"is_disabled":false,"rental_uris":{"android":"levelo://app?vid=3ada1a6b-6031-458a-b05a-7b349030768e","ios":"levelo://app?vid=3ada1a6b-6031-458a-b05a-7b349030768e"},"vehicle_type_id":"4","last_reported":1767892716,"current_range_meters":6800,"station_id":"ce4bgrp2rcd13ifvqc9g","pricing_plan_id":"cebpf4jnsgd1na2vs0mg"},{"bike_id":"97c2e421-b4d8-4836-ac19-bb7195413a27","system_id":"levelo_inurba_marseille","lat":43.27062,"lon":5.38302,"is_reserved":false,"is_disabled":false,"rental_uris":{"android":"levelo://app?vid=97c2e421-b4d8-4836-ac19-bb7195413a27","ios":"levelo://app?vid=97c2e421-b4d8-4836-ac19-bb7195413a27"},"vehicle_type_id":"4","last_reported":1767892716,"current_range_meters":6800,"station_id":"st_d3n2fo6cfp8s73cte1j0","pricing_plan_id":"cebpf4jnsgd1na2vs0mg"},{"bike_id":"9cfbd8f3-4d7f-4285-b2d4-c98e63f13b19","system_id":"levelo_inurba_marseille","lat":43.28488,"lon":5.38484,"is_reserved":false,"is_disabled":false,"rental_uris":{"android":"levelo://app?vid=9cfbd8f3-4d7f-4285-b2d4-c98e63f13b19","ios":"levelo://app?vid=9cfbd8f3-4d7f-4285-b2d4-c98e63f13b19"},"vehicle_type_id":"4","last_reported":1767892716,"current_range_meters":6800,"station_id":"","pricing_plan_id":"cebpf4jnsgd1na2vs0mg"},{"bike_id":"98dc7c1c-3a5e-42a5-9270-a7d4dc83e61a","system_id":"levelo_inurba_marseille","lat":43.29532,"lon":5.37517,"is_reserved":false,"is_disabled":false,"rental_uris":{"android":"levelo://app?vid=98dc7c1c-3a5e-42a5-9270-a7d4dc83e61a","ios":"levelo://app?vid=98dc7c1c-3a5e-42a5-9270-a7d4dc83e61a"},"vehicle_type_id":"4","last_reported":1767892716,"current_range_meters":7200,"station_id":"ce4bgkp2rcd13ifvqbmg","pricing_plan_id":"cebpf4jnsgd1na2vs0mg"},{"bike_id":"cc85a6ba-05f9-4c4d-a519-e1f41fd3e5dc","system_id":"levelo_inurba_marseille","lat":43.2993,"lon":5.36558,"is_reserved":false,"is_disabled":true,"rental_uris":{"android":"levelo://app?vid=cc85a6ba-05f9-4c4d-a519-e1f41fd3e5dc","ios":"levelo://app?vid=cc85a6ba-05f9-4c4d-a519-e1f41fd3e5dc"},"vehicle_type_id":"4","last_reported":1767892716,"current_range_meters":7200,"station_id":"ce4bgm92rcd13ifvqbr0","pricing_plan_id":"cebpf4jnsgd1na2vs0mg"},{"bike_id":"9e59b67d-30ea-4a94-a36b-3f8092c8a7af","system_id":"levelo_inurba_marseille","lat":43.28935,"lon":5.36633,"is_reserved":false,"is_disabled":false,"rental_uris":{"android":"levelo://app?vid=9e59b67d-30ea-4a94-a36b-3f8092c8a7af","ios":"levelo://app?vid=9e59b67d-30ea-4a94-a36b-3f8092c8a7af"},"vehicle_type_id":"4","last_reported":1767892716,"current_range_meters":7200,"station_id":"ce4bhap2rcd13ifvqek0","pricing_plan_id":"cebpf4jnsgd1na2vs0mg"},{"bike_id":"41378b30-78f1-4543-b48a-69aa7cb2c556","system_id":"levelo_inurba_marseille","lat":43.25584,"lon":5.38229,"is_reserved":false,"is_disabled":false,"rental_uris":{"android":"levelo://app?vid=41378b30-78f1-4543-b48a-69aa7cb2c556","ios":"levelo://app?vid=41378b30-78f1-4543-b48a-69aa7cb2c556"},"vehicle_type_id":"4","last_reported":1767892716,"current_range_meters":7200,"station_id":"ce4bhih2rcd13ifvqfs0","pricing_plan_id":"cebpf4jnsgd1na2vs0mg"},{"bike_id":"064c8191-3107-4a12-b80e-6dc34a12a072","system_id":"levelo_inurba_marseille","lat":43.2481,"lon":5.3746,"is_reserved":false,"is_disabled":false,"rental_uris":{"android":"levelo://app?vid=064c8191-3107-4a12-b80e-6dc34a12a072","ios":"levelo://app?vid=064c8191-3107-4a12-b80e-6dc34a12a072"},"vehicle_type_id":"4","last_reported":1767892716,"current_range_meters":7200,"station_id":"ce4bhgh2rcd13ifvqfb0","pricing_plan_id":"cebpf4jnsgd1na2vs0mg"},{"bike_id":"662b526c-8c27-4d2d-b35e-6a1cdf3512ce","system_id":"levelo_inurba_marseille","lat":43.248122,"lon":5.374536,"is_reserved":false,"is_disabled":false,"rental_uris":{"android":"levelo://app?vid=662b526c-8c27-4d2d-b35e-6a1cdf3512ce","ios":"levelo://app?vid=662b526c-8c27-4d2d-b35e-6a1cdf3512ce"},"vehicle_type_id":"4","last_reported":1767892716,"current_range_meters":7200,"station_id":"ce4bhgh2rcd13ifvqfb0","pricing_plan_id":"cebpf4jnsgd1na2vs0mg"},{"bike_id":"db8d138f-9271-4515-9a9e-7aaa3e9dc4b2","system_id":"levelo_inurba_marseille","lat":43.31075,"lon":5.42445,"is_reserved":false,"is_disabled":false,"rental_uris":{"android":"levelo://app?vid=db8d138f-9271-4515-9a9e-7aaa3e9dc4b2","ios":"levelo://app?vid=db8d138f-9271-4515-9a9e-7aaa3e9dc4b2"},"vehicle_type_id":"4","last_reported":1767892716,"current_range_meters":7200,"station_id":"ce4bhp92rcd13ifvqhag","pricing_plan_id":"cebpf4jnsgd1na2vs0mg"},{"bike_id":"b943c9b2-b6eb-4c09-8f5b-a9996cfc66b9","system_id":"levelo_inurba_marseille","lat":43.24999,"lon":5.38927,"is_reserved":false,"is_disabled":false,"rental_uris":{"android":"levelo://app?vid=b943c9b2-b6eb-4c09-8f5b-a9996cfc66b9","ios":"levelo://app?vid=b943c9b2-b6eb-4c09-8f5b-a9996cfc66b9"},"vehicle_type_id":"4","last_reported":1767892716,"current_range_meters":7200,"station_id":"ce4bhgp2rcd13ifvqfd0","pricing_plan_id":"cebpf4jnsgd1na2vs0mg"},{"bike_id":"ac64f432-9ab8-4dd9-b132-5f28fccbe7fd","system_id":"levelo_inurba_marseille","lat":43.30534,"lon":5.36773,"is_reserved":false,"is_disabled":false,"rental_uris":{"android":"levelo://app?vid=ac64f432-9ab8-4dd9-b132-5f28fccbe7fd","ios":"levelo://app?vid=ac64f432-9ab8-4dd9-b132-5f28fccbe7fd"},"vehicle_type_id":"4","last_reported":1767892716,"current_range_meters":7200,"station_id":"ce4bgrp2rcd13ifvqc9g","pricing_plan_id":"cebpf4jnsgd1na2vs0mg"},{"bike_id":"82582fec-7dfe-4668-947f-7bf0439e6b8e","system_id":"levelo_inurba_marseille","lat":43.28473,"lon":5.48408,"is_reserved":false,"is_disabled":false,"rental_uris":{"android":"levelo://app?vid=82582fec-7dfe-4668-947f-7bf0439e6b8e","ios":"levelo://app?vid=82582fec-7dfe-4668-947f-7bf0439e6b8e"},"vehicle_type_id":"4","last_reported":1767892716,"current_range_meters":7200,"station_id":"","pricing_plan_id":"cebpf4jnsgd1na2vs0mg"},{"bike_id":"7079bdb2-fe45-4309-a762-84cee8c3e4fd","system_id":"levelo_inurba_marseille","lat":43.26544,"lon":5.37301,"is_reserved":false,"is_disabled":false,"rental_uris":{"android":"levelo://app?vid=7079bdb2-fe45-4309-a762-84cee8c3e4fd","ios":"levelo://app?vid=7079bdb2-fe45-4309-a762-84cee8c3e4fd"},"vehicle_type_id":"4","last_reported":1767892716,"current_range_meters":7200,"station_id":"ce4bhg12rcd13ifvqf70","pricing_plan_id":"cebpf4jnsgd1na2vs0mg"},{"bike_id":"e7ae9442-528d-4e6e-9257-e247add9ef1b","system_id":"levelo_inurba_marseille","lat":43.25564,"lon":5.38256,"is_reserved":false,"is_disabled":false,"rental_uris":{"android":"levelo://app?vid=e7ae9442-528d-4e6e-9257-e247add9ef1b","ios":"levelo://app?vid=e7ae9442-528d-4e6e-9257-e247add9ef1b"},"vehicle_type_id":"4","last_reported":1767892716,"current_range_meters":7200,"station_id":"ce4bhih2rcd13ifvqfs0","pricing_plan_id":"cebpf4jnsgd1na2vs0mg"},{"bike_id":"1a68cb84-5015-4254-8743-ae34d93b9057","system_id":"levelo_inurba_marseille","lat":43.28619,"lon":5.35108,"is_reserved":false,"is_disabled":false,"rental_uris":{"android":"levelo://app?vid=1a68cb84-5015-4254-8743-ae34d93b9057","ios":"levelo://app?vid=1a68cb84-5015-4254-8743-ae34d93b9057"},"vehicle_type_id":"4","last_reported":1767892716,"current_range_meters":7200,"station_id":"ce4bhch2rcd13ifvqeug","pricing_plan_id":"cebpf4jnsgd1na2vs0mg"},{"bike_id":"e412bd1f-9559-40df-baea-da06ff8409ea","system_id":"levelo_inurba_marseille","lat":43.31057,"lon":5.37147,"is_reserved":false,"is_disabled":true,"rental_uris":{"android":"levelo://app?vid=e412bd1f-9559-40df-baea-da06ff8409ea","ios":"levelo://app?vid=e412bd1f-9559-40df-baea-da06ff8409ea"},"vehicle_type_id":"4","last_reported":1767892716,"current_range_meters":7200,"station_id":"st_d4kl2rp97mjs73e7tdfg","pricing_plan_id":"cebpf4jnsgd1na2vs0mg"},{"bike_id":"35ccd08c-2853-43b8-a6cf-71e44622197f","system_id":"levelo_inurba_marseille","lat":43.31599,"lon":5.38697,"is_reserved":false,"is_disabled":true,"rental_uris":{"android":"levelo://app?vid=35ccd08c-2853-43b8-a6cf-71e44622197f","ios":"levelo://app?vid=35ccd08c-2853-43b8-a6cf-71e44622197f"},"vehicle_type_id":"4","last_reported":1767892716,"current_range_meters":7200,"station_id":"","pricing_plan_id":"cebpf4jnsgd1na2vs0mg"},{"bike_id":"2bdef769-2e65-45de-b85d-b85908d14762","system_id":"levelo_inurba_marseille","lat":43.29534,"lon":5.38533,"is_reserved":false,"is_disabled":false,"rental_uris":{"android":"levelo://app?vid=2bdef769-2e65-45de-b85d-b85908d14762","ios":"levelo://app?vid=2bdef769-2e65-45de-b85d-b85908d14762"},"vehicle_type_id":"4","last_reported":1767892716,"current_range_meters":7200,"station_id":"ce4bgih2rcd13ifvqba0","pricing_plan_id":"cebpf4jnsgd1na2vs0mg"},{"bike_id":"167584b9-ff0a-4477-912f-554af79c3a68","system_id":"levelo_inurba_marseille","lat":43.28924,"lon":5.38392,"is_reserved":false,"is_disabled":false,"rental_uris":{"android":"levelo://app?vid=167584b9-ff0a-4477-912f-554af79c3a68","ios":"levelo://app?vid=167584b9-ff0a-4477-912f-554af79c3a68"},"vehicle_type_id":"4","last_reported":1767892716,"current_range_meters":7200,"station_id":"ce4bh612rcd13ifvqe6g","pricing_plan_id":"cebpf4jnsgd1na2vs0mg"},{"bike_id":"79544bb9-349f-409e-b2bb-723f19511937","system_id":"levelo_inurba_marseille","lat":43.285188,"lon":5.440914,"is_reserved":false,"is_disabled":false,"rental_uris":{"android":"levelo://app?vid=79544bb9-349f-409e-b2bb-723f19511937","ios":"levelo://app?vid=79544bb9-349f-409e-b2bb-723f19511937"},"vehicle_type_id":"4","last_reported":1767892716,"current_range_meters":7200,"station_id":"st_d3j3df2ikq2c7380ej80","pricing_plan_id":"cebpf4jnsgd1na2vs0mg"},{"bike_id":"d5c1c553-9204-43c8-8cf5-216603484439","system_id":"levelo_inurba_marseille","lat":43.2952,"lon":5.375,"is_reserved":false,"is_disabled":false,"rental_uris":{"android":"levelo://app?vid=d5c1c553-9204-43c8-8cf5-216603484439","ios":"levelo://app?vid=d5c1c553-9204-43c8-8cf5-216603484439"},"vehicle_type_id":"4","last_reported":1767892716,"current_range_meters":7200,"station_id":"ce4bgkp2rcd13ifvqbmg","pricing_plan_id":"cebpf4jnsgd1na2vs0mg"},{"bike_id":"b4fa0935-9b50-4a59-a851-194d4cccd67f","system_id":"levelo_inurba_marseille","lat":43.24169,"lon":5.363942,"is_reserved":false,"is_disabled":false,"rental_uris":{"android":"levelo://app?vid=b4fa0935-9b50-4a59-a851-194d4cccd67f","ios":"levelo://app?vid=b4fa0935-9b50-4a59-a851-194d4cccd67f"},"vehicle_type_id":"4","last_reported":1767892716,"current_range_meters":7200,"station_id":"cpo36qri1sfpv3e86is0","pricing_plan_id":"cebpf4jnsgd1na2vs0mg"},{"bike_id":"ae4ea6af-ac8e-4f9d-acb8-d08926e47bb1","system_id":"levelo_inurba_marseille","lat":43.3315,"lon":5.37723,"is_reserved":false,"is_disabled":false,"rental_uris":{"android":"levelo://app?vid=ae4ea6af-ac8e-4f9d-acb8-d08926e47bb1","ios":"levelo://app?vid=ae4ea6af-ac8e-4f9d-acb8-d08926e47bb1"},"vehicle_type_id":"4","last_reported":1767892716,"current_range_meters":8000,"station_id":"st_d46cu089ee8s73dldbu0","pricing_plan_id":"cebpf4jnsgd1na2vs0mg"},{"bike_id":"39efe3e1-9d88-48e5-bb46-2b1e39c86adc","system_id":"levelo_inurba_marseille","lat":43.30552,"lon":5.36528,"is_reserved":false,"is_disabled":false,"rental_uris":{"android":"levelo://app?vid=39efe3e1-9d88-48e5-bb46-2b1e39c86adc","ios":"levelo://app?vid=39efe3e1-9d88-48e5-bb46-2b1e39c86adc"},"vehicle_type_id":"4","last_reported":1767892716,"current_range_meters":8000,"station_id":"ce4bgs12rcd13ifvqcag","pricing_plan_id":"cebpf4jnsgd1na2vs0mg"},{"bike_id":"040d0c96-f5fe-4291-9824-96f7a9328fc8","system_id":"levelo_inurba_marseille","lat":43.28682,"lon":5.38675,"is_reserved":false,"is_disabled":false,"rental_uris":{"android":"levelo://app?vid=040d0c96-f5fe-4291-9824-96f7a9328fc8","ios":"levelo://app?vid=040d0c96-f5fe-4291-9824-96f7a9328fc8"},"vehicle_type_id":"4","last_reported":1767892716,"current_range_meters":8000,"station_id":"ce4bh492rcd13ifvqdug","pricing_plan_id":"cebpf4jnsgd1na2vs0mg"},{"bike_id":"f57b869f-132c-44f2-95f8-fa4f05158578","system_id":"levelo_inurba_marseille","lat":43.25579,"lon":5.38235,"is_reserved":false,"is_disabled":false,"rental_uris":{"android":"levelo://app?vid=f57b869f-132c-44f2-95f8-fa4f05158578","ios":"levelo://app?vid=f57b869f-132c-44f2-95f8-fa4f05158578"},"vehicle_type_id":"4","last_reported":1767892716,"current_range_meters":8000,"station_id":"ce4bhih2rcd13ifvqfs0","pricing_plan_id":"cebpf4jnsgd1na2vs0mg"},{"bike_id":"6fad9ca1-61fd-4cab-8c8e-75dda08e921f","system_id":"levelo_inurba_marseille","lat":43.31974,"lon":5.37438,"is_reserved":false,"is_disabled":false,"rental_uris":{"android":"levelo://app?vid=6fad9ca1-61fd-4cab-8c8e-75dda08e921f","ios":"levelo://app?vid=6fad9ca1-61fd-4cab-8c8e-75dda08e921f"},"vehicle_type_id":"4","last_reported":1767892716,"current_range_meters":8000,"station_id":"","pricing_plan_id":"cebpf4jnsgd1na2vs0mg"},{"bike_id":"cb66a8f8-b260-4fed-94bd-02f6b057dc6c","system_id":"levelo_inurba_marseille","lat":43.28603,"lon":5.39888,"is_reserved":false,"is_disabled":false,"rental_uris":{"android":"levelo://app?vid=cb66a8f8-b260-4fed-94bd-02f6b057dc6c","ios":"levelo://app?vid=cb66a8f8-b260-4fed-94bd-02f6b057dc6c"},"vehicle_type_id":"4","last_reported":1767892716,"current_range_meters":8000,"station_id":"st_d4a7ka997mjs738ck50g","pricing_plan_id":"cebpf4jnsgd1na2vs0mg"},{"bike_id":"5407fece-b1e5-43a9-86e2-b54a7e31d89d","system_id":"levelo_inurba_marseille","lat":43.262044,"lon":5.374492,"is_reserved":false,"is_disabled":false,"rental_uris":{"android":"levelo://app?vid=5407fece-b1e5-43a9-86e2-b54a7e31d89d","ios":"levelo://app?vid=5407fece-b1e5-43a9-86e2-b54a7e31d89d"},"vehicle_type_id":"4","last_reported":1767892716,"current_range_meters":8000,"station_id":"ce4bhgp2rcd13ifvqfc0","pricing_plan_id":"cebpf4jnsgd1na2vs0mg"},{"bike_id":"e41d8bea-ffd2-440d-b446-b472b1d04e4d","system_id":"levelo_inurba_marseille","lat":43.239606,"lon":5.36623,"is_reserved":false,"is_disabled":false,"rental_uris":{"android":"levelo://app?vid=e41d8bea-ffd2-440d-b446-b472b1d04e4d","ios":"levelo://app?vid=e41d8bea-ffd2-440d-b446-b472b1d04e4d"},"vehicle_type_id":"4","last_reported":1767892716,"current_range_meters":8000,"station_id":"ce4bhi12rcd13ifvqfp0","pricing_plan_id":"cebpf4jnsgd1na2vs0mg"},{"bike_id":"08763cfa-f8a3-4140-bbe3-bb5180406344","system_id":"levelo_inurba_marseille","lat":43.2319,"lon":5.35563,"is_reserved":false,"is_disabled":false,"rental_uris":{"android":"levelo://app?vid=08763cfa-f8a3-4140-bbe3-bb5180406344","ios":"levelo://app?vid=08763cfa-f8a3-4140-bbe3-bb5180406344"},"vehicle_type_id":"4","last_reported":1767892716,"current_range_meters":8000,"station_id":"ce4bhu92rcd13ifvqi70","pricing_plan_id":"cebpf4jnsgd1na2vs0mg"},{"bike_id":"97452125-5d86-4a9e-b4a3-a2dd4fe9ffac","system_id":"levelo_inurba_marseille","lat":43.25486,"lon":5.37661,"is_reserved":false,"is_disabled":false,"rental_uris":{"android":"levelo://app?vid=97452125-5d86-4a9e-b4a3-a2dd4fe9ffac","ios":"levelo://app?vid=97452125-5d86-4a9e-b4a3-a2dd4fe9ffac"},"vehicle_type_id":"4","last_reported":1767892716,"current_range_meters":8000,"station_id":"ce4bhh12rcd13ifvqff0","pricing_plan_id":"cebpf4jnsgd1na2vs0mg"},{"bike_id":"3e14d0f1-1ab2-46b7-a760-c908c28eb465","system_id":"levelo_inurba_marseille","lat":43.29802,"lon":5.38062,"is_reserved":false,"is_disabled":false,"rental_uris":{"android":"levelo://app?vid=3e14d0f1-1ab2-46b7-a760-c908c28eb465","ios":"levelo://app?vid=3e14d0f1-1ab2-46b7-a760-c908c28eb465"},"vehicle_type_id":"4","last_reported":1767892716,"current_range_meters":8000,"station_id":"ce4bgip2rcd13ifvqbb0","pricing_plan_id":"cebpf4jnsgd1na2vs0mg"},{"bike_id":"49693813-6422-4c0b-883f-2f9444f40ff2","system_id":"levelo_inurba_marseille","lat":43.25492,"lon":5.37647,"is_reserved":false,"is_disabled":false,"rental_uris":{"android":"levelo://app?vid=49693813-6422-4c0b-883f-2f9444f40ff2","ios":"levelo://app?vid=49693813-6422-4c0b-883f-2f9444f40ff2"},"vehicle_type_id":"4","last_reported":1767892716,"current_range_meters":8000,"station_id":"ce4bhh12rcd13ifvqff0","pricing_plan_id":"cebpf4jnsgd1na2vs0mg"},{"bike_id":"8ddd903e-4b58-445b-933d-a20697560094","system_id":"levelo_inurba_marseille","lat":43.334312,"lon":5.400534,"is_reserved":false,"is_disabled":false,"rental_uris":{"android":"levelo://app?vid=8ddd903e-4b58-445b-933d-a20697560094","ios":"levelo://app?vid=8ddd903e-4b58-445b-933d-a20697560094"},"vehicle_type_id":"4","last_reported":1767892716,"current_range_meters":8000,"station_id":"","pricing_plan_id":"cebpf4jnsgd1na2vs0mg"},{"bike_id":"fb7fdc8b-535b-4e29-a51e-736c594595b5","system_id":"levelo_inurba_marseille","lat":43.257607,"lon":5.394362,"is_reserved":false,"is_disabled":false,"rental_uris":{"android":"levelo://app?vid=fb7fdc8b-535b-4e29-a51e-736c594595b5","ios":"levelo://app?vid=fb7fdc8b-535b-4e29-a51e-736c594595b5"},"vehicle_type_id":"4","last_reported":1767892716,"current_range_meters":8000,"station_id":"","pricing_plan_id":"cebpf4jnsgd1na2vs0mg"},{"bike_id":"d7da1e9f-1b2b-45a2-b171-eb1d5aec8165","system_id":"levelo_inurba_marseille","lat":43.28608,"lon":5.39867,"is_reserved":false,"is_disabled":false,"rental_uris":{"android":"levelo://app?vid=d7da1e9f-1b2b-45a2-b171-eb1d5aec8165","ios":"levelo://app?vid=d7da1e9f-1b2b-45a2-b171-eb1d5aec8165"},"vehicle_type_id":"4","last_reported":1767892716,"current_range_meters":8000,"station_id":"st_d4a7ka997mjs738ck50g","pricing_plan_id":"cebpf4jnsgd1na2vs0mg"},{"bike_id":"b7d21ff1-3a23-4686-9989-df3df383864a","system_id":"levelo_inurba_marseille","lat":43.30885,"lon":5.39653,"is_reserved":false,"is_disabled":false,"rental_uris":{"android":"levelo://app?vid=b7d21ff1-3a23-4686-9989-df3df383864a","ios":"levelo://app?vid=b7d21ff1-3a23-4686-9989-df3df383864a"},"vehicle_type_id":"4","last_reported":1767892716,"current_range_meters":8000,"station_id":"ce4bh012rcd13ifvqcv0","pricing_plan_id":"cebpf4jnsgd1na2vs0mg"},{"bike_id":"83d5f245-fb0f-4ec6-9063-867f9d0f37e7","system_id":"levelo_inurba_marseille","lat":43.23153,"lon":5.43717,"is_reserved":false,"is_disabled":false,"rental_uris":{"android":"levelo://app?vid=83d5f245-fb0f-4ec6-9063-867f9d0f37e7","ios":"levelo://app?vid=83d5f245-fb0f-4ec6-9063-867f9d0f37e7"},"vehicle_type_id":"4","last_reported":1767892716,"current_range_meters":8000,"station_id":"ce4bhmp2rcd13ifvqgog","pricing_plan_id":"cebpf4jnsgd1na2vs0mg"},{"bike_id":"748e6a5e-97a9-489d-8fdc-20f62045411a","system_id":"levelo_inurba_marseille","lat":43.28899,"lon":5.39697,"is_reserved":false,"is_disabled":false,"rental_uris":{"android":"levelo://app?vid=748e6a5e-97a9-489d-8fdc-20f62045411a","ios":"levelo://app?vid=748e6a5e-97a9-489d-8fdc-20f62045411a"},"vehicle_type_id":"4","last_reported":1767892716,"current_range_meters":8000,"station_id":"","pricing_plan_id":"cebpf4jnsgd1na2vs0mg"},{"bike_id":"36c3097c-2122-4b98-a149-c16b13fb82b9","system_id":"levelo_inurba_marseille","lat":43.26063,"lon":5.39389,"is_reserved":false,"is_disabled":false,"rental_uris":{"android":"levelo://app?vid=36c3097c-2122-4b98-a149-c16b13fb82b9","ios":"levelo://app?vid=36c3097c-2122-4b98-a149-c16b13fb82b9"},"vehicle_type_id":"4","last_reported":1767892716,"current_range_meters":8000,"station_id":"ce4bhh92rcd13ifvqfj0","pricing_plan_id":"cebpf4jnsgd1na2vs0mg"},{"bike_id":"72fdb8ed-82d0-439d-aeda-00339a722d69","system_id":"levelo_inurba_marseille","lat":43.29536,"lon":5.38552,"is_reserved":false,"is_disabled":false,"rental_uris":{"android":"levelo://app?vid=72fdb8ed-82d0-439d-aeda-00339a722d69","ios":"levelo://app?vid=72fdb8ed-82d0-439d-aeda-00339a722d69"},"vehicle_type_id":"4","last_reported":1767892716,"current_range_meters":8000,"station_id":"ce4bgih2rcd13ifvqba0","pricing_plan_id":"cebpf4jnsgd1na2vs0mg"},{"bike_id":"a05e4379-7c2e-4edc-831a-4c3fbe80a60c","system_id":"levelo_inurba_marseille","lat":43.30125,"lon":5.43117,"is_reserved":false,"is_disabled":false,"rental_uris":{"android":"levelo://app?vid=a05e4379-7c2e-4edc-831a-4c3fbe80a60c","ios":"levelo://app?vid=a05e4379-7c2e-4edc-831a-4c3fbe80a60c"},"vehicle_type_id":"4","last_reported":1767892716,"current_range_meters":8400,"station_id":"st_d3js3co5814s73ftftug","pricing_plan_id":"cebpf4jnsgd1na2vs0mg"},{"bike_id":"8f870c12-c0c3-4b7a-8d0a-24f628ad1788","system_id":"levelo_inurba_marseille","lat":43.31015,"lon":5.37933,"is_reserved":false,"is_disabled":false,"rental_uris":{"android":"levelo://app?vid=8f870c12-c0c3-4b7a-8d0a-24f628ad1788","ios":"levelo://app?vid=8f870c12-c0c3-4b7a-8d0a-24f628ad1788"},"vehicle_type_id":"4","last_reported":1767892716,"current_range_meters":8400,"station_id":"","pricing_plan_id":"cebpf4jnsgd1na2vs0mg"},{"bike_id":"b2a3da8f-bf56-4eb9-9359-d00614059d44","system_id":"levelo_inurba_marseille","lat":43.29109,"lon":5.38097,"is_reserved":false,"is_disabled":false,"rental_uris":{"android":"levelo://app?vid=b2a3da8f-bf56-4eb9-9359-d00614059d44","ios":"levelo://app?vid=b2a3da8f-bf56-4eb9-9359-d00614059d44"},"vehicle_type_id":"4","last_reported":1767892716,"current_range_meters":8400,"station_id":"ce4bh512rcd13ifvqe2g","pricing_plan_id":"cebpf4jnsgd1na2vs0mg"},{"bike_id":"e98dc820-6aac-4f48-9094-e49c757a1537","system_id":"levelo_inurba_marseille","lat":43.30574,"lon":5.36541,"is_reserved":false,"is_disabled":false,"rental_uris":{"android":"levelo://app?vid=e98dc820-6aac-4f48-9094-e49c757a1537","ios":"levelo://app?vid=e98dc820-6aac-4f48-9094-e49c757a1537"},"vehicle_type_id":"4","last_reported":1767892716,"current_range_meters":8400,"station_id":"ce4bgs12rcd13ifvqcag","pricing_plan_id":"cebpf4jnsgd1na2vs0mg"},{"bike_id":"42a68ed1-a3ff-4666-b728-4719a70a04e4","system_id":"levelo_inurba_marseille","lat":43.29713,"lon":5.37705,"is_reserved":false,"is_disabled":false,"rental_uris":{"android":"levelo://app?vid=42a68ed1-a3ff-4666-b728-4719a70a04e4","ios":"levelo://app?vid=42a68ed1-a3ff-4666-b728-4719a70a04e4"},"vehicle_type_id":"4","last_reported":1767892716,"current_range_meters":8400,"station_id":"ce4bgkh2rcd13ifvqbl0","pricing_plan_id":"cebpf4jnsgd1na2vs0mg"},{"bike_id":"deebbad2-3d9f-4a3a-9f32-10dfba089115","system_id":"levelo_inurba_marseille","lat":43.30144,"lon":5.38093,"is_reserved":false,"is_disabled":false,"rental_uris":{"android":"levelo://app?vid=deebbad2-3d9f-4a3a-9f32-10dfba089115","ios":"levelo://app?vid=deebbad2-3d9f-4a3a-9f32-10dfba089115"},"vehicle_type_id":"4","last_reported":1767892716,"current_range_meters":8400,"station_id":"ce4bgjp2rcd13ifvqbh0","pricing_plan_id":"cebpf4jnsgd1na2vs0mg"},{"bike_id":"2c8ceac5-b05d-446b-aae9-d9be3c3e0484","system_id":"levelo_inurba_marseille","lat":43.29704,"lon":5.36615,"is_reserved":false,"is_disabled":false,"rental_uris":{"android":"levelo://app?vid=2c8ceac5-b05d-446b-aae9-d9be3c3e0484","ios":"levelo://app?vid=2c8ceac5-b05d-446b-aae9-d9be3c3e0484"},"vehicle_type_id":"4","last_reported":1767892716,"current_range_meters":8400,"station_id":"ce4bgn12rcd13ifvqbt0","pricing_plan_id":"cebpf4jnsgd1na2vs0mg"},{"bike_id":"0e743da8-4717-463f-a3c0-95e05504f5a3","system_id":"levelo_inurba_marseille","lat":43.26544,"lon":5.37307,"is_reserved":false,"is_disabled":false,"rental_uris":{"android":"levelo://app?vid=0e743da8-4717-463f-a3c0-95e05504f5a3","ios":"levelo://app?vid=0e743da8-4717-463f-a3c0-95e05504f5a3"},"vehicle_type_id":"4","last_reported":1767892716,"current_range_meters":8400,"station_id":"ce4bhg12rcd13ifvqf70","pricing_plan_id":"cebpf4jnsgd1na2vs0mg"},{"bike_id":"52c545a6-4990-49e9-b5f1-ef579ddc71f3","system_id":"levelo_inurba_marseille","lat":43.25562,"lon":5.38217,"is_reserved":false,"is_disabled":false,"rental_uris":{"android":"levelo://app?vid=52c545a6-4990-49e9-b5f1-ef579ddc71f3","ios":"levelo://app?vid=52c545a6-4990-49e9-b5f1-ef579ddc71f3"},"vehicle_type_id":"4","last_reported":1767892716,"current_range_meters":8400,"station_id":"ce4bhih2rcd13ifvqfs0","pricing_plan_id":"cebpf4jnsgd1na2vs0mg"},{"bike_id":"617ca6f2-1481-4c5f-a165-87db9947444a","system_id":"levelo_inurba_marseille","lat":43.28484,"lon":5.48396,"is_reserved":false,"is_disabled":false,"rental_uris":{"android":"levelo://app?vid=617ca6f2-1481-4c5f-a165-87db9947444a","ios":"levelo://app?vid=617ca6f2-1481-4c5f-a165-87db9947444a"},"vehicle_type_id":"4","last_reported":1767892716,"current_range_meters":8400,"station_id":"st_d3svhcjqgbts73a3dn0g","pricing_plan_id":"cebpf4jnsgd1na2vs0mg"},{"bike_id":"36f2d58b-106a-4983-8523-a580ecf0e336","system_id":"levelo_inurba_marseille","lat":43.28463,"lon":5.35892,"is_reserved":false,"is_disabled":false,"rental_uris":{"android":"levelo://app?vid=36f2d58b-106a-4983-8523-a580ecf0e336","ios":"levelo://app?vid=36f2d58b-106a-4983-8523-a580ecf0e336"},"vehicle_type_id":"4","last_reported":1767892716,"current_range_meters":8400,"station_id":"ce4bhah2rcd13ifvqei0","pricing_plan_id":"cebpf4jnsgd1na2vs0mg"},{"bike_id":"999f6be2-5d06-454a-b3b4-fa9898fd26e8","system_id":"levelo_inurba_marseille","lat":43.28223,"lon":5.39074,"is_reserved":false,"is_disabled":false,"rental_uris":{"android":"levelo://app?vid=999f6be2-5d06-454a-b3b4-fa9898fd26e8","ios":"levelo://app?vid=999f6be2-5d06-454a-b3b4-fa9898fd26e8"},"vehicle_type_id":"4","last_reported":1767892716,"current_range_meters":8400,"station_id":"ce4bhn92rcd13ifvqgsg","pricing_plan_id":"cebpf4jnsgd1na2vs0mg"},{"bike_id":"ce3cc1d9-9ec8-4064-92e2-4915f0b7e6ce","system_id":"levelo_inurba_marseille","lat":43.24644,"lon":5.4313,"is_reserved":false,"is_disabled":false,"rental_uris":{"android":"levelo://app?vid=ce3cc1d9-9ec8-4064-92e2-4915f0b7e6ce","ios":"levelo://app?vid=ce3cc1d9-9ec8-4064-92e2-4915f0b7e6ce"},"vehicle_type_id":"4","last_reported":1767892716,"current_range_meters":8400,"station_id":"st_d2m6c4gdas8pm72e190g","pricing_plan_id":"cebpf4jnsgd1na2vs0mg"},{"bike_id":"09b6172a-5469-438c-8983-ec0d46ab5aba","system_id":"levelo_inurba_marseille","lat":43.30543,"lon":5.36556,"is_reserved":false,"is_disabled":false,"rental_uris":{"android":"levelo://app?vid=09b6172a-5469-438c-8983-ec0d46ab5aba","ios":"levelo://app?vid=09b6172a-5469-438c-8983-ec0d46ab5aba"},"vehicle_type_id":"4","last_reported":1767892716,"current_range_meters":8400,"station_id":"ce4bgs12rcd13ifvqcag","pricing_plan_id":"cebpf4jnsgd1na2vs0mg"},{"bike_id":"6e25dc48-4fec-4f46-b8f0-01cdde0a6af0","system_id":"levelo_inurba_marseille","lat":43.30197,"lon":5.36625,"is_reserved":false,"is_disabled":false,"rental_uris":{"android":"levelo://app?vid=6e25dc48-4fec-4f46-b8f0-01cdde0a6af0","ios":"levelo://app?vid=6e25dc48-4fec-4f46-b8f0-01cdde0a6af0"},"vehicle_type_id":"4","last_reported":1767892716,"current_range_meters":8400,"station_id":"ce4bgrh2rcd13ifvqc8g","pricing_plan_id":"cebpf4jnsgd1na2vs0mg"},{"bike_id":"ba42c84f-c92c-4b58-bed4-b985a35a9e02","system_id":"levelo_inurba_marseille","lat":43.29525,"lon":5.38532,"is_reserved":false,"is_disabled":false,"rental_uris":{"android":"levelo://app?vid=ba42c84f-c92c-4b58-bed4-b985a35a9e02","ios":"levelo://app?vid=ba42c84f-c92c-4b58-bed4-b985a35a9e02"},"vehicle_type_id":"4","last_reported":1767892716,"current_range_meters":8400,"station_id":"ce4bgih2rcd13ifvqba0","pricing_plan_id":"cebpf4jnsgd1na2vs0mg"},{"bike_id":"6ced9933-a7b3-4fa1-aedd-aa0efe62c41a","system_id":"levelo_inurba_marseille","lat":43.2853,"lon":5.44094,"is_reserved":false,"is_disabled":false,"rental_uris":{"android":"levelo://app?vid=6ced9933-a7b3-4fa1-aedd-aa0efe62c41a","ios":"levelo://app?vid=6ced9933-a7b3-4fa1-aedd-aa0efe62c41a"},"vehicle_type_id":"4","last_reported":1767892716,"current_range_meters":8400,"station_id":"st_d3j3df2ikq2c7380ej80","pricing_plan_id":"cebpf4jnsgd1na2vs0mg"},{"bike_id":"31447a0e-5f20-40ed-81c7-81b3e7eb8db6","system_id":"levelo_inurba_marseille","lat":43.31379,"lon":5.38595,"is_reserved":false,"is_disabled":false,"rental_uris":{"android":"levelo://app?vid=31447a0e-5f20-40ed-81c7-81b3e7eb8db6","ios":"levelo://app?vid=31447a0e-5f20-40ed-81c7-81b3e7eb8db6"},"vehicle_type_id":"4","last_reported":1767892716,"current_range_meters":8400,"station_id":"","pricing_plan_id":"cebpf4jnsgd1na2vs0mg"},{"bike_id":"b9e23ad4-84d7-4bff-999c-375ee86dbddd","system_id":"levelo_inurba_marseille","lat":43.29976,"lon":5.38508,"is_reserved":false,"is_disabled":false,"rental_uris":{"android":"levelo://app?vid=b9e23ad4-84d7-4bff-999c-375ee86dbddd","ios":"levelo://app?vid=b9e23ad4-84d7-4bff-999c-375ee86dbddd"},"vehicle_type_id":"4","last_reported":1767892716,"current_range_meters":8400,"station_id":"ce4bgj92rcd13ifvqbd0","pricing_plan_id":"cebpf4jnsgd1na2vs0mg"},{"bike_id":"94a6901e-f050-4dbd-8990-b774d466a29a","system_id":"levelo_inurba_marseille","lat":43.32106,"lon":5.36768,"is_reserved":false,"is_disabled":false,"rental_uris":{"android":"levelo://app?vid=94a6901e-f050-4dbd-8990-b774d466a29a","ios":"levelo://app?vid=94a6901e-f050-4dbd-8990-b774d466a29a"},"vehicle_type_id":"4","last_reported":1767892716,"current_range_meters":8400,"station_id":"ce4bhrh2rcd13ifvqhug","pricing_plan_id":"cebpf4jnsgd1na2vs0mg"},{"bike_id":"02fbedcf-0ea4-4d04-a895-b6fc85e856b0","system_id":"levelo_inurba_marseille","lat":43.23965,"lon":5.36608,"is_reserved":false,"is_disabled":false,"rental_uris":{"android":"levelo://app?vid=02fbedcf-0ea4-4d04-a895-b6fc85e856b0","ios":"levelo://app?vid=02fbedcf-0ea4-4d04-a895-b6fc85e856b0"},"vehicle_type_id":"4","last_reported":1767892716,"current_range_meters":8400,"station_id":"ce4bhi12rcd13ifvqfp0","pricing_plan_id":"cebpf4jnsgd1na2vs0mg"},{"bike_id":"1ec94ba1-41d1-4288-80e5-6a131d1cb21d","system_id":"levelo_inurba_marseille","lat":43.253353,"lon":5.421754,"is_reserved":false,"is_disabled":false,"rental_uris":{"android":"levelo://app?vid=1ec94ba1-41d1-4288-80e5-6a131d1cb21d","ios":"levelo://app?vid=1ec94ba1-41d1-4288-80e5-6a131d1cb21d"},"vehicle_type_id":"4","last_reported":1767892716,"current_range_meters":8400,"station_id":"st_d2m65c5bi1j21697t3ng","pricing_plan_id":"cebpf4jnsgd1na2vs0mg"},{"bike_id":"755fddff-196e-4df8-9ed5-b269f8727526","system_id":"levelo_inurba_marseille","lat":43.27206,"lon":5.41,"is_reserved":false,"is_disabled":false,"rental_uris":{"android":"levelo://app?vid=755fddff-196e-4df8-9ed5-b269f8727526","ios":"levelo://app?vid=755fddff-196e-4df8-9ed5-b269f8727526"},"vehicle_type_id":"4","last_reported":1767892716,"current_range_meters":8400,"station_id":"ce4bhl12rcd13ifvqgf0","pricing_plan_id":"cebpf4jnsgd1na2vs0mg"},{"bike_id":"4cffb3bc-6cb7-4fb3-8e35-ce4d3792bbf1","system_id":"levelo_inurba_marseille","lat":43.28414,"lon":5.375,"is_reserved":false,"is_disabled":false,"rental_uris":{"android":"levelo://app?vid=4cffb3bc-6cb7-4fb3-8e35-ce4d3792bbf1","ios":"levelo://app?vid=4cffb3bc-6cb7-4fb3-8e35-ce4d3792bbf1"},"vehicle_type_id":"4","last_reported":1767892716,"current_range_meters":8400,"station_id":"ce4bh412rcd13ifvqds0","pricing_plan_id":"cebpf4jnsgd1na2vs0mg"},