{"last_updated":1734441695,"ttl":60,"version":"2.2","data":{"bikes":[{"bike_id":"55259469-20b7-4df7-bc06-2aaa3f400ee2","system_id":"levelo_inurba_marseille","lat":43.270605,"lon":5.402661,"is_reserved":false,"is_disabled":false,"rental_uris":{"android":"levelo://app?vid=55259469-20b7-4df7-bc06-2aaa3f400ee2","ios":"levelo://app?vid=55259469-20b7-4df7-bc06-2aaa3f400ee2"},"vehicle_type_id":"4","last_reported":1734441696,"current_range_meters":38800,"station_id":"ce4bhk92rcd13ifvqgc0","pricing_plan_id":"cebpf4jnsgd1na2vs0mg"},{"bike_id":"fd431283-c0d6-4a24-9f3c-f47a99a61535","system_id":"levelo_inurba_marseille","lat":43.26561,"lon":5.39007,"is_reserved":false,"is_disabled":true,"rental_uris":{"android":"levelo://app?vid=fd431283-c0d6-4a24-9f3c-f47a99a61535","ios":"levelo://app?vid=fd431283-c0d6-4a24-9f3c-f47a99a61535"},"vehicle_type_id":"4","last_reported":1734441696,"current_range_meters":0,"station_id":"ce4bhe12rcd13ifvqf30","pricing_plan_id":"cebpf4jnsgd1na2vs0mg"},{"bike_id":"ac3c766f-7bc7-421e-871b-304fe0bcbc21","system_id":"levelo_inurba_marseille","lat":43.30404,"lon":5.42314,"is_reserved":false,"is_disabled":true,"rental_uris":{"android":"levelo://app?vid=ac3c766f-7bc7-421e-871b-304fe0bcbc21","ios":"levelo://app?vid=ac3c766f-7bc7-421e-871b-304fe0bcbc21"},"vehicle_type_id":"4","last_reported":1734441696,"current_range_meters":0,"station_id":"","pricing_plan_id":"cebpf4jnsgd1na2vs0mg"},{"bike_id":"34e0d528-49ba-4281-bb2c-97393ce94b2f","system_id":"levelo_inurba_marseille","lat":43.30151,"lon":5.37409,"is_reserved":false,"is_disabled":false,"rental_uris":{"android":"levelo://app?vid=34e0d528-49ba-4281-bb2c-97393ce94b2f","ios":"levelo://app?vid=34e0d528-49ba-4281-bb2c-97393ce94b2f"},"vehicle_type_id":"4","last_reported":1734441696,"current_range_meters":27600,"station_id":"ce4bgs92rcd13ifvqcc0","pricing_plan_id":"cebpf4jnsgd1na2vs0mg"},{"bike_id":"eee77d90-3808-4d78-a14f-c07954719075","system_id":"levelo_inurba_marseille","lat":43.30125,"lon":5.37246,"is_reserved":false,"is_disabled":false,"rental_uris":{"android":"levelo://app?vid=eee77d90-3808-4d78-a14f-c07954719075","ios":"levelo://app?vid=eee77d90-3808-4d78-a14f-c07954719075"},"vehicle_type_id":"4","last_reported":1734441696,"current_range_meters":20000,"station_id":"","pricing_plan_id":"cebpf4jnsgd1na2vs0mg"},{"bike_id":"457ef8e6-45e6-4aa5-871b-30eaf278b375","system_id":"levelo_inurba_marseille","lat":43.24073,"lon":5.37768,"is_reserved":false,"is_disabled":false,"rental_uris":{"android":"levelo://app?vid=457ef8e6-45e6-4aa5-871b-30eaf278b375","ios":"levelo://app?vid=457ef8e6-45e6-4aa5-871b-30eaf278b375"},"vehicle_type_id":"4","last_reported":1734441696,"current_range_meters":11200,"station_id":"ce4bhnp2rcd13ifvqgvg","pricing_plan_id":"cebpf4jnsgd1na2vs0mg"},{"bike_id":"b2fae302-f5eb-4bc2-b462-662e3f43cfa7","system_id":"levelo_inurba_marseille","lat":43.26942,"lon":5.40268,"is_reserved":false,"is_disabled":false,"rental_uris":{"android":"levelo://app?vid=b2fae302-f5eb-4bc2-b462-662e3f43cfa7","ios":"levelo://app?vid=b2fae302-f5eb-4bc2-b462-662e3f43cfa7"},"vehicle_type_id":"4","last_reported":1734441696,"current_range_meters":39200,"station_id":"cjm6bp8fraef2m0cb0m0","pricing_plan_id":"cebpf4jnsgd1na2vs0mg"},{"bike_id":"23acbc02-64e1-4de2-997f-200de044b21e","system_id":"levelo_inurba_marseille","lat":43.27298,"lon":5.39143,"is_reserved":false,"is_disabled":false,"rental_uris":{"android":"levelo://app?vid=23acbc02-64e1-4de2-997f-200de044b21e","ios":"levelo://app?vid=23acbc02-64e1-4de2-997f-200de044b21e"},"vehicle_type_id":"4","last_reported":1734441696,"current_range_meters":27200,"station_id":"","pricing_plan_id":"cebpf4jnsgd1na2vs0mg"},{"bike_id":"d0867c34-5d65-45d7-be9a-ceb5f1a5a786","system_id":"levelo_inurba_marseille","lat":43.31325,"lon":5.36723,"is_reserved":false,"is_disabled":false,"rental_uris":{"android":"levelo://app?vid=d0867c34-5d65-45d7-be9a-ceb5f1a5a786","ios":"levelo://app?vid=d0867c34-5d65-45d7-be9a-ceb5f1a5a786"},"vehicle_type_id":"4","last_reported":1734441696,"current_range_meters":37600,"station_id":"ce4bgr92rcd13ifvqc6g","pricing_plan_id":"cebpf4jnsgd1na2vs0mg"},{"bike_id":"a3628e7f-34e6-487b-bf65-3b8010500349","system_id":"levelo_inurba_marseille","lat":43.27049,"lon":5.4027,"is_reserved":false,"is_disabled":false,"rental_uris":{"android":"levelo://app?vid=a3628e7f-34e6-487b-bf65-3b8010500349","ios":"levelo://app?vid=a3628e7f-34e6-487b-bf65-3b8010500349"},"vehicle_type_id":"4","last_reported":1734441696,"current_range_meters":38800,"station_id":"ce4bhk92rcd13ifvqgc0","pricing_plan_id":"cebpf4jnsgd1na2vs0mg"},{"bike_id":"37d7adf1-667b-4281-8a8e-4648237fdcf8","system_id":"levelo_inurba_marseille","lat":43.25487,"lon":5.37655,"is_reserved":false,"is_disabled":false,"rental_uris":{"android":"levelo://app?vid=37d7adf1-667b-4281-8a8e-4648237fdcf8","ios":"levelo://app?vid=37d7adf1-667b-4281-8a8e-4648237fdcf8"},"vehicle_type_id":"4","last_reported":1734441696,"current_range_meters":36400,"station_id":"ce4bhh12rcd13ifvqff0","pricing_plan_id":"cebpf4jnsgd1na2vs0mg"},{"bike_id":"20358b83-225d-4ff6-8386-f5d7e4ace024","system_id":"levelo_inurba_marseille","lat":43.30003,"lon":5.37748,"is_reserved":false,"is_disabled":true,"rental_uris":{"android":"levelo://app?vid=20358b83-225d-4ff6-8386-f5d7e4ace024","ios":"levelo://app?vid=20358b83-225d-4ff6-8386-f5d7e4ace024"},"vehicle_type_id":"4","last_reported":1734441696,"current_range_meters":7200,"station_id":"","pricing_plan_id":"cebpf4jnsgd1na2vs0mg"},{"bike_id":"13132657-6aa4-4244-bd1d-3d5123a4b9b1","system_id":"levelo_inurba_marseille","lat":43.29038,"lon":5.3997,"is_reserved":false,"is_disabled":false,"rental_uris":{"android":"levelo://app?vid=13132657-6aa4-4244-bd1d-3d5123a4b9b1","ios":"levelo://app?vid=13132657-6aa4-4244-bd1d-3d5123a4b9b1"},"vehicle_type_id":"4","last_reported":1734441696,"current_range_meters":30400,"station_id":"ce4bh392rcd13ifvqdm0","pricing_plan_id":"cebpf4jnsgd1na2vs0mg"},{"bike_id":"97c72130-fbd7-4b03-80f2-44ecd5df2702","system_id":"levelo_inurba_marseille","lat":43.28505,"lon":5.35076,"is_reserved":false,"is_disabled":false,"rental_uris":{"android":"levelo://app?vid=97c72130-fbd7-4b03-80f2-44ecd5df2702","ios":"levelo://app?vid=97c72130-fbd7-4b03-80f2-44ecd5df2702"},"vehicle_type_id":"4","last_reported":1734441696,"current_range_meters":28800,"station_id":"","pricing_plan_id":"cebpf4jnsgd1na2vs0mg"},{"bike_id":"4ef58d0d-8e30-4280-aa40-6d3ae5111f3b","system_id":"levelo_inurba_marseille","lat":43.30915,"lon":5.36835,"is_reserved":false,"is_disabled":false,"rental_uris":{"android":"levelo://app?vid=4ef58d0d-8e30-4280-aa40-6d3ae5111f3b","ios":"levelo://app?vid=4ef58d0d-8e30-4280-aa40-6d3ae5111f3b"},"vehicle_type_id":"4","last_reported":1734441696,"current_range_meters":38800,"station_id":"ce4bgn92rcd13ifvqbvg","pricing_plan_id":"cebpf4jnsgd1na2vs0mg"},{"bike_id":"0a40d9dc-a2da-4522-8d3f-581dfec3f12a","system_id":"levelo_inurba_marseille","lat":43.24182,"lon":5.39722,"is_reserved":false,"is_disabled":false,"rental_uris":{"android":"levelo://app?vid=0a40d9dc-a2da-4522-8d3f-581dfec3f12a","ios":"levelo://app?vid=0a40d9dc-a2da-4522-8d3f-581dfec3f12a"},"vehicle_type_id":"4","last_reported":1734441696,"current_range_meters":18000,"station_id":"ce4bhn12rcd13ifvqgpg","pricing_plan_id":"cebpf4jnsgd1na2vs0mg"},{"bike_id":"afb8faed-965b-412e-a506-02decfaceca9","system_id":"levelo_inurba_marseille","lat":43.30537,"lon":5.367036,"is_reserved":false,"is_disabled":false,"rental_uris":{"android":"levelo://app?vid=afb8faed-965b-412e-a506-02decfaceca9","ios":"levelo://app?vid=afb8faed-965b-412e-a506-02decfaceca9"},"vehicle_type_id":"4","last_reported":1734441696,"current_range_meters":30800,"station_id":"ce4bgrp2rcd13ifvqc9g","pricing_plan_id":"cebpf4jnsgd1na2vs0mg"},{"bike_id":"c84f081f-95ac-4349-bb7a-ee90028e4aca","system_id":"levelo_inurba_marseille","lat":43.29842,"lon":5.436233,"is_reserved":false,"is_disabled":false,"rental_uris":{"android":"levelo://app?vid=c84f081f-95ac-4349-bb7a-ee90028e4aca","ios":"levelo://app?vid=c84f081f-95ac-4349-bb7a-ee90028e4aca"},"vehicle_type_id":"4","last_reported":1734441696,"current_range_meters":28800,"station_id":"ce4bhpp2rcd13ifvqhfg","pricing_plan_id":"cebpf4jnsgd1na2vs0mg"},{"bike_id":"eb0a9021-95ba-4323-9c1d-59f4e952dd11","system_id":"levelo_inurba_marseille","lat":43.29636,"lon":5.37169,"is_reserved":false,"is_disabled":false,"rental_uris":{"android":"levelo://app?vid=eb0a9021-95ba-4323-9c1d-59f4e952dd11","ios":"levelo://app?vid=eb0a9021-95ba-4323-9c1d-59f4e952dd11"},"vehicle_type_id":"4","last_reported":1734441696,"current_range_meters":38800,"station_id":"ce4bgnh2rcd13ifvqc0g","pricing_plan_id":"cebpf4jnsgd1na2vs0mg"},{"bike_id":"33a6cab6-9865-4172-8f1d-a5789e8467c5","system_id":"levelo_inurba_marseille","lat":43.33022,"lon":5.39052,"is_reserved":false,"is_disabled":false,"rental_uris":{"android":"levelo://app?vid=33a6cab6-9865-4172-8f1d-a5789e8467c5","ios":"levelo://app?vid=33a6cab6-9865-4172-8f1d-a5789e8467c5"},"vehicle_type_id":"4","last_reported":1734441696,"current_range_meters":16000,"station_id":"ce4bhr92rcd13ifvqhrg","pricing_plan_id":"cebpf4jnsgd1na2vs0mg"},{"bike_id":"aacc7da2-1446-4d2a-aa32-e804470fc32d","system_id":"levelo_inurba_marseille","lat":43.29266,"lon":5.40917,"is_reserved":false,"is_disabled":true,"rental_uris":{"android":"levelo://app?vid=aacc7da2-1446-4d2a-aa32-e804470fc32d","ios":"levelo://app?vid=aacc7da2-1446-4d2a-aa32-e804470fc32d"},"vehicle_type_id":"4","last_reported":1734441696,"current_range_meters":35200,"station_id":"","pricing_plan_id":"cebpf4jnsgd1na2vs0mg"},{"bike_id":"937c90ec-cf04-465b-97b2-ee54435829e8","system_id":"levelo_inurba_marseille","lat":43.301974,"lon":5.366212,"is_reserved":false,"is_disabled":true,"rental_uris":{"android":"levelo://app?vid=937c90ec-cf04-465b-97b2-ee54435829e8","ios":"levelo://app?vid=937c90ec-cf04-465b-97b2-ee54435829e8"},"vehicle_type_id":"4","last_reported":1734441696,"current_range_meters":31200,"station_id":"","pricing_plan_id":"cebpf4jnsgd1na2vs0mg"},{"bike_id":"d663afee-b13c-40f4-881c-b7873bf86cad","system_id":"levelo_inurba_marseille","lat":43.30413,"lon":5.36762,"is_reserved":false,"is_disabled":false,"rental_uris":{"android":"levelo://app?vid=d663afee-b13c-40f4-881c-b7873bf86cad","ios":"levelo://app?vid=d663afee-b13c-40f4-881c-b7873bf86cad"},"vehicle_type_id":"4","last_reported":1734441696,"current_range_meters":22000,"station_id":"","pricing_plan_id":"cebpf4jnsgd1na2vs0mg"},{"bike_id":"ed98adb2-4e21-414b-9678-53cfecd34d0b","system_id":"levelo_inurba_marseille","lat":43.29031,"lon":5.3815,"is_reserved":false,"is_disabled":false,"rental_uris":{"android":"levelo://app?vid=ed98adb2-4e21-414b-9678-53cfecd34d0b","ios":"levelo://app?vid=ed98adb2-4e21-414b-9678-53cfecd34d0b"},"vehicle_type_id":"4","last_reported":1734441696,"current_range_meters":19600,"station_id":"ce4bh4p2rcd13ifvqe1g","pricing_plan_id":"cebpf4jnsgd1na2vs0mg"},{"bike_id":"b8820a60-8250-4743-9b21-573dcb963498","system_id":"levelo_inurba_marseille","lat":43.26743,"lon":5.3894,"is_reserved":false,"is_disabled":false,"rental_uris":{"android":"levelo://app?vid=b8820a60-8250-4743-9b21-573dcb963498","ios":"levelo://app?vid=b8820a60-8250-4743-9b21-573dcb963498"},"vehicle_type_id":"4","last_reported":1734441696,"current_range_meters":25200,"station_id":"","pricing_plan_id":"cebpf4jnsgd1na2vs0mg"},{"bike_id":"b56c4a15-79b4-43a7-be93-f93d9975d6ed","system_id":"levelo_inurba_marseille","lat":43.26941,"lon":5.40256,"is_reserved":false,"is_disabled":false,"rental_uris":{"android":"levelo://app?vid=b56c4a15-79b4-43a7-be93-f93d9975d6ed","ios":"levelo://app?vid=b56c4a15-79b4-43a7-be93-f93d9975d6ed"},"vehicle_type_id":"4","last_reported":1734441696,"current_range_meters":16000,"station_id":"cjm6bp8fraef2m0cb0m0","pricing_plan_id":"cebpf4jnsgd1na2vs0mg"},{"bike_id":"ba49b0f4-ee48-481b-aa9b-486fd8a09eca","system_id":"levelo_inurba_marseille","lat":43.295687,"lon":5.399707,"is_reserved":false,"is_disabled":false,"rental_uris":{"android":"levelo://app?vid=ba49b0f4-ee48-481b-aa9b-486fd8a09eca","ios":"levelo://app?vid=ba49b0f4-ee48-481b-aa9b-486fd8a09eca"},"vehicle_type_id":"4","last_reported":1734441696,"current_range_meters":38000,"station_id":"ce4bh312rcd13ifvqdj0","pricing_plan_id":"cebpf4jnsgd1na2vs0mg"},{"bike_id":"dc0e6df7-295d-4e62-8939-9c7a9d49b036","system_id":"levelo_inurba_marseille","lat":43.29961,"lon":5.413214,"is_reserved":false,"is_disabled":true,"rental_uris":{"android":"levelo://app?vid=dc0e6df7-295d-4e62-8939-9c7a9d49b036","ios":"levelo://app?vid=dc0e6df7-295d-4e62-8939-9c7a9d49b036"},"vehicle_type_id":"4","last_reported":1734441696,"current_range_meters":30000,"station_id":"ce4bhp12rcd13ifvqh9g","pricing_plan_id":"cebpf4jnsgd1na2vs0mg"},{"bike_id":"aea0509b-4724-463e-a74f-1f15dc039894","system_id":"levelo_inurba_marseille","lat":43.28565,"lon":5.39493,"is_reserved":false,"is_disabled":false,"rental_uris":{"android":"levelo://app?vid=aea0509b-4724-463e-a74f-1f15dc039894","ios":"levelo://app?vid=aea0509b-4724-463e-a74f-1f15dc039894"},"vehicle_type_id":"4","last_reported":1734441696,"current_range_meters":36800,"station_id":"ce4bh292rcd13ifvqdg0","pricing_plan_id":"cebpf4jnsgd1na2vs0mg"},{"bike_id":"cf387cfa-fd06-4363-bd27-904e77e3328f","system_id":"levelo_inurba_marseille","lat":43.32511,"lon":5.4149,"is_reserved":false,"is_disabled":true,"rental_uris":{"android":"levelo://app?vid=cf387cfa-fd06-4363-bd27-904e77e3328f","ios":"levelo://app?vid=cf387cfa-fd06-4363-bd27-904e77e3328f"},"vehicle_type_id":"4","last_reported":1734441696,"current_range_meters":33200,"station_id":"ce4bhq12rcd13ifvqhhg","pricing_plan_id":"cebpf4jnsgd1na2vs0mg"},{"bike_id":"d2d0ef7a-738a-4025-b86d-99f472add6b4","system_id":"levelo_inurba_marseille","lat":43.24647,"lon":5.389,"is_reserved":false,"is_disabled":false,"rental_uris":{"android":"levelo://app?vid=d2d0ef7a-738a-4025-b86d-99f472add6b4","ios":"levelo://app?vid=d2d0ef7a-738a-4025-b86d-99f472add6b4"},"vehicle_type_id":"4","last_reported":1734441696,"current_range_meters":38800,"station_id":"ce4bhg12rcd13ifvqf60","pricing_plan_id":"cebpf4jnsgd1na2vs0mg"},{"bike_id":"d159f797-9811-4fb4-a3e8-37da34d17c4b","system_id":"levelo_inurba_marseille","lat":43.30527,"lon":5.36582,"is_reserved":false,"is_disabled":false,"rental_uris":{"android":"levelo://app?vid=d159f797-9811-4fb4-a3e8-37da34d17c4b","ios":"levelo://app?vid=d159f797-9811-4fb4-a3e8-37da34d17c4b"},"vehicle_type_id":"4","last_reported":1734441696,"current_range_meters":38800,"station_id":"ce4bgs12rcd13ifvqcag","pricing_plan_id":"cebpf4jnsgd1na2vs0mg"},{"bike_id":"162477b8-da33-4d9d-be45-0af1a3229da1","system_id":"levelo_inurba_marseille","lat":43.2969,"lon":5.37277,"is_reserved":false,"is_disabled":false,"rental_uris":{"android":"levelo://app?vid=162477b8-da33-4d9d-be45-0af1a3229da1","ios":"levelo://app?vid=162477b8-da33-4d9d-be45-0af1a3229da1"},"vehicle_type_id":"4","last_reported":1734441696,"current_range_meters":39200,"station_id":"ce4bgk12rcd13ifvqbj0","pricing_plan_id":"cebpf4jnsgd1na2vs0mg"},{"bike_id":"ea1ee0a0-f240-4d25-84d9-e6fb6fc7a18c","system_id":"levelo_inurba_marseille","lat":43.3379,"lon":5.42104,"is_reserved":false,"is_disabled":true,"rental_uris":{"android":"levelo://app?vid=ea1ee0a0-f240-4d25-84d9-e6fb6fc7a18c","ios":"levelo://app?vid=ea1ee0a0-f240-4d25-84d9-e6fb6fc7a18c"},"vehicle_type_id":"4","last_reported":1734441696,"current_range_meters":0,"station_id":"","pricing_plan_id":"cebpf4jnsgd1na2vs0mg"},{"bike_id":"146a42e3-1081-443f-8946-09f94a81a402","system_id":"levelo_inurba_marseille","lat":43.26195,"lon":5.37469,"is_reserved":false,"is_disabled":false,"rental_uris":{"android":"levelo://app?vid=146a42e3-1081-443f-8946-09f94a81a402","ios":"levelo://app?vid=146a42e3-1081-443f-8946-09f94a81a402"},"vehicle_type_id":"4","last_reported":1734441696,"current_range_meters":38000,"station_id":"ce4bhgp2rcd13ifvqfc0","pricing_plan_id":"cebpf4jnsgd1na2vs0mg"},{"bike_id":"150a1f53-80ae-42e5-9ea3-8d8cfbb6507c","system_id":"levelo_inurba_marseille","lat":43.30476,"lon":5.37902,"is_reserved":false,"is_disabled":false,"rental_uris":{"android":"levelo://app?vid=150a1f53-80ae-42e5-9ea3-8d8cfbb6507c","ios":"levelo://app?vid=150a1f53-80ae-42e5-9ea3-8d8cfbb6507c"},"vehicle_type_id":"4","last_reported":1734441696,"current_range_meters":17600,"station_id":"ce4bgup2rcd13ifvqcn0","pricing_plan_id":"cebpf4jnsgd1na2vs0mg"},{"bike_id":"a2f60cbb-aa02-4530-92a3-7597251e95e4","system_id":"levelo_inurba_marseille","lat":43.26679,"lon":5.3827,"is_reserved":false,"is_disabled":true,"rental_uris":{"android":"levelo://app?vid=a2f60cbb-aa02-4530-92a3-7597251e95e4","ios":"levelo://app?vid=a2f60cbb-aa02-4530-92a3-7597251e95e4"},"vehicle_type_id":"4","last_reported":1734441696,"current_range_meters":35200,"station_id":"ce4bhg92rcd13ifvqf90","pricing_plan_id":"cebpf4jnsgd1na2vs0mg"},{"bike_id":"c102bd8a-47ae-4fa8-bb98-08413316bf30","system_id":"levelo_inurba_marseille","lat":43.29413,"lon":5.38631,"is_reserved":false,"is_disabled":false,"rental_uris":{"android":"levelo://app?vid=c102bd8a-47ae-4fa8-bb98-08413316bf30","ios":"levelo://app?vid=c102bd8a-47ae-4fa8-bb98-08413316bf30"},"vehicle_type_id":"4","last_reported":1734441696,"current_range_meters":16000,"station_id":"ce4bh2h2rcd13ifvqdh0","pricing_plan_id":"cebpf4jnsgd1na2vs0mg"},{"bike_id":"06d0bda8-8639-4530-a035-14c055506018","system_id":"levelo_inurba_marseille","lat":43.27543,"lon":5.38445,"is_reserved":false,"is_disabled":false,"rental_uris":{"android":"levelo://app?vid=06d0bda8-8639-4530-a035-14c055506018","ios":"levelo://app?vid=06d0bda8-8639-4530-a035-14c055506018"},"vehicle_type_id":"4","last_reported":1734441696,"current_range_meters":31200,"station_id":"ce4bhh92rcd13ifvqfi0","pricing_plan_id":"cebpf4jnsgd1na2vs0mg"},{"bike_id":"00f694cf-3a25-43bc-a129-dfeee772a105","system_id":"levelo_inurba_marseille","lat":43.27052,"lon":5.40261,"is_reserved":false,"is_disabled":false,"rental_uris":{"android":"levelo://app?vid=00f694cf-3a25-43bc-a129-dfeee772a105","ios":"levelo://app?vid=00f694cf-3a25-43bc-a129-dfeee772a105"},"vehicle_type_id":"4","last_reported":1734441696,"current_range_meters":25200,"station_id":"ce4bhk92rcd13ifvqgc0","pricing_plan_id":"cebpf4jnsgd1na2vs0mg"},{"bike_id":"6ec95029-5610-4102-8867-1c5d75607c35","system_id":"levelo_inurba_marseille","lat":43.29624,"lon":5.37159,"is_reserved":false,"is_disabled":true,"rental_uris":{"android":"levelo://app?vid=6ec95029-5610-4102-8867-1c5d75607c35","ios":"levelo://app?vid=6ec95029-5610-4102-8867-1c5d75607c35"},"vehicle_type_id":"4","last_reported":1734441696,"current_range_meters":38800,"station_id":"ce4bgnh2rcd13ifvqc0g","pricing_plan_id":"cebpf4jnsgd1na2vs0mg"},{"bike_id":"9fe3d31c-9d8a-4042-b259-ae281c2b70e2","system_id":"levelo_inurba_marseille","lat":43.28675,"lon":5.38655,"is_reserved":false,"is_disabled":false,"rental_uris":{"android":"levelo://app?vid=9fe3d31c-9d8a-4042-b259-ae281c2b70e2","ios":"levelo://app?vid=9fe3d31c-9d8a-4042-b259-ae281c2b70e2"},"vehicle_type_id":"4","last_reported":1734441696,"current_range_meters":22800,"station_id":"ce4bh492rcd13ifvqdug","pricing_plan_id":"cebpf4jnsgd1na2vs0mg"},{"bike_id":"492eaa14-96e8-425f-b3df-16672f5179e1","system_id":"levelo_inurba_marseille","lat":43.25109,"lon":5.4034,"is_reserved":false,"is_disabled":true,"rental_uris":{"android":"levelo://app?vid=492eaa14-96e8-425f-b3df-16672f5179e1","ios":"levelo://app?vid=492eaa14-96e8-425f-b3df-16672f5179e1"},"vehicle_type_id":"4","last_reported":1734441696,"current_range_meters":0,"station_id":"ce4bhlh2rcd13ifvqgig","pricing_plan_id":"cebpf4jnsgd1na2vs0mg"},{"bike_id":"33f85b2c-94af-459b-8409-cc8cf3a6d228","system_id":"levelo_inurba_marseille","lat":43.26698,"lon":5.38256,"is_reserved":false,"is_disabled":false,"rental_uris":{"android":"levelo://app?vid=33f85b2c-94af-459b-8409-cc8cf3a6d228","ios":"levelo://app?vid=33f85b2c-94af-459b-8409-cc8cf3a6d228"},"vehicle_type_id":"4","last_reported":1734441696,"current_range_meters":18800,"station_id":"ce4bhg92rcd13ifvqf90","pricing_plan_id":"cebpf4jnsgd1na2vs0mg"},{"bike_id":"d2c480ff-4e48-4d30-a7e5-2123d8df0fee","system_id":"levelo_inurba_marseille","lat":43.26552,"lon":5.37292,"is_reserved":false,"is_disabled":false,"rental_uris":{"android":"levelo://app?vid=d2c480ff-4e48-4d30-a7e5-2123d8df0fee","ios":"levelo://app?vid=d2c480ff-4e48-4d30-a7e5-2123d8df0fee"},"vehicle_type_id":"4","last_reported":1734441696,"current_range_meters":36800,"station_id":"ce4bhg12rcd13ifvqf70","pricing_plan_id":"cebpf4jnsgd1na2vs0mg"},{"bike_id":"74b95188-0f2e-4404-85c7-c38dab95ce2a","system_id":"levelo_inurba_marseille","lat":43.28358,"lon":5.381,"is_reserved":false,"is_disabled":false,"rental_uris":{"android":"levelo://app?vid=74b95188-0f2e-4404-85c7-c38dab95ce2a","ios":"levelo://app?vid=74b95188-0f2e-4404-85c7-c38dab95ce2a"},"vehicle_type_id":"4","last_reported":1734441696,"current_range_meters":14400,"station_id":"ce4bh412rcd13ifvqdr0","pricing_plan_id":"cebpf4jnsgd1na2vs0mg"},{"bike_id":"8ea8a9e1-4066-451b-bf3f-15aaa73961b4","system_id":"levelo_inurba_marseille","lat":43.32548,"lon":5.41437,"is_reserved":false,"is_disabled":false,"rental_uris":{"android":"levelo://app?vid=8ea8a9e1-4066-451b-bf3f-15aaa73961b4","ios":"levelo://app?vid=8ea8a9e1-4066-451b-bf3f-15aaa73961b4"},"vehicle_type_id":"4","last_reported":1734441696,"current_range_meters":23200,"station_id":"ce4bhq12rcd13ifvqhhg","pricing_plan_id":"cebpf4jnsgd1na2vs0mg"},{"bike_id":"2b109fc5-2ad5-44d6-994f-55e37d7d8b89","system_id":"levelo_inurba_marseille","lat":43.32092,"lon":5.36788,"is_reserved":false,"is_disabled":false,"rental_uris":{"android":"levelo://app?vid=2b109fc5-2ad5-44d6-994f-55e37d7d8b89","ios":"levelo://app?vid=2b109fc5-2ad5-44d6-994f-55e37d7d8b89"},"vehicle_type_id":"4","last_reported":1734441696,"current_range_meters":34000,"station_id":"ce4bhrh2rcd13ifvqhug","pricing_plan_id":"cebpf4jnsgd1na2vs0mg"},{"bike_id":"d95b5929-d9bd-4e45-8d48-6054291d86a5","system_id":"levelo_inurba_marseille","lat":43.231551,"lon":5.43717,"is_reserved":false,"is_disabled":false,"rental_uris":{"android":"levelo://app?vid=d95b5929-d9bd-4e45-8d48-6054291d86a5","ios":"levelo://app?vid=d95b5929-d9bd-4e45-8d48-6054291d86a5"},"vehicle_type_id":"4","last_reported":1734441696,"current_range_meters":38800,"station_id":"ce4bhmp2rcd13ifvqgog","pricing_plan_id":"cebpf4jnsgd1na2vs0mg"},{"bike_id":"ffbd8e61-9b14-4ee1-914d-0ef1e36f4ec7","system_id":"levelo_inurba_marseille","lat":43.28718,"lon":5.37419,"is_reserved":false,"is_disabled":false,"rental_uris":{"android":"levelo://app?vid=ffbd8e61-9b14-4ee1-914d-0ef1e36f4ec7","ios":"levelo://app?vid=ffbd8e61-9b14-4ee1-914d-0ef1e36f4ec7"},"vehicle_type_id":"4","last_reported":1734441696,"current_range_meters":36000,"station_id":"ce4bh3p2rcd13ifvqdq0","pricing_plan_id":"cebpf4jnsgd1na2vs0mg"},{"bike_id":"5511ef13-5da9-43d6-89bf-7dc159f43f44","system_id":"levelo_inurba_marseille","lat":43.27203,"lon":5.3918,"is_reserved":false,"is_disabled":false,"rental_uris":{"android":"levelo://app?vid=5511ef13-5da9-43d6-89bf-7dc159f43f44","ios":"levelo://app?vid=5511ef13-5da9-43d6-89bf-7dc159f43f44"},"vehicle_type_id":"4","last_reported":1734441696,"current_range_meters":38000,"station_id":"ce4bhhp2rcd13ifvqfm0","pricing_plan_id":"cebpf4jnsgd1na2vs0mg"},{"bike_id":"60fdd052-49f9-462f-8d9f-0359ff5e5d73","system_id":"levelo_inurba_marseille","lat":43.30461,"lon":5.37919,"is_reserved":false,"is_disabled":false,"rental_uris":{"android":"levelo://app?vid=60fdd052-49f9-462f-8d9f-0359ff5e5d73","ios":"levelo://app?vid=60fdd052-49f9-462f-8d9f-0359ff5e5d73"},"vehicle_type_id":"4","last_reported":1734441696,"current_range_meters":38800,"station_id":"ce4bgup2rcd13ifvqcn0","pricing_plan_id":"cebpf4jnsgd1na2vs0mg"},{"bike_id":"dc5d2d5b-83f5-49a9-a889-3b3b6a487616","system_id":"levelo_inurba_marseille","lat":43.2903,"lon":5.37561,"is_reserved":false,"is_disabled":false,"rental_uris":{"android":"levelo://app?vid=dc5d2d5b-83f5-49a9-a889-3b3b6a487616","ios":"levelo://app?vid=dc5d2d5b-83f5-49a9-a889-3b3b6a487616"},"vehicle_type_id":"4","last_reported":1734441696,"current_range_meters":30000,"station_id":"ce4bh692rcd13ifvqe90","pricing_plan_id":"cebpf4jnsgd1na2vs0mg"},{"bike_id":"2efe5cd0-3061-4c4f-877d-3ab1d5f8411e","system_id":"levelo_inurba_marseille","lat":43.30539,"lon":5.3654,"is_reserved":false,"is_disabled":false,"rental_uris":{"android":"levelo://app?vid=2efe5cd0-3061-4c4f-877d-3ab1d5f8411e","ios":"levelo://app?vid=2efe5cd0-3061-4c4f-877d-3ab1d5f8411e"},"vehicle_type_id":"4","last_reported":1734441696,"current_range_meters":38800,"station_id":"ce4bgs12rcd13ifvqcag","pricing_plan_id":"cebpf4jnsgd1na2vs0mg"},{"bike_id":"4f720f2b-c111-4327-aa85-323f2f97bdbe","system_id":"levelo_inurba_marseille","lat":43.27818,"lon":5.40709,"is_reserved":false,"is_disabled":false,"rental_uris":{"android":"levelo://app?vid=4f720f2b-c111-4327-aa85-323f2f97bdbe","ios":"levelo://app?vid=4f720f2b-c111-4327-aa85-323f2f97bdbe"},"vehicle_type_id":"4","last_reported":1734441696,"current_range_meters":37600,"station_id":"ce4bhnh2rcd13ifvqgtg","pricing_plan_id":"cebpf4jnsgd1na2vs0mg"},{"bike_id":"f3411514-13b1-4194-8e25-ee687dd68439","system_id":"levelo_inurba_marseille","lat":43.30461,"lon":5.37915,"is_reserved":false,"is_disabled":false,"rental_uris":{"android":"levelo://app?vid=f3411514-13b1-4194-8e25-ee687dd68439","ios":"levelo://app?vid=f3411514-13b1-4194-8e25-ee687dd68439"},"vehicle_type_id":"4","last_reported":1734441696,"current_range_meters":26000,"station_id":"ce4bgup2rcd13ifvqcn0","pricing_plan_id":"cebpf4jnsgd1na2vs0mg"},{"bike_id":"e41489c0-88e9-4bc5-8337-0192fd797063","system_id":"levelo_inurba_marseille","lat":43.254906,"lon":5.376502,"is_reserved":false,"is_disabled":true,"rental_uris":{"android":"levelo://app?vid=e41489c0-88e9-4bc5-8337-0192fd797063","ios":"levelo://app?vid=e41489c0-88e9-4bc5-8337-0192fd797063"},"vehicle_type_id":"4","last_reported":1734441696,"current_range_meters":0,"station_id":"ce4bhh12rcd13ifvqff0","pricing_plan_id":"cebpf4jnsgd1na2vs0mg"},{"bike_id":"6d5d4483-1d56-424f-a960-f8190e42890c","system_id":"levelo_inurba_marseille","lat":43.27183,"lon":5.40993,"is_reserved":false,"is_disabled":false,"rental_uris":{"android":"levelo://app?vid=6d5d4483-1d56-424f-a960-f8190e42890c","ios":"levelo://app?vid=6d5d4483-1d56-424f-a960-f8190e42890c"},"vehicle_type_id":"4","last_reported":1734441696,"current_range_meters":10800,"station_id":"ce4bhl12rcd13ifvqgf0","pricing_plan_id":"cebpf4jnsgd1na2vs0mg"},{"bike_id":"8e5383ee-c255-42a9-a4e7-df9ae8f9efdd","system_id":"levelo_inurba_marseille","lat":43.25838,"lon":5.39418,"is_reserved":false,"is_disabled":false,"rental_uris":{"android":"levelo://app?vid=8e5383ee-c255-42a9-a4e7-df9ae8f9efdd","ios":"levelo://app?vid=8e5383ee-c255-42a9-a4e7-df9ae8f9efdd"},"vehicle_type_id":"4","last_reported":1734441696,"current_range_meters":37600,"station_id":"ce4bhip2rcd13ifvqft0","pricing_plan_id":"cebpf4jnsgd1na2vs0mg"},{"bike_id":"a74e2f2e-5305-46cf-a4a9-9eb5976ad548","system_id":"levelo_inurba_marseille","lat":43.279174,"lon":5.395798,"is_reserved":false,"is_disabled":false,"rental_uris":{"android":"levelo://app?vid=a74e2f2e-5305-46cf-a4a9-9eb5976ad548","ios":"levelo://app?vid=a74e2f2e-5305-46cf-a4a9-9eb5976ad548"},"vehicle_type_id":"4","last_reported":1734441696,"current_range_meters":4800,"station_id":"ce4bhf92rcd13ifvqf40","pricing_plan_id":"cebpf4jnsgd1na2vs0mg"},{"bike_id":"a29c4053-4b1e-4940-88cd-69a8071dfd94","system_id":"levelo_inurba_marseille","lat":43.30455,"lon":5.37921,"is_reserved":false,"is_disabled":false,"rental_uris":{"android":"levelo://app?vid=a29c4053-4b1e-4940-88cd-69a8071dfd94","ios":"levelo://app?vid=a29c4053-4b1e-4940-88cd-69a8071dfd94"},"vehicle_type_id":"4","last_reported":1734441696,"current_range_meters":27200,"station_id":"ce4bgup2rcd13ifvqcn0","pricing_plan_id":"cebpf4jnsgd1na2vs0mg"},{"bike_id":"67b8fb37-58ea-498b-8732-22a3a491a250","system_id":"levelo_inurba_marseille","lat":43.24388,"lon":5.37073,"is_reserved":false,"is_disabled":false,"rental_uris":{"android":"levelo://app?vid=67b8fb37-58ea-498b-8732-22a3a491a250","ios":"levelo://app?vid=67b8fb37-58ea-498b-8732-22a3a491a250"},"vehicle_type_id":"4","last_reported":1734441696,"current_range_meters":38800,"station_id":"ce4bhhh2rcd13ifvqfk0","pricing_plan_id":"cebpf4jnsgd1na2vs0mg"},{"bike_id":"94486c75-00f7-41da-8797-6de13a7bb0fc","system_id":"levelo_inurba_marseille","lat":43.30447,"lon":5.38894,"is_reserved":false,"is_disabled":false,"rental_uris":{"android":"levelo://app?vid=94486c75-00f7-41da-8797-6de13a7bb0fc","ios":"levelo://app?vid=94486c75-00f7-41da-8797-6de13a7bb0fc"},"vehicle_type_id":"4","last_reported":1734441696,"current_range_meters":27200,"station_id":"ce4bgk12rcd13ifvqbi0","pricing_plan_id":"cebpf4jnsgd1na2vs0mg"},{"bike_id":"0d6206c9-0edf-4c5c-913c-0c498bbd0b8b","system_id":"levelo_inurba_marseille","lat":43.29975,"lon":5.38489,"is_reserved":false,"is_disabled":false,"rental_uris":{"android":"levelo://app?vid=0d6206c9-0edf-4c5c-913c-0c498bbd0b8b","ios":"levelo://app?vid=0d6206c9-0edf-4c5c-913c-0c498bbd0b8b"},"vehicle_type_id":"4","last_reported":1734441696,"current_range_meters":36400,"station_id":"ce4bgj92rcd13ifvqbd0","pricing_plan_id":"cebpf4jnsgd1na2vs0mg"},{"bike_id":"9da19764-93c5-43d6-81b6-9b8de746f439","system_id":"levelo_inurba_marseille","lat":43.27511,"lon":5.42456,"is_reserved":false,"is_disabled":false,"rental_uris":{"android":"levelo://app?vid=9da19764-93c5-43d6-81b6-9b8de746f439","ios":"levelo://app?vid=9da19764-93c5-43d6-81b6-9b8de746f439"},"vehicle_type_id":"4","last_reported":1734441696,"current_range_meters":35600,"station_id":"ce4bhn92rcd13ifvqgrg","pricing_plan_id":"cebpf4jnsgd1na2vs0mg"},{"bike_id":"399886e1-1fd8-45ef-b9a3-f32444b7db24","system_id":"levelo_inurba_marseille","lat":43.2733,"lon":5.39085,"is_reserved":false,"is_disabled":true,"rental_uris":{"android":"levelo://app?vid=399886e1-1fd8-45ef-b9a3-f32444b7db24","ios":"levelo://app?vid=399886e1-1fd8-45ef-b9a3-f32444b7db24"},"vehicle_type_id":"4","last_reported":1734441696,"current_range_meters":35600,"station_id":"ce4bhgp2rcd13ifvqfe0","pricing_plan_id":"cebpf4jnsgd1na2vs0mg"},{"bike_id":"07a3aa7a-e28c-49f9-9a08-ef7a2fe5cc77","system_id":"levelo_inurba_marseille","lat":43.30893,"lon":5.37203,"is_reserved":false,"is_disabled":false,"rental_uris":{"android":"levelo://app?vid=07a3aa7a-e28c-49f9-9a08-ef7a2fe5cc77","ios":"levelo://app?vid=07a3aa7a-e28c-49f9-9a08-ef7a2fe5cc77"},"vehicle_type_id":"4","last_reported":1734441696,"current_range_meters":28000,"station_id":"ce4bguh2rcd13ifvqckg","pricing_plan_id":"cebpf4jnsgd1na2vs0mg"},{"bike_id":"b388d23e-aeee-462a-9576-0a9e4cccfc5a","system_id":"levelo_inurba_marseille","lat":43.29805,"lon":5.38102,"is_reserved":false,"is_disabled":false,"rental_uris":{"android":"levelo://app?vid=b388d23e-aeee-462a-9576-0a9e4cccfc5a","ios":"levelo://app?vid=b388d23e-aeee-462a-9576-0a9e4cccfc5a"},"vehicle_type_id":"4","last_reported":1734441696,"current_range_meters":32400,"station_id":"ce4bgip2rcd13ifvqbb0","pricing_plan_id":"cebpf4jnsgd1na2vs0mg"},{"bike_id":"e4792bb6-9e6d-483a-a5ae-2b1904da6da2","system_id":"levelo_inurba_marseille","lat":43.3055,"lon":5.36715,"is_reserved":false,"is_disabled":false,"rental_uris":{"android":"levelo://app?vid=e4792bb6-9e6d-483a-a5ae-2b1904da6da2","ios":"levelo://app?vid=e4792bb6-9e6d-483a-a5ae-2b1904da6da2"},"vehicle_type_id":"4","last_reported":1734441696,"current_range_meters":36000,"station_id":"ce4bgrp2rcd13ifvqc9g","pricing_plan_id":"cebpf4jnsgd1na2vs0mg"},{"bike_id":"db8f640e-f092-44c8-a991-13474782a202","system_id":"levelo_inurba_marseille","lat":43.2992,"lon":5.3747,"is_reserved":false,"is_disabled":false,"rental_uris":{"android":"levelo://app?vid=db8f640e-f092-44c8-a991-13474782a202","ios":"levelo://app?vid=db8f640e-f092-44c8-a991-13474782a202"},"vehicle_type_id":"4","last_reported":1734441696,"current_range_meters":19200,"station_id":"ce4bgjh2rcd13ifvqbg0","pricing_plan_id":"cebpf4jnsgd1na2vs0mg"},{"bike_id":"782bcbf2-b7de-4b04-bebc-aaa0329dd90c","system_id":"levelo_inurba_marseille","lat":43.23192,"lon":5.35557,"is_reserved":false,"is_disabled":false,"rental_uris":{"android":"levelo://app?vid=782bcbf2-b7de-4b04-bebc-aaa0329dd90c","ios":"levelo://app?vid=782bcbf2-b7de-4b04-bebc-aaa0329dd90c"},"vehicle_type_id":"4","last_reported":1734441696,"current_range_meters":39200,"station_id":"ce4bhu92rcd13ifvqi70","pricing_plan_id":"cebpf4jnsgd1na2vs0mg"},{"bike_id":"a925316d-9d31-43b0-a430-5cb1bef87372","system_id":"levelo_inurba_marseille","lat":43.2718,"lon":5.40992,"is_reserved":false,"is_disabled":false,"rental_uris":{"android":"levelo://app?vid=a925316d-9d31-43b0-a430-5cb1bef87372","ios":"levelo://app?vid=a925316d-9d31-43b0-a430-5cb1bef87372"},"vehicle_type_id":"4","last_reported":1734441696,"current_range_meters":25200,"station_id":"ce4bhl12rcd13ifvqgf0","pricing_plan_id":"cebpf4jnsgd1na2vs0mg"},{"bike_id":"540c19ab-e8ac-4092-909b-c3e5069b6978","system_id":"levelo_inurba_marseille","lat":43.337444,"lon":5.374475,"is_reserved":false,"is_disabled":true,"rental_uris":{"android":"levelo://app?vid=540c19ab-e8ac-4092-909b-c3e5069b6978","ios":"levelo://app?vid=540c19ab-e8ac-4092-909b-c3e5069b6978"},"vehicle_type_id":"4","last_reported":1734441696,"current_range_meters":0,"station_id":"","pricing_plan_id":"cebpf4jnsgd1na2vs0mg"},{"bike_id":"b880a085-6bba-4f3d-b1ea-70ca596fab6a","system_id":"levelo_inurba_marseille","lat":43.30457,"lon":5.37912,"is_reserved":false,"is_disabled":false,"rental_uris":{"android":"levelo://app?vid=b880a085-6bba-4f3d-b1ea-70ca596fab6a","ios":"levelo://app?vid=b880a085-6bba-4f3d-b1ea-70ca596fab6a"},"vehicle_type_id":"4","last_reported":1734441696,"current_range_meters":26000,"station_id":"ce4bgup2rcd13ifvqcn0","pricing_plan_id":"cebpf4jnsgd1na2vs0mg"},{"bike_id":"4970a14a-0951-466f-a561-ef1f2e452c87","system_id":"levelo_inurba_marseille","lat":43.29268,"lon":5.36848,"is_reserved":false,"is_disabled":false,"rental_uris":{"android":"levelo://app?vid=4970a14a-0951-466f-a561-ef1f2e452c87","ios":"levelo://app?vid=4970a14a-0951-466f-a561-ef1f2e452c87"},"vehicle_type_id":"4","last_reported":1734441696,"current_range_meters":36800,"station_id":"ce4bhbp2rcd13ifvqesg","pricing_plan_id":"cebpf4jnsgd1na2vs0mg"},{"bike_id":"d991cbff-bb8d-497c-8978-7e1daac5fd42","system_id":"levelo_inurba_marseille","lat":43.3014,"lon":5.37411,"is_reserved":false,"is_disabled":false,"rental_uris":{"android":"levelo://app?vid=d991cbff-bb8d-497c-8978-7e1daac5fd42","ios":"levelo://app?vid=d991cbff-bb8d-497c-8978-7e1daac5fd42"},"vehicle_type_id":"4","last_reported":1734441696,"current_range_meters":25200,"station_id":"ce4bgs92rcd13ifvqcc0","pricing_plan_id":"cebpf4jnsgd1na2vs0mg"},{"bike_id":"5b9dadf4-f3ef-496a-933f-556a1442196c","system_id":"levelo_inurba_marseille","lat":43.27942,"lon":5.41048,"is_reserved":false,"is_disabled":false,"rental_uris":{"android":"levelo://app?vid=5b9dadf4-f3ef-496a-933f-556a1442196c","ios":"levelo://app?vid=5b9dadf4-f3ef-496a-933f-556a1442196c"},"vehicle_type_id":"4","last_reported":1734441696,"current_range_meters":38800,"station_id":"ce4bhnp2rcd13ifvqh0g","pricing_plan_id":"cebpf4jnsgd1na2vs0mg"},{"bike_id":"8adeed2f-135b-4f23-a52b-1a86f28ba8bd","system_id":"levelo_inurba_marseille","lat":43.2955,"lon":5.38048,"is_reserved":false,"is_disabled":false,"rental_uris":{"android":"levelo://app?vid=8adeed2f-135b-4f23-a52b-1a86f28ba8bd","ios":"levelo://app?vid=8adeed2f-135b-4f23-a52b-1a86f28ba8bd"},"vehicle_type_id":"4","last_reported":1734441696,"current_range_meters":8400,"station_id":"ce4bgl12rcd13ifvqbo0","pricing_plan_id":"cebpf4jnsgd1na2vs0mg"},{"bike_id":"701e1620-31ed-4bd0-959f-3edfd6391d21","system_id":"levelo_inurba_marseille","lat":43.2953,"lon":5.39038,"is_reserved":false,"is_disabled":false,"rental_uris":{"android":"levelo://app?vid=701e1620-31ed-4bd0-959f-3edfd6391d21","ios":"levelo://app?vid=701e1620-31ed-4bd0-959f-3edfd6391d21"},"vehicle_type_id":"4","last_reported":1734441696,"current_range_meters":35200,"station_id":"ce4bh3p2rcd13ifvqdp0","pricing_plan_id":"cebpf4jnsgd1na2vs0mg"},{"bike_id":"ccd997cd-c97f-4453-bcbb-cd2b5e2e4fae","system_id":"levelo_inurba_marseille","lat":43.30152,"lon":5.37408,"is_reserved":false,"is_disabled":false,"rental_uris":{"android":"levelo://app?vid=ccd997cd-c97f-4453-bcbb-cd2b5e2e4fae","ios":"levelo://app?vid=ccd997cd-c97f-4453-bcbb-cd2b5e2e4fae"},"vehicle_type_id":"4","last_reported":1734441696,"current_range_meters":30400,"station_id":"ce4bgs92rcd13ifvqcc0","pricing_plan_id":"cebpf4jnsgd1na2vs0mg"},{"bike_id":"594d74a5-94a7-45b9-8408-a6a373448d6d","system_id":"levelo_inurba_marseille","lat":43.29213,"lon":5.36081,"is_reserved":false,"is_disabled":false,"rental_uris":{"android":"levelo://app?vid=594d74a5-94a7-45b9-8408-a6a373448d6d","ios":"levelo://app?vid=594d74a5-94a7-45b9-8408-a6a373448d6d"},"vehicle_type_id":"4","last_reported":1734441696,"current_range_meters":20000,"station_id":"ce4bhbh2rcd13ifvqeqg","pricing_plan_id":"cebpf4jnsgd1na2vs0mg"},{"bike_id":"e82f4bcc-e8c7-45fb-935b-84f0ae3e27c2","system_id":"levelo_inurba_marseille","lat":43.24543,"lon":5.3953,"is_reserved":false,"is_disabled":false,"rental_uris":{"android":"levelo://app?vid=e82f4bcc-e8c7-45fb-935b-84f0ae3e27c2","ios":"levelo://app?vid=e82f4bcc-e8c7-45fb-935b-84f0ae3e27c2"},"vehicle_type_id":"4","last_reported":1734441696,"current_range_meters":30400,"station_id":"ce4bhlp2rcd13ifvqgjg","pricing_plan_id":"cebpf4jnsgd1na2vs0mg"},{"bike_id":"ddbbfe5d-94ec-4ed2-8677-23a6e78f43c1","system_id":"levelo_inurba_marseille","lat":43.25581,"lon":5.3824,"is_reserved":false,"is_disabled":false,"rental_uris":{"android":"levelo://app?vid=ddbbfe5d-94ec-4ed2-8677-23a6e78f43c1","ios":"levelo://app?vid=ddbbfe5d-94ec-4ed2-8677-23a6e78f43c1"},"vehicle_type_id":"4","last_reported":1734441696,"current_range_meters":30400,"station_id":"ce4bhih2rcd13ifvqfs0","pricing_plan_id":"cebpf4jnsgd1na2vs0mg"},{"bike_id":"e78457d2-5037-4f7d-aa52-9e3828dd5949","system_id":"levelo_inurba_marseille","lat":43.2732,"lon":5.39082,"is_reserved":false,"is_disabled":false,"rental_uris":{"android":"levelo://app?vid=e78457d2-5037-4f7d-aa52-9e3828dd5949","ios":"levelo://app?vid=e78457d2-5037-4f7d-aa52-9e3828dd5949"},"vehicle_type_id":"4","last_reported":1734441696,"current_range_meters":9200,"station_id":"ce4bhgp2rcd13ifvqfe0","pricing_plan_id":"cebpf4jnsgd1na2vs0mg"},{"bike_id":"7dc0edfe-a296-4bed-abdc-e85f84351a6d","system_id":"levelo_inurba_marseille","lat":43.3093,"lon":5.40147,"is_reserved":false,"is_disabled":false,"rental_uris":{"android":"levelo://app?vid=7dc0edfe-a296-4bed-abdc-e85f84351a6d","ios":"levelo://app?vid=7dc0edfe-a296-4bed-abdc-e85f84351a6d"},"vehicle_type_id":"4","last_reported":1734441696,"current_range_meters":38800,"station_id":"ce4bgvp2rcd13ifvqct0","pricing_plan_id":"cebpf4jnsgd1na2vs0mg"},{"bike_id":"7ce580ac-e89e-4a20-8689-2f9dc2c49a4c","system_id":"levelo_inurba_marseille","lat":43.24646,"lon":5.38899,"is_reserved":false,"is_disabled":false,"rental_uris":{"android":"levelo://app?vid=7ce580ac-e89e-4a20-8689-2f9dc2c49a4c","ios":"levelo://app?vid=7ce580ac-e89e-4a20-8689-2f9dc2c49a4c"},"vehicle_type_id":"4","last_reported":1734441696,"current_range_meters":39200,"station_id":"ce4bhg12rcd13ifvqf60","pricing_plan_id":"cebpf4jnsgd1na2vs0mg"},{"bike_id":"c096fd4b-e881-4158-a46f-38ce1c416d1d","system_id":"levelo_inurba_marseille","lat":43.32487,"lon":5.36574,"is_reserved":false,"is_disabled":true,"rental_uris":{"android":"levelo://app?vid=c096fd4b-e881-4158-a46f-38ce1c416d1d","ios":"levelo://app?vid=c096fd4b-e881-4158-a46f-38ce1c416d1d"},"vehicle_type_id":"4","last_reported":1734441696,"current_range_meters":38800,"station_id":"ce4bhs12rcd13ifvqhvg","pricing_plan_id":"cebpf4jnsgd1na2vs0mg"},{"bike_id":"e570e38a-85d6-4b1d-89e9-03facfda4fdf","system_id":"levelo_inurba_marseille","lat":43.30541,"lon":5.3671,"is_reserved":false,"is_disabled":false,"rental_uris":{"android":"levelo://app?vid=e570e38a-85d6-4b1d-89e9-03facfda4fdf","ios":"levelo://app?vid=e570e38a-85d6-4b1d-89e9-03facfda4fdf"},"vehicle_type_id":"4","last_reported":1734441696,"current_range_meters":28000,"station_id":"ce4bgrp2rcd13ifvqc9g","pricing_plan_id":"cebpf4jnsgd1na2vs0mg"},{"bike_id":"d216b408-d1d5-413f-93dc-9b86f84d2ed2","system_id":"levelo_inurba_marseille","lat":43.30951,"lon":5.36838,"is_reserved":false,"is_disabled":false,"rental_uris":{"android":"levelo://app?vid=d216b408-d1d5-413f-93dc-9b86f84d2ed2","ios":"levelo://app?vid=d216b408-d1d5-413f-93dc-9b86f84d2ed2"},"vehicle_type_id":"4","last_reported":1734441696,"current_range_meters":12800,"station_id":"ce4bgn92rcd13ifvqbvg","pricing_plan_id":"cebpf4jnsgd1na2vs0mg"},{"bike_id":"ca3cef53-f6f1-4fb6-b3e3-2fa1c88b388e","system_id":"levelo_inurba_marseille","lat":43.29974,"lon":5.38474,"is_reserved":false,"is_disabled":false,"rental_uris":{"android":"levelo://app?vid=ca3cef53-f6f1-4fb6-b3e3-2fa1c88b388e","ios":"levelo://app?vid=ca3cef53-f6f1-4fb6-b3e3-2fa1c88b388e"},"vehicle_type_id":"4","last_reported":1734441696,"current_range_meters":28000,"station_id":"ce4bgj92rcd13ifvqbd0","pricing_plan_id":"cebpf4jnsgd1na2vs0mg"},{"bike_id":"7b767a23-32ec-4485-9cca-76cc3147b1d9","system_id":"levelo_inurba_marseille","lat":43.2791,"lon":5.39588,"is_reserved":false,"is_disabled":false,"rental_uris":{"android":"levelo://app?vid=7b767a23-32ec-4485-9cca-76cc3147b1d9","ios":"levelo://app?vid=7b767a23-32ec-4485-9cca-76cc3147b1d9"},"vehicle_type_id":"4","last_reported":1734441696,"current_range_meters":8800,"station_id":"ce4bhf92rcd13ifvqf40","pricing_plan_id":"cebpf4jnsgd1na2vs0mg"},{"bike_id":"7f4d0a38-42a3-4c3a-9ee7-287b07064630","system_id":"levelo_inurba_marseille","lat":43.28603,"lon":5.38487,"is_reserved":false,"is_disabled":true,"rental_uris":{"android":"levelo://app?vid=7f4d0a38-42a3-4c3a-9ee7-287b07064630","ios":"levelo://app?vid=7f4d0a38-42a3-4c3a-9ee7-287b07064630"},"vehicle_type_id":"4","last_reported":1734441696,"current_range_meters":0,"station_id":"","pricing_plan_id":"cebpf4jnsgd1na2vs0mg"},{"bike_id":"140b7c77-450d-4ce4-8982-6cc405fe0924","system_id":"levelo_inurba_marseille","lat":43.27969,"lon":5.41668,"is_reserved":false,"is_disabled":false,"rental_uris":{"android":"levelo://app?vid=140b7c77-450d-4ce4-8982-6cc405fe0924","ios":"levelo://app?vid=140b7c77-450d-4ce4-8982-6cc405fe0924"},"vehicle_type_id":"4","last_reported":1734441696,"current_range_meters":25600,"station_id":"ce4bho12rcd13ifvqh1g","pricing_plan_id":"cebpf4jnsgd1na2vs0mg"},{"bike_id":"644d9e0e-e6ec-4f4d-b829-fe159deabf00","system_id":"levelo_inurba_marseille","lat":43.262096,"lon":5.374383,"is_reserved":false,"is_disabled":false,"rental_uris":{"android":"levelo://app?vid=644d9e0e-e6ec-4f4d-b829-fe159deabf00","ios":"levelo://app?vid=644d9e0e-e6ec-4f4d-b829-fe159deabf00"},"vehicle_type_id":"4","last_reported":1734441696,"current_range_meters":26000,"station_id":"ce4bhgp2rcd13ifvqfc0","pricing_plan_id":"cebpf4jnsgd1na2vs0mg"},{"bike_id":"cdb0b79b-c747-49ec-9c4e-a338d34cf2bb","system_id":"levelo_inurba_marseille","lat":43.26198,"lon":5.37934,"is_reserved":false,"is_disabled":false,"rental_uris":{"android":"levelo://app?vid=cdb0b79b-c747-49ec-9c4e-a338d34cf2bb","ios":"levelo://app?vid=cdb0b79b-c747-49ec-9c4e-a338d34cf2bb"},"vehicle_type_id":"4","last_reported":1734441696,"current_range_meters":36000,"station_id":"ce4bhjp2rcd13ifvqg90","pricing_plan_id":"cebpf4jnsgd1na2vs0mg"},{"bike_id":"e7003594-66f3-4f16-8a8f-22796d18fc63","system_id":"levelo_inurba_marseille","lat":43.30533,"lon":5.36547,"is_reserved":false,"is_disabled":false,"rental_uris":{"android":"levelo://app?vid=e7003594-66f3-4f16-8a8f-22796d18fc63","ios":"levelo://app?vid=e7003594-66f3-4f16-8a8f-22796d18fc63"},"vehicle_type_id":"4","last_reported":1734441696,"current_range_meters":38800,"station_id":"ce4bgs12rcd13ifvqcag","pricing_plan_id":"cebpf4jnsgd1na2vs0mg"},{"bike_id":"901a851f-0052-4ecb-b660-1698a0036d19","system_id":"levelo_inurba_marseille","lat":43.31331,"lon":5.39706,"is_reserved":false,"is_disabled":false,"rental_uris":{"android":"levelo://app?vid=901a851f-0052-4ecb-b660-1698a0036d19","ios":"levelo://app?vid=901a851f-0052-4ecb-b660-1698a0036d19"},"vehicle_type_id":"4","last_reported":1734441696,"current_range_meters":39200,"station_id":"ce4bgvp2rcd13ifvqcu0","pricing_plan_id":"cebpf4jnsgd1na2vs0mg"},{"bike_id":"ea57f2b5-1080-44b3-b5a3-c4823a87c394","system_id":"levelo_inurba_marseille","lat":43.309523,"lon":5.390308,"is_reserved":false,"is_disabled":false,"rental_uris":{"android":"levelo://app?vid=ea57f2b5-1080-44b3-b5a3-c4823a87c394","ios":"levelo://app?vid=ea57f2b5-1080-44b3-b5a3-c4823a87c394"},"vehicle_type_id":"4","last_reported":1734441696,"current_range_meters":38800,"station_id":"ce4bgup2rcd13ifvqco0","pricing_plan_id":"cebpf4jnsgd1na2vs0mg"},{"bike_id":"4b6e1560-ae0a-4c4e-adbf-8263ae29060d","system_id":"levelo_inurba_marseille","lat":43.2706,"lon":5.40268,"is_reserved":false,"is_disabled":false,"rental_uris":{"android":"levelo://app?vid=4b6e1560-ae0a-4c4e-adbf-8263ae29060d","ios":"levelo://app?vid=4b6e1560-ae0a-4c4e-adbf-8263ae29060d"},"vehicle_type_id":"4","last_reported":1734441696,"current_range_meters":12400,"station_id":"ce4bhk92rcd13ifvqgc0","pricing_plan_id":"cebpf4jnsgd1na2vs0mg"},{"bike_id":"20ea503d-5e12-4fb4-af5c-d40361cb7a04","system_id":"levelo_inurba_marseille","lat":43.2455,"lon":5.39527,"is_reserved":false,"is_disabled":false,"rental_uris":{"android":"levelo://app?vid=20ea503d-5e12-4fb4-af5c-d40361cb7a04","ios":"levelo://app?vid=20ea503d-5e12-4fb4-af5c-d40361cb7a04"},"vehicle_type_id":"4","last_reported":1734441696,"current_range_meters":32800,"station_id":"ce4bhlp2rcd13ifvqgjg","pricing_plan_id":"cebpf4jnsgd1na2vs0mg"},{"bike_id":"ff75d46d-e841-4212-99a0-9eed40fcc1af","system_id":"levelo_inurba_marseille","lat":43.28942,"lon":5.3637,"is_reserved":false,"is_disabled":false,"rental_uris":{"android":"levelo://app?vid=ff75d46d-e841-4212-99a0-9eed40fcc1af","ios":"levelo://app?vid=ff75d46d-e841-4212-99a0-9eed40fcc1af"},"vehicle_type_id":"4","last_reported":1734441696,"current_range_meters":30400,"station_id":"ce4bhc92rcd13ifvqetg","pricing_plan_id":"cebpf4jnsgd1na2vs0mg"},{"bike_id":"61997f28-a30e-43f0-a998-8e505fc5f7e5","system_id":"levelo_inurba_marseille","lat":43.24075,"lon":5.37762,"is_reserved":false,"is_disabled":false,"rental_uris":{"android":"levelo://app?vid=61997f28-a30e-43f0-a998-8e505fc5f7e5","ios":"levelo://app?vid=61997f28-a30e-43f0-a998-8e505fc5f7e5"},"vehicle_type_id":"4","last_reported":1734441696,"current_range_meters":35600,"station_id":"ce4bhnp2rcd13ifvqgvg","pricing_plan_id":"cebpf4jnsgd1na2vs0mg"},{"bike_id":"645c7daf-6ef1-4c01-8904-078f4b7bafd4","system_id":"levelo_inurba_marseille","lat":43.29611,"lon":5.37709,"is_reserved":false,"is_disabled":true,"rental_uris":{"android":"levelo://app?vid=645c7daf-6ef1-4c01-8904-078f4b7bafd4","ios":"levelo://app?vid=645c7daf-6ef1-4c01-8904-078f4b7bafd4"},"vehicle_type_id":"4","last_reported":1734441696,"current_range_meters":0,"station_id":"ce4bgi92rcd13ifvqb90","pricing_plan_id":"cebpf4jnsgd1na2vs0mg"},{"bike_id":"aa30aa9c-0acd-467d-8909-6a05063c8ce8","system_id":"levelo_inurba_marseille","lat":43.28349,"lon":5.38112,"is_reserved":false,"is_disabled":false,"rental_uris":{"android":"levelo://app?vid=aa30aa9c-0acd-467d-8909-6a05063c8ce8","ios":"levelo://app?vid=aa30aa9c-0acd-467d-8909-6a05063c8ce8"},"vehicle_type_id":"4","last_reported":1734441696,"current_range_meters":35200,"station_id":"ce4bh412rcd13ifvqdr0","pricing_plan_id":"cebpf4jnsgd1na2vs0mg"},{"bike_id":"ea61e960-fb9c-43ef-855c-fea598d6df0e","system_id":"levelo_inurba_marseille","lat":43.29285,"lon":5.36852,"is_reserved":false,"is_disabled":false,"rental_uris":{"android":"levelo://app?vid=ea61e960-fb9c-43ef-855c-fea598d6df0e","ios":"levelo://app?vid=ea61e960-fb9c-43ef-855c-fea598d6df0e"},"vehicle_type_id":"4","last_reported":1734441696,"current_range_meters":25600,"station_id":"ce4bhbp2rcd13ifvqesg","pricing_plan_id":"cebpf4jnsgd1na2vs0mg"},{"bike_id":"ef3f3281-99c0-4ea3-b8cd-cd1660b710ba","system_id":"levelo_inurba_marseille","lat":43.29598,"lon":5.38115,"is_reserved":false,"is_disabled":false,"rental_uris":{"android":"levelo://app?vid=ef3f3281-99c0-4ea3-b8cd-cd1660b710ba","ios":"levelo://app?vid=ef3f3281-99c0-4ea3-b8cd-cd1660b710ba"},"vehicle_type_id":"4","last_reported":1734441696,"current_range_meters":36400,"station_id":"ce4bgl12rcd13ifvqbo0","pricing_plan_id":"cebpf4jnsgd1na2vs0mg"},{"bike_id":"cb71125f-f15f-4cf9-9db3-a382db86e685","system_id":"levelo_inurba_marseille","lat":43.29793,"lon":5.37126,"is_reserved":false,"is_disabled":true,"rental_uris":{"android":"levelo://app?vid=cb71125f-f15f-4cf9-9db3-a382db86e685","ios":"levelo://app?vid=cb71125f-f15f-4cf9-9db3-a382db86e685"},"vehicle_type_id":"4","last_reported":1734441696,"current_range_meters":35200,"station_id":"","pricing_plan_id":"cebpf4jnsgd1na2vs0mg"},{"bike_id":"4508be75-53db-4b57-beb6-68b4fa9b1606","system_id":"levelo_inurba_marseille","lat":43.29289,"lon":5.40897,"is_reserved":false,"is_disabled":false,"rental_uris":{"android":"levelo://app?vid=4508be75-53db-4b57-beb6-68b4fa9b1606","ios":"levelo://app?vid=4508be75-53db-4b57-beb6-68b4fa9b1606"},"vehicle_type_id":"4","last_reported":1734441696,"current_range_meters":38800,"station_id":"ce4bh192rcd13ifvqdc0","pricing_plan_id":"cebpf4jnsgd1na2vs0mg"},{"bike_id":"15337677-9ae1-4159-afdc-4f163bc8327f","system_id":"levelo_inurba_marseille","lat":43.31332,"lon":5.39702,"is_reserved":false,"is_disabled":false,"rental_uris":{"android":"levelo://app?vid=15337677-9ae1-4159-afdc-4f163bc8327f","ios":"levelo://app?vid=15337677-9ae1-4159-afdc-4f163bc8327f"},"vehicle_type_id":"4","last_reported":1734441696,"current_range_meters":35600,"station_id":"ce4bgvp2rcd13ifvqcu0","pricing_plan_id":"cebpf4jnsgd1na2vs0mg"},{"bike_id":"bb337245-7c41-4671-900b-a4d92ae562c6","system_id":"levelo_inurba_marseille","lat":43.29545,"lon":5.39027,"is_reserved":false,"is_disabled":true,"rental_uris":{"android":"levelo://app?vid=bb337245-7c41-4671-900b-a4d92ae562c6","ios":"levelo://app?vid=bb337245-7c41-4671-900b-a4d92ae562c6"},"vehicle_type_id":"4","last_reported":1734441696,"current_range_meters":6000,"station_id":"ce4bh3p2rcd13ifvqdp0","pricing_plan_id":"cebpf4jnsgd1na2vs0mg"},{"bike_id":"cde7e2f5-4860-4cf0-9bdb-0bd1e783aab6","system_id":"levelo_inurba_marseille","lat":43.30455,"lon":5.37919,"is_reserved":false,"is_disabled":false,"rental_uris":{"android":"levelo://app?vid=cde7e2f5-4860-4cf0-9bdb-0bd1e783aab6","ios":"levelo://app?vid=cde7e2f5-4860-4cf0-9bdb-0bd1e783aab6"},"vehicle_type_id":"4","last_reported":1734441696,"current_range_meters":25200,"station_id":"ce4bgup2rcd13ifvqcn0","pricing_plan_id":"cebpf4jnsgd1na2vs0mg"},{"bike_id":"7399fd58-5dfd-44fa-92b1-0692ace70e73","system_id":"levelo_inurba_marseille","lat":43.30912,"lon":5.36858,"is_reserved":false,"is_disabled":false,"rental_uris":{"android":"levelo://app?vid=7399fd58-5dfd-44fa-92b1-0692ace70e73","ios":"levelo://app?vid=7399fd58-5dfd-44fa-92b1-0692ace70e73"},"vehicle_type_id":"4","last_reported":1734441696,"current_range_meters":33200,"station_id":"ce4bgn92rcd13ifvqbvg","pricing_plan_id":"cebpf4jnsgd1na2vs0mg"},{"bike_id":"f93a5208-e2db-4a5b-9656-73a8ffdbcfa4","system_id":"levelo_inurba_marseille","lat":43.27812,"lon":5.40741,"is_reserved":false,"is_disabled":false,"rental_uris":{"android":"levelo://app?vid=f93a5208-e2db-4a5b-9656-73a8ffdbcfa4","ios":"levelo://app?vid=f93a5208-e2db-4a5b-9656-73a8ffdbcfa4"},"vehicle_type_id":"4","last_reported":1734441696,"current_range_meters":38800,"station_id":"ce4bhnh2rcd13ifvqgtg","pricing_plan_id":"cebpf4jnsgd1na2vs0mg"},{"bike_id":"eb4f9958-e332-4100-baf8-6a23414818a7","system_id":"levelo_inurba_marseille","lat":43.28736,"lon":5.37931,"is_reserved":false,"is_disabled":false,"rental_uris":{"android":"levelo://app?vid=eb4f9958-e332-4100-baf8-6a23414818a7","ios":"levelo://app?vid=eb4f9958-e332-4100-baf8-6a23414818a7"},"vehicle_type_id":"4","last_reported":1734441696,"current_range_meters":38800,"station_id":"ce4bh9p2rcd13ifvqec0","pricing_plan_id":"cebpf4jnsgd1na2vs0mg"},{"bike_id":"44ff8e7d-1339-43c2-b508-1f594ee49259","system_id":"levelo_inurba_marseille","lat":43.27914,"lon":5.39567,"is_reserved":false,"is_disabled":false,"rental_uris":{"android":"levelo://app?vid=44ff8e7d-1339-43c2-b508-1f594ee49259","ios":"levelo://app?vid=44ff8e7d-1339-43c2-b508-1f594ee49259"},"vehicle_type_id":"4","last_reported":1734441696,"current_range_meters":38000,"station_id":"ce4bhf92rcd13ifvqf40","pricing_plan_id":"cebpf4jnsgd1na2vs0mg"},{"bike_id":"efad3903-21ac-4cd9-ba9c-bf70bc007e1e","system_id":"levelo_inurba_marseille","lat":43.30245,"lon":5.40082,"is_reserved":false,"is_disabled":true,"rental_uris":{"android":"levelo://app?vid=efad3903-21ac-4cd9-ba9c-bf70bc007e1e","ios":"levelo://app?vid=efad3903-21ac-4cd9-ba9c-bf70bc007e1e"},"vehicle_type_id":"4","last_reported":1734441696,"current_range_meters":33200,"station_id":"ce4bgvh2rcd13ifvqcs0","pricing_plan_id":"cebpf4jnsgd1na2vs0mg"},{"bike_id":"ff52c0f9-5bc3-4147-97cc-1c9a6030d599","system_id":"levelo_inurba_marseille","lat":43.27068,"lon":5.4026,"is_reserved":false,"is_disabled":false,"rental_uris":{"android":"levelo://app?vid=ff52c0f9-5bc3-4147-97cc-1c9a6030d599","ios":"levelo://app?vid=ff52c0f9-5bc3-4147-97cc-1c9a6030d599"},"vehicle_type_id":"4","last_reported":1734441696,"current_range_meters":37600,"station_id":"ce4bhk92rcd13ifvqgc0","pricing_plan_id":"cebpf4jnsgd1na2vs0mg"},{"bike_id":"f648c7f7-ccef-4375-92fa-0c2d876a2e27","system_id":"levelo_inurba_marseille","lat":43.29438,"lon":5.39751,"is_reserved":false,"is_disabled":false,"rental_uris":{"android":"levelo://app?vid=f648c7f7-ccef-4375-92fa-0c2d876a2e27","ios":"levelo://app?vid=f648c7f7-ccef-4375-92fa-0c2d876a2e27"},"vehicle_type_id":"4","last_reported":1734441696,"current_range_meters":23200,"station_id":"ce4bh3h2rcd13ifvqdo0","pricing_plan_id":"cebpf4jnsgd1na2vs0mg"},{"bike_id":"fd09c9a0-87ca-418a-a75c-ca23ab9472a4","system_id":"levelo_inurba_marseille","lat":43.29031,"lon":5.38652,"is_reserved":false,"is_disabled":false,"rental_uris":{"android":"levelo://app?vid=fd09c9a0-87ca-418a-a75c-ca23ab9472a4","ios":"levelo://app?vid=fd09c9a0-87ca-418a-a75c-ca23ab9472a4"},"vehicle_type_id":"4","last_reported":1734441696,"current_range_meters":31200,"station_id":"ce4bh4p2rcd13ifvqe0g","pricing_plan_id":"cebpf4jnsgd1na2vs0mg"},{"bike_id":"eba901e5-0847-4fc0-b2b6-9eb1834c3e7a","system_id":"levelo_inurba_marseille","lat":43.29509,"lon":5.42336,"is_reserved":false,"is_disabled":true,"rental_uris":{"android":"levelo://app?vid=eba901e5-0847-4fc0-b2b6-9eb1834c3e7a","ios":"levelo://app?vid=eba901e5-0847-4fc0-b2b6-9eb1834c3e7a"},"vehicle_type_id":"4","last_reported":1734441696,"current_range_meters":0,"station_id":"","pricing_plan_id":"cebpf4jnsgd1na2vs0mg"},{"bike_id":"b3758597-4eca-4ff8-ba6d-c71bf0bd43a0","system_id":"levelo_inurba_marseille","lat":43.29609,"lon":5.38111,"is_reserved":false,"is_disabled":false,"rental_uris":{"android":"levelo://app?vid=b3758597-4eca-4ff8-ba6d-c71bf0bd43a0","ios":"levelo://app?vid=b3758597-4eca-4ff8-ba6d-c71bf0bd43a0"},"vehicle_type_id":"4","last_reported":1734441696,"current_range_meters":8000,"station_id":"ce4bgl12rcd13ifvqbo0","pricing_plan_id":"cebpf4jnsgd1na2vs0mg"},{"bike_id":"f00a63f1-ffba-457a-93eb-7ff0315f6052","system_id":"levelo_inurba_marseille","lat":43.2466,"lon":5.3816,"is_reserved":false,"is_disabled":false,"rental_uris":{"android":"levelo://app?vid=f00a63f1-ffba-457a-93eb-7ff0315f6052","ios":"levelo://app?vid=f00a63f1-ffba-457a-93eb-7ff0315f6052"},"vehicle_type_id":"4","last_reported":1734441696,"current_range_meters":37600,"station_id":"ce4bhih2rcd13ifvqfr0","pricing_plan_id":"cebpf4jnsgd1na2vs0mg"},{"bike_id":"c8d52d74-a517-47d5-af6b-a07e8057aa19","system_id":"levelo_inurba_marseille","lat":43.29912,"lon":5.38148,"is_reserved":false,"is_disabled":false,"rental_uris":{"android":"levelo://app?vid=c8d52d74-a517-47d5-af6b-a07e8057aa19","ios":"levelo://app?vid=c8d52d74-a517-47d5-af6b-a07e8057aa19"},"vehicle_type_id":"4","last_reported":1734441696,"current_range_meters":39200,"station_id":"ce4bgj12rcd13ifvqbc0","pricing_plan_id":"cebpf4jnsgd1na2vs0mg"},{"bike_id":"5b247b84-c49f-4377-8c39-f19b3f090055","system_id":"levelo_inurba_marseille","lat":43.30299,"lon":5.39205,"is_reserved":false,"is_disabled":false,"rental_uris":{"android":"levelo://app?vid=5b247b84-c49f-4377-8c39-f19b3f090055","ios":"levelo://app?vid=5b247b84-c49f-4377-8c39-f19b3f090055"},"vehicle_type_id":"4","last_reported":1734441696,"current_range_meters":25200,"station_id":"ce4bgkh2rcd13ifvqbk0","pricing_plan_id":"cebpf4jnsgd1na2vs0mg"},{"bike_id":"e70d4dff-c791-447b-a5ae-12d47e70a255","system_id":"levelo_inurba_marseille","lat":43.28838,"lon":5.35847,"is_reserved":false,"is_disabled":false,"rental_uris":{"android":"levelo://app?vid=e70d4dff-c791-447b-a5ae-12d47e70a255","ios":"levelo://app?vid=e70d4dff-c791-447b-a5ae-12d47e70a255"},"vehicle_type_id":"4","last_reported":1734441696,"current_range_meters":38400,"station_id":"ce4bhb12rcd13ifvqem0","pricing_plan_id":"cebpf4jnsgd1na2vs0mg"},{"bike_id":"5a2daf4b-5018-4575-b909-272bf976b2a3","system_id":"levelo_inurba_marseille","lat":43.30299,"lon":5.36932,"is_reserved":false,"is_disabled":false,"rental_uris":{"android":"levelo://app?vid=5a2daf4b-5018-4575-b909-272bf976b2a3","ios":"levelo://app?vid=5a2daf4b-5018-4575-b909-272bf976b2a3"},"vehicle_type_id":"4","last_reported":1734441696,"current_range_meters":27200,"station_id":"ce4bgqh2rcd13ifvqc5g","pricing_plan_id":"cebpf4jnsgd1na2vs0mg"},{"bike_id":"5a37a828-cff2-4e6d-a76c-d01bbc621389","system_id":"levelo_inurba_marseille","lat":43.23191,"lon":5.35558,"is_reserved":false,"is_disabled":false,"rental_uris":{"android":"levelo://app?vid=5a37a828-cff2-4e6d-a76c-d01bbc621389","ios":"levelo://app?vid=5a37a828-cff2-4e6d-a76c-d01bbc621389"},"vehicle_type_id":"4","last_reported":1734441696,"current_range_meters":25200,"station_id":"ce4bhu92rcd13ifvqi70","pricing_plan_id":"cebpf4jnsgd1na2vs0mg"},{"bike_id":"a1c1fbba-9f8b-4e55-a7e6-e3031108193b","system_id":"levelo_inurba_marseille","lat":43.29842,"lon":5.36273,"is_reserved":false,"is_disabled":false,"rental_uris":{"android":"levelo://app?vid=a1c1fbba-9f8b-4e55-a7e6-e3031108193b","ios":"levelo://app?vid=a1c1fbba-9f8b-4e55-a7e6-e3031108193b"},"vehicle_type_id":"4","last_reported":1734441696,"current_range_meters":38800,"station_id":"ce4bgpp2rcd13ifvqc3g","pricing_plan_id":"cebpf4jnsgd1na2vs0mg"},{"bike_id":"b57abdb9-cc85-4e1d-9f70-406aedc40d24","system_id":"levelo_inurba_marseille","lat":43.27842,"lon":5.39198,"is_reserved":false,"is_disabled":false,"rental_uris":{"android":"levelo://app?vid=b57abdb9-cc85-4e1d-9f70-406aedc40d24","ios":"levelo://app?vid=b57abdb9-cc85-4e1d-9f70-406aedc40d24"},"vehicle_type_id":"4","last_reported":1734441696,"current_range_meters":23200,"station_id":"ce4bhjp2rcd13ifvqga0","pricing_plan_id":"cebpf4jnsgd1na2vs0mg"},{"bike_id":"7b09b9f6-57e4-4e64-b193-ae73d90fdfe2","system_id":"levelo_inurba_marseille","lat":43.29905,"lon":5.38131,"is_reserved":false,"is_disabled":false,"rental_uris":{"android":"levelo://app?vid=7b09b9f6-57e4-4e64-b193-ae73d90fdfe2","ios":"levelo://app?vid=7b09b9f6-57e4-4e64-b193-ae73d90fdfe2"},"vehicle_type_id":"4","last_reported":1734441696,"current_range_meters":13600,"station_id":"ce4bgj12rcd13ifvqbc0","pricing_plan_id":"cebpf4jnsgd1na2vs0mg"},{"bike_id":"628ebc57-49da-4537-b862-e631ecd1aef0","system_id":"levelo_inurba_marseille","lat":43.2843,"lon":5.34996,"is_reserved":false,"is_disabled":false,"rental_uris":{"android":"levelo://app?vid=628ebc57-49da-4537-b862-e631ecd1aef0","ios":"levelo://app?vid=628ebc57-49da-4537-b862-e631ecd1aef0"},"vehicle_type_id":"4","last_reported":1734441696,"current_range_meters":36000,"station_id":"ce4bhbh2rcd13ifvqepg","pricing_plan_id":"cebpf4jnsgd1na2vs0mg"},{"bike_id":"fa14c4f6-c2e6-4abb-ba2e-4517716d8ccb","system_id":"levelo_inurba_marseille","lat":43.29102,"lon":5.38122,"is_reserved":false,"is_disabled":false,"rental_uris":{"android":"levelo://app?vid=fa14c4f6-c2e6-4abb-ba2e-4517716d8ccb","ios":"levelo://app?vid=fa14c4f6-c2e6-4abb-ba2e-4517716d8ccb"},"vehicle_type_id":"4","last_reported":1734441696,"current_range_meters":32400,"station_id":"ce4bh512rcd13ifvqe2g","pricing_plan_id":"cebpf4jnsgd1na2vs0mg"},{"bike_id":"d7555f75-e3a4-4132-831d-4d469450cbaf","system_id":"levelo_inurba_marseille","lat":43.3018,"lon":5.36622,"is_reserved":false,"is_disabled":false,"rental_uris":{"android":"levelo://app?vid=d7555f75-e3a4-4132-831d-4d469450cbaf","ios":"levelo://app?vid=d7555f75-e3a4-4132-831d-4d469450cbaf"},"vehicle_type_id":"4","last_reported":1734441696,"current_range_meters":22000,"station_id":"ce4bgrh2rcd13ifvqc8g","pricing_plan_id":"cebpf4jnsgd1na2vs0mg"},{"bike_id":"c82cea0a-17d3-46ce-8b0b-4fedbfb4084d","system_id":"levelo_inurba_marseille","lat":43.3096,"lon":5.39039,"is_reserved":false,"is_disabled":false,"rental_uris":{"android":"levelo://app?vid=c82cea0a-17d3-46ce-8b0b-4fedbfb4084d","ios":"levelo://app?vid=c82cea0a-17d3-46ce-8b0b-4fedbfb4084d"},"vehicle_type_id":"4","last_reported":1734441696,"current_range_meters":5600,"station_id":"ce4bgup2rcd13ifvqco0","pricing_plan_id":"cebpf4jnsgd1na2vs0mg"},{"bike_id":"4edce67b-edfa-4839-b77b-c86f69d5ebba","system_id":"levelo_inurba_marseille","lat":43.29533,"lon":5.39031,"is_reserved":false,"is_disabled":false,"rental_uris":{"android":"levelo://app?vid=4edce67b-edfa-4839-b77b-c86f69d5ebba","ios":"levelo://app?vid=4edce67b-edfa-4839-b77b-c86f69d5ebba"},"vehicle_type_id":"4","last_reported":1734441696,"current_range_meters":33200,"station_id":"ce4bh3p2rcd13ifvqdp0","pricing_plan_id":"cebpf4jnsgd1na2vs0mg"},{"bike_id":"d283b9e9-469d-4791-9530-ca9134c5a01e","system_id":"levelo_inurba_marseille","lat":43.27046,"lon":5.402744,"is_reserved":false,"is_disabled":false,"rental_uris":{"android":"levelo://app?vid=d283b9e9-469d-4791-9530-ca9134c5a01e","ios":"levelo://app?vid=d283b9e9-469d-4791-9530-ca9134c5a01e"},"vehicle_type_id":"4","last_reported":1734441696,"current_range_meters":27200,"station_id":"ce4bhk92rcd13ifvqgc0","pricing_plan_id":"cebpf4jnsgd1na2vs0mg"},{"bike_id":"2290742f-5615-4660-ac62-495e69bec5cf","system_id":"levelo_inurba_marseille","lat":43.262,"lon":5.37467,"is_reserved":false,"is_disabled":false,"rental_uris":{"android":"levelo://app?vid=2290742f-5615-4660-ac62-495e69bec5cf","ios":"levelo://app?vid=2290742f-5615-4660-ac62-495e69bec5cf"},"vehicle_type_id":"4","last_reported":1734441696,"current_range_meters":18800,"station_id":"ce4bhgp2rcd13ifvqfc0","pricing_plan_id":"cebpf4jnsgd1na2vs0mg"},{"bike_id":"a583d5b8-f029-42eb-89a3-eadd62b75d86","system_id":"levelo_inurba_marseille","lat":43.24803,"lon":5.37456,"is_reserved":false,"is_disabled":false,"rental_uris":{"android":"levelo://app?vid=a583d5b8-f029-42eb-89a3-eadd62b75d86","ios":"levelo://app?vid=a583d5b8-f029-42eb-89a3-eadd62b75d86"},"vehicle_type_id":"4","last_reported":1734441696,"current_range_meters":38800,"station_id":"ce4bhgh2rcd13ifvqfb0","pricing_plan_id":"cebpf4jnsgd1na2vs0mg"},{"bike_id":"8cadfb8a-358a-4856-9147-c3482cc7eb21","system_id":"levelo_inurba_marseille","lat":43.2743,"lon":5.39416,"is_reserved":false,"is_disabled":false,"rental_uris":{"android":"levelo://app?vid=8cadfb8a-358a-4856-9147-c3482cc7eb21","ios":"levelo://app?vid=8cadfb8a-358a-4856-9147-c3482cc7eb21"},"vehicle_type_id":"4","last_reported":1734441696,"current_range_meters":32800,"station_id":"ce4bhdp2rcd13ifvqf20","pricing_plan_id":"cebpf4jnsgd1na2vs0mg"},{"bike_id":"b341511f-7d6d-4e1c-83d0-7b47ba56eab2","system_id":"levelo_inurba_marseille","lat":43.29276,"lon":5.40133,"is_reserved":false,"is_disabled":false,"rental_uris":{"android":"levelo://app?vid=b341511f-7d6d-4e1c-83d0-7b47ba56eab2","ios":"levelo://app?vid=b341511f-7d6d-4e1c-83d0-7b47ba56eab2"},"vehicle_type_id":"4","last_reported":1734441696,"current_range_meters":36800,"station_id":"ce4bh312rcd13ifvqdk0","pricing_plan_id":"cebpf4jnsgd1na2vs0mg"},{"bike_id":"f89a7d14-0382-40fa-82ef-ba55831ac00c","system_id":"levelo_inurba_marseille","lat":43.30888,"lon":5.39655,"is_reserved":false,"is_disabled":false,"rental_uris":{"android":"levelo://app?vid=f89a7d14-0382-40fa-82ef-ba55831ac00c","ios":"levelo://app?vid=f89a7d14-0382-40fa-82ef-ba55831ac00c"},"vehicle_type_id":"4","last_reported":1734441696,"current_range_meters":22800,"station_id":"ce4bh012rcd13ifvqcv0","pricing_plan_id":"cebpf4jnsgd1na2vs0mg"},{"bike_id":"528235a9-b9e5-474f-b03e-a6d635d5793c","system_id":"levelo_inurba_marseille","lat":43.30182,"lon":5.36631,"is_reserved":false,"is_disabled":false,"rental_uris":{"android":"levelo://app?vid=528235a9-b9e5-474f-b03e-a6d635d5793c","ios":"levelo://app?vid=528235a9-b9e5-474f-b03e-a6d635d5793c"},"vehicle_type_id":"4","last_reported":1734441696,"current_range_meters":35200,"station_id":"ce4bgrh2rcd13ifvqc8g","pricing_plan_id":"cebpf4jnsgd1na2vs0mg"},{"bike_id":"198df9b9-353e-4f61-a0e0-c879f51b27ad","system_id":"levelo_inurba_marseille","lat":43.28707,"lon":5.37936,"is_reserved":false,"is_disabled":false,"rental_uris":{"android":"levelo://app?vid=198df9b9-353e-4f61-a0e0-c879f51b27ad","ios":"levelo://app?vid=198df9b9-353e-4f61-a0e0-c879f51b27ad"},"vehicle_type_id":"4","last_reported":1734441696,"current_range_meters":28000,"station_id":"ce4bh9p2rcd13ifvqec0","pricing_plan_id":"cebpf4jnsgd1na2vs0mg"},{"bike_id":"5b7548e1-f815-4513-9095-c43625969a0e","system_id":"levelo_inurba_marseille","lat":43.2984,"lon":5.36275,"is_reserved":false,"is_disabled":false,"rental_uris":{"android":"levelo://app?vid=5b7548e1-f815-4513-9095-c43625969a0e","ios":"levelo://app?vid=5b7548e1-f815-4513-9095-c43625969a0e"},"vehicle_type_id":"4","last_reported":1734441696,"current_range_meters":37600,"station_id":"ce4bgpp2rcd13ifvqc3g","pricing_plan_id":"cebpf4jnsgd1na2vs0mg"},{"bike_id":"87cc57ff-c3fd-4c8c-97a3-71773ad06acd","system_id":"levelo_inurba_marseille","lat":43.27303,"lon":5.39091,"is_reserved":false,"is_disabled":false,"rental_uris":{"android":"levelo://app?vid=87cc57ff-c3fd-4c8c-97a3-71773ad06acd","ios":"levelo://app?vid=87cc57ff-c3fd-4c8c-97a3-71773ad06acd"},"vehicle_type_id":"4","last_reported":1734441696,"current_range_meters":38800,"station_id":"ce4bhgp2rcd13ifvqfe0","pricing_plan_id":"cebpf4jnsgd1na2vs0mg"},{"bike_id":"d62ac77d-2289-4abf-97b7-04296f31e62a","system_id":"levelo_inurba_marseille","lat":43.28701,"lon":5.37399,"is_reserved":false,"is_disabled":true,"rental_uris":{"android":"levelo://app?vid=d62ac77d-2289-4abf-97b7-04296f31e62a","ios":"levelo://app?vid=d62ac77d-2289-4abf-97b7-04296f31e62a"},"vehicle_type_id":"4","last_reported":1734441696,"current_range_meters":0,"station_id":"ce4bh3p2rcd13ifvqdq0","pricing_plan_id":"cebpf4jnsgd1na2vs0mg"},{"bike_id":"aa13c468-4045-4ae4-ba9a-c13c41bc9920","system_id":"levelo_inurba_marseille","lat":43.29708,"lon":5.37707,"is_reserved":false,"is_disabled":false,"rental_uris":{"android":"levelo://app?vid=aa13c468-4045-4ae4-ba9a-c13c41bc9920","ios":"levelo://app?vid=aa13c468-4045-4ae4-ba9a-c13c41bc9920"},"vehicle_type_id":"4","last_reported":1734441696,"current_range_meters":28000,"station_id":"ce4bgkh2rcd13ifvqbl0","pricing_plan_id":"cebpf4jnsgd1na2vs0mg"},{"bike_id":"3a6f9e74-2bd6-4205-9fbb-b0f71d1abf51","system_id":"levelo_inurba_marseille","lat":43.31271,"lon":5.40172,"is_reserved":false,"is_disabled":false,"rental_uris":{"android":"levelo://app?vid=3a6f9e74-2bd6-4205-9fbb-b0f71d1abf51","ios":"levelo://app?vid=3a6f9e74-2bd6-4205-9fbb-b0f71d1abf51"},"vehicle_type_id":"4","last_reported":1734441696,"current_range_meters":30000,"station_id":"ce4bh092rcd13ifvqd30","pricing_plan_id":"cebpf4jnsgd1na2vs0mg"},{"bike_id":"12f44001-04e4-453e-b63e-db88e416537b","system_id":"levelo_inurba_marseille","lat":43.29368,"lon":5.37821,"is_reserved":false,"is_disabled":false,"rental_uris":{"android":"levelo://app?vid=12f44001-04e4-453e-b63e-db88e416537b","ios":"levelo://app?vid=12f44001-04e4-453e-b63e-db88e416537b"},"vehicle_type_id":"4","last_reported":1734441696,"current_range_meters":39200,"station_id":"ce4bgjh2rcd13ifvqbf0","pricing_plan_id":"cebpf4jnsgd1na2vs0mg"},{"bike_id":"a05fac21-a78b-4e1b-9e08-ed1afb81896d","system_id":"levelo_inurba_marseille","lat":43.30141,"lon":5.37414,"is_reserved":false,"is_disabled":false,"rental_uris":{"android":"levelo://app?vid=a05fac21-a78b-4e1b-9e08-ed1afb81896d","ios":"levelo://app?vid=a05fac21-a78b-4e1b-9e08-ed1afb81896d"},"vehicle_type_id":"4","last_reported":1734441696,"current_range_meters":38800,"station_id":"ce4bgs92rcd13ifvqcc0","pricing_plan_id":"cebpf4jnsgd1na2vs0mg"},{"bike_id":"cace6db0-fd0b-4c66-8a2d-16959507665e","system_id":"levelo_inurba_marseille","lat":43.28733,"lon":5.37923,"is_reserved":false,"is_disabled":false,"rental_uris":{"android":"levelo://app?vid=cace6db0-fd0b-4c66-8a2d-16959507665e","ios":"levelo://app?vid=cace6db0-fd0b-4c66-8a2d-16959507665e"},"vehicle_type_id":"4","last_reported":1734441696,"current_range_meters":37600,"station_id":"ce4bh9p2rcd13ifvqec0","pricing_plan_id":"cebpf4jnsgd1na2vs0mg"},{"bike_id":"cab5cb01-b33a-421c-bfaf-c7630f90de8b","system_id":"levelo_inurba_marseille","lat":43.29046,"lon":5.39961,"is_reserved":false,"is_disabled":true,"rental_uris":{"android":"levelo://app?vid=cab5cb01-b33a-421c-bfaf-c7630f90de8b","ios":"levelo://app?vid=cab5cb01-b33a-421c-bfaf-c7630f90de8b"},"vehicle_type_id":"4","last_reported":1734441696,"current_range_meters":1600,"station_id":"ce4bh392rcd13ifvqdm0","pricing_plan_id":"cebpf4jnsgd1na2vs0mg"},{"bike_id":"78f5dcee-b6ca-4cfa-ae6f-ebcf64be1236","system_id":"levelo_inurba_marseille","lat":43.323436,"lon":5.406232,"is_reserved":false,"is_disabled":true,"rental_uris":{"android":"levelo://app?vid=78f5dcee-b6ca-4cfa-ae6f-ebcf64be1236","ios":"levelo://app?vid=78f5dcee-b6ca-4cfa-ae6f-ebcf64be1236"},"vehicle_type_id":"4","last_reported":1734441696,"current_range_meters":0,"station_id":"ce4bhq92rcd13ifvqhjg","pricing_plan_id":"cebpf4jnsgd1na2vs0mg"},{"bike_id":"05509d68-15d2-4957-ab46-651338acdc24","system_id":"levelo_inurba_marseille","lat":43.29705,"lon":5.37697,"is_reserved":false,"is_disabled":false,"rental_uris":{"android":"levelo://app?vid=05509d68-15d2-4957-ab46-651338acdc24","ios":"levelo://app?vid=05509d68-15d2-4957-ab46-651338acdc24"},"vehicle_type_id":"4","last_reported":1734441696,"current_range_meters":12800,"station_id":"ce4bgkh2rcd13ifvqbl0","pricing_plan_id":"cebpf4jnsgd1na2vs0mg"},{"bike_id":"d1adb045-11f4-4330-9d2b-f77d89c262d4","system_id":"levelo_inurba_marseille","lat":43.29305,"lon":5.37177,"is_reserved":false,"is_disabled":true,"rental_uris":{"android":"levelo://app?vid=d1adb045-11f4-4330-9d2b-f77d89c262d4","ios":"levelo://app?vid=d1adb045-11f4-4330-9d2b-f77d89c262d4"},"vehicle_type_id":"4","last_reported":1734441696,"current_range_meters":36800,"station_id":"ce4bgh92rcd13ifvqb40","pricing_plan_id":"cebpf4jnsgd1na2vs0mg"},{"bike_id":"453c014e-4e66-48b4-8f05-cd5022023437","system_id":"levelo_inurba_marseille","lat":43.31354,"lon":5.38503,"is_reserved":false,"is_disabled":false,"rental_uris":{"android":"levelo://app?vid=453c014e-4e66-48b4-8f05-cd5022023437","ios":"levelo://app?vid=453c014e-4e66-48b4-8f05-cd5022023437"},"vehicle_type_id":"4","last_reported":1734441696,"current_range_meters":38000,"station_id":"ce4bgt92rcd13ifvqcf0","pricing_plan_id":"cebpf4jnsgd1na2vs0mg"},{"bike_id":"7dbef647-048e-4b11-939f-01a8d9aaa947","system_id":"levelo_inurba_marseille","lat":43.27313,"lon":5.39108,"is_reserved":false,"is_disabled":false,"rental_uris":{"android":"levelo://app?vid=7dbef647-048e-4b11-939f-01a8d9aaa947","ios":"levelo://app?vid=7dbef647-048e-4b11-939f-01a8d9aaa947"},"vehicle_type_id":"4","last_reported":1734441696,"current_range_meters":38800,"station_id":"ce4bhgp2rcd13ifvqfe0","pricing_plan_id":"cebpf4jnsgd1na2vs0mg"},{"bike_id":"9e18f598-498a-4e94-ae00-83456690d32a","system_id":"levelo_inurba_marseille","lat":43.28408,"lon":5.37517,"is_reserved":false,"is_disabled":false,"rental_uris":{"android":"levelo://app?vid=9e18f598-498a-4e94-ae00-83456690d32a","ios":"levelo://app?vid=9e18f598-498a-4e94-ae00-83456690d32a"},"vehicle_type_id":"4","last_reported":1734441696,"current_range_meters":23200,"station_id":"ce4bh412rcd13ifvqds0","pricing_plan_id":"cebpf4jnsgd1na2vs0mg"},{"bike_id":"f7289403-3eab-4aa1-9dfc-027b513bd972","system_id":"levelo_inurba_marseille","lat":43.2957,"lon":5.39983,"is_reserved":false,"is_disabled":false,"rental_uris":{"android":"levelo://app?vid=f7289403-3eab-4aa1-9dfc-027b513bd972","ios":"levelo://app?vid=f7289403-3eab-4aa1-9dfc-027b513bd972"},"vehicle_type_id":"4","last_reported":1734441696,"current_range_meters":38400,"station_id":"ce4bh312rcd13ifvqdj0","pricing_plan_id":"cebpf4jnsgd1na2vs0mg"},{"bike_id":"5b0852fb-9342-42f6-b80e-5926a9b1a149","system_id":"levelo_inurba_marseille","lat":43.29608,"lon":5.38102,"is_reserved":false,"is_disabled":false,"rental_uris":{"android":"levelo://app?vid=5b0852fb-9342-42f6-b80e-5926a9b1a149","ios":"levelo://app?vid=5b0852fb-9342-42f6-b80e-5926a9b1a149"},"vehicle_type_id":"4","last_reported":1734441696,"current_range_meters":34000,"station_id":"ce4bgl12rcd13ifvqbo0","pricing_plan_id":"cebpf4jnsgd1na2vs0mg"},{"bike_id":"d9540215-37a1-4b1c-ba6b-2198fac180b6","system_id":"levelo_inurba_marseille","lat":43.29607,"lon":5.38106,"is_reserved":false,"is_disabled":false,"rental_uris":{"android":"levelo://app?vid=d9540215-37a1-4b1c-ba6b-2198fac180b6","ios":"levelo://app?vid=d9540215-37a1-4b1c-ba6b-2198fac180b6"},"vehicle_type_id":"4","last_reported":1734441696,"current_range_meters":20400,"station_id":"ce4bgl12rcd13ifvqbo0","pricing_plan_id":"cebpf4jnsgd1na2vs0mg"},{"bike_id":"9a9ca54f-8f83-4db0-b780-a7eb0fa7f88d","system_id":"levelo_inurba_marseille","lat":43.26017,"lon":5.37562,"is_reserved":false,"is_disabled":false,"rental_uris":{"android":"levelo://app?vid=9a9ca54f-8f83-4db0-b780-a7eb0fa7f88d","ios":"levelo://app?vid=9a9ca54f-8f83-4db0-b780-a7eb0fa7f88d"},"vehicle_type_id":"4","last_reported":1734441696,"current_range_meters":37600,"station_id":"ce4bhgh2rcd13ifvqfa0","pricing_plan_id":"cebpf4jnsgd1na2vs0mg"},{"bike_id":"4cacfb0d-6982-4321-ba62-4921a371f783","system_id":"levelo_inurba_marseille","lat":43.24389,"lon":5.37063,"is_reserved":false,"is_disabled":false,"rental_uris":{"android":"levelo://app?vid=4cacfb0d-6982-4321-ba62-4921a371f783","ios":"levelo://app?vid=4cacfb0d-6982-4321-ba62-4921a371f783"},"vehicle_type_id":"4","last_reported":1734441696,"current_range_meters":38800,"station_id":"ce4bhhh2rcd13ifvqfk0","pricing_plan_id":"cebpf4jnsgd1na2vs0mg"},{"bike_id":"da57aa68-d142-42a8-a41a-f99538cb51d3","system_id":"levelo_inurba_marseille","lat":43.2893,"lon":5.36648,"is_reserved":false,"is_disabled":false,"rental_uris":{"android":"levelo://app?vid=da57aa68-d142-42a8-a41a-f99538cb51d3","ios":"levelo://app?vid=da57aa68-d142-42a8-a41a-f99538cb51d3"},"vehicle_type_id":"4","last_reported":1734441696,"current_range_meters":17200,"station_id":"ce4bhap2rcd13ifvqek0","pricing_plan_id":"cebpf4jnsgd1na2vs0mg"},{"bike_id":"2fb89adf-305b-43ac-b40a-b2c625a19cf4","system_id":"levelo_inurba_marseille","lat":43.24649,"lon":5.38906,"is_reserved":false,"is_disabled":false,"rental_uris":{"android":"levelo://app?vid=2fb89adf-305b-43ac-b40a-b2c625a19cf4","ios":"levelo://app?vid=2fb89adf-305b-43ac-b40a-b2c625a19cf4"},"vehicle_type_id":"4","last_reported":1734441696,"current_range_meters":37600,"station_id":"ce4bhg12rcd13ifvqf60","pricing_plan_id":"cebpf4jnsgd1na2vs0mg"},{"bike_id":"c219a7df-ad09-4d1f-888c-f951431d2cc1","system_id":"levelo_inurba_marseille","lat":43.28275,"lon":5.35074,"is_reserved":false,"is_disabled":false,"rental_uris":{"android":"levelo://app?vid=c219a7df-ad09-4d1f-888c-f951431d2cc1","ios":"levelo://app?vid=c219a7df-ad09-4d1f-888c-f951431d2cc1"},"vehicle_type_id":"4","last_reported":1734441696,"current_range_meters":36000,"station_id":"ce4bhbp2rcd13ifvqerg","pricing_plan_id":"cebpf4jnsgd1na2vs0mg"},{"bike_id":"d82673be-458c-44a5-8453-0b309754fd7b","system_id":"levelo_inurba_marseille","lat":43.297673,"lon":5.381204,"is_reserved":false,"is_disabled":false,"rental_uris":{"android":"levelo://app?vid=d82673be-458c-44a5-8453-0b309754fd7b","ios":"levelo://app?vid=d82673be-458c-44a5-8453-0b309754fd7b"},"vehicle_type_id":"4","last_reported":1734441696,"current_range_meters":25200,"station_id":"ce4bgip2rcd13ifvqbb0","pricing_plan_id":"cebpf4jnsgd1na2vs0mg"},{"bike_id":"b15aa783-1e17-4496-9a11-af107446aac5","system_id":"levelo_inurba_marseille","lat":43.323527,"lon":5.406105,"is_reserved":false,"is_disabled":false,"rental_uris":{"android":"levelo://app?vid=b15aa783-1e17-4496-9a11-af107446aac5","ios":"levelo://app?vid=b15aa783-1e17-4496-9a11-af107446aac5"},"vehicle_type_id":"4","last_reported":1734441696,"current_range_meters":20800,"station_id":"ce4bhq92rcd13ifvqhjg","pricing_plan_id":"cebpf4jnsgd1na2vs0mg"},{"bike_id":"1d5b2394-364b-4915-846f-db351753686f","system_id":"levelo_inurba_marseille","lat":43.28978,"lon":5.37855,"is_reserved":false,"is_disabled":false,"rental_uris":{"android":"levelo://app?vid=1d5b2394-364b-4915-846f-db351753686f","ios":"levelo://app?vid=1d5b2394-364b-4915-846f-db351753686f"},"vehicle_type_id":"4","last_reported":1734441696,"current_range_meters":35600,"station_id":"ce4bh9p2rcd13ifvqed0","pricing_plan_id":"cebpf4jnsgd1na2vs0mg"},{"bike_id":"bdf3034e-62b9-4ee0-8cec-ae18930d0c4b","system_id":"levelo_inurba_marseille","lat":43.26677,"lon":5.38281,"is_reserved":false,"is_disabled":false,"rental_uris":{"android":"levelo://app?vid=bdf3034e-62b9-4ee0-8cec-ae18930d0c4b","ios":"levelo://app?vid=bdf3034e-62b9-4ee0-8cec-ae18930d0c4b"},"vehicle_type_id":"4","last_reported":1734441696,"current_range_meters":32800,"station_id":"ce4bhg92rcd13ifvqf90","pricing_plan_id":"cebpf4jnsgd1na2vs0mg"},{"bike_id":"1434f09a-9548-45c9-abb2-bc0b397e124c","system_id":"levelo_inurba_marseille","lat":43.29916,"lon":5.37468,"is_reserved":false,"is_disabled":true,"rental_uris":{"android":"levelo://app?vid=1434f09a-9548-45c9-abb2-bc0b397e124c","ios":"levelo://app?vid=1434f09a-9548-45c9-abb2-bc0b397e124c"},"vehicle_type_id":"4","last_reported":1734441696,"current_range_meters":2000,"station_id":"ce4bgjh2rcd13ifvqbg0","pricing_plan_id":"cebpf4jnsgd1na2vs0mg"},{"bike_id":"a7e50631-2acc-463c-a7ce-21f9700b06c1","system_id":"levelo_inurba_marseille","lat":43.24066,"lon":5.37768,"is_reserved":false,"is_disabled":false,"rental_uris":{"android":"levelo://app?vid=a7e50631-2acc-463c-a7ce-21f9700b06c1","ios":"levelo://app?vid=a7e50631-2acc-463c-a7ce-21f9700b06c1"},"vehicle_type_id":"4","last_reported":1734441696,"current_range_meters":26800,"station_id":"ce4bhnp2rcd13ifvqgvg","pricing_plan_id":"cebpf4jnsgd1na2vs0mg"},{"bike_id":"0d0da633-9ce8-4910-abca-d6a18ad21253","system_id":"levelo_inurba_marseille","lat":43.30537,"lon":5.36714,"is_reserved":false,"is_disabled":false,"rental_uris":{"android":"levelo://app?vid=0d0da633-9ce8-4910-abca-d6a18ad21253","ios":"levelo://app?vid=0d0da633-9ce8-4910-abca-d6a18ad21253"},"vehicle_type_id":"4","last_reported":1734441696,"current_range_meters":35600,"station_id":"ce4bgrp2rcd13ifvqc9g","pricing_plan_id":"cebpf4jnsgd1na2vs0mg"},{"bike_id":"14a08d23-f3c3-4cdb-bad8-a3e95a65ff56","system_id":"levelo_inurba_marseille","lat":43.25132,"lon":5.40322,"is_reserved":false,"is_disabled":false,"rental_uris":{"android":"levelo://app?vid=14a08d23-f3c3-4cdb-bad8-a3e95a65ff56","ios":"levelo://app?vid=14a08d23-f3c3-4cdb-bad8-a3e95a65ff56"},"vehicle_type_id":"4","last_reported":1734441696,"current_range_meters":39200,"station_id":"ce4bhlh2rcd13ifvqgig","pricing_plan_id":"cebpf4jnsgd1na2vs0mg"},{"bike_id":"1c06df37-cafa-447f-bba3-6451f09547fe","system_id":"levelo_inurba_marseille","lat":43.30542,"lon":5.36538,"is_reserved":false,"is_disabled":false,"rental_uris":{"android":"levelo://app?vid=1c06df37-cafa-447f-bba3-6451f09547fe","ios":"levelo://app?vid=1c06df37-cafa-447f-bba3-6451f09547fe"},"vehicle_type_id":"4","last_reported":1734441696,"current_range_meters":38800,"station_id":"ce4bgs12rcd13ifvqcag","pricing_plan_id":"cebpf4jnsgd1na2vs0mg"},{"bike_id":"2b87d84c-09c5-402d-b95e-5668f6b4ae20","system_id":"levelo_inurba_marseille","lat":43.301512,"lon":5.374195,"is_reserved":false,"is_disabled":false,"rental_uris":{"android":"levelo://app?vid=2b87d84c-09c5-402d-b95e-5668f6b4ae20","ios":"levelo://app?vid=2b87d84c-09c5-402d-b95e-5668f6b4ae20"},"vehicle_type_id":"4","last_reported":1734441696,"current_range_meters":38800,"station_id":"ce4bgs92rcd13ifvqcc0","pricing_plan_id":"cebpf4jnsgd1na2vs0mg"},{"bike_id":"c8399855-72d4-4f25-aa5a-52a18924a7b8","system_id":"levelo_inurba_marseille","lat":43.24162,"lon":5.36395,"is_reserved":false,"is_disabled":false,"rental_uris":{"android":"levelo://app?vid=c8399855-72d4-4f25-aa5a-52a18924a7b8","ios":"levelo://app?vid=c8399855-72d4-4f25-aa5a-52a18924a7b8"},"vehicle_type_id":"4","last_reported":1734441696,"current_range_meters":10800,"station_id":"cpo36qri1sfpv3e86is0","pricing_plan_id":"cebpf4jnsgd1na2vs0mg"},{"bike_id":"22e80356-9c5c-41b4-9002-db558608b094","system_id":"levelo_inurba_marseille","lat":43.23149,"lon":5.43725,"is_reserved":false,"is_disabled":false,"rental_uris":{"android":"levelo://app?vid=22e80356-9c5c-41b4-9002-db558608b094","ios":"levelo://app?vid=22e80356-9c5c-41b4-9002-db558608b094"},"vehicle_type_id":"4","last_reported":1734441696,"current_range_meters":22000,"station_id":"ce4bhmp2rcd13ifvqgog","pricing_plan_id":"cebpf4jnsgd1na2vs0mg"},{"bike_id":"7e62f384-c891-4a26-8814-0f7a4db07555","system_id":"levelo_inurba_marseille","lat":43.30466,"lon":5.37919,"is_reserved":false,"is_disabled":false,"rental_uris":{"android":"levelo://app?vid=7e62f384-c891-4a26-8814-0f7a4db07555","ios":"levelo://app?vid=7e62f384-c891-4a26-8814-0f7a4db07555"},"vehicle_type_id":"4","last_reported":1734441696,"current_range_meters":30800,"station_id":"ce4bgup2rcd13ifvqcn0","pricing_plan_id":"cebpf4jnsgd1na2vs0mg"},{"bike_id":"09869dd5-12f5-45ac-899d-8394313559fa","system_id":"levelo_inurba_marseille","lat":43.30643,"lon":5.40108,"is_reserved":false,"is_disabled":false,"rental_uris":{"android":"levelo://app?vid=09869dd5-12f5-45ac-899d-8394313559fa","ios":"levelo://app?vid=09869dd5-12f5-45ac-899d-8394313559fa"},"vehicle_type_id":"4","last_reported":1734441696,"current_range_meters":38000,"station_id":"ce4bh112rcd13ifvqda0","pricing_plan_id":"cebpf4jnsgd1na2vs0mg"},{"bike_id":"aa8ad162-0fab-44f2-a72b-c4c6288ec375","system_id":"levelo_inurba_marseille","lat":43.24547,"lon":5.39534,"is_reserved":false,"is_disabled":false,"rental_uris":{"android":"levelo://app?vid=aa8ad162-0fab-44f2-a72b-c4c6288ec375","ios":"levelo://app?vid=aa8ad162-0fab-44f2-a72b-c4c6288ec375"},"vehicle_type_id":"4","last_reported":1734441696,"current_range_meters":9200,"station_id":"ce4bhlp2rcd13ifvqgjg","pricing_plan_id":"cebpf4jnsgd1na2vs0mg"},{"bike_id":"f4c3e2df-21f9-4b94-b06b-917856d2e9e5","system_id":"levelo_inurba_marseille","lat":43.23157,"lon":5.4368,"is_reserved":false,"is_disabled":false,"rental_uris":{"android":"levelo://app?vid=f4c3e2df-21f9-4b94-b06b-917856d2e9e5","ios":"levelo://app?vid=f4c3e2df-21f9-4b94-b06b-917856d2e9e5"},"vehicle_type_id":"4","last_reported":1734441696,"current_range_meters":38000,"station_id":"ce4bhmp2rcd13ifvqgog","pricing_plan_id":"cebpf4jnsgd1na2vs0mg"},{"bike_id":"5ecd70b0-ee86-4864-922e-7922f350dfa1","system_id":"levelo_inurba_marseille","lat":43.29618,"lon":5.37713,"is_reserved":false,"is_disabled":false,"rental_uris":{"android":"levelo://app?vid=5ecd70b0-ee86-4864-922e-7922f350dfa1","ios":"levelo://app?vid=5ecd70b0-ee86-4864-922e-7922f350dfa1"},"vehicle_type_id":"4","last_reported":1734441696,"current_range_meters":38000,"station_id":"ce4bgi92rcd13ifvqb90","pricing_plan_id":"cebpf4jnsgd1na2vs0mg"},{"bike_id":"17ffd64c-e130-4d12-88a8-19106c986955","system_id":"levelo_inurba_marseille","lat":43.31345,"lon":5.39698,"is_reserved":false,"is_disabled":false,"rental_uris":{"android":"levelo://app?vid=17ffd64c-e130-4d12-88a8-19106c986955","ios":"levelo://app?vid=17ffd64c-e130-4d12-88a8-19106c986955"},"vehicle_type_id":"4","last_reported":1734441696,"current_range_meters":28000,"station_id":"ce4bgvp2rcd13ifvqcu0","pricing_plan_id":"cebpf4jnsgd1na2vs0mg"},{"bike_id":"e6f842f5-fda4-4b2f-8839-a07d323cbb63","system_id":"levelo_inurba_marseille","lat":43.29797,"lon":5.381,"is_reserved":false,"is_disabled":false,"rental_uris":{"android":"levelo://app?vid=e6f842f5-fda4-4b2f-8839-a07d323cbb63","ios":"levelo://app?vid=e6f842f5-fda4-4b2f-8839-a07d323cbb63"},"vehicle_type_id":"4","last_reported":1734441696,"current_range_meters":38000,"station_id":"ce4bgip2rcd13ifvqbb0","pricing_plan_id":"cebpf4jnsgd1na2vs0mg"},{"bike_id":"79cac8ab-9224-45bc-9424-da40f08bbe21","system_id":"levelo_inurba_marseille","lat":43.28933,"lon":5.36384,"is_reserved":false,"is_disabled":false,"rental_uris":{"android":"levelo://app?vid=79cac8ab-9224-45bc-9424-da40f08bbe21","ios":"levelo://app?vid=79cac8ab-9224-45bc-9424-da40f08bbe21"},"vehicle_type_id":"4","last_reported":1734441696,"current_range_meters":32000,"station_id":"ce4bhc92rcd13ifvqetg","pricing_plan_id":"cebpf4jnsgd1na2vs0mg"},{"bike_id":"50399a28-cb9f-4ae0-9293-fc203e60e872","system_id":"levelo_inurba_marseille","lat":43.25819,"lon":5.39437,"is_reserved":false,"is_disabled":false,"rental_uris":{"android":"levelo://app?vid=50399a28-cb9f-4ae0-9293-fc203e60e872","ios":"levelo://app?vid=50399a28-cb9f-4ae0-9293-fc203e60e872"},"vehicle_type_id":"4","last_reported":1734441696,"current_range_meters":24400,"station_id":"ce4bhip2rcd13ifvqft0","pricing_plan_id":"cebpf4jnsgd1na2vs0mg"},{"bike_id":"9a627c16-2484-41cc-8c78-c8910c12e94e","system_id":"levelo_inurba_marseille","lat":43.24122,"lon":5.37729,"is_reserved":false,"is_disabled":false,"rental_uris":{"android":"levelo://app?vid=9a627c16-2484-41cc-8c78-c8910c12e94e","ios":"levelo://app?vid=9a627c16-2484-41cc-8c78-c8910c12e94e"},"vehicle_type_id":"4","last_reported":1734441696,"current_range_meters":24800,"station_id":"ce4bhnp2rcd13ifvqgvg","pricing_plan_id":"cebpf4jnsgd1na2vs0mg"},{"bike_id":"3bdb32b7-b631-4766-b385-f433a9f1f404","system_id":"levelo_inurba_marseille","lat":43.29619,"lon":5.40604,"is_reserved":false,"is_disabled":false,"rental_uris":{"android":"levelo://app?vid=3bdb32b7-b631-4766-b385-f433a9f1f404","ios":"levelo://app?vid=3bdb32b7-b631-4766-b385-f433a9f1f404"},"vehicle_type_id":"4","last_reported":1734441696,"current_range_meters":35600,"station_id":"ce4bhph2rcd13ifvqhdg","pricing_plan_id":"cebpf4jnsgd1na2vs0mg"},{"bike_id":"9bd89431-07a8-47ef-aafc-0b30c25f5c41","system_id":"levelo_inurba_marseille","lat":43.27973,"lon":5.38723,"is_reserved":false,"is_disabled":false,"rental_uris":{"android":"levelo://app?vid=9bd89431-07a8-47ef-aafc-0b30c25f5c41","ios":"levelo://app?vid=9bd89431-07a8-47ef-aafc-0b30c25f5c41"},"vehicle_type_id":"4","last_reported":1734441696,"current_range_meters":27200,"station_id":"ce4bhg12rcd13ifvqf80","pricing_plan_id":"cebpf4jnsgd1na2vs0mg"},{"bike_id":"4d1254ef-8493-469a-851c-08b756f949f3","system_id":"levelo_inurba_marseille","lat":43.2998,"lon":5.3849,"is_reserved":false,"is_disabled":false,"rental_uris":{"android":"levelo://app?vid=4d1254ef-8493-469a-851c-08b756f949f3","ios":"levelo://app?vid=4d1254ef-8493-469a-851c-08b756f949f3"},"vehicle_type_id":"4","last_reported":1734441696,"current_range_meters":36800,"station_id":"ce4bgj92rcd13ifvqbd0","pricing_plan_id":"cebpf4jnsgd1na2vs0mg"},{"bike_id":"eac4fd03-13c1-4bbe-a370-0006c3334e83","system_id":"levelo_inurba_marseille","lat":43.27677,"lon":5.38872,"is_reserved":false,"is_disabled":false,"rental_uris":{"android":"levelo://app?vid=eac4fd03-13c1-4bbe-a370-0006c3334e83","ios":"levelo://app?vid=eac4fd03-13c1-4bbe-a370-0006c3334e83"},"vehicle_type_id":"4","last_reported":1734441696,"current_range_meters":12800,"station_id":"ce4bhi12rcd13ifvqfo0","pricing_plan_id":"cebpf4jnsgd1na2vs0mg"},{"bike_id":"b2d380e8-08ed-495f-a052-5d7dfa068f5b","system_id":"levelo_inurba_marseille","lat":43.26949,"lon":5.3863,"is_reserved":false,"is_disabled":true,"rental_uris":{"android":"levelo://app?vid=b2d380e8-08ed-495f-a052-5d7dfa068f5b","ios":"levelo://app?vid=b2d380e8-08ed-495f-a052-5d7dfa068f5b"},"vehicle_type_id":"4","last_reported":1734441696,"current_range_meters":0,"station_id":"ce4bhh92rcd13ifvqfh0","pricing_plan_id":"cebpf4jnsgd1na2vs0mg"},{"bike_id":"262db747-5df7-439b-b4e7-c313a4a57308","system_id":"levelo_inurba_marseille","lat":43.27811,"lon":5.40721,"is_reserved":false,"is_disabled":false,"rental_uris":{"android":"levelo://app?vid=262db747-5df7-439b-b4e7-c313a4a57308","ios":"levelo://app?vid=262db747-5df7-439b-b4e7-c313a4a57308"},"vehicle_type_id":"4","last_reported":1734441696,"current_range_meters":19600,"station_id":"ce4bhnh2rcd13ifvqgtg","pricing_plan_id":"cebpf4jnsgd1na2vs0mg"},{"bike_id":"19fc6bf2-d5a1-43c9-b912-c79a7692f6ac","system_id":"levelo_inurba_marseille","lat":43.26676,"lon":5.38263,"is_reserved":false,"is_disabled":false,"rental_uris":{"android":"levelo://app?vid=19fc6bf2-d5a1-43c9-b912-c79a7692f6ac","ios":"levelo://app?vid=19fc6bf2-d5a1-43c9-b912-c79a7692f6ac"},"vehicle_type_id":"4","last_reported":1734441696,"current_range_meters":39200,"station_id":"ce4bhg92rcd13ifvqf90","pricing_plan_id":"cebpf4jnsgd1na2vs0mg"},{"bike_id":"85b8541f-055d-4758-b713-89e7efca49ce","system_id":"levelo_inurba_marseille","lat":43.3055,"lon":5.36561,"is_reserved":false,"is_disabled":false,"rental_uris":{"android":"levelo://app?vid=85b8541f-055d-4758-b713-89e7efca49ce","ios":"levelo://app?vid=85b8541f-055d-4758-b713-89e7efca49ce"},"vehicle_type_id":"4","last_reported":1734441696,"current_range_meters":14800,"station_id":"ce4bgs12rcd13ifvqcag","pricing_plan_id":"cebpf4jnsgd1na2vs0mg"},{"bike_id":"82f7f145-591c-4ce0-8f76-660882a2845e","system_id":"levelo_inurba_marseille","lat":43.3361,"lon":5.41053,"is_reserved":false,"is_disabled":true,"rental_uris":{"android":"levelo://app?vid=82f7f145-591c-4ce0-8f76-660882a2845e","ios":"levelo://app?vid=82f7f145-591c-4ce0-8f76-660882a2845e"},"vehicle_type_id":"4","last_reported":1734441696,"current_range_meters":35200,"station_id":"ce4bhqh2rcd13ifvqhmg","pricing_plan_id":"cebpf4jnsgd1na2vs0mg"},{"bike_id":"3cbd3730-c384-4a6b-9719-fc4f0183bbff","system_id":"levelo_inurba_marseille","lat":43.27823,"lon":5.40704,"is_reserved":false,"is_disabled":false,"rental_uris":{"android":"levelo://app?vid=3cbd3730-c384-4a6b-9719-fc4f0183bbff","ios":"levelo://app?vid=3cbd3730-c384-4a6b-9719-fc4f0183bbff"},"vehicle_type_id":"4","last_reported":1734441696,"current_range_meters":30400,"station_id":"ce4bhnh2rcd13ifvqgtg","pricing_plan_id":"cebpf4jnsgd1na2vs0mg"},{"bike_id":"141a8043-2f63-47f0-b32a-27713d46654a","system_id":"levelo_inurba_marseille","lat":43.29978,"lon":5.3849,"is_reserved":false,"is_disabled":false,"rental_uris":{"android":"levelo://app?vid=141a8043-2f63-47f0-b32a-27713d46654a","ios":"levelo://app?vid=141a8043-2f63-47f0-b32a-27713d46654a"},"vehicle_type_id":"4","last_reported":1734441696,"current_range_meters":36400,"station_id":"ce4bgj92rcd13ifvqbd0","pricing_plan_id":"cebpf4jnsgd1na2vs0mg"},{"bike_id":"ac7c5f56-daad-496c-965f-9103737000e8","system_id":"levelo_inurba_marseille","lat":43.23963,"lon":5.36656,"is_reserved":false,"is_disabled":false,"rental_uris":{"android":"levelo://app?vid=ac7c5f56-daad-496c-965f-9103737000e8","ios":"levelo://app?vid=ac7c5f56-daad-496c-965f-9103737000e8"},"vehicle_type_id":"4","last_reported":1734441696,"current_range_meters":38800,"station_id":"ce4bhi12rcd13ifvqfp0","pricing_plan_id":"cebpf4jnsgd1na2vs0mg"},{"bike_id":"30943ecb-ecb0-4ac9-9219-dc3c35f2f4ec","system_id":"levelo_inurba_marseille","lat":43.27989,"lon":5.41659,"is_reserved":false,"is_disabled":false,"rental_uris":{"android":"levelo://app?vid=30943ecb-ecb0-4ac9-9219-dc3c35f2f4ec","ios":"levelo://app?vid=30943ecb-ecb0-4ac9-9219-dc3c35f2f4ec"},"vehicle_type_id":"4","last_reported":1734441696,"current_range_meters":25600,"station_id":"ce4bho12rcd13ifvqh1g","pricing_plan_id":"cebpf4jnsgd1na2vs0mg"},{"bike_id":"677f2f20-67b1-43ae-ab0d-c86c94aad358","system_id":"levelo_inurba_marseille","lat":43.33016,"lon":5.39046,"is_reserved":false,"is_disabled":false,"rental_uris":{"android":"levelo://app?vid=677f2f20-67b1-43ae-ab0d-c86c94aad358","ios":"levelo://app?vid=677f2f20-67b1-43ae-ab0d-c86c94aad358"},"vehicle_type_id":"4","last_reported":1734441696,"current_range_meters":24000,"station_id":"ce4bhr92rcd13ifvqhrg","pricing_plan_id":"cebpf4jnsgd1na2vs0mg"},{"bike_id":"c36bdd7d-50b7-411d-93ce-da825cc15c4e","system_id":"levelo_inurba_marseille","lat":43.27909,"lon":5.39594,"is_reserved":false,"is_disabled":false,"rental_uris":{"android":"levelo://app?vid=c36bdd7d-50b7-411d-93ce-da825cc15c4e","ios":"levelo://app?vid=c36bdd7d-50b7-411d-93ce-da825cc15c4e"},"vehicle_type_id":"4","last_reported":1734441696,"current_range_meters":13600,"station_id":"ce4bhf92rcd13ifvqf40","pricing_plan_id":"cebpf4jnsgd1na2vs0mg"},{"bike_id":"c14d68a4-b85f-4300-a446-3904c2533742","system_id":"levelo_inurba_marseille","lat":43.2895,"lon":5.36398,"is_reserved":false,"is_disabled":false,"rental_uris":{"android":"levelo://app?vid=c14d68a4-b85f-4300-a446-3904c2533742","ios":"levelo://app?vid=c14d68a4-b85f-4300-a446-3904c2533742"},"vehicle_type_id":"4","last_reported":1734441696,"current_range_meters":38800,"station_id":"ce4bhc92rcd13ifvqetg","pricing_plan_id":"cebpf4jnsgd1na2vs0mg"},{"bike_id":"a1ffe168-1191-4e13-afcf-f59d984898a9","system_id":"levelo_inurba_marseille","lat":43.29851,"lon":5.36281,"is_reserved":false,"is_disabled":false,"rental_uris":{"android":"levelo://app?vid=a1ffe168-1191-4e13-afcf-f59d984898a9","ios":"levelo://app?vid=a1ffe168-1191-4e13-afcf-f59d984898a9"},"vehicle_type_id":"4","last_reported":1734441696,"current_range_meters":23200,"station_id":"ce4bgpp2rcd13ifvqc3g","pricing_plan_id":"cebpf4jnsgd1na2vs0mg"},{"bike_id":"8dc4849c-b0fa-4724-9f0f-03e202463650","system_id":"levelo_inurba_marseille","lat":43.29371,"lon":5.37852,"is_reserved":false,"is_disabled":false,"rental_uris":{"android":"levelo://app?vid=8dc4849c-b0fa-4724-9f0f-03e202463650","ios":"levelo://app?vid=8dc4849c-b0fa-4724-9f0f-03e202463650"},"vehicle_type_id":"4","last_reported":1734441696,"current_range_meters":26800,"station_id":"ce4bgjh2rcd13ifvqbf0","pricing_plan_id":"cebpf4jnsgd1na2vs0mg"},{"bike_id":"4d9d5006-b55a-4902-9f3b-b86d8e183a9b","system_id":"levelo_inurba_marseille","lat":43.31086,"lon":5.42428,"is_reserved":false,"is_disabled":false,"rental_uris":{"android":"levelo://app?vid=4d9d5006-b55a-4902-9f3b-b86d8e183a9b","ios":"levelo://app?vid=4d9d5006-b55a-4902-9f3b-b86d8e183a9b"},"vehicle_type_id":"4","last_reported":1734441696,"current_range_meters":30800,"station_id":"ce4bhp92rcd13ifvqhag","pricing_plan_id":"cebpf4jnsgd1na2vs0mg"},{"bike_id":"a9400ed1-3a24-4ecc-82f2-c241a2db1602","system_id":"levelo_inurba_marseille","lat":43.28415,"lon":5.37534,"is_reserved":false,"is_disabled":false,"rental_uris":{"android":"levelo://app?vid=a9400ed1-3a24-4ecc-82f2-c241a2db1602","ios":"levelo://app?vid=a9400ed1-3a24-4ecc-82f2-c241a2db1602"},"vehicle_type_id":"4","last_reported":1734441696,"current_range_meters":28400,"station_id":"ce4bh412rcd13ifvqds0","pricing_plan_id":"cebpf4jnsgd1na2vs0mg"},{"bike_id":"2b574b07-a744-4559-8504-3888472bed50","system_id":"levelo_inurba_marseille","lat":43.31359,"lon":5.38492,"is_reserved":false,"is_disabled":false,"rental_uris":{"android":"levelo://app?vid=2b574b07-a744-4559-8504-3888472bed50","ios":"levelo://app?vid=2b574b07-a744-4559-8504-3888472bed50"},"vehicle_type_id":"4","last_reported":1734441696,"current_range_meters":16800,"station_id":"ce4bgt92rcd13ifvqcf0","pricing_plan_id":"cebpf4jnsgd1na2vs0mg"},{"bike_id":"9baba8e5-182e-46b6-a710-73ee9b0f3024","system_id":"levelo_inurba_marseille","lat":43.25003,"lon":5.38936,"is_reserved":false,"is_disabled":false,"rental_uris":{"android":"levelo://app?vid=9baba8e5-182e-46b6-a710-73ee9b0f3024","ios":"levelo://app?vid=9baba8e5-182e-46b6-a710-73ee9b0f3024"},"vehicle_type_id":"4","last_reported":1734441696,"current_range_meters":39200,"station_id":"ce4bhgp2rcd13ifvqfd0","pricing_plan_id":"cebpf4jnsgd1na2vs0mg"},{"bike_id":"e1f0e596-4d3d-4b15-a72e-60b474dd20a1","system_id":"levelo_inurba_marseille","lat":43.29275,"lon":5.40173,"is_reserved":false,"is_disabled":false,"rental_uris":{"android":"levelo://app?vid=e1f0e596-4d3d-4b15-a72e-60b474dd20a1","ios":"levelo://app?vid=e1f0e596-4d3d-4b15-a72e-60b474dd20a1"},"vehicle_type_id":"4","last_reported":1734441696,"current_range_meters":16400,"station_id":"ce4bh312rcd13ifvqdk0","pricing_plan_id":"cebpf4jnsgd1na2vs0mg"},{"bike_id":"a05b841c-cbd3-4219-aa4f-920594972101","system_id":"levelo_inurba_marseille","lat":43.30527,"lon":5.36554,"is_reserved":false,"is_disabled":false,"rental_uris":{"android":"levelo://app?vid=a05b841c-cbd3-4219-aa4f-920594972101","ios":"levelo://app?vid=a05b841c-cbd3-4219-aa4f-920594972101"},"vehicle_type_id":"4","last_reported":1734441696,"current_range_meters":38800,"station_id":"ce4bgs12rcd13ifvqcag","pricing_plan_id":"cebpf4jnsgd1na2vs0mg"},{"bike_id":"100051f0-3959-4934-bdc1-72b02f9ada4f","system_id":"levelo_inurba_marseille","lat":43.32537,"lon":5.41451,"is_reserved":false,"is_disabled":false,"rental_uris":{"android":"levelo://app?vid=100051f0-3959-4934-bdc1-72b02f9ada4f","ios":"levelo://app?vid=100051f0-3959-4934-bdc1-72b02f9ada4f"},"vehicle_type_id":"4","last_reported":1734441696,"current_range_meters":14000,"station_id":"ce4bhq12rcd13ifvqhhg","pricing_plan_id":"cebpf4jnsgd1na2vs0mg"},{"bike_id":"9de7e3cd-0041-449e-9169-41d4d143e401","system_id":"levelo_inurba_marseille","lat":43.29274,"lon":5.36844,"is_reserved":false,"is_disabled":false,"rental_uris":{"android":"levelo://app?vid=9de7e3cd-0041-449e-9169-41d4d143e401","ios":"levelo://app?vid=9de7e3cd-0041-449e-9169-41d4d143e401"},"vehicle_type_id":"4","last_reported":1734441696,"current_range_meters":36400,"station_id":"ce4bhbp2rcd13ifvqesg","pricing_plan_id":"cebpf4jnsgd1na2vs0mg"},{"bike_id":"6cef2b53-cb8a-4eec-a3c9-3b32127e3ff6","system_id":"levelo_inurba_marseille","lat":43.2928,"lon":5.40123,"is_reserved":false,"is_disabled":false,"rental_uris":{"android":"levelo://app?vid=6cef2b53-cb8a-4eec-a3c9-3b32127e3ff6","ios":"levelo://app?vid=6cef2b53-cb8a-4eec-a3c9-3b32127e3ff6"},"vehicle_type_id":"4","last_reported":1734441696,"current_range_meters":22000,"station_id":"ce4bh312rcd13ifvqdk0","pricing_plan_id":"cebpf4jnsgd1na2vs0mg"},{"bike_id":"b3a108c8-12f3-49d8-a89a-f5dfcdedbb6e","system_id":"levelo_inurba_marseille","lat":43.27064,"lon":5.40266,"is_reserved":false,"is_disabled":false,"rental_uris":{"android":"levelo://app?vid=b3a108c8-12f3-49d8-a89a-f5dfcdedbb6e","ios":"levelo://app?vid=b3a108c8-12f3-49d8-a89a-f5dfcdedbb6e"},"vehicle_type_id":"4","last_reported":1734441696,"current_range_meters":34000,"station_id":"ce4bhk92rcd13ifvqgc0","pricing_plan_id":"cebpf4jnsgd1na2vs0mg"},{"bike_id":"525d55ae-bf3c-4557-8b37-12236b10d9f0","system_id":"levelo_inurba_marseille","lat":43.3149,"lon":5.37308,"is_reserved":false,"is_disabled":false,"rental_uris":{"android":"levelo://app?vid=525d55ae-bf3c-4557-8b37-12236b10d9f0","ios":"levelo://app?vid=525d55ae-bf3c-4557-8b37-12236b10d9f0"},"vehicle_type_id":"4","last_reported":1734441696,"current_range_meters":38800,"station_id":"ce4bgt12rcd13ifvqcd0","pricing_plan_id":"cebpf4jnsgd1na2vs0mg"},{"bike_id":"823ce0a8-3b81-4290-83db-c28c03044dbb","system_id":"levelo_inurba_marseille","lat":43.3056,"lon":5.38423,"is_reserved":false,"is_disabled":false,"rental_uris":{"android":"levelo://app?vid=823ce0a8-3b81-4290-83db-c28c03044dbb","ios":"levelo://app?vid=823ce0a8-3b81-4290-83db-c28c03044dbb"},"vehicle_type_id":"4","last_reported":1734441696,"current_range_meters":9200,"station_id":"ce4bgg92rcd13ifvqb30","pricing_plan_id":"cebpf4jnsgd1na2vs0mg"},{"bike_id":"4a0dde94-8ac7-47a8-8031-b08f884c92b8","system_id":"levelo_inurba_marseille","lat":43.28357,"lon":5.38099,"is_reserved":false,"is_disabled":false,"rental_uris":{"android":"levelo://app?vid=4a0dde94-8ac7-47a8-8031-b08f884c92b8","ios":"levelo://app?vid=4a0dde94-8ac7-47a8-8031-b08f884c92b8"},"vehicle_type_id":"4","last_reported":1734441696,"current_range_meters":28800,"station_id":"ce4bh412rcd13ifvqdr0","pricing_plan_id":"cebpf4jnsgd1na2vs0mg"},