{"last_updated":1740733809,"ttl":60,"version":"2.2","data":{"bikes":[{"bike_id":"d440d18c-f813-4254-b851-fbe74cf9f883","system_id":"levelo_inurba_marseille","lat":43.31404,"lon":5.36659,"is_reserved":false,"is_disabled":true,"rental_uris":{"android":"levelo://app?vid=d440d18c-f813-4254-b851-fbe74cf9f883","ios":"levelo://app?vid=d440d18c-f813-4254-b851-fbe74cf9f883"},"vehicle_type_id":"4","last_reported":1740733810,"current_range_meters":0,"station_id":"","pricing_plan_id":"cebpf4jnsgd1na2vs0mg"},{"bike_id":"23aedf73-ef62-4d29-8662-d09c061e3b39","system_id":"levelo_inurba_marseille","lat":43.31065,"lon":5.38169,"is_reserved":false,"is_disabled":true,"rental_uris":{"android":"levelo://app?vid=23aedf73-ef62-4d29-8662-d09c061e3b39","ios":"levelo://app?vid=23aedf73-ef62-4d29-8662-d09c061e3b39"},"vehicle_type_id":"4","last_reported":1740733810,"current_range_meters":0,"station_id":"","pricing_plan_id":"cebpf4jnsgd1na2vs0mg"},{"bike_id":"32d39ccd-0c40-4cda-a0e5-98cc976b3566","system_id":"levelo_inurba_marseille","lat":43.23702,"lon":5.43597,"is_reserved":false,"is_disabled":true,"rental_uris":{"android":"levelo://app?vid=32d39ccd-0c40-4cda-a0e5-98cc976b3566","ios":"levelo://app?vid=32d39ccd-0c40-4cda-a0e5-98cc976b3566"},"vehicle_type_id":"4","last_reported":1740733810,"current_range_meters":0,"station_id":"","pricing_plan_id":"cebpf4jnsgd1na2vs0mg"},{"bike_id":"603921e0-6044-49e8-9b03-4e16114fa47a","system_id":"levelo_inurba_marseille","lat":43.27735,"lon":5.38868,"is_reserved":false,"is_disabled":true,"rental_uris":{"android":"levelo://app?vid=603921e0-6044-49e8-9b03-4e16114fa47a","ios":"levelo://app?vid=603921e0-6044-49e8-9b03-4e16114fa47a"},"vehicle_type_id":"4","last_reported":1740733810,"current_range_meters":0,"station_id":"","pricing_plan_id":"cebpf4jnsgd1na2vs0mg"},{"bike_id":"b5368874-e19e-4e33-8e44-b3ac25e43af6","system_id":"levelo_inurba_marseille","lat":43.31314,"lon":5.37082,"is_reserved":false,"is_disabled":true,"rental_uris":{"android":"levelo://app?vid=b5368874-e19e-4e33-8e44-b3ac25e43af6","ios":"levelo://app?vid=b5368874-e19e-4e33-8e44-b3ac25e43af6"},"vehicle_type_id":"4","last_reported":1740733810,"current_range_meters":0,"station_id":"","pricing_plan_id":"cebpf4jnsgd1na2vs0mg"},{"bike_id":"63aaeff2-04ac-41c6-b91a-ac051892a521","system_id":"levelo_inurba_marseille","lat":43.28398,"lon":5.36143,"is_reserved":false,"is_disabled":true,"rental_uris":{"android":"levelo://app?vid=63aaeff2-04ac-41c6-b91a-ac051892a521","ios":"levelo://app?vid=63aaeff2-04ac-41c6-b91a-ac051892a521"},"vehicle_type_id":"4","last_reported":1740733810,"current_range_meters":0,"station_id":"","pricing_plan_id":"cebpf4jnsgd1na2vs0mg"},{"bike_id":"13a2d3e9-8b93-4966-9b3e-92a29a5a031b","system_id":"levelo_inurba_marseille","lat":43.32278,"lon":5.37443,"is_reserved":false,"is_disabled":true,"rental_uris":{"android":"levelo://app?vid=13a2d3e9-8b93-4966-9b3e-92a29a5a031b","ios":"levelo://app?vid=13a2d3e9-8b93-4966-9b3e-92a29a5a031b"},"vehicle_type_id":"4","last_reported":1740733810,"current_range_meters":0,"station_id":"","pricing_plan_id":"cebpf4jnsgd1na2vs0mg"},{"bike_id":"fa08e831-60b7-4509-9c1d-eb9bf363b9ce","system_id":"levelo_inurba_marseille","lat":43.30143,"lon":5.38077,"is_reserved":false,"is_disabled":true,"rental_uris":{"android":"levelo://app?vid=fa08e831-60b7-4509-9c1d-eb9bf363b9ce","ios":"levelo://app?vid=fa08e831-60b7-4509-9c1d-eb9bf363b9ce"},"vehicle_type_id":"4","last_reported":1740733810,"current_range_meters":0,"station_id":"ce4bgjp2rcd13ifvqbh0","pricing_plan_id":"cebpf4jnsgd1na2vs0mg"},{"bike_id":"028446a8-c94b-4efe-8b78-eb9201214e19","system_id":"levelo_inurba_marseille","lat":43.30526,"lon":5.36708,"is_reserved":false,"is_disabled":true,"rental_uris":{"android":"levelo://app?vid=028446a8-c94b-4efe-8b78-eb9201214e19","ios":"levelo://app?vid=028446a8-c94b-4efe-8b78-eb9201214e19"},"vehicle_type_id":"4","last_reported":1740733810,"current_range_meters":0,"station_id":"ce4bgrp2rcd13ifvqc9g","pricing_plan_id":"cebpf4jnsgd1na2vs0mg"},{"bike_id":"0dc32ec3-4fe6-4aff-9074-665fa0019546","system_id":"levelo_inurba_marseille","lat":43.28554,"lon":5.395,"is_reserved":false,"is_disabled":true,"rental_uris":{"android":"levelo://app?vid=0dc32ec3-4fe6-4aff-9074-665fa0019546","ios":"levelo://app?vid=0dc32ec3-4fe6-4aff-9074-665fa0019546"},"vehicle_type_id":"4","last_reported":1740733810,"current_range_meters":0,"station_id":"ce4bh292rcd13ifvqdg0","pricing_plan_id":"cebpf4jnsgd1na2vs0mg"},{"bike_id":"083b9a41-c7ed-4a52-9342-97e2b6b9e1c7","system_id":"levelo_inurba_marseille","lat":43.29031,"lon":5.38642,"is_reserved":false,"is_disabled":true,"rental_uris":{"android":"levelo://app?vid=083b9a41-c7ed-4a52-9342-97e2b6b9e1c7","ios":"levelo://app?vid=083b9a41-c7ed-4a52-9342-97e2b6b9e1c7"},"vehicle_type_id":"4","last_reported":1740733810,"current_range_meters":0,"station_id":"ce4bh4p2rcd13ifvqe0g","pricing_plan_id":"cebpf4jnsgd1na2vs0mg"},{"bike_id":"33efc386-ba10-4265-a830-5627e15813f1","system_id":"levelo_inurba_marseille","lat":43.2925,"lon":5.38459,"is_reserved":false,"is_disabled":true,"rental_uris":{"android":"levelo://app?vid=33efc386-ba10-4265-a830-5627e15813f1","ios":"levelo://app?vid=33efc386-ba10-4265-a830-5627e15813f1"},"vehicle_type_id":"4","last_reported":1740733810,"current_range_meters":0,"station_id":"ce4bh692rcd13ifvqea0","pricing_plan_id":"cebpf4jnsgd1na2vs0mg"},{"bike_id":"243d9570-7102-4599-a968-95d4bb28725e","system_id":"levelo_inurba_marseille","lat":43.28448,"lon":5.3589,"is_reserved":false,"is_disabled":true,"rental_uris":{"android":"levelo://app?vid=243d9570-7102-4599-a968-95d4bb28725e","ios":"levelo://app?vid=243d9570-7102-4599-a968-95d4bb28725e"},"vehicle_type_id":"4","last_reported":1740733810,"current_range_meters":0,"station_id":"ce4bhah2rcd13ifvqei0","pricing_plan_id":"cebpf4jnsgd1na2vs0mg"},{"bike_id":"8324e96e-3135-44ce-afe4-d1d1eaee0ecf","system_id":"levelo_inurba_marseille","lat":43.28626,"lon":5.35092,"is_reserved":false,"is_disabled":true,"rental_uris":{"android":"levelo://app?vid=8324e96e-3135-44ce-afe4-d1d1eaee0ecf","ios":"levelo://app?vid=8324e96e-3135-44ce-afe4-d1d1eaee0ecf"},"vehicle_type_id":"4","last_reported":1740733810,"current_range_meters":0,"station_id":"ce4bhch2rcd13ifvqeug","pricing_plan_id":"cebpf4jnsgd1na2vs0mg"},{"bike_id":"02eb9008-abd0-404c-bc19-3633963a8bd8","system_id":"levelo_inurba_marseille","lat":43.26052,"lon":5.37572,"is_reserved":false,"is_disabled":true,"rental_uris":{"android":"levelo://app?vid=02eb9008-abd0-404c-bc19-3633963a8bd8","ios":"levelo://app?vid=02eb9008-abd0-404c-bc19-3633963a8bd8"},"vehicle_type_id":"4","last_reported":1740733810,"current_range_meters":0,"station_id":"ce4bhgh2rcd13ifvqfa0","pricing_plan_id":"cebpf4jnsgd1na2vs0mg"},{"bike_id":"00efb403-bc89-40ef-9eb8-a5083651b47c","system_id":"levelo_inurba_marseille","lat":43.24075,"lon":5.37785,"is_reserved":false,"is_disabled":true,"rental_uris":{"android":"levelo://app?vid=00efb403-bc89-40ef-9eb8-a5083651b47c","ios":"levelo://app?vid=00efb403-bc89-40ef-9eb8-a5083651b47c"},"vehicle_type_id":"4","last_reported":1740733810,"current_range_meters":0,"station_id":"ce4bhnp2rcd13ifvqgvg","pricing_plan_id":"cebpf4jnsgd1na2vs0mg"},{"bike_id":"d2671798-7b93-4c88-907b-83713a1dd0ce","system_id":"levelo_inurba_marseille","lat":43.26229,"lon":5.40456,"is_reserved":false,"is_disabled":true,"rental_uris":{"android":"levelo://app?vid=d2671798-7b93-4c88-907b-83713a1dd0ce","ios":"levelo://app?vid=d2671798-7b93-4c88-907b-83713a1dd0ce"},"vehicle_type_id":"4","last_reported":1740733810,"current_range_meters":400,"station_id":"ce4bhmh2rcd13ifvqgmg","pricing_plan_id":"cebpf4jnsgd1na2vs0mg"},{"bike_id":"05fc489b-1230-440e-82a2-d59fc0cb10f4","system_id":"levelo_inurba_marseille","lat":43.28613,"lon":5.37072,"is_reserved":false,"is_disabled":true,"rental_uris":{"android":"levelo://app?vid=05fc489b-1230-440e-82a2-d59fc0cb10f4","ios":"levelo://app?vid=05fc489b-1230-440e-82a2-d59fc0cb10f4"},"vehicle_type_id":"4","last_reported":1740733810,"current_range_meters":400,"station_id":"ce4bht12rcd13ifvqi60","pricing_plan_id":"cebpf4jnsgd1na2vs0mg"},{"bike_id":"282f549d-be83-4a00-88ed-6f4cf6419713","system_id":"levelo_inurba_marseille","lat":43.29957,"lon":5.37133,"is_reserved":false,"is_disabled":true,"rental_uris":{"android":"levelo://app?vid=282f549d-be83-4a00-88ed-6f4cf6419713","ios":"levelo://app?vid=282f549d-be83-4a00-88ed-6f4cf6419713"},"vehicle_type_id":"4","last_reported":1740733810,"current_range_meters":800,"station_id":"ce4bgr92rcd13ifvqc7g","pricing_plan_id":"cebpf4jnsgd1na2vs0mg"},{"bike_id":"c66e6aaa-4943-458f-85cb-78b57e96548c","system_id":"levelo_inurba_marseille","lat":43.32484,"lon":5.36574,"is_reserved":false,"is_disabled":true,"rental_uris":{"android":"levelo://app?vid=c66e6aaa-4943-458f-85cb-78b57e96548c","ios":"levelo://app?vid=c66e6aaa-4943-458f-85cb-78b57e96548c"},"vehicle_type_id":"4","last_reported":1740733810,"current_range_meters":800,"station_id":"ce4bhs12rcd13ifvqhvg","pricing_plan_id":"cebpf4jnsgd1na2vs0mg"},{"bike_id":"a3621ce8-56ca-45cb-ad92-548758ddc25e","system_id":"levelo_inurba_marseille","lat":43.285799,"lon":5.37435,"is_reserved":false,"is_disabled":true,"rental_uris":{"android":"levelo://app?vid=a3621ce8-56ca-45cb-ad92-548758ddc25e","ios":"levelo://app?vid=a3621ce8-56ca-45cb-ad92-548758ddc25e"},"vehicle_type_id":"4","last_reported":1740733810,"current_range_meters":1200,"station_id":"","pricing_plan_id":"cebpf4jnsgd1na2vs0mg"},{"bike_id":"aede6909-046f-4b5b-865f-97ba581eb352","system_id":"levelo_inurba_marseille","lat":43.29045,"lon":5.39972,"is_reserved":false,"is_disabled":true,"rental_uris":{"android":"levelo://app?vid=aede6909-046f-4b5b-865f-97ba581eb352","ios":"levelo://app?vid=aede6909-046f-4b5b-865f-97ba581eb352"},"vehicle_type_id":"4","last_reported":1740733810,"current_range_meters":1200,"station_id":"ce4bh392rcd13ifvqdm0","pricing_plan_id":"cebpf4jnsgd1na2vs0mg"},{"bike_id":"ae23d63f-1813-4ce3-9f00-de91edb6a690","system_id":"levelo_inurba_marseille","lat":43.29223,"lon":5.36056,"is_reserved":false,"is_disabled":true,"rental_uris":{"android":"levelo://app?vid=ae23d63f-1813-4ce3-9f00-de91edb6a690","ios":"levelo://app?vid=ae23d63f-1813-4ce3-9f00-de91edb6a690"},"vehicle_type_id":"4","last_reported":1740733810,"current_range_meters":1200,"station_id":"ce4bhbh2rcd13ifvqeqg","pricing_plan_id":"cebpf4jnsgd1na2vs0mg"},{"bike_id":"f3e7f178-5459-4bdb-8660-43bd2d315517","system_id":"levelo_inurba_marseille","lat":43.284874,"lon":5.385647,"is_reserved":false,"is_disabled":true,"rental_uris":{"android":"levelo://app?vid=f3e7f178-5459-4bdb-8660-43bd2d315517","ios":"levelo://app?vid=f3e7f178-5459-4bdb-8660-43bd2d315517"},"vehicle_type_id":"4","last_reported":1740733810,"current_range_meters":1600,"station_id":"ce4bghh2rcd13ifvqb60","pricing_plan_id":"cebpf4jnsgd1na2vs0mg"},{"bike_id":"b99ac26a-2976-4ba5-a389-cb7001397010","system_id":"levelo_inurba_marseille","lat":43.30139,"lon":5.3808,"is_reserved":false,"is_disabled":true,"rental_uris":{"android":"levelo://app?vid=b99ac26a-2976-4ba5-a389-cb7001397010","ios":"levelo://app?vid=b99ac26a-2976-4ba5-a389-cb7001397010"},"vehicle_type_id":"4","last_reported":1740733810,"current_range_meters":1600,"station_id":"ce4bgjp2rcd13ifvqbh0","pricing_plan_id":"cebpf4jnsgd1na2vs0mg"},{"bike_id":"df3becdc-efe5-428b-ad3b-9a5b04af2ecf","system_id":"levelo_inurba_marseille","lat":43.28031,"lon":5.36942,"is_reserved":false,"is_disabled":true,"rental_uris":{"android":"levelo://app?vid=df3becdc-efe5-428b-ad3b-9a5b04af2ecf","ios":"levelo://app?vid=df3becdc-efe5-428b-ad3b-9a5b04af2ecf"},"vehicle_type_id":"4","last_reported":1740733810,"current_range_meters":1600,"station_id":"ce4bha12rcd13ifvqef0","pricing_plan_id":"cebpf4jnsgd1na2vs0mg"},{"bike_id":"6b8e4789-ad27-4ba4-a558-50bf06ff5c2e","system_id":"levelo_inurba_marseille","lat":43.23181,"lon":5.4,"is_reserved":false,"is_disabled":true,"rental_uris":{"android":"levelo://app?vid=6b8e4789-ad27-4ba4-a558-50bf06ff5c2e","ios":"levelo://app?vid=6b8e4789-ad27-4ba4-a558-50bf06ff5c2e"},"vehicle_type_id":"4","last_reported":1740733810,"current_range_meters":1600,"station_id":"ce4bhn12rcd13ifvqgqg","pricing_plan_id":"cebpf4jnsgd1na2vs0mg"},{"bike_id":"9c29aef1-b510-4432-9f03-ec8c0d256b12","system_id":"levelo_inurba_marseille","lat":43.30201,"lon":5.39457,"is_reserved":false,"is_disabled":false,"rental_uris":{"android":"levelo://app?vid=9c29aef1-b510-4432-9f03-ec8c0d256b12","ios":"levelo://app?vid=9c29aef1-b510-4432-9f03-ec8c0d256b12"},"vehicle_type_id":"4","last_reported":1740733810,"current_range_meters":2000,"station_id":"ce4bh0p2rcd13ifvqd70","pricing_plan_id":"cebpf4jnsgd1na2vs0mg"},{"bike_id":"07e61a8c-6f06-47da-a866-2a3d308eb3cb","system_id":"levelo_inurba_marseille","lat":43.24182,"lon":5.39725,"is_reserved":false,"is_disabled":false,"rental_uris":{"android":"levelo://app?vid=07e61a8c-6f06-47da-a866-2a3d308eb3cb","ios":"levelo://app?vid=07e61a8c-6f06-47da-a866-2a3d308eb3cb"},"vehicle_type_id":"4","last_reported":1740733810,"current_range_meters":2000,"station_id":"ce4bhn12rcd13ifvqgpg","pricing_plan_id":"cebpf4jnsgd1na2vs0mg"},{"bike_id":"09afcaae-99a4-4d9d-937e-295eef654cd5","system_id":"levelo_inurba_marseille","lat":43.29633,"lon":5.371508,"is_reserved":false,"is_disabled":false,"rental_uris":{"android":"levelo://app?vid=09afcaae-99a4-4d9d-937e-295eef654cd5","ios":"levelo://app?vid=09afcaae-99a4-4d9d-937e-295eef654cd5"},"vehicle_type_id":"4","last_reported":1740733810,"current_range_meters":2800,"station_id":"ce4bgnh2rcd13ifvqc0g","pricing_plan_id":"cebpf4jnsgd1na2vs0mg"},{"bike_id":"437c2339-6ac1-42a7-b227-ddf64ec2bd27","system_id":"levelo_inurba_marseille","lat":43.27327,"lon":5.3905,"is_reserved":false,"is_disabled":false,"rental_uris":{"android":"levelo://app?vid=437c2339-6ac1-42a7-b227-ddf64ec2bd27","ios":"levelo://app?vid=437c2339-6ac1-42a7-b227-ddf64ec2bd27"},"vehicle_type_id":"4","last_reported":1740733810,"current_range_meters":2800,"station_id":"ce4bhgp2rcd13ifvqfe0","pricing_plan_id":"cebpf4jnsgd1na2vs0mg"},{"bike_id":"3acd54d7-7328-406a-a41a-79b49c778114","system_id":"levelo_inurba_marseille","lat":43.326883,"lon":5.3955,"is_reserved":false,"is_disabled":false,"rental_uris":{"android":"levelo://app?vid=3acd54d7-7328-406a-a41a-79b49c778114","ios":"levelo://app?vid=3acd54d7-7328-406a-a41a-79b49c778114"},"vehicle_type_id":"4","last_reported":1740733810,"current_range_meters":3200,"station_id":"","pricing_plan_id":"cebpf4jnsgd1na2vs0mg"},{"bike_id":"4ce5f38b-884c-4d51-be7c-81c976d4bd3a","system_id":"levelo_inurba_marseille","lat":43.298706,"lon":5.397285,"is_reserved":false,"is_disabled":false,"rental_uris":{"android":"levelo://app?vid=4ce5f38b-884c-4d51-be7c-81c976d4bd3a","ios":"levelo://app?vid=4ce5f38b-884c-4d51-be7c-81c976d4bd3a"},"vehicle_type_id":"4","last_reported":1740733810,"current_range_meters":3200,"station_id":"ce4bh0h2rcd13ifvqd50","pricing_plan_id":"cebpf4jnsgd1na2vs0mg"},{"bike_id":"7560142c-45ea-4aa6-bd5b-a0c4eb95844b","system_id":"levelo_inurba_marseille","lat":43.27066,"lon":5.4027,"is_reserved":false,"is_disabled":false,"rental_uris":{"android":"levelo://app?vid=7560142c-45ea-4aa6-bd5b-a0c4eb95844b","ios":"levelo://app?vid=7560142c-45ea-4aa6-bd5b-a0c4eb95844b"},"vehicle_type_id":"4","last_reported":1740733810,"current_range_meters":3200,"station_id":"ce4bhk92rcd13ifvqgc0","pricing_plan_id":"cebpf4jnsgd1na2vs0mg"},{"bike_id":"b52203d4-daac-4360-9c3b-95b10a591045","system_id":"levelo_inurba_marseille","lat":43.2594,"lon":5.40897,"is_reserved":false,"is_disabled":false,"rental_uris":{"android":"levelo://app?vid=b52203d4-daac-4360-9c3b-95b10a591045","ios":"levelo://app?vid=b52203d4-daac-4360-9c3b-95b10a591045"},"vehicle_type_id":"4","last_reported":1740733810,"current_range_meters":3200,"station_id":"ce4bhm92rcd13ifvqglg","pricing_plan_id":"cebpf4jnsgd1na2vs0mg"},{"bike_id":"192792d6-812e-4590-a108-4ab159b3dcb0","system_id":"levelo_inurba_marseille","lat":43.30149,"lon":5.39854,"is_reserved":false,"is_disabled":false,"rental_uris":{"android":"levelo://app?vid=192792d6-812e-4590-a108-4ab159b3dcb0","ios":"levelo://app?vid=192792d6-812e-4590-a108-4ab159b3dcb0"},"vehicle_type_id":"4","last_reported":1740733810,"current_range_meters":3600,"station_id":"ce4bh0h2rcd13ifvqd40","pricing_plan_id":"cebpf4jnsgd1na2vs0mg"},{"bike_id":"e146f593-5173-4ee7-8ed3-4c1d83b058ef","system_id":"levelo_inurba_marseille","lat":43.23155,"lon":5.4373,"is_reserved":false,"is_disabled":false,"rental_uris":{"android":"levelo://app?vid=e146f593-5173-4ee7-8ed3-4c1d83b058ef","ios":"levelo://app?vid=e146f593-5173-4ee7-8ed3-4c1d83b058ef"},"vehicle_type_id":"4","last_reported":1740733810,"current_range_meters":3600,"station_id":"ce4bhmp2rcd13ifvqgog","pricing_plan_id":"cebpf4jnsgd1na2vs0mg"},{"bike_id":"9aedf4dc-065d-4d30-a867-58a6cc888bc7","system_id":"levelo_inurba_marseille","lat":43.32485,"lon":5.3657,"is_reserved":false,"is_disabled":false,"rental_uris":{"android":"levelo://app?vid=9aedf4dc-065d-4d30-a867-58a6cc888bc7","ios":"levelo://app?vid=9aedf4dc-065d-4d30-a867-58a6cc888bc7"},"vehicle_type_id":"4","last_reported":1740733810,"current_range_meters":3600,"station_id":"ce4bhs12rcd13ifvqhvg","pricing_plan_id":"cebpf4jnsgd1na2vs0mg"},{"bike_id":"e8edc58d-690e-41f1-aeeb-cdbd898c3c46","system_id":"levelo_inurba_marseille","lat":43.29803,"lon":5.38093,"is_reserved":false,"is_disabled":false,"rental_uris":{"android":"levelo://app?vid=e8edc58d-690e-41f1-aeeb-cdbd898c3c46","ios":"levelo://app?vid=e8edc58d-690e-41f1-aeeb-cdbd898c3c46"},"vehicle_type_id":"4","last_reported":1740733810,"current_range_meters":4000,"station_id":"ce4bgip2rcd13ifvqbb0","pricing_plan_id":"cebpf4jnsgd1na2vs0mg"},{"bike_id":"88ea99a6-57ad-437f-80a1-a7f10087ab0a","system_id":"levelo_inurba_marseille","lat":43.26564,"lon":5.37285,"is_reserved":false,"is_disabled":false,"rental_uris":{"android":"levelo://app?vid=88ea99a6-57ad-437f-80a1-a7f10087ab0a","ios":"levelo://app?vid=88ea99a6-57ad-437f-80a1-a7f10087ab0a"},"vehicle_type_id":"4","last_reported":1740733810,"current_range_meters":4000,"station_id":"ce4bhg12rcd13ifvqf70","pricing_plan_id":"cebpf4jnsgd1na2vs0mg"},{"bike_id":"490ba0fd-c202-4f7b-a0cb-a4a495b2d1fd","system_id":"levelo_inurba_marseille","lat":43.31426,"lon":5.36629,"is_reserved":false,"is_disabled":false,"rental_uris":{"android":"levelo://app?vid=490ba0fd-c202-4f7b-a0cb-a4a495b2d1fd","ios":"levelo://app?vid=490ba0fd-c202-4f7b-a0cb-a4a495b2d1fd"},"vehicle_type_id":"4","last_reported":1740733810,"current_range_meters":4400,"station_id":"","pricing_plan_id":"cebpf4jnsgd1na2vs0mg"},{"bike_id":"ceeae1aa-6d11-4a21-8a80-c57072dd9192","system_id":"levelo_inurba_marseille","lat":43.30141,"lon":5.37424,"is_reserved":false,"is_disabled":false,"rental_uris":{"android":"levelo://app?vid=ceeae1aa-6d11-4a21-8a80-c57072dd9192","ios":"levelo://app?vid=ceeae1aa-6d11-4a21-8a80-c57072dd9192"},"vehicle_type_id":"4","last_reported":1740733810,"current_range_meters":4400,"station_id":"ce4bgs92rcd13ifvqcc0","pricing_plan_id":"cebpf4jnsgd1na2vs0mg"},{"bike_id":"20188f29-061f-47d3-8e2a-10645ee3d3d4","system_id":"levelo_inurba_marseille","lat":43.25585,"lon":5.38239,"is_reserved":false,"is_disabled":false,"rental_uris":{"android":"levelo://app?vid=20188f29-061f-47d3-8e2a-10645ee3d3d4","ios":"levelo://app?vid=20188f29-061f-47d3-8e2a-10645ee3d3d4"},"vehicle_type_id":"4","last_reported":1740733810,"current_range_meters":4400,"station_id":"ce4bhih2rcd13ifvqfs0","pricing_plan_id":"cebpf4jnsgd1na2vs0mg"},{"bike_id":"86f68d84-3c0f-4240-94f2-c568e5284c59","system_id":"levelo_inurba_marseille","lat":43.30553,"lon":5.36549,"is_reserved":false,"is_disabled":false,"rental_uris":{"android":"levelo://app?vid=86f68d84-3c0f-4240-94f2-c568e5284c59","ios":"levelo://app?vid=86f68d84-3c0f-4240-94f2-c568e5284c59"},"vehicle_type_id":"4","last_reported":1740733810,"current_range_meters":4800,"station_id":"ce4bgs12rcd13ifvqcag","pricing_plan_id":"cebpf4jnsgd1na2vs0mg"},{"bike_id":"1250d3e8-d6bd-4c66-ab52-7733e68cfc42","system_id":"levelo_inurba_marseille","lat":43.30966,"lon":5.39064,"is_reserved":false,"is_disabled":false,"rental_uris":{"android":"levelo://app?vid=1250d3e8-d6bd-4c66-ab52-7733e68cfc42","ios":"levelo://app?vid=1250d3e8-d6bd-4c66-ab52-7733e68cfc42"},"vehicle_type_id":"4","last_reported":1740733810,"current_range_meters":4800,"station_id":"ce4bgup2rcd13ifvqco0","pricing_plan_id":"cebpf4jnsgd1na2vs0mg"},{"bike_id":"6d1e50ce-656f-4601-a963-ac1a5f52c0c4","system_id":"levelo_inurba_marseille","lat":43.231458,"lon":5.437213,"is_reserved":false,"is_disabled":false,"rental_uris":{"android":"levelo://app?vid=6d1e50ce-656f-4601-a963-ac1a5f52c0c4","ios":"levelo://app?vid=6d1e50ce-656f-4601-a963-ac1a5f52c0c4"},"vehicle_type_id":"4","last_reported":1740733810,"current_range_meters":4800,"station_id":"ce4bhmp2rcd13ifvqgog","pricing_plan_id":"cebpf4jnsgd1na2vs0mg"},{"bike_id":"36fc0ac6-ee57-4711-92af-dc4dc17477a6","system_id":"levelo_inurba_marseille","lat":43.27498,"lon":5.424567,"is_reserved":false,"is_disabled":false,"rental_uris":{"android":"levelo://app?vid=36fc0ac6-ee57-4711-92af-dc4dc17477a6","ios":"levelo://app?vid=36fc0ac6-ee57-4711-92af-dc4dc17477a6"},"vehicle_type_id":"4","last_reported":1740733810,"current_range_meters":4800,"station_id":"ce4bhn92rcd13ifvqgrg","pricing_plan_id":"cebpf4jnsgd1na2vs0mg"},{"bike_id":"35f54448-cfcd-415c-b857-096572fa4966","system_id":"levelo_inurba_marseille","lat":43.27497,"lon":5.42445,"is_reserved":false,"is_disabled":false,"rental_uris":{"android":"levelo://app?vid=35f54448-cfcd-415c-b857-096572fa4966","ios":"levelo://app?vid=35f54448-cfcd-415c-b857-096572fa4966"},"vehicle_type_id":"4","last_reported":1740733810,"current_range_meters":4800,"station_id":"ce4bhn92rcd13ifvqgrg","pricing_plan_id":"cebpf4jnsgd1na2vs0mg"},{"bike_id":"8a1dd4b5-06fb-40ee-8c89-fa4818499822","system_id":"levelo_inurba_marseille","lat":43.31367,"lon":5.3672,"is_reserved":false,"is_disabled":false,"rental_uris":{"android":"levelo://app?vid=8a1dd4b5-06fb-40ee-8c89-fa4818499822","ios":"levelo://app?vid=8a1dd4b5-06fb-40ee-8c89-fa4818499822"},"vehicle_type_id":"4","last_reported":1740733810,"current_range_meters":5600,"station_id":"ce4bgr92rcd13ifvqc6g","pricing_plan_id":"cebpf4jnsgd1na2vs0mg"},{"bike_id":"66137724-3826-4124-ba6e-ed297cf47dc7","system_id":"levelo_inurba_marseille","lat":43.30467,"lon":5.37905,"is_reserved":false,"is_disabled":false,"rental_uris":{"android":"levelo://app?vid=66137724-3826-4124-ba6e-ed297cf47dc7","ios":"levelo://app?vid=66137724-3826-4124-ba6e-ed297cf47dc7"},"vehicle_type_id":"4","last_reported":1740733810,"current_range_meters":5600,"station_id":"ce4bgup2rcd13ifvqcn0","pricing_plan_id":"cebpf4jnsgd1na2vs0mg"},{"bike_id":"0c7e77c4-775f-4634-bb7d-e6dc5881f29b","system_id":"levelo_inurba_marseille","lat":43.24557,"lon":5.39538,"is_reserved":false,"is_disabled":false,"rental_uris":{"android":"levelo://app?vid=0c7e77c4-775f-4634-bb7d-e6dc5881f29b","ios":"levelo://app?vid=0c7e77c4-775f-4634-bb7d-e6dc5881f29b"},"vehicle_type_id":"4","last_reported":1740733810,"current_range_meters":5600,"station_id":"ce4bhlp2rcd13ifvqgjg","pricing_plan_id":"cebpf4jnsgd1na2vs0mg"},{"bike_id":"8b12f042-66ff-4f72-8110-b87f1cf65c0b","system_id":"levelo_inurba_marseille","lat":43.33452,"lon":5.40053,"is_reserved":false,"is_disabled":false,"rental_uris":{"android":"levelo://app?vid=8b12f042-66ff-4f72-8110-b87f1cf65c0b","ios":"levelo://app?vid=8b12f042-66ff-4f72-8110-b87f1cf65c0b"},"vehicle_type_id":"4","last_reported":1740733810,"current_range_meters":6000,"station_id":"","pricing_plan_id":"cebpf4jnsgd1na2vs0mg"},{"bike_id":"67ea66f9-bb43-4edb-afff-f5806b3c3303","system_id":"levelo_inurba_marseille","lat":43.28844,"lon":5.39304,"is_reserved":false,"is_disabled":false,"rental_uris":{"android":"levelo://app?vid=67ea66f9-bb43-4edb-afff-f5806b3c3303","ios":"levelo://app?vid=67ea66f9-bb43-4edb-afff-f5806b3c3303"},"vehicle_type_id":"4","last_reported":1740733810,"current_range_meters":6000,"station_id":"ce4bh2p2rcd13ifvqdi0","pricing_plan_id":"cebpf4jnsgd1na2vs0mg"},{"bike_id":"20e93208-a4dc-4043-9635-a1cc3e52fb75","system_id":"levelo_inurba_marseille","lat":43.28369,"lon":5.38104,"is_reserved":false,"is_disabled":true,"rental_uris":{"android":"levelo://app?vid=20e93208-a4dc-4043-9635-a1cc3e52fb75","ios":"levelo://app?vid=20e93208-a4dc-4043-9635-a1cc3e52fb75"},"vehicle_type_id":"4","last_reported":1740733810,"current_range_meters":6000,"station_id":"ce4bh412rcd13ifvqdr0","pricing_plan_id":"cebpf4jnsgd1na2vs0mg"},{"bike_id":"ea8cb564-d405-42e3-911c-0afdd772ee76","system_id":"levelo_inurba_marseille","lat":43.32784,"lon":5.3924,"is_reserved":false,"is_disabled":false,"rental_uris":{"android":"levelo://app?vid=ea8cb564-d405-42e3-911c-0afdd772ee76","ios":"levelo://app?vid=ea8cb564-d405-42e3-911c-0afdd772ee76"},"vehicle_type_id":"4","last_reported":1740733810,"current_range_meters":6400,"station_id":"","pricing_plan_id":"cebpf4jnsgd1na2vs0mg"},{"bike_id":"0093cb83-a560-478e-b53c-d01a12d0eb86","system_id":"levelo_inurba_marseille","lat":43.31217,"lon":5.36885,"is_reserved":false,"is_disabled":false,"rental_uris":{"android":"levelo://app?vid=0093cb83-a560-478e-b53c-d01a12d0eb86","ios":"levelo://app?vid=0093cb83-a560-478e-b53c-d01a12d0eb86"},"vehicle_type_id":"4","last_reported":1740733810,"current_range_meters":6400,"station_id":"ce4bgl92rcd13ifvqbq0","pricing_plan_id":"cebpf4jnsgd1na2vs0mg"},{"bike_id":"58734ddf-a6a1-4aa4-933a-9e18fdd8a769","system_id":"levelo_inurba_marseille","lat":43.30534,"lon":5.36536,"is_reserved":false,"is_disabled":false,"rental_uris":{"android":"levelo://app?vid=58734ddf-a6a1-4aa4-933a-9e18fdd8a769","ios":"levelo://app?vid=58734ddf-a6a1-4aa4-933a-9e18fdd8a769"},"vehicle_type_id":"4","last_reported":1740733810,"current_range_meters":6400,"station_id":"ce4bgs12rcd13ifvqcag","pricing_plan_id":"cebpf4jnsgd1na2vs0mg"},{"bike_id":"c320535e-3c92-4509-80e1-bbd24241926f","system_id":"levelo_inurba_marseille","lat":43.30533,"lon":5.36549,"is_reserved":false,"is_disabled":false,"rental_uris":{"android":"levelo://app?vid=c320535e-3c92-4509-80e1-bbd24241926f","ios":"levelo://app?vid=c320535e-3c92-4509-80e1-bbd24241926f"},"vehicle_type_id":"4","last_reported":1740733810,"current_range_meters":6400,"station_id":"ce4bgs12rcd13ifvqcag","pricing_plan_id":"cebpf4jnsgd1na2vs0mg"},{"bike_id":"33062305-f0dc-4541-96a3-ce40729727a3","system_id":"levelo_inurba_marseille","lat":43.25939,"lon":5.40902,"is_reserved":false,"is_disabled":false,"rental_uris":{"android":"levelo://app?vid=33062305-f0dc-4541-96a3-ce40729727a3","ios":"levelo://app?vid=33062305-f0dc-4541-96a3-ce40729727a3"},"vehicle_type_id":"4","last_reported":1740733810,"current_range_meters":6400,"station_id":"ce4bhm92rcd13ifvqglg","pricing_plan_id":"cebpf4jnsgd1na2vs0mg"},{"bike_id":"b5c04338-71b5-40e7-914f-5f1200a51a92","system_id":"levelo_inurba_marseille","lat":43.25926,"lon":5.40891,"is_reserved":false,"is_disabled":false,"rental_uris":{"android":"levelo://app?vid=b5c04338-71b5-40e7-914f-5f1200a51a92","ios":"levelo://app?vid=b5c04338-71b5-40e7-914f-5f1200a51a92"},"vehicle_type_id":"4","last_reported":1740733810,"current_range_meters":6400,"station_id":"ce4bhm92rcd13ifvqglg","pricing_plan_id":"cebpf4jnsgd1na2vs0mg"},{"bike_id":"9647918c-d815-4482-8c45-927333bd2450","system_id":"levelo_inurba_marseille","lat":43.27813,"lon":5.4072,"is_reserved":false,"is_disabled":false,"rental_uris":{"android":"levelo://app?vid=9647918c-d815-4482-8c45-927333bd2450","ios":"levelo://app?vid=9647918c-d815-4482-8c45-927333bd2450"},"vehicle_type_id":"4","last_reported":1740733810,"current_range_meters":6400,"station_id":"ce4bhnh2rcd13ifvqgtg","pricing_plan_id":"cebpf4jnsgd1na2vs0mg"},{"bike_id":"a402dcb0-63b6-4569-b9e8-ad825500c3f8","system_id":"levelo_inurba_marseille","lat":43.28965,"lon":5.35904,"is_reserved":false,"is_disabled":false,"rental_uris":{"android":"levelo://app?vid=a402dcb0-63b6-4569-b9e8-ad825500c3f8","ios":"levelo://app?vid=a402dcb0-63b6-4569-b9e8-ad825500c3f8"},"vehicle_type_id":"4","last_reported":1740733810,"current_range_meters":6800,"station_id":"","pricing_plan_id":"cebpf4jnsgd1na2vs0mg"},{"bike_id":"be4f90b0-df26-45e7-a23f-e9adeb1aa466","system_id":"levelo_inurba_marseille","lat":43.30093,"lon":5.3907,"is_reserved":false,"is_disabled":false,"rental_uris":{"android":"levelo://app?vid=be4f90b0-df26-45e7-a23f-e9adeb1aa466","ios":"levelo://app?vid=be4f90b0-df26-45e7-a23f-e9adeb1aa466"},"vehicle_type_id":"4","last_reported":1740733810,"current_range_meters":6800,"station_id":"ce4bh192rcd13ifvqdb0","pricing_plan_id":"cebpf4jnsgd1na2vs0mg"},{"bike_id":"b8b5a57c-8dde-4019-bb6a-ae49adc55d76","system_id":"levelo_inurba_marseille","lat":43.26951,"lon":5.38615,"is_reserved":false,"is_disabled":false,"rental_uris":{"android":"levelo://app?vid=b8b5a57c-8dde-4019-bb6a-ae49adc55d76","ios":"levelo://app?vid=b8b5a57c-8dde-4019-bb6a-ae49adc55d76"},"vehicle_type_id":"4","last_reported":1740733810,"current_range_meters":6800,"station_id":"ce4bhh92rcd13ifvqfh0","pricing_plan_id":"cebpf4jnsgd1na2vs0mg"},{"bike_id":"b1a263af-a50b-4420-ae09-6d3d4c9cc397","system_id":"levelo_inurba_marseille","lat":43.24075,"lon":5.37758,"is_reserved":false,"is_disabled":false,"rental_uris":{"android":"levelo://app?vid=b1a263af-a50b-4420-ae09-6d3d4c9cc397","ios":"levelo://app?vid=b1a263af-a50b-4420-ae09-6d3d4c9cc397"},"vehicle_type_id":"4","last_reported":1740733810,"current_range_meters":6800,"station_id":"ce4bhnp2rcd13ifvqgvg","pricing_plan_id":"cebpf4jnsgd1na2vs0mg"},{"bike_id":"2608e632-5396-469e-a7c0-2933109a91fe","system_id":"levelo_inurba_marseille","lat":43.24074,"lon":5.37763,"is_reserved":false,"is_disabled":false,"rental_uris":{"android":"levelo://app?vid=2608e632-5396-469e-a7c0-2933109a91fe","ios":"levelo://app?vid=2608e632-5396-469e-a7c0-2933109a91fe"},"vehicle_type_id":"4","last_reported":1740733810,"current_range_meters":6800,"station_id":"ce4bhnp2rcd13ifvqgvg","pricing_plan_id":"cebpf4jnsgd1na2vs0mg"},{"bike_id":"e01c4764-850a-4950-98a6-f7763ee410cb","system_id":"levelo_inurba_marseille","lat":43.336092,"lon":5.409868,"is_reserved":false,"is_disabled":false,"rental_uris":{"android":"levelo://app?vid=e01c4764-850a-4950-98a6-f7763ee410cb","ios":"levelo://app?vid=e01c4764-850a-4950-98a6-f7763ee410cb"},"vehicle_type_id":"4","last_reported":1740733810,"current_range_meters":6800,"station_id":"ce4bhqh2rcd13ifvqhmg","pricing_plan_id":"cebpf4jnsgd1na2vs0mg"},{"bike_id":"3f0907b3-da2b-41a5-8662-a0489e1a0f25","system_id":"levelo_inurba_marseille","lat":43.32103,"lon":5.36764,"is_reserved":false,"is_disabled":false,"rental_uris":{"android":"levelo://app?vid=3f0907b3-da2b-41a5-8662-a0489e1a0f25","ios":"levelo://app?vid=3f0907b3-da2b-41a5-8662-a0489e1a0f25"},"vehicle_type_id":"4","last_reported":1740733810,"current_range_meters":6800,"station_id":"ce4bhrh2rcd13ifvqhug","pricing_plan_id":"cebpf4jnsgd1na2vs0mg"},{"bike_id":"4a6ef6f7-a71d-40f3-9674-fe42f64fd354","system_id":"levelo_inurba_marseille","lat":43.31475,"lon":5.36594,"is_reserved":false,"is_disabled":false,"rental_uris":{"android":"levelo://app?vid=4a6ef6f7-a71d-40f3-9674-fe42f64fd354","ios":"levelo://app?vid=4a6ef6f7-a71d-40f3-9674-fe42f64fd354"},"vehicle_type_id":"4","last_reported":1740733810,"current_range_meters":7200,"station_id":"","pricing_plan_id":"cebpf4jnsgd1na2vs0mg"},{"bike_id":"ea3487ed-d7b8-4023-bb22-d2dd44155fb1","system_id":"levelo_inurba_marseille","lat":43.28357,"lon":5.3811,"is_reserved":false,"is_disabled":false,"rental_uris":{"android":"levelo://app?vid=ea3487ed-d7b8-4023-bb22-d2dd44155fb1","ios":"levelo://app?vid=ea3487ed-d7b8-4023-bb22-d2dd44155fb1"},"vehicle_type_id":"4","last_reported":1740733810,"current_range_meters":7200,"station_id":"ce4bh412rcd13ifvqdr0","pricing_plan_id":"cebpf4jnsgd1na2vs0mg"},{"bike_id":"d4a9e247-3299-4d7f-9acb-0d092544b505","system_id":"levelo_inurba_marseille","lat":43.27934,"lon":5.38012,"is_reserved":false,"is_disabled":false,"rental_uris":{"android":"levelo://app?vid=d4a9e247-3299-4d7f-9acb-0d092544b505","ios":"levelo://app?vid=d4a9e247-3299-4d7f-9acb-0d092544b505"},"vehicle_type_id":"4","last_reported":1740733810,"current_range_meters":7200,"station_id":"ce4bhf92rcd13ifvqf50","pricing_plan_id":"cebpf4jnsgd1na2vs0mg"},{"bike_id":"c6b23046-3dbb-4c24-b439-362e9ad2c23a","system_id":"levelo_inurba_marseille","lat":43.25025,"lon":5.38905,"is_reserved":false,"is_disabled":false,"rental_uris":{"android":"levelo://app?vid=c6b23046-3dbb-4c24-b439-362e9ad2c23a","ios":"levelo://app?vid=c6b23046-3dbb-4c24-b439-362e9ad2c23a"},"vehicle_type_id":"4","last_reported":1740733810,"current_range_meters":7200,"station_id":"ce4bhgp2rcd13ifvqfd0","pricing_plan_id":"cebpf4jnsgd1na2vs0mg"},{"bike_id":"2877b49c-3b08-474b-b501-e3e6abf28b3b","system_id":"levelo_inurba_marseille","lat":43.33603,"lon":5.4102,"is_reserved":false,"is_disabled":false,"rental_uris":{"android":"levelo://app?vid=2877b49c-3b08-474b-b501-e3e6abf28b3b","ios":"levelo://app?vid=2877b49c-3b08-474b-b501-e3e6abf28b3b"},"vehicle_type_id":"4","last_reported":1740733810,"current_range_meters":7200,"station_id":"ce4bhqh2rcd13ifvqhmg","pricing_plan_id":"cebpf4jnsgd1na2vs0mg"},{"bike_id":"6a08a79c-d9fe-4cf4-8b8f-d5efa5e3274b","system_id":"levelo_inurba_marseille","lat":43.30195,"lon":5.36638,"is_reserved":false,"is_disabled":false,"rental_uris":{"android":"levelo://app?vid=6a08a79c-d9fe-4cf4-8b8f-d5efa5e3274b","ios":"levelo://app?vid=6a08a79c-d9fe-4cf4-8b8f-d5efa5e3274b"},"vehicle_type_id":"4","last_reported":1740733810,"current_range_meters":8000,"station_id":"ce4bgrh2rcd13ifvqc8g","pricing_plan_id":"cebpf4jnsgd1na2vs0mg"},{"bike_id":"e8867af2-6271-407c-a823-e28a1656f5fe","system_id":"levelo_inurba_marseille","lat":43.30276,"lon":5.37721,"is_reserved":false,"is_disabled":false,"rental_uris":{"android":"levelo://app?vid=e8867af2-6271-407c-a823-e28a1656f5fe","ios":"levelo://app?vid=e8867af2-6271-407c-a823-e28a1656f5fe"},"vehicle_type_id":"4","last_reported":1740733810,"current_range_meters":8000,"station_id":"ce4bguh2rcd13ifvqcj0","pricing_plan_id":"cebpf4jnsgd1na2vs0mg"},{"bike_id":"1f26c8f0-0a52-474d-9190-3c4e8ee212af","system_id":"levelo_inurba_marseille","lat":43.30484,"lon":5.37908,"is_reserved":false,"is_disabled":false,"rental_uris":{"android":"levelo://app?vid=1f26c8f0-0a52-474d-9190-3c4e8ee212af","ios":"levelo://app?vid=1f26c8f0-0a52-474d-9190-3c4e8ee212af"},"vehicle_type_id":"4","last_reported":1740733810,"current_range_meters":8000,"station_id":"ce4bgup2rcd13ifvqcn0","pricing_plan_id":"cebpf4jnsgd1na2vs0mg"},{"bike_id":"3f86c3d0-e163-428e-a9fe-f6b1bce5a044","system_id":"levelo_inurba_marseille","lat":43.29872,"lon":5.3974,"is_reserved":false,"is_disabled":false,"rental_uris":{"android":"levelo://app?vid=3f86c3d0-e163-428e-a9fe-f6b1bce5a044","ios":"levelo://app?vid=3f86c3d0-e163-428e-a9fe-f6b1bce5a044"},"vehicle_type_id":"4","last_reported":1740733810,"current_range_meters":8000,"station_id":"ce4bh0h2rcd13ifvqd50","pricing_plan_id":"cebpf4jnsgd1na2vs0mg"},{"bike_id":"2b48f4d4-f336-4ca7-a21c-b62b1ac5d67e","system_id":"levelo_inurba_marseille","lat":43.29078,"lon":5.38128,"is_reserved":false,"is_disabled":false,"rental_uris":{"android":"levelo://app?vid=2b48f4d4-f336-4ca7-a21c-b62b1ac5d67e","ios":"levelo://app?vid=2b48f4d4-f336-4ca7-a21c-b62b1ac5d67e"},"vehicle_type_id":"4","last_reported":1740733810,"current_range_meters":8000,"station_id":"ce4bh512rcd13ifvqe2g","pricing_plan_id":"cebpf4jnsgd1na2vs0mg"},{"bike_id":"ce3e9c0e-8315-436b-9544-ca9b247a836f","system_id":"levelo_inurba_marseille","lat":43.28661,"lon":5.36349,"is_reserved":false,"is_disabled":false,"rental_uris":{"android":"levelo://app?vid=ce3e9c0e-8315-436b-9544-ca9b247a836f","ios":"levelo://app?vid=ce3e9c0e-8315-436b-9544-ca9b247a836f"},"vehicle_type_id":"4","last_reported":1740733810,"current_range_meters":8000,"station_id":"ce4bhah2rcd13ifvqej0","pricing_plan_id":"cebpf4jnsgd1na2vs0mg"},{"bike_id":"4ce26a99-af03-483d-b48c-23c47fea208e","system_id":"levelo_inurba_marseille","lat":43.288484,"lon":5.358504,"is_reserved":false,"is_disabled":false,"rental_uris":{"android":"levelo://app?vid=4ce26a99-af03-483d-b48c-23c47fea208e","ios":"levelo://app?vid=4ce26a99-af03-483d-b48c-23c47fea208e"},"vehicle_type_id":"4","last_reported":1740733810,"current_range_meters":8000,"station_id":"ce4bhb12rcd13ifvqem0","pricing_plan_id":"cebpf4jnsgd1na2vs0mg"},{"bike_id":"5e0e22b0-e973-48d0-8bed-a771273f721a","system_id":"levelo_inurba_marseille","lat":43.27377,"lon":5.36264,"is_reserved":false,"is_disabled":false,"rental_uris":{"android":"levelo://app?vid=5e0e22b0-e973-48d0-8bed-a771273f721a","ios":"levelo://app?vid=5e0e22b0-e973-48d0-8bed-a771273f721a"},"vehicle_type_id":"4","last_reported":1740733810,"current_range_meters":8000,"station_id":"ce4bhbh2rcd13ifvqeo0","pricing_plan_id":"cebpf4jnsgd1na2vs0mg"},{"bike_id":"84a2d7be-7732-4565-8ec5-bd3a0a4d1e6b","system_id":"levelo_inurba_marseille","lat":43.259107,"lon":5.385283,"is_reserved":false,"is_disabled":false,"rental_uris":{"android":"levelo://app?vid=84a2d7be-7732-4565-8ec5-bd3a0a4d1e6b","ios":"levelo://app?vid=84a2d7be-7732-4565-8ec5-bd3a0a4d1e6b"},"vehicle_type_id":"4","last_reported":1740733810,"current_range_meters":8000,"station_id":"ce4bhh12rcd13ifvqff0","pricing_plan_id":"cebpf4jnsgd1na2vs0mg"},{"bike_id":"ee926e95-5f82-49c1-83af-829ec68536cc","system_id":"levelo_inurba_marseille","lat":43.26959,"lon":5.38647,"is_reserved":false,"is_disabled":false,"rental_uris":{"android":"levelo://app?vid=ee926e95-5f82-49c1-83af-829ec68536cc","ios":"levelo://app?vid=ee926e95-5f82-49c1-83af-829ec68536cc"},"vehicle_type_id":"4","last_reported":1740733810,"current_range_meters":8000,"station_id":"ce4bhh92rcd13ifvqfh0","pricing_plan_id":"cebpf4jnsgd1na2vs0mg"},{"bike_id":"54d46a8b-8314-471a-98f9-6d86686fc605","system_id":"levelo_inurba_marseille","lat":43.25836,"lon":5.39426,"is_reserved":false,"is_disabled":false,"rental_uris":{"android":"levelo://app?vid=54d46a8b-8314-471a-98f9-6d86686fc605","ios":"levelo://app?vid=54d46a8b-8314-471a-98f9-6d86686fc605"},"vehicle_type_id":"4","last_reported":1740733810,"current_range_meters":8000,"station_id":"ce4bhip2rcd13ifvqft0","pricing_plan_id":"cebpf4jnsgd1na2vs0mg"},{"bike_id":"7987f976-7189-42f6-af88-e7a708b22a12","system_id":"levelo_inurba_marseille","lat":43.25124,"lon":5.40334,"is_reserved":false,"is_disabled":false,"rental_uris":{"android":"levelo://app?vid=7987f976-7189-42f6-af88-e7a708b22a12","ios":"levelo://app?vid=7987f976-7189-42f6-af88-e7a708b22a12"},"vehicle_type_id":"4","last_reported":1740733810,"current_range_meters":8000,"station_id":"ce4bhlh2rcd13ifvqgig","pricing_plan_id":"cebpf4jnsgd1na2vs0mg"},{"bike_id":"03ecd382-3850-4874-86ef-0467a1a8c988","system_id":"levelo_inurba_marseille","lat":43.24177,"lon":5.39736,"is_reserved":false,"is_disabled":false,"rental_uris":{"android":"levelo://app?vid=03ecd382-3850-4874-86ef-0467a1a8c988","ios":"levelo://app?vid=03ecd382-3850-4874-86ef-0467a1a8c988"},"vehicle_type_id":"4","last_reported":1740733810,"current_range_meters":8000,"station_id":"ce4bhn12rcd13ifvqgpg","pricing_plan_id":"cebpf4jnsgd1na2vs0mg"},{"bike_id":"a3deaac0-5959-4805-b684-953381d9adcc","system_id":"levelo_inurba_marseille","lat":43.32371,"lon":5.38892,"is_reserved":false,"is_disabled":false,"rental_uris":{"android":"levelo://app?vid=a3deaac0-5959-4805-b684-953381d9adcc","ios":"levelo://app?vid=a3deaac0-5959-4805-b684-953381d9adcc"},"vehicle_type_id":"4","last_reported":1740733810,"current_range_meters":8000,"station_id":"ce4bhqp2rcd13ifvqhog","pricing_plan_id":"cebpf4jnsgd1na2vs0mg"},{"bike_id":"74d4a88d-ad3a-4128-a926-23a749e3d79b","system_id":"levelo_inurba_marseille","lat":43.23192,"lon":5.35554,"is_reserved":false,"is_disabled":false,"rental_uris":{"android":"levelo://app?vid=74d4a88d-ad3a-4128-a926-23a749e3d79b","ios":"levelo://app?vid=74d4a88d-ad3a-4128-a926-23a749e3d79b"},"vehicle_type_id":"4","last_reported":1740733810,"current_range_meters":8000,"station_id":"ce4bhu92rcd13ifvqi70","pricing_plan_id":"cebpf4jnsgd1na2vs0mg"},{"bike_id":"c2cd62fa-5421-4d8d-83f3-aa1ab92d9420","system_id":"levelo_inurba_marseille","lat":43.31374,"lon":5.36704,"is_reserved":false,"is_disabled":false,"rental_uris":{"android":"levelo://app?vid=c2cd62fa-5421-4d8d-83f3-aa1ab92d9420","ios":"levelo://app?vid=c2cd62fa-5421-4d8d-83f3-aa1ab92d9420"},"vehicle_type_id":"4","last_reported":1740733810,"current_range_meters":8400,"station_id":"ce4bgr92rcd13ifvqc6g","pricing_plan_id":"cebpf4jnsgd1na2vs0mg"},{"bike_id":"d8994050-39f7-4aaa-af77-5e87c12121df","system_id":"levelo_inurba_marseille","lat":43.29017,"lon":5.35613,"is_reserved":false,"is_disabled":false,"rental_uris":{"android":"levelo://app?vid=d8994050-39f7-4aaa-af77-5e87c12121df","ios":"levelo://app?vid=d8994050-39f7-4aaa-af77-5e87c12121df"},"vehicle_type_id":"4","last_reported":1740733810,"current_range_meters":8400,"station_id":"ce4bhb92rcd13ifvqen0","pricing_plan_id":"cebpf4jnsgd1na2vs0mg"},{"bike_id":"5cdf1157-258e-4dbe-9eac-97f9742be378","system_id":"levelo_inurba_marseille","lat":43.27377,"lon":5.36257,"is_reserved":false,"is_disabled":false,"rental_uris":{"android":"levelo://app?vid=5cdf1157-258e-4dbe-9eac-97f9742be378","ios":"levelo://app?vid=5cdf1157-258e-4dbe-9eac-97f9742be378"},"vehicle_type_id":"4","last_reported":1740733810,"current_range_meters":8400,"station_id":"ce4bhbh2rcd13ifvqeo0","pricing_plan_id":"cebpf4jnsgd1na2vs0mg"},{"bike_id":"27b96f0c-2d44-4965-a997-c4bf8fa73e44","system_id":"levelo_inurba_marseille","lat":43.26203,"lon":5.3793,"is_reserved":false,"is_disabled":false,"rental_uris":{"android":"levelo://app?vid=27b96f0c-2d44-4965-a997-c4bf8fa73e44","ios":"levelo://app?vid=27b96f0c-2d44-4965-a997-c4bf8fa73e44"},"vehicle_type_id":"4","last_reported":1740733810,"current_range_meters":8400,"station_id":"ce4bhjp2rcd13ifvqg90","pricing_plan_id":"cebpf4jnsgd1na2vs0mg"},{"bike_id":"a36f438d-41ea-4c6f-a7cf-dd49e3c39f61","system_id":"levelo_inurba_marseille","lat":43.24557,"lon":5.3953,"is_reserved":false,"is_disabled":false,"rental_uris":{"android":"levelo://app?vid=a36f438d-41ea-4c6f-a7cf-dd49e3c39f61","ios":"levelo://app?vid=a36f438d-41ea-4c6f-a7cf-dd49e3c39f61"},"vehicle_type_id":"4","last_reported":1740733810,"current_range_meters":8400,"station_id":"ce4bhlp2rcd13ifvqgjg","pricing_plan_id":"cebpf4jnsgd1na2vs0mg"},{"bike_id":"dbdb7887-88cb-41f9-ad73-5fbab2a239c1","system_id":"levelo_inurba_marseille","lat":43.2315,"lon":5.43718,"is_reserved":false,"is_disabled":false,"rental_uris":{"android":"levelo://app?vid=dbdb7887-88cb-41f9-ad73-5fbab2a239c1","ios":"levelo://app?vid=dbdb7887-88cb-41f9-ad73-5fbab2a239c1"},"vehicle_type_id":"4","last_reported":1740733810,"current_range_meters":8400,"station_id":"ce4bhmp2rcd13ifvqgog","pricing_plan_id":"cebpf4jnsgd1na2vs0mg"},{"bike_id":"1ab7b098-f66b-40af-b0cc-bd927e3e0ad1","system_id":"levelo_inurba_marseille","lat":43.23877,"lon":5.365244,"is_reserved":false,"is_disabled":false,"rental_uris":{"android":"levelo://app?vid=1ab7b098-f66b-40af-b0cc-bd927e3e0ad1","ios":"levelo://app?vid=1ab7b098-f66b-40af-b0cc-bd927e3e0ad1"},"vehicle_type_id":"4","last_reported":1740733810,"current_range_meters":8400,"station_id":"ce4bhu92rcd13ifvqi70","pricing_plan_id":"cebpf4jnsgd1na2vs0mg"},{"bike_id":"ea859619-bbf7-4f04-90f6-e94ec0770416","system_id":"levelo_inurba_marseille","lat":43.2938,"lon":5.3785,"is_reserved":false,"is_disabled":false,"rental_uris":{"android":"levelo://app?vid=ea859619-bbf7-4f04-90f6-e94ec0770416","ios":"levelo://app?vid=ea859619-bbf7-4f04-90f6-e94ec0770416"},"vehicle_type_id":"4","last_reported":1740733810,"current_range_meters":8800,"station_id":"ce4bgjh2rcd13ifvqbf0","pricing_plan_id":"cebpf4jnsgd1na2vs0mg"},{"bike_id":"9c16f73b-d883-4318-9d54-d8eb1fe44c91","system_id":"levelo_inurba_marseille","lat":43.27827,"lon":5.40722,"is_reserved":false,"is_disabled":false,"rental_uris":{"android":"levelo://app?vid=9c16f73b-d883-4318-9d54-d8eb1fe44c91","ios":"levelo://app?vid=9c16f73b-d883-4318-9d54-d8eb1fe44c91"},"vehicle_type_id":"4","last_reported":1740733810,"current_range_meters":8800,"station_id":"ce4bhnh2rcd13ifvqgtg","pricing_plan_id":"cebpf4jnsgd1na2vs0mg"},{"bike_id":"026e178e-412a-49e0-9772-e5f6d0abaab4","system_id":"levelo_inurba_marseille","lat":43.30908,"lon":5.36986,"is_reserved":false,"is_disabled":false,"rental_uris":{"android":"levelo://app?vid=026e178e-412a-49e0-9772-e5f6d0abaab4","ios":"levelo://app?vid=026e178e-412a-49e0-9772-e5f6d0abaab4"},"vehicle_type_id":"4","last_reported":1740733810,"current_range_meters":9200,"station_id":"","pricing_plan_id":"cebpf4jnsgd1na2vs0mg"},{"bike_id":"a7a49217-b3d4-4933-8273-9dda3c403bf1","system_id":"levelo_inurba_marseille","lat":43.31674,"lon":5.39637,"is_reserved":false,"is_disabled":false,"rental_uris":{"android":"levelo://app?vid=a7a49217-b3d4-4933-8273-9dda3c403bf1","ios":"levelo://app?vid=a7a49217-b3d4-4933-8273-9dda3c403bf1"},"vehicle_type_id":"4","last_reported":1740733810,"current_range_meters":9200,"station_id":"","pricing_plan_id":"cebpf4jnsgd1na2vs0mg"},{"bike_id":"04940e4c-c43d-4a7a-803e-4a959ace185d","system_id":"levelo_inurba_marseille","lat":43.30465,"lon":5.37915,"is_reserved":false,"is_disabled":false,"rental_uris":{"android":"levelo://app?vid=04940e4c-c43d-4a7a-803e-4a959ace185d","ios":"levelo://app?vid=04940e4c-c43d-4a7a-803e-4a959ace185d"},"vehicle_type_id":"4","last_reported":1740733810,"current_range_meters":9200,"station_id":"ce4bgup2rcd13ifvqcn0","pricing_plan_id":"cebpf4jnsgd1na2vs0mg"},{"bike_id":"2acc595c-5e65-43b6-9de7-781f49b7fc9e","system_id":"levelo_inurba_marseille","lat":43.292572,"lon":5.409036,"is_reserved":false,"is_disabled":false,"rental_uris":{"android":"levelo://app?vid=2acc595c-5e65-43b6-9de7-781f49b7fc9e","ios":"levelo://app?vid=2acc595c-5e65-43b6-9de7-781f49b7fc9e"},"vehicle_type_id":"4","last_reported":1740733810,"current_range_meters":9200,"station_id":"ce4bh012rcd13ifvqcv0","pricing_plan_id":"cebpf4jnsgd1na2vs0mg"},{"bike_id":"25e4899d-19fa-4542-8f35-ec0efe5abb09","system_id":"levelo_inurba_marseille","lat":43.29095,"lon":5.38114,"is_reserved":false,"is_disabled":false,"rental_uris":{"android":"levelo://app?vid=25e4899d-19fa-4542-8f35-ec0efe5abb09","ios":"levelo://app?vid=25e4899d-19fa-4542-8f35-ec0efe5abb09"},"vehicle_type_id":"4","last_reported":1740733810,"current_range_meters":9200,"station_id":"ce4bh512rcd13ifvqe2g","pricing_plan_id":"cebpf4jnsgd1na2vs0mg"},{"bike_id":"1720127d-b111-4d3d-95d3-75d9d265dc26","system_id":"levelo_inurba_marseille","lat":43.2315,"lon":5.43743,"is_reserved":false,"is_disabled":false,"rental_uris":{"android":"levelo://app?vid=1720127d-b111-4d3d-95d3-75d9d265dc26","ios":"levelo://app?vid=1720127d-b111-4d3d-95d3-75d9d265dc26"},"vehicle_type_id":"4","last_reported":1740733810,"current_range_meters":9200,"station_id":"ce4bhmp2rcd13ifvqgog","pricing_plan_id":"cebpf4jnsgd1na2vs0mg"},{"bike_id":"d9beabb6-dba7-4c4c-9e4f-8872c9da5ab8","system_id":"levelo_inurba_marseille","lat":43.240726,"lon":5.377622,"is_reserved":false,"is_disabled":false,"rental_uris":{"android":"levelo://app?vid=d9beabb6-dba7-4c4c-9e4f-8872c9da5ab8","ios":"levelo://app?vid=d9beabb6-dba7-4c4c-9e4f-8872c9da5ab8"},"vehicle_type_id":"4","last_reported":1740733810,"current_range_meters":9200,"station_id":"ce4bhnp2rcd13ifvqgvg","pricing_plan_id":"cebpf4jnsgd1na2vs0mg"},{"bike_id":"738790dd-10dd-4ca0-b799-c7e96fb84b4b","system_id":"levelo_inurba_marseille","lat":43.32112,"lon":5.36785,"is_reserved":false,"is_disabled":false,"rental_uris":{"android":"levelo://app?vid=738790dd-10dd-4ca0-b799-c7e96fb84b4b","ios":"levelo://app?vid=738790dd-10dd-4ca0-b799-c7e96fb84b4b"},"vehicle_type_id":"4","last_reported":1740733810,"current_range_meters":9200,"station_id":"ce4bhrh2rcd13ifvqhug","pricing_plan_id":"cebpf4jnsgd1na2vs0mg"},{"bike_id":"907ca114-5dde-4d69-a011-137e7819bc09","system_id":"levelo_inurba_marseille","lat":43.30535,"lon":5.36709,"is_reserved":false,"is_disabled":false,"rental_uris":{"android":"levelo://app?vid=907ca114-5dde-4d69-a011-137e7819bc09","ios":"levelo://app?vid=907ca114-5dde-4d69-a011-137e7819bc09"},"vehicle_type_id":"4","last_reported":1740733810,"current_range_meters":9600,"station_id":"ce4bgrp2rcd13ifvqc9g","pricing_plan_id":"cebpf4jnsgd1na2vs0mg"},{"bike_id":"28152a83-ed7a-471b-a7ac-bd5b769a251e","system_id":"levelo_inurba_marseille","lat":43.28099,"lon":5.37841,"is_reserved":false,"is_disabled":false,"rental_uris":{"android":"levelo://app?vid=28152a83-ed7a-471b-a7ac-bd5b769a251e","ios":"levelo://app?vid=28152a83-ed7a-471b-a7ac-bd5b769a251e"},"vehicle_type_id":"4","last_reported":1740733810,"current_range_meters":9600,"station_id":"ce4bha12rcd13ifvqee0","pricing_plan_id":"cebpf4jnsgd1na2vs0mg"},{"bike_id":"dbd3352a-dc10-4b2b-9a29-ccffc1875c72","system_id":"levelo_inurba_marseille","lat":43.29229,"lon":5.3606,"is_reserved":false,"is_disabled":false,"rental_uris":{"android":"levelo://app?vid=dbd3352a-dc10-4b2b-9a29-ccffc1875c72","ios":"levelo://app?vid=dbd3352a-dc10-4b2b-9a29-ccffc1875c72"},"vehicle_type_id":"4","last_reported":1740733810,"current_range_meters":9600,"station_id":"ce4bhbh2rcd13ifvqeqg","pricing_plan_id":"cebpf4jnsgd1na2vs0mg"},{"bike_id":"e89404bc-b67d-4aa0-b5b9-0d5adc52fc30","system_id":"levelo_inurba_marseille","lat":43.286189,"lon":5.350959,"is_reserved":false,"is_disabled":false,"rental_uris":{"android":"levelo://app?vid=e89404bc-b67d-4aa0-b5b9-0d5adc52fc30","ios":"levelo://app?vid=e89404bc-b67d-4aa0-b5b9-0d5adc52fc30"},"vehicle_type_id":"4","last_reported":1740733810,"current_range_meters":9600,"station_id":"ce4bhch2rcd13ifvqeug","pricing_plan_id":"cebpf4jnsgd1na2vs0mg"},{"bike_id":"25dbcaf9-c9df-42fe-9d8f-428af3b87bb9","system_id":"levelo_inurba_marseille","lat":43.272929,"lon":5.391011,"is_reserved":false,"is_disabled":false,"rental_uris":{"android":"levelo://app?vid=25dbcaf9-c9df-42fe-9d8f-428af3b87bb9","ios":"levelo://app?vid=25dbcaf9-c9df-42fe-9d8f-428af3b87bb9"},"vehicle_type_id":"4","last_reported":1740733810,"current_range_meters":9600,"station_id":"ce4bhdp2rcd13ifvqf20","pricing_plan_id":"cebpf4jnsgd1na2vs0mg"},{"bike_id":"443370dd-f8b8-457a-b6f8-389b804ff6fc","system_id":"levelo_inurba_marseille","lat":43.3236,"lon":5.389,"is_reserved":false,"is_disabled":false,"rental_uris":{"android":"levelo://app?vid=443370dd-f8b8-457a-b6f8-389b804ff6fc","ios":"levelo://app?vid=443370dd-f8b8-457a-b6f8-389b804ff6fc"},"vehicle_type_id":"4","last_reported":1740733810,"current_range_meters":9600,"station_id":"ce4bhqp2rcd13ifvqhog","pricing_plan_id":"cebpf4jnsgd1na2vs0mg"},{"bike_id":"d02aabfa-cf11-4e8c-afae-e75fbab4027c","system_id":"levelo_inurba_marseille","lat":43.32483,"lon":5.36614,"is_reserved":false,"is_disabled":false,"rental_uris":{"android":"levelo://app?vid=d02aabfa-cf11-4e8c-afae-e75fbab4027c","ios":"levelo://app?vid=d02aabfa-cf11-4e8c-afae-e75fbab4027c"},"vehicle_type_id":"4","last_reported":1740733810,"current_range_meters":9600,"station_id":"ce4bhs12rcd13ifvqhvg","pricing_plan_id":"cebpf4jnsgd1na2vs0mg"},{"bike_id":"3de9aeda-1f9a-4bbc-8b90-e02a49e56ca9","system_id":"levelo_inurba_marseille","lat":43.23199,"lon":5.35562,"is_reserved":false,"is_disabled":false,"rental_uris":{"android":"levelo://app?vid=3de9aeda-1f9a-4bbc-8b90-e02a49e56ca9","ios":"levelo://app?vid=3de9aeda-1f9a-4bbc-8b90-e02a49e56ca9"},"vehicle_type_id":"4","last_reported":1740733810,"current_range_meters":9600,"station_id":"ce4bhu92rcd13ifvqi70","pricing_plan_id":"cebpf4jnsgd1na2vs0mg"},{"bike_id":"06b91644-fcc8-46ff-8717-fd99f2ee51d4","system_id":"levelo_inurba_marseille","lat":43.30901,"lon":5.36847,"is_reserved":false,"is_disabled":false,"rental_uris":{"android":"levelo://app?vid=06b91644-fcc8-46ff-8717-fd99f2ee51d4","ios":"levelo://app?vid=06b91644-fcc8-46ff-8717-fd99f2ee51d4"},"vehicle_type_id":"4","last_reported":1740733810,"current_range_meters":10000,"station_id":"ce4bgn92rcd13ifvqbvg","pricing_plan_id":"cebpf4jnsgd1na2vs0mg"},{"bike_id":"cb583085-206e-4fef-9b07-1eeeefad272a","system_id":"levelo_inurba_marseille","lat":43.305354,"lon":5.367006,"is_reserved":false,"is_disabled":false,"rental_uris":{"android":"levelo://app?vid=cb583085-206e-4fef-9b07-1eeeefad272a","ios":"levelo://app?vid=cb583085-206e-4fef-9b07-1eeeefad272a"},"vehicle_type_id":"4","last_reported":1740733810,"current_range_meters":10000,"station_id":"ce4bgrp2rcd13ifvqc9g","pricing_plan_id":"cebpf4jnsgd1na2vs0mg"},{"bike_id":"939a9ff9-4492-432c-a94c-2ec6a0647161","system_id":"levelo_inurba_marseille","lat":43.30523,"lon":5.36716,"is_reserved":false,"is_disabled":false,"rental_uris":{"android":"levelo://app?vid=939a9ff9-4492-432c-a94c-2ec6a0647161","ios":"levelo://app?vid=939a9ff9-4492-432c-a94c-2ec6a0647161"},"vehicle_type_id":"4","last_reported":1740733810,"current_range_meters":10000,"station_id":"ce4bgrp2rcd13ifvqc9g","pricing_plan_id":"cebpf4jnsgd1na2vs0mg"},{"bike_id":"eebde319-43f8-4fb7-af32-1f06c243a6ab","system_id":"levelo_inurba_marseille","lat":43.28273,"lon":5.35057,"is_reserved":false,"is_disabled":false,"rental_uris":{"android":"levelo://app?vid=eebde319-43f8-4fb7-af32-1f06c243a6ab","ios":"levelo://app?vid=eebde319-43f8-4fb7-af32-1f06c243a6ab"},"vehicle_type_id":"4","last_reported":1740733810,"current_range_meters":10000,"station_id":"ce4bhbp2rcd13ifvqerg","pricing_plan_id":"cebpf4jnsgd1na2vs0mg"},{"bike_id":"1393e48a-5096-48c2-8ef4-ef737b7b43ae","system_id":"levelo_inurba_marseille","lat":43.2506,"lon":5.39528,"is_reserved":false,"is_disabled":false,"rental_uris":{"android":"levelo://app?vid=1393e48a-5096-48c2-8ef4-ef737b7b43ae","ios":"levelo://app?vid=1393e48a-5096-48c2-8ef4-ef737b7b43ae"},"vehicle_type_id":"4","last_reported":1740733810,"current_range_meters":10000,"station_id":"ce4bhm12rcd13ifvqgkg","pricing_plan_id":"cebpf4jnsgd1na2vs0mg"},{"bike_id":"2113e560-f672-4e81-9329-8f08d6779f80","system_id":"levelo_inurba_marseille","lat":43.2979,"lon":5.38123,"is_reserved":false,"is_disabled":false,"rental_uris":{"android":"levelo://app?vid=2113e560-f672-4e81-9329-8f08d6779f80","ios":"levelo://app?vid=2113e560-f672-4e81-9329-8f08d6779f80"},"vehicle_type_id":"4","last_reported":1740733810,"current_range_meters":10800,"station_id":"ce4bgip2rcd13ifvqbb0","pricing_plan_id":"cebpf4jnsgd1na2vs0mg"},{"bike_id":"ee3ed493-fd95-4d17-b304-da8b37b512b3","system_id":"levelo_inurba_marseille","lat":43.30169,"lon":5.38097,"is_reserved":false,"is_disabled":false,"rental_uris":{"android":"levelo://app?vid=ee3ed493-fd95-4d17-b304-da8b37b512b3","ios":"levelo://app?vid=ee3ed493-fd95-4d17-b304-da8b37b512b3"},"vehicle_type_id":"4","last_reported":1740733810,"current_range_meters":10800,"station_id":"ce4bgjp2rcd13ifvqbh0","pricing_plan_id":"cebpf4jnsgd1na2vs0mg"},{"bike_id":"10b6c0d0-a3ef-460e-ad30-22fe050ad6b8","system_id":"levelo_inurba_marseille","lat":43.2887,"lon":5.35843,"is_reserved":false,"is_disabled":false,"rental_uris":{"android":"levelo://app?vid=10b6c0d0-a3ef-460e-ad30-22fe050ad6b8","ios":"levelo://app?vid=10b6c0d0-a3ef-460e-ad30-22fe050ad6b8"},"vehicle_type_id":"4","last_reported":1740733810,"current_range_meters":10800,"station_id":"ce4bhb12rcd13ifvqem0","pricing_plan_id":"cebpf4jnsgd1na2vs0mg"},{"bike_id":"0771be02-e3e2-47da-b3c9-86df7888c832","system_id":"levelo_inurba_marseille","lat":43.29201,"lon":5.36061,"is_reserved":false,"is_disabled":false,"rental_uris":{"android":"levelo://app?vid=0771be02-e3e2-47da-b3c9-86df7888c832","ios":"levelo://app?vid=0771be02-e3e2-47da-b3c9-86df7888c832"},"vehicle_type_id":"4","last_reported":1740733810,"current_range_meters":10800,"station_id":"ce4bhbh2rcd13ifvqeqg","pricing_plan_id":"cebpf4jnsgd1na2vs0mg"},{"bike_id":"5b4bc1b6-fee5-468b-9b6f-9b5f50f586d5","system_id":"levelo_inurba_marseille","lat":43.26692,"lon":5.38277,"is_reserved":false,"is_disabled":false,"rental_uris":{"android":"levelo://app?vid=5b4bc1b6-fee5-468b-9b6f-9b5f50f586d5","ios":"levelo://app?vid=5b4bc1b6-fee5-468b-9b6f-9b5f50f586d5"},"vehicle_type_id":"4","last_reported":1740733810,"current_range_meters":10800,"station_id":"ce4bhg92rcd13ifvqf90","pricing_plan_id":"cebpf4jnsgd1na2vs0mg"},{"bike_id":"52d182f1-5b35-456e-b120-700ad9b9c06b","system_id":"levelo_inurba_marseille","lat":43.250025,"lon":5.389283,"is_reserved":false,"is_disabled":false,"rental_uris":{"android":"levelo://app?vid=52d182f1-5b35-456e-b120-700ad9b9c06b","ios":"levelo://app?vid=52d182f1-5b35-456e-b120-700ad9b9c06b"},"vehicle_type_id":"4","last_reported":1740733810,"current_range_meters":10800,"station_id":"ce4bhgp2rcd13ifvqfd0","pricing_plan_id":"cebpf4jnsgd1na2vs0mg"},{"bike_id":"07a70f40-d064-434b-83aa-228acdf7dd53","system_id":"levelo_inurba_marseille","lat":43.23174,"lon":5.39986,"is_reserved":false,"is_disabled":false,"rental_uris":{"android":"levelo://app?vid=07a70f40-d064-434b-83aa-228acdf7dd53","ios":"levelo://app?vid=07a70f40-d064-434b-83aa-228acdf7dd53"},"vehicle_type_id":"4","last_reported":1740733810,"current_range_meters":10800,"station_id":"ce4bhn12rcd13ifvqgqg","pricing_plan_id":"cebpf4jnsgd1na2vs0mg"},{"bike_id":"20d08730-d04f-482a-9ed2-1d3e29b92784","system_id":"levelo_inurba_marseille","lat":43.3235,"lon":5.38883,"is_reserved":false,"is_disabled":false,"rental_uris":{"android":"levelo://app?vid=20d08730-d04f-482a-9ed2-1d3e29b92784","ios":"levelo://app?vid=20d08730-d04f-482a-9ed2-1d3e29b92784"},"vehicle_type_id":"4","last_reported":1740733810,"current_range_meters":10800,"station_id":"ce4bhqp2rcd13ifvqhog","pricing_plan_id":"cebpf4jnsgd1na2vs0mg"},{"bike_id":"000c1b3d-144a-4ccc-a308-3937e6eba696","system_id":"levelo_inurba_marseille","lat":43.2293,"lon":5.35375,"is_reserved":false,"is_disabled":false,"rental_uris":{"android":"levelo://app?vid=000c1b3d-144a-4ccc-a308-3937e6eba696","ios":"levelo://app?vid=000c1b3d-144a-4ccc-a308-3937e6eba696"},"vehicle_type_id":"4","last_reported":1740733810,"current_range_meters":10800,"station_id":"cpo3532slgdg3j2ikp40","pricing_plan_id":"cebpf4jnsgd1na2vs0mg"},{"bike_id":"d4918d6a-5525-4be8-b0c4-7af64b54343d","system_id":"levelo_inurba_marseille","lat":43.24159,"lon":5.36412,"is_reserved":false,"is_disabled":false,"rental_uris":{"android":"levelo://app?vid=d4918d6a-5525-4be8-b0c4-7af64b54343d","ios":"levelo://app?vid=d4918d6a-5525-4be8-b0c4-7af64b54343d"},"vehicle_type_id":"4","last_reported":1740733810,"current_range_meters":10800,"station_id":"cpo36qri1sfpv3e86is0","pricing_plan_id":"cebpf4jnsgd1na2vs0mg"},{"bike_id":"721a04ed-b000-4322-94d8-505662eb0074","system_id":"levelo_inurba_marseille","lat":43.25974,"lon":5.40837,"is_reserved":false,"is_disabled":false,"rental_uris":{"android":"levelo://app?vid=721a04ed-b000-4322-94d8-505662eb0074","ios":"levelo://app?vid=721a04ed-b000-4322-94d8-505662eb0074"},"vehicle_type_id":"4","last_reported":1740733810,"current_range_meters":11200,"station_id":"","pricing_plan_id":"cebpf4jnsgd1na2vs0mg"},{"bike_id":"5b28cd77-a409-482f-8702-f764eef9151e","system_id":"levelo_inurba_marseille","lat":43.25934,"lon":5.40895,"is_reserved":false,"is_disabled":false,"rental_uris":{"android":"levelo://app?vid=5b28cd77-a409-482f-8702-f764eef9151e","ios":"levelo://app?vid=5b28cd77-a409-482f-8702-f764eef9151e"},"vehicle_type_id":"4","last_reported":1740733810,"current_range_meters":11200,"station_id":"ce4bhm92rcd13ifvqglg","pricing_plan_id":"cebpf4jnsgd1na2vs0mg"},{"bike_id":"9fe1686b-87f4-4090-857d-b2cad3d05448","system_id":"levelo_inurba_marseille","lat":43.2595,"lon":5.40914,"is_reserved":false,"is_disabled":false,"rental_uris":{"android":"levelo://app?vid=9fe1686b-87f4-4090-857d-b2cad3d05448","ios":"levelo://app?vid=9fe1686b-87f4-4090-857d-b2cad3d05448"},"vehicle_type_id":"4","last_reported":1740733810,"current_range_meters":11200,"station_id":"ce4bhm92rcd13ifvqglg","pricing_plan_id":"cebpf4jnsgd1na2vs0mg"},{"bike_id":"87adfc83-cc22-48dc-a30a-20fe3366ef4f","system_id":"levelo_inurba_marseille","lat":43.25944,"lon":5.40883,"is_reserved":false,"is_disabled":false,"rental_uris":{"android":"levelo://app?vid=87adfc83-cc22-48dc-a30a-20fe3366ef4f","ios":"levelo://app?vid=87adfc83-cc22-48dc-a30a-20fe3366ef4f"},"vehicle_type_id":"4","last_reported":1740733810,"current_range_meters":11200,"station_id":"ce4bhm92rcd13ifvqglg","pricing_plan_id":"cebpf4jnsgd1na2vs0mg"},{"bike_id":"e8d14ad1-d558-4aa2-9855-d1361afa0de1","system_id":"levelo_inurba_marseille","lat":43.28969,"lon":5.40717,"is_reserved":false,"is_disabled":false,"rental_uris":{"android":"levelo://app?vid=e8d14ad1-d558-4aa2-9855-d1361afa0de1","ios":"levelo://app?vid=e8d14ad1-d558-4aa2-9855-d1361afa0de1"},"vehicle_type_id":"4","last_reported":1740733810,"current_range_meters":11200,"station_id":"ce4bhnh2rcd13ifvqgtg","pricing_plan_id":"cebpf4jnsgd1na2vs0mg"},{"bike_id":"94dc094b-e528-48cb-9927-c0d224136f8c","system_id":"levelo_inurba_marseille","lat":43.32487,"lon":5.36571,"is_reserved":false,"is_disabled":false,"rental_uris":{"android":"levelo://app?vid=94dc094b-e528-48cb-9927-c0d224136f8c","ios":"levelo://app?vid=94dc094b-e528-48cb-9927-c0d224136f8c"},"vehicle_type_id":"4","last_reported":1740733810,"current_range_meters":11200,"station_id":"ce4bhs12rcd13ifvqhvg","pricing_plan_id":"cebpf4jnsgd1na2vs0mg"},{"bike_id":"3c02c976-0fab-4629-872f-a42cf4c02c24","system_id":"levelo_inurba_marseille","lat":43.30198,"lon":5.36596,"is_reserved":false,"is_disabled":false,"rental_uris":{"android":"levelo://app?vid=3c02c976-0fab-4629-872f-a42cf4c02c24","ios":"levelo://app?vid=3c02c976-0fab-4629-872f-a42cf4c02c24"},"vehicle_type_id":"4","last_reported":1740733810,"current_range_meters":11600,"station_id":"ce4bgrh2rcd13ifvqc8g","pricing_plan_id":"cebpf4jnsgd1na2vs0mg"},{"bike_id":"2dd0b1c3-027e-4495-9e06-3cacc0e371ef","system_id":"levelo_inurba_marseille","lat":43.30298,"lon":5.37721,"is_reserved":false,"is_disabled":false,"rental_uris":{"android":"levelo://app?vid=2dd0b1c3-027e-4495-9e06-3cacc0e371ef","ios":"levelo://app?vid=2dd0b1c3-027e-4495-9e06-3cacc0e371ef"},"vehicle_type_id":"4","last_reported":1740733810,"current_range_meters":11600,"station_id":"ce4bguh2rcd13ifvqcj0","pricing_plan_id":"cebpf4jnsgd1na2vs0mg"},{"bike_id":"2f9f99a2-13fd-4e67-b6f6-cde754ec372e","system_id":"levelo_inurba_marseille","lat":43.290081,"lon":5.356053,"is_reserved":false,"is_disabled":false,"rental_uris":{"android":"levelo://app?vid=2f9f99a2-13fd-4e67-b6f6-cde754ec372e","ios":"levelo://app?vid=2f9f99a2-13fd-4e67-b6f6-cde754ec372e"},"vehicle_type_id":"4","last_reported":1740733810,"current_range_meters":11600,"station_id":"ce4bhb92rcd13ifvqen0","pricing_plan_id":"cebpf4jnsgd1na2vs0mg"},{"bike_id":"523a4cc8-ea8d-4c67-8904-ad7fb17d3b01","system_id":"levelo_inurba_marseille","lat":43.29198,"lon":5.36067,"is_reserved":false,"is_disabled":false,"rental_uris":{"android":"levelo://app?vid=523a4cc8-ea8d-4c67-8904-ad7fb17d3b01","ios":"levelo://app?vid=523a4cc8-ea8d-4c67-8904-ad7fb17d3b01"},"vehicle_type_id":"4","last_reported":1740733810,"current_range_meters":11600,"station_id":"ce4bhbh2rcd13ifvqeqg","pricing_plan_id":"cebpf4jnsgd1na2vs0mg"},{"bike_id":"199d096e-ca37-47f9-963f-1f0656cac9e4","system_id":"levelo_inurba_marseille","lat":43.25826,"lon":5.39451,"is_reserved":false,"is_disabled":false,"rental_uris":{"android":"levelo://app?vid=199d096e-ca37-47f9-963f-1f0656cac9e4","ios":"levelo://app?vid=199d096e-ca37-47f9-963f-1f0656cac9e4"},"vehicle_type_id":"4","last_reported":1740733810,"current_range_meters":11600,"station_id":"ce4bhip2rcd13ifvqft0","pricing_plan_id":"cebpf4jnsgd1na2vs0mg"},{"bike_id":"24ed7436-ad0e-4072-9a88-85ea9f5fa8f6","system_id":"levelo_inurba_marseille","lat":43.30557,"lon":5.36695,"is_reserved":false,"is_disabled":false,"rental_uris":{"android":"levelo://app?vid=24ed7436-ad0e-4072-9a88-85ea9f5fa8f6","ios":"levelo://app?vid=24ed7436-ad0e-4072-9a88-85ea9f5fa8f6"},"vehicle_type_id":"4","last_reported":1740733810,"current_range_meters":12000,"station_id":"ce4bgrp2rcd13ifvqc9g","pricing_plan_id":"cebpf4jnsgd1na2vs0mg"},{"bike_id":"29e83c4a-18cd-46aa-8ef8-6c822344a710","system_id":"levelo_inurba_marseille","lat":43.24656,"lon":5.38899,"is_reserved":false,"is_disabled":false,"rental_uris":{"android":"levelo://app?vid=29e83c4a-18cd-46aa-8ef8-6c822344a710","ios":"levelo://app?vid=29e83c4a-18cd-46aa-8ef8-6c822344a710"},"vehicle_type_id":"4","last_reported":1740733810,"current_range_meters":12000,"station_id":"ce4bhg12rcd13ifvqf60","pricing_plan_id":"cebpf4jnsgd1na2vs0mg"},{"bike_id":"2a15582d-8ec7-4491-b977-3b2a0c07f0d5","system_id":"levelo_inurba_marseille","lat":43.26948,"lon":5.38628,"is_reserved":false,"is_disabled":false,"rental_uris":{"android":"levelo://app?vid=2a15582d-8ec7-4491-b977-3b2a0c07f0d5","ios":"levelo://app?vid=2a15582d-8ec7-4491-b977-3b2a0c07f0d5"},"vehicle_type_id":"4","last_reported":1740733810,"current_range_meters":12000,"station_id":"ce4bhh92rcd13ifvqfh0","pricing_plan_id":"cebpf4jnsgd1na2vs0mg"},{"bike_id":"477e7770-5906-4cdc-a047-08af60219101","system_id":"levelo_inurba_marseille","lat":43.3054,"lon":5.3671,"is_reserved":false,"is_disabled":false,"rental_uris":{"android":"levelo://app?vid=477e7770-5906-4cdc-a047-08af60219101","ios":"levelo://app?vid=477e7770-5906-4cdc-a047-08af60219101"},"vehicle_type_id":"4","last_reported":1740733810,"current_range_meters":12400,"station_id":"ce4bgrp2rcd13ifvqc9g","pricing_plan_id":"cebpf4jnsgd1na2vs0mg"},{"bike_id":"2693addf-6b0f-4d5b-aba4-c55b84237091","system_id":"levelo_inurba_marseille","lat":43.30479,"lon":5.37917,"is_reserved":false,"is_disabled":false,"rental_uris":{"android":"levelo://app?vid=2693addf-6b0f-4d5b-aba4-c55b84237091","ios":"levelo://app?vid=2693addf-6b0f-4d5b-aba4-c55b84237091"},"vehicle_type_id":"4","last_reported":1740733810,"current_range_meters":12400,"station_id":"ce4bgup2rcd13ifvqcn0","pricing_plan_id":"cebpf4jnsgd1na2vs0mg"},{"bike_id":"29f5e715-c213-4b05-9847-aac4a393f838","system_id":"levelo_inurba_marseille","lat":43.28712,"lon":5.37926,"is_reserved":false,"is_disabled":false,"rental_uris":{"android":"levelo://app?vid=29f5e715-c213-4b05-9847-aac4a393f838","ios":"levelo://app?vid=29f5e715-c213-4b05-9847-aac4a393f838"},"vehicle_type_id":"4","last_reported":1740733810,"current_range_meters":12400,"station_id":"ce4bh9p2rcd13ifvqec0","pricing_plan_id":"cebpf4jnsgd1na2vs0mg"},{"bike_id":"43d6aa6f-20c7-4a1b-bcb8-31b660876567","system_id":"levelo_inurba_marseille","lat":43.26555,"lon":5.37284,"is_reserved":false,"is_disabled":false,"rental_uris":{"android":"levelo://app?vid=43d6aa6f-20c7-4a1b-bcb8-31b660876567","ios":"levelo://app?vid=43d6aa6f-20c7-4a1b-bcb8-31b660876567"},"vehicle_type_id":"4","last_reported":1740733810,"current_range_meters":12400,"station_id":"ce4bhg12rcd13ifvqf70","pricing_plan_id":"cebpf4jnsgd1na2vs0mg"},{"bike_id":"67ed2ec6-9a93-403a-9e9b-df29702e6329","system_id":"levelo_inurba_marseille","lat":43.27345,"lon":5.39103,"is_reserved":false,"is_disabled":false,"rental_uris":{"android":"levelo://app?vid=67ed2ec6-9a93-403a-9e9b-df29702e6329","ios":"levelo://app?vid=67ed2ec6-9a93-403a-9e9b-df29702e6329"},"vehicle_type_id":"4","last_reported":1740733810,"current_range_meters":12400,"station_id":"ce4bhgp2rcd13ifvqfe0","pricing_plan_id":"cebpf4jnsgd1na2vs0mg"},{"bike_id":"3f5e4c77-943b-4a46-b257-614bf13afec4","system_id":"levelo_inurba_marseille","lat":43.2416,"lon":5.36402,"is_reserved":false,"is_disabled":false,"rental_uris":{"android":"levelo://app?vid=3f5e4c77-943b-4a46-b257-614bf13afec4","ios":"levelo://app?vid=3f5e4c77-943b-4a46-b257-614bf13afec4"},"vehicle_type_id":"4","last_reported":1740733810,"current_range_meters":12400,"station_id":"cpo36qri1sfpv3e86is0","pricing_plan_id":"cebpf4jnsgd1na2vs0mg"},{"bike_id":"f1d98852-08ff-40e4-966a-0d326c53bdc3","system_id":"levelo_inurba_marseille","lat":43.29623,"lon":5.377208,"is_reserved":false,"is_disabled":false,"rental_uris":{"android":"levelo://app?vid=f1d98852-08ff-40e4-966a-0d326c53bdc3","ios":"levelo://app?vid=f1d98852-08ff-40e4-966a-0d326c53bdc3"},"vehicle_type_id":"4","last_reported":1740733810,"current_range_meters":12800,"station_id":"ce4bh4p2rcd13ifvqe1g","pricing_plan_id":"cebpf4jnsgd1na2vs0mg"},{"bike_id":"054aaca5-d3de-47a9-a6da-2fea7bc749ff","system_id":"levelo_inurba_marseille","lat":43.29272,"lon":5.38445,"is_reserved":false,"is_disabled":false,"rental_uris":{"android":"levelo://app?vid=054aaca5-d3de-47a9-a6da-2fea7bc749ff","ios":"levelo://app?vid=054aaca5-d3de-47a9-a6da-2fea7bc749ff"},"vehicle_type_id":"4","last_reported":1740733810,"current_range_meters":12800,"station_id":"ce4bh692rcd13ifvqea0","pricing_plan_id":"cebpf4jnsgd1na2vs0mg"},{"bike_id":"811eda59-bc15-429b-bb7e-fbbc69a0e7c9","system_id":"levelo_inurba_marseille","lat":43.25151,"lon":5.39489,"is_reserved":false,"is_disabled":false,"rental_uris":{"android":"levelo://app?vid=811eda59-bc15-429b-bb7e-fbbc69a0e7c9","ios":"levelo://app?vid=811eda59-bc15-429b-bb7e-fbbc69a0e7c9"},"vehicle_type_id":"4","last_reported":1740733810,"current_range_meters":12800,"station_id":"ce4bhh12rcd13ifvqff0","pricing_plan_id":"cebpf4jnsgd1na2vs0mg"},{"bike_id":"15204670-483e-4adc-adc6-2fb8bc37754c","system_id":"levelo_inurba_marseille","lat":43.25816,"lon":5.39428,"is_reserved":false,"is_disabled":false,"rental_uris":{"android":"levelo://app?vid=15204670-483e-4adc-adc6-2fb8bc37754c","ios":"levelo://app?vid=15204670-483e-4adc-adc6-2fb8bc37754c"},"vehicle_type_id":"4","last_reported":1740733810,"current_range_meters":12800,"station_id":"ce4bhip2rcd13ifvqft0","pricing_plan_id":"cebpf4jnsgd1na2vs0mg"},{"bike_id":"727d560b-02da-47e4-b634-bf70468d1d85","system_id":"levelo_inurba_marseille","lat":43.292945,"lon":5.379688,"is_reserved":false,"is_disabled":false,"rental_uris":{"android":"levelo://app?vid=727d560b-02da-47e4-b634-bf70468d1d85","ios":"levelo://app?vid=727d560b-02da-47e4-b634-bf70468d1d85"},"vehicle_type_id":"4","last_reported":1740733810,"current_range_meters":13600,"station_id":"ce4bgjh2rcd13ifvqbf0","pricing_plan_id":"cebpf4jnsgd1na2vs0mg"},{"bike_id":"0dc607ed-51d8-42ad-91b2-9355a26172a6","system_id":"levelo_inurba_marseille","lat":43.2973,"lon":5.37685,"is_reserved":false,"is_disabled":false,"rental_uris":{"android":"levelo://app?vid=0dc607ed-51d8-42ad-91b2-9355a26172a6","ios":"levelo://app?vid=0dc607ed-51d8-42ad-91b2-9355a26172a6"},"vehicle_type_id":"4","last_reported":1740733810,"current_range_meters":13600,"station_id":"ce4bgkh2rcd13ifvqbl0","pricing_plan_id":"cebpf4jnsgd1na2vs0mg"},{"bike_id":"efc79a76-3ab8-4413-b783-6bcd138296da","system_id":"levelo_inurba_marseille","lat":43.29757,"lon":5.37076,"is_reserved":false,"is_disabled":false,"rental_uris":{"android":"levelo://app?vid=efc79a76-3ab8-4413-b783-6bcd138296da","ios":"levelo://app?vid=efc79a76-3ab8-4413-b783-6bcd138296da"},"vehicle_type_id":"4","last_reported":1740733810,"current_range_meters":13600,"station_id":"ce4bgop2rcd13ifvqc1g","pricing_plan_id":"cebpf4jnsgd1na2vs0mg"},{"bike_id":"43325733-8d55-43ef-8031-5770fd7a1e76","system_id":"levelo_inurba_marseille","lat":43.27308,"lon":5.39085,"is_reserved":false,"is_disabled":false,"rental_uris":{"android":"levelo://app?vid=43325733-8d55-43ef-8031-5770fd7a1e76","ios":"levelo://app?vid=43325733-8d55-43ef-8031-5770fd7a1e76"},"vehicle_type_id":"4","last_reported":1740733810,"current_range_meters":13600,"station_id":"ce4bhgp2rcd13ifvqfe0","pricing_plan_id":"cebpf4jnsgd1na2vs0mg"},{"bike_id":"7d54b79d-a80a-4fa9-a911-c9017b4c6924","system_id":"levelo_inurba_marseille","lat":43.33625,"lon":5.40997,"is_reserved":false,"is_disabled":false,"rental_uris":{"android":"levelo://app?vid=7d54b79d-a80a-4fa9-a911-c9017b4c6924","ios":"levelo://app?vid=7d54b79d-a80a-4fa9-a911-c9017b4c6924"},"vehicle_type_id":"4","last_reported":1740733810,"current_range_meters":13600,"station_id":"ce4bhqh2rcd13ifvqhmg","pricing_plan_id":"cebpf4jnsgd1na2vs0mg"},{"bike_id":"b512e819-657e-4709-b725-ca7fe89e43e9","system_id":"levelo_inurba_marseille","lat":43.27293,"lon":5.3907,"is_reserved":false,"is_disabled":false,"rental_uris":{"android":"levelo://app?vid=b512e819-657e-4709-b725-ca7fe89e43e9","ios":"levelo://app?vid=b512e819-657e-4709-b725-ca7fe89e43e9"},"vehicle_type_id":"4","last_reported":1740733810,"current_range_meters":14000,"station_id":"ce4bhgp2rcd13ifvqfe0","pricing_plan_id":"cebpf4jnsgd1na2vs0mg"},{"bike_id":"4f27def9-9f4b-46d5-98cd-ff33f940bcfa","system_id":"levelo_inurba_marseille","lat":43.26953,"lon":5.38641,"is_reserved":false,"is_disabled":false,"rental_uris":{"android":"levelo://app?vid=4f27def9-9f4b-46d5-98cd-ff33f940bcfa","ios":"levelo://app?vid=4f27def9-9f4b-46d5-98cd-ff33f940bcfa"},"vehicle_type_id":"4","last_reported":1740733810,"current_range_meters":14000,"station_id":"ce4bhh92rcd13ifvqfh0","pricing_plan_id":"cebpf4jnsgd1na2vs0mg"},{"bike_id":"fde9784a-1db5-483a-850f-1d9e4b4a7afd","system_id":"levelo_inurba_marseille","lat":43.25939,"lon":5.40904,"is_reserved":false,"is_disabled":false,"rental_uris":{"android":"levelo://app?vid=fde9784a-1db5-483a-850f-1d9e4b4a7afd","ios":"levelo://app?vid=fde9784a-1db5-483a-850f-1d9e4b4a7afd"},"vehicle_type_id":"4","last_reported":1740733810,"current_range_meters":14000,"station_id":"ce4bhm92rcd13ifvqglg","pricing_plan_id":"cebpf4jnsgd1na2vs0mg"},{"bike_id":"06a2da58-3ae4-43ed-be99-99758ed898df","system_id":"levelo_inurba_marseille","lat":43.24167,"lon":5.39737,"is_reserved":false,"is_disabled":false,"rental_uris":{"android":"levelo://app?vid=06a2da58-3ae4-43ed-be99-99758ed898df","ios":"levelo://app?vid=06a2da58-3ae4-43ed-be99-99758ed898df"},"vehicle_type_id":"4","last_reported":1740733810,"current_range_meters":14000,"station_id":"ce4bhn12rcd13ifvqgpg","pricing_plan_id":"cebpf4jnsgd1na2vs0mg"},{"bike_id":"7530a028-687c-44db-bbdb-6e3fe3b9b1e1","system_id":"levelo_inurba_marseille","lat":43.30908,"lon":5.36845,"is_reserved":false,"is_disabled":false,"rental_uris":{"android":"levelo://app?vid=7530a028-687c-44db-bbdb-6e3fe3b9b1e1","ios":"levelo://app?vid=7530a028-687c-44db-bbdb-6e3fe3b9b1e1"},"vehicle_type_id":"4","last_reported":1740733810,"current_range_meters":14400,"station_id":"ce4bgn92rcd13ifvqbvg","pricing_plan_id":"cebpf4jnsgd1na2vs0mg"},{"bike_id":"24476cb6-9c12-4997-ab8d-8cfe9d8b4bb4","system_id":"levelo_inurba_marseille","lat":43.28619,"lon":5.351011,"is_reserved":false,"is_disabled":false,"rental_uris":{"android":"levelo://app?vid=24476cb6-9c12-4997-ab8d-8cfe9d8b4bb4","ios":"levelo://app?vid=24476cb6-9c12-4997-ab8d-8cfe9d8b4bb4"},"vehicle_type_id":"4","last_reported":1740733810,"current_range_meters":14400,"station_id":"ce4bhch2rcd13ifvqeug","pricing_plan_id":"cebpf4jnsgd1na2vs0mg"},{"bike_id":"7f460228-eaa7-4070-8c4f-3c84b0229773","system_id":"levelo_inurba_marseille","lat":43.25583,"lon":5.38221,"is_reserved":false,"is_disabled":false,"rental_uris":{"android":"levelo://app?vid=7f460228-eaa7-4070-8c4f-3c84b0229773","ios":"levelo://app?vid=7f460228-eaa7-4070-8c4f-3c84b0229773"},"vehicle_type_id":"4","last_reported":1740733810,"current_range_meters":14400,"station_id":"ce4bhih2rcd13ifvqfs0","pricing_plan_id":"cebpf4jnsgd1na2vs0mg"},{"bike_id":"0ca3762a-72de-42a2-b6ac-f14be1a9578b","system_id":"levelo_inurba_marseille","lat":43.25936,"lon":5.40906,"is_reserved":false,"is_disabled":false,"rental_uris":{"android":"levelo://app?vid=0ca3762a-72de-42a2-b6ac-f14be1a9578b","ios":"levelo://app?vid=0ca3762a-72de-42a2-b6ac-f14be1a9578b"},"vehicle_type_id":"4","last_reported":1740733810,"current_range_meters":14400,"station_id":"ce4bhm92rcd13ifvqglg","pricing_plan_id":"cebpf4jnsgd1na2vs0mg"},{"bike_id":"382d557d-8024-4f45-8140-482a40d06b19","system_id":"levelo_inurba_marseille","lat":43.27826,"lon":5.40732,"is_reserved":false,"is_disabled":false,"rental_uris":{"android":"levelo://app?vid=382d557d-8024-4f45-8140-482a40d06b19","ios":"levelo://app?vid=382d557d-8024-4f45-8140-482a40d06b19"},"vehicle_type_id":"4","last_reported":1740733810,"current_range_meters":14400,"station_id":"ce4bhnh2rcd13ifvqgtg","pricing_plan_id":"cebpf4jnsgd1na2vs0mg"},{"bike_id":"4c085b74-4c74-4743-8333-de656c6a6ac8","system_id":"levelo_inurba_marseille","lat":43.29577,"lon":5.37497,"is_reserved":false,"is_disabled":false,"rental_uris":{"android":"levelo://app?vid=4c085b74-4c74-4743-8333-de656c6a6ac8","ios":"levelo://app?vid=4c085b74-4c74-4743-8333-de656c6a6ac8"},"vehicle_type_id":"4","last_reported":1740733810,"current_range_meters":14800,"station_id":"ce4bgh92rcd13ifvqb50","pricing_plan_id":"cebpf4jnsgd1na2vs0mg"},{"bike_id":"52395f35-3ccc-443a-8aa5-6e1f44ad2cbd","system_id":"levelo_inurba_marseille","lat":43.31368,"lon":5.36718,"is_reserved":false,"is_disabled":false,"rental_uris":{"android":"levelo://app?vid=52395f35-3ccc-443a-8aa5-6e1f44ad2cbd","ios":"levelo://app?vid=52395f35-3ccc-443a-8aa5-6e1f44ad2cbd"},"vehicle_type_id":"4","last_reported":1740733810,"current_range_meters":14800,"station_id":"ce4bgr92rcd13ifvqc6g","pricing_plan_id":"cebpf4jnsgd1na2vs0mg"},{"bike_id":"333188c0-496a-45c7-b5b4-09db5173515c","system_id":"levelo_inurba_marseille","lat":43.30145,"lon":5.37426,"is_reserved":false,"is_disabled":false,"rental_uris":{"android":"levelo://app?vid=333188c0-496a-45c7-b5b4-09db5173515c","ios":"levelo://app?vid=333188c0-496a-45c7-b5b4-09db5173515c"},"vehicle_type_id":"4","last_reported":1740733810,"current_range_meters":14800,"station_id":"ce4bgs92rcd13ifvqcc0","pricing_plan_id":"cebpf4jnsgd1na2vs0mg"},{"bike_id":"9d243c69-16e2-4c3b-a7dc-6c83c9c0968d","system_id":"levelo_inurba_marseille","lat":43.24074,"lon":5.37746,"is_reserved":false,"is_disabled":false,"rental_uris":{"android":"levelo://app?vid=9d243c69-16e2-4c3b-a7dc-6c83c9c0968d","ios":"levelo://app?vid=9d243c69-16e2-4c3b-a7dc-6c83c9c0968d"},"vehicle_type_id":"4","last_reported":1740733810,"current_range_meters":14800,"station_id":"ce4bhnp2rcd13ifvqgvg","pricing_plan_id":"cebpf4jnsgd1na2vs0mg"},{"bike_id":"f5fe4361-1d3d-4314-a7e8-95ca49fcf6f9","system_id":"levelo_inurba_marseille","lat":43.31958,"lon":5.36847,"is_reserved":false,"is_disabled":false,"rental_uris":{"android":"levelo://app?vid=f5fe4361-1d3d-4314-a7e8-95ca49fcf6f9","ios":"levelo://app?vid=f5fe4361-1d3d-4314-a7e8-95ca49fcf6f9"},"vehicle_type_id":"4","last_reported":1740733810,"current_range_meters":15200,"station_id":"","pricing_plan_id":"cebpf4jnsgd1na2vs0mg"},{"bike_id":"1a44f7c9-d040-4c9a-b6e8-b88453553709","system_id":"levelo_inurba_marseille","lat":43.29795,"lon":5.37097,"is_reserved":false,"is_disabled":false,"rental_uris":{"android":"levelo://app?vid=1a44f7c9-d040-4c9a-b6e8-b88453553709","ios":"levelo://app?vid=1a44f7c9-d040-4c9a-b6e8-b88453553709"},"vehicle_type_id":"4","last_reported":1740733810,"current_range_meters":15200,"station_id":"ce4bgop2rcd13ifvqc1g","pricing_plan_id":"cebpf4jnsgd1na2vs0mg"},{"bike_id":"556178c3-67c1-4f70-8c7a-4e7816088669","system_id":"levelo_inurba_marseille","lat":43.28624,"lon":5.35113,"is_reserved":false,"is_disabled":false,"rental_uris":{"android":"levelo://app?vid=556178c3-67c1-4f70-8c7a-4e7816088669","ios":"levelo://app?vid=556178c3-67c1-4f70-8c7a-4e7816088669"},"vehicle_type_id":"4","last_reported":1740733810,"current_range_meters":15200,"station_id":"ce4bhch2rcd13ifvqeug","pricing_plan_id":"cebpf4jnsgd1na2vs0mg"},{"bike_id":"90bb0657-8dd1-4b3e-85eb-0ff57d024ae5","system_id":"levelo_inurba_marseille","lat":43.23154,"lon":5.43723,"is_reserved":false,"is_disabled":false,"rental_uris":{"android":"levelo://app?vid=90bb0657-8dd1-4b3e-85eb-0ff57d024ae5","ios":"levelo://app?vid=90bb0657-8dd1-4b3e-85eb-0ff57d024ae5"},"vehicle_type_id":"4","last_reported":1740733810,"current_range_meters":15200,"station_id":"ce4bhmp2rcd13ifvqgog","pricing_plan_id":"cebpf4jnsgd1na2vs0mg"},{"bike_id":"d257b5ba-96c4-4279-946f-62a99a9e9247","system_id":"levelo_inurba_marseille","lat":43.33609,"lon":5.41025,"is_reserved":false,"is_disabled":false,"rental_uris":{"android":"levelo://app?vid=d257b5ba-96c4-4279-946f-62a99a9e9247","ios":"levelo://app?vid=d257b5ba-96c4-4279-946f-62a99a9e9247"},"vehicle_type_id":"4","last_reported":1740733810,"current_range_meters":15200,"station_id":"ce4bhqh2rcd13ifvqhmg","pricing_plan_id":"cebpf4jnsgd1na2vs0mg"},{"bike_id":"3c5ad829-4f18-4913-9225-70e2b636b9b9","system_id":"levelo_inurba_marseille","lat":43.32484,"lon":5.36562,"is_reserved":false,"is_disabled":false,"rental_uris":{"android":"levelo://app?vid=3c5ad829-4f18-4913-9225-70e2b636b9b9","ios":"levelo://app?vid=3c5ad829-4f18-4913-9225-70e2b636b9b9"},"vehicle_type_id":"4","last_reported":1740733810,"current_range_meters":15200,"station_id":"ce4bhs12rcd13ifvqhvg","pricing_plan_id":"cebpf4jnsgd1na2vs0mg"},{"bike_id":"364b209e-752e-45ea-b26c-06b2552c1833","system_id":"levelo_inurba_marseille","lat":43.23222,"lon":5.35572,"is_reserved":false,"is_disabled":false,"rental_uris":{"android":"levelo://app?vid=364b209e-752e-45ea-b26c-06b2552c1833","ios":"levelo://app?vid=364b209e-752e-45ea-b26c-06b2552c1833"},"vehicle_type_id":"4","last_reported":1740733810,"current_range_meters":15200,"station_id":"ce4bhu92rcd13ifvqi70","pricing_plan_id":"cebpf4jnsgd1na2vs0mg"},{"bike_id":"6efc8275-ffc8-4f10-bbf2-20ae75df181c","system_id":"levelo_inurba_marseille","lat":43.31391,"lon":5.36709,"is_reserved":false,"is_disabled":false,"rental_uris":{"android":"levelo://app?vid=6efc8275-ffc8-4f10-bbf2-20ae75df181c","ios":"levelo://app?vid=6efc8275-ffc8-4f10-bbf2-20ae75df181c"},"vehicle_type_id":"4","last_reported":1740733810,"current_range_meters":16000,"station_id":"","pricing_plan_id":"cebpf4jnsgd1na2vs0mg"},{"bike_id":"a5461004-9071-4d8d-8643-9921c5002369","system_id":"levelo_inurba_marseille","lat":43.3149,"lon":5.37309,"is_reserved":false,"is_disabled":false,"rental_uris":{"android":"levelo://app?vid=a5461004-9071-4d8d-8643-9921c5002369","ios":"levelo://app?vid=a5461004-9071-4d8d-8643-9921c5002369"},"vehicle_type_id":"4","last_reported":1740733810,"current_range_meters":16000,"station_id":"ce4bgt12rcd13ifvqcd0","pricing_plan_id":"cebpf4jnsgd1na2vs0mg"},{"bike_id":"22b5d680-2f4f-4b29-9786-c72d42c3fe5d","system_id":"levelo_inurba_marseille","lat":43.27318,"lon":5.39085,"is_reserved":false,"is_disabled":false,"rental_uris":{"android":"levelo://app?vid=22b5d680-2f4f-4b29-9786-c72d42c3fe5d","ios":"levelo://app?vid=22b5d680-2f4f-4b29-9786-c72d42c3fe5d"},"vehicle_type_id":"4","last_reported":1740733810,"current_range_meters":16000,"station_id":"ce4bhgp2rcd13ifvqfe0","pricing_plan_id":"cebpf4jnsgd1na2vs0mg"},{"bike_id":"1646d5a3-2882-4c46-8dce-97e42c719d0a","system_id":"levelo_inurba_marseille","lat":43.26945,"lon":5.38583,"is_reserved":false,"is_disabled":false,"rental_uris":{"android":"levelo://app?vid=1646d5a3-2882-4c46-8dce-97e42c719d0a","ios":"levelo://app?vid=1646d5a3-2882-4c46-8dce-97e42c719d0a"},"vehicle_type_id":"4","last_reported":1740733810,"current_range_meters":16000,"station_id":"ce4bhh92rcd13ifvqfh0","pricing_plan_id":"cebpf4jnsgd1na2vs0mg"},{"bike_id":"d79774a6-7426-41ac-b7c6-85789974d608","system_id":"levelo_inurba_marseille","lat":43.25585,"lon":5.38226,"is_reserved":false,"is_disabled":false,"rental_uris":{"android":"levelo://app?vid=d79774a6-7426-41ac-b7c6-85789974d608","ios":"levelo://app?vid=d79774a6-7426-41ac-b7c6-85789974d608"},"vehicle_type_id":"4","last_reported":1740733810,"current_range_meters":16000,"station_id":"ce4bhih2rcd13ifvqfs0","pricing_plan_id":"cebpf4jnsgd1na2vs0mg"},{"bike_id":"2eb93d30-a478-43d1-b3ee-469d7e4ebdd5","system_id":"levelo_inurba_marseille","lat":43.2784,"lon":5.39214,"is_reserved":false,"is_disabled":false,"rental_uris":{"android":"levelo://app?vid=2eb93d30-a478-43d1-b3ee-469d7e4ebdd5","ios":"levelo://app?vid=2eb93d30-a478-43d1-b3ee-469d7e4ebdd5"},"vehicle_type_id":"4","last_reported":1740733810,"current_range_meters":16000,"station_id":"ce4bhjp2rcd13ifvqga0","pricing_plan_id":"cebpf4jnsgd1na2vs0mg"},{"bike_id":"9b443045-c036-496e-8da8-b27cd4386d41","system_id":"levelo_inurba_marseille","lat":43.32488,"lon":5.36585,"is_reserved":false,"is_disabled":false,"rental_uris":{"android":"levelo://app?vid=9b443045-c036-496e-8da8-b27cd4386d41","ios":"levelo://app?vid=9b443045-c036-496e-8da8-b27cd4386d41"},"vehicle_type_id":"4","last_reported":1740733810,"current_range_meters":16000,"station_id":"ce4bhs12rcd13ifvqhvg","pricing_plan_id":"cebpf4jnsgd1na2vs0mg"},{"bike_id":"49e9cdc7-76a5-4b66-ae2d-61c73beb73a8","system_id":"levelo_inurba_marseille","lat":43.24164,"lon":5.36434,"is_reserved":false,"is_disabled":false,"rental_uris":{"android":"levelo://app?vid=49e9cdc7-76a5-4b66-ae2d-61c73beb73a8","ios":"levelo://app?vid=49e9cdc7-76a5-4b66-ae2d-61c73beb73a8"},"vehicle_type_id":"4","last_reported":1740733810,"current_range_meters":16000,"station_id":"cpo36qri1sfpv3e86is0","pricing_plan_id":"cebpf4jnsgd1na2vs0mg"},{"bike_id":"97dfedee-1f07-4b77-8bed-68b5cd3dee46","system_id":"levelo_inurba_marseille","lat":43.3062,"lon":5.39352,"is_reserved":false,"is_disabled":false,"rental_uris":{"android":"levelo://app?vid=97dfedee-1f07-4b77-8bed-68b5cd3dee46","ios":"levelo://app?vid=97dfedee-1f07-4b77-8bed-68b5cd3dee46"},"vehicle_type_id":"4","last_reported":1740733810,"current_range_meters":16400,"station_id":"ce4bh0p2rcd13ifvqd80","pricing_plan_id":"cebpf4jnsgd1na2vs0mg"},{"bike_id":"7b3775ec-3773-473e-a0bd-9bb9aa09c446","system_id":"levelo_inurba_marseille","lat":43.29204,"lon":5.39322,"is_reserved":false,"is_disabled":false,"rental_uris":{"android":"levelo://app?vid=7b3775ec-3773-473e-a0bd-9bb9aa09c446","ios":"levelo://app?vid=7b3775ec-3773-473e-a0bd-9bb9aa09c446"},"vehicle_type_id":"4","last_reported":1740733810,"current_range_meters":16400,"station_id":"ce4bh192rcd13ifvqdd0","pricing_plan_id":"cebpf4jnsgd1na2vs0mg"},{"bike_id":"ce5d1bce-0db1-410f-b8dd-29d101bfd5ae","system_id":"levelo_inurba_marseille","lat":43.27983,"lon":5.38728,"is_reserved":false,"is_disabled":false,"rental_uris":{"android":"levelo://app?vid=ce5d1bce-0db1-410f-b8dd-29d101bfd5ae","ios":"levelo://app?vid=ce5d1bce-0db1-410f-b8dd-29d101bfd5ae"},"vehicle_type_id":"4","last_reported":1740733810,"current_range_meters":16400,"station_id":"ce4bhg12rcd13ifvqf80","pricing_plan_id":"cebpf4jnsgd1na2vs0mg"},{"bike_id":"e14b89e4-e594-48d5-8dbd-a72d8c597903","system_id":"levelo_inurba_marseille","lat":43.26216,"lon":5.37439,"is_reserved":false,"is_disabled":false,"rental_uris":{"android":"levelo://app?vid=e14b89e4-e594-48d5-8dbd-a72d8c597903","ios":"levelo://app?vid=e14b89e4-e594-48d5-8dbd-a72d8c597903"},"vehicle_type_id":"4","last_reported":1740733810,"current_range_meters":16400,"station_id":"ce4bhgp2rcd13ifvqfc0","pricing_plan_id":"cebpf4jnsgd1na2vs0mg"},{"bike_id":"8b119485-5dc4-49b7-8f69-d549bf55a7e9","system_id":"levelo_inurba_marseille","lat":43.25032,"lon":5.38946,"is_reserved":false,"is_disabled":false,"rental_uris":{"android":"levelo://app?vid=8b119485-5dc4-49b7-8f69-d549bf55a7e9","ios":"levelo://app?vid=8b119485-5dc4-49b7-8f69-d549bf55a7e9"},"vehicle_type_id":"4","last_reported":1740733810,"current_range_meters":16400,"station_id":"ce4bhgp2rcd13ifvqfd0","pricing_plan_id":"cebpf4jnsgd1na2vs0mg"},{"bike_id":"c84f47e5-27b1-47a9-a2d2-ba104cc1f39a","system_id":"levelo_inurba_marseille","lat":43.323556,"lon":5.367571,"is_reserved":false,"is_disabled":false,"rental_uris":{"android":"levelo://app?vid=c84f47e5-27b1-47a9-a2d2-ba104cc1f39a","ios":"levelo://app?vid=c84f47e5-27b1-47a9-a2d2-ba104cc1f39a"},"vehicle_type_id":"4","last_reported":1740733810,"current_range_meters":16400,"station_id":"ce4bhsh2rcd13ifvqi2g","pricing_plan_id":"cebpf4jnsgd1na2vs0mg"},{"bike_id":"597c78d8-1097-48db-b3be-fafc8754eab9","system_id":"levelo_inurba_marseille","lat":43.24171,"lon":5.36393,"is_reserved":false,"is_disabled":false,"rental_uris":{"android":"levelo://app?vid=597c78d8-1097-48db-b3be-fafc8754eab9","ios":"levelo://app?vid=597c78d8-1097-48db-b3be-fafc8754eab9"},"vehicle_type_id":"4","last_reported":1740733810,"current_range_meters":16400,"station_id":"cpo36qri1sfpv3e86is0","pricing_plan_id":"cebpf4jnsgd1na2vs0mg"},{"bike_id":"57ec8465-c3c9-4132-bf64-41992c2bd7c6","system_id":"levelo_inurba_marseille","lat":43.31238,"lon":5.36891,"is_reserved":false,"is_disabled":false,"rental_uris":{"android":"levelo://app?vid=57ec8465-c3c9-4132-bf64-41992c2bd7c6","ios":"levelo://app?vid=57ec8465-c3c9-4132-bf64-41992c2bd7c6"},"vehicle_type_id":"4","last_reported":1740733810,"current_range_meters":16800,"station_id":"ce4bgl92rcd13ifvqbq0","pricing_plan_id":"cebpf4jnsgd1na2vs0mg"},{"bike_id":"c98ea86c-7c4c-4a1e-80b7-432a5e8772c7","system_id":"levelo_inurba_marseille","lat":43.30866,"lon":5.37187,"is_reserved":false,"is_disabled":false,"rental_uris":{"android":"levelo://app?vid=c98ea86c-7c4c-4a1e-80b7-432a5e8772c7","ios":"levelo://app?vid=c98ea86c-7c4c-4a1e-80b7-432a5e8772c7"},"vehicle_type_id":"4","last_reported":1740733810,"current_range_meters":16800,"station_id":"ce4bguh2rcd13ifvqckg","pricing_plan_id":"cebpf4jnsgd1na2vs0mg"},{"bike_id":"3ad24ede-4c66-46dc-8490-ac4809a6f410","system_id":"levelo_inurba_marseille","lat":43.29922,"lon":5.38154,"is_reserved":false,"is_disabled":false,"rental_uris":{"android":"levelo://app?vid=3ad24ede-4c66-46dc-8490-ac4809a6f410","ios":"levelo://app?vid=3ad24ede-4c66-46dc-8490-ac4809a6f410"},"vehicle_type_id":"4","last_reported":1740733810,"current_range_meters":17200,"station_id":"ce4bgj12rcd13ifvqbc0","pricing_plan_id":"cebpf4jnsgd1na2vs0mg"},{"bike_id":"16fc874e-5ce3-4d14-a705-457cbd72c3c7","system_id":"levelo_inurba_marseille","lat":43.29009,"lon":5.38647,"is_reserved":false,"is_disabled":false,"rental_uris":{"android":"levelo://app?vid=16fc874e-5ce3-4d14-a705-457cbd72c3c7","ios":"levelo://app?vid=16fc874e-5ce3-4d14-a705-457cbd72c3c7"},"vehicle_type_id":"4","last_reported":1740733810,"current_range_meters":17200,"station_id":"ce4bh4p2rcd13ifvqe0g","pricing_plan_id":"cebpf4jnsgd1na2vs0mg"},{"bike_id":"8ba9e98b-5164-4b0e-86bb-bb78b32c6e5c","system_id":"levelo_inurba_marseille","lat":43.28997,"lon":5.38122,"is_reserved":false,"is_disabled":false,"rental_uris":{"android":"levelo://app?vid=8ba9e98b-5164-4b0e-86bb-bb78b32c6e5c","ios":"levelo://app?vid=8ba9e98b-5164-4b0e-86bb-bb78b32c6e5c"},"vehicle_type_id":"4","last_reported":1740733810,"current_range_meters":17200,"station_id":"ce4bh4p2rcd13ifvqe1g","pricing_plan_id":"cebpf4jnsgd1na2vs0mg"},{"bike_id":"52c36cca-255b-4083-91b2-a0bfbe5b9ffa","system_id":"levelo_inurba_marseille","lat":43.29093,"lon":5.38134,"is_reserved":false,"is_disabled":false,"rental_uris":{"android":"levelo://app?vid=52c36cca-255b-4083-91b2-a0bfbe5b9ffa","ios":"levelo://app?vid=52c36cca-255b-4083-91b2-a0bfbe5b9ffa"},"vehicle_type_id":"4","last_reported":1740733810,"current_range_meters":17200,"station_id":"ce4bh512rcd13ifvqe2g","pricing_plan_id":"cebpf4jnsgd1na2vs0mg"},{"bike_id":"766f9252-76ba-4151-9194-6d162e66f1d3","system_id":"levelo_inurba_marseille","lat":43.24813,"lon":5.37459,"is_reserved":false,"is_disabled":false,"rental_uris":{"android":"levelo://app?vid=766f9252-76ba-4151-9194-6d162e66f1d3","ios":"levelo://app?vid=766f9252-76ba-4151-9194-6d162e66f1d3"},"vehicle_type_id":"4","last_reported":1740733810,"current_range_meters":17200,"station_id":"ce4bhgh2rcd13ifvqfb0","pricing_plan_id":"cebpf4jnsgd1na2vs0mg"},{"bike_id":"d4bd8a8b-d7bf-4c05-b31a-2fd957b6a9e7","system_id":"levelo_inurba_marseille","lat":43.26064,"lon":5.39399,"is_reserved":false,"is_disabled":false,"rental_uris":{"android":"levelo://app?vid=d4bd8a8b-d7bf-4c05-b31a-2fd957b6a9e7","ios":"levelo://app?vid=d4bd8a8b-d7bf-4c05-b31a-2fd957b6a9e7"},"vehicle_type_id":"4","last_reported":1740733810,"current_range_meters":17200,"station_id":"ce4bhh92rcd13ifvqfj0","pricing_plan_id":"cebpf4jnsgd1na2vs0mg"},{"bike_id":"d410d696-fa04-4c52-a447-eaec7cd4ec5f","system_id":"levelo_inurba_marseille","lat":43.24174,"lon":5.39735,"is_reserved":false,"is_disabled":false,"rental_uris":{"android":"levelo://app?vid=d410d696-fa04-4c52-a447-eaec7cd4ec5f","ios":"levelo://app?vid=d410d696-fa04-4c52-a447-eaec7cd4ec5f"},"vehicle_type_id":"4","last_reported":1740733810,"current_range_meters":17200,"station_id":"ce4bhn12rcd13ifvqgpg","pricing_plan_id":"cebpf4jnsgd1na2vs0mg"},{"bike_id":"a43d23d2-0d6e-4cf7-8691-8ab079a8ff69","system_id":"levelo_inurba_marseille","lat":43.29888,"lon":5.43653,"is_reserved":false,"is_disabled":false,"rental_uris":{"android":"levelo://app?vid=a43d23d2-0d6e-4cf7-8691-8ab079a8ff69","ios":"levelo://app?vid=a43d23d2-0d6e-4cf7-8691-8ab079a8ff69"},"vehicle_type_id":"4","last_reported":1740733810,"current_range_meters":17200,"station_id":"ce4bhpp2rcd13ifvqhfg","pricing_plan_id":"cebpf4jnsgd1na2vs0mg"},{"bike_id":"695e9a27-d903-4bbc-b050-bcc463be80aa","system_id":"levelo_inurba_marseille","lat":43.24171,"lon":5.36416,"is_reserved":false,"is_disabled":false,"rental_uris":{"android":"levelo://app?vid=695e9a27-d903-4bbc-b050-bcc463be80aa","ios":"levelo://app?vid=695e9a27-d903-4bbc-b050-bcc463be80aa"},"vehicle_type_id":"4","last_reported":1740733810,"current_range_meters":17200,"station_id":"cpo36qri1sfpv3e86is0","pricing_plan_id":"cebpf4jnsgd1na2vs0mg"},{"bike_id":"8c86cb21-5e53-44c8-a766-70640a93721c","system_id":"levelo_inurba_marseille","lat":43.29207,"lon":5.37578,"is_reserved":false,"is_disabled":false,"rental_uris":{"android":"levelo://app?vid=8c86cb21-5e53-44c8-a766-70640a93721c","ios":"levelo://app?vid=8c86cb21-5e53-44c8-a766-70640a93721c"},"vehicle_type_id":"4","last_reported":1740733810,"current_range_meters":17600,"station_id":"","pricing_plan_id":"cebpf4jnsgd1na2vs0mg"},{"bike_id":"3b51f321-7860-478d-8dcb-446f467539e5","system_id":"levelo_inurba_marseille","lat":43.31202,"lon":5.36844,"is_reserved":false,"is_disabled":false,"rental_uris":{"android":"levelo://app?vid=3b51f321-7860-478d-8dcb-446f467539e5","ios":"levelo://app?vid=3b51f321-7860-478d-8dcb-446f467539e5"},"vehicle_type_id":"4","last_reported":1740733810,"current_range_meters":17600,"station_id":"ce4bgl92rcd13ifvqbq0","pricing_plan_id":"cebpf4jnsgd1na2vs0mg"},{"bike_id":"0ac48b88-9575-480a-b741-fa50c320253c","system_id":"levelo_inurba_marseille","lat":43.30496,"lon":5.37912,"is_reserved":false,"is_disabled":false,"rental_uris":{"android":"levelo://app?vid=0ac48b88-9575-480a-b741-fa50c320253c","ios":"levelo://app?vid=0ac48b88-9575-480a-b741-fa50c320253c"},"vehicle_type_id":"4","last_reported":1740733810,"current_range_meters":17600,"station_id":"ce4bgup2rcd13ifvqcn0","pricing_plan_id":"cebpf4jnsgd1na2vs0mg"},{"bike_id":"251e8133-9fad-4e15-8c43-054b20a1a32c","system_id":"levelo_inurba_marseille","lat":43.30494,"lon":5.37907,"is_reserved":false,"is_disabled":false,"rental_uris":{"android":"levelo://app?vid=251e8133-9fad-4e15-8c43-054b20a1a32c","ios":"levelo://app?vid=251e8133-9fad-4e15-8c43-054b20a1a32c"},"vehicle_type_id":"4","last_reported":1740733810,"current_range_meters":17600,"station_id":"ce4bgup2rcd13ifvqcn0","pricing_plan_id":"cebpf4jnsgd1na2vs0mg"},{"bike_id":"c9fc1b73-9eb3-4e1e-bb71-8e8ed9075b1a","system_id":"levelo_inurba_marseille","lat":43.30597,"lon":5.39357,"is_reserved":false,"is_disabled":false,"rental_uris":{"android":"levelo://app?vid=c9fc1b73-9eb3-4e1e-bb71-8e8ed9075b1a","ios":"levelo://app?vid=c9fc1b73-9eb3-4e1e-bb71-8e8ed9075b1a"},"vehicle_type_id":"4","last_reported":1740733810,"current_range_meters":17600,"station_id":"ce4bh0p2rcd13ifvqd80","pricing_plan_id":"cebpf4jnsgd1na2vs0mg"},{"bike_id":"69159a10-620b-41ad-84c5-be7e23fd176f","system_id":"levelo_inurba_marseille","lat":43.29035,"lon":5.38125,"is_reserved":false,"is_disabled":false,"rental_uris":{"android":"levelo://app?vid=69159a10-620b-41ad-84c5-be7e23fd176f","ios":"levelo://app?vid=69159a10-620b-41ad-84c5-be7e23fd176f"},"vehicle_type_id":"4","last_reported":1740733810,"current_range_meters":17600,"station_id":"ce4bh4p2rcd13ifvqe1g","pricing_plan_id":"cebpf4jnsgd1na2vs0mg"},{"bike_id":"592522f6-093a-4ec5-87eb-d599dd16d6de","system_id":"levelo_inurba_marseille","lat":43.2848,"lon":5.38422,"is_reserved":false,"is_disabled":false,"rental_uris":{"android":"levelo://app?vid=592522f6-093a-4ec5-87eb-d599dd16d6de","ios":"levelo://app?vid=592522f6-093a-4ec5-87eb-d599dd16d6de"},"vehicle_type_id":"4","last_reported":1740733810,"current_range_meters":17600,"station_id":"ce4bh512rcd13ifvqe3g","pricing_plan_id":"cebpf4jnsgd1na2vs0mg"},{"bike_id":"d7f19d43-0b46-46b6-b9bc-a82e40ae723d","system_id":"levelo_inurba_marseille","lat":43.29227,"lon":5.3607,"is_reserved":false,"is_disabled":false,"rental_uris":{"android":"levelo://app?vid=d7f19d43-0b46-46b6-b9bc-a82e40ae723d","ios":"levelo://app?vid=d7f19d43-0b46-46b6-b9bc-a82e40ae723d"},"vehicle_type_id":"4","last_reported":1740733810,"current_range_meters":17600,"station_id":"ce4bhbh2rcd13ifvqeqg","pricing_plan_id":"cebpf4jnsgd1na2vs0mg"},{"bike_id":"8d91c655-19ff-47c9-a3e3-8857cd75c678","system_id":"levelo_inurba_marseille","lat":43.24813,"lon":5.37464,"is_reserved":false,"is_disabled":false,"rental_uris":{"android":"levelo://app?vid=8d91c655-19ff-47c9-a3e3-8857cd75c678","ios":"levelo://app?vid=8d91c655-19ff-47c9-a3e3-8857cd75c678"},"vehicle_type_id":"4","last_reported":1740733810,"current_range_meters":17600,"station_id":"ce4bhgh2rcd13ifvqfb0","pricing_plan_id":"cebpf4jnsgd1na2vs0mg"},{"bike_id":"4015c440-7267-44b4-8be2-f4b87cb51aa9","system_id":"levelo_inurba_marseille","lat":43.25582,"lon":5.3823,"is_reserved":false,"is_disabled":false,"rental_uris":{"android":"levelo://app?vid=4015c440-7267-44b4-8be2-f4b87cb51aa9","ios":"levelo://app?vid=4015c440-7267-44b4-8be2-f4b87cb51aa9"},"vehicle_type_id":"4","last_reported":1740733810,"current_range_meters":17600,"station_id":"ce4bhih2rcd13ifvqfs0","pricing_plan_id":"cebpf4jnsgd1na2vs0mg"},{"bike_id":"cb2765a4-8835-4bc4-a4ee-79d998fd2722","system_id":"levelo_inurba_marseille","lat":43.26237,"lon":5.40454,"is_reserved":false,"is_disabled":false,"rental_uris":{"android":"levelo://app?vid=cb2765a4-8835-4bc4-a4ee-79d998fd2722","ios":"levelo://app?vid=cb2765a4-8835-4bc4-a4ee-79d998fd2722"},"vehicle_type_id":"4","last_reported":1740733810,"current_range_meters":17600,"station_id":"ce4bhmh2rcd13ifvqgmg","pricing_plan_id":"cebpf4jnsgd1na2vs0mg"},{"bike_id":"439cfb5b-9d57-4c1f-8652-4d751602929c","system_id":"levelo_inurba_marseille","lat":43.2409,"lon":5.37753,"is_reserved":false,"is_disabled":false,"rental_uris":{"android":"levelo://app?vid=439cfb5b-9d57-4c1f-8652-4d751602929c","ios":"levelo://app?vid=439cfb5b-9d57-4c1f-8652-4d751602929c"},"vehicle_type_id":"4","last_reported":1740733810,"current_range_meters":17600,"station_id":"ce4bhnp2rcd13ifvqgvg","pricing_plan_id":"cebpf4jnsgd1na2vs0mg"},{"bike_id":"f05e3088-a939-40ea-90da-83c01e639f5e","system_id":"levelo_inurba_marseille","lat":43.24078,"lon":5.37755,"is_reserved":false,"is_disabled":false,"rental_uris":{"android":"levelo://app?vid=f05e3088-a939-40ea-90da-83c01e639f5e","ios":"levelo://app?vid=f05e3088-a939-40ea-90da-83c01e639f5e"},"vehicle_type_id":"4","last_reported":1740733810,"current_range_meters":17600,"station_id":"ce4bhnp2rcd13ifvqgvg","pricing_plan_id":"cebpf4jnsgd1na2vs0mg"},{"bike_id":"085d28c3-d678-460a-a2b0-03561e14272e","system_id":"levelo_inurba_marseille","lat":43.321161,"lon":5.367899,"is_reserved":false,"is_disabled":false,"rental_uris":{"android":"levelo://app?vid=085d28c3-d678-460a-a2b0-03561e14272e","ios":"levelo://app?vid=085d28c3-d678-460a-a2b0-03561e14272e"},"vehicle_type_id":"4","last_reported":1740733810,"current_range_meters":17600,"station_id":"ce4bhrh2rcd13ifvqhug","pricing_plan_id":"cebpf4jnsgd1na2vs0mg"},{"bike_id":"0693b9d6-4a9d-4e38-bfa2-80f934bcc2e3","system_id":"levelo_inurba_marseille","lat":43.24164,"lon":5.36416,"is_reserved":false,"is_disabled":false,"rental_uris":{"android":"levelo://app?vid=0693b9d6-4a9d-4e38-bfa2-80f934bcc2e3","ios":"levelo://app?vid=0693b9d6-4a9d-4e38-bfa2-80f934bcc2e3"},"vehicle_type_id":"4","last_reported":1740733810,"current_range_meters":17600,"station_id":"cpo36qri1sfpv3e86is0","pricing_plan_id":"cebpf4jnsgd1na2vs0mg"},{"bike_id":"101b8521-5589-443f-a64b-8ef83a8cc365","system_id":"levelo_inurba_marseille","lat":43.26921,"lon":5.38715,"is_reserved":false,"is_disabled":false,"rental_uris":{"android":"levelo://app?vid=101b8521-5589-443f-a64b-8ef83a8cc365","ios":"levelo://app?vid=101b8521-5589-443f-a64b-8ef83a8cc365"},"vehicle_type_id":"4","last_reported":1740733810,"current_range_meters":18000,"station_id":"","pricing_plan_id":"cebpf4jnsgd1na2vs0mg"},{"bike_id":"25e89ac1-d6d0-41be-86e5-48f8b7f864e8","system_id":"levelo_inurba_marseille","lat":43.31382,"lon":5.36658,"is_reserved":false,"is_disabled":false,"rental_uris":{"android":"levelo://app?vid=25e89ac1-d6d0-41be-86e5-48f8b7f864e8","ios":"levelo://app?vid=25e89ac1-d6d0-41be-86e5-48f8b7f864e8"},"vehicle_type_id":"4","last_reported":1740733810,"current_range_meters":18000,"station_id":"","pricing_plan_id":"cebpf4jnsgd1na2vs0mg"},