{"last_updated":1747044735,"ttl":60,"version":"2.2","data":{"bikes":[{"bike_id":"c0b9fd4f-e181-46ce-b0bf-f5119973334f","system_id":"levelo_inurba_marseille","lat":43.33771,"lon":5.37424,"is_reserved":false,"is_disabled":false,"rental_uris":{"android":"levelo://app?vid=c0b9fd4f-e181-46ce-b0bf-f5119973334f","ios":"levelo://app?vid=c0b9fd4f-e181-46ce-b0bf-f5119973334f"},"vehicle_type_id":"4","last_reported":1747044735,"current_range_meters":28400,"station_id":"","pricing_plan_id":"cebpf4jnsgd1na2vs0mg"},{"bike_id":"229001d2-7627-43e0-aeea-2d75580fd339","system_id":"levelo_inurba_marseille","lat":43.28325,"lon":5.43227,"is_reserved":false,"is_disabled":true,"rental_uris":{"android":"levelo://app?vid=229001d2-7627-43e0-aeea-2d75580fd339","ios":"levelo://app?vid=229001d2-7627-43e0-aeea-2d75580fd339"},"vehicle_type_id":"4","last_reported":1747044735,"current_range_meters":0,"station_id":"","pricing_plan_id":"cebpf4jnsgd1na2vs0mg"},{"bike_id":"a72028ca-425b-4f2c-9e2d-16be28a01f65","system_id":"levelo_inurba_marseille","lat":43.26027,"lon":5.41763,"is_reserved":false,"is_disabled":true,"rental_uris":{"android":"levelo://app?vid=a72028ca-425b-4f2c-9e2d-16be28a01f65","ios":"levelo://app?vid=a72028ca-425b-4f2c-9e2d-16be28a01f65"},"vehicle_type_id":"4","last_reported":1747044735,"current_range_meters":0,"station_id":"","pricing_plan_id":"cebpf4jnsgd1na2vs0mg"},{"bike_id":"ea1194a0-6ab6-49c0-b9a3-cf4c83eba652","system_id":"levelo_inurba_marseille","lat":43.28225,"lon":5.40294,"is_reserved":false,"is_disabled":true,"rental_uris":{"android":"levelo://app?vid=ea1194a0-6ab6-49c0-b9a3-cf4c83eba652","ios":"levelo://app?vid=ea1194a0-6ab6-49c0-b9a3-cf4c83eba652"},"vehicle_type_id":"4","last_reported":1747044735,"current_range_meters":0,"station_id":"","pricing_plan_id":"cebpf4jnsgd1na2vs0mg"},{"bike_id":"25b01f8d-9a0f-4ca5-8581-d055fe16e093","system_id":"levelo_inurba_marseille","lat":43.29003,"lon":5.3562,"is_reserved":false,"is_disabled":true,"rental_uris":{"android":"levelo://app?vid=25b01f8d-9a0f-4ca5-8581-d055fe16e093","ios":"levelo://app?vid=25b01f8d-9a0f-4ca5-8581-d055fe16e093"},"vehicle_type_id":"4","last_reported":1747044735,"current_range_meters":0,"station_id":"ce4bhb92rcd13ifvqen0","pricing_plan_id":"cebpf4jnsgd1na2vs0mg"},{"bike_id":"3a78414a-8458-41d5-8727-b7404df968a4","system_id":"levelo_inurba_marseille","lat":43.27082,"lon":5.42277,"is_reserved":false,"is_disabled":true,"rental_uris":{"android":"levelo://app?vid=3a78414a-8458-41d5-8727-b7404df968a4","ios":"levelo://app?vid=3a78414a-8458-41d5-8727-b7404df968a4"},"vehicle_type_id":"4","last_reported":1747044735,"current_range_meters":0,"station_id":"ce4bhk92rcd13ifvqgb0","pricing_plan_id":"cebpf4jnsgd1na2vs0mg"},{"bike_id":"828418bc-b6f3-4668-865d-c3a8b014b129","system_id":"levelo_inurba_marseille","lat":43.28345,"lon":5.43234,"is_reserved":false,"is_disabled":true,"rental_uris":{"android":"levelo://app?vid=828418bc-b6f3-4668-865d-c3a8b014b129","ios":"levelo://app?vid=828418bc-b6f3-4668-865d-c3a8b014b129"},"vehicle_type_id":"4","last_reported":1747044735,"current_range_meters":800,"station_id":"","pricing_plan_id":"cebpf4jnsgd1na2vs0mg"},{"bike_id":"164e5589-49f3-422b-bbf6-15fcbae44a99","system_id":"levelo_inurba_marseille","lat":43.2621,"lon":5.37443,"is_reserved":false,"is_disabled":true,"rental_uris":{"android":"levelo://app?vid=164e5589-49f3-422b-bbf6-15fcbae44a99","ios":"levelo://app?vid=164e5589-49f3-422b-bbf6-15fcbae44a99"},"vehicle_type_id":"4","last_reported":1747044735,"current_range_meters":800,"station_id":"ce4bhgp2rcd13ifvqfc0","pricing_plan_id":"cebpf4jnsgd1na2vs0mg"},{"bike_id":"6b79d119-47bd-4b08-82d0-fdc201096455","system_id":"levelo_inurba_marseille","lat":43.23152,"lon":5.43701,"is_reserved":false,"is_disabled":true,"rental_uris":{"android":"levelo://app?vid=6b79d119-47bd-4b08-82d0-fdc201096455","ios":"levelo://app?vid=6b79d119-47bd-4b08-82d0-fdc201096455"},"vehicle_type_id":"4","last_reported":1747044735,"current_range_meters":1200,"station_id":"ce4bhmp2rcd13ifvqgog","pricing_plan_id":"cebpf4jnsgd1na2vs0mg"},{"bike_id":"e03c5ed0-bc71-4df2-87b7-eee8baa6825a","system_id":"levelo_inurba_marseille","lat":43.311493,"lon":5.387273,"is_reserved":false,"is_disabled":true,"rental_uris":{"android":"levelo://app?vid=e03c5ed0-bc71-4df2-87b7-eee8baa6825a","ios":"levelo://app?vid=e03c5ed0-bc71-4df2-87b7-eee8baa6825a"},"vehicle_type_id":"4","last_reported":1747044735,"current_range_meters":1600,"station_id":"ce4bgv12rcd13ifvqcp0","pricing_plan_id":"cebpf4jnsgd1na2vs0mg"},{"bike_id":"bae1caba-aaf3-4d05-a128-a2fd7ccea374","system_id":"levelo_inurba_marseille","lat":43.24665,"lon":5.38159,"is_reserved":false,"is_disabled":true,"rental_uris":{"android":"levelo://app?vid=bae1caba-aaf3-4d05-a128-a2fd7ccea374","ios":"levelo://app?vid=bae1caba-aaf3-4d05-a128-a2fd7ccea374"},"vehicle_type_id":"4","last_reported":1747044735,"current_range_meters":1600,"station_id":"ce4bhih2rcd13ifvqfr0","pricing_plan_id":"cebpf4jnsgd1na2vs0mg"},{"bike_id":"feff4bd6-cfe3-4aa2-942d-b3ff5d0520e3","system_id":"levelo_inurba_marseille","lat":43.27933,"lon":5.41041,"is_reserved":false,"is_disabled":true,"rental_uris":{"android":"levelo://app?vid=feff4bd6-cfe3-4aa2-942d-b3ff5d0520e3","ios":"levelo://app?vid=feff4bd6-cfe3-4aa2-942d-b3ff5d0520e3"},"vehicle_type_id":"4","last_reported":1747044735,"current_range_meters":2000,"station_id":"ce4bhnp2rcd13ifvqh0g","pricing_plan_id":"cebpf4jnsgd1na2vs0mg"},{"bike_id":"a2cd0ac9-9718-4955-900b-f0e774d9f6db","system_id":"levelo_inurba_marseille","lat":43.29032,"lon":5.38653,"is_reserved":false,"is_disabled":false,"rental_uris":{"android":"levelo://app?vid=a2cd0ac9-9718-4955-900b-f0e774d9f6db","ios":"levelo://app?vid=a2cd0ac9-9718-4955-900b-f0e774d9f6db"},"vehicle_type_id":"4","last_reported":1747044735,"current_range_meters":2800,"station_id":"ce4bh4p2rcd13ifvqe0g","pricing_plan_id":"cebpf4jnsgd1na2vs0mg"},{"bike_id":"907c4738-b875-4fe4-9ecb-310f2fb38995","system_id":"levelo_inurba_marseille","lat":43.28417,"lon":5.34971,"is_reserved":false,"is_disabled":false,"rental_uris":{"android":"levelo://app?vid=907c4738-b875-4fe4-9ecb-310f2fb38995","ios":"levelo://app?vid=907c4738-b875-4fe4-9ecb-310f2fb38995"},"vehicle_type_id":"4","last_reported":1747044735,"current_range_meters":3200,"station_id":"ce4bhbh2rcd13ifvqepg","pricing_plan_id":"cebpf4jnsgd1na2vs0mg"},{"bike_id":"df59c068-7ad0-42aa-bd6f-33f625428146","system_id":"levelo_inurba_marseille","lat":43.27505,"lon":5.42446,"is_reserved":false,"is_disabled":false,"rental_uris":{"android":"levelo://app?vid=df59c068-7ad0-42aa-bd6f-33f625428146","ios":"levelo://app?vid=df59c068-7ad0-42aa-bd6f-33f625428146"},"vehicle_type_id":"4","last_reported":1747044735,"current_range_meters":3600,"station_id":"ce4bhn92rcd13ifvqgrg","pricing_plan_id":"cebpf4jnsgd1na2vs0mg"},{"bike_id":"af37c181-9026-49df-a0ea-13007a6129cf","system_id":"levelo_inurba_marseille","lat":43.24172,"lon":5.39689,"is_reserved":false,"is_disabled":false,"rental_uris":{"android":"levelo://app?vid=af37c181-9026-49df-a0ea-13007a6129cf","ios":"levelo://app?vid=af37c181-9026-49df-a0ea-13007a6129cf"},"vehicle_type_id":"4","last_reported":1747044735,"current_range_meters":4000,"station_id":"ce4bhn12rcd13ifvqgpg","pricing_plan_id":"cebpf4jnsgd1na2vs0mg"},{"bike_id":"8fcecb2c-9448-4339-9a6a-19f79482cffb","system_id":"levelo_inurba_marseille","lat":43.24084,"lon":5.37746,"is_reserved":false,"is_disabled":false,"rental_uris":{"android":"levelo://app?vid=8fcecb2c-9448-4339-9a6a-19f79482cffb","ios":"levelo://app?vid=8fcecb2c-9448-4339-9a6a-19f79482cffb"},"vehicle_type_id":"4","last_reported":1747044735,"current_range_meters":5600,"station_id":"ce4bhnp2rcd13ifvqgvg","pricing_plan_id":"cebpf4jnsgd1na2vs0mg"},{"bike_id":"3fb1d3be-0a1a-45f3-ba70-301cf2d395be","system_id":"levelo_inurba_marseille","lat":43.217396,"lon":5.346028,"is_reserved":false,"is_disabled":false,"rental_uris":{"android":"levelo://app?vid=3fb1d3be-0a1a-45f3-ba70-301cf2d395be","ios":"levelo://app?vid=3fb1d3be-0a1a-45f3-ba70-301cf2d395be"},"vehicle_type_id":"4","last_reported":1747044735,"current_range_meters":5600,"station_id":"ce4bhu92rcd13ifvqi70","pricing_plan_id":"cebpf4jnsgd1na2vs0mg"},{"bike_id":"37533d30-53f2-45f4-8c82-cdacf7207866","system_id":"levelo_inurba_marseille","lat":43.24384,"lon":5.37058,"is_reserved":false,"is_disabled":false,"rental_uris":{"android":"levelo://app?vid=37533d30-53f2-45f4-8c82-cdacf7207866","ios":"levelo://app?vid=37533d30-53f2-45f4-8c82-cdacf7207866"},"vehicle_type_id":"4","last_reported":1747044735,"current_range_meters":6000,"station_id":"ce4bhhh2rcd13ifvqfk0","pricing_plan_id":"cebpf4jnsgd1na2vs0mg"},{"bike_id":"5cd11e39-e00c-4eff-a7a2-04e0de447cf9","system_id":"levelo_inurba_marseille","lat":43.281567,"lon":5.42645,"is_reserved":false,"is_disabled":false,"rental_uris":{"android":"levelo://app?vid=5cd11e39-e00c-4eff-a7a2-04e0de447cf9","ios":"levelo://app?vid=5cd11e39-e00c-4eff-a7a2-04e0de447cf9"},"vehicle_type_id":"4","last_reported":1747044735,"current_range_meters":6000,"station_id":"ce4bhnh2rcd13ifvqgug","pricing_plan_id":"cebpf4jnsgd1na2vs0mg"},{"bike_id":"fc2577e7-1497-425b-9d4f-ab8d7dc843c6","system_id":"levelo_inurba_marseille","lat":43.33771,"lon":5.37485,"is_reserved":false,"is_disabled":false,"rental_uris":{"android":"levelo://app?vid=fc2577e7-1497-425b-9d4f-ab8d7dc843c6","ios":"levelo://app?vid=fc2577e7-1497-425b-9d4f-ab8d7dc843c6"},"vehicle_type_id":"4","last_reported":1747044735,"current_range_meters":6400,"station_id":"","pricing_plan_id":"cebpf4jnsgd1na2vs0mg"},{"bike_id":"63bdd50a-b728-4d10-9320-dbc9bfa5973f","system_id":"levelo_inurba_marseille","lat":43.27064,"lon":5.42278,"is_reserved":false,"is_disabled":false,"rental_uris":{"android":"levelo://app?vid=63bdd50a-b728-4d10-9320-dbc9bfa5973f","ios":"levelo://app?vid=63bdd50a-b728-4d10-9320-dbc9bfa5973f"},"vehicle_type_id":"4","last_reported":1747044735,"current_range_meters":6800,"station_id":"ce4bhk92rcd13ifvqgb0","pricing_plan_id":"cebpf4jnsgd1na2vs0mg"},{"bike_id":"c8dd75a9-d326-4309-9e73-672d7cefdd8f","system_id":"levelo_inurba_marseille","lat":43.28675,"lon":5.38661,"is_reserved":false,"is_disabled":false,"rental_uris":{"android":"levelo://app?vid=c8dd75a9-d326-4309-9e73-672d7cefdd8f","ios":"levelo://app?vid=c8dd75a9-d326-4309-9e73-672d7cefdd8f"},"vehicle_type_id":"4","last_reported":1747044735,"current_range_meters":7200,"station_id":"ce4bh492rcd13ifvqdug","pricing_plan_id":"cebpf4jnsgd1na2vs0mg"},{"bike_id":"a709c096-19a6-423a-ad85-f5169b2557a1","system_id":"levelo_inurba_marseille","lat":43.2708,"lon":5.42268,"is_reserved":false,"is_disabled":false,"rental_uris":{"android":"levelo://app?vid=a709c096-19a6-423a-ad85-f5169b2557a1","ios":"levelo://app?vid=a709c096-19a6-423a-ad85-f5169b2557a1"},"vehicle_type_id":"4","last_reported":1747044735,"current_range_meters":7200,"station_id":"ce4bhk92rcd13ifvqgb0","pricing_plan_id":"cebpf4jnsgd1na2vs0mg"},{"bike_id":"cfc17815-86ee-444c-a14e-53c91e445963","system_id":"levelo_inurba_marseille","lat":43.2623,"lon":5.40451,"is_reserved":false,"is_disabled":false,"rental_uris":{"android":"levelo://app?vid=cfc17815-86ee-444c-a14e-53c91e445963","ios":"levelo://app?vid=cfc17815-86ee-444c-a14e-53c91e445963"},"vehicle_type_id":"4","last_reported":1747044735,"current_range_meters":7200,"station_id":"ce4bhmh2rcd13ifvqgmg","pricing_plan_id":"cebpf4jnsgd1na2vs0mg"},{"bike_id":"b9dcc1d1-f51b-4c46-850e-5c60c8b7f5e6","system_id":"levelo_inurba_marseille","lat":43.32354,"lon":5.36745,"is_reserved":false,"is_disabled":false,"rental_uris":{"android":"levelo://app?vid=b9dcc1d1-f51b-4c46-850e-5c60c8b7f5e6","ios":"levelo://app?vid=b9dcc1d1-f51b-4c46-850e-5c60c8b7f5e6"},"vehicle_type_id":"4","last_reported":1747044735,"current_range_meters":7200,"station_id":"ce4bhsh2rcd13ifvqi2g","pricing_plan_id":"cebpf4jnsgd1na2vs0mg"},{"bike_id":"542e2ed0-31d3-4e5b-b886-93c84013e68e","system_id":"levelo_inurba_marseille","lat":43.2938,"lon":5.40173,"is_reserved":false,"is_disabled":false,"rental_uris":{"android":"levelo://app?vid=542e2ed0-31d3-4e5b-b886-93c84013e68e","ios":"levelo://app?vid=542e2ed0-31d3-4e5b-b886-93c84013e68e"},"vehicle_type_id":"4","last_reported":1747044735,"current_range_meters":8000,"station_id":"","pricing_plan_id":"cebpf4jnsgd1na2vs0mg"},{"bike_id":"6ae10d64-b646-4a92-b8d8-73a1342e2ef7","system_id":"levelo_inurba_marseille","lat":43.28678,"lon":5.38675,"is_reserved":false,"is_disabled":false,"rental_uris":{"android":"levelo://app?vid=6ae10d64-b646-4a92-b8d8-73a1342e2ef7","ios":"levelo://app?vid=6ae10d64-b646-4a92-b8d8-73a1342e2ef7"},"vehicle_type_id":"4","last_reported":1747044735,"current_range_meters":8000,"station_id":"ce4bh492rcd13ifvqdug","pricing_plan_id":"cebpf4jnsgd1na2vs0mg"},{"bike_id":"4b460be1-c693-4bb9-911d-ee0bb3e597f1","system_id":"levelo_inurba_marseille","lat":43.324789,"lon":5.365682,"is_reserved":false,"is_disabled":false,"rental_uris":{"android":"levelo://app?vid=4b460be1-c693-4bb9-911d-ee0bb3e597f1","ios":"levelo://app?vid=4b460be1-c693-4bb9-911d-ee0bb3e597f1"},"vehicle_type_id":"4","last_reported":1747044735,"current_range_meters":8000,"station_id":"ce4bhs12rcd13ifvqhvg","pricing_plan_id":"cebpf4jnsgd1na2vs0mg"},{"bike_id":"1926bee1-a15b-49b3-8b0b-41a7c297fe4d","system_id":"levelo_inurba_marseille","lat":43.32491,"lon":5.36582,"is_reserved":false,"is_disabled":false,"rental_uris":{"android":"levelo://app?vid=1926bee1-a15b-49b3-8b0b-41a7c297fe4d","ios":"levelo://app?vid=1926bee1-a15b-49b3-8b0b-41a7c297fe4d"},"vehicle_type_id":"4","last_reported":1747044735,"current_range_meters":8000,"station_id":"ce4bhs12rcd13ifvqhvg","pricing_plan_id":"cebpf4jnsgd1na2vs0mg"},{"bike_id":"22bd9b4c-c707-4225-b6be-fdec11d336e6","system_id":"levelo_inurba_marseille","lat":43.28619,"lon":5.3511,"is_reserved":false,"is_disabled":false,"rental_uris":{"android":"levelo://app?vid=22bd9b4c-c707-4225-b6be-fdec11d336e6","ios":"levelo://app?vid=22bd9b4c-c707-4225-b6be-fdec11d336e6"},"vehicle_type_id":"4","last_reported":1747044735,"current_range_meters":8800,"station_id":"","pricing_plan_id":"cebpf4jnsgd1na2vs0mg"},{"bike_id":"79503419-7e61-44e7-b4d9-bcd84effa0ec","system_id":"levelo_inurba_marseille","lat":43.29001,"lon":5.35607,"is_reserved":false,"is_disabled":false,"rental_uris":{"android":"levelo://app?vid=79503419-7e61-44e7-b4d9-bcd84effa0ec","ios":"levelo://app?vid=79503419-7e61-44e7-b4d9-bcd84effa0ec"},"vehicle_type_id":"4","last_reported":1747044735,"current_range_meters":8800,"station_id":"ce4bhb92rcd13ifvqen0","pricing_plan_id":"cebpf4jnsgd1na2vs0mg"},{"bike_id":"492da5ca-695d-4b70-9e67-a4adbdc4a4b0","system_id":"levelo_inurba_marseille","lat":43.28406,"lon":5.34991,"is_reserved":false,"is_disabled":false,"rental_uris":{"android":"levelo://app?vid=492da5ca-695d-4b70-9e67-a4adbdc4a4b0","ios":"levelo://app?vid=492da5ca-695d-4b70-9e67-a4adbdc4a4b0"},"vehicle_type_id":"4","last_reported":1747044735,"current_range_meters":8800,"station_id":"ce4bhbh2rcd13ifvqepg","pricing_plan_id":"cebpf4jnsgd1na2vs0mg"},{"bike_id":"efc88c3c-910a-4ce7-84b2-480af6d11f71","system_id":"levelo_inurba_marseille","lat":43.282654,"lon":5.350606,"is_reserved":false,"is_disabled":false,"rental_uris":{"android":"levelo://app?vid=efc88c3c-910a-4ce7-84b2-480af6d11f71","ios":"levelo://app?vid=efc88c3c-910a-4ce7-84b2-480af6d11f71"},"vehicle_type_id":"4","last_reported":1747044735,"current_range_meters":8800,"station_id":"ce4bhbp2rcd13ifvqerg","pricing_plan_id":"cebpf4jnsgd1na2vs0mg"},{"bike_id":"e66241ba-8c46-4d47-9172-29d4c5225ebe","system_id":"levelo_inurba_marseille","lat":43.24082,"lon":5.37755,"is_reserved":false,"is_disabled":false,"rental_uris":{"android":"levelo://app?vid=e66241ba-8c46-4d47-9172-29d4c5225ebe","ios":"levelo://app?vid=e66241ba-8c46-4d47-9172-29d4c5225ebe"},"vehicle_type_id":"4","last_reported":1747044735,"current_range_meters":8800,"station_id":"ce4bhnp2rcd13ifvqgvg","pricing_plan_id":"cebpf4jnsgd1na2vs0mg"},{"bike_id":"e0372e11-e2d7-499e-bc01-d37180083c7d","system_id":"levelo_inurba_marseille","lat":43.32346,"lon":5.36718,"is_reserved":false,"is_disabled":false,"rental_uris":{"android":"levelo://app?vid=e0372e11-e2d7-499e-bc01-d37180083c7d","ios":"levelo://app?vid=e0372e11-e2d7-499e-bc01-d37180083c7d"},"vehicle_type_id":"4","last_reported":1747044735,"current_range_meters":8800,"station_id":"ce4bhsh2rcd13ifvqi2g","pricing_plan_id":"cebpf4jnsgd1na2vs0mg"},{"bike_id":"92b0fa72-83cd-423d-a68f-5ec2a8b1511f","system_id":"levelo_inurba_marseille","lat":43.30803,"lon":5.38165,"is_reserved":false,"is_disabled":false,"rental_uris":{"android":"levelo://app?vid=92b0fa72-83cd-423d-a68f-5ec2a8b1511f","ios":"levelo://app?vid=92b0fa72-83cd-423d-a68f-5ec2a8b1511f"},"vehicle_type_id":"4","last_reported":1747044735,"current_range_meters":9200,"station_id":"ce4bgt12rcd13ifvqce0","pricing_plan_id":"cebpf4jnsgd1na2vs0mg"},{"bike_id":"d7bee3c1-6775-4e3b-97fd-a30485222d32","system_id":"levelo_inurba_marseille","lat":43.30132,"lon":5.3985,"is_reserved":false,"is_disabled":false,"rental_uris":{"android":"levelo://app?vid=d7bee3c1-6775-4e3b-97fd-a30485222d32","ios":"levelo://app?vid=d7bee3c1-6775-4e3b-97fd-a30485222d32"},"vehicle_type_id":"4","last_reported":1747044735,"current_range_meters":9200,"station_id":"ce4bh0h2rcd13ifvqd40","pricing_plan_id":"cebpf4jnsgd1na2vs0mg"},{"bike_id":"006ab30c-2cc3-4c51-b205-677bce8f0256","system_id":"levelo_inurba_marseille","lat":43.28425,"lon":5.34979,"is_reserved":false,"is_disabled":false,"rental_uris":{"android":"levelo://app?vid=006ab30c-2cc3-4c51-b205-677bce8f0256","ios":"levelo://app?vid=006ab30c-2cc3-4c51-b205-677bce8f0256"},"vehicle_type_id":"4","last_reported":1747044735,"current_range_meters":9200,"station_id":"ce4bhbh2rcd13ifvqepg","pricing_plan_id":"cebpf4jnsgd1na2vs0mg"},{"bike_id":"888faf64-a4c0-4a63-abb9-f84eecc376b8","system_id":"levelo_inurba_marseille","lat":43.2986,"lon":5.36304,"is_reserved":false,"is_disabled":false,"rental_uris":{"android":"levelo://app?vid=888faf64-a4c0-4a63-abb9-f84eecc376b8","ios":"levelo://app?vid=888faf64-a4c0-4a63-abb9-f84eecc376b8"},"vehicle_type_id":"4","last_reported":1747044735,"current_range_meters":9600,"station_id":"ce4bgpp2rcd13ifvqc3g","pricing_plan_id":"cebpf4jnsgd1na2vs0mg"},{"bike_id":"aba5618f-bb3e-4024-81c3-12b2cfaf7274","system_id":"levelo_inurba_marseille","lat":43.31483,"lon":5.373065,"is_reserved":false,"is_disabled":false,"rental_uris":{"android":"levelo://app?vid=aba5618f-bb3e-4024-81c3-12b2cfaf7274","ios":"levelo://app?vid=aba5618f-bb3e-4024-81c3-12b2cfaf7274"},"vehicle_type_id":"4","last_reported":1747044735,"current_range_meters":9600,"station_id":"ce4bgt12rcd13ifvqcd0","pricing_plan_id":"cebpf4jnsgd1na2vs0mg"},{"bike_id":"de4a530f-3b17-41b9-bd98-d22e64d46bdc","system_id":"levelo_inurba_marseille","lat":43.32092,"lon":5.36761,"is_reserved":false,"is_disabled":false,"rental_uris":{"android":"levelo://app?vid=de4a530f-3b17-41b9-bd98-d22e64d46bdc","ios":"levelo://app?vid=de4a530f-3b17-41b9-bd98-d22e64d46bdc"},"vehicle_type_id":"4","last_reported":1747044735,"current_range_meters":9600,"station_id":"ce4bhrh2rcd13ifvqhug","pricing_plan_id":"cebpf4jnsgd1na2vs0mg"},{"bike_id":"f52c819d-ca4b-4640-b458-b877db1bf990","system_id":"levelo_inurba_marseille","lat":43.29868,"lon":5.409599,"is_reserved":false,"is_disabled":false,"rental_uris":{"android":"levelo://app?vid=f52c819d-ca4b-4640-b458-b877db1bf990","ios":"levelo://app?vid=f52c819d-ca4b-4640-b458-b877db1bf990"},"vehicle_type_id":"4","last_reported":1747044735,"current_range_meters":10000,"station_id":"","pricing_plan_id":"cebpf4jnsgd1na2vs0mg"},{"bike_id":"0d67c38c-696f-4ece-8bf2-534c7d524acb","system_id":"levelo_inurba_marseille","lat":43.27997,"lon":5.41666,"is_reserved":false,"is_disabled":false,"rental_uris":{"android":"levelo://app?vid=0d67c38c-696f-4ece-8bf2-534c7d524acb","ios":"levelo://app?vid=0d67c38c-696f-4ece-8bf2-534c7d524acb"},"vehicle_type_id":"4","last_reported":1747044735,"current_range_meters":10000,"station_id":"ce4bho12rcd13ifvqh1g","pricing_plan_id":"cebpf4jnsgd1na2vs0mg"},{"bike_id":"94fc69a2-1f30-4440-aa57-2d9e39b7b56f","system_id":"levelo_inurba_marseille","lat":43.241685,"lon":5.363895,"is_reserved":false,"is_disabled":false,"rental_uris":{"android":"levelo://app?vid=94fc69a2-1f30-4440-aa57-2d9e39b7b56f","ios":"levelo://app?vid=94fc69a2-1f30-4440-aa57-2d9e39b7b56f"},"vehicle_type_id":"4","last_reported":1747044735,"current_range_meters":10000,"station_id":"cpo36qri1sfpv3e86is0","pricing_plan_id":"cebpf4jnsgd1na2vs0mg"},{"bike_id":"196659b8-a375-4943-bc5d-c604e876fb5d","system_id":"levelo_inurba_marseille","lat":43.299286,"lon":5.365352,"is_reserved":false,"is_disabled":false,"rental_uris":{"android":"levelo://app?vid=196659b8-a375-4943-bc5d-c604e876fb5d","ios":"levelo://app?vid=196659b8-a375-4943-bc5d-c604e876fb5d"},"vehicle_type_id":"4","last_reported":1747044735,"current_range_meters":10800,"station_id":"ce4bgm92rcd13ifvqbr0","pricing_plan_id":"cebpf4jnsgd1na2vs0mg"},{"bike_id":"9ac4055f-650f-4591-b2eb-0ab0d9ac61b4","system_id":"levelo_inurba_marseille","lat":43.30537,"lon":5.36701,"is_reserved":false,"is_disabled":false,"rental_uris":{"android":"levelo://app?vid=9ac4055f-650f-4591-b2eb-0ab0d9ac61b4","ios":"levelo://app?vid=9ac4055f-650f-4591-b2eb-0ab0d9ac61b4"},"vehicle_type_id":"4","last_reported":1747044735,"current_range_meters":10800,"station_id":"ce4bgrp2rcd13ifvqc9g","pricing_plan_id":"cebpf4jnsgd1na2vs0mg"},{"bike_id":"2ee4d910-0ee1-4bc5-86c8-c77afad12b4f","system_id":"levelo_inurba_marseille","lat":43.321131,"lon":5.367679,"is_reserved":false,"is_disabled":false,"rental_uris":{"android":"levelo://app?vid=2ee4d910-0ee1-4bc5-86c8-c77afad12b4f","ios":"levelo://app?vid=2ee4d910-0ee1-4bc5-86c8-c77afad12b4f"},"vehicle_type_id":"4","last_reported":1747044735,"current_range_meters":11200,"station_id":"ce4bhrh2rcd13ifvqhug","pricing_plan_id":"cebpf4jnsgd1na2vs0mg"},{"bike_id":"11e4597e-c0da-4b11-b293-5b1f7659f2d6","system_id":"levelo_inurba_marseille","lat":43.31378,"lon":5.36694,"is_reserved":false,"is_disabled":false,"rental_uris":{"android":"levelo://app?vid=11e4597e-c0da-4b11-b293-5b1f7659f2d6","ios":"levelo://app?vid=11e4597e-c0da-4b11-b293-5b1f7659f2d6"},"vehicle_type_id":"4","last_reported":1747044735,"current_range_meters":11600,"station_id":"ce4bgr92rcd13ifvqc6g","pricing_plan_id":"cebpf4jnsgd1na2vs0mg"},{"bike_id":"7dd350f7-71bd-4bd0-b10a-7bae017c15a0","system_id":"levelo_inurba_marseille","lat":43.29258,"lon":5.40912,"is_reserved":false,"is_disabled":false,"rental_uris":{"android":"levelo://app?vid=7dd350f7-71bd-4bd0-b10a-7bae017c15a0","ios":"levelo://app?vid=7dd350f7-71bd-4bd0-b10a-7bae017c15a0"},"vehicle_type_id":"4","last_reported":1747044735,"current_range_meters":11600,"station_id":"ce4bh192rcd13ifvqdc0","pricing_plan_id":"cebpf4jnsgd1na2vs0mg"},{"bike_id":"56d7bb55-d2ed-41a2-8044-c63c0676dbb7","system_id":"levelo_inurba_marseille","lat":43.23151,"lon":5.43708,"is_reserved":false,"is_disabled":false,"rental_uris":{"android":"levelo://app?vid=56d7bb55-d2ed-41a2-8044-c63c0676dbb7","ios":"levelo://app?vid=56d7bb55-d2ed-41a2-8044-c63c0676dbb7"},"vehicle_type_id":"4","last_reported":1747044735,"current_range_meters":11600,"station_id":"ce4bhmp2rcd13ifvqgog","pricing_plan_id":"cebpf4jnsgd1na2vs0mg"},{"bike_id":"157ca5c3-efd0-475b-a65d-4803a5e25771","system_id":"levelo_inurba_marseille","lat":43.30883,"lon":5.39658,"is_reserved":false,"is_disabled":false,"rental_uris":{"android":"levelo://app?vid=157ca5c3-efd0-475b-a65d-4803a5e25771","ios":"levelo://app?vid=157ca5c3-efd0-475b-a65d-4803a5e25771"},"vehicle_type_id":"4","last_reported":1747044735,"current_range_meters":12000,"station_id":"ce4bh012rcd13ifvqcv0","pricing_plan_id":"cebpf4jnsgd1na2vs0mg"},{"bike_id":"c717b955-1d23-42a6-bf63-f39e0d9342dd","system_id":"levelo_inurba_marseille","lat":43.28292,"lon":5.43109,"is_reserved":false,"is_disabled":false,"rental_uris":{"android":"levelo://app?vid=c717b955-1d23-42a6-bf63-f39e0d9342dd","ios":"levelo://app?vid=c717b955-1d23-42a6-bf63-f39e0d9342dd"},"vehicle_type_id":"4","last_reported":1747044735,"current_range_meters":12400,"station_id":"","pricing_plan_id":"cebpf4jnsgd1na2vs0mg"},{"bike_id":"77b898d6-83c3-4819-8f10-342d8faa3aa9","system_id":"levelo_inurba_marseille","lat":43.27074,"lon":5.42281,"is_reserved":false,"is_disabled":false,"rental_uris":{"android":"levelo://app?vid=77b898d6-83c3-4819-8f10-342d8faa3aa9","ios":"levelo://app?vid=77b898d6-83c3-4819-8f10-342d8faa3aa9"},"vehicle_type_id":"4","last_reported":1747044735,"current_range_meters":12400,"station_id":"ce4bhk92rcd13ifvqgb0","pricing_plan_id":"cebpf4jnsgd1na2vs0mg"},{"bike_id":"0a4f9d32-468f-4b5f-bd61-fe0999932de1","system_id":"levelo_inurba_marseille","lat":43.29842,"lon":5.36288,"is_reserved":false,"is_disabled":false,"rental_uris":{"android":"levelo://app?vid=0a4f9d32-468f-4b5f-bd61-fe0999932de1","ios":"levelo://app?vid=0a4f9d32-468f-4b5f-bd61-fe0999932de1"},"vehicle_type_id":"4","last_reported":1747044735,"current_range_meters":12800,"station_id":"ce4bgpp2rcd13ifvqc3g","pricing_plan_id":"cebpf4jnsgd1na2vs0mg"},{"bike_id":"0a4dc782-e1df-48ff-81bf-b707284fe935","system_id":"levelo_inurba_marseille","lat":43.28434,"lon":5.3497,"is_reserved":false,"is_disabled":false,"rental_uris":{"android":"levelo://app?vid=0a4dc782-e1df-48ff-81bf-b707284fe935","ios":"levelo://app?vid=0a4dc782-e1df-48ff-81bf-b707284fe935"},"vehicle_type_id":"4","last_reported":1747044735,"current_range_meters":12800,"station_id":"ce4bhbh2rcd13ifvqepg","pricing_plan_id":"cebpf4jnsgd1na2vs0mg"},{"bike_id":"939360f3-02df-4ada-9cee-7a317c44f8d2","system_id":"levelo_inurba_marseille","lat":43.25869,"lon":5.39898,"is_reserved":false,"is_disabled":false,"rental_uris":{"android":"levelo://app?vid=939360f3-02df-4ada-9cee-7a317c44f8d2","ios":"levelo://app?vid=939360f3-02df-4ada-9cee-7a317c44f8d2"},"vehicle_type_id":"4","last_reported":1747044735,"current_range_meters":12800,"station_id":"ce4bhl92rcd13ifvqghg","pricing_plan_id":"cebpf4jnsgd1na2vs0mg"},{"bike_id":"0bf31d40-2ad2-494c-afdd-13acdb3f7f8d","system_id":"levelo_inurba_marseille","lat":43.2956,"lon":5.42296,"is_reserved":false,"is_disabled":false,"rental_uris":{"android":"levelo://app?vid=0bf31d40-2ad2-494c-afdd-13acdb3f7f8d","ios":"levelo://app?vid=0bf31d40-2ad2-494c-afdd-13acdb3f7f8d"},"vehicle_type_id":"4","last_reported":1747044735,"current_range_meters":12800,"station_id":"ce4bhph2rcd13ifvqhdg","pricing_plan_id":"cebpf4jnsgd1na2vs0mg"},{"bike_id":"46e56d54-3534-4aa9-9012-ee6dbca0d623","system_id":"levelo_inurba_marseille","lat":43.29843,"lon":5.3628,"is_reserved":false,"is_disabled":false,"rental_uris":{"android":"levelo://app?vid=46e56d54-3534-4aa9-9012-ee6dbca0d623","ios":"levelo://app?vid=46e56d54-3534-4aa9-9012-ee6dbca0d623"},"vehicle_type_id":"4","last_reported":1747044735,"current_range_meters":14000,"station_id":"ce4bgpp2rcd13ifvqc3g","pricing_plan_id":"cebpf4jnsgd1na2vs0mg"},{"bike_id":"2426c398-e9ff-4bc6-af2e-6b6e8459674c","system_id":"levelo_inurba_marseille","lat":43.2841,"lon":5.34985,"is_reserved":false,"is_disabled":false,"rental_uris":{"android":"levelo://app?vid=2426c398-e9ff-4bc6-af2e-6b6e8459674c","ios":"levelo://app?vid=2426c398-e9ff-4bc6-af2e-6b6e8459674c"},"vehicle_type_id":"4","last_reported":1747044735,"current_range_meters":14000,"station_id":"ce4bhbh2rcd13ifvqepg","pricing_plan_id":"cebpf4jnsgd1na2vs0mg"},{"bike_id":"37e482f0-c860-4d7d-84d9-dcbf209d4d71","system_id":"levelo_inurba_marseille","lat":43.31082,"lon":5.42431,"is_reserved":false,"is_disabled":false,"rental_uris":{"android":"levelo://app?vid=37e482f0-c860-4d7d-84d9-dcbf209d4d71","ios":"levelo://app?vid=37e482f0-c860-4d7d-84d9-dcbf209d4d71"},"vehicle_type_id":"4","last_reported":1747044735,"current_range_meters":14000,"station_id":"ce4bhp92rcd13ifvqhag","pricing_plan_id":"cebpf4jnsgd1na2vs0mg"},{"bike_id":"c320805c-e68a-4b14-b501-b8ce93b8d814","system_id":"levelo_inurba_marseille","lat":43.29301,"lon":5.37465,"is_reserved":false,"is_disabled":false,"rental_uris":{"android":"levelo://app?vid=c320805c-e68a-4b14-b501-b8ce93b8d814","ios":"levelo://app?vid=c320805c-e68a-4b14-b501-b8ce93b8d814"},"vehicle_type_id":"4","last_reported":1747044735,"current_range_meters":14400,"station_id":"ce4bgi12rcd13ifvqb70","pricing_plan_id":"cebpf4jnsgd1na2vs0mg"},{"bike_id":"c28663e7-1ff2-47fe-9787-f2ce18956829","system_id":"levelo_inurba_marseille","lat":43.29608,"lon":5.3771,"is_reserved":false,"is_disabled":false,"rental_uris":{"android":"levelo://app?vid=c28663e7-1ff2-47fe-9787-f2ce18956829","ios":"levelo://app?vid=c28663e7-1ff2-47fe-9787-f2ce18956829"},"vehicle_type_id":"4","last_reported":1747044735,"current_range_meters":14400,"station_id":"ce4bgi92rcd13ifvqb90","pricing_plan_id":"cebpf4jnsgd1na2vs0mg"},{"bike_id":"67784d7a-5166-4764-82e9-066296559a47","system_id":"levelo_inurba_marseille","lat":43.25937,"lon":5.40889,"is_reserved":false,"is_disabled":false,"rental_uris":{"android":"levelo://app?vid=67784d7a-5166-4764-82e9-066296559a47","ios":"levelo://app?vid=67784d7a-5166-4764-82e9-066296559a47"},"vehicle_type_id":"4","last_reported":1747044735,"current_range_meters":14400,"station_id":"ce4bhm92rcd13ifvqglg","pricing_plan_id":"cebpf4jnsgd1na2vs0mg"},{"bike_id":"df8f31fd-3f1d-45f9-acf4-274dd07f2c24","system_id":"levelo_inurba_marseille","lat":43.308893,"lon":5.37178,"is_reserved":false,"is_disabled":false,"rental_uris":{"android":"levelo://app?vid=df8f31fd-3f1d-45f9-acf4-274dd07f2c24","ios":"levelo://app?vid=df8f31fd-3f1d-45f9-acf4-274dd07f2c24"},"vehicle_type_id":"4","last_reported":1747044735,"current_range_meters":15200,"station_id":"","pricing_plan_id":"cebpf4jnsgd1na2vs0mg"},{"bike_id":"8824d032-7540-4f89-a48c-d528bc7f2f70","system_id":"levelo_inurba_marseille","lat":43.31499,"lon":5.37301,"is_reserved":false,"is_disabled":false,"rental_uris":{"android":"levelo://app?vid=8824d032-7540-4f89-a48c-d528bc7f2f70","ios":"levelo://app?vid=8824d032-7540-4f89-a48c-d528bc7f2f70"},"vehicle_type_id":"4","last_reported":1747044735,"current_range_meters":15200,"station_id":"ce4bgt12rcd13ifvqcd0","pricing_plan_id":"cebpf4jnsgd1na2vs0mg"},{"bike_id":"d95f009d-8106-45ed-93b2-3909b14e3efa","system_id":"levelo_inurba_marseille","lat":43.23185,"lon":5.39989,"is_reserved":false,"is_disabled":false,"rental_uris":{"android":"levelo://app?vid=d95f009d-8106-45ed-93b2-3909b14e3efa","ios":"levelo://app?vid=d95f009d-8106-45ed-93b2-3909b14e3efa"},"vehicle_type_id":"4","last_reported":1747044735,"current_range_meters":16000,"station_id":"ce4bhn12rcd13ifvqgqg","pricing_plan_id":"cebpf4jnsgd1na2vs0mg"},{"bike_id":"e26aecba-cf2b-4041-b758-388ff60fa2e3","system_id":"levelo_inurba_marseille","lat":43.31427,"lon":5.38149,"is_reserved":false,"is_disabled":false,"rental_uris":{"android":"levelo://app?vid=e26aecba-cf2b-4041-b758-388ff60fa2e3","ios":"levelo://app?vid=e26aecba-cf2b-4041-b758-388ff60fa2e3"},"vehicle_type_id":"4","last_reported":1747044735,"current_range_meters":16000,"station_id":"ce4bhsp2rcd13ifvqi50","pricing_plan_id":"cebpf4jnsgd1na2vs0mg"},{"bike_id":"cb0d2b3d-5286-44f3-86bc-224feeb84118","system_id":"levelo_inurba_marseille","lat":43.29931,"lon":5.36548,"is_reserved":false,"is_disabled":false,"rental_uris":{"android":"levelo://app?vid=cb0d2b3d-5286-44f3-86bc-224feeb84118","ios":"levelo://app?vid=cb0d2b3d-5286-44f3-86bc-224feeb84118"},"vehicle_type_id":"4","last_reported":1747044735,"current_range_meters":16400,"station_id":"ce4bgm92rcd13ifvqbr0","pricing_plan_id":"cebpf4jnsgd1na2vs0mg"},{"bike_id":"b8c359e7-2205-44ba-96e8-2cd88f3e1005","system_id":"levelo_inurba_marseille","lat":43.32109,"lon":5.36782,"is_reserved":false,"is_disabled":false,"rental_uris":{"android":"levelo://app?vid=b8c359e7-2205-44ba-96e8-2cd88f3e1005","ios":"levelo://app?vid=b8c359e7-2205-44ba-96e8-2cd88f3e1005"},"vehicle_type_id":"4","last_reported":1747044735,"current_range_meters":16400,"station_id":"ce4bhrh2rcd13ifvqhug","pricing_plan_id":"cebpf4jnsgd1na2vs0mg"},{"bike_id":"f2f12293-07da-41b2-b079-e9792c88d495","system_id":"levelo_inurba_marseille","lat":43.29944,"lon":5.3658,"is_reserved":false,"is_disabled":false,"rental_uris":{"android":"levelo://app?vid=f2f12293-07da-41b2-b079-e9792c88d495","ios":"levelo://app?vid=f2f12293-07da-41b2-b079-e9792c88d495"},"vehicle_type_id":"4","last_reported":1747044735,"current_range_meters":16800,"station_id":"ce4bgm92rcd13ifvqbr0","pricing_plan_id":"cebpf4jnsgd1na2vs0mg"},{"bike_id":"c61e958b-cc0e-468f-84d9-dbfbd07d7798","system_id":"levelo_inurba_marseille","lat":43.29196,"lon":5.39318,"is_reserved":false,"is_disabled":false,"rental_uris":{"android":"levelo://app?vid=c61e958b-cc0e-468f-84d9-dbfbd07d7798","ios":"levelo://app?vid=c61e958b-cc0e-468f-84d9-dbfbd07d7798"},"vehicle_type_id":"4","last_reported":1747044735,"current_range_meters":16800,"station_id":"ce4bh192rcd13ifvqdd0","pricing_plan_id":"cebpf4jnsgd1na2vs0mg"},{"bike_id":"c144b804-0db3-4b25-809a-94a47c83d57e","system_id":"levelo_inurba_marseille","lat":43.292509,"lon":5.36113,"is_reserved":false,"is_disabled":false,"rental_uris":{"android":"levelo://app?vid=c144b804-0db3-4b25-809a-94a47c83d57e","ios":"levelo://app?vid=c144b804-0db3-4b25-809a-94a47c83d57e"},"vehicle_type_id":"4","last_reported":1747044735,"current_range_meters":16800,"station_id":"ce4bhb12rcd13ifvqel0","pricing_plan_id":"cebpf4jnsgd1na2vs0mg"},{"bike_id":"f69257da-8878-41a7-b8f6-c7f02aa7ae1d","system_id":"levelo_inurba_marseille","lat":43.259362,"lon":5.409128,"is_reserved":false,"is_disabled":false,"rental_uris":{"android":"levelo://app?vid=f69257da-8878-41a7-b8f6-c7f02aa7ae1d","ios":"levelo://app?vid=f69257da-8878-41a7-b8f6-c7f02aa7ae1d"},"vehicle_type_id":"4","last_reported":1747044735,"current_range_meters":16800,"station_id":"ce4bhm92rcd13ifvqglg","pricing_plan_id":"cebpf4jnsgd1na2vs0mg"},{"bike_id":"b85aae76-f8ad-4790-bf0f-9cc783a07e71","system_id":"levelo_inurba_marseille","lat":43.29081,"lon":5.37167,"is_reserved":false,"is_disabled":false,"rental_uris":{"android":"levelo://app?vid=b85aae76-f8ad-4790-bf0f-9cc783a07e71","ios":"levelo://app?vid=b85aae76-f8ad-4790-bf0f-9cc783a07e71"},"vehicle_type_id":"4","last_reported":1747044735,"current_range_meters":17200,"station_id":"ce4bh5p2rcd13ifvqe4g","pricing_plan_id":"cebpf4jnsgd1na2vs0mg"},{"bike_id":"271c5912-31ce-4676-b35e-cdb23c727367","system_id":"levelo_inurba_marseille","lat":43.26798,"lon":5.40262,"is_reserved":false,"is_disabled":false,"rental_uris":{"android":"levelo://app?vid=271c5912-31ce-4676-b35e-cdb23c727367","ios":"levelo://app?vid=271c5912-31ce-4676-b35e-cdb23c727367"},"vehicle_type_id":"4","last_reported":1747044735,"current_range_meters":17200,"station_id":"ce501612rcd8frsf0b60","pricing_plan_id":"cebpf4jnsgd1na2vs0mg"},{"bike_id":"99970b9f-a48d-468e-baf8-96e4c4b17d4d","system_id":"levelo_inurba_marseille","lat":43.31326,"lon":5.3969,"is_reserved":false,"is_disabled":false,"rental_uris":{"android":"levelo://app?vid=99970b9f-a48d-468e-baf8-96e4c4b17d4d","ios":"levelo://app?vid=99970b9f-a48d-468e-baf8-96e4c4b17d4d"},"vehicle_type_id":"4","last_reported":1747044735,"current_range_meters":18000,"station_id":"ce4bgvp2rcd13ifvqcu0","pricing_plan_id":"cebpf4jnsgd1na2vs0mg"},{"bike_id":"a2fef47c-238e-44bb-9503-00c54a0c714f","system_id":"levelo_inurba_marseille","lat":43.29229,"lon":5.36071,"is_reserved":false,"is_disabled":false,"rental_uris":{"android":"levelo://app?vid=a2fef47c-238e-44bb-9503-00c54a0c714f","ios":"levelo://app?vid=a2fef47c-238e-44bb-9503-00c54a0c714f"},"vehicle_type_id":"4","last_reported":1747044735,"current_range_meters":18000,"station_id":"ce4bhbh2rcd13ifvqeqg","pricing_plan_id":"cebpf4jnsgd1na2vs0mg"},{"bike_id":"fc6e693c-992c-41f9-b827-1151421c293f","system_id":"levelo_inurba_marseille","lat":43.25945,"lon":5.40885,"is_reserved":false,"is_disabled":false,"rental_uris":{"android":"levelo://app?vid=fc6e693c-992c-41f9-b827-1151421c293f","ios":"levelo://app?vid=fc6e693c-992c-41f9-b827-1151421c293f"},"vehicle_type_id":"4","last_reported":1747044735,"current_range_meters":18000,"station_id":"ce4bhm92rcd13ifvqglg","pricing_plan_id":"cebpf4jnsgd1na2vs0mg"},{"bike_id":"f8dc9e04-d2ee-4752-9e41-df75a435cdb1","system_id":"levelo_inurba_marseille","lat":43.32542,"lon":5.41426,"is_reserved":false,"is_disabled":false,"rental_uris":{"android":"levelo://app?vid=f8dc9e04-d2ee-4752-9e41-df75a435cdb1","ios":"levelo://app?vid=f8dc9e04-d2ee-4752-9e41-df75a435cdb1"},"vehicle_type_id":"4","last_reported":1747044735,"current_range_meters":18000,"station_id":"ce4bhq12rcd13ifvqhhg","pricing_plan_id":"cebpf4jnsgd1na2vs0mg"},{"bike_id":"a18586b0-77ad-4ad6-8a93-261cbd6b3508","system_id":"levelo_inurba_marseille","lat":43.33596,"lon":5.40958,"is_reserved":false,"is_disabled":false,"rental_uris":{"android":"levelo://app?vid=a18586b0-77ad-4ad6-8a93-261cbd6b3508","ios":"levelo://app?vid=a18586b0-77ad-4ad6-8a93-261cbd6b3508"},"vehicle_type_id":"4","last_reported":1747044735,"current_range_meters":18800,"station_id":"","pricing_plan_id":"cebpf4jnsgd1na2vs0mg"},{"bike_id":"7f23369a-9814-4aa2-a80b-508010d04a20","system_id":"levelo_inurba_marseille","lat":43.30901,"lon":5.36852,"is_reserved":false,"is_disabled":false,"rental_uris":{"android":"levelo://app?vid=7f23369a-9814-4aa2-a80b-508010d04a20","ios":"levelo://app?vid=7f23369a-9814-4aa2-a80b-508010d04a20"},"vehicle_type_id":"4","last_reported":1747044735,"current_range_meters":18800,"station_id":"ce4bgn92rcd13ifvqbvg","pricing_plan_id":"cebpf4jnsgd1na2vs0mg"},{"bike_id":"80367791-ea46-43d6-83d2-b547bf098336","system_id":"levelo_inurba_marseille","lat":43.30293,"lon":5.36882,"is_reserved":false,"is_disabled":false,"rental_uris":{"android":"levelo://app?vid=80367791-ea46-43d6-83d2-b547bf098336","ios":"levelo://app?vid=80367791-ea46-43d6-83d2-b547bf098336"},"vehicle_type_id":"4","last_reported":1747044735,"current_range_meters":18800,"station_id":"ce4bgqh2rcd13ifvqc5g","pricing_plan_id":"cebpf4jnsgd1na2vs0mg"},{"bike_id":"cc6105f9-6f7d-4848-9f36-916e401bfe26","system_id":"levelo_inurba_marseille","lat":43.31363,"lon":5.36705,"is_reserved":false,"is_disabled":false,"rental_uris":{"android":"levelo://app?vid=cc6105f9-6f7d-4848-9f36-916e401bfe26","ios":"levelo://app?vid=cc6105f9-6f7d-4848-9f36-916e401bfe26"},"vehicle_type_id":"4","last_reported":1747044735,"current_range_meters":18800,"station_id":"ce4bgr92rcd13ifvqc6g","pricing_plan_id":"cebpf4jnsgd1na2vs0mg"},{"bike_id":"160b57ac-06fe-4e64-a9d0-0f4ad763f68b","system_id":"levelo_inurba_marseille","lat":43.2908,"lon":5.37169,"is_reserved":false,"is_disabled":false,"rental_uris":{"android":"levelo://app?vid=160b57ac-06fe-4e64-a9d0-0f4ad763f68b","ios":"levelo://app?vid=160b57ac-06fe-4e64-a9d0-0f4ad763f68b"},"vehicle_type_id":"4","last_reported":1747044735,"current_range_meters":18800,"station_id":"ce4bh5p2rcd13ifvqe4g","pricing_plan_id":"cebpf4jnsgd1na2vs0mg"},{"bike_id":"25cd2efd-cd49-4b5d-adbe-b852702c8fdf","system_id":"levelo_inurba_marseille","lat":43.26198,"lon":5.37438,"is_reserved":false,"is_disabled":false,"rental_uris":{"android":"levelo://app?vid=25cd2efd-cd49-4b5d-adbe-b852702c8fdf","ios":"levelo://app?vid=25cd2efd-cd49-4b5d-adbe-b852702c8fdf"},"vehicle_type_id":"4","last_reported":1747044735,"current_range_meters":18800,"station_id":"ce4bhgp2rcd13ifvqfc0","pricing_plan_id":"cebpf4jnsgd1na2vs0mg"},{"bike_id":"1ef8decb-8a76-4b39-87aa-358c72fb71dd","system_id":"levelo_inurba_marseille","lat":43.29771,"lon":5.39331,"is_reserved":false,"is_disabled":false,"rental_uris":{"android":"levelo://app?vid=1ef8decb-8a76-4b39-87aa-358c72fb71dd","ios":"levelo://app?vid=1ef8decb-8a76-4b39-87aa-358c72fb71dd"},"vehicle_type_id":"4","last_reported":1747044735,"current_range_meters":18800,"station_id":"chh1huq6cuj3fo74tm60","pricing_plan_id":"cebpf4jnsgd1na2vs0mg"},{"bike_id":"7af0b72f-aef1-4687-8c96-17cad21329a9","system_id":"levelo_inurba_marseille","lat":43.22937,"lon":5.35376,"is_reserved":false,"is_disabled":false,"rental_uris":{"android":"levelo://app?vid=7af0b72f-aef1-4687-8c96-17cad21329a9","ios":"levelo://app?vid=7af0b72f-aef1-4687-8c96-17cad21329a9"},"vehicle_type_id":"4","last_reported":1747044735,"current_range_meters":18800,"station_id":"cpo3532slgdg3j2ikp40","pricing_plan_id":"cebpf4jnsgd1na2vs0mg"},{"bike_id":"9455a2cc-4af8-4b53-a61e-26bd292a7399","system_id":"levelo_inurba_marseille","lat":43.3015,"lon":5.38088,"is_reserved":false,"is_disabled":false,"rental_uris":{"android":"levelo://app?vid=9455a2cc-4af8-4b53-a61e-26bd292a7399","ios":"levelo://app?vid=9455a2cc-4af8-4b53-a61e-26bd292a7399"},"vehicle_type_id":"4","last_reported":1747044735,"current_range_meters":19200,"station_id":"","pricing_plan_id":"cebpf4jnsgd1na2vs0mg"},{"bike_id":"9d94f929-ee88-4153-90d6-5a1c49ef5fc3","system_id":"levelo_inurba_marseille","lat":43.29368,"lon":5.37846,"is_reserved":false,"is_disabled":false,"rental_uris":{"android":"levelo://app?vid=9d94f929-ee88-4153-90d6-5a1c49ef5fc3","ios":"levelo://app?vid=9d94f929-ee88-4153-90d6-5a1c49ef5fc3"},"vehicle_type_id":"4","last_reported":1747044735,"current_range_meters":19200,"station_id":"ce4bgjh2rcd13ifvqbf0","pricing_plan_id":"cebpf4jnsgd1na2vs0mg"},{"bike_id":"2df1ab65-61e9-4fcf-9a25-275a30df03a7","system_id":"levelo_inurba_marseille","lat":43.30922,"lon":5.36854,"is_reserved":false,"is_disabled":false,"rental_uris":{"android":"levelo://app?vid=2df1ab65-61e9-4fcf-9a25-275a30df03a7","ios":"levelo://app?vid=2df1ab65-61e9-4fcf-9a25-275a30df03a7"},"vehicle_type_id":"4","last_reported":1747044735,"current_range_meters":19200,"station_id":"ce4bgn92rcd13ifvqbvg","pricing_plan_id":"cebpf4jnsgd1na2vs0mg"},{"bike_id":"cc01ed0c-343c-4884-be84-f04a1921874c","system_id":"levelo_inurba_marseille","lat":43.29584,"lon":5.36733,"is_reserved":false,"is_disabled":false,"rental_uris":{"android":"levelo://app?vid=cc01ed0c-343c-4884-be84-f04a1921874c","ios":"levelo://app?vid=cc01ed0c-343c-4884-be84-f04a1921874c"},"vehicle_type_id":"4","last_reported":1747044735,"current_range_meters":19200,"station_id":"ce4bgph2rcd13ifvqc2g","pricing_plan_id":"cebpf4jnsgd1na2vs0mg"},{"bike_id":"f0675dcf-9196-4ab0-920d-09ddb9919a67","system_id":"levelo_inurba_marseille","lat":43.26558,"lon":5.37284,"is_reserved":false,"is_disabled":false,"rental_uris":{"android":"levelo://app?vid=f0675dcf-9196-4ab0-920d-09ddb9919a67","ios":"levelo://app?vid=f0675dcf-9196-4ab0-920d-09ddb9919a67"},"vehicle_type_id":"4","last_reported":1747044735,"current_range_meters":19200,"station_id":"ce4bhg12rcd13ifvqf70","pricing_plan_id":"cebpf4jnsgd1na2vs0mg"},{"bike_id":"f3ec045a-47e2-4247-8265-708a5969471b","system_id":"levelo_inurba_marseille","lat":43.26209,"lon":5.37445,"is_reserved":false,"is_disabled":false,"rental_uris":{"android":"levelo://app?vid=f3ec045a-47e2-4247-8265-708a5969471b","ios":"levelo://app?vid=f3ec045a-47e2-4247-8265-708a5969471b"},"vehicle_type_id":"4","last_reported":1747044735,"current_range_meters":19200,"station_id":"ce4bhgp2rcd13ifvqfc0","pricing_plan_id":"cebpf4jnsgd1na2vs0mg"},{"bike_id":"a37bd60e-f744-4b5a-b79b-1a61fe86683d","system_id":"levelo_inurba_marseille","lat":43.25088,"lon":5.39526,"is_reserved":false,"is_disabled":false,"rental_uris":{"android":"levelo://app?vid=a37bd60e-f744-4b5a-b79b-1a61fe86683d","ios":"levelo://app?vid=a37bd60e-f744-4b5a-b79b-1a61fe86683d"},"vehicle_type_id":"4","last_reported":1747044735,"current_range_meters":19200,"station_id":"ce4bhm12rcd13ifvqgkg","pricing_plan_id":"cebpf4jnsgd1na2vs0mg"},{"bike_id":"33ee7605-5903-4a01-b390-8784b0bff2d4","system_id":"levelo_inurba_marseille","lat":43.283741,"lon":5.399939,"is_reserved":false,"is_disabled":false,"rental_uris":{"android":"levelo://app?vid=33ee7605-5903-4a01-b390-8784b0bff2d4","ios":"levelo://app?vid=33ee7605-5903-4a01-b390-8784b0bff2d4"},"vehicle_type_id":"4","last_reported":1747044735,"current_range_meters":19200,"station_id":"ce4bho12rcd13ifvqh1g","pricing_plan_id":"cebpf4jnsgd1na2vs0mg"},{"bike_id":"a1393100-0572-4a30-a139-ce3e8748d8f9","system_id":"levelo_inurba_marseille","lat":43.29035,"lon":5.3997,"is_reserved":false,"is_disabled":false,"rental_uris":{"android":"levelo://app?vid=a1393100-0572-4a30-a139-ce3e8748d8f9","ios":"levelo://app?vid=a1393100-0572-4a30-a139-ce3e8748d8f9"},"vehicle_type_id":"4","last_reported":1747044735,"current_range_meters":19600,"station_id":"ce4bh392rcd13ifvqdm0","pricing_plan_id":"cebpf4jnsgd1na2vs0mg"},{"bike_id":"52113851-1488-4df3-816e-7070c016bca6","system_id":"levelo_inurba_marseille","lat":43.265663,"lon":5.390075,"is_reserved":false,"is_disabled":false,"rental_uris":{"android":"levelo://app?vid=52113851-1488-4df3-816e-7070c016bca6","ios":"levelo://app?vid=52113851-1488-4df3-816e-7070c016bca6"},"vehicle_type_id":"4","last_reported":1747044735,"current_range_meters":19600,"station_id":"ce4bhe12rcd13ifvqf30","pricing_plan_id":"cebpf4jnsgd1na2vs0mg"},{"bike_id":"bf6d392c-76ea-4e2e-8173-b31e7f798cd8","system_id":"levelo_inurba_marseille","lat":43.25927,"lon":5.40886,"is_reserved":false,"is_disabled":false,"rental_uris":{"android":"levelo://app?vid=bf6d392c-76ea-4e2e-8173-b31e7f798cd8","ios":"levelo://app?vid=bf6d392c-76ea-4e2e-8173-b31e7f798cd8"},"vehicle_type_id":"4","last_reported":1747044735,"current_range_meters":19600,"station_id":"ce4bhm92rcd13ifvqglg","pricing_plan_id":"cebpf4jnsgd1na2vs0mg"},{"bike_id":"aa0db7d6-7f29-4a87-aca9-81db8edadd6f","system_id":"levelo_inurba_marseille","lat":43.23192,"lon":5.39985,"is_reserved":false,"is_disabled":false,"rental_uris":{"android":"levelo://app?vid=aa0db7d6-7f29-4a87-aca9-81db8edadd6f","ios":"levelo://app?vid=aa0db7d6-7f29-4a87-aca9-81db8edadd6f"},"vehicle_type_id":"4","last_reported":1747044735,"current_range_meters":19600,"station_id":"ce4bhn12rcd13ifvqgqg","pricing_plan_id":"cebpf4jnsgd1na2vs0mg"},{"bike_id":"ad318f3b-2a79-4060-98f6-ed32498cf202","system_id":"levelo_inurba_marseille","lat":43.259345,"lon":5.40912,"is_reserved":false,"is_disabled":false,"rental_uris":{"android":"levelo://app?vid=ad318f3b-2a79-4060-98f6-ed32498cf202","ios":"levelo://app?vid=ad318f3b-2a79-4060-98f6-ed32498cf202"},"vehicle_type_id":"4","last_reported":1747044735,"current_range_meters":20000,"station_id":"ce4bhm92rcd13ifvqglg","pricing_plan_id":"cebpf4jnsgd1na2vs0mg"},{"bike_id":"0ff5100d-86c0-4f46-bc4c-c1d779085578","system_id":"levelo_inurba_marseille","lat":43.2319,"lon":5.39973,"is_reserved":false,"is_disabled":false,"rental_uris":{"android":"levelo://app?vid=0ff5100d-86c0-4f46-bc4c-c1d779085578","ios":"levelo://app?vid=0ff5100d-86c0-4f46-bc4c-c1d779085578"},"vehicle_type_id":"4","last_reported":1747044735,"current_range_meters":20000,"station_id":"ce4bhn12rcd13ifvqgqg","pricing_plan_id":"cebpf4jnsgd1na2vs0mg"},{"bike_id":"b74440fb-a055-4f6e-ab47-b3f483f1cc70","system_id":"levelo_inurba_marseille","lat":43.3248,"lon":5.365697,"is_reserved":false,"is_disabled":false,"rental_uris":{"android":"levelo://app?vid=b74440fb-a055-4f6e-ab47-b3f483f1cc70","ios":"levelo://app?vid=b74440fb-a055-4f6e-ab47-b3f483f1cc70"},"vehicle_type_id":"4","last_reported":1747044735,"current_range_meters":20000,"station_id":"ce4bhs12rcd13ifvqhvg","pricing_plan_id":"cebpf4jnsgd1na2vs0mg"},{"bike_id":"8f898ea4-0b70-46db-b495-a08fd22223a4","system_id":"levelo_inurba_marseille","lat":43.22941,"lon":5.35376,"is_reserved":false,"is_disabled":false,"rental_uris":{"android":"levelo://app?vid=8f898ea4-0b70-46db-b495-a08fd22223a4","ios":"levelo://app?vid=8f898ea4-0b70-46db-b495-a08fd22223a4"},"vehicle_type_id":"4","last_reported":1747044735,"current_range_meters":20000,"station_id":"cpo3532slgdg3j2ikp40","pricing_plan_id":"cebpf4jnsgd1na2vs0mg"},{"bike_id":"052e8be5-756e-40b8-bf8d-fe2bdca2d830","system_id":"levelo_inurba_marseille","lat":43.21187,"lon":5.35065,"is_reserved":false,"is_disabled":false,"rental_uris":{"android":"levelo://app?vid=052e8be5-756e-40b8-bf8d-fe2bdca2d830","ios":"levelo://app?vid=052e8be5-756e-40b8-bf8d-fe2bdca2d830"},"vehicle_type_id":"4","last_reported":1747044735,"current_range_meters":20000,"station_id":"st_cvj6sg6p6f1abm77japg","pricing_plan_id":"cebpf4jnsgd1na2vs0mg"},{"bike_id":"cc25aae6-3197-44f8-8471-8a0efb35cc4f","system_id":"levelo_inurba_marseille","lat":43.30607,"lon":5.36582,"is_reserved":false,"is_disabled":false,"rental_uris":{"android":"levelo://app?vid=cc25aae6-3197-44f8-8471-8a0efb35cc4f","ios":"levelo://app?vid=cc25aae6-3197-44f8-8471-8a0efb35cc4f"},"vehicle_type_id":"4","last_reported":1747044735,"current_range_meters":20400,"station_id":"","pricing_plan_id":"cebpf4jnsgd1na2vs0mg"},{"bike_id":"faf5455c-81d6-402c-9cad-c581aa3b2e89","system_id":"levelo_inurba_marseille","lat":43.299571,"lon":5.385285,"is_reserved":false,"is_disabled":false,"rental_uris":{"android":"levelo://app?vid=faf5455c-81d6-402c-9cad-c581aa3b2e89","ios":"levelo://app?vid=faf5455c-81d6-402c-9cad-c581aa3b2e89"},"vehicle_type_id":"4","last_reported":1747044735,"current_range_meters":20400,"station_id":"ce4bgj92rcd13ifvqbd0","pricing_plan_id":"cebpf4jnsgd1na2vs0mg"},{"bike_id":"c2180296-e525-4f7e-aeda-5622275d4cbc","system_id":"levelo_inurba_marseille","lat":43.30537,"lon":5.36542,"is_reserved":false,"is_disabled":false,"rental_uris":{"android":"levelo://app?vid=c2180296-e525-4f7e-aeda-5622275d4cbc","ios":"levelo://app?vid=c2180296-e525-4f7e-aeda-5622275d4cbc"},"vehicle_type_id":"4","last_reported":1747044735,"current_range_meters":20400,"station_id":"ce4bgs12rcd13ifvqcag","pricing_plan_id":"cebpf4jnsgd1na2vs0mg"},{"bike_id":"6d6c1e99-5b0d-45e9-a2d6-b69d888c930f","system_id":"levelo_inurba_marseille","lat":43.30803,"lon":5.38152,"is_reserved":false,"is_disabled":false,"rental_uris":{"android":"levelo://app?vid=6d6c1e99-5b0d-45e9-a2d6-b69d888c930f","ios":"levelo://app?vid=6d6c1e99-5b0d-45e9-a2d6-b69d888c930f"},"vehicle_type_id":"4","last_reported":1747044735,"current_range_meters":20400,"station_id":"ce4bgt12rcd13ifvqce0","pricing_plan_id":"cebpf4jnsgd1na2vs0mg"},{"bike_id":"3b28ae84-c2a8-482c-bf98-f246040ffcdd","system_id":"levelo_inurba_marseille","lat":43.2928,"lon":5.36855,"is_reserved":false,"is_disabled":false,"rental_uris":{"android":"levelo://app?vid=3b28ae84-c2a8-482c-bf98-f246040ffcdd","ios":"levelo://app?vid=3b28ae84-c2a8-482c-bf98-f246040ffcdd"},"vehicle_type_id":"4","last_reported":1747044735,"current_range_meters":20400,"station_id":"ce4bhbp2rcd13ifvqesg","pricing_plan_id":"cebpf4jnsgd1na2vs0mg"},{"bike_id":"dbd895d8-924b-478f-bd90-1998095e67fd","system_id":"levelo_inurba_marseille","lat":43.25866,"lon":5.39932,"is_reserved":false,"is_disabled":false,"rental_uris":{"android":"levelo://app?vid=dbd895d8-924b-478f-bd90-1998095e67fd","ios":"levelo://app?vid=dbd895d8-924b-478f-bd90-1998095e67fd"},"vehicle_type_id":"4","last_reported":1747044735,"current_range_meters":20400,"station_id":"ce4bhl92rcd13ifvqghg","pricing_plan_id":"cebpf4jnsgd1na2vs0mg"},{"bike_id":"9dec727d-25f9-4a22-a6f8-a2b2d425ac82","system_id":"levelo_inurba_marseille","lat":43.28444,"lon":5.39213,"is_reserved":false,"is_disabled":false,"rental_uris":{"android":"levelo://app?vid=9dec727d-25f9-4a22-a6f8-a2b2d425ac82","ios":"levelo://app?vid=9dec727d-25f9-4a22-a6f8-a2b2d425ac82"},"vehicle_type_id":"4","last_reported":1747044735,"current_range_meters":20400,"station_id":"ce4bhoh2rcd13ifvqh5g","pricing_plan_id":"cebpf4jnsgd1na2vs0mg"},{"bike_id":"16e11c12-6b4c-4b89-9c44-4f930967a3a4","system_id":"levelo_inurba_marseille","lat":43.29925,"lon":5.36546,"is_reserved":false,"is_disabled":false,"rental_uris":{"android":"levelo://app?vid=16e11c12-6b4c-4b89-9c44-4f930967a3a4","ios":"levelo://app?vid=16e11c12-6b4c-4b89-9c44-4f930967a3a4"},"vehicle_type_id":"4","last_reported":1747044735,"current_range_meters":20800,"station_id":"ce4bgm92rcd13ifvqbr0","pricing_plan_id":"cebpf4jnsgd1na2vs0mg"},{"bike_id":"feaed5e1-8dfb-4df7-bd3a-9eb769163c1a","system_id":"levelo_inurba_marseille","lat":43.30912,"lon":5.36852,"is_reserved":false,"is_disabled":false,"rental_uris":{"android":"levelo://app?vid=feaed5e1-8dfb-4df7-bd3a-9eb769163c1a","ios":"levelo://app?vid=feaed5e1-8dfb-4df7-bd3a-9eb769163c1a"},"vehicle_type_id":"4","last_reported":1747044735,"current_range_meters":20800,"station_id":"ce4bgn92rcd13ifvqbvg","pricing_plan_id":"cebpf4jnsgd1na2vs0mg"},{"bike_id":"5929a544-ded7-42c5-b242-6e3558a2870b","system_id":"levelo_inurba_marseille","lat":43.30534,"lon":5.36714,"is_reserved":false,"is_disabled":false,"rental_uris":{"android":"levelo://app?vid=5929a544-ded7-42c5-b242-6e3558a2870b","ios":"levelo://app?vid=5929a544-ded7-42c5-b242-6e3558a2870b"},"vehicle_type_id":"4","last_reported":1747044735,"current_range_meters":20800,"station_id":"ce4bgrp2rcd13ifvqc9g","pricing_plan_id":"cebpf4jnsgd1na2vs0mg"},{"bike_id":"0bf9c336-2203-4801-89d0-7d5a9c844224","system_id":"levelo_inurba_marseille","lat":43.28613,"lon":5.35098,"is_reserved":false,"is_disabled":false,"rental_uris":{"android":"levelo://app?vid=0bf9c336-2203-4801-89d0-7d5a9c844224","ios":"levelo://app?vid=0bf9c336-2203-4801-89d0-7d5a9c844224"},"vehicle_type_id":"4","last_reported":1747044735,"current_range_meters":20800,"station_id":"ce4bhch2rcd13ifvqeug","pricing_plan_id":"cebpf4jnsgd1na2vs0mg"},{"bike_id":"10432bd6-24b8-4456-9bb0-643bd6ed4f6e","system_id":"levelo_inurba_marseille","lat":43.23965,"lon":5.36634,"is_reserved":false,"is_disabled":false,"rental_uris":{"android":"levelo://app?vid=10432bd6-24b8-4456-9bb0-643bd6ed4f6e","ios":"levelo://app?vid=10432bd6-24b8-4456-9bb0-643bd6ed4f6e"},"vehicle_type_id":"4","last_reported":1747044735,"current_range_meters":20800,"station_id":"ce4bhi12rcd13ifvqfp0","pricing_plan_id":"cebpf4jnsgd1na2vs0mg"},{"bike_id":"6cf9cbd3-256e-4f75-9fa6-012a0bbb6d32","system_id":"levelo_inurba_marseille","lat":43.25862,"lon":5.39921,"is_reserved":false,"is_disabled":false,"rental_uris":{"android":"levelo://app?vid=6cf9cbd3-256e-4f75-9fa6-012a0bbb6d32","ios":"levelo://app?vid=6cf9cbd3-256e-4f75-9fa6-012a0bbb6d32"},"vehicle_type_id":"4","last_reported":1747044735,"current_range_meters":20800,"station_id":"ce4bhl92rcd13ifvqghg","pricing_plan_id":"cebpf4jnsgd1na2vs0mg"},{"bike_id":"8de0a9a3-7e07-4fff-90c6-2e6a7262b942","system_id":"levelo_inurba_marseille","lat":43.31264,"lon":5.36901,"is_reserved":false,"is_disabled":false,"rental_uris":{"android":"levelo://app?vid=8de0a9a3-7e07-4fff-90c6-2e6a7262b942","ios":"levelo://app?vid=8de0a9a3-7e07-4fff-90c6-2e6a7262b942"},"vehicle_type_id":"4","last_reported":1747044735,"current_range_meters":21600,"station_id":"","pricing_plan_id":"cebpf4jnsgd1na2vs0mg"},{"bike_id":"1b536b9b-a229-4822-8685-fa872bba8394","system_id":"levelo_inurba_marseille","lat":43.28703,"lon":5.37399,"is_reserved":false,"is_disabled":false,"rental_uris":{"android":"levelo://app?vid=1b536b9b-a229-4822-8685-fa872bba8394","ios":"levelo://app?vid=1b536b9b-a229-4822-8685-fa872bba8394"},"vehicle_type_id":"4","last_reported":1747044735,"current_range_meters":21600,"station_id":"","pricing_plan_id":"cebpf4jnsgd1na2vs0mg"},{"bike_id":"f05929fc-cdc5-4d19-93d4-01742b3de37d","system_id":"levelo_inurba_marseille","lat":43.31336,"lon":5.39691,"is_reserved":false,"is_disabled":false,"rental_uris":{"android":"levelo://app?vid=f05929fc-cdc5-4d19-93d4-01742b3de37d","ios":"levelo://app?vid=f05929fc-cdc5-4d19-93d4-01742b3de37d"},"vehicle_type_id":"4","last_reported":1747044735,"current_range_meters":21600,"station_id":"ce4bgvp2rcd13ifvqcu0","pricing_plan_id":"cebpf4jnsgd1na2vs0mg"},{"bike_id":"82171c0d-e74b-441d-9785-ea5f1f55c2b9","system_id":"levelo_inurba_marseille","lat":43.28418,"lon":5.34974,"is_reserved":false,"is_disabled":false,"rental_uris":{"android":"levelo://app?vid=82171c0d-e74b-441d-9785-ea5f1f55c2b9","ios":"levelo://app?vid=82171c0d-e74b-441d-9785-ea5f1f55c2b9"},"vehicle_type_id":"4","last_reported":1747044735,"current_range_meters":21600,"station_id":"ce4bhbh2rcd13ifvqepg","pricing_plan_id":"cebpf4jnsgd1na2vs0mg"},{"bike_id":"77f04649-f9d2-4222-99e5-75d958567933","system_id":"levelo_inurba_marseille","lat":43.25933,"lon":5.40911,"is_reserved":false,"is_disabled":false,"rental_uris":{"android":"levelo://app?vid=77f04649-f9d2-4222-99e5-75d958567933","ios":"levelo://app?vid=77f04649-f9d2-4222-99e5-75d958567933"},"vehicle_type_id":"4","last_reported":1747044735,"current_range_meters":21600,"station_id":"ce4bhm92rcd13ifvqglg","pricing_plan_id":"cebpf4jnsgd1na2vs0mg"},{"bike_id":"94aecf60-80e2-4740-9194-acfe27b5c88e","system_id":"levelo_inurba_marseille","lat":43.28614,"lon":5.351,"is_reserved":false,"is_disabled":false,"rental_uris":{"android":"levelo://app?vid=94aecf60-80e2-4740-9194-acfe27b5c88e","ios":"levelo://app?vid=94aecf60-80e2-4740-9194-acfe27b5c88e"},"vehicle_type_id":"4","last_reported":1747044735,"current_range_meters":22000,"station_id":"ce4bhch2rcd13ifvqeug","pricing_plan_id":"cebpf4jnsgd1na2vs0mg"},{"bike_id":"c8e3f745-b06b-4bed-911e-4375e67ee469","system_id":"levelo_inurba_marseille","lat":43.259335,"lon":5.409114,"is_reserved":false,"is_disabled":false,"rental_uris":{"android":"levelo://app?vid=c8e3f745-b06b-4bed-911e-4375e67ee469","ios":"levelo://app?vid=c8e3f745-b06b-4bed-911e-4375e67ee469"},"vehicle_type_id":"4","last_reported":1747044735,"current_range_meters":22000,"station_id":"ce4bhm92rcd13ifvqglg","pricing_plan_id":"cebpf4jnsgd1na2vs0mg"},{"bike_id":"b5bf798b-62b6-4c83-b4af-1967f8178485","system_id":"levelo_inurba_marseille","lat":43.34142,"lon":5.40912,"is_reserved":false,"is_disabled":false,"rental_uris":{"android":"levelo://app?vid=b5bf798b-62b6-4c83-b4af-1967f8178485","ios":"levelo://app?vid=b5bf798b-62b6-4c83-b4af-1967f8178485"},"vehicle_type_id":"4","last_reported":1747044735,"current_range_meters":22000,"station_id":"ce4bhqh2rcd13ifvqhlg","pricing_plan_id":"cebpf4jnsgd1na2vs0mg"},{"bike_id":"8415e464-3132-4d5c-ad7e-4c2965d3e1c0","system_id":"levelo_inurba_marseille","lat":43.232,"lon":5.35551,"is_reserved":false,"is_disabled":false,"rental_uris":{"android":"levelo://app?vid=8415e464-3132-4d5c-ad7e-4c2965d3e1c0","ios":"levelo://app?vid=8415e464-3132-4d5c-ad7e-4c2965d3e1c0"},"vehicle_type_id":"4","last_reported":1747044735,"current_range_meters":22000,"station_id":"ce4bhu92rcd13ifvqi70","pricing_plan_id":"cebpf4jnsgd1na2vs0mg"},{"bike_id":"4315f055-60c2-4923-a70f-8dd169b77a5f","system_id":"levelo_inurba_marseille","lat":43.30805,"lon":5.37875,"is_reserved":false,"is_disabled":false,"rental_uris":{"android":"levelo://app?vid=4315f055-60c2-4923-a70f-8dd169b77a5f","ios":"levelo://app?vid=4315f055-60c2-4923-a70f-8dd169b77a5f"},"vehicle_type_id":"4","last_reported":1747044735,"current_range_meters":22400,"station_id":"","pricing_plan_id":"cebpf4jnsgd1na2vs0mg"},{"bike_id":"ea5f4cd8-3650-4c02-bb6d-7c8641e06da7","system_id":"levelo_inurba_marseille","lat":43.30927,"lon":5.36863,"is_reserved":false,"is_disabled":false,"rental_uris":{"android":"levelo://app?vid=ea5f4cd8-3650-4c02-bb6d-7c8641e06da7","ios":"levelo://app?vid=ea5f4cd8-3650-4c02-bb6d-7c8641e06da7"},"vehicle_type_id":"4","last_reported":1747044735,"current_range_meters":22400,"station_id":"ce4bgn92rcd13ifvqbvg","pricing_plan_id":"cebpf4jnsgd1na2vs0mg"},{"bike_id":"066548be-1904-491a-bad0-78556b25c2a4","system_id":"levelo_inurba_marseille","lat":43.31321,"lon":5.39699,"is_reserved":false,"is_disabled":false,"rental_uris":{"android":"levelo://app?vid=066548be-1904-491a-bad0-78556b25c2a4","ios":"levelo://app?vid=066548be-1904-491a-bad0-78556b25c2a4"},"vehicle_type_id":"4","last_reported":1747044735,"current_range_meters":22400,"station_id":"ce4bgvp2rcd13ifvqcu0","pricing_plan_id":"cebpf4jnsgd1na2vs0mg"},{"bike_id":"476e2a87-3d9e-46be-8442-23affa40ddc2","system_id":"levelo_inurba_marseille","lat":43.28948,"lon":5.36379,"is_reserved":false,"is_disabled":false,"rental_uris":{"android":"levelo://app?vid=476e2a87-3d9e-46be-8442-23affa40ddc2","ios":"levelo://app?vid=476e2a87-3d9e-46be-8442-23affa40ddc2"},"vehicle_type_id":"4","last_reported":1747044735,"current_range_meters":22400,"station_id":"ce4bhc92rcd13ifvqetg","pricing_plan_id":"cebpf4jnsgd1na2vs0mg"},{"bike_id":"f52ac0a1-aac5-455d-a880-8e13fabb2b52","system_id":"levelo_inurba_marseille","lat":43.323632,"lon":5.388815,"is_reserved":false,"is_disabled":false,"rental_uris":{"android":"levelo://app?vid=f52ac0a1-aac5-455d-a880-8e13fabb2b52","ios":"levelo://app?vid=f52ac0a1-aac5-455d-a880-8e13fabb2b52"},"vehicle_type_id":"4","last_reported":1747044735,"current_range_meters":22400,"station_id":"ce4bhqp2rcd13ifvqhog","pricing_plan_id":"cebpf4jnsgd1na2vs0mg"},{"bike_id":"d71a67d1-f36c-4ab9-a6d1-b174a4b49651","system_id":"levelo_inurba_marseille","lat":43.23195,"lon":5.35557,"is_reserved":false,"is_disabled":false,"rental_uris":{"android":"levelo://app?vid=d71a67d1-f36c-4ab9-a6d1-b174a4b49651","ios":"levelo://app?vid=d71a67d1-f36c-4ab9-a6d1-b174a4b49651"},"vehicle_type_id":"4","last_reported":1747044735,"current_range_meters":22400,"station_id":"ce4bhu92rcd13ifvqi70","pricing_plan_id":"cebpf4jnsgd1na2vs0mg"},{"bike_id":"3ec422d0-69c1-40df-8ec6-abcfc048bf10","system_id":"levelo_inurba_marseille","lat":43.30538,"lon":5.36692,"is_reserved":false,"is_disabled":false,"rental_uris":{"android":"levelo://app?vid=3ec422d0-69c1-40df-8ec6-abcfc048bf10","ios":"levelo://app?vid=3ec422d0-69c1-40df-8ec6-abcfc048bf10"},"vehicle_type_id":"4","last_reported":1747044735,"current_range_meters":22800,"station_id":"ce4bgrp2rcd13ifvqc9g","pricing_plan_id":"cebpf4jnsgd1na2vs0mg"},{"bike_id":"7836b4bc-7d58-466b-be3c-0a70e9c2ba81","system_id":"levelo_inurba_marseille","lat":43.30541,"lon":5.36529,"is_reserved":false,"is_disabled":false,"rental_uris":{"android":"levelo://app?vid=7836b4bc-7d58-466b-be3c-0a70e9c2ba81","ios":"levelo://app?vid=7836b4bc-7d58-466b-be3c-0a70e9c2ba81"},"vehicle_type_id":"4","last_reported":1747044735,"current_range_meters":22800,"station_id":"ce4bgs12rcd13ifvqcag","pricing_plan_id":"cebpf4jnsgd1na2vs0mg"},{"bike_id":"f0ae0a97-693e-4aee-bea0-92e597822c88","system_id":"levelo_inurba_marseille","lat":43.249914,"lon":5.375157,"is_reserved":false,"is_disabled":false,"rental_uris":{"android":"levelo://app?vid=f0ae0a97-693e-4aee-bea0-92e597822c88","ios":"levelo://app?vid=f0ae0a97-693e-4aee-bea0-92e597822c88"},"vehicle_type_id":"4","last_reported":1747044735,"current_range_meters":22800,"station_id":"ce4bhgh2rcd13ifvqfb0","pricing_plan_id":"cebpf4jnsgd1na2vs0mg"},{"bike_id":"e9fc7045-df7f-44b4-8d28-a9d4ab4b47cb","system_id":"levelo_inurba_marseille","lat":43.26492,"lon":5.39549,"is_reserved":false,"is_disabled":false,"rental_uris":{"android":"levelo://app?vid=e9fc7045-df7f-44b4-8d28-a9d4ab4b47cb","ios":"levelo://app?vid=e9fc7045-df7f-44b4-8d28-a9d4ab4b47cb"},"vehicle_type_id":"4","last_reported":1747044735,"current_range_meters":22800,"station_id":"ce4bhi12rcd13ifvqfq0","pricing_plan_id":"cebpf4jnsgd1na2vs0mg"},{"bike_id":"2ccea22b-2032-4ba4-ac42-be2936b214f8","system_id":"levelo_inurba_marseille","lat":43.251793,"lon":5.399338,"is_reserved":false,"is_disabled":false,"rental_uris":{"android":"levelo://app?vid=2ccea22b-2032-4ba4-ac42-be2936b214f8","ios":"levelo://app?vid=2ccea22b-2032-4ba4-ac42-be2936b214f8"},"vehicle_type_id":"4","last_reported":1747044735,"current_range_meters":22800,"station_id":"ce4bhlp2rcd13ifvqgjg","pricing_plan_id":"cebpf4jnsgd1na2vs0mg"},{"bike_id":"88c68a97-0dcd-4f87-9daa-1e0e1e20a7fc","system_id":"levelo_inurba_marseille","lat":43.310844,"lon":5.424292,"is_reserved":false,"is_disabled":false,"rental_uris":{"android":"levelo://app?vid=88c68a97-0dcd-4f87-9daa-1e0e1e20a7fc","ios":"levelo://app?vid=88c68a97-0dcd-4f87-9daa-1e0e1e20a7fc"},"vehicle_type_id":"4","last_reported":1747044735,"current_range_meters":22800,"station_id":"ce4bhp92rcd13ifvqhag","pricing_plan_id":"cebpf4jnsgd1na2vs0mg"},{"bike_id":"02ad220e-4f4a-4d8d-96bd-3ecf889fe3eb","system_id":"levelo_inurba_marseille","lat":43.2986,"lon":5.36267,"is_reserved":false,"is_disabled":false,"rental_uris":{"android":"levelo://app?vid=02ad220e-4f4a-4d8d-96bd-3ecf889fe3eb","ios":"levelo://app?vid=02ad220e-4f4a-4d8d-96bd-3ecf889fe3eb"},"vehicle_type_id":"4","last_reported":1747044735,"current_range_meters":23200,"station_id":"ce4bgpp2rcd13ifvqc3g","pricing_plan_id":"cebpf4jnsgd1na2vs0mg"},{"bike_id":"779ddad0-e86b-4d3f-a89c-e01d91533ea3","system_id":"levelo_inurba_marseille","lat":43.298614,"lon":5.362979,"is_reserved":false,"is_disabled":false,"rental_uris":{"android":"levelo://app?vid=779ddad0-e86b-4d3f-a89c-e01d91533ea3","ios":"levelo://app?vid=779ddad0-e86b-4d3f-a89c-e01d91533ea3"},"vehicle_type_id":"4","last_reported":1747044735,"current_range_meters":23200,"station_id":"ce4bgpp2rcd13ifvqc3g","pricing_plan_id":"cebpf4jnsgd1na2vs0mg"},{"bike_id":"9190df99-a307-433e-90e0-340a66f17de6","system_id":"levelo_inurba_marseille","lat":43.25933,"lon":5.40856,"is_reserved":false,"is_disabled":false,"rental_uris":{"android":"levelo://app?vid=9190df99-a307-433e-90e0-340a66f17de6","ios":"levelo://app?vid=9190df99-a307-433e-90e0-340a66f17de6"},"vehicle_type_id":"4","last_reported":1747044735,"current_range_meters":23200,"station_id":"ce4bhm92rcd13ifvqglg","pricing_plan_id":"cebpf4jnsgd1na2vs0mg"},{"bike_id":"5728e68c-f162-4e22-b613-26d103e45857","system_id":"levelo_inurba_marseille","lat":43.259444,"lon":5.408991,"is_reserved":false,"is_disabled":false,"rental_uris":{"android":"levelo://app?vid=5728e68c-f162-4e22-b613-26d103e45857","ios":"levelo://app?vid=5728e68c-f162-4e22-b613-26d103e45857"},"vehicle_type_id":"4","last_reported":1747044735,"current_range_meters":23200,"station_id":"ce4bhm92rcd13ifvqglg","pricing_plan_id":"cebpf4jnsgd1na2vs0mg"},{"bike_id":"a00f9e32-6572-4e04-a064-bf1871a87ba8","system_id":"levelo_inurba_marseille","lat":43.3249,"lon":5.36576,"is_reserved":false,"is_disabled":false,"rental_uris":{"android":"levelo://app?vid=a00f9e32-6572-4e04-a064-bf1871a87ba8","ios":"levelo://app?vid=a00f9e32-6572-4e04-a064-bf1871a87ba8"},"vehicle_type_id":"4","last_reported":1747044735,"current_range_meters":23200,"station_id":"ce4bhs12rcd13ifvqhvg","pricing_plan_id":"cebpf4jnsgd1na2vs0mg"},{"bike_id":"5cbfb0a3-0518-487d-ac2e-75e417df87b5","system_id":"levelo_inurba_marseille","lat":43.23189,"lon":5.35537,"is_reserved":false,"is_disabled":false,"rental_uris":{"android":"levelo://app?vid=5cbfb0a3-0518-487d-ac2e-75e417df87b5","ios":"levelo://app?vid=5cbfb0a3-0518-487d-ac2e-75e417df87b5"},"vehicle_type_id":"4","last_reported":1747044735,"current_range_meters":23200,"station_id":"ce4bhu92rcd13ifvqi70","pricing_plan_id":"cebpf4jnsgd1na2vs0mg"},{"bike_id":"7e999b47-9593-42c6-8ac4-0f0d0694eb61","system_id":"levelo_inurba_marseille","lat":43.30733,"lon":5.42451,"is_reserved":false,"is_disabled":false,"rental_uris":{"android":"levelo://app?vid=7e999b47-9593-42c6-8ac4-0f0d0694eb61","ios":"levelo://app?vid=7e999b47-9593-42c6-8ac4-0f0d0694eb61"},"vehicle_type_id":"4","last_reported":1747044735,"current_range_meters":23200,"station_id":"st_cvj6ca6bvosntc0bfgr0","pricing_plan_id":"cebpf4jnsgd1na2vs0mg"},{"bike_id":"995e5fbf-2d3e-428b-aa14-7b4276796c93","system_id":"levelo_inurba_marseille","lat":43.33583,"lon":5.40975,"is_reserved":false,"is_disabled":false,"rental_uris":{"android":"levelo://app?vid=995e5fbf-2d3e-428b-aa14-7b4276796c93","ios":"levelo://app?vid=995e5fbf-2d3e-428b-aa14-7b4276796c93"},"vehicle_type_id":"4","last_reported":1747044735,"current_range_meters":24000,"station_id":"","pricing_plan_id":"cebpf4jnsgd1na2vs0mg"},{"bike_id":"04d66d1c-9824-4ef1-977b-71ea48fa7c25","system_id":"levelo_inurba_marseille","lat":43.29248,"lon":5.36493,"is_reserved":false,"is_disabled":false,"rental_uris":{"android":"levelo://app?vid=04d66d1c-9824-4ef1-977b-71ea48fa7c25","ios":"levelo://app?vid=04d66d1c-9824-4ef1-977b-71ea48fa7c25"},"vehicle_type_id":"4","last_reported":1747044735,"current_range_meters":24000,"station_id":"","pricing_plan_id":"cebpf4jnsgd1na2vs0mg"},{"bike_id":"8584741d-2a43-4b7c-9b55-91100baec944","system_id":"levelo_inurba_marseille","lat":43.29847,"lon":5.3627,"is_reserved":false,"is_disabled":false,"rental_uris":{"android":"levelo://app?vid=8584741d-2a43-4b7c-9b55-91100baec944","ios":"levelo://app?vid=8584741d-2a43-4b7c-9b55-91100baec944"},"vehicle_type_id":"4","last_reported":1747044735,"current_range_meters":24000,"station_id":"ce4bgpp2rcd13ifvqc3g","pricing_plan_id":"cebpf4jnsgd1na2vs0mg"},{"bike_id":"b909884f-54e8-49ad-91b8-0b3d058543af","system_id":"levelo_inurba_marseille","lat":43.28671,"lon":5.38675,"is_reserved":false,"is_disabled":false,"rental_uris":{"android":"levelo://app?vid=b909884f-54e8-49ad-91b8-0b3d058543af","ios":"levelo://app?vid=b909884f-54e8-49ad-91b8-0b3d058543af"},"vehicle_type_id":"4","last_reported":1747044735,"current_range_meters":24000,"station_id":"ce4bh492rcd13ifvqdug","pricing_plan_id":"cebpf4jnsgd1na2vs0mg"},{"bike_id":"dc641743-b968-4496-812a-3b41120ce533","system_id":"levelo_inurba_marseille","lat":43.28422,"lon":5.35,"is_reserved":false,"is_disabled":false,"rental_uris":{"android":"levelo://app?vid=dc641743-b968-4496-812a-3b41120ce533","ios":"levelo://app?vid=dc641743-b968-4496-812a-3b41120ce533"},"vehicle_type_id":"4","last_reported":1747044735,"current_range_meters":24000,"station_id":"ce4bhbh2rcd13ifvqepg","pricing_plan_id":"cebpf4jnsgd1na2vs0mg"},{"bike_id":"ded21d3b-017a-431c-a119-0da980f4a122","system_id":"levelo_inurba_marseille","lat":43.28414,"lon":5.34975,"is_reserved":false,"is_disabled":false,"rental_uris":{"android":"levelo://app?vid=ded21d3b-017a-431c-a119-0da980f4a122","ios":"levelo://app?vid=ded21d3b-017a-431c-a119-0da980f4a122"},"vehicle_type_id":"4","last_reported":1747044735,"current_range_meters":24000,"station_id":"ce4bhbh2rcd13ifvqepg","pricing_plan_id":"cebpf4jnsgd1na2vs0mg"},{"bike_id":"f7b28b14-5137-4023-b1b7-b7e5bb33d722","system_id":"levelo_inurba_marseille","lat":43.25941,"lon":5.40906,"is_reserved":false,"is_disabled":false,"rental_uris":{"android":"levelo://app?vid=f7b28b14-5137-4023-b1b7-b7e5bb33d722","ios":"levelo://app?vid=f7b28b14-5137-4023-b1b7-b7e5bb33d722"},"vehicle_type_id":"4","last_reported":1747044735,"current_range_meters":24000,"station_id":"ce4bhm92rcd13ifvqglg","pricing_plan_id":"cebpf4jnsgd1na2vs0mg"},{"bike_id":"581a76c6-406f-436c-80cf-424046378536","system_id":"levelo_inurba_marseille","lat":43.23141,"lon":5.4371,"is_reserved":false,"is_disabled":false,"rental_uris":{"android":"levelo://app?vid=581a76c6-406f-436c-80cf-424046378536","ios":"levelo://app?vid=581a76c6-406f-436c-80cf-424046378536"},"vehicle_type_id":"4","last_reported":1747044735,"current_range_meters":24000,"station_id":"ce4bhmp2rcd13ifvqgog","pricing_plan_id":"cebpf4jnsgd1na2vs0mg"},{"bike_id":"c05b632b-72c1-4f45-9ed8-255f586f4b08","system_id":"levelo_inurba_marseille","lat":43.33611,"lon":5.41022,"is_reserved":false,"is_disabled":false,"rental_uris":{"android":"levelo://app?vid=c05b632b-72c1-4f45-9ed8-255f586f4b08","ios":"levelo://app?vid=c05b632b-72c1-4f45-9ed8-255f586f4b08"},"vehicle_type_id":"4","last_reported":1747044735,"current_range_meters":24000,"station_id":"ce4bhqh2rcd13ifvqhmg","pricing_plan_id":"cebpf4jnsgd1na2vs0mg"},{"bike_id":"408d9330-e303-418f-8f08-2214028633bb","system_id":"levelo_inurba_marseille","lat":43.312255,"lon":5.368629,"is_reserved":false,"is_disabled":false,"rental_uris":{"android":"levelo://app?vid=408d9330-e303-418f-8f08-2214028633bb","ios":"levelo://app?vid=408d9330-e303-418f-8f08-2214028633bb"},"vehicle_type_id":"4","last_reported":1747044735,"current_range_meters":24400,"station_id":"ce4bgl92rcd13ifvqbq0","pricing_plan_id":"cebpf4jnsgd1na2vs0mg"},{"bike_id":"52f40627-38b7-4294-a52b-09dce0be528b","system_id":"levelo_inurba_marseille","lat":43.308886,"lon":5.396577,"is_reserved":false,"is_disabled":false,"rental_uris":{"android":"levelo://app?vid=52f40627-38b7-4294-a52b-09dce0be528b","ios":"levelo://app?vid=52f40627-38b7-4294-a52b-09dce0be528b"},"vehicle_type_id":"4","last_reported":1747044735,"current_range_meters":24400,"station_id":"ce4bh012rcd13ifvqcv0","pricing_plan_id":"cebpf4jnsgd1na2vs0mg"},{"bike_id":"58ccb633-7f7f-4c93-ac83-881938c839a5","system_id":"levelo_inurba_marseille","lat":43.29209,"lon":5.36046,"is_reserved":false,"is_disabled":false,"rental_uris":{"android":"levelo://app?vid=58ccb633-7f7f-4c93-ac83-881938c839a5","ios":"levelo://app?vid=58ccb633-7f7f-4c93-ac83-881938c839a5"},"vehicle_type_id":"4","last_reported":1747044735,"current_range_meters":24400,"station_id":"ce4bhbh2rcd13ifvqeqg","pricing_plan_id":"cebpf4jnsgd1na2vs0mg"},{"bike_id":"d53f5516-ba33-4b48-bab7-c8219dc18d6c","system_id":"levelo_inurba_marseille","lat":43.26035,"lon":5.37549,"is_reserved":false,"is_disabled":false,"rental_uris":{"android":"levelo://app?vid=d53f5516-ba33-4b48-bab7-c8219dc18d6c","ios":"levelo://app?vid=d53f5516-ba33-4b48-bab7-c8219dc18d6c"},"vehicle_type_id":"4","last_reported":1747044735,"current_range_meters":24400,"station_id":"ce4bhgh2rcd13ifvqfa0","pricing_plan_id":"cebpf4jnsgd1na2vs0mg"},{"bike_id":"99bdd88a-6c79-4c7b-9277-5e8dbca0d025","system_id":"levelo_inurba_marseille","lat":43.2707,"lon":5.42262,"is_reserved":false,"is_disabled":false,"rental_uris":{"android":"levelo://app?vid=99bdd88a-6c79-4c7b-9277-5e8dbca0d025","ios":"levelo://app?vid=99bdd88a-6c79-4c7b-9277-5e8dbca0d025"},"vehicle_type_id":"4","last_reported":1747044735,"current_range_meters":24400,"station_id":"ce4bhk92rcd13ifvqgb0","pricing_plan_id":"cebpf4jnsgd1na2vs0mg"},{"bike_id":"33d5bdca-18e5-45b1-9662-d20e6756bf73","system_id":"levelo_inurba_marseille","lat":43.29861,"lon":5.36285,"is_reserved":false,"is_disabled":false,"rental_uris":{"android":"levelo://app?vid=33d5bdca-18e5-45b1-9662-d20e6756bf73","ios":"levelo://app?vid=33d5bdca-18e5-45b1-9662-d20e6756bf73"},"vehicle_type_id":"4","last_reported":1747044735,"current_range_meters":24800,"station_id":"ce4bgpp2rcd13ifvqc3g","pricing_plan_id":"cebpf4jnsgd1na2vs0mg"},{"bike_id":"c3e70b53-c1e2-4541-989c-6d61bb958884","system_id":"levelo_inurba_marseille","lat":43.29087,"lon":5.38124,"is_reserved":false,"is_disabled":false,"rental_uris":{"android":"levelo://app?vid=c3e70b53-c1e2-4541-989c-6d61bb958884","ios":"levelo://app?vid=c3e70b53-c1e2-4541-989c-6d61bb958884"},"vehicle_type_id":"4","last_reported":1747044735,"current_range_meters":24800,"station_id":"ce4bh512rcd13ifvqe2g","pricing_plan_id":"cebpf4jnsgd1na2vs0mg"},{"bike_id":"0d19f400-7a92-49b0-8bde-33c71d956a65","system_id":"levelo_inurba_marseille","lat":43.28617,"lon":5.35096,"is_reserved":false,"is_disabled":false,"rental_uris":{"android":"levelo://app?vid=0d19f400-7a92-49b0-8bde-33c71d956a65","ios":"levelo://app?vid=0d19f400-7a92-49b0-8bde-33c71d956a65"},"vehicle_type_id":"4","last_reported":1747044735,"current_range_meters":24800,"station_id":"ce4bhch2rcd13ifvqeug","pricing_plan_id":"cebpf4jnsgd1na2vs0mg"},{"bike_id":"1e9dc27a-f4ac-474d-87e5-5275d7ce4910","system_id":"levelo_inurba_marseille","lat":43.25938,"lon":5.40907,"is_reserved":false,"is_disabled":false,"rental_uris":{"android":"levelo://app?vid=1e9dc27a-f4ac-474d-87e5-5275d7ce4910","ios":"levelo://app?vid=1e9dc27a-f4ac-474d-87e5-5275d7ce4910"},"vehicle_type_id":"4","last_reported":1747044735,"current_range_meters":24800,"station_id":"ce4bhm92rcd13ifvqglg","pricing_plan_id":"cebpf4jnsgd1na2vs0mg"},{"bike_id":"ecdc1ee8-6505-41d9-8077-03d8945089aa","system_id":"levelo_inurba_marseille","lat":43.2592,"lon":5.40922,"is_reserved":false,"is_disabled":false,"rental_uris":{"android":"levelo://app?vid=ecdc1ee8-6505-41d9-8077-03d8945089aa","ios":"levelo://app?vid=ecdc1ee8-6505-41d9-8077-03d8945089aa"},"vehicle_type_id":"4","last_reported":1747044735,"current_range_meters":24800,"station_id":"ce4bhm92rcd13ifvqglg","pricing_plan_id":"cebpf4jnsgd1na2vs0mg"},{"bike_id":"7ce122f5-4027-4f35-991b-9c1c38390d0d","system_id":"levelo_inurba_marseille","lat":43.29554,"lon":5.42289,"is_reserved":false,"is_disabled":false,"rental_uris":{"android":"levelo://app?vid=7ce122f5-4027-4f35-991b-9c1c38390d0d","ios":"levelo://app?vid=7ce122f5-4027-4f35-991b-9c1c38390d0d"},"vehicle_type_id":"4","last_reported":1747044735,"current_range_meters":24800,"station_id":"ce4bhph2rcd13ifvqhdg","pricing_plan_id":"cebpf4jnsgd1na2vs0mg"},{"bike_id":"24bf9b3f-7b86-4fc2-8efe-689a8770a2b0","system_id":"levelo_inurba_marseille","lat":43.31229,"lon":5.36873,"is_reserved":false,"is_disabled":false,"rental_uris":{"android":"levelo://app?vid=24bf9b3f-7b86-4fc2-8efe-689a8770a2b0","ios":"levelo://app?vid=24bf9b3f-7b86-4fc2-8efe-689a8770a2b0"},"vehicle_type_id":"4","last_reported":1747044735,"current_range_meters":25200,"station_id":"ce4bgl92rcd13ifvqbq0","pricing_plan_id":"cebpf4jnsgd1na2vs0mg"},{"bike_id":"4f44eee2-6655-498b-ae87-ede0273e3c83","system_id":"levelo_inurba_marseille","lat":43.31165,"lon":5.38725,"is_reserved":false,"is_disabled":false,"rental_uris":{"android":"levelo://app?vid=4f44eee2-6655-498b-ae87-ede0273e3c83","ios":"levelo://app?vid=4f44eee2-6655-498b-ae87-ede0273e3c83"},"vehicle_type_id":"4","last_reported":1747044735,"current_range_meters":25200,"station_id":"ce4bgv12rcd13ifvqcp0","pricing_plan_id":"cebpf4jnsgd1na2vs0mg"},{"bike_id":"456c626e-1cae-41a5-9576-0e162222078b","system_id":"levelo_inurba_marseille","lat":43.29221,"lon":5.36065,"is_reserved":false,"is_disabled":false,"rental_uris":{"android":"levelo://app?vid=456c626e-1cae-41a5-9576-0e162222078b","ios":"levelo://app?vid=456c626e-1cae-41a5-9576-0e162222078b"},"vehicle_type_id":"4","last_reported":1747044735,"current_range_meters":25200,"station_id":"ce4bhbh2rcd13ifvqeqg","pricing_plan_id":"cebpf4jnsgd1na2vs0mg"},{"bike_id":"a5788a71-0dbc-4026-ad36-7f690e861f25","system_id":"levelo_inurba_marseille","lat":43.26208,"lon":5.3745,"is_reserved":false,"is_disabled":false,"rental_uris":{"android":"levelo://app?vid=a5788a71-0dbc-4026-ad36-7f690e861f25","ios":"levelo://app?vid=a5788a71-0dbc-4026-ad36-7f690e861f25"},"vehicle_type_id":"4","last_reported":1747044735,"current_range_meters":25200,"station_id":"ce4bhgp2rcd13ifvqfc0","pricing_plan_id":"cebpf4jnsgd1na2vs0mg"},{"bike_id":"e4b4f8e9-f3ab-4012-80cc-8a6adcb47418","system_id":"levelo_inurba_marseille","lat":43.2319,"lon":5.39986,"is_reserved":false,"is_disabled":false,"rental_uris":{"android":"levelo://app?vid=e4b4f8e9-f3ab-4012-80cc-8a6adcb47418","ios":"levelo://app?vid=e4b4f8e9-f3ab-4012-80cc-8a6adcb47418"},"vehicle_type_id":"4","last_reported":1747044735,"current_range_meters":25200,"station_id":"ce4bhn12rcd13ifvqgqg","pricing_plan_id":"cebpf4jnsgd1na2vs0mg"},{"bike_id":"2aff00df-3d4f-4caa-90ca-4c8fb72f5c08","system_id":"levelo_inurba_marseille","lat":43.31303,"lon":5.37307,"is_reserved":false,"is_disabled":false,"rental_uris":{"android":"levelo://app?vid=2aff00df-3d4f-4caa-90ca-4c8fb72f5c08","ios":"levelo://app?vid=2aff00df-3d4f-4caa-90ca-4c8fb72f5c08"},"vehicle_type_id":"4","last_reported":1747044735,"current_range_meters":25600,"station_id":"","pricing_plan_id":"cebpf4jnsgd1na2vs0mg"},{"bike_id":"bdf00845-6469-432e-82c1-145b741a3065","system_id":"levelo_inurba_marseille","lat":43.31365,"lon":5.36707,"is_reserved":false,"is_disabled":false,"rental_uris":{"android":"levelo://app?vid=bdf00845-6469-432e-82c1-145b741a3065","ios":"levelo://app?vid=bdf00845-6469-432e-82c1-145b741a3065"},"vehicle_type_id":"4","last_reported":1747044735,"current_range_meters":25600,"station_id":"ce4bgr92rcd13ifvqc6g","pricing_plan_id":"cebpf4jnsgd1na2vs0mg"},{"bike_id":"00027aea-45e9-495b-a0ba-c37a08563a0d","system_id":"levelo_inurba_marseille","lat":43.29873,"lon":5.39738,"is_reserved":false,"is_disabled":false,"rental_uris":{"android":"levelo://app?vid=00027aea-45e9-495b-a0ba-c37a08563a0d","ios":"levelo://app?vid=00027aea-45e9-495b-a0ba-c37a08563a0d"},"vehicle_type_id":"4","last_reported":1747044735,"current_range_meters":25600,"station_id":"ce4bh0h2rcd13ifvqd50","pricing_plan_id":"cebpf4jnsgd1na2vs0mg"},{"bike_id":"eef5b9c7-9e00-4792-8238-2306d6d9cc72","system_id":"levelo_inurba_marseille","lat":43.29196,"lon":5.39321,"is_reserved":false,"is_disabled":false,"rental_uris":{"android":"levelo://app?vid=eef5b9c7-9e00-4792-8238-2306d6d9cc72","ios":"levelo://app?vid=eef5b9c7-9e00-4792-8238-2306d6d9cc72"},"vehicle_type_id":"4","last_reported":1747044735,"current_range_meters":25600,"station_id":"ce4bh192rcd13ifvqdd0","pricing_plan_id":"cebpf4jnsgd1na2vs0mg"},{"bike_id":"5f3bef14-7db5-4911-8680-7b94fe49bf1e","system_id":"levelo_inurba_marseille","lat":43.25943,"lon":5.40883,"is_reserved":false,"is_disabled":false,"rental_uris":{"android":"levelo://app?vid=5f3bef14-7db5-4911-8680-7b94fe49bf1e","ios":"levelo://app?vid=5f3bef14-7db5-4911-8680-7b94fe49bf1e"},"vehicle_type_id":"4","last_reported":1747044735,"current_range_meters":25600,"station_id":"ce4bhm92rcd13ifvqglg","pricing_plan_id":"cebpf4jnsgd1na2vs0mg"},{"bike_id":"c904dbbd-9fc9-47f0-a962-5f523f8343dd","system_id":"levelo_inurba_marseille","lat":43.23182,"lon":5.39997,"is_reserved":false,"is_disabled":false,"rental_uris":{"android":"levelo://app?vid=c904dbbd-9fc9-47f0-a962-5f523f8343dd","ios":"levelo://app?vid=c904dbbd-9fc9-47f0-a962-5f523f8343dd"},"vehicle_type_id":"4","last_reported":1747044735,"current_range_meters":25600,"station_id":"ce4bhn12rcd13ifvqgqg","pricing_plan_id":"cebpf4jnsgd1na2vs0mg"},{"bike_id":"9865e25c-55cb-4812-89b5-2669097ec0dd","system_id":"levelo_inurba_marseille","lat":43.2175,"lon":5.34606,"is_reserved":false,"is_disabled":false,"rental_uris":{"android":"levelo://app?vid=9865e25c-55cb-4812-89b5-2669097ec0dd","ios":"levelo://app?vid=9865e25c-55cb-4812-89b5-2669097ec0dd"},"vehicle_type_id":"4","last_reported":1747044735,"current_range_meters":25600,"station_id":"st_cvj6r9ubvosntc0bgbag","pricing_plan_id":"cebpf4jnsgd1na2vs0mg"},{"bike_id":"2d023659-d737-426a-8362-9938ac5f5acf","system_id":"levelo_inurba_marseille","lat":43.28473,"lon":5.38414,"is_reserved":false,"is_disabled":false,"rental_uris":{"android":"levelo://app?vid=2d023659-d737-426a-8362-9938ac5f5acf","ios":"levelo://app?vid=2d023659-d737-426a-8362-9938ac5f5acf"},"vehicle_type_id":"4","last_reported":1747044735,"current_range_meters":26000,"station_id":"ce4bh512rcd13ifvqe3g","pricing_plan_id":"cebpf4jnsgd1na2vs0mg"},{"bike_id":"5d57481b-7d22-41b5-8132-cd8018e23109","system_id":"levelo_inurba_marseille","lat":43.28419,"lon":5.34976,"is_reserved":false,"is_disabled":false,"rental_uris":{"android":"levelo://app?vid=5d57481b-7d22-41b5-8132-cd8018e23109","ios":"levelo://app?vid=5d57481b-7d22-41b5-8132-cd8018e23109"},"vehicle_type_id":"4","last_reported":1747044735,"current_range_meters":26000,"station_id":"ce4bhbh2rcd13ifvqepg","pricing_plan_id":"cebpf4jnsgd1na2vs0mg"},{"bike_id":"4c5e5415-d920-40e7-9045-196887488b07","system_id":"levelo_inurba_marseille","lat":43.2705,"lon":5.40268,"is_reserved":false,"is_disabled":false,"rental_uris":{"android":"levelo://app?vid=4c5e5415-d920-40e7-9045-196887488b07","ios":"levelo://app?vid=4c5e5415-d920-40e7-9045-196887488b07"},"vehicle_type_id":"4","last_reported":1747044735,"current_range_meters":26000,"station_id":"ce4bhk92rcd13ifvqgc0","pricing_plan_id":"cebpf4jnsgd1na2vs0mg"},{"bike_id":"d07c255a-307f-4e83-9967-ba538a92d04f","system_id":"levelo_inurba_marseille","lat":43.2594,"lon":5.4091,"is_reserved":false,"is_disabled":false,"rental_uris":{"android":"levelo://app?vid=d07c255a-307f-4e83-9967-ba538a92d04f","ios":"levelo://app?vid=d07c255a-307f-4e83-9967-ba538a92d04f"},"vehicle_type_id":"4","last_reported":1747044735,"current_range_meters":26000,"station_id":"ce4bhm92rcd13ifvqglg","pricing_plan_id":"cebpf4jnsgd1na2vs0mg"},{"bike_id":"32850c10-7e8c-4f03-8cfb-5674f898819b","system_id":"levelo_inurba_marseille","lat":43.24071,"lon":5.37767,"is_reserved":false,"is_disabled":false,"rental_uris":{"android":"levelo://app?vid=32850c10-7e8c-4f03-8cfb-5674f898819b","ios":"levelo://app?vid=32850c10-7e8c-4f03-8cfb-5674f898819b"},"vehicle_type_id":"4","last_reported":1747044735,"current_range_meters":26000,"station_id":"ce4bhnp2rcd13ifvqgvg","pricing_plan_id":"cebpf4jnsgd1na2vs0mg"},{"bike_id":"106a117f-2f10-41cc-96a1-307af2deaf76","system_id":"levelo_inurba_marseille","lat":43.269356,"lon":5.402568,"is_reserved":false,"is_disabled":false,"rental_uris":{"android":"levelo://app?vid=106a117f-2f10-41cc-96a1-307af2deaf76","ios":"levelo://app?vid=106a117f-2f10-41cc-96a1-307af2deaf76"},"vehicle_type_id":"4","last_reported":1747044735,"current_range_meters":26000,"station_id":"cjm6bp8fraef2m0cb0m0","pricing_plan_id":"cebpf4jnsgd1na2vs0mg"},{"bike_id":"8ff15f70-971b-4b58-8bbf-f948b3ca1811","system_id":"levelo_inurba_marseille","lat":43.28421,"lon":5.34986,"is_reserved":false,"is_disabled":false,"rental_uris":{"android":"levelo://app?vid=8ff15f70-971b-4b58-8bbf-f948b3ca1811","ios":"levelo://app?vid=8ff15f70-971b-4b58-8bbf-f948b3ca1811"},"vehicle_type_id":"4","last_reported":1747044735,"current_range_meters":26800,"station_id":"ce4bhbh2rcd13ifvqepg","pricing_plan_id":"cebpf4jnsgd1na2vs0mg"},{"bike_id":"3e73e801-b293-4a48-84d5-9cfaf9e7ed16","system_id":"levelo_inurba_marseille","lat":43.26033,"lon":5.37549,"is_reserved":false,"is_disabled":false,"rental_uris":{"android":"levelo://app?vid=3e73e801-b293-4a48-84d5-9cfaf9e7ed16","ios":"levelo://app?vid=3e73e801-b293-4a48-84d5-9cfaf9e7ed16"},"vehicle_type_id":"4","last_reported":1747044735,"current_range_meters":26800,"station_id":"ce4bhgh2rcd13ifvqfa0","pricing_plan_id":"cebpf4jnsgd1na2vs0mg"},{"bike_id":"c1f18fd5-4aec-4849-a2f8-621a6dc32ec1","system_id":"levelo_inurba_marseille","lat":43.30378,"lon":5.42486,"is_reserved":false,"is_disabled":false,"rental_uris":{"android":"levelo://app?vid=c1f18fd5-4aec-4849-a2f8-621a6dc32ec1","ios":"levelo://app?vid=c1f18fd5-4aec-4849-a2f8-621a6dc32ec1"},"vehicle_type_id":"4","last_reported":1747044735,"current_range_meters":26800,"station_id":"ce4bhoh2rcd13ifvqh6g","pricing_plan_id":"cebpf4jnsgd1na2vs0mg"},{"bike_id":"973c13cb-ffd8-481c-9388-dd78684f7cbe","system_id":"levelo_inurba_marseille","lat":43.30192,"lon":5.36623,"is_reserved":false,"is_disabled":false,"rental_uris":{"android":"levelo://app?vid=973c13cb-ffd8-481c-9388-dd78684f7cbe","ios":"levelo://app?vid=973c13cb-ffd8-481c-9388-dd78684f7cbe"},"vehicle_type_id":"4","last_reported":1747044735,"current_range_meters":27200,"station_id":"ce4bgrh2rcd13ifvqc8g","pricing_plan_id":"cebpf4jnsgd1na2vs0mg"},{"bike_id":"19da385c-9c81-4d3e-a3ce-b2260a841216","system_id":"levelo_inurba_marseille","lat":43.30535,"lon":5.3653,"is_reserved":false,"is_disabled":false,"rental_uris":{"android":"levelo://app?vid=19da385c-9c81-4d3e-a3ce-b2260a841216","ios":"levelo://app?vid=19da385c-9c81-4d3e-a3ce-b2260a841216"},"vehicle_type_id":"4","last_reported":1747044735,"current_range_meters":27200,"station_id":"ce4bgs12rcd13ifvqcag","pricing_plan_id":"cebpf4jnsgd1na2vs0mg"},{"bike_id":"3117fa6f-355d-4619-8feb-0b35b34e6d1b","system_id":"levelo_inurba_marseille","lat":43.29183,"lon":5.35797,"is_reserved":false,"is_disabled":false,"rental_uris":{"android":"levelo://app?vid=3117fa6f-355d-4619-8feb-0b35b34e6d1b","ios":"levelo://app?vid=3117fa6f-355d-4619-8feb-0b35b34e6d1b"},"vehicle_type_id":"4","last_reported":1747044735,"current_range_meters":27200,"station_id":"ce4bhb12rcd13ifvqel0","pricing_plan_id":"cebpf4jnsgd1na2vs0mg"},{"bike_id":"1304e84e-08a8-45f4-970e-35fa19c632ab","system_id":"levelo_inurba_marseille","lat":43.26557,"lon":5.37286,"is_reserved":false,"is_disabled":false,"rental_uris":{"android":"levelo://app?vid=1304e84e-08a8-45f4-970e-35fa19c632ab","ios":"levelo://app?vid=1304e84e-08a8-45f4-970e-35fa19c632ab"},"vehicle_type_id":"4","last_reported":1747044735,"current_range_meters":27200,"station_id":"ce4bhg12rcd13ifvqf70","pricing_plan_id":"cebpf4jnsgd1na2vs0mg"},{"bike_id":"272bb035-c411-4c71-81a5-7acc36af0cdb","system_id":"levelo_inurba_marseille","lat":43.3249,"lon":5.36587,"is_reserved":false,"is_disabled":false,"rental_uris":{"android":"levelo://app?vid=272bb035-c411-4c71-81a5-7acc36af0cdb","ios":"levelo://app?vid=272bb035-c411-4c71-81a5-7acc36af0cdb"},"vehicle_type_id":"4","last_reported":1747044735,"current_range_meters":27200,"station_id":"ce4bhs12rcd13ifvqhvg","pricing_plan_id":"cebpf4jnsgd1na2vs0mg"},{"bike_id":"eb8e6016-a13b-4ccd-91cd-255cd414067b","system_id":"levelo_inurba_marseille","lat":43.21743,"lon":5.34608,"is_reserved":false,"is_disabled":false,"rental_uris":{"android":"levelo://app?vid=eb8e6016-a13b-4ccd-91cd-255cd414067b","ios":"levelo://app?vid=eb8e6016-a13b-4ccd-91cd-255cd414067b"},"vehicle_type_id":"4","last_reported":1747044735,"current_range_meters":27200,"station_id":"st_cvj6r9ubvosntc0bgbag","pricing_plan_id":"cebpf4jnsgd1na2vs0mg"},{"bike_id":"07a9627c-767f-4f4e-ac6e-ea10fa6cdd0b","system_id":"levelo_inurba_marseille","lat":43.306683,"lon":5.369587,"is_reserved":false,"is_disabled":false,"rental_uris":{"android":"levelo://app?vid=07a9627c-767f-4f4e-ac6e-ea10fa6cdd0b","ios":"levelo://app?vid=07a9627c-767f-4f4e-ac6e-ea10fa6cdd0b"},"vehicle_type_id":"4","last_reported":1747044735,"current_range_meters":27600,"station_id":"","pricing_plan_id":"cebpf4jnsgd1na2vs0mg"},{"bike_id":"2d3d30c0-c16d-47a2-a8c8-246653831df6","system_id":"levelo_inurba_marseille","lat":43.31231,"lon":5.36869,"is_reserved":false,"is_disabled":false,"rental_uris":{"android":"levelo://app?vid=2d3d30c0-c16d-47a2-a8c8-246653831df6","ios":"levelo://app?vid=2d3d30c0-c16d-47a2-a8c8-246653831df6"},"vehicle_type_id":"4","last_reported":1747044735,"current_range_meters":27600,"station_id":"ce4bgl92rcd13ifvqbq0","pricing_plan_id":"cebpf4jnsgd1na2vs0mg"},{"bike_id":"a4109da6-26aa-4d7f-b939-7ccf48030319","system_id":"levelo_inurba_marseille","lat":43.31316,"lon":5.36714,"is_reserved":false,"is_disabled":false,"rental_uris":{"android":"levelo://app?vid=a4109da6-26aa-4d7f-b939-7ccf48030319","ios":"levelo://app?vid=a4109da6-26aa-4d7f-b939-7ccf48030319"},"vehicle_type_id":"4","last_reported":1747044735,"current_range_meters":27600,"station_id":"ce4bgr92rcd13ifvqc6g","pricing_plan_id":"cebpf4jnsgd1na2vs0mg"},{"bike_id":"01cc5dc2-973b-4880-b212-d456c68572cf","system_id":"levelo_inurba_marseille","lat":43.31709,"lon":5.40459,"is_reserved":false,"is_disabled":false,"rental_uris":{"android":"levelo://app?vid=01cc5dc2-973b-4880-b212-d456c68572cf","ios":"levelo://app?vid=01cc5dc2-973b-4880-b212-d456c68572cf"},"vehicle_type_id":"4","last_reported":1747044735,"current_range_meters":27600,"station_id":"ce4bh012rcd13ifvqd00","pricing_plan_id":"cebpf4jnsgd1na2vs0mg"},{"bike_id":"25e468f7-e171-44aa-bd8c-87e74abd5854","system_id":"levelo_inurba_marseille","lat":43.25569,"lon":5.38259,"is_reserved":false,"is_disabled":false,"rental_uris":{"android":"levelo://app?vid=25e468f7-e171-44aa-bd8c-87e74abd5854","ios":"levelo://app?vid=25e468f7-e171-44aa-bd8c-87e74abd5854"},"vehicle_type_id":"4","last_reported":1747044735,"current_range_meters":27600,"station_id":"ce4bhih2rcd13ifvqfs0","pricing_plan_id":"cebpf4jnsgd1na2vs0mg"},{"bike_id":"b123e2b9-a098-4c60-a60b-b5d4bb6aa64f","system_id":"levelo_inurba_marseille","lat":43.27508,"lon":5.4245,"is_reserved":false,"is_disabled":false,"rental_uris":{"android":"levelo://app?vid=b123e2b9-a098-4c60-a60b-b5d4bb6aa64f","ios":"levelo://app?vid=b123e2b9-a098-4c60-a60b-b5d4bb6aa64f"},"vehicle_type_id":"4","last_reported":1747044735,"current_range_meters":27600,"station_id":"ce4bhn92rcd13ifvqgrg","pricing_plan_id":"cebpf4jnsgd1na2vs0mg"},{"bike_id":"6742eb01-b5da-47bf-b5af-af0b462fee38","system_id":"levelo_inurba_marseille","lat":43.29002,"lon":5.35616,"is_reserved":false,"is_disabled":false,"rental_uris":{"android":"levelo://app?vid=6742eb01-b5da-47bf-b5af-af0b462fee38","ios":"levelo://app?vid=6742eb01-b5da-47bf-b5af-af0b462fee38"},"vehicle_type_id":"4","last_reported":1747044735,"current_range_meters":28000,"station_id":"ce4bhb92rcd13ifvqen0","pricing_plan_id":"cebpf4jnsgd1na2vs0mg"},{"bike_id":"2afeea91-0f2d-4931-a56e-34e7a7483e0e","system_id":"levelo_inurba_marseille","lat":43.29223,"lon":5.36055,"is_reserved":false,"is_disabled":false,"rental_uris":{"android":"levelo://app?vid=2afeea91-0f2d-4931-a56e-34e7a7483e0e","ios":"levelo://app?vid=2afeea91-0f2d-4931-a56e-34e7a7483e0e"},"vehicle_type_id":"4","last_reported":1747044735,"current_range_meters":28000,"station_id":"ce4bhbh2rcd13ifvqeqg","pricing_plan_id":"cebpf4jnsgd1na2vs0mg"},{"bike_id":"c7d07279-37a2-4f88-9c06-630dc12f6b48","system_id":"levelo_inurba_marseille","lat":43.27566,"lon":5.38421,"is_reserved":false,"is_disabled":false,"rental_uris":{"android":"levelo://app?vid=c7d07279-37a2-4f88-9c06-630dc12f6b48","ios":"levelo://app?vid=c7d07279-37a2-4f88-9c06-630dc12f6b48"},"vehicle_type_id":"4","last_reported":1747044735,"current_range_meters":28000,"station_id":"ce4bhh92rcd13ifvqfi0","pricing_plan_id":"cebpf4jnsgd1na2vs0mg"},{"bike_id":"f3e1e5e9-1020-4620-bf22-8f33a6675c41","system_id":"levelo_inurba_marseille","lat":43.26531,"lon":5.39547,"is_reserved":false,"is_disabled":false,"rental_uris":{"android":"levelo://app?vid=f3e1e5e9-1020-4620-bf22-8f33a6675c41","ios":"levelo://app?vid=f3e1e5e9-1020-4620-bf22-8f33a6675c41"},"vehicle_type_id":"4","last_reported":1747044735,"current_range_meters":28000,"station_id":"ce4bhi12rcd13ifvqfq0","pricing_plan_id":"cebpf4jnsgd1na2vs0mg"},{"bike_id":"667112cf-e68d-473a-87f1-7b80c4c0bcd0","system_id":"levelo_inurba_marseille","lat":43.24558,"lon":5.39535,"is_reserved":false,"is_disabled":false,"rental_uris":{"android":"levelo://app?vid=667112cf-e68d-473a-87f1-7b80c4c0bcd0","ios":"levelo://app?vid=667112cf-e68d-473a-87f1-7b80c4c0bcd0"},"vehicle_type_id":"4","last_reported":1747044735,"current_range_meters":28000,"station_id":"ce4bhlp2rcd13ifvqgjg","pricing_plan_id":"cebpf4jnsgd1na2vs0mg"},{"bike_id":"30af4f5d-74f5-441e-8e31-d68de0746867","system_id":"levelo_inurba_marseille","lat":43.3035,"lon":5.4188,"is_reserved":false,"is_disabled":false,"rental_uris":{"android":"levelo://app?vid=30af4f5d-74f5-441e-8e31-d68de0746867","ios":"levelo://app?vid=30af4f5d-74f5-441e-8e31-d68de0746867"},"vehicle_type_id":"4","last_reported":1747044735,"current_range_meters":28000,"station_id":"ce4bhop2rcd13ifvqh7g","pricing_plan_id":"cebpf4jnsgd1na2vs0mg"},{"bike_id":"a262fada-7ae0-4779-8381-342731626c5a","system_id":"levelo_inurba_marseille","lat":43.32475,"lon":5.36586,"is_reserved":false,"is_disabled":false,"rental_uris":{"android":"levelo://app?vid=a262fada-7ae0-4779-8381-342731626c5a","ios":"levelo://app?vid=a262fada-7ae0-4779-8381-342731626c5a"},"vehicle_type_id":"4","last_reported":1747044735,"current_range_meters":28000,"station_id":"ce4bhs12rcd13ifvqhvg","pricing_plan_id":"cebpf4jnsgd1na2vs0mg"},{"bike_id":"e4fe16e6-8116-4e78-82a7-03ab2834eb5c","system_id":"levelo_inurba_marseille","lat":43.27618,"lon":5.36105,"is_reserved":false,"is_disabled":false,"rental_uris":{"android":"levelo://app?vid=e4fe16e6-8116-4e78-82a7-03ab2834eb5c","ios":"levelo://app?vid=e4fe16e6-8116-4e78-82a7-03ab2834eb5c"},"vehicle_type_id":"4","last_reported":1747044735,"current_range_meters":28400,"station_id":"ce4bgj92rcd13ifvqbe0","pricing_plan_id":"cebpf4jnsgd1na2vs0mg"},{"bike_id":"36cfd63c-05e6-40c9-9a36-9e61bad2ec74","system_id":"levelo_inurba_marseille","lat":43.30896,"lon":5.36848,"is_reserved":false,"is_disabled":false,"rental_uris":{"android":"levelo://app?vid=36cfd63c-05e6-40c9-9a36-9e61bad2ec74","ios":"levelo://app?vid=36cfd63c-05e6-40c9-9a36-9e61bad2ec74"},"vehicle_type_id":"4","last_reported":1747044735,"current_range_meters":28400,"station_id":"ce4bgn92rcd13ifvqbvg","pricing_plan_id":"cebpf4jnsgd1na2vs0mg"},{"bike_id":"ada82f2c-2575-44e0-9c1e-1e7828a85564","system_id":"levelo_inurba_marseille","lat":43.284607,"lon":5.358861,"is_reserved":false,"is_disabled":false,"rental_uris":{"android":"levelo://app?vid=ada82f2c-2575-44e0-9c1e-1e7828a85564","ios":"levelo://app?vid=ada82f2c-2575-44e0-9c1e-1e7828a85564"},"vehicle_type_id":"4","last_reported":1747044735,"current_range_meters":28400,"station_id":"ce4bhah2rcd13ifvqei0","pricing_plan_id":"cebpf4jnsgd1na2vs0mg"},{"bike_id":"a5c540c7-8fc8-44eb-8c6a-14e8f4d39bac","system_id":"levelo_inurba_marseille","lat":43.32547,"lon":5.41456,"is_reserved":false,"is_disabled":false,"rental_uris":{"android":"levelo://app?vid=a5c540c7-8fc8-44eb-8c6a-14e8f4d39bac","ios":"levelo://app?vid=a5c540c7-8fc8-44eb-8c6a-14e8f4d39bac"},"vehicle_type_id":"4","last_reported":1747044735,"current_range_meters":28400,"station_id":"ce4bhq12rcd13ifvqhhg","pricing_plan_id":"cebpf4jnsgd1na2vs0mg"},{"bike_id":"52e8e996-41e0-438d-9123-52ee6bf02b42","system_id":"levelo_inurba_marseille","lat":43.32475,"lon":5.36569,"is_reserved":false,"is_disabled":false,"rental_uris":{"android":"levelo://app?vid=52e8e996-41e0-438d-9123-52ee6bf02b42","ios":"levelo://app?vid=52e8e996-41e0-438d-9123-52ee6bf02b42"},"vehicle_type_id":"4","last_reported":1747044735,"current_range_meters":28400,"station_id":"ce4bhs12rcd13ifvqhvg","pricing_plan_id":"cebpf4jnsgd1na2vs0mg"},{"bike_id":"8a6ec1cc-8367-4a43-bf04-9830441cafee","system_id":"levelo_inurba_marseille","lat":43.29973,"lon":5.38499,"is_reserved":false,"is_disabled":false,"rental_uris":{"android":"levelo://app?vid=8a6ec1cc-8367-4a43-bf04-9830441cafee","ios":"levelo://app?vid=8a6ec1cc-8367-4a43-bf04-9830441cafee"},"vehicle_type_id":"4","last_reported":1747044735,"current_range_meters":28800,"station_id":"ce4bgj92rcd13ifvqbd0","pricing_plan_id":"cebpf4jnsgd1na2vs0mg"},{"bike_id":"ae48fee2-b186-48b5-95ab-731e746573c2","system_id":"levelo_inurba_marseille","lat":43.29935,"lon":5.36554,"is_reserved":false,"is_disabled":false,"rental_uris":{"android":"levelo://app?vid=ae48fee2-b186-48b5-95ab-731e746573c2","ios":"levelo://app?vid=ae48fee2-b186-48b5-95ab-731e746573c2"},"vehicle_type_id":"4","last_reported":1747044735,"current_range_meters":28800,"station_id":"ce4bgm92rcd13ifvqbr0","pricing_plan_id":"cebpf4jnsgd1na2vs0mg"},{"bike_id":"19e65c0a-9064-4e33-b0ed-76d8e2e8d48c","system_id":"levelo_inurba_marseille","lat":43.30916,"lon":5.36858,"is_reserved":false,"is_disabled":false,"rental_uris":{"android":"levelo://app?vid=19e65c0a-9064-4e33-b0ed-76d8e2e8d48c","ios":"levelo://app?vid=19e65c0a-9064-4e33-b0ed-76d8e2e8d48c"},"vehicle_type_id":"4","last_reported":1747044735,"current_range_meters":28800,"station_id":"ce4bgn92rcd13ifvqbvg","pricing_plan_id":"cebpf4jnsgd1na2vs0mg"},{"bike_id":"7033c7d2-02ba-4521-843b-4a87386e55d2","system_id":"levelo_inurba_marseille","lat":43.3107,"lon":5.38368,"is_reserved":false,"is_disabled":false,"rental_uris":{"android":"levelo://app?vid=7033c7d2-02ba-4521-843b-4a87386e55d2","ios":"levelo://app?vid=7033c7d2-02ba-4521-843b-4a87386e55d2"},"vehicle_type_id":"4","last_reported":1747044735,"current_range_meters":28800,"station_id":"ce4bgv92rcd13ifvqcr0","pricing_plan_id":"cebpf4jnsgd1na2vs0mg"},{"bike_id":"7125576e-89d0-40d7-b4f7-ca2365dcfb6b","system_id":"levelo_inurba_marseille","lat":43.31694,"lon":5.40477,"is_reserved":false,"is_disabled":false,"rental_uris":{"android":"levelo://app?vid=7125576e-89d0-40d7-b4f7-ca2365dcfb6b","ios":"levelo://app?vid=7125576e-89d0-40d7-b4f7-ca2365dcfb6b"},"vehicle_type_id":"4","last_reported":1747044735,"current_range_meters":28800,"station_id":"ce4bh012rcd13ifvqd00","pricing_plan_id":"cebpf4jnsgd1na2vs0mg"},{"bike_id":"6a11d749-3bf2-454f-ad59-c49923611ae7","system_id":"levelo_inurba_marseille","lat":43.25943,"lon":5.40904,"is_reserved":false,"is_disabled":false,"rental_uris":{"android":"levelo://app?vid=6a11d749-3bf2-454f-ad59-c49923611ae7","ios":"levelo://app?vid=6a11d749-3bf2-454f-ad59-c49923611ae7"},"vehicle_type_id":"4","last_reported":1747044735,"current_range_meters":28800,"station_id":"ce4bhm92rcd13ifvqglg","pricing_plan_id":"cebpf4jnsgd1na2vs0mg"},{"bike_id":"0abbc461-5fec-43a0-a25d-1b8ca9f95c01","system_id":"levelo_inurba_marseille","lat":43.25934,"lon":5.40898,"is_reserved":false,"is_disabled":false,"rental_uris":{"android":"levelo://app?vid=0abbc461-5fec-43a0-a25d-1b8ca9f95c01","ios":"levelo://app?vid=0abbc461-5fec-43a0-a25d-1b8ca9f95c01"},"vehicle_type_id":"4","last_reported":1747044735,"current_range_meters":28800,"station_id":"ce4bhm92rcd13ifvqglg","pricing_plan_id":"cebpf4jnsgd1na2vs0mg"},{"bike_id":"d45fd770-0002-4622-a370-f0ab49df073e","system_id":"levelo_inurba_marseille","lat":43.25935,"lon":5.40903,"is_reserved":false,"is_disabled":false,"rental_uris":{"android":"levelo://app?vid=d45fd770-0002-4622-a370-f0ab49df073e","ios":"levelo://app?vid=d45fd770-0002-4622-a370-f0ab49df073e"},"vehicle_type_id":"4","last_reported":1747044735,"current_range_meters":28800,"station_id":"ce4bhm92rcd13ifvqglg","pricing_plan_id":"cebpf4jnsgd1na2vs0mg"},{"bike_id":"9f04f4d0-8cad-429f-abe8-95f25143eace","system_id":"levelo_inurba_marseille","lat":43.29703,"lon":5.36605,"is_reserved":false,"is_disabled":false,"rental_uris":{"android":"levelo://app?vid=9f04f4d0-8cad-429f-abe8-95f25143eace","ios":"levelo://app?vid=9f04f4d0-8cad-429f-abe8-95f25143eace"},