{"last_updated":1729346846,"ttl":60,"version":"2.2","data":{"bikes":[{"bike_id":"68435708-a13f-4344-a1fd-3882f718555a","system_id":"levelo_inurba_marseille","lat":43.24069,"lon":5.37773,"is_reserved":false,"is_disabled":false,"rental_uris":{"android":"levelo://app?vid=68435708-a13f-4344-a1fd-3882f718555a","ios":"levelo://app?vid=68435708-a13f-4344-a1fd-3882f718555a"},"vehicle_type_id":"4","last_reported":1729346846,"current_range_meters":18800,"station_id":"ce4bhnp2rcd13ifvqgvg","pricing_plan_id":"cebpf4jnsgd1na2vs0mg"},{"bike_id":"ef47d04a-d623-4923-9ac4-d8403fc9a216","system_id":"levelo_inurba_marseille","lat":43.33721,"lon":5.39184,"is_reserved":false,"is_disabled":false,"rental_uris":{"android":"levelo://app?vid=ef47d04a-d623-4923-9ac4-d8403fc9a216","ios":"levelo://app?vid=ef47d04a-d623-4923-9ac4-d8403fc9a216"},"vehicle_type_id":"4","last_reported":1729346846,"current_range_meters":38800,"station_id":"ce4bhr92rcd13ifvqhsg","pricing_plan_id":"cebpf4jnsgd1na2vs0mg"},{"bike_id":"afdeea0a-a56e-4979-b223-aa0bb4ff3e94","system_id":"levelo_inurba_marseille","lat":43.26553,"lon":5.3729,"is_reserved":false,"is_disabled":false,"rental_uris":{"android":"levelo://app?vid=afdeea0a-a56e-4979-b223-aa0bb4ff3e94","ios":"levelo://app?vid=afdeea0a-a56e-4979-b223-aa0bb4ff3e94"},"vehicle_type_id":"4","last_reported":1729346846,"current_range_meters":22800,"station_id":"ce4bhg12rcd13ifvqf70","pricing_plan_id":"cebpf4jnsgd1na2vs0mg"},{"bike_id":"7695e951-fe49-466c-b1f2-4e44e5b9e14c","system_id":"levelo_inurba_marseille","lat":43.30794,"lon":5.43535,"is_reserved":false,"is_disabled":false,"rental_uris":{"android":"levelo://app?vid=7695e951-fe49-466c-b1f2-4e44e5b9e14c","ios":"levelo://app?vid=7695e951-fe49-466c-b1f2-4e44e5b9e14c"},"vehicle_type_id":"4","last_reported":1729346846,"current_range_meters":37600,"station_id":"ce4bhph2rcd13ifvqheg","pricing_plan_id":"cebpf4jnsgd1na2vs0mg"},{"bike_id":"013557d4-7223-4c58-963b-f111b2457eaf","system_id":"levelo_inurba_marseille","lat":43.28612,"lon":5.35109,"is_reserved":false,"is_disabled":false,"rental_uris":{"android":"levelo://app?vid=013557d4-7223-4c58-963b-f111b2457eaf","ios":"levelo://app?vid=013557d4-7223-4c58-963b-f111b2457eaf"},"vehicle_type_id":"4","last_reported":1729346846,"current_range_meters":8800,"station_id":"ce4bhch2rcd13ifvqeug","pricing_plan_id":"cebpf4jnsgd1na2vs0mg"},{"bike_id":"89c8514e-cade-4c5a-8e1a-3fb866a961e5","system_id":"levelo_inurba_marseille","lat":43.31671,"lon":5.37492,"is_reserved":false,"is_disabled":false,"rental_uris":{"android":"levelo://app?vid=89c8514e-cade-4c5a-8e1a-3fb866a961e5","ios":"levelo://app?vid=89c8514e-cade-4c5a-8e1a-3fb866a961e5"},"vehicle_type_id":"4","last_reported":1729346846,"current_range_meters":4400,"station_id":"ce4bhr12rcd13ifvqhqg","pricing_plan_id":"cebpf4jnsgd1na2vs0mg"},{"bike_id":"e0879c3f-10eb-4d3b-8053-605cb1c6310c","system_id":"levelo_inurba_marseille","lat":43.26068,"lon":5.39395,"is_reserved":false,"is_disabled":false,"rental_uris":{"android":"levelo://app?vid=e0879c3f-10eb-4d3b-8053-605cb1c6310c","ios":"levelo://app?vid=e0879c3f-10eb-4d3b-8053-605cb1c6310c"},"vehicle_type_id":"4","last_reported":1729346846,"current_range_meters":26800,"station_id":"ce4bhh92rcd13ifvqfj0","pricing_plan_id":"cebpf4jnsgd1na2vs0mg"},{"bike_id":"56197ed8-42cb-44e5-ab69-e8c8a70bee2a","system_id":"levelo_inurba_marseille","lat":43.30459,"lon":5.37905,"is_reserved":false,"is_disabled":false,"rental_uris":{"android":"levelo://app?vid=56197ed8-42cb-44e5-ab69-e8c8a70bee2a","ios":"levelo://app?vid=56197ed8-42cb-44e5-ab69-e8c8a70bee2a"},"vehicle_type_id":"4","last_reported":1729346846,"current_range_meters":38800,"station_id":"ce4bgup2rcd13ifvqcn0","pricing_plan_id":"cebpf4jnsgd1na2vs0mg"},{"bike_id":"fdf0d3f0-6661-4653-90ba-7d0521cb164e","system_id":"levelo_inurba_marseille","lat":43.28268,"lon":5.35064,"is_reserved":false,"is_disabled":false,"rental_uris":{"android":"levelo://app?vid=fdf0d3f0-6661-4653-90ba-7d0521cb164e","ios":"levelo://app?vid=fdf0d3f0-6661-4653-90ba-7d0521cb164e"},"vehicle_type_id":"4","last_reported":1729346846,"current_range_meters":6000,"station_id":"ce4bhbp2rcd13ifvqerg","pricing_plan_id":"cebpf4jnsgd1na2vs0mg"},{"bike_id":"fc9cbfbb-9b0f-4e5f-b571-1bc7c6bad784","system_id":"levelo_inurba_marseille","lat":43.26679,"lon":5.38267,"is_reserved":false,"is_disabled":false,"rental_uris":{"android":"levelo://app?vid=fc9cbfbb-9b0f-4e5f-b571-1bc7c6bad784","ios":"levelo://app?vid=fc9cbfbb-9b0f-4e5f-b571-1bc7c6bad784"},"vehicle_type_id":"4","last_reported":1729346846,"current_range_meters":26000,"station_id":"ce4bhg92rcd13ifvqf90","pricing_plan_id":"cebpf4jnsgd1na2vs0mg"},{"bike_id":"f4178d25-95b7-4290-b23d-a24a6c908e6e","system_id":"levelo_inurba_marseille","lat":43.31363,"lon":5.38496,"is_reserved":false,"is_disabled":false,"rental_uris":{"android":"levelo://app?vid=f4178d25-95b7-4290-b23d-a24a6c908e6e","ios":"levelo://app?vid=f4178d25-95b7-4290-b23d-a24a6c908e6e"},"vehicle_type_id":"4","last_reported":1729346846,"current_range_meters":29600,"station_id":"ce4bhb12rcd13ifvqel0","pricing_plan_id":"cebpf4jnsgd1na2vs0mg"},{"bike_id":"006ddbf4-82cb-41c3-a643-0f3a1c8bb945","system_id":"levelo_inurba_marseille","lat":43.27069,"lon":5.42275,"is_reserved":false,"is_disabled":false,"rental_uris":{"android":"levelo://app?vid=006ddbf4-82cb-41c3-a643-0f3a1c8bb945","ios":"levelo://app?vid=006ddbf4-82cb-41c3-a643-0f3a1c8bb945"},"vehicle_type_id":"4","last_reported":1729346846,"current_range_meters":39200,"station_id":"ce4bhk92rcd13ifvqgb0","pricing_plan_id":"cebpf4jnsgd1na2vs0mg"},{"bike_id":"317d7818-96ed-4b00-a33f-364ecbb090a9","system_id":"levelo_inurba_marseille","lat":43.29838,"lon":5.36263,"is_reserved":false,"is_disabled":false,"rental_uris":{"android":"levelo://app?vid=317d7818-96ed-4b00-a33f-364ecbb090a9","ios":"levelo://app?vid=317d7818-96ed-4b00-a33f-364ecbb090a9"},"vehicle_type_id":"4","last_reported":1729346846,"current_range_meters":36000,"station_id":"ce4bgpp2rcd13ifvqc3g","pricing_plan_id":"cebpf4jnsgd1na2vs0mg"},{"bike_id":"f93c0337-b5de-4638-8123-177d2ff5a866","system_id":"levelo_inurba_marseille","lat":43.287079,"lon":5.3998,"is_reserved":false,"is_disabled":false,"rental_uris":{"android":"levelo://app?vid=f93c0337-b5de-4638-8123-177d2ff5a866","ios":"levelo://app?vid=f93c0337-b5de-4638-8123-177d2ff5a866"},"vehicle_type_id":"4","last_reported":1729346846,"current_range_meters":36000,"station_id":"ce4bho92rcd13ifvqh3g","pricing_plan_id":"cebpf4jnsgd1na2vs0mg"},{"bike_id":"ebafd738-511a-4fa3-8cd6-6be4ef2aec98","system_id":"levelo_inurba_marseille","lat":43.30552,"lon":5.36529,"is_reserved":false,"is_disabled":false,"rental_uris":{"android":"levelo://app?vid=ebafd738-511a-4fa3-8cd6-6be4ef2aec98","ios":"levelo://app?vid=ebafd738-511a-4fa3-8cd6-6be4ef2aec98"},"vehicle_type_id":"4","last_reported":1729346846,"current_range_meters":20400,"station_id":"ce4bgs12rcd13ifvqcag","pricing_plan_id":"cebpf4jnsgd1na2vs0mg"},{"bike_id":"4971fcd4-2a43-499a-909b-8ce0b63b9329","system_id":"levelo_inurba_marseille","lat":43.33719,"lon":5.39188,"is_reserved":false,"is_disabled":false,"rental_uris":{"android":"levelo://app?vid=4971fcd4-2a43-499a-909b-8ce0b63b9329","ios":"levelo://app?vid=4971fcd4-2a43-499a-909b-8ce0b63b9329"},"vehicle_type_id":"4","last_reported":1729346846,"current_range_meters":8000,"station_id":"ce4bhr92rcd13ifvqhsg","pricing_plan_id":"cebpf4jnsgd1na2vs0mg"},{"bike_id":"3ea1c621-5e28-4f03-89b0-4942a2e7b54b","system_id":"levelo_inurba_marseille","lat":43.27616,"lon":5.36114,"is_reserved":false,"is_disabled":false,"rental_uris":{"android":"levelo://app?vid=3ea1c621-5e28-4f03-89b0-4942a2e7b54b","ios":"levelo://app?vid=3ea1c621-5e28-4f03-89b0-4942a2e7b54b"},"vehicle_type_id":"4","last_reported":1729346846,"current_range_meters":3200,"station_id":"ce4bgj92rcd13ifvqbe0","pricing_plan_id":"cebpf4jnsgd1na2vs0mg"},{"bike_id":"61a04cb9-be4f-4cf5-b789-0758f7c54444","system_id":"levelo_inurba_marseille","lat":43.23191,"lon":5.35559,"is_reserved":false,"is_disabled":false,"rental_uris":{"android":"levelo://app?vid=61a04cb9-be4f-4cf5-b789-0758f7c54444","ios":"levelo://app?vid=61a04cb9-be4f-4cf5-b789-0758f7c54444"},"vehicle_type_id":"4","last_reported":1729346846,"current_range_meters":18800,"station_id":"ce4bhu92rcd13ifvqi70","pricing_plan_id":"cebpf4jnsgd1na2vs0mg"},{"bike_id":"0e01228b-f3fd-4338-94c5-3e9231af4409","system_id":"levelo_inurba_marseille","lat":43.30147,"lon":5.38078,"is_reserved":false,"is_disabled":false,"rental_uris":{"android":"levelo://app?vid=0e01228b-f3fd-4338-94c5-3e9231af4409","ios":"levelo://app?vid=0e01228b-f3fd-4338-94c5-3e9231af4409"},"vehicle_type_id":"4","last_reported":1729346846,"current_range_meters":18000,"station_id":"ce4bgjp2rcd13ifvqbh0","pricing_plan_id":"cebpf4jnsgd1na2vs0mg"},{"bike_id":"409264d0-1441-4f4a-8a2d-fcd2e2ae9281","system_id":"levelo_inurba_marseille","lat":43.28155,"lon":5.42645,"is_reserved":false,"is_disabled":false,"rental_uris":{"android":"levelo://app?vid=409264d0-1441-4f4a-8a2d-fcd2e2ae9281","ios":"levelo://app?vid=409264d0-1441-4f4a-8a2d-fcd2e2ae9281"},"vehicle_type_id":"4","last_reported":1729346846,"current_range_meters":36000,"station_id":"ce4bhnh2rcd13ifvqgug","pricing_plan_id":"cebpf4jnsgd1na2vs0mg"},{"bike_id":"d010bf09-451b-44ba-8c78-34493d6c85f0","system_id":"levelo_inurba_marseille","lat":43.29854,"lon":5.3629,"is_reserved":false,"is_disabled":false,"rental_uris":{"android":"levelo://app?vid=d010bf09-451b-44ba-8c78-34493d6c85f0","ios":"levelo://app?vid=d010bf09-451b-44ba-8c78-34493d6c85f0"},"vehicle_type_id":"4","last_reported":1729346846,"current_range_meters":38800,"station_id":"ce4bgpp2rcd13ifvqc3g","pricing_plan_id":"cebpf4jnsgd1na2vs0mg"},{"bike_id":"c746da30-0175-4c63-8cc4-f4d0284e8127","system_id":"levelo_inurba_marseille","lat":43.23965,"lon":5.366342,"is_reserved":false,"is_disabled":false,"rental_uris":{"android":"levelo://app?vid=c746da30-0175-4c63-8cc4-f4d0284e8127","ios":"levelo://app?vid=c746da30-0175-4c63-8cc4-f4d0284e8127"},"vehicle_type_id":"4","last_reported":1729346846,"current_range_meters":16000,"station_id":"ce4bhi12rcd13ifvqfp0","pricing_plan_id":"cebpf4jnsgd1na2vs0mg"},{"bike_id":"0e577dc1-2021-4542-81dd-08e4eb64fe7e","system_id":"levelo_inurba_marseille","lat":43.23962,"lon":5.36632,"is_reserved":false,"is_disabled":false,"rental_uris":{"android":"levelo://app?vid=0e577dc1-2021-4542-81dd-08e4eb64fe7e","ios":"levelo://app?vid=0e577dc1-2021-4542-81dd-08e4eb64fe7e"},"vehicle_type_id":"4","last_reported":1729346846,"current_range_meters":38800,"station_id":"ce4bhi12rcd13ifvqfp0","pricing_plan_id":"cebpf4jnsgd1na2vs0mg"},{"bike_id":"1ea4ff61-14be-4d15-858d-8e9932480267","system_id":"levelo_inurba_marseille","lat":43.29012,"lon":5.3561,"is_reserved":false,"is_disabled":false,"rental_uris":{"android":"levelo://app?vid=1ea4ff61-14be-4d15-858d-8e9932480267","ios":"levelo://app?vid=1ea4ff61-14be-4d15-858d-8e9932480267"},"vehicle_type_id":"4","last_reported":1729346846,"current_range_meters":31200,"station_id":"ce4bhb92rcd13ifvqen0","pricing_plan_id":"cebpf4jnsgd1na2vs0mg"},{"bike_id":"526ddafa-57a3-4019-b921-4da876fc05f2","system_id":"levelo_inurba_marseille","lat":43.31215,"lon":5.36856,"is_reserved":false,"is_disabled":false,"rental_uris":{"android":"levelo://app?vid=526ddafa-57a3-4019-b921-4da876fc05f2","ios":"levelo://app?vid=526ddafa-57a3-4019-b921-4da876fc05f2"},"vehicle_type_id":"4","last_reported":1729346846,"current_range_meters":7200,"station_id":"ce4bgl92rcd13ifvqbq0","pricing_plan_id":"cebpf4jnsgd1na2vs0mg"},{"bike_id":"d0572c30-13bf-4746-a29b-111549056bfa","system_id":"levelo_inurba_marseille","lat":43.25939,"lon":5.40908,"is_reserved":false,"is_disabled":false,"rental_uris":{"android":"levelo://app?vid=d0572c30-13bf-4746-a29b-111549056bfa","ios":"levelo://app?vid=d0572c30-13bf-4746-a29b-111549056bfa"},"vehicle_type_id":"4","last_reported":1729346846,"current_range_meters":12400,"station_id":"ce4bhm92rcd13ifvqglg","pricing_plan_id":"cebpf4jnsgd1na2vs0mg"},{"bike_id":"7588a213-e3b8-4965-979e-d6dddfac1da4","system_id":"levelo_inurba_marseille","lat":43.22934,"lon":5.35382,"is_reserved":false,"is_disabled":false,"rental_uris":{"android":"levelo://app?vid=7588a213-e3b8-4965-979e-d6dddfac1da4","ios":"levelo://app?vid=7588a213-e3b8-4965-979e-d6dddfac1da4"},"vehicle_type_id":"4","last_reported":1729346846,"current_range_meters":4400,"station_id":"cpo3532slgdg3j2ikp40","pricing_plan_id":"cebpf4jnsgd1na2vs0mg"},{"bike_id":"fc6e513b-da81-4d34-a427-493e42edd768","system_id":"levelo_inurba_marseille","lat":43.29533,"lon":5.3924,"is_reserved":false,"is_disabled":false,"rental_uris":{"android":"levelo://app?vid=fc6e513b-da81-4d34-a427-493e42edd768","ios":"levelo://app?vid=fc6e513b-da81-4d34-a427-493e42edd768"},"vehicle_type_id":"4","last_reported":1729346846,"current_range_meters":21600,"station_id":"","pricing_plan_id":"cebpf4jnsgd1na2vs0mg"},{"bike_id":"ac231a2e-1def-435c-8990-198f2e08ac8d","system_id":"levelo_inurba_marseille","lat":43.23052,"lon":5.35494,"is_reserved":false,"is_disabled":false,"rental_uris":{"android":"levelo://app?vid=ac231a2e-1def-435c-8990-198f2e08ac8d","ios":"levelo://app?vid=ac231a2e-1def-435c-8990-198f2e08ac8d"},"vehicle_type_id":"4","last_reported":1729346846,"current_range_meters":14000,"station_id":"cpo3342slgdg3j2ifvpg","pricing_plan_id":"cebpf4jnsgd1na2vs0mg"},{"bike_id":"cfdba70b-6b45-405a-af83-0a5b48145fea","system_id":"levelo_inurba_marseille","lat":43.29204,"lon":5.35961,"is_reserved":false,"is_disabled":false,"rental_uris":{"android":"levelo://app?vid=cfdba70b-6b45-405a-af83-0a5b48145fea","ios":"levelo://app?vid=cfdba70b-6b45-405a-af83-0a5b48145fea"},"vehicle_type_id":"4","last_reported":1729346846,"current_range_meters":30000,"station_id":"","pricing_plan_id":"cebpf4jnsgd1na2vs0mg"},{"bike_id":"e61f12e7-06b9-4018-a9f9-f1e186a429ca","system_id":"levelo_inurba_marseille","lat":43.299137,"lon":5.376705,"is_reserved":false,"is_disabled":false,"rental_uris":{"android":"levelo://app?vid=e61f12e7-06b9-4018-a9f9-f1e186a429ca","ios":"levelo://app?vid=e61f12e7-06b9-4018-a9f9-f1e186a429ca"},"vehicle_type_id":"4","last_reported":1729346846,"current_range_meters":18800,"station_id":"ce4bgjh2rcd13ifvqbg0","pricing_plan_id":"cebpf4jnsgd1na2vs0mg"},{"bike_id":"7942b4d2-ec2e-45b4-a706-96b5d3064043","system_id":"levelo_inurba_marseille","lat":43.30185,"lon":5.36614,"is_reserved":false,"is_disabled":false,"rental_uris":{"android":"levelo://app?vid=7942b4d2-ec2e-45b4-a706-96b5d3064043","ios":"levelo://app?vid=7942b4d2-ec2e-45b4-a706-96b5d3064043"},"vehicle_type_id":"4","last_reported":1729346846,"current_range_meters":38800,"station_id":"ce4bgrh2rcd13ifvqc8g","pricing_plan_id":"cebpf4jnsgd1na2vs0mg"},{"bike_id":"190ce91e-4a26-4916-95ba-2d62e7700f19","system_id":"levelo_inurba_marseille","lat":43.28439,"lon":5.39195,"is_reserved":false,"is_disabled":false,"rental_uris":{"android":"levelo://app?vid=190ce91e-4a26-4916-95ba-2d62e7700f19","ios":"levelo://app?vid=190ce91e-4a26-4916-95ba-2d62e7700f19"},"vehicle_type_id":"4","last_reported":1729346846,"current_range_meters":13600,"station_id":"ce4bhoh2rcd13ifvqh5g","pricing_plan_id":"cebpf4jnsgd1na2vs0mg"},{"bike_id":"c98d2bb8-4bf8-40b1-bdac-700defee1376","system_id":"levelo_inurba_marseille","lat":43.258545,"lon":5.399008,"is_reserved":false,"is_disabled":false,"rental_uris":{"android":"levelo://app?vid=c98d2bb8-4bf8-40b1-bdac-700defee1376","ios":"levelo://app?vid=c98d2bb8-4bf8-40b1-bdac-700defee1376"},"vehicle_type_id":"4","last_reported":1729346846,"current_range_meters":28400,"station_id":"ce4bhl92rcd13ifvqghg","pricing_plan_id":"cebpf4jnsgd1na2vs0mg"},{"bike_id":"f30e5bb2-e070-4b31-8b6f-805306d443a1","system_id":"levelo_inurba_marseille","lat":43.24074,"lon":5.3776,"is_reserved":false,"is_disabled":false,"rental_uris":{"android":"levelo://app?vid=f30e5bb2-e070-4b31-8b6f-805306d443a1","ios":"levelo://app?vid=f30e5bb2-e070-4b31-8b6f-805306d443a1"},"vehicle_type_id":"4","last_reported":1729346846,"current_range_meters":38800,"station_id":"ce4bhnp2rcd13ifvqgvg","pricing_plan_id":"cebpf4jnsgd1na2vs0mg"},{"bike_id":"57dd0012-e7c2-43e3-90a1-087125ac63fa","system_id":"levelo_inurba_marseille","lat":43.33759,"lon":5.37474,"is_reserved":false,"is_disabled":false,"rental_uris":{"android":"levelo://app?vid=57dd0012-e7c2-43e3-90a1-087125ac63fa","ios":"levelo://app?vid=57dd0012-e7c2-43e3-90a1-087125ac63fa"},"vehicle_type_id":"4","last_reported":1729346846,"current_range_meters":38000,"station_id":"","pricing_plan_id":"cebpf4jnsgd1na2vs0mg"},{"bike_id":"7f17a375-1391-4f32-afe9-0b808a5d36a0","system_id":"levelo_inurba_marseille","lat":43.29436,"lon":5.39752,"is_reserved":false,"is_disabled":false,"rental_uris":{"android":"levelo://app?vid=7f17a375-1391-4f32-afe9-0b808a5d36a0","ios":"levelo://app?vid=7f17a375-1391-4f32-afe9-0b808a5d36a0"},"vehicle_type_id":"4","last_reported":1729346846,"current_range_meters":30400,"station_id":"ce4bh3h2rcd13ifvqdo0","pricing_plan_id":"cebpf4jnsgd1na2vs0mg"},{"bike_id":"a7551cd3-eeb0-4b46-9496-737020a18aeb","system_id":"levelo_inurba_marseille","lat":43.28273,"lon":5.35075,"is_reserved":false,"is_disabled":false,"rental_uris":{"android":"levelo://app?vid=a7551cd3-eeb0-4b46-9496-737020a18aeb","ios":"levelo://app?vid=a7551cd3-eeb0-4b46-9496-737020a18aeb"},"vehicle_type_id":"4","last_reported":1729346846,"current_range_meters":37600,"station_id":"ce4bhbp2rcd13ifvqerg","pricing_plan_id":"cebpf4jnsgd1na2vs0mg"},{"bike_id":"9755f4e0-8354-4cd2-a672-0e5c29ec1e3f","system_id":"levelo_inurba_marseille","lat":43.22935,"lon":5.35384,"is_reserved":false,"is_disabled":false,"rental_uris":{"android":"levelo://app?vid=9755f4e0-8354-4cd2-a672-0e5c29ec1e3f","ios":"levelo://app?vid=9755f4e0-8354-4cd2-a672-0e5c29ec1e3f"},"vehicle_type_id":"4","last_reported":1729346846,"current_range_meters":36800,"station_id":"cpo3532slgdg3j2ikp40","pricing_plan_id":"cebpf4jnsgd1na2vs0mg"},{"bike_id":"e9cac722-cb5a-4d38-9492-8cf828e387a3","system_id":"levelo_inurba_marseille","lat":43.23183,"lon":5.39994,"is_reserved":false,"is_disabled":false,"rental_uris":{"android":"levelo://app?vid=e9cac722-cb5a-4d38-9492-8cf828e387a3","ios":"levelo://app?vid=e9cac722-cb5a-4d38-9492-8cf828e387a3"},"vehicle_type_id":"4","last_reported":1729346846,"current_range_meters":3600,"station_id":"ce4bhn12rcd13ifvqgqg","pricing_plan_id":"cebpf4jnsgd1na2vs0mg"},{"bike_id":"3d7546d0-4dba-4212-88c9-dfe9a2032237","system_id":"levelo_inurba_marseille","lat":43.24168,"lon":5.36392,"is_reserved":false,"is_disabled":false,"rental_uris":{"android":"levelo://app?vid=3d7546d0-4dba-4212-88c9-dfe9a2032237","ios":"levelo://app?vid=3d7546d0-4dba-4212-88c9-dfe9a2032237"},"vehicle_type_id":"4","last_reported":1729346846,"current_range_meters":33200,"station_id":"cpo36qri1sfpv3e86is0","pricing_plan_id":"cebpf4jnsgd1na2vs0mg"},{"bike_id":"8b10c252-b32b-40ef-b8da-9d1c9158f577","system_id":"levelo_inurba_marseille","lat":43.26033,"lon":5.37549,"is_reserved":false,"is_disabled":false,"rental_uris":{"android":"levelo://app?vid=8b10c252-b32b-40ef-b8da-9d1c9158f577","ios":"levelo://app?vid=8b10c252-b32b-40ef-b8da-9d1c9158f577"},"vehicle_type_id":"4","last_reported":1729346846,"current_range_meters":38400,"station_id":"ce4bhgh2rcd13ifvqfa0","pricing_plan_id":"cebpf4jnsgd1na2vs0mg"},{"bike_id":"32ce68a3-3fc7-4257-974f-ab657619c295","system_id":"levelo_inurba_marseille","lat":43.33762,"lon":5.37454,"is_reserved":false,"is_disabled":false,"rental_uris":{"android":"levelo://app?vid=32ce68a3-3fc7-4257-974f-ab657619c295","ios":"levelo://app?vid=32ce68a3-3fc7-4257-974f-ab657619c295"},"vehicle_type_id":"4","last_reported":1729346846,"current_range_meters":4400,"station_id":"","pricing_plan_id":"cebpf4jnsgd1na2vs0mg"},{"bike_id":"8ae6262c-4a8e-46a3-877c-8a9428098d89","system_id":"levelo_inurba_marseille","lat":43.2681,"lon":5.4027,"is_reserved":false,"is_disabled":false,"rental_uris":{"android":"levelo://app?vid=8ae6262c-4a8e-46a3-877c-8a9428098d89","ios":"levelo://app?vid=8ae6262c-4a8e-46a3-877c-8a9428098d89"},"vehicle_type_id":"4","last_reported":1729346846,"current_range_meters":37600,"station_id":"ce501612rcd8frsf0b60","pricing_plan_id":"cebpf4jnsgd1na2vs0mg"},{"bike_id":"f635b0ca-d997-4e83-bc7e-7d4357f9c2a6","system_id":"levelo_inurba_marseille","lat":43.27682,"lon":5.3888,"is_reserved":false,"is_disabled":false,"rental_uris":{"android":"levelo://app?vid=f635b0ca-d997-4e83-bc7e-7d4357f9c2a6","ios":"levelo://app?vid=f635b0ca-d997-4e83-bc7e-7d4357f9c2a6"},"vehicle_type_id":"4","last_reported":1729346846,"current_range_meters":3200,"station_id":"ce4bhi12rcd13ifvqfo0","pricing_plan_id":"cebpf4jnsgd1na2vs0mg"},{"bike_id":"319e285c-82b5-439b-a7b4-0550bf15a6bf","system_id":"levelo_inurba_marseille","lat":43.24995,"lon":5.38937,"is_reserved":false,"is_disabled":false,"rental_uris":{"android":"levelo://app?vid=319e285c-82b5-439b-a7b4-0550bf15a6bf","ios":"levelo://app?vid=319e285c-82b5-439b-a7b4-0550bf15a6bf"},"vehicle_type_id":"4","last_reported":1729346846,"current_range_meters":27200,"station_id":"ce4bhgp2rcd13ifvqfd0","pricing_plan_id":"cebpf4jnsgd1na2vs0mg"},{"bike_id":"d8756bab-c0ee-4e81-916a-a4452bf8c1ac","system_id":"levelo_inurba_marseille","lat":43.24179,"lon":5.39734,"is_reserved":false,"is_disabled":false,"rental_uris":{"android":"levelo://app?vid=d8756bab-c0ee-4e81-916a-a4452bf8c1ac","ios":"levelo://app?vid=d8756bab-c0ee-4e81-916a-a4452bf8c1ac"},"vehicle_type_id":"4","last_reported":1729346846,"current_range_meters":24400,"station_id":"ce4bhn12rcd13ifvqgpg","pricing_plan_id":"cebpf4jnsgd1na2vs0mg"},{"bike_id":"12b8ba3a-ae17-48f4-b9f5-35a506fbf986","system_id":"levelo_inurba_marseille","lat":43.26194,"lon":5.37452,"is_reserved":false,"is_disabled":false,"rental_uris":{"android":"levelo://app?vid=12b8ba3a-ae17-48f4-b9f5-35a506fbf986","ios":"levelo://app?vid=12b8ba3a-ae17-48f4-b9f5-35a506fbf986"},"vehicle_type_id":"4","last_reported":1729346846,"current_range_meters":28400,"station_id":"ce4bhgp2rcd13ifvqfc0","pricing_plan_id":"cebpf4jnsgd1na2vs0mg"},{"bike_id":"9fd98e94-e795-4ae5-ba8f-8e26efc1e22c","system_id":"levelo_inurba_marseille","lat":43.27489,"lon":5.42456,"is_reserved":false,"is_disabled":false,"rental_uris":{"android":"levelo://app?vid=9fd98e94-e795-4ae5-ba8f-8e26efc1e22c","ios":"levelo://app?vid=9fd98e94-e795-4ae5-ba8f-8e26efc1e22c"},"vehicle_type_id":"4","last_reported":1729346846,"current_range_meters":38800,"station_id":"ce4bhn92rcd13ifvqgrg","pricing_plan_id":"cebpf4jnsgd1na2vs0mg"},{"bike_id":"9e8bce22-3bc5-463a-9a89-57ed7c0b4b48","system_id":"levelo_inurba_marseille","lat":43.24987,"lon":5.38939,"is_reserved":false,"is_disabled":false,"rental_uris":{"android":"levelo://app?vid=9e8bce22-3bc5-463a-9a89-57ed7c0b4b48","ios":"levelo://app?vid=9e8bce22-3bc5-463a-9a89-57ed7c0b4b48"},"vehicle_type_id":"4","last_reported":1729346846,"current_range_meters":38400,"station_id":"ce4bhgp2rcd13ifvqfd0","pricing_plan_id":"cebpf4jnsgd1na2vs0mg"},{"bike_id":"6612700d-9d9a-43e3-9c35-a004e8f5cca2","system_id":"levelo_inurba_marseille","lat":43.28276,"lon":5.35072,"is_reserved":false,"is_disabled":false,"rental_uris":{"android":"levelo://app?vid=6612700d-9d9a-43e3-9c35-a004e8f5cca2","ios":"levelo://app?vid=6612700d-9d9a-43e3-9c35-a004e8f5cca2"},"vehicle_type_id":"4","last_reported":1729346846,"current_range_meters":15200,"station_id":"ce4bhbp2rcd13ifvqerg","pricing_plan_id":"cebpf4jnsgd1na2vs0mg"},{"bike_id":"de533415-0cf7-412a-984e-fd917d737264","system_id":"levelo_inurba_marseille","lat":43.25085,"lon":5.3952,"is_reserved":false,"is_disabled":false,"rental_uris":{"android":"levelo://app?vid=de533415-0cf7-412a-984e-fd917d737264","ios":"levelo://app?vid=de533415-0cf7-412a-984e-fd917d737264"},"vehicle_type_id":"4","last_reported":1729346846,"current_range_meters":39200,"station_id":"ce4bhm12rcd13ifvqgkg","pricing_plan_id":"cebpf4jnsgd1na2vs0mg"},{"bike_id":"f95d384d-e5a4-4994-9955-312d171bc2a6","system_id":"levelo_inurba_marseille","lat":43.31221,"lon":5.36862,"is_reserved":false,"is_disabled":false,"rental_uris":{"android":"levelo://app?vid=f95d384d-e5a4-4994-9955-312d171bc2a6","ios":"levelo://app?vid=f95d384d-e5a4-4994-9955-312d171bc2a6"},"vehicle_type_id":"4","last_reported":1729346846,"current_range_meters":24800,"station_id":"ce4bgl92rcd13ifvqbq0","pricing_plan_id":"cebpf4jnsgd1na2vs0mg"},{"bike_id":"5ad45944-f1a9-4659-baa9-60cfd8843656","system_id":"levelo_inurba_marseille","lat":43.23191,"lon":5.35552,"is_reserved":false,"is_disabled":false,"rental_uris":{"android":"levelo://app?vid=5ad45944-f1a9-4659-baa9-60cfd8843656","ios":"levelo://app?vid=5ad45944-f1a9-4659-baa9-60cfd8843656"},"vehicle_type_id":"4","last_reported":1729346846,"current_range_meters":6800,"station_id":"ce4bhu92rcd13ifvqi70","pricing_plan_id":"cebpf4jnsgd1na2vs0mg"},{"bike_id":"f3a98089-8e34-4c7c-9210-b083693533a9","system_id":"levelo_inurba_marseille","lat":43.30541,"lon":5.36562,"is_reserved":false,"is_disabled":false,"rental_uris":{"android":"levelo://app?vid=f3a98089-8e34-4c7c-9210-b083693533a9","ios":"levelo://app?vid=f3a98089-8e34-4c7c-9210-b083693533a9"},"vehicle_type_id":"4","last_reported":1729346846,"current_range_meters":22400,"station_id":"ce4bgs12rcd13ifvqcag","pricing_plan_id":"cebpf4jnsgd1na2vs0mg"},{"bike_id":"bc5c602d-04be-4835-8b59-db6148bc88d9","system_id":"levelo_inurba_marseille","lat":43.32477,"lon":5.36572,"is_reserved":false,"is_disabled":false,"rental_uris":{"android":"levelo://app?vid=bc5c602d-04be-4835-8b59-db6148bc88d9","ios":"levelo://app?vid=bc5c602d-04be-4835-8b59-db6148bc88d9"},"vehicle_type_id":"4","last_reported":1729346846,"current_range_meters":36400,"station_id":"ce4bhs12rcd13ifvqhvg","pricing_plan_id":"cebpf4jnsgd1na2vs0mg"},{"bike_id":"2d40e799-a4b3-41e2-aeac-767fc04c52fe","system_id":"levelo_inurba_marseille","lat":43.27985,"lon":5.41666,"is_reserved":false,"is_disabled":false,"rental_uris":{"android":"levelo://app?vid=2d40e799-a4b3-41e2-aeac-767fc04c52fe","ios":"levelo://app?vid=2d40e799-a4b3-41e2-aeac-767fc04c52fe"},"vehicle_type_id":"4","last_reported":1729346846,"current_range_meters":6800,"station_id":"ce4bho12rcd13ifvqh1g","pricing_plan_id":"cebpf4jnsgd1na2vs0mg"},{"bike_id":"cfe78fd2-5ebc-40fb-858b-89aa9fc29771","system_id":"levelo_inurba_marseille","lat":43.29412,"lon":5.3782,"is_reserved":false,"is_disabled":false,"rental_uris":{"android":"levelo://app?vid=cfe78fd2-5ebc-40fb-858b-89aa9fc29771","ios":"levelo://app?vid=cfe78fd2-5ebc-40fb-858b-89aa9fc29771"},"vehicle_type_id":"4","last_reported":1729346846,"current_range_meters":19600,"station_id":"","pricing_plan_id":"cebpf4jnsgd1na2vs0mg"},{"bike_id":"fce56a43-24a2-46c2-b63b-01add27b8ab6","system_id":"levelo_inurba_marseille","lat":43.26068,"lon":5.38336,"is_reserved":false,"is_disabled":false,"rental_uris":{"android":"levelo://app?vid=fce56a43-24a2-46c2-b63b-01add27b8ab6","ios":"levelo://app?vid=fce56a43-24a2-46c2-b63b-01add27b8ab6"},"vehicle_type_id":"4","last_reported":1729346846,"current_range_meters":33600,"station_id":"","pricing_plan_id":"cebpf4jnsgd1na2vs0mg"},{"bike_id":"3b539b95-4118-4a64-9102-60cfaf6ad6d7","system_id":"levelo_inurba_marseille","lat":43.26187,"lon":5.37454,"is_reserved":false,"is_disabled":false,"rental_uris":{"android":"levelo://app?vid=3b539b95-4118-4a64-9102-60cfaf6ad6d7","ios":"levelo://app?vid=3b539b95-4118-4a64-9102-60cfaf6ad6d7"},"vehicle_type_id":"4","last_reported":1729346846,"current_range_meters":24400,"station_id":"ce4bhgp2rcd13ifvqfc0","pricing_plan_id":"cebpf4jnsgd1na2vs0mg"},{"bike_id":"cc200779-b0ab-472e-8e4c-a492949d5888","system_id":"levelo_inurba_marseille","lat":43.28152,"lon":5.42647,"is_reserved":false,"is_disabled":false,"rental_uris":{"android":"levelo://app?vid=cc200779-b0ab-472e-8e4c-a492949d5888","ios":"levelo://app?vid=cc200779-b0ab-472e-8e4c-a492949d5888"},"vehicle_type_id":"4","last_reported":1729346846,"current_range_meters":16000,"station_id":"ce4bhnh2rcd13ifvqgug","pricing_plan_id":"cebpf4jnsgd1na2vs0mg"},{"bike_id":"85638a3d-3bc0-4ba5-a0c2-fd5a1454fee6","system_id":"levelo_inurba_marseille","lat":43.22931,"lon":5.35378,"is_reserved":false,"is_disabled":false,"rental_uris":{"android":"levelo://app?vid=85638a3d-3bc0-4ba5-a0c2-fd5a1454fee6","ios":"levelo://app?vid=85638a3d-3bc0-4ba5-a0c2-fd5a1454fee6"},"vehicle_type_id":"4","last_reported":1729346846,"current_range_meters":19200,"station_id":"cpo3532slgdg3j2ikp40","pricing_plan_id":"cebpf4jnsgd1na2vs0mg"},{"bike_id":"22d4bb12-d9cb-4524-8b56-432c4e684dc2","system_id":"levelo_inurba_marseille","lat":43.24082,"lon":5.37761,"is_reserved":false,"is_disabled":false,"rental_uris":{"android":"levelo://app?vid=22d4bb12-d9cb-4524-8b56-432c4e684dc2","ios":"levelo://app?vid=22d4bb12-d9cb-4524-8b56-432c4e684dc2"},"vehicle_type_id":"4","last_reported":1729346846,"current_range_meters":26000,"station_id":"ce4bhnp2rcd13ifvqgvg","pricing_plan_id":"cebpf4jnsgd1na2vs0mg"},{"bike_id":"479821fe-289f-419d-8100-dca1bd37230f","system_id":"levelo_inurba_marseille","lat":43.31756,"lon":5.39018,"is_reserved":false,"is_disabled":false,"rental_uris":{"android":"levelo://app?vid=479821fe-289f-419d-8100-dca1bd37230f","ios":"levelo://app?vid=479821fe-289f-419d-8100-dca1bd37230f"},"vehicle_type_id":"4","last_reported":1729346846,"current_range_meters":34000,"station_id":"ce4bhqp2rcd13ifvqhng","pricing_plan_id":"cebpf4jnsgd1na2vs0mg"},{"bike_id":"919b1c13-d99b-49b0-8765-750105f5f31a","system_id":"levelo_inurba_marseille","lat":43.2883,"lon":5.393015,"is_reserved":false,"is_disabled":false,"rental_uris":{"android":"levelo://app?vid=919b1c13-d99b-49b0-8765-750105f5f31a","ios":"levelo://app?vid=919b1c13-d99b-49b0-8765-750105f5f31a"},"vehicle_type_id":"4","last_reported":1729346846,"current_range_meters":37600,"station_id":"ce4bh2p2rcd13ifvqdi0","pricing_plan_id":"cebpf4jnsgd1na2vs0mg"},{"bike_id":"b8aad1f1-cd6d-43fa-9fea-c98f609f5f77","system_id":"levelo_inurba_marseille","lat":43.33787,"lon":5.37449,"is_reserved":false,"is_disabled":false,"rental_uris":{"android":"levelo://app?vid=b8aad1f1-cd6d-43fa-9fea-c98f609f5f77","ios":"levelo://app?vid=b8aad1f1-cd6d-43fa-9fea-c98f609f5f77"},"vehicle_type_id":"4","last_reported":1729346846,"current_range_meters":36400,"station_id":"","pricing_plan_id":"cebpf4jnsgd1na2vs0mg"},{"bike_id":"93d4fcfe-6abb-40f5-9235-5b6f6c2455f6","system_id":"levelo_inurba_marseille","lat":43.26551,"lon":5.3729,"is_reserved":false,"is_disabled":false,"rental_uris":{"android":"levelo://app?vid=93d4fcfe-6abb-40f5-9235-5b6f6c2455f6","ios":"levelo://app?vid=93d4fcfe-6abb-40f5-9235-5b6f6c2455f6"},"vehicle_type_id":"4","last_reported":1729346846,"current_range_meters":30400,"station_id":"ce4bhg12rcd13ifvqf70","pricing_plan_id":"cebpf4jnsgd1na2vs0mg"},{"bike_id":"8ddc7359-d757-4cf3-b619-e3b4da4f7622","system_id":"levelo_inurba_marseille","lat":43.29705,"lon":5.3662,"is_reserved":false,"is_disabled":false,"rental_uris":{"android":"levelo://app?vid=8ddc7359-d757-4cf3-b619-e3b4da4f7622","ios":"levelo://app?vid=8ddc7359-d757-4cf3-b619-e3b4da4f7622"},"vehicle_type_id":"4","last_reported":1729346846,"current_range_meters":9200,"station_id":"ce4bgn12rcd13ifvqbt0","pricing_plan_id":"cebpf4jnsgd1na2vs0mg"},{"bike_id":"abbc624b-a5b4-4057-b22c-02b0ddf70f4a","system_id":"levelo_inurba_marseille","lat":43.23192,"lon":5.35562,"is_reserved":false,"is_disabled":false,"rental_uris":{"android":"levelo://app?vid=abbc624b-a5b4-4057-b22c-02b0ddf70f4a","ios":"levelo://app?vid=abbc624b-a5b4-4057-b22c-02b0ddf70f4a"},"vehicle_type_id":"4","last_reported":1729346846,"current_range_meters":2000,"station_id":"ce4bhu92rcd13ifvqi70","pricing_plan_id":"cebpf4jnsgd1na2vs0mg"},{"bike_id":"30a8876c-d958-4edb-a186-b9fa8c16eb2c","system_id":"levelo_inurba_marseille","lat":43.25721,"lon":5.41116,"is_reserved":false,"is_disabled":false,"rental_uris":{"android":"levelo://app?vid=30a8876c-d958-4edb-a186-b9fa8c16eb2c","ios":"levelo://app?vid=30a8876c-d958-4edb-a186-b9fa8c16eb2c"},"vehicle_type_id":"4","last_reported":1729346846,"current_range_meters":36800,"station_id":"ce4bhkp2rcd13ifvqgd0","pricing_plan_id":"cebpf4jnsgd1na2vs0mg"},{"bike_id":"1b011c51-9e2a-40e0-b3a8-15c6fe445f34","system_id":"levelo_inurba_marseille","lat":43.29934,"lon":5.36543,"is_reserved":false,"is_disabled":false,"rental_uris":{"android":"levelo://app?vid=1b011c51-9e2a-40e0-b3a8-15c6fe445f34","ios":"levelo://app?vid=1b011c51-9e2a-40e0-b3a8-15c6fe445f34"},"vehicle_type_id":"4","last_reported":1729346846,"current_range_meters":21600,"station_id":"ce4bgm92rcd13ifvqbr0","pricing_plan_id":"cebpf4jnsgd1na2vs0mg"},{"bike_id":"47b0677d-f1ea-44b9-ad27-95f55e4f3816","system_id":"levelo_inurba_marseille","lat":43.23954,"lon":5.36645,"is_reserved":false,"is_disabled":false,"rental_uris":{"android":"levelo://app?vid=47b0677d-f1ea-44b9-ad27-95f55e4f3816","ios":"levelo://app?vid=47b0677d-f1ea-44b9-ad27-95f55e4f3816"},"vehicle_type_id":"4","last_reported":1729346846,"current_range_meters":38800,"station_id":"ce4bhi12rcd13ifvqfp0","pricing_plan_id":"cebpf4jnsgd1na2vs0mg"},{"bike_id":"fb1ff2bc-71b4-435f-b61a-68f4d51d5a35","system_id":"levelo_inurba_marseille","lat":43.2416,"lon":5.36398,"is_reserved":false,"is_disabled":false,"rental_uris":{"android":"levelo://app?vid=fb1ff2bc-71b4-435f-b61a-68f4d51d5a35","ios":"levelo://app?vid=fb1ff2bc-71b4-435f-b61a-68f4d51d5a35"},"vehicle_type_id":"4","last_reported":1729346846,"current_range_meters":24800,"station_id":"cpo36qri1sfpv3e86is0","pricing_plan_id":"cebpf4jnsgd1na2vs0mg"},{"bike_id":"24daf9f3-8371-4337-92bb-643e937fccfd","system_id":"levelo_inurba_marseille","lat":43.31494,"lon":5.37312,"is_reserved":false,"is_disabled":false,"rental_uris":{"android":"levelo://app?vid=24daf9f3-8371-4337-92bb-643e937fccfd","ios":"levelo://app?vid=24daf9f3-8371-4337-92bb-643e937fccfd"},"vehicle_type_id":"4","last_reported":1729346846,"current_range_meters":3200,"station_id":"ce4bgt12rcd13ifvqcd0","pricing_plan_id":"cebpf4jnsgd1na2vs0mg"},{"bike_id":"b6330585-dddc-4cc9-adf4-816fe9ab609f","system_id":"levelo_inurba_marseille","lat":43.23187,"lon":5.39998,"is_reserved":false,"is_disabled":false,"rental_uris":{"android":"levelo://app?vid=b6330585-dddc-4cc9-adf4-816fe9ab609f","ios":"levelo://app?vid=b6330585-dddc-4cc9-adf4-816fe9ab609f"},"vehicle_type_id":"4","last_reported":1729346846,"current_range_meters":16400,"station_id":"ce4bhn12rcd13ifvqgqg","pricing_plan_id":"cebpf4jnsgd1na2vs0mg"},{"bike_id":"907d90e2-7e08-4846-bbc2-01977b54a9bd","system_id":"levelo_inurba_marseille","lat":43.24165,"lon":5.36395,"is_reserved":false,"is_disabled":false,"rental_uris":{"android":"levelo://app?vid=907d90e2-7e08-4846-bbc2-01977b54a9bd","ios":"levelo://app?vid=907d90e2-7e08-4846-bbc2-01977b54a9bd"},"vehicle_type_id":"4","last_reported":1729346846,"current_range_meters":13600,"station_id":"cpo36qri1sfpv3e86is0","pricing_plan_id":"cebpf4jnsgd1na2vs0mg"},{"bike_id":"8703f427-2750-4214-aa08-cfc5afb34995","system_id":"levelo_inurba_marseille","lat":43.2894,"lon":5.36642,"is_reserved":false,"is_disabled":false,"rental_uris":{"android":"levelo://app?vid=8703f427-2750-4214-aa08-cfc5afb34995","ios":"levelo://app?vid=8703f427-2750-4214-aa08-cfc5afb34995"},"vehicle_type_id":"4","last_reported":1729346846,"current_range_meters":30800,"station_id":"ce4bhap2rcd13ifvqek0","pricing_plan_id":"cebpf4jnsgd1na2vs0mg"},{"bike_id":"89390abd-c244-44fc-92d1-ed760ceccf7c","system_id":"levelo_inurba_marseille","lat":43.28268,"lon":5.35072,"is_reserved":false,"is_disabled":false,"rental_uris":{"android":"levelo://app?vid=89390abd-c244-44fc-92d1-ed760ceccf7c","ios":"levelo://app?vid=89390abd-c244-44fc-92d1-ed760ceccf7c"},"vehicle_type_id":"4","last_reported":1729346846,"current_range_meters":38000,"station_id":"ce4bhbp2rcd13ifvqerg","pricing_plan_id":"cebpf4jnsgd1na2vs0mg"},{"bike_id":"9491d20d-7be9-4f16-857c-c6053f72d9d5","system_id":"levelo_inurba_marseille","lat":43.2656,"lon":5.37291,"is_reserved":false,"is_disabled":false,"rental_uris":{"android":"levelo://app?vid=9491d20d-7be9-4f16-857c-c6053f72d9d5","ios":"levelo://app?vid=9491d20d-7be9-4f16-857c-c6053f72d9d5"},"vehicle_type_id":"4","last_reported":1729346846,"current_range_meters":17200,"station_id":"ce4bhg12rcd13ifvqf70","pricing_plan_id":"cebpf4jnsgd1na2vs0mg"},{"bike_id":"3c40c5ca-c40b-47af-917b-55b69fa76fa6","system_id":"levelo_inurba_marseille","lat":43.28271,"lon":5.3508,"is_reserved":false,"is_disabled":false,"rental_uris":{"android":"levelo://app?vid=3c40c5ca-c40b-47af-917b-55b69fa76fa6","ios":"levelo://app?vid=3c40c5ca-c40b-47af-917b-55b69fa76fa6"},"vehicle_type_id":"4","last_reported":1729346846,"current_range_meters":36800,"station_id":"ce4bhbp2rcd13ifvqerg","pricing_plan_id":"cebpf4jnsgd1na2vs0mg"},{"bike_id":"2e6536b3-0e96-43a7-a3e7-0316faebb930","system_id":"levelo_inurba_marseille","lat":43.24806,"lon":5.37457,"is_reserved":false,"is_disabled":false,"rental_uris":{"android":"levelo://app?vid=2e6536b3-0e96-43a7-a3e7-0316faebb930","ios":"levelo://app?vid=2e6536b3-0e96-43a7-a3e7-0316faebb930"},"vehicle_type_id":"4","last_reported":1729346846,"current_range_meters":16000,"station_id":"ce4bhgh2rcd13ifvqfb0","pricing_plan_id":"cebpf4jnsgd1na2vs0mg"},{"bike_id":"3e46c327-c230-4df5-b2fc-852a8e558d9d","system_id":"levelo_inurba_marseille","lat":43.2293,"lon":5.35385,"is_reserved":false,"is_disabled":false,"rental_uris":{"android":"levelo://app?vid=3e46c327-c230-4df5-b2fc-852a8e558d9d","ios":"levelo://app?vid=3e46c327-c230-4df5-b2fc-852a8e558d9d"},"vehicle_type_id":"4","last_reported":1729346846,"current_range_meters":26000,"station_id":"cpo3532slgdg3j2ikp40","pricing_plan_id":"cebpf4jnsgd1na2vs0mg"},{"bike_id":"54ac56ba-302a-4d28-904d-b9986326af31","system_id":"levelo_inurba_marseille","lat":43.2573,"lon":5.41113,"is_reserved":false,"is_disabled":false,"rental_uris":{"android":"levelo://app?vid=54ac56ba-302a-4d28-904d-b9986326af31","ios":"levelo://app?vid=54ac56ba-302a-4d28-904d-b9986326af31"},"vehicle_type_id":"4","last_reported":1729346846,"current_range_meters":4400,"station_id":"ce4bhkp2rcd13ifvqgd0","pricing_plan_id":"cebpf4jnsgd1na2vs0mg"},{"bike_id":"3fa27c9d-0dd7-4109-9b5e-4db95c2c6b61","system_id":"levelo_inurba_marseille","lat":43.2971,"lon":5.3661,"is_reserved":false,"is_disabled":false,"rental_uris":{"android":"levelo://app?vid=3fa27c9d-0dd7-4109-9b5e-4db95c2c6b61","ios":"levelo://app?vid=3fa27c9d-0dd7-4109-9b5e-4db95c2c6b61"},"vehicle_type_id":"4","last_reported":1729346846,"current_range_meters":38000,"station_id":"ce4bgn12rcd13ifvqbt0","pricing_plan_id":"cebpf4jnsgd1na2vs0mg"},{"bike_id":"64232e16-c44d-4399-9730-0a39f777769d","system_id":"levelo_inurba_marseille","lat":43.29581,"lon":5.36744,"is_reserved":false,"is_disabled":false,"rental_uris":{"android":"levelo://app?vid=64232e16-c44d-4399-9730-0a39f777769d","ios":"levelo://app?vid=64232e16-c44d-4399-9730-0a39f777769d"},"vehicle_type_id":"4","last_reported":1729346846,"current_range_meters":10000,"station_id":"ce4bgph2rcd13ifvqc2g","pricing_plan_id":"cebpf4jnsgd1na2vs0mg"},{"bike_id":"85f057e4-b3eb-40b5-a9aa-5a75d16d0070","system_id":"levelo_inurba_marseille","lat":43.23189,"lon":5.35547,"is_reserved":false,"is_disabled":false,"rental_uris":{"android":"levelo://app?vid=85f057e4-b3eb-40b5-a9aa-5a75d16d0070","ios":"levelo://app?vid=85f057e4-b3eb-40b5-a9aa-5a75d16d0070"},"vehicle_type_id":"4","last_reported":1729346846,"current_range_meters":24800,"station_id":"ce4bhu92rcd13ifvqi70","pricing_plan_id":"cebpf4jnsgd1na2vs0mg"},{"bike_id":"9ed66892-1d5d-44f2-a0fb-41e18ceaf1f8","system_id":"levelo_inurba_marseille","lat":43.22938,"lon":5.35381,"is_reserved":false,"is_disabled":false,"rental_uris":{"android":"levelo://app?vid=9ed66892-1d5d-44f2-a0fb-41e18ceaf1f8","ios":"levelo://app?vid=9ed66892-1d5d-44f2-a0fb-41e18ceaf1f8"},"vehicle_type_id":"4","last_reported":1729346846,"current_range_meters":38000,"station_id":"cpo3532slgdg3j2ikp40","pricing_plan_id":"cebpf4jnsgd1na2vs0mg"},{"bike_id":"e99b4868-af65-4ded-abfc-7609ce50b9f2","system_id":"levelo_inurba_marseille","lat":43.31992,"lon":5.38165,"is_reserved":false,"is_disabled":false,"rental_uris":{"android":"levelo://app?vid=e99b4868-af65-4ded-abfc-7609ce50b9f2","ios":"levelo://app?vid=e99b4868-af65-4ded-abfc-7609ce50b9f2"},"vehicle_type_id":"4","last_reported":1729346846,"current_range_meters":38800,"station_id":"ce4bhr12rcd13ifvqhpg","pricing_plan_id":"cebpf4jnsgd1na2vs0mg"},{"bike_id":"5f7f36e0-6e7e-4aa5-b21b-bc044ca7d90d","system_id":"levelo_inurba_marseille","lat":43.29228,"lon":5.36073,"is_reserved":false,"is_disabled":false,"rental_uris":{"android":"levelo://app?vid=5f7f36e0-6e7e-4aa5-b21b-bc044ca7d90d","ios":"levelo://app?vid=5f7f36e0-6e7e-4aa5-b21b-bc044ca7d90d"},"vehicle_type_id":"4","last_reported":1729346846,"current_range_meters":35600,"station_id":"ce4bhbh2rcd13ifvqeqg","pricing_plan_id":"cebpf4jnsgd1na2vs0mg"},{"bike_id":"f7d0761c-1cd4-454b-85fb-ec7282447251","system_id":"levelo_inurba_marseille","lat":43.22936,"lon":5.35381,"is_reserved":false,"is_disabled":false,"rental_uris":{"android":"levelo://app?vid=f7d0761c-1cd4-454b-85fb-ec7282447251","ios":"levelo://app?vid=f7d0761c-1cd4-454b-85fb-ec7282447251"},"vehicle_type_id":"4","last_reported":1729346846,"current_range_meters":6000,"station_id":"cpo3532slgdg3j2ikp40","pricing_plan_id":"cebpf4jnsgd1na2vs0mg"},{"bike_id":"be51257f-e97c-4321-90ae-ecb4dcf644f8","system_id":"levelo_inurba_marseille","lat":43.33603,"lon":5.41038,"is_reserved":false,"is_disabled":false,"rental_uris":{"android":"levelo://app?vid=be51257f-e97c-4321-90ae-ecb4dcf644f8","ios":"levelo://app?vid=be51257f-e97c-4321-90ae-ecb4dcf644f8"},"vehicle_type_id":"4","last_reported":1729346846,"current_range_meters":24000,"station_id":"ce4bhqh2rcd13ifvqhmg","pricing_plan_id":"cebpf4jnsgd1na2vs0mg"},{"bike_id":"fcb4ec31-da52-4c0c-9299-771a0a15c04b","system_id":"levelo_inurba_marseille","lat":43.239441,"lon":5.366508,"is_reserved":false,"is_disabled":false,"rental_uris":{"android":"levelo://app?vid=fcb4ec31-da52-4c0c-9299-771a0a15c04b","ios":"levelo://app?vid=fcb4ec31-da52-4c0c-9299-771a0a15c04b"},"vehicle_type_id":"4","last_reported":1729346846,"current_range_meters":18000,"station_id":"ce4bhgh2rcd13ifvqfb0","pricing_plan_id":"cebpf4jnsgd1na2vs0mg"},{"bike_id":"60e527f7-3d5b-4082-9e2d-c169703a3022","system_id":"levelo_inurba_marseille","lat":43.25828,"lon":5.39437,"is_reserved":false,"is_disabled":false,"rental_uris":{"android":"levelo://app?vid=60e527f7-3d5b-4082-9e2d-c169703a3022","ios":"levelo://app?vid=60e527f7-3d5b-4082-9e2d-c169703a3022"},"vehicle_type_id":"4","last_reported":1729346846,"current_range_meters":38800,"station_id":"ce4bhip2rcd13ifvqft0","pricing_plan_id":"cebpf4jnsgd1na2vs0mg"},{"bike_id":"a19bbf99-57ee-4fe3-9c12-f13d9eb440e3","system_id":"levelo_inurba_marseille","lat":43.29833,"lon":5.36272,"is_reserved":false,"is_disabled":false,"rental_uris":{"android":"levelo://app?vid=a19bbf99-57ee-4fe3-9c12-f13d9eb440e3","ios":"levelo://app?vid=a19bbf99-57ee-4fe3-9c12-f13d9eb440e3"},"vehicle_type_id":"4","last_reported":1729346846,"current_range_meters":39200,"station_id":"ce4bgpp2rcd13ifvqc3g","pricing_plan_id":"cebpf4jnsgd1na2vs0mg"},{"bike_id":"2140b6a3-5118-4150-823e-9225aeb56201","system_id":"levelo_inurba_marseille","lat":43.23195,"lon":5.355457,"is_reserved":false,"is_disabled":false,"rental_uris":{"android":"levelo://app?vid=2140b6a3-5118-4150-823e-9225aeb56201","ios":"levelo://app?vid=2140b6a3-5118-4150-823e-9225aeb56201"},"vehicle_type_id":"4","last_reported":1729346846,"current_range_meters":27200,"station_id":"ce4bhu92rcd13ifvqi70","pricing_plan_id":"cebpf4jnsgd1na2vs0mg"},{"bike_id":"b5b3109a-ca11-42b0-9be0-2d143ae1da69","system_id":"levelo_inurba_marseille","lat":43.29096,"lon":5.38134,"is_reserved":false,"is_disabled":false,"rental_uris":{"android":"levelo://app?vid=b5b3109a-ca11-42b0-9be0-2d143ae1da69","ios":"levelo://app?vid=b5b3109a-ca11-42b0-9be0-2d143ae1da69"},"vehicle_type_id":"4","last_reported":1729346846,"current_range_meters":10000,"station_id":"ce4bh512rcd13ifvqe2g","pricing_plan_id":"cebpf4jnsgd1na2vs0mg"},{"bike_id":"6e706dcb-6e41-41b6-a172-73765c66fdaa","system_id":"levelo_inurba_marseille","lat":43.26248,"lon":5.37591,"is_reserved":false,"is_disabled":false,"rental_uris":{"android":"levelo://app?vid=6e706dcb-6e41-41b6-a172-73765c66fdaa","ios":"levelo://app?vid=6e706dcb-6e41-41b6-a172-73765c66fdaa"},"vehicle_type_id":"4","last_reported":1729346846,"current_range_meters":38000,"station_id":"ce4bhhp2rcd13ifvqfm0","pricing_plan_id":"cebpf4jnsgd1na2vs0mg"},{"bike_id":"6cb7a3ce-6d5f-4dc0-ab7f-5cafce2cff2e","system_id":"levelo_inurba_marseille","lat":43.29584,"lon":5.36739,"is_reserved":false,"is_disabled":false,"rental_uris":{"android":"levelo://app?vid=6cb7a3ce-6d5f-4dc0-ab7f-5cafce2cff2e","ios":"levelo://app?vid=6cb7a3ce-6d5f-4dc0-ab7f-5cafce2cff2e"},"vehicle_type_id":"4","last_reported":1729346846,"current_range_meters":31200,"station_id":"ce4bgph2rcd13ifvqc2g","pricing_plan_id":"cebpf4jnsgd1na2vs0mg"},{"bike_id":"35cd31d0-e834-4434-a949-35cf2fbd1d2c","system_id":"levelo_inurba_marseille","lat":43.22937,"lon":5.35381,"is_reserved":false,"is_disabled":false,"rental_uris":{"android":"levelo://app?vid=35cd31d0-e834-4434-a949-35cf2fbd1d2c","ios":"levelo://app?vid=35cd31d0-e834-4434-a949-35cf2fbd1d2c"},"vehicle_type_id":"4","last_reported":1729346846,"current_range_meters":16400,"station_id":"cpo3532slgdg3j2ikp40","pricing_plan_id":"cebpf4jnsgd1na2vs0mg"},{"bike_id":"f7dbb753-64d6-4f69-ac53-9caea2c12f94","system_id":"levelo_inurba_marseille","lat":43.29842,"lon":5.36271,"is_reserved":false,"is_disabled":false,"rental_uris":{"android":"levelo://app?vid=f7dbb753-64d6-4f69-ac53-9caea2c12f94","ios":"levelo://app?vid=f7dbb753-64d6-4f69-ac53-9caea2c12f94"},"vehicle_type_id":"4","last_reported":1729346846,"current_range_meters":38800,"station_id":"ce4bgpp2rcd13ifvqc3g","pricing_plan_id":"cebpf4jnsgd1na2vs0mg"},{"bike_id":"ce14538c-8a0a-4115-8fd5-cf83ef63f830","system_id":"levelo_inurba_marseille","lat":43.26201,"lon":5.37931,"is_reserved":false,"is_disabled":false,"rental_uris":{"android":"levelo://app?vid=ce14538c-8a0a-4115-8fd5-cf83ef63f830","ios":"levelo://app?vid=ce14538c-8a0a-4115-8fd5-cf83ef63f830"},"vehicle_type_id":"4","last_reported":1729346846,"current_range_meters":18000,"station_id":"ce4bhjp2rcd13ifvqg90","pricing_plan_id":"cebpf4jnsgd1na2vs0mg"},{"bike_id":"65fdbf14-3665-48ea-b685-ab949cfed703","system_id":"levelo_inurba_marseille","lat":43.26028,"lon":5.3755,"is_reserved":false,"is_disabled":false,"rental_uris":{"android":"levelo://app?vid=65fdbf14-3665-48ea-b685-ab949cfed703","ios":"levelo://app?vid=65fdbf14-3665-48ea-b685-ab949cfed703"},"vehicle_type_id":"4","last_reported":1729346846,"current_range_meters":35200,"station_id":"ce4bhgh2rcd13ifvqfa0","pricing_plan_id":"cebpf4jnsgd1na2vs0mg"},{"bike_id":"7772d39f-5e28-445c-af91-069b0cf63793","system_id":"levelo_inurba_marseille","lat":43.33765,"lon":5.37438,"is_reserved":false,"is_disabled":false,"rental_uris":{"android":"levelo://app?vid=7772d39f-5e28-445c-af91-069b0cf63793","ios":"levelo://app?vid=7772d39f-5e28-445c-af91-069b0cf63793"},"vehicle_type_id":"4","last_reported":1729346846,"current_range_meters":8800,"station_id":"","pricing_plan_id":"cebpf4jnsgd1na2vs0mg"},{"bike_id":"f2e7cfcd-cee3-4d79-bbe2-8d7c26012253","system_id":"levelo_inurba_marseille","lat":43.23064,"lon":5.35495,"is_reserved":false,"is_disabled":false,"rental_uris":{"android":"levelo://app?vid=f2e7cfcd-cee3-4d79-bbe2-8d7c26012253","ios":"levelo://app?vid=f2e7cfcd-cee3-4d79-bbe2-8d7c26012253"},"vehicle_type_id":"4","last_reported":1729346846,"current_range_meters":3200,"station_id":"cpo3342slgdg3j2ifvpg","pricing_plan_id":"cebpf4jnsgd1na2vs0mg"},{"bike_id":"3a9d01be-6baa-4de6-a775-6c44e2a9c4b5","system_id":"levelo_inurba_marseille","lat":43.33026,"lon":5.39041,"is_reserved":false,"is_disabled":false,"rental_uris":{"android":"levelo://app?vid=3a9d01be-6baa-4de6-a775-6c44e2a9c4b5","ios":"levelo://app?vid=3a9d01be-6baa-4de6-a775-6c44e2a9c4b5"},"vehicle_type_id":"4","last_reported":1729346846,"current_range_meters":33600,"station_id":"ce4bhr92rcd13ifvqhrg","pricing_plan_id":"cebpf4jnsgd1na2vs0mg"},{"bike_id":"3213665e-989c-4d22-9f5a-31c8522597dd","system_id":"levelo_inurba_marseille","lat":43.296,"lon":5.36142,"is_reserved":false,"is_disabled":false,"rental_uris":{"android":"levelo://app?vid=3213665e-989c-4d22-9f5a-31c8522597dd","ios":"levelo://app?vid=3213665e-989c-4d22-9f5a-31c8522597dd"},"vehicle_type_id":"4","last_reported":1729346846,"current_range_meters":19200,"station_id":"","pricing_plan_id":"cebpf4jnsgd1na2vs0mg"},{"bike_id":"2f5b81e2-c55c-4b9b-85b7-3cd67f4c2d18","system_id":"levelo_inurba_marseille","lat":43.25822,"lon":5.39419,"is_reserved":false,"is_disabled":false,"rental_uris":{"android":"levelo://app?vid=2f5b81e2-c55c-4b9b-85b7-3cd67f4c2d18","ios":"levelo://app?vid=2f5b81e2-c55c-4b9b-85b7-3cd67f4c2d18"},"vehicle_type_id":"4","last_reported":1729346846,"current_range_meters":30400,"station_id":"ce4bhip2rcd13ifvqft0","pricing_plan_id":"cebpf4jnsgd1na2vs0mg"},{"bike_id":"30a9d30d-b0fd-45d9-9b99-f17cd5646bd7","system_id":"levelo_inurba_marseille","lat":43.2827,"lon":5.35075,"is_reserved":false,"is_disabled":false,"rental_uris":{"android":"levelo://app?vid=30a9d30d-b0fd-45d9-9b99-f17cd5646bd7","ios":"levelo://app?vid=30a9d30d-b0fd-45d9-9b99-f17cd5646bd7"},"vehicle_type_id":"4","last_reported":1729346846,"current_range_meters":6800,"station_id":"ce4bhbp2rcd13ifvqerg","pricing_plan_id":"cebpf4jnsgd1na2vs0mg"},{"bike_id":"558be0f8-476c-4797-803c-8ebd92bfaa3d","system_id":"levelo_inurba_marseille","lat":43.28425,"lon":5.34976,"is_reserved":false,"is_disabled":false,"rental_uris":{"android":"levelo://app?vid=558be0f8-476c-4797-803c-8ebd92bfaa3d","ios":"levelo://app?vid=558be0f8-476c-4797-803c-8ebd92bfaa3d"},"vehicle_type_id":"4","last_reported":1729346846,"current_range_meters":35600,"station_id":"ce4bhbh2rcd13ifvqepg","pricing_plan_id":"cebpf4jnsgd1na2vs0mg"},{"bike_id":"57b209a6-076f-4fe9-9e50-8d35d1d4533f","system_id":"levelo_inurba_marseille","lat":43.28153,"lon":5.42646,"is_reserved":false,"is_disabled":false,"rental_uris":{"android":"levelo://app?vid=57b209a6-076f-4fe9-9e50-8d35d1d4533f","ios":"levelo://app?vid=57b209a6-076f-4fe9-9e50-8d35d1d4533f"},"vehicle_type_id":"4","last_reported":1729346846,"current_range_meters":35600,"station_id":"ce4bhnh2rcd13ifvqgug","pricing_plan_id":"cebpf4jnsgd1na2vs0mg"},{"bike_id":"85978b2d-96a1-4496-a15d-3917a97b0613","system_id":"levelo_inurba_marseille","lat":43.3231,"lon":5.3903,"is_reserved":false,"is_disabled":false,"rental_uris":{"android":"levelo://app?vid=85978b2d-96a1-4496-a15d-3917a97b0613","ios":"levelo://app?vid=85978b2d-96a1-4496-a15d-3917a97b0613"},"vehicle_type_id":"4","last_reported":1729346846,"current_range_meters":37600,"station_id":"","pricing_plan_id":"cebpf4jnsgd1na2vs0mg"},{"bike_id":"eb8e5b67-5a03-464a-bc8d-7f266dd1dbf0","system_id":"levelo_inurba_marseille","lat":43.26558,"lon":5.37286,"is_reserved":false,"is_disabled":false,"rental_uris":{"android":"levelo://app?vid=eb8e5b67-5a03-464a-bc8d-7f266dd1dbf0","ios":"levelo://app?vid=eb8e5b67-5a03-464a-bc8d-7f266dd1dbf0"},"vehicle_type_id":"4","last_reported":1729346846,"current_range_meters":17200,"station_id":"ce4bhg12rcd13ifvqf70","pricing_plan_id":"cebpf4jnsgd1na2vs0mg"},{"bike_id":"2f0fd4af-d56c-44a3-a587-74913990dd70","system_id":"levelo_inurba_marseille","lat":43.30534,"lon":5.36517,"is_reserved":false,"is_disabled":false,"rental_uris":{"android":"levelo://app?vid=2f0fd4af-d56c-44a3-a587-74913990dd70","ios":"levelo://app?vid=2f0fd4af-d56c-44a3-a587-74913990dd70"},"vehicle_type_id":"4","last_reported":1729346846,"current_range_meters":28000,"station_id":"ce4bgs12rcd13ifvqcag","pricing_plan_id":"cebpf4jnsgd1na2vs0mg"},{"bike_id":"03f665b2-5fc8-46d0-b695-405234ef3357","system_id":"levelo_inurba_marseille","lat":43.29577,"lon":5.36748,"is_reserved":false,"is_disabled":false,"rental_uris":{"android":"levelo://app?vid=03f665b2-5fc8-46d0-b695-405234ef3357","ios":"levelo://app?vid=03f665b2-5fc8-46d0-b695-405234ef3357"},"vehicle_type_id":"4","last_reported":1729346846,"current_range_meters":2000,"station_id":"ce4bgph2rcd13ifvqc2g","pricing_plan_id":"cebpf4jnsgd1na2vs0mg"},{"bike_id":"0cb2ff1d-75b8-48e9-8163-d51e41677760","system_id":"levelo_inurba_marseille","lat":43.23068,"lon":5.35493,"is_reserved":false,"is_disabled":false,"rental_uris":{"android":"levelo://app?vid=0cb2ff1d-75b8-48e9-8163-d51e41677760","ios":"levelo://app?vid=0cb2ff1d-75b8-48e9-8163-d51e41677760"},"vehicle_type_id":"4","last_reported":1729346846,"current_range_meters":10800,"station_id":"cpo3342slgdg3j2ifvpg","pricing_plan_id":"cebpf4jnsgd1na2vs0mg"},{"bike_id":"ef1eb9d1-6bfc-474d-82fa-3dddf190bd46","system_id":"levelo_inurba_marseille","lat":43.24804,"lon":5.37459,"is_reserved":false,"is_disabled":false,"rental_uris":{"android":"levelo://app?vid=ef1eb9d1-6bfc-474d-82fa-3dddf190bd46","ios":"levelo://app?vid=ef1eb9d1-6bfc-474d-82fa-3dddf190bd46"},"vehicle_type_id":"4","last_reported":1729346846,"current_range_meters":24000,"station_id":"ce4bhgh2rcd13ifvqfb0","pricing_plan_id":"cebpf4jnsgd1na2vs0mg"},{"bike_id":"6a1e31b6-d029-4b53-901f-4bdc7b2141ad","system_id":"levelo_inurba_marseille","lat":43.33026,"lon":5.39036,"is_reserved":false,"is_disabled":false,"rental_uris":{"android":"levelo://app?vid=6a1e31b6-d029-4b53-901f-4bdc7b2141ad","ios":"levelo://app?vid=6a1e31b6-d029-4b53-901f-4bdc7b2141ad"},"vehicle_type_id":"4","last_reported":1729346846,"current_range_meters":24400,"station_id":"ce4bhr92rcd13ifvqhrg","pricing_plan_id":"cebpf4jnsgd1na2vs0mg"},{"bike_id":"e78b617d-375d-43c8-adb3-6f4b45c69c54","system_id":"levelo_inurba_marseille","lat":43.28155,"lon":5.42644,"is_reserved":false,"is_disabled":false,"rental_uris":{"android":"levelo://app?vid=e78b617d-375d-43c8-adb3-6f4b45c69c54","ios":"levelo://app?vid=e78b617d-375d-43c8-adb3-6f4b45c69c54"},"vehicle_type_id":"4","last_reported":1729346846,"current_range_meters":14800,"station_id":"ce4bhnh2rcd13ifvqgug","pricing_plan_id":"cebpf4jnsgd1na2vs0mg"},{"bike_id":"60e5d882-0396-4567-9dd1-7257b842a7e3","system_id":"levelo_inurba_marseille","lat":43.29842,"lon":5.36286,"is_reserved":false,"is_disabled":false,"rental_uris":{"android":"levelo://app?vid=60e5d882-0396-4567-9dd1-7257b842a7e3","ios":"levelo://app?vid=60e5d882-0396-4567-9dd1-7257b842a7e3"},"vehicle_type_id":"4","last_reported":1729346846,"current_range_meters":38800,"station_id":"ce4bgpp2rcd13ifvqc3g","pricing_plan_id":"cebpf4jnsgd1na2vs0mg"},{"bike_id":"aab499c6-7b5d-4e02-9152-1270a38c8306","system_id":"levelo_inurba_marseille","lat":43.22929,"lon":5.35378,"is_reserved":false,"is_disabled":false,"rental_uris":{"android":"levelo://app?vid=aab499c6-7b5d-4e02-9152-1270a38c8306","ios":"levelo://app?vid=aab499c6-7b5d-4e02-9152-1270a38c8306"},"vehicle_type_id":"4","last_reported":1729346846,"current_range_meters":12400,"station_id":"cpo3532slgdg3j2ikp40","pricing_plan_id":"cebpf4jnsgd1na2vs0mg"},{"bike_id":"fca9888e-0062-46d4-8de4-bdf4073aa16f","system_id":"levelo_inurba_marseille","lat":43.31364,"lon":5.38503,"is_reserved":false,"is_disabled":false,"rental_uris":{"android":"levelo://app?vid=fca9888e-0062-46d4-8de4-bdf4073aa16f","ios":"levelo://app?vid=fca9888e-0062-46d4-8de4-bdf4073aa16f"},"vehicle_type_id":"4","last_reported":1729346846,"current_range_meters":16800,"station_id":"ce4bgt92rcd13ifvqcf0","pricing_plan_id":"cebpf4jnsgd1na2vs0mg"},{"bike_id":"62679cc5-0d2d-4ace-abc4-366c100478ff","system_id":"levelo_inurba_marseille","lat":43.31713,"lon":5.43717,"is_reserved":false,"is_disabled":false,"rental_uris":{"android":"levelo://app?vid=62679cc5-0d2d-4ace-abc4-366c100478ff","ios":"levelo://app?vid=62679cc5-0d2d-4ace-abc4-366c100478ff"},"vehicle_type_id":"4","last_reported":1729346846,"current_range_meters":38800,"station_id":"ce4bhp92rcd13ifvqhcg","pricing_plan_id":"cebpf4jnsgd1na2vs0mg"},{"bike_id":"7c7854d7-c673-43ba-8a24-24e33b14586d","system_id":"levelo_inurba_marseille","lat":43.27171,"lon":5.40992,"is_reserved":false,"is_disabled":false,"rental_uris":{"android":"levelo://app?vid=7c7854d7-c673-43ba-8a24-24e33b14586d","ios":"levelo://app?vid=7c7854d7-c673-43ba-8a24-24e33b14586d"},"vehicle_type_id":"4","last_reported":1729346846,"current_range_meters":16000,"station_id":"ce4bhl12rcd13ifvqgf0","pricing_plan_id":"cebpf4jnsgd1na2vs0mg"},{"bike_id":"e0969943-1274-46e8-b737-c8169b66bb25","system_id":"levelo_inurba_marseille","lat":43.29007,"lon":5.35609,"is_reserved":false,"is_disabled":false,"rental_uris":{"android":"levelo://app?vid=e0969943-1274-46e8-b737-c8169b66bb25","ios":"levelo://app?vid=e0969943-1274-46e8-b737-c8169b66bb25"},"vehicle_type_id":"4","last_reported":1729346846,"current_range_meters":36800,"station_id":"ce4bhb92rcd13ifvqen0","pricing_plan_id":"cebpf4jnsgd1na2vs0mg"},{"bike_id":"2075d8e1-9e04-450e-85cd-cdedb5b38038","system_id":"levelo_inurba_marseille","lat":43.27994,"lon":5.4166,"is_reserved":false,"is_disabled":false,"rental_uris":{"android":"levelo://app?vid=2075d8e1-9e04-450e-85cd-cdedb5b38038","ios":"levelo://app?vid=2075d8e1-9e04-450e-85cd-cdedb5b38038"},"vehicle_type_id":"4","last_reported":1729346846,"current_range_meters":33600,"station_id":"ce4bho12rcd13ifvqh1g","pricing_plan_id":"cebpf4jnsgd1na2vs0mg"},{"bike_id":"f7a24b2f-5943-4824-83d0-3767d391605f","system_id":"levelo_inurba_marseille","lat":43.29837,"lon":5.36274,"is_reserved":false,"is_disabled":false,"rental_uris":{"android":"levelo://app?vid=f7a24b2f-5943-4824-83d0-3767d391605f","ios":"levelo://app?vid=f7a24b2f-5943-4824-83d0-3767d391605f"},"vehicle_type_id":"4","last_reported":1729346846,"current_range_meters":38800,"station_id":"ce4bgpp2rcd13ifvqc3g","pricing_plan_id":"cebpf4jnsgd1na2vs0mg"},{"bike_id":"375f02ef-4905-4da0-aa98-04d9c6c8f603","system_id":"levelo_inurba_marseille","lat":43.23068,"lon":5.35496,"is_reserved":false,"is_disabled":false,"rental_uris":{"android":"levelo://app?vid=375f02ef-4905-4da0-aa98-04d9c6c8f603","ios":"levelo://app?vid=375f02ef-4905-4da0-aa98-04d9c6c8f603"},"vehicle_type_id":"4","last_reported":1729346846,"current_range_meters":11600,"station_id":"cpo3342slgdg3j2ifvpg","pricing_plan_id":"cebpf4jnsgd1na2vs0mg"},{"bike_id":"72bb23b9-c1fe-417e-82d4-6a781c281034","system_id":"levelo_inurba_marseille","lat":43.24668,"lon":5.38166,"is_reserved":false,"is_disabled":false,"rental_uris":{"android":"levelo://app?vid=72bb23b9-c1fe-417e-82d4-6a781c281034","ios":"levelo://app?vid=72bb23b9-c1fe-417e-82d4-6a781c281034"},"vehicle_type_id":"4","last_reported":1729346846,"current_range_meters":8800,"station_id":"ce4bhih2rcd13ifvqfr0","pricing_plan_id":"cebpf4jnsgd1na2vs0mg"},{"bike_id":"067193b3-5c80-4bd0-bba0-f83eb46c9371","system_id":"levelo_inurba_marseille","lat":43.23195,"lon":5.35556,"is_reserved":false,"is_disabled":false,"rental_uris":{"android":"levelo://app?vid=067193b3-5c80-4bd0-bba0-f83eb46c9371","ios":"levelo://app?vid=067193b3-5c80-4bd0-bba0-f83eb46c9371"},"vehicle_type_id":"4","last_reported":1729346846,"current_range_meters":32400,"station_id":"ce4bhu92rcd13ifvqi70","pricing_plan_id":"cebpf4jnsgd1na2vs0mg"},{"bike_id":"156b9ee5-78bf-4137-a27d-4ba9a8f4894f","system_id":"levelo_inurba_marseille","lat":43.27887,"lon":5.381925,"is_reserved":false,"is_disabled":false,"rental_uris":{"android":"levelo://app?vid=156b9ee5-78bf-4137-a27d-4ba9a8f4894f","ios":"levelo://app?vid=156b9ee5-78bf-4137-a27d-4ba9a8f4894f"},"vehicle_type_id":"4","last_reported":1729346846,"current_range_meters":30400,"station_id":"ce4bhf92rcd13ifvqf50","pricing_plan_id":"cebpf4jnsgd1na2vs0mg"},{"bike_id":"b1a2c6e6-7b52-4910-af67-0edd71c1da54","system_id":"levelo_inurba_marseille","lat":43.2842,"lon":5.3499,"is_reserved":false,"is_disabled":false,"rental_uris":{"android":"levelo://app?vid=b1a2c6e6-7b52-4910-af67-0edd71c1da54","ios":"levelo://app?vid=b1a2c6e6-7b52-4910-af67-0edd71c1da54"},"vehicle_type_id":"4","last_reported":1729346846,"current_range_meters":15200,"station_id":"ce4bhbh2rcd13ifvqepg","pricing_plan_id":"cebpf4jnsgd1na2vs0mg"},{"bike_id":"ec67926a-50f2-4363-917c-d4f8de72df43","system_id":"levelo_inurba_marseille","lat":43.29933,"lon":5.36556,"is_reserved":false,"is_disabled":false,"rental_uris":{"android":"levelo://app?vid=ec67926a-50f2-4363-917c-d4f8de72df43","ios":"levelo://app?vid=ec67926a-50f2-4363-917c-d4f8de72df43"},"vehicle_type_id":"4","last_reported":1729346846,"current_range_meters":3200,"station_id":"ce4bgm92rcd13ifvqbr0","pricing_plan_id":"cebpf4jnsgd1na2vs0mg"},{"bike_id":"5c8bbd84-8758-4a25-9ade-cf9d994fe2df","system_id":"levelo_inurba_marseille","lat":43.29581,"lon":5.36739,"is_reserved":false,"is_disabled":false,"rental_uris":{"android":"levelo://app?vid=5c8bbd84-8758-4a25-9ade-cf9d994fe2df","ios":"levelo://app?vid=5c8bbd84-8758-4a25-9ade-cf9d994fe2df"},"vehicle_type_id":"4","last_reported":1729346846,"current_range_meters":24000,"station_id":"ce4bgph2rcd13ifvqc2g","pricing_plan_id":"cebpf4jnsgd1na2vs0mg"},{"bike_id":"5ab0a8eb-9e4c-4bff-a3d8-1f87848344a4","system_id":"levelo_inurba_marseille","lat":43.30913,"lon":5.36839,"is_reserved":false,"is_disabled":false,"rental_uris":{"android":"levelo://app?vid=5ab0a8eb-9e4c-4bff-a3d8-1f87848344a4","ios":"levelo://app?vid=5ab0a8eb-9e4c-4bff-a3d8-1f87848344a4"},"vehicle_type_id":"4","last_reported":1729346846,"current_range_meters":35600,"station_id":"ce4bgn92rcd13ifvqbvg","pricing_plan_id":"cebpf4jnsgd1na2vs0mg"},{"bike_id":"be39e6f4-a184-431b-9d36-0e11ef597aec","system_id":"levelo_inurba_marseille","lat":43.3372,"lon":5.39186,"is_reserved":false,"is_disabled":false,"rental_uris":{"android":"levelo://app?vid=be39e6f4-a184-431b-9d36-0e11ef597aec","ios":"levelo://app?vid=be39e6f4-a184-431b-9d36-0e11ef597aec"},"vehicle_type_id":"4","last_reported":1729346846,"current_range_meters":8000,"station_id":"ce4bhr92rcd13ifvqhsg","pricing_plan_id":"cebpf4jnsgd1na2vs0mg"},{"bike_id":"a50da574-03c5-475b-b6c5-e3885a5b2ef0","system_id":"levelo_inurba_marseille","lat":43.28152,"lon":5.42635,"is_reserved":false,"is_disabled":false,"rental_uris":{"android":"levelo://app?vid=a50da574-03c5-475b-b6c5-e3885a5b2ef0","ios":"levelo://app?vid=a50da574-03c5-475b-b6c5-e3885a5b2ef0"},"vehicle_type_id":"4","last_reported":1729346846,"current_range_meters":22800,"station_id":"ce4bhnh2rcd13ifvqgug","pricing_plan_id":"cebpf4jnsgd1na2vs0mg"},{"bike_id":"006bbfd0-294d-4716-b026-030ad88cf679","system_id":"levelo_inurba_marseille","lat":43.24387,"lon":5.37065,"is_reserved":false,"is_disabled":false,"rental_uris":{"android":"levelo://app?vid=006bbfd0-294d-4716-b026-030ad88cf679","ios":"levelo://app?vid=006bbfd0-294d-4716-b026-030ad88cf679"},"vehicle_type_id":"4","last_reported":1729346846,"current_range_meters":39200,"station_id":"ce4bhhh2rcd13ifvqfk0","pricing_plan_id":"cebpf4jnsgd1na2vs0mg"},{"bike_id":"7b5164b4-90cc-41bc-a797-681402c746de","system_id":"levelo_inurba_marseille","lat":43.24994,"lon":5.38934,"is_reserved":false,"is_disabled":false,"rental_uris":{"android":"levelo://app?vid=7b5164b4-90cc-41bc-a797-681402c746de","ios":"levelo://app?vid=7b5164b4-90cc-41bc-a797-681402c746de"},"vehicle_type_id":"4","last_reported":1729346846,"current_range_meters":39200,"station_id":"ce4bhgp2rcd13ifvqfd0","pricing_plan_id":"cebpf4jnsgd1na2vs0mg"},{"bike_id":"dac8cba7-5de1-474c-a699-b3a18991abf2","system_id":"levelo_inurba_marseille","lat":43.27619,"lon":5.3611,"is_reserved":false,"is_disabled":false,"rental_uris":{"android":"levelo://app?vid=dac8cba7-5de1-474c-a699-b3a18991abf2","ios":"levelo://app?vid=dac8cba7-5de1-474c-a699-b3a18991abf2"},"vehicle_type_id":"4","last_reported":1729346846,"current_range_meters":19200,"station_id":"ce4bgj92rcd13ifvqbe0","pricing_plan_id":"cebpf4jnsgd1na2vs0mg"},{"bike_id":"0fdcade4-cbec-4211-a7aa-a8ab14d0aeae","system_id":"levelo_inurba_marseille","lat":43.28727,"lon":5.37941,"is_reserved":false,"is_disabled":false,"rental_uris":{"android":"levelo://app?vid=0fdcade4-cbec-4211-a7aa-a8ab14d0aeae","ios":"levelo://app?vid=0fdcade4-cbec-4211-a7aa-a8ab14d0aeae"},"vehicle_type_id":"4","last_reported":1729346846,"current_range_meters":8800,"station_id":"ce4bh9p2rcd13ifvqec0","pricing_plan_id":"cebpf4jnsgd1na2vs0mg"},{"bike_id":"9ed5e780-1747-49eb-af5a-3bde359b733d","system_id":"levelo_inurba_marseille","lat":43.289246,"lon":5.383965,"is_reserved":false,"is_disabled":false,"rental_uris":{"android":"levelo://app?vid=9ed5e780-1747-49eb-af5a-3bde359b733d","ios":"levelo://app?vid=9ed5e780-1747-49eb-af5a-3bde359b733d"},"vehicle_type_id":"4","last_reported":1729346846,"current_range_meters":28400,"station_id":"ce4bh612rcd13ifvqe6g","pricing_plan_id":"cebpf4jnsgd1na2vs0mg"},{"bike_id":"dd36401a-83be-4ce2-851c-12296c074af5","system_id":"levelo_inurba_marseille","lat":43.25506,"lon":5.37654,"is_reserved":false,"is_disabled":false,"rental_uris":{"android":"levelo://app?vid=dd36401a-83be-4ce2-851c-12296c074af5","ios":"levelo://app?vid=dd36401a-83be-4ce2-851c-12296c074af5"},"vehicle_type_id":"4","last_reported":1729346846,"current_range_meters":21600,"station_id":"ce4bhh12rcd13ifvqff0","pricing_plan_id":"cebpf4jnsgd1na2vs0mg"},{"bike_id":"8d34303e-b61a-4e3e-acaf-b771f7d0bcc0","system_id":"levelo_inurba_marseille","lat":43.295921,"lon":5.380883,"is_reserved":false,"is_disabled":false,"rental_uris":{"android":"levelo://app?vid=8d34303e-b61a-4e3e-acaf-b771f7d0bcc0","ios":"levelo://app?vid=8d34303e-b61a-4e3e-acaf-b771f7d0bcc0"},"vehicle_type_id":"4","last_reported":1729346846,"current_range_meters":5600,"station_id":"ce4bgl12rcd13ifvqbo0","pricing_plan_id":"cebpf4jnsgd1na2vs0mg"},{"bike_id":"d6b12c6f-9549-4125-9738-5b87a0ced352","system_id":"levelo_inurba_marseille","lat":43.29854,"lon":5.36305,"is_reserved":false,"is_disabled":false,"rental_uris":{"android":"levelo://app?vid=d6b12c6f-9549-4125-9738-5b87a0ced352","ios":"levelo://app?vid=d6b12c6f-9549-4125-9738-5b87a0ced352"},"vehicle_type_id":"4","last_reported":1729346846,"current_range_meters":38000,"station_id":"ce4bgpp2rcd13ifvqc3g","pricing_plan_id":"cebpf4jnsgd1na2vs0mg"},{"bike_id":"723e6171-f0c2-4d86-9524-4220ac9fcc01","system_id":"levelo_inurba_marseille","lat":43.25581,"lon":5.38245,"is_reserved":false,"is_disabled":false,"rental_uris":{"android":"levelo://app?vid=723e6171-f0c2-4d86-9524-4220ac9fcc01","ios":"levelo://app?vid=723e6171-f0c2-4d86-9524-4220ac9fcc01"},"vehicle_type_id":"4","last_reported":1729346846,"current_range_meters":24800,"station_id":"ce4bhih2rcd13ifvqfs0","pricing_plan_id":"cebpf4jnsgd1na2vs0mg"},{"bike_id":"6e833979-caf3-49bf-bb23-ac2d8a368ed3","system_id":"levelo_inurba_marseille","lat":43.26492,"lon":5.39554,"is_reserved":false,"is_disabled":false,"rental_uris":{"android":"levelo://app?vid=6e833979-caf3-49bf-bb23-ac2d8a368ed3","ios":"levelo://app?vid=6e833979-caf3-49bf-bb23-ac2d8a368ed3"},"vehicle_type_id":"4","last_reported":1729346846,"current_range_meters":37600,"station_id":"ce4bhi12rcd13ifvqfq0","pricing_plan_id":"cebpf4jnsgd1na2vs0mg"},{"bike_id":"4e75b40e-a7bf-4b9a-887d-11ce9440a48e","system_id":"levelo_inurba_marseille","lat":43.24082,"lon":5.37747,"is_reserved":false,"is_disabled":false,"rental_uris":{"android":"levelo://app?vid=4e75b40e-a7bf-4b9a-887d-11ce9440a48e","ios":"levelo://app?vid=4e75b40e-a7bf-4b9a-887d-11ce9440a48e"},"vehicle_type_id":"4","last_reported":1729346846,"current_range_meters":35600,"station_id":"ce4bhnp2rcd13ifvqgvg","pricing_plan_id":"cebpf4jnsgd1na2vs0mg"},{"bike_id":"c1271077-f438-49ec-b0e3-b78240cb6bb4","system_id":"levelo_inurba_marseille","lat":43.27419,"lon":5.39411,"is_reserved":false,"is_disabled":false,"rental_uris":{"android":"levelo://app?vid=c1271077-f438-49ec-b0e3-b78240cb6bb4","ios":"levelo://app?vid=c1271077-f438-49ec-b0e3-b78240cb6bb4"},"vehicle_type_id":"4","last_reported":1729346846,"current_range_meters":8400,"station_id":"ce4bhdp2rcd13ifvqf20","pricing_plan_id":"cebpf4jnsgd1na2vs0mg"},{"bike_id":"be2bbaa1-f672-4dc8-a1c0-85466066b76d","system_id":"levelo_inurba_marseille","lat":43.23196,"lon":5.35553,"is_reserved":false,"is_disabled":false,"rental_uris":{"android":"levelo://app?vid=be2bbaa1-f672-4dc8-a1c0-85466066b76d","ios":"levelo://app?vid=be2bbaa1-f672-4dc8-a1c0-85466066b76d"},"vehicle_type_id":"4","last_reported":1729346846,"current_range_meters":24000,"station_id":"ce4bhu92rcd13ifvqi70","pricing_plan_id":"cebpf4jnsgd1na2vs0mg"},{"bike_id":"5715e832-098d-4c62-8619-ea0204aa01d5","system_id":"levelo_inurba_marseille","lat":43.27066,"lon":5.42275,"is_reserved":false,"is_disabled":false,"rental_uris":{"android":"levelo://app?vid=5715e832-098d-4c62-8619-ea0204aa01d5","ios":"levelo://app?vid=5715e832-098d-4c62-8619-ea0204aa01d5"},"vehicle_type_id":"4","last_reported":1729346846,"current_range_meters":30000,"station_id":"ce4bhk92rcd13ifvqgb0","pricing_plan_id":"cebpf4jnsgd1na2vs0mg"},{"bike_id":"ff8541b5-ba1a-4a6a-8d3b-1e31cd7843e0","system_id":"levelo_inurba_marseille","lat":43.29011,"lon":5.35606,"is_reserved":false,"is_disabled":false,"rental_uris":{"android":"levelo://app?vid=ff8541b5-ba1a-4a6a-8d3b-1e31cd7843e0","ios":"levelo://app?vid=ff8541b5-ba1a-4a6a-8d3b-1e31cd7843e0"},"vehicle_type_id":"4","last_reported":1729346846,"current_range_meters":22000,"station_id":"ce4bhb92rcd13ifvqen0","pricing_plan_id":"cebpf4jnsgd1na2vs0mg"},{"bike_id":"1ba3c57d-fe8a-4cbb-b7ac-5af8e752d070","system_id":"levelo_inurba_marseille","lat":43.29845,"lon":5.36265,"is_reserved":false,"is_disabled":false,"rental_uris":{"android":"levelo://app?vid=1ba3c57d-fe8a-4cbb-b7ac-5af8e752d070","ios":"levelo://app?vid=1ba3c57d-fe8a-4cbb-b7ac-5af8e752d070"},"vehicle_type_id":"4","last_reported":1729346846,"current_range_meters":39200,"station_id":"ce4bgpp2rcd13ifvqc3g","pricing_plan_id":"cebpf4jnsgd1na2vs0mg"},{"bike_id":"b3e964b1-e94c-4054-b5ce-54627364fa06","system_id":"levelo_inurba_marseille","lat":43.28276,"lon":5.35067,"is_reserved":false,"is_disabled":false,"rental_uris":{"android":"levelo://app?vid=b3e964b1-e94c-4054-b5ce-54627364fa06","ios":"levelo://app?vid=b3e964b1-e94c-4054-b5ce-54627364fa06"},"vehicle_type_id":"4","last_reported":1729346846,"current_range_meters":13600,"station_id":"ce4bhbp2rcd13ifvqerg","pricing_plan_id":"cebpf4jnsgd1na2vs0mg"},{"bike_id":"653344d8-2cf3-46ef-845c-7a41bd4051bc","system_id":"levelo_inurba_marseille","lat":43.28149,"lon":5.42643,"is_reserved":false,"is_disabled":false,"rental_uris":{"android":"levelo://app?vid=653344d8-2cf3-46ef-845c-7a41bd4051bc","ios":"levelo://app?vid=653344d8-2cf3-46ef-845c-7a41bd4051bc"},"vehicle_type_id":"4","last_reported":1729346846,"current_range_meters":19600,"station_id":"ce4bhnh2rcd13ifvqgug","pricing_plan_id":"cebpf4jnsgd1na2vs0mg"},{"bike_id":"9a93070e-9c71-4520-9b55-d0f2c6203bac","system_id":"levelo_inurba_marseille","lat":43.30781,"lon":5.37659,"is_reserved":false,"is_disabled":false,"rental_uris":{"android":"levelo://app?vid=9a93070e-9c71-4520-9b55-d0f2c6203bac","ios":"levelo://app?vid=9a93070e-9c71-4520-9b55-d0f2c6203bac"},"vehicle_type_id":"4","last_reported":1729346846,"current_range_meters":2800,"station_id":"ce4bgv92rcd13ifvqcq0","pricing_plan_id":"cebpf4jnsgd1na2vs0mg"},{"bike_id":"3a9ad783-da4d-428b-9943-4ad642698128","system_id":"levelo_inurba_marseille","lat":43.31272,"lon":5.40176,"is_reserved":false,"is_disabled":false,"rental_uris":{"android":"levelo://app?vid=3a9ad783-da4d-428b-9943-4ad642698128","ios":"levelo://app?vid=3a9ad783-da4d-428b-9943-4ad642698128"},"vehicle_type_id":"4","last_reported":1729346846,"current_range_meters":26800,"station_id":"ce4bh092rcd13ifvqd30","pricing_plan_id":"cebpf4jnsgd1na2vs0mg"},{"bike_id":"718142eb-abfd-4910-84c2-10127f6d8d88","system_id":"levelo_inurba_marseille","lat":43.23153,"lon":5.4372,"is_reserved":false,"is_disabled":false,"rental_uris":{"android":"levelo://app?vid=718142eb-abfd-4910-84c2-10127f6d8d88","ios":"levelo://app?vid=718142eb-abfd-4910-84c2-10127f6d8d88"},"vehicle_type_id":"4","last_reported":1729346846,"current_range_meters":20400,"station_id":"ce4bhmp2rcd13ifvqgog","pricing_plan_id":"cebpf4jnsgd1na2vs0mg"},{"bike_id":"b5eb90b1-5337-4044-ba14-38b280563deb","system_id":"levelo_inurba_marseille","lat":43.29014,"lon":5.35612,"is_reserved":false,"is_disabled":false,"rental_uris":{"android":"levelo://app?vid=b5eb90b1-5337-4044-ba14-38b280563deb","ios":"levelo://app?vid=b5eb90b1-5337-4044-ba14-38b280563deb"},"vehicle_type_id":"4","last_reported":1729346846,"current_range_meters":32400,"station_id":"ce4bhb92rcd13ifvqen0","pricing_plan_id":"cebpf4jnsgd1na2vs0mg"},{"bike_id":"a9d80141-cb04-4f88-bcc5-9763572e3517","system_id":"levelo_inurba_marseille","lat":43.23191,"lon":5.35546,"is_reserved":false,"is_disabled":false,"rental_uris":{"android":"levelo://app?vid=a9d80141-cb04-4f88-bcc5-9763572e3517","ios":"levelo://app?vid=a9d80141-cb04-4f88-bcc5-9763572e3517"},"vehicle_type_id":"4","last_reported":1729346846,"current_range_meters":24000,"station_id":"ce4bhu92rcd13ifvqi70","pricing_plan_id":"cebpf4jnsgd1na2vs0mg"},{"bike_id":"6bb6eaea-6464-4250-8b65-6f9c52c53a3f","system_id":"levelo_inurba_marseille","lat":43.31728,"lon":5.42395,"is_reserved":false,"is_disabled":false,"rental_uris":{"android":"levelo://app?vid=6bb6eaea-6464-4250-8b65-6f9c52c53a3f","ios":"levelo://app?vid=6bb6eaea-6464-4250-8b65-6f9c52c53a3f"},"vehicle_type_id":"4","last_reported":1729346846,"current_range_meters":38000,"station_id":"ce4bhp92rcd13ifvqhbg","pricing_plan_id":"cebpf4jnsgd1na2vs0mg"},{"bike_id":"92ff8359-5c7f-4f3e-9ee9-02895e762538","system_id":"levelo_inurba_marseille","lat":43.24169,"lon":5.36395,"is_reserved":false,"is_disabled":false,"rental_uris":{"android":"levelo://app?vid=92ff8359-5c7f-4f3e-9ee9-02895e762538","ios":"levelo://app?vid=92ff8359-5c7f-4f3e-9ee9-02895e762538"},"vehicle_type_id":"4","last_reported":1729346846,"current_range_meters":22400,"station_id":"cpo36qri1sfpv3e86is0","pricing_plan_id":"cebpf4jnsgd1na2vs0mg"},{"bike_id":"36a0cdb0-c033-4f9e-9fd4-1910a5064b1c","system_id":"levelo_inurba_marseille","lat":43.28275,"lon":5.35066,"is_reserved":false,"is_disabled":false,"rental_uris":{"android":"levelo://app?vid=36a0cdb0-c033-4f9e-9fd4-1910a5064b1c","ios":"levelo://app?vid=36a0cdb0-c033-4f9e-9fd4-1910a5064b1c"},"vehicle_type_id":"4","last_reported":1729346846,"current_range_meters":27600,"station_id":"ce4bhbp2rcd13ifvqerg","pricing_plan_id":"cebpf4jnsgd1na2vs0mg"},{"bike_id":"428472c6-a1b2-43d4-afec-d2ca00f0d134","system_id":"levelo_inurba_marseille","lat":43.28273,"lon":5.35065,"is_reserved":false,"is_disabled":false,"rental_uris":{"android":"levelo://app?vid=428472c6-a1b2-43d4-afec-d2ca00f0d134","ios":"levelo://app?vid=428472c6-a1b2-43d4-afec-d2ca00f0d134"},"vehicle_type_id":"4","last_reported":1729346846,"current_range_meters":6800,"station_id":"ce4bhbp2rcd13ifvqerg","pricing_plan_id":"cebpf4jnsgd1na2vs0mg"},{"bike_id":"c9bf36b3-0190-480f-9d47-ca55ed1ea5cb","system_id":"levelo_inurba_marseille","lat":43.32133,"lon":5.37007,"is_reserved":false,"is_disabled":false,"rental_uris":{"android":"levelo://app?vid=c9bf36b3-0190-480f-9d47-ca55ed1ea5cb","ios":"levelo://app?vid=c9bf36b3-0190-480f-9d47-ca55ed1ea5cb"},"vehicle_type_id":"4","last_reported":1729346846,"current_range_meters":24000,"station_id":"","pricing_plan_id":"cebpf4jnsgd1na2vs0mg"},{"bike_id":"a143e650-0cfe-4d42-bb40-5fd1075a4f52","system_id":"levelo_inurba_marseille","lat":43.23178,"lon":5.39998,"is_reserved":false,"is_disabled":false,"rental_uris":{"android":"levelo://app?vid=a143e650-0cfe-4d42-bb40-5fd1075a4f52","ios":"levelo://app?vid=a143e650-0cfe-4d42-bb40-5fd1075a4f52"},"vehicle_type_id":"4","last_reported":1729346846,"current_range_meters":8000,"station_id":"ce4bhn12rcd13ifvqgqg","pricing_plan_id":"cebpf4jnsgd1na2vs0mg"},{"bike_id":"67f3a430-a435-476c-9f14-03933430901e","system_id":"levelo_inurba_marseille","lat":43.23067,"lon":5.3549,"is_reserved":false,"is_disabled":false,"rental_uris":{"android":"levelo://app?vid=67f3a430-a435-476c-9f14-03933430901e","ios":"levelo://app?vid=67f3a430-a435-476c-9f14-03933430901e"},"vehicle_type_id":"4","last_reported":1729346846,"current_range_meters":30000,"station_id":"cpo3342slgdg3j2ifvpg","pricing_plan_id":"cebpf4jnsgd1na2vs0mg"},{"bike_id":"c448d391-cb2b-4e8e-a36a-f641e9acf129","system_id":"levelo_inurba_marseille","lat":43.299356,"lon":5.365617,"is_reserved":false,"is_disabled":false,"rental_uris":{"android":"levelo://app?vid=c448d391-cb2b-4e8e-a36a-f641e9acf129","ios":"levelo://app?vid=c448d391-cb2b-4e8e-a36a-f641e9acf129"},"vehicle_type_id":"4","last_reported":1729346846,"current_range_meters":17200,"station_id":"ce4bgm92rcd13ifvqbr0","pricing_plan_id":"cebpf4jnsgd1na2vs0mg"},{"bike_id":"cb06135c-570e-4ece-8fe7-190391cb20d8","system_id":"levelo_inurba_marseille","lat":43.30545,"lon":5.36536,"is_reserved":false,"is_disabled":false,"rental_uris":{"android":"levelo://app?vid=cb06135c-570e-4ece-8fe7-190391cb20d8","ios":"levelo://app?vid=cb06135c-570e-4ece-8fe7-190391cb20d8"},"vehicle_type_id":"4","last_reported":1729346846,"current_range_meters":15200,"station_id":"ce4bgs12rcd13ifvqcag","pricing_plan_id":"cebpf4jnsgd1na2vs0mg"},{"bike_id":"c4628d1d-3334-4f38-bcbd-549508c06198","system_id":"levelo_inurba_marseille","lat":43.32042,"lon":5.41566,"is_reserved":false,"is_disabled":false,"rental_uris":{"android":"levelo://app?vid=c4628d1d-3334-4f38-bcbd-549508c06198","ios":"levelo://app?vid=c4628d1d-3334-4f38-bcbd-549508c06198"},"vehicle_type_id":"4","last_reported":1729346846,"current_range_meters":37600,"station_id":"ce4bhq92rcd13ifvqhkg","pricing_plan_id":"cebpf4jnsgd1na2vs0mg"},{"bike_id":"2661bf78-d577-495a-b92c-a669ea67dff8","system_id":"levelo_inurba_marseille","lat":43.28263,"lon":5.35071,"is_reserved":false,"is_disabled":false,"rental_uris":{"android":"levelo://app?vid=2661bf78-d577-495a-b92c-a669ea67dff8","ios":"levelo://app?vid=2661bf78-d577-495a-b92c-a669ea67dff8"},"vehicle_type_id":"4","last_reported":1729346846,"current_range_meters":11600,"station_id":"ce4bhbp2rcd13ifvqerg","pricing_plan_id":"cebpf4jnsgd1na2vs0mg"},{"bike_id":"ed640bbe-af46-4cfa-83d6-b073983e5545","system_id":"levelo_inurba_marseille","lat":43.29832,"lon":5.36272,"is_reserved":false,"is_disabled":false,"rental_uris":{"android":"levelo://app?vid=ed640bbe-af46-4cfa-83d6-b073983e5545","ios":"levelo://app?vid=ed640bbe-af46-4cfa-83d6-b073983e5545"},"vehicle_type_id":"4","last_reported":1729346846,"current_range_meters":25600,"station_id":"ce4bgpp2rcd13ifvqc3g","pricing_plan_id":"cebpf4jnsgd1na2vs0mg"},{"bike_id":"f3a96a4d-bc6d-460f-a415-db98973047b8","system_id":"levelo_inurba_marseille","lat":43.29891,"lon":5.43668,"is_reserved":false,"is_disabled":false,"rental_uris":{"android":"levelo://app?vid=f3a96a4d-bc6d-460f-a415-db98973047b8","ios":"levelo://app?vid=f3a96a4d-bc6d-460f-a415-db98973047b8"},"vehicle_type_id":"4","last_reported":1729346846,"current_range_meters":39200,"station_id":"ce4bhpp2rcd13ifvqhfg","pricing_plan_id":"cebpf4jnsgd1na2vs0mg"},{"bike_id":"9fe8db15-0111-408d-8e77-5936a9d06147","system_id":"levelo_inurba_marseille","lat":43.23963,"lon":5.36642,"is_reserved":false,"is_disabled":false,"rental_uris":{"android":"levelo://app?vid=9fe8db15-0111-408d-8e77-5936a9d06147","ios":"levelo://app?vid=9fe8db15-0111-408d-8e77-5936a9d06147"},"vehicle_type_id":"4","last_reported":1729346846,"current_range_meters":31200,"station_id":"ce4bhi12rcd13ifvqfp0","pricing_plan_id":"cebpf4jnsgd1na2vs0mg"},{"bike_id":"1346ea84-ccfa-4dca-85a7-8858d05dcb2f","system_id":"levelo_inurba_marseille","lat":43.23183,"lon":5.39984,"is_reserved":false,"is_disabled":false,"rental_uris":{"android":"levelo://app?vid=1346ea84-ccfa-4dca-85a7-8858d05dcb2f","ios":"levelo://app?vid=1346ea84-ccfa-4dca-85a7-8858d05dcb2f"},"vehicle_type_id":"4","last_reported":1729346846,"current_range_meters":36400,"station_id":"ce4bhn12rcd13ifvqgqg","pricing_plan_id":"cebpf4jnsgd1na2vs0mg"},{"bike_id":"b2e64b1b-98c1-4de7-8308-cd49153e4c1e","system_id":"levelo_inurba_marseille","lat":43.31328,"lon":5.39698,"is_reserved":false,"is_disabled":false,"rental_uris":{"android":"levelo://app?vid=b2e64b1b-98c1-4de7-8308-cd49153e4c1e","ios":"levelo://app?vid=b2e64b1b-98c1-4de7-8308-cd49153e4c1e"},"vehicle_type_id":"4","last_reported":1729346846,"current_range_meters":38400,"station_id":"ce4bgvp2rcd13ifvqcu0","pricing_plan_id":"cebpf4jnsgd1na2vs0mg"},{"bike_id":"ef9c8e8a-1611-47d0-9040-86581a83e7cd","system_id":"levelo_inurba_marseille","lat":43.25579,"lon":5.38242,"is_reserved":false,"is_disabled":false,"rental_uris":{"android":"levelo://app?vid=ef9c8e8a-1611-47d0-9040-86581a83e7cd","ios":"levelo://app?vid=ef9c8e8a-1611-47d0-9040-86581a83e7cd"},"vehicle_type_id":"4","last_reported":1729346846,"current_range_meters":24800,"station_id":"ce4bhih2rcd13ifvqfs0","pricing_plan_id":"cebpf4jnsgd1na2vs0mg"},{"bike_id":"7b19321a-bcb0-4a64-ad67-0335f16a0570","system_id":"levelo_inurba_marseille","lat":43.29221,"lon":5.36076,"is_reserved":false,"is_disabled":false,"rental_uris":{"android":"levelo://app?vid=7b19321a-bcb0-4a64-ad67-0335f16a0570","ios":"levelo://app?vid=7b19321a-bcb0-4a64-ad67-0335f16a0570"},"vehicle_type_id":"4","last_reported":1729346846,"current_range_meters":36400,"station_id":"ce4bhbh2rcd13ifvqeqg","pricing_plan_id":"cebpf4jnsgd1na2vs0mg"},{"bike_id":"e2adbfcf-cfe2-4333-a8b6-318c99e79291","system_id":"levelo_inurba_marseille","lat":43.294,"lon":5.36665,"is_reserved":false,"is_disabled":false,"rental_uris":{"android":"levelo://app?vid=e2adbfcf-cfe2-4333-a8b6-318c99e79291","ios":"levelo://app?vid=e2adbfcf-cfe2-4333-a8b6-318c99e79291"},"vehicle_type_id":"4","last_reported":1729346846,"current_range_meters":31200,"station_id":"","pricing_plan_id":"cebpf4jnsgd1na2vs0mg"},{"bike_id":"8a61b0d3-96ba-49fc-af75-dd8176297036","system_id":"levelo_inurba_marseille","lat":43.23952,"lon":5.36629,"is_reserved":false,"is_disabled":false,"rental_uris":{"android":"levelo://app?vid=8a61b0d3-96ba-49fc-af75-dd8176297036","ios":"levelo://app?vid=8a61b0d3-96ba-49fc-af75-dd8176297036"},"vehicle_type_id":"4","last_reported":1729346846,"current_range_meters":16000,"station_id":"ce4bhi12rcd13ifvqfp0","pricing_plan_id":"cebpf4jnsgd1na2vs0mg"},{"bike_id":"07cf4eba-50b0-4283-ae2a-cc90dfe43a3a","system_id":"levelo_inurba_marseille","lat":43.305277,"lon":5.365523,"is_reserved":false,"is_disabled":false,"rental_uris":{"android":"levelo://app?vid=07cf4eba-50b0-4283-ae2a-cc90dfe43a3a","ios":"levelo://app?vid=07cf4eba-50b0-4283-ae2a-cc90dfe43a3a"},"vehicle_type_id":"4","last_reported":1729346846,"current_range_meters":33200,"station_id":"ce4bgs12rcd13ifvqcag","pricing_plan_id":"cebpf4jnsgd1na2vs0mg"},{"bike_id":"4411742c-e4a0-464d-9251-cb80401b2850","system_id":"levelo_inurba_marseille","lat":43.27075,"lon":5.42283,"is_reserved":false,"is_disabled":false,"rental_uris":{"android":"levelo://app?vid=4411742c-e4a0-464d-9251-cb80401b2850","ios":"levelo://app?vid=4411742c-e4a0-464d-9251-cb80401b2850"},"vehicle_type_id":"4","last_reported":1729346846,"current_range_meters":12400,"station_id":"ce4bhk92rcd13ifvqgb0","pricing_plan_id":"cebpf4jnsgd1na2vs0mg"},{"bike_id":"3643b16b-6daa-48ed-9d2d-3619ab33a87a","system_id":"levelo_inurba_marseille","lat":43.28274,"lon":5.35081,"is_reserved":false,"is_disabled":false,"rental_uris":{"android":"levelo://app?vid=3643b16b-6daa-48ed-9d2d-3619ab33a87a","ios":"levelo://app?vid=3643b16b-6daa-48ed-9d2d-3619ab33a87a"},"vehicle_type_id":"4","last_reported":1729346846,"current_range_meters":16400,"station_id":"ce4bhbp2rcd13ifvqerg","pricing_plan_id":"cebpf4jnsgd1na2vs0mg"},{"bike_id":"b655f0e5-9f54-4337-9f8f-e40c329da075","system_id":"levelo_inurba_marseille","lat":43.29327,"lon":5.37503,"is_reserved":false,"is_disabled":false,"rental_uris":{"android":"levelo://app?vid=b655f0e5-9f54-4337-9f8f-e40c329da075","ios":"levelo://app?vid=b655f0e5-9f54-4337-9f8f-e40c329da075"},"vehicle_type_id":"4","last_reported":1729346846,"current_range_meters":6800,"station_id":"ce4bgi12rcd13ifvqb70","pricing_plan_id":"cebpf4jnsgd1na2vs0mg"},{"bike_id":"5cc7e9b9-85de-46d0-81b3-f6bf8d219e67","system_id":"levelo_inurba_marseille","lat":43.24083,"lon":5.3777,"is_reserved":false,"is_disabled":false,"rental_uris":{"android":"levelo://app?vid=5cc7e9b9-85de-46d0-81b3-f6bf8d219e67","ios":"levelo://app?vid=5cc7e9b9-85de-46d0-81b3-f6bf8d219e67"},"vehicle_type_id":"4","last_reported":1729346846,"current_range_meters":38800,"station_id":"ce4bhnp2rcd13ifvqgvg","pricing_plan_id":"cebpf4jnsgd1na2vs0mg"},{"bike_id":"7b8f967f-c2b6-43e0-bada-17343d9a6f11","system_id":"levelo_inurba_marseille","lat":43.2827,"lon":5.35075,"is_reserved":false,"is_disabled":false,"rental_uris":{"android":"levelo://app?vid=7b8f967f-c2b6-43e0-bada-17343d9a6f11","ios":"levelo://app?vid=7b8f967f-c2b6-43e0-bada-17343d9a6f11"},"vehicle_type_id":"4","last_reported":1729346846,"current_range_meters":38800,"station_id":"ce4bhbp2rcd13ifvqerg","pricing_plan_id":"cebpf4jnsgd1na2vs0mg"},{"bike_id":"9bab8be3-50e5-40b9-b4ff-6596d5d83220","system_id":"levelo_inurba_marseille","lat":43.288696,"lon":5.359892,"is_reserved":false,"is_disabled":false,"rental_uris":{"android":"levelo://app?vid=9bab8be3-50e5-40b9-b4ff-6596d5d83220","ios":"levelo://app?vid=9bab8be3-50e5-40b9-b4ff-6596d5d83220"},"vehicle_type_id":"4","last_reported":1729346846,"current_range_meters":22400,"station_id":"cki0cbj6b192h4jlfktg","pricing_plan_id":"cebpf4jnsgd1na2vs0mg"},{"bike_id":"b7ae5965-da02-416d-a7c2-af372a0aa845","system_id":"levelo_inurba_marseille","lat":43.28335,"lon":5.424,"is_reserved":false,"is_disabled":false,"rental_uris":{"android":"levelo://app?vid=b7ae5965-da02-416d-a7c2-af372a0aa845","ios":"levelo://app?vid=b7ae5965-da02-416d-a7c2-af372a0aa845"},"vehicle_type_id":"4","last_reported":1729346846,"current_range_meters":8000,"station_id":"ce4bhnh2rcd13ifvqgug","pricing_plan_id":"cebpf4jnsgd1na2vs0mg"},{"bike_id":"ddcac861-3a1a-4cdf-8d91-8c0ebd2a878d","system_id":"levelo_inurba_marseille","lat":43.28268,"lon":5.35071,"is_reserved":false,"is_disabled":false,"rental_uris":{"android":"levelo://app?vid=ddcac861-3a1a-4cdf-8d91-8c0ebd2a878d","ios":"levelo://app?vid=ddcac861-3a1a-4cdf-8d91-8c0ebd2a878d"},"vehicle_type_id":"4","last_reported":1729346846,"current_range_meters":33200,"station_id":"ce4bhbp2rcd13ifvqerg","pricing_plan_id":"cebpf4jnsgd1na2vs0mg"},{"bike_id":"304a4f14-1c09-44f7-bc88-a1e5857f5c9b","system_id":"levelo_inurba_marseille","lat":43.29694,"lon":5.36599,"is_reserved":false,"is_disabled":false,"rental_uris":{"android":"levelo://app?vid=304a4f14-1c09-44f7-bc88-a1e5857f5c9b","ios":"levelo://app?vid=304a4f14-1c09-44f7-bc88-a1e5857f5c9b"},"vehicle_type_id":"4","last_reported":1729346846,"current_range_meters":35200,"station_id":"ce4bgn12rcd13ifvqbt0","pricing_plan_id":"cebpf4jnsgd1na2vs0mg"},{"bike_id":"9b78167b-ae5a-47c9-9d1b-58b45505fd1c","system_id":"levelo_inurba_marseille","lat":43.24165,"lon":5.36413,"is_reserved":false,"is_disabled":false,"rental_uris":{"android":"levelo://app?vid=9b78167b-ae5a-47c9-9d1b-58b45505fd1c","ios":"levelo://app?vid=9b78167b-ae5a-47c9-9d1b-58b45505fd1c"},"vehicle_type_id":"4","last_reported":1729346846,"current_range_meters":35600,"station_id":"cpo36qri1sfpv3e86is0","pricing_plan_id":"cebpf4jnsgd1na2vs0mg"},{"bike_id":"8c63052f-cf5a-418d-9c76-98cd2f487a21","system_id":"levelo_inurba_marseille","lat":43.28266,"lon":5.35063,"is_reserved":false,"is_disabled":false,"rental_uris":{"android":"levelo://app?vid=8c63052f-cf5a-418d-9c76-98cd2f487a21","ios":"levelo://app?vid=8c63052f-cf5a-418d-9c76-98cd2f487a21"},"vehicle_type_id":"4","last_reported":1729346846,"current_range_meters":22000,"station_id":"ce4bhbp2rcd13ifvqerg","pricing_plan_id":"cebpf4jnsgd1na2vs0mg"},{"bike_id":"85dacf13-9a9f-4486-b342-c3133bc249fa","system_id":"levelo_inurba_marseille","lat":43.29052,"lon":5.35912,"is_reserved":false,"is_disabled":false,"rental_uris":{"android":"levelo://app?vid=85dacf13-9a9f-4486-b342-c3133bc249fa","ios":"levelo://app?vid=85dacf13-9a9f-4486-b342-c3133bc249fa"},"vehicle_type_id":"4","last_reported":1729346846,"current_range_meters":38800,"station_id":"ce4bha92rcd13ifvqeg0","pricing_plan_id":"cebpf4jnsgd1na2vs0mg"},{"bike_id":"96c45d21-03ea-46ea-afa5-0c108eeb81d1","system_id":"levelo_inurba_marseille","lat":43.24994,"lon":5.38949,"is_reserved":false,"is_disabled":false,"rental_uris":{"android":"levelo://app?vid=96c45d21-03ea-46ea-afa5-0c108eeb81d1","ios":"levelo://app?vid=96c45d21-03ea-46ea-afa5-0c108eeb81d1"},"vehicle_type_id":"4","last_reported":1729346846,"current_range_meters":4000,"station_id":"ce4bhgp2rcd13ifvqfd0","pricing_plan_id":"cebpf4jnsgd1na2vs0mg"},{"bike_id":"8a470b71-46b1-4f9b-b0a4-5ea237d08554","system_id":"levelo_inurba_marseille","lat":43.26939,"lon":5.40257,"is_reserved":false,"is_disabled":false,"rental_uris":{"android":"levelo://app?vid=8a470b71-46b1-4f9b-b0a4-5ea237d08554","ios":"levelo://app?vid=8a470b71-46b1-4f9b-b0a4-5ea237d08554"},"vehicle_type_id":"4","last_reported":1729346846,"current_range_meters":37600,"station_id":"cjm6bp8fraef2m0cb0m0","pricing_plan_id":"cebpf4jnsgd1na2vs0mg"},{"bike_id":"4abd684e-2272-4a73-b8da-11dc8d30d8d5","system_id":"levelo_inurba_marseille","lat":43.25582,"lon":5.38238,"is_reserved":false,"is_disabled":false,"rental_uris":{"android":"levelo://app?vid=4abd684e-2272-4a73-b8da-11dc8d30d8d5","ios":"levelo://app?vid=4abd684e-2272-4a73-b8da-11dc8d30d8d5"},"vehicle_type_id":"4","last_reported":1729346846,"current_range_meters":39200,"station_id":"ce4bhih2rcd13ifvqfs0","pricing_plan_id":"cebpf4jnsgd1na2vs0mg"},{"bike_id":"c8fa6f39-e07d-463d-8d01-7ccf9e86f944","system_id":"levelo_inurba_marseille","lat":43.23187,"lon":5.35541,"is_reserved":false,"is_disabled":false,"rental_uris":{"android":"levelo://app?vid=c8fa6f39-e07d-463d-8d01-7ccf9e86f944","ios":"levelo://app?vid=c8fa6f39-e07d-463d-8d01-7ccf9e86f944"},"vehicle_type_id":"4","last_reported":1729346846,"current_range_meters":17200,"station_id":"ce4bhu92rcd13ifvqi70","pricing_plan_id":"cebpf4jnsgd1na2vs0mg"},{"bike_id":"e0a570b3-855d-4d6f-b873-02e718ee8273","system_id":"levelo_inurba_marseille","lat":43.302201,"lon":5.394725,"is_reserved":false,"is_disabled":false,"rental_uris":{"android":"levelo://app?vid=e0a570b3-855d-4d6f-b873-02e718ee8273","ios":"levelo://app?vid=e0a570b3-855d-4d6f-b873-02e718ee8273"},"vehicle_type_id":"4","last_reported":1729346846,"current_range_meters":30800,"station_id":"ce4bh0p2rcd13ifvqd70","pricing_plan_id":"cebpf4jnsgd1na2vs0mg"},{"bike_id":"ba63c8f2-3722-4724-9bde-c9f7d4c2124e","system_id":"levelo_inurba_marseille","lat":43.31505,"lon":5.37288,"is_reserved":false,"is_disabled":false,"rental_uris":{"android":"levelo://app?vid=ba63c8f2-3722-4724-9bde-c9f7d4c2124e","ios":"levelo://app?vid=ba63c8f2-3722-4724-9bde-c9f7d4c2124e"},"vehicle_type_id":"4","last_reported":1729346846,"current_range_meters":10800,"station_id":"ce4bgt12rcd13ifvqcd0","pricing_plan_id":"cebpf4jnsgd1na2vs0mg"},{"bike_id":"6e099ce7-6b7d-45fb-9ad5-e5f3d80e03f1","system_id":"levelo_inurba_marseille","lat":43.23964,"lon":5.36651,"is_reserved":false,"is_disabled":false,"rental_uris":{"android":"levelo://app?vid=6e099ce7-6b7d-45fb-9ad5-e5f3d80e03f1","ios":"levelo://app?vid=6e099ce7-6b7d-45fb-9ad5-e5f3d80e03f1"},"vehicle_type_id":"4","last_reported":1729346846,"current_range_meters":24400,"station_id":"ce4bhi12rcd13ifvqfp0","pricing_plan_id":"cebpf4jnsgd1na2vs0mg"},{"bike_id":"00460d5e-f1ea-463f-a8c6-54e674f17a14","system_id":"levelo_inurba_marseille","lat":43.30136,"lon":5.39865,"is_reserved":false,"is_disabled":false,"rental_uris":{"android":"levelo://app?vid=00460d5e-f1ea-463f-a8c6-54e674f17a14","ios":"levelo://app?vid=00460d5e-f1ea-463f-a8c6-54e674f17a14"},"vehicle_type_id":"4","last_reported":1729346846,"current_range_meters":0,"station_id":"ce4bh0h2rcd13ifvqd40","pricing_plan_id":"cebpf4jnsgd1na2vs0mg"},{"bike_id":"681ed7e2-7c90-4e4a-892a-67adc5d5a6bf","system_id":"levelo_inurba_marseille","lat":43.23957,"lon":5.3664,"is_reserved":false,"is_disabled":false,"rental_uris":{"android":"levelo://app?vid=681ed7e2-7c90-4e4a-892a-67adc5d5a6bf","ios":"levelo://app?vid=681ed7e2-7c90-4e4a-892a-67adc5d5a6bf"},"vehicle_type_id":"4","last_reported":1729346846,"current_range_meters":35200,"station_id":"ce4bhi12rcd13ifvqfp0","pricing_plan_id":"cebpf4jnsgd1na2vs0mg"},{"bike_id":"f2077dc7-39a3-4abc-bf3f-6445451c2671","system_id":"levelo_inurba_marseille","lat":43.24071,"lon":5.37763,"is_reserved":false,"is_disabled":false,"rental_uris":{"android":"levelo://app?vid=f2077dc7-39a3-4abc-bf3f-6445451c2671","ios":"levelo://app?vid=f2077dc7-39a3-4abc-bf3f-6445451c2671"},"vehicle_type_id":"4","last_reported":1729346846,"current_range_meters":38800,"station_id":"ce4bhnp2rcd13ifvqgvg","pricing_plan_id":"cebpf4jnsgd1na2vs0mg"},{"bike_id":"3b9f23cf-2047-4612-842f-6ad5af817045","system_id":"levelo_inurba_marseille","lat":43.24395,"lon":5.37073,"is_reserved":false,"is_disabled":false,"rental_uris":{"android":"levelo://app?vid=3b9f23cf-2047-4612-842f-6ad5af817045","ios":"levelo://app?vid=3b9f23cf-2047-4612-842f-6ad5af817045"},"vehicle_type_id":"4","last_reported":1729346846,"current_range_meters":21600,"station_id":"ce4bhhh2rcd13ifvqfk0","pricing_plan_id":"cebpf4jnsgd1na2vs0mg"},{"bike_id":"9d58dbd8-6654-4faa-8b9a-f1ce593ba85e","system_id":"levelo_inurba_marseille","lat":43.22934,"lon":5.35377,"is_reserved":false,"is_disabled":false,"rental_uris":{"android":"levelo://app?vid=9d58dbd8-6654-4faa-8b9a-f1ce593ba85e","ios":"levelo://app?vid=9d58dbd8-6654-4faa-8b9a-f1ce593ba85e"},"vehicle_type_id":"4","last_reported":1729346846,"current_range_meters":36400,"station_id":"cpo3532slgdg3j2ikp40","pricing_plan_id":"cebpf4jnsgd1na2vs0mg"},{"bike_id":"f42893aa-737b-4a55-9128-310d73383639","system_id":"levelo_inurba_marseille","lat":43.24388,"lon":5.37062,"is_reserved":false,"is_disabled":false,"rental_uris":{"android":"levelo://app?vid=f42893aa-737b-4a55-9128-310d73383639","ios":"levelo://app?vid=f42893aa-737b-4a55-9128-310d73383639"},"vehicle_type_id":"4","last_reported":1729346846,"current_range_meters":12800,"station_id":"ce4bhhh2rcd13ifvqfk0","pricing_plan_id":"cebpf4jnsgd1na2vs0mg"},{"bike_id":"53dbc4b8-ba09-4832-80f0-940bb323189f","system_id":"levelo_inurba_marseille","lat":43.22928,"lon":5.3538,"is_reserved":false,"is_disabled":false,"rental_uris":{"android":"levelo://app?vid=53dbc4b8-ba09-4832-80f0-940bb323189f","ios":"levelo://app?vid=53dbc4b8-ba09-4832-80f0-940bb323189f"},"vehicle_type_id":"4","last_reported":1729346846,"current_range_meters":26800,"station_id":"cpo3532slgdg3j2ikp40","pricing_plan_id":"cebpf4jnsgd1na2vs0mg"},{"bike_id":"ac320038-41f8-4872-9efc-1ddba5d45cfe","system_id":"levelo_inurba_marseille","lat":43.24545,"lon":5.39518,"is_reserved":false,"is_disabled":false,"rental_uris":{"android":"levelo://app?vid=ac320038-41f8-4872-9efc-1ddba5d45cfe","ios":"levelo://app?vid=ac320038-41f8-4872-9efc-1ddba5d45cfe"},"vehicle_type_id":"4","last_reported":1729346846,"current_range_meters":16400,"station_id":"ce4bhlp2rcd13ifvqgjg","pricing_plan_id":"cebpf4jnsgd1na2vs0mg"},{"bike_id":"a583aa03-3964-44e5-9ed9-b5f3bb5dba29","system_id":"levelo_inurba_marseille","lat":43.29958,"lon":5.41323,"is_reserved":false,"is_disabled":false,"rental_uris":{"android":"levelo://app?vid=a583aa03-3964-44e5-9ed9-b5f3bb5dba29","ios":"levelo://app?vid=a583aa03-3964-44e5-9ed9-b5f3bb5dba29"},"vehicle_type_id":"4","last_reported":1729346846,"current_range_meters":14400,"station_id":"ce4bhp12rcd13ifvqh9g","pricing_plan_id":"cebpf4jnsgd1na2vs0mg"},{"bike_id":"ffc1b40f-a551-4f08-84c2-89b2ecb4faee","system_id":"levelo_inurba_marseille","lat":43.23191,"lon":5.35556,"is_reserved":false,"is_disabled":false,"rental_uris":{"android":"levelo://app?vid=ffc1b40f-a551-4f08-84c2-89b2ecb4faee","ios":"levelo://app?vid=ffc1b40f-a551-4f08-84c2-89b2ecb4faee"},"vehicle_type_id":"4","last_reported":1729346846,"current_range_meters":23200,"station_id":"ce4bhu92rcd13ifvqi70","pricing_plan_id":"cebpf4jnsgd1na2vs0mg"},{"bike_id":"3c121247-add7-4205-82d4-7f178e01bf08","system_id":"levelo_inurba_marseille","lat":43.30543,"lon":5.36551,"is_reserved":false,"is_disabled":false,"rental_uris":{"android":"levelo://app?vid=3c121247-add7-4205-82d4-7f178e01bf08","ios":"levelo://app?vid=3c121247-add7-4205-82d4-7f178e01bf08"},"vehicle_type_id":"4","last_reported":1729346846,"current_range_meters":37600,"station_id":"ce4bgs12rcd13ifvqcag","pricing_plan_id":"cebpf4jnsgd1na2vs0mg"},{"bike_id":"d5b3c18d-9c42-4f1d-bd27-d99ab5de10c5","system_id":"levelo_inurba_marseille","lat":43.29842,"lon":5.36266,"is_reserved":false,"is_disabled":false,"rental_uris":{"android":"levelo://app?vid=d5b3c18d-9c42-4f1d-bd27-d99ab5de10c5","ios":"levelo://app?vid=d5b3c18d-9c42-4f1d-bd27-d99ab5de10c5"},"vehicle_type_id":"4","last_reported":1729346846,"current_range_meters":32800,"station_id":"ce4bgpp2rcd13ifvqc3g","pricing_plan_id":"cebpf4jnsgd1na2vs0mg"},{"bike_id":"3a9a1015-81aa-4fc3-adac-3ac17105cf1b","system_id":"levelo_inurba_marseille","lat":43.25504,"lon":5.37653,"is_reserved":false,"is_disabled":false,"rental_uris":{"android":"levelo://app?vid=3a9a1015-81aa-4fc3-adac-3ac17105cf1b","ios":"levelo://app?vid=3a9a1015-81aa-4fc3-adac-3ac17105cf1b"},"vehicle_type_id":"4","last_reported":1729346846,"current_range_meters":28000,"station_id":"ce4bhh12rcd13ifvqff0","pricing_plan_id":"cebpf4jnsgd1na2vs0mg"},{"bike_id":"b341ba22-0784-46bc-9f55-55dabd1b702d","system_id":"levelo_inurba_marseille","lat":43.28269,"lon":5.35072,"is_reserved":false,"is_disabled":false,"rental_uris":{"android":"levelo://app?vid=b341ba22-0784-46bc-9f55-55dabd1b702d","ios":"levelo://app?vid=b341ba22-0784-46bc-9f55-55dabd1b702d"},"vehicle_type_id":"4","last_reported":1729346846,"current_range_meters":25600,"station_id":"ce4bhbp2rcd13ifvqerg","pricing_plan_id":"cebpf4jnsgd1na2vs0mg"},{"bike_id":"3c229fe4-120c-470a-b462-d102b28f2de1","system_id":"levelo_inurba_marseille","lat":43.25583,"lon":5.38245,"is_reserved":false,"is_disabled":false,"rental_uris":{"android":"levelo://app?vid=3c229fe4-120c-470a-b462-d102b28f2de1","ios":"levelo://app?vid=3c229fe4-120c-470a-b462-d102b28f2de1"},"vehicle_type_id":"4","last_reported":1729346846,"current_range_meters":29600,"station_id":"ce4bhih2rcd13ifvqfs0","pricing_plan_id":"cebpf4jnsgd1na2vs0mg"},{"bike_id":"0120576e-b1f8-4cc7-9e30-ce8cf8a6a97f","system_id":"levelo_inurba_marseille","lat":43.29852,"lon":5.36295,"is_reserved":false,"is_disabled":false,"rental_uris":{"android":"levelo://app?vid=0120576e-b1f8-4cc7-9e30-ce8cf8a6a97f","ios":"levelo://app?vid=0120576e-b1f8-4cc7-9e30-ce8cf8a6a97f"},"vehicle_type_id":"4","last_reported":1729346846,"current_range_meters":30400,"station_id":"ce4bgpp2rcd13ifvqc3g","pricing_plan_id":"cebpf4jnsgd1na2vs0mg"},{"bike_id":"075b2f64-b7cc-4060-bc48-efbc8b5aa798","system_id":"levelo_inurba_marseille","lat":43.28421,"lon":5.34991,"is_reserved":false,"is_disabled":false,"rental_uris":{"android":"levelo://app?vid=075b2f64-b7cc-4060-bc48-efbc8b5aa798","ios":"levelo://app?vid=075b2f64-b7cc-4060-bc48-efbc8b5aa798"},"vehicle_type_id":"4","last_reported":1729346846,"current_range_meters":32000,"station_id":"ce4bhbh2rcd13ifvqepg","pricing_plan_id":"cebpf4jnsgd1na2vs0mg"},{"bike_id":"8779a9e7-be1d-4078-a566-2a3c8864eeeb","system_id":"levelo_inurba_marseille","lat":43.31713,"lon":5.43707,"is_reserved":false,"is_disabled":false,"rental_uris":{"android":"levelo://app?vid=8779a9e7-be1d-4078-a566-2a3c8864eeeb","ios":"levelo://app?vid=8779a9e7-be1d-4078-a566-2a3c8864eeeb"},"vehicle_type_id":"4","last_reported":1729346846,"current_range_meters":32800,"station_id":"ce4bhp92rcd13ifvqhcg","pricing_plan_id":"cebpf4jnsgd1na2vs0mg"},{"bike_id":"2f5a8e1c-8db0-40a3-899f-1d538b301e75","system_id":"levelo_inurba_marseille","lat":43.2319,"lon":5.39988,"is_reserved":false,"is_disabled":false,"rental_uris":{"android":"levelo://app?vid=2f5a8e1c-8db0-40a3-899f-1d538b301e75","ios":"levelo://app?vid=2f5a8e1c-8db0-40a3-899f-1d538b301e75"},"vehicle_type_id":"4","last_reported":1729346846,"current_range_meters":16400,"station_id":"ce4bhn12rcd13ifvqgqg","pricing_plan_id":"cebpf4jnsgd1na2vs0mg"},{"bike_id":"c9119563-5a43-4cfa-8596-4f328fa40aa4","system_id":"levelo_inurba_marseille","lat":43.23193,"lon":5.35565,"is_reserved":false,"is_disabled":false,"rental_uris":{"android":"levelo://app?vid=c9119563-5a43-4cfa-8596-4f328fa40aa4","ios":"levelo://app?vid=c9119563-5a43-4cfa-8596-4f328fa40aa4"},"vehicle_type_id":"4","last_reported":1729346846,"current_range_meters":10800,"station_id":"ce4bhu92rcd13ifvqi70","pricing_plan_id":"cebpf4jnsgd1na2vs0mg"},