{"last_updated":1778326809,"ttl":60,"version":"2.2","data":{"bikes":[{"bike_id":"ec2d5612-6f52-4d17-85e3-2888b69a71d6","system_id":"levelo_inurba_marseille","lat":43.31217,"lon":5.36844,"is_reserved":false,"is_disabled":false,"rental_uris":{"android":"levelo://app?vid=ec2d5612-6f52-4d17-85e3-2888b69a71d6","ios":"levelo://app?vid=ec2d5612-6f52-4d17-85e3-2888b69a71d6"},"vehicle_type_id":"4","last_reported":1778326809,"current_range_meters":2800,"station_id":"ce4bgl92rcd13ifvqbq0","pricing_plan_id":"cebpf4jnsgd1na2vs0mg"},{"bike_id":"bc7689e6-08ad-4ce6-b101-ffff1b93ca0c","system_id":"levelo_inurba_marseille","lat":43.29196,"lon":5.37118,"is_reserved":false,"is_disabled":false,"rental_uris":{"android":"levelo://app?vid=bc7689e6-08ad-4ce6-b101-ffff1b93ca0c","ios":"levelo://app?vid=bc7689e6-08ad-4ce6-b101-ffff1b93ca0c"},"vehicle_type_id":"4","last_reported":1778326809,"current_range_meters":2800,"station_id":"ce4bha92rcd13ifvqeh0","pricing_plan_id":"cebpf4jnsgd1na2vs0mg"},{"bike_id":"ac5248c1-4fa9-4b63-9686-5ac601b0f9b1","system_id":"levelo_inurba_marseille","lat":43.29956,"lon":5.3781,"is_reserved":false,"is_disabled":false,"rental_uris":{"android":"levelo://app?vid=ac5248c1-4fa9-4b63-9686-5ac601b0f9b1","ios":"levelo://app?vid=ac5248c1-4fa9-4b63-9686-5ac601b0f9b1"},"vehicle_type_id":"4","last_reported":1778326809,"current_range_meters":2800,"station_id":"","pricing_plan_id":"cebpf4jnsgd1na2vs0mg"},{"bike_id":"43b9c369-eec7-4801-b65c-0c3b3c87bd4f","system_id":"levelo_inurba_marseille","lat":43.33543,"lon":5.37467,"is_reserved":false,"is_disabled":false,"rental_uris":{"android":"levelo://app?vid=43b9c369-eec7-4801-b65c-0c3b3c87bd4f","ios":"levelo://app?vid=43b9c369-eec7-4801-b65c-0c3b3c87bd4f"},"vehicle_type_id":"4","last_reported":1778326809,"current_range_meters":2800,"station_id":"st_d46tts09ee8s73dlu43g","pricing_plan_id":"cebpf4jnsgd1na2vs0mg"},{"bike_id":"aea1a9e6-2a9b-4cba-bf25-1488f9d8a686","system_id":"levelo_inurba_marseille","lat":43.32491,"lon":5.38293,"is_reserved":false,"is_disabled":false,"rental_uris":{"android":"levelo://app?vid=aea1a9e6-2a9b-4cba-bf25-1488f9d8a686","ios":"levelo://app?vid=aea1a9e6-2a9b-4cba-bf25-1488f9d8a686"},"vehicle_type_id":"4","last_reported":1778326809,"current_range_meters":2800,"station_id":"st_d4asgbiv49dc73anf9m0","pricing_plan_id":"cebpf4jnsgd1na2vs0mg"},{"bike_id":"c59e1bd6-ece3-4e94-9308-3c08876ef280","system_id":"levelo_inurba_marseille","lat":43.26505,"lon":5.38936,"is_reserved":false,"is_disabled":false,"rental_uris":{"android":"levelo://app?vid=c59e1bd6-ece3-4e94-9308-3c08876ef280","ios":"levelo://app?vid=c59e1bd6-ece3-4e94-9308-3c08876ef280"},"vehicle_type_id":"4","last_reported":1778326809,"current_range_meters":2800,"station_id":"","pricing_plan_id":"cebpf4jnsgd1na2vs0mg"},{"bike_id":"054ce185-45c1-4b37-a3c4-c5b8ede779b8","system_id":"levelo_inurba_marseille","lat":43.31717,"lon":5.37726,"is_reserved":false,"is_disabled":false,"rental_uris":{"android":"levelo://app?vid=054ce185-45c1-4b37-a3c4-c5b8ede779b8","ios":"levelo://app?vid=054ce185-45c1-4b37-a3c4-c5b8ede779b8"},"vehicle_type_id":"4","last_reported":1778326809,"current_range_meters":2800,"station_id":"ce4bgth2rcd13ifvqch0","pricing_plan_id":"cebpf4jnsgd1na2vs0mg"},{"bike_id":"9c7f7c5a-6e1f-4adc-b2ea-f1b66f023f9c","system_id":"levelo_inurba_marseille","lat":43.31282,"lon":5.38335,"is_reserved":false,"is_disabled":false,"rental_uris":{"android":"levelo://app?vid=9c7f7c5a-6e1f-4adc-b2ea-f1b66f023f9c","ios":"levelo://app?vid=9c7f7c5a-6e1f-4adc-b2ea-f1b66f023f9c"},"vehicle_type_id":"4","last_reported":1778326809,"current_range_meters":2800,"station_id":"","pricing_plan_id":"cebpf4jnsgd1na2vs0mg"},{"bike_id":"286169c5-87ef-44d4-a01d-a455d3726bdf","system_id":"levelo_inurba_marseille","lat":43.2816,"lon":5.42619,"is_reserved":false,"is_disabled":false,"rental_uris":{"android":"levelo://app?vid=286169c5-87ef-44d4-a01d-a455d3726bdf","ios":"levelo://app?vid=286169c5-87ef-44d4-a01d-a455d3726bdf"},"vehicle_type_id":"4","last_reported":1778326809,"current_range_meters":2800,"station_id":"ce4bhnh2rcd13ifvqgug","pricing_plan_id":"cebpf4jnsgd1na2vs0mg"},{"bike_id":"1709f6c4-df38-4392-a22b-79877bea9f71","system_id":"levelo_inurba_marseille","lat":43.26236,"lon":5.39133,"is_reserved":false,"is_disabled":false,"rental_uris":{"android":"levelo://app?vid=1709f6c4-df38-4392-a22b-79877bea9f71","ios":"levelo://app?vid=1709f6c4-df38-4392-a22b-79877bea9f71"},"vehicle_type_id":"4","last_reported":1778326809,"current_range_meters":3200,"station_id":"","pricing_plan_id":"cebpf4jnsgd1na2vs0mg"},{"bike_id":"5f06a8a1-2ff5-4ac3-a16d-8044e5eff3c8","system_id":"levelo_inurba_marseille","lat":43.2397,"lon":5.39769,"is_reserved":false,"is_disabled":false,"rental_uris":{"android":"levelo://app?vid=5f06a8a1-2ff5-4ac3-a16d-8044e5eff3c8","ios":"levelo://app?vid=5f06a8a1-2ff5-4ac3-a16d-8044e5eff3c8"},"vehicle_type_id":"4","last_reported":1778326809,"current_range_meters":3200,"station_id":"","pricing_plan_id":"cebpf4jnsgd1na2vs0mg"},{"bike_id":"389e51a8-20ad-422b-936d-a4985239bf95","system_id":"levelo_inurba_marseille","lat":43.21196,"lon":5.35086,"is_reserved":false,"is_disabled":false,"rental_uris":{"android":"levelo://app?vid=389e51a8-20ad-422b-936d-a4985239bf95","ios":"levelo://app?vid=389e51a8-20ad-422b-936d-a4985239bf95"},"vehicle_type_id":"4","last_reported":1778326809,"current_range_meters":3200,"station_id":"st_cvj6sg6p6f1abm77japg","pricing_plan_id":"cebpf4jnsgd1na2vs0mg"},{"bike_id":"f9765471-797c-4251-b388-a11b5bbe30f0","system_id":"levelo_inurba_marseille","lat":43.33542,"lon":5.37456,"is_reserved":false,"is_disabled":false,"rental_uris":{"android":"levelo://app?vid=f9765471-797c-4251-b388-a11b5bbe30f0","ios":"levelo://app?vid=f9765471-797c-4251-b388-a11b5bbe30f0"},"vehicle_type_id":"4","last_reported":1778326809,"current_range_meters":3200,"station_id":"st_d46tts09ee8s73dlu43g","pricing_plan_id":"cebpf4jnsgd1na2vs0mg"},{"bike_id":"a4d39965-6f09-4078-b51b-ca074bfabc10","system_id":"levelo_inurba_marseille","lat":43.29846,"lon":5.36267,"is_reserved":false,"is_disabled":false,"rental_uris":{"android":"levelo://app?vid=a4d39965-6f09-4078-b51b-ca074bfabc10","ios":"levelo://app?vid=a4d39965-6f09-4078-b51b-ca074bfabc10"},"vehicle_type_id":"4","last_reported":1778326809,"current_range_meters":3200,"station_id":"ce4bgpp2rcd13ifvqc3g","pricing_plan_id":"cebpf4jnsgd1na2vs0mg"},{"bike_id":"461f9e7a-ee63-41c7-87ac-bb026a94e595","system_id":"levelo_inurba_marseille","lat":43.27943,"lon":5.37195,"is_reserved":false,"is_disabled":false,"rental_uris":{"android":"levelo://app?vid=461f9e7a-ee63-41c7-87ac-bb026a94e595","ios":"levelo://app?vid=461f9e7a-ee63-41c7-87ac-bb026a94e595"},"vehicle_type_id":"4","last_reported":1778326809,"current_range_meters":3200,"station_id":"","pricing_plan_id":"cebpf4jnsgd1na2vs0mg"},{"bike_id":"92d47218-2771-4776-a400-43c117101942","system_id":"levelo_inurba_marseille","lat":43.25087,"lon":5.39508,"is_reserved":false,"is_disabled":true,"rental_uris":{"android":"levelo://app?vid=92d47218-2771-4776-a400-43c117101942","ios":"levelo://app?vid=92d47218-2771-4776-a400-43c117101942"},"vehicle_type_id":"4","last_reported":1778326809,"current_range_meters":3200,"station_id":"ce4bhm12rcd13ifvqgkg","pricing_plan_id":"cebpf4jnsgd1na2vs0mg"},{"bike_id":"06ab7e03-6cc1-4519-8625-3652421fe315","system_id":"levelo_inurba_marseille","lat":43.33173,"lon":5.37672,"is_reserved":false,"is_disabled":false,"rental_uris":{"android":"levelo://app?vid=06ab7e03-6cc1-4519-8625-3652421fe315","ios":"levelo://app?vid=06ab7e03-6cc1-4519-8625-3652421fe315"},"vehicle_type_id":"4","last_reported":1778326809,"current_range_meters":3200,"station_id":"st_d46cu089ee8s73dldbu0","pricing_plan_id":"cebpf4jnsgd1na2vs0mg"},{"bike_id":"8eea14e8-81f9-450a-9f42-646e56a018e2","system_id":"levelo_inurba_marseille","lat":43.28861,"lon":5.42531,"is_reserved":false,"is_disabled":true,"rental_uris":{"android":"levelo://app?vid=8eea14e8-81f9-450a-9f42-646e56a018e2","ios":"levelo://app?vid=8eea14e8-81f9-450a-9f42-646e56a018e2"},"vehicle_type_id":"4","last_reported":1778326809,"current_range_meters":3200,"station_id":"st_d3b462108ojc7389ooeg","pricing_plan_id":"cebpf4jnsgd1na2vs0mg"},{"bike_id":"58ec5bd5-fb4b-43cf-b21a-0ddfeed8b238","system_id":"levelo_inurba_marseille","lat":43.30214,"lon":5.3945,"is_reserved":false,"is_disabled":false,"rental_uris":{"android":"levelo://app?vid=58ec5bd5-fb4b-43cf-b21a-0ddfeed8b238","ios":"levelo://app?vid=58ec5bd5-fb4b-43cf-b21a-0ddfeed8b238"},"vehicle_type_id":"4","last_reported":1778326809,"current_range_meters":3200,"station_id":"ce4bh0p2rcd13ifvqd70","pricing_plan_id":"cebpf4jnsgd1na2vs0mg"},{"bike_id":"d2869d45-e090-41fc-976f-c6fabba59b1b","system_id":"levelo_inurba_marseille","lat":43.30148,"lon":5.38088,"is_reserved":false,"is_disabled":false,"rental_uris":{"android":"levelo://app?vid=d2869d45-e090-41fc-976f-c6fabba59b1b","ios":"levelo://app?vid=d2869d45-e090-41fc-976f-c6fabba59b1b"},"vehicle_type_id":"4","last_reported":1778326809,"current_range_meters":3200,"station_id":"ce4bgjp2rcd13ifvqbh0","pricing_plan_id":"cebpf4jnsgd1na2vs0mg"},{"bike_id":"777fb345-2c4d-461d-9c99-307a6ab19c1b","system_id":"levelo_inurba_marseille","lat":43.33797,"lon":5.37433,"is_reserved":false,"is_disabled":false,"rental_uris":{"android":"levelo://app?vid=777fb345-2c4d-461d-9c99-307a6ab19c1b","ios":"levelo://app?vid=777fb345-2c4d-461d-9c99-307a6ab19c1b"},"vehicle_type_id":"4","last_reported":1778326809,"current_range_meters":3600,"station_id":"","pricing_plan_id":"cebpf4jnsgd1na2vs0mg"},{"bike_id":"a606a8cf-cde1-42e1-bb88-376eeb7c8a04","system_id":"levelo_inurba_marseille","lat":43.29362,"lon":5.37859,"is_reserved":false,"is_disabled":false,"rental_uris":{"android":"levelo://app?vid=a606a8cf-cde1-42e1-bb88-376eeb7c8a04","ios":"levelo://app?vid=a606a8cf-cde1-42e1-bb88-376eeb7c8a04"},"vehicle_type_id":"4","last_reported":1778326809,"current_range_meters":3600,"station_id":"ce4bgjh2rcd13ifvqbf0","pricing_plan_id":"cebpf4jnsgd1na2vs0mg"},{"bike_id":"28591a20-c550-4108-9263-49d1bdca52ed","system_id":"levelo_inurba_marseille","lat":43.2848,"lon":5.48387,"is_reserved":false,"is_disabled":false,"rental_uris":{"android":"levelo://app?vid=28591a20-c550-4108-9263-49d1bdca52ed","ios":"levelo://app?vid=28591a20-c550-4108-9263-49d1bdca52ed"},"vehicle_type_id":"4","last_reported":1778326809,"current_range_meters":3600,"station_id":"","pricing_plan_id":"cebpf4jnsgd1na2vs0mg"},{"bike_id":"27c9356b-ac14-4866-b69c-a8773c57738d","system_id":"levelo_inurba_marseille","lat":43.30157,"lon":5.38089,"is_reserved":false,"is_disabled":true,"rental_uris":{"android":"levelo://app?vid=27c9356b-ac14-4866-b69c-a8773c57738d","ios":"levelo://app?vid=27c9356b-ac14-4866-b69c-a8773c57738d"},"vehicle_type_id":"4","last_reported":1778326809,"current_range_meters":3600,"station_id":"ce4bgjp2rcd13ifvqbh0","pricing_plan_id":"cebpf4jnsgd1na2vs0mg"},{"bike_id":"49231668-d1a3-4a72-92ee-8adf62011680","system_id":"levelo_inurba_marseille","lat":43.31692,"lon":5.40467,"is_reserved":false,"is_disabled":false,"rental_uris":{"android":"levelo://app?vid=49231668-d1a3-4a72-92ee-8adf62011680","ios":"levelo://app?vid=49231668-d1a3-4a72-92ee-8adf62011680"},"vehicle_type_id":"4","last_reported":1778326809,"current_range_meters":3600,"station_id":"ce4bh012rcd13ifvqd00","pricing_plan_id":"cebpf4jnsgd1na2vs0mg"},{"bike_id":"d8a6bc3e-9037-4804-9429-75feeba15dec","system_id":"levelo_inurba_marseille","lat":43.30165,"lon":5.38093,"is_reserved":false,"is_disabled":true,"rental_uris":{"android":"levelo://app?vid=d8a6bc3e-9037-4804-9429-75feeba15dec","ios":"levelo://app?vid=d8a6bc3e-9037-4804-9429-75feeba15dec"},"vehicle_type_id":"4","last_reported":1778326809,"current_range_meters":4000,"station_id":"ce4bgjp2rcd13ifvqbh0","pricing_plan_id":"cebpf4jnsgd1na2vs0mg"},{"bike_id":"ec6ccee2-7297-41bb-b128-d47b5c3cf4f4","system_id":"levelo_inurba_marseille","lat":43.28488,"lon":5.38413,"is_reserved":false,"is_disabled":false,"rental_uris":{"android":"levelo://app?vid=ec6ccee2-7297-41bb-b128-d47b5c3cf4f4","ios":"levelo://app?vid=ec6ccee2-7297-41bb-b128-d47b5c3cf4f4"},"vehicle_type_id":"4","last_reported":1778326809,"current_range_meters":4000,"station_id":"ce4bh512rcd13ifvqe3g","pricing_plan_id":"cebpf4jnsgd1na2vs0mg"},{"bike_id":"6400099d-f713-4246-a4ce-1b44f22e3329","system_id":"levelo_inurba_marseille","lat":43.32105,"lon":5.36751,"is_reserved":false,"is_disabled":false,"rental_uris":{"android":"levelo://app?vid=6400099d-f713-4246-a4ce-1b44f22e3329","ios":"levelo://app?vid=6400099d-f713-4246-a4ce-1b44f22e3329"},"vehicle_type_id":"4","last_reported":1778326809,"current_range_meters":4000,"station_id":"ce4bhrh2rcd13ifvqhug","pricing_plan_id":"cebpf4jnsgd1na2vs0mg"},{"bike_id":"9a3140d6-e3fa-492e-8460-9c6f22636700","system_id":"levelo_inurba_marseille","lat":43.31365,"lon":5.39962,"is_reserved":false,"is_disabled":false,"rental_uris":{"android":"levelo://app?vid=9a3140d6-e3fa-492e-8460-9c6f22636700","ios":"levelo://app?vid=9a3140d6-e3fa-492e-8460-9c6f22636700"},"vehicle_type_id":"4","last_reported":1778326809,"current_range_meters":4000,"station_id":"","pricing_plan_id":"cebpf4jnsgd1na2vs0mg"},{"bike_id":"e6fd7cba-e183-47e8-af67-7cc1b6150454","system_id":"levelo_inurba_marseille","lat":43.301514,"lon":5.387727,"is_reserved":false,"is_disabled":false,"rental_uris":{"android":"levelo://app?vid=e6fd7cba-e183-47e8-af67-7cc1b6150454","ios":"levelo://app?vid=e6fd7cba-e183-47e8-af67-7cc1b6150454"},"vehicle_type_id":"4","last_reported":1778326809,"current_range_meters":4000,"station_id":"ce4bghh2rcd13ifvqb60","pricing_plan_id":"cebpf4jnsgd1na2vs0mg"},{"bike_id":"415142c7-f50e-411e-adf6-f39700e22f6d","system_id":"levelo_inurba_marseille","lat":43.32723,"lon":5.35611,"is_reserved":false,"is_disabled":false,"rental_uris":{"android":"levelo://app?vid=415142c7-f50e-411e-adf6-f39700e22f6d","ios":"levelo://app?vid=415142c7-f50e-411e-adf6-f39700e22f6d"},"vehicle_type_id":"4","last_reported":1778326809,"current_range_meters":4000,"station_id":"","pricing_plan_id":"cebpf4jnsgd1na2vs0mg"},{"bike_id":"f773650b-2162-41df-8e0f-50e0825b8ce6","system_id":"levelo_inurba_marseille","lat":43.25001,"lon":5.38918,"is_reserved":false,"is_disabled":false,"rental_uris":{"android":"levelo://app?vid=f773650b-2162-41df-8e0f-50e0825b8ce6","ios":"levelo://app?vid=f773650b-2162-41df-8e0f-50e0825b8ce6"},"vehicle_type_id":"4","last_reported":1778326809,"current_range_meters":4000,"station_id":"ce4bhgp2rcd13ifvqfd0","pricing_plan_id":"cebpf4jnsgd1na2vs0mg"},{"bike_id":"97d7cd19-de5e-4aa2-a429-ae5ce327358d","system_id":"levelo_inurba_marseille","lat":43.21196,"lon":5.35041,"is_reserved":false,"is_disabled":false,"rental_uris":{"android":"levelo://app?vid=97d7cd19-de5e-4aa2-a429-ae5ce327358d","ios":"levelo://app?vid=97d7cd19-de5e-4aa2-a429-ae5ce327358d"},"vehicle_type_id":"4","last_reported":1778326809,"current_range_meters":4400,"station_id":"st_cvj6sg6p6f1abm77japg","pricing_plan_id":"cebpf4jnsgd1na2vs0mg"},{"bike_id":"b44a9cd4-5b24-4ba8-878e-e9ddbed75cb6","system_id":"levelo_inurba_marseille","lat":43.27976,"lon":5.38683,"is_reserved":false,"is_disabled":true,"rental_uris":{"android":"levelo://app?vid=b44a9cd4-5b24-4ba8-878e-e9ddbed75cb6","ios":"levelo://app?vid=b44a9cd4-5b24-4ba8-878e-e9ddbed75cb6"},"vehicle_type_id":"4","last_reported":1778326809,"current_range_meters":4400,"station_id":"ce4bhg12rcd13ifvqf80","pricing_plan_id":"cebpf4jnsgd1na2vs0mg"},{"bike_id":"6452db2c-1182-4afc-94bd-93e76ac56d68","system_id":"levelo_inurba_marseille","lat":43.27082,"lon":5.42254,"is_reserved":false,"is_disabled":false,"rental_uris":{"android":"levelo://app?vid=6452db2c-1182-4afc-94bd-93e76ac56d68","ios":"levelo://app?vid=6452db2c-1182-4afc-94bd-93e76ac56d68"},"vehicle_type_id":"4","last_reported":1778326809,"current_range_meters":4400,"station_id":"ce4bhk92rcd13ifvqgb0","pricing_plan_id":"cebpf4jnsgd1na2vs0mg"},{"bike_id":"4b65741e-5ed9-4da8-8620-3a00f88659d6","system_id":"levelo_inurba_marseille","lat":43.2848,"lon":5.48392,"is_reserved":false,"is_disabled":false,"rental_uris":{"android":"levelo://app?vid=4b65741e-5ed9-4da8-8620-3a00f88659d6","ios":"levelo://app?vid=4b65741e-5ed9-4da8-8620-3a00f88659d6"},"vehicle_type_id":"4","last_reported":1778326809,"current_range_meters":4400,"station_id":"","pricing_plan_id":"cebpf4jnsgd1na2vs0mg"},{"bike_id":"ce6d5dbc-0b80-4f3a-abfd-d46149cf65d1","system_id":"levelo_inurba_marseille","lat":43.2992,"lon":5.37461,"is_reserved":false,"is_disabled":true,"rental_uris":{"android":"levelo://app?vid=ce6d5dbc-0b80-4f3a-abfd-d46149cf65d1","ios":"levelo://app?vid=ce6d5dbc-0b80-4f3a-abfd-d46149cf65d1"},"vehicle_type_id":"4","last_reported":1778326809,"current_range_meters":4400,"station_id":"ce4bgjh2rcd13ifvqbg0","pricing_plan_id":"cebpf4jnsgd1na2vs0mg"},{"bike_id":"0ecddad9-091b-47fd-a45d-db67559668c1","system_id":"levelo_inurba_marseille","lat":43.27934,"lon":5.38726,"is_reserved":false,"is_disabled":true,"rental_uris":{"android":"levelo://app?vid=0ecddad9-091b-47fd-a45d-db67559668c1","ios":"levelo://app?vid=0ecddad9-091b-47fd-a45d-db67559668c1"},"vehicle_type_id":"4","last_reported":1778326809,"current_range_meters":4400,"station_id":"ce4bhg12rcd13ifvqf80","pricing_plan_id":"cebpf4jnsgd1na2vs0mg"},{"bike_id":"06e459a7-05e3-4f00-a35e-e82ad76c8055","system_id":"levelo_inurba_marseille","lat":43.2862,"lon":5.35094,"is_reserved":false,"is_disabled":false,"rental_uris":{"android":"levelo://app?vid=06e459a7-05e3-4f00-a35e-e82ad76c8055","ios":"levelo://app?vid=06e459a7-05e3-4f00-a35e-e82ad76c8055"},"vehicle_type_id":"4","last_reported":1778326809,"current_range_meters":4400,"station_id":"ce4bhch2rcd13ifvqeug","pricing_plan_id":"cebpf4jnsgd1na2vs0mg"},{"bike_id":"3367ef8e-f417-4bb7-b507-93e2bdfc9d58","system_id":"levelo_inurba_marseille","lat":43.30242,"lon":5.40047,"is_reserved":false,"is_disabled":false,"rental_uris":{"android":"levelo://app?vid=3367ef8e-f417-4bb7-b507-93e2bdfc9d58","ios":"levelo://app?vid=3367ef8e-f417-4bb7-b507-93e2bdfc9d58"},"vehicle_type_id":"4","last_reported":1778326809,"current_range_meters":4400,"station_id":"ce4bgvh2rcd13ifvqcs0","pricing_plan_id":"cebpf4jnsgd1na2vs0mg"},{"bike_id":"5fc85a70-cd51-491b-a363-a46b0850da15","system_id":"levelo_inurba_marseille","lat":43.3291,"lon":5.36695,"is_reserved":false,"is_disabled":false,"rental_uris":{"android":"levelo://app?vid=5fc85a70-cd51-491b-a363-a46b0850da15","ios":"levelo://app?vid=5fc85a70-cd51-491b-a363-a46b0850da15"},"vehicle_type_id":"4","last_reported":1778326809,"current_range_meters":4400,"station_id":"","pricing_plan_id":"cebpf4jnsgd1na2vs0mg"},{"bike_id":"4a008d5b-e28a-42e7-acd0-62b42b814bfc","system_id":"levelo_inurba_marseille","lat":43.21729,"lon":5.34601,"is_reserved":false,"is_disabled":false,"rental_uris":{"android":"levelo://app?vid=4a008d5b-e28a-42e7-acd0-62b42b814bfc","ios":"levelo://app?vid=4a008d5b-e28a-42e7-acd0-62b42b814bfc"},"vehicle_type_id":"4","last_reported":1778326809,"current_range_meters":4400,"station_id":"st_cvj6r9ubvosntc0bgbag","pricing_plan_id":"cebpf4jnsgd1na2vs0mg"},{"bike_id":"13b1bcc7-e9d8-48b8-a72f-6d1f9d17e51d","system_id":"levelo_inurba_marseille","lat":43.2493,"lon":5.38951,"is_reserved":false,"is_disabled":false,"rental_uris":{"android":"levelo://app?vid=13b1bcc7-e9d8-48b8-a72f-6d1f9d17e51d","ios":"levelo://app?vid=13b1bcc7-e9d8-48b8-a72f-6d1f9d17e51d"},"vehicle_type_id":"4","last_reported":1778326809,"current_range_meters":4400,"station_id":"","pricing_plan_id":"cebpf4jnsgd1na2vs0mg"},{"bike_id":"5b17b337-4e55-486b-b310-212b10614e57","system_id":"levelo_inurba_marseille","lat":43.32361,"lon":5.36704,"is_reserved":false,"is_disabled":false,"rental_uris":{"android":"levelo://app?vid=5b17b337-4e55-486b-b310-212b10614e57","ios":"levelo://app?vid=5b17b337-4e55-486b-b310-212b10614e57"},"vehicle_type_id":"4","last_reported":1778326809,"current_range_meters":4400,"station_id":"","pricing_plan_id":"cebpf4jnsgd1na2vs0mg"},{"bike_id":"2eff6c3c-b3c7-4f79-9177-294eb1d510e0","system_id":"levelo_inurba_marseille","lat":43.2119,"lon":5.35026,"is_reserved":false,"is_disabled":false,"rental_uris":{"android":"levelo://app?vid=2eff6c3c-b3c7-4f79-9177-294eb1d510e0","ios":"levelo://app?vid=2eff6c3c-b3c7-4f79-9177-294eb1d510e0"},"vehicle_type_id":"4","last_reported":1778326809,"current_range_meters":4400,"station_id":"","pricing_plan_id":"cebpf4jnsgd1na2vs0mg"},{"bike_id":"0bc66aaf-5baf-4527-9d78-345db4e62b37","system_id":"levelo_inurba_marseille","lat":43.27513,"lon":5.41565,"is_reserved":false,"is_disabled":false,"rental_uris":{"android":"levelo://app?vid=0bc66aaf-5baf-4527-9d78-345db4e62b37","ios":"levelo://app?vid=0bc66aaf-5baf-4527-9d78-345db4e62b37"},"vehicle_type_id":"4","last_reported":1778326809,"current_range_meters":4400,"station_id":"st_d6im8g6chgec73a5pndg","pricing_plan_id":"cebpf4jnsgd1na2vs0mg"},{"bike_id":"05ea95a4-cd67-4fc1-a218-6926df79c21d","system_id":"levelo_inurba_marseille","lat":43.31066,"lon":5.37806,"is_reserved":false,"is_disabled":false,"rental_uris":{"android":"levelo://app?vid=05ea95a4-cd67-4fc1-a218-6926df79c21d","ios":"levelo://app?vid=05ea95a4-cd67-4fc1-a218-6926df79c21d"},"vehicle_type_id":"4","last_reported":1778326809,"current_range_meters":4800,"station_id":"","pricing_plan_id":"cebpf4jnsgd1na2vs0mg"},{"bike_id":"3a19e3a1-9224-4bdc-8887-26a857c65344","system_id":"levelo_inurba_marseille","lat":43.30534,"lon":5.36547,"is_reserved":false,"is_disabled":false,"rental_uris":{"android":"levelo://app?vid=3a19e3a1-9224-4bdc-8887-26a857c65344","ios":"levelo://app?vid=3a19e3a1-9224-4bdc-8887-26a857c65344"},"vehicle_type_id":"4","last_reported":1778326809,"current_range_meters":4800,"station_id":"ce4bgs12rcd13ifvqcag","pricing_plan_id":"cebpf4jnsgd1na2vs0mg"},{"bike_id":"082f2693-b849-447f-a36f-ba2dc6379b7b","system_id":"levelo_inurba_marseille","lat":43.28613,"lon":5.39861,"is_reserved":false,"is_disabled":false,"rental_uris":{"android":"levelo://app?vid=082f2693-b849-447f-a36f-ba2dc6379b7b","ios":"levelo://app?vid=082f2693-b849-447f-a36f-ba2dc6379b7b"},"vehicle_type_id":"4","last_reported":1778326809,"current_range_meters":4800,"station_id":"st_d4a7ka997mjs738ck50g","pricing_plan_id":"cebpf4jnsgd1na2vs0mg"},{"bike_id":"f03e9416-653d-45fd-aba7-c2ee459eb1bb","system_id":"levelo_inurba_marseille","lat":43.33539,"lon":5.37466,"is_reserved":false,"is_disabled":false,"rental_uris":{"android":"levelo://app?vid=f03e9416-653d-45fd-aba7-c2ee459eb1bb","ios":"levelo://app?vid=f03e9416-653d-45fd-aba7-c2ee459eb1bb"},"vehicle_type_id":"4","last_reported":1778326809,"current_range_meters":4800,"station_id":"st_d46tts09ee8s73dlu43g","pricing_plan_id":"cebpf4jnsgd1na2vs0mg"},{"bike_id":"15670e6e-7345-4683-a666-74956f75dacf","system_id":"levelo_inurba_marseille","lat":43.27993,"lon":5.3868,"is_reserved":false,"is_disabled":false,"rental_uris":{"android":"levelo://app?vid=15670e6e-7345-4683-a666-74956f75dacf","ios":"levelo://app?vid=15670e6e-7345-4683-a666-74956f75dacf"},"vehicle_type_id":"4","last_reported":1778326809,"current_range_meters":4800,"station_id":"","pricing_plan_id":"cebpf4jnsgd1na2vs0mg"},{"bike_id":"acedb598-36c5-41a5-b725-a217edd6db67","system_id":"levelo_inurba_marseille","lat":43.26543,"lon":5.37286,"is_reserved":false,"is_disabled":false,"rental_uris":{"android":"levelo://app?vid=acedb598-36c5-41a5-b725-a217edd6db67","ios":"levelo://app?vid=acedb598-36c5-41a5-b725-a217edd6db67"},"vehicle_type_id":"4","last_reported":1778326809,"current_range_meters":4800,"station_id":"ce4bhg12rcd13ifvqf70","pricing_plan_id":"cebpf4jnsgd1na2vs0mg"},{"bike_id":"4996a102-a727-43ab-8a2a-bc421a1c6b22","system_id":"levelo_inurba_marseille","lat":43.279194,"lon":5.395746,"is_reserved":false,"is_disabled":false,"rental_uris":{"android":"levelo://app?vid=4996a102-a727-43ab-8a2a-bc421a1c6b22","ios":"levelo://app?vid=4996a102-a727-43ab-8a2a-bc421a1c6b22"},"vehicle_type_id":"4","last_reported":1778326809,"current_range_meters":4800,"station_id":"ce4bhf92rcd13ifvqf40","pricing_plan_id":"cebpf4jnsgd1na2vs0mg"},{"bike_id":"fa833790-fea7-4b87-ab01-22a9071ab066","system_id":"levelo_inurba_marseille","lat":43.28476,"lon":5.48402,"is_reserved":false,"is_disabled":false,"rental_uris":{"android":"levelo://app?vid=fa833790-fea7-4b87-ab01-22a9071ab066","ios":"levelo://app?vid=fa833790-fea7-4b87-ab01-22a9071ab066"},"vehicle_type_id":"4","last_reported":1778326809,"current_range_meters":4800,"station_id":"st_d3svhcjqgbts73a3dn0g","pricing_plan_id":"cebpf4jnsgd1na2vs0mg"},{"bike_id":"95489a07-b280-4aea-935b-70fc8cc33653","system_id":"levelo_inurba_marseille","lat":43.21756,"lon":5.34582,"is_reserved":false,"is_disabled":true,"rental_uris":{"android":"levelo://app?vid=95489a07-b280-4aea-935b-70fc8cc33653","ios":"levelo://app?vid=95489a07-b280-4aea-935b-70fc8cc33653"},"vehicle_type_id":"4","last_reported":1778326809,"current_range_meters":4800,"station_id":"st_cvj6r9ubvosntc0bgbag","pricing_plan_id":"cebpf4jnsgd1na2vs0mg"},{"bike_id":"296921d4-d837-47f5-8f08-d0f78154b13e","system_id":"levelo_inurba_marseille","lat":43.29765,"lon":5.38126,"is_reserved":false,"is_disabled":false,"rental_uris":{"android":"levelo://app?vid=296921d4-d837-47f5-8f08-d0f78154b13e","ios":"levelo://app?vid=296921d4-d837-47f5-8f08-d0f78154b13e"},"vehicle_type_id":"4","last_reported":1778326809,"current_range_meters":4800,"station_id":"ce4bgip2rcd13ifvqbb0","pricing_plan_id":"cebpf4jnsgd1na2vs0mg"},{"bike_id":"1abbaeda-4205-419b-8ec9-821a58663352","system_id":"levelo_inurba_marseille","lat":43.28624,"lon":5.35104,"is_reserved":false,"is_disabled":false,"rental_uris":{"android":"levelo://app?vid=1abbaeda-4205-419b-8ec9-821a58663352","ios":"levelo://app?vid=1abbaeda-4205-419b-8ec9-821a58663352"},"vehicle_type_id":"4","last_reported":1778326809,"current_range_meters":4800,"station_id":"ce4bhch2rcd13ifvqeug","pricing_plan_id":"cebpf4jnsgd1na2vs0mg"},{"bike_id":"ba1a84df-99bc-4f91-b102-9b8b01f50ffc","system_id":"levelo_inurba_marseille","lat":43.31889,"lon":5.36814,"is_reserved":false,"is_disabled":false,"rental_uris":{"android":"levelo://app?vid=ba1a84df-99bc-4f91-b102-9b8b01f50ffc","ios":"levelo://app?vid=ba1a84df-99bc-4f91-b102-9b8b01f50ffc"},"vehicle_type_id":"4","last_reported":1778326809,"current_range_meters":5600,"station_id":"st_d6o2h0d0559c73evc1b0","pricing_plan_id":"cebpf4jnsgd1na2vs0mg"},{"bike_id":"83c53200-e80f-47bb-b870-a7652825089e","system_id":"levelo_inurba_marseille","lat":43.24681,"lon":5.38125,"is_reserved":false,"is_disabled":false,"rental_uris":{"android":"levelo://app?vid=83c53200-e80f-47bb-b870-a7652825089e","ios":"levelo://app?vid=83c53200-e80f-47bb-b870-a7652825089e"},"vehicle_type_id":"4","last_reported":1778326809,"current_range_meters":5600,"station_id":"ce4bhih2rcd13ifvqfr0","pricing_plan_id":"cebpf4jnsgd1na2vs0mg"},{"bike_id":"a3e992db-8c08-40ad-b4ea-bb8224e91339","system_id":"levelo_inurba_marseille","lat":43.28279,"lon":5.35051,"is_reserved":false,"is_disabled":true,"rental_uris":{"android":"levelo://app?vid=a3e992db-8c08-40ad-b4ea-bb8224e91339","ios":"levelo://app?vid=a3e992db-8c08-40ad-b4ea-bb8224e91339"},"vehicle_type_id":"4","last_reported":1778326809,"current_range_meters":5600,"station_id":"ce4bhbp2rcd13ifvqerg","pricing_plan_id":"cebpf4jnsgd1na2vs0mg"},{"bike_id":"09f03c71-3135-488b-aa1b-16f1834011a9","system_id":"levelo_inurba_marseille","lat":43.29198,"lon":5.35677,"is_reserved":false,"is_disabled":false,"rental_uris":{"android":"levelo://app?vid=09f03c71-3135-488b-aa1b-16f1834011a9","ios":"levelo://app?vid=09f03c71-3135-488b-aa1b-16f1834011a9"},"vehicle_type_id":"4","last_reported":1778326809,"current_range_meters":5600,"station_id":"","pricing_plan_id":"cebpf4jnsgd1na2vs0mg"},{"bike_id":"7c56137a-05b5-47d0-b192-873a2f490371","system_id":"levelo_inurba_marseille","lat":43.2441,"lon":5.37016,"is_reserved":false,"is_disabled":false,"rental_uris":{"android":"levelo://app?vid=7c56137a-05b5-47d0-b192-873a2f490371","ios":"levelo://app?vid=7c56137a-05b5-47d0-b192-873a2f490371"},"vehicle_type_id":"4","last_reported":1778326809,"current_range_meters":5600,"station_id":"","pricing_plan_id":"cebpf4jnsgd1na2vs0mg"},{"bike_id":"c61964c8-c89c-477d-b76c-a022d4861077","system_id":"levelo_inurba_marseille","lat":43.30884,"lon":5.4011,"is_reserved":false,"is_disabled":false,"rental_uris":{"android":"levelo://app?vid=c61964c8-c89c-477d-b76c-a022d4861077","ios":"levelo://app?vid=c61964c8-c89c-477d-b76c-a022d4861077"},"vehicle_type_id":"4","last_reported":1778326809,"current_range_meters":5600,"station_id":"","pricing_plan_id":"cebpf4jnsgd1na2vs0mg"},{"bike_id":"279b9086-3ac7-4f4c-9dfd-d280e2b16930","system_id":"levelo_inurba_marseille","lat":43.29608,"lon":5.37705,"is_reserved":false,"is_disabled":false,"rental_uris":{"android":"levelo://app?vid=279b9086-3ac7-4f4c-9dfd-d280e2b16930","ios":"levelo://app?vid=279b9086-3ac7-4f4c-9dfd-d280e2b16930"},"vehicle_type_id":"4","last_reported":1778326809,"current_range_meters":5600,"station_id":"ce4bgi92rcd13ifvqb90","pricing_plan_id":"cebpf4jnsgd1na2vs0mg"},{"bike_id":"9f135140-bc51-471a-99ba-2c149cd74964","system_id":"levelo_inurba_marseille","lat":43.22575,"lon":5.41621,"is_reserved":false,"is_disabled":false,"rental_uris":{"android":"levelo://app?vid=9f135140-bc51-471a-99ba-2c149cd74964","ios":"levelo://app?vid=9f135140-bc51-471a-99ba-2c149cd74964"},"vehicle_type_id":"4","last_reported":1778326809,"current_range_meters":5600,"station_id":"st_d2o4gvlbi1j2169b742g","pricing_plan_id":"cebpf4jnsgd1na2vs0mg"},{"bike_id":"c1b768b5-78ad-4562-8b11-acf628f13106","system_id":"levelo_inurba_marseille","lat":43.28011,"lon":5.44222,"is_reserved":false,"is_disabled":false,"rental_uris":{"android":"levelo://app?vid=c1b768b5-78ad-4562-8b11-acf628f13106","ios":"levelo://app?vid=c1b768b5-78ad-4562-8b11-acf628f13106"},"vehicle_type_id":"4","last_reported":1778326809,"current_range_meters":5600,"station_id":"","pricing_plan_id":"cebpf4jnsgd1na2vs0mg"},{"bike_id":"3a4e4efb-cd45-4a10-925a-8c415f9ba11c","system_id":"levelo_inurba_marseille","lat":43.23143,"lon":5.43723,"is_reserved":false,"is_disabled":false,"rental_uris":{"android":"levelo://app?vid=3a4e4efb-cd45-4a10-925a-8c415f9ba11c","ios":"levelo://app?vid=3a4e4efb-cd45-4a10-925a-8c415f9ba11c"},"vehicle_type_id":"4","last_reported":1778326809,"current_range_meters":5600,"station_id":"ce4bhmp2rcd13ifvqgog","pricing_plan_id":"cebpf4jnsgd1na2vs0mg"},{"bike_id":"4ee78646-fefd-4446-9cad-30077bd1d04f","system_id":"levelo_inurba_marseille","lat":43.30246,"lon":5.40086,"is_reserved":false,"is_disabled":true,"rental_uris":{"android":"levelo://app?vid=4ee78646-fefd-4446-9cad-30077bd1d04f","ios":"levelo://app?vid=4ee78646-fefd-4446-9cad-30077bd1d04f"},"vehicle_type_id":"4","last_reported":1778326809,"current_range_meters":5600,"station_id":"ce4bgvh2rcd13ifvqcs0","pricing_plan_id":"cebpf4jnsgd1na2vs0mg"},{"bike_id":"73d52b7e-a0b0-435d-8e23-3e9f44a89f3b","system_id":"levelo_inurba_marseille","lat":43.249095,"lon":5.390172,"is_reserved":false,"is_disabled":false,"rental_uris":{"android":"levelo://app?vid=73d52b7e-a0b0-435d-8e23-3e9f44a89f3b","ios":"levelo://app?vid=73d52b7e-a0b0-435d-8e23-3e9f44a89f3b"},"vehicle_type_id":"4","last_reported":1778326809,"current_range_meters":5600,"station_id":"ce4bhn12rcd13ifvqgqg","pricing_plan_id":"cebpf4jnsgd1na2vs0mg"},{"bike_id":"2505de3c-0304-40f5-8703-13ba3411cca8","system_id":"levelo_inurba_marseille","lat":43.26537,"lon":5.3729,"is_reserved":false,"is_disabled":false,"rental_uris":{"android":"levelo://app?vid=2505de3c-0304-40f5-8703-13ba3411cca8","ios":"levelo://app?vid=2505de3c-0304-40f5-8703-13ba3411cca8"},"vehicle_type_id":"4","last_reported":1778326809,"current_range_meters":5600,"station_id":"ce4bhg12rcd13ifvqf70","pricing_plan_id":"cebpf4jnsgd1na2vs0mg"},{"bike_id":"440fba58-259a-4f2a-ad6f-75a862d62627","system_id":"levelo_inurba_marseille","lat":43.24398,"lon":5.37028,"is_reserved":false,"is_disabled":false,"rental_uris":{"android":"levelo://app?vid=440fba58-259a-4f2a-ad6f-75a862d62627","ios":"levelo://app?vid=440fba58-259a-4f2a-ad6f-75a862d62627"},"vehicle_type_id":"4","last_reported":1778326809,"current_range_meters":5600,"station_id":"ce4bhhh2rcd13ifvqfk0","pricing_plan_id":"cebpf4jnsgd1na2vs0mg"},{"bike_id":"cae8358f-3a7d-445f-93c9-76b4c0a4d142","system_id":"levelo_inurba_marseille","lat":43.292772,"lon":5.401199,"is_reserved":false,"is_disabled":false,"rental_uris":{"android":"levelo://app?vid=cae8358f-3a7d-445f-93c9-76b4c0a4d142","ios":"levelo://app?vid=cae8358f-3a7d-445f-93c9-76b4c0a4d142"},"vehicle_type_id":"4","last_reported":1778326809,"current_range_meters":5600,"station_id":"ce4bh312rcd13ifvqdk0","pricing_plan_id":"cebpf4jnsgd1na2vs0mg"},{"bike_id":"6c3bbc45-d4aa-4e36-b336-96f1c42504c7","system_id":"levelo_inurba_marseille","lat":43.21197,"lon":5.35036,"is_reserved":false,"is_disabled":false,"rental_uris":{"android":"levelo://app?vid=6c3bbc45-d4aa-4e36-b336-96f1c42504c7","ios":"levelo://app?vid=6c3bbc45-d4aa-4e36-b336-96f1c42504c7"},"vehicle_type_id":"4","last_reported":1778326809,"current_range_meters":5600,"station_id":"st_cvj6sg6p6f1abm77japg","pricing_plan_id":"cebpf4jnsgd1na2vs0mg"},{"bike_id":"36bf5966-883a-4820-975e-e8801ce08727","system_id":"levelo_inurba_marseille","lat":43.29317,"lon":5.37143,"is_reserved":false,"is_disabled":false,"rental_uris":{"android":"levelo://app?vid=36bf5966-883a-4820-975e-e8801ce08727","ios":"levelo://app?vid=36bf5966-883a-4820-975e-e8801ce08727"},"vehicle_type_id":"4","last_reported":1778326809,"current_range_meters":6000,"station_id":"ce4bgh92rcd13ifvqb40","pricing_plan_id":"cebpf4jnsgd1na2vs0mg"},{"bike_id":"20807392-4a1b-4644-a1b4-e5c43ad354e5","system_id":"levelo_inurba_marseille","lat":43.27236,"lon":5.3912,"is_reserved":false,"is_disabled":false,"rental_uris":{"android":"levelo://app?vid=20807392-4a1b-4644-a1b4-e5c43ad354e5","ios":"levelo://app?vid=20807392-4a1b-4644-a1b4-e5c43ad354e5"},"vehicle_type_id":"4","last_reported":1778326809,"current_range_meters":6000,"station_id":"ce4bhhp2rcd13ifvqfm0","pricing_plan_id":"cebpf4jnsgd1na2vs0mg"},{"bike_id":"4067d61e-89be-467d-a5a9-f8c7dfabdfee","system_id":"levelo_inurba_marseille","lat":43.2174,"lon":5.34604,"is_reserved":false,"is_disabled":false,"rental_uris":{"android":"levelo://app?vid=4067d61e-89be-467d-a5a9-f8c7dfabdfee","ios":"levelo://app?vid=4067d61e-89be-467d-a5a9-f8c7dfabdfee"},"vehicle_type_id":"4","last_reported":1778326809,"current_range_meters":6000,"station_id":"st_cvj6r9ubvosntc0bgbag","pricing_plan_id":"cebpf4jnsgd1na2vs0mg"},{"bike_id":"7c5d82ce-db34-4500-8a70-ee0c59420005","system_id":"levelo_inurba_marseille","lat":43.21706,"lon":5.34582,"is_reserved":false,"is_disabled":false,"rental_uris":{"android":"levelo://app?vid=7c5d82ce-db34-4500-8a70-ee0c59420005","ios":"levelo://app?vid=7c5d82ce-db34-4500-8a70-ee0c59420005"},"vehicle_type_id":"4","last_reported":1778326809,"current_range_meters":6000,"station_id":"st_cvj6r9ubvosntc0bgbag","pricing_plan_id":"cebpf4jnsgd1na2vs0mg"},{"bike_id":"2bfeb872-3b6a-44bd-aaf4-d49eee479e56","system_id":"levelo_inurba_marseille","lat":43.2174,"lon":5.34591,"is_reserved":false,"is_disabled":false,"rental_uris":{"android":"levelo://app?vid=2bfeb872-3b6a-44bd-aaf4-d49eee479e56","ios":"levelo://app?vid=2bfeb872-3b6a-44bd-aaf4-d49eee479e56"},"vehicle_type_id":"4","last_reported":1778326809,"current_range_meters":6000,"station_id":"st_cvj6r9ubvosntc0bgbag","pricing_plan_id":"cebpf4jnsgd1na2vs0mg"},{"bike_id":"b8425fa1-a298-4679-ba8a-777546e14eca","system_id":"levelo_inurba_marseille","lat":43.33785,"lon":5.37411,"is_reserved":false,"is_disabled":false,"rental_uris":{"android":"levelo://app?vid=b8425fa1-a298-4679-ba8a-777546e14eca","ios":"levelo://app?vid=b8425fa1-a298-4679-ba8a-777546e14eca"},"vehicle_type_id":"4","last_reported":1778326809,"current_range_meters":6000,"station_id":"","pricing_plan_id":"cebpf4jnsgd1na2vs0mg"},{"bike_id":"3417ad5b-643d-47b4-8e25-e10a62e88430","system_id":"levelo_inurba_marseille","lat":43.29525,"lon":5.38516,"is_reserved":false,"is_disabled":false,"rental_uris":{"android":"levelo://app?vid=3417ad5b-643d-47b4-8e25-e10a62e88430","ios":"levelo://app?vid=3417ad5b-643d-47b4-8e25-e10a62e88430"},"vehicle_type_id":"4","last_reported":1778326809,"current_range_meters":6000,"station_id":"ce4bgih2rcd13ifvqba0","pricing_plan_id":"cebpf4jnsgd1na2vs0mg"},{"bike_id":"db407ae1-978b-4208-8689-34c43168174a","system_id":"levelo_inurba_marseille","lat":43.29562,"lon":5.36731,"is_reserved":false,"is_disabled":false,"rental_uris":{"android":"levelo://app?vid=db407ae1-978b-4208-8689-34c43168174a","ios":"levelo://app?vid=db407ae1-978b-4208-8689-34c43168174a"},"vehicle_type_id":"4","last_reported":1778326809,"current_range_meters":6000,"station_id":"ce4bgph2rcd13ifvqc2g","pricing_plan_id":"cebpf4jnsgd1na2vs0mg"},{"bike_id":"e8461b56-9af7-4d44-a288-92e063783260","system_id":"levelo_inurba_marseille","lat":43.26235,"lon":5.40439,"is_reserved":false,"is_disabled":false,"rental_uris":{"android":"levelo://app?vid=e8461b56-9af7-4d44-a288-92e063783260","ios":"levelo://app?vid=e8461b56-9af7-4d44-a288-92e063783260"},"vehicle_type_id":"4","last_reported":1778326809,"current_range_meters":6000,"station_id":"ce4bhmh2rcd13ifvqgmg","pricing_plan_id":"cebpf4jnsgd1na2vs0mg"},{"bike_id":"91c82047-c46e-4b86-b2d2-d0c7f1a66e5a","system_id":"levelo_inurba_marseille","lat":43.26591,"lon":5.37334,"is_reserved":false,"is_disabled":false,"rental_uris":{"android":"levelo://app?vid=91c82047-c46e-4b86-b2d2-d0c7f1a66e5a","ios":"levelo://app?vid=91c82047-c46e-4b86-b2d2-d0c7f1a66e5a"},"vehicle_type_id":"4","last_reported":1778326809,"current_range_meters":6000,"station_id":"ce4bhg12rcd13ifvqf70","pricing_plan_id":"cebpf4jnsgd1na2vs0mg"},{"bike_id":"496d9d23-0758-4b07-831b-1c112b733a7b","system_id":"levelo_inurba_marseille","lat":43.27914,"lon":5.38013,"is_reserved":false,"is_disabled":false,"rental_uris":{"android":"levelo://app?vid=496d9d23-0758-4b07-831b-1c112b733a7b","ios":"levelo://app?vid=496d9d23-0758-4b07-831b-1c112b733a7b"},"vehicle_type_id":"4","last_reported":1778326809,"current_range_meters":6000,"station_id":"ce4bhf92rcd13ifvqf50","pricing_plan_id":"cebpf4jnsgd1na2vs0mg"},{"bike_id":"75f59337-b493-444f-b711-8136760bba0b","system_id":"levelo_inurba_marseille","lat":43.21743,"lon":5.34601,"is_reserved":false,"is_disabled":false,"rental_uris":{"android":"levelo://app?vid=75f59337-b493-444f-b711-8136760bba0b","ios":"levelo://app?vid=75f59337-b493-444f-b711-8136760bba0b"},"vehicle_type_id":"4","last_reported":1778326809,"current_range_meters":6400,"station_id":"st_cvj6r9ubvosntc0bgbag","pricing_plan_id":"cebpf4jnsgd1na2vs0mg"},{"bike_id":"8890bb3a-07c5-4cbb-9c9c-fa440fb86b74","system_id":"levelo_inurba_marseille","lat":43.28273,"lon":5.35056,"is_reserved":false,"is_disabled":false,"rental_uris":{"android":"levelo://app?vid=8890bb3a-07c5-4cbb-9c9c-fa440fb86b74","ios":"levelo://app?vid=8890bb3a-07c5-4cbb-9c9c-fa440fb86b74"},"vehicle_type_id":"4","last_reported":1778326809,"current_range_meters":6400,"station_id":"ce4bhbp2rcd13ifvqerg","pricing_plan_id":"cebpf4jnsgd1na2vs0mg"},{"bike_id":"eee51eae-5aaa-4a90-b6bb-0ee2250819e2","system_id":"levelo_inurba_marseille","lat":43.278871,"lon":5.387592,"is_reserved":false,"is_disabled":false,"rental_uris":{"android":"levelo://app?vid=eee51eae-5aaa-4a90-b6bb-0ee2250819e2","ios":"levelo://app?vid=eee51eae-5aaa-4a90-b6bb-0ee2250819e2"},"vehicle_type_id":"4","last_reported":1778326809,"current_range_meters":6400,"station_id":"","pricing_plan_id":"cebpf4jnsgd1na2vs0mg"},{"bike_id":"91d78913-28b2-401d-850a-f1af99bf6768","system_id":"levelo_inurba_marseille","lat":43.28867,"lon":5.42511,"is_reserved":false,"is_disabled":false,"rental_uris":{"android":"levelo://app?vid=91d78913-28b2-401d-850a-f1af99bf6768","ios":"levelo://app?vid=91d78913-28b2-401d-850a-f1af99bf6768"},"vehicle_type_id":"4","last_reported":1778326809,"current_range_meters":6400,"station_id":"st_d3b462108ojc7389ooeg","pricing_plan_id":"cebpf4jnsgd1na2vs0mg"},{"bike_id":"798dd442-ecce-41be-b4b9-436ee7f8a467","system_id":"levelo_inurba_marseille","lat":43.272094,"lon":5.390291,"is_reserved":false,"is_disabled":false,"rental_uris":{"android":"levelo://app?vid=798dd442-ecce-41be-b4b9-436ee7f8a467","ios":"levelo://app?vid=798dd442-ecce-41be-b4b9-436ee7f8a467"},"vehicle_type_id":"4","last_reported":1778326809,"current_range_meters":6400,"station_id":"ce4bhhp2rcd13ifvqfm0","pricing_plan_id":"cebpf4jnsgd1na2vs0mg"},{"bike_id":"e9603e54-ff6b-4fae-9e9b-b17dd395cbe4","system_id":"levelo_inurba_marseille","lat":43.26389,"lon":5.39899,"is_reserved":false,"is_disabled":false,"rental_uris":{"android":"levelo://app?vid=e9603e54-ff6b-4fae-9e9b-b17dd395cbe4","ios":"levelo://app?vid=e9603e54-ff6b-4fae-9e9b-b17dd395cbe4"},"vehicle_type_id":"4","last_reported":1778326809,"current_range_meters":6400,"station_id":"","pricing_plan_id":"cebpf4jnsgd1na2vs0mg"},{"bike_id":"79b4d413-1c2b-4fec-9692-ce7dea75d962","system_id":"levelo_inurba_marseille","lat":43.29783,"lon":5.3707,"is_reserved":false,"is_disabled":false,"rental_uris":{"android":"levelo://app?vid=79b4d413-1c2b-4fec-9692-ce7dea75d962","ios":"levelo://app?vid=79b4d413-1c2b-4fec-9692-ce7dea75d962"},"vehicle_type_id":"4","last_reported":1778326809,"current_range_meters":6400,"station_id":"ce4bgop2rcd13ifvqc1g","pricing_plan_id":"cebpf4jnsgd1na2vs0mg"},{"bike_id":"2d4086a4-858c-483d-b34b-ed85e093cb96","system_id":"levelo_inurba_marseille","lat":43.30175,"lon":5.38198,"is_reserved":false,"is_disabled":false,"rental_uris":{"android":"levelo://app?vid=2d4086a4-858c-483d-b34b-ed85e093cb96","ios":"levelo://app?vid=2d4086a4-858c-483d-b34b-ed85e093cb96"},"vehicle_type_id":"4","last_reported":1778326809,"current_range_meters":6400,"station_id":"","pricing_plan_id":"cebpf4jnsgd1na2vs0mg"},{"bike_id":"569e27fe-799f-49b2-85e6-493ede11ff34","system_id":"levelo_inurba_marseille","lat":43.29312,"lon":5.37455,"is_reserved":false,"is_disabled":false,"rental_uris":{"android":"levelo://app?vid=569e27fe-799f-49b2-85e6-493ede11ff34","ios":"levelo://app?vid=569e27fe-799f-49b2-85e6-493ede11ff34"},"vehicle_type_id":"4","last_reported":1778326809,"current_range_meters":6400,"station_id":"ce4bgi12rcd13ifvqb70","pricing_plan_id":"cebpf4jnsgd1na2vs0mg"},{"bike_id":"a2e74e74-93c3-4408-91b9-94419cab5218","system_id":"levelo_inurba_marseille","lat":43.27499,"lon":5.42416,"is_reserved":false,"is_disabled":false,"rental_uris":{"android":"levelo://app?vid=a2e74e74-93c3-4408-91b9-94419cab5218","ios":"levelo://app?vid=a2e74e74-93c3-4408-91b9-94419cab5218"},"vehicle_type_id":"4","last_reported":1778326809,"current_range_meters":6400,"station_id":"ce4bhn92rcd13ifvqgrg","pricing_plan_id":"cebpf4jnsgd1na2vs0mg"},{"bike_id":"7235c92a-3221-49c2-ab26-f6ff65daeb42","system_id":"levelo_inurba_marseille","lat":43.29049,"lon":5.37544,"is_reserved":false,"is_disabled":false,"rental_uris":{"android":"levelo://app?vid=7235c92a-3221-49c2-ab26-f6ff65daeb42","ios":"levelo://app?vid=7235c92a-3221-49c2-ab26-f6ff65daeb42"},"vehicle_type_id":"4","last_reported":1778326809,"current_range_meters":6400,"station_id":"ce4bh692rcd13ifvqe90","pricing_plan_id":"cebpf4jnsgd1na2vs0mg"},{"bike_id":"4100d1c9-7500-4ef7-94a9-bab8eb5d51b6","system_id":"levelo_inurba_marseille","lat":43.21189,"lon":5.35068,"is_reserved":false,"is_disabled":false,"rental_uris":{"android":"levelo://app?vid=4100d1c9-7500-4ef7-94a9-bab8eb5d51b6","ios":"levelo://app?vid=4100d1c9-7500-4ef7-94a9-bab8eb5d51b6"},"vehicle_type_id":"4","last_reported":1778326809,"current_range_meters":6800,"station_id":"st_cvj6sg6p6f1abm77japg","pricing_plan_id":"cebpf4jnsgd1na2vs0mg"},{"bike_id":"3d22a6b7-1b35-450e-95ec-0bfb2eba181e","system_id":"levelo_inurba_marseille","lat":43.29853,"lon":5.44023,"is_reserved":false,"is_disabled":false,"rental_uris":{"android":"levelo://app?vid=3d22a6b7-1b35-450e-95ec-0bfb2eba181e","ios":"levelo://app?vid=3d22a6b7-1b35-450e-95ec-0bfb2eba181e"},"vehicle_type_id":"4","last_reported":1778326809,"current_range_meters":6800,"station_id":"","pricing_plan_id":"cebpf4jnsgd1na2vs0mg"},{"bike_id":"32f9bfdc-f611-411a-9ab6-4ef68d5349b2","system_id":"levelo_inurba_marseille","lat":43.28983,"lon":5.37816,"is_reserved":false,"is_disabled":false,"rental_uris":{"android":"levelo://app?vid=32f9bfdc-f611-411a-9ab6-4ef68d5349b2","ios":"levelo://app?vid=32f9bfdc-f611-411a-9ab6-4ef68d5349b2"},"vehicle_type_id":"4","last_reported":1778326809,"current_range_meters":6800,"station_id":"ce4bh9p2rcd13ifvqed0","pricing_plan_id":"cebpf4jnsgd1na2vs0mg"},{"bike_id":"8fdbe986-716a-4dce-a50d-3af695e9688c","system_id":"levelo_inurba_marseille","lat":43.33565,"lon":5.37459,"is_reserved":false,"is_disabled":false,"rental_uris":{"android":"levelo://app?vid=8fdbe986-716a-4dce-a50d-3af695e9688c","ios":"levelo://app?vid=8fdbe986-716a-4dce-a50d-3af695e9688c"},"vehicle_type_id":"4","last_reported":1778326809,"current_range_meters":6800,"station_id":"st_d46tts09ee8s73dlu43g","pricing_plan_id":"cebpf4jnsgd1na2vs0mg"},{"bike_id":"240f83cd-e330-45fb-9f58-4a13270cfff0","system_id":"levelo_inurba_marseille","lat":43.28181,"lon":5.42606,"is_reserved":false,"is_disabled":false,"rental_uris":{"android":"levelo://app?vid=240f83cd-e330-45fb-9f58-4a13270cfff0","ios":"levelo://app?vid=240f83cd-e330-45fb-9f58-4a13270cfff0"},"vehicle_type_id":"4","last_reported":1778326809,"current_range_meters":6800,"station_id":"ce4bhnh2rcd13ifvqgug","pricing_plan_id":"cebpf4jnsgd1na2vs0mg"},{"bike_id":"aa6ae606-3307-41cf-aadc-ca3e6683cd3d","system_id":"levelo_inurba_marseille","lat":43.29291,"lon":5.37167,"is_reserved":false,"is_disabled":false,"rental_uris":{"android":"levelo://app?vid=aa6ae606-3307-41cf-aadc-ca3e6683cd3d","ios":"levelo://app?vid=aa6ae606-3307-41cf-aadc-ca3e6683cd3d"},"vehicle_type_id":"4","last_reported":1778326809,"current_range_meters":6800,"station_id":"ce4bgh92rcd13ifvqb40","pricing_plan_id":"cebpf4jnsgd1na2vs0mg"},{"bike_id":"06750813-80e5-4eb6-b50a-57ffe9fa6b8b","system_id":"levelo_inurba_marseille","lat":43.25579,"lon":5.38233,"is_reserved":false,"is_disabled":false,"rental_uris":{"android":"levelo://app?vid=06750813-80e5-4eb6-b50a-57ffe9fa6b8b","ios":"levelo://app?vid=06750813-80e5-4eb6-b50a-57ffe9fa6b8b"},"vehicle_type_id":"4","last_reported":1778326809,"current_range_meters":6800,"station_id":"ce4bhih2rcd13ifvqfs0","pricing_plan_id":"cebpf4jnsgd1na2vs0mg"},{"bike_id":"3e7e670d-2ef7-4b27-9465-54592fc35211","system_id":"levelo_inurba_marseille","lat":43.21199,"lon":5.35054,"is_reserved":false,"is_disabled":false,"rental_uris":{"android":"levelo://app?vid=3e7e670d-2ef7-4b27-9465-54592fc35211","ios":"levelo://app?vid=3e7e670d-2ef7-4b27-9465-54592fc35211"},"vehicle_type_id":"4","last_reported":1778326809,"current_range_meters":6800,"station_id":"st_cvj6sg6p6f1abm77japg","pricing_plan_id":"cebpf4jnsgd1na2vs0mg"},{"bike_id":"c23b9fb6-8249-47b9-b834-2db7ce007788","system_id":"levelo_inurba_marseille","lat":43.29128,"lon":5.40275,"is_reserved":false,"is_disabled":false,"rental_uris":{"android":"levelo://app?vid=c23b9fb6-8249-47b9-b834-2db7ce007788","ios":"levelo://app?vid=c23b9fb6-8249-47b9-b834-2db7ce007788"},"vehicle_type_id":"4","last_reported":1778326809,"current_range_meters":6800,"station_id":"","pricing_plan_id":"cebpf4jnsgd1na2vs0mg"},{"bike_id":"e744fd51-d53a-4993-92a1-3a6752e7a33c","system_id":"levelo_inurba_marseille","lat":43.32107,"lon":5.36791,"is_reserved":false,"is_disabled":false,"rental_uris":{"android":"levelo://app?vid=e744fd51-d53a-4993-92a1-3a6752e7a33c","ios":"levelo://app?vid=e744fd51-d53a-4993-92a1-3a6752e7a33c"},"vehicle_type_id":"4","last_reported":1778326809,"current_range_meters":6800,"station_id":"ce4bhrh2rcd13ifvqhug","pricing_plan_id":"cebpf4jnsgd1na2vs0mg"},{"bike_id":"de6e81ab-1a80-41d3-8149-3c0010ff646e","system_id":"levelo_inurba_marseille","lat":43.28616,"lon":5.351024,"is_reserved":false,"is_disabled":false,"rental_uris":{"android":"levelo://app?vid=de6e81ab-1a80-41d3-8149-3c0010ff646e","ios":"levelo://app?vid=de6e81ab-1a80-41d3-8149-3c0010ff646e"},"vehicle_type_id":"4","last_reported":1778326809,"current_range_meters":6800,"station_id":"ce4bhch2rcd13ifvqeug","pricing_plan_id":"cebpf4jnsgd1na2vs0mg"},{"bike_id":"c081e2e6-b6d3-466f-b56c-4844cab8d639","system_id":"levelo_inurba_marseille","lat":43.23802,"lon":5.41428,"is_reserved":false,"is_disabled":false,"rental_uris":{"android":"levelo://app?vid=c081e2e6-b6d3-466f-b56c-4844cab8d639","ios":"levelo://app?vid=c081e2e6-b6d3-466f-b56c-4844cab8d639"},"vehicle_type_id":"4","last_reported":1778326809,"current_range_meters":6800,"station_id":"","pricing_plan_id":"cebpf4jnsgd1na2vs0mg"},{"bike_id":"07829fdc-c599-44a2-8a5d-d38b8b9f7bb8","system_id":"levelo_inurba_marseille","lat":43.303715,"lon":5.424866,"is_reserved":false,"is_disabled":true,"rental_uris":{"android":"levelo://app?vid=07829fdc-c599-44a2-8a5d-d38b8b9f7bb8","ios":"levelo://app?vid=07829fdc-c599-44a2-8a5d-d38b8b9f7bb8"},"vehicle_type_id":"4","last_reported":1778326809,"current_range_meters":6800,"station_id":"ce4bhoh2rcd13ifvqh6g","pricing_plan_id":"cebpf4jnsgd1na2vs0mg"},{"bike_id":"1185298f-40af-4f7d-a6e9-867ec3e91cdd","system_id":"levelo_inurba_marseille","lat":43.29783,"lon":5.37646,"is_reserved":false,"is_disabled":false,"rental_uris":{"android":"levelo://app?vid=1185298f-40af-4f7d-a6e9-867ec3e91cdd","ios":"levelo://app?vid=1185298f-40af-4f7d-a6e9-867ec3e91cdd"},"vehicle_type_id":"4","last_reported":1778326809,"current_range_meters":6800,"station_id":"","pricing_plan_id":"cebpf4jnsgd1na2vs0mg"},{"bike_id":"c440543a-fc70-44c0-b21f-aa93407f1be5","system_id":"levelo_inurba_marseille","lat":43.34159,"lon":5.40919,"is_reserved":false,"is_disabled":true,"rental_uris":{"android":"levelo://app?vid=c440543a-fc70-44c0-b21f-aa93407f1be5","ios":"levelo://app?vid=c440543a-fc70-44c0-b21f-aa93407f1be5"},"vehicle_type_id":"4","last_reported":1778326809,"current_range_meters":6800,"station_id":"ce4bhqh2rcd13ifvqhlg","pricing_plan_id":"cebpf4jnsgd1na2vs0mg"},{"bike_id":"080915f6-df4c-4af9-8ea4-57ab55674d2e","system_id":"levelo_inurba_marseille","lat":43.299181,"lon":5.374765,"is_reserved":false,"is_disabled":false,"rental_uris":{"android":"levelo://app?vid=080915f6-df4c-4af9-8ea4-57ab55674d2e","ios":"levelo://app?vid=080915f6-df4c-4af9-8ea4-57ab55674d2e"},"vehicle_type_id":"4","last_reported":1778326809,"current_range_meters":6800,"station_id":"ce4bgjh2rcd13ifvqbg0","pricing_plan_id":"cebpf4jnsgd1na2vs0mg"},{"bike_id":"5ed77340-0dd4-4391-a442-785e2e55258b","system_id":"levelo_inurba_marseille","lat":43.292285,"lon":5.360553,"is_reserved":false,"is_disabled":false,"rental_uris":{"android":"levelo://app?vid=5ed77340-0dd4-4391-a442-785e2e55258b","ios":"levelo://app?vid=5ed77340-0dd4-4391-a442-785e2e55258b"},"vehicle_type_id":"4","last_reported":1778326809,"current_range_meters":6800,"station_id":"ce4bhbh2rcd13ifvqeqg","pricing_plan_id":"cebpf4jnsgd1na2vs0mg"},{"bike_id":"ee88be94-e2e7-4c1c-b2c9-5ac0b9e8b679","system_id":"levelo_inurba_marseille","lat":43.29566,"lon":5.37487,"is_reserved":false,"is_disabled":false,"rental_uris":{"android":"levelo://app?vid=ee88be94-e2e7-4c1c-b2c9-5ac0b9e8b679","ios":"levelo://app?vid=ee88be94-e2e7-4c1c-b2c9-5ac0b9e8b679"},"vehicle_type_id":"4","last_reported":1778326809,"current_range_meters":6800,"station_id":"ce4bgh92rcd13ifvqb50","pricing_plan_id":"cebpf4jnsgd1na2vs0mg"},{"bike_id":"ae91cc87-1c3b-4048-8caf-57cf3c786c91","system_id":"levelo_inurba_marseille","lat":43.268,"lon":5.40273,"is_reserved":false,"is_disabled":false,"rental_uris":{"android":"levelo://app?vid=ae91cc87-1c3b-4048-8caf-57cf3c786c91","ios":"levelo://app?vid=ae91cc87-1c3b-4048-8caf-57cf3c786c91"},"vehicle_type_id":"4","last_reported":1778326809,"current_range_meters":6800,"station_id":"ce501612rcd8frsf0b60","pricing_plan_id":"cebpf4jnsgd1na2vs0mg"},{"bike_id":"367f17cb-0957-4952-ad34-e248418839cf","system_id":"levelo_inurba_marseille","lat":43.24509,"lon":5.39522,"is_reserved":false,"is_disabled":false,"rental_uris":{"android":"levelo://app?vid=367f17cb-0957-4952-ad34-e248418839cf","ios":"levelo://app?vid=367f17cb-0957-4952-ad34-e248418839cf"},"vehicle_type_id":"4","last_reported":1778326809,"current_range_meters":6800,"station_id":"","pricing_plan_id":"cebpf4jnsgd1na2vs0mg"},{"bike_id":"43705be5-0b0d-4249-9a45-6509fa354e7e","system_id":"levelo_inurba_marseille","lat":43.29963,"lon":5.37015,"is_reserved":false,"is_disabled":false,"rental_uris":{"android":"levelo://app?vid=43705be5-0b0d-4249-9a45-6509fa354e7e","ios":"levelo://app?vid=43705be5-0b0d-4249-9a45-6509fa354e7e"},"vehicle_type_id":"4","last_reported":1778326809,"current_range_meters":6800,"station_id":"","pricing_plan_id":"cebpf4jnsgd1na2vs0mg"},{"bike_id":"ddf4a846-ab18-40b2-b00e-a6a52af97830","system_id":"levelo_inurba_marseille","lat":43.21189,"lon":5.35066,"is_reserved":false,"is_disabled":false,"rental_uris":{"android":"levelo://app?vid=ddf4a846-ab18-40b2-b00e-a6a52af97830","ios":"levelo://app?vid=ddf4a846-ab18-40b2-b00e-a6a52af97830"},"vehicle_type_id":"4","last_reported":1778326809,"current_range_meters":6800,"station_id":"st_cvj6sg6p6f1abm77japg","pricing_plan_id":"cebpf4jnsgd1na2vs0mg"},{"bike_id":"9ad913f6-2078-4be7-be92-bf404b171896","system_id":"levelo_inurba_marseille","lat":43.305932,"lon":5.393503,"is_reserved":false,"is_disabled":false,"rental_uris":{"android":"levelo://app?vid=9ad913f6-2078-4be7-be92-bf404b171896","ios":"levelo://app?vid=9ad913f6-2078-4be7-be92-bf404b171896"},"vehicle_type_id":"4","last_reported":1778326809,"current_range_meters":6800,"station_id":"ce4bh0p2rcd13ifvqd80","pricing_plan_id":"cebpf4jnsgd1na2vs0mg"},{"bike_id":"ef4c0d2f-d37c-409b-be4c-7cceaa4aabfa","system_id":"levelo_inurba_marseille","lat":43.28477,"lon":5.48386,"is_reserved":false,"is_disabled":false,"rental_uris":{"android":"levelo://app?vid=ef4c0d2f-d37c-409b-be4c-7cceaa4aabfa","ios":"levelo://app?vid=ef4c0d2f-d37c-409b-be4c-7cceaa4aabfa"},"vehicle_type_id":"4","last_reported":1778326809,"current_range_meters":7200,"station_id":"st_d3svhcjqgbts73a3dn0g","pricing_plan_id":"cebpf4jnsgd1na2vs0mg"},{"bike_id":"0905bf26-d1df-4967-bcf7-a2c7f347956a","system_id":"levelo_inurba_marseille","lat":43.28931,"lon":5.39628,"is_reserved":false,"is_disabled":true,"rental_uris":{"android":"levelo://app?vid=0905bf26-d1df-4967-bcf7-a2c7f347956a","ios":"levelo://app?vid=0905bf26-d1df-4967-bcf7-a2c7f347956a"},"vehicle_type_id":"4","last_reported":1778326809,"current_range_meters":7200,"station_id":"ce4bh3h2rcd13ifvqdn0","pricing_plan_id":"cebpf4jnsgd1na2vs0mg"},{"bike_id":"572f9341-0b5f-4434-81fc-3a3377dea1fc","system_id":"levelo_inurba_marseille","lat":43.29784,"lon":5.38068,"is_reserved":false,"is_disabled":false,"rental_uris":{"android":"levelo://app?vid=572f9341-0b5f-4434-81fc-3a3377dea1fc","ios":"levelo://app?vid=572f9341-0b5f-4434-81fc-3a3377dea1fc"},"vehicle_type_id":"4","last_reported":1778326809,"current_range_meters":7200,"station_id":"ce4bgip2rcd13ifvqbb0","pricing_plan_id":"cebpf4jnsgd1na2vs0mg"},{"bike_id":"b16c9a61-8e55-40ab-a928-1f3e0177e542","system_id":"levelo_inurba_marseille","lat":43.21196,"lon":5.35045,"is_reserved":false,"is_disabled":false,"rental_uris":{"android":"levelo://app?vid=b16c9a61-8e55-40ab-a928-1f3e0177e542","ios":"levelo://app?vid=b16c9a61-8e55-40ab-a928-1f3e0177e542"},"vehicle_type_id":"4","last_reported":1778326809,"current_range_meters":7200,"station_id":"st_cvj6sg6p6f1abm77japg","pricing_plan_id":"cebpf4jnsgd1na2vs0mg"},{"bike_id":"d83574fa-77fd-48a2-badc-9c9b4388d7df","system_id":"levelo_inurba_marseille","lat":43.23182,"lon":5.43685,"is_reserved":false,"is_disabled":false,"rental_uris":{"android":"levelo://app?vid=d83574fa-77fd-48a2-badc-9c9b4388d7df","ios":"levelo://app?vid=d83574fa-77fd-48a2-badc-9c9b4388d7df"},"vehicle_type_id":"4","last_reported":1778326809,"current_range_meters":7200,"station_id":"ce4bhmp2rcd13ifvqgog","pricing_plan_id":"cebpf4jnsgd1na2vs0mg"},{"bike_id":"ba57721e-c0e4-44b6-93f2-75941599ecc5","system_id":"levelo_inurba_marseille","lat":43.29719,"lon":5.37694,"is_reserved":false,"is_disabled":false,"rental_uris":{"android":"levelo://app?vid=ba57721e-c0e4-44b6-93f2-75941599ecc5","ios":"levelo://app?vid=ba57721e-c0e4-44b6-93f2-75941599ecc5"},"vehicle_type_id":"4","last_reported":1778326809,"current_range_meters":7200,"station_id":"ce4bgkh2rcd13ifvqbl0","pricing_plan_id":"cebpf4jnsgd1na2vs0mg"},{"bike_id":"924e8a7f-30b6-4a45-8023-b0fed71dc0fc","system_id":"levelo_inurba_marseille","lat":43.26211,"lon":5.37438,"is_reserved":false,"is_disabled":false,"rental_uris":{"android":"levelo://app?vid=924e8a7f-30b6-4a45-8023-b0fed71dc0fc","ios":"levelo://app?vid=924e8a7f-30b6-4a45-8023-b0fed71dc0fc"},"vehicle_type_id":"4","last_reported":1778326809,"current_range_meters":7200,"station_id":"ce4bhgp2rcd13ifvqfc0","pricing_plan_id":"cebpf4jnsgd1na2vs0mg"},{"bike_id":"407e9612-ad93-4d7c-a713-0ff1764d5034","system_id":"levelo_inurba_marseille","lat":43.31365,"lon":5.41508,"is_reserved":false,"is_disabled":false,"rental_uris":{"android":"levelo://app?vid=407e9612-ad93-4d7c-a713-0ff1764d5034","ios":"levelo://app?vid=407e9612-ad93-4d7c-a713-0ff1764d5034"},"vehicle_type_id":"4","last_reported":1778326809,"current_range_meters":7200,"station_id":"","pricing_plan_id":"cebpf4jnsgd1na2vs0mg"},{"bike_id":"55eae868-1b1d-4225-9916-dd72feb22dd0","system_id":"levelo_inurba_marseille","lat":43.3038,"lon":5.42493,"is_reserved":false,"is_disabled":false,"rental_uris":{"android":"levelo://app?vid=55eae868-1b1d-4225-9916-dd72feb22dd0","ios":"levelo://app?vid=55eae868-1b1d-4225-9916-dd72feb22dd0"},"vehicle_type_id":"4","last_reported":1778326809,"current_range_meters":7200,"station_id":"ce4bhoh2rcd13ifvqh6g","pricing_plan_id":"cebpf4jnsgd1na2vs0mg"},{"bike_id":"a30008ae-a2df-4129-8ea6-0f377536b8ba","system_id":"levelo_inurba_marseille","lat":43.32114,"lon":5.36762,"is_reserved":false,"is_disabled":false,"rental_uris":{"android":"levelo://app?vid=a30008ae-a2df-4129-8ea6-0f377536b8ba","ios":"levelo://app?vid=a30008ae-a2df-4129-8ea6-0f377536b8ba"},"vehicle_type_id":"4","last_reported":1778326809,"current_range_meters":7200,"station_id":"ce4bhrh2rcd13ifvqhug","pricing_plan_id":"cebpf4jnsgd1na2vs0mg"},{"bike_id":"5dda00a1-f787-488a-aa64-058079c40c64","system_id":"levelo_inurba_marseille","lat":43.27015,"lon":5.3936,"is_reserved":false,"is_disabled":false,"rental_uris":{"android":"levelo://app?vid=5dda00a1-f787-488a-aa64-058079c40c64","ios":"levelo://app?vid=5dda00a1-f787-488a-aa64-058079c40c64"},"vehicle_type_id":"4","last_reported":1778326809,"current_range_meters":7200,"station_id":"","pricing_plan_id":"cebpf4jnsgd1na2vs0mg"},{"bike_id":"cbae1a95-d3ed-4e95-8610-44b86cadf9a5","system_id":"levelo_inurba_marseille","lat":43.26548,"lon":5.37269,"is_reserved":false,"is_disabled":false,"rental_uris":{"android":"levelo://app?vid=cbae1a95-d3ed-4e95-8610-44b86cadf9a5","ios":"levelo://app?vid=cbae1a95-d3ed-4e95-8610-44b86cadf9a5"},"vehicle_type_id":"4","last_reported":1778326809,"current_range_meters":7200,"station_id":"ce4bhg12rcd13ifvqf70","pricing_plan_id":"cebpf4jnsgd1na2vs0mg"},{"bike_id":"024c6892-203c-4eeb-b7a9-cce2defb82a6","system_id":"levelo_inurba_marseille","lat":43.27061,"lon":5.38295,"is_reserved":false,"is_disabled":false,"rental_uris":{"android":"levelo://app?vid=024c6892-203c-4eeb-b7a9-cce2defb82a6","ios":"levelo://app?vid=024c6892-203c-4eeb-b7a9-cce2defb82a6"},"vehicle_type_id":"4","last_reported":1778326809,"current_range_meters":7200,"station_id":"st_d3n2fo6cfp8s73cte1j0","pricing_plan_id":"cebpf4jnsgd1na2vs0mg"},{"bike_id":"2786e262-6cc6-4c9a-ba7d-03e82ac375e4","system_id":"levelo_inurba_marseille","lat":43.29315,"lon":5.37105,"is_reserved":false,"is_disabled":false,"rental_uris":{"android":"levelo://app?vid=2786e262-6cc6-4c9a-ba7d-03e82ac375e4","ios":"levelo://app?vid=2786e262-6cc6-4c9a-ba7d-03e82ac375e4"},"vehicle_type_id":"4","last_reported":1778326809,"current_range_meters":7200,"station_id":"ce4bgh92rcd13ifvqb40","pricing_plan_id":"cebpf4jnsgd1na2vs0mg"},{"bike_id":"0259c7f9-4a67-468b-967d-555f1f780b18","system_id":"levelo_inurba_marseille","lat":43.24728,"lon":5.38062,"is_reserved":false,"is_disabled":false,"rental_uris":{"android":"levelo://app?vid=0259c7f9-4a67-468b-967d-555f1f780b18","ios":"levelo://app?vid=0259c7f9-4a67-468b-967d-555f1f780b18"},"vehicle_type_id":"4","last_reported":1778326809,"current_range_meters":7200,"station_id":"","pricing_plan_id":"cebpf4jnsgd1na2vs0mg"},{"bike_id":"6dfe43ac-6131-42a7-8c3d-86b7cfec6e79","system_id":"levelo_inurba_marseille","lat":43.29025,"lon":5.37205,"is_reserved":false,"is_disabled":false,"rental_uris":{"android":"levelo://app?vid=6dfe43ac-6131-42a7-8c3d-86b7cfec6e79","ios":"levelo://app?vid=6dfe43ac-6131-42a7-8c3d-86b7cfec6e79"},"vehicle_type_id":"4","last_reported":1778326809,"current_range_meters":7200,"station_id":"","pricing_plan_id":"cebpf4jnsgd1na2vs0mg"},{"bike_id":"c74991ed-3578-4827-98b9-e12bf38aed62","system_id":"levelo_inurba_marseille","lat":43.22564,"lon":5.41648,"is_reserved":false,"is_disabled":false,"rental_uris":{"android":"levelo://app?vid=c74991ed-3578-4827-98b9-e12bf38aed62","ios":"levelo://app?vid=c74991ed-3578-4827-98b9-e12bf38aed62"},"vehicle_type_id":"4","last_reported":1778326809,"current_range_meters":7200,"station_id":"st_d2o4gvlbi1j2169b742g","pricing_plan_id":"cebpf4jnsgd1na2vs0mg"},{"bike_id":"80ce62aa-95db-4134-a27f-af6f321881d8","system_id":"levelo_inurba_marseille","lat":43.3303,"lon":5.39033,"is_reserved":false,"is_disabled":false,"rental_uris":{"android":"levelo://app?vid=80ce62aa-95db-4134-a27f-af6f321881d8","ios":"levelo://app?vid=80ce62aa-95db-4134-a27f-af6f321881d8"},"vehicle_type_id":"4","last_reported":1778326809,"current_range_meters":7200,"station_id":"ce4bhr92rcd13ifvqhrg","pricing_plan_id":"cebpf4jnsgd1na2vs0mg"},{"bike_id":"627ea465-4e71-4046-a508-023e31352421","system_id":"levelo_inurba_marseille","lat":43.25046,"lon":5.40478,"is_reserved":false,"is_disabled":false,"rental_uris":{"android":"levelo://app?vid=627ea465-4e71-4046-a508-023e31352421","ios":"levelo://app?vid=627ea465-4e71-4046-a508-023e31352421"},"vehicle_type_id":"4","last_reported":1778326809,"current_range_meters":7200,"station_id":"","pricing_plan_id":"cebpf4jnsgd1na2vs0mg"},{"bike_id":"c115c8b6-b19e-449b-95a6-e5e87fcc567f","system_id":"levelo_inurba_marseille","lat":43.2816,"lon":5.42634,"is_reserved":false,"is_disabled":false,"rental_uris":{"android":"levelo://app?vid=c115c8b6-b19e-449b-95a6-e5e87fcc567f","ios":"levelo://app?vid=c115c8b6-b19e-449b-95a6-e5e87fcc567f"},"vehicle_type_id":"4","last_reported":1778326809,"current_range_meters":7200,"station_id":"ce4bhnh2rcd13ifvqgug","pricing_plan_id":"cebpf4jnsgd1na2vs0mg"},{"bike_id":"04699f26-1b50-41fd-837d-0230f2ab2735","system_id":"levelo_inurba_marseille","lat":43.3,"lon":5.37157,"is_reserved":false,"is_disabled":false,"rental_uris":{"android":"levelo://app?vid=04699f26-1b50-41fd-837d-0230f2ab2735","ios":"levelo://app?vid=04699f26-1b50-41fd-837d-0230f2ab2735"},"vehicle_type_id":"4","last_reported":1778326809,"current_range_meters":8000,"station_id":"ce4bgr92rcd13ifvqc7g","pricing_plan_id":"cebpf4jnsgd1na2vs0mg"},{"bike_id":"2fce176a-4e2d-4fda-b017-be37af5c7bf1","system_id":"levelo_inurba_marseille","lat":43.30149,"lon":5.38083,"is_reserved":false,"is_disabled":false,"rental_uris":{"android":"levelo://app?vid=2fce176a-4e2d-4fda-b017-be37af5c7bf1","ios":"levelo://app?vid=2fce176a-4e2d-4fda-b017-be37af5c7bf1"},"vehicle_type_id":"4","last_reported":1778326809,"current_range_meters":8000,"station_id":"ce4bgjp2rcd13ifvqbh0","pricing_plan_id":"cebpf4jnsgd1na2vs0mg"},{"bike_id":"e6bd8138-3d56-4ae6-9878-8794caa087c5","system_id":"levelo_inurba_marseille","lat":43.24467,"lon":5.42526,"is_reserved":false,"is_disabled":true,"rental_uris":{"android":"levelo://app?vid=e6bd8138-3d56-4ae6-9878-8794caa087c5","ios":"levelo://app?vid=e6bd8138-3d56-4ae6-9878-8794caa087c5"},"vehicle_type_id":"4","last_reported":1778326809,"current_range_meters":8000,"station_id":"st_d4a3vfp97mjs738cd8kg","pricing_plan_id":"cebpf4jnsgd1na2vs0mg"},{"bike_id":"4717d778-c5a1-45f2-8f15-593cb5f5f16d","system_id":"levelo_inurba_marseille","lat":43.26553,"lon":5.3728,"is_reserved":false,"is_disabled":false,"rental_uris":{"android":"levelo://app?vid=4717d778-c5a1-45f2-8f15-593cb5f5f16d","ios":"levelo://app?vid=4717d778-c5a1-45f2-8f15-593cb5f5f16d"},"vehicle_type_id":"4","last_reported":1778326809,"current_range_meters":8000,"station_id":"ce4bhg12rcd13ifvqf70","pricing_plan_id":"cebpf4jnsgd1na2vs0mg"},{"bike_id":"f539bb17-16cf-4505-8a99-d64e79a69d9e","system_id":"levelo_inurba_marseille","lat":43.32086,"lon":5.36802,"is_reserved":false,"is_disabled":false,"rental_uris":{"android":"levelo://app?vid=f539bb17-16cf-4505-8a99-d64e79a69d9e","ios":"levelo://app?vid=f539bb17-16cf-4505-8a99-d64e79a69d9e"},"vehicle_type_id":"4","last_reported":1778326809,"current_range_meters":8000,"station_id":"ce4bhrh2rcd13ifvqhug","pricing_plan_id":"cebpf4jnsgd1na2vs0mg"},{"bike_id":"558ecc7a-7ed0-4d4d-8eaf-a0bf6d6ce907","system_id":"levelo_inurba_marseille","lat":43.28223,"lon":5.40589,"is_reserved":false,"is_disabled":false,"rental_uris":{"android":"levelo://app?vid=558ecc7a-7ed0-4d4d-8eaf-a0bf6d6ce907","ios":"levelo://app?vid=558ecc7a-7ed0-4d4d-8eaf-a0bf6d6ce907"},"vehicle_type_id":"4","last_reported":1778326809,"current_range_meters":8000,"station_id":"","pricing_plan_id":"cebpf4jnsgd1na2vs0mg"},{"bike_id":"e3bbcbb1-fd13-47a0-a9a9-f156a9ce2599","system_id":"levelo_inurba_marseille","lat":43.29775,"lon":5.37076,"is_reserved":false,"is_disabled":false,"rental_uris":{"android":"levelo://app?vid=e3bbcbb1-fd13-47a0-a9a9-f156a9ce2599","ios":"levelo://app?vid=e3bbcbb1-fd13-47a0-a9a9-f156a9ce2599"},"vehicle_type_id":"4","last_reported":1778326809,"current_range_meters":8000,"station_id":"ce4bgop2rcd13ifvqc1g","pricing_plan_id":"cebpf4jnsgd1na2vs0mg"},{"bike_id":"4eb58693-e4ac-4599-a16a-a215d497159b","system_id":"levelo_inurba_marseille","lat":43.30537,"lon":5.36546,"is_reserved":false,"is_disabled":false,"rental_uris":{"android":"levelo://app?vid=4eb58693-e4ac-4599-a16a-a215d497159b","ios":"levelo://app?vid=4eb58693-e4ac-4599-a16a-a215d497159b"},"vehicle_type_id":"4","last_reported":1778326809,"current_range_meters":8000,"station_id":"ce4bgs12rcd13ifvqcag","pricing_plan_id":"cebpf4jnsgd1na2vs0mg"},{"bike_id":"f422b51e-1ef9-42a2-8365-1d33f807a8e0","system_id":"levelo_inurba_marseille","lat":43.23918,"lon":5.37431,"is_reserved":false,"is_disabled":true,"rental_uris":{"android":"levelo://app?vid=f422b51e-1ef9-42a2-8365-1d33f807a8e0","ios":"levelo://app?vid=f422b51e-1ef9-42a2-8365-1d33f807a8e0"},"vehicle_type_id":"4","last_reported":1778326809,"current_range_meters":8000,"station_id":"st_d6sm7csbq4hs73f8fpjg","pricing_plan_id":"cebpf4jnsgd1na2vs0mg"},{"bike_id":"ac669cf6-3802-49e7-8567-a514ce79081d","system_id":"levelo_inurba_marseille","lat":43.29136,"lon":5.38509,"is_reserved":false,"is_disabled":true,"rental_uris":{"android":"levelo://app?vid=ac669cf6-3802-49e7-8567-a514ce79081d","ios":"levelo://app?vid=ac669cf6-3802-49e7-8567-a514ce79081d"},"vehicle_type_id":"4","last_reported":1778326809,"current_range_meters":8000,"station_id":"","pricing_plan_id":"cebpf4jnsgd1na2vs0mg"},{"bike_id":"19853c52-baea-4a08-a9a1-16e71ce3b9b4","system_id":"levelo_inurba_marseille","lat":43.26225,"lon":5.38766,"is_reserved":false,"is_disabled":false,"rental_uris":{"android":"levelo://app?vid=19853c52-baea-4a08-a9a1-16e71ce3b9b4","ios":"levelo://app?vid=19853c52-baea-4a08-a9a1-16e71ce3b9b4"},"vehicle_type_id":"4","last_reported":1778326809,"current_range_meters":8000,"station_id":"","pricing_plan_id":"cebpf4jnsgd1na2vs0mg"},{"bike_id":"b1eefa37-96ae-4f95-a344-438091e1d04d","system_id":"levelo_inurba_marseille","lat":43.3104,"lon":5.39275,"is_reserved":false,"is_disabled":false,"rental_uris":{"android":"levelo://app?vid=b1eefa37-96ae-4f95-a344-438091e1d04d","ios":"levelo://app?vid=b1eefa37-96ae-4f95-a344-438091e1d04d"},"vehicle_type_id":"4","last_reported":1778326809,"current_range_meters":8000,"station_id":"","pricing_plan_id":"cebpf4jnsgd1na2vs0mg"},{"bike_id":"74a938f2-f578-4294-9976-174677fe2f35","system_id":"levelo_inurba_marseille","lat":43.294672,"lon":5.43321,"is_reserved":false,"is_disabled":false,"rental_uris":{"android":"levelo://app?vid=74a938f2-f578-4294-9976-174677fe2f35","ios":"levelo://app?vid=74a938f2-f578-4294-9976-174677fe2f35"},"vehicle_type_id":"4","last_reported":1778326809,"current_range_meters":8000,"station_id":"st_d3j5ugp08ojc73fj9d10","pricing_plan_id":"cebpf4jnsgd1na2vs0mg"},{"bike_id":"d51c481b-08a2-49cc-abcb-8f03275c11e2","system_id":"levelo_inurba_marseille","lat":43.31386,"lon":5.38473,"is_reserved":false,"is_disabled":true,"rental_uris":{"android":"levelo://app?vid=d51c481b-08a2-49cc-abcb-8f03275c11e2","ios":"levelo://app?vid=d51c481b-08a2-49cc-abcb-8f03275c11e2"},"vehicle_type_id":"4","last_reported":1778326809,"current_range_meters":8000,"station_id":"ce4bgt92rcd13ifvqcf0","pricing_plan_id":"cebpf4jnsgd1na2vs0mg"},{"bike_id":"e477c5f0-4b62-491b-9863-990a0efda1db","system_id":"levelo_inurba_marseille","lat":43.31902,"lon":5.3679,"is_reserved":false,"is_disabled":false,"rental_uris":{"android":"levelo://app?vid=e477c5f0-4b62-491b-9863-990a0efda1db","ios":"levelo://app?vid=e477c5f0-4b62-491b-9863-990a0efda1db"},"vehicle_type_id":"4","last_reported":1778326809,"current_range_meters":8000,"station_id":"st_d6o2h0d0559c73evc1b0","pricing_plan_id":"cebpf4jnsgd1na2vs0mg"},{"bike_id":"e63235ba-34e6-4879-8b03-29a136d55ad0","system_id":"levelo_inurba_marseille","lat":43.31224,"lon":5.36828,"is_reserved":false,"is_disabled":false,"rental_uris":{"android":"levelo://app?vid=e63235ba-34e6-4879-8b03-29a136d55ad0","ios":"levelo://app?vid=e63235ba-34e6-4879-8b03-29a136d55ad0"},"vehicle_type_id":"4","last_reported":1778326809,"current_range_meters":8000,"station_id":"ce4bgl92rcd13ifvqbq0","pricing_plan_id":"cebpf4jnsgd1na2vs0mg"},{"bike_id":"ddddfff3-efef-47c6-afb1-7f0cb697b599","system_id":"levelo_inurba_marseille","lat":43.21742,"lon":5.34618,"is_reserved":false,"is_disabled":false,"rental_uris":{"android":"levelo://app?vid=ddddfff3-efef-47c6-afb1-7f0cb697b599","ios":"levelo://app?vid=ddddfff3-efef-47c6-afb1-7f0cb697b599"},"vehicle_type_id":"4","last_reported":1778326809,"current_range_meters":8000,"station_id":"st_cvj6r9ubvosntc0bgbag","pricing_plan_id":"cebpf4jnsgd1na2vs0mg"},{"bike_id":"8bd5a8a1-be3f-4748-92cc-598f52cb6d94","system_id":"levelo_inurba_marseille","lat":43.23159,"lon":5.43689,"is_reserved":false,"is_disabled":false,"rental_uris":{"android":"levelo://app?vid=8bd5a8a1-be3f-4748-92cc-598f52cb6d94","ios":"levelo://app?vid=8bd5a8a1-be3f-4748-92cc-598f52cb6d94"},"vehicle_type_id":"4","last_reported":1778326809,"current_range_meters":8400,"station_id":"ce4bhmp2rcd13ifvqgog","pricing_plan_id":"cebpf4jnsgd1na2vs0mg"},{"bike_id":"1b87dd8d-2a52-40d6-8772-560706d64586","system_id":"levelo_inurba_marseille","lat":43.26553,"lon":5.37283,"is_reserved":false,"is_disabled":false,"rental_uris":{"android":"levelo://app?vid=1b87dd8d-2a52-40d6-8772-560706d64586","ios":"levelo://app?vid=1b87dd8d-2a52-40d6-8772-560706d64586"},"vehicle_type_id":"4","last_reported":1778326809,"current_range_meters":8400,"station_id":"ce4bhg12rcd13ifvqf70","pricing_plan_id":"cebpf4jnsgd1na2vs0mg"},{"bike_id":"d4b06890-877f-4b29-9abe-d77b340070e3","system_id":"levelo_inurba_marseille","lat":43.24652,"lon":5.38873,"is_reserved":false,"is_disabled":false,"rental_uris":{"android":"levelo://app?vid=d4b06890-877f-4b29-9abe-d77b340070e3","ios":"levelo://app?vid=d4b06890-877f-4b29-9abe-d77b340070e3"},"vehicle_type_id":"4","last_reported":1778326809,"current_range_meters":8400,"station_id":"ce4bhg12rcd13ifvqf60","pricing_plan_id":"cebpf4jnsgd1na2vs0mg"},{"bike_id":"365f5c28-6148-41e1-9064-4136e9124cb6","system_id":"levelo_inurba_marseille","lat":43.26201,"lon":5.37937,"is_reserved":false,"is_disabled":false,"rental_uris":{"android":"levelo://app?vid=365f5c28-6148-41e1-9064-4136e9124cb6","ios":"levelo://app?vid=365f5c28-6148-41e1-9064-4136e9124cb6"},"vehicle_type_id":"4","last_reported":1778326809,"current_range_meters":8400,"station_id":"ce4bhjp2rcd13ifvqg90","pricing_plan_id":"cebpf4jnsgd1na2vs0mg"},{"bike_id":"e5a8df5d-f213-41b0-b299-2631f68aefd1","system_id":"levelo_inurba_marseille","lat":43.23198,"lon":5.3554,"is_reserved":false,"is_disabled":false,"rental_uris":{"android":"levelo://app?vid=e5a8df5d-f213-41b0-b299-2631f68aefd1","ios":"levelo://app?vid=e5a8df5d-f213-41b0-b299-2631f68aefd1"},"vehicle_type_id":"4","last_reported":1778326809,"current_range_meters":8400,"station_id":"ce4bhu92rcd13ifvqi70","pricing_plan_id":"cebpf4jnsgd1na2vs0mg"},{"bike_id":"4fd5b212-cba9-47fe-a389-1fe7b66457c2","system_id":"levelo_inurba_marseille","lat":43.30274,"lon":5.36888,"is_reserved":false,"is_disabled":false,"rental_uris":{"android":"levelo://app?vid=4fd5b212-cba9-47fe-a389-1fe7b66457c2","ios":"levelo://app?vid=4fd5b212-cba9-47fe-a389-1fe7b66457c2"},"vehicle_type_id":"4","last_reported":1778326809,"current_range_meters":8400,"station_id":"ce4bgqh2rcd13ifvqc5g","pricing_plan_id":"cebpf4jnsgd1na2vs0mg"},{"bike_id":"cac6599d-f38b-41ad-911f-155080b0afc6","system_id":"levelo_inurba_marseille","lat":43.21199,"lon":5.35061,"is_reserved":false,"is_disabled":false,"rental_uris":{"android":"levelo://app?vid=cac6599d-f38b-41ad-911f-155080b0afc6","ios":"levelo://app?vid=cac6599d-f38b-41ad-911f-155080b0afc6"},"vehicle_type_id":"4","last_reported":1778326809,"current_range_meters":8400,"station_id":"st_cvj6sg6p6f1abm77japg","pricing_plan_id":"cebpf4jnsgd1na2vs0mg"},{"bike_id":"4d5c1738-de5d-4980-bf22-f82a1560e6b1","system_id":"levelo_inurba_marseille","lat":43.22932,"lon":5.35372,"is_reserved":false,"is_disabled":false,"rental_uris":{"android":"levelo://app?vid=4d5c1738-de5d-4980-bf22-f82a1560e6b1","ios":"levelo://app?vid=4d5c1738-de5d-4980-bf22-f82a1560e6b1"},"vehicle_type_id":"4","last_reported":1778326809,"current_range_meters":8400,"station_id":"cpo3532slgdg3j2ikp40","pricing_plan_id":"cebpf4jnsgd1na2vs0mg"},{"bike_id":"9a45abed-8a50-4591-a381-dce67a2e04c0","system_id":"levelo_inurba_marseille","lat":43.29775,"lon":5.39362,"is_reserved":false,"is_disabled":true,"rental_uris":{"android":"levelo://app?vid=9a45abed-8a50-4591-a381-dce67a2e04c0","ios":"levelo://app?vid=9a45abed-8a50-4591-a381-dce67a2e04c0"},"vehicle_type_id":"4","last_reported":1778326809,"current_range_meters":8400,"station_id":"chh1huq6cuj3fo74tm60","pricing_plan_id":"cebpf4jnsgd1na2vs0mg"},{"bike_id":"d5001d3f-f5ab-4f62-bc83-c91230e3b662","system_id":"levelo_inurba_marseille","lat":43.26396,"lon":5.4105,"is_reserved":false,"is_disabled":false,"rental_uris":{"android":"levelo://app?vid=d5001d3f-f5ab-4f62-bc83-c91230e3b662","ios":"levelo://app?vid=d5001d3f-f5ab-4f62-bc83-c91230e3b662"},"vehicle_type_id":"4","last_reported":1778326809,"current_range_meters":8400,"station_id":"st_d4e5ca6na9uc73bfl5fg","pricing_plan_id":"cebpf4jnsgd1na2vs0mg"},{"bike_id":"8bfb0dc6-a3c1-40c5-adc1-1271cadfd413","system_id":"levelo_inurba_marseille","lat":43.289898,"lon":5.378304,"is_reserved":false,"is_disabled":false,"rental_uris":{"android":"levelo://app?vid=8bfb0dc6-a3c1-40c5-adc1-1271cadfd413","ios":"levelo://app?vid=8bfb0dc6-a3c1-40c5-adc1-1271cadfd413"},"vehicle_type_id":"4","last_reported":1778326809,"current_range_meters":8400,"station_id":"ce4bh9p2rcd13ifvqed0","pricing_plan_id":"cebpf4jnsgd1na2vs0mg"},{"bike_id":"fadbe576-796b-47ff-bc51-342594de984b","system_id":"levelo_inurba_marseille","lat":43.26549,"lon":5.37287,"is_reserved":false,"is_disabled":false,"rental_uris":{"android":"levelo://app?vid=fadbe576-796b-47ff-bc51-342594de984b","ios":"levelo://app?vid=fadbe576-796b-47ff-bc51-342594de984b"},"vehicle_type_id":"4","last_reported":1778326809,"current_range_meters":8400,"station_id":"ce4bhg12rcd13ifvqf70","pricing_plan_id":"cebpf4jnsgd1na2vs0mg"},{"bike_id":"c9c03987-998b-4d6e-bbd8-c69a88f60719","system_id":"levelo_inurba_marseille","lat":43.2796,"lon":5.38706,"is_reserved":false,"is_disabled":false,"rental_uris":{"android":"levelo://app?vid=c9c03987-998b-4d6e-bbd8-c69a88f60719","ios":"levelo://app?vid=c9c03987-998b-4d6e-bbd8-c69a88f60719"},"vehicle_type_id":"4","last_reported":1778326809,"current_range_meters":8400,"station_id":"ce4bhg12rcd13ifvqf80","pricing_plan_id":"cebpf4jnsgd1na2vs0mg"},{"bike_id":"abd9f3f4-8722-4a18-a8a0-6e88d2a7a441","system_id":"levelo_inurba_marseille","lat":43.28609,"lon":5.37055,"is_reserved":false,"is_disabled":false,"rental_uris":{"android":"levelo://app?vid=abd9f3f4-8722-4a18-a8a0-6e88d2a7a441","ios":"levelo://app?vid=abd9f3f4-8722-4a18-a8a0-6e88d2a7a441"},"vehicle_type_id":"4","last_reported":1778326809,"current_range_meters":8400,"station_id":"ce4bht12rcd13ifvqi60","pricing_plan_id":"cebpf4jnsgd1na2vs0mg"},{"bike_id":"b5abbd5c-9bbe-49c9-bd8d-de26fc342fdb","system_id":"levelo_inurba_marseille","lat":43.21734,"lon":5.34617,"is_reserved":false,"is_disabled":false,"rental_uris":{"android":"levelo://app?vid=b5abbd5c-9bbe-49c9-bd8d-de26fc342fdb","ios":"levelo://app?vid=b5abbd5c-9bbe-49c9-bd8d-de26fc342fdb"},"vehicle_type_id":"4","last_reported":1778326809,"current_range_meters":8400,"station_id":"st_cvj6r9ubvosntc0bgbag","pricing_plan_id":"cebpf4jnsgd1na2vs0mg"},{"bike_id":"55041ee0-35b3-49e3-8d83-e63d81a07d6e","system_id":"levelo_inurba_marseille","lat":43.31228,"lon":5.36839,"is_reserved":false,"is_disabled":false,"rental_uris":{"android":"levelo://app?vid=55041ee0-35b3-49e3-8d83-e63d81a07d6e","ios":"levelo://app?vid=55041ee0-35b3-49e3-8d83-e63d81a07d6e"},"vehicle_type_id":"4","last_reported":1778326809,"current_range_meters":8400,"station_id":"ce4bgl92rcd13ifvqbq0","pricing_plan_id":"cebpf4jnsgd1na2vs0mg"},{"bike_id":"0f30a082-bcd7-466b-ab84-f4fc977654e6","system_id":"levelo_inurba_marseille","lat":43.265429,"lon":5.37285,"is_reserved":false,"is_disabled":false,"rental_uris":{"android":"levelo://app?vid=0f30a082-bcd7-466b-ab84-f4fc977654e6","ios":"levelo://app?vid=0f30a082-bcd7-466b-ab84-f4fc977654e6"},"vehicle_type_id":"4","last_reported":1778326809,"current_range_meters":8400,"station_id":"ce4bhg12rcd13ifvqf70","pricing_plan_id":"cebpf4jnsgd1na2vs0mg"},{"bike_id":"3e63ca9f-52b9-4901-a1d9-7f430e423bd0","system_id":"levelo_inurba_marseille","lat":43.31439,"lon":5.4413,"is_reserved":false,"is_disabled":false,"rental_uris":{"android":"levelo://app?vid=3e63ca9f-52b9-4901-a1d9-7f430e423bd0","ios":"levelo://app?vid=3e63ca9f-52b9-4901-a1d9-7f430e423bd0"},"vehicle_type_id":"4","last_reported":1778326809,"current_range_meters":8400,"station_id":"","pricing_plan_id":"cebpf4jnsgd1na2vs0mg"},{"bike_id":"fde4f141-bb35-4da0-bd85-aac50cbe5997","system_id":"levelo_inurba_marseille","lat":43.29274,"lon":5.36835,"is_reserved":false,"is_disabled":false,"rental_uris":{"android":"levelo://app?vid=fde4f141-bb35-4da0-bd85-aac50cbe5997","ios":"levelo://app?vid=fde4f141-bb35-4da0-bd85-aac50cbe5997"},"vehicle_type_id":"4","last_reported":1778326809,"current_range_meters":8800,"station_id":"ce4bhbp2rcd13ifvqesg","pricing_plan_id":"cebpf4jnsgd1na2vs0mg"},{"bike_id":"5a28d04e-2eb5-47c1-bb9f-6dd56c626293","system_id":"levelo_inurba_marseille","lat":43.26379,"lon":5.41028,"is_reserved":false,"is_disabled":false,"rental_uris":{"android":"levelo://app?vid=5a28d04e-2eb5-47c1-bb9f-6dd56c626293","ios":"levelo://app?vid=5a28d04e-2eb5-47c1-bb9f-6dd56c626293"},"vehicle_type_id":"4","last_reported":1778326809,"current_range_meters":8800,"station_id":"st_d4e5ca6na9uc73bfl5fg","pricing_plan_id":"cebpf4jnsgd1na2vs0mg"},{"bike_id":"9dc61640-987a-437c-ada7-637d7471e1db","system_id":"levelo_inurba_marseille","lat":43.33167,"lon":5.37682,"is_reserved":false,"is_disabled":false,"rental_uris":{"android":"levelo://app?vid=9dc61640-987a-437c-ada7-637d7471e1db","ios":"levelo://app?vid=9dc61640-987a-437c-ada7-637d7471e1db"},"vehicle_type_id":"4","last_reported":1778326809,"current_range_meters":8800,"station_id":"st_d46cu089ee8s73dldbu0","pricing_plan_id":"cebpf4jnsgd1na2vs0mg"},{"bike_id":"58f02a01-2d6b-42fb-b6cf-a6eb2f8162a4","system_id":"levelo_inurba_marseille","lat":43.26069,"lon":5.39667,"is_reserved":false,"is_disabled":false,"rental_uris":{"android":"levelo://app?vid=58f02a01-2d6b-42fb-b6cf-a6eb2f8162a4","ios":"levelo://app?vid=58f02a01-2d6b-42fb-b6cf-a6eb2f8162a4"},"vehicle_type_id":"4","last_reported":1778326809,"current_range_meters":8800,"station_id":"","pricing_plan_id":"cebpf4jnsgd1na2vs0mg"},{"bike_id":"9775f441-18d9-49a6-894e-b798872d65c2","system_id":"levelo_inurba_marseille","lat":43.28433,"lon":5.38049,"is_reserved":false,"is_disabled":false,"rental_uris":{"android":"levelo://app?vid=9775f441-18d9-49a6-894e-b798872d65c2","ios":"levelo://app?vid=9775f441-18d9-49a6-894e-b798872d65c2"},"vehicle_type_id":"4","last_reported":1778326809,"current_range_meters":8800,"station_id":"","pricing_plan_id":"cebpf4jnsgd1na2vs0mg"},{"bike_id":"a7e5fd95-3aa5-487e-bd42-9e76e558c05d","system_id":"levelo_inurba_marseille","lat":43.30935,"lon":5.40134,"is_reserved":false,"is_disabled":false,"rental_uris":{"android":"levelo://app?vid=a7e5fd95-3aa5-487e-bd42-9e76e558c05d","ios":"levelo://app?vid=a7e5fd95-3aa5-487e-bd42-9e76e558c05d"},"vehicle_type_id":"4","last_reported":1778326809,"current_range_meters":8800,"station_id":"ce4bgvp2rcd13ifvqct0","pricing_plan_id":"cebpf4jnsgd1na2vs0mg"},{"bike_id":"828f9f9b-30a1-4c50-a809-87cc045513d4","system_id":"levelo_inurba_marseille","lat":43.27373,"lon":5.36255,"is_reserved":false,"is_disabled":false,"rental_uris":{"android":"levelo://app?vid=828f9f9b-30a1-4c50-a809-87cc045513d4","ios":"levelo://app?vid=828f9f9b-30a1-4c50-a809-87cc045513d4"},"vehicle_type_id":"4","last_reported":1778326809,"current_range_meters":8800,"station_id":"ce4bhbh2rcd13ifvqeo0","pricing_plan_id":"cebpf4jnsgd1na2vs0mg"},{"bike_id":"808c4ecd-9bba-4ef5-91dc-62b4109dcc93","system_id":"levelo_inurba_marseille","lat":43.29546,"lon":5.38539,"is_reserved":false,"is_disabled":true,"rental_uris":{"android":"levelo://app?vid=808c4ecd-9bba-4ef5-91dc-62b4109dcc93","ios":"levelo://app?vid=808c4ecd-9bba-4ef5-91dc-62b4109dcc93"},"vehicle_type_id":"4","last_reported":1778326809,"current_range_meters":8800,"station_id":"ce4bgih2rcd13ifvqba0","pricing_plan_id":"cebpf4jnsgd1na2vs0mg"},{"bike_id":"4bc6302e-723c-444e-9c1c-2353d2969136","system_id":"levelo_inurba_marseille","lat":43.29455,"lon":5.39603,"is_reserved":false,"is_disabled":true,"rental_uris":{"android":"levelo://app?vid=4bc6302e-723c-444e-9c1c-2353d2969136","ios":"levelo://app?vid=4bc6302e-723c-444e-9c1c-2353d2969136"},"vehicle_type_id":"4","last_reported":1778326809,"current_range_meters":8800,"station_id":"","pricing_plan_id":"cebpf4jnsgd1na2vs0mg"},{"bike_id":"f8171610-1971-4079-ba6a-5af5cd261d86","system_id":"levelo_inurba_marseille","lat":43.28114,"lon":5.37799,"is_reserved":false,"is_disabled":false,"rental_uris":{"android":"levelo://app?vid=f8171610-1971-4079-ba6a-5af5cd261d86","ios":"levelo://app?vid=f8171610-1971-4079-ba6a-5af5cd261d86"},"vehicle_type_id":"4","last_reported":1778326809,"current_range_meters":8800,"station_id":"ce4bha12rcd13ifvqee0","pricing_plan_id":"cebpf4jnsgd1na2vs0mg"},{"bike_id":"036022eb-f4b7-499f-bea2-49a36e1775a4","system_id":"levelo_inurba_marseille","lat":43.22522,"lon":5.34792,"is_reserved":false,"is_disabled":false,"rental_uris":{"android":"levelo://app?vid=036022eb-f4b7-499f-bea2-49a36e1775a4","ios":"levelo://app?vid=036022eb-f4b7-499f-bea2-49a36e1775a4"},"vehicle_type_id":"4","last_reported":1778326809,"current_range_meters":8800,"station_id":"st_cvj5dfep6f1abm77gieg","pricing_plan_id":"cebpf4jnsgd1na2vs0mg"},{"bike_id":"4d963981-ea5e-4a59-8abe-c2ad68a2e5c4","system_id":"levelo_inurba_marseille","lat":43.26238,"lon":5.40452,"is_reserved":false,"is_disabled":true,"rental_uris":{"android":"levelo://app?vid=4d963981-ea5e-4a59-8abe-c2ad68a2e5c4","ios":"levelo://app?vid=4d963981-ea5e-4a59-8abe-c2ad68a2e5c4"},"vehicle_type_id":"4","last_reported":1778326809,"current_range_meters":8800,"station_id":"ce4bhmh2rcd13ifvqgmg","pricing_plan_id":"cebpf4jnsgd1na2vs0mg"},{"bike_id":"c2277f9d-93a6-480b-b9fc-a6864cbe3c7a","system_id":"levelo_inurba_marseille","lat":43.27657,"lon":5.40654,"is_reserved":false,"is_disabled":false,"rental_uris":{"android":"levelo://app?vid=c2277f9d-93a6-480b-b9fc-a6864cbe3c7a","ios":"levelo://app?vid=c2277f9d-93a6-480b-b9fc-a6864cbe3c7a"},"vehicle_type_id":"4","last_reported":1778326809,"current_range_meters":8800,"station_id":"","pricing_plan_id":"cebpf4jnsgd1na2vs0mg"},{"bike_id":"c61c7548-835b-44ca-b3f3-b666326ba05c","system_id":"levelo_inurba_marseille","lat":43.279964,"lon":5.400091,"is_reserved":false,"is_disabled":false,"rental_uris":{"android":"levelo://app?vid=c61c7548-835b-44ca-b3f3-b666326ba05c","ios":"levelo://app?vid=c61c7548-835b-44ca-b3f3-b666326ba05c"},"vehicle_type_id":"4","last_reported":1778326809,"current_range_meters":9200,"station_id":"ce4bho92rcd13ifvqh4g","pricing_plan_id":"cebpf4jnsgd1na2vs0mg"},{"bike_id":"9978bf29-8be4-416d-9e1c-7cc044f2b9f1","system_id":"levelo_inurba_marseille","lat":43.33145,"lon":5.37667,"is_reserved":false,"is_disabled":false,"rental_uris":{"android":"levelo://app?vid=9978bf29-8be4-416d-9e1c-7cc044f2b9f1","ios":"levelo://app?vid=9978bf29-8be4-416d-9e1c-7cc044f2b9f1"},"vehicle_type_id":"4","last_reported":1778326809,"current_range_meters":9200,"station_id":"st_d46cu089ee8s73dldbu0","pricing_plan_id":"cebpf4jnsgd1na2vs0mg"},{"bike_id":"3cf7501a-0ac5-49e6-bfa5-acadf5193300","system_id":"levelo_inurba_marseille","lat":43.29035,"lon":5.38114,"is_reserved":false,"is_disabled":false,"rental_uris":{"android":"levelo://app?vid=3cf7501a-0ac5-49e6-bfa5-acadf5193300","ios":"levelo://app?vid=3cf7501a-0ac5-49e6-bfa5-acadf5193300"},"vehicle_type_id":"4","last_reported":1778326809,"current_range_meters":9200,"station_id":"ce4bh4p2rcd13ifvqe1g","pricing_plan_id":"cebpf4jnsgd1na2vs0mg"},{"bike_id":"e5f0fbb4-b8dc-4aa1-9466-61d5f4ac958f","system_id":"levelo_inurba_marseille","lat":43.29025,"lon":5.38149,"is_reserved":false,"is_disabled":true,"rental_uris":{"android":"levelo://app?vid=e5f0fbb4-b8dc-4aa1-9466-61d5f4ac958f","ios":"levelo://app?vid=e5f0fbb4-b8dc-4aa1-9466-61d5f4ac958f"},"vehicle_type_id":"4","last_reported":1778326809,"current_range_meters":9200,"station_id":"ce4bh4p2rcd13ifvqe1g","pricing_plan_id":"cebpf4jnsgd1na2vs0mg"},{"bike_id":"0ea4ca60-10ee-4a25-b377-d5b31b22e033","system_id":"levelo_inurba_marseille","lat":43.27918,"lon":5.39568,"is_reserved":false,"is_disabled":false,"rental_uris":{"android":"levelo://app?vid=0ea4ca60-10ee-4a25-b377-d5b31b22e033","ios":"levelo://app?vid=0ea4ca60-10ee-4a25-b377-d5b31b22e033"},"vehicle_type_id":"4","last_reported":1778326809,"current_range_meters":9200,"station_id":"ce4bhf92rcd13ifvqf40","pricing_plan_id":"cebpf4jnsgd1na2vs0mg"},{"bike_id":"691c4af9-f59b-4620-8e12-8728b3cf0c64","system_id":"levelo_inurba_marseille","lat":43.27914,"lon":5.38005,"is_reserved":false,"is_disabled":false,"rental_uris":{"android":"levelo://app?vid=691c4af9-f59b-4620-8e12-8728b3cf0c64","ios":"levelo://app?vid=691c4af9-f59b-4620-8e12-8728b3cf0c64"},"vehicle_type_id":"4","last_reported":1778326809,"current_range_meters":9200,"station_id":"ce4bhf92rcd13ifvqf50","pricing_plan_id":"cebpf4jnsgd1na2vs0mg"},{"bike_id":"1a6c2568-b2fa-4c03-a8b7-04ff60ab04d0","system_id":"levelo_inurba_marseille","lat":43.30431,"lon":5.38884,"is_reserved":false,"is_disabled":true,"rental_uris":{"android":"levelo://app?vid=1a6c2568-b2fa-4c03-a8b7-04ff60ab04d0","ios":"levelo://app?vid=1a6c2568-b2fa-4c03-a8b7-04ff60ab04d0"},"vehicle_type_id":"4","last_reported":1778326809,"current_range_meters":9200,"station_id":"ce4bgk12rcd13ifvqbi0","pricing_plan_id":"cebpf4jnsgd1na2vs0mg"},{"bike_id":"8ce2dad2-3d5f-4534-a829-773c157bd5e7","system_id":"levelo_inurba_marseille","lat":43.21749,"lon":5.34564,"is_reserved":false,"is_disabled":false,"rental_uris":{"android":"levelo://app?vid=8ce2dad2-3d5f-4534-a829-773c157bd5e7","ios":"levelo://app?vid=8ce2dad2-3d5f-4534-a829-773c157bd5e7"},"vehicle_type_id":"4","last_reported":1778326809,"current_range_meters":9200,"station_id":"st_cvj6r9ubvosntc0bgbag","pricing_plan_id":"cebpf4jnsgd1na2vs0mg"},{"bike_id":"7038e266-7dfa-42fa-8e91-50f179aa7f0e","system_id":"levelo_inurba_marseille","lat":43.33575,"lon":5.37413,"is_reserved":false,"is_disabled":false,"rental_uris":{"android":"levelo://app?vid=7038e266-7dfa-42fa-8e91-50f179aa7f0e","ios":"levelo://app?vid=7038e266-7dfa-42fa-8e91-50f179aa7f0e"},"vehicle_type_id":"4","last_reported":1778326809,"current_range_meters":9200,"station_id":"st_d46tts09ee8s73dlu43g","pricing_plan_id":"cebpf4jnsgd1na2vs0mg"},{"bike_id":"88923792-19e8-4460-8358-78b65d9951e1","system_id":"levelo_inurba_marseille","lat":43.31917,"lon":5.40239,"is_reserved":false,"is_disabled":false,"rental_uris":{"android":"levelo://app?vid=88923792-19e8-4460-8358-78b65d9951e1","ios":"levelo://app?vid=88923792-19e8-4460-8358-78b65d9951e1"},"vehicle_type_id":"4","last_reported":1778326809,"current_range_meters":9200,"station_id":"","pricing_plan_id":"cebpf4jnsgd1na2vs0mg"},{"bike_id":"d7f4f213-da52-4995-9134-331eea1ecacc","system_id":"levelo_inurba_marseille","lat":43.29576,"lon":5.37499,"is_reserved":false,"is_disabled":false,"rental_uris":{"android":"levelo://app?vid=d7f4f213-da52-4995-9134-331eea1ecacc","ios":"levelo://app?vid=d7f4f213-da52-4995-9134-331eea1ecacc"},"vehicle_type_id":"4","last_reported":1778326809,"current_range_meters":9200,"station_id":"ce4bgh92rcd13ifvqb50","pricing_plan_id":"cebpf4jnsgd1na2vs0mg"},{"bike_id":"7017c387-278c-4b8c-9782-aa80dc34ecbe","system_id":"levelo_inurba_marseille","lat":43.23894,"lon":5.37509,"is_reserved":false,"is_disabled":true,"rental_uris":{"android":"levelo://app?vid=7017c387-278c-4b8c-9782-aa80dc34ecbe","ios":"levelo://app?vid=7017c387-278c-4b8c-9782-aa80dc34ecbe"},"vehicle_type_id":"4","last_reported":1778326809,"current_range_meters":9200,"station_id":"st_d6sm7csbq4hs73f8fpjg","pricing_plan_id":"cebpf4jnsgd1na2vs0mg"},{"bike_id":"40a0c5c1-9387-46a6-b2cf-35d00412bc68","system_id":"levelo_inurba_marseille","lat":43.27807,"lon":5.40713,"is_reserved":false,"is_disabled":false,"rental_uris":{"android":"levelo://app?vid=40a0c5c1-9387-46a6-b2cf-35d00412bc68","ios":"levelo://app?vid=40a0c5c1-9387-46a6-b2cf-35d00412bc68"},"vehicle_type_id":"4","last_reported":1778326809,"current_range_meters":9200,"station_id":"ce4bhnh2rcd13ifvqgtg","pricing_plan_id":"cebpf4jnsgd1na2vs0mg"},{"bike_id":"48e035b5-a64d-4b43-9a5e-ef84063ed759","system_id":"levelo_inurba_marseille","lat":43.29706,"lon":5.36607,"is_reserved":false,"is_disabled":false,"rental_uris":{"android":"levelo://app?vid=48e035b5-a64d-4b43-9a5e-ef84063ed759","ios":"levelo://app?vid=48e035b5-a64d-4b43-9a5e-ef84063ed759"},"vehicle_type_id":"4","last_reported":1778326809,"current_range_meters":9200,"station_id":"ce4bgn12rcd13ifvqbt0","pricing_plan_id":"cebpf4jnsgd1na2vs0mg"},{"bike_id":"169fb174-c046-46a6-9209-f021e95bb4b5","system_id":"levelo_inurba_marseille","lat":43.25105,"lon":5.40311,"is_reserved":false,"is_disabled":false,"rental_uris":{"android":"levelo://app?vid=169fb174-c046-46a6-9209-f021e95bb4b5","ios":"levelo://app?vid=169fb174-c046-46a6-9209-f021e95bb4b5"},"vehicle_type_id":"4","last_reported":1778326809,"current_range_meters":9600,"station_id":"ce4bhlh2rcd13ifvqgig","pricing_plan_id":"cebpf4jnsgd1na2vs0mg"},{"bike_id":"8de89280-2a61-4268-b817-bf90021f9ced","system_id":"levelo_inurba_marseille","lat":43.32125,"lon":5.36726,"is_reserved":false,"is_disabled":false,"rental_uris":{"android":"levelo://app?vid=8de89280-2a61-4268-b817-bf90021f9ced","ios":"levelo://app?vid=8de89280-2a61-4268-b817-bf90021f9ced"},"vehicle_type_id":"4","last_reported":1778326809,"current_range_meters":9600,"station_id":"ce4bhrh2rcd13ifvqhug","pricing_plan_id":"cebpf4jnsgd1na2vs0mg"},{"bike_id":"276af4fc-ce8b-4ac6-90bb-4ab3f69cd6a5","system_id":"levelo_inurba_marseille","lat":43.21197,"lon":5.35041,"is_reserved":false,"is_disabled":false,"rental_uris":{"android":"levelo://app?vid=276af4fc-ce8b-4ac6-90bb-4ab3f69cd6a5","ios":"levelo://app?vid=276af4fc-ce8b-4ac6-90bb-4ab3f69cd6a5"},"vehicle_type_id":"4","last_reported":1778326809,"current_range_meters":9600,"station_id":"st_cvj6sg6p6f1abm77japg","pricing_plan_id":"cebpf4jnsgd1na2vs0mg"},{"bike_id":"4656fed2-42ad-40dd-8090-f658bf580cf3","system_id":"levelo_inurba_marseille","lat":43.30877,"lon":5.36846,"is_reserved":false,"is_disabled":false,"rental_uris":{"android":"levelo://app?vid=4656fed2-42ad-40dd-8090-f658bf580cf3","ios":"levelo://app?vid=4656fed2-42ad-40dd-8090-f658bf580cf3"},"vehicle_type_id":"4","last_reported":1778326809,"current_range_meters":9600,"station_id":"ce4bgn92rcd13ifvqbvg","pricing_plan_id":"cebpf4jnsgd1na2vs0mg"},{"bike_id":"27a1a4fd-3d4c-4497-a6b2-d925c760d6c9","system_id":"levelo_inurba_marseille","lat":43.31318,"lon":5.40244,"is_reserved":false,"is_disabled":false,"rental_uris":{"android":"levelo://app?vid=27a1a4fd-3d4c-4497-a6b2-d925c760d6c9","ios":"levelo://app?vid=27a1a4fd-3d4c-4497-a6b2-d925c760d6c9"},"vehicle_type_id":"4","last_reported":1778326809,"current_range_meters":9600,"station_id":"","pricing_plan_id":"cebpf4jnsgd1na2vs0mg"},{"bike_id":"74152908-d0e7-4efc-98bd-49abbea1dc16","system_id":"levelo_inurba_marseille","lat":43.27996,"lon":5.387,"is_reserved":false,"is_disabled":false,"rental_uris":{"android":"levelo://app?vid=74152908-d0e7-4efc-98bd-49abbea1dc16","ios":"levelo://app?vid=74152908-d0e7-4efc-98bd-49abbea1dc16"},"vehicle_type_id":"4","last_reported":1778326809,"current_range_meters":9600,"station_id":"ce4bhg12rcd13ifvqf80","pricing_plan_id":"cebpf4jnsgd1na2vs0mg"},{"bike_id":"a29b1c83-50ef-4b3a-b300-bfcb2702ff6e","system_id":"levelo_inurba_marseille","lat":43.26011,"lon":5.37548,"is_reserved":false,"is_disabled":false,"rental_uris":{"android":"levelo://app?vid=a29b1c83-50ef-4b3a-b300-bfcb2702ff6e","ios":"levelo://app?vid=a29b1c83-50ef-4b3a-b300-bfcb2702ff6e"},"vehicle_type_id":"4","last_reported":1778326809,"current_range_meters":9600,"station_id":"ce4bhgh2rcd13ifvqfa0","pricing_plan_id":"cebpf4jnsgd1na2vs0mg"},{"bike_id":"fe33cc1b-973a-4526-9664-2fa5496a4cb0","system_id":"levelo_inurba_marseille","lat":43.29567,"lon":5.40654,"is_reserved":false,"is_disabled":false,"rental_uris":{"android":"levelo://app?vid=fe33cc1b-973a-4526-9664-2fa5496a4cb0","ios":"levelo://app?vid=fe33cc1b-973a-4526-9664-2fa5496a4cb0"},"vehicle_type_id":"4","last_reported":1778326809,"current_range_meters":9600,"station_id":"","pricing_plan_id":"cebpf4jnsgd1na2vs0mg"},{"bike_id":"e722f736-bd76-4a7f-b708-32fdaa8c4ceb","system_id":"levelo_inurba_marseille","lat":43.23057,"lon":5.35488,"is_reserved":false,"is_disabled":false,"rental_uris":{"android":"levelo://app?vid=e722f736-bd76-4a7f-b708-32fdaa8c4ceb","ios":"levelo://app?vid=e722f736-bd76-4a7f-b708-32fdaa8c4ceb"},"vehicle_type_id":"4","last_reported":1778326809,"current_range_meters":9600,"station_id":"cpo3342slgdg3j2ifvpg","pricing_plan_id":"cebpf4jnsgd1na2vs0mg"},{"bike_id":"5f812d70-ee7c-404c-8589-c3e85ea17838","system_id":"levelo_inurba_marseille","lat":43.28481,"lon":5.48383,"is_reserved":false,"is_disabled":false,"rental_uris":{"android":"levelo://app?vid=5f812d70-ee7c-404c-8589-c3e85ea17838","ios":"levelo://app?vid=5f812d70-ee7c-404c-8589-c3e85ea17838"},"vehicle_type_id":"4","last_reported":1778326809,"current_range_meters":9600,"station_id":"","pricing_plan_id":"cebpf4jnsgd1na2vs0mg"},{"bike_id":"52e14b6f-dfd1-48c4-acb4-8bf9b26dc800","system_id":"levelo_inurba_marseille","lat":43.31898,"lon":5.40722,"is_reserved":false,"is_disabled":false,"rental_uris":{"android":"levelo://app?vid=52e14b6f-dfd1-48c4-acb4-8bf9b26dc800","ios":"levelo://app?vid=52e14b6f-dfd1-48c4-acb4-8bf9b26dc800"},"vehicle_type_id":"4","last_reported":1778326809,"current_range_meters":9600,"station_id":"ce4bhq12rcd13ifvqhig","pricing_plan_id":"cebpf4jnsgd1na2vs0mg"},{"bike_id":"1533a194-c50e-4878-8213-f926d7bc00d0","system_id":"levelo_inurba_marseille","lat":43.26953,"lon":5.38893,"is_reserved":false,"is_disabled":false,"rental_uris":{"android":"levelo://app?vid=1533a194-c50e-4878-8213-f926d7bc00d0","ios":"levelo://app?vid=1533a194-c50e-4878-8213-f926d7bc00d0"},"vehicle_type_id":"4","last_reported":1778326809,"current_range_meters":9600,"station_id":"ce4bhhh2rcd13ifvqfl0","pricing_plan_id":"cebpf4jnsgd1na2vs0mg"},{"bike_id":"9618e33d-99ca-4ae2-ac26-5af7437abb23","system_id":"levelo_inurba_marseille","lat":43.29566,"lon":5.37514,"is_reserved":false,"is_disabled":false,"rental_uris":{"android":"levelo://app?vid=9618e33d-99ca-4ae2-ac26-5af7437abb23","ios":"levelo://app?vid=9618e33d-99ca-4ae2-ac26-5af7437abb23"},"vehicle_type_id":"4","last_reported":1778326809,"current_range_meters":9600,"station_id":"ce4bgh92rcd13ifvqb50","pricing_plan_id":"cebpf4jnsgd1na2vs0mg"},{"bike_id":"dfd59f5e-67a9-44e1-b9c6-a05313947159","system_id":"levelo_inurba_marseille","lat":43.24194,"lon":5.39702,"is_reserved":false,"is_disabled":false,"rental_uris":{"android":"levelo://app?vid=dfd59f5e-67a9-44e1-b9c6-a05313947159","ios":"levelo://app?vid=dfd59f5e-67a9-44e1-b9c6-a05313947159"},"vehicle_type_id":"4","last_reported":1778326809,"current_range_meters":9600,"station_id":"ce4bhn12rcd13ifvqgpg","pricing_plan_id":"cebpf4jnsgd1na2vs0mg"},{"bike_id":"12f85496-8883-4431-a428-4278643a2bc1","system_id":"levelo_inurba_marseille","lat":43.29791,"lon":5.38097,"is_reserved":false,"is_disabled":false,"rental_uris":{"android":"levelo://app?vid=12f85496-8883-4431-a428-4278643a2bc1","ios":"levelo://app?vid=12f85496-8883-4431-a428-4278643a2bc1"},"vehicle_type_id":"4","last_reported":1778326809,"current_range_meters":9600,"station_id":"ce4bgip2rcd13ifvqbb0","pricing_plan_id":"cebpf4jnsgd1na2vs0mg"},{"bike_id":"a1d66207-ff5d-4a71-b148-d595e314ee4a","system_id":"levelo_inurba_marseille","lat":43.29168,"lon":5.4271,"is_reserved":false,"is_disabled":false,"rental_uris":{"android":"levelo://app?vid=a1d66207-ff5d-4a71-b148-d595e314ee4a","ios":"levelo://app?vid=a1d66207-ff5d-4a71-b148-d595e314ee4a"},"vehicle_type_id":"4","last_reported":1778326809,"current_range_meters":9600,"station_id":"","pricing_plan_id":"cebpf4jnsgd1na2vs0mg"},{"bike_id":"d275e6ed-b28b-4f34-a0fa-9b59c29ff306","system_id":"levelo_inurba_marseille","lat":43.30732,"lon":5.42414,"is_reserved":false,"is_disabled":false,"rental_uris":{"android":"levelo://app?vid=d275e6ed-b28b-4f34-a0fa-9b59c29ff306","ios":"levelo://app?vid=d275e6ed-b28b-4f34-a0fa-9b59c29ff306"},"vehicle_type_id":"4","last_reported":1778326809,"current_range_meters":10000,"station_id":"st_cvj6ca6bvosntc0bfgr0","pricing_plan_id":"cebpf4jnsgd1na2vs0mg"},{"bike_id":"66969438-299e-490d-ab31-e463b9efa104","system_id":"levelo_inurba_marseille","lat":43.28478,"lon":5.48385,"is_reserved":false,"is_disabled":false,"rental_uris":{"android":"levelo://app?vid=66969438-299e-490d-ab31-e463b9efa104","ios":"levelo://app?vid=66969438-299e-490d-ab31-e463b9efa104"},"vehicle_type_id":"4","last_reported":1778326809,"current_range_meters":10000,"station_id":"","pricing_plan_id":"cebpf4jnsgd1na2vs0mg"},{"bike_id":"93b4c483-6b57-4422-8765-cbef26025105","system_id":"levelo_inurba_marseille","lat":43.2175,"lon":5.34601,"is_reserved":false,"is_disabled":false,"rental_uris":{"android":"levelo://app?vid=93b4c483-6b57-4422-8765-cbef26025105","ios":"levelo://app?vid=93b4c483-6b57-4422-8765-cbef26025105"},"vehicle_type_id":"4","last_reported":1778326809,"current_range_meters":10000,"station_id":"st_cvj6r9ubvosntc0bgbag","pricing_plan_id":"cebpf4jnsgd1na2vs0mg"},{"bike_id":"0bff19b0-759c-4974-b971-6d7bfa56b685","system_id":"levelo_inurba_marseille","lat":43.2981,"lon":5.44055,"is_reserved":false,"is_disabled":false,"rental_uris":{"android":"levelo://app?vid=0bff19b0-759c-4974-b971-6d7bfa56b685","ios":"levelo://app?vid=0bff19b0-759c-4974-b971-6d7bfa56b685"},"vehicle_type_id":"4","last_reported":1778326809,"current_range_meters":10000,"station_id":"st_d3jp68qikq2c7381ktn0","pricing_plan_id":"cebpf4jnsgd1na2vs0mg"},{"bike_id":"3d712df7-db1a-4f20-bf03-8871c4751822","system_id":"levelo_inurba_marseille","lat":43.25511,"lon":5.37641,"is_reserved":false,"is_disabled":false,"rental_uris":{"android":"levelo://app?vid=3d712df7-db1a-4f20-bf03-8871c4751822","ios":"levelo://app?vid=3d712df7-db1a-4f20-bf03-8871c4751822"},"vehicle_type_id":"4","last_reported":1778326809,"current_range_meters":10000,"station_id":"ce4bhh12rcd13ifvqff0","pricing_plan_id":"cebpf4jnsgd1na2vs0mg"},