{"last_updated":1758039134,"ttl":60,"version":"2.2","data":{"bikes":[{"bike_id":"b429f4e2-5598-496f-aaed-ddb8c1ff1ae9","system_id":"levelo_inurba_marseille","lat":43.311218,"lon":5.377534,"is_reserved":false,"is_disabled":false,"rental_uris":{"android":"levelo://app?vid=b429f4e2-5598-496f-aaed-ddb8c1ff1ae9","ios":"levelo://app?vid=b429f4e2-5598-496f-aaed-ddb8c1ff1ae9"},"vehicle_type_id":"4","last_reported":1758039135,"current_range_meters":2800,"station_id":"ce4bgt92rcd13ifvqcg0","pricing_plan_id":"cebpf4jnsgd1na2vs0mg"},{"bike_id":"5713135a-86d7-40d4-8e24-d97b92f184cb","system_id":"levelo_inurba_marseille","lat":43.25829,"lon":5.39434,"is_reserved":false,"is_disabled":false,"rental_uris":{"android":"levelo://app?vid=5713135a-86d7-40d4-8e24-d97b92f184cb","ios":"levelo://app?vid=5713135a-86d7-40d4-8e24-d97b92f184cb"},"vehicle_type_id":"4","last_reported":1758039135,"current_range_meters":2800,"station_id":"ce4bhip2rcd13ifvqft0","pricing_plan_id":"cebpf4jnsgd1na2vs0mg"},{"bike_id":"4ec115f7-70e2-44a0-950b-cc56db458600","system_id":"levelo_inurba_marseille","lat":43.21751,"lon":5.34612,"is_reserved":false,"is_disabled":true,"rental_uris":{"android":"levelo://app?vid=4ec115f7-70e2-44a0-950b-cc56db458600","ios":"levelo://app?vid=4ec115f7-70e2-44a0-950b-cc56db458600"},"vehicle_type_id":"4","last_reported":1758039135,"current_range_meters":2800,"station_id":"st_cvj6r9ubvosntc0bgbag","pricing_plan_id":"cebpf4jnsgd1na2vs0mg"},{"bike_id":"bfe36d33-f233-409d-90a8-5b023d95fd16","system_id":"levelo_inurba_marseille","lat":43.31243,"lon":5.36841,"is_reserved":false,"is_disabled":false,"rental_uris":{"android":"levelo://app?vid=bfe36d33-f233-409d-90a8-5b023d95fd16","ios":"levelo://app?vid=bfe36d33-f233-409d-90a8-5b023d95fd16"},"vehicle_type_id":"4","last_reported":1758039135,"current_range_meters":2800,"station_id":"ce4bgl92rcd13ifvqbq0","pricing_plan_id":"cebpf4jnsgd1na2vs0mg"},{"bike_id":"4e558719-4fdf-4b10-8730-77221da7965c","system_id":"levelo_inurba_marseille","lat":43.28424,"lon":5.39194,"is_reserved":false,"is_disabled":false,"rental_uris":{"android":"levelo://app?vid=4e558719-4fdf-4b10-8730-77221da7965c","ios":"levelo://app?vid=4e558719-4fdf-4b10-8730-77221da7965c"},"vehicle_type_id":"4","last_reported":1758039135,"current_range_meters":2800,"station_id":"ce4bhoh2rcd13ifvqh5g","pricing_plan_id":"cebpf4jnsgd1na2vs0mg"},{"bike_id":"03809294-3a3e-4efa-afda-0ac11dcf72fc","system_id":"levelo_inurba_marseille","lat":43.33735,"lon":5.37451,"is_reserved":false,"is_disabled":false,"rental_uris":{"android":"levelo://app?vid=03809294-3a3e-4efa-afda-0ac11dcf72fc","ios":"levelo://app?vid=03809294-3a3e-4efa-afda-0ac11dcf72fc"},"vehicle_type_id":"4","last_reported":1758039135,"current_range_meters":2800,"station_id":"","pricing_plan_id":"cebpf4jnsgd1na2vs0mg"},{"bike_id":"63c2bec2-56ae-42d4-a965-91defc1f04e9","system_id":"levelo_inurba_marseille","lat":43.29697,"lon":5.38016,"is_reserved":false,"is_disabled":false,"rental_uris":{"android":"levelo://app?vid=63c2bec2-56ae-42d4-a965-91defc1f04e9","ios":"levelo://app?vid=63c2bec2-56ae-42d4-a965-91defc1f04e9"},"vehicle_type_id":"4","last_reported":1758039135,"current_range_meters":3200,"station_id":"","pricing_plan_id":"cebpf4jnsgd1na2vs0mg"},{"bike_id":"d765e876-dc94-417e-ad8c-0ac49bf5261a","system_id":"levelo_inurba_marseille","lat":43.33251,"lon":5.3643,"is_reserved":false,"is_disabled":false,"rental_uris":{"android":"levelo://app?vid=d765e876-dc94-417e-ad8c-0ac49bf5261a","ios":"levelo://app?vid=d765e876-dc94-417e-ad8c-0ac49bf5261a"},"vehicle_type_id":"4","last_reported":1758039135,"current_range_meters":3200,"station_id":"","pricing_plan_id":"cebpf4jnsgd1na2vs0mg"},{"bike_id":"265da944-60cb-453c-85f7-55a1a43b2945","system_id":"levelo_inurba_marseille","lat":43.290142,"lon":5.356049,"is_reserved":false,"is_disabled":false,"rental_uris":{"android":"levelo://app?vid=265da944-60cb-453c-85f7-55a1a43b2945","ios":"levelo://app?vid=265da944-60cb-453c-85f7-55a1a43b2945"},"vehicle_type_id":"4","last_reported":1758039135,"current_range_meters":3200,"station_id":"ce4bhb92rcd13ifvqen0","pricing_plan_id":"cebpf4jnsgd1na2vs0mg"},{"bike_id":"c37933c6-f301-4e72-ae28-b86236887c46","system_id":"levelo_inurba_marseille","lat":43.225329,"lon":5.348362,"is_reserved":false,"is_disabled":false,"rental_uris":{"android":"levelo://app?vid=c37933c6-f301-4e72-ae28-b86236887c46","ios":"levelo://app?vid=c37933c6-f301-4e72-ae28-b86236887c46"},"vehicle_type_id":"4","last_reported":1758039135,"current_range_meters":3200,"station_id":"","pricing_plan_id":"cebpf4jnsgd1na2vs0mg"},{"bike_id":"abd37ea8-443e-4a67-b662-5cae90142c4c","system_id":"levelo_inurba_marseille","lat":43.25089,"lon":5.39523,"is_reserved":false,"is_disabled":false,"rental_uris":{"android":"levelo://app?vid=abd37ea8-443e-4a67-b662-5cae90142c4c","ios":"levelo://app?vid=abd37ea8-443e-4a67-b662-5cae90142c4c"},"vehicle_type_id":"4","last_reported":1758039135,"current_range_meters":3200,"station_id":"ce4bhm12rcd13ifvqgkg","pricing_plan_id":"cebpf4jnsgd1na2vs0mg"},{"bike_id":"6b5b3c8e-1efc-443e-8d65-f1b5bb18a3da","system_id":"levelo_inurba_marseille","lat":43.26826,"lon":5.39624,"is_reserved":false,"is_disabled":false,"rental_uris":{"android":"levelo://app?vid=6b5b3c8e-1efc-443e-8d65-f1b5bb18a3da","ios":"levelo://app?vid=6b5b3c8e-1efc-443e-8d65-f1b5bb18a3da"},"vehicle_type_id":"4","last_reported":1758039135,"current_range_meters":3200,"station_id":"","pricing_plan_id":"cebpf4jnsgd1na2vs0mg"},{"bike_id":"781ec92d-2faf-46a6-839f-e150ad819ca7","system_id":"levelo_inurba_marseille","lat":43.26209,"lon":5.40449,"is_reserved":false,"is_disabled":false,"rental_uris":{"android":"levelo://app?vid=781ec92d-2faf-46a6-839f-e150ad819ca7","ios":"levelo://app?vid=781ec92d-2faf-46a6-839f-e150ad819ca7"},"vehicle_type_id":"4","last_reported":1758039135,"current_range_meters":3200,"station_id":"ce4bhmh2rcd13ifvqgmg","pricing_plan_id":"cebpf4jnsgd1na2vs0mg"},{"bike_id":"d2c2f1d0-8b01-4e08-9dff-706d88363fef","system_id":"levelo_inurba_marseille","lat":43.29039,"lon":5.37622,"is_reserved":false,"is_disabled":false,"rental_uris":{"android":"levelo://app?vid=d2c2f1d0-8b01-4e08-9dff-706d88363fef","ios":"levelo://app?vid=d2c2f1d0-8b01-4e08-9dff-706d88363fef"},"vehicle_type_id":"4","last_reported":1758039135,"current_range_meters":3200,"station_id":"ce4bh692rcd13ifvqe90","pricing_plan_id":"cebpf4jnsgd1na2vs0mg"},{"bike_id":"d6acb26b-58db-4d63-9f7e-acc42b6b2496","system_id":"levelo_inurba_marseille","lat":43.305943,"lon":5.393628,"is_reserved":false,"is_disabled":false,"rental_uris":{"android":"levelo://app?vid=d6acb26b-58db-4d63-9f7e-acc42b6b2496","ios":"levelo://app?vid=d6acb26b-58db-4d63-9f7e-acc42b6b2496"},"vehicle_type_id":"4","last_reported":1758039135,"current_range_meters":3600,"station_id":"ce4bh0p2rcd13ifvqd80","pricing_plan_id":"cebpf4jnsgd1na2vs0mg"},{"bike_id":"1afce11d-567a-442e-a703-a58f0fbc33e1","system_id":"levelo_inurba_marseille","lat":43.29599,"lon":5.38103,"is_reserved":false,"is_disabled":false,"rental_uris":{"android":"levelo://app?vid=1afce11d-567a-442e-a703-a58f0fbc33e1","ios":"levelo://app?vid=1afce11d-567a-442e-a703-a58f0fbc33e1"},"vehicle_type_id":"4","last_reported":1758039135,"current_range_meters":3200,"station_id":"ce4bgl12rcd13ifvqbo0","pricing_plan_id":"cebpf4jnsgd1na2vs0mg"},{"bike_id":"7eea9d24-88cb-4822-a660-f29a7c3a5fff","system_id":"levelo_inurba_marseille","lat":43.23149,"lon":5.43723,"is_reserved":false,"is_disabled":false,"rental_uris":{"android":"levelo://app?vid=7eea9d24-88cb-4822-a660-f29a7c3a5fff","ios":"levelo://app?vid=7eea9d24-88cb-4822-a660-f29a7c3a5fff"},"vehicle_type_id":"4","last_reported":1758039135,"current_range_meters":4000,"station_id":"ce4bhmp2rcd13ifvqgog","pricing_plan_id":"cebpf4jnsgd1na2vs0mg"},{"bike_id":"bc36c60a-056c-4db4-afb4-8a350b0a4e82","system_id":"levelo_inurba_marseille","lat":43.297061,"lon":5.366045,"is_reserved":false,"is_disabled":false,"rental_uris":{"android":"levelo://app?vid=bc36c60a-056c-4db4-afb4-8a350b0a4e82","ios":"levelo://app?vid=bc36c60a-056c-4db4-afb4-8a350b0a4e82"},"vehicle_type_id":"4","last_reported":1758039135,"current_range_meters":4000,"station_id":"ce4bgn12rcd13ifvqbt0","pricing_plan_id":"cebpf4jnsgd1na2vs0mg"},{"bike_id":"2828e058-9171-4ab9-9e16-ce6b889ec301","system_id":"levelo_inurba_marseille","lat":43.21193,"lon":5.35076,"is_reserved":false,"is_disabled":false,"rental_uris":{"android":"levelo://app?vid=2828e058-9171-4ab9-9e16-ce6b889ec301","ios":"levelo://app?vid=2828e058-9171-4ab9-9e16-ce6b889ec301"},"vehicle_type_id":"4","last_reported":1758039135,"current_range_meters":4000,"station_id":"st_cvj6sg6p6f1abm77japg","pricing_plan_id":"cebpf4jnsgd1na2vs0mg"},{"bike_id":"3d515894-ad25-441e-be88-47f8d4436f8f","system_id":"levelo_inurba_marseille","lat":43.30926,"lon":5.40141,"is_reserved":false,"is_disabled":false,"rental_uris":{"android":"levelo://app?vid=3d515894-ad25-441e-be88-47f8d4436f8f","ios":"levelo://app?vid=3d515894-ad25-441e-be88-47f8d4436f8f"},"vehicle_type_id":"4","last_reported":1758039135,"current_range_meters":4000,"station_id":"ce4bgvp2rcd13ifvqct0","pricing_plan_id":"cebpf4jnsgd1na2vs0mg"},{"bike_id":"df21a0d7-45f7-45b6-a422-9d3af9d10d2f","system_id":"levelo_inurba_marseille","lat":43.251249,"lon":5.403045,"is_reserved":false,"is_disabled":true,"rental_uris":{"android":"levelo://app?vid=df21a0d7-45f7-45b6-a422-9d3af9d10d2f","ios":"levelo://app?vid=df21a0d7-45f7-45b6-a422-9d3af9d10d2f"},"vehicle_type_id":"4","last_reported":1758039135,"current_range_meters":4000,"station_id":"","pricing_plan_id":"cebpf4jnsgd1na2vs0mg"},{"bike_id":"b67ebd2b-ae4b-4ea6-b9dd-4390c9649961","system_id":"levelo_inurba_marseille","lat":43.2495,"lon":5.40494,"is_reserved":false,"is_disabled":false,"rental_uris":{"android":"levelo://app?vid=b67ebd2b-ae4b-4ea6-b9dd-4390c9649961","ios":"levelo://app?vid=b67ebd2b-ae4b-4ea6-b9dd-4390c9649961"},"vehicle_type_id":"4","last_reported":1758039135,"current_range_meters":4000,"station_id":"st_d2ngiaodas8pm72gd1h0","pricing_plan_id":"cebpf4jnsgd1na2vs0mg"},{"bike_id":"f7ac85a9-20be-4d2a-881e-cf6f9829206c","system_id":"levelo_inurba_marseille","lat":43.28965,"lon":5.35691,"is_reserved":false,"is_disabled":false,"rental_uris":{"android":"levelo://app?vid=f7ac85a9-20be-4d2a-881e-cf6f9829206c","ios":"levelo://app?vid=f7ac85a9-20be-4d2a-881e-cf6f9829206c"},"vehicle_type_id":"4","last_reported":1758039135,"current_range_meters":4000,"station_id":"","pricing_plan_id":"cebpf4jnsgd1na2vs0mg"},{"bike_id":"33bb1785-d459-4f3b-9518-672a188c6a87","system_id":"levelo_inurba_marseille","lat":43.337444,"lon":5.374475,"is_reserved":false,"is_disabled":false,"rental_uris":{"android":"levelo://app?vid=33bb1785-d459-4f3b-9518-672a188c6a87","ios":"levelo://app?vid=33bb1785-d459-4f3b-9518-672a188c6a87"},"vehicle_type_id":"4","last_reported":1758039135,"current_range_meters":4000,"station_id":"","pricing_plan_id":"cebpf4jnsgd1na2vs0mg"},{"bike_id":"e8fd5cd5-c9f1-42ae-a40a-c3e25d4366d2","system_id":"levelo_inurba_marseille","lat":43.28855,"lon":5.35844,"is_reserved":false,"is_disabled":true,"rental_uris":{"android":"levelo://app?vid=e8fd5cd5-c9f1-42ae-a40a-c3e25d4366d2","ios":"levelo://app?vid=e8fd5cd5-c9f1-42ae-a40a-c3e25d4366d2"},"vehicle_type_id":"4","last_reported":1758039135,"current_range_meters":4000,"station_id":"ce4bhb12rcd13ifvqem0","pricing_plan_id":"cebpf4jnsgd1na2vs0mg"},{"bike_id":"230cbfb3-efe4-47cf-b8c7-71f89567bd78","system_id":"levelo_inurba_marseille","lat":43.243887,"lon":5.3706,"is_reserved":false,"is_disabled":false,"rental_uris":{"android":"levelo://app?vid=230cbfb3-efe4-47cf-b8c7-71f89567bd78","ios":"levelo://app?vid=230cbfb3-efe4-47cf-b8c7-71f89567bd78"},"vehicle_type_id":"4","last_reported":1758039135,"current_range_meters":3600,"station_id":"ce4bhhh2rcd13ifvqfk0","pricing_plan_id":"cebpf4jnsgd1na2vs0mg"},{"bike_id":"a234c8d6-1e23-409a-95bc-672a869cb12e","system_id":"levelo_inurba_marseille","lat":43.32638,"lon":5.40285,"is_reserved":false,"is_disabled":false,"rental_uris":{"android":"levelo://app?vid=a234c8d6-1e23-409a-95bc-672a869cb12e","ios":"levelo://app?vid=a234c8d6-1e23-409a-95bc-672a869cb12e"},"vehicle_type_id":"4","last_reported":1758039135,"current_range_meters":4000,"station_id":"","pricing_plan_id":"cebpf4jnsgd1na2vs0mg"},{"bike_id":"99b1f494-78e2-48ab-b861-45d187280170","system_id":"levelo_inurba_marseille","lat":43.23178,"lon":5.3999,"is_reserved":false,"is_disabled":false,"rental_uris":{"android":"levelo://app?vid=99b1f494-78e2-48ab-b861-45d187280170","ios":"levelo://app?vid=99b1f494-78e2-48ab-b861-45d187280170"},"vehicle_type_id":"4","last_reported":1758039135,"current_range_meters":4400,"station_id":"ce4bhn12rcd13ifvqgqg","pricing_plan_id":"cebpf4jnsgd1na2vs0mg"},{"bike_id":"57e62876-a07b-4f2c-a9fb-348713403130","system_id":"levelo_inurba_marseille","lat":43.33038,"lon":5.39044,"is_reserved":false,"is_disabled":false,"rental_uris":{"android":"levelo://app?vid=57e62876-a07b-4f2c-a9fb-348713403130","ios":"levelo://app?vid=57e62876-a07b-4f2c-a9fb-348713403130"},"vehicle_type_id":"4","last_reported":1758039135,"current_range_meters":4400,"station_id":"ce4bhr92rcd13ifvqhrg","pricing_plan_id":"cebpf4jnsgd1na2vs0mg"},{"bike_id":"a494132f-9cb4-42e0-9fe9-b2ded520b73c","system_id":"levelo_inurba_marseille","lat":43.33026,"lon":5.39049,"is_reserved":false,"is_disabled":false,"rental_uris":{"android":"levelo://app?vid=a494132f-9cb4-42e0-9fe9-b2ded520b73c","ios":"levelo://app?vid=a494132f-9cb4-42e0-9fe9-b2ded520b73c"},"vehicle_type_id":"4","last_reported":1758039135,"current_range_meters":4400,"station_id":"ce4bhr92rcd13ifvqhrg","pricing_plan_id":"cebpf4jnsgd1na2vs0mg"},{"bike_id":"cdd95f00-6925-4e6a-8814-ac57a0d8f43a","system_id":"levelo_inurba_marseille","lat":43.30528,"lon":5.38417,"is_reserved":false,"is_disabled":false,"rental_uris":{"android":"levelo://app?vid=cdd95f00-6925-4e6a-8814-ac57a0d8f43a","ios":"levelo://app?vid=cdd95f00-6925-4e6a-8814-ac57a0d8f43a"},"vehicle_type_id":"4","last_reported":1758039135,"current_range_meters":4400,"station_id":"ce4bgg92rcd13ifvqb30","pricing_plan_id":"cebpf4jnsgd1na2vs0mg"},{"bike_id":"dd32f779-e928-424d-999f-b730cf475fa7","system_id":"levelo_inurba_marseille","lat":43.22399,"lon":5.34657,"is_reserved":false,"is_disabled":false,"rental_uris":{"android":"levelo://app?vid=dd32f779-e928-424d-999f-b730cf475fa7","ios":"levelo://app?vid=dd32f779-e928-424d-999f-b730cf475fa7"},"vehicle_type_id":"4","last_reported":1758039135,"current_range_meters":4800,"station_id":"","pricing_plan_id":"cebpf4jnsgd1na2vs0mg"},{"bike_id":"fb433f5c-5c80-4435-b0dc-ef4f154879a8","system_id":"levelo_inurba_marseille","lat":43.30307,"lon":5.36901,"is_reserved":false,"is_disabled":false,"rental_uris":{"android":"levelo://app?vid=fb433f5c-5c80-4435-b0dc-ef4f154879a8","ios":"levelo://app?vid=fb433f5c-5c80-4435-b0dc-ef4f154879a8"},"vehicle_type_id":"4","last_reported":1758039135,"current_range_meters":4800,"station_id":"ce4bgqh2rcd13ifvqc5g","pricing_plan_id":"cebpf4jnsgd1na2vs0mg"},{"bike_id":"973e0129-cfc0-4217-a6c3-f7fdd9026a09","system_id":"levelo_inurba_marseille","lat":43.2862,"lon":5.351,"is_reserved":false,"is_disabled":false,"rental_uris":{"android":"levelo://app?vid=973e0129-cfc0-4217-a6c3-f7fdd9026a09","ios":"levelo://app?vid=973e0129-cfc0-4217-a6c3-f7fdd9026a09"},"vehicle_type_id":"4","last_reported":1758039135,"current_range_meters":4800,"station_id":"ce4bhch2rcd13ifvqeug","pricing_plan_id":"cebpf4jnsgd1na2vs0mg"},{"bike_id":"e1d6243f-e60c-41db-a9df-794de18667b3","system_id":"levelo_inurba_marseille","lat":43.27975,"lon":5.3873,"is_reserved":false,"is_disabled":false,"rental_uris":{"android":"levelo://app?vid=e1d6243f-e60c-41db-a9df-794de18667b3","ios":"levelo://app?vid=e1d6243f-e60c-41db-a9df-794de18667b3"},"vehicle_type_id":"4","last_reported":1758039135,"current_range_meters":4800,"station_id":"ce4bhg12rcd13ifvqf80","pricing_plan_id":"cebpf4jnsgd1na2vs0mg"},{"bike_id":"247646ce-eb82-4329-ae88-fc0a32f52fb6","system_id":"levelo_inurba_marseille","lat":43.25818,"lon":5.39433,"is_reserved":false,"is_disabled":false,"rental_uris":{"android":"levelo://app?vid=247646ce-eb82-4329-ae88-fc0a32f52fb6","ios":"levelo://app?vid=247646ce-eb82-4329-ae88-fc0a32f52fb6"},"vehicle_type_id":"4","last_reported":1758039135,"current_range_meters":4800,"station_id":"ce4bhip2rcd13ifvqft0","pricing_plan_id":"cebpf4jnsgd1na2vs0mg"},{"bike_id":"8808cfda-1891-4a58-8bba-b50402f87504","system_id":"levelo_inurba_marseille","lat":43.25822,"lon":5.394355,"is_reserved":false,"is_disabled":false,"rental_uris":{"android":"levelo://app?vid=8808cfda-1891-4a58-8bba-b50402f87504","ios":"levelo://app?vid=8808cfda-1891-4a58-8bba-b50402f87504"},"vehicle_type_id":"4","last_reported":1758039135,"current_range_meters":4800,"station_id":"ce4bhip2rcd13ifvqft0","pricing_plan_id":"cebpf4jnsgd1na2vs0mg"},{"bike_id":"98c680af-2239-41e4-83ff-89c3605c8f52","system_id":"levelo_inurba_marseille","lat":43.29873,"lon":5.39736,"is_reserved":false,"is_disabled":false,"rental_uris":{"android":"levelo://app?vid=98c680af-2239-41e4-83ff-89c3605c8f52","ios":"levelo://app?vid=98c680af-2239-41e4-83ff-89c3605c8f52"},"vehicle_type_id":"4","last_reported":1758039135,"current_range_meters":5600,"station_id":"ce4bh0h2rcd13ifvqd50","pricing_plan_id":"cebpf4jnsgd1na2vs0mg"},{"bike_id":"58a4ef95-62ea-4e1f-afef-eda9f3cc38c3","system_id":"levelo_inurba_marseille","lat":43.29534,"lon":5.3855,"is_reserved":false,"is_disabled":false,"rental_uris":{"android":"levelo://app?vid=58a4ef95-62ea-4e1f-afef-eda9f3cc38c3","ios":"levelo://app?vid=58a4ef95-62ea-4e1f-afef-eda9f3cc38c3"},"vehicle_type_id":"4","last_reported":1758039135,"current_range_meters":5600,"station_id":"ce4bgih2rcd13ifvqba0","pricing_plan_id":"cebpf4jnsgd1na2vs0mg"},{"bike_id":"52d42108-3442-4955-9e76-3d458421fd1a","system_id":"levelo_inurba_marseille","lat":43.28427,"lon":5.39184,"is_reserved":false,"is_disabled":false,"rental_uris":{"android":"levelo://app?vid=52d42108-3442-4955-9e76-3d458421fd1a","ios":"levelo://app?vid=52d42108-3442-4955-9e76-3d458421fd1a"},"vehicle_type_id":"4","last_reported":1758039135,"current_range_meters":6000,"station_id":"ce4bhoh2rcd13ifvqh5g","pricing_plan_id":"cebpf4jnsgd1na2vs0mg"},{"bike_id":"5bea5615-2e69-4d3d-b98f-53d6f125f1eb","system_id":"levelo_inurba_marseille","lat":43.29443,"lon":5.39753,"is_reserved":false,"is_disabled":false,"rental_uris":{"android":"levelo://app?vid=5bea5615-2e69-4d3d-b98f-53d6f125f1eb","ios":"levelo://app?vid=5bea5615-2e69-4d3d-b98f-53d6f125f1eb"},"vehicle_type_id":"4","last_reported":1758039135,"current_range_meters":6000,"station_id":"ce4bh3h2rcd13ifvqdo0","pricing_plan_id":"cebpf4jnsgd1na2vs0mg"},{"bike_id":"5ef6208f-7427-4ce1-a90c-ffa64723e7ad","system_id":"levelo_inurba_marseille","lat":43.30214,"lon":5.39461,"is_reserved":false,"is_disabled":false,"rental_uris":{"android":"levelo://app?vid=5ef6208f-7427-4ce1-a90c-ffa64723e7ad","ios":"levelo://app?vid=5ef6208f-7427-4ce1-a90c-ffa64723e7ad"},"vehicle_type_id":"4","last_reported":1758039135,"current_range_meters":6000,"station_id":"ce4bh0p2rcd13ifvqd70","pricing_plan_id":"cebpf4jnsgd1na2vs0mg"},{"bike_id":"f43ab4d4-8a36-4b97-8221-0c5f42c36023","system_id":"levelo_inurba_marseille","lat":43.240779,"lon":5.377473,"is_reserved":false,"is_disabled":true,"rental_uris":{"android":"levelo://app?vid=f43ab4d4-8a36-4b97-8221-0c5f42c36023","ios":"levelo://app?vid=f43ab4d4-8a36-4b97-8221-0c5f42c36023"},"vehicle_type_id":"4","last_reported":1758039135,"current_range_meters":6000,"station_id":"","pricing_plan_id":"cebpf4jnsgd1na2vs0mg"},{"bike_id":"80503c9e-8b0f-4415-b667-0dc3b52d9271","system_id":"levelo_inurba_marseille","lat":43.22934,"lon":5.35376,"is_reserved":false,"is_disabled":false,"rental_uris":{"android":"levelo://app?vid=80503c9e-8b0f-4415-b667-0dc3b52d9271","ios":"levelo://app?vid=80503c9e-8b0f-4415-b667-0dc3b52d9271"},"vehicle_type_id":"4","last_reported":1758039135,"current_range_meters":6000,"station_id":"cpo3532slgdg3j2ikp40","pricing_plan_id":"cebpf4jnsgd1na2vs0mg"},{"bike_id":"27bc6b0c-c22e-494b-ab92-4e390584592b","system_id":"levelo_inurba_marseille","lat":43.33757,"lon":5.37463,"is_reserved":false,"is_disabled":false,"rental_uris":{"android":"levelo://app?vid=27bc6b0c-c22e-494b-ab92-4e390584592b","ios":"levelo://app?vid=27bc6b0c-c22e-494b-ab92-4e390584592b"},"vehicle_type_id":"4","last_reported":1758039135,"current_range_meters":6000,"station_id":"","pricing_plan_id":"cebpf4jnsgd1na2vs0mg"},{"bike_id":"4f5bb362-3b6d-4aac-b3a8-2351c7cf5fb1","system_id":"levelo_inurba_marseille","lat":43.29221,"lon":5.36067,"is_reserved":false,"is_disabled":false,"rental_uris":{"android":"levelo://app?vid=4f5bb362-3b6d-4aac-b3a8-2351c7cf5fb1","ios":"levelo://app?vid=4f5bb362-3b6d-4aac-b3a8-2351c7cf5fb1"},"vehicle_type_id":"4","last_reported":1758039135,"current_range_meters":6400,"station_id":"ce4bhbh2rcd13ifvqeqg","pricing_plan_id":"cebpf4jnsgd1na2vs0mg"},{"bike_id":"2baf9f8d-5f61-4320-aac8-03934bf979d2","system_id":"levelo_inurba_marseille","lat":43.29575,"lon":5.39975,"is_reserved":false,"is_disabled":false,"rental_uris":{"android":"levelo://app?vid=2baf9f8d-5f61-4320-aac8-03934bf979d2","ios":"levelo://app?vid=2baf9f8d-5f61-4320-aac8-03934bf979d2"},"vehicle_type_id":"4","last_reported":1758039135,"current_range_meters":6400,"station_id":"ce4bh312rcd13ifvqdj0","pricing_plan_id":"cebpf4jnsgd1na2vs0mg"},{"bike_id":"35a06957-b6a9-4764-b07a-71973807c136","system_id":"levelo_inurba_marseille","lat":43.28401,"lon":5.37522,"is_reserved":false,"is_disabled":false,"rental_uris":{"android":"levelo://app?vid=35a06957-b6a9-4764-b07a-71973807c136","ios":"levelo://app?vid=35a06957-b6a9-4764-b07a-71973807c136"},"vehicle_type_id":"4","last_reported":1758039135,"current_range_meters":6400,"station_id":"ce4bh412rcd13ifvqds0","pricing_plan_id":"cebpf4jnsgd1na2vs0mg"},{"bike_id":"09cb948d-b458-45a7-97c6-4823ac4daebd","system_id":"levelo_inurba_marseille","lat":43.27174,"lon":5.40992,"is_reserved":false,"is_disabled":false,"rental_uris":{"android":"levelo://app?vid=09cb948d-b458-45a7-97c6-4823ac4daebd","ios":"levelo://app?vid=09cb948d-b458-45a7-97c6-4823ac4daebd"},"vehicle_type_id":"4","last_reported":1758039135,"current_range_meters":6400,"station_id":"ce4bhl12rcd13ifvqgf0","pricing_plan_id":"cebpf4jnsgd1na2vs0mg"},{"bike_id":"8a5bcc1c-b354-49a0-89f1-692af64a6ca5","system_id":"levelo_inurba_marseille","lat":43.28423,"lon":5.35004,"is_reserved":false,"is_disabled":false,"rental_uris":{"android":"levelo://app?vid=8a5bcc1c-b354-49a0-89f1-692af64a6ca5","ios":"levelo://app?vid=8a5bcc1c-b354-49a0-89f1-692af64a6ca5"},"vehicle_type_id":"4","last_reported":1758039135,"current_range_meters":6400,"station_id":"ce4bhbh2rcd13ifvqepg","pricing_plan_id":"cebpf4jnsgd1na2vs0mg"},{"bike_id":"57127154-7e15-4346-89ed-ab9d76ef9c2c","system_id":"levelo_inurba_marseille","lat":43.28838,"lon":5.36326,"is_reserved":false,"is_disabled":false,"rental_uris":{"android":"levelo://app?vid=57127154-7e15-4346-89ed-ab9d76ef9c2c","ios":"levelo://app?vid=57127154-7e15-4346-89ed-ab9d76ef9c2c"},"vehicle_type_id":"4","last_reported":1758039135,"current_range_meters":6400,"station_id":"","pricing_plan_id":"cebpf4jnsgd1na2vs0mg"},{"bike_id":"9e57db51-ea39-4211-bbcf-04d17facf96d","system_id":"levelo_inurba_marseille","lat":43.24617,"lon":5.4316,"is_reserved":false,"is_disabled":false,"rental_uris":{"android":"levelo://app?vid=9e57db51-ea39-4211-bbcf-04d17facf96d","ios":"levelo://app?vid=9e57db51-ea39-4211-bbcf-04d17facf96d"},"vehicle_type_id":"4","last_reported":1758039135,"current_range_meters":6800,"station_id":"st_d2m6c4gdas8pm72e190g","pricing_plan_id":"cebpf4jnsgd1na2vs0mg"},{"bike_id":"d4cf3ce9-fc3b-47bc-a1a4-1c6c6f262f1c","system_id":"levelo_inurba_marseille","lat":43.2792,"lon":5.39579,"is_reserved":false,"is_disabled":false,"rental_uris":{"android":"levelo://app?vid=d4cf3ce9-fc3b-47bc-a1a4-1c6c6f262f1c","ios":"levelo://app?vid=d4cf3ce9-fc3b-47bc-a1a4-1c6c6f262f1c"},"vehicle_type_id":"4","last_reported":1758039135,"current_range_meters":6800,"station_id":"ce4bhf92rcd13ifvqf40","pricing_plan_id":"cebpf4jnsgd1na2vs0mg"},{"bike_id":"e7a329bd-ed66-4ac7-aaba-63f2810ddd86","system_id":"levelo_inurba_marseille","lat":43.31859,"lon":5.37206,"is_reserved":false,"is_disabled":false,"rental_uris":{"android":"levelo://app?vid=e7a329bd-ed66-4ac7-aaba-63f2810ddd86","ios":"levelo://app?vid=e7a329bd-ed66-4ac7-aaba-63f2810ddd86"},"vehicle_type_id":"4","last_reported":1758039135,"current_range_meters":6800,"station_id":"","pricing_plan_id":"cebpf4jnsgd1na2vs0mg"},{"bike_id":"3497e7a2-d1ac-45c8-b73f-5afe1dfc9c24","system_id":"levelo_inurba_marseille","lat":43.28585,"lon":5.3707,"is_reserved":false,"is_disabled":false,"rental_uris":{"android":"levelo://app?vid=3497e7a2-d1ac-45c8-b73f-5afe1dfc9c24","ios":"levelo://app?vid=3497e7a2-d1ac-45c8-b73f-5afe1dfc9c24"},"vehicle_type_id":"4","last_reported":1758039135,"current_range_meters":6800,"station_id":"ce4bht12rcd13ifvqi60","pricing_plan_id":"cebpf4jnsgd1na2vs0mg"},{"bike_id":"cf1f88d3-ab41-48af-b56c-fa223170b5c0","system_id":"levelo_inurba_marseille","lat":43.28936,"lon":5.36638,"is_reserved":false,"is_disabled":false,"rental_uris":{"android":"levelo://app?vid=cf1f88d3-ab41-48af-b56c-fa223170b5c0","ios":"levelo://app?vid=cf1f88d3-ab41-48af-b56c-fa223170b5c0"},"vehicle_type_id":"4","last_reported":1758039135,"current_range_meters":6800,"station_id":"ce4bhap2rcd13ifvqek0","pricing_plan_id":"cebpf4jnsgd1na2vs0mg"},{"bike_id":"e9d42c5b-2eeb-4956-bf69-1565cbf09cc0","system_id":"levelo_inurba_marseille","lat":43.287,"lon":5.37393,"is_reserved":false,"is_disabled":true,"rental_uris":{"android":"levelo://app?vid=e9d42c5b-2eeb-4956-bf69-1565cbf09cc0","ios":"levelo://app?vid=e9d42c5b-2eeb-4956-bf69-1565cbf09cc0"},"vehicle_type_id":"4","last_reported":1758039135,"current_range_meters":6800,"station_id":"ce4bh3p2rcd13ifvqdq0","pricing_plan_id":"cebpf4jnsgd1na2vs0mg"},{"bike_id":"e2902a94-28c8-4a14-9501-325aae3aef80","system_id":"levelo_inurba_marseille","lat":43.297834,"lon":5.39342,"is_reserved":false,"is_disabled":false,"rental_uris":{"android":"levelo://app?vid=e2902a94-28c8-4a14-9501-325aae3aef80","ios":"levelo://app?vid=e2902a94-28c8-4a14-9501-325aae3aef80"},"vehicle_type_id":"4","last_reported":1758039135,"current_range_meters":7200,"station_id":"chh1huq6cuj3fo74tm60","pricing_plan_id":"cebpf4jnsgd1na2vs0mg"},{"bike_id":"f7825ce6-de89-45bf-831f-3599d0d91c3c","system_id":"levelo_inurba_marseille","lat":43.31364,"lon":5.36875,"is_reserved":false,"is_disabled":false,"rental_uris":{"android":"levelo://app?vid=f7825ce6-de89-45bf-831f-3599d0d91c3c","ios":"levelo://app?vid=f7825ce6-de89-45bf-831f-3599d0d91c3c"},"vehicle_type_id":"4","last_reported":1758039135,"current_range_meters":7200,"station_id":"","pricing_plan_id":"cebpf4jnsgd1na2vs0mg"},{"bike_id":"10ebfc03-a48a-4834-91b1-1c2b71580ff3","system_id":"levelo_inurba_marseille","lat":43.24389,"lon":5.37057,"is_reserved":false,"is_disabled":false,"rental_uris":{"android":"levelo://app?vid=10ebfc03-a48a-4834-91b1-1c2b71580ff3","ios":"levelo://app?vid=10ebfc03-a48a-4834-91b1-1c2b71580ff3"},"vehicle_type_id":"4","last_reported":1758039135,"current_range_meters":7200,"station_id":"ce4bhhh2rcd13ifvqfk0","pricing_plan_id":"cebpf4jnsgd1na2vs0mg"},{"bike_id":"13d32666-d94f-41f6-83eb-f3a1e138579e","system_id":"levelo_inurba_marseille","lat":43.28134,"lon":5.35022,"is_reserved":false,"is_disabled":false,"rental_uris":{"android":"levelo://app?vid=13d32666-d94f-41f6-83eb-f3a1e138579e","ios":"levelo://app?vid=13d32666-d94f-41f6-83eb-f3a1e138579e"},"vehicle_type_id":"4","last_reported":1758039135,"current_range_meters":7200,"station_id":"","pricing_plan_id":"cebpf4jnsgd1na2vs0mg"},{"bike_id":"e3210258-2d12-407c-b058-b364dd719dd4","system_id":"levelo_inurba_marseille","lat":43.29892,"lon":5.38912,"is_reserved":false,"is_disabled":false,"rental_uris":{"android":"levelo://app?vid=e3210258-2d12-407c-b058-b364dd719dd4","ios":"levelo://app?vid=e3210258-2d12-407c-b058-b364dd719dd4"},"vehicle_type_id":"4","last_reported":1758039135,"current_range_meters":7200,"station_id":"ce4bh392rcd13ifvqdl0","pricing_plan_id":"cebpf4jnsgd1na2vs0mg"},{"bike_id":"681d1ac5-60b6-40fd-a9e9-5222905ecead","system_id":"levelo_inurba_marseille","lat":43.3088,"lon":5.39663,"is_reserved":false,"is_disabled":false,"rental_uris":{"android":"levelo://app?vid=681d1ac5-60b6-40fd-a9e9-5222905ecead","ios":"levelo://app?vid=681d1ac5-60b6-40fd-a9e9-5222905ecead"},"vehicle_type_id":"4","last_reported":1758039135,"current_range_meters":8000,"station_id":"ce4bh012rcd13ifvqcv0","pricing_plan_id":"cebpf4jnsgd1na2vs0mg"},{"bike_id":"322c1f5a-85db-4ef6-bcd4-1b5c417c8ee0","system_id":"levelo_inurba_marseille","lat":43.3377,"lon":5.37488,"is_reserved":false,"is_disabled":false,"rental_uris":{"android":"levelo://app?vid=322c1f5a-85db-4ef6-bcd4-1b5c417c8ee0","ios":"levelo://app?vid=322c1f5a-85db-4ef6-bcd4-1b5c417c8ee0"},"vehicle_type_id":"4","last_reported":1758039135,"current_range_meters":8000,"station_id":"","pricing_plan_id":"cebpf4jnsgd1na2vs0mg"},{"bike_id":"1b2a6988-c074-4d10-bfb4-a66d6fb6fa8e","system_id":"levelo_inurba_marseille","lat":43.251102,"lon":5.403222,"is_reserved":false,"is_disabled":false,"rental_uris":{"android":"levelo://app?vid=1b2a6988-c074-4d10-bfb4-a66d6fb6fa8e","ios":"levelo://app?vid=1b2a6988-c074-4d10-bfb4-a66d6fb6fa8e"},"vehicle_type_id":"4","last_reported":1758039135,"current_range_meters":8000,"station_id":"ce4bhlh2rcd13ifvqgig","pricing_plan_id":"cebpf4jnsgd1na2vs0mg"},{"bike_id":"7fcffe81-6d0c-475b-bac5-7d858a78084d","system_id":"levelo_inurba_marseille","lat":43.2842,"lon":5.34975,"is_reserved":false,"is_disabled":false,"rental_uris":{"android":"levelo://app?vid=7fcffe81-6d0c-475b-bac5-7d858a78084d","ios":"levelo://app?vid=7fcffe81-6d0c-475b-bac5-7d858a78084d"},"vehicle_type_id":"4","last_reported":1758039135,"current_range_meters":8000,"station_id":"ce4bhbh2rcd13ifvqepg","pricing_plan_id":"cebpf4jnsgd1na2vs0mg"},{"bike_id":"e34530ca-3128-4cdf-86dc-dc57261741ae","system_id":"levelo_inurba_marseille","lat":43.273753,"lon":5.362645,"is_reserved":false,"is_disabled":false,"rental_uris":{"android":"levelo://app?vid=e34530ca-3128-4cdf-86dc-dc57261741ae","ios":"levelo://app?vid=e34530ca-3128-4cdf-86dc-dc57261741ae"},"vehicle_type_id":"4","last_reported":1758039135,"current_range_meters":8000,"station_id":"ce4bhbh2rcd13ifvqeo0","pricing_plan_id":"cebpf4jnsgd1na2vs0mg"},{"bike_id":"aae4ace5-9a95-4090-afa1-f74704c30767","system_id":"levelo_inurba_marseille","lat":43.287,"lon":5.39998,"is_reserved":false,"is_disabled":false,"rental_uris":{"android":"levelo://app?vid=aae4ace5-9a95-4090-afa1-f74704c30767","ios":"levelo://app?vid=aae4ace5-9a95-4090-afa1-f74704c30767"},"vehicle_type_id":"4","last_reported":1758039135,"current_range_meters":8400,"station_id":"ce4bho92rcd13ifvqh3g","pricing_plan_id":"cebpf4jnsgd1na2vs0mg"},{"bike_id":"5f197be2-5f5f-4f6e-bdd1-c7b2416c5d68","system_id":"levelo_inurba_marseille","lat":43.29267,"lon":5.38435,"is_reserved":false,"is_disabled":false,"rental_uris":{"android":"levelo://app?vid=5f197be2-5f5f-4f6e-bdd1-c7b2416c5d68","ios":"levelo://app?vid=5f197be2-5f5f-4f6e-bdd1-c7b2416c5d68"},"vehicle_type_id":"4","last_reported":1758039135,"current_range_meters":8400,"station_id":"ce4bh692rcd13ifvqea0","pricing_plan_id":"cebpf4jnsgd1na2vs0mg"},{"bike_id":"bacd421d-9b63-4545-bbd0-d1b79fa922de","system_id":"levelo_inurba_marseille","lat":43.27375,"lon":5.36263,"is_reserved":false,"is_disabled":false,"rental_uris":{"android":"levelo://app?vid=bacd421d-9b63-4545-bbd0-d1b79fa922de","ios":"levelo://app?vid=bacd421d-9b63-4545-bbd0-d1b79fa922de"},"vehicle_type_id":"4","last_reported":1758039135,"current_range_meters":8400,"station_id":"ce4bhbh2rcd13ifvqeo0","pricing_plan_id":"cebpf4jnsgd1na2vs0mg"},{"bike_id":"951eae80-7f90-4a91-955b-8610c1a651fb","system_id":"levelo_inurba_marseille","lat":43.30122,"lon":5.39852,"is_reserved":false,"is_disabled":false,"rental_uris":{"android":"levelo://app?vid=951eae80-7f90-4a91-955b-8610c1a651fb","ios":"levelo://app?vid=951eae80-7f90-4a91-955b-8610c1a651fb"},"vehicle_type_id":"4","last_reported":1758039135,"current_range_meters":8000,"station_id":"ce4bh0h2rcd13ifvqd40","pricing_plan_id":"cebpf4jnsgd1na2vs0mg"},{"bike_id":"3f44697c-fe3e-4099-8fc9-3d8fa51de2fc","system_id":"levelo_inurba_marseille","lat":43.2987,"lon":5.39736,"is_reserved":false,"is_disabled":false,"rental_uris":{"android":"levelo://app?vid=3f44697c-fe3e-4099-8fc9-3d8fa51de2fc","ios":"levelo://app?vid=3f44697c-fe3e-4099-8fc9-3d8fa51de2fc"},"vehicle_type_id":"4","last_reported":1758039135,"current_range_meters":8400,"station_id":"ce4bh0h2rcd13ifvqd50","pricing_plan_id":"cebpf4jnsgd1na2vs0mg"},{"bike_id":"d818ffce-d6c4-4f39-ae87-10e02446a46c","system_id":"levelo_inurba_marseille","lat":43.24085,"lon":5.3775,"is_reserved":false,"is_disabled":true,"rental_uris":{"android":"levelo://app?vid=d818ffce-d6c4-4f39-ae87-10e02446a46c","ios":"levelo://app?vid=d818ffce-d6c4-4f39-ae87-10e02446a46c"},"vehicle_type_id":"4","last_reported":1758039135,"current_range_meters":8400,"station_id":"ce4bhnp2rcd13ifvqgvg","pricing_plan_id":"cebpf4jnsgd1na2vs0mg"},{"bike_id":"73b1bf2f-3708-4912-b185-294cee364db7","system_id":"levelo_inurba_marseille","lat":43.27374,"lon":5.36257,"is_reserved":false,"is_disabled":false,"rental_uris":{"android":"levelo://app?vid=73b1bf2f-3708-4912-b185-294cee364db7","ios":"levelo://app?vid=73b1bf2f-3708-4912-b185-294cee364db7"},"vehicle_type_id":"4","last_reported":1758039135,"current_range_meters":8800,"station_id":"ce4bhbh2rcd13ifvqeo0","pricing_plan_id":"cebpf4jnsgd1na2vs0mg"},{"bike_id":"34539d66-9bce-4d1c-8b94-78e2e11c6e1a","system_id":"levelo_inurba_marseille","lat":43.28854,"lon":5.4249,"is_reserved":false,"is_disabled":false,"rental_uris":{"android":"levelo://app?vid=34539d66-9bce-4d1c-8b94-78e2e11c6e1a","ios":"levelo://app?vid=34539d66-9bce-4d1c-8b94-78e2e11c6e1a"},"vehicle_type_id":"4","last_reported":1758039135,"current_range_meters":8800,"station_id":"","pricing_plan_id":"cebpf4jnsgd1na2vs0mg"},{"bike_id":"3666e2f3-65b0-4b91-8ddf-886c0b8a58e3","system_id":"levelo_inurba_marseille","lat":43.29864,"lon":5.3973,"is_reserved":false,"is_disabled":false,"rental_uris":{"android":"levelo://app?vid=3666e2f3-65b0-4b91-8ddf-886c0b8a58e3","ios":"levelo://app?vid=3666e2f3-65b0-4b91-8ddf-886c0b8a58e3"},"vehicle_type_id":"4","last_reported":1758039135,"current_range_meters":8800,"station_id":"ce4bh0h2rcd13ifvqd50","pricing_plan_id":"cebpf4jnsgd1na2vs0mg"},{"bike_id":"86729533-93f3-4c7e-8df1-2b3bb20a6999","system_id":"levelo_inurba_marseille","lat":43.2827,"lon":5.35069,"is_reserved":false,"is_disabled":true,"rental_uris":{"android":"levelo://app?vid=86729533-93f3-4c7e-8df1-2b3bb20a6999","ios":"levelo://app?vid=86729533-93f3-4c7e-8df1-2b3bb20a6999"},"vehicle_type_id":"4","last_reported":1758039135,"current_range_meters":8800,"station_id":"ce4bhbp2rcd13ifvqerg","pricing_plan_id":"cebpf4jnsgd1na2vs0mg"},{"bike_id":"443852c2-6913-41c7-9f43-127d49a4c82d","system_id":"levelo_inurba_marseille","lat":43.26563,"lon":5.40326,"is_reserved":false,"is_disabled":false,"rental_uris":{"android":"levelo://app?vid=443852c2-6913-41c7-9f43-127d49a4c82d","ios":"levelo://app?vid=443852c2-6913-41c7-9f43-127d49a4c82d"},"vehicle_type_id":"4","last_reported":1758039135,"current_range_meters":9200,"station_id":"ce4bhmp2rcd13ifvqgng","pricing_plan_id":"cebpf4jnsgd1na2vs0mg"},{"bike_id":"de9c0986-531a-485b-b4b0-d793c86b2464","system_id":"levelo_inurba_marseille","lat":43.30732,"lon":5.4244,"is_reserved":false,"is_disabled":false,"rental_uris":{"android":"levelo://app?vid=de9c0986-531a-485b-b4b0-d793c86b2464","ios":"levelo://app?vid=de9c0986-531a-485b-b4b0-d793c86b2464"},"vehicle_type_id":"4","last_reported":1758039135,"current_range_meters":9200,"station_id":"st_cvj6ca6bvosntc0bfgr0","pricing_plan_id":"cebpf4jnsgd1na2vs0mg"},{"bike_id":"3652d955-a05b-4838-8521-42fead192a02","system_id":"levelo_inurba_marseille","lat":43.292558,"lon":5.409042,"is_reserved":false,"is_disabled":false,"rental_uris":{"android":"levelo://app?vid=3652d955-a05b-4838-8521-42fead192a02","ios":"levelo://app?vid=3652d955-a05b-4838-8521-42fead192a02"},"vehicle_type_id":"4","last_reported":1758039135,"current_range_meters":9200,"station_id":"ce4bh192rcd13ifvqdc0","pricing_plan_id":"cebpf4jnsgd1na2vs0mg"},{"bike_id":"a155e67d-bec0-4326-ae57-c035ef5e1c81","system_id":"levelo_inurba_marseille","lat":43.29897,"lon":5.4368,"is_reserved":false,"is_disabled":false,"rental_uris":{"android":"levelo://app?vid=a155e67d-bec0-4326-ae57-c035ef5e1c81","ios":"levelo://app?vid=a155e67d-bec0-4326-ae57-c035ef5e1c81"},"vehicle_type_id":"4","last_reported":1758039135,"current_range_meters":9200,"station_id":"ce4bhpp2rcd13ifvqhfg","pricing_plan_id":"cebpf4jnsgd1na2vs0mg"},{"bike_id":"3f31a35f-aac4-41ef-9e0e-acd3c3fdd234","system_id":"levelo_inurba_marseille","lat":43.28707,"lon":5.38794,"is_reserved":false,"is_disabled":false,"rental_uris":{"android":"levelo://app?vid=3f31a35f-aac4-41ef-9e0e-acd3c3fdd234","ios":"levelo://app?vid=3f31a35f-aac4-41ef-9e0e-acd3c3fdd234"},"vehicle_type_id":"4","last_reported":1758039135,"current_range_meters":9200,"station_id":"","pricing_plan_id":"cebpf4jnsgd1na2vs0mg"},{"bike_id":"0a8352af-250f-4075-b13d-07930bf420c8","system_id":"levelo_inurba_marseille","lat":43.29007,"lon":5.35609,"is_reserved":false,"is_disabled":false,"rental_uris":{"android":"levelo://app?vid=0a8352af-250f-4075-b13d-07930bf420c8","ios":"levelo://app?vid=0a8352af-250f-4075-b13d-07930bf420c8"},"vehicle_type_id":"4","last_reported":1758039135,"current_range_meters":9200,"station_id":"ce4bhb92rcd13ifvqen0","pricing_plan_id":"cebpf4jnsgd1na2vs0mg"},{"bike_id":"24134c4f-7420-49cc-a4b9-fce39e8b3a82","system_id":"levelo_inurba_marseille","lat":43.27055,"lon":5.4026,"is_reserved":false,"is_disabled":true,"rental_uris":{"android":"levelo://app?vid=24134c4f-7420-49cc-a4b9-fce39e8b3a82","ios":"levelo://app?vid=24134c4f-7420-49cc-a4b9-fce39e8b3a82"},"vehicle_type_id":"4","last_reported":1758039135,"current_range_meters":9200,"station_id":"ce4bhk92rcd13ifvqgc0","pricing_plan_id":"cebpf4jnsgd1na2vs0mg"},{"bike_id":"c07e7a2d-d8a6-4efd-8723-e965be4d1a74","system_id":"levelo_inurba_marseille","lat":43.22533,"lon":5.348367,"is_reserved":false,"is_disabled":false,"rental_uris":{"android":"levelo://app?vid=c07e7a2d-d8a6-4efd-8723-e965be4d1a74","ios":"levelo://app?vid=c07e7a2d-d8a6-4efd-8723-e965be4d1a74"},"vehicle_type_id":"4","last_reported":1758039135,"current_range_meters":9200,"station_id":"","pricing_plan_id":"cebpf4jnsgd1na2vs0mg"},{"bike_id":"cd02c080-8936-4e2b-af4d-301cbe8eb8f1","system_id":"levelo_inurba_marseille","lat":43.30065,"lon":5.40342,"is_reserved":false,"is_disabled":false,"rental_uris":{"android":"levelo://app?vid=cd02c080-8936-4e2b-af4d-301cbe8eb8f1","ios":"levelo://app?vid=cd02c080-8936-4e2b-af4d-301cbe8eb8f1"},"vehicle_type_id":"4","last_reported":1758039135,"current_range_meters":9600,"station_id":"","pricing_plan_id":"cebpf4jnsgd1na2vs0mg"},{"bike_id":"a9f13996-cedb-42ef-8189-8cba3aa4b434","system_id":"levelo_inurba_marseille","lat":43.21197,"lon":5.35065,"is_reserved":false,"is_disabled":false,"rental_uris":{"android":"levelo://app?vid=a9f13996-cedb-42ef-8189-8cba3aa4b434","ios":"levelo://app?vid=a9f13996-cedb-42ef-8189-8cba3aa4b434"},"vehicle_type_id":"4","last_reported":1758039135,"current_range_meters":9600,"station_id":"st_cvj6sg6p6f1abm77japg","pricing_plan_id":"cebpf4jnsgd1na2vs0mg"},{"bike_id":"9000d403-a1e1-4015-936c-6c7b27951e78","system_id":"levelo_inurba_marseille","lat":43.22935,"lon":5.35374,"is_reserved":false,"is_disabled":false,"rental_uris":{"android":"levelo://app?vid=9000d403-a1e1-4015-936c-6c7b27951e78","ios":"levelo://app?vid=9000d403-a1e1-4015-936c-6c7b27951e78"},"vehicle_type_id":"4","last_reported":1758039135,"current_range_meters":9600,"station_id":"cpo3532slgdg3j2ikp40","pricing_plan_id":"cebpf4jnsgd1na2vs0mg"},{"bike_id":"63cbf721-17e5-4d2c-a24d-84b033fe8b5a","system_id":"levelo_inurba_marseille","lat":43.28942,"lon":5.36635,"is_reserved":false,"is_disabled":false,"rental_uris":{"android":"levelo://app?vid=63cbf721-17e5-4d2c-a24d-84b033fe8b5a","ios":"levelo://app?vid=63cbf721-17e5-4d2c-a24d-84b033fe8b5a"},"vehicle_type_id":"4","last_reported":1758039135,"current_range_meters":9600,"station_id":"ce4bhap2rcd13ifvqek0","pricing_plan_id":"cebpf4jnsgd1na2vs0mg"},{"bike_id":"8bad72d5-673d-40b2-865e-a2d7a166c52c","system_id":"levelo_inurba_marseille","lat":43.28566,"lon":5.39498,"is_reserved":false,"is_disabled":false,"rental_uris":{"android":"levelo://app?vid=8bad72d5-673d-40b2-865e-a2d7a166c52c","ios":"levelo://app?vid=8bad72d5-673d-40b2-865e-a2d7a166c52c"},"vehicle_type_id":"4","last_reported":1758039135,"current_range_meters":9600,"station_id":"ce4bh292rcd13ifvqdg0","pricing_plan_id":"cebpf4jnsgd1na2vs0mg"},{"bike_id":"e8c1ee3a-c27f-43a8-840b-1bccdbe70e39","system_id":"levelo_inurba_marseille","lat":43.29269,"lon":5.40901,"is_reserved":false,"is_disabled":false,"rental_uris":{"android":"levelo://app?vid=e8c1ee3a-c27f-43a8-840b-1bccdbe70e39","ios":"levelo://app?vid=e8c1ee3a-c27f-43a8-840b-1bccdbe70e39"},"vehicle_type_id":"4","last_reported":1758039135,"current_range_meters":9600,"station_id":"ce4bh192rcd13ifvqdc0","pricing_plan_id":"cebpf4jnsgd1na2vs0mg"},{"bike_id":"e1614f7a-29e3-4399-b130-8e91c56d37f5","system_id":"levelo_inurba_marseille","lat":43.28071,"lon":5.39663,"is_reserved":false,"is_disabled":false,"rental_uris":{"android":"levelo://app?vid=e1614f7a-29e3-4399-b130-8e91c56d37f5","ios":"levelo://app?vid=e1614f7a-29e3-4399-b130-8e91c56d37f5"},"vehicle_type_id":"4","last_reported":1758039135,"current_range_meters":10000,"station_id":"ce4bho12rcd13ifvqh2g","pricing_plan_id":"cebpf4jnsgd1na2vs0mg"},{"bike_id":"8ef8bf7d-8a91-4724-8c2e-ddeef723e28a","system_id":"levelo_inurba_marseille","lat":43.27035,"lon":5.37926,"is_reserved":false,"is_disabled":false,"rental_uris":{"android":"levelo://app?vid=8ef8bf7d-8a91-4724-8c2e-ddeef723e28a","ios":"levelo://app?vid=8ef8bf7d-8a91-4724-8c2e-ddeef723e28a"},"vehicle_type_id":"4","last_reported":1758039135,"current_range_meters":10000,"station_id":"","pricing_plan_id":"cebpf4jnsgd1na2vs0mg"},{"bike_id":"336c74d9-d9c9-46d7-a94b-134b36ad023a","system_id":"levelo_inurba_marseille","lat":43.29867,"lon":5.3784,"is_reserved":false,"is_disabled":false,"rental_uris":{"android":"levelo://app?vid=336c74d9-d9c9-46d7-a94b-134b36ad023a","ios":"levelo://app?vid=336c74d9-d9c9-46d7-a94b-134b36ad023a"},"vehicle_type_id":"4","last_reported":1758039135,"current_range_meters":10000,"station_id":"","pricing_plan_id":"cebpf4jnsgd1na2vs0mg"},{"bike_id":"c85898a9-4bd7-4bda-b34f-17d780b095f1","system_id":"levelo_inurba_marseille","lat":43.21182,"lon":5.35075,"is_reserved":false,"is_disabled":false,"rental_uris":{"android":"levelo://app?vid=c85898a9-4bd7-4bda-b34f-17d780b095f1","ios":"levelo://app?vid=c85898a9-4bd7-4bda-b34f-17d780b095f1"},"vehicle_type_id":"4","last_reported":1758039135,"current_range_meters":10000,"station_id":"st_cvj6sg6p6f1abm77japg","pricing_plan_id":"cebpf4jnsgd1na2vs0mg"},{"bike_id":"27e92333-569e-468a-b50c-908ada1bb403","system_id":"levelo_inurba_marseille","lat":43.255896,"lon":5.382229,"is_reserved":false,"is_disabled":false,"rental_uris":{"android":"levelo://app?vid=27e92333-569e-468a-b50c-908ada1bb403","ios":"levelo://app?vid=27e92333-569e-468a-b50c-908ada1bb403"},"vehicle_type_id":"4","last_reported":1758039135,"current_range_meters":10000,"station_id":"ce4bhih2rcd13ifvqfs0","pricing_plan_id":"cebpf4jnsgd1na2vs0mg"},{"bike_id":"77246e06-46b3-406d-9b69-b9b3e2cbdee1","system_id":"levelo_inurba_marseille","lat":43.28066,"lon":5.38664,"is_reserved":false,"is_disabled":false,"rental_uris":{"android":"levelo://app?vid=77246e06-46b3-406d-9b69-b9b3e2cbdee1","ios":"levelo://app?vid=77246e06-46b3-406d-9b69-b9b3e2cbdee1"},"vehicle_type_id":"4","last_reported":1758039135,"current_range_meters":10000,"station_id":"","pricing_plan_id":"cebpf4jnsgd1na2vs0mg"},{"bike_id":"e5c0f9fa-aa79-401b-ac6b-a846850c5345","system_id":"levelo_inurba_marseille","lat":43.27833,"lon":5.3852,"is_reserved":false,"is_disabled":false,"rental_uris":{"android":"levelo://app?vid=e5c0f9fa-aa79-401b-ac6b-a846850c5345","ios":"levelo://app?vid=e5c0f9fa-aa79-401b-ac6b-a846850c5345"},"vehicle_type_id":"4","last_reported":1758039135,"current_range_meters":10000,"station_id":"","pricing_plan_id":"cebpf4jnsgd1na2vs0mg"},{"bike_id":"e824d254-16a6-4ae4-983a-05af083f4c81","system_id":"levelo_inurba_marseille","lat":43.21753,"lon":5.34607,"is_reserved":false,"is_disabled":false,"rental_uris":{"android":"levelo://app?vid=e824d254-16a6-4ae4-983a-05af083f4c81","ios":"levelo://app?vid=e824d254-16a6-4ae4-983a-05af083f4c81"},"vehicle_type_id":"4","last_reported":1758039135,"current_range_meters":10800,"station_id":"","pricing_plan_id":"cebpf4jnsgd1na2vs0mg"},{"bike_id":"d7b053ab-2912-4f16-abf7-c47be8c4e15a","system_id":"levelo_inurba_marseille","lat":43.26549,"lon":5.373,"is_reserved":false,"is_disabled":true,"rental_uris":{"android":"levelo://app?vid=d7b053ab-2912-4f16-abf7-c47be8c4e15a","ios":"levelo://app?vid=d7b053ab-2912-4f16-abf7-c47be8c4e15a"},"vehicle_type_id":"4","last_reported":1758039135,"current_range_meters":10800,"station_id":"ce4bhg12rcd13ifvqf70","pricing_plan_id":"cebpf4jnsgd1na2vs0mg"},{"bike_id":"52547c74-c0e9-4d6f-b224-92201979afe3","system_id":"levelo_inurba_marseille","lat":43.32106,"lon":5.36775,"is_reserved":false,"is_disabled":false,"rental_uris":{"android":"levelo://app?vid=52547c74-c0e9-4d6f-b224-92201979afe3","ios":"levelo://app?vid=52547c74-c0e9-4d6f-b224-92201979afe3"},"vehicle_type_id":"4","last_reported":1758039135,"current_range_meters":10800,"station_id":"ce4bhrh2rcd13ifvqhug","pricing_plan_id":"cebpf4jnsgd1na2vs0mg"},{"bike_id":"00e62c61-b9b7-4586-ba4b-ea7212e61a01","system_id":"levelo_inurba_marseille","lat":43.28488,"lon":5.38431,"is_reserved":false,"is_disabled":false,"rental_uris":{"android":"levelo://app?vid=00e62c61-b9b7-4586-ba4b-ea7212e61a01","ios":"levelo://app?vid=00e62c61-b9b7-4586-ba4b-ea7212e61a01"},"vehicle_type_id":"4","last_reported":1758039135,"current_range_meters":10800,"station_id":"ce4bh512rcd13ifvqe3g","pricing_plan_id":"cebpf4jnsgd1na2vs0mg"},{"bike_id":"dfb0c952-99ca-4e8b-bfbb-e55ae0420ce5","system_id":"levelo_inurba_marseille","lat":43.280754,"lon":5.396617,"is_reserved":false,"is_disabled":false,"rental_uris":{"android":"levelo://app?vid=dfb0c952-99ca-4e8b-bfbb-e55ae0420ce5","ios":"levelo://app?vid=dfb0c952-99ca-4e8b-bfbb-e55ae0420ce5"},"vehicle_type_id":"4","last_reported":1758039135,"current_range_meters":10800,"station_id":"","pricing_plan_id":"cebpf4jnsgd1na2vs0mg"},{"bike_id":"b57053a3-f497-40d9-9410-bf54308da813","system_id":"levelo_inurba_marseille","lat":43.28468,"lon":5.35876,"is_reserved":false,"is_disabled":false,"rental_uris":{"android":"levelo://app?vid=b57053a3-f497-40d9-9410-bf54308da813","ios":"levelo://app?vid=b57053a3-f497-40d9-9410-bf54308da813"},"vehicle_type_id":"4","last_reported":1758039135,"current_range_meters":10800,"station_id":"ce4bhah2rcd13ifvqei0","pricing_plan_id":"cebpf4jnsgd1na2vs0mg"},{"bike_id":"44bd14f6-8943-42c4-ac36-68c4f29f6028","system_id":"levelo_inurba_marseille","lat":43.30359,"lon":5.4188,"is_reserved":false,"is_disabled":false,"rental_uris":{"android":"levelo://app?vid=44bd14f6-8943-42c4-ac36-68c4f29f6028","ios":"levelo://app?vid=44bd14f6-8943-42c4-ac36-68c4f29f6028"},"vehicle_type_id":"4","last_reported":1758039135,"current_range_meters":10800,"station_id":"ce4bhop2rcd13ifvqh7g","pricing_plan_id":"cebpf4jnsgd1na2vs0mg"},{"bike_id":"488100a6-1b2e-4de3-9ba3-b5900cc3a17e","system_id":"levelo_inurba_marseille","lat":43.27996,"lon":5.40008,"is_reserved":false,"is_disabled":false,"rental_uris":{"android":"levelo://app?vid=488100a6-1b2e-4de3-9ba3-b5900cc3a17e","ios":"levelo://app?vid=488100a6-1b2e-4de3-9ba3-b5900cc3a17e"},"vehicle_type_id":"4","last_reported":1758039135,"current_range_meters":11200,"station_id":"ce4bho92rcd13ifvqh4g","pricing_plan_id":"cebpf4jnsgd1na2vs0mg"},{"bike_id":"8bf0756c-ca3e-4761-a8d6-b82109d5ab48","system_id":"levelo_inurba_marseille","lat":43.28567,"lon":5.395002,"is_reserved":false,"is_disabled":false,"rental_uris":{"android":"levelo://app?vid=8bf0756c-ca3e-4761-a8d6-b82109d5ab48","ios":"levelo://app?vid=8bf0756c-ca3e-4761-a8d6-b82109d5ab48"},"vehicle_type_id":"4","last_reported":1758039135,"current_range_meters":11200,"station_id":"ce4bh292rcd13ifvqdg0","pricing_plan_id":"cebpf4jnsgd1na2vs0mg"},{"bike_id":"e5b4e79a-c852-4626-80bc-fcb01627f66f","system_id":"levelo_inurba_marseille","lat":43.29872,"lon":5.39734,"is_reserved":false,"is_disabled":false,"rental_uris":{"android":"levelo://app?vid=e5b4e79a-c852-4626-80bc-fcb01627f66f","ios":"levelo://app?vid=e5b4e79a-c852-4626-80bc-fcb01627f66f"},"vehicle_type_id":"4","last_reported":1758039135,"current_range_meters":11200,"station_id":"ce4bh0h2rcd13ifvqd50","pricing_plan_id":"cebpf4jnsgd1na2vs0mg"},{"bike_id":"31bbba55-a8bf-4883-afb1-5b121c973ab7","system_id":"levelo_inurba_marseille","lat":43.30305,"lon":5.39202,"is_reserved":false,"is_disabled":false,"rental_uris":{"android":"levelo://app?vid=31bbba55-a8bf-4883-afb1-5b121c973ab7","ios":"levelo://app?vid=31bbba55-a8bf-4883-afb1-5b121c973ab7"},"vehicle_type_id":"4","last_reported":1758039135,"current_range_meters":11200,"station_id":"ce4bgkh2rcd13ifvqbk0","pricing_plan_id":"cebpf4jnsgd1na2vs0mg"},{"bike_id":"58862c1b-cbf9-4cd0-b7ea-5d7689f7e662","system_id":"levelo_inurba_marseille","lat":43.29225,"lon":5.36065,"is_reserved":false,"is_disabled":false,"rental_uris":{"android":"levelo://app?vid=58862c1b-cbf9-4cd0-b7ea-5d7689f7e662","ios":"levelo://app?vid=58862c1b-cbf9-4cd0-b7ea-5d7689f7e662"},"vehicle_type_id":"4","last_reported":1758039135,"current_range_meters":11600,"station_id":"ce4bhbh2rcd13ifvqeqg","pricing_plan_id":"cebpf4jnsgd1na2vs0mg"},{"bike_id":"2bed0138-9ac3-4164-90ee-5bfaf418733f","system_id":"levelo_inurba_marseille","lat":43.28918,"lon":5.38391,"is_reserved":false,"is_disabled":true,"rental_uris":{"android":"levelo://app?vid=2bed0138-9ac3-4164-90ee-5bfaf418733f","ios":"levelo://app?vid=2bed0138-9ac3-4164-90ee-5bfaf418733f"},"vehicle_type_id":"4","last_reported":1758039135,"current_range_meters":11600,"station_id":"ce4bh612rcd13ifvqe6g","pricing_plan_id":"cebpf4jnsgd1na2vs0mg"},{"bike_id":"b27b0a20-263f-48eb-b73d-e48cd5b3a7b3","system_id":"levelo_inurba_marseille","lat":43.308072,"lon":5.381493,"is_reserved":false,"is_disabled":false,"rental_uris":{"android":"levelo://app?vid=b27b0a20-263f-48eb-b73d-e48cd5b3a7b3","ios":"levelo://app?vid=b27b0a20-263f-48eb-b73d-e48cd5b3a7b3"},"vehicle_type_id":"4","last_reported":1758039135,"current_range_meters":12000,"station_id":"ce4bgt12rcd13ifvqce0","pricing_plan_id":"cebpf4jnsgd1na2vs0mg"},{"bike_id":"34982d01-58f8-46c5-afe1-bc3f0cfd3e48","system_id":"levelo_inurba_marseille","lat":43.30331,"lon":5.40435,"is_reserved":false,"is_disabled":false,"rental_uris":{"android":"levelo://app?vid=34982d01-58f8-46c5-afe1-bc3f0cfd3e48","ios":"levelo://app?vid=34982d01-58f8-46c5-afe1-bc3f0cfd3e48"},"vehicle_type_id":"4","last_reported":1758039135,"current_range_meters":12000,"station_id":"ce4bh012rcd13ifvqd10","pricing_plan_id":"cebpf4jnsgd1na2vs0mg"},{"bike_id":"5404a574-c18c-466b-bf42-8f3238c0c146","system_id":"levelo_inurba_marseille","lat":43.29803,"lon":5.38544,"is_reserved":false,"is_disabled":false,"rental_uris":{"android":"levelo://app?vid=5404a574-c18c-466b-bf42-8f3238c0c146","ios":"levelo://app?vid=5404a574-c18c-466b-bf42-8f3238c0c146"},"vehicle_type_id":"4","last_reported":1758039135,"current_range_meters":12000,"station_id":"","pricing_plan_id":"cebpf4jnsgd1na2vs0mg"},{"bike_id":"8e11187a-10f5-4087-8dde-6543d760b2bb","system_id":"levelo_inurba_marseille","lat":43.28937,"lon":5.36649,"is_reserved":false,"is_disabled":false,"rental_uris":{"android":"levelo://app?vid=8e11187a-10f5-4087-8dde-6543d760b2bb","ios":"levelo://app?vid=8e11187a-10f5-4087-8dde-6543d760b2bb"},"vehicle_type_id":"4","last_reported":1758039135,"current_range_meters":12000,"station_id":"ce4bhap2rcd13ifvqek0","pricing_plan_id":"cebpf4jnsgd1na2vs0mg"},{"bike_id":"9156b3e9-6a8e-4859-87d7-eac70607edc4","system_id":"levelo_inurba_marseille","lat":43.296229,"lon":5.376965,"is_reserved":false,"is_disabled":false,"rental_uris":{"android":"levelo://app?vid=9156b3e9-6a8e-4859-87d7-eac70607edc4","ios":"levelo://app?vid=9156b3e9-6a8e-4859-87d7-eac70607edc4"},"vehicle_type_id":"4","last_reported":1758039135,"current_range_meters":12000,"station_id":"ce4bgi92rcd13ifvqb90","pricing_plan_id":"cebpf4jnsgd1na2vs0mg"},{"bike_id":"ad06da06-d076-464d-80b8-a64ae1666017","system_id":"levelo_inurba_marseille","lat":43.2953,"lon":5.38539,"is_reserved":false,"is_disabled":false,"rental_uris":{"android":"levelo://app?vid=ad06da06-d076-464d-80b8-a64ae1666017","ios":"levelo://app?vid=ad06da06-d076-464d-80b8-a64ae1666017"},"vehicle_type_id":"4","last_reported":1758039135,"current_range_meters":12000,"station_id":"ce4bgih2rcd13ifvqba0","pricing_plan_id":"cebpf4jnsgd1na2vs0mg"},{"bike_id":"fefec76e-2614-441f-8c6e-9842b79e2a58","system_id":"levelo_inurba_marseille","lat":43.302564,"lon":5.400595,"is_reserved":false,"is_disabled":false,"rental_uris":{"android":"levelo://app?vid=fefec76e-2614-441f-8c6e-9842b79e2a58","ios":"levelo://app?vid=fefec76e-2614-441f-8c6e-9842b79e2a58"},"vehicle_type_id":"4","last_reported":1758039135,"current_range_meters":11600,"station_id":"ce4bgvh2rcd13ifvqcs0","pricing_plan_id":"cebpf4jnsgd1na2vs0mg"},{"bike_id":"4ce62854-53ad-49f7-904f-770313945766","system_id":"levelo_inurba_marseille","lat":43.28418,"lon":5.34982,"is_reserved":false,"is_disabled":false,"rental_uris":{"android":"levelo://app?vid=4ce62854-53ad-49f7-904f-770313945766","ios":"levelo://app?vid=4ce62854-53ad-49f7-904f-770313945766"},"vehicle_type_id":"4","last_reported":1758039135,"current_range_meters":12000,"station_id":"ce4bhbh2rcd13ifvqepg","pricing_plan_id":"cebpf4jnsgd1na2vs0mg"},{"bike_id":"aa0faef8-bb69-468b-8b8b-fe8f48c00711","system_id":"levelo_inurba_marseille","lat":43.29249,"lon":5.40915,"is_reserved":false,"is_disabled":true,"rental_uris":{"android":"levelo://app?vid=aa0faef8-bb69-468b-8b8b-fe8f48c00711","ios":"levelo://app?vid=aa0faef8-bb69-468b-8b8b-fe8f48c00711"},"vehicle_type_id":"4","last_reported":1758039135,"current_range_meters":12400,"station_id":"ce4bh192rcd13ifvqdc0","pricing_plan_id":"cebpf4jnsgd1na2vs0mg"},{"bike_id":"541e3733-8661-4b26-8b6c-e3aced74f2ec","system_id":"levelo_inurba_marseille","lat":43.309574,"lon":5.376423,"is_reserved":false,"is_disabled":false,"rental_uris":{"android":"levelo://app?vid=541e3733-8661-4b26-8b6c-e3aced74f2ec","ios":"levelo://app?vid=541e3733-8661-4b26-8b6c-e3aced74f2ec"},"vehicle_type_id":"4","last_reported":1758039135,"current_range_meters":12400,"station_id":"","pricing_plan_id":"cebpf4jnsgd1na2vs0mg"},{"bike_id":"eea97dee-de5f-4c59-875d-b020c9caa847","system_id":"levelo_inurba_marseille","lat":43.25584,"lon":5.38223,"is_reserved":false,"is_disabled":false,"rental_uris":{"android":"levelo://app?vid=eea97dee-de5f-4c59-875d-b020c9caa847","ios":"levelo://app?vid=eea97dee-de5f-4c59-875d-b020c9caa847"},"vehicle_type_id":"4","last_reported":1758039135,"current_range_meters":12000,"station_id":"ce4bhih2rcd13ifvqfs0","pricing_plan_id":"cebpf4jnsgd1na2vs0mg"},{"bike_id":"a05fdb49-e038-4a84-8ea1-52f3eaaf07b1","system_id":"levelo_inurba_marseille","lat":43.22557,"lon":5.41649,"is_reserved":false,"is_disabled":false,"rental_uris":{"android":"levelo://app?vid=a05fdb49-e038-4a84-8ea1-52f3eaaf07b1","ios":"levelo://app?vid=a05fdb49-e038-4a84-8ea1-52f3eaaf07b1"},"vehicle_type_id":"4","last_reported":1758039135,"current_range_meters":12400,"station_id":"st_d2o4gvlbi1j2169b742g","pricing_plan_id":"cebpf4jnsgd1na2vs0mg"},{"bike_id":"1b8daad9-3829-40f8-98e4-16772fa3fc49","system_id":"levelo_inurba_marseille","lat":43.29534,"lon":5.38542,"is_reserved":false,"is_disabled":false,"rental_uris":{"android":"levelo://app?vid=1b8daad9-3829-40f8-98e4-16772fa3fc49","ios":"levelo://app?vid=1b8daad9-3829-40f8-98e4-16772fa3fc49"},"vehicle_type_id":"4","last_reported":1758039135,"current_range_meters":12400,"station_id":"ce4bgih2rcd13ifvqba0","pricing_plan_id":"cebpf4jnsgd1na2vs0mg"},{"bike_id":"7fdafd19-948c-4457-a955-5e9efacc941f","system_id":"levelo_inurba_marseille","lat":43.23195,"lon":5.35551,"is_reserved":false,"is_disabled":false,"rental_uris":{"android":"levelo://app?vid=7fdafd19-948c-4457-a955-5e9efacc941f","ios":"levelo://app?vid=7fdafd19-948c-4457-a955-5e9efacc941f"},"vehicle_type_id":"4","last_reported":1758039135,"current_range_meters":12400,"station_id":"ce4bhu92rcd13ifvqi70","pricing_plan_id":"cebpf4jnsgd1na2vs0mg"},{"bike_id":"bd83d831-f916-4ba4-a5ee-7991841c2dfa","system_id":"levelo_inurba_marseille","lat":43.29531,"lon":5.38534,"is_reserved":false,"is_disabled":false,"rental_uris":{"android":"levelo://app?vid=bd83d831-f916-4ba4-a5ee-7991841c2dfa","ios":"levelo://app?vid=bd83d831-f916-4ba4-a5ee-7991841c2dfa"},"vehicle_type_id":"4","last_reported":1758039135,"current_range_meters":12400,"station_id":"ce4bgih2rcd13ifvqba0","pricing_plan_id":"cebpf4jnsgd1na2vs0mg"},{"bike_id":"218a3b01-2802-4a90-9359-7a3da360539c","system_id":"levelo_inurba_marseille","lat":43.28575,"lon":5.39498,"is_reserved":false,"is_disabled":false,"rental_uris":{"android":"levelo://app?vid=218a3b01-2802-4a90-9359-7a3da360539c","ios":"levelo://app?vid=218a3b01-2802-4a90-9359-7a3da360539c"},"vehicle_type_id":"4","last_reported":1758039135,"current_range_meters":12400,"station_id":"ce4bh292rcd13ifvqdg0","pricing_plan_id":"cebpf4jnsgd1na2vs0mg"},{"bike_id":"2ba6d751-735d-4f3f-b471-7e3f5bc5e1b1","system_id":"levelo_inurba_marseille","lat":43.32118,"lon":5.36772,"is_reserved":false,"is_disabled":false,"rental_uris":{"android":"levelo://app?vid=2ba6d751-735d-4f3f-b471-7e3f5bc5e1b1","ios":"levelo://app?vid=2ba6d751-735d-4f3f-b471-7e3f5bc5e1b1"},"vehicle_type_id":"4","last_reported":1758039135,"current_range_meters":12400,"station_id":"ce4bhrh2rcd13ifvqhug","pricing_plan_id":"cebpf4jnsgd1na2vs0mg"},{"bike_id":"0efaad73-3df7-4df2-8593-0496e2fe0aef","system_id":"levelo_inurba_marseille","lat":43.23181,"lon":5.39994,"is_reserved":false,"is_disabled":false,"rental_uris":{"android":"levelo://app?vid=0efaad73-3df7-4df2-8593-0496e2fe0aef","ios":"levelo://app?vid=0efaad73-3df7-4df2-8593-0496e2fe0aef"},"vehicle_type_id":"4","last_reported":1758039135,"current_range_meters":12400,"station_id":"ce4bhn12rcd13ifvqgqg","pricing_plan_id":"cebpf4jnsgd1na2vs0mg"},{"bike_id":"698ad52a-c8e5-411e-80bc-6adaea5c99c2","system_id":"levelo_inurba_marseille","lat":43.28153,"lon":5.42641,"is_reserved":false,"is_disabled":false,"rental_uris":{"android":"levelo://app?vid=698ad52a-c8e5-411e-80bc-6adaea5c99c2","ios":"levelo://app?vid=698ad52a-c8e5-411e-80bc-6adaea5c99c2"},"vehicle_type_id":"4","last_reported":1758039135,"current_range_meters":12400,"station_id":"ce4bhnh2rcd13ifvqgug","pricing_plan_id":"cebpf4jnsgd1na2vs0mg"},{"bike_id":"7401f904-c7a5-4420-9a38-b32c76084c39","system_id":"levelo_inurba_marseille","lat":43.28301,"lon":5.35057,"is_reserved":false,"is_disabled":false,"rental_uris":{"android":"levelo://app?vid=7401f904-c7a5-4420-9a38-b32c76084c39","ios":"levelo://app?vid=7401f904-c7a5-4420-9a38-b32c76084c39"},"vehicle_type_id":"4","last_reported":1758039135,"current_range_meters":12800,"station_id":"ce4bhbp2rcd13ifvqerg","pricing_plan_id":"cebpf4jnsgd1na2vs0mg"},{"bike_id":"8dec0697-3f66-4796-a0e2-a9f854de4bbb","system_id":"levelo_inurba_marseille","lat":43.2843,"lon":5.34991,"is_reserved":false,"is_disabled":false,"rental_uris":{"android":"levelo://app?vid=8dec0697-3f66-4796-a0e2-a9f854de4bbb","ios":"levelo://app?vid=8dec0697-3f66-4796-a0e2-a9f854de4bbb"},"vehicle_type_id":"4","last_reported":1758039135,"current_range_meters":12800,"station_id":"ce4bhbh2rcd13ifvqepg","pricing_plan_id":"cebpf4jnsgd1na2vs0mg"},{"bike_id":"3b26aa0d-3679-4b4c-9b55-1096f6d08a9d","system_id":"levelo_inurba_marseille","lat":43.31288,"lon":5.39392,"is_reserved":false,"is_disabled":false,"rental_uris":{"android":"levelo://app?vid=3b26aa0d-3679-4b4c-9b55-1096f6d08a9d","ios":"levelo://app?vid=3b26aa0d-3679-4b4c-9b55-1096f6d08a9d"},"vehicle_type_id":"4","last_reported":1758039135,"current_range_meters":12800,"station_id":"","pricing_plan_id":"cebpf4jnsgd1na2vs0mg"},{"bike_id":"e8522973-fb3c-4941-ac36-495c538fc980","system_id":"levelo_inurba_marseille","lat":43.31546,"lon":5.38038,"is_reserved":false,"is_disabled":false,"rental_uris":{"android":"levelo://app?vid=e8522973-fb3c-4941-ac36-495c538fc980","ios":"levelo://app?vid=e8522973-fb3c-4941-ac36-495c538fc980"},"vehicle_type_id":"4","last_reported":1758039135,"current_range_meters":12800,"station_id":"ce4bhsp2rcd13ifvqi50","pricing_plan_id":"cebpf4jnsgd1na2vs0mg"},{"bike_id":"23b98097-d75c-4df1-b2d1-fd35c6ce78a8","system_id":"levelo_inurba_marseille","lat":43.24629,"lon":5.43144,"is_reserved":false,"is_disabled":false,"rental_uris":{"android":"levelo://app?vid=23b98097-d75c-4df1-b2d1-fd35c6ce78a8","ios":"levelo://app?vid=23b98097-d75c-4df1-b2d1-fd35c6ce78a8"},"vehicle_type_id":"4","last_reported":1758039135,"current_range_meters":13600,"station_id":"st_d2m6c4gdas8pm72e190g","pricing_plan_id":"cebpf4jnsgd1na2vs0mg"},{"bike_id":"ef38e005-2c4e-45b2-bfdf-d2a1de94315a","system_id":"levelo_inurba_marseille","lat":43.295203,"lon":5.39041,"is_reserved":false,"is_disabled":false,"rental_uris":{"android":"levelo://app?vid=ef38e005-2c4e-45b2-bfdf-d2a1de94315a","ios":"levelo://app?vid=ef38e005-2c4e-45b2-bfdf-d2a1de94315a"},"vehicle_type_id":"4","last_reported":1758039135,"current_range_meters":13600,"station_id":"ce4bh3p2rcd13ifvqdp0","pricing_plan_id":"cebpf4jnsgd1na2vs0mg"},{"bike_id":"655101ff-ae97-4b94-8b5b-3354b72ad35e","system_id":"levelo_inurba_marseille","lat":43.30597,"lon":5.39361,"is_reserved":false,"is_disabled":false,"rental_uris":{"android":"levelo://app?vid=655101ff-ae97-4b94-8b5b-3354b72ad35e","ios":"levelo://app?vid=655101ff-ae97-4b94-8b5b-3354b72ad35e"},"vehicle_type_id":"4","last_reported":1758039135,"current_range_meters":13600,"station_id":"ce4bh0p2rcd13ifvqd80","pricing_plan_id":"cebpf4jnsgd1na2vs0mg"},{"bike_id":"fd8829a2-a5da-43ba-997e-1a4611c2c6fa","system_id":"levelo_inurba_marseille","lat":43.28571,"lon":5.3948,"is_reserved":false,"is_disabled":false,"rental_uris":{"android":"levelo://app?vid=fd8829a2-a5da-43ba-997e-1a4611c2c6fa","ios":"levelo://app?vid=fd8829a2-a5da-43ba-997e-1a4611c2c6fa"},"vehicle_type_id":"4","last_reported":1758039135,"current_range_meters":12800,"station_id":"ce4bh292rcd13ifvqdg0","pricing_plan_id":"cebpf4jnsgd1na2vs0mg"},{"bike_id":"a233fd34-6838-42a2-943f-f1f026b5e317","system_id":"levelo_inurba_marseille","lat":43.2843,"lon":5.34969,"is_reserved":false,"is_disabled":false,"rental_uris":{"android":"levelo://app?vid=a233fd34-6838-42a2-943f-f1f026b5e317","ios":"levelo://app?vid=a233fd34-6838-42a2-943f-f1f026b5e317"},"vehicle_type_id":"4","last_reported":1758039135,"current_range_meters":13600,"station_id":"ce4bhbh2rcd13ifvqepg","pricing_plan_id":"cebpf4jnsgd1na2vs0mg"},{"bike_id":"0b530ca0-5abe-456a-80f2-061626fcc9b1","system_id":"levelo_inurba_marseille","lat":43.29974,"lon":5.38217,"is_reserved":false,"is_disabled":false,"rental_uris":{"android":"levelo://app?vid=0b530ca0-5abe-456a-80f2-061626fcc9b1","ios":"levelo://app?vid=0b530ca0-5abe-456a-80f2-061626fcc9b1"},"vehicle_type_id":"4","last_reported":1758039135,"current_range_meters":13600,"station_id":"","pricing_plan_id":"cebpf4jnsgd1na2vs0mg"},{"bike_id":"eadf657e-8e3a-407f-a029-c25f4915a463","system_id":"levelo_inurba_marseille","lat":43.29875,"lon":5.39734,"is_reserved":false,"is_disabled":false,"rental_uris":{"android":"levelo://app?vid=eadf657e-8e3a-407f-a029-c25f4915a463","ios":"levelo://app?vid=eadf657e-8e3a-407f-a029-c25f4915a463"},"vehicle_type_id":"4","last_reported":1758039135,"current_range_meters":13600,"station_id":"ce4bh0h2rcd13ifvqd50","pricing_plan_id":"cebpf4jnsgd1na2vs0mg"},{"bike_id":"0ede21be-37d9-4495-b672-80274a6292be","system_id":"levelo_inurba_marseille","lat":43.35054,"lon":5.34063,"is_reserved":false,"is_disabled":false,"rental_uris":{"android":"levelo://app?vid=0ede21be-37d9-4495-b672-80274a6292be","ios":"levelo://app?vid=0ede21be-37d9-4495-b672-80274a6292be"},"vehicle_type_id":"4","last_reported":1758039135,"current_range_meters":13600,"station_id":"","pricing_plan_id":"cebpf4jnsgd1na2vs0mg"},{"bike_id":"801d9ba4-473a-4c94-8260-1f140c93204e","system_id":"levelo_inurba_marseille","lat":43.269394,"lon":5.402381,"is_reserved":false,"is_disabled":false,"rental_uris":{"android":"levelo://app?vid=801d9ba4-473a-4c94-8260-1f140c93204e","ios":"levelo://app?vid=801d9ba4-473a-4c94-8260-1f140c93204e"},"vehicle_type_id":"4","last_reported":1758039135,"current_range_meters":14000,"station_id":"cjm6bp8fraef2m0cb0m0","pricing_plan_id":"cebpf4jnsgd1na2vs0mg"},{"bike_id":"ece07351-e21d-4c48-bd8e-d6076d0d6379","system_id":"levelo_inurba_marseille","lat":43.28483,"lon":5.37463,"is_reserved":false,"is_disabled":false,"rental_uris":{"android":"levelo://app?vid=ece07351-e21d-4c48-bd8e-d6076d0d6379","ios":"levelo://app?vid=ece07351-e21d-4c48-bd8e-d6076d0d6379"},"vehicle_type_id":"4","last_reported":1758039135,"current_range_meters":14000,"station_id":"","pricing_plan_id":"cebpf4jnsgd1na2vs0mg"},{"bike_id":"5437c309-5e59-440a-ae37-79fef49f3501","system_id":"levelo_inurba_marseille","lat":43.29025,"lon":5.38639,"is_reserved":false,"is_disabled":false,"rental_uris":{"android":"levelo://app?vid=5437c309-5e59-440a-ae37-79fef49f3501","ios":"levelo://app?vid=5437c309-5e59-440a-ae37-79fef49f3501"},"vehicle_type_id":"4","last_reported":1758039135,"current_range_meters":14000,"station_id":"ce4bh4p2rcd13ifvqe0g","pricing_plan_id":"cebpf4jnsgd1na2vs0mg"},{"bike_id":"33402864-f5e0-47e4-8687-c925adfc3d24","system_id":"levelo_inurba_marseille","lat":43.24175,"lon":5.36389,"is_reserved":false,"is_disabled":false,"rental_uris":{"android":"levelo://app?vid=33402864-f5e0-47e4-8687-c925adfc3d24","ios":"levelo://app?vid=33402864-f5e0-47e4-8687-c925adfc3d24"},"vehicle_type_id":"4","last_reported":1758039135,"current_range_meters":14000,"station_id":"cpo36qri1sfpv3e86is0","pricing_plan_id":"cebpf4jnsgd1na2vs0mg"},{"bike_id":"62473aca-5d60-4f9b-8d0a-e6ce0ea7fc2f","system_id":"levelo_inurba_marseille","lat":43.30367,"lon":5.36578,"is_reserved":false,"is_disabled":false,"rental_uris":{"android":"levelo://app?vid=62473aca-5d60-4f9b-8d0a-e6ce0ea7fc2f","ios":"levelo://app?vid=62473aca-5d60-4f9b-8d0a-e6ce0ea7fc2f"},"vehicle_type_id":"4","last_reported":1758039135,"current_range_meters":14400,"station_id":"","pricing_plan_id":"cebpf4jnsgd1na2vs0mg"},{"bike_id":"41d8d28b-1f4d-4f8a-aa37-70bb0afd446a","system_id":"levelo_inurba_marseille","lat":43.2815,"lon":5.42636,"is_reserved":false,"is_disabled":false,"rental_uris":{"android":"levelo://app?vid=41d8d28b-1f4d-4f8a-aa37-70bb0afd446a","ios":"levelo://app?vid=41d8d28b-1f4d-4f8a-aa37-70bb0afd446a"},"vehicle_type_id":"4","last_reported":1758039135,"current_range_meters":14400,"station_id":"ce4bhnh2rcd13ifvqgug","pricing_plan_id":"cebpf4jnsgd1na2vs0mg"},{"bike_id":"915e8f70-4995-459d-9365-14f783d162db","system_id":"levelo_inurba_marseille","lat":43.30532,"lon":5.3841,"is_reserved":false,"is_disabled":false,"rental_uris":{"android":"levelo://app?vid=915e8f70-4995-459d-9365-14f783d162db","ios":"levelo://app?vid=915e8f70-4995-459d-9365-14f783d162db"},"vehicle_type_id":"4","last_reported":1758039135,"current_range_meters":14400,"station_id":"ce4bgg92rcd13ifvqb30","pricing_plan_id":"cebpf4jnsgd1na2vs0mg"},{"bike_id":"512e4fcb-122b-4f53-a750-27f7e2c6ef27","system_id":"levelo_inurba_marseille","lat":43.27209,"lon":5.39188,"is_reserved":false,"is_disabled":false,"rental_uris":{"android":"levelo://app?vid=512e4fcb-122b-4f53-a750-27f7e2c6ef27","ios":"levelo://app?vid=512e4fcb-122b-4f53-a750-27f7e2c6ef27"},"vehicle_type_id":"4","last_reported":1758039135,"current_range_meters":14400,"station_id":"ce4bhhp2rcd13ifvqfm0","pricing_plan_id":"cebpf4jnsgd1na2vs0mg"},{"bike_id":"c8144899-9b41-4fd4-84a4-755117cb116d","system_id":"levelo_inurba_marseille","lat":43.284722,"lon":5.384208,"is_reserved":false,"is_disabled":false,"rental_uris":{"android":"levelo://app?vid=c8144899-9b41-4fd4-84a4-755117cb116d","ios":"levelo://app?vid=c8144899-9b41-4fd4-84a4-755117cb116d"},"vehicle_type_id":"4","last_reported":1758039135,"current_range_meters":14400,"station_id":"","pricing_plan_id":"cebpf4jnsgd1na2vs0mg"},{"bike_id":"ce030dd5-c3ce-4f2d-b52c-34c8021a5738","system_id":"levelo_inurba_marseille","lat":43.26554,"lon":5.37282,"is_reserved":false,"is_disabled":false,"rental_uris":{"android":"levelo://app?vid=ce030dd5-c3ce-4f2d-b52c-34c8021a5738","ios":"levelo://app?vid=ce030dd5-c3ce-4f2d-b52c-34c8021a5738"},"vehicle_type_id":"4","last_reported":1758039135,"current_range_meters":14800,"station_id":"ce4bhg12rcd13ifvqf70","pricing_plan_id":"cebpf4jnsgd1na2vs0mg"},{"bike_id":"11555ead-152a-4e2f-ac3e-7aaa852c50e5","system_id":"levelo_inurba_marseille","lat":43.225326,"lon":5.348358,"is_reserved":false,"is_disabled":false,"rental_uris":{"android":"levelo://app?vid=11555ead-152a-4e2f-ac3e-7aaa852c50e5","ios":"levelo://app?vid=11555ead-152a-4e2f-ac3e-7aaa852c50e5"},"vehicle_type_id":"4","last_reported":1758039135,"current_range_meters":14800,"station_id":"","pricing_plan_id":"cebpf4jnsgd1na2vs0mg"},{"bike_id":"55ff4e16-8c51-4054-bf37-b238dd772ea4","system_id":"levelo_inurba_marseille","lat":43.28419,"lon":5.34982,"is_reserved":false,"is_disabled":false,"rental_uris":{"android":"levelo://app?vid=55ff4e16-8c51-4054-bf37-b238dd772ea4","ios":"levelo://app?vid=55ff4e16-8c51-4054-bf37-b238dd772ea4"},"vehicle_type_id":"4","last_reported":1758039135,"current_range_meters":14400,"station_id":"ce4bhbh2rcd13ifvqepg","pricing_plan_id":"cebpf4jnsgd1na2vs0mg"},{"bike_id":"01a78a1b-63ba-4ce9-914f-650ee585e0bd","system_id":"levelo_inurba_marseille","lat":43.2175,"lon":5.346,"is_reserved":false,"is_disabled":false,"rental_uris":{"android":"levelo://app?vid=01a78a1b-63ba-4ce9-914f-650ee585e0bd","ios":"levelo://app?vid=01a78a1b-63ba-4ce9-914f-650ee585e0bd"},"vehicle_type_id":"4","last_reported":1758039135,"current_range_meters":14800,"station_id":"","pricing_plan_id":"cebpf4jnsgd1na2vs0mg"},{"bike_id":"23e1572e-7ccb-4eea-8020-599035749c9e","system_id":"levelo_inurba_marseille","lat":43.23838,"lon":5.36546,"is_reserved":false,"is_disabled":false,"rental_uris":{"android":"levelo://app?vid=23e1572e-7ccb-4eea-8020-599035749c9e","ios":"levelo://app?vid=23e1572e-7ccb-4eea-8020-599035749c9e"},"vehicle_type_id":"4","last_reported":1758039135,"current_range_meters":14800,"station_id":"","pricing_plan_id":"cebpf4jnsgd1na2vs0mg"},{"bike_id":"f6d894ab-5705-4a8b-aead-1d4a0710b4fa","system_id":"levelo_inurba_marseille","lat":43.241798,"lon":5.397391,"is_reserved":false,"is_disabled":false,"rental_uris":{"android":"levelo://app?vid=f6d894ab-5705-4a8b-aead-1d4a0710b4fa","ios":"levelo://app?vid=f6d894ab-5705-4a8b-aead-1d4a0710b4fa"},"vehicle_type_id":"4","last_reported":1758039135,"current_range_meters":14800,"station_id":"ce4bhn12rcd13ifvqgpg","pricing_plan_id":"cebpf4jnsgd1na2vs0mg"},{"bike_id":"453a2908-3680-455f-bda7-00a342891b64","system_id":"levelo_inurba_marseille","lat":43.22557,"lon":5.41633,"is_reserved":false,"is_disabled":false,"rental_uris":{"android":"levelo://app?vid=453a2908-3680-455f-bda7-00a342891b64","ios":"levelo://app?vid=453a2908-3680-455f-bda7-00a342891b64"},"vehicle_type_id":"4","last_reported":1758039135,"current_range_meters":14800,"station_id":"st_d2o4gvlbi1j2169b742g","pricing_plan_id":"cebpf4jnsgd1na2vs0mg"},{"bike_id":"40495e59-b743-486e-987c-cb0c3ab2f191","system_id":"levelo_inurba_marseille","lat":43.33215,"lon":5.41396,"is_reserved":false,"is_disabled":false,"rental_uris":{"android":"levelo://app?vid=40495e59-b743-486e-987c-cb0c3ab2f191","ios":"levelo://app?vid=40495e59-b743-486e-987c-cb0c3ab2f191"},"vehicle_type_id":"4","last_reported":1758039135,"current_range_meters":14800,"station_id":"","pricing_plan_id":"cebpf4jnsgd1na2vs0mg"},{"bike_id":"1c10de35-28fc-4cf7-89c5-e91287543eae","system_id":"levelo_inurba_marseille","lat":43.29436,"lon":5.39766,"is_reserved":false,"is_disabled":false,"rental_uris":{"android":"levelo://app?vid=1c10de35-28fc-4cf7-89c5-e91287543eae","ios":"levelo://app?vid=1c10de35-28fc-4cf7-89c5-e91287543eae"},"vehicle_type_id":"4","last_reported":1758039135,"current_range_meters":14800,"station_id":"ce4bh3h2rcd13ifvqdo0","pricing_plan_id":"cebpf4jnsgd1na2vs0mg"},{"bike_id":"94e11dad-48ab-4f43-9b03-77b417d504b8","system_id":"levelo_inurba_marseille","lat":43.269567,"lon":5.386459,"is_reserved":false,"is_disabled":false,"rental_uris":{"android":"levelo://app?vid=94e11dad-48ab-4f43-9b03-77b417d504b8","ios":"levelo://app?vid=94e11dad-48ab-4f43-9b03-77b417d504b8"},"vehicle_type_id":"4","last_reported":1758039135,"current_range_meters":14800,"station_id":"ce4bhh92rcd13ifvqfh0","pricing_plan_id":"cebpf4jnsgd1na2vs0mg"},{"bike_id":"0bfafb3a-9a2f-4d0e-821d-d2539816e531","system_id":"levelo_inurba_marseille","lat":43.28416,"lon":5.34989,"is_reserved":false,"is_disabled":false,"rental_uris":{"android":"levelo://app?vid=0bfafb3a-9a2f-4d0e-821d-d2539816e531","ios":"levelo://app?vid=0bfafb3a-9a2f-4d0e-821d-d2539816e531"},"vehicle_type_id":"4","last_reported":1758039135,"current_range_meters":14800,"station_id":"ce4bhbh2rcd13ifvqepg","pricing_plan_id":"cebpf4jnsgd1na2vs0mg"},{"bike_id":"5c0b2341-c41a-4f62-9e5f-92e6a593fad9","system_id":"levelo_inurba_marseille","lat":43.33761,"lon":5.3746,"is_reserved":false,"is_disabled":false,"rental_uris":{"android":"levelo://app?vid=5c0b2341-c41a-4f62-9e5f-92e6a593fad9","ios":"levelo://app?vid=5c0b2341-c41a-4f62-9e5f-92e6a593fad9"},"vehicle_type_id":"4","last_reported":1758039135,"current_range_meters":15200,"station_id":"","pricing_plan_id":"cebpf4jnsgd1na2vs0mg"},{"bike_id":"6910c13b-9cef-4cfe-9a9f-8cb0c249c60b","system_id":"levelo_inurba_marseille","lat":43.29872,"lon":5.39737,"is_reserved":false,"is_disabled":false,"rental_uris":{"android":"levelo://app?vid=6910c13b-9cef-4cfe-9a9f-8cb0c249c60b","ios":"levelo://app?vid=6910c13b-9cef-4cfe-9a9f-8cb0c249c60b"},"vehicle_type_id":"4","last_reported":1758039135,"current_range_meters":15200,"station_id":"ce4bh0h2rcd13ifvqd50","pricing_plan_id":"cebpf4jnsgd1na2vs0mg"},{"bike_id":"88a8a850-d513-47ec-8870-e7210ef51b52","system_id":"levelo_inurba_marseille","lat":43.29929,"lon":5.38523,"is_reserved":false,"is_disabled":false,"rental_uris":{"android":"levelo://app?vid=88a8a850-d513-47ec-8870-e7210ef51b52","ios":"levelo://app?vid=88a8a850-d513-47ec-8870-e7210ef51b52"},"vehicle_type_id":"4","last_reported":1758039135,"current_range_meters":15200,"station_id":"","pricing_plan_id":"cebpf4jnsgd1na2vs0mg"},{"bike_id":"14debadb-7e1e-4275-a3de-829f1bd2403f","system_id":"levelo_inurba_marseille","lat":43.31077,"lon":5.38346,"is_reserved":false,"is_disabled":true,"rental_uris":{"android":"levelo://app?vid=14debadb-7e1e-4275-a3de-829f1bd2403f","ios":"levelo://app?vid=14debadb-7e1e-4275-a3de-829f1bd2403f"},"vehicle_type_id":"4","last_reported":1758039135,"current_range_meters":15200,"station_id":"ce4bgv92rcd13ifvqcr0","pricing_plan_id":"cebpf4jnsgd1na2vs0mg"},{"bike_id":"82e0bfcc-bba2-4c2c-9484-d3ca3b13a18b","system_id":"levelo_inurba_marseille","lat":43.294669,"lon":5.37535,"is_reserved":false,"is_disabled":false,"rental_uris":{"android":"levelo://app?vid=82e0bfcc-bba2-4c2c-9484-d3ca3b13a18b","ios":"levelo://app?vid=82e0bfcc-bba2-4c2c-9484-d3ca3b13a18b"},"vehicle_type_id":"4","last_reported":1758039135,"current_range_meters":15200,"station_id":"","pricing_plan_id":"cebpf4jnsgd1na2vs0mg"},{"bike_id":"2ab9e1ab-484b-442d-9844-3db2bdd9f6ed","system_id":"levelo_inurba_marseille","lat":43.29786,"lon":5.39344,"is_reserved":false,"is_disabled":false,"rental_uris":{"android":"levelo://app?vid=2ab9e1ab-484b-442d-9844-3db2bdd9f6ed","ios":"levelo://app?vid=2ab9e1ab-484b-442d-9844-3db2bdd9f6ed"},"vehicle_type_id":"4","last_reported":1758039135,"current_range_meters":15200,"station_id":"chh1huq6cuj3fo74tm60","pricing_plan_id":"cebpf4jnsgd1na2vs0mg"},{"bike_id":"fd3b4146-0073-4a79-82a9-bfaee63ff612","system_id":"levelo_inurba_marseille","lat":43.29412,"lon":5.386,"is_reserved":false,"is_disabled":false,"rental_uris":{"android":"levelo://app?vid=fd3b4146-0073-4a79-82a9-bfaee63ff612","ios":"levelo://app?vid=fd3b4146-0073-4a79-82a9-bfaee63ff612"},"vehicle_type_id":"4","last_reported":1758039135,"current_range_meters":15200,"station_id":"","pricing_plan_id":"cebpf4jnsgd1na2vs0mg"},{"bike_id":"a15a9622-b85a-4ea9-93f5-1f2a90a626c6","system_id":"levelo_inurba_marseille","lat":43.308137,"lon":5.435359,"is_reserved":false,"is_disabled":false,"rental_uris":{"android":"levelo://app?vid=a15a9622-b85a-4ea9-93f5-1f2a90a626c6","ios":"levelo://app?vid=a15a9622-b85a-4ea9-93f5-1f2a90a626c6"},"vehicle_type_id":"4","last_reported":1758039135,"current_range_meters":15200,"station_id":"ce4bhph2rcd13ifvqheg","pricing_plan_id":"cebpf4jnsgd1na2vs0mg"},{"bike_id":"76e349fa-bc9b-47a4-9c39-43f8ccd1efae","system_id":"levelo_inurba_marseille","lat":43.280387,"lon":5.369427,"is_reserved":false,"is_disabled":true,"rental_uris":{"android":"levelo://app?vid=76e349fa-bc9b-47a4-9c39-43f8ccd1efae","ios":"levelo://app?vid=76e349fa-bc9b-47a4-9c39-43f8ccd1efae"},"vehicle_type_id":"4","last_reported":1758039135,"current_range_meters":15200,"station_id":"ce4bha12rcd13ifvqef0","pricing_plan_id":"cebpf4jnsgd1na2vs0mg"},{"bike_id":"003515e8-8117-44bb-979d-5f47e8d50fda","system_id":"levelo_inurba_marseille","lat":43.30632,"lon":5.37575,"is_reserved":false,"is_disabled":false,"rental_uris":{"android":"levelo://app?vid=003515e8-8117-44bb-979d-5f47e8d50fda","ios":"levelo://app?vid=003515e8-8117-44bb-979d-5f47e8d50fda"},"vehicle_type_id":"4","last_reported":1758039135,"current_range_meters":16000,"station_id":"","pricing_plan_id":"cebpf4jnsgd1na2vs0mg"},{"bike_id":"3727563d-5540-4afd-ac71-a0f67fb1be42","system_id":"levelo_inurba_marseille","lat":43.31701,"lon":5.37787,"is_reserved":false,"is_disabled":false,"rental_uris":{"android":"levelo://app?vid=3727563d-5540-4afd-ac71-a0f67fb1be42","ios":"levelo://app?vid=3727563d-5540-4afd-ac71-a0f67fb1be42"},"vehicle_type_id":"4","last_reported":1758039135,"current_range_meters":15200,"station_id":"ce4bgth2rcd13ifvqch0","pricing_plan_id":"cebpf4jnsgd1na2vs0mg"},{"bike_id":"e8a976ad-277e-4bb7-a5c5-09a1715d41ef","system_id":"levelo_inurba_marseille","lat":43.25498,"lon":5.3765,"is_reserved":false,"is_disabled":false,"rental_uris":{"android":"levelo://app?vid=e8a976ad-277e-4bb7-a5c5-09a1715d41ef","ios":"levelo://app?vid=e8a976ad-277e-4bb7-a5c5-09a1715d41ef"},"vehicle_type_id":"4","last_reported":1758039135,"current_range_meters":16000,"station_id":"ce4bhh12rcd13ifvqff0","pricing_plan_id":"cebpf4jnsgd1na2vs0mg"},{"bike_id":"96644ae3-2807-4f95-a981-fef4ac2b0e69","system_id":"levelo_inurba_marseille","lat":43.225329,"lon":5.34835,"is_reserved":false,"is_disabled":false,"rental_uris":{"android":"levelo://app?vid=96644ae3-2807-4f95-a981-fef4ac2b0e69","ios":"levelo://app?vid=96644ae3-2807-4f95-a981-fef4ac2b0e69"},"vehicle_type_id":"4","last_reported":1758039135,"current_range_meters":16000,"station_id":"","pricing_plan_id":"cebpf4jnsgd1na2vs0mg"},{"bike_id":"acac0d14-df9c-412c-8cd3-d0604a866f6c","system_id":"levelo_inurba_marseille","lat":43.29206,"lon":5.35803,"is_reserved":false,"is_disabled":false,"rental_uris":{"android":"levelo://app?vid=acac0d14-df9c-412c-8cd3-d0604a866f6c","ios":"levelo://app?vid=acac0d14-df9c-412c-8cd3-d0604a866f6c"},"vehicle_type_id":"4","last_reported":1758039135,"current_range_meters":16000,"station_id":"ce4bhb12rcd13ifvqel0","pricing_plan_id":"cebpf4jnsgd1na2vs0mg"},{"bike_id":"a1d4cacc-a1f5-4ce7-885c-b6e870e5ed89","system_id":"levelo_inurba_marseille","lat":43.29173,"lon":5.37166,"is_reserved":false,"is_disabled":false,"rental_uris":{"android":"levelo://app?vid=a1d4cacc-a1f5-4ce7-885c-b6e870e5ed89","ios":"levelo://app?vid=a1d4cacc-a1f5-4ce7-885c-b6e870e5ed89"},"vehicle_type_id":"4","last_reported":1758039135,"current_range_meters":16000,"station_id":"ce4bha92rcd13ifvqeh0","pricing_plan_id":"cebpf4jnsgd1na2vs0mg"},{"bike_id":"e270e752-18ef-4f02-975b-b2c03fd73000","system_id":"levelo_inurba_marseille","lat":43.27921,"lon":5.39577,"is_reserved":false,"is_disabled":false,"rental_uris":{"android":"levelo://app?vid=e270e752-18ef-4f02-975b-b2c03fd73000","ios":"levelo://app?vid=e270e752-18ef-4f02-975b-b2c03fd73000"},"vehicle_type_id":"4","last_reported":1758039135,"current_range_meters":16000,"station_id":"ce4bhf92rcd13ifvqf40","pricing_plan_id":"cebpf4jnsgd1na2vs0mg"},{"bike_id":"ca5a1340-d41e-49f3-95f8-599734e0a36c","system_id":"levelo_inurba_marseille","lat":43.225336,"lon":5.348339,"is_reserved":false,"is_disabled":false,"rental_uris":{"android":"levelo://app?vid=ca5a1340-d41e-49f3-95f8-599734e0a36c","ios":"levelo://app?vid=ca5a1340-d41e-49f3-95f8-599734e0a36c"},"vehicle_type_id":"4","last_reported":1758039135,"current_range_meters":16400,"station_id":"","pricing_plan_id":"cebpf4jnsgd1na2vs0mg"},{"bike_id":"d6badba3-c2a6-4f1c-a899-aa9bab46f606","system_id":"levelo_inurba_marseille","lat":43.27367,"lon":5.36262,"is_reserved":false,"is_disabled":false,"rental_uris":{"android":"levelo://app?vid=d6badba3-c2a6-4f1c-a899-aa9bab46f606","ios":"levelo://app?vid=d6badba3-c2a6-4f1c-a899-aa9bab46f606"},"vehicle_type_id":"4","last_reported":1758039135,"current_range_meters":16400,"station_id":"ce4bhbh2rcd13ifvqeo0","pricing_plan_id":"cebpf4jnsgd1na2vs0mg"},{"bike_id":"3584c8e9-13a3-4904-91e3-06d644403edd","system_id":"levelo_inurba_marseille","lat":43.31358,"lon":5.36734,"is_reserved":false,"is_disabled":true,"rental_uris":{"android":"levelo://app?vid=3584c8e9-13a3-4904-91e3-06d644403edd","ios":"levelo://app?vid=3584c8e9-13a3-4904-91e3-06d644403edd"},"vehicle_type_id":"4","last_reported":1758039135,"current_range_meters":16400,"station_id":"ce4bgr92rcd13ifvqc6g","pricing_plan_id":"cebpf4jnsgd1na2vs0mg"},{"bike_id":"64b1deee-ef02-45e9-a66a-3e5e20b8d612","system_id":"levelo_inurba_marseille","lat":43.299284,"lon":5.385203,"is_reserved":false,"is_disabled":false,"rental_uris":{"android":"levelo://app?vid=64b1deee-ef02-45e9-a66a-3e5e20b8d612","ios":"levelo://app?vid=64b1deee-ef02-45e9-a66a-3e5e20b8d612"},"vehicle_type_id":"4","last_reported":1758039135,"current_range_meters":16400,"station_id":"ce4bgop2rcd13ifvqc1g","pricing_plan_id":"cebpf4jnsgd1na2vs0mg"},{"bike_id":"fcd56ccc-f0ab-49ef-a538-8c498b5ecd49","system_id":"levelo_inurba_marseille","lat":43.22554,"lon":5.41637,"is_reserved":false,"is_disabled":false,"rental_uris":{"android":"levelo://app?vid=fcd56ccc-f0ab-49ef-a538-8c498b5ecd49","ios":"levelo://app?vid=fcd56ccc-f0ab-49ef-a538-8c498b5ecd49"},"vehicle_type_id":"4","last_reported":1758039135,"current_range_meters":16400,"station_id":"st_d2o4gvlbi1j2169b742g","pricing_plan_id":"cebpf4jnsgd1na2vs0mg"},{"bike_id":"b730872c-944f-439c-915a-fe170090d0c4","system_id":"levelo_inurba_marseille","lat":43.28413,"lon":5.3499,"is_reserved":false,"is_disabled":false,"rental_uris":{"android":"levelo://app?vid=b730872c-944f-439c-915a-fe170090d0c4","ios":"levelo://app?vid=b730872c-944f-439c-915a-fe170090d0c4"},"vehicle_type_id":"4","last_reported":1758039135,"current_range_meters":16400,"station_id":"ce4bhbh2rcd13ifvqepg","pricing_plan_id":"cebpf4jnsgd1na2vs0mg"},{"bike_id":"f4a1a762-933c-483d-93e3-05047c52fc16","system_id":"levelo_inurba_marseille","lat":43.27831,"lon":5.39213,"is_reserved":false,"is_disabled":false,"rental_uris":{"android":"levelo://app?vid=f4a1a762-933c-483d-93e3-05047c52fc16","ios":"levelo://app?vid=f4a1a762-933c-483d-93e3-05047c52fc16"},"vehicle_type_id":"4","last_reported":1758039135,"current_range_meters":16400,"station_id":"ce4bhjp2rcd13ifvqga0","pricing_plan_id":"cebpf4jnsgd1na2vs0mg"},{"bike_id":"a3fe599d-8d54-448b-abdc-dd2f9d8fbde8","system_id":"levelo_inurba_marseille","lat":43.28,"lon":5.4166,"is_reserved":false,"is_disabled":false,"rental_uris":{"android":"levelo://app?vid=a3fe599d-8d54-448b-abdc-dd2f9d8fbde8","ios":"levelo://app?vid=a3fe599d-8d54-448b-abdc-dd2f9d8fbde8"},"vehicle_type_id":"4","last_reported":1758039135,"current_range_meters":16400,"station_id":"ce4bho12rcd13ifvqh1g","pricing_plan_id":"cebpf4jnsgd1na2vs0mg"},{"bike_id":"6b7e857c-6b9d-4352-9992-af4324e1890c","system_id":"levelo_inurba_marseille","lat":43.29033,"lon":5.38137,"is_reserved":false,"is_disabled":true,"rental_uris":{"android":"levelo://app?vid=6b7e857c-6b9d-4352-9992-af4324e1890c","ios":"levelo://app?vid=6b7e857c-6b9d-4352-9992-af4324e1890c"},"vehicle_type_id":"4","last_reported":1758039135,"current_range_meters":16400,"station_id":"ce4bh4p2rcd13ifvqe1g","pricing_plan_id":"cebpf4jnsgd1na2vs0mg"},{"bike_id":"e5890a38-d5e4-4251-a805-75cd7048fad6","system_id":"levelo_inurba_marseille","lat":43.29226,"lon":5.36067,"is_reserved":false,"is_disabled":false,"rental_uris":{"android":"levelo://app?vid=e5890a38-d5e4-4251-a805-75cd7048fad6","ios":"levelo://app?vid=e5890a38-d5e4-4251-a805-75cd7048fad6"},"vehicle_type_id":"4","last_reported":1758039135,"current_range_meters":16400,"station_id":"ce4bhbh2rcd13ifvqeqg","pricing_plan_id":"cebpf4jnsgd1na2vs0mg"},{"bike_id":"d253409a-3bb5-4bbe-aefc-1791dda51640","system_id":"levelo_inurba_marseille","lat":43.28228,"lon":5.39071,"is_reserved":false,"is_disabled":false,"rental_uris":{"android":"levelo://app?vid=d253409a-3bb5-4bbe-aefc-1791dda51640","ios":"levelo://app?vid=d253409a-3bb5-4bbe-aefc-1791dda51640"},"vehicle_type_id":"4","last_reported":1758039135,"current_range_meters":16400,"station_id":"ce4bhn92rcd13ifvqgsg","pricing_plan_id":"cebpf4jnsgd1na2vs0mg"},{"bike_id":"88a4bc06-6261-4921-890d-d133aa4606a8","system_id":"levelo_inurba_marseille","lat":43.337444,"lon":5.374475,"is_reserved":false,"is_disabled":true,"rental_uris":{"android":"levelo://app?vid=88a4bc06-6261-4921-890d-d133aa4606a8","ios":"levelo://app?vid=88a4bc06-6261-4921-890d-d133aa4606a8"},"vehicle_type_id":"4","last_reported":1758039135,"current_range_meters":16800,"station_id":"","pricing_plan_id":"cebpf4jnsgd1na2vs0mg"},{"bike_id":"d9676cec-a3ed-4326-8616-ff9359db1315","system_id":"levelo_inurba_marseille","lat":43.28943,"lon":5.3663,"is_reserved":false,"is_disabled":false,"rental_uris":{"android":"levelo://app?vid=d9676cec-a3ed-4326-8616-ff9359db1315","ios":"levelo://app?vid=d9676cec-a3ed-4326-8616-ff9359db1315"},"vehicle_type_id":"4","last_reported":1758039135,"current_range_meters":16800,"station_id":"ce4bhap2rcd13ifvqek0","pricing_plan_id":"cebpf4jnsgd1na2vs0mg"},{"bike_id":"35191c73-2647-44d4-a274-a3564447326f","system_id":"levelo_inurba_marseille","lat":43.29577,"lon":5.37527,"is_reserved":false,"is_disabled":false,"rental_uris":{"android":"levelo://app?vid=35191c73-2647-44d4-a274-a3564447326f","ios":"levelo://app?vid=35191c73-2647-44d4-a274-a3564447326f"},"vehicle_type_id":"4","last_reported":1758039135,"current_range_meters":16800,"station_id":"ce4bgh92rcd13ifvqb50","pricing_plan_id":"cebpf4jnsgd1na2vs0mg"},{"bike_id":"a4c5d1da-b728-4a0a-a897-920fb50df0e1","system_id":"levelo_inurba_marseille","lat":43.21195,"lon":5.35065,"is_reserved":false,"is_disabled":false,"rental_uris":{"android":"levelo://app?vid=a4c5d1da-b728-4a0a-a897-920fb50df0e1","ios":"levelo://app?vid=a4c5d1da-b728-4a0a-a897-920fb50df0e1"},"vehicle_type_id":"4","last_reported":1758039135,"current_range_meters":16800,"station_id":"st_cvj6sg6p6f1abm77japg","pricing_plan_id":"cebpf4jnsgd1na2vs0mg"},{"bike_id":"eb6cbeef-bc92-4528-a915-7b01f98754fe","system_id":"levelo_inurba_marseille","lat":43.30306,"lon":5.37425,"is_reserved":false,"is_disabled":false,"rental_uris":{"android":"levelo://app?vid=eb6cbeef-bc92-4528-a915-7b01f98754fe","ios":"levelo://app?vid=eb6cbeef-bc92-4528-a915-7b01f98754fe"},"vehicle_type_id":"4","last_reported":1758039135,"current_range_meters":16800,"station_id":"","pricing_plan_id":"cebpf4jnsgd1na2vs0mg"},{"bike_id":"d1788760-0706-4b90-8999-db00a9e42210","system_id":"levelo_inurba_marseille","lat":43.32659,"lon":5.41005,"is_reserved":false,"is_disabled":false,"rental_uris":{"android":"levelo://app?vid=d1788760-0706-4b90-8999-db00a9e42210","ios":"levelo://app?vid=d1788760-0706-4b90-8999-db00a9e42210"},"vehicle_type_id":"4","last_reported":1758039135,"current_range_meters":16800,"station_id":"","pricing_plan_id":"cebpf4jnsgd1na2vs0mg"},{"bike_id":"22f0687d-25d3-4094-9c4a-293a61e189a6","system_id":"levelo_inurba_marseille","lat":43.24067,"lon":5.40695,"is_reserved":false,"is_disabled":false,"rental_uris":{"android":"levelo://app?vid=22f0687d-25d3-4094-9c4a-293a61e189a6","ios":"levelo://app?vid=22f0687d-25d3-4094-9c4a-293a61e189a6"},"vehicle_type_id":"4","last_reported":1758039135,"current_range_meters":16800,"station_id":"","pricing_plan_id":"cebpf4jnsgd1na2vs0mg"},{"bike_id":"896fff93-5ca9-48ec-a949-934d5a5b376b","system_id":"levelo_inurba_marseille","lat":43.2842,"lon":5.34983,"is_reserved":false,"is_disabled":false,"rental_uris":{"android":"levelo://app?vid=896fff93-5ca9-48ec-a949-934d5a5b376b","ios":"levelo://app?vid=896fff93-5ca9-48ec-a949-934d5a5b376b"},"vehicle_type_id":"4","last_reported":1758039135,"current_range_meters":16800,"station_id":"ce4bhbh2rcd13ifvqepg","pricing_plan_id":"cebpf4jnsgd1na2vs0mg"},{"bike_id":"0af56a3d-e0a5-442b-884a-3d8dc4f40247","system_id":"levelo_inurba_marseille","lat":43.296029,"lon":5.381101,"is_reserved":false,"is_disabled":false,"rental_uris":{"android":"levelo://app?vid=0af56a3d-e0a5-442b-884a-3d8dc4f40247","ios":"levelo://app?vid=0af56a3d-e0a5-442b-884a-3d8dc4f40247"},"vehicle_type_id":"4","last_reported":1758039135,"current_range_meters":17200,"station_id":"ce4bgl12rcd13ifvqbo0","pricing_plan_id":"cebpf4jnsgd1na2vs0mg"},{"bike_id":"6f2eb6ab-72c7-4c22-85bb-07107b425ef2","system_id":"levelo_inurba_marseille","lat":43.28424,"lon":5.34978,"is_reserved":false,"is_disabled":false,"rental_uris":{"android":"levelo://app?vid=6f2eb6ab-72c7-4c22-85bb-07107b425ef2","ios":"levelo://app?vid=6f2eb6ab-72c7-4c22-85bb-07107b425ef2"},"vehicle_type_id":"4","last_reported":1758039135,"current_range_meters":17200,"station_id":"ce4bhbh2rcd13ifvqepg","pricing_plan_id":"cebpf4jnsgd1na2vs0mg"},{"bike_id":"4d428ea9-1dcb-4a75-b622-5cb7b20a1dad","system_id":"levelo_inurba_marseille","lat":43.32364,"lon":5.36766,"is_reserved":false,"is_disabled":false,"rental_uris":{"android":"levelo://app?vid=4d428ea9-1dcb-4a75-b622-5cb7b20a1dad","ios":"levelo://app?vid=4d428ea9-1dcb-4a75-b622-5cb7b20a1dad"},"vehicle_type_id":"4","last_reported":1758039135,"current_range_meters":17200,"station_id":"ce4bhsh2rcd13ifvqi2g","pricing_plan_id":"cebpf4jnsgd1na2vs0mg"},{"bike_id":"6310de46-7bc8-454a-b0b5-8d8624eb0ff6","system_id":"levelo_inurba_marseille","lat":43.32288,"lon":5.38269,"is_reserved":false,"is_disabled":false,"rental_uris":{"android":"levelo://app?vid=6310de46-7bc8-454a-b0b5-8d8624eb0ff6","ios":"levelo://app?vid=6310de46-7bc8-454a-b0b5-8d8624eb0ff6"},"vehicle_type_id":"4","last_reported":1758039135,"current_range_meters":17200,"station_id":"ce4bhr12rcd13ifvqhqg","pricing_plan_id":"cebpf4jnsgd1na2vs0mg"},{"bike_id":"2a5e641a-ca90-4f3a-9350-63bb94d9cebf","system_id":"levelo_inurba_marseille","lat":43.25558,"lon":5.39193,"is_reserved":false,"is_disabled":false,"rental_uris":{"android":"levelo://app?vid=2a5e641a-ca90-4f3a-9350-63bb94d9cebf","ios":"levelo://app?vid=2a5e641a-ca90-4f3a-9350-63bb94d9cebf"},"vehicle_type_id":"4","last_reported":1758039135,"current_range_meters":17200,"station_id":"","pricing_plan_id":"cebpf4jnsgd1na2vs0mg"},{"bike_id":"775af279-8ac9-4585-9121-809be9b13265","system_id":"levelo_inurba_marseille","lat":43.33765,"lon":5.37421,"is_reserved":false,"is_disabled":false,"rental_uris":{"android":"levelo://app?vid=775af279-8ac9-4585-9121-809be9b13265","ios":"levelo://app?vid=775af279-8ac9-4585-9121-809be9b13265"},"vehicle_type_id":"4","last_reported":1758039135,"current_range_meters":17200,"station_id":"","pricing_plan_id":"cebpf4jnsgd1na2vs0mg"},{"bike_id":"f78a12c8-3b18-4797-b22a-eb8b67f658df","system_id":"levelo_inurba_marseille","lat":43.31333,"lon":5.39691,"is_reserved":false,"is_disabled":false,"rental_uris":{"android":"levelo://app?vid=f78a12c8-3b18-4797-b22a-eb8b67f658df","ios":"levelo://app?vid=f78a12c8-3b18-4797-b22a-eb8b67f658df"},"vehicle_type_id":"4","last_reported":1758039135,"current_range_meters":17200,"station_id":"ce4bgvp2rcd13ifvqcu0","pricing_plan_id":"cebpf4jnsgd1na2vs0mg"},{"bike_id":"4a899226-7f51-45df-9307-0ce816efbaa5","system_id":"levelo_inurba_marseille","lat":43.26084,"lon":5.39381,"is_reserved":false,"is_disabled":false,"rental_uris":{"android":"levelo://app?vid=4a899226-7f51-45df-9307-0ce816efbaa5","ios":"levelo://app?vid=4a899226-7f51-45df-9307-0ce816efbaa5"},"vehicle_type_id":"4","last_reported":1758039135,"current_range_meters":17200,"station_id":"ce4bhh92rcd13ifvqfj0","pricing_plan_id":"cebpf4jnsgd1na2vs0mg"},{"bike_id":"e18af5cb-0c7e-4bb7-8528-765805109016","system_id":"levelo_inurba_marseille","lat":43.25716,"lon":5.4111,"is_reserved":false,"is_disabled":false,"rental_uris":{"android":"levelo://app?vid=e18af5cb-0c7e-4bb7-8528-765805109016","ios":"levelo://app?vid=e18af5cb-0c7e-4bb7-8528-765805109016"},"vehicle_type_id":"4","last_reported":1758039135,"current_range_meters":17200,"station_id":"ce4bhkp2rcd13ifvqgd0","pricing_plan_id":"cebpf4jnsgd1na2vs0mg"},{"bike_id":"b2b3f118-f930-4549-8d49-265a30e53939","system_id":"levelo_inurba_marseille","lat":43.24192,"lon":5.36384,"is_reserved":false,"is_disabled":false,"rental_uris":{"android":"levelo://app?vid=b2b3f118-f930-4549-8d49-265a30e53939","ios":"levelo://app?vid=b2b3f118-f930-4549-8d49-265a30e53939"},"vehicle_type_id":"4","last_reported":1758039135,"current_range_meters":17200,"station_id":"cpo36qri1sfpv3e86is0","pricing_plan_id":"cebpf4jnsgd1na2vs0mg"},{"bike_id":"b05fe579-1f4d-4b1c-b1fa-c7a473e93c7c","system_id":"levelo_inurba_marseille","lat":43.28667,"lon":5.36353,"is_reserved":false,"is_disabled":false,"rental_uris":{"android":"levelo://app?vid=b05fe579-1f4d-4b1c-b1fa-c7a473e93c7c","ios":"levelo://app?vid=b05fe579-1f4d-4b1c-b1fa-c7a473e93c7c"},"vehicle_type_id":"4","last_reported":1758039135,"current_range_meters":17200,"station_id":"ce4bhah2rcd13ifvqej0","pricing_plan_id":"cebpf4jnsgd1na2vs0mg"},{"bike_id":"2c75f324-0a3d-41d8-a1e8-4f1291da99f7","system_id":"levelo_inurba_marseille","lat":43.316896,"lon":5.377353,"is_reserved":false,"is_disabled":false,"rental_uris":{"android":"levelo://app?vid=2c75f324-0a3d-41d8-a1e8-4f1291da99f7","ios":"levelo://app?vid=2c75f324-0a3d-41d8-a1e8-4f1291da99f7"},"vehicle_type_id":"4","last_reported":1758039135,"current_range_meters":17600,"station_id":"","pricing_plan_id":"cebpf4jnsgd1na2vs0mg"},{"bike_id":"dca1ed62-7edc-4482-a15c-5c9759b2d279","system_id":"levelo_inurba_marseille","lat":43.30299,"lon":5.38635,"is_reserved":false,"is_disabled":false,"rental_uris":{"android":"levelo://app?vid=dca1ed62-7edc-4482-a15c-5c9759b2d279","ios":"levelo://app?vid=dca1ed62-7edc-4482-a15c-5c9759b2d279"},"vehicle_type_id":"4","last_reported":1758039135,"current_range_meters":17600,"station_id":"","pricing_plan_id":"cebpf4jnsgd1na2vs0mg"},{"bike_id":"6e306016-5098-48a1-9050-7c65e200c49b","system_id":"levelo_inurba_marseille","lat":43.31765,"lon":5.39008,"is_reserved":false,"is_disabled":false,"rental_uris":{"android":"levelo://app?vid=6e306016-5098-48a1-9050-7c65e200c49b","ios":"levelo://app?vid=6e306016-5098-48a1-9050-7c65e200c49b"},"vehicle_type_id":"4","last_reported":1758039135,"current_range_meters":17600,"station_id":"ce4bhqp2rcd13ifvqhng","pricing_plan_id":"cebpf4jnsgd1na2vs0mg"},{"bike_id":"071ff4fe-36f3-410a-b5a1-4e904462fa5d","system_id":"levelo_inurba_marseille","lat":43.28626,"lon":5.35118,"is_reserved":false,"is_disabled":false,"rental_uris":{"android":"levelo://app?vid=071ff4fe-36f3-410a-b5a1-4e904462fa5d","ios":"levelo://app?vid=071ff4fe-36f3-410a-b5a1-4e904462fa5d"},"vehicle_type_id":"4","last_reported":1758039135,"current_range_meters":17600,"station_id":"ce4bhch2rcd13ifvqeug","pricing_plan_id":"cebpf4jnsgd1na2vs0mg"},{"bike_id":"5701fe9c-3e98-4b9f-a910-5eb395d4e5d3","system_id":"levelo_inurba_marseille","lat":43.305389,"lon":5.384223,"is_reserved":false,"is_disabled":false,"rental_uris":{"android":"levelo://app?vid=5701fe9c-3e98-4b9f-a910-5eb395d4e5d3","ios":"levelo://app?vid=5701fe9c-3e98-4b9f-a910-5eb395d4e5d3"},"vehicle_type_id":"4","last_reported":1758039135,"current_range_meters":17600,"station_id":"","pricing_plan_id":"cebpf4jnsgd1na2vs0mg"},{"bike_id":"7a93e464-2e98-4cf1-9234-2e9789cdfa88","system_id":"levelo_inurba_marseille","lat":43.28449,"lon":5.38317,"is_reserved":false,"is_disabled":false,"rental_uris":{"android":"levelo://app?vid=7a93e464-2e98-4cf1-9234-2e9789cdfa88","ios":"levelo://app?vid=7a93e464-2e98-4cf1-9234-2e9789cdfa88"},"vehicle_type_id":"4","last_reported":1758039135,"current_range_meters":17600,"station_id":"","pricing_plan_id":"cebpf4jnsgd1na2vs0mg"},{"bike_id":"01b26fca-44b7-4d35-8d06-828691e3ecc8","system_id":"levelo_inurba_marseille","lat":43.28713,"lon":5.37397,"is_reserved":false,"is_disabled":false,"rental_uris":{"android":"levelo://app?vid=01b26fca-44b7-4d35-8d06-828691e3ecc8","ios":"levelo://app?vid=01b26fca-44b7-4d35-8d06-828691e3ecc8"},"vehicle_type_id":"4","last_reported":1758039135,"current_range_meters":17600,"station_id":"ce4bh3p2rcd13ifvqdq0","pricing_plan_id":"cebpf4jnsgd1na2vs0mg"},{"bike_id":"dd6d23ab-cdca-431a-904b-2a2daad8e0b6","system_id":"levelo_inurba_marseille","lat":43.22926,"lon":5.35368,"is_reserved":false,"is_disabled":false,"rental_uris":{"android":"levelo://app?vid=dd6d23ab-cdca-431a-904b-2a2daad8e0b6","ios":"levelo://app?vid=dd6d23ab-cdca-431a-904b-2a2daad8e0b6"},"vehicle_type_id":"4","last_reported":1758039135,"current_range_meters":17600,"station_id":"cpo3532slgdg3j2ikp40","pricing_plan_id":"cebpf4jnsgd1na2vs0mg"},{"bike_id":"3cdd0681-591a-4e2a-a2bb-af0d10385a64","system_id":"levelo_inurba_marseille","lat":43.21191,"lon":5.35067,"is_reserved":false,"is_disabled":false,"rental_uris":{"android":"levelo://app?vid=3cdd0681-591a-4e2a-a2bb-af0d10385a64","ios":"levelo://app?vid=3cdd0681-591a-4e2a-a2bb-af0d10385a64"},"vehicle_type_id":"4","last_reported":1758039135,"current_range_meters":17600,"station_id":"st_cvj6sg6p6f1abm77japg","pricing_plan_id":"cebpf4jnsgd1na2vs0mg"},{"bike_id":"6acc2709-4843-46c2-95e4-1be2a98e7422","system_id":"levelo_inurba_marseille","lat":43.30374,"lon":5.42487,"is_reserved":false,"is_disabled":false,"rental_uris":{"android":"levelo://app?vid=6acc2709-4843-46c2-95e4-1be2a98e7422","ios":"levelo://app?vid=6acc2709-4843-46c2-95e4-1be2a98e7422"},"vehicle_type_id":"4","last_reported":1758039135,"current_range_meters":18000,"station_id":"ce4bhoh2rcd13ifvqh6g","pricing_plan_id":"cebpf4jnsgd1na2vs0mg"},{"bike_id":"c4706891-6ce1-4440-91ff-a3ecf2ff007e","system_id":"levelo_inurba_marseille","lat":43.24382,"lon":5.37479,"is_reserved":false,"is_disabled":false,"rental_uris":{"android":"levelo://app?vid=c4706891-6ce1-4440-91ff-a3ecf2ff007e","ios":"levelo://app?vid=c4706891-6ce1-4440-91ff-a3ecf2ff007e"},"vehicle_type_id":"4","last_reported":1758039135,"current_range_meters":18000,"station_id":"","pricing_plan_id":"cebpf4jnsgd1na2vs0mg"},{"bike_id":"cdc58ca7-6e57-4774-b985-84f9549137ad","system_id":"levelo_inurba_marseille","lat":43.282595,"lon":5.350573,"is_reserved":false,"is_disabled":false,"rental_uris":{"android":"levelo://app?vid=cdc58ca7-6e57-4774-b985-84f9549137ad","ios":"levelo://app?vid=cdc58ca7-6e57-4774-b985-84f9549137ad"},"vehicle_type_id":"4","last_reported":1758039135,"current_range_meters":18000,"station_id":"ce4bhbp2rcd13ifvqerg","pricing_plan_id":"cebpf4jnsgd1na2vs0mg"},{"bike_id":"aa585f16-3700-4211-8e5e-92caea0e655c","system_id":"levelo_inurba_marseille","lat":43.24947,"lon":5.40492,"is_reserved":false,"is_disabled":false,"rental_uris":{"android":"levelo://app?vid=aa585f16-3700-4211-8e5e-92caea0e655c","ios":"levelo://app?vid=aa585f16-3700-4211-8e5e-92caea0e655c"},"vehicle_type_id":"4","last_reported":1758039135,"current_range_meters":18000,"station_id":"st_d2ngiaodas8pm72gd1h0","pricing_plan_id":"cebpf4jnsgd1na2vs0mg"},