{"last_updated":1781465383,"ttl":60,"version":"2.2","data":{"bikes":[{"bike_id":"ec12d144-24c8-4071-abf6-197e520eae96","system_id":"levelo_inurba_marseille","lat":43.337444,"lon":5.374475,"is_reserved":false,"is_disabled":false,"rental_uris":{"android":"levelo://app?vid=ec12d144-24c8-4071-abf6-197e520eae96","ios":"levelo://app?vid=ec12d144-24c8-4071-abf6-197e520eae96"},"vehicle_type_id":"4","last_reported":1781465384,"current_range_meters":0,"station_id":"","pricing_plan_id":"cebpf4jnsgd1na2vs0mg"},{"bike_id":"35d48999-811f-4941-8178-4efb14973d24","system_id":"levelo_inurba_marseille","lat":43.29038,"lon":5.3994,"is_reserved":false,"is_disabled":false,"rental_uris":{"android":"levelo://app?vid=35d48999-811f-4941-8178-4efb14973d24","ios":"levelo://app?vid=35d48999-811f-4941-8178-4efb14973d24"},"vehicle_type_id":"4","last_reported":1781465384,"current_range_meters":2800,"station_id":"ce4bh392rcd13ifvqdm0","pricing_plan_id":"cebpf4jnsgd1na2vs0mg"},{"bike_id":"f28fca79-86e5-4dfc-ba9a-f5442807e386","system_id":"levelo_inurba_marseille","lat":43.28485,"lon":5.38437,"is_reserved":false,"is_disabled":false,"rental_uris":{"android":"levelo://app?vid=f28fca79-86e5-4dfc-ba9a-f5442807e386","ios":"levelo://app?vid=f28fca79-86e5-4dfc-ba9a-f5442807e386"},"vehicle_type_id":"4","last_reported":1781465384,"current_range_meters":2800,"station_id":"ce4bh512rcd13ifvqe3g","pricing_plan_id":"cebpf4jnsgd1na2vs0mg"},{"bike_id":"5b5ea2fb-3ba8-4c10-841c-ca34891a615c","system_id":"levelo_inurba_marseille","lat":43.29372,"lon":5.36422,"is_reserved":false,"is_disabled":false,"rental_uris":{"android":"levelo://app?vid=5b5ea2fb-3ba8-4c10-841c-ca34891a615c","ios":"levelo://app?vid=5b5ea2fb-3ba8-4c10-841c-ca34891a615c"},"vehicle_type_id":"4","last_reported":1781465384,"current_range_meters":2800,"station_id":"","pricing_plan_id":"cebpf4jnsgd1na2vs0mg"},{"bike_id":"6216e971-d99d-4e09-bc68-2b6a22b618d5","system_id":"levelo_inurba_marseille","lat":43.34215,"lon":5.36055,"is_reserved":false,"is_disabled":false,"rental_uris":{"android":"levelo://app?vid=6216e971-d99d-4e09-bc68-2b6a22b618d5","ios":"levelo://app?vid=6216e971-d99d-4e09-bc68-2b6a22b618d5"},"vehicle_type_id":"4","last_reported":1781465384,"current_range_meters":2800,"station_id":"","pricing_plan_id":"cebpf4jnsgd1na2vs0mg"},{"bike_id":"606ea6eb-c02e-49b8-a433-700c54c7df6b","system_id":"levelo_inurba_marseille","lat":43.23187,"lon":5.39982,"is_reserved":false,"is_disabled":false,"rental_uris":{"android":"levelo://app?vid=606ea6eb-c02e-49b8-a433-700c54c7df6b","ios":"levelo://app?vid=606ea6eb-c02e-49b8-a433-700c54c7df6b"},"vehicle_type_id":"4","last_reported":1781465384,"current_range_meters":2800,"station_id":"ce4bhn12rcd13ifvqgqg","pricing_plan_id":"cebpf4jnsgd1na2vs0mg"},{"bike_id":"d7c01ba4-1eb2-49c8-9559-95bb2cfe8e50","system_id":"levelo_inurba_marseille","lat":43.28917,"lon":5.38376,"is_reserved":false,"is_disabled":false,"rental_uris":{"android":"levelo://app?vid=d7c01ba4-1eb2-49c8-9559-95bb2cfe8e50","ios":"levelo://app?vid=d7c01ba4-1eb2-49c8-9559-95bb2cfe8e50"},"vehicle_type_id":"4","last_reported":1781465384,"current_range_meters":2800,"station_id":"ce4bh612rcd13ifvqe6g","pricing_plan_id":"cebpf4jnsgd1na2vs0mg"},{"bike_id":"ebcfa295-9895-465a-bdba-a68a3ec6c71e","system_id":"levelo_inurba_marseille","lat":43.29638,"lon":5.36873,"is_reserved":false,"is_disabled":false,"rental_uris":{"android":"levelo://app?vid=ebcfa295-9895-465a-bdba-a68a3ec6c71e","ios":"levelo://app?vid=ebcfa295-9895-465a-bdba-a68a3ec6c71e"},"vehicle_type_id":"4","last_reported":1781465384,"current_range_meters":2800,"station_id":"","pricing_plan_id":"cebpf4jnsgd1na2vs0mg"},{"bike_id":"a2fbe189-03bb-472b-9d75-fe99122239fc","system_id":"levelo_inurba_marseille","lat":43.30161,"lon":5.45004,"is_reserved":false,"is_disabled":false,"rental_uris":{"android":"levelo://app?vid=a2fbe189-03bb-472b-9d75-fe99122239fc","ios":"levelo://app?vid=a2fbe189-03bb-472b-9d75-fe99122239fc"},"vehicle_type_id":"4","last_reported":1781465384,"current_range_meters":2800,"station_id":"","pricing_plan_id":"cebpf4jnsgd1na2vs0mg"},{"bike_id":"d3dfd905-d701-4e6f-9f55-1875543d307c","system_id":"levelo_inurba_marseille","lat":43.28463,"lon":5.35885,"is_reserved":false,"is_disabled":false,"rental_uris":{"android":"levelo://app?vid=d3dfd905-d701-4e6f-9f55-1875543d307c","ios":"levelo://app?vid=d3dfd905-d701-4e6f-9f55-1875543d307c"},"vehicle_type_id":"4","last_reported":1781465384,"current_range_meters":2800,"station_id":"ce4bhah2rcd13ifvqei0","pricing_plan_id":"cebpf4jnsgd1na2vs0mg"},{"bike_id":"627fb325-c02f-4f68-a9bf-4c9a19ec12b3","system_id":"levelo_inurba_marseille","lat":43.3013,"lon":5.39864,"is_reserved":false,"is_disabled":false,"rental_uris":{"android":"levelo://app?vid=627fb325-c02f-4f68-a9bf-4c9a19ec12b3","ios":"levelo://app?vid=627fb325-c02f-4f68-a9bf-4c9a19ec12b3"},"vehicle_type_id":"4","last_reported":1781465384,"current_range_meters":2800,"station_id":"","pricing_plan_id":"cebpf4jnsgd1na2vs0mg"},{"bike_id":"cf11dd40-b113-45d9-8d41-8d04b849c2c4","system_id":"levelo_inurba_marseille","lat":43.2911,"lon":5.42776,"is_reserved":false,"is_disabled":false,"rental_uris":{"android":"levelo://app?vid=cf11dd40-b113-45d9-8d41-8d04b849c2c4","ios":"levelo://app?vid=cf11dd40-b113-45d9-8d41-8d04b849c2c4"},"vehicle_type_id":"4","last_reported":1781465384,"current_range_meters":2800,"station_id":"","pricing_plan_id":"cebpf4jnsgd1na2vs0mg"},{"bike_id":"ae1d7019-2570-47d3-b925-ddf7401d7c78","system_id":"levelo_inurba_marseille","lat":43.28925,"lon":5.36642,"is_reserved":false,"is_disabled":false,"rental_uris":{"android":"levelo://app?vid=ae1d7019-2570-47d3-b925-ddf7401d7c78","ios":"levelo://app?vid=ae1d7019-2570-47d3-b925-ddf7401d7c78"},"vehicle_type_id":"4","last_reported":1781465384,"current_range_meters":2800,"station_id":"ce4bhap2rcd13ifvqek0","pricing_plan_id":"cebpf4jnsgd1na2vs0mg"},{"bike_id":"b15b6936-3764-4db6-9e15-b9af9ed55469","system_id":"levelo_inurba_marseille","lat":43.29017,"lon":5.38128,"is_reserved":false,"is_disabled":false,"rental_uris":{"android":"levelo://app?vid=b15b6936-3764-4db6-9e15-b9af9ed55469","ios":"levelo://app?vid=b15b6936-3764-4db6-9e15-b9af9ed55469"},"vehicle_type_id":"4","last_reported":1781465384,"current_range_meters":2800,"station_id":"","pricing_plan_id":"cebpf4jnsgd1na2vs0mg"},{"bike_id":"687d5218-b456-49ad-9dc8-1e886d574bf0","system_id":"levelo_inurba_marseille","lat":43.26565,"lon":5.39001,"is_reserved":false,"is_disabled":false,"rental_uris":{"android":"levelo://app?vid=687d5218-b456-49ad-9dc8-1e886d574bf0","ios":"levelo://app?vid=687d5218-b456-49ad-9dc8-1e886d574bf0"},"vehicle_type_id":"4","last_reported":1781465384,"current_range_meters":2800,"station_id":"ce4bhe12rcd13ifvqf30","pricing_plan_id":"cebpf4jnsgd1na2vs0mg"},{"bike_id":"ba60663c-4b53-4802-aaff-598aa4da9680","system_id":"levelo_inurba_marseille","lat":43.28078,"lon":5.39655,"is_reserved":false,"is_disabled":false,"rental_uris":{"android":"levelo://app?vid=ba60663c-4b53-4802-aaff-598aa4da9680","ios":"levelo://app?vid=ba60663c-4b53-4802-aaff-598aa4da9680"},"vehicle_type_id":"4","last_reported":1781465384,"current_range_meters":2800,"station_id":"ce4bho12rcd13ifvqh2g","pricing_plan_id":"cebpf4jnsgd1na2vs0mg"},{"bike_id":"61acdcff-76d7-4bb2-a256-e2ec611550e8","system_id":"levelo_inurba_marseille","lat":43.2656,"lon":5.39008,"is_reserved":false,"is_disabled":true,"rental_uris":{"android":"levelo://app?vid=61acdcff-76d7-4bb2-a256-e2ec611550e8","ios":"levelo://app?vid=61acdcff-76d7-4bb2-a256-e2ec611550e8"},"vehicle_type_id":"4","last_reported":1781465384,"current_range_meters":2800,"station_id":"ce4bhe12rcd13ifvqf30","pricing_plan_id":"cebpf4jnsgd1na2vs0mg"},{"bike_id":"a0ce1c9d-7f83-435a-a268-3bf41597ad73","system_id":"levelo_inurba_marseille","lat":43.29167,"lon":5.37126,"is_reserved":false,"is_disabled":false,"rental_uris":{"android":"levelo://app?vid=a0ce1c9d-7f83-435a-a268-3bf41597ad73","ios":"levelo://app?vid=a0ce1c9d-7f83-435a-a268-3bf41597ad73"},"vehicle_type_id":"4","last_reported":1781465384,"current_range_meters":2800,"station_id":"ce4bha92rcd13ifvqeh0","pricing_plan_id":"cebpf4jnsgd1na2vs0mg"},{"bike_id":"e3ca8743-6107-440d-bb7e-66ab36e2b4e1","system_id":"levelo_inurba_marseille","lat":43.26557,"lon":5.37276,"is_reserved":false,"is_disabled":true,"rental_uris":{"android":"levelo://app?vid=e3ca8743-6107-440d-bb7e-66ab36e2b4e1","ios":"levelo://app?vid=e3ca8743-6107-440d-bb7e-66ab36e2b4e1"},"vehicle_type_id":"4","last_reported":1781465384,"current_range_meters":2800,"station_id":"ce4bhg12rcd13ifvqf70","pricing_plan_id":"cebpf4jnsgd1na2vs0mg"},{"bike_id":"da49f8bf-ac47-4f75-a9fc-b5a0f8173bc6","system_id":"levelo_inurba_marseille","lat":43.28459,"lon":5.35876,"is_reserved":false,"is_disabled":true,"rental_uris":{"android":"levelo://app?vid=da49f8bf-ac47-4f75-a9fc-b5a0f8173bc6","ios":"levelo://app?vid=da49f8bf-ac47-4f75-a9fc-b5a0f8173bc6"},"vehicle_type_id":"4","last_reported":1781465384,"current_range_meters":3200,"station_id":"ce4bhah2rcd13ifvqei0","pricing_plan_id":"cebpf4jnsgd1na2vs0mg"},{"bike_id":"75477cde-b271-46ac-b90a-8d2ab31ddf4c","system_id":"levelo_inurba_marseille","lat":43.298138,"lon":5.440652,"is_reserved":false,"is_disabled":false,"rental_uris":{"android":"levelo://app?vid=75477cde-b271-46ac-b90a-8d2ab31ddf4c","ios":"levelo://app?vid=75477cde-b271-46ac-b90a-8d2ab31ddf4c"},"vehicle_type_id":"4","last_reported":1781465384,"current_range_meters":3200,"station_id":"st_d3jp68qikq2c7381ktn0","pricing_plan_id":"cebpf4jnsgd1na2vs0mg"},{"bike_id":"ab9e0cba-af9c-42b6-8bb0-4193c2617c8f","system_id":"levelo_inurba_marseille","lat":43.23894,"lon":5.37459,"is_reserved":false,"is_disabled":false,"rental_uris":{"android":"levelo://app?vid=ab9e0cba-af9c-42b6-8bb0-4193c2617c8f","ios":"levelo://app?vid=ab9e0cba-af9c-42b6-8bb0-4193c2617c8f"},"vehicle_type_id":"4","last_reported":1781465384,"current_range_meters":3200,"station_id":"st_d6sm7csbq4hs73f8fpjg","pricing_plan_id":"cebpf4jnsgd1na2vs0mg"},{"bike_id":"4a6c7b17-9396-4caa-8ad3-f71939d4b080","system_id":"levelo_inurba_marseille","lat":43.31371,"lon":5.367,"is_reserved":false,"is_disabled":false,"rental_uris":{"android":"levelo://app?vid=4a6c7b17-9396-4caa-8ad3-f71939d4b080","ios":"levelo://app?vid=4a6c7b17-9396-4caa-8ad3-f71939d4b080"},"vehicle_type_id":"4","last_reported":1781465384,"current_range_meters":3200,"station_id":"ce4bgr92rcd13ifvqc6g","pricing_plan_id":"cebpf4jnsgd1na2vs0mg"},{"bike_id":"23a60ccd-b106-4a2b-9d11-d5037be57a68","system_id":"levelo_inurba_marseille","lat":43.28027,"lon":5.369199,"is_reserved":false,"is_disabled":false,"rental_uris":{"android":"levelo://app?vid=23a60ccd-b106-4a2b-9d11-d5037be57a68","ios":"levelo://app?vid=23a60ccd-b106-4a2b-9d11-d5037be57a68"},"vehicle_type_id":"4","last_reported":1781465384,"current_range_meters":3200,"station_id":"ce4bha12rcd13ifvqef0","pricing_plan_id":"cebpf4jnsgd1na2vs0mg"},{"bike_id":"3bf5ad88-1f5c-4eef-93c3-f52ba8a72185","system_id":"levelo_inurba_marseille","lat":43.3043,"lon":5.4125,"is_reserved":false,"is_disabled":false,"rental_uris":{"android":"levelo://app?vid=3bf5ad88-1f5c-4eef-93c3-f52ba8a72185","ios":"levelo://app?vid=3bf5ad88-1f5c-4eef-93c3-f52ba8a72185"},"vehicle_type_id":"4","last_reported":1781465384,"current_range_meters":3200,"station_id":"ce4bhop2rcd13ifvqh8g","pricing_plan_id":"cebpf4jnsgd1na2vs0mg"},{"bike_id":"52f3e772-ae75-4b62-8837-30b3a36cd0d4","system_id":"levelo_inurba_marseille","lat":43.31046,"lon":5.39374,"is_reserved":false,"is_disabled":false,"rental_uris":{"android":"levelo://app?vid=52f3e772-ae75-4b62-8837-30b3a36cd0d4","ios":"levelo://app?vid=52f3e772-ae75-4b62-8837-30b3a36cd0d4"},"vehicle_type_id":"4","last_reported":1781465384,"current_range_meters":3200,"station_id":"","pricing_plan_id":"cebpf4jnsgd1na2vs0mg"},{"bike_id":"97f17bb7-03bd-438a-9652-50f9e14d3355","system_id":"levelo_inurba_marseille","lat":43.30132,"lon":5.43108,"is_reserved":false,"is_disabled":false,"rental_uris":{"android":"levelo://app?vid=97f17bb7-03bd-438a-9652-50f9e14d3355","ios":"levelo://app?vid=97f17bb7-03bd-438a-9652-50f9e14d3355"},"vehicle_type_id":"4","last_reported":1781465384,"current_range_meters":3200,"station_id":"st_d3js3co5814s73ftftug","pricing_plan_id":"cebpf4jnsgd1na2vs0mg"},{"bike_id":"41d61f3a-572c-4240-9f59-8b5b646be959","system_id":"levelo_inurba_marseille","lat":43.319,"lon":5.36799,"is_reserved":false,"is_disabled":false,"rental_uris":{"android":"levelo://app?vid=41d61f3a-572c-4240-9f59-8b5b646be959","ios":"levelo://app?vid=41d61f3a-572c-4240-9f59-8b5b646be959"},"vehicle_type_id":"4","last_reported":1781465384,"current_range_meters":3200,"station_id":"st_d6o2h0d0559c73evc1b0","pricing_plan_id":"cebpf4jnsgd1na2vs0mg"},{"bike_id":"74946a76-6fd8-47cc-901b-09c6c1ecd8af","system_id":"levelo_inurba_marseille","lat":43.28959,"lon":5.3638,"is_reserved":false,"is_disabled":false,"rental_uris":{"android":"levelo://app?vid=74946a76-6fd8-47cc-901b-09c6c1ecd8af","ios":"levelo://app?vid=74946a76-6fd8-47cc-901b-09c6c1ecd8af"},"vehicle_type_id":"4","last_reported":1781465384,"current_range_meters":3200,"station_id":"ce4bhc92rcd13ifvqetg","pricing_plan_id":"cebpf4jnsgd1na2vs0mg"},{"bike_id":"2178ab05-cc85-419a-8273-58d3d0f017c7","system_id":"levelo_inurba_marseille","lat":43.28924,"lon":5.38389,"is_reserved":false,"is_disabled":false,"rental_uris":{"android":"levelo://app?vid=2178ab05-cc85-419a-8273-58d3d0f017c7","ios":"levelo://app?vid=2178ab05-cc85-419a-8273-58d3d0f017c7"},"vehicle_type_id":"4","last_reported":1781465384,"current_range_meters":3200,"station_id":"ce4bh612rcd13ifvqe6g","pricing_plan_id":"cebpf4jnsgd1na2vs0mg"},{"bike_id":"6fb07b35-b88f-45ae-9e9e-ceed1b219374","system_id":"levelo_inurba_marseille","lat":43.32482,"lon":5.36563,"is_reserved":false,"is_disabled":true,"rental_uris":{"android":"levelo://app?vid=6fb07b35-b88f-45ae-9e9e-ceed1b219374","ios":"levelo://app?vid=6fb07b35-b88f-45ae-9e9e-ceed1b219374"},"vehicle_type_id":"4","last_reported":1781465384,"current_range_meters":3200,"station_id":"ce4bhs12rcd13ifvqhvg","pricing_plan_id":"cebpf4jnsgd1na2vs0mg"},{"bike_id":"a6c1e8f0-1dda-4687-ab9d-08b32ad1505f","system_id":"levelo_inurba_marseille","lat":43.28848,"lon":5.35839,"is_reserved":false,"is_disabled":false,"rental_uris":{"android":"levelo://app?vid=a6c1e8f0-1dda-4687-ab9d-08b32ad1505f","ios":"levelo://app?vid=a6c1e8f0-1dda-4687-ab9d-08b32ad1505f"},"vehicle_type_id":"4","last_reported":1781465384,"current_range_meters":3200,"station_id":"ce4bhb12rcd13ifvqem0","pricing_plan_id":"cebpf4jnsgd1na2vs0mg"},{"bike_id":"5de3590d-f240-4943-bf63-0d8ffe0ed36f","system_id":"levelo_inurba_marseille","lat":43.28848,"lon":5.39324,"is_reserved":false,"is_disabled":false,"rental_uris":{"android":"levelo://app?vid=5de3590d-f240-4943-bf63-0d8ffe0ed36f","ios":"levelo://app?vid=5de3590d-f240-4943-bf63-0d8ffe0ed36f"},"vehicle_type_id":"4","last_reported":1781465384,"current_range_meters":3200,"station_id":"ce4bh2p2rcd13ifvqdi0","pricing_plan_id":"cebpf4jnsgd1na2vs0mg"},{"bike_id":"4c0aaefd-2b66-45a7-8e6f-bab47a273073","system_id":"levelo_inurba_marseille","lat":43.32438,"lon":5.42577,"is_reserved":false,"is_disabled":false,"rental_uris":{"android":"levelo://app?vid=4c0aaefd-2b66-45a7-8e6f-bab47a273073","ios":"levelo://app?vid=4c0aaefd-2b66-45a7-8e6f-bab47a273073"},"vehicle_type_id":"4","last_reported":1781465384,"current_range_meters":3200,"station_id":"","pricing_plan_id":"cebpf4jnsgd1na2vs0mg"},{"bike_id":"c6535a9e-abbf-4d35-b6fa-0ce0b275a0ba","system_id":"levelo_inurba_marseille","lat":43.24548,"lon":5.39517,"is_reserved":false,"is_disabled":false,"rental_uris":{"android":"levelo://app?vid=c6535a9e-abbf-4d35-b6fa-0ce0b275a0ba","ios":"levelo://app?vid=c6535a9e-abbf-4d35-b6fa-0ce0b275a0ba"},"vehicle_type_id":"4","last_reported":1781465384,"current_range_meters":3200,"station_id":"ce4bhlp2rcd13ifvqgjg","pricing_plan_id":"cebpf4jnsgd1na2vs0mg"},{"bike_id":"c97fb99a-7c2e-4698-a401-a6886e4eb5f4","system_id":"levelo_inurba_marseille","lat":43.2873,"lon":5.42695,"is_reserved":false,"is_disabled":false,"rental_uris":{"android":"levelo://app?vid=c97fb99a-7c2e-4698-a401-a6886e4eb5f4","ios":"levelo://app?vid=c97fb99a-7c2e-4698-a401-a6886e4eb5f4"},"vehicle_type_id":"4","last_reported":1781465384,"current_range_meters":3200,"station_id":"","pricing_plan_id":"cebpf4jnsgd1na2vs0mg"},{"bike_id":"6d62f6ca-66fa-4efc-8fda-0047b8e06961","system_id":"levelo_inurba_marseille","lat":43.3337,"lon":5.41083,"is_reserved":false,"is_disabled":false,"rental_uris":{"android":"levelo://app?vid=6d62f6ca-66fa-4efc-8fda-0047b8e06961","ios":"levelo://app?vid=6d62f6ca-66fa-4efc-8fda-0047b8e06961"},"vehicle_type_id":"4","last_reported":1781465384,"current_range_meters":3200,"station_id":"","pricing_plan_id":"cebpf4jnsgd1na2vs0mg"},{"bike_id":"fb76ec5b-b252-4f10-a078-785229325621","system_id":"levelo_inurba_marseille","lat":43.30317,"lon":5.3918,"is_reserved":false,"is_disabled":false,"rental_uris":{"android":"levelo://app?vid=fb76ec5b-b252-4f10-a078-785229325621","ios":"levelo://app?vid=fb76ec5b-b252-4f10-a078-785229325621"},"vehicle_type_id":"4","last_reported":1781465384,"current_range_meters":3200,"station_id":"ce4bgkh2rcd13ifvqbk0","pricing_plan_id":"cebpf4jnsgd1na2vs0mg"},{"bike_id":"93b03f6b-edc6-445d-908a-770c538c330f","system_id":"levelo_inurba_marseille","lat":43.25963,"lon":5.39409,"is_reserved":false,"is_disabled":false,"rental_uris":{"android":"levelo://app?vid=93b03f6b-edc6-445d-908a-770c538c330f","ios":"levelo://app?vid=93b03f6b-edc6-445d-908a-770c538c330f"},"vehicle_type_id":"4","last_reported":1781465384,"current_range_meters":3600,"station_id":"","pricing_plan_id":"cebpf4jnsgd1na2vs0mg"},{"bike_id":"efe858fc-f8b4-4ebd-8715-f4e51a77ed65","system_id":"levelo_inurba_marseille","lat":43.30175,"lon":5.36623,"is_reserved":false,"is_disabled":false,"rental_uris":{"android":"levelo://app?vid=efe858fc-f8b4-4ebd-8715-f4e51a77ed65","ios":"levelo://app?vid=efe858fc-f8b4-4ebd-8715-f4e51a77ed65"},"vehicle_type_id":"4","last_reported":1781465384,"current_range_meters":3600,"station_id":"ce4bgrh2rcd13ifvqc8g","pricing_plan_id":"cebpf4jnsgd1na2vs0mg"},{"bike_id":"ce3aede4-290c-43db-8abd-e45b42cfc6e3","system_id":"levelo_inurba_marseille","lat":43.29546,"lon":5.38542,"is_reserved":false,"is_disabled":false,"rental_uris":{"android":"levelo://app?vid=ce3aede4-290c-43db-8abd-e45b42cfc6e3","ios":"levelo://app?vid=ce3aede4-290c-43db-8abd-e45b42cfc6e3"},"vehicle_type_id":"4","last_reported":1781465384,"current_range_meters":3600,"station_id":"ce4bgih2rcd13ifvqba0","pricing_plan_id":"cebpf4jnsgd1na2vs0mg"},{"bike_id":"c8c49553-7dcb-4a7a-8cb6-ee862bc78cc3","system_id":"levelo_inurba_marseille","lat":43.2841,"lon":5.37503,"is_reserved":false,"is_disabled":false,"rental_uris":{"android":"levelo://app?vid=c8c49553-7dcb-4a7a-8cb6-ee862bc78cc3","ios":"levelo://app?vid=c8c49553-7dcb-4a7a-8cb6-ee862bc78cc3"},"vehicle_type_id":"4","last_reported":1781465384,"current_range_meters":3600,"station_id":"ce4bh412rcd13ifvqds0","pricing_plan_id":"cebpf4jnsgd1na2vs0mg"},{"bike_id":"6b02e488-e709-4f87-ae54-3df8c4622ed3","system_id":"levelo_inurba_marseille","lat":43.28077,"lon":5.3963,"is_reserved":false,"is_disabled":false,"rental_uris":{"android":"levelo://app?vid=6b02e488-e709-4f87-ae54-3df8c4622ed3","ios":"levelo://app?vid=6b02e488-e709-4f87-ae54-3df8c4622ed3"},"vehicle_type_id":"4","last_reported":1781465384,"current_range_meters":3600,"station_id":"ce4bho12rcd13ifvqh2g","pricing_plan_id":"cebpf4jnsgd1na2vs0mg"},{"bike_id":"34587959-eb53-4c9b-8aee-22099f05dd95","system_id":"levelo_inurba_marseille","lat":43.28043,"lon":5.36938,"is_reserved":false,"is_disabled":false,"rental_uris":{"android":"levelo://app?vid=34587959-eb53-4c9b-8aee-22099f05dd95","ios":"levelo://app?vid=34587959-eb53-4c9b-8aee-22099f05dd95"},"vehicle_type_id":"4","last_reported":1781465384,"current_range_meters":3600,"station_id":"ce4bha12rcd13ifvqef0","pricing_plan_id":"cebpf4jnsgd1na2vs0mg"},{"bike_id":"cd24188d-f3b3-44f3-9fa8-49a734c799ca","system_id":"levelo_inurba_marseille","lat":43.30932,"lon":5.40138,"is_reserved":false,"is_disabled":false,"rental_uris":{"android":"levelo://app?vid=cd24188d-f3b3-44f3-9fa8-49a734c799ca","ios":"levelo://app?vid=cd24188d-f3b3-44f3-9fa8-49a734c799ca"},"vehicle_type_id":"4","last_reported":1781465384,"current_range_meters":3600,"station_id":"ce4bgvp2rcd13ifvqct0","pricing_plan_id":"cebpf4jnsgd1na2vs0mg"},{"bike_id":"e7ad965c-cf0b-40b0-bebc-cabcb91fcc45","system_id":"levelo_inurba_marseille","lat":43.29254,"lon":5.40907,"is_reserved":false,"is_disabled":false,"rental_uris":{"android":"levelo://app?vid=e7ad965c-cf0b-40b0-bebc-cabcb91fcc45","ios":"levelo://app?vid=e7ad965c-cf0b-40b0-bebc-cabcb91fcc45"},"vehicle_type_id":"4","last_reported":1781465384,"current_range_meters":3600,"station_id":"ce4bh192rcd13ifvqdc0","pricing_plan_id":"cebpf4jnsgd1na2vs0mg"},{"bike_id":"e85982d6-08c0-416c-b260-60a05253d689","system_id":"levelo_inurba_marseille","lat":43.30154,"lon":5.3912,"is_reserved":false,"is_disabled":false,"rental_uris":{"android":"levelo://app?vid=e85982d6-08c0-416c-b260-60a05253d689","ios":"levelo://app?vid=e85982d6-08c0-416c-b260-60a05253d689"},"vehicle_type_id":"4","last_reported":1781465384,"current_range_meters":3600,"station_id":"","pricing_plan_id":"cebpf4jnsgd1na2vs0mg"},{"bike_id":"cb4d564e-a8d3-484d-ada3-e606a799d6a3","system_id":"levelo_inurba_marseille","lat":43.28459,"lon":5.35894,"is_reserved":false,"is_disabled":false,"rental_uris":{"android":"levelo://app?vid=cb4d564e-a8d3-484d-ada3-e606a799d6a3","ios":"levelo://app?vid=cb4d564e-a8d3-484d-ada3-e606a799d6a3"},"vehicle_type_id":"4","last_reported":1781465384,"current_range_meters":3600,"station_id":"ce4bhah2rcd13ifvqei0","pricing_plan_id":"cebpf4jnsgd1na2vs0mg"},{"bike_id":"ea57624c-92b9-4670-91b8-c86bf9ba7b45","system_id":"levelo_inurba_marseille","lat":43.30944,"lon":5.40103,"is_reserved":false,"is_disabled":false,"rental_uris":{"android":"levelo://app?vid=ea57624c-92b9-4670-91b8-c86bf9ba7b45","ios":"levelo://app?vid=ea57624c-92b9-4670-91b8-c86bf9ba7b45"},"vehicle_type_id":"4","last_reported":1781465384,"current_range_meters":3600,"station_id":"ce4bgvp2rcd13ifvqct0","pricing_plan_id":"cebpf4jnsgd1na2vs0mg"},{"bike_id":"3f683387-f7ec-4b9f-9801-ff63896077b4","system_id":"levelo_inurba_marseille","lat":43.23953,"lon":5.36538,"is_reserved":false,"is_disabled":false,"rental_uris":{"android":"levelo://app?vid=3f683387-f7ec-4b9f-9801-ff63896077b4","ios":"levelo://app?vid=3f683387-f7ec-4b9f-9801-ff63896077b4"},"vehicle_type_id":"4","last_reported":1781465384,"current_range_meters":3600,"station_id":"","pricing_plan_id":"cebpf4jnsgd1na2vs0mg"},{"bike_id":"04e03faa-4b8e-4d25-90f0-d5153ef5cee5","system_id":"levelo_inurba_marseille","lat":43.29259,"lon":5.38446,"is_reserved":false,"is_disabled":false,"rental_uris":{"android":"levelo://app?vid=04e03faa-4b8e-4d25-90f0-d5153ef5cee5","ios":"levelo://app?vid=04e03faa-4b8e-4d25-90f0-d5153ef5cee5"},"vehicle_type_id":"4","last_reported":1781465384,"current_range_meters":3600,"station_id":"ce4bh692rcd13ifvqea0","pricing_plan_id":"cebpf4jnsgd1na2vs0mg"},{"bike_id":"05824173-0c7d-4f13-8586-4215019a2690","system_id":"levelo_inurba_marseille","lat":43.30879,"lon":5.3964,"is_reserved":false,"is_disabled":false,"rental_uris":{"android":"levelo://app?vid=05824173-0c7d-4f13-8586-4215019a2690","ios":"levelo://app?vid=05824173-0c7d-4f13-8586-4215019a2690"},"vehicle_type_id":"4","last_reported":1781465384,"current_range_meters":4000,"station_id":"ce4bh012rcd13ifvqcv0","pricing_plan_id":"cebpf4jnsgd1na2vs0mg"},{"bike_id":"ee5326b1-f810-41ef-b1b7-1ea9c2c8872f","system_id":"levelo_inurba_marseille","lat":43.28724,"lon":5.46681,"is_reserved":false,"is_disabled":false,"rental_uris":{"android":"levelo://app?vid=ee5326b1-f810-41ef-b1b7-1ea9c2c8872f","ios":"levelo://app?vid=ee5326b1-f810-41ef-b1b7-1ea9c2c8872f"},"vehicle_type_id":"4","last_reported":1781465384,"current_range_meters":4000,"station_id":"st_d6tc3vkotcvc738tfjhg","pricing_plan_id":"cebpf4jnsgd1na2vs0mg"},{"bike_id":"bfb0a9af-1fad-45a9-aaef-e5b99c9a3f33","system_id":"levelo_inurba_marseille","lat":43.28915,"lon":5.38389,"is_reserved":false,"is_disabled":false,"rental_uris":{"android":"levelo://app?vid=bfb0a9af-1fad-45a9-aaef-e5b99c9a3f33","ios":"levelo://app?vid=bfb0a9af-1fad-45a9-aaef-e5b99c9a3f33"},"vehicle_type_id":"4","last_reported":1781465384,"current_range_meters":4000,"station_id":"ce4bh612rcd13ifvqe6g","pricing_plan_id":"cebpf4jnsgd1na2vs0mg"},{"bike_id":"1a1ad63b-bf2d-4119-8f23-2b8341ecdf2b","system_id":"levelo_inurba_marseille","lat":43.31761,"lon":5.39009,"is_reserved":false,"is_disabled":false,"rental_uris":{"android":"levelo://app?vid=1a1ad63b-bf2d-4119-8f23-2b8341ecdf2b","ios":"levelo://app?vid=1a1ad63b-bf2d-4119-8f23-2b8341ecdf2b"},"vehicle_type_id":"4","last_reported":1781465384,"current_range_meters":4000,"station_id":"ce4bhqp2rcd13ifvqhng","pricing_plan_id":"cebpf4jnsgd1na2vs0mg"},{"bike_id":"d51ce86a-5b38-4b76-8e51-2a3373a4f2df","system_id":"levelo_inurba_marseille","lat":43.32052,"lon":5.36829,"is_reserved":false,"is_disabled":false,"rental_uris":{"android":"levelo://app?vid=d51ce86a-5b38-4b76-8e51-2a3373a4f2df","ios":"levelo://app?vid=d51ce86a-5b38-4b76-8e51-2a3373a4f2df"},"vehicle_type_id":"4","last_reported":1781465384,"current_range_meters":4000,"station_id":"","pricing_plan_id":"cebpf4jnsgd1na2vs0mg"},{"bike_id":"5f1fde4c-b506-4d33-b1ab-9ebbc9c39673","system_id":"levelo_inurba_marseille","lat":43.29556,"lon":5.42302,"is_reserved":false,"is_disabled":false,"rental_uris":{"android":"levelo://app?vid=5f1fde4c-b506-4d33-b1ab-9ebbc9c39673","ios":"levelo://app?vid=5f1fde4c-b506-4d33-b1ab-9ebbc9c39673"},"vehicle_type_id":"4","last_reported":1781465384,"current_range_meters":4000,"station_id":"ce4bhph2rcd13ifvqhdg","pricing_plan_id":"cebpf4jnsgd1na2vs0mg"},{"bike_id":"211a2704-aa4f-43f5-b2d8-2b26e3b04b5e","system_id":"levelo_inurba_marseille","lat":43.25072,"lon":5.38842,"is_reserved":false,"is_disabled":false,"rental_uris":{"android":"levelo://app?vid=211a2704-aa4f-43f5-b2d8-2b26e3b04b5e","ios":"levelo://app?vid=211a2704-aa4f-43f5-b2d8-2b26e3b04b5e"},"vehicle_type_id":"4","last_reported":1781465384,"current_range_meters":4000,"station_id":"","pricing_plan_id":"cebpf4jnsgd1na2vs0mg"},{"bike_id":"ab7ad0f2-23dc-4654-a4ae-e36edf5f9057","system_id":"levelo_inurba_marseille","lat":43.29026,"lon":5.38644,"is_reserved":false,"is_disabled":false,"rental_uris":{"android":"levelo://app?vid=ab7ad0f2-23dc-4654-a4ae-e36edf5f9057","ios":"levelo://app?vid=ab7ad0f2-23dc-4654-a4ae-e36edf5f9057"},"vehicle_type_id":"4","last_reported":1781465384,"current_range_meters":4000,"station_id":"ce4bh4p2rcd13ifvqe0g","pricing_plan_id":"cebpf4jnsgd1na2vs0mg"},{"bike_id":"bafe63a8-a296-4940-9411-091a3425a280","system_id":"levelo_inurba_marseille","lat":43.29565,"lon":5.375,"is_reserved":false,"is_disabled":false,"rental_uris":{"android":"levelo://app?vid=bafe63a8-a296-4940-9411-091a3425a280","ios":"levelo://app?vid=bafe63a8-a296-4940-9411-091a3425a280"},"vehicle_type_id":"4","last_reported":1781465384,"current_range_meters":4000,"station_id":"ce4bgh92rcd13ifvqb50","pricing_plan_id":"cebpf4jnsgd1na2vs0mg"},{"bike_id":"e2298d1e-9f46-40e5-8442-06c6300e3b87","system_id":"levelo_inurba_marseille","lat":43.24577,"lon":5.39706,"is_reserved":false,"is_disabled":false,"rental_uris":{"android":"levelo://app?vid=e2298d1e-9f46-40e5-8442-06c6300e3b87","ios":"levelo://app?vid=e2298d1e-9f46-40e5-8442-06c6300e3b87"},"vehicle_type_id":"4","last_reported":1781465384,"current_range_meters":4000,"station_id":"","pricing_plan_id":"cebpf4jnsgd1na2vs0mg"},{"bike_id":"4844313a-e987-40a6-a501-374316e29fda","system_id":"levelo_inurba_marseille","lat":43.30223,"lon":5.39463,"is_reserved":false,"is_disabled":false,"rental_uris":{"android":"levelo://app?vid=4844313a-e987-40a6-a501-374316e29fda","ios":"levelo://app?vid=4844313a-e987-40a6-a501-374316e29fda"},"vehicle_type_id":"4","last_reported":1781465384,"current_range_meters":4000,"station_id":"ce4bh0p2rcd13ifvqd70","pricing_plan_id":"cebpf4jnsgd1na2vs0mg"},{"bike_id":"7bb9d837-8621-443d-b257-e306cb33cfa1","system_id":"levelo_inurba_marseille","lat":43.28667,"lon":5.37047,"is_reserved":false,"is_disabled":false,"rental_uris":{"android":"levelo://app?vid=7bb9d837-8621-443d-b257-e306cb33cfa1","ios":"levelo://app?vid=7bb9d837-8621-443d-b257-e306cb33cfa1"},"vehicle_type_id":"4","last_reported":1781465384,"current_range_meters":4000,"station_id":"","pricing_plan_id":"cebpf4jnsgd1na2vs0mg"},{"bike_id":"f57ddc5d-b3ad-43f3-bbc4-226ea7be866d","system_id":"levelo_inurba_marseille","lat":43.29854,"lon":5.4228,"is_reserved":false,"is_disabled":false,"rental_uris":{"android":"levelo://app?vid=f57ddc5d-b3ad-43f3-bbc4-226ea7be866d","ios":"levelo://app?vid=f57ddc5d-b3ad-43f3-bbc4-226ea7be866d"},"vehicle_type_id":"4","last_reported":1781465384,"current_range_meters":4000,"station_id":"","pricing_plan_id":"cebpf4jnsgd1na2vs0mg"},{"bike_id":"5e644823-0361-426b-bc16-4ac715221997","system_id":"levelo_inurba_marseille","lat":43.28706,"lon":5.46664,"is_reserved":false,"is_disabled":false,"rental_uris":{"android":"levelo://app?vid=5e644823-0361-426b-bc16-4ac715221997","ios":"levelo://app?vid=5e644823-0361-426b-bc16-4ac715221997"},"vehicle_type_id":"4","last_reported":1781465384,"current_range_meters":4000,"station_id":"st_d6tc3vkotcvc738tfjhg","pricing_plan_id":"cebpf4jnsgd1na2vs0mg"},{"bike_id":"7fb36cd0-80f7-4080-967a-1c5814634e99","system_id":"levelo_inurba_marseille","lat":43.29202,"lon":5.39307,"is_reserved":false,"is_disabled":false,"rental_uris":{"android":"levelo://app?vid=7fb36cd0-80f7-4080-967a-1c5814634e99","ios":"levelo://app?vid=7fb36cd0-80f7-4080-967a-1c5814634e99"},"vehicle_type_id":"4","last_reported":1781465384,"current_range_meters":4000,"station_id":"ce4bh192rcd13ifvqdd0","pricing_plan_id":"cebpf4jnsgd1na2vs0mg"},{"bike_id":"7be23ccc-c8a7-4c49-be5c-c3bec036a174","system_id":"levelo_inurba_marseille","lat":43.286105,"lon":5.351076,"is_reserved":false,"is_disabled":false,"rental_uris":{"android":"levelo://app?vid=7be23ccc-c8a7-4c49-be5c-c3bec036a174","ios":"levelo://app?vid=7be23ccc-c8a7-4c49-be5c-c3bec036a174"},"vehicle_type_id":"4","last_reported":1781465384,"current_range_meters":4000,"station_id":"ce4bhch2rcd13ifvqeug","pricing_plan_id":"cebpf4jnsgd1na2vs0mg"},{"bike_id":"948e7dcf-c12b-4293-8ebe-ef6b71975867","system_id":"levelo_inurba_marseille","lat":43.24173,"lon":5.36398,"is_reserved":false,"is_disabled":true,"rental_uris":{"android":"levelo://app?vid=948e7dcf-c12b-4293-8ebe-ef6b71975867","ios":"levelo://app?vid=948e7dcf-c12b-4293-8ebe-ef6b71975867"},"vehicle_type_id":"4","last_reported":1781465384,"current_range_meters":4000,"station_id":"cpo36qri1sfpv3e86is0","pricing_plan_id":"cebpf4jnsgd1na2vs0mg"},{"bike_id":"b00d8bd0-800e-45a7-ac0f-43138ef8f6fe","system_id":"levelo_inurba_marseille","lat":43.26799,"lon":5.39408,"is_reserved":false,"is_disabled":true,"rental_uris":{"android":"levelo://app?vid=b00d8bd0-800e-45a7-ac0f-43138ef8f6fe","ios":"levelo://app?vid=b00d8bd0-800e-45a7-ac0f-43138ef8f6fe"},"vehicle_type_id":"4","last_reported":1781465384,"current_range_meters":4000,"station_id":"ce4bhh12rcd13ifvqfg0","pricing_plan_id":"cebpf4jnsgd1na2vs0mg"},{"bike_id":"0dc905d2-65b2-402f-8b20-d59d4322b5e3","system_id":"levelo_inurba_marseille","lat":43.28034,"lon":5.36947,"is_reserved":false,"is_disabled":false,"rental_uris":{"android":"levelo://app?vid=0dc905d2-65b2-402f-8b20-d59d4322b5e3","ios":"levelo://app?vid=0dc905d2-65b2-402f-8b20-d59d4322b5e3"},"vehicle_type_id":"4","last_reported":1781465384,"current_range_meters":4000,"station_id":"ce4bha12rcd13ifvqef0","pricing_plan_id":"cebpf4jnsgd1na2vs0mg"},{"bike_id":"11d443e6-9963-4610-80cb-0bed5c7b2bf6","system_id":"levelo_inurba_marseille","lat":43.31504,"lon":5.37317,"is_reserved":false,"is_disabled":false,"rental_uris":{"android":"levelo://app?vid=11d443e6-9963-4610-80cb-0bed5c7b2bf6","ios":"levelo://app?vid=11d443e6-9963-4610-80cb-0bed5c7b2bf6"},"vehicle_type_id":"4","last_reported":1781465384,"current_range_meters":4000,"station_id":"ce4bgt12rcd13ifvqcd0","pricing_plan_id":"cebpf4jnsgd1na2vs0mg"},{"bike_id":"85ff7ea8-5fb7-4bf1-8a5b-dee5e4773c13","system_id":"levelo_inurba_marseille","lat":43.31944,"lon":5.39451,"is_reserved":false,"is_disabled":false,"rental_uris":{"android":"levelo://app?vid=85ff7ea8-5fb7-4bf1-8a5b-dee5e4773c13","ios":"levelo://app?vid=85ff7ea8-5fb7-4bf1-8a5b-dee5e4773c13"},"vehicle_type_id":"4","last_reported":1781465384,"current_range_meters":4000,"station_id":"","pricing_plan_id":"cebpf4jnsgd1na2vs0mg"},{"bike_id":"1d076b21-5c9c-434d-b37b-20c01d8e3196","system_id":"levelo_inurba_marseille","lat":43.28444,"lon":5.37537,"is_reserved":false,"is_disabled":false,"rental_uris":{"android":"levelo://app?vid=1d076b21-5c9c-434d-b37b-20c01d8e3196","ios":"levelo://app?vid=1d076b21-5c9c-434d-b37b-20c01d8e3196"},"vehicle_type_id":"4","last_reported":1781465384,"current_range_meters":4000,"station_id":"","pricing_plan_id":"cebpf4jnsgd1na2vs0mg"},{"bike_id":"628dfe28-699f-46b4-a571-f8adcc6b181e","system_id":"levelo_inurba_marseille","lat":43.298388,"lon":5.405566,"is_reserved":false,"is_disabled":false,"rental_uris":{"android":"levelo://app?vid=628dfe28-699f-46b4-a571-f8adcc6b181e","ios":"levelo://app?vid=628dfe28-699f-46b4-a571-f8adcc6b181e"},"vehicle_type_id":"4","last_reported":1781465384,"current_range_meters":4000,"station_id":"","pricing_plan_id":"cebpf4jnsgd1na2vs0mg"},{"bike_id":"1ad3b388-7f05-40c4-b2be-92a0734b3aef","system_id":"levelo_inurba_marseille","lat":43.27791,"lon":5.42756,"is_reserved":false,"is_disabled":false,"rental_uris":{"android":"levelo://app?vid=1ad3b388-7f05-40c4-b2be-92a0734b3aef","ios":"levelo://app?vid=1ad3b388-7f05-40c4-b2be-92a0734b3aef"},"vehicle_type_id":"4","last_reported":1781465384,"current_range_meters":4400,"station_id":"","pricing_plan_id":"cebpf4jnsgd1na2vs0mg"},{"bike_id":"2d5036af-f9df-45c6-97e4-648868345309","system_id":"levelo_inurba_marseille","lat":43.32538,"lon":5.38749,"is_reserved":false,"is_disabled":false,"rental_uris":{"android":"levelo://app?vid=2d5036af-f9df-45c6-97e4-648868345309","ios":"levelo://app?vid=2d5036af-f9df-45c6-97e4-648868345309"},"vehicle_type_id":"4","last_reported":1781465384,"current_range_meters":4400,"station_id":"","pricing_plan_id":"cebpf4jnsgd1na2vs0mg"},{"bike_id":"a92f5016-5ebd-49d9-977d-3d5368454a5e","system_id":"levelo_inurba_marseille","lat":43.32494,"lon":5.383,"is_reserved":false,"is_disabled":false,"rental_uris":{"android":"levelo://app?vid=a92f5016-5ebd-49d9-977d-3d5368454a5e","ios":"levelo://app?vid=a92f5016-5ebd-49d9-977d-3d5368454a5e"},"vehicle_type_id":"4","last_reported":1781465384,"current_range_meters":4400,"station_id":"st_d4asgbiv49dc73anf9m0","pricing_plan_id":"cebpf4jnsgd1na2vs0mg"},{"bike_id":"1a746cfd-7a30-4a41-a975-7c04a07f25f0","system_id":"levelo_inurba_marseille","lat":43.30301,"lon":5.39199,"is_reserved":false,"is_disabled":false,"rental_uris":{"android":"levelo://app?vid=1a746cfd-7a30-4a41-a975-7c04a07f25f0","ios":"levelo://app?vid=1a746cfd-7a30-4a41-a975-7c04a07f25f0"},"vehicle_type_id":"4","last_reported":1781465384,"current_range_meters":4400,"station_id":"ce4bgkh2rcd13ifvqbk0","pricing_plan_id":"cebpf4jnsgd1na2vs0mg"},{"bike_id":"a0dd9469-4dfb-41a0-ab51-6704d990b4c6","system_id":"levelo_inurba_marseille","lat":43.27652,"lon":5.38928,"is_reserved":false,"is_disabled":true,"rental_uris":{"android":"levelo://app?vid=a0dd9469-4dfb-41a0-ab51-6704d990b4c6","ios":"levelo://app?vid=a0dd9469-4dfb-41a0-ab51-6704d990b4c6"},"vehicle_type_id":"4","last_reported":1781465384,"current_range_meters":4400,"station_id":"ce4bhi12rcd13ifvqfo0","pricing_plan_id":"cebpf4jnsgd1na2vs0mg"},{"bike_id":"ac284c13-f223-4d70-a5b8-a70a4c67713a","system_id":"levelo_inurba_marseille","lat":43.30306,"lon":5.39198,"is_reserved":false,"is_disabled":false,"rental_uris":{"android":"levelo://app?vid=ac284c13-f223-4d70-a5b8-a70a4c67713a","ios":"levelo://app?vid=ac284c13-f223-4d70-a5b8-a70a4c67713a"},"vehicle_type_id":"4","last_reported":1781465384,"current_range_meters":4400,"station_id":"ce4bgkh2rcd13ifvqbk0","pricing_plan_id":"cebpf4jnsgd1na2vs0mg"},{"bike_id":"ec22a563-e33c-4135-95fa-b2d6fabbb28b","system_id":"levelo_inurba_marseille","lat":43.29537,"lon":5.38535,"is_reserved":false,"is_disabled":false,"rental_uris":{"android":"levelo://app?vid=ec22a563-e33c-4135-95fa-b2d6fabbb28b","ios":"levelo://app?vid=ec22a563-e33c-4135-95fa-b2d6fabbb28b"},"vehicle_type_id":"4","last_reported":1781465384,"current_range_meters":4400,"station_id":"ce4bgih2rcd13ifvqba0","pricing_plan_id":"cebpf4jnsgd1na2vs0mg"},{"bike_id":"c2bfcf75-197f-4d0d-8b20-256d9aaad722","system_id":"levelo_inurba_marseille","lat":43.32117,"lon":5.36759,"is_reserved":false,"is_disabled":false,"rental_uris":{"android":"levelo://app?vid=c2bfcf75-197f-4d0d-8b20-256d9aaad722","ios":"levelo://app?vid=c2bfcf75-197f-4d0d-8b20-256d9aaad722"},"vehicle_type_id":"4","last_reported":1781465384,"current_range_meters":4400,"station_id":"ce4bhrh2rcd13ifvqhug","pricing_plan_id":"cebpf4jnsgd1na2vs0mg"},{"bike_id":"a50af965-b87b-4f91-9b9a-3e26dc71f7c1","system_id":"levelo_inurba_marseille","lat":43.29059,"lon":5.43973,"is_reserved":false,"is_disabled":false,"rental_uris":{"android":"levelo://app?vid=a50af965-b87b-4f91-9b9a-3e26dc71f7c1","ios":"levelo://app?vid=a50af965-b87b-4f91-9b9a-3e26dc71f7c1"},"vehicle_type_id":"4","last_reported":1781465384,"current_range_meters":4400,"station_id":"","pricing_plan_id":"cebpf4jnsgd1na2vs0mg"},{"bike_id":"b1c34ba5-7156-46bd-ab53-1ac3aab80363","system_id":"levelo_inurba_marseille","lat":43.29261,"lon":5.38434,"is_reserved":false,"is_disabled":false,"rental_uris":{"android":"levelo://app?vid=b1c34ba5-7156-46bd-ab53-1ac3aab80363","ios":"levelo://app?vid=b1c34ba5-7156-46bd-ab53-1ac3aab80363"},"vehicle_type_id":"4","last_reported":1781465384,"current_range_meters":4400,"station_id":"ce4bh692rcd13ifvqea0","pricing_plan_id":"cebpf4jnsgd1na2vs0mg"},{"bike_id":"ff183300-e381-4623-b20d-53a94b47ae87","system_id":"levelo_inurba_marseille","lat":43.32591,"lon":5.36521,"is_reserved":false,"is_disabled":false,"rental_uris":{"android":"levelo://app?vid=ff183300-e381-4623-b20d-53a94b47ae87","ios":"levelo://app?vid=ff183300-e381-4623-b20d-53a94b47ae87"},"vehicle_type_id":"4","last_reported":1781465384,"current_range_meters":4400,"station_id":"","pricing_plan_id":"cebpf4jnsgd1na2vs0mg"},{"bike_id":"db6b7eb4-7a2b-44e1-ad9c-0255b0411553","system_id":"levelo_inurba_marseille","lat":43.31996,"lon":5.38142,"is_reserved":false,"is_disabled":false,"rental_uris":{"android":"levelo://app?vid=db6b7eb4-7a2b-44e1-ad9c-0255b0411553","ios":"levelo://app?vid=db6b7eb4-7a2b-44e1-ad9c-0255b0411553"},"vehicle_type_id":"4","last_reported":1781465384,"current_range_meters":4400,"station_id":"ce4bhr12rcd13ifvqhpg","pricing_plan_id":"cebpf4jnsgd1na2vs0mg"},{"bike_id":"1d430f8c-7635-480d-a468-dfcd18a04e36","system_id":"levelo_inurba_marseille","lat":43.29255,"lon":5.3844,"is_reserved":false,"is_disabled":false,"rental_uris":{"android":"levelo://app?vid=1d430f8c-7635-480d-a468-dfcd18a04e36","ios":"levelo://app?vid=1d430f8c-7635-480d-a468-dfcd18a04e36"},"vehicle_type_id":"4","last_reported":1781465384,"current_range_meters":4400,"station_id":"ce4bh692rcd13ifvqea0","pricing_plan_id":"cebpf4jnsgd1na2vs0mg"},{"bike_id":"0387dfa1-2273-47ca-bbbe-8b278c0d4017","system_id":"levelo_inurba_marseille","lat":43.29706,"lon":5.37704,"is_reserved":false,"is_disabled":false,"rental_uris":{"android":"levelo://app?vid=0387dfa1-2273-47ca-bbbe-8b278c0d4017","ios":"levelo://app?vid=0387dfa1-2273-47ca-bbbe-8b278c0d4017"},"vehicle_type_id":"4","last_reported":1781465384,"current_range_meters":4400,"station_id":"ce4bgkh2rcd13ifvqbl0","pricing_plan_id":"cebpf4jnsgd1na2vs0mg"},{"bike_id":"7e6df72d-f8f0-458d-b4e9-9aea42173f81","system_id":"levelo_inurba_marseille","lat":43.28602,"lon":5.37067,"is_reserved":false,"is_disabled":false,"rental_uris":{"android":"levelo://app?vid=7e6df72d-f8f0-458d-b4e9-9aea42173f81","ios":"levelo://app?vid=7e6df72d-f8f0-458d-b4e9-9aea42173f81"},"vehicle_type_id":"4","last_reported":1781465384,"current_range_meters":4400,"station_id":"ce4bht12rcd13ifvqi60","pricing_plan_id":"cebpf4jnsgd1na2vs0mg"},{"bike_id":"207d34b6-3a83-4d90-938a-80aab0b6e29f","system_id":"levelo_inurba_marseille","lat":43.250042,"lon":5.389242,"is_reserved":false,"is_disabled":false,"rental_uris":{"android":"levelo://app?vid=207d34b6-3a83-4d90-938a-80aab0b6e29f","ios":"levelo://app?vid=207d34b6-3a83-4d90-938a-80aab0b6e29f"},"vehicle_type_id":"4","last_reported":1781465384,"current_range_meters":4800,"station_id":"ce4bhgp2rcd13ifvqfd0","pricing_plan_id":"cebpf4jnsgd1na2vs0mg"},{"bike_id":"f3a91e28-e310-4d83-8da8-b3527a94e328","system_id":"levelo_inurba_marseille","lat":43.26967,"lon":5.38627,"is_reserved":false,"is_disabled":false,"rental_uris":{"android":"levelo://app?vid=f3a91e28-e310-4d83-8da8-b3527a94e328","ios":"levelo://app?vid=f3a91e28-e310-4d83-8da8-b3527a94e328"},"vehicle_type_id":"4","last_reported":1781465384,"current_range_meters":4800,"station_id":"ce4bhh92rcd13ifvqfh0","pricing_plan_id":"cebpf4jnsgd1na2vs0mg"},{"bike_id":"a47f7ec5-339e-411f-a9f3-d5a489312e95","system_id":"levelo_inurba_marseille","lat":43.27992,"lon":5.35175,"is_reserved":false,"is_disabled":false,"rental_uris":{"android":"levelo://app?vid=a47f7ec5-339e-411f-a9f3-d5a489312e95","ios":"levelo://app?vid=a47f7ec5-339e-411f-a9f3-d5a489312e95"},"vehicle_type_id":"4","last_reported":1781465384,"current_range_meters":4800,"station_id":"","pricing_plan_id":"cebpf4jnsgd1na2vs0mg"},{"bike_id":"72600ba3-757c-4f2f-8f2e-cd5bd07ccb18","system_id":"levelo_inurba_marseille","lat":43.3171,"lon":5.37819,"is_reserved":false,"is_disabled":false,"rental_uris":{"android":"levelo://app?vid=72600ba3-757c-4f2f-8f2e-cd5bd07ccb18","ios":"levelo://app?vid=72600ba3-757c-4f2f-8f2e-cd5bd07ccb18"},"vehicle_type_id":"4","last_reported":1781465384,"current_range_meters":4800,"station_id":"ce4bgth2rcd13ifvqch0","pricing_plan_id":"cebpf4jnsgd1na2vs0mg"},{"bike_id":"f2ba73c5-fc69-4601-a3f3-cbbbb5b9b11d","system_id":"levelo_inurba_marseille","lat":43.28327,"lon":5.3878,"is_reserved":false,"is_disabled":false,"rental_uris":{"android":"levelo://app?vid=f2ba73c5-fc69-4601-a3f3-cbbbb5b9b11d","ios":"levelo://app?vid=f2ba73c5-fc69-4601-a3f3-cbbbb5b9b11d"},"vehicle_type_id":"4","last_reported":1781465384,"current_range_meters":4800,"station_id":"","pricing_plan_id":"cebpf4jnsgd1na2vs0mg"},{"bike_id":"1aa69796-4597-4e19-90ef-464fe6857eba","system_id":"levelo_inurba_marseille","lat":43.29471,"lon":5.44523,"is_reserved":false,"is_disabled":false,"rental_uris":{"android":"levelo://app?vid=1aa69796-4597-4e19-90ef-464fe6857eba","ios":"levelo://app?vid=1aa69796-4597-4e19-90ef-464fe6857eba"},"vehicle_type_id":"4","last_reported":1781465384,"current_range_meters":4800,"station_id":"","pricing_plan_id":"cebpf4jnsgd1na2vs0mg"},{"bike_id":"1b5c7b8e-75a6-4e5b-a896-3aa61ed24deb","system_id":"levelo_inurba_marseille","lat":43.29518,"lon":5.39391,"is_reserved":false,"is_disabled":true,"rental_uris":{"android":"levelo://app?vid=1b5c7b8e-75a6-4e5b-a896-3aa61ed24deb","ios":"levelo://app?vid=1b5c7b8e-75a6-4e5b-a896-3aa61ed24deb"},"vehicle_type_id":"4","last_reported":1781465384,"current_range_meters":4800,"station_id":"ce4bh292rcd13ifvqdf0","pricing_plan_id":"cebpf4jnsgd1na2vs0mg"},{"bike_id":"7ab101d2-fd7e-47cf-982d-f85b01b5cea8","system_id":"levelo_inurba_marseille","lat":43.29043,"lon":5.37015,"is_reserved":false,"is_disabled":false,"rental_uris":{"android":"levelo://app?vid=7ab101d2-fd7e-47cf-982d-f85b01b5cea8","ios":"levelo://app?vid=7ab101d2-fd7e-47cf-982d-f85b01b5cea8"},"vehicle_type_id":"4","last_reported":1781465384,"current_range_meters":4800,"station_id":"","pricing_plan_id":"cebpf4jnsgd1na2vs0mg"},{"bike_id":"8fc57669-37f4-430c-999e-c1b6380c8b41","system_id":"levelo_inurba_marseille","lat":43.29903,"lon":5.39712,"is_reserved":false,"is_disabled":false,"rental_uris":{"android":"levelo://app?vid=8fc57669-37f4-430c-999e-c1b6380c8b41","ios":"levelo://app?vid=8fc57669-37f4-430c-999e-c1b6380c8b41"},"vehicle_type_id":"4","last_reported":1781465384,"current_range_meters":4800,"station_id":"ce4bh0h2rcd13ifvqd50","pricing_plan_id":"cebpf4jnsgd1na2vs0mg"},{"bike_id":"67b5d997-f3d7-4ed9-aa45-e579b87e467a","system_id":"levelo_inurba_marseille","lat":43.33763,"lon":5.37419,"is_reserved":false,"is_disabled":false,"rental_uris":{"android":"levelo://app?vid=67b5d997-f3d7-4ed9-aa45-e579b87e467a","ios":"levelo://app?vid=67b5d997-f3d7-4ed9-aa45-e579b87e467a"},"vehicle_type_id":"4","last_reported":1781465384,"current_range_meters":4800,"station_id":"","pricing_plan_id":"cebpf4jnsgd1na2vs0mg"},{"bike_id":"1fdfcc6e-475e-4c5b-bb23-fd708188262e","system_id":"levelo_inurba_marseille","lat":43.2894,"lon":5.36404,"is_reserved":false,"is_disabled":false,"rental_uris":{"android":"levelo://app?vid=1fdfcc6e-475e-4c5b-bb23-fd708188262e","ios":"levelo://app?vid=1fdfcc6e-475e-4c5b-bb23-fd708188262e"},"vehicle_type_id":"4","last_reported":1781465384,"current_range_meters":4800,"station_id":"ce4bhc92rcd13ifvqetg","pricing_plan_id":"cebpf4jnsgd1na2vs0mg"},{"bike_id":"beb3402d-8816-478f-a63c-149f2f32b416","system_id":"levelo_inurba_marseille","lat":43.29372,"lon":5.37839,"is_reserved":false,"is_disabled":false,"rental_uris":{"android":"levelo://app?vid=beb3402d-8816-478f-a63c-149f2f32b416","ios":"levelo://app?vid=beb3402d-8816-478f-a63c-149f2f32b416"},"vehicle_type_id":"4","last_reported":1781465384,"current_range_meters":4800,"station_id":"ce4bgjh2rcd13ifvqbf0","pricing_plan_id":"cebpf4jnsgd1na2vs0mg"},{"bike_id":"52e89d55-3f30-4613-8302-671a182f499c","system_id":"levelo_inurba_marseille","lat":43.28068,"lon":5.34771,"is_reserved":false,"is_disabled":false,"rental_uris":{"android":"levelo://app?vid=52e89d55-3f30-4613-8302-671a182f499c","ios":"levelo://app?vid=52e89d55-3f30-4613-8302-671a182f499c"},"vehicle_type_id":"4","last_reported":1781465384,"current_range_meters":4800,"station_id":"","pricing_plan_id":"cebpf4jnsgd1na2vs0mg"},{"bike_id":"20323ad0-3505-4656-b820-0bee988ed1a1","system_id":"levelo_inurba_marseille","lat":43.28605,"lon":5.37066,"is_reserved":false,"is_disabled":false,"rental_uris":{"android":"levelo://app?vid=20323ad0-3505-4656-b820-0bee988ed1a1","ios":"levelo://app?vid=20323ad0-3505-4656-b820-0bee988ed1a1"},"vehicle_type_id":"4","last_reported":1781465384,"current_range_meters":4800,"station_id":"ce4bht12rcd13ifvqi60","pricing_plan_id":"cebpf4jnsgd1na2vs0mg"},{"bike_id":"870b7c7e-0302-4046-acda-edcb97737c5b","system_id":"levelo_inurba_marseille","lat":43.30301,"lon":5.39197,"is_reserved":false,"is_disabled":false,"rental_uris":{"android":"levelo://app?vid=870b7c7e-0302-4046-acda-edcb97737c5b","ios":"levelo://app?vid=870b7c7e-0302-4046-acda-edcb97737c5b"},"vehicle_type_id":"4","last_reported":1781465384,"current_range_meters":4800,"station_id":"ce4bgkh2rcd13ifvqbk0","pricing_plan_id":"cebpf4jnsgd1na2vs0mg"},{"bike_id":"4cc8727e-315f-44e0-81e3-a90ea2b5364d","system_id":"levelo_inurba_marseille","lat":43.29533,"lon":5.38543,"is_reserved":false,"is_disabled":false,"rental_uris":{"android":"levelo://app?vid=4cc8727e-315f-44e0-81e3-a90ea2b5364d","ios":"levelo://app?vid=4cc8727e-315f-44e0-81e3-a90ea2b5364d"},"vehicle_type_id":"4","last_reported":1781465384,"current_range_meters":4800,"station_id":"ce4bgih2rcd13ifvqba0","pricing_plan_id":"cebpf4jnsgd1na2vs0mg"},{"bike_id":"6b06b27e-58e8-4bac-b9fb-8ea422e47f54","system_id":"levelo_inurba_marseille","lat":43.30932,"lon":5.4014,"is_reserved":false,"is_disabled":false,"rental_uris":{"android":"levelo://app?vid=6b06b27e-58e8-4bac-b9fb-8ea422e47f54","ios":"levelo://app?vid=6b06b27e-58e8-4bac-b9fb-8ea422e47f54"},"vehicle_type_id":"4","last_reported":1781465384,"current_range_meters":4800,"station_id":"ce4bgvp2rcd13ifvqct0","pricing_plan_id":"cebpf4jnsgd1na2vs0mg"},{"bike_id":"b5390e16-7a02-4eef-a29e-1c56937a2c6b","system_id":"levelo_inurba_marseille","lat":43.26678,"lon":5.38267,"is_reserved":false,"is_disabled":false,"rental_uris":{"android":"levelo://app?vid=b5390e16-7a02-4eef-a29e-1c56937a2c6b","ios":"levelo://app?vid=b5390e16-7a02-4eef-a29e-1c56937a2c6b"},"vehicle_type_id":"4","last_reported":1781465384,"current_range_meters":4800,"station_id":"ce4bhg92rcd13ifvqf90","pricing_plan_id":"cebpf4jnsgd1na2vs0mg"},{"bike_id":"bc9bb278-9a3f-444c-9ee4-086e46a06286","system_id":"levelo_inurba_marseille","lat":43.22259,"lon":5.40489,"is_reserved":false,"is_disabled":false,"rental_uris":{"android":"levelo://app?vid=bc9bb278-9a3f-444c-9ee4-086e46a06286","ios":"levelo://app?vid=bc9bb278-9a3f-444c-9ee4-086e46a06286"},"vehicle_type_id":"4","last_reported":1781465384,"current_range_meters":4800,"station_id":"","pricing_plan_id":"cebpf4jnsgd1na2vs0mg"},{"bike_id":"96412c45-d01e-4a01-b027-417507bf45a0","system_id":"levelo_inurba_marseille","lat":43.30948,"lon":5.3903,"is_reserved":false,"is_disabled":false,"rental_uris":{"android":"levelo://app?vid=96412c45-d01e-4a01-b027-417507bf45a0","ios":"levelo://app?vid=96412c45-d01e-4a01-b027-417507bf45a0"},"vehicle_type_id":"4","last_reported":1781465384,"current_range_meters":4800,"station_id":"ce4bgup2rcd13ifvqco0","pricing_plan_id":"cebpf4jnsgd1na2vs0mg"},{"bike_id":"e3b608bb-0b38-42ac-9a08-5311e8ac8e34","system_id":"levelo_inurba_marseille","lat":43.319928,"lon":5.381667,"is_reserved":false,"is_disabled":false,"rental_uris":{"android":"levelo://app?vid=e3b608bb-0b38-42ac-9a08-5311e8ac8e34","ios":"levelo://app?vid=e3b608bb-0b38-42ac-9a08-5311e8ac8e34"},"vehicle_type_id":"4","last_reported":1781465384,"current_range_meters":4800,"station_id":"ce4bhr12rcd13ifvqhpg","pricing_plan_id":"cebpf4jnsgd1na2vs0mg"},{"bike_id":"717fb4f2-4fad-4ef8-adc2-a0d63148b06e","system_id":"levelo_inurba_marseille","lat":43.26789,"lon":5.39409,"is_reserved":false,"is_disabled":false,"rental_uris":{"android":"levelo://app?vid=717fb4f2-4fad-4ef8-adc2-a0d63148b06e","ios":"levelo://app?vid=717fb4f2-4fad-4ef8-adc2-a0d63148b06e"},"vehicle_type_id":"4","last_reported":1781465384,"current_range_meters":4800,"station_id":"ce4bhh12rcd13ifvqfg0","pricing_plan_id":"cebpf4jnsgd1na2vs0mg"},{"bike_id":"b163e805-f15e-427e-861b-97f5dc843472","system_id":"levelo_inurba_marseille","lat":43.29025,"lon":5.38625,"is_reserved":false,"is_disabled":false,"rental_uris":{"android":"levelo://app?vid=b163e805-f15e-427e-861b-97f5dc843472","ios":"levelo://app?vid=b163e805-f15e-427e-861b-97f5dc843472"},"vehicle_type_id":"4","last_reported":1781465384,"current_range_meters":4800,"station_id":"ce4bh4p2rcd13ifvqe0g","pricing_plan_id":"cebpf4jnsgd1na2vs0mg"},{"bike_id":"96b2ab90-d8d2-49df-9035-0467b0e6c086","system_id":"levelo_inurba_marseille","lat":43.29826,"lon":5.4406,"is_reserved":false,"is_disabled":false,"rental_uris":{"android":"levelo://app?vid=96b2ab90-d8d2-49df-9035-0467b0e6c086","ios":"levelo://app?vid=96b2ab90-d8d2-49df-9035-0467b0e6c086"},"vehicle_type_id":"4","last_reported":1781465384,"current_range_meters":4800,"station_id":"st_d3jp68qikq2c7381ktn0","pricing_plan_id":"cebpf4jnsgd1na2vs0mg"},{"bike_id":"e6268e01-408c-4640-b5e2-0cc5f3b5f674","system_id":"levelo_inurba_marseille","lat":43.33539,"lon":5.37465,"is_reserved":false,"is_disabled":false,"rental_uris":{"android":"levelo://app?vid=e6268e01-408c-4640-b5e2-0cc5f3b5f674","ios":"levelo://app?vid=e6268e01-408c-4640-b5e2-0cc5f3b5f674"},"vehicle_type_id":"4","last_reported":1781465384,"current_range_meters":4800,"station_id":"st_d46tts09ee8s73dlu43g","pricing_plan_id":"cebpf4jnsgd1na2vs0mg"},{"bike_id":"2f5a2eb1-a60a-4fe8-a5aa-002259731410","system_id":"levelo_inurba_marseille","lat":43.31082,"lon":5.37164,"is_reserved":false,"is_disabled":true,"rental_uris":{"android":"levelo://app?vid=2f5a2eb1-a60a-4fe8-a5aa-002259731410","ios":"levelo://app?vid=2f5a2eb1-a60a-4fe8-a5aa-002259731410"},"vehicle_type_id":"4","last_reported":1781465384,"current_range_meters":4800,"station_id":"st_d4kl2rp97mjs73e7tdfg","pricing_plan_id":"cebpf4jnsgd1na2vs0mg"},{"bike_id":"d729573f-a86b-41d2-bc51-bd23c133868d","system_id":"levelo_inurba_marseille","lat":43.31502,"lon":5.38391,"is_reserved":false,"is_disabled":false,"rental_uris":{"android":"levelo://app?vid=d729573f-a86b-41d2-bc51-bd23c133868d","ios":"levelo://app?vid=d729573f-a86b-41d2-bc51-bd23c133868d"},"vehicle_type_id":"4","last_reported":1781465384,"current_range_meters":4800,"station_id":"","pricing_plan_id":"cebpf4jnsgd1na2vs0mg"},{"bike_id":"b470b387-d97c-4cc6-abf1-b6961b177f6d","system_id":"levelo_inurba_marseille","lat":43.27205,"lon":5.39184,"is_reserved":false,"is_disabled":false,"rental_uris":{"android":"levelo://app?vid=b470b387-d97c-4cc6-abf1-b6961b177f6d","ios":"levelo://app?vid=b470b387-d97c-4cc6-abf1-b6961b177f6d"},"vehicle_type_id":"4","last_reported":1781465384,"current_range_meters":4800,"station_id":"ce4bhhp2rcd13ifvqfm0","pricing_plan_id":"cebpf4jnsgd1na2vs0mg"},{"bike_id":"8c35e00d-f145-4990-9075-f1452b27a592","system_id":"levelo_inurba_marseille","lat":43.21201,"lon":5.35051,"is_reserved":false,"is_disabled":false,"rental_uris":{"android":"levelo://app?vid=8c35e00d-f145-4990-9075-f1452b27a592","ios":"levelo://app?vid=8c35e00d-f145-4990-9075-f1452b27a592"},"vehicle_type_id":"4","last_reported":1781465384,"current_range_meters":5600,"station_id":"st_cvj6sg6p6f1abm77japg","pricing_plan_id":"cebpf4jnsgd1na2vs0mg"},{"bike_id":"9253ff05-6c08-4bec-80c8-fbed30b5d6a4","system_id":"levelo_inurba_marseille","lat":43.24645,"lon":5.38877,"is_reserved":false,"is_disabled":false,"rental_uris":{"android":"levelo://app?vid=9253ff05-6c08-4bec-80c8-fbed30b5d6a4","ios":"levelo://app?vid=9253ff05-6c08-4bec-80c8-fbed30b5d6a4"},"vehicle_type_id":"4","last_reported":1781465384,"current_range_meters":5600,"station_id":"ce4bhg12rcd13ifvqf60","pricing_plan_id":"cebpf4jnsgd1na2vs0mg"},{"bike_id":"3a199460-21e2-4c9c-9337-8ee640a6f060","system_id":"levelo_inurba_marseille","lat":43.29056,"lon":5.37149,"is_reserved":false,"is_disabled":false,"rental_uris":{"android":"levelo://app?vid=3a199460-21e2-4c9c-9337-8ee640a6f060","ios":"levelo://app?vid=3a199460-21e2-4c9c-9337-8ee640a6f060"},"vehicle_type_id":"4","last_reported":1781465384,"current_range_meters":5600,"station_id":"ce4bh5p2rcd13ifvqe4g","pricing_plan_id":"cebpf4jnsgd1na2vs0mg"},{"bike_id":"18d3753c-9feb-4a72-9030-d19f09b8a97b","system_id":"levelo_inurba_marseille","lat":43.29862,"lon":5.37902,"is_reserved":false,"is_disabled":false,"rental_uris":{"android":"levelo://app?vid=18d3753c-9feb-4a72-9030-d19f09b8a97b","ios":"levelo://app?vid=18d3753c-9feb-4a72-9030-d19f09b8a97b"},"vehicle_type_id":"4","last_reported":1781465384,"current_range_meters":5600,"station_id":"","pricing_plan_id":"cebpf4jnsgd1na2vs0mg"},{"bike_id":"64e4b08a-c359-43b8-8ee7-ddba2a381259","system_id":"levelo_inurba_marseille","lat":43.29627,"lon":5.37708,"is_reserved":false,"is_disabled":false,"rental_uris":{"android":"levelo://app?vid=64e4b08a-c359-43b8-8ee7-ddba2a381259","ios":"levelo://app?vid=64e4b08a-c359-43b8-8ee7-ddba2a381259"},"vehicle_type_id":"4","last_reported":1781465384,"current_range_meters":5600,"station_id":"ce4bgi92rcd13ifvqb90","pricing_plan_id":"cebpf4jnsgd1na2vs0mg"},{"bike_id":"61704817-1327-4008-824f-2bfba68820ec","system_id":"levelo_inurba_marseille","lat":43.23902,"lon":5.37448,"is_reserved":false,"is_disabled":false,"rental_uris":{"android":"levelo://app?vid=61704817-1327-4008-824f-2bfba68820ec","ios":"levelo://app?vid=61704817-1327-4008-824f-2bfba68820ec"},"vehicle_type_id":"4","last_reported":1781465384,"current_range_meters":5600,"station_id":"st_d6sm7csbq4hs73f8fpjg","pricing_plan_id":"cebpf4jnsgd1na2vs0mg"},{"bike_id":"2efefc03-4edd-4e9c-8c65-243cf8199fbd","system_id":"levelo_inurba_marseille","lat":43.24462,"lon":5.42509,"is_reserved":false,"is_disabled":false,"rental_uris":{"android":"levelo://app?vid=2efefc03-4edd-4e9c-8c65-243cf8199fbd","ios":"levelo://app?vid=2efefc03-4edd-4e9c-8c65-243cf8199fbd"},"vehicle_type_id":"4","last_reported":1781465384,"current_range_meters":5600,"station_id":"st_d4a3vfp97mjs738cd8kg","pricing_plan_id":"cebpf4jnsgd1na2vs0mg"},{"bike_id":"9d5e43bc-0bf1-41b6-b34f-7bce4be45a87","system_id":"levelo_inurba_marseille","lat":43.27593,"lon":5.38404,"is_reserved":false,"is_disabled":false,"rental_uris":{"android":"levelo://app?vid=9d5e43bc-0bf1-41b6-b34f-7bce4be45a87","ios":"levelo://app?vid=9d5e43bc-0bf1-41b6-b34f-7bce4be45a87"},"vehicle_type_id":"4","last_reported":1781465384,"current_range_meters":5600,"station_id":"ce4bhh92rcd13ifvqfi0","pricing_plan_id":"cebpf4jnsgd1na2vs0mg"},{"bike_id":"644c35c5-da8b-45e4-8189-1a84ff37770e","system_id":"levelo_inurba_marseille","lat":43.26959,"lon":5.38608,"is_reserved":false,"is_disabled":true,"rental_uris":{"android":"levelo://app?vid=644c35c5-da8b-45e4-8189-1a84ff37770e","ios":"levelo://app?vid=644c35c5-da8b-45e4-8189-1a84ff37770e"},"vehicle_type_id":"4","last_reported":1781465384,"current_range_meters":5600,"station_id":"ce4bhh92rcd13ifvqfh0","pricing_plan_id":"cebpf4jnsgd1na2vs0mg"},{"bike_id":"fcbdd51f-fa24-4cc6-b92f-f3288e2d1c12","system_id":"levelo_inurba_marseille","lat":43.28706,"lon":5.46675,"is_reserved":false,"is_disabled":false,"rental_uris":{"android":"levelo://app?vid=fcbdd51f-fa24-4cc6-b92f-f3288e2d1c12","ios":"levelo://app?vid=fcbdd51f-fa24-4cc6-b92f-f3288e2d1c12"},"vehicle_type_id":"4","last_reported":1781465384,"current_range_meters":5600,"station_id":"st_d6tc3vkotcvc738tfjhg","pricing_plan_id":"cebpf4jnsgd1na2vs0mg"},{"bike_id":"c3d36f36-8454-4bae-8dc4-a36682eeb770","system_id":"levelo_inurba_marseille","lat":43.30785,"lon":5.37635,"is_reserved":false,"is_disabled":false,"rental_uris":{"android":"levelo://app?vid=c3d36f36-8454-4bae-8dc4-a36682eeb770","ios":"levelo://app?vid=c3d36f36-8454-4bae-8dc4-a36682eeb770"},"vehicle_type_id":"4","last_reported":1781465384,"current_range_meters":5600,"station_id":"ce4bgv92rcd13ifvqcq0","pricing_plan_id":"cebpf4jnsgd1na2vs0mg"},{"bike_id":"9dd4f3a8-39d5-43f7-9f51-1797629b3584","system_id":"levelo_inurba_marseille","lat":43.22525,"lon":5.3484,"is_reserved":false,"is_disabled":false,"rental_uris":{"android":"levelo://app?vid=9dd4f3a8-39d5-43f7-9f51-1797629b3584","ios":"levelo://app?vid=9dd4f3a8-39d5-43f7-9f51-1797629b3584"},"vehicle_type_id":"4","last_reported":1781465384,"current_range_meters":5600,"station_id":"st_cvj5dfep6f1abm77gieg","pricing_plan_id":"cebpf4jnsgd1na2vs0mg"},{"bike_id":"2ee4cf04-ab65-4c70-b0b1-eddb2827dfdb","system_id":"levelo_inurba_marseille","lat":43.29876,"lon":5.38914,"is_reserved":false,"is_disabled":false,"rental_uris":{"android":"levelo://app?vid=2ee4cf04-ab65-4c70-b0b1-eddb2827dfdb","ios":"levelo://app?vid=2ee4cf04-ab65-4c70-b0b1-eddb2827dfdb"},"vehicle_type_id":"4","last_reported":1781465384,"current_range_meters":5600,"station_id":"ce4bh392rcd13ifvqdl0","pricing_plan_id":"cebpf4jnsgd1na2vs0mg"},{"bike_id":"03003bd8-ea46-4a19-9eb6-cc4f13001db8","system_id":"levelo_inurba_marseille","lat":43.26805,"lon":5.4027,"is_reserved":false,"is_disabled":false,"rental_uris":{"android":"levelo://app?vid=03003bd8-ea46-4a19-9eb6-cc4f13001db8","ios":"levelo://app?vid=03003bd8-ea46-4a19-9eb6-cc4f13001db8"},"vehicle_type_id":"4","last_reported":1781465384,"current_range_meters":5600,"station_id":"ce501612rcd8frsf0b60","pricing_plan_id":"cebpf4jnsgd1na2vs0mg"},{"bike_id":"423f6182-a443-4c34-a818-81a8277ac3c4","system_id":"levelo_inurba_marseille","lat":43.22528,"lon":5.34831,"is_reserved":false,"is_disabled":false,"rental_uris":{"android":"levelo://app?vid=423f6182-a443-4c34-a818-81a8277ac3c4","ios":"levelo://app?vid=423f6182-a443-4c34-a818-81a8277ac3c4"},"vehicle_type_id":"4","last_reported":1781465384,"current_range_meters":5600,"station_id":"st_cvj5dfep6f1abm77gieg","pricing_plan_id":"cebpf4jnsgd1na2vs0mg"},{"bike_id":"96c93570-49a6-4c8f-a9bf-01851ebf410c","system_id":"levelo_inurba_marseille","lat":43.2848,"lon":5.38428,"is_reserved":false,"is_disabled":false,"rental_uris":{"android":"levelo://app?vid=96c93570-49a6-4c8f-a9bf-01851ebf410c","ios":"levelo://app?vid=96c93570-49a6-4c8f-a9bf-01851ebf410c"},"vehicle_type_id":"4","last_reported":1781465384,"current_range_meters":5600,"station_id":"ce4bh512rcd13ifvqe3g","pricing_plan_id":"cebpf4jnsgd1na2vs0mg"},{"bike_id":"e10f7e9e-cb30-401a-9a7d-da39d770b929","system_id":"levelo_inurba_marseille","lat":43.29194,"lon":5.39333,"is_reserved":false,"is_disabled":false,"rental_uris":{"android":"levelo://app?vid=e10f7e9e-cb30-401a-9a7d-da39d770b929","ios":"levelo://app?vid=e10f7e9e-cb30-401a-9a7d-da39d770b929"},"vehicle_type_id":"4","last_reported":1781465384,"current_range_meters":6000,"station_id":"ce4bh192rcd13ifvqdd0","pricing_plan_id":"cebpf4jnsgd1na2vs0mg"},{"bike_id":"b9ed88ad-c5fa-4807-91d8-8fc04b143201","system_id":"levelo_inurba_marseille","lat":43.29554,"lon":5.42278,"is_reserved":false,"is_disabled":false,"rental_uris":{"android":"levelo://app?vid=b9ed88ad-c5fa-4807-91d8-8fc04b143201","ios":"levelo://app?vid=b9ed88ad-c5fa-4807-91d8-8fc04b143201"},"vehicle_type_id":"4","last_reported":1781465384,"current_range_meters":6000,"station_id":"ce4bhph2rcd13ifvqhdg","pricing_plan_id":"cebpf4jnsgd1na2vs0mg"},{"bike_id":"8fea25ca-fb48-4384-9778-a8089f84f9ac","system_id":"levelo_inurba_marseille","lat":43.2969,"lon":5.38104,"is_reserved":false,"is_disabled":false,"rental_uris":{"android":"levelo://app?vid=8fea25ca-fb48-4384-9778-a8089f84f9ac","ios":"levelo://app?vid=8fea25ca-fb48-4384-9778-a8089f84f9ac"},"vehicle_type_id":"4","last_reported":1781465384,"current_range_meters":6000,"station_id":"","pricing_plan_id":"cebpf4jnsgd1na2vs0mg"},{"bike_id":"d1800741-fac1-4624-b995-5a057797ea03","system_id":"levelo_inurba_marseille","lat":43.27219,"lon":5.42348,"is_reserved":false,"is_disabled":false,"rental_uris":{"android":"levelo://app?vid=d1800741-fac1-4624-b995-5a057797ea03","ios":"levelo://app?vid=d1800741-fac1-4624-b995-5a057797ea03"},"vehicle_type_id":"4","last_reported":1781465384,"current_range_meters":6000,"station_id":"","pricing_plan_id":"cebpf4jnsgd1na2vs0mg"},{"bike_id":"72a68596-e19c-4a52-ba10-9bdae69e8aa7","system_id":"levelo_inurba_marseille","lat":43.26487,"lon":5.39548,"is_reserved":false,"is_disabled":true,"rental_uris":{"android":"levelo://app?vid=72a68596-e19c-4a52-ba10-9bdae69e8aa7","ios":"levelo://app?vid=72a68596-e19c-4a52-ba10-9bdae69e8aa7"},"vehicle_type_id":"4","last_reported":1781465384,"current_range_meters":6000,"station_id":"ce4bhi12rcd13ifvqfq0","pricing_plan_id":"cebpf4jnsgd1na2vs0mg"},{"bike_id":"333f976b-8b94-4e77-8fe8-133d43f32e35","system_id":"levelo_inurba_marseille","lat":43.29051,"lon":5.3921,"is_reserved":false,"is_disabled":false,"rental_uris":{"android":"levelo://app?vid=333f976b-8b94-4e77-8fe8-133d43f32e35","ios":"levelo://app?vid=333f976b-8b94-4e77-8fe8-133d43f32e35"},"vehicle_type_id":"4","last_reported":1781465384,"current_range_meters":6000,"station_id":"","pricing_plan_id":"cebpf4jnsgd1na2vs0mg"},{"bike_id":"9e30b12e-a175-424d-befd-cb5e72485c76","system_id":"levelo_inurba_marseille","lat":43.28224,"lon":5.3907,"is_reserved":false,"is_disabled":false,"rental_uris":{"android":"levelo://app?vid=9e30b12e-a175-424d-befd-cb5e72485c76","ios":"levelo://app?vid=9e30b12e-a175-424d-befd-cb5e72485c76"},"vehicle_type_id":"4","last_reported":1781465384,"current_range_meters":6000,"station_id":"ce4bhn92rcd13ifvqgsg","pricing_plan_id":"cebpf4jnsgd1na2vs0mg"},{"bike_id":"e36f411b-fb6a-407c-a81f-c33a79618989","system_id":"levelo_inurba_marseille","lat":43.3093,"lon":5.40141,"is_reserved":false,"is_disabled":false,"rental_uris":{"android":"levelo://app?vid=e36f411b-fb6a-407c-a81f-c33a79618989","ios":"levelo://app?vid=e36f411b-fb6a-407c-a81f-c33a79618989"},"vehicle_type_id":"4","last_reported":1781465384,"current_range_meters":6000,"station_id":"ce4bgvp2rcd13ifvqct0","pricing_plan_id":"cebpf4jnsgd1na2vs0mg"},{"bike_id":"31a5c23d-40d4-417f-98b3-4241d25cf95b","system_id":"levelo_inurba_marseille","lat":43.33378,"lon":5.39305,"is_reserved":false,"is_disabled":false,"rental_uris":{"android":"levelo://app?vid=31a5c23d-40d4-417f-98b3-4241d25cf95b","ios":"levelo://app?vid=31a5c23d-40d4-417f-98b3-4241d25cf95b"},"vehicle_type_id":"4","last_reported":1781465384,"current_range_meters":6000,"station_id":"","pricing_plan_id":"cebpf4jnsgd1na2vs0mg"},{"bike_id":"21cef6e9-1073-47dc-a467-78565b8086dc","system_id":"levelo_inurba_marseille","lat":43.29509,"lon":5.39401,"is_reserved":false,"is_disabled":false,"rental_uris":{"android":"levelo://app?vid=21cef6e9-1073-47dc-a467-78565b8086dc","ios":"levelo://app?vid=21cef6e9-1073-47dc-a467-78565b8086dc"},"vehicle_type_id":"4","last_reported":1781465384,"current_range_meters":6000,"station_id":"ce4bh292rcd13ifvqdf0","pricing_plan_id":"cebpf4jnsgd1na2vs0mg"},{"bike_id":"119ee3e3-8912-41dc-9351-0ade13455b09","system_id":"levelo_inurba_marseille","lat":43.29561,"lon":5.42284,"is_reserved":false,"is_disabled":false,"rental_uris":{"android":"levelo://app?vid=119ee3e3-8912-41dc-9351-0ade13455b09","ios":"levelo://app?vid=119ee3e3-8912-41dc-9351-0ade13455b09"},"vehicle_type_id":"4","last_reported":1781465384,"current_range_meters":6000,"station_id":"ce4bhph2rcd13ifvqhdg","pricing_plan_id":"cebpf4jnsgd1na2vs0mg"},{"bike_id":"c379c3f0-9b04-491e-8ec8-3084ca6129c0","system_id":"levelo_inurba_marseille","lat":43.28488,"lon":5.38407,"is_reserved":false,"is_disabled":false,"rental_uris":{"android":"levelo://app?vid=c379c3f0-9b04-491e-8ec8-3084ca6129c0","ios":"levelo://app?vid=c379c3f0-9b04-491e-8ec8-3084ca6129c0"},"vehicle_type_id":"4","last_reported":1781465384,"current_range_meters":6000,"station_id":"ce4bh512rcd13ifvqe3g","pricing_plan_id":"cebpf4jnsgd1na2vs0mg"},{"bike_id":"f61863b0-f767-44a6-8d35-21d2d9984309","system_id":"levelo_inurba_marseille","lat":43.28929,"lon":5.38837,"is_reserved":false,"is_disabled":false,"rental_uris":{"android":"levelo://app?vid=f61863b0-f767-44a6-8d35-21d2d9984309","ios":"levelo://app?vid=f61863b0-f767-44a6-8d35-21d2d9984309"},"vehicle_type_id":"4","last_reported":1781465384,"current_range_meters":6000,"station_id":"","pricing_plan_id":"cebpf4jnsgd1na2vs0mg"},{"bike_id":"c260cd75-bc1a-42b1-b5cd-457c7b427482","system_id":"levelo_inurba_marseille","lat":43.29973,"lon":5.38483,"is_reserved":false,"is_disabled":false,"rental_uris":{"android":"levelo://app?vid=c260cd75-bc1a-42b1-b5cd-457c7b427482","ios":"levelo://app?vid=c260cd75-bc1a-42b1-b5cd-457c7b427482"},"vehicle_type_id":"4","last_reported":1781465384,"current_range_meters":6000,"station_id":"ce4bgj92rcd13ifvqbd0","pricing_plan_id":"cebpf4jnsgd1na2vs0mg"},{"bike_id":"d160c7dd-53e9-414b-b6e0-059da7fccc45","system_id":"levelo_inurba_marseille","lat":43.244,"lon":5.37071,"is_reserved":false,"is_disabled":false,"rental_uris":{"android":"levelo://app?vid=d160c7dd-53e9-414b-b6e0-059da7fccc45","ios":"levelo://app?vid=d160c7dd-53e9-414b-b6e0-059da7fccc45"},"vehicle_type_id":"4","last_reported":1781465384,"current_range_meters":6000,"station_id":"ce4bhhh2rcd13ifvqfk0","pricing_plan_id":"cebpf4jnsgd1na2vs0mg"},{"bike_id":"6cf94e7f-3f0f-4877-a9bc-78d4a47da3be","system_id":"levelo_inurba_marseille","lat":43.29029,"lon":5.38641,"is_reserved":false,"is_disabled":false,"rental_uris":{"android":"levelo://app?vid=6cf94e7f-3f0f-4877-a9bc-78d4a47da3be","ios":"levelo://app?vid=6cf94e7f-3f0f-4877-a9bc-78d4a47da3be"},"vehicle_type_id":"4","last_reported":1781465384,"current_range_meters":6000,"station_id":"ce4bh4p2rcd13ifvqe0g","pricing_plan_id":"cebpf4jnsgd1na2vs0mg"},{"bike_id":"24116e07-5929-4a08-b067-5f9237282074","system_id":"levelo_inurba_marseille","lat":43.2903,"lon":5.38633,"is_reserved":false,"is_disabled":false,"rental_uris":{"android":"levelo://app?vid=24116e07-5929-4a08-b067-5f9237282074","ios":"levelo://app?vid=24116e07-5929-4a08-b067-5f9237282074"},"vehicle_type_id":"4","last_reported":1781465384,"current_range_meters":6000,"station_id":"ce4bh4p2rcd13ifvqe0g","pricing_plan_id":"cebpf4jnsgd1na2vs0mg"},{"bike_id":"bbcfa845-04e7-4147-af58-e656c6582dc2","system_id":"levelo_inurba_marseille","lat":43.27643,"lon":5.35852,"is_reserved":false,"is_disabled":false,"rental_uris":{"android":"levelo://app?vid=bbcfa845-04e7-4147-af58-e656c6582dc2","ios":"levelo://app?vid=bbcfa845-04e7-4147-af58-e656c6582dc2"},"vehicle_type_id":"4","last_reported":1781465384,"current_range_meters":6000,"station_id":"","pricing_plan_id":"cebpf4jnsgd1na2vs0mg"},{"bike_id":"7272f913-724d-4b58-b6a6-688b3e04b242","system_id":"levelo_inurba_marseille","lat":43.24703,"lon":5.41262,"is_reserved":false,"is_disabled":false,"rental_uris":{"android":"levelo://app?vid=7272f913-724d-4b58-b6a6-688b3e04b242","ios":"levelo://app?vid=7272f913-724d-4b58-b6a6-688b3e04b242"},"vehicle_type_id":"4","last_reported":1781465384,"current_range_meters":6000,"station_id":"","pricing_plan_id":"cebpf4jnsgd1na2vs0mg"},{"bike_id":"652fe3f3-b5e9-4ebc-a5a8-9acc8ff1e933","system_id":"levelo_inurba_marseille","lat":43.29103,"lon":5.38126,"is_reserved":false,"is_disabled":false,"rental_uris":{"android":"levelo://app?vid=652fe3f3-b5e9-4ebc-a5a8-9acc8ff1e933","ios":"levelo://app?vid=652fe3f3-b5e9-4ebc-a5a8-9acc8ff1e933"},"vehicle_type_id":"4","last_reported":1781465384,"current_range_meters":6000,"station_id":"ce4bh512rcd13ifvqe2g","pricing_plan_id":"cebpf4jnsgd1na2vs0mg"},{"bike_id":"f139bb06-15a6-4a75-8802-edfb70c9881d","system_id":"levelo_inurba_marseille","lat":43.28341,"lon":5.38098,"is_reserved":false,"is_disabled":false,"rental_uris":{"android":"levelo://app?vid=f139bb06-15a6-4a75-8802-edfb70c9881d","ios":"levelo://app?vid=f139bb06-15a6-4a75-8802-edfb70c9881d"},"vehicle_type_id":"4","last_reported":1781465384,"current_range_meters":6000,"station_id":"ce4bh412rcd13ifvqdr0","pricing_plan_id":"cebpf4jnsgd1na2vs0mg"},{"bike_id":"da95ed3e-2907-49e2-afb2-03ef286707ac","system_id":"levelo_inurba_marseille","lat":43.28454,"lon":5.39201,"is_reserved":false,"is_disabled":false,"rental_uris":{"android":"levelo://app?vid=da95ed3e-2907-49e2-afb2-03ef286707ac","ios":"levelo://app?vid=da95ed3e-2907-49e2-afb2-03ef286707ac"},"vehicle_type_id":"4","last_reported":1781465384,"current_range_meters":6000,"station_id":"ce4bhoh2rcd13ifvqh5g","pricing_plan_id":"cebpf4jnsgd1na2vs0mg"},{"bike_id":"40f9fd1b-628e-484e-8a21-e0687f6fd82d","system_id":"levelo_inurba_marseille","lat":43.25199,"lon":5.37422,"is_reserved":false,"is_disabled":false,"rental_uris":{"android":"levelo://app?vid=40f9fd1b-628e-484e-8a21-e0687f6fd82d","ios":"levelo://app?vid=40f9fd1b-628e-484e-8a21-e0687f6fd82d"},"vehicle_type_id":"4","last_reported":1781465384,"current_range_meters":6000,"station_id":"","pricing_plan_id":"cebpf4jnsgd1na2vs0mg"},{"bike_id":"a4cbdba4-fdc7-4eda-ab4c-4d316aacdfef","system_id":"levelo_inurba_marseille","lat":43.31475,"lon":5.37291,"is_reserved":false,"is_disabled":false,"rental_uris":{"android":"levelo://app?vid=a4cbdba4-fdc7-4eda-ab4c-4d316aacdfef","ios":"levelo://app?vid=a4cbdba4-fdc7-4eda-ab4c-4d316aacdfef"},"vehicle_type_id":"4","last_reported":1781465384,"current_range_meters":6000,"station_id":"ce4bgt12rcd13ifvqcd0","pricing_plan_id":"cebpf4jnsgd1na2vs0mg"},{"bike_id":"54e482a5-c534-4992-ad75-060a9850516b","system_id":"levelo_inurba_marseille","lat":43.32352,"lon":5.36732,"is_reserved":false,"is_disabled":false,"rental_uris":{"android":"levelo://app?vid=54e482a5-c534-4992-ad75-060a9850516b","ios":"levelo://app?vid=54e482a5-c534-4992-ad75-060a9850516b"},"vehicle_type_id":"4","last_reported":1781465384,"current_range_meters":6400,"station_id":"ce4bhsh2rcd13ifvqi2g","pricing_plan_id":"cebpf4jnsgd1na2vs0mg"},{"bike_id":"50e006f0-edf8-4a73-a4be-64a19dcbdd96","system_id":"levelo_inurba_marseille","lat":43.30297,"lon":5.39203,"is_reserved":false,"is_disabled":true,"rental_uris":{"android":"levelo://app?vid=50e006f0-edf8-4a73-a4be-64a19dcbdd96","ios":"levelo://app?vid=50e006f0-edf8-4a73-a4be-64a19dcbdd96"},"vehicle_type_id":"4","last_reported":1781465384,"current_range_meters":6400,"station_id":"ce4bgkh2rcd13ifvqbk0","pricing_plan_id":"cebpf4jnsgd1na2vs0mg"},{"bike_id":"d117df6f-92d3-41bd-88ad-1367bea50a0c","system_id":"levelo_inurba_marseille","lat":43.24772,"lon":5.37553,"is_reserved":false,"is_disabled":false,"rental_uris":{"android":"levelo://app?vid=d117df6f-92d3-41bd-88ad-1367bea50a0c","ios":"levelo://app?vid=d117df6f-92d3-41bd-88ad-1367bea50a0c"},"vehicle_type_id":"4","last_reported":1781465384,"current_range_meters":6400,"station_id":"","pricing_plan_id":"cebpf4jnsgd1na2vs0mg"},{"bike_id":"e951097c-25bc-4ef7-97e6-1783eeefa1c0","system_id":"levelo_inurba_marseille","lat":43.33664,"lon":5.41905,"is_reserved":false,"is_disabled":false,"rental_uris":{"android":"levelo://app?vid=e951097c-25bc-4ef7-97e6-1783eeefa1c0","ios":"levelo://app?vid=e951097c-25bc-4ef7-97e6-1783eeefa1c0"},"vehicle_type_id":"4","last_reported":1781465384,"current_range_meters":6400,"station_id":"","pricing_plan_id":"cebpf4jnsgd1na2vs0mg"},{"bike_id":"3a178be9-377a-4a25-b16e-746e76e3b7b2","system_id":"levelo_inurba_marseille","lat":43.26204,"lon":5.38834,"is_reserved":false,"is_disabled":false,"rental_uris":{"android":"levelo://app?vid=3a178be9-377a-4a25-b16e-746e76e3b7b2","ios":"levelo://app?vid=3a178be9-377a-4a25-b16e-746e76e3b7b2"},"vehicle_type_id":"4","last_reported":1781465384,"current_range_meters":6400,"station_id":"","pricing_plan_id":"cebpf4jnsgd1na2vs0mg"},{"bike_id":"c800199a-5474-40e1-bb50-c25e031e8be6","system_id":"levelo_inurba_marseille","lat":43.21192,"lon":5.35069,"is_reserved":false,"is_disabled":false,"rental_uris":{"android":"levelo://app?vid=c800199a-5474-40e1-bb50-c25e031e8be6","ios":"levelo://app?vid=c800199a-5474-40e1-bb50-c25e031e8be6"},"vehicle_type_id":"4","last_reported":1781465384,"current_range_meters":6400,"station_id":"st_cvj6sg6p6f1abm77japg","pricing_plan_id":"cebpf4jnsgd1na2vs0mg"},{"bike_id":"54410e0e-88fe-44cb-9cd3-c20ab067986a","system_id":"levelo_inurba_marseille","lat":43.28249,"lon":5.3485,"is_reserved":false,"is_disabled":false,"rental_uris":{"android":"levelo://app?vid=54410e0e-88fe-44cb-9cd3-c20ab067986a","ios":"levelo://app?vid=54410e0e-88fe-44cb-9cd3-c20ab067986a"},"vehicle_type_id":"4","last_reported":1781465384,"current_range_meters":6400,"station_id":"","pricing_plan_id":"cebpf4jnsgd1na2vs0mg"},{"bike_id":"64d1def8-2a5b-48eb-8ec4-f02e72a31395","system_id":"levelo_inurba_marseille","lat":43.2871,"lon":5.4667,"is_reserved":false,"is_disabled":false,"rental_uris":{"android":"levelo://app?vid=64d1def8-2a5b-48eb-8ec4-f02e72a31395","ios":"levelo://app?vid=64d1def8-2a5b-48eb-8ec4-f02e72a31395"},"vehicle_type_id":"4","last_reported":1781465384,"current_range_meters":6400,"station_id":"st_d6tc3vkotcvc738tfjhg","pricing_plan_id":"cebpf4jnsgd1na2vs0mg"},{"bike_id":"0c977e9a-f490-484e-8825-5fb45e23fb00","system_id":"levelo_inurba_marseille","lat":43.23208,"lon":5.35549,"is_reserved":false,"is_disabled":false,"rental_uris":{"android":"levelo://app?vid=0c977e9a-f490-484e-8825-5fb45e23fb00","ios":"levelo://app?vid=0c977e9a-f490-484e-8825-5fb45e23fb00"},"vehicle_type_id":"4","last_reported":1781465384,"current_range_meters":6400,"station_id":"ce4bhu92rcd13ifvqi70","pricing_plan_id":"cebpf4jnsgd1na2vs0mg"},{"bike_id":"ce059822-03c1-4578-b9e3-bb0b69a47db9","system_id":"levelo_inurba_marseille","lat":43.25009,"lon":5.38935,"is_reserved":false,"is_disabled":false,"rental_uris":{"android":"levelo://app?vid=ce059822-03c1-4578-b9e3-bb0b69a47db9","ios":"levelo://app?vid=ce059822-03c1-4578-b9e3-bb0b69a47db9"},"vehicle_type_id":"4","last_reported":1781465384,"current_range_meters":6400,"station_id":"ce4bhgp2rcd13ifvqfd0","pricing_plan_id":"cebpf4jnsgd1na2vs0mg"},{"bike_id":"e6eda01b-4746-4a1b-b8bd-bc2e29bf1778","system_id":"levelo_inurba_marseille","lat":43.28482,"lon":5.48402,"is_reserved":false,"is_disabled":false,"rental_uris":{"android":"levelo://app?vid=e6eda01b-4746-4a1b-b8bd-bc2e29bf1778","ios":"levelo://app?vid=e6eda01b-4746-4a1b-b8bd-bc2e29bf1778"},"vehicle_type_id":"4","last_reported":1781465384,"current_range_meters":6400,"station_id":"st_d3svhcjqgbts73a3dn0g","pricing_plan_id":"cebpf4jnsgd1na2vs0mg"},{"bike_id":"1df29d52-97a8-4303-b751-024e2464d6f6","system_id":"levelo_inurba_marseille","lat":43.29269,"lon":5.37622,"is_reserved":false,"is_disabled":false,"rental_uris":{"android":"levelo://app?vid=1df29d52-97a8-4303-b751-024e2464d6f6","ios":"levelo://app?vid=1df29d52-97a8-4303-b751-024e2464d6f6"},"vehicle_type_id":"4","last_reported":1781465384,"current_range_meters":6400,"station_id":"ce4bgi12rcd13ifvqb80","pricing_plan_id":"cebpf4jnsgd1na2vs0mg"},{"bike_id":"c81778ae-deb6-4eaa-bb98-d41ff19c08a3","system_id":"levelo_inurba_marseille","lat":43.293057,"lon":5.374643,"is_reserved":false,"is_disabled":false,"rental_uris":{"android":"levelo://app?vid=c81778ae-deb6-4eaa-bb98-d41ff19c08a3","ios":"levelo://app?vid=c81778ae-deb6-4eaa-bb98-d41ff19c08a3"},"vehicle_type_id":"4","last_reported":1781465384,"current_range_meters":6400,"station_id":"ce4bgi12rcd13ifvqb70","pricing_plan_id":"cebpf4jnsgd1na2vs0mg"},{"bike_id":"2201f6b0-a11f-4a3d-985a-21ff9e5cba0b","system_id":"levelo_inurba_marseille","lat":43.29296,"lon":5.37469,"is_reserved":false,"is_disabled":false,"rental_uris":{"android":"levelo://app?vid=2201f6b0-a11f-4a3d-985a-21ff9e5cba0b","ios":"levelo://app?vid=2201f6b0-a11f-4a3d-985a-21ff9e5cba0b"},"vehicle_type_id":"4","last_reported":1781465384,"current_range_meters":6400,"station_id":"ce4bgi12rcd13ifvqb70","pricing_plan_id":"cebpf4jnsgd1na2vs0mg"},{"bike_id":"56b376d5-9b28-4e92-ac45-b76b482244af","system_id":"levelo_inurba_marseille","lat":43.31936,"lon":5.36809,"is_reserved":false,"is_disabled":false,"rental_uris":{"android":"levelo://app?vid=56b376d5-9b28-4e92-ac45-b76b482244af","ios":"levelo://app?vid=56b376d5-9b28-4e92-ac45-b76b482244af"},"vehicle_type_id":"4","last_reported":1781465384,"current_range_meters":6400,"station_id":"st_d6o2h0d0559c73evc1b0","pricing_plan_id":"cebpf4jnsgd1na2vs0mg"},{"bike_id":"eb0c1c7f-47b8-4a10-8001-0064309e6c74","system_id":"levelo_inurba_marseille","lat":43.22535,"lon":5.34828,"is_reserved":false,"is_disabled":false,"rental_uris":{"android":"levelo://app?vid=eb0c1c7f-47b8-4a10-8001-0064309e6c74","ios":"levelo://app?vid=eb0c1c7f-47b8-4a10-8001-0064309e6c74"},"vehicle_type_id":"4","last_reported":1781465384,"current_range_meters":6400,"station_id":"st_cvj5dfep6f1abm77gieg","pricing_plan_id":"cebpf4jnsgd1na2vs0mg"},{"bike_id":"c01f6dec-89dd-472c-9d53-44f20e2f469d","system_id":"levelo_inurba_marseille","lat":43.28052,"lon":5.34818,"is_reserved":false,"is_disabled":false,"rental_uris":{"android":"levelo://app?vid=c01f6dec-89dd-472c-9d53-44f20e2f469d","ios":"levelo://app?vid=c01f6dec-89dd-472c-9d53-44f20e2f469d"},"vehicle_type_id":"4","last_reported":1781465384,"current_range_meters":6400,"station_id":"","pricing_plan_id":"cebpf4jnsgd1na2vs0mg"},{"bike_id":"9059db4d-53f9-4bc2-96ea-2911cca7514a","system_id":"levelo_inurba_marseille","lat":43.21176,"lon":5.35048,"is_reserved":false,"is_disabled":false,"rental_uris":{"android":"levelo://app?vid=9059db4d-53f9-4bc2-96ea-2911cca7514a","ios":"levelo://app?vid=9059db4d-53f9-4bc2-96ea-2911cca7514a"},"vehicle_type_id":"4","last_reported":1781465384,"current_range_meters":6400,"station_id":"st_cvj6sg6p6f1abm77japg","pricing_plan_id":"cebpf4jnsgd1na2vs0mg"},{"bike_id":"58df25d0-bd57-4415-b2e9-39adcdff72a1","system_id":"levelo_inurba_marseille","lat":43.29178,"lon":5.37139,"is_reserved":false,"is_disabled":true,"rental_uris":{"android":"levelo://app?vid=58df25d0-bd57-4415-b2e9-39adcdff72a1","ios":"levelo://app?vid=58df25d0-bd57-4415-b2e9-39adcdff72a1"},"vehicle_type_id":"4","last_reported":1781465384,"current_range_meters":6400,"station_id":"ce4bha92rcd13ifvqeh0","pricing_plan_id":"cebpf4jnsgd1na2vs0mg"},{"bike_id":"e5112433-aa95-4996-836d-6a5e3dd047ee","system_id":"levelo_inurba_marseille","lat":43.30219,"lon":5.3797,"is_reserved":false,"is_disabled":false,"rental_uris":{"android":"levelo://app?vid=e5112433-aa95-4996-836d-6a5e3dd047ee","ios":"levelo://app?vid=e5112433-aa95-4996-836d-6a5e3dd047ee"},"vehicle_type_id":"4","last_reported":1781465384,"current_range_meters":6400,"station_id":"","pricing_plan_id":"cebpf4jnsgd1na2vs0mg"},{"bike_id":"543e0e99-23c2-49f2-a316-2761d2c07fca","system_id":"levelo_inurba_marseille","lat":43.29779,"lon":5.39347,"is_reserved":false,"is_disabled":false,"rental_uris":{"android":"levelo://app?vid=543e0e99-23c2-49f2-a316-2761d2c07fca","ios":"levelo://app?vid=543e0e99-23c2-49f2-a316-2761d2c07fca"},"vehicle_type_id":"4","last_reported":1781465384,"current_range_meters":6400,"station_id":"chh1huq6cuj3fo74tm60","pricing_plan_id":"cebpf4jnsgd1na2vs0mg"},{"bike_id":"0a1696b3-e918-41d6-9f8f-45a2e8651268","system_id":"levelo_inurba_marseille","lat":43.30216,"lon":5.39461,"is_reserved":false,"is_disabled":false,"rental_uris":{"android":"levelo://app?vid=0a1696b3-e918-41d6-9f8f-45a2e8651268","ios":"levelo://app?vid=0a1696b3-e918-41d6-9f8f-45a2e8651268"},"vehicle_type_id":"4","last_reported":1781465384,"current_range_meters":6400,"station_id":"ce4bh0p2rcd13ifvqd70","pricing_plan_id":"cebpf4jnsgd1na2vs0mg"},{"bike_id":"081783e8-5da7-4fbf-b9b1-3d05ef7e49ce","system_id":"levelo_inurba_marseille","lat":43.28924,"lon":5.36632,"is_reserved":false,"is_disabled":true,"rental_uris":{"android":"levelo://app?vid=081783e8-5da7-4fbf-b9b1-3d05ef7e49ce","ios":"levelo://app?vid=081783e8-5da7-4fbf-b9b1-3d05ef7e49ce"},"vehicle_type_id":"4","last_reported":1781465384,"current_range_meters":6400,"station_id":"ce4bhap2rcd13ifvqek0","pricing_plan_id":"cebpf4jnsgd1na2vs0mg"},{"bike_id":"1cc1e854-a64b-4eaa-bd00-1c309caff36d","system_id":"levelo_inurba_marseille","lat":43.28625,"lon":5.35088,"is_reserved":false,"is_disabled":true,"rental_uris":{"android":"levelo://app?vid=1cc1e854-a64b-4eaa-bd00-1c309caff36d","ios":"levelo://app?vid=1cc1e854-a64b-4eaa-bd00-1c309caff36d"},"vehicle_type_id":"4","last_reported":1781465384,"current_range_meters":6400,"station_id":"ce4bhch2rcd13ifvqeug","pricing_plan_id":"cebpf4jnsgd1na2vs0mg"},{"bike_id":"ab8f0087-8097-4344-b102-72c2662fdea5","system_id":"levelo_inurba_marseille","lat":43.30891,"lon":5.39644,"is_reserved":false,"is_disabled":false,"rental_uris":{"android":"levelo://app?vid=ab8f0087-8097-4344-b102-72c2662fdea5","ios":"levelo://app?vid=ab8f0087-8097-4344-b102-72c2662fdea5"},"vehicle_type_id":"4","last_reported":1781465384,"current_range_meters":6400,"station_id":"ce4bh012rcd13ifvqcv0","pricing_plan_id":"cebpf4jnsgd1na2vs0mg"},{"bike_id":"a0967682-704e-4097-9142-482a1f2d36c9","system_id":"levelo_inurba_marseille","lat":43.21226,"lon":5.35054,"is_reserved":false,"is_disabled":true,"rental_uris":{"android":"levelo://app?vid=a0967682-704e-4097-9142-482a1f2d36c9","ios":"levelo://app?vid=a0967682-704e-4097-9142-482a1f2d36c9"},"vehicle_type_id":"4","last_reported":1781465384,"current_range_meters":6400,"station_id":"","pricing_plan_id":"cebpf4jnsgd1na2vs0mg"},{"bike_id":"4d8df8ec-f6c0-4c39-8cac-00a49ce6968d","system_id":"levelo_inurba_marseille","lat":43.29084,"lon":5.37143,"is_reserved":false,"is_disabled":true,"rental_uris":{"android":"levelo://app?vid=4d8df8ec-f6c0-4c39-8cac-00a49ce6968d","ios":"levelo://app?vid=4d8df8ec-f6c0-4c39-8cac-00a49ce6968d"},"vehicle_type_id":"4","last_reported":1781465384,"current_range_meters":6800,"station_id":"ce4bh5p2rcd13ifvqe4g","pricing_plan_id":"cebpf4jnsgd1na2vs0mg"},{"bike_id":"4c78b6b3-2f8d-4f10-973f-a50992bad914","system_id":"levelo_inurba_marseille","lat":43.21194,"lon":5.35023,"is_reserved":false,"is_disabled":false,"rental_uris":{"android":"levelo://app?vid=4c78b6b3-2f8d-4f10-973f-a50992bad914","ios":"levelo://app?vid=4c78b6b3-2f8d-4f10-973f-a50992bad914"},"vehicle_type_id":"4","last_reported":1781465384,"current_range_meters":6800,"station_id":"","pricing_plan_id":"cebpf4jnsgd1na2vs0mg"},{"bike_id":"7269e119-0e13-4dd0-a553-e22258892c39","system_id":"levelo_inurba_marseille","lat":43.2294,"lon":5.35375,"is_reserved":false,"is_disabled":false,"rental_uris":{"android":"levelo://app?vid=7269e119-0e13-4dd0-a553-e22258892c39","ios":"levelo://app?vid=7269e119-0e13-4dd0-a553-e22258892c39"},"vehicle_type_id":"4","last_reported":1781465384,"current_range_meters":6800,"station_id":"cpo3532slgdg3j2ikp40","pricing_plan_id":"cebpf4jnsgd1na2vs0mg"},{"bike_id":"42476eeb-04fa-4154-aab6-1b271148ab5e","system_id":"levelo_inurba_marseille","lat":43.29784,"lon":5.3935,"is_reserved":false,"is_disabled":false,"rental_uris":{"android":"levelo://app?vid=42476eeb-04fa-4154-aab6-1b271148ab5e","ios":"levelo://app?vid=42476eeb-04fa-4154-aab6-1b271148ab5e"},"vehicle_type_id":"4","last_reported":1781465384,"current_range_meters":6800,"station_id":"chh1huq6cuj3fo74tm60","pricing_plan_id":"cebpf4jnsgd1na2vs0mg"},{"bike_id":"49924376-8cc8-44b4-9eca-5c4ff4c899c1","system_id":"levelo_inurba_marseille","lat":43.26555,"lon":5.37311,"is_reserved":false,"is_disabled":true,"rental_uris":{"android":"levelo://app?vid=49924376-8cc8-44b4-9eca-5c4ff4c899c1","ios":"levelo://app?vid=49924376-8cc8-44b4-9eca-5c4ff4c899c1"},"vehicle_type_id":"4","last_reported":1781465384,"current_range_meters":6800,"station_id":"ce4bhg12rcd13ifvqf70","pricing_plan_id":"cebpf4jnsgd1na2vs0mg"},{"bike_id":"223bb015-971b-4f79-9dc1-5e9c3cab1cf8","system_id":"levelo_inurba_marseille","lat":43.29877,"lon":5.3973,"is_reserved":false,"is_disabled":false,"rental_uris":{"android":"levelo://app?vid=223bb015-971b-4f79-9dc1-5e9c3cab1cf8","ios":"levelo://app?vid=223bb015-971b-4f79-9dc1-5e9c3cab1cf8"},"vehicle_type_id":"4","last_reported":1781465384,"current_range_meters":6800,"station_id":"ce4bh0h2rcd13ifvqd50","pricing_plan_id":"cebpf4jnsgd1na2vs0mg"},{"bike_id":"0b630a54-6497-4bc9-95e3-b953b5b38d75","system_id":"levelo_inurba_marseille","lat":43.24463,"lon":5.42501,"is_reserved":false,"is_disabled":false,"rental_uris":{"android":"levelo://app?vid=0b630a54-6497-4bc9-95e3-b953b5b38d75","ios":"levelo://app?vid=0b630a54-6497-4bc9-95e3-b953b5b38d75"},"vehicle_type_id":"4","last_reported":1781465384,"current_range_meters":6800,"station_id":"st_d4a3vfp97mjs738cd8kg","pricing_plan_id":"cebpf4jnsgd1na2vs0mg"},{"bike_id":"8dad74bf-d389-447a-b648-2b47e800f087","system_id":"levelo_inurba_marseille","lat":43.29263,"lon":5.38445,"is_reserved":false,"is_disabled":false,"rental_uris":{"android":"levelo://app?vid=8dad74bf-d389-447a-b648-2b47e800f087","ios":"levelo://app?vid=8dad74bf-d389-447a-b648-2b47e800f087"},"vehicle_type_id":"4","last_reported":1781465384,"current_range_meters":6800,"station_id":"ce4bh692rcd13ifvqea0","pricing_plan_id":"cebpf4jnsgd1na2vs0mg"},{"bike_id":"aff014c2-15fa-45d6-bb80-ee15e1a06979","system_id":"levelo_inurba_marseille","lat":43.23783,"lon":5.36628,"is_reserved":false,"is_disabled":false,"rental_uris":{"android":"levelo://app?vid=aff014c2-15fa-45d6-bb80-ee15e1a06979","ios":"levelo://app?vid=aff014c2-15fa-45d6-bb80-ee15e1a06979"},"vehicle_type_id":"4","last_reported":1781465384,"current_range_meters":6800,"station_id":"st_d3nk18o9ro0c73en2l3g","pricing_plan_id":"cebpf4jnsgd1na2vs0mg"},{"bike_id":"c2d1c0df-0e86-4c2a-8f8c-a589e1b924d5","system_id":"levelo_inurba_marseille","lat":43.21744,"lon":5.34606,"is_reserved":false,"is_disabled":false,"rental_uris":{"android":"levelo://app?vid=c2d1c0df-0e86-4c2a-8f8c-a589e1b924d5","ios":"levelo://app?vid=c2d1c0df-0e86-4c2a-8f8c-a589e1b924d5"},"vehicle_type_id":"4","last_reported":1781465384,"current_range_meters":6800,"station_id":"st_cvj6r9ubvosntc0bgbag","pricing_plan_id":"cebpf4jnsgd1na2vs0mg"},{"bike_id":"1cc1a81d-f159-4579-91fb-0a58675af9eb","system_id":"levelo_inurba_marseille","lat":43.29263,"lon":5.38435,"is_reserved":false,"is_disabled":false,"rental_uris":{"android":"levelo://app?vid=1cc1a81d-f159-4579-91fb-0a58675af9eb","ios":"levelo://app?vid=1cc1a81d-f159-4579-91fb-0a58675af9eb"},"vehicle_type_id":"4","last_reported":1781465384,"current_range_meters":6800,"station_id":"ce4bh692rcd13ifvqea0","pricing_plan_id":"cebpf4jnsgd1na2vs0mg"},{"bike_id":"94fcd0dc-4422-43e1-841f-f015974d9bc9","system_id":"levelo_inurba_marseille","lat":43.30591,"lon":5.37217,"is_reserved":false,"is_disabled":false,"rental_uris":{"android":"levelo://app?vid=94fcd0dc-4422-43e1-841f-f015974d9bc9","ios":"levelo://app?vid=94fcd0dc-4422-43e1-841f-f015974d9bc9"},"vehicle_type_id":"4","last_reported":1781465384,"current_range_meters":6800,"station_id":"ce4bgqh2rcd13ifvqc4g","pricing_plan_id":"cebpf4jnsgd1na2vs0mg"},{"bike_id":"f10274f0-d5a3-4847-854d-5e53c5520946","system_id":"levelo_inurba_marseille","lat":43.32349,"lon":5.3674,"is_reserved":false,"is_disabled":false,"rental_uris":{"android":"levelo://app?vid=f10274f0-d5a3-4847-854d-5e53c5520946","ios":"levelo://app?vid=f10274f0-d5a3-4847-854d-5e53c5520946"},"vehicle_type_id":"4","last_reported":1781465384,"current_range_meters":6800,"station_id":"ce4bhsh2rcd13ifvqi2g","pricing_plan_id":"cebpf4jnsgd1na2vs0mg"},{"bike_id":"22850580-a3cc-4daa-a3b9-61b94345fd9e","system_id":"levelo_inurba_marseille","lat":43.29575,"lon":5.39975,"is_reserved":false,"is_disabled":false,"rental_uris":{"android":"levelo://app?vid=22850580-a3cc-4daa-a3b9-61b94345fd9e","ios":"levelo://app?vid=22850580-a3cc-4daa-a3b9-61b94345fd9e"},"vehicle_type_id":"4","last_reported":1781465384,"current_range_meters":6800,"station_id":"ce4bh312rcd13ifvqdj0","pricing_plan_id":"cebpf4jnsgd1na2vs0mg"},{"bike_id":"a37a7c1d-40f6-4618-86d3-6d47293a7418","system_id":"levelo_inurba_marseille","lat":43.29894,"lon":5.43661,"is_reserved":false,"is_disabled":false,"rental_uris":{"android":"levelo://app?vid=a37a7c1d-40f6-4618-86d3-6d47293a7418","ios":"levelo://app?vid=a37a7c1d-40f6-4618-86d3-6d47293a7418"},"vehicle_type_id":"4","last_reported":1781465384,"current_range_meters":6800,"station_id":"ce4bhpp2rcd13ifvqhfg","pricing_plan_id":"cebpf4jnsgd1na2vs0mg"},{"bike_id":"520e7007-685d-436d-8d38-db025ae27a9c","system_id":"levelo_inurba_marseille","lat":43.33704,"lon":5.39193,"is_reserved":false,"is_disabled":false,"rental_uris":{"android":"levelo://app?vid=520e7007-685d-436d-8d38-db025ae27a9c","ios":"levelo://app?vid=520e7007-685d-436d-8d38-db025ae27a9c"},"vehicle_type_id":"4","last_reported":1781465384,"current_range_meters":6800,"station_id":"ce4bhr92rcd13ifvqhsg","pricing_plan_id":"cebpf4jnsgd1na2vs0mg"},{"bike_id":"2ed63e76-757b-4411-ab69-bbe8009208a1","system_id":"levelo_inurba_marseille","lat":43.31991,"lon":5.38147,"is_reserved":false,"is_disabled":false,"rental_uris":{"android":"levelo://app?vid=2ed63e76-757b-4411-ab69-bbe8009208a1","ios":"levelo://app?vid=2ed63e76-757b-4411-ab69-bbe8009208a1"},"vehicle_type_id":"4","last_reported":1781465384,"current_range_meters":6800,"station_id":"ce4bhr12rcd13ifvqhpg","pricing_plan_id":"cebpf4jnsgd1na2vs0mg"},{"bike_id":"c63ab4e0-3ac7-4a23-8a5c-8a90cac41927","system_id":"levelo_inurba_marseille","lat":43.30964,"lon":5.39014,"is_reserved":false,"is_disabled":false,"rental_uris":{"android":"levelo://app?vid=c63ab4e0-3ac7-4a23-8a5c-8a90cac41927","ios":"levelo://app?vid=c63ab4e0-3ac7-4a23-8a5c-8a90cac41927"},"vehicle_type_id":"4","last_reported":1781465384,"current_range_meters":6800,"station_id":"ce4bgup2rcd13ifvqco0","pricing_plan_id":"cebpf4jnsgd1na2vs0mg"},{"bike_id":"10c3d2ae-f5da-41e9-ad71-c65b3c5f004a","system_id":"levelo_inurba_marseille","lat":43.22514,"lon":5.34832,"is_reserved":false,"is_disabled":false,"rental_uris":{"android":"levelo://app?vid=10c3d2ae-f5da-41e9-ad71-c65b3c5f004a","ios":"levelo://app?vid=10c3d2ae-f5da-41e9-ad71-c65b3c5f004a"},"vehicle_type_id":"4","last_reported":1781465384,"current_range_meters":6800,"station_id":"st_cvj5dfep6f1abm77gieg","pricing_plan_id":"cebpf4jnsgd1na2vs0mg"},{"bike_id":"012054d1-1a01-41e8-836b-99128ca8c85e","system_id":"levelo_inurba_marseille","lat":43.311271,"lon":5.377718,"is_reserved":false,"is_disabled":false,"rental_uris":{"android":"levelo://app?vid=012054d1-1a01-41e8-836b-99128ca8c85e","ios":"levelo://app?vid=012054d1-1a01-41e8-836b-99128ca8c85e"},"vehicle_type_id":"4","last_reported":1781465384,"current_range_meters":6800,"station_id":"ce4bgt92rcd13ifvqcg0","pricing_plan_id":"cebpf4jnsgd1na2vs0mg"},{"bike_id":"261f09ba-9b6a-4fea-8aef-dff94f408488","system_id":"levelo_inurba_marseille","lat":43.24727,"lon":5.39266,"is_reserved":false,"is_disabled":false,"rental_uris":{"android":"levelo://app?vid=261f09ba-9b6a-4fea-8aef-dff94f408488","ios":"levelo://app?vid=261f09ba-9b6a-4fea-8aef-dff94f408488"},"vehicle_type_id":"4","last_reported":1781465384,"current_range_meters":6800,"station_id":"","pricing_plan_id":"cebpf4jnsgd1na2vs0mg"},{"bike_id":"9343cbb4-4224-4de5-b7c6-e32b6c4e4fe8","system_id":"levelo_inurba_marseille","lat":43.29259,"lon":5.38428,"is_reserved":false,"is_disabled":false,"rental_uris":{"android":"levelo://app?vid=9343cbb4-4224-4de5-b7c6-e32b6c4e4fe8","ios":"levelo://app?vid=9343cbb4-4224-4de5-b7c6-e32b6c4e4fe8"},"vehicle_type_id":"4","last_reported":1781465384,"current_range_meters":6800,"station_id":"ce4bh692rcd13ifvqea0","pricing_plan_id":"cebpf4jnsgd1na2vs0mg"},{"bike_id":"ba29fa99-130d-4c77-8e6b-a3805c9e68c3","system_id":"levelo_inurba_marseille","lat":43.22565,"lon":5.41614,"is_reserved":false,"is_disabled":false,"rental_uris":{"android":"levelo://app?vid=ba29fa99-130d-4c77-8e6b-a3805c9e68c3","ios":"levelo://app?vid=ba29fa99-130d-4c77-8e6b-a3805c9e68c3"},"vehicle_type_id":"4","last_reported":1781465384,"current_range_meters":6800,"station_id":"st_d2o4gvlbi1j2169b742g","pricing_plan_id":"cebpf4jnsgd1na2vs0mg"},{"bike_id":"8a01116d-ff03-4c95-9fb6-ae1544ed03d6","system_id":"levelo_inurba_marseille","lat":43.27485,"lon":5.43946,"is_reserved":false,"is_disabled":false,"rental_uris":{"android":"levelo://app?vid=8a01116d-ff03-4c95-9fb6-ae1544ed03d6","ios":"levelo://app?vid=8a01116d-ff03-4c95-9fb6-ae1544ed03d6"},"vehicle_type_id":"4","last_reported":1781465384,"current_range_meters":6800,"station_id":"","pricing_plan_id":"cebpf4jnsgd1na2vs0mg"},{"bike_id":"7db241af-d679-41c9-bd85-a8cacbd36d6b","system_id":"levelo_inurba_marseille","lat":43.299602,"lon":5.384852,"is_reserved":false,"is_disabled":false,"rental_uris":{"android":"levelo://app?vid=7db241af-d679-41c9-bd85-a8cacbd36d6b","ios":"levelo://app?vid=7db241af-d679-41c9-bd85-a8cacbd36d6b"},"vehicle_type_id":"4","last_reported":1781465384,"current_range_meters":6800,"station_id":"ce4bgj92rcd13ifvqbd0","pricing_plan_id":"cebpf4jnsgd1na2vs0mg"},{"bike_id":"aba78555-4524-41a6-8ac4-91ea05f79e74","system_id":"levelo_inurba_marseille","lat":43.28414,"lon":5.37505,"is_reserved":false,"is_disabled":false,"rental_uris":{"android":"levelo://app?vid=aba78555-4524-41a6-8ac4-91ea05f79e74","ios":"levelo://app?vid=aba78555-4524-41a6-8ac4-91ea05f79e74"},"vehicle_type_id":"4","last_reported":1781465384,"current_range_meters":6800,"station_id":"ce4bh412rcd13ifvqds0","pricing_plan_id":"cebpf4jnsgd1na2vs0mg"},{"bike_id":"ed336887-87cc-4897-90a1-9a0e72c03922","system_id":"levelo_inurba_marseille","lat":43.24644,"lon":5.3796,"is_reserved":false,"is_disabled":false,"rental_uris":{"android":"levelo://app?vid=ed336887-87cc-4897-90a1-9a0e72c03922","ios":"levelo://app?vid=ed336887-87cc-4897-90a1-9a0e72c03922"},"vehicle_type_id":"4","last_reported":1781465384,"current_range_meters":6800,"station_id":"","pricing_plan_id":"cebpf4jnsgd1na2vs0mg"},{"bike_id":"4e6d713d-5d98-4f27-9e30-016f10070add","system_id":"levelo_inurba_marseille","lat":43.24479,"lon":5.42523,"is_reserved":false,"is_disabled":false,"rental_uris":{"android":"levelo://app?vid=4e6d713d-5d98-4f27-9e30-016f10070add","ios":"levelo://app?vid=4e6d713d-5d98-4f27-9e30-016f10070add"},"vehicle_type_id":"4","last_reported":1781465384,"current_range_meters":6800,"station_id":"st_d4a3vfp97mjs738cd8kg","pricing_plan_id":"cebpf4jnsgd1na2vs0mg"},{"bike_id":"fcf4d312-9968-4443-82f2-b045268fd358","system_id":"levelo_inurba_marseille","lat":43.29913,"lon":5.4092,"is_reserved":false,"is_disabled":false,"rental_uris":{"android":"levelo://app?vid=fcf4d312-9968-4443-82f2-b045268fd358","ios":"levelo://app?vid=fcf4d312-9968-4443-82f2-b045268fd358"},"vehicle_type_id":"4","last_reported":1781465384,"current_range_meters":6800,"station_id":"","pricing_plan_id":"cebpf4jnsgd1na2vs0mg"},{"bike_id":"f8de8b5b-5261-4890-9f15-57effedc57f9","system_id":"levelo_inurba_marseille","lat":43.2454,"lon":5.39514,"is_reserved":false,"is_disabled":false,"rental_uris":{"android":"levelo://app?vid=f8de8b5b-5261-4890-9f15-57effedc57f9","ios":"levelo://app?vid=f8de8b5b-5261-4890-9f15-57effedc57f9"},"vehicle_type_id":"4","last_reported":1781465384,"current_range_meters":6800,"station_id":"ce4bhlp2rcd13ifvqgjg","pricing_plan_id":"cebpf4jnsgd1na2vs0mg"},{"bike_id":"22f75bff-00b0-4c73-be06-9374bcd824b4","system_id":"levelo_inurba_marseille","lat":43.31349,"lon":5.38503,"is_reserved":false,"is_disabled":false,"rental_uris":{"android":"levelo://app?vid=22f75bff-00b0-4c73-be06-9374bcd824b4","ios":"levelo://app?vid=22f75bff-00b0-4c73-be06-9374bcd824b4"},"vehicle_type_id":"4","last_reported":1781465384,"current_range_meters":6800,"station_id":"ce4bgt92rcd13ifvqcf0","pricing_plan_id":"cebpf4jnsgd1na2vs0mg"},{"bike_id":"2577ab9d-224a-4d47-9af8-1a2830b01511","system_id":"levelo_inurba_marseille","lat":43.30888,"lon":5.39633,"is_reserved":false,"is_disabled":false,"rental_uris":{"android":"levelo://app?vid=2577ab9d-224a-4d47-9af8-1a2830b01511","ios":"levelo://app?vid=2577ab9d-224a-4d47-9af8-1a2830b01511"},"vehicle_type_id":"4","last_reported":1781465384,"current_range_meters":7200,"station_id":"ce4bh012rcd13ifvqcv0","pricing_plan_id":"cebpf4jnsgd1na2vs0mg"},{"bike_id":"275a5378-391d-4f4d-9984-1ee8f9a111fe","system_id":"levelo_inurba_marseille","lat":43.29202,"lon":5.39318,"is_reserved":false,"is_disabled":false,"rental_uris":{"android":"levelo://app?vid=275a5378-391d-4f4d-9984-1ee8f9a111fe","ios":"levelo://app?vid=275a5378-391d-4f4d-9984-1ee8f9a111fe"},"vehicle_type_id":"4","last_reported":1781465384,"current_range_meters":7200,"station_id":"ce4bh192rcd13ifvqdd0","pricing_plan_id":"cebpf4jnsgd1na2vs0mg"},{"bike_id":"e07447ed-ccd1-43ce-9ba7-3ed6f5a26953","system_id":"levelo_inurba_marseille","lat":43.29611,"lon":5.38088,"is_reserved":false,"is_disabled":false,"rental_uris":{"android":"levelo://app?vid=e07447ed-ccd1-43ce-9ba7-3ed6f5a26953","ios":"levelo://app?vid=e07447ed-ccd1-43ce-9ba7-3ed6f5a26953"},"vehicle_type_id":"4","last_reported":1781465384,"current_range_meters":7200,"station_id":"ce4bgl12rcd13ifvqbo0","pricing_plan_id":"cebpf4jnsgd1na2vs0mg"},{"bike_id":"962679c8-ef57-45b0-9e93-9a34a8a82393","system_id":"levelo_inurba_marseille","lat":43.30149,"lon":5.39863,"is_reserved":false,"is_disabled":false,"rental_uris":{"android":"levelo://app?vid=962679c8-ef57-45b0-9e93-9a34a8a82393","ios":"levelo://app?vid=962679c8-ef57-45b0-9e93-9a34a8a82393"},"vehicle_type_id":"4","last_reported":1781465384,"current_range_meters":7200,"station_id":"ce4bh0h2rcd13ifvqd40","pricing_plan_id":"cebpf4jnsgd1na2vs0mg"},{"bike_id":"b0b204db-fbfc-47ab-b713-f2603ef9af44","system_id":"levelo_inurba_marseille","lat":43.293,"lon":5.37171,"is_reserved":false,"is_disabled":true,"rental_uris":{"android":"levelo://app?vid=b0b204db-fbfc-47ab-b713-f2603ef9af44","ios":"levelo://app?vid=b0b204db-fbfc-47ab-b713-f2603ef9af44"},"vehicle_type_id":"4","last_reported":1781465384,"current_range_meters":7200,"station_id":"ce4bgh92rcd13ifvqb40","pricing_plan_id":"cebpf4jnsgd1na2vs0mg"},{"bike_id":"e1c150e8-c20e-4313-ba62-6336db788e2c","system_id":"levelo_inurba_marseille","lat":43.29727,"lon":5.37673,"is_reserved":false,"is_disabled":false,"rental_uris":{"android":"levelo://app?vid=e1c150e8-c20e-4313-ba62-6336db788e2c","ios":"levelo://app?vid=e1c150e8-c20e-4313-ba62-6336db788e2c"},"vehicle_type_id":"4","last_reported":1781465384,"current_range_meters":7200,"station_id":"ce4bgkh2rcd13ifvqbl0","pricing_plan_id":"cebpf4jnsgd1na2vs0mg"},{"bike_id":"ef36c964-a3fa-4afb-9a60-003fd3c65d26","system_id":"levelo_inurba_marseille","lat":43.31482,"lon":5.37298,"is_reserved":false,"is_disabled":false,"rental_uris":{"android":"levelo://app?vid=ef36c964-a3fa-4afb-9a60-003fd3c65d26","ios":"levelo://app?vid=ef36c964-a3fa-4afb-9a60-003fd3c65d26"},"vehicle_type_id":"4","last_reported":1781465384,"current_range_meters":7200,"station_id":"ce4bgt12rcd13ifvqcd0","pricing_plan_id":"cebpf4jnsgd1na2vs0mg"},