{"last_updated":1762960317,"ttl":60,"version":"2.2","data":{"bikes":[{"bike_id":"d7db12ce-11cc-4c98-8751-ac59baa5d7aa","system_id":"levelo_inurba_marseille","lat":43.337444,"lon":5.374475,"is_reserved":false,"is_disabled":false,"rental_uris":{"android":"levelo://app?vid=d7db12ce-11cc-4c98-8751-ac59baa5d7aa","ios":"levelo://app?vid=d7db12ce-11cc-4c98-8751-ac59baa5d7aa"},"vehicle_type_id":"4","last_reported":1762960317,"current_range_meters":0,"station_id":"","pricing_plan_id":"cebpf4jnsgd1na2vs0mg"},{"bike_id":"1225b4c8-f698-4331-86f7-980f5865d6ce","system_id":"levelo_inurba_marseille","lat":43.29875,"lon":5.39716,"is_reserved":false,"is_disabled":false,"rental_uris":{"android":"levelo://app?vid=1225b4c8-f698-4331-86f7-980f5865d6ce","ios":"levelo://app?vid=1225b4c8-f698-4331-86f7-980f5865d6ce"},"vehicle_type_id":"4","last_reported":1762960317,"current_range_meters":2800,"station_id":"ce4bh0h2rcd13ifvqd50","pricing_plan_id":"cebpf4jnsgd1na2vs0mg"},{"bike_id":"b2be4fa2-44ee-40dc-acc7-1755c74f1c5d","system_id":"levelo_inurba_marseille","lat":43.2973,"lon":5.41118,"is_reserved":false,"is_disabled":false,"rental_uris":{"android":"levelo://app?vid=b2be4fa2-44ee-40dc-acc7-1755c74f1c5d","ios":"levelo://app?vid=b2be4fa2-44ee-40dc-acc7-1755c74f1c5d"},"vehicle_type_id":"4","last_reported":1762960317,"current_range_meters":2800,"station_id":"","pricing_plan_id":"cebpf4jnsgd1na2vs0mg"},{"bike_id":"8d9b83cf-f367-44ce-93c0-76ed33d181d2","system_id":"levelo_inurba_marseille","lat":43.30305,"lon":5.369087,"is_reserved":false,"is_disabled":true,"rental_uris":{"android":"levelo://app?vid=8d9b83cf-f367-44ce-93c0-76ed33d181d2","ios":"levelo://app?vid=8d9b83cf-f367-44ce-93c0-76ed33d181d2"},"vehicle_type_id":"4","last_reported":1762960317,"current_range_meters":2800,"station_id":"ce4bgqh2rcd13ifvqc5g","pricing_plan_id":"cebpf4jnsgd1na2vs0mg"},{"bike_id":"091c0a4c-420b-4452-90ff-7a14c185cfdb","system_id":"levelo_inurba_marseille","lat":43.28408,"lon":5.37506,"is_reserved":false,"is_disabled":false,"rental_uris":{"android":"levelo://app?vid=091c0a4c-420b-4452-90ff-7a14c185cfdb","ios":"levelo://app?vid=091c0a4c-420b-4452-90ff-7a14c185cfdb"},"vehicle_type_id":"4","last_reported":1762960317,"current_range_meters":2800,"station_id":"ce4bh412rcd13ifvqds0","pricing_plan_id":"cebpf4jnsgd1na2vs0mg"},{"bike_id":"f7a34c8e-db3d-42e8-bfbd-6d5c9d6aca89","system_id":"levelo_inurba_marseille","lat":43.29025,"lon":5.38643,"is_reserved":false,"is_disabled":false,"rental_uris":{"android":"levelo://app?vid=f7a34c8e-db3d-42e8-bfbd-6d5c9d6aca89","ios":"levelo://app?vid=f7a34c8e-db3d-42e8-bfbd-6d5c9d6aca89"},"vehicle_type_id":"4","last_reported":1762960317,"current_range_meters":2800,"station_id":"ce4bh4p2rcd13ifvqe0g","pricing_plan_id":"cebpf4jnsgd1na2vs0mg"},{"bike_id":"3f05bca5-e9b6-45e3-aed9-b2f203b8ff47","system_id":"levelo_inurba_marseille","lat":43.29522,"lon":5.39042,"is_reserved":false,"is_disabled":false,"rental_uris":{"android":"levelo://app?vid=3f05bca5-e9b6-45e3-aed9-b2f203b8ff47","ios":"levelo://app?vid=3f05bca5-e9b6-45e3-aed9-b2f203b8ff47"},"vehicle_type_id":"4","last_reported":1762960317,"current_range_meters":3200,"station_id":"ce4bh3p2rcd13ifvqdp0","pricing_plan_id":"cebpf4jnsgd1na2vs0mg"},{"bike_id":"1118dc8b-8a66-48a3-acc0-3ee1b2956b6d","system_id":"levelo_inurba_marseille","lat":43.29533,"lon":5.38548,"is_reserved":false,"is_disabled":false,"rental_uris":{"android":"levelo://app?vid=1118dc8b-8a66-48a3-acc0-3ee1b2956b6d","ios":"levelo://app?vid=1118dc8b-8a66-48a3-acc0-3ee1b2956b6d"},"vehicle_type_id":"4","last_reported":1762960317,"current_range_meters":3600,"station_id":"ce4bgih2rcd13ifvqba0","pricing_plan_id":"cebpf4jnsgd1na2vs0mg"},{"bike_id":"dc875f7a-fa5f-4853-8ff1-556a11cfc631","system_id":"levelo_inurba_marseille","lat":43.232078,"lon":5.355198,"is_reserved":false,"is_disabled":false,"rental_uris":{"android":"levelo://app?vid=dc875f7a-fa5f-4853-8ff1-556a11cfc631","ios":"levelo://app?vid=dc875f7a-fa5f-4853-8ff1-556a11cfc631"},"vehicle_type_id":"4","last_reported":1762960317,"current_range_meters":3600,"station_id":"ce4bhu92rcd13ifvqi70","pricing_plan_id":"cebpf4jnsgd1na2vs0mg"},{"bike_id":"9312d0e2-2867-431f-be7b-a12175052050","system_id":"levelo_inurba_marseille","lat":43.30147,"lon":5.38098,"is_reserved":false,"is_disabled":false,"rental_uris":{"android":"levelo://app?vid=9312d0e2-2867-431f-be7b-a12175052050","ios":"levelo://app?vid=9312d0e2-2867-431f-be7b-a12175052050"},"vehicle_type_id":"4","last_reported":1762960317,"current_range_meters":3600,"station_id":"ce4bgjp2rcd13ifvqbh0","pricing_plan_id":"cebpf4jnsgd1na2vs0mg"},{"bike_id":"349b2ad9-adea-4dd9-9ac9-fffb121b5424","system_id":"levelo_inurba_marseille","lat":43.29892,"lon":5.37537,"is_reserved":false,"is_disabled":false,"rental_uris":{"android":"levelo://app?vid=349b2ad9-adea-4dd9-9ac9-fffb121b5424","ios":"levelo://app?vid=349b2ad9-adea-4dd9-9ac9-fffb121b5424"},"vehicle_type_id":"4","last_reported":1762960317,"current_range_meters":4000,"station_id":"","pricing_plan_id":"cebpf4jnsgd1na2vs0mg"},{"bike_id":"62da84d0-7b33-4437-9377-83a424aee13a","system_id":"levelo_inurba_marseille","lat":43.308021,"lon":5.43532,"is_reserved":false,"is_disabled":false,"rental_uris":{"android":"levelo://app?vid=62da84d0-7b33-4437-9377-83a424aee13a","ios":"levelo://app?vid=62da84d0-7b33-4437-9377-83a424aee13a"},"vehicle_type_id":"4","last_reported":1762960317,"current_range_meters":4000,"station_id":"","pricing_plan_id":"cebpf4jnsgd1na2vs0mg"},{"bike_id":"5fc13484-20ac-45da-aadb-73a428aace65","system_id":"levelo_inurba_marseille","lat":43.28083,"lon":5.40744,"is_reserved":false,"is_disabled":false,"rental_uris":{"android":"levelo://app?vid=5fc13484-20ac-45da-aadb-73a428aace65","ios":"levelo://app?vid=5fc13484-20ac-45da-aadb-73a428aace65"},"vehicle_type_id":"4","last_reported":1762960317,"current_range_meters":4000,"station_id":"","pricing_plan_id":"cebpf4jnsgd1na2vs0mg"},{"bike_id":"609a150f-a197-429b-b68a-24375f75483a","system_id":"levelo_inurba_marseille","lat":43.29311,"lon":5.37439,"is_reserved":false,"is_disabled":false,"rental_uris":{"android":"levelo://app?vid=609a150f-a197-429b-b68a-24375f75483a","ios":"levelo://app?vid=609a150f-a197-429b-b68a-24375f75483a"},"vehicle_type_id":"4","last_reported":1762960317,"current_range_meters":4400,"station_id":"ce4bgi12rcd13ifvqb70","pricing_plan_id":"cebpf4jnsgd1na2vs0mg"},{"bike_id":"375d4787-7c30-41c9-90f9-ec9402419854","system_id":"levelo_inurba_marseille","lat":43.25584,"lon":5.38221,"is_reserved":false,"is_disabled":false,"rental_uris":{"android":"levelo://app?vid=375d4787-7c30-41c9-90f9-ec9402419854","ios":"levelo://app?vid=375d4787-7c30-41c9-90f9-ec9402419854"},"vehicle_type_id":"4","last_reported":1762960317,"current_range_meters":4400,"station_id":"ce4bhih2rcd13ifvqfs0","pricing_plan_id":"cebpf4jnsgd1na2vs0mg"},{"bike_id":"767c5881-e6bd-43c6-9d36-bebaf00ca485","system_id":"levelo_inurba_marseille","lat":43.21194,"lon":5.350762,"is_reserved":false,"is_disabled":false,"rental_uris":{"android":"levelo://app?vid=767c5881-e6bd-43c6-9d36-bebaf00ca485","ios":"levelo://app?vid=767c5881-e6bd-43c6-9d36-bebaf00ca485"},"vehicle_type_id":"4","last_reported":1762960317,"current_range_meters":4800,"station_id":"","pricing_plan_id":"cebpf4jnsgd1na2vs0mg"},{"bike_id":"16352e7f-c034-4ef1-8a6e-b54abc767aa3","system_id":"levelo_inurba_marseille","lat":43.312309,"lon":5.379482,"is_reserved":false,"is_disabled":false,"rental_uris":{"android":"levelo://app?vid=16352e7f-c034-4ef1-8a6e-b54abc767aa3","ios":"levelo://app?vid=16352e7f-c034-4ef1-8a6e-b54abc767aa3"},"vehicle_type_id":"4","last_reported":1762960317,"current_range_meters":4800,"station_id":"","pricing_plan_id":"cebpf4jnsgd1na2vs0mg"},{"bike_id":"72244cd1-34fa-4e6d-95c7-1af25c4feb31","system_id":"levelo_inurba_marseille","lat":43.30566,"lon":5.36704,"is_reserved":false,"is_disabled":false,"rental_uris":{"android":"levelo://app?vid=72244cd1-34fa-4e6d-95c7-1af25c4feb31","ios":"levelo://app?vid=72244cd1-34fa-4e6d-95c7-1af25c4feb31"},"vehicle_type_id":"4","last_reported":1762960317,"current_range_meters":4800,"station_id":"ce4bgrp2rcd13ifvqc9g","pricing_plan_id":"cebpf4jnsgd1na2vs0mg"},{"bike_id":"c620c9fc-398f-4dca-8fdd-2b652311235d","system_id":"levelo_inurba_marseille","lat":43.21199,"lon":5.35093,"is_reserved":false,"is_disabled":true,"rental_uris":{"android":"levelo://app?vid=c620c9fc-398f-4dca-8fdd-2b652311235d","ios":"levelo://app?vid=c620c9fc-398f-4dca-8fdd-2b652311235d"},"vehicle_type_id":"4","last_reported":1762960317,"current_range_meters":4800,"station_id":"st_cvj6sg6p6f1abm77japg","pricing_plan_id":"cebpf4jnsgd1na2vs0mg"},{"bike_id":"e2b09324-6a29-441a-b68c-e112999c6423","system_id":"levelo_inurba_marseille","lat":43.29306,"lon":5.406007,"is_reserved":false,"is_disabled":false,"rental_uris":{"android":"levelo://app?vid=e2b09324-6a29-441a-b68c-e112999c6423","ios":"levelo://app?vid=e2b09324-6a29-441a-b68c-e112999c6423"},"vehicle_type_id":"4","last_reported":1762960317,"current_range_meters":4800,"station_id":"ce4bh192rcd13ifvqdc0","pricing_plan_id":"cebpf4jnsgd1na2vs0mg"},{"bike_id":"cb378343-f58e-416b-a215-c4d92c5084c8","system_id":"levelo_inurba_marseille","lat":43.28552,"lon":5.39501,"is_reserved":false,"is_disabled":false,"rental_uris":{"android":"levelo://app?vid=cb378343-f58e-416b-a215-c4d92c5084c8","ios":"levelo://app?vid=cb378343-f58e-416b-a215-c4d92c5084c8"},"vehicle_type_id":"4","last_reported":1762960317,"current_range_meters":4800,"station_id":"ce4bh292rcd13ifvqdg0","pricing_plan_id":"cebpf4jnsgd1na2vs0mg"},{"bike_id":"48d5f346-64ec-4e03-944c-9ed3f48cbecc","system_id":"levelo_inurba_marseille","lat":43.27557,"lon":5.38427,"is_reserved":false,"is_disabled":true,"rental_uris":{"android":"levelo://app?vid=48d5f346-64ec-4e03-944c-9ed3f48cbecc","ios":"levelo://app?vid=48d5f346-64ec-4e03-944c-9ed3f48cbecc"},"vehicle_type_id":"4","last_reported":1762960317,"current_range_meters":5600,"station_id":"ce4bhh92rcd13ifvqfi0","pricing_plan_id":"cebpf4jnsgd1na2vs0mg"},{"bike_id":"b7aede71-c799-48a7-ab62-94c212283f99","system_id":"levelo_inurba_marseille","lat":43.29801,"lon":5.4039,"is_reserved":false,"is_disabled":false,"rental_uris":{"android":"levelo://app?vid=b7aede71-c799-48a7-ab62-94c212283f99","ios":"levelo://app?vid=b7aede71-c799-48a7-ab62-94c212283f99"},"vehicle_type_id":"4","last_reported":1762960317,"current_range_meters":5600,"station_id":"ce4bh112rcd13ifvqd90","pricing_plan_id":"cebpf4jnsgd1na2vs0mg"},{"bike_id":"d7026fc3-a346-49bd-8209-179291ba2736","system_id":"levelo_inurba_marseille","lat":43.29853,"lon":5.38403,"is_reserved":false,"is_disabled":false,"rental_uris":{"android":"levelo://app?vid=d7026fc3-a346-49bd-8209-179291ba2736","ios":"levelo://app?vid=d7026fc3-a346-49bd-8209-179291ba2736"},"vehicle_type_id":"4","last_reported":1762960317,"current_range_meters":5600,"station_id":"","pricing_plan_id":"cebpf4jnsgd1na2vs0mg"},{"bike_id":"a71e59d7-e0b1-4a09-85d4-bc5a8b5d893c","system_id":"levelo_inurba_marseille","lat":43.29436,"lon":5.37543,"is_reserved":false,"is_disabled":false,"rental_uris":{"android":"levelo://app?vid=a71e59d7-e0b1-4a09-85d4-bc5a8b5d893c","ios":"levelo://app?vid=a71e59d7-e0b1-4a09-85d4-bc5a8b5d893c"},"vehicle_type_id":"4","last_reported":1762960317,"current_range_meters":6000,"station_id":"","pricing_plan_id":"cebpf4jnsgd1na2vs0mg"},{"bike_id":"d6fe8595-9ed1-4eba-88cd-552ad34419e5","system_id":"levelo_inurba_marseille","lat":43.29427,"lon":5.39749,"is_reserved":false,"is_disabled":false,"rental_uris":{"android":"levelo://app?vid=d6fe8595-9ed1-4eba-88cd-552ad34419e5","ios":"levelo://app?vid=d6fe8595-9ed1-4eba-88cd-552ad34419e5"},"vehicle_type_id":"4","last_reported":1762960317,"current_range_meters":6000,"station_id":"ce4bh3h2rcd13ifvqdo0","pricing_plan_id":"cebpf4jnsgd1na2vs0mg"},{"bike_id":"e0249416-92c1-4921-b5b8-2414a17abb2e","system_id":"levelo_inurba_marseille","lat":43.285259,"lon":5.385094,"is_reserved":false,"is_disabled":false,"rental_uris":{"android":"levelo://app?vid=e0249416-92c1-4921-b5b8-2414a17abb2e","ios":"levelo://app?vid=e0249416-92c1-4921-b5b8-2414a17abb2e"},"vehicle_type_id":"4","last_reported":1762960317,"current_range_meters":6000,"station_id":"ce4bgjp2rcd13ifvqbh0","pricing_plan_id":"cebpf4jnsgd1na2vs0mg"},{"bike_id":"e9193e2a-3e9d-4717-a839-7e65fe55094f","system_id":"levelo_inurba_marseille","lat":43.28455,"lon":5.35888,"is_reserved":false,"is_disabled":false,"rental_uris":{"android":"levelo://app?vid=e9193e2a-3e9d-4717-a839-7e65fe55094f","ios":"levelo://app?vid=e9193e2a-3e9d-4717-a839-7e65fe55094f"},"vehicle_type_id":"4","last_reported":1762960317,"current_range_meters":6000,"station_id":"ce4bhah2rcd13ifvqei0","pricing_plan_id":"cebpf4jnsgd1na2vs0mg"},{"bike_id":"35e2fb1c-44f6-4c0b-a608-a914c673fe2b","system_id":"levelo_inurba_marseille","lat":43.29255,"lon":5.40907,"is_reserved":false,"is_disabled":false,"rental_uris":{"android":"levelo://app?vid=35e2fb1c-44f6-4c0b-a608-a914c673fe2b","ios":"levelo://app?vid=35e2fb1c-44f6-4c0b-a608-a914c673fe2b"},"vehicle_type_id":"4","last_reported":1762960317,"current_range_meters":6400,"station_id":"ce4bh192rcd13ifvqdc0","pricing_plan_id":"cebpf4jnsgd1na2vs0mg"},{"bike_id":"4662786e-d6f6-4e73-a497-379255375242","system_id":"levelo_inurba_marseille","lat":43.25578,"lon":5.38234,"is_reserved":false,"is_disabled":false,"rental_uris":{"android":"levelo://app?vid=4662786e-d6f6-4e73-a497-379255375242","ios":"levelo://app?vid=4662786e-d6f6-4e73-a497-379255375242"},"vehicle_type_id":"4","last_reported":1762960317,"current_range_meters":6400,"station_id":"ce4bhih2rcd13ifvqfs0","pricing_plan_id":"cebpf4jnsgd1na2vs0mg"},{"bike_id":"e0467342-2ee8-4c36-aeb9-27d25d94ead5","system_id":"levelo_inurba_marseille","lat":43.28129,"lon":5.4263,"is_reserved":false,"is_disabled":true,"rental_uris":{"android":"levelo://app?vid=e0467342-2ee8-4c36-aeb9-27d25d94ead5","ios":"levelo://app?vid=e0467342-2ee8-4c36-aeb9-27d25d94ead5"},"vehicle_type_id":"4","last_reported":1762960317,"current_range_meters":6400,"station_id":"ce4bhnh2rcd13ifvqgug","pricing_plan_id":"cebpf4jnsgd1na2vs0mg"},{"bike_id":"6a5e76f6-56de-4a62-8f3b-a05f01f56411","system_id":"levelo_inurba_marseille","lat":43.211975,"lon":5.350733,"is_reserved":false,"is_disabled":false,"rental_uris":{"android":"levelo://app?vid=6a5e76f6-56de-4a62-8f3b-a05f01f56411","ios":"levelo://app?vid=6a5e76f6-56de-4a62-8f3b-a05f01f56411"},"vehicle_type_id":"4","last_reported":1762960317,"current_range_meters":6400,"station_id":"","pricing_plan_id":"cebpf4jnsgd1na2vs0mg"},{"bike_id":"f210c5d9-e6c9-4a47-a92c-7d32d99c058f","system_id":"levelo_inurba_marseille","lat":43.303512,"lon":5.39697,"is_reserved":false,"is_disabled":false,"rental_uris":{"android":"levelo://app?vid=f210c5d9-e6c9-4a47-a92c-7d32d99c058f","ios":"levelo://app?vid=f210c5d9-e6c9-4a47-a92c-7d32d99c058f"},"vehicle_type_id":"4","last_reported":1762960317,"current_range_meters":6800,"station_id":"","pricing_plan_id":"cebpf4jnsgd1na2vs0mg"},{"bike_id":"9aab732d-99d8-458a-aff5-1ef833353481","system_id":"levelo_inurba_marseille","lat":43.298356,"lon":5.377748,"is_reserved":false,"is_disabled":false,"rental_uris":{"android":"levelo://app?vid=9aab732d-99d8-458a-aff5-1ef833353481","ios":"levelo://app?vid=9aab732d-99d8-458a-aff5-1ef833353481"},"vehicle_type_id":"4","last_reported":1762960317,"current_range_meters":6800,"station_id":"","pricing_plan_id":"cebpf4jnsgd1na2vs0mg"},{"bike_id":"84154495-874f-4020-9d68-f82ffdb2871a","system_id":"levelo_inurba_marseille","lat":43.283747,"lon":5.349894,"is_reserved":false,"is_disabled":false,"rental_uris":{"android":"levelo://app?vid=84154495-874f-4020-9d68-f82ffdb2871a","ios":"levelo://app?vid=84154495-874f-4020-9d68-f82ffdb2871a"},"vehicle_type_id":"4","last_reported":1762960317,"current_range_meters":6800,"station_id":"","pricing_plan_id":"cebpf4jnsgd1na2vs0mg"},{"bike_id":"f2fb95cf-5440-4285-8a28-3ae13ad8dabd","system_id":"levelo_inurba_marseille","lat":43.23182,"lon":5.39989,"is_reserved":false,"is_disabled":false,"rental_uris":{"android":"levelo://app?vid=f2fb95cf-5440-4285-8a28-3ae13ad8dabd","ios":"levelo://app?vid=f2fb95cf-5440-4285-8a28-3ae13ad8dabd"},"vehicle_type_id":"4","last_reported":1762960317,"current_range_meters":6800,"station_id":"ce4bhn12rcd13ifvqgqg","pricing_plan_id":"cebpf4jnsgd1na2vs0mg"},{"bike_id":"861892f2-0af0-40fe-b698-191d9906341b","system_id":"levelo_inurba_marseille","lat":43.3088,"lon":5.37208,"is_reserved":false,"is_disabled":true,"rental_uris":{"android":"levelo://app?vid=861892f2-0af0-40fe-b698-191d9906341b","ios":"levelo://app?vid=861892f2-0af0-40fe-b698-191d9906341b"},"vehicle_type_id":"4","last_reported":1762960317,"current_range_meters":6800,"station_id":"ce4bguh2rcd13ifvqckg","pricing_plan_id":"cebpf4jnsgd1na2vs0mg"},{"bike_id":"3a2c2c98-461e-4909-851a-ece390442693","system_id":"levelo_inurba_marseille","lat":43.273124,"lon":5.390693,"is_reserved":false,"is_disabled":false,"rental_uris":{"android":"levelo://app?vid=3a2c2c98-461e-4909-851a-ece390442693","ios":"levelo://app?vid=3a2c2c98-461e-4909-851a-ece390442693"},"vehicle_type_id":"4","last_reported":1762960317,"current_range_meters":6800,"station_id":"ce4bhgp2rcd13ifvqfe0","pricing_plan_id":"cebpf4jnsgd1na2vs0mg"},{"bike_id":"a21f6ec2-5d0d-49df-8f9a-3fc331fde945","system_id":"levelo_inurba_marseille","lat":43.29815,"lon":5.38087,"is_reserved":false,"is_disabled":false,"rental_uris":{"android":"levelo://app?vid=a21f6ec2-5d0d-49df-8f9a-3fc331fde945","ios":"levelo://app?vid=a21f6ec2-5d0d-49df-8f9a-3fc331fde945"},"vehicle_type_id":"4","last_reported":1762960317,"current_range_meters":6800,"station_id":"ce4bgip2rcd13ifvqbb0","pricing_plan_id":"cebpf4jnsgd1na2vs0mg"},{"bike_id":"1bef32cb-7d1e-4303-a020-1532c28fd3d9","system_id":"levelo_inurba_marseille","lat":43.29538,"lon":5.42275,"is_reserved":false,"is_disabled":false,"rental_uris":{"android":"levelo://app?vid=1bef32cb-7d1e-4303-a020-1532c28fd3d9","ios":"levelo://app?vid=1bef32cb-7d1e-4303-a020-1532c28fd3d9"},"vehicle_type_id":"4","last_reported":1762960317,"current_range_meters":6800,"station_id":"ce4bhph2rcd13ifvqhdg","pricing_plan_id":"cebpf4jnsgd1na2vs0mg"},{"bike_id":"b5cb7521-4a4b-4199-ab1f-93decbfbbefc","system_id":"levelo_inurba_marseille","lat":43.28407,"lon":5.34995,"is_reserved":false,"is_disabled":false,"rental_uris":{"android":"levelo://app?vid=b5cb7521-4a4b-4199-ab1f-93decbfbbefc","ios":"levelo://app?vid=b5cb7521-4a4b-4199-ab1f-93decbfbbefc"},"vehicle_type_id":"4","last_reported":1762960317,"current_range_meters":6800,"station_id":"ce4bhbh2rcd13ifvqepg","pricing_plan_id":"cebpf4jnsgd1na2vs0mg"},{"bike_id":"0df31e45-af00-409f-98c0-c7dcd1705c1f","system_id":"levelo_inurba_marseille","lat":43.238151,"lon":5.366455,"is_reserved":false,"is_disabled":false,"rental_uris":{"android":"levelo://app?vid=0df31e45-af00-409f-98c0-c7dcd1705c1f","ios":"levelo://app?vid=0df31e45-af00-409f-98c0-c7dcd1705c1f"},"vehicle_type_id":"4","last_reported":1762960317,"current_range_meters":7200,"station_id":"st_d3nk18o9ro0c73en2l3g","pricing_plan_id":"cebpf4jnsgd1na2vs0mg"},{"bike_id":"62a14efb-5f7a-4e0d-bbfa-d4a60d07f475","system_id":"levelo_inurba_marseille","lat":43.297562,"lon":5.373278,"is_reserved":false,"is_disabled":false,"rental_uris":{"android":"levelo://app?vid=62a14efb-5f7a-4e0d-bbfa-d4a60d07f475","ios":"levelo://app?vid=62a14efb-5f7a-4e0d-bbfa-d4a60d07f475"},"vehicle_type_id":"4","last_reported":1762960317,"current_range_meters":7200,"station_id":"","pricing_plan_id":"cebpf4jnsgd1na2vs0mg"},{"bike_id":"e0ed7929-20a1-4d5c-ab67-3994c5a84870","system_id":"levelo_inurba_marseille","lat":43.252316,"lon":5.406327,"is_reserved":false,"is_disabled":false,"rental_uris":{"android":"levelo://app?vid=e0ed7929-20a1-4d5c-ab67-3994c5a84870","ios":"levelo://app?vid=e0ed7929-20a1-4d5c-ab67-3994c5a84870"},"vehicle_type_id":"4","last_reported":1762960317,"current_range_meters":7200,"station_id":"","pricing_plan_id":"cebpf4jnsgd1na2vs0mg"},{"bike_id":"a0e66bff-2614-4550-9ab2-0613862facd7","system_id":"levelo_inurba_marseille","lat":43.30603,"lon":5.37222,"is_reserved":false,"is_disabled":false,"rental_uris":{"android":"levelo://app?vid=a0e66bff-2614-4550-9ab2-0613862facd7","ios":"levelo://app?vid=a0e66bff-2614-4550-9ab2-0613862facd7"},"vehicle_type_id":"4","last_reported":1762960317,"current_range_meters":7200,"station_id":"ce4bgqh2rcd13ifvqc4g","pricing_plan_id":"cebpf4jnsgd1na2vs0mg"},{"bike_id":"b1912dc6-562a-409a-b346-1626d61f3a69","system_id":"levelo_inurba_marseille","lat":43.25575,"lon":5.38246,"is_reserved":false,"is_disabled":true,"rental_uris":{"android":"levelo://app?vid=b1912dc6-562a-409a-b346-1626d61f3a69","ios":"levelo://app?vid=b1912dc6-562a-409a-b346-1626d61f3a69"},"vehicle_type_id":"4","last_reported":1762960317,"current_range_meters":7200,"station_id":"ce4bhih2rcd13ifvqfs0","pricing_plan_id":"cebpf4jnsgd1na2vs0mg"},{"bike_id":"18afe671-ebde-4e8b-b73c-4d7f687fa6e5","system_id":"levelo_inurba_marseille","lat":43.30126,"lon":5.37432,"is_reserved":false,"is_disabled":false,"rental_uris":{"android":"levelo://app?vid=18afe671-ebde-4e8b-b73c-4d7f687fa6e5","ios":"levelo://app?vid=18afe671-ebde-4e8b-b73c-4d7f687fa6e5"},"vehicle_type_id":"4","last_reported":1762960317,"current_range_meters":8000,"station_id":"ce4bgs92rcd13ifvqcc0","pricing_plan_id":"cebpf4jnsgd1na2vs0mg"},{"bike_id":"020a5504-0ac7-4772-82ee-29ce00917790","system_id":"levelo_inurba_marseille","lat":43.25004,"lon":5.38935,"is_reserved":false,"is_disabled":false,"rental_uris":{"android":"levelo://app?vid=020a5504-0ac7-4772-82ee-29ce00917790","ios":"levelo://app?vid=020a5504-0ac7-4772-82ee-29ce00917790"},"vehicle_type_id":"4","last_reported":1762960317,"current_range_meters":8000,"station_id":"ce4bhgp2rcd13ifvqfd0","pricing_plan_id":"cebpf4jnsgd1na2vs0mg"},{"bike_id":"c80c1c01-368c-46ce-95fa-baee6c258882","system_id":"levelo_inurba_marseille","lat":43.29891,"lon":5.43663,"is_reserved":false,"is_disabled":false,"rental_uris":{"android":"levelo://app?vid=c80c1c01-368c-46ce-95fa-baee6c258882","ios":"levelo://app?vid=c80c1c01-368c-46ce-95fa-baee6c258882"},"vehicle_type_id":"4","last_reported":1762960317,"current_range_meters":8000,"station_id":"ce4bhpp2rcd13ifvqhfg","pricing_plan_id":"cebpf4jnsgd1na2vs0mg"},{"bike_id":"f4ce5ef7-4edc-4e83-a134-7e6369a7d4e7","system_id":"levelo_inurba_marseille","lat":43.241262,"lon":5.378502,"is_reserved":false,"is_disabled":false,"rental_uris":{"android":"levelo://app?vid=f4ce5ef7-4edc-4e83-a134-7e6369a7d4e7","ios":"levelo://app?vid=f4ce5ef7-4edc-4e83-a134-7e6369a7d4e7"},"vehicle_type_id":"4","last_reported":1762960317,"current_range_meters":8000,"station_id":"ce4bhnp2rcd13ifvqgvg","pricing_plan_id":"cebpf4jnsgd1na2vs0mg"},{"bike_id":"bb673b1f-1f54-493f-92ad-48c99ddd3b6a","system_id":"levelo_inurba_marseille","lat":43.211911,"lon":5.350843,"is_reserved":false,"is_disabled":false,"rental_uris":{"android":"levelo://app?vid=bb673b1f-1f54-493f-92ad-48c99ddd3b6a","ios":"levelo://app?vid=bb673b1f-1f54-493f-92ad-48c99ddd3b6a"},"vehicle_type_id":"4","last_reported":1762960317,"current_range_meters":8000,"station_id":"","pricing_plan_id":"cebpf4jnsgd1na2vs0mg"},{"bike_id":"7e6ab43e-3527-4892-a681-7b417ef922f3","system_id":"levelo_inurba_marseille","lat":43.21756,"lon":5.34596,"is_reserved":false,"is_disabled":false,"rental_uris":{"android":"levelo://app?vid=7e6ab43e-3527-4892-a681-7b417ef922f3","ios":"levelo://app?vid=7e6ab43e-3527-4892-a681-7b417ef922f3"},"vehicle_type_id":"4","last_reported":1762960317,"current_range_meters":8400,"station_id":"st_cvj6r9ubvosntc0bgbag","pricing_plan_id":"cebpf4jnsgd1na2vs0mg"},{"bike_id":"ae494409-c305-4a73-8985-57a6b30dba8e","system_id":"levelo_inurba_marseille","lat":43.32012,"lon":5.38131,"is_reserved":false,"is_disabled":false,"rental_uris":{"android":"levelo://app?vid=ae494409-c305-4a73-8985-57a6b30dba8e","ios":"levelo://app?vid=ae494409-c305-4a73-8985-57a6b30dba8e"},"vehicle_type_id":"4","last_reported":1762960317,"current_range_meters":8400,"station_id":"ce4bhr12rcd13ifvqhpg","pricing_plan_id":"cebpf4jnsgd1na2vs0mg"},{"bike_id":"d25fb43d-1830-4ff9-aa4d-ca857ad1d69a","system_id":"levelo_inurba_marseille","lat":43.31717,"lon":5.37742,"is_reserved":false,"is_disabled":false,"rental_uris":{"android":"levelo://app?vid=d25fb43d-1830-4ff9-aa4d-ca857ad1d69a","ios":"levelo://app?vid=d25fb43d-1830-4ff9-aa4d-ca857ad1d69a"},"vehicle_type_id":"4","last_reported":1762960317,"current_range_meters":8400,"station_id":"ce4bgth2rcd13ifvqch0","pricing_plan_id":"cebpf4jnsgd1na2vs0mg"},{"bike_id":"f8956e65-2de9-40df-9851-3706c0867378","system_id":"levelo_inurba_marseille","lat":43.23153,"lon":5.43707,"is_reserved":false,"is_disabled":false,"rental_uris":{"android":"levelo://app?vid=f8956e65-2de9-40df-9851-3706c0867378","ios":"levelo://app?vid=f8956e65-2de9-40df-9851-3706c0867378"},"vehicle_type_id":"4","last_reported":1762960317,"current_range_meters":8400,"station_id":"ce4bhmp2rcd13ifvqgog","pricing_plan_id":"cebpf4jnsgd1na2vs0mg"},{"bike_id":"91dc8c18-38fa-477a-834b-2ac183e635cb","system_id":"levelo_inurba_marseille","lat":43.29803,"lon":5.3811,"is_reserved":false,"is_disabled":false,"rental_uris":{"android":"levelo://app?vid=91dc8c18-38fa-477a-834b-2ac183e635cb","ios":"levelo://app?vid=91dc8c18-38fa-477a-834b-2ac183e635cb"},"vehicle_type_id":"4","last_reported":1762960317,"current_range_meters":8800,"station_id":"ce4bgip2rcd13ifvqbb0","pricing_plan_id":"cebpf4jnsgd1na2vs0mg"},{"bike_id":"b0ea8019-121f-4dab-9907-34a4db6008fb","system_id":"levelo_inurba_marseille","lat":43.25707,"lon":5.41116,"is_reserved":false,"is_disabled":false,"rental_uris":{"android":"levelo://app?vid=b0ea8019-121f-4dab-9907-34a4db6008fb","ios":"levelo://app?vid=b0ea8019-121f-4dab-9907-34a4db6008fb"},"vehicle_type_id":"4","last_reported":1762960317,"current_range_meters":8800,"station_id":"ce4bhkp2rcd13ifvqgd0","pricing_plan_id":"cebpf4jnsgd1na2vs0mg"},{"bike_id":"dbd003dc-7de4-403f-91d1-5cd776fd88e0","system_id":"levelo_inurba_marseille","lat":43.292908,"lon":5.374697,"is_reserved":false,"is_disabled":false,"rental_uris":{"android":"levelo://app?vid=dbd003dc-7de4-403f-91d1-5cd776fd88e0","ios":"levelo://app?vid=dbd003dc-7de4-403f-91d1-5cd776fd88e0"},"vehicle_type_id":"4","last_reported":1762960317,"current_range_meters":8800,"station_id":"ce4bgi12rcd13ifvqb70","pricing_plan_id":"cebpf4jnsgd1na2vs0mg"},{"bike_id":"f2f1e21f-7a3e-4ef4-b353-395fba2d2f43","system_id":"levelo_inurba_marseille","lat":43.21199,"lon":5.35082,"is_reserved":false,"is_disabled":false,"rental_uris":{"android":"levelo://app?vid=f2f1e21f-7a3e-4ef4-b353-395fba2d2f43","ios":"levelo://app?vid=f2f1e21f-7a3e-4ef4-b353-395fba2d2f43"},"vehicle_type_id":"4","last_reported":1762960317,"current_range_meters":8800,"station_id":"","pricing_plan_id":"cebpf4jnsgd1na2vs0mg"},{"bike_id":"84aade2c-4b39-4bce-814f-cfa3d6ed46f7","system_id":"levelo_inurba_marseille","lat":43.28482,"lon":5.483887,"is_reserved":false,"is_disabled":false,"rental_uris":{"android":"levelo://app?vid=84aade2c-4b39-4bce-814f-cfa3d6ed46f7","ios":"levelo://app?vid=84aade2c-4b39-4bce-814f-cfa3d6ed46f7"},"vehicle_type_id":"4","last_reported":1762960317,"current_range_meters":9200,"station_id":"st_d3svhcjqgbts73a3dn0g","pricing_plan_id":"cebpf4jnsgd1na2vs0mg"},{"bike_id":"85d21aa4-1ca7-40e1-b883-953143237e29","system_id":"levelo_inurba_marseille","lat":43.31329,"lon":5.39694,"is_reserved":false,"is_disabled":false,"rental_uris":{"android":"levelo://app?vid=85d21aa4-1ca7-40e1-b883-953143237e29","ios":"levelo://app?vid=85d21aa4-1ca7-40e1-b883-953143237e29"},"vehicle_type_id":"4","last_reported":1762960317,"current_range_meters":9200,"station_id":"ce4bgvp2rcd13ifvqcu0","pricing_plan_id":"cebpf4jnsgd1na2vs0mg"},{"bike_id":"81aeec01-9c13-4f7f-8ef0-f9e785953d87","system_id":"levelo_inurba_marseille","lat":43.268021,"lon":5.402654,"is_reserved":false,"is_disabled":false,"rental_uris":{"android":"levelo://app?vid=81aeec01-9c13-4f7f-8ef0-f9e785953d87","ios":"levelo://app?vid=81aeec01-9c13-4f7f-8ef0-f9e785953d87"},"vehicle_type_id":"4","last_reported":1762960317,"current_range_meters":9200,"station_id":"ce501612rcd8frsf0b60","pricing_plan_id":"cebpf4jnsgd1na2vs0mg"},{"bike_id":"96403eaa-aa91-4674-bd65-a48bd1d97703","system_id":"levelo_inurba_marseille","lat":43.295407,"lon":5.37514,"is_reserved":false,"is_disabled":false,"rental_uris":{"android":"levelo://app?vid=96403eaa-aa91-4674-bd65-a48bd1d97703","ios":"levelo://app?vid=96403eaa-aa91-4674-bd65-a48bd1d97703"},"vehicle_type_id":"4","last_reported":1762960317,"current_range_meters":9600,"station_id":"ce4bgkp2rcd13ifvqbmg","pricing_plan_id":"cebpf4jnsgd1na2vs0mg"},{"bike_id":"c47023ab-2905-4a00-af93-ffd0b768cdc9","system_id":"levelo_inurba_marseille","lat":43.288648,"lon":5.425182,"is_reserved":false,"is_disabled":false,"rental_uris":{"android":"levelo://app?vid=c47023ab-2905-4a00-af93-ffd0b768cdc9","ios":"levelo://app?vid=c47023ab-2905-4a00-af93-ffd0b768cdc9"},"vehicle_type_id":"4","last_reported":1762960317,"current_range_meters":9600,"station_id":"st_d3b462108ojc7389ooeg","pricing_plan_id":"cebpf4jnsgd1na2vs0mg"},{"bike_id":"f6134463-5782-4e59-875e-fa5ebcfbb229","system_id":"levelo_inurba_marseille","lat":43.28498,"lon":5.38456,"is_reserved":false,"is_disabled":true,"rental_uris":{"android":"levelo://app?vid=f6134463-5782-4e59-875e-fa5ebcfbb229","ios":"levelo://app?vid=f6134463-5782-4e59-875e-fa5ebcfbb229"},"vehicle_type_id":"4","last_reported":1762960317,"current_range_meters":9600,"station_id":"ce4bh512rcd13ifvqe3g","pricing_plan_id":"cebpf4jnsgd1na2vs0mg"},{"bike_id":"393ebba5-f26f-4f5b-ba37-0d7b5bd9041d","system_id":"levelo_inurba_marseille","lat":43.217432,"lon":5.346097,"is_reserved":false,"is_disabled":false,"rental_uris":{"android":"levelo://app?vid=393ebba5-f26f-4f5b-ba37-0d7b5bd9041d","ios":"levelo://app?vid=393ebba5-f26f-4f5b-ba37-0d7b5bd9041d"},"vehicle_type_id":"4","last_reported":1762960317,"current_range_meters":9600,"station_id":"st_cvj6r9ubvosntc0bgbag","pricing_plan_id":"cebpf4jnsgd1na2vs0mg"},{"bike_id":"7c1281c3-bdd5-4353-bebe-d7a194630651","system_id":"levelo_inurba_marseille","lat":43.27417,"lon":5.39413,"is_reserved":false,"is_disabled":false,"rental_uris":{"android":"levelo://app?vid=7c1281c3-bdd5-4353-bebe-d7a194630651","ios":"levelo://app?vid=7c1281c3-bdd5-4353-bebe-d7a194630651"},"vehicle_type_id":"4","last_reported":1762960317,"current_range_meters":9600,"station_id":"ce4bhdp2rcd13ifvqf20","pricing_plan_id":"cebpf4jnsgd1na2vs0mg"},{"bike_id":"7052ce2f-6711-4a86-99ce-9a86d6f83428","system_id":"levelo_inurba_marseille","lat":43.2944,"lon":5.39745,"is_reserved":false,"is_disabled":false,"rental_uris":{"android":"levelo://app?vid=7052ce2f-6711-4a86-99ce-9a86d6f83428","ios":"levelo://app?vid=7052ce2f-6711-4a86-99ce-9a86d6f83428"},"vehicle_type_id":"4","last_reported":1762960317,"current_range_meters":9600,"station_id":"ce4bh3h2rcd13ifvqdo0","pricing_plan_id":"cebpf4jnsgd1na2vs0mg"},{"bike_id":"268c0f06-a6a6-4316-a447-fa9a5c248bab","system_id":"levelo_inurba_marseille","lat":43.299363,"lon":5.365556,"is_reserved":false,"is_disabled":false,"rental_uris":{"android":"levelo://app?vid=268c0f06-a6a6-4316-a447-fa9a5c248bab","ios":"levelo://app?vid=268c0f06-a6a6-4316-a447-fa9a5c248bab"},"vehicle_type_id":"4","last_reported":1762960317,"current_range_meters":10000,"station_id":"ce4bgm92rcd13ifvqbr0","pricing_plan_id":"cebpf4jnsgd1na2vs0mg"},{"bike_id":"35879002-14a8-49e2-b035-6faedfd1cfe6","system_id":"levelo_inurba_marseille","lat":43.246322,"lon":5.43143,"is_reserved":false,"is_disabled":false,"rental_uris":{"android":"levelo://app?vid=35879002-14a8-49e2-b035-6faedfd1cfe6","ios":"levelo://app?vid=35879002-14a8-49e2-b035-6faedfd1cfe6"},"vehicle_type_id":"4","last_reported":1762960317,"current_range_meters":10000,"station_id":"st_d2m6c4gdas8pm72e190g","pricing_plan_id":"cebpf4jnsgd1na2vs0mg"},{"bike_id":"50b661f0-112f-4780-95bd-167a8c61a238","system_id":"levelo_inurba_marseille","lat":43.21182,"lon":5.35067,"is_reserved":false,"is_disabled":true,"rental_uris":{"android":"levelo://app?vid=50b661f0-112f-4780-95bd-167a8c61a238","ios":"levelo://app?vid=50b661f0-112f-4780-95bd-167a8c61a238"},"vehicle_type_id":"4","last_reported":1762960317,"current_range_meters":10000,"station_id":"st_cvj6sg6p6f1abm77japg","pricing_plan_id":"cebpf4jnsgd1na2vs0mg"},{"bike_id":"01e8cce2-ff84-43ff-914a-c0c695f60ca4","system_id":"levelo_inurba_marseille","lat":43.29432,"lon":5.38035,"is_reserved":false,"is_disabled":false,"rental_uris":{"android":"levelo://app?vid=01e8cce2-ff84-43ff-914a-c0c695f60ca4","ios":"levelo://app?vid=01e8cce2-ff84-43ff-914a-c0c695f60ca4"},"vehicle_type_id":"4","last_reported":1762960317,"current_range_meters":10800,"station_id":"","pricing_plan_id":"cebpf4jnsgd1na2vs0mg"},{"bike_id":"ffb4c428-1237-4312-9449-593b0b7dc907","system_id":"levelo_inurba_marseille","lat":43.30977,"lon":5.39054,"is_reserved":false,"is_disabled":false,"rental_uris":{"android":"levelo://app?vid=ffb4c428-1237-4312-9449-593b0b7dc907","ios":"levelo://app?vid=ffb4c428-1237-4312-9449-593b0b7dc907"},"vehicle_type_id":"4","last_reported":1762960317,"current_range_meters":10800,"station_id":"ce4bgup2rcd13ifvqco0","pricing_plan_id":"cebpf4jnsgd1na2vs0mg"},{"bike_id":"702e7443-6fad-40e6-bee7-5bfc6696191e","system_id":"levelo_inurba_marseille","lat":43.2901,"lon":5.35614,"is_reserved":false,"is_disabled":false,"rental_uris":{"android":"levelo://app?vid=702e7443-6fad-40e6-bee7-5bfc6696191e","ios":"levelo://app?vid=702e7443-6fad-40e6-bee7-5bfc6696191e"},"vehicle_type_id":"4","last_reported":1762960317,"current_range_meters":10800,"station_id":"ce4bhb92rcd13ifvqen0","pricing_plan_id":"cebpf4jnsgd1na2vs0mg"},{"bike_id":"93691148-d580-4c99-a1f7-c22d822c6fdb","system_id":"levelo_inurba_marseille","lat":43.211948,"lon":5.350739,"is_reserved":false,"is_disabled":false,"rental_uris":{"android":"levelo://app?vid=93691148-d580-4c99-a1f7-c22d822c6fdb","ios":"levelo://app?vid=93691148-d580-4c99-a1f7-c22d822c6fdb"},"vehicle_type_id":"4","last_reported":1762960317,"current_range_meters":10800,"station_id":"st_cvj6sg6p6f1abm77japg","pricing_plan_id":"cebpf4jnsgd1na2vs0mg"},{"bike_id":"8f2da1ad-5b22-4b24-b0e5-1bbaaeeec2f7","system_id":"levelo_inurba_marseille","lat":43.28375,"lon":5.38628,"is_reserved":false,"is_disabled":false,"rental_uris":{"android":"levelo://app?vid=8f2da1ad-5b22-4b24-b0e5-1bbaaeeec2f7","ios":"levelo://app?vid=8f2da1ad-5b22-4b24-b0e5-1bbaaeeec2f7"},"vehicle_type_id":"4","last_reported":1762960317,"current_range_meters":11200,"station_id":"ce4bh492rcd13ifvqdvg","pricing_plan_id":"cebpf4jnsgd1na2vs0mg"},{"bike_id":"44152b5e-c2c8-463e-97d2-3885342efdf7","system_id":"levelo_inurba_marseille","lat":43.28728,"lon":5.37945,"is_reserved":false,"is_disabled":false,"rental_uris":{"android":"levelo://app?vid=44152b5e-c2c8-463e-97d2-3885342efdf7","ios":"levelo://app?vid=44152b5e-c2c8-463e-97d2-3885342efdf7"},"vehicle_type_id":"4","last_reported":1762960317,"current_range_meters":11200,"station_id":"ce4bh9p2rcd13ifvqec0","pricing_plan_id":"cebpf4jnsgd1na2vs0mg"},{"bike_id":"ce745ab7-7bd1-4912-8594-cbb74bd12178","system_id":"levelo_inurba_marseille","lat":43.302539,"lon":5.400736,"is_reserved":false,"is_disabled":false,"rental_uris":{"android":"levelo://app?vid=ce745ab7-7bd1-4912-8594-cbb74bd12178","ios":"levelo://app?vid=ce745ab7-7bd1-4912-8594-cbb74bd12178"},"vehicle_type_id":"4","last_reported":1762960317,"current_range_meters":11600,"station_id":"ce4bgvh2rcd13ifvqcs0","pricing_plan_id":"cebpf4jnsgd1na2vs0mg"},{"bike_id":"a0c41a69-8787-4b8a-b5b6-7a0a1131dbb4","system_id":"levelo_inurba_marseille","lat":43.28032,"lon":5.36956,"is_reserved":false,"is_disabled":false,"rental_uris":{"android":"levelo://app?vid=a0c41a69-8787-4b8a-b5b6-7a0a1131dbb4","ios":"levelo://app?vid=a0c41a69-8787-4b8a-b5b6-7a0a1131dbb4"},"vehicle_type_id":"4","last_reported":1762960317,"current_range_meters":11600,"station_id":"ce4bha12rcd13ifvqef0","pricing_plan_id":"cebpf4jnsgd1na2vs0mg"},{"bike_id":"f09b69fd-4220-4b51-8365-9a85828617f1","system_id":"levelo_inurba_marseille","lat":43.330268,"lon":5.390397,"is_reserved":false,"is_disabled":false,"rental_uris":{"android":"levelo://app?vid=f09b69fd-4220-4b51-8365-9a85828617f1","ios":"levelo://app?vid=f09b69fd-4220-4b51-8365-9a85828617f1"},"vehicle_type_id":"4","last_reported":1762960317,"current_range_meters":11600,"station_id":"ce4bhr92rcd13ifvqhrg","pricing_plan_id":"cebpf4jnsgd1na2vs0mg"},{"bike_id":"d7971bd0-efd8-4170-ab00-6fabad286b99","system_id":"levelo_inurba_marseille","lat":43.25085,"lon":5.39525,"is_reserved":false,"is_disabled":false,"rental_uris":{"android":"levelo://app?vid=d7971bd0-efd8-4170-ab00-6fabad286b99","ios":"levelo://app?vid=d7971bd0-efd8-4170-ab00-6fabad286b99"},"vehicle_type_id":"4","last_reported":1762960317,"current_range_meters":11600,"station_id":"ce4bhm12rcd13ifvqgkg","pricing_plan_id":"cebpf4jnsgd1na2vs0mg"},{"bike_id":"4ea943fa-05b7-4cdb-a255-ba0a2d54d67d","system_id":"levelo_inurba_marseille","lat":43.25584,"lon":5.38229,"is_reserved":false,"is_disabled":false,"rental_uris":{"android":"levelo://app?vid=4ea943fa-05b7-4cdb-a255-ba0a2d54d67d","ios":"levelo://app?vid=4ea943fa-05b7-4cdb-a255-ba0a2d54d67d"},"vehicle_type_id":"4","last_reported":1762960317,"current_range_meters":11600,"station_id":"ce4bhih2rcd13ifvqfs0","pricing_plan_id":"cebpf4jnsgd1na2vs0mg"},{"bike_id":"138acbc8-a44a-45ec-9d4e-f41258a8778e","system_id":"levelo_inurba_marseille","lat":43.29833,"lon":5.44067,"is_reserved":false,"is_disabled":false,"rental_uris":{"android":"levelo://app?vid=138acbc8-a44a-45ec-9d4e-f41258a8778e","ios":"levelo://app?vid=138acbc8-a44a-45ec-9d4e-f41258a8778e"},"vehicle_type_id":"4","last_reported":1762960317,"current_range_meters":11600,"station_id":"","pricing_plan_id":"cebpf4jnsgd1na2vs0mg"},{"bike_id":"42ab484c-883f-4abd-a0b2-f224f778360c","system_id":"levelo_inurba_marseille","lat":43.278112,"lon":5.407155,"is_reserved":false,"is_disabled":false,"rental_uris":{"android":"levelo://app?vid=42ab484c-883f-4abd-a0b2-f224f778360c","ios":"levelo://app?vid=42ab484c-883f-4abd-a0b2-f224f778360c"},"vehicle_type_id":"4","last_reported":1762960317,"current_range_meters":12000,"station_id":"ce4bhnh2rcd13ifvqgtg","pricing_plan_id":"cebpf4jnsgd1na2vs0mg"},{"bike_id":"b98a0d3d-a965-4a48-adfb-c3f30c0e37bf","system_id":"levelo_inurba_marseille","lat":43.30273,"lon":5.37709,"is_reserved":false,"is_disabled":false,"rental_uris":{"android":"levelo://app?vid=b98a0d3d-a965-4a48-adfb-c3f30c0e37bf","ios":"levelo://app?vid=b98a0d3d-a965-4a48-adfb-c3f30c0e37bf"},"vehicle_type_id":"4","last_reported":1762960317,"current_range_meters":12000,"station_id":"ce4bguh2rcd13ifvqcj0","pricing_plan_id":"cebpf4jnsgd1na2vs0mg"},{"bike_id":"5804ac99-3bd4-4091-bff1-7487e9285e0c","system_id":"levelo_inurba_marseille","lat":43.29196,"lon":5.37579,"is_reserved":false,"is_disabled":false,"rental_uris":{"android":"levelo://app?vid=5804ac99-3bd4-4091-bff1-7487e9285e0c","ios":"levelo://app?vid=5804ac99-3bd4-4091-bff1-7487e9285e0c"},"vehicle_type_id":"4","last_reported":1762960317,"current_range_meters":12000,"station_id":"","pricing_plan_id":"cebpf4jnsgd1na2vs0mg"},{"bike_id":"f48004cd-6fe1-4cbc-acb3-b90ae0670143","system_id":"levelo_inurba_marseille","lat":43.30801,"lon":5.38159,"is_reserved":false,"is_disabled":false,"rental_uris":{"android":"levelo://app?vid=f48004cd-6fe1-4cbc-acb3-b90ae0670143","ios":"levelo://app?vid=f48004cd-6fe1-4cbc-acb3-b90ae0670143"},"vehicle_type_id":"4","last_reported":1762960317,"current_range_meters":12000,"station_id":"ce4bgt12rcd13ifvqce0","pricing_plan_id":"cebpf4jnsgd1na2vs0mg"},{"bike_id":"8b027115-1a9e-4312-923f-dbf5aec10ee4","system_id":"levelo_inurba_marseille","lat":43.30234,"lon":5.36518,"is_reserved":false,"is_disabled":false,"rental_uris":{"android":"levelo://app?vid=8b027115-1a9e-4312-923f-dbf5aec10ee4","ios":"levelo://app?vid=8b027115-1a9e-4312-923f-dbf5aec10ee4"},"vehicle_type_id":"4","last_reported":1762960317,"current_range_meters":12000,"station_id":"","pricing_plan_id":"cebpf4jnsgd1na2vs0mg"},{"bike_id":"97150dc4-71e5-4187-8a3a-2188c13f6fe1","system_id":"levelo_inurba_marseille","lat":43.23778,"lon":5.36622,"is_reserved":false,"is_disabled":false,"rental_uris":{"android":"levelo://app?vid=97150dc4-71e5-4187-8a3a-2188c13f6fe1","ios":"levelo://app?vid=97150dc4-71e5-4187-8a3a-2188c13f6fe1"},"vehicle_type_id":"4","last_reported":1762960317,"current_range_meters":12000,"station_id":"st_d3nk18o9ro0c73en2l3g","pricing_plan_id":"cebpf4jnsgd1na2vs0mg"},{"bike_id":"ce8d6303-da34-4d14-a464-40994f9e2f21","system_id":"levelo_inurba_marseille","lat":43.21194,"lon":5.3509,"is_reserved":false,"is_disabled":true,"rental_uris":{"android":"levelo://app?vid=ce8d6303-da34-4d14-a464-40994f9e2f21","ios":"levelo://app?vid=ce8d6303-da34-4d14-a464-40994f9e2f21"},"vehicle_type_id":"4","last_reported":1762960317,"current_range_meters":12400,"station_id":"st_cvj6sg6p6f1abm77japg","pricing_plan_id":"cebpf4jnsgd1na2vs0mg"},{"bike_id":"01077224-691a-47d1-9255-9cb0a985fcf0","system_id":"levelo_inurba_marseille","lat":43.28003,"lon":5.37908,"is_reserved":false,"is_disabled":false,"rental_uris":{"android":"levelo://app?vid=01077224-691a-47d1-9255-9cb0a985fcf0","ios":"levelo://app?vid=01077224-691a-47d1-9255-9cb0a985fcf0"},"vehicle_type_id":"4","last_reported":1762960317,"current_range_meters":12400,"station_id":"","pricing_plan_id":"cebpf4jnsgd1na2vs0mg"},{"bike_id":"5e6e0c2c-5aff-425c-b9f5-69ee0b364303","system_id":"levelo_inurba_marseille","lat":43.23211,"lon":5.3555,"is_reserved":false,"is_disabled":false,"rental_uris":{"android":"levelo://app?vid=5e6e0c2c-5aff-425c-b9f5-69ee0b364303","ios":"levelo://app?vid=5e6e0c2c-5aff-425c-b9f5-69ee0b364303"},"vehicle_type_id":"4","last_reported":1762960317,"current_range_meters":12800,"station_id":"ce4bhu92rcd13ifvqi70","pricing_plan_id":"cebpf4jnsgd1na2vs0mg"},{"bike_id":"72af7301-17a8-43a4-84c3-7077a9f4a252","system_id":"levelo_inurba_marseille","lat":43.26557,"lon":5.4032,"is_reserved":false,"is_disabled":false,"rental_uris":{"android":"levelo://app?vid=72af7301-17a8-43a4-84c3-7077a9f4a252","ios":"levelo://app?vid=72af7301-17a8-43a4-84c3-7077a9f4a252"},"vehicle_type_id":"4","last_reported":1762960317,"current_range_meters":12800,"station_id":"ce4bhmp2rcd13ifvqgng","pricing_plan_id":"cebpf4jnsgd1na2vs0mg"},{"bike_id":"162b3650-d53b-450e-9c87-2286aae8047a","system_id":"levelo_inurba_marseille","lat":43.24957,"lon":5.40486,"is_reserved":false,"is_disabled":false,"rental_uris":{"android":"levelo://app?vid=162b3650-d53b-450e-9c87-2286aae8047a","ios":"levelo://app?vid=162b3650-d53b-450e-9c87-2286aae8047a"},"vehicle_type_id":"4","last_reported":1762960317,"current_range_meters":12800,"station_id":"st_d2ngiaodas8pm72gd1h0","pricing_plan_id":"cebpf4jnsgd1na2vs0mg"},{"bike_id":"fc4b350f-0c68-41a7-b0f7-ac78047c0f40","system_id":"levelo_inurba_marseille","lat":43.23194,"lon":5.35557,"is_reserved":false,"is_disabled":false,"rental_uris":{"android":"levelo://app?vid=fc4b350f-0c68-41a7-b0f7-ac78047c0f40","ios":"levelo://app?vid=fc4b350f-0c68-41a7-b0f7-ac78047c0f40"},"vehicle_type_id":"4","last_reported":1762960317,"current_range_meters":12800,"station_id":"ce4bhu92rcd13ifvqi70","pricing_plan_id":"cebpf4jnsgd1na2vs0mg"},{"bike_id":"841cb1e3-d7ff-4e82-a83c-eaf5e87abdbe","system_id":"levelo_inurba_marseille","lat":43.25569,"lon":5.38244,"is_reserved":false,"is_disabled":false,"rental_uris":{"android":"levelo://app?vid=841cb1e3-d7ff-4e82-a83c-eaf5e87abdbe","ios":"levelo://app?vid=841cb1e3-d7ff-4e82-a83c-eaf5e87abdbe"},"vehicle_type_id":"4","last_reported":1762960317,"current_range_meters":12800,"station_id":"ce4bhih2rcd13ifvqfs0","pricing_plan_id":"cebpf4jnsgd1na2vs0mg"},{"bike_id":"23cf5617-2a8e-4b86-b9b4-9b049dde7593","system_id":"levelo_inurba_marseille","lat":43.32363,"lon":5.367661,"is_reserved":false,"is_disabled":false,"rental_uris":{"android":"levelo://app?vid=23cf5617-2a8e-4b86-b9b4-9b049dde7593","ios":"levelo://app?vid=23cf5617-2a8e-4b86-b9b4-9b049dde7593"},"vehicle_type_id":"4","last_reported":1762960317,"current_range_meters":13600,"station_id":"ce4bhsh2rcd13ifvqi2g","pricing_plan_id":"cebpf4jnsgd1na2vs0mg"},{"bike_id":"5ed48720-7574-4d36-8385-43ec3a2037fe","system_id":"levelo_inurba_marseille","lat":43.29506,"lon":5.43312,"is_reserved":false,"is_disabled":false,"rental_uris":{"android":"levelo://app?vid=5ed48720-7574-4d36-8385-43ec3a2037fe","ios":"levelo://app?vid=5ed48720-7574-4d36-8385-43ec3a2037fe"},"vehicle_type_id":"4","last_reported":1762960317,"current_range_meters":13600,"station_id":"st_d3j5ugp08ojc73fj9d10","pricing_plan_id":"cebpf4jnsgd1na2vs0mg"},{"bike_id":"e13b78db-2231-48a0-b9e0-a153f32a43f4","system_id":"levelo_inurba_marseille","lat":43.23059,"lon":5.35492,"is_reserved":false,"is_disabled":false,"rental_uris":{"android":"levelo://app?vid=e13b78db-2231-48a0-b9e0-a153f32a43f4","ios":"levelo://app?vid=e13b78db-2231-48a0-b9e0-a153f32a43f4"},"vehicle_type_id":"4","last_reported":1762960317,"current_range_meters":13600,"station_id":"cpo3342slgdg3j2ifvpg","pricing_plan_id":"cebpf4jnsgd1na2vs0mg"},{"bike_id":"39caaa85-3c63-4287-be6d-d2988dbb93fa","system_id":"levelo_inurba_marseille","lat":43.23155,"lon":5.43712,"is_reserved":false,"is_disabled":false,"rental_uris":{"android":"levelo://app?vid=39caaa85-3c63-4287-be6d-d2988dbb93fa","ios":"levelo://app?vid=39caaa85-3c63-4287-be6d-d2988dbb93fa"},"vehicle_type_id":"4","last_reported":1762960317,"current_range_meters":13600,"station_id":"ce4bhmp2rcd13ifvqgog","pricing_plan_id":"cebpf4jnsgd1na2vs0mg"},{"bike_id":"d1562a83-9286-4173-9603-a08c676d773a","system_id":"levelo_inurba_marseille","lat":43.21193,"lon":5.35102,"is_reserved":false,"is_disabled":false,"rental_uris":{"android":"levelo://app?vid=d1562a83-9286-4173-9603-a08c676d773a","ios":"levelo://app?vid=d1562a83-9286-4173-9603-a08c676d773a"},"vehicle_type_id":"4","last_reported":1762960317,"current_range_meters":13600,"station_id":"st_cvj6sg6p6f1abm77japg","pricing_plan_id":"cebpf4jnsgd1na2vs0mg"},{"bike_id":"f19a854d-96e9-4cf0-92aa-d357813dc143","system_id":"levelo_inurba_marseille","lat":43.28527,"lon":5.38354,"is_reserved":false,"is_disabled":true,"rental_uris":{"android":"levelo://app?vid=f19a854d-96e9-4cf0-92aa-d357813dc143","ios":"levelo://app?vid=f19a854d-96e9-4cf0-92aa-d357813dc143"},"vehicle_type_id":"4","last_reported":1762960317,"current_range_meters":13600,"station_id":"","pricing_plan_id":"cebpf4jnsgd1na2vs0mg"},{"bike_id":"0528378f-1b50-41df-b328-6686306ee922","system_id":"levelo_inurba_marseille","lat":43.21643,"lon":5.34454,"is_reserved":false,"is_disabled":false,"rental_uris":{"android":"levelo://app?vid=0528378f-1b50-41df-b328-6686306ee922","ios":"levelo://app?vid=0528378f-1b50-41df-b328-6686306ee922"},"vehicle_type_id":"4","last_reported":1762960317,"current_range_meters":13600,"station_id":"","pricing_plan_id":"cebpf4jnsgd1na2vs0mg"},{"bike_id":"6a1bbd9a-1834-4786-ac90-86f1ad97d770","system_id":"levelo_inurba_marseille","lat":43.28926,"lon":5.36399,"is_reserved":false,"is_disabled":false,"rental_uris":{"android":"levelo://app?vid=6a1bbd9a-1834-4786-ac90-86f1ad97d770","ios":"levelo://app?vid=6a1bbd9a-1834-4786-ac90-86f1ad97d770"},"vehicle_type_id":"4","last_reported":1762960317,"current_range_meters":13600,"station_id":"ce4bhc92rcd13ifvqetg","pricing_plan_id":"cebpf4jnsgd1na2vs0mg"},{"bike_id":"7cd3fc91-8b4e-4cc9-a97a-8aec9cd4160c","system_id":"levelo_inurba_marseille","lat":43.29892,"lon":5.37196,"is_reserved":false,"is_disabled":true,"rental_uris":{"android":"levelo://app?vid=7cd3fc91-8b4e-4cc9-a97a-8aec9cd4160c","ios":"levelo://app?vid=7cd3fc91-8b4e-4cc9-a97a-8aec9cd4160c"},"vehicle_type_id":"4","last_reported":1762960317,"current_range_meters":14000,"station_id":"","pricing_plan_id":"cebpf4jnsgd1na2vs0mg"},{"bike_id":"3e9427b7-a28e-43eb-b57c-0cd637ed4284","system_id":"levelo_inurba_marseille","lat":43.23147,"lon":5.43709,"is_reserved":false,"is_disabled":false,"rental_uris":{"android":"levelo://app?vid=3e9427b7-a28e-43eb-b57c-0cd637ed4284","ios":"levelo://app?vid=3e9427b7-a28e-43eb-b57c-0cd637ed4284"},"vehicle_type_id":"4","last_reported":1762960317,"current_range_meters":14000,"station_id":"ce4bhmp2rcd13ifvqgog","pricing_plan_id":"cebpf4jnsgd1na2vs0mg"},{"bike_id":"4ceb17b0-0bd4-43c8-aec8-9de52f60eb93","system_id":"levelo_inurba_marseille","lat":43.27616,"lon":5.36108,"is_reserved":false,"is_disabled":false,"rental_uris":{"android":"levelo://app?vid=4ceb17b0-0bd4-43c8-aec8-9de52f60eb93","ios":"levelo://app?vid=4ceb17b0-0bd4-43c8-aec8-9de52f60eb93"},"vehicle_type_id":"4","last_reported":1762960317,"current_range_meters":14000,"station_id":"ce4bgj92rcd13ifvqbe0","pricing_plan_id":"cebpf4jnsgd1na2vs0mg"},{"bike_id":"712b101f-f24e-44ca-978e-1eec22bfe791","system_id":"levelo_inurba_marseille","lat":43.29936,"lon":5.36546,"is_reserved":false,"is_disabled":false,"rental_uris":{"android":"levelo://app?vid=712b101f-f24e-44ca-978e-1eec22bfe791","ios":"levelo://app?vid=712b101f-f24e-44ca-978e-1eec22bfe791"},"vehicle_type_id":"4","last_reported":1762960317,"current_range_meters":14400,"station_id":"ce4bgm92rcd13ifvqbr0","pricing_plan_id":"cebpf4jnsgd1na2vs0mg"},{"bike_id":"e3df63a1-f3d2-4d82-8bf6-df212c4e8b69","system_id":"levelo_inurba_marseille","lat":43.2848,"lon":5.484,"is_reserved":false,"is_disabled":false,"rental_uris":{"android":"levelo://app?vid=e3df63a1-f3d2-4d82-8bf6-df212c4e8b69","ios":"levelo://app?vid=e3df63a1-f3d2-4d82-8bf6-df212c4e8b69"},"vehicle_type_id":"4","last_reported":1762960317,"current_range_meters":14400,"station_id":"st_d3svhcjqgbts73a3dn0g","pricing_plan_id":"cebpf4jnsgd1na2vs0mg"},{"bike_id":"c32a49ee-76d4-48ba-b397-49e60fa82e4b","system_id":"levelo_inurba_marseille","lat":43.316987,"lon":5.404711,"is_reserved":false,"is_disabled":false,"rental_uris":{"android":"levelo://app?vid=c32a49ee-76d4-48ba-b397-49e60fa82e4b","ios":"levelo://app?vid=c32a49ee-76d4-48ba-b397-49e60fa82e4b"},"vehicle_type_id":"4","last_reported":1762960317,"current_range_meters":14400,"station_id":"ce4bh012rcd13ifvqd00","pricing_plan_id":"cebpf4jnsgd1na2vs0mg"},{"bike_id":"7405fff1-54cb-4441-8d3b-98a0b2f0eb43","system_id":"levelo_inurba_marseille","lat":43.273281,"lon":5.390523,"is_reserved":false,"is_disabled":false,"rental_uris":{"android":"levelo://app?vid=7405fff1-54cb-4441-8d3b-98a0b2f0eb43","ios":"levelo://app?vid=7405fff1-54cb-4441-8d3b-98a0b2f0eb43"},"vehicle_type_id":"4","last_reported":1762960317,"current_range_meters":14400,"station_id":"","pricing_plan_id":"cebpf4jnsgd1na2vs0mg"},{"bike_id":"e8ae9154-04f3-4461-8276-0739d1e853ea","system_id":"levelo_inurba_marseille","lat":43.26569,"lon":5.3901,"is_reserved":false,"is_disabled":false,"rental_uris":{"android":"levelo://app?vid=e8ae9154-04f3-4461-8276-0739d1e853ea","ios":"levelo://app?vid=e8ae9154-04f3-4461-8276-0739d1e853ea"},"vehicle_type_id":"4","last_reported":1762960317,"current_range_meters":14400,"station_id":"ce4bhe12rcd13ifvqf30","pricing_plan_id":"cebpf4jnsgd1na2vs0mg"},{"bike_id":"a24d1ed3-7d2a-4935-9058-4a4ebef3dc61","system_id":"levelo_inurba_marseille","lat":43.2654,"lon":5.37319,"is_reserved":false,"is_disabled":false,"rental_uris":{"android":"levelo://app?vid=a24d1ed3-7d2a-4935-9058-4a4ebef3dc61","ios":"levelo://app?vid=a24d1ed3-7d2a-4935-9058-4a4ebef3dc61"},"vehicle_type_id":"4","last_reported":1762960317,"current_range_meters":14400,"station_id":"ce4bhg12rcd13ifvqf70","pricing_plan_id":"cebpf4jnsgd1na2vs0mg"},{"bike_id":"c01ee74c-0907-4ca7-82d0-a92efd488ad9","system_id":"levelo_inurba_marseille","lat":43.22561,"lon":5.41631,"is_reserved":false,"is_disabled":false,"rental_uris":{"android":"levelo://app?vid=c01ee74c-0907-4ca7-82d0-a92efd488ad9","ios":"levelo://app?vid=c01ee74c-0907-4ca7-82d0-a92efd488ad9"},"vehicle_type_id":"4","last_reported":1762960317,"current_range_meters":14400,"station_id":"st_d2o4gvlbi1j2169b742g","pricing_plan_id":"cebpf4jnsgd1na2vs0mg"},{"bike_id":"b7d7e6d3-9430-4ec5-9866-73f22921ebe9","system_id":"levelo_inurba_marseille","lat":43.28444,"lon":5.39187,"is_reserved":false,"is_disabled":false,"rental_uris":{"android":"levelo://app?vid=b7d7e6d3-9430-4ec5-9866-73f22921ebe9","ios":"levelo://app?vid=b7d7e6d3-9430-4ec5-9866-73f22921ebe9"},"vehicle_type_id":"4","last_reported":1762960317,"current_range_meters":14400,"station_id":"ce4bhoh2rcd13ifvqh5g","pricing_plan_id":"cebpf4jnsgd1na2vs0mg"},{"bike_id":"b3e4b8b6-e1f2-43a0-98c1-d0ceaf4e474d","system_id":"levelo_inurba_marseille","lat":43.29894,"lon":5.38908,"is_reserved":false,"is_disabled":false,"rental_uris":{"android":"levelo://app?vid=b3e4b8b6-e1f2-43a0-98c1-d0ceaf4e474d","ios":"levelo://app?vid=b3e4b8b6-e1f2-43a0-98c1-d0ceaf4e474d"},"vehicle_type_id":"4","last_reported":1762960317,"current_range_meters":14400,"station_id":"ce4bh392rcd13ifvqdl0","pricing_plan_id":"cebpf4jnsgd1na2vs0mg"},{"bike_id":"19ac383f-c5ca-45da-b1f2-5e9aa6e2cadc","system_id":"levelo_inurba_marseille","lat":43.28439,"lon":5.3921,"is_reserved":false,"is_disabled":false,"rental_uris":{"android":"levelo://app?vid=19ac383f-c5ca-45da-b1f2-5e9aa6e2cadc","ios":"levelo://app?vid=19ac383f-c5ca-45da-b1f2-5e9aa6e2cadc"},"vehicle_type_id":"4","last_reported":1762960317,"current_range_meters":14800,"station_id":"ce4bhoh2rcd13ifvqh5g","pricing_plan_id":"cebpf4jnsgd1na2vs0mg"},{"bike_id":"5c77269e-9e4d-48a8-ae57-e2d3939e0d8e","system_id":"levelo_inurba_marseille","lat":43.302322,"lon":5.369364,"is_reserved":false,"is_disabled":false,"rental_uris":{"android":"levelo://app?vid=5c77269e-9e4d-48a8-ae57-e2d3939e0d8e","ios":"levelo://app?vid=5c77269e-9e4d-48a8-ae57-e2d3939e0d8e"},"vehicle_type_id":"4","last_reported":1762960317,"current_range_meters":14800,"station_id":"ce4bgqh2rcd13ifvqc5g","pricing_plan_id":"cebpf4jnsgd1na2vs0mg"},{"bike_id":"01571923-980e-446a-ba2d-4d18a11dfcdd","system_id":"levelo_inurba_marseille","lat":43.247893,"lon":5.374739,"is_reserved":false,"is_disabled":false,"rental_uris":{"android":"levelo://app?vid=01571923-980e-446a-ba2d-4d18a11dfcdd","ios":"levelo://app?vid=01571923-980e-446a-ba2d-4d18a11dfcdd"},"vehicle_type_id":"4","last_reported":1762960317,"current_range_meters":14800,"station_id":"","pricing_plan_id":"cebpf4jnsgd1na2vs0mg"},{"bike_id":"ac54d9a9-7dfa-4c04-bdaa-c67a94b6b7e0","system_id":"levelo_inurba_marseille","lat":43.30434,"lon":5.38889,"is_reserved":false,"is_disabled":false,"rental_uris":{"android":"levelo://app?vid=ac54d9a9-7dfa-4c04-bdaa-c67a94b6b7e0","ios":"levelo://app?vid=ac54d9a9-7dfa-4c04-bdaa-c67a94b6b7e0"},"vehicle_type_id":"4","last_reported":1762960317,"current_range_meters":14800,"station_id":"ce4bgk12rcd13ifvqbi0","pricing_plan_id":"cebpf4jnsgd1na2vs0mg"},{"bike_id":"ae3e80f7-8c71-4016-ba4c-abcf55a6c48f","system_id":"levelo_inurba_marseille","lat":43.29032,"lon":5.37563,"is_reserved":false,"is_disabled":false,"rental_uris":{"android":"levelo://app?vid=ae3e80f7-8c71-4016-ba4c-abcf55a6c48f","ios":"levelo://app?vid=ae3e80f7-8c71-4016-ba4c-abcf55a6c48f"},"vehicle_type_id":"4","last_reported":1762960317,"current_range_meters":14800,"station_id":"ce4bh692rcd13ifvqe90","pricing_plan_id":"cebpf4jnsgd1na2vs0mg"},{"bike_id":"12f5e4b6-9efa-44c4-bc87-40c1e8b2bfff","system_id":"levelo_inurba_marseille","lat":43.2467,"lon":5.38171,"is_reserved":false,"is_disabled":false,"rental_uris":{"android":"levelo://app?vid=12f5e4b6-9efa-44c4-bc87-40c1e8b2bfff","ios":"levelo://app?vid=12f5e4b6-9efa-44c4-bc87-40c1e8b2bfff"},"vehicle_type_id":"4","last_reported":1762960317,"current_range_meters":14800,"station_id":"ce4bhih2rcd13ifvqfr0","pricing_plan_id":"cebpf4jnsgd1na2vs0mg"},{"bike_id":"07cdd6c0-c821-469a-9a6b-e067fa27bb41","system_id":"levelo_inurba_marseille","lat":43.21184,"lon":5.35077,"is_reserved":false,"is_disabled":true,"rental_uris":{"android":"levelo://app?vid=07cdd6c0-c821-469a-9a6b-e067fa27bb41","ios":"levelo://app?vid=07cdd6c0-c821-469a-9a6b-e067fa27bb41"},"vehicle_type_id":"4","last_reported":1762960317,"current_range_meters":14800,"station_id":"","pricing_plan_id":"cebpf4jnsgd1na2vs0mg"},{"bike_id":"3277b8f7-a7c0-46e4-bfb4-ecaf8e5a96b2","system_id":"levelo_inurba_marseille","lat":43.29576,"lon":5.37498,"is_reserved":false,"is_disabled":false,"rental_uris":{"android":"levelo://app?vid=3277b8f7-a7c0-46e4-bfb4-ecaf8e5a96b2","ios":"levelo://app?vid=3277b8f7-a7c0-46e4-bfb4-ecaf8e5a96b2"},"vehicle_type_id":"4","last_reported":1762960317,"current_range_meters":15200,"station_id":"ce4bgh92rcd13ifvqb50","pricing_plan_id":"cebpf4jnsgd1na2vs0mg"},{"bike_id":"a26712ac-c4dc-4d7c-9767-877ec57b4780","system_id":"levelo_inurba_marseille","lat":43.2849,"lon":5.484,"is_reserved":false,"is_disabled":false,"rental_uris":{"android":"levelo://app?vid=a26712ac-c4dc-4d7c-9767-877ec57b4780","ios":"levelo://app?vid=a26712ac-c4dc-4d7c-9767-877ec57b4780"},"vehicle_type_id":"4","last_reported":1762960317,"current_range_meters":15200,"station_id":"st_d3svhcjqgbts73a3dn0g","pricing_plan_id":"cebpf4jnsgd1na2vs0mg"},{"bike_id":"c4d99a60-56bc-4f6e-96c8-b59c44660d79","system_id":"levelo_inurba_marseille","lat":43.24663,"lon":5.38859,"is_reserved":false,"is_disabled":false,"rental_uris":{"android":"levelo://app?vid=c4d99a60-56bc-4f6e-96c8-b59c44660d79","ios":"levelo://app?vid=c4d99a60-56bc-4f6e-96c8-b59c44660d79"},"vehicle_type_id":"4","last_reported":1762960317,"current_range_meters":15200,"station_id":"ce4bhg12rcd13ifvqf60","pricing_plan_id":"cebpf4jnsgd1na2vs0mg"},{"bike_id":"fd3bc958-4321-401c-a774-6c4276dba134","system_id":"levelo_inurba_marseille","lat":43.25007,"lon":5.38941,"is_reserved":false,"is_disabled":false,"rental_uris":{"android":"levelo://app?vid=fd3bc958-4321-401c-a774-6c4276dba134","ios":"levelo://app?vid=fd3bc958-4321-401c-a774-6c4276dba134"},"vehicle_type_id":"4","last_reported":1762960317,"current_range_meters":15200,"station_id":"ce4bhgp2rcd13ifvqfd0","pricing_plan_id":"cebpf4jnsgd1na2vs0mg"},{"bike_id":"1b0b7981-696f-4ec5-932c-764cd2899c70","system_id":"levelo_inurba_marseille","lat":43.28476,"lon":5.484,"is_reserved":false,"is_disabled":false,"rental_uris":{"android":"levelo://app?vid=1b0b7981-696f-4ec5-932c-764cd2899c70","ios":"levelo://app?vid=1b0b7981-696f-4ec5-932c-764cd2899c70"},"vehicle_type_id":"4","last_reported":1762960317,"current_range_meters":15200,"station_id":"","pricing_plan_id":"cebpf4jnsgd1na2vs0mg"},{"bike_id":"9f77fce6-b576-455d-a43d-b1e175676c28","system_id":"levelo_inurba_marseille","lat":43.33773,"lon":5.37473,"is_reserved":false,"is_disabled":false,"rental_uris":{"android":"levelo://app?vid=9f77fce6-b576-455d-a43d-b1e175676c28","ios":"levelo://app?vid=9f77fce6-b576-455d-a43d-b1e175676c28"},"vehicle_type_id":"4","last_reported":1762960317,"current_range_meters":15200,"station_id":"","pricing_plan_id":"cebpf4jnsgd1na2vs0mg"},{"bike_id":"60e7fa8d-04e1-4bde-9e50-96c18d1e42a2","system_id":"levelo_inurba_marseille","lat":43.331603,"lon":5.364748,"is_reserved":false,"is_disabled":false,"rental_uris":{"android":"levelo://app?vid=60e7fa8d-04e1-4bde-9e50-96c18d1e42a2","ios":"levelo://app?vid=60e7fa8d-04e1-4bde-9e50-96c18d1e42a2"},"vehicle_type_id":"4","last_reported":1762960317,"current_range_meters":15200,"station_id":"","pricing_plan_id":"cebpf4jnsgd1na2vs0mg"},{"bike_id":"457c3593-f893-4ae4-aa10-29e78cefe7e0","system_id":"levelo_inurba_marseille","lat":43.23196,"lon":5.35559,"is_reserved":false,"is_disabled":false,"rental_uris":{"android":"levelo://app?vid=457c3593-f893-4ae4-aa10-29e78cefe7e0","ios":"levelo://app?vid=457c3593-f893-4ae4-aa10-29e78cefe7e0"},"vehicle_type_id":"4","last_reported":1762960317,"current_range_meters":15200,"station_id":"ce4bhu92rcd13ifvqi70","pricing_plan_id":"cebpf4jnsgd1na2vs0mg"},{"bike_id":"233feff9-18ee-47dd-bba6-692d80b9c719","system_id":"levelo_inurba_marseille","lat":43.293706,"lon":5.378458,"is_reserved":false,"is_disabled":false,"rental_uris":{"android":"levelo://app?vid=233feff9-18ee-47dd-bba6-692d80b9c719","ios":"levelo://app?vid=233feff9-18ee-47dd-bba6-692d80b9c719"},"vehicle_type_id":"4","last_reported":1762960317,"current_range_meters":15200,"station_id":"ce4bgjh2rcd13ifvqbf0","pricing_plan_id":"cebpf4jnsgd1na2vs0mg"},{"bike_id":"9a8ec229-2a02-411c-921b-0d94ee2289e6","system_id":"levelo_inurba_marseille","lat":43.30573,"lon":5.36704,"is_reserved":false,"is_disabled":false,"rental_uris":{"android":"levelo://app?vid=9a8ec229-2a02-411c-921b-0d94ee2289e6","ios":"levelo://app?vid=9a8ec229-2a02-411c-921b-0d94ee2289e6"},"vehicle_type_id":"4","last_reported":1762960317,"current_range_meters":15200,"station_id":"ce4bgrp2rcd13ifvqc9g","pricing_plan_id":"cebpf4jnsgd1na2vs0mg"},{"bike_id":"2a2ec83a-2b84-4bf4-b19a-cd864bece9fd","system_id":"levelo_inurba_marseille","lat":43.24623,"lon":5.43157,"is_reserved":false,"is_disabled":false,"rental_uris":{"android":"levelo://app?vid=2a2ec83a-2b84-4bf4-b19a-cd864bece9fd","ios":"levelo://app?vid=2a2ec83a-2b84-4bf4-b19a-cd864bece9fd"},"vehicle_type_id":"4","last_reported":1762960317,"current_range_meters":15200,"station_id":"st_d2m6c4gdas8pm72e190g","pricing_plan_id":"cebpf4jnsgd1na2vs0mg"},{"bike_id":"f0413c71-e0c3-427b-98cb-cdf950c219e3","system_id":"levelo_inurba_marseille","lat":43.31002,"lon":5.40075,"is_reserved":false,"is_disabled":false,"rental_uris":{"android":"levelo://app?vid=f0413c71-e0c3-427b-98cb-cdf950c219e3","ios":"levelo://app?vid=f0413c71-e0c3-427b-98cb-cdf950c219e3"},"vehicle_type_id":"4","last_reported":1762960317,"current_range_meters":16000,"station_id":"","pricing_plan_id":"cebpf4jnsgd1na2vs0mg"},{"bike_id":"589be681-6f6f-46cf-bc7b-069ad4f326eb","system_id":"levelo_inurba_marseille","lat":43.32472,"lon":5.36568,"is_reserved":false,"is_disabled":false,"rental_uris":{"android":"levelo://app?vid=589be681-6f6f-46cf-bc7b-069ad4f326eb","ios":"levelo://app?vid=589be681-6f6f-46cf-bc7b-069ad4f326eb"},"vehicle_type_id":"4","last_reported":1762960317,"current_range_meters":16000,"station_id":"ce4bhs12rcd13ifvqhvg","pricing_plan_id":"cebpf4jnsgd1na2vs0mg"},{"bike_id":"52d4b8ef-bd3b-4594-9933-6de587b7e338","system_id":"levelo_inurba_marseille","lat":43.22929,"lon":5.35381,"is_reserved":false,"is_disabled":false,"rental_uris":{"android":"levelo://app?vid=52d4b8ef-bd3b-4594-9933-6de587b7e338","ios":"levelo://app?vid=52d4b8ef-bd3b-4594-9933-6de587b7e338"},"vehicle_type_id":"4","last_reported":1762960317,"current_range_meters":16000,"station_id":"cpo3532slgdg3j2ikp40","pricing_plan_id":"cebpf4jnsgd1na2vs0mg"},{"bike_id":"502a8213-e2c5-4509-8429-9fded9cb3d0a","system_id":"levelo_inurba_marseille","lat":43.292729,"lon":5.368348,"is_reserved":false,"is_disabled":true,"rental_uris":{"android":"levelo://app?vid=502a8213-e2c5-4509-8429-9fded9cb3d0a","ios":"levelo://app?vid=502a8213-e2c5-4509-8429-9fded9cb3d0a"},"vehicle_type_id":"4","last_reported":1762960317,"current_range_meters":16000,"station_id":"ce4bhbp2rcd13ifvqesg","pricing_plan_id":"cebpf4jnsgd1na2vs0mg"},{"bike_id":"831c7e90-147b-4ceb-a841-3d90e7679bf3","system_id":"levelo_inurba_marseille","lat":43.29925,"lon":5.36547,"is_reserved":false,"is_disabled":false,"rental_uris":{"android":"levelo://app?vid=831c7e90-147b-4ceb-a841-3d90e7679bf3","ios":"levelo://app?vid=831c7e90-147b-4ceb-a841-3d90e7679bf3"},"vehicle_type_id":"4","last_reported":1762960317,"current_range_meters":16000,"station_id":"ce4bgm92rcd13ifvqbr0","pricing_plan_id":"cebpf4jnsgd1na2vs0mg"},{"bike_id":"0188a02f-7c37-4092-a350-bb04a11b44fd","system_id":"levelo_inurba_marseille","lat":43.28701,"lon":5.37395,"is_reserved":false,"is_disabled":false,"rental_uris":{"android":"levelo://app?vid=0188a02f-7c37-4092-a350-bb04a11b44fd","ios":"levelo://app?vid=0188a02f-7c37-4092-a350-bb04a11b44fd"},"vehicle_type_id":"4","last_reported":1762960317,"current_range_meters":16400,"station_id":"ce4bh3p2rcd13ifvqdq0","pricing_plan_id":"cebpf4jnsgd1na2vs0mg"},{"bike_id":"3551fb74-c082-497c-a7ce-4fc293128f71","system_id":"levelo_inurba_marseille","lat":43.22934,"lon":5.35381,"is_reserved":false,"is_disabled":false,"rental_uris":{"android":"levelo://app?vid=3551fb74-c082-497c-a7ce-4fc293128f71","ios":"levelo://app?vid=3551fb74-c082-497c-a7ce-4fc293128f71"},"vehicle_type_id":"4","last_reported":1762960317,"current_range_meters":16400,"station_id":"cpo3532slgdg3j2ikp40","pricing_plan_id":"cebpf4jnsgd1na2vs0mg"},{"bike_id":"a76ed384-8adb-4855-8ea9-608b64e9d92b","system_id":"levelo_inurba_marseille","lat":43.32287,"lon":5.369882,"is_reserved":false,"is_disabled":false,"rental_uris":{"android":"levelo://app?vid=a76ed384-8adb-4855-8ea9-608b64e9d92b","ios":"levelo://app?vid=a76ed384-8adb-4855-8ea9-608b64e9d92b"},"vehicle_type_id":"4","last_reported":1762960317,"current_range_meters":16400,"station_id":"","pricing_plan_id":"cebpf4jnsgd1na2vs0mg"},{"bike_id":"87b2ef88-27d3-45ad-b375-3418795e8580","system_id":"levelo_inurba_marseille","lat":43.21744,"lon":5.34605,"is_reserved":false,"is_disabled":false,"rental_uris":{"android":"levelo://app?vid=87b2ef88-27d3-45ad-b375-3418795e8580","ios":"levelo://app?vid=87b2ef88-27d3-45ad-b375-3418795e8580"},"vehicle_type_id":"4","last_reported":1762960317,"current_range_meters":16400,"station_id":"st_cvj6r9ubvosntc0bgbag","pricing_plan_id":"cebpf4jnsgd1na2vs0mg"},{"bike_id":"008ccf71-44bc-46cb-978a-1f4b71709aa7","system_id":"levelo_inurba_marseille","lat":43.24631,"lon":5.43146,"is_reserved":false,"is_disabled":false,"rental_uris":{"android":"levelo://app?vid=008ccf71-44bc-46cb-978a-1f4b71709aa7","ios":"levelo://app?vid=008ccf71-44bc-46cb-978a-1f4b71709aa7"},"vehicle_type_id":"4","last_reported":1762960317,"current_range_meters":16400,"station_id":"st_d2m6c4gdas8pm72e190g","pricing_plan_id":"cebpf4jnsgd1na2vs0mg"},{"bike_id":"9d66a32a-b197-42ec-866c-fadd960bc138","system_id":"levelo_inurba_marseille","lat":43.28662,"lon":5.3637,"is_reserved":false,"is_disabled":false,"rental_uris":{"android":"levelo://app?vid=9d66a32a-b197-42ec-866c-fadd960bc138","ios":"levelo://app?vid=9d66a32a-b197-42ec-866c-fadd960bc138"},"vehicle_type_id":"4","last_reported":1762960317,"current_range_meters":16800,"station_id":"ce4bhah2rcd13ifvqej0","pricing_plan_id":"cebpf4jnsgd1na2vs0mg"},{"bike_id":"9020df64-5685-4311-9686-e18c8b16cfaa","system_id":"levelo_inurba_marseille","lat":43.29532,"lon":5.38559,"is_reserved":false,"is_disabled":false,"rental_uris":{"android":"levelo://app?vid=9020df64-5685-4311-9686-e18c8b16cfaa","ios":"levelo://app?vid=9020df64-5685-4311-9686-e18c8b16cfaa"},"vehicle_type_id":"4","last_reported":1762960317,"current_range_meters":16800,"station_id":"ce4bgih2rcd13ifvqba0","pricing_plan_id":"cebpf4jnsgd1na2vs0mg"},{"bike_id":"3ebfd771-15f9-440d-a339-6b112e22528e","system_id":"levelo_inurba_marseille","lat":43.317118,"lon":5.437064,"is_reserved":false,"is_disabled":false,"rental_uris":{"android":"levelo://app?vid=3ebfd771-15f9-440d-a339-6b112e22528e","ios":"levelo://app?vid=3ebfd771-15f9-440d-a339-6b112e22528e"},"vehicle_type_id":"4","last_reported":1762960317,"current_range_meters":16800,"station_id":"ce4bhp92rcd13ifvqhcg","pricing_plan_id":"cebpf4jnsgd1na2vs0mg"},{"bike_id":"9f257429-210e-4187-b310-fa3b4c5c3978","system_id":"levelo_inurba_marseille","lat":43.27347,"lon":5.40131,"is_reserved":false,"is_disabled":false,"rental_uris":{"android":"levelo://app?vid=9f257429-210e-4187-b310-fa3b4c5c3978","ios":"levelo://app?vid=9f257429-210e-4187-b310-fa3b4c5c3978"},"vehicle_type_id":"4","last_reported":1762960317,"current_range_meters":16800,"station_id":"","pricing_plan_id":"cebpf4jnsgd1na2vs0mg"},{"bike_id":"98d9ed27-1c51-4232-bb05-142a9e7f98db","system_id":"levelo_inurba_marseille","lat":43.31065,"lon":5.38345,"is_reserved":false,"is_disabled":true,"rental_uris":{"android":"levelo://app?vid=98d9ed27-1c51-4232-bb05-142a9e7f98db","ios":"levelo://app?vid=98d9ed27-1c51-4232-bb05-142a9e7f98db"},"vehicle_type_id":"4","last_reported":1762960317,"current_range_meters":16800,"station_id":"ce4bgv92rcd13ifvqcr0","pricing_plan_id":"cebpf4jnsgd1na2vs0mg"},{"bike_id":"f1ef149f-c718-4bd2-967e-602af5a5108c","system_id":"levelo_inurba_marseille","lat":43.304597,"lon":5.379101,"is_reserved":false,"is_disabled":false,"rental_uris":{"android":"levelo://app?vid=f1ef149f-c718-4bd2-967e-602af5a5108c","ios":"levelo://app?vid=f1ef149f-c718-4bd2-967e-602af5a5108c"},"vehicle_type_id":"4","last_reported":1762960317,"current_range_meters":16800,"station_id":"ce4bgup2rcd13ifvqcn0","pricing_plan_id":"cebpf4jnsgd1na2vs0mg"},{"bike_id":"7c1fb98d-3688-454d-b542-b5ecc52bd3e9","system_id":"levelo_inurba_marseille","lat":43.29719,"lon":5.368484,"is_reserved":false,"is_disabled":false,"rental_uris":{"android":"levelo://app?vid=7c1fb98d-3688-454d-b542-b5ecc52bd3e9","ios":"levelo://app?vid=7c1fb98d-3688-454d-b542-b5ecc52bd3e9"},"vehicle_type_id":"4","last_reported":1762960317,"current_range_meters":16800,"station_id":"ce4bgn12rcd13ifvqbt0","pricing_plan_id":"cebpf4jnsgd1na2vs0mg"},{"bike_id":"b973542d-88ff-4253-9b4e-a75517007190","system_id":"levelo_inurba_marseille","lat":43.29676,"lon":5.37602,"is_reserved":false,"is_disabled":false,"rental_uris":{"android":"levelo://app?vid=b973542d-88ff-4253-9b4e-a75517007190","ios":"levelo://app?vid=b973542d-88ff-4253-9b4e-a75517007190"},"vehicle_type_id":"4","last_reported":1762960317,"current_range_meters":16800,"station_id":"","pricing_plan_id":"cebpf4jnsgd1na2vs0mg"},{"bike_id":"e0940536-8e97-445f-9fc3-1d0cc2c2fe80","system_id":"levelo_inurba_marseille","lat":43.337444,"lon":5.374475,"is_reserved":false,"is_disabled":false,"rental_uris":{"android":"levelo://app?vid=e0940536-8e97-445f-9fc3-1d0cc2c2fe80","ios":"levelo://app?vid=e0940536-8e97-445f-9fc3-1d0cc2c2fe80"},"vehicle_type_id":"4","last_reported":1762960317,"current_range_meters":16800,"station_id":"","pricing_plan_id":"cebpf4jnsgd1na2vs0mg"},{"bike_id":"082c1237-8aa0-49a2-bf0e-d4458998e41b","system_id":"levelo_inurba_marseille","lat":43.30528,"lon":5.36715,"is_reserved":false,"is_disabled":false,"rental_uris":{"android":"levelo://app?vid=082c1237-8aa0-49a2-bf0e-d4458998e41b","ios":"levelo://app?vid=082c1237-8aa0-49a2-bf0e-d4458998e41b"},"vehicle_type_id":"4","last_reported":1762960317,"current_range_meters":16800,"station_id":"ce4bgrp2rcd13ifvqc9g","pricing_plan_id":"cebpf4jnsgd1na2vs0mg"},{"bike_id":"f345188e-bd4e-4211-a481-2ed7c2712a7b","system_id":"levelo_inurba_marseille","lat":43.2175,"lon":5.34603,"is_reserved":false,"is_disabled":false,"rental_uris":{"android":"levelo://app?vid=f345188e-bd4e-4211-a481-2ed7c2712a7b","ios":"levelo://app?vid=f345188e-bd4e-4211-a481-2ed7c2712a7b"},"vehicle_type_id":"4","last_reported":1762960317,"current_range_meters":16800,"station_id":"st_cvj6r9ubvosntc0bgbag","pricing_plan_id":"cebpf4jnsgd1na2vs0mg"},{"bike_id":"1826021c-78d5-4bf7-9950-ab922f7cd7e0","system_id":"levelo_inurba_marseille","lat":43.32367,"lon":5.3674,"is_reserved":false,"is_disabled":false,"rental_uris":{"android":"levelo://app?vid=1826021c-78d5-4bf7-9950-ab922f7cd7e0","ios":"levelo://app?vid=1826021c-78d5-4bf7-9950-ab922f7cd7e0"},"vehicle_type_id":"4","last_reported":1762960317,"current_range_meters":17200,"station_id":"ce4bhsh2rcd13ifvqi2g","pricing_plan_id":"cebpf4jnsgd1na2vs0mg"},{"bike_id":"ef3787f7-4815-49ad-b8f4-4132eb78b8f9","system_id":"levelo_inurba_marseille","lat":43.30531,"lon":5.365336,"is_reserved":false,"is_disabled":false,"rental_uris":{"android":"levelo://app?vid=ef3787f7-4815-49ad-b8f4-4132eb78b8f9","ios":"levelo://app?vid=ef3787f7-4815-49ad-b8f4-4132eb78b8f9"},"vehicle_type_id":"4","last_reported":1762960317,"current_range_meters":17200,"station_id":"ce4bgs12rcd13ifvqcag","pricing_plan_id":"cebpf4jnsgd1na2vs0mg"},{"bike_id":"8369aa72-98f1-43e6-a29f-5802aaa9979e","system_id":"levelo_inurba_marseille","lat":43.280377,"lon":5.36948,"is_reserved":false,"is_disabled":false,"rental_uris":{"android":"levelo://app?vid=8369aa72-98f1-43e6-a29f-5802aaa9979e","ios":"levelo://app?vid=8369aa72-98f1-43e6-a29f-5802aaa9979e"},"vehicle_type_id":"4","last_reported":1762960317,"current_range_meters":17200,"station_id":"ce4bha12rcd13ifvqef0","pricing_plan_id":"cebpf4jnsgd1na2vs0mg"},{"bike_id":"09e2a974-d036-4bd7-9e2f-9f2f0e986785","system_id":"levelo_inurba_marseille","lat":43.29233,"lon":5.40912,"is_reserved":false,"is_disabled":false,"rental_uris":{"android":"levelo://app?vid=09e2a974-d036-4bd7-9e2f-9f2f0e986785","ios":"levelo://app?vid=09e2a974-d036-4bd7-9e2f-9f2f0e986785"},"vehicle_type_id":"4","last_reported":1762960317,"current_range_meters":17200,"station_id":"ce4bh192rcd13ifvqdc0","pricing_plan_id":"cebpf4jnsgd1na2vs0mg"},{"bike_id":"23f9c78c-ca0a-48be-8a9d-156c748920c2","system_id":"levelo_inurba_marseille","lat":43.279181,"lon":5.410366,"is_reserved":false,"is_disabled":false,"rental_uris":{"android":"levelo://app?vid=23f9c78c-ca0a-48be-8a9d-156c748920c2","ios":"levelo://app?vid=23f9c78c-ca0a-48be-8a9d-156c748920c2"},"vehicle_type_id":"4","last_reported":1762960317,"current_range_meters":17200,"station_id":"ce4bhnp2rcd13ifvqh0g","pricing_plan_id":"cebpf4jnsgd1na2vs0mg"},{"bike_id":"4f27c235-11df-4df2-bfdf-8938c3d9c6ba","system_id":"levelo_inurba_marseille","lat":43.33781,"lon":5.37431,"is_reserved":false,"is_disabled":false,"rental_uris":{"android":"levelo://app?vid=4f27c235-11df-4df2-bfdf-8938c3d9c6ba","ios":"levelo://app?vid=4f27c235-11df-4df2-bfdf-8938c3d9c6ba"},"vehicle_type_id":"4","last_reported":1762960317,"current_range_meters":17200,"station_id":"","pricing_plan_id":"cebpf4jnsgd1na2vs0mg"},{"bike_id":"9e8eb266-3d79-4904-9603-1f604c93bb75","system_id":"levelo_inurba_marseille","lat":43.24073,"lon":5.37764,"is_reserved":false,"is_disabled":false,"rental_uris":{"android":"levelo://app?vid=9e8eb266-3d79-4904-9603-1f604c93bb75","ios":"levelo://app?vid=9e8eb266-3d79-4904-9603-1f604c93bb75"},"vehicle_type_id":"4","last_reported":1762960317,"current_range_meters":17200,"station_id":"ce4bhnp2rcd13ifvqgvg","pricing_plan_id":"cebpf4jnsgd1na2vs0mg"},{"bike_id":"2380415b-651d-4cb4-9936-c30499ae6b46","system_id":"levelo_inurba_marseille","lat":43.217448,"lon":5.346074,"is_reserved":false,"is_disabled":true,"rental_uris":{"android":"levelo://app?vid=2380415b-651d-4cb4-9936-c30499ae6b46","ios":"levelo://app?vid=2380415b-651d-4cb4-9936-c30499ae6b46"},"vehicle_type_id":"4","last_reported":1762960317,"current_range_meters":17200,"station_id":"","pricing_plan_id":"cebpf4jnsgd1na2vs0mg"},{"bike_id":"c9a41f20-861a-4d32-91b1-292791b535f8","system_id":"levelo_inurba_marseille","lat":43.30535,"lon":5.36539,"is_reserved":false,"is_disabled":false,"rental_uris":{"android":"levelo://app?vid=c9a41f20-861a-4d32-91b1-292791b535f8","ios":"levelo://app?vid=c9a41f20-861a-4d32-91b1-292791b535f8"},"vehicle_type_id":"4","last_reported":1762960317,"current_range_meters":17600,"station_id":"ce4bgs12rcd13ifvqcag","pricing_plan_id":"cebpf4jnsgd1na2vs0mg"},{"bike_id":"9924d4b7-bcba-4f86-bf4f-dae21e588165","system_id":"levelo_inurba_marseille","lat":43.301793,"lon":5.387449,"is_reserved":false,"is_disabled":false,"rental_uris":{"android":"levelo://app?vid=9924d4b7-bcba-4f86-bf4f-dae21e588165","ios":"levelo://app?vid=9924d4b7-bcba-4f86-bf4f-dae21e588165"},"vehicle_type_id":"4","last_reported":1762960317,"current_range_meters":17600,"station_id":"ce4bghh2rcd13ifvqb60","pricing_plan_id":"cebpf4jnsgd1na2vs0mg"},{"bike_id":"9481d757-8af6-4edd-ab3f-1e5b4f4f8c6e","system_id":"levelo_inurba_marseille","lat":43.269378,"lon":5.389254,"is_reserved":false,"is_disabled":false,"rental_uris":{"android":"levelo://app?vid=9481d757-8af6-4edd-ab3f-1e5b4f4f8c6e","ios":"levelo://app?vid=9481d757-8af6-4edd-ab3f-1e5b4f4f8c6e"},"vehicle_type_id":"4","last_reported":1762960317,"current_range_meters":17600,"station_id":"ce4bhhh2rcd13ifvqfl0","pricing_plan_id":"cebpf4jnsgd1na2vs0mg"},{"bike_id":"fd543566-b066-4e8b-acc4-6b271089536a","system_id":"levelo_inurba_marseille","lat":43.29587,"lon":5.38109,"is_reserved":false,"is_disabled":false,"rental_uris":{"android":"levelo://app?vid=fd543566-b066-4e8b-acc4-6b271089536a","ios":"levelo://app?vid=fd543566-b066-4e8b-acc4-6b271089536a"},"vehicle_type_id":"4","last_reported":1762960317,"current_range_meters":17600,"station_id":"ce4bgl12rcd13ifvqbo0","pricing_plan_id":"cebpf4jnsgd1na2vs0mg"},{"bike_id":"5e31c7d8-3f5b-43e0-9a64-04fd6cacf51c","system_id":"levelo_inurba_marseille","lat":43.30911,"lon":5.36857,"is_reserved":false,"is_disabled":false,"rental_uris":{"android":"levelo://app?vid=5e31c7d8-3f5b-43e0-9a64-04fd6cacf51c","ios":"levelo://app?vid=5e31c7d8-3f5b-43e0-9a64-04fd6cacf51c"},"vehicle_type_id":"4","last_reported":1762960317,"current_range_meters":17600,"station_id":"ce4bgn92rcd13ifvqbvg","pricing_plan_id":"cebpf4jnsgd1na2vs0mg"},{"bike_id":"a68809aa-d0e6-461c-a5e6-8fdb1f2108c8","system_id":"levelo_inurba_marseille","lat":43.28317,"lon":5.35064,"is_reserved":false,"is_disabled":false,"rental_uris":{"android":"levelo://app?vid=a68809aa-d0e6-461c-a5e6-8fdb1f2108c8","ios":"levelo://app?vid=a68809aa-d0e6-461c-a5e6-8fdb1f2108c8"},"vehicle_type_id":"4","last_reported":1762960317,"current_range_meters":17600,"station_id":"ce4bhbp2rcd13ifvqerg","pricing_plan_id":"cebpf4jnsgd1na2vs0mg"},{"bike_id":"e690290b-b188-4bf4-9457-b92ed6970cb4","system_id":"levelo_inurba_marseille","lat":43.21193,"lon":5.35098,"is_reserved":false,"is_disabled":true,"rental_uris":{"android":"levelo://app?vid=e690290b-b188-4bf4-9457-b92ed6970cb4","ios":"levelo://app?vid=e690290b-b188-4bf4-9457-b92ed6970cb4"},"vehicle_type_id":"4","last_reported":1762960317,"current_range_meters":17600,"station_id":"st_cvj6sg6p6f1abm77japg","pricing_plan_id":"cebpf4jnsgd1na2vs0mg"},{"bike_id":"b9e37800-9fe6-4284-886e-94c2a4394fc2","system_id":"levelo_inurba_marseille","lat":43.250896,"lon":5.395119,"is_reserved":false,"is_disabled":false,"rental_uris":{"android":"levelo://app?vid=b9e37800-9fe6-4284-886e-94c2a4394fc2","ios":"levelo://app?vid=b9e37800-9fe6-4284-886e-94c2a4394fc2"},"vehicle_type_id":"4","last_reported":1762960317,"current_range_meters":17600,"station_id":"ce4bhm12rcd13ifvqgkg","pricing_plan_id":"cebpf4jnsgd1na2vs0mg"},{"bike_id":"4b2cf499-ab9a-4e3a-918c-daf640133242","system_id":"levelo_inurba_marseille","lat":43.27422,"lon":5.39414,"is_reserved":false,"is_disabled":false,"rental_uris":{"android":"levelo://app?vid=4b2cf499-ab9a-4e3a-918c-daf640133242","ios":"levelo://app?vid=4b2cf499-ab9a-4e3a-918c-daf640133242"},"vehicle_type_id":"4","last_reported":1762960317,"current_range_meters":17600,"station_id":"ce4bhdp2rcd13ifvqf20","pricing_plan_id":"cebpf4jnsgd1na2vs0mg"},{"bike_id":"8fd55e53-be61-44d2-b076-f7df406ab515","system_id":"levelo_inurba_marseille","lat":43.305407,"lon":5.365541,"is_reserved":false,"is_disabled":false,"rental_uris":{"android":"levelo://app?vid=8fd55e53-be61-44d2-b076-f7df406ab515","ios":"levelo://app?vid=8fd55e53-be61-44d2-b076-f7df406ab515"},"vehicle_type_id":"4","last_reported":1762960317,"current_range_meters":18000,"station_id":"ce4bgs12rcd13ifvqcag","pricing_plan_id":"cebpf4jnsgd1na2vs0mg"},{"bike_id":"fbbbd21e-827d-4012-9a04-5e64f73afc68","system_id":"levelo_inurba_marseille","lat":43.30322,"lon":5.37728,"is_reserved":false,"is_disabled":false,"rental_uris":{"android":"levelo://app?vid=fbbbd21e-827d-4012-9a04-5e64f73afc68","ios":"levelo://app?vid=fbbbd21e-827d-4012-9a04-5e64f73afc68"},"vehicle_type_id":"4","last_reported":1762960317,"current_range_meters":18000,"station_id":"ce4bguh2rcd13ifvqcj0","pricing_plan_id":"cebpf4jnsgd1na2vs0mg"},{"bike_id":"0d050f3d-e82f-49c6-8e93-2cd9d8370d52","system_id":"levelo_inurba_marseille","lat":43.30536,"lon":5.365534,"is_reserved":false,"is_disabled":false,"rental_uris":{"android":"levelo://app?vid=0d050f3d-e82f-49c6-8e93-2cd9d8370d52","ios":"levelo://app?vid=0d050f3d-e82f-49c6-8e93-2cd9d8370d52"},"vehicle_type_id":"4","last_reported":1762960317,"current_range_meters":18000,"station_id":"ce4bgs12rcd13ifvqcag","pricing_plan_id":"cebpf4jnsgd1na2vs0mg"},{"bike_id":"3f3db3e0-8786-462c-9790-1156703a5fd2","system_id":"levelo_inurba_marseille","lat":43.22919,"lon":5.35376,"is_reserved":false,"is_disabled":false,"rental_uris":{"android":"levelo://app?vid=3f3db3e0-8786-462c-9790-1156703a5fd2","ios":"levelo://app?vid=3f3db3e0-8786-462c-9790-1156703a5fd2"},"vehicle_type_id":"4","last_reported":1762960317,"current_range_meters":18000,"station_id":"cpo3532slgdg3j2ikp40","pricing_plan_id":"cebpf4jnsgd1na2vs0mg"},{"bike_id":"4a758c08-28b2-4a1a-8416-9f1b5c31d6d7","system_id":"levelo_inurba_marseille","lat":43.26568,"lon":5.39013,"is_reserved":false,"is_disabled":false,"rental_uris":{"android":"levelo://app?vid=4a758c08-28b2-4a1a-8416-9f1b5c31d6d7","ios":"levelo://app?vid=4a758c08-28b2-4a1a-8416-9f1b5c31d6d7"},"vehicle_type_id":"4","last_reported":1762960317,"current_range_meters":18000,"station_id":"ce4bhe12rcd13ifvqf30","pricing_plan_id":"cebpf4jnsgd1na2vs0mg"},{"bike_id":"10aca731-8088-45d4-9fa2-2e09aaeb8d2c","system_id":"levelo_inurba_marseille","lat":43.298402,"lon":5.362518,"is_reserved":false,"is_disabled":false,"rental_uris":{"android":"levelo://app?vid=10aca731-8088-45d4-9fa2-2e09aaeb8d2c","ios":"levelo://app?vid=10aca731-8088-45d4-9fa2-2e09aaeb8d2c"},"vehicle_type_id":"4","last_reported":1762960317,"current_range_meters":18000,"station_id":"ce4bgpp2rcd13ifvqc3g","pricing_plan_id":"cebpf4jnsgd1na2vs0mg"},{"bike_id":"676ebf71-b20b-4050-aa07-653abe4fc568","system_id":"levelo_inurba_marseille","lat":43.27812,"lon":5.4072,"is_reserved":false,"is_disabled":false,"rental_uris":{"android":"levelo://app?vid=676ebf71-b20b-4050-aa07-653abe4fc568","ios":"levelo://app?vid=676ebf71-b20b-4050-aa07-653abe4fc568"},"vehicle_type_id":"4","last_reported":1762960317,"current_range_meters":18800,"station_id":"ce4bhnh2rcd13ifvqgtg","pricing_plan_id":"cebpf4jnsgd1na2vs0mg"},{"bike_id":"8fb42f02-18ff-415d-aad4-9898ce515f3f","system_id":"levelo_inurba_marseille","lat":43.23155,"lon":5.4372,"is_reserved":false,"is_disabled":false,"rental_uris":{"android":"levelo://app?vid=8fb42f02-18ff-415d-aad4-9898ce515f3f","ios":"levelo://app?vid=8fb42f02-18ff-415d-aad4-9898ce515f3f"},"vehicle_type_id":"4","last_reported":1762960317,"current_range_meters":18800,"station_id":"ce4bhmp2rcd13ifvqgog","pricing_plan_id":"cebpf4jnsgd1na2vs0mg"},{"bike_id":"a4990649-013b-42c7-bac2-37f8494e66b2","system_id":"levelo_inurba_marseille","lat":43.27315,"lon":5.39079,"is_reserved":false,"is_disabled":false,"rental_uris":{"android":"levelo://app?vid=a4990649-013b-42c7-bac2-37f8494e66b2","ios":"levelo://app?vid=a4990649-013b-42c7-bac2-37f8494e66b2"},"vehicle_type_id":"4","last_reported":1762960317,"current_range_meters":18800,"station_id":"ce4bhgp2rcd13ifvqfe0","pricing_plan_id":"cebpf4jnsgd1na2vs0mg"},{"bike_id":"7ddb6f62-0ee8-49ee-84a8-95bb4f4c5de3","system_id":"levelo_inurba_marseille","lat":43.25574,"lon":5.38225,"is_reserved":false,"is_disabled":false,"rental_uris":{"android":"levelo://app?vid=7ddb6f62-0ee8-49ee-84a8-95bb4f4c5de3","ios":"levelo://app?vid=7ddb6f62-0ee8-49ee-84a8-95bb4f4c5de3"},"vehicle_type_id":"4","last_reported":1762960317,"current_range_meters":18800,"station_id":"ce4bhih2rcd13ifvqfs0","pricing_plan_id":"cebpf4jnsgd1na2vs0mg"},{"bike_id":"7cbbc2fb-70fd-4359-bcfa-13236dd902ab","system_id":"levelo_inurba_marseille","lat":43.27906,"lon":5.39572,"is_reserved":false,"is_disabled":false,"rental_uris":{"android":"levelo://app?vid=7cbbc2fb-70fd-4359-bcfa-13236dd902ab","ios":"levelo://app?vid=7cbbc2fb-70fd-4359-bcfa-13236dd902ab"},"vehicle_type_id":"4","last_reported":1762960317,"current_range_meters":18800,"station_id":"ce4bhf92rcd13ifvqf40","pricing_plan_id":"cebpf4jnsgd1na2vs0mg"},{"bike_id":"4466b6ea-6fa4-41f0-91a5-c2524c86027c","system_id":"levelo_inurba_marseille","lat":43.3153,"lon":5.38029,"is_reserved":false,"is_disabled":false,"rental_uris":{"android":"levelo://app?vid=4466b6ea-6fa4-41f0-91a5-c2524c86027c","ios":"levelo://app?vid=4466b6ea-6fa4-41f0-91a5-c2524c86027c"},"vehicle_type_id":"4","last_reported":1762960317,"current_range_meters":18800,"station_id":"ce4bhsp2rcd13ifvqi50","pricing_plan_id":"cebpf4jnsgd1na2vs0mg"},{"bike_id":"2996db98-0e13-44d9-8a5e-417832519060","system_id":"levelo_inurba_marseille","lat":43.29555,"lon":5.42278,"is_reserved":false,"is_disabled":false,"rental_uris":{"android":"levelo://app?vid=2996db98-0e13-44d9-8a5e-417832519060","ios":"levelo://app?vid=2996db98-0e13-44d9-8a5e-417832519060"},"vehicle_type_id":"4","last_reported":1762960317,"current_range_meters":18800,"station_id":"ce4bhph2rcd13ifvqhdg","pricing_plan_id":"cebpf4jnsgd1na2vs0mg"},{"bike_id":"7988cffc-583c-43ce-899c-0d06f95a5cbb","system_id":"levelo_inurba_marseille","lat":43.23783,"lon":5.36632,"is_reserved":false,"is_disabled":false,"rental_uris":{"android":"levelo://app?vid=7988cffc-583c-43ce-899c-0d06f95a5cbb","ios":"levelo://app?vid=7988cffc-583c-43ce-899c-0d06f95a5cbb"},"vehicle_type_id":"4","last_reported":1762960317,"current_range_meters":18800,"station_id":"st_d3nk18o9ro0c73en2l3g","pricing_plan_id":"cebpf4jnsgd1na2vs0mg"},{"bike_id":"4930e871-eeac-40ca-b4ee-36ddc8ee3366","system_id":"levelo_inurba_marseille","lat":43.231951,"lon":5.355623,"is_reserved":false,"is_disabled":false,"rental_uris":{"android":"levelo://app?vid=4930e871-eeac-40ca-b4ee-36ddc8ee3366","ios":"levelo://app?vid=4930e871-eeac-40ca-b4ee-36ddc8ee3366"},"vehicle_type_id":"4","last_reported":1762960317,"current_range_meters":18800,"station_id":"ce4bhu92rcd13ifvqi70","pricing_plan_id":"cebpf4jnsgd1na2vs0mg"},{"bike_id":"48812cf1-d406-4ddc-ac37-09889e751308","system_id":"levelo_inurba_marseille","lat":43.32119,"lon":5.36792,"is_reserved":false,"is_disabled":false,"rental_uris":{"android":"levelo://app?vid=48812cf1-d406-4ddc-ac37-09889e751308","ios":"levelo://app?vid=48812cf1-d406-4ddc-ac37-09889e751308"},"vehicle_type_id":"4","last_reported":1762960317,"current_range_meters":18800,"station_id":"ce4bhrh2rcd13ifvqhug","pricing_plan_id":"cebpf4jnsgd1na2vs0mg"},{"bike_id":"bc8869cd-095f-4487-9f1b-eac2fa6ed12e","system_id":"levelo_inurba_marseille","lat":43.295351,"lon":5.402996,"is_reserved":false,"is_disabled":false,"rental_uris":{"android":"levelo://app?vid=bc8869cd-095f-4487-9f1b-eac2fa6ed12e","ios":"levelo://app?vid=bc8869cd-095f-4487-9f1b-eac2fa6ed12e"},"vehicle_type_id":"4","last_reported":1762960317,"current_range_meters":18800,"station_id":"ce4bh112rcd13ifvqd90","pricing_plan_id":"cebpf4jnsgd1na2vs0mg"},{"bike_id":"3ac11163-cf82-4c70-8f35-1e25bbffc30c","system_id":"levelo_inurba_marseille","lat":43.25717,"lon":5.41126,"is_reserved":false,"is_disabled":false,"rental_uris":{"android":"levelo://app?vid=3ac11163-cf82-4c70-8f35-1e25bbffc30c","ios":"levelo://app?vid=3ac11163-cf82-4c70-8f35-1e25bbffc30c"},"vehicle_type_id":"4","last_reported":1762960317,"current_range_meters":19200,"station_id":"ce4bhkp2rcd13ifvqgd0","pricing_plan_id":"cebpf4jnsgd1na2vs0mg"},{"bike_id":"c83b5c1b-edab-4bfb-a2f2-d3468c55c2ba","system_id":"levelo_inurba_marseille","lat":43.29166,"lon":5.44874,"is_reserved":false,"is_disabled":false,"rental_uris":{"android":"levelo://app?vid=c83b5c1b-edab-4bfb-a2f2-d3468c55c2ba","ios":"levelo://app?vid=c83b5c1b-edab-4bfb-a2f2-d3468c55c2ba"},"vehicle_type_id":"4","last_reported":1762960317,"current_range_meters":19200,"station_id":"","pricing_plan_id":"cebpf4jnsgd1na2vs0mg"},{"bike_id":"7a1ef263-c216-402e-bafc-92d8214c104a","system_id":"levelo_inurba_marseille","lat":43.337444,"lon":5.374475,"is_reserved":false,"is_disabled":false,"rental_uris":{"android":"levelo://app?vid=7a1ef263-c216-402e-bafc-92d8214c104a","ios":"levelo://app?vid=7a1ef263-c216-402e-bafc-92d8214c104a"},"vehicle_type_id":"4","last_reported":1762960317,"current_range_meters":19200,"station_id":"","pricing_plan_id":"cebpf4jnsgd1na2vs0mg"},{"bike_id":"5076ebe3-5daf-4d96-9bc4-ca81c0fe1daf","system_id":"levelo_inurba_marseille","lat":43.26775,"lon":5.39421,"is_reserved":false,"is_disabled":false,"rental_uris":{"android":"levelo://app?vid=5076ebe3-5daf-4d96-9bc4-ca81c0fe1daf","ios":"levelo://app?vid=5076ebe3-5daf-4d96-9bc4-ca81c0fe1daf"},"vehicle_type_id":"4","last_reported":1762960317,"current_range_meters":19200,"station_id":"ce4bhh12rcd13ifvqfg0","pricing_plan_id":"cebpf4jnsgd1na2vs0mg"},{"bike_id":"ab17ac4f-a279-4845-bb73-3855c94bea23","system_id":"levelo_inurba_marseille","lat":43.305261,"lon":5.365588,"is_reserved":false,"is_disabled":false,"rental_uris":{"android":"levelo://app?vid=ab17ac4f-a279-4845-bb73-3855c94bea23","ios":"levelo://app?vid=ab17ac4f-a279-4845-bb73-3855c94bea23"},"vehicle_type_id":"4","last_reported":1762960317,"current_range_meters":19200,"station_id":"ce4bgs12rcd13ifvqcag","pricing_plan_id":"cebpf4jnsgd1na2vs0mg"},{"bike_id":"33112738-bd15-41d4-aae1-465688929b4c","system_id":"levelo_inurba_marseille","lat":43.30681,"lon":5.39543,"is_reserved":false,"is_disabled":false,"rental_uris":{"android":"levelo://app?vid=33112738-bd15-41d4-aae1-465688929b4c","ios":"levelo://app?vid=33112738-bd15-41d4-aae1-465688929b4c"},"vehicle_type_id":"4","last_reported":1762960317,"current_range_meters":19200,"station_id":"","pricing_plan_id":"cebpf4jnsgd1na2vs0mg"},{"bike_id":"af54c478-9567-441c-8802-eb3d7c9ad5d5","system_id":"levelo_inurba_marseille","lat":43.30021,"lon":5.38884,"is_reserved":false,"is_disabled":false,"rental_uris":{"android":"levelo://app?vid=af54c478-9567-441c-8802-eb3d7c9ad5d5","ios":"levelo://app?vid=af54c478-9567-441c-8802-eb3d7c9ad5d5"},"vehicle_type_id":"4","last_reported":1762960317,"current_range_meters":19200,"station_id":"","pricing_plan_id":"cebpf4jnsgd1na2vs0mg"},{"bike_id":"30b41e82-9b75-44bc-b241-bf93939ebc74","system_id":"levelo_inurba_marseille","lat":43.28866,"lon":5.42518,"is_reserved":false,"is_disabled":false,"rental_uris":{"android":"levelo://app?vid=30b41e82-9b75-44bc-b241-bf93939ebc74","ios":"levelo://app?vid=30b41e82-9b75-44bc-b241-bf93939ebc74"},"vehicle_type_id":"4","last_reported":1762960317,"current_range_meters":19200,"station_id":"st_d3b462108ojc7389ooeg","pricing_plan_id":"cebpf4jnsgd1na2vs0mg"},{"bike_id":"cf0eb928-dd3f-4444-a0c9-83d1e5e46493","system_id":"levelo_inurba_marseille","lat":43.26813,"lon":5.40261,"is_reserved":false,"is_disabled":false,"rental_uris":{"android":"levelo://app?vid=cf0eb928-dd3f-4444-a0c9-83d1e5e46493","ios":"levelo://app?vid=cf0eb928-dd3f-4444-a0c9-83d1e5e46493"},"vehicle_type_id":"4","last_reported":1762960317,"current_range_meters":19200,"station_id":"ce501612rcd8frsf0b60","pricing_plan_id":"cebpf4jnsgd1na2vs0mg"},{"bike_id":"cc0f8ca4-ae33-432c-aefe-5c00c9e85faf","system_id":"levelo_inurba_marseille","lat":43.28872,"lon":5.42515,"is_reserved":false,"is_disabled":false,"rental_uris":{"android":"levelo://app?vid=cc0f8ca4-ae33-432c-aefe-5c00c9e85faf","ios":"levelo://app?vid=cc0f8ca4-ae33-432c-aefe-5c00c9e85faf"},"vehicle_type_id":"4","last_reported":1762960317,"current_range_meters":19200,"station_id":"st_d3b462108ojc7389ooeg","pricing_plan_id":"cebpf4jnsgd1na2vs0mg"},{"bike_id":"597565bb-7af0-479a-a962-37ca533ada02","system_id":"levelo_inurba_marseille","lat":43.29524,"lon":5.39058,"is_reserved":false,"is_disabled":false,"rental_uris":{"android":"levelo://app?vid=597565bb-7af0-479a-a962-37ca533ada02","ios":"levelo://app?vid=597565bb-7af0-479a-a962-37ca533ada02"},"vehicle_type_id":"4","last_reported":1762960317,"current_range_meters":19600,"station_id":"ce4bh3p2rcd13ifvqdp0","pricing_plan_id":"cebpf4jnsgd1na2vs0mg"},{"bike_id":"a7ef6d23-b170-4add-9afe-9c6bfa0b2e25","system_id":"levelo_inurba_marseille","lat":43.284149,"lon":5.349973,"is_reserved":false,"is_disabled":false,"rental_uris":{"android":"levelo://app?vid=a7ef6d23-b170-4add-9afe-9c6bfa0b2e25","ios":"levelo://app?vid=a7ef6d23-b170-4add-9afe-9c6bfa0b2e25"},"vehicle_type_id":"4","last_reported":1762960317,"current_range_meters":19600,"station_id":"ce4bhbh2rcd13ifvqepg","pricing_plan_id":"cebpf4jnsgd1na2vs0mg"},{"bike_id":"06eb574a-64cf-47d8-af69-ac973ce42a77","system_id":"levelo_inurba_marseille","lat":43.25577,"lon":5.38233,"is_reserved":false,"is_disabled":false,"rental_uris":{"android":"levelo://app?vid=06eb574a-64cf-47d8-af69-ac973ce42a77","ios":"levelo://app?vid=06eb574a-64cf-47d8-af69-ac973ce42a77"},"vehicle_type_id":"4","last_reported":1762960317,"current_range_meters":19600,"station_id":"ce4bhih2rcd13ifvqfs0","pricing_plan_id":"cebpf4jnsgd1na2vs0mg"},{"bike_id":"ec582d78-ef61-4e40-8a29-0ebbd6b7acdb","system_id":"levelo_inurba_marseille","lat":43.3127,"lon":5.36759,"is_reserved":false,"is_disabled":false,"rental_uris":{"android":"levelo://app?vid=ec582d78-ef61-4e40-8a29-0ebbd6b7acdb","ios":"levelo://app?vid=ec582d78-ef61-4e40-8a29-0ebbd6b7acdb"},"vehicle_type_id":"4","last_reported":1762960317,"current_range_meters":19600,"station_id":"","pricing_plan_id":"cebpf4jnsgd1na2vs0mg"},{"bike_id":"f9f36748-9764-48ce-be89-00c313effd75","system_id":"levelo_inurba_marseille","lat":43.3354,"lon":5.37453,"is_reserved":false,"is_disabled":false,"rental_uris":{"android":"levelo://app?vid=f9f36748-9764-48ce-be89-00c313effd75","ios":"levelo://app?vid=f9f36748-9764-48ce-be89-00c313effd75"},"vehicle_type_id":"4","last_reported":1762960317,"current_range_meters":19600,"station_id":"st_d46tts09ee8s73dlu43g","pricing_plan_id":"cebpf4jnsgd1na2vs0mg"},{"bike_id":"fc49e022-916b-4364-8aae-868a9613aae0","system_id":"levelo_inurba_marseille","lat":43.27823,"lon":5.40782,"is_reserved":false,"is_disabled":false,"rental_uris":{"android":"levelo://app?vid=fc49e022-916b-4364-8aae-868a9613aae0","ios":"levelo://app?vid=fc49e022-916b-4364-8aae-868a9613aae0"},"vehicle_type_id":"4","last_reported":1762960317,"current_range_meters":19600,"station_id":"","pricing_plan_id":"cebpf4jnsgd1na2vs0mg"},{"bike_id":"1c20e31d-63f1-4a3c-8311-d3e965de77d8","system_id":"levelo_inurba_marseille","lat":43.25725,"lon":5.41119,"is_reserved":false,"is_disabled":false,"rental_uris":{"android":"levelo://app?vid=1c20e31d-63f1-4a3c-8311-d3e965de77d8","ios":"levelo://app?vid=1c20e31d-63f1-4a3c-8311-d3e965de77d8"},"vehicle_type_id":"4","last_reported":1762960317,"current_range_meters":19600,"station_id":"ce4bhkp2rcd13ifvqgd0","pricing_plan_id":"cebpf4jnsgd1na2vs0mg"},{"bike_id":"8800e503-be15-4001-add3-b0c7e8480e6a","system_id":"levelo_inurba_marseille","lat":43.28455,"lon":5.35892,"is_reserved":false,"is_disabled":false,"rental_uris":{"android":"levelo://app?vid=8800e503-be15-4001-add3-b0c7e8480e6a","ios":"levelo://app?vid=8800e503-be15-4001-add3-b0c7e8480e6a"},"vehicle_type_id":"4","last_reported":1762960317,"current_range_meters":19600,"station_id":"ce4bhah2rcd13ifvqei0","pricing_plan_id":"cebpf4jnsgd1na2vs0mg"},{"bike_id":"7aaf3e86-46af-4ad7-81c4-39f79b6b93bd","system_id":"levelo_inurba_marseille","lat":43.30462,"lon":5.37911,"is_reserved":false,"is_disabled":false,"rental_uris":{"android":"levelo://app?vid=7aaf3e86-46af-4ad7-81c4-39f79b6b93bd","ios":"levelo://app?vid=7aaf3e86-46af-4ad7-81c4-39f79b6b93bd"},"vehicle_type_id":"4","last_reported":1762960317,"current_range_meters":19600,"station_id":"ce4bgup2rcd13ifvqcn0","pricing_plan_id":"cebpf4jnsgd1na2vs0mg"},{"bike_id":"1cd94639-ec8b-4901-a526-c1b3a8882626","system_id":"levelo_inurba_marseille","lat":43.21741,"lon":5.34615,"is_reserved":false,"is_disabled":false,"rental_uris":{"android":"levelo://app?vid=1cd94639-ec8b-4901-a526-c1b3a8882626","ios":"levelo://app?vid=1cd94639-ec8b-4901-a526-c1b3a8882626"},"vehicle_type_id":"4","last_reported":1762960317,"current_range_meters":20000,"station_id":"st_cvj6r9ubvosntc0bgbag","pricing_plan_id":"cebpf4jnsgd1na2vs0mg"},{"bike_id":"15293157-3cda-461a-b28b-98773f3b3c2f","system_id":"levelo_inurba_marseille","lat":43.25825,"lon":5.39439,"is_reserved":false,"is_disabled":false,"rental_uris":{"android":"levelo://app?vid=15293157-3cda-461a-b28b-98773f3b3c2f","ios":"levelo://app?vid=15293157-3cda-461a-b28b-98773f3b3c2f"},"vehicle_type_id":"4","last_reported":1762960317,"current_range_meters":20000,"station_id":"ce4bhip2rcd13ifvqft0","pricing_plan_id":"cebpf4jnsgd1na2vs0mg"},{"bike_id":"b568d2c3-d20b-47ec-9444-65b9d0adcc4c","system_id":"levelo_inurba_marseille","lat":43.31229,"lon":5.36849,"is_reserved":false,"is_disabled":false,"rental_uris":{"android":"levelo://app?vid=b568d2c3-d20b-47ec-9444-65b9d0adcc4c","ios":"levelo://app?vid=b568d2c3-d20b-47ec-9444-65b9d0adcc4c"},"vehicle_type_id":"4","last_reported":1762960317,"current_range_meters":20000,"station_id":"ce4bgl92rcd13ifvqbq0","pricing_plan_id":"cebpf4jnsgd1na2vs0mg"},{"bike_id":"30ae0b56-ce3d-43e0-a215-fa00d26209c8","system_id":"levelo_inurba_marseille","lat":43.2872,"lon":5.39986,"is_reserved":false,"is_disabled":true,"rental_uris":{"android":"levelo://app?vid=30ae0b56-ce3d-43e0-a215-fa00d26209c8","ios":"levelo://app?vid=30ae0b56-ce3d-43e0-a215-fa00d26209c8"},"vehicle_type_id":"4","last_reported":1762960317,"current_range_meters":20000,"station_id":"ce4bho92rcd13ifvqh3g","pricing_plan_id":"cebpf4jnsgd1na2vs0mg"},{"bike_id":"391c3d89-50ac-43cb-8a56-a96ab0bc2aa5","system_id":"levelo_inurba_marseille","lat":43.25584,"lon":5.38231,"is_reserved":false,"is_disabled":false,"rental_uris":{"android":"levelo://app?vid=391c3d89-50ac-43cb-8a56-a96ab0bc2aa5","ios":"levelo://app?vid=391c3d89-50ac-43cb-8a56-a96ab0bc2aa5"},"vehicle_type_id":"4","last_reported":1762960317,"current_range_meters":20000,"station_id":"ce4bhih2rcd13ifvqfs0","pricing_plan_id":"cebpf4jnsgd1na2vs0mg"},{"bike_id":"20832689-4d63-4431-8cde-741943eba01d","system_id":"levelo_inurba_marseille","lat":43.3233,"lon":5.3677,"is_reserved":false,"is_disabled":false,"rental_uris":{"android":"levelo://app?vid=20832689-4d63-4431-8cde-741943eba01d","ios":"levelo://app?vid=20832689-4d63-4431-8cde-741943eba01d"},"vehicle_type_id":"4","last_reported":1762960317,"current_range_meters":20000,"station_id":"ce4bhsh2rcd13ifvqi2g","pricing_plan_id":"cebpf4jnsgd1na2vs0mg"},{"bike_id":"b08a09f4-ff03-4a5d-b0a3-e663624f7160","system_id":"levelo_inurba_marseille","lat":43.3211,"lon":5.36778,"is_reserved":false,"is_disabled":false,"rental_uris":{"android":"levelo://app?vid=b08a09f4-ff03-4a5d-b0a3-e663624f7160","ios":"levelo://app?vid=b08a09f4-ff03-4a5d-b0a3-e663624f7160"},"vehicle_type_id":"4","last_reported":1762960317,"current_range_meters":20000,"station_id":"ce4bhrh2rcd13ifvqhug","pricing_plan_id":"cebpf4jnsgd1na2vs0mg"},{"bike_id":"a5177afe-2ccc-4812-b6dc-6f06e75bebff","system_id":"levelo_inurba_marseille","lat":43.29892,"lon":5.43658,"is_reserved":false,"is_disabled":false,"rental_uris":{"android":"levelo://app?vid=a5177afe-2ccc-4812-b6dc-6f06e75bebff","ios":"levelo://app?vid=a5177afe-2ccc-4812-b6dc-6f06e75bebff"},"vehicle_type_id":"4","last_reported":1762960317,"current_range_meters":20000,"station_id":"ce4bhpp2rcd13ifvqhfg","pricing_plan_id":"cebpf4jnsgd1na2vs0mg"},{"bike_id":"40f0a130-4e6d-49e1-847c-6c3e374d84dc","system_id":"levelo_inurba_marseille","lat":43.249951,"lon":5.404507,"is_reserved":false,"is_disabled":false,"rental_uris":{"android":"levelo://app?vid=40f0a130-4e6d-49e1-847c-6c3e374d84dc","ios":"levelo://app?vid=40f0a130-4e6d-49e1-847c-6c3e374d84dc"},"vehicle_type_id":"4","last_reported":1762960317,"current_range_meters":20000,"station_id":"ce4bhlh2rcd13ifvqgig","pricing_plan_id":"cebpf4jnsgd1na2vs0mg"},{"bike_id":"49480d2a-39a6-4240-8271-c470cd6779a7","system_id":"levelo_inurba_marseille","lat":43.28429,"lon":5.34993,"is_reserved":false,"is_disabled":false,"rental_uris":{"android":"levelo://app?vid=49480d2a-39a6-4240-8271-c470cd6779a7","ios":"levelo://app?vid=49480d2a-39a6-4240-8271-c470cd6779a7"},"vehicle_type_id":"4","last_reported":1762960317,"current_range_meters":20400,"station_id":"ce4bhbh2rcd13ifvqepg","pricing_plan_id":"cebpf4jnsgd1na2vs0mg"},{"bike_id":"9cb53874-dafa-406a-8143-d95e9895b4cb","system_id":"levelo_inurba_marseille","lat":43.30929,"lon":5.40138,"is_reserved":false,"is_disabled":false,"rental_uris":{"android":"levelo://app?vid=9cb53874-dafa-406a-8143-d95e9895b4cb","ios":"levelo://app?vid=9cb53874-dafa-406a-8143-d95e9895b4cb"},"vehicle_type_id":"4","last_reported":1762960317,"current_range_meters":20400,"station_id":"ce4bgvp2rcd13ifvqct0","pricing_plan_id":"cebpf4jnsgd1na2vs0mg"},{"bike_id":"463a2222-cf92-4007-943d-15872b32f98e","system_id":"levelo_inurba_marseille","lat":43.26557,"lon":5.39055,"is_reserved":false,"is_disabled":true,"rental_uris":{"android":"levelo://app?vid=463a2222-cf92-4007-943d-15872b32f98e","ios":"levelo://app?vid=463a2222-cf92-4007-943d-15872b32f98e"},"vehicle_type_id":"4","last_reported":1762960317,"current_range_meters":20400,"station_id":"ce4bhe12rcd13ifvqf30","pricing_plan_id":"cebpf4jnsgd1na2vs0mg"},