{"last_updated":1743059429,"ttl":60,"version":"2.2","data":{"bikes":[{"bike_id":"4c7df30a-9ead-4fb5-a0bb-8f4a5e925aee","system_id":"levelo_inurba_marseille","lat":43.27963,"lon":5.38701,"is_reserved":false,"is_disabled":false,"rental_uris":{"android":"levelo://app?vid=4c7df30a-9ead-4fb5-a0bb-8f4a5e925aee","ios":"levelo://app?vid=4c7df30a-9ead-4fb5-a0bb-8f4a5e925aee"},"vehicle_type_id":"4","last_reported":1743059429,"current_range_meters":2800,"station_id":"ce4bhg12rcd13ifvqf80","pricing_plan_id":"cebpf4jnsgd1na2vs0mg"},{"bike_id":"8b354ef7-ccf5-4a72-9d58-792dc6b2a05e","system_id":"levelo_inurba_marseille","lat":43.29937,"lon":5.36548,"is_reserved":false,"is_disabled":false,"rental_uris":{"android":"levelo://app?vid=8b354ef7-ccf5-4a72-9d58-792dc6b2a05e","ios":"levelo://app?vid=8b354ef7-ccf5-4a72-9d58-792dc6b2a05e"},"vehicle_type_id":"4","last_reported":1743059429,"current_range_meters":2800,"station_id":"ce4bgm92rcd13ifvqbr0","pricing_plan_id":"cebpf4jnsgd1na2vs0mg"},{"bike_id":"f91f05e0-d510-4cbb-89ac-f469af9f9186","system_id":"levelo_inurba_marseille","lat":43.29579,"lon":5.39985,"is_reserved":false,"is_disabled":false,"rental_uris":{"android":"levelo://app?vid=f91f05e0-d510-4cbb-89ac-f469af9f9186","ios":"levelo://app?vid=f91f05e0-d510-4cbb-89ac-f469af9f9186"},"vehicle_type_id":"4","last_reported":1743059429,"current_range_meters":2800,"station_id":"ce4bh312rcd13ifvqdj0","pricing_plan_id":"cebpf4jnsgd1na2vs0mg"},{"bike_id":"e84c5ba5-bcb8-4d28-be1e-3b654ec01ec0","system_id":"levelo_inurba_marseille","lat":43.25109,"lon":5.40321,"is_reserved":false,"is_disabled":false,"rental_uris":{"android":"levelo://app?vid=e84c5ba5-bcb8-4d28-be1e-3b654ec01ec0","ios":"levelo://app?vid=e84c5ba5-bcb8-4d28-be1e-3b654ec01ec0"},"vehicle_type_id":"4","last_reported":1743059429,"current_range_meters":2800,"station_id":"ce4bhlh2rcd13ifvqgig","pricing_plan_id":"cebpf4jnsgd1na2vs0mg"},{"bike_id":"cd20d16a-032a-4ea7-a430-255e9d8a59c5","system_id":"levelo_inurba_marseille","lat":43.31493,"lon":5.37441,"is_reserved":false,"is_disabled":false,"rental_uris":{"android":"levelo://app?vid=cd20d16a-032a-4ea7-a430-255e9d8a59c5","ios":"levelo://app?vid=cd20d16a-032a-4ea7-a430-255e9d8a59c5"},"vehicle_type_id":"4","last_reported":1743059429,"current_range_meters":2800,"station_id":"","pricing_plan_id":"cebpf4jnsgd1na2vs0mg"},{"bike_id":"c96d5f48-cfdd-4b34-887e-00521540eedf","system_id":"levelo_inurba_marseille","lat":43.29372,"lon":5.37831,"is_reserved":false,"is_disabled":false,"rental_uris":{"android":"levelo://app?vid=c96d5f48-cfdd-4b34-887e-00521540eedf","ios":"levelo://app?vid=c96d5f48-cfdd-4b34-887e-00521540eedf"},"vehicle_type_id":"4","last_reported":1743059429,"current_range_meters":2800,"station_id":"ce4bgjh2rcd13ifvqbf0","pricing_plan_id":"cebpf4jnsgd1na2vs0mg"},{"bike_id":"3516403d-1af4-4614-bdb6-a9027c140ddc","system_id":"levelo_inurba_marseille","lat":43.29583,"lon":5.37506,"is_reserved":false,"is_disabled":false,"rental_uris":{"android":"levelo://app?vid=3516403d-1af4-4614-bdb6-a9027c140ddc","ios":"levelo://app?vid=3516403d-1af4-4614-bdb6-a9027c140ddc"},"vehicle_type_id":"4","last_reported":1743059429,"current_range_meters":3200,"station_id":"ce4bgh92rcd13ifvqb50","pricing_plan_id":"cebpf4jnsgd1na2vs0mg"},{"bike_id":"1166a390-5ee0-4599-b63d-b09cb15c0001","system_id":"levelo_inurba_marseille","lat":43.24068,"lon":5.37781,"is_reserved":false,"is_disabled":false,"rental_uris":{"android":"levelo://app?vid=1166a390-5ee0-4599-b63d-b09cb15c0001","ios":"levelo://app?vid=1166a390-5ee0-4599-b63d-b09cb15c0001"},"vehicle_type_id":"4","last_reported":1743059429,"current_range_meters":3200,"station_id":"ce4bhnp2rcd13ifvqgvg","pricing_plan_id":"cebpf4jnsgd1na2vs0mg"},{"bike_id":"3cd9b5bc-fba0-4545-94d0-e86f3d302f0f","system_id":"levelo_inurba_marseille","lat":43.28177,"lon":5.42684,"is_reserved":false,"is_disabled":false,"rental_uris":{"android":"levelo://app?vid=3cd9b5bc-fba0-4545-94d0-e86f3d302f0f","ios":"levelo://app?vid=3cd9b5bc-fba0-4545-94d0-e86f3d302f0f"},"vehicle_type_id":"4","last_reported":1743059429,"current_range_meters":3200,"station_id":"ce4bhnh2rcd13ifvqgug","pricing_plan_id":"cebpf4jnsgd1na2vs0mg"},{"bike_id":"1ee97c72-6c69-4755-8f77-46fddefb8051","system_id":"levelo_inurba_marseille","lat":43.29593,"lon":5.38105,"is_reserved":false,"is_disabled":false,"rental_uris":{"android":"levelo://app?vid=1ee97c72-6c69-4755-8f77-46fddefb8051","ios":"levelo://app?vid=1ee97c72-6c69-4755-8f77-46fddefb8051"},"vehicle_type_id":"4","last_reported":1743059429,"current_range_meters":3200,"station_id":"ce4bgl12rcd13ifvqbo0","pricing_plan_id":"cebpf4jnsgd1na2vs0mg"},{"bike_id":"9687e9e0-9606-439a-9ea4-ad6578c281ec","system_id":"levelo_inurba_marseille","lat":43.30587,"lon":5.39357,"is_reserved":false,"is_disabled":false,"rental_uris":{"android":"levelo://app?vid=9687e9e0-9606-439a-9ea4-ad6578c281ec","ios":"levelo://app?vid=9687e9e0-9606-439a-9ea4-ad6578c281ec"},"vehicle_type_id":"4","last_reported":1743059429,"current_range_meters":3200,"station_id":"ce4bh0p2rcd13ifvqd80","pricing_plan_id":"cebpf4jnsgd1na2vs0mg"},{"bike_id":"77823725-c761-49bc-902c-64c32b686ae7","system_id":"levelo_inurba_marseille","lat":43.23064,"lon":5.35494,"is_reserved":false,"is_disabled":false,"rental_uris":{"android":"levelo://app?vid=77823725-c761-49bc-902c-64c32b686ae7","ios":"levelo://app?vid=77823725-c761-49bc-902c-64c32b686ae7"},"vehicle_type_id":"4","last_reported":1743059429,"current_range_meters":3200,"station_id":"cpo3342slgdg3j2ifvpg","pricing_plan_id":"cebpf4jnsgd1na2vs0mg"},{"bike_id":"ac16162e-9eb6-40a2-ae8b-a763f64ec361","system_id":"levelo_inurba_marseille","lat":43.29011,"lon":5.35608,"is_reserved":false,"is_disabled":true,"rental_uris":{"android":"levelo://app?vid=ac16162e-9eb6-40a2-ae8b-a763f64ec361","ios":"levelo://app?vid=ac16162e-9eb6-40a2-ae8b-a763f64ec361"},"vehicle_type_id":"4","last_reported":1743059429,"current_range_meters":3600,"station_id":"ce4bhb92rcd13ifvqen0","pricing_plan_id":"cebpf4jnsgd1na2vs0mg"},{"bike_id":"a57b457a-d2b9-4c91-a6b9-5d3a780ef268","system_id":"levelo_inurba_marseille","lat":43.30884,"lon":5.39663,"is_reserved":false,"is_disabled":false,"rental_uris":{"android":"levelo://app?vid=a57b457a-d2b9-4c91-a6b9-5d3a780ef268","ios":"levelo://app?vid=a57b457a-d2b9-4c91-a6b9-5d3a780ef268"},"vehicle_type_id":"4","last_reported":1743059429,"current_range_meters":3600,"station_id":"ce4bh012rcd13ifvqcv0","pricing_plan_id":"cebpf4jnsgd1na2vs0mg"},{"bike_id":"90e71dd4-e595-4436-a9df-b1999bafb6d0","system_id":"levelo_inurba_marseille","lat":43.33735,"lon":5.37503,"is_reserved":false,"is_disabled":false,"rental_uris":{"android":"levelo://app?vid=90e71dd4-e595-4436-a9df-b1999bafb6d0","ios":"levelo://app?vid=90e71dd4-e595-4436-a9df-b1999bafb6d0"},"vehicle_type_id":"4","last_reported":1743059429,"current_range_meters":3600,"station_id":"","pricing_plan_id":"cebpf4jnsgd1na2vs0mg"},{"bike_id":"48822a6e-9863-438b-b433-8ccb3f8db96d","system_id":"levelo_inurba_marseille","lat":43.31711,"lon":5.37663,"is_reserved":false,"is_disabled":true,"rental_uris":{"android":"levelo://app?vid=48822a6e-9863-438b-b433-8ccb3f8db96d","ios":"levelo://app?vid=48822a6e-9863-438b-b433-8ccb3f8db96d"},"vehicle_type_id":"4","last_reported":1743059429,"current_range_meters":3600,"station_id":"","pricing_plan_id":"cebpf4jnsgd1na2vs0mg"},{"bike_id":"c24337a1-33bd-40ae-87d9-b40af8eccdea","system_id":"levelo_inurba_marseille","lat":43.25946,"lon":5.40895,"is_reserved":false,"is_disabled":false,"rental_uris":{"android":"levelo://app?vid=c24337a1-33bd-40ae-87d9-b40af8eccdea","ios":"levelo://app?vid=c24337a1-33bd-40ae-87d9-b40af8eccdea"},"vehicle_type_id":"4","last_reported":1743059429,"current_range_meters":4000,"station_id":"ce4bhm92rcd13ifvqglg","pricing_plan_id":"cebpf4jnsgd1na2vs0mg"},{"bike_id":"43e0baaa-8243-4dd1-b4bf-82586d89d78f","system_id":"levelo_inurba_marseille","lat":43.33611,"lon":5.41039,"is_reserved":false,"is_disabled":false,"rental_uris":{"android":"levelo://app?vid=43e0baaa-8243-4dd1-b4bf-82586d89d78f","ios":"levelo://app?vid=43e0baaa-8243-4dd1-b4bf-82586d89d78f"},"vehicle_type_id":"4","last_reported":1743059429,"current_range_meters":4000,"station_id":"ce4bhqh2rcd13ifvqhmg","pricing_plan_id":"cebpf4jnsgd1na2vs0mg"},{"bike_id":"33d12302-ab8b-4f13-924f-dac00f82faa1","system_id":"levelo_inurba_marseille","lat":43.288421,"lon":5.393138,"is_reserved":false,"is_disabled":true,"rental_uris":{"android":"levelo://app?vid=33d12302-ab8b-4f13-924f-dac00f82faa1","ios":"levelo://app?vid=33d12302-ab8b-4f13-924f-dac00f82faa1"},"vehicle_type_id":"4","last_reported":1743059429,"current_range_meters":4000,"station_id":"","pricing_plan_id":"cebpf4jnsgd1na2vs0mg"},{"bike_id":"9601d59f-89ef-43d4-96ab-0586b4d92927","system_id":"levelo_inurba_marseille","lat":43.278164,"lon":5.407233,"is_reserved":false,"is_disabled":false,"rental_uris":{"android":"levelo://app?vid=9601d59f-89ef-43d4-96ab-0586b4d92927","ios":"levelo://app?vid=9601d59f-89ef-43d4-96ab-0586b4d92927"},"vehicle_type_id":"4","last_reported":1743059429,"current_range_meters":4000,"station_id":"ce4bhnh2rcd13ifvqgtg","pricing_plan_id":"cebpf4jnsgd1na2vs0mg"},{"bike_id":"316458f5-280e-4757-b7d5-ceb59af9fae6","system_id":"levelo_inurba_marseille","lat":43.30147,"lon":5.38066,"is_reserved":false,"is_disabled":false,"rental_uris":{"android":"levelo://app?vid=316458f5-280e-4757-b7d5-ceb59af9fae6","ios":"levelo://app?vid=316458f5-280e-4757-b7d5-ceb59af9fae6"},"vehicle_type_id":"4","last_reported":1743059429,"current_range_meters":4000,"station_id":"ce4bgjp2rcd13ifvqbh0","pricing_plan_id":"cebpf4jnsgd1na2vs0mg"},{"bike_id":"a6460627-511d-44ea-a912-da2085b0a119","system_id":"levelo_inurba_marseille","lat":43.29409,"lon":5.38616,"is_reserved":false,"is_disabled":true,"rental_uris":{"android":"levelo://app?vid=a6460627-511d-44ea-a912-da2085b0a119","ios":"levelo://app?vid=a6460627-511d-44ea-a912-da2085b0a119"},"vehicle_type_id":"4","last_reported":1743059429,"current_range_meters":4400,"station_id":"ce4bh2h2rcd13ifvqdh0","pricing_plan_id":"cebpf4jnsgd1na2vs0mg"},{"bike_id":"d5804ad3-33e7-454e-b7d4-322b214049f7","system_id":"levelo_inurba_marseille","lat":43.24682,"lon":5.38117,"is_reserved":false,"is_disabled":false,"rental_uris":{"android":"levelo://app?vid=d5804ad3-33e7-454e-b7d4-322b214049f7","ios":"levelo://app?vid=d5804ad3-33e7-454e-b7d4-322b214049f7"},"vehicle_type_id":"4","last_reported":1743059429,"current_range_meters":4400,"station_id":"ce4bhih2rcd13ifvqfr0","pricing_plan_id":"cebpf4jnsgd1na2vs0mg"},{"bike_id":"35f1432b-c929-4f89-82cf-51b4fa739eb0","system_id":"levelo_inurba_marseille","lat":43.28044,"lon":5.36957,"is_reserved":false,"is_disabled":false,"rental_uris":{"android":"levelo://app?vid=35f1432b-c929-4f89-82cf-51b4fa739eb0","ios":"levelo://app?vid=35f1432b-c929-4f89-82cf-51b4fa739eb0"},"vehicle_type_id":"4","last_reported":1743059429,"current_range_meters":4400,"station_id":"ce4bha12rcd13ifvqef0","pricing_plan_id":"cebpf4jnsgd1na2vs0mg"},{"bike_id":"a0bc3dbe-699b-45a9-9ca9-704847d4851e","system_id":"levelo_inurba_marseille","lat":43.29033,"lon":5.39962,"is_reserved":false,"is_disabled":false,"rental_uris":{"android":"levelo://app?vid=a0bc3dbe-699b-45a9-9ca9-704847d4851e","ios":"levelo://app?vid=a0bc3dbe-699b-45a9-9ca9-704847d4851e"},"vehicle_type_id":"4","last_reported":1743059429,"current_range_meters":4800,"station_id":"ce4bh392rcd13ifvqdm0","pricing_plan_id":"cebpf4jnsgd1na2vs0mg"},{"bike_id":"01bcb2f5-8344-46f6-b91e-61d5c61b0275","system_id":"levelo_inurba_marseille","lat":43.27932,"lon":5.39581,"is_reserved":false,"is_disabled":false,"rental_uris":{"android":"levelo://app?vid=01bcb2f5-8344-46f6-b91e-61d5c61b0275","ios":"levelo://app?vid=01bcb2f5-8344-46f6-b91e-61d5c61b0275"},"vehicle_type_id":"4","last_reported":1743059429,"current_range_meters":4800,"station_id":"ce4bhf92rcd13ifvqf40","pricing_plan_id":"cebpf4jnsgd1na2vs0mg"},{"bike_id":"78771832-7cb7-471a-ba03-5dd54df9fd4f","system_id":"levelo_inurba_marseille","lat":43.26964,"lon":5.38637,"is_reserved":false,"is_disabled":false,"rental_uris":{"android":"levelo://app?vid=78771832-7cb7-471a-ba03-5dd54df9fd4f","ios":"levelo://app?vid=78771832-7cb7-471a-ba03-5dd54df9fd4f"},"vehicle_type_id":"4","last_reported":1743059429,"current_range_meters":4800,"station_id":"ce4bhh92rcd13ifvqfh0","pricing_plan_id":"cebpf4jnsgd1na2vs0mg"},{"bike_id":"4620f6f4-c1df-4d73-856f-ec59b843bc14","system_id":"levelo_inurba_marseille","lat":43.29167,"lon":5.3583,"is_reserved":false,"is_disabled":false,"rental_uris":{"android":"levelo://app?vid=4620f6f4-c1df-4d73-856f-ec59b843bc14","ios":"levelo://app?vid=4620f6f4-c1df-4d73-856f-ec59b843bc14"},"vehicle_type_id":"4","last_reported":1743059429,"current_range_meters":4800,"station_id":"ce4bhb12rcd13ifvqel0","pricing_plan_id":"cebpf4jnsgd1na2vs0mg"},{"bike_id":"18849a0a-d04d-4032-bed5-6b39dc997875","system_id":"levelo_inurba_marseille","lat":43.2408,"lon":5.37755,"is_reserved":false,"is_disabled":false,"rental_uris":{"android":"levelo://app?vid=18849a0a-d04d-4032-bed5-6b39dc997875","ios":"levelo://app?vid=18849a0a-d04d-4032-bed5-6b39dc997875"},"vehicle_type_id":"4","last_reported":1743059429,"current_range_meters":5600,"station_id":"ce4bhnp2rcd13ifvqgvg","pricing_plan_id":"cebpf4jnsgd1na2vs0mg"},{"bike_id":"0724286d-424e-42e3-857f-5c8e33403fda","system_id":"levelo_inurba_marseille","lat":43.28357,"lon":5.38094,"is_reserved":false,"is_disabled":false,"rental_uris":{"android":"levelo://app?vid=0724286d-424e-42e3-857f-5c8e33403fda","ios":"levelo://app?vid=0724286d-424e-42e3-857f-5c8e33403fda"},"vehicle_type_id":"4","last_reported":1743059429,"current_range_meters":5600,"station_id":"ce4bh412rcd13ifvqdr0","pricing_plan_id":"cebpf4jnsgd1na2vs0mg"},{"bike_id":"9e414f59-5d13-4847-984b-695d5e36104b","system_id":"levelo_inurba_marseille","lat":43.27868,"lon":5.41215,"is_reserved":false,"is_disabled":false,"rental_uris":{"android":"levelo://app?vid=9e414f59-5d13-4847-984b-695d5e36104b","ios":"levelo://app?vid=9e414f59-5d13-4847-984b-695d5e36104b"},"vehicle_type_id":"4","last_reported":1743059429,"current_range_meters":5600,"station_id":"","pricing_plan_id":"cebpf4jnsgd1na2vs0mg"},{"bike_id":"44156654-a4cf-4f20-b992-8a27bbcc69ed","system_id":"levelo_inurba_marseille","lat":43.23193,"lon":5.39975,"is_reserved":false,"is_disabled":true,"rental_uris":{"android":"levelo://app?vid=44156654-a4cf-4f20-b992-8a27bbcc69ed","ios":"levelo://app?vid=44156654-a4cf-4f20-b992-8a27bbcc69ed"},"vehicle_type_id":"4","last_reported":1743059429,"current_range_meters":5600,"station_id":"ce4bhn12rcd13ifvqgqg","pricing_plan_id":"cebpf4jnsgd1na2vs0mg"},{"bike_id":"fc2186a3-9143-4ddc-a7af-47ab8ad9a861","system_id":"levelo_inurba_marseille","lat":43.3111,"lon":5.37743,"is_reserved":false,"is_disabled":false,"rental_uris":{"android":"levelo://app?vid=fc2186a3-9143-4ddc-a7af-47ab8ad9a861","ios":"levelo://app?vid=fc2186a3-9143-4ddc-a7af-47ab8ad9a861"},"vehicle_type_id":"4","last_reported":1743059429,"current_range_meters":5600,"station_id":"ce4bgt92rcd13ifvqcg0","pricing_plan_id":"cebpf4jnsgd1na2vs0mg"},{"bike_id":"450dc92e-22d4-4ffd-bcf9-29224967517c","system_id":"levelo_inurba_marseille","lat":43.30161,"lon":5.38083,"is_reserved":false,"is_disabled":false,"rental_uris":{"android":"levelo://app?vid=450dc92e-22d4-4ffd-bcf9-29224967517c","ios":"levelo://app?vid=450dc92e-22d4-4ffd-bcf9-29224967517c"},"vehicle_type_id":"4","last_reported":1743059429,"current_range_meters":5600,"station_id":"ce4bgjp2rcd13ifvqbh0","pricing_plan_id":"cebpf4jnsgd1na2vs0mg"},{"bike_id":"067247e0-a27c-4e52-9052-c6b9eea5c7f4","system_id":"levelo_inurba_marseille","lat":43.31398,"lon":5.37471,"is_reserved":false,"is_disabled":false,"rental_uris":{"android":"levelo://app?vid=067247e0-a27c-4e52-9052-c6b9eea5c7f4","ios":"levelo://app?vid=067247e0-a27c-4e52-9052-c6b9eea5c7f4"},"vehicle_type_id":"4","last_reported":1743059429,"current_range_meters":5600,"station_id":"","pricing_plan_id":"cebpf4jnsgd1na2vs0mg"},{"bike_id":"308ec19f-b75d-4169-9e70-bb5e6ffe4a06","system_id":"levelo_inurba_marseille","lat":43.28536,"lon":5.39476,"is_reserved":false,"is_disabled":false,"rental_uris":{"android":"levelo://app?vid=308ec19f-b75d-4169-9e70-bb5e6ffe4a06","ios":"levelo://app?vid=308ec19f-b75d-4169-9e70-bb5e6ffe4a06"},"vehicle_type_id":"4","last_reported":1743059429,"current_range_meters":5600,"station_id":"ce4bh292rcd13ifvqdg0","pricing_plan_id":"cebpf4jnsgd1na2vs0mg"},{"bike_id":"1b43050a-e3a1-4e6f-804b-00fbcebcc029","system_id":"levelo_inurba_marseille","lat":43.290049,"lon":5.399313,"is_reserved":false,"is_disabled":false,"rental_uris":{"android":"levelo://app?vid=1b43050a-e3a1-4e6f-804b-00fbcebcc029","ios":"levelo://app?vid=1b43050a-e3a1-4e6f-804b-00fbcebcc029"},"vehicle_type_id":"4","last_reported":1743059429,"current_range_meters":5600,"station_id":"","pricing_plan_id":"cebpf4jnsgd1na2vs0mg"},{"bike_id":"07c453fc-93a2-4713-bac6-14a4e0c1622b","system_id":"levelo_inurba_marseille","lat":43.30376,"lon":5.42492,"is_reserved":false,"is_disabled":false,"rental_uris":{"android":"levelo://app?vid=07c453fc-93a2-4713-bac6-14a4e0c1622b","ios":"levelo://app?vid=07c453fc-93a2-4713-bac6-14a4e0c1622b"},"vehicle_type_id":"4","last_reported":1743059429,"current_range_meters":5600,"station_id":"ce4bhoh2rcd13ifvqh6g","pricing_plan_id":"cebpf4jnsgd1na2vs0mg"},{"bike_id":"c1bb3d2e-5e82-4801-9b55-c0ebfaa43926","system_id":"levelo_inurba_marseille","lat":43.29029,"lon":5.38134,"is_reserved":false,"is_disabled":false,"rental_uris":{"android":"levelo://app?vid=c1bb3d2e-5e82-4801-9b55-c0ebfaa43926","ios":"levelo://app?vid=c1bb3d2e-5e82-4801-9b55-c0ebfaa43926"},"vehicle_type_id":"4","last_reported":1743059429,"current_range_meters":5600,"station_id":"ce4bh4p2rcd13ifvqe1g","pricing_plan_id":"cebpf4jnsgd1na2vs0mg"},{"bike_id":"71a2a3e4-736d-4eb5-b31f-32762bd6b8c3","system_id":"levelo_inurba_marseille","lat":43.28872,"lon":5.359,"is_reserved":false,"is_disabled":false,"rental_uris":{"android":"levelo://app?vid=71a2a3e4-736d-4eb5-b31f-32762bd6b8c3","ios":"levelo://app?vid=71a2a3e4-736d-4eb5-b31f-32762bd6b8c3"},"vehicle_type_id":"4","last_reported":1743059429,"current_range_meters":6000,"station_id":"","pricing_plan_id":"cebpf4jnsgd1na2vs0mg"},{"bike_id":"a2448c43-4578-4426-9403-b753d7ab2bf1","system_id":"levelo_inurba_marseille","lat":43.301564,"lon":5.380924,"is_reserved":false,"is_disabled":false,"rental_uris":{"android":"levelo://app?vid=a2448c43-4578-4426-9403-b753d7ab2bf1","ios":"levelo://app?vid=a2448c43-4578-4426-9403-b753d7ab2bf1"},"vehicle_type_id":"4","last_reported":1743059429,"current_range_meters":6000,"station_id":"ce4bgjp2rcd13ifvqbh0","pricing_plan_id":"cebpf4jnsgd1na2vs0mg"},{"bike_id":"a5fb06d1-c469-4515-9522-548b956fd2b3","system_id":"levelo_inurba_marseille","lat":43.31758,"lon":5.39009,"is_reserved":false,"is_disabled":false,"rental_uris":{"android":"levelo://app?vid=a5fb06d1-c469-4515-9522-548b956fd2b3","ios":"levelo://app?vid=a5fb06d1-c469-4515-9522-548b956fd2b3"},"vehicle_type_id":"4","last_reported":1743059429,"current_range_meters":6000,"station_id":"ce4bhqp2rcd13ifvqhng","pricing_plan_id":"cebpf4jnsgd1na2vs0mg"},{"bike_id":"d9eda9f9-04fa-47e9-979c-e81980278a58","system_id":"levelo_inurba_marseille","lat":43.30434,"lon":5.38889,"is_reserved":false,"is_disabled":false,"rental_uris":{"android":"levelo://app?vid=d9eda9f9-04fa-47e9-979c-e81980278a58","ios":"levelo://app?vid=d9eda9f9-04fa-47e9-979c-e81980278a58"},"vehicle_type_id":"4","last_reported":1743059429,"current_range_meters":6000,"station_id":"ce4bgk12rcd13ifvqbi0","pricing_plan_id":"cebpf4jnsgd1na2vs0mg"},{"bike_id":"2b7cb951-03a2-4661-9ae4-4caf1591ddb1","system_id":"levelo_inurba_marseille","lat":43.26225,"lon":5.40464,"is_reserved":false,"is_disabled":false,"rental_uris":{"android":"levelo://app?vid=2b7cb951-03a2-4661-9ae4-4caf1591ddb1","ios":"levelo://app?vid=2b7cb951-03a2-4661-9ae4-4caf1591ddb1"},"vehicle_type_id":"4","last_reported":1743059429,"current_range_meters":6000,"station_id":"ce4bhmh2rcd13ifvqgmg","pricing_plan_id":"cebpf4jnsgd1na2vs0mg"},{"bike_id":"d021d68d-8ae6-4775-8ae8-b202fe9ee83d","system_id":"levelo_inurba_marseille","lat":43.285371,"lon":5.400041,"is_reserved":false,"is_disabled":false,"rental_uris":{"android":"levelo://app?vid=d021d68d-8ae6-4775-8ae8-b202fe9ee83d","ios":"levelo://app?vid=d021d68d-8ae6-4775-8ae8-b202fe9ee83d"},"vehicle_type_id":"4","last_reported":1743059429,"current_range_meters":6000,"station_id":"","pricing_plan_id":"cebpf4jnsgd1na2vs0mg"},{"bike_id":"ee28380f-2566-499f-8ab8-5a75cb1ed72f","system_id":"levelo_inurba_marseille","lat":43.288329,"lon":5.393258,"is_reserved":false,"is_disabled":true,"rental_uris":{"android":"levelo://app?vid=ee28380f-2566-499f-8ab8-5a75cb1ed72f","ios":"levelo://app?vid=ee28380f-2566-499f-8ab8-5a75cb1ed72f"},"vehicle_type_id":"4","last_reported":1743059429,"current_range_meters":6000,"station_id":"","pricing_plan_id":"cebpf4jnsgd1na2vs0mg"},{"bike_id":"494edb5c-8886-472a-b4b2-0033adc0ccbd","system_id":"levelo_inurba_marseille","lat":43.23195,"lon":5.40005,"is_reserved":false,"is_disabled":false,"rental_uris":{"android":"levelo://app?vid=494edb5c-8886-472a-b4b2-0033adc0ccbd","ios":"levelo://app?vid=494edb5c-8886-472a-b4b2-0033adc0ccbd"},"vehicle_type_id":"4","last_reported":1743059429,"current_range_meters":6000,"station_id":"ce4bhn12rcd13ifvqgqg","pricing_plan_id":"cebpf4jnsgd1na2vs0mg"},{"bike_id":"ecfbe1b6-91a4-4967-b2f4-1915901f3187","system_id":"levelo_inurba_marseille","lat":43.31744,"lon":5.38998,"is_reserved":false,"is_disabled":false,"rental_uris":{"android":"levelo://app?vid=ecfbe1b6-91a4-4967-b2f4-1915901f3187","ios":"levelo://app?vid=ecfbe1b6-91a4-4967-b2f4-1915901f3187"},"vehicle_type_id":"4","last_reported":1743059429,"current_range_meters":6400,"station_id":"ce4bhqp2rcd13ifvqhng","pricing_plan_id":"cebpf4jnsgd1na2vs0mg"},{"bike_id":"c6760871-6fc1-4414-8469-9dedd0326558","system_id":"levelo_inurba_marseille","lat":43.29698,"lon":5.36293,"is_reserved":false,"is_disabled":false,"rental_uris":{"android":"levelo://app?vid=c6760871-6fc1-4414-8469-9dedd0326558","ios":"levelo://app?vid=c6760871-6fc1-4414-8469-9dedd0326558"},"vehicle_type_id":"4","last_reported":1743059429,"current_range_meters":6400,"station_id":"","pricing_plan_id":"cebpf4jnsgd1na2vs0mg"},{"bike_id":"facf2f8a-f296-4a8e-884d-3c98b18c5fbb","system_id":"levelo_inurba_marseille","lat":43.29026,"lon":5.38647,"is_reserved":false,"is_disabled":false,"rental_uris":{"android":"levelo://app?vid=facf2f8a-f296-4a8e-884d-3c98b18c5fbb","ios":"levelo://app?vid=facf2f8a-f296-4a8e-884d-3c98b18c5fbb"},"vehicle_type_id":"4","last_reported":1743059429,"current_range_meters":6400,"station_id":"ce4bh4p2rcd13ifvqe0g","pricing_plan_id":"cebpf4jnsgd1na2vs0mg"},{"bike_id":"ba928e2c-172e-4d95-afa4-8dab7a73bb9a","system_id":"levelo_inurba_marseille","lat":43.30992,"lon":5.39621,"is_reserved":false,"is_disabled":false,"rental_uris":{"android":"levelo://app?vid=ba928e2c-172e-4d95-afa4-8dab7a73bb9a","ios":"levelo://app?vid=ba928e2c-172e-4d95-afa4-8dab7a73bb9a"},"vehicle_type_id":"4","last_reported":1743059429,"current_range_meters":6400,"station_id":"","pricing_plan_id":"cebpf4jnsgd1na2vs0mg"},{"bike_id":"f331f4a0-921f-47e2-bc64-3b6ed88b17e3","system_id":"levelo_inurba_marseille","lat":43.27149,"lon":5.40985,"is_reserved":false,"is_disabled":false,"rental_uris":{"android":"levelo://app?vid=f331f4a0-921f-47e2-bc64-3b6ed88b17e3","ios":"levelo://app?vid=f331f4a0-921f-47e2-bc64-3b6ed88b17e3"},"vehicle_type_id":"4","last_reported":1743059429,"current_range_meters":6400,"station_id":"ce4bhl12rcd13ifvqgf0","pricing_plan_id":"cebpf4jnsgd1na2vs0mg"},{"bike_id":"ee31ed99-525f-4ac4-9809-663eaa7bc77e","system_id":"levelo_inurba_marseille","lat":43.304667,"lon":5.37919,"is_reserved":false,"is_disabled":false,"rental_uris":{"android":"levelo://app?vid=ee31ed99-525f-4ac4-9809-663eaa7bc77e","ios":"levelo://app?vid=ee31ed99-525f-4ac4-9809-663eaa7bc77e"},"vehicle_type_id":"4","last_reported":1743059429,"current_range_meters":6400,"station_id":"ce4bgup2rcd13ifvqcn0","pricing_plan_id":"cebpf4jnsgd1na2vs0mg"},{"bike_id":"98c7ca61-6b4e-4129-ad44-4943fd2074d6","system_id":"levelo_inurba_marseille","lat":43.22932,"lon":5.3539,"is_reserved":false,"is_disabled":false,"rental_uris":{"android":"levelo://app?vid=98c7ca61-6b4e-4129-ad44-4943fd2074d6","ios":"levelo://app?vid=98c7ca61-6b4e-4129-ad44-4943fd2074d6"},"vehicle_type_id":"4","last_reported":1743059429,"current_range_meters":6400,"station_id":"cpo3532slgdg3j2ikp40","pricing_plan_id":"cebpf4jnsgd1na2vs0mg"},{"bike_id":"63014678-39e4-40a2-9cd0-6c6c95631cbc","system_id":"levelo_inurba_marseille","lat":43.31666,"lon":5.405,"is_reserved":false,"is_disabled":false,"rental_uris":{"android":"levelo://app?vid=63014678-39e4-40a2-9cd0-6c6c95631cbc","ios":"levelo://app?vid=63014678-39e4-40a2-9cd0-6c6c95631cbc"},"vehicle_type_id":"4","last_reported":1743059429,"current_range_meters":6400,"station_id":"ce4bh012rcd13ifvqd00","pricing_plan_id":"cebpf4jnsgd1na2vs0mg"},{"bike_id":"0243248c-7ef8-4212-8f5a-a07313e523ca","system_id":"levelo_inurba_marseille","lat":43.30612,"lon":5.39356,"is_reserved":false,"is_disabled":false,"rental_uris":{"android":"levelo://app?vid=0243248c-7ef8-4212-8f5a-a07313e523ca","ios":"levelo://app?vid=0243248c-7ef8-4212-8f5a-a07313e523ca"},"vehicle_type_id":"4","last_reported":1743059429,"current_range_meters":6400,"station_id":"ce4bh0p2rcd13ifvqd80","pricing_plan_id":"cebpf4jnsgd1na2vs0mg"},{"bike_id":"78534986-92a7-4b56-a1a9-68e46138534f","system_id":"levelo_inurba_marseille","lat":43.30852,"lon":5.37245,"is_reserved":false,"is_disabled":true,"rental_uris":{"android":"levelo://app?vid=78534986-92a7-4b56-a1a9-68e46138534f","ios":"levelo://app?vid=78534986-92a7-4b56-a1a9-68e46138534f"},"vehicle_type_id":"4","last_reported":1743059429,"current_range_meters":6400,"station_id":"","pricing_plan_id":"cebpf4jnsgd1na2vs0mg"},{"bike_id":"e40ca3db-9cd3-4e7c-a6c9-9922c73b5079","system_id":"levelo_inurba_marseille","lat":43.30386,"lon":5.42497,"is_reserved":false,"is_disabled":false,"rental_uris":{"android":"levelo://app?vid=e40ca3db-9cd3-4e7c-a6c9-9922c73b5079","ios":"levelo://app?vid=e40ca3db-9cd3-4e7c-a6c9-9922c73b5079"},"vehicle_type_id":"4","last_reported":1743059429,"current_range_meters":6800,"station_id":"ce4bhoh2rcd13ifvqh6g","pricing_plan_id":"cebpf4jnsgd1na2vs0mg"},{"bike_id":"600c6eed-707a-4f01-b7be-8dc7d7d6246b","system_id":"levelo_inurba_marseille","lat":43.30475,"lon":5.37903,"is_reserved":false,"is_disabled":false,"rental_uris":{"android":"levelo://app?vid=600c6eed-707a-4f01-b7be-8dc7d7d6246b","ios":"levelo://app?vid=600c6eed-707a-4f01-b7be-8dc7d7d6246b"},"vehicle_type_id":"4","last_reported":1743059429,"current_range_meters":6800,"station_id":"ce4bgup2rcd13ifvqcn0","pricing_plan_id":"cebpf4jnsgd1na2vs0mg"},{"bike_id":"9d1b0929-c0a2-4c73-bc67-ccaa934d0eb3","system_id":"levelo_inurba_marseille","lat":43.3047,"lon":5.37901,"is_reserved":false,"is_disabled":false,"rental_uris":{"android":"levelo://app?vid=9d1b0929-c0a2-4c73-bc67-ccaa934d0eb3","ios":"levelo://app?vid=9d1b0929-c0a2-4c73-bc67-ccaa934d0eb3"},"vehicle_type_id":"4","last_reported":1743059429,"current_range_meters":6800,"station_id":"ce4bgup2rcd13ifvqcn0","pricing_plan_id":"cebpf4jnsgd1na2vs0mg"},{"bike_id":"d0cb0574-efc4-466d-891b-43b614f5b87a","system_id":"levelo_inurba_marseille","lat":43.30138,"lon":5.39865,"is_reserved":false,"is_disabled":false,"rental_uris":{"android":"levelo://app?vid=d0cb0574-efc4-466d-891b-43b614f5b87a","ios":"levelo://app?vid=d0cb0574-efc4-466d-891b-43b614f5b87a"},"vehicle_type_id":"4","last_reported":1743059429,"current_range_meters":6800,"station_id":"ce4bh0h2rcd13ifvqd40","pricing_plan_id":"cebpf4jnsgd1na2vs0mg"},{"bike_id":"4d6d8a3e-5cdb-4d7b-bbad-abcfee7897a7","system_id":"levelo_inurba_marseille","lat":43.280366,"lon":5.369533,"is_reserved":false,"is_disabled":false,"rental_uris":{"android":"levelo://app?vid=4d6d8a3e-5cdb-4d7b-bbad-abcfee7897a7","ios":"levelo://app?vid=4d6d8a3e-5cdb-4d7b-bbad-abcfee7897a7"},"vehicle_type_id":"4","last_reported":1743059429,"current_range_meters":6800,"station_id":"ce4bha12rcd13ifvqef0","pricing_plan_id":"cebpf4jnsgd1na2vs0mg"},{"bike_id":"1319a078-4fa9-4522-a50e-397939cbcded","system_id":"levelo_inurba_marseille","lat":43.28711,"lon":5.39995,"is_reserved":false,"is_disabled":false,"rental_uris":{"android":"levelo://app?vid=1319a078-4fa9-4522-a50e-397939cbcded","ios":"levelo://app?vid=1319a078-4fa9-4522-a50e-397939cbcded"},"vehicle_type_id":"4","last_reported":1743059429,"current_range_meters":6800,"station_id":"ce4bho92rcd13ifvqh3g","pricing_plan_id":"cebpf4jnsgd1na2vs0mg"},{"bike_id":"45473374-eabb-4db3-bd6c-f156d2935509","system_id":"levelo_inurba_marseille","lat":43.26804,"lon":5.40285,"is_reserved":false,"is_disabled":false,"rental_uris":{"android":"levelo://app?vid=45473374-eabb-4db3-bd6c-f156d2935509","ios":"levelo://app?vid=45473374-eabb-4db3-bd6c-f156d2935509"},"vehicle_type_id":"4","last_reported":1743059429,"current_range_meters":6800,"station_id":"ce501612rcd8frsf0b60","pricing_plan_id":"cebpf4jnsgd1na2vs0mg"},{"bike_id":"8a9602e7-e6f2-4dac-845f-cea224e49dd5","system_id":"levelo_inurba_marseille","lat":43.23066,"lon":5.35485,"is_reserved":false,"is_disabled":false,"rental_uris":{"android":"levelo://app?vid=8a9602e7-e6f2-4dac-845f-cea224e49dd5","ios":"levelo://app?vid=8a9602e7-e6f2-4dac-845f-cea224e49dd5"},"vehicle_type_id":"4","last_reported":1743059429,"current_range_meters":6800,"station_id":"cpo3342slgdg3j2ifvpg","pricing_plan_id":"cebpf4jnsgd1na2vs0mg"},{"bike_id":"500ae4ba-0f8b-4234-ad47-d0f7e3ee77fd","system_id":"levelo_inurba_marseille","lat":43.29097,"lon":5.38163,"is_reserved":false,"is_disabled":true,"rental_uris":{"android":"levelo://app?vid=500ae4ba-0f8b-4234-ad47-d0f7e3ee77fd","ios":"levelo://app?vid=500ae4ba-0f8b-4234-ad47-d0f7e3ee77fd"},"vehicle_type_id":"4","last_reported":1743059429,"current_range_meters":6800,"station_id":"ce4bho12rcd13ifvqh1g","pricing_plan_id":"cebpf4jnsgd1na2vs0mg"},{"bike_id":"887a7784-c70b-46f8-9882-d03745b5c9eb","system_id":"levelo_inurba_marseille","lat":43.311198,"lon":5.377703,"is_reserved":false,"is_disabled":false,"rental_uris":{"android":"levelo://app?vid=887a7784-c70b-46f8-9882-d03745b5c9eb","ios":"levelo://app?vid=887a7784-c70b-46f8-9882-d03745b5c9eb"},"vehicle_type_id":"4","last_reported":1743059429,"current_range_meters":6800,"station_id":"ce4bgt92rcd13ifvqcg0","pricing_plan_id":"cebpf4jnsgd1na2vs0mg"},{"bike_id":"cbb04385-b733-4245-8069-e7d5530c1471","system_id":"levelo_inurba_marseille","lat":43.31124,"lon":5.3776,"is_reserved":false,"is_disabled":false,"rental_uris":{"android":"levelo://app?vid=cbb04385-b733-4245-8069-e7d5530c1471","ios":"levelo://app?vid=cbb04385-b733-4245-8069-e7d5530c1471"},"vehicle_type_id":"4","last_reported":1743059429,"current_range_meters":6800,"station_id":"ce4bgt92rcd13ifvqcg0","pricing_plan_id":"cebpf4jnsgd1na2vs0mg"},{"bike_id":"9c66cc15-0096-423b-bdc5-f6e3c74078ab","system_id":"levelo_inurba_marseille","lat":43.31205,"lon":5.3786,"is_reserved":false,"is_disabled":false,"rental_uris":{"android":"levelo://app?vid=9c66cc15-0096-423b-bdc5-f6e3c74078ab","ios":"levelo://app?vid=9c66cc15-0096-423b-bdc5-f6e3c74078ab"},"vehicle_type_id":"4","last_reported":1743059429,"current_range_meters":6800,"station_id":"","pricing_plan_id":"cebpf4jnsgd1na2vs0mg"},{"bike_id":"d739235d-eddf-47b6-96b2-7fb85d612488","system_id":"levelo_inurba_marseille","lat":43.29346,"lon":5.37871,"is_reserved":false,"is_disabled":false,"rental_uris":{"android":"levelo://app?vid=d739235d-eddf-47b6-96b2-7fb85d612488","ios":"levelo://app?vid=d739235d-eddf-47b6-96b2-7fb85d612488"},"vehicle_type_id":"4","last_reported":1743059429,"current_range_meters":6800,"station_id":"ce4bgjh2rcd13ifvqbf0","pricing_plan_id":"cebpf4jnsgd1na2vs0mg"},{"bike_id":"08f67e3a-2ea1-42c6-9dae-8e373a46728e","system_id":"levelo_inurba_marseille","lat":43.30249,"lon":5.40051,"is_reserved":false,"is_disabled":false,"rental_uris":{"android":"levelo://app?vid=08f67e3a-2ea1-42c6-9dae-8e373a46728e","ios":"levelo://app?vid=08f67e3a-2ea1-42c6-9dae-8e373a46728e"},"vehicle_type_id":"4","last_reported":1743059429,"current_range_meters":6800,"station_id":"ce4bgvh2rcd13ifvqcs0","pricing_plan_id":"cebpf4jnsgd1na2vs0mg"},{"bike_id":"ba3a8fd9-989b-4197-b5a8-195c863e898c","system_id":"levelo_inurba_marseille","lat":43.30935,"lon":5.40139,"is_reserved":false,"is_disabled":false,"rental_uris":{"android":"levelo://app?vid=ba3a8fd9-989b-4197-b5a8-195c863e898c","ios":"levelo://app?vid=ba3a8fd9-989b-4197-b5a8-195c863e898c"},"vehicle_type_id":"4","last_reported":1743059429,"current_range_meters":6800,"station_id":"","pricing_plan_id":"cebpf4jnsgd1na2vs0mg"},{"bike_id":"41e5f267-ce12-4d49-85f8-a37604430f8e","system_id":"levelo_inurba_marseille","lat":43.22947,"lon":5.35397,"is_reserved":false,"is_disabled":false,"rental_uris":{"android":"levelo://app?vid=41e5f267-ce12-4d49-85f8-a37604430f8e","ios":"levelo://app?vid=41e5f267-ce12-4d49-85f8-a37604430f8e"},"vehicle_type_id":"4","last_reported":1743059429,"current_range_meters":6800,"station_id":"cpo3532slgdg3j2ikp40","pricing_plan_id":"cebpf4jnsgd1na2vs0mg"},{"bike_id":"16f194c1-9d52-4316-bf9e-ae4b468d09f9","system_id":"levelo_inurba_marseille","lat":43.30435,"lon":5.38892,"is_reserved":false,"is_disabled":false,"rental_uris":{"android":"levelo://app?vid=16f194c1-9d52-4316-bf9e-ae4b468d09f9","ios":"levelo://app?vid=16f194c1-9d52-4316-bf9e-ae4b468d09f9"},"vehicle_type_id":"4","last_reported":1743059429,"current_range_meters":7200,"station_id":"ce4bgk12rcd13ifvqbi0","pricing_plan_id":"cebpf4jnsgd1na2vs0mg"},{"bike_id":"da3d6c27-2c27-4041-b2d5-91965cb51916","system_id":"levelo_inurba_marseille","lat":43.262216,"lon":5.404501,"is_reserved":false,"is_disabled":false,"rental_uris":{"android":"levelo://app?vid=da3d6c27-2c27-4041-b2d5-91965cb51916","ios":"levelo://app?vid=da3d6c27-2c27-4041-b2d5-91965cb51916"},"vehicle_type_id":"4","last_reported":1743059429,"current_range_meters":7200,"station_id":"ce4bhmh2rcd13ifvqgmg","pricing_plan_id":"cebpf4jnsgd1na2vs0mg"},{"bike_id":"01cbffb0-3fb0-4769-96f8-4c2dd20b8277","system_id":"levelo_inurba_marseille","lat":43.28531,"lon":5.40592,"is_reserved":false,"is_disabled":false,"rental_uris":{"android":"levelo://app?vid=01cbffb0-3fb0-4769-96f8-4c2dd20b8277","ios":"levelo://app?vid=01cbffb0-3fb0-4769-96f8-4c2dd20b8277"},"vehicle_type_id":"4","last_reported":1743059429,"current_range_meters":7200,"station_id":"","pricing_plan_id":"cebpf4jnsgd1na2vs0mg"},{"bike_id":"56506e9c-df9f-450e-bb06-2924deaa86ed","system_id":"levelo_inurba_marseille","lat":43.30541,"lon":5.36553,"is_reserved":false,"is_disabled":false,"rental_uris":{"android":"levelo://app?vid=56506e9c-df9f-450e-bb06-2924deaa86ed","ios":"levelo://app?vid=56506e9c-df9f-450e-bb06-2924deaa86ed"},"vehicle_type_id":"4","last_reported":1743059429,"current_range_meters":7200,"station_id":"ce4bgs12rcd13ifvqcag","pricing_plan_id":"cebpf4jnsgd1na2vs0mg"},{"bike_id":"974f5876-effd-44d0-911c-76ea7a107a8c","system_id":"levelo_inurba_marseille","lat":43.33383,"lon":5.35953,"is_reserved":false,"is_disabled":false,"rental_uris":{"android":"levelo://app?vid=974f5876-effd-44d0-911c-76ea7a107a8c","ios":"levelo://app?vid=974f5876-effd-44d0-911c-76ea7a107a8c"},"vehicle_type_id":"4","last_reported":1743059429,"current_range_meters":7200,"station_id":"","pricing_plan_id":"cebpf4jnsgd1na2vs0mg"},{"bike_id":"fe4a2506-2eaf-4998-bd50-c6d3ee9e4c77","system_id":"levelo_inurba_marseille","lat":43.28618,"lon":5.35101,"is_reserved":false,"is_disabled":false,"rental_uris":{"android":"levelo://app?vid=fe4a2506-2eaf-4998-bd50-c6d3ee9e4c77","ios":"levelo://app?vid=fe4a2506-2eaf-4998-bd50-c6d3ee9e4c77"},"vehicle_type_id":"4","last_reported":1743059429,"current_range_meters":7200,"station_id":"ce4bhch2rcd13ifvqeug","pricing_plan_id":"cebpf4jnsgd1na2vs0mg"},{"bike_id":"e2a14ebe-571b-4d9a-b046-51936c4c0f26","system_id":"levelo_inurba_marseille","lat":43.273672,"lon":5.423802,"is_reserved":false,"is_disabled":false,"rental_uris":{"android":"levelo://app?vid=e2a14ebe-571b-4d9a-b046-51936c4c0f26","ios":"levelo://app?vid=e2a14ebe-571b-4d9a-b046-51936c4c0f26"},"vehicle_type_id":"4","last_reported":1743059429,"current_range_meters":7200,"station_id":"ce4bhn92rcd13ifvqgrg","pricing_plan_id":"cebpf4jnsgd1na2vs0mg"},{"bike_id":"a1dcf5bc-54fc-45f7-9928-5cf9485d7c58","system_id":"levelo_inurba_marseille","lat":43.23185,"lon":5.40011,"is_reserved":false,"is_disabled":false,"rental_uris":{"android":"levelo://app?vid=a1dcf5bc-54fc-45f7-9928-5cf9485d7c58","ios":"levelo://app?vid=a1dcf5bc-54fc-45f7-9928-5cf9485d7c58"},"vehicle_type_id":"4","last_reported":1743059429,"current_range_meters":6800,"station_id":"ce4bhn12rcd13ifvqgqg","pricing_plan_id":"cebpf4jnsgd1na2vs0mg"},{"bike_id":"11e15ff0-42a2-4953-8a83-002cb25bf94a","system_id":"levelo_inurba_marseille","lat":43.24187,"lon":5.39726,"is_reserved":false,"is_disabled":false,"rental_uris":{"android":"levelo://app?vid=11e15ff0-42a2-4953-8a83-002cb25bf94a","ios":"levelo://app?vid=11e15ff0-42a2-4953-8a83-002cb25bf94a"},"vehicle_type_id":"4","last_reported":1743059429,"current_range_meters":7200,"station_id":"ce4bhn12rcd13ifvqgpg","pricing_plan_id":"cebpf4jnsgd1na2vs0mg"},{"bike_id":"f35517ac-eefa-426f-a0d4-2d08f2ce4ebf","system_id":"levelo_inurba_marseille","lat":43.2925,"lon":5.37622,"is_reserved":false,"is_disabled":true,"rental_uris":{"android":"levelo://app?vid=f35517ac-eefa-426f-a0d4-2d08f2ce4ebf","ios":"levelo://app?vid=f35517ac-eefa-426f-a0d4-2d08f2ce4ebf"},"vehicle_type_id":"4","last_reported":1743059429,"current_range_meters":8000,"station_id":"ce4bgi12rcd13ifvqb80","pricing_plan_id":"cebpf4jnsgd1na2vs0mg"},{"bike_id":"b30d442b-7284-44ac-87ce-821b5a0ec057","system_id":"levelo_inurba_marseille","lat":43.32574,"lon":5.36581,"is_reserved":false,"is_disabled":false,"rental_uris":{"android":"levelo://app?vid=b30d442b-7284-44ac-87ce-821b5a0ec057","ios":"levelo://app?vid=b30d442b-7284-44ac-87ce-821b5a0ec057"},"vehicle_type_id":"4","last_reported":1743059429,"current_range_meters":8000,"station_id":"","pricing_plan_id":"cebpf4jnsgd1na2vs0mg"},{"bike_id":"91d2d5fb-170e-479d-84f6-cdab28b3a765","system_id":"levelo_inurba_marseille","lat":43.30147,"lon":5.38079,"is_reserved":false,"is_disabled":false,"rental_uris":{"android":"levelo://app?vid=91d2d5fb-170e-479d-84f6-cdab28b3a765","ios":"levelo://app?vid=91d2d5fb-170e-479d-84f6-cdab28b3a765"},"vehicle_type_id":"4","last_reported":1743059429,"current_range_meters":8000,"station_id":"ce4bgjp2rcd13ifvqbh0","pricing_plan_id":"cebpf4jnsgd1na2vs0mg"},{"bike_id":"ac227b8d-11e6-4a65-9136-f9cbd67e61e3","system_id":"levelo_inurba_marseille","lat":43.3105,"lon":5.38358,"is_reserved":false,"is_disabled":false,"rental_uris":{"android":"levelo://app?vid=ac227b8d-11e6-4a65-9136-f9cbd67e61e3","ios":"levelo://app?vid=ac227b8d-11e6-4a65-9136-f9cbd67e61e3"},"vehicle_type_id":"4","last_reported":1743059429,"current_range_meters":8000,"station_id":"ce4bgv92rcd13ifvqcr0","pricing_plan_id":"cebpf4jnsgd1na2vs0mg"},{"bike_id":"1e0b2636-48a1-4292-92c0-73b807651a12","system_id":"levelo_inurba_marseille","lat":43.289703,"lon":5.37838,"is_reserved":false,"is_disabled":false,"rental_uris":{"android":"levelo://app?vid=1e0b2636-48a1-4292-92c0-73b807651a12","ios":"levelo://app?vid=1e0b2636-48a1-4292-92c0-73b807651a12"},"vehicle_type_id":"4","last_reported":1743059429,"current_range_meters":8000,"station_id":"ce4bgip2rcd13ifvqbb0","pricing_plan_id":"cebpf4jnsgd1na2vs0mg"},{"bike_id":"60572ac8-f8fa-4090-a8da-a05557d22647","system_id":"levelo_inurba_marseille","lat":43.336093,"lon":5.41043,"is_reserved":false,"is_disabled":true,"rental_uris":{"android":"levelo://app?vid=60572ac8-f8fa-4090-a8da-a05557d22647","ios":"levelo://app?vid=60572ac8-f8fa-4090-a8da-a05557d22647"},"vehicle_type_id":"4","last_reported":1743059429,"current_range_meters":8000,"station_id":"ce4bhqh2rcd13ifvqhmg","pricing_plan_id":"cebpf4jnsgd1na2vs0mg"},{"bike_id":"9d869c67-8c82-4d15-bfb3-083d377aa760","system_id":"levelo_inurba_marseille","lat":43.28417,"lon":5.34984,"is_reserved":false,"is_disabled":false,"rental_uris":{"android":"levelo://app?vid=9d869c67-8c82-4d15-bfb3-083d377aa760","ios":"levelo://app?vid=9d869c67-8c82-4d15-bfb3-083d377aa760"},"vehicle_type_id":"4","last_reported":1743059429,"current_range_meters":8000,"station_id":"ce4bhbh2rcd13ifvqepg","pricing_plan_id":"cebpf4jnsgd1na2vs0mg"},{"bike_id":"c80aa782-5a1c-49dc-82a9-5a6684179a01","system_id":"levelo_inurba_marseille","lat":43.28109,"lon":5.37818,"is_reserved":false,"is_disabled":false,"rental_uris":{"android":"levelo://app?vid=c80aa782-5a1c-49dc-82a9-5a6684179a01","ios":"levelo://app?vid=c80aa782-5a1c-49dc-82a9-5a6684179a01"},"vehicle_type_id":"4","last_reported":1743059429,"current_range_meters":8000,"station_id":"ce4bha12rcd13ifvqee0","pricing_plan_id":"cebpf4jnsgd1na2vs0mg"},{"bike_id":"70394e3c-32cf-49da-9f51-361a70cfa3f7","system_id":"levelo_inurba_marseille","lat":43.23192,"lon":5.39987,"is_reserved":false,"is_disabled":false,"rental_uris":{"android":"levelo://app?vid=70394e3c-32cf-49da-9f51-361a70cfa3f7","ios":"levelo://app?vid=70394e3c-32cf-49da-9f51-361a70cfa3f7"},"vehicle_type_id":"4","last_reported":1743059429,"current_range_meters":8000,"station_id":"ce4bhn12rcd13ifvqgqg","pricing_plan_id":"cebpf4jnsgd1na2vs0mg"},{"bike_id":"f25ab7b3-30ca-4ce5-b513-a237325783dd","system_id":"levelo_inurba_marseille","lat":43.29052,"lon":5.39963,"is_reserved":false,"is_disabled":false,"rental_uris":{"android":"levelo://app?vid=f25ab7b3-30ca-4ce5-b513-a237325783dd","ios":"levelo://app?vid=f25ab7b3-30ca-4ce5-b513-a237325783dd"},"vehicle_type_id":"4","last_reported":1743059429,"current_range_meters":8000,"station_id":"ce4bh392rcd13ifvqdm0","pricing_plan_id":"cebpf4jnsgd1na2vs0mg"},{"bike_id":"26c95be6-8955-419b-b506-8f03b71ec17d","system_id":"levelo_inurba_marseille","lat":43.32664,"lon":5.40995,"is_reserved":false,"is_disabled":false,"rental_uris":{"android":"levelo://app?vid=26c95be6-8955-419b-b506-8f03b71ec17d","ios":"levelo://app?vid=26c95be6-8955-419b-b506-8f03b71ec17d"},"vehicle_type_id":"4","last_reported":1743059429,"current_range_meters":8000,"station_id":"","pricing_plan_id":"cebpf4jnsgd1na2vs0mg"},{"bike_id":"ccdfac36-22da-4f2d-bd50-7bf147cc0fff","system_id":"levelo_inurba_marseille","lat":43.299047,"lon":5.43672,"is_reserved":false,"is_disabled":false,"rental_uris":{"android":"levelo://app?vid=ccdfac36-22da-4f2d-bd50-7bf147cc0fff","ios":"levelo://app?vid=ccdfac36-22da-4f2d-bd50-7bf147cc0fff"},"vehicle_type_id":"4","last_reported":1743059429,"current_range_meters":8400,"station_id":"ce4bhpp2rcd13ifvqhfg","pricing_plan_id":"cebpf4jnsgd1na2vs0mg"},{"bike_id":"34e390d6-6118-4f00-8ddc-7ba657684840","system_id":"levelo_inurba_marseille","lat":43.30936,"lon":5.401504,"is_reserved":false,"is_disabled":false,"rental_uris":{"android":"levelo://app?vid=34e390d6-6118-4f00-8ddc-7ba657684840","ios":"levelo://app?vid=34e390d6-6118-4f00-8ddc-7ba657684840"},"vehicle_type_id":"4","last_reported":1743059429,"current_range_meters":8400,"station_id":"ce4bgvp2rcd13ifvqct0","pricing_plan_id":"cebpf4jnsgd1na2vs0mg"},{"bike_id":"b0a46425-42fc-4619-befe-32588116eda1","system_id":"levelo_inurba_marseille","lat":43.290965,"lon":5.381654,"is_reserved":false,"is_disabled":false,"rental_uris":{"android":"levelo://app?vid=b0a46425-42fc-4619-befe-32588116eda1","ios":"levelo://app?vid=b0a46425-42fc-4619-befe-32588116eda1"},"vehicle_type_id":"4","last_reported":1743059429,"current_range_meters":8400,"station_id":"ce4bh512rcd13ifvqe2g","pricing_plan_id":"cebpf4jnsgd1na2vs0mg"},{"bike_id":"d45a2f6c-957b-46cd-bd89-ee8e58d1536e","system_id":"levelo_inurba_marseille","lat":43.27725,"lon":5.4079,"is_reserved":false,"is_disabled":false,"rental_uris":{"android":"levelo://app?vid=d45a2f6c-957b-46cd-bd89-ee8e58d1536e","ios":"levelo://app?vid=d45a2f6c-957b-46cd-bd89-ee8e58d1536e"},"vehicle_type_id":"4","last_reported":1743059429,"current_range_meters":8400,"station_id":"","pricing_plan_id":"cebpf4jnsgd1na2vs0mg"},{"bike_id":"84a7a785-5392-42bc-8088-fb903bcc7f5c","system_id":"levelo_inurba_marseille","lat":43.230708,"lon":5.354884,"is_reserved":false,"is_disabled":false,"rental_uris":{"android":"levelo://app?vid=84a7a785-5392-42bc-8088-fb903bcc7f5c","ios":"levelo://app?vid=84a7a785-5392-42bc-8088-fb903bcc7f5c"},"vehicle_type_id":"4","last_reported":1743059429,"current_range_meters":8400,"station_id":"cpo3342slgdg3j2ifvpg","pricing_plan_id":"cebpf4jnsgd1na2vs0mg"},{"bike_id":"83490f64-aa62-4240-91b0-0dc5e05f1bcb","system_id":"levelo_inurba_marseille","lat":43.31109,"lon":5.37781,"is_reserved":false,"is_disabled":false,"rental_uris":{"android":"levelo://app?vid=83490f64-aa62-4240-91b0-0dc5e05f1bcb","ios":"levelo://app?vid=83490f64-aa62-4240-91b0-0dc5e05f1bcb"},"vehicle_type_id":"4","last_reported":1743059429,"current_range_meters":8400,"station_id":"ce4bgt92rcd13ifvqcg0","pricing_plan_id":"cebpf4jnsgd1na2vs0mg"},{"bike_id":"dafe3c69-c8d4-49af-ad82-1be7d79a031c","system_id":"levelo_inurba_marseille","lat":43.29305,"lon":5.37455,"is_reserved":false,"is_disabled":false,"rental_uris":{"android":"levelo://app?vid=dafe3c69-c8d4-49af-ad82-1be7d79a031c","ios":"levelo://app?vid=dafe3c69-c8d4-49af-ad82-1be7d79a031c"},"vehicle_type_id":"4","last_reported":1743059429,"current_range_meters":8400,"station_id":"ce4bgi12rcd13ifvqb70","pricing_plan_id":"cebpf4jnsgd1na2vs0mg"},{"bike_id":"818cfe2a-3205-453a-a960-4ebf1f298656","system_id":"levelo_inurba_marseille","lat":43.2669,"lon":5.38235,"is_reserved":false,"is_disabled":true,"rental_uris":{"android":"levelo://app?vid=818cfe2a-3205-453a-a960-4ebf1f298656","ios":"levelo://app?vid=818cfe2a-3205-453a-a960-4ebf1f298656"},"vehicle_type_id":"4","last_reported":1743059429,"current_range_meters":8400,"station_id":"ce4bhg92rcd13ifvqf90","pricing_plan_id":"cebpf4jnsgd1na2vs0mg"},{"bike_id":"22fc89b2-e0c2-4d8a-b219-edf8d82f5258","system_id":"levelo_inurba_marseille","lat":43.25118,"lon":5.40322,"is_reserved":false,"is_disabled":false,"rental_uris":{"android":"levelo://app?vid=22fc89b2-e0c2-4d8a-b219-edf8d82f5258","ios":"levelo://app?vid=22fc89b2-e0c2-4d8a-b219-edf8d82f5258"},"vehicle_type_id":"4","last_reported":1743059429,"current_range_meters":8400,"station_id":"ce4bhlh2rcd13ifvqgig","pricing_plan_id":"cebpf4jnsgd1na2vs0mg"},{"bike_id":"ef025bb1-9d8e-49fa-a1ea-3a7bb120792d","system_id":"levelo_inurba_marseille","lat":43.29051,"lon":5.39949,"is_reserved":false,"is_disabled":false,"rental_uris":{"android":"levelo://app?vid=ef025bb1-9d8e-49fa-a1ea-3a7bb120792d","ios":"levelo://app?vid=ef025bb1-9d8e-49fa-a1ea-3a7bb120792d"},"vehicle_type_id":"4","last_reported":1743059429,"current_range_meters":8400,"station_id":"ce4bh392rcd13ifvqdm0","pricing_plan_id":"cebpf4jnsgd1na2vs0mg"},{"bike_id":"e4da3e84-b2d2-487a-9e61-555ac0256fc0","system_id":"levelo_inurba_marseille","lat":43.26948,"lon":5.38619,"is_reserved":false,"is_disabled":false,"rental_uris":{"android":"levelo://app?vid=e4da3e84-b2d2-487a-9e61-555ac0256fc0","ios":"levelo://app?vid=e4da3e84-b2d2-487a-9e61-555ac0256fc0"},"vehicle_type_id":"4","last_reported":1743059429,"current_range_meters":8400,"station_id":"","pricing_plan_id":"cebpf4jnsgd1na2vs0mg"},{"bike_id":"7406ce6c-0d1f-4de4-94c9-904ac4aba5a2","system_id":"levelo_inurba_marseille","lat":43.27925,"lon":5.39594,"is_reserved":false,"is_disabled":false,"rental_uris":{"android":"levelo://app?vid=7406ce6c-0d1f-4de4-94c9-904ac4aba5a2","ios":"levelo://app?vid=7406ce6c-0d1f-4de4-94c9-904ac4aba5a2"},"vehicle_type_id":"4","last_reported":1743059429,"current_range_meters":8800,"station_id":"ce4bhf92rcd13ifvqf40","pricing_plan_id":"cebpf4jnsgd1na2vs0mg"},{"bike_id":"3c606ed7-b493-48b8-865c-f6968752130f","system_id":"levelo_inurba_marseille","lat":43.29262,"lon":5.40906,"is_reserved":false,"is_disabled":false,"rental_uris":{"android":"levelo://app?vid=3c606ed7-b493-48b8-865c-f6968752130f","ios":"levelo://app?vid=3c606ed7-b493-48b8-865c-f6968752130f"},"vehicle_type_id":"4","last_reported":1743059429,"current_range_meters":8800,"station_id":"ce4bh192rcd13ifvqdc0","pricing_plan_id":"cebpf4jnsgd1na2vs0mg"},{"bike_id":"0dcafc33-413c-4c3d-a435-5640f82af9f4","system_id":"levelo_inurba_marseille","lat":43.30888,"lon":5.3963,"is_reserved":false,"is_disabled":false,"rental_uris":{"android":"levelo://app?vid=0dcafc33-413c-4c3d-a435-5640f82af9f4","ios":"levelo://app?vid=0dcafc33-413c-4c3d-a435-5640f82af9f4"},"vehicle_type_id":"4","last_reported":1743059429,"current_range_meters":8800,"station_id":"ce4bh012rcd13ifvqcv0","pricing_plan_id":"cebpf4jnsgd1na2vs0mg"},{"bike_id":"85d0fa0c-b5b9-41cd-ba43-951901672dab","system_id":"levelo_inurba_marseille","lat":43.256,"lon":5.39098,"is_reserved":false,"is_disabled":false,"rental_uris":{"android":"levelo://app?vid=85d0fa0c-b5b9-41cd-ba43-951901672dab","ios":"levelo://app?vid=85d0fa0c-b5b9-41cd-ba43-951901672dab"},"vehicle_type_id":"4","last_reported":1743059429,"current_range_meters":8800,"station_id":"","pricing_plan_id":"cebpf4jnsgd1na2vs0mg"},{"bike_id":"dc8ccdc9-a018-4504-b0a9-676297905591","system_id":"levelo_inurba_marseille","lat":43.2934,"lon":5.36973,"is_reserved":false,"is_disabled":false,"rental_uris":{"android":"levelo://app?vid=dc8ccdc9-a018-4504-b0a9-676297905591","ios":"levelo://app?vid=dc8ccdc9-a018-4504-b0a9-676297905591"},"vehicle_type_id":"4","last_reported":1743059429,"current_range_meters":8800,"station_id":"","pricing_plan_id":"cebpf4jnsgd1na2vs0mg"},{"bike_id":"629dc58e-f1fa-4c78-b496-582f20ae1d69","system_id":"levelo_inurba_marseille","lat":43.23154,"lon":5.43718,"is_reserved":false,"is_disabled":false,"rental_uris":{"android":"levelo://app?vid=629dc58e-f1fa-4c78-b496-582f20ae1d69","ios":"levelo://app?vid=629dc58e-f1fa-4c78-b496-582f20ae1d69"},"vehicle_type_id":"4","last_reported":1743059429,"current_range_meters":8800,"station_id":"ce4bhmp2rcd13ifvqgog","pricing_plan_id":"cebpf4jnsgd1na2vs0mg"},{"bike_id":"1c21b756-e036-4348-8b3e-23fd217ddfa2","system_id":"levelo_inurba_marseille","lat":43.26954,"lon":5.38632,"is_reserved":false,"is_disabled":false,"rental_uris":{"android":"levelo://app?vid=1c21b756-e036-4348-8b3e-23fd217ddfa2","ios":"levelo://app?vid=1c21b756-e036-4348-8b3e-23fd217ddfa2"},"vehicle_type_id":"4","last_reported":1743059429,"current_range_meters":8800,"station_id":"ce4bhh92rcd13ifvqfh0","pricing_plan_id":"cebpf4jnsgd1na2vs0mg"},{"bike_id":"f408b4d4-0f69-4a55-bf3a-3c3c8e1647f7","system_id":"levelo_inurba_marseille","lat":43.23195,"lon":5.3999,"is_reserved":false,"is_disabled":false,"rental_uris":{"android":"levelo://app?vid=f408b4d4-0f69-4a55-bf3a-3c3c8e1647f7","ios":"levelo://app?vid=f408b4d4-0f69-4a55-bf3a-3c3c8e1647f7"},"vehicle_type_id":"4","last_reported":1743059429,"current_range_meters":8800,"station_id":"ce4bhn12rcd13ifvqgqg","pricing_plan_id":"cebpf4jnsgd1na2vs0mg"},{"bike_id":"23dc76d2-2800-457d-bd64-3db15b736d1d","system_id":"levelo_inurba_marseille","lat":43.25902,"lon":5.38875,"is_reserved":false,"is_disabled":false,"rental_uris":{"android":"levelo://app?vid=23dc76d2-2800-457d-bd64-3db15b736d1d","ios":"levelo://app?vid=23dc76d2-2800-457d-bd64-3db15b736d1d"},"vehicle_type_id":"4","last_reported":1743059429,"current_range_meters":8800,"station_id":"","pricing_plan_id":"cebpf4jnsgd1na2vs0mg"},{"bike_id":"402cc30d-39ca-4056-ad42-effd69fbd9c9","system_id":"levelo_inurba_marseille","lat":43.240742,"lon":5.377586,"is_reserved":false,"is_disabled":false,"rental_uris":{"android":"levelo://app?vid=402cc30d-39ca-4056-ad42-effd69fbd9c9","ios":"levelo://app?vid=402cc30d-39ca-4056-ad42-effd69fbd9c9"},"vehicle_type_id":"4","last_reported":1743059429,"current_range_meters":8800,"station_id":"ce4bhnp2rcd13ifvqgvg","pricing_plan_id":"cebpf4jnsgd1na2vs0mg"},{"bike_id":"40046afd-c6aa-43ea-88bd-183a4d2ec61c","system_id":"levelo_inurba_marseille","lat":43.3162,"lon":5.41684,"is_reserved":false,"is_disabled":false,"rental_uris":{"android":"levelo://app?vid=40046afd-c6aa-43ea-88bd-183a4d2ec61c","ios":"levelo://app?vid=40046afd-c6aa-43ea-88bd-183a4d2ec61c"},"vehicle_type_id":"4","last_reported":1743059429,"current_range_meters":9200,"station_id":"","pricing_plan_id":"cebpf4jnsgd1na2vs0mg"},{"bike_id":"3e47647a-d0b3-45da-ae72-292a841c251e","system_id":"levelo_inurba_marseille","lat":43.28379,"lon":5.38631,"is_reserved":false,"is_disabled":false,"rental_uris":{"android":"levelo://app?vid=3e47647a-d0b3-45da-ae72-292a841c251e","ios":"levelo://app?vid=3e47647a-d0b3-45da-ae72-292a841c251e"},"vehicle_type_id":"4","last_reported":1743059429,"current_range_meters":9200,"station_id":"ce4bh492rcd13ifvqdvg","pricing_plan_id":"cebpf4jnsgd1na2vs0mg"},{"bike_id":"9b2f2c14-1bd5-4771-bc4b-d17129d3069d","system_id":"levelo_inurba_marseille","lat":43.22923,"lon":5.35397,"is_reserved":false,"is_disabled":false,"rental_uris":{"android":"levelo://app?vid=9b2f2c14-1bd5-4771-bc4b-d17129d3069d","ios":"levelo://app?vid=9b2f2c14-1bd5-4771-bc4b-d17129d3069d"},"vehicle_type_id":"4","last_reported":1743059429,"current_range_meters":9200,"station_id":"cpo3532slgdg3j2ikp40","pricing_plan_id":"cebpf4jnsgd1na2vs0mg"},{"bike_id":"150f35f2-9a94-4586-bfb7-d0362c3a6185","system_id":"levelo_inurba_marseille","lat":43.31327,"lon":5.37343,"is_reserved":false,"is_disabled":false,"rental_uris":{"android":"levelo://app?vid=150f35f2-9a94-4586-bfb7-d0362c3a6185","ios":"levelo://app?vid=150f35f2-9a94-4586-bfb7-d0362c3a6185"},"vehicle_type_id":"4","last_reported":1743059429,"current_range_meters":9200,"station_id":"","pricing_plan_id":"cebpf4jnsgd1na2vs0mg"},{"bike_id":"ae281929-0c54-4533-b84b-6d2e7e49e090","system_id":"levelo_inurba_marseille","lat":43.28378,"lon":5.38632,"is_reserved":false,"is_disabled":false,"rental_uris":{"android":"levelo://app?vid=ae281929-0c54-4533-b84b-6d2e7e49e090","ios":"levelo://app?vid=ae281929-0c54-4533-b84b-6d2e7e49e090"},"vehicle_type_id":"4","last_reported":1743059429,"current_range_meters":9600,"station_id":"ce4bh492rcd13ifvqdvg","pricing_plan_id":"cebpf4jnsgd1na2vs0mg"},{"bike_id":"0efa9a85-a950-471a-88a8-073f5726d25d","system_id":"levelo_inurba_marseille","lat":43.292599,"lon":5.384326,"is_reserved":false,"is_disabled":true,"rental_uris":{"android":"levelo://app?vid=0efa9a85-a950-471a-88a8-073f5726d25d","ios":"levelo://app?vid=0efa9a85-a950-471a-88a8-073f5726d25d"},"vehicle_type_id":"4","last_reported":1743059429,"current_range_meters":9600,"station_id":"ce4bh692rcd13ifvqea0","pricing_plan_id":"cebpf4jnsgd1na2vs0mg"},{"bike_id":"72ff2873-eb3d-4526-97dc-a6ed38586447","system_id":"levelo_inurba_marseille","lat":43.278171,"lon":5.40715,"is_reserved":false,"is_disabled":false,"rental_uris":{"android":"levelo://app?vid=72ff2873-eb3d-4526-97dc-a6ed38586447","ios":"levelo://app?vid=72ff2873-eb3d-4526-97dc-a6ed38586447"},"vehicle_type_id":"4","last_reported":1743059429,"current_range_meters":9600,"station_id":"","pricing_plan_id":"cebpf4jnsgd1na2vs0mg"},{"bike_id":"ee527ed9-d26c-4e8d-b008-038b46dba415","system_id":"levelo_inurba_marseille","lat":43.32024,"lon":5.38174,"is_reserved":false,"is_disabled":false,"rental_uris":{"android":"levelo://app?vid=ee527ed9-d26c-4e8d-b008-038b46dba415","ios":"levelo://app?vid=ee527ed9-d26c-4e8d-b008-038b46dba415"},"vehicle_type_id":"4","last_reported":1743059429,"current_range_meters":9600,"station_id":"ce4bhr12rcd13ifvqhpg","pricing_plan_id":"cebpf4jnsgd1na2vs0mg"},{"bike_id":"00ccdc21-1544-425b-979c-c904f6636454","system_id":"levelo_inurba_marseille","lat":43.30553,"lon":5.3841,"is_reserved":false,"is_disabled":false,"rental_uris":{"android":"levelo://app?vid=00ccdc21-1544-425b-979c-c904f6636454","ios":"levelo://app?vid=00ccdc21-1544-425b-979c-c904f6636454"},"vehicle_type_id":"4","last_reported":1743059429,"current_range_meters":9600,"station_id":"ce4bgg92rcd13ifvqb30","pricing_plan_id":"cebpf4jnsgd1na2vs0mg"},{"bike_id":"6c35504b-5c7b-47e3-943f-b046b18c8483","system_id":"levelo_inurba_marseille","lat":43.28717,"lon":5.37936,"is_reserved":false,"is_disabled":false,"rental_uris":{"android":"levelo://app?vid=6c35504b-5c7b-47e3-943f-b046b18c8483","ios":"levelo://app?vid=6c35504b-5c7b-47e3-943f-b046b18c8483"},"vehicle_type_id":"4","last_reported":1743059429,"current_range_meters":9600,"station_id":"ce4bh9p2rcd13ifvqec0","pricing_plan_id":"cebpf4jnsgd1na2vs0mg"},{"bike_id":"467a0440-a39c-427d-850b-bfd9d70774e5","system_id":"levelo_inurba_marseille","lat":43.272091,"lon":5.391719,"is_reserved":false,"is_disabled":false,"rental_uris":{"android":"levelo://app?vid=467a0440-a39c-427d-850b-bfd9d70774e5","ios":"levelo://app?vid=467a0440-a39c-427d-850b-bfd9d70774e5"},"vehicle_type_id":"4","last_reported":1743059429,"current_range_meters":9600,"station_id":"ce4bhg92rcd13ifvqf90","pricing_plan_id":"cebpf4jnsgd1na2vs0mg"},{"bike_id":"3fb0f666-a670-45fe-aedc-d24883f25901","system_id":"levelo_inurba_marseille","lat":43.30149,"lon":5.38075,"is_reserved":false,"is_disabled":false,"rental_uris":{"android":"levelo://app?vid=3fb0f666-a670-45fe-aedc-d24883f25901","ios":"levelo://app?vid=3fb0f666-a670-45fe-aedc-d24883f25901"},"vehicle_type_id":"4","last_reported":1743059429,"current_range_meters":9600,"station_id":"ce4bgjp2rcd13ifvqbh0","pricing_plan_id":"cebpf4jnsgd1na2vs0mg"},{"bike_id":"46bc7627-5963-437b-83ed-b3f9497370e8","system_id":"levelo_inurba_marseille","lat":43.29901,"lon":5.43672,"is_reserved":false,"is_disabled":false,"rental_uris":{"android":"levelo://app?vid=46bc7627-5963-437b-83ed-b3f9497370e8","ios":"levelo://app?vid=46bc7627-5963-437b-83ed-b3f9497370e8"},"vehicle_type_id":"4","last_reported":1743059429,"current_range_meters":9600,"station_id":"ce4bhpp2rcd13ifvqhfg","pricing_plan_id":"cebpf4jnsgd1na2vs0mg"},{"bike_id":"2585dcf8-fcfb-4b48-8839-4e10d5e34b1b","system_id":"levelo_inurba_marseille","lat":43.24159,"lon":5.39745,"is_reserved":false,"is_disabled":false,"rental_uris":{"android":"levelo://app?vid=2585dcf8-fcfb-4b48-8839-4e10d5e34b1b","ios":"levelo://app?vid=2585dcf8-fcfb-4b48-8839-4e10d5e34b1b"},"vehicle_type_id":"4","last_reported":1743059429,"current_range_meters":9600,"station_id":"ce4bhn12rcd13ifvqgpg","pricing_plan_id":"cebpf4jnsgd1na2vs0mg"},{"bike_id":"92ebc5a6-0d9f-45da-9a83-4dce7e1f76a7","system_id":"levelo_inurba_marseille","lat":43.311606,"lon":5.387281,"is_reserved":false,"is_disabled":false,"rental_uris":{"android":"levelo://app?vid=92ebc5a6-0d9f-45da-9a83-4dce7e1f76a7","ios":"levelo://app?vid=92ebc5a6-0d9f-45da-9a83-4dce7e1f76a7"},"vehicle_type_id":"4","last_reported":1743059429,"current_range_meters":9600,"station_id":"ce4bgv12rcd13ifvqcp0","pricing_plan_id":"cebpf4jnsgd1na2vs0mg"},{"bike_id":"da02046a-e8be-4732-a814-bea47c0457a4","system_id":"levelo_inurba_marseille","lat":43.31066,"lon":5.3835,"is_reserved":false,"is_disabled":false,"rental_uris":{"android":"levelo://app?vid=da02046a-e8be-4732-a814-bea47c0457a4","ios":"levelo://app?vid=da02046a-e8be-4732-a814-bea47c0457a4"},"vehicle_type_id":"4","last_reported":1743059429,"current_range_meters":9600,"station_id":"ce4bgv92rcd13ifvqcr0","pricing_plan_id":"cebpf4jnsgd1na2vs0mg"},{"bike_id":"819e6417-919b-4efb-aa26-c38b2c87b26c","system_id":"levelo_inurba_marseille","lat":43.27811,"lon":5.40704,"is_reserved":false,"is_disabled":false,"rental_uris":{"android":"levelo://app?vid=819e6417-919b-4efb-aa26-c38b2c87b26c","ios":"levelo://app?vid=819e6417-919b-4efb-aa26-c38b2c87b26c"},"vehicle_type_id":"4","last_reported":1743059429,"current_range_meters":10000,"station_id":"ce4bhnh2rcd13ifvqgtg","pricing_plan_id":"cebpf4jnsgd1na2vs0mg"},{"bike_id":"6f78564b-4f7d-43c2-a961-a4ce5acb9a37","system_id":"levelo_inurba_marseille","lat":43.30008,"lon":5.37187,"is_reserved":false,"is_disabled":false,"rental_uris":{"android":"levelo://app?vid=6f78564b-4f7d-43c2-a961-a4ce5acb9a37","ios":"levelo://app?vid=6f78564b-4f7d-43c2-a961-a4ce5acb9a37"},"vehicle_type_id":"4","last_reported":1743059429,"current_range_meters":10000,"station_id":"ce4bgr92rcd13ifvqc7g","pricing_plan_id":"cebpf4jnsgd1na2vs0mg"},{"bike_id":"dca3df28-914a-4444-b7aa-193016abb04c","system_id":"levelo_inurba_marseille","lat":43.27496,"lon":5.42454,"is_reserved":false,"is_disabled":false,"rental_uris":{"android":"levelo://app?vid=dca3df28-914a-4444-b7aa-193016abb04c","ios":"levelo://app?vid=dca3df28-914a-4444-b7aa-193016abb04c"},"vehicle_type_id":"4","last_reported":1743059429,"current_range_meters":10000,"station_id":"ce4bhn92rcd13ifvqgrg","pricing_plan_id":"cebpf4jnsgd1na2vs0mg"},{"bike_id":"b7b84f78-a0bd-4839-9bec-74d0eacb879d","system_id":"levelo_inurba_marseille","lat":43.24082,"lon":5.37756,"is_reserved":false,"is_disabled":false,"rental_uris":{"android":"levelo://app?vid=b7b84f78-a0bd-4839-9bec-74d0eacb879d","ios":"levelo://app?vid=b7b84f78-a0bd-4839-9bec-74d0eacb879d"},"vehicle_type_id":"4","last_reported":1743059429,"current_range_meters":10000,"station_id":"ce4bhnp2rcd13ifvqgvg","pricing_plan_id":"cebpf4jnsgd1na2vs0mg"},{"bike_id":"0e7c62a6-eb7a-4461-9d21-0edf936aa498","system_id":"levelo_inurba_marseille","lat":43.30958,"lon":5.39027,"is_reserved":false,"is_disabled":false,"rental_uris":{"android":"levelo://app?vid=0e7c62a6-eb7a-4461-9d21-0edf936aa498","ios":"levelo://app?vid=0e7c62a6-eb7a-4461-9d21-0edf936aa498"},"vehicle_type_id":"4","last_reported":1743059429,"current_range_meters":10000,"station_id":"ce4bgup2rcd13ifvqco0","pricing_plan_id":"cebpf4jnsgd1na2vs0mg"},{"bike_id":"cff8994d-77fb-4983-95ec-41addf895282","system_id":"levelo_inurba_marseille","lat":43.29043,"lon":5.39991,"is_reserved":false,"is_disabled":false,"rental_uris":{"android":"levelo://app?vid=cff8994d-77fb-4983-95ec-41addf895282","ios":"levelo://app?vid=cff8994d-77fb-4983-95ec-41addf895282"},"vehicle_type_id":"4","last_reported":1743059429,"current_range_meters":10000,"station_id":"ce4bh392rcd13ifvqdm0","pricing_plan_id":"cebpf4jnsgd1na2vs0mg"},{"bike_id":"8fc16288-e08d-45c7-a1ea-1774a173c4e3","system_id":"levelo_inurba_marseille","lat":43.33613,"lon":5.41035,"is_reserved":false,"is_disabled":false,"rental_uris":{"android":"levelo://app?vid=8fc16288-e08d-45c7-a1ea-1774a173c4e3","ios":"levelo://app?vid=8fc16288-e08d-45c7-a1ea-1774a173c4e3"},"vehicle_type_id":"4","last_reported":1743059429,"current_range_meters":10000,"station_id":"ce4bhqh2rcd13ifvqhmg","pricing_plan_id":"cebpf4jnsgd1na2vs0mg"},{"bike_id":"5d97e6db-29aa-4dc3-a913-dd5ff76e3f8c","system_id":"levelo_inurba_marseille","lat":43.29428,"lon":5.38659,"is_reserved":false,"is_disabled":true,"rental_uris":{"android":"levelo://app?vid=5d97e6db-29aa-4dc3-a913-dd5ff76e3f8c","ios":"levelo://app?vid=5d97e6db-29aa-4dc3-a913-dd5ff76e3f8c"},"vehicle_type_id":"4","last_reported":1743059429,"current_range_meters":10800,"station_id":"ce4bh2h2rcd13ifvqdh0","pricing_plan_id":"cebpf4jnsgd1na2vs0mg"},{"bike_id":"c4070541-dc19-4353-ac6e-343acb6a88bf","system_id":"levelo_inurba_marseille","lat":43.2315,"lon":5.43715,"is_reserved":false,"is_disabled":false,"rental_uris":{"android":"levelo://app?vid=c4070541-dc19-4353-ac6e-343acb6a88bf","ios":"levelo://app?vid=c4070541-dc19-4353-ac6e-343acb6a88bf"},"vehicle_type_id":"4","last_reported":1743059429,"current_range_meters":10800,"station_id":"ce4bhmp2rcd13ifvqgog","pricing_plan_id":"cebpf4jnsgd1na2vs0mg"},{"bike_id":"c18155db-65c7-4d5a-8c5b-923eb75c675d","system_id":"levelo_inurba_marseille","lat":43.32107,"lon":5.36776,"is_reserved":false,"is_disabled":false,"rental_uris":{"android":"levelo://app?vid=c18155db-65c7-4d5a-8c5b-923eb75c675d","ios":"levelo://app?vid=c18155db-65c7-4d5a-8c5b-923eb75c675d"},"vehicle_type_id":"4","last_reported":1743059429,"current_range_meters":10800,"station_id":"ce4bhrh2rcd13ifvqhug","pricing_plan_id":"cebpf4jnsgd1na2vs0mg"},{"bike_id":"5ca9ac81-53c9-444a-ab66-71f3af25a779","system_id":"levelo_inurba_marseille","lat":43.28009,"lon":5.39997,"is_reserved":false,"is_disabled":false,"rental_uris":{"android":"levelo://app?vid=5ca9ac81-53c9-444a-ab66-71f3af25a779","ios":"levelo://app?vid=5ca9ac81-53c9-444a-ab66-71f3af25a779"},"vehicle_type_id":"4","last_reported":1743059429,"current_range_meters":10800,"station_id":"ce4bho92rcd13ifvqh4g","pricing_plan_id":"cebpf4jnsgd1na2vs0mg"},{"bike_id":"c2b00fb2-88f2-49b8-92f8-ee36965c02b1","system_id":"levelo_inurba_marseille","lat":43.24079,"lon":5.37759,"is_reserved":false,"is_disabled":false,"rental_uris":{"android":"levelo://app?vid=c2b00fb2-88f2-49b8-92f8-ee36965c02b1","ios":"levelo://app?vid=c2b00fb2-88f2-49b8-92f8-ee36965c02b1"},"vehicle_type_id":"4","last_reported":1743059429,"current_range_meters":10800,"station_id":"ce4bhnp2rcd13ifvqgvg","pricing_plan_id":"cebpf4jnsgd1na2vs0mg"},{"bike_id":"6f1a4c35-2f00-4faa-b039-6440525bf2e4","system_id":"levelo_inurba_marseille","lat":43.29806,"lon":5.40419,"is_reserved":false,"is_disabled":false,"rental_uris":{"android":"levelo://app?vid=6f1a4c35-2f00-4faa-b039-6440525bf2e4","ios":"levelo://app?vid=6f1a4c35-2f00-4faa-b039-6440525bf2e4"},"vehicle_type_id":"4","last_reported":1743059429,"current_range_meters":10800,"station_id":"ce4bh112rcd13ifvqd90","pricing_plan_id":"cebpf4jnsgd1na2vs0mg"},{"bike_id":"08f31e5c-cf6f-45c0-9cff-8fa60a258696","system_id":"levelo_inurba_marseille","lat":43.21221,"lon":5.35296,"is_reserved":false,"is_disabled":false,"rental_uris":{"android":"levelo://app?vid=08f31e5c-cf6f-45c0-9cff-8fa60a258696","ios":"levelo://app?vid=08f31e5c-cf6f-45c0-9cff-8fa60a258696"},"vehicle_type_id":"4","last_reported":1743059429,"current_range_meters":11200,"station_id":"","pricing_plan_id":"cebpf4jnsgd1na2vs0mg"},{"bike_id":"6e208957-05d3-430b-8247-5e3338f51f57","system_id":"levelo_inurba_marseille","lat":43.299035,"lon":5.381293,"is_reserved":false,"is_disabled":true,"rental_uris":{"android":"levelo://app?vid=6e208957-05d3-430b-8247-5e3338f51f57","ios":"levelo://app?vid=6e208957-05d3-430b-8247-5e3338f51f57"},"vehicle_type_id":"4","last_reported":1743059429,"current_range_meters":11200,"station_id":"ce4bgj12rcd13ifvqbc0","pricing_plan_id":"cebpf4jnsgd1na2vs0mg"},{"bike_id":"82558df2-ad5c-4253-b94e-febaf21fc5b3","system_id":"levelo_inurba_marseille","lat":43.30462,"lon":5.37901,"is_reserved":false,"is_disabled":false,"rental_uris":{"android":"levelo://app?vid=82558df2-ad5c-4253-b94e-febaf21fc5b3","ios":"levelo://app?vid=82558df2-ad5c-4253-b94e-febaf21fc5b3"},"vehicle_type_id":"4","last_reported":1743059429,"current_range_meters":11200,"station_id":"ce4bgup2rcd13ifvqcn0","pricing_plan_id":"cebpf4jnsgd1na2vs0mg"},{"bike_id":"4daafd2b-3d15-4e15-b8b0-556320f32655","system_id":"levelo_inurba_marseille","lat":43.30211,"lon":5.39467,"is_reserved":false,"is_disabled":false,"rental_uris":{"android":"levelo://app?vid=4daafd2b-3d15-4e15-b8b0-556320f32655","ios":"levelo://app?vid=4daafd2b-3d15-4e15-b8b0-556320f32655"},"vehicle_type_id":"4","last_reported":1743059429,"current_range_meters":11200,"station_id":"ce4bh0p2rcd13ifvqd70","pricing_plan_id":"cebpf4jnsgd1na2vs0mg"},{"bike_id":"0ac88cdf-dd3a-494f-aaa5-2b24d1ce393f","system_id":"levelo_inurba_marseille","lat":43.231939,"lon":5.35557,"is_reserved":false,"is_disabled":false,"rental_uris":{"android":"levelo://app?vid=0ac88cdf-dd3a-494f-aaa5-2b24d1ce393f","ios":"levelo://app?vid=0ac88cdf-dd3a-494f-aaa5-2b24d1ce393f"},"vehicle_type_id":"4","last_reported":1743059429,"current_range_meters":11200,"station_id":"ce4bhu92rcd13ifvqi70","pricing_plan_id":"cebpf4jnsgd1na2vs0mg"},{"bike_id":"1b036368-9f49-48a1-b87f-7e268d514fd1","system_id":"levelo_inurba_marseille","lat":43.28938,"lon":5.36411,"is_reserved":false,"is_disabled":false,"rental_uris":{"android":"levelo://app?vid=1b036368-9f49-48a1-b87f-7e268d514fd1","ios":"levelo://app?vid=1b036368-9f49-48a1-b87f-7e268d514fd1"},"vehicle_type_id":"4","last_reported":1743059429,"current_range_meters":11200,"station_id":"ce4bhc92rcd13ifvqetg","pricing_plan_id":"cebpf4jnsgd1na2vs0mg"},{"bike_id":"99b491be-83d7-4ce3-b732-9d20a1797fcc","system_id":"levelo_inurba_marseille","lat":43.28154,"lon":5.42644,"is_reserved":false,"is_disabled":false,"rental_uris":{"android":"levelo://app?vid=99b491be-83d7-4ce3-b732-9d20a1797fcc","ios":"levelo://app?vid=99b491be-83d7-4ce3-b732-9d20a1797fcc"},"vehicle_type_id":"4","last_reported":1743059429,"current_range_meters":11200,"station_id":"ce4bhnh2rcd13ifvqgug","pricing_plan_id":"cebpf4jnsgd1na2vs0mg"},{"bike_id":"babb1208-6b6d-418d-b39f-814dfc13f625","system_id":"levelo_inurba_marseille","lat":43.24082,"lon":5.3775,"is_reserved":false,"is_disabled":false,"rental_uris":{"android":"levelo://app?vid=babb1208-6b6d-418d-b39f-814dfc13f625","ios":"levelo://app?vid=babb1208-6b6d-418d-b39f-814dfc13f625"},"vehicle_type_id":"4","last_reported":1743059429,"current_range_meters":11200,"station_id":"ce4bhnp2rcd13ifvqgvg","pricing_plan_id":"cebpf4jnsgd1na2vs0mg"},{"bike_id":"975934f6-7a33-420c-bd9c-1cd88c1e6d5c","system_id":"levelo_inurba_marseille","lat":43.27963,"lon":5.38761,"is_reserved":false,"is_disabled":false,"rental_uris":{"android":"levelo://app?vid=975934f6-7a33-420c-bd9c-1cd88c1e6d5c","ios":"levelo://app?vid=975934f6-7a33-420c-bd9c-1cd88c1e6d5c"},"vehicle_type_id":"4","last_reported":1743059429,"current_range_meters":11600,"station_id":"ce4bhg12rcd13ifvqf80","pricing_plan_id":"cebpf4jnsgd1na2vs0mg"},{"bike_id":"0f1791a4-b9fa-44d2-918b-291c86f697e9","system_id":"levelo_inurba_marseille","lat":43.29209,"lon":5.36076,"is_reserved":false,"is_disabled":false,"rental_uris":{"android":"levelo://app?vid=0f1791a4-b9fa-44d2-918b-291c86f697e9","ios":"levelo://app?vid=0f1791a4-b9fa-44d2-918b-291c86f697e9"},"vehicle_type_id":"4","last_reported":1743059429,"current_range_meters":11600,"station_id":"ce4bhbh2rcd13ifvqeqg","pricing_plan_id":"cebpf4jnsgd1na2vs0mg"},{"bike_id":"f2e7ab25-bb07-43eb-a688-3f78fdd52891","system_id":"levelo_inurba_marseille","lat":43.29641,"lon":5.40614,"is_reserved":false,"is_disabled":false,"rental_uris":{"android":"levelo://app?vid=f2e7ab25-bb07-43eb-a688-3f78fdd52891","ios":"levelo://app?vid=f2e7ab25-bb07-43eb-a688-3f78fdd52891"},"vehicle_type_id":"4","last_reported":1743059429,"current_range_meters":11600,"station_id":"ce4bh0h2rcd13ifvqd60","pricing_plan_id":"cebpf4jnsgd1na2vs0mg"},{"bike_id":"47ccdb31-6d62-47e3-90ae-8ead5f48b585","system_id":"levelo_inurba_marseille","lat":43.26964,"lon":5.38638,"is_reserved":false,"is_disabled":false,"rental_uris":{"android":"levelo://app?vid=47ccdb31-6d62-47e3-90ae-8ead5f48b585","ios":"levelo://app?vid=47ccdb31-6d62-47e3-90ae-8ead5f48b585"},"vehicle_type_id":"4","last_reported":1743059429,"current_range_meters":11600,"station_id":"ce4bhh92rcd13ifvqfh0","pricing_plan_id":"cebpf4jnsgd1na2vs0mg"},{"bike_id":"5b46f677-e811-43ef-b784-428f205739ed","system_id":"levelo_inurba_marseille","lat":43.267735,"lon":5.393409,"is_reserved":false,"is_disabled":false,"rental_uris":{"android":"levelo://app?vid=5b46f677-e811-43ef-b784-428f205739ed","ios":"levelo://app?vid=5b46f677-e811-43ef-b784-428f205739ed"},"vehicle_type_id":"4","last_reported":1743059429,"current_range_meters":11600,"station_id":"ce4bhe12rcd13ifvqf30","pricing_plan_id":"cebpf4jnsgd1na2vs0mg"},{"bike_id":"75c7187b-7cb5-4136-b180-795a32bcbe1d","system_id":"levelo_inurba_marseille","lat":43.27974,"lon":5.38589,"is_reserved":false,"is_disabled":true,"rental_uris":{"android":"levelo://app?vid=75c7187b-7cb5-4136-b180-795a32bcbe1d","ios":"levelo://app?vid=75c7187b-7cb5-4136-b180-795a32bcbe1d"},"vehicle_type_id":"4","last_reported":1743059429,"current_range_meters":11600,"station_id":"","pricing_plan_id":"cebpf4jnsgd1na2vs0mg"},{"bike_id":"181b29e9-16fe-4559-9b24-eb1130bfc90a","system_id":"levelo_inurba_marseille","lat":43.28363,"lon":5.38088,"is_reserved":false,"is_disabled":false,"rental_uris":{"android":"levelo://app?vid=181b29e9-16fe-4559-9b24-eb1130bfc90a","ios":"levelo://app?vid=181b29e9-16fe-4559-9b24-eb1130bfc90a"},"vehicle_type_id":"4","last_reported":1743059429,"current_range_meters":11600,"station_id":"ce4bh412rcd13ifvqdr0","pricing_plan_id":"cebpf4jnsgd1na2vs0mg"},{"bike_id":"911aa336-87a6-4e69-95d4-bc1a438b9815","system_id":"levelo_inurba_marseille","lat":43.2923,"lon":5.36074,"is_reserved":false,"is_disabled":false,"rental_uris":{"android":"levelo://app?vid=911aa336-87a6-4e69-95d4-bc1a438b9815","ios":"levelo://app?vid=911aa336-87a6-4e69-95d4-bc1a438b9815"},"vehicle_type_id":"4","last_reported":1743059429,"current_range_meters":12000,"station_id":"ce4bhbh2rcd13ifvqeqg","pricing_plan_id":"cebpf4jnsgd1na2vs0mg"},{"bike_id":"176f7174-a1bf-478d-ba37-7252254242c0","system_id":"levelo_inurba_marseille","lat":43.29254,"lon":5.40898,"is_reserved":false,"is_disabled":false,"rental_uris":{"android":"levelo://app?vid=176f7174-a1bf-478d-ba37-7252254242c0","ios":"levelo://app?vid=176f7174-a1bf-478d-ba37-7252254242c0"},"vehicle_type_id":"4","last_reported":1743059429,"current_range_meters":12000,"station_id":"ce4bh192rcd13ifvqdc0","pricing_plan_id":"cebpf4jnsgd1na2vs0mg"},{"bike_id":"73d0517d-5a91-4cbc-b0cc-d4d7063c21bb","system_id":"levelo_inurba_marseille","lat":43.29792,"lon":5.38137,"is_reserved":false,"is_disabled":false,"rental_uris":{"android":"levelo://app?vid=73d0517d-5a91-4cbc-b0cc-d4d7063c21bb","ios":"levelo://app?vid=73d0517d-5a91-4cbc-b0cc-d4d7063c21bb"},"vehicle_type_id":"4","last_reported":1743059429,"current_range_meters":12000,"station_id":"ce4bgip2rcd13ifvqbb0","pricing_plan_id":"cebpf4jnsgd1na2vs0mg"},{"bike_id":"1aeef731-19e7-42a0-9e1f-40cc5eff2176","system_id":"levelo_inurba_marseille","lat":43.30604,"lon":5.39362,"is_reserved":false,"is_disabled":false,"rental_uris":{"android":"levelo://app?vid=1aeef731-19e7-42a0-9e1f-40cc5eff2176","ios":"levelo://app?vid=1aeef731-19e7-42a0-9e1f-40cc5eff2176"},"vehicle_type_id":"4","last_reported":1743059429,"current_range_meters":12000,"station_id":"ce4bh0p2rcd13ifvqd80","pricing_plan_id":"cebpf4jnsgd1na2vs0mg"},{"bike_id":"5018a59b-b386-4e99-b26c-192a8f1ed783","system_id":"levelo_inurba_marseille","lat":43.3332,"lon":5.35929,"is_reserved":false,"is_disabled":false,"rental_uris":{"android":"levelo://app?vid=5018a59b-b386-4e99-b26c-192a8f1ed783","ios":"levelo://app?vid=5018a59b-b386-4e99-b26c-192a8f1ed783"},"vehicle_type_id":"4","last_reported":1743059429,"current_range_meters":12000,"station_id":"","pricing_plan_id":"cebpf4jnsgd1na2vs0mg"},{"bike_id":"16086e3a-9ffb-4c75-b5f8-b3c1571b8153","system_id":"levelo_inurba_marseille","lat":43.24092,"lon":5.37756,"is_reserved":false,"is_disabled":false,"rental_uris":{"android":"levelo://app?vid=16086e3a-9ffb-4c75-b5f8-b3c1571b8153","ios":"levelo://app?vid=16086e3a-9ffb-4c75-b5f8-b3c1571b8153"},"vehicle_type_id":"4","last_reported":1743059429,"current_range_meters":12000,"station_id":"ce4bhnp2rcd13ifvqgvg","pricing_plan_id":"cebpf4jnsgd1na2vs0mg"},{"bike_id":"8e1fd18c-ee2f-4132-8303-b254e815e5b7","system_id":"levelo_inurba_marseille","lat":43.25012,"lon":5.38924,"is_reserved":false,"is_disabled":false,"rental_uris":{"android":"levelo://app?vid=8e1fd18c-ee2f-4132-8303-b254e815e5b7","ios":"levelo://app?vid=8e1fd18c-ee2f-4132-8303-b254e815e5b7"},"vehicle_type_id":"4","last_reported":1743059429,"current_range_meters":12000,"station_id":"ce4bhgp2rcd13ifvqfd0","pricing_plan_id":"cebpf4jnsgd1na2vs0mg"},{"bike_id":"2079e143-15fb-4fca-b428-1dcdbd2da2aa","system_id":"levelo_inurba_marseille","lat":43.27829,"lon":5.40735,"is_reserved":false,"is_disabled":false,"rental_uris":{"android":"levelo://app?vid=2079e143-15fb-4fca-b428-1dcdbd2da2aa","ios":"levelo://app?vid=2079e143-15fb-4fca-b428-1dcdbd2da2aa"},"vehicle_type_id":"4","last_reported":1743059429,"current_range_meters":12400,"station_id":"ce4bhnh2rcd13ifvqgtg","pricing_plan_id":"cebpf4jnsgd1na2vs0mg"},{"bike_id":"25c93242-72e6-4525-aea7-7d96e2cd1825","system_id":"levelo_inurba_marseille","lat":43.330632,"lon":5.408294,"is_reserved":false,"is_disabled":false,"rental_uris":{"android":"levelo://app?vid=25c93242-72e6-4525-aea7-7d96e2cd1825","ios":"levelo://app?vid=25c93242-72e6-4525-aea7-7d96e2cd1825"},"vehicle_type_id":"4","last_reported":1743059429,"current_range_meters":12400,"station_id":"","pricing_plan_id":"cebpf4jnsgd1na2vs0mg"},{"bike_id":"d5bd38d8-cbf0-4dd0-8754-1d073acc725e","system_id":"levelo_inurba_marseille","lat":43.24074,"lon":5.37773,"is_reserved":false,"is_disabled":false,"rental_uris":{"android":"levelo://app?vid=d5bd38d8-cbf0-4dd0-8754-1d073acc725e","ios":"levelo://app?vid=d5bd38d8-cbf0-4dd0-8754-1d073acc725e"},"vehicle_type_id":"4","last_reported":1743059429,"current_range_meters":12400,"station_id":"ce4bhnp2rcd13ifvqgvg","pricing_plan_id":"cebpf4jnsgd1na2vs0mg"},{"bike_id":"b7df044c-a420-415e-b7b7-345aa8eb07fc","system_id":"levelo_inurba_marseille","lat":43.31868,"lon":5.38749,"is_reserved":false,"is_disabled":false,"rental_uris":{"android":"levelo://app?vid=b7df044c-a420-415e-b7b7-345aa8eb07fc","ios":"levelo://app?vid=b7df044c-a420-415e-b7b7-345aa8eb07fc"},"vehicle_type_id":"4","last_reported":1743059429,"current_range_meters":12400,"station_id":"","pricing_plan_id":"cebpf4jnsgd1na2vs0mg"},{"bike_id":"64f0ea86-1180-4755-95e1-3cbc9c8d4cf5","system_id":"levelo_inurba_marseille","lat":43.33021,"lon":5.43856,"is_reserved":false,"is_disabled":true,"rental_uris":{"android":"levelo://app?vid=64f0ea86-1180-4755-95e1-3cbc9c8d4cf5","ios":"levelo://app?vid=64f0ea86-1180-4755-95e1-3cbc9c8d4cf5"},"vehicle_type_id":"4","last_reported":1743059429,"current_range_meters":12400,"station_id":"","pricing_plan_id":"cebpf4jnsgd1na2vs0mg"},{"bike_id":"fc8e8371-f4e9-4721-bc19-563801e389dc","system_id":"levelo_inurba_marseille","lat":43.337444,"lon":5.374475,"is_reserved":false,"is_disabled":false,"rental_uris":{"android":"levelo://app?vid=fc8e8371-f4e9-4721-bc19-563801e389dc","ios":"levelo://app?vid=fc8e8371-f4e9-4721-bc19-563801e389dc"},"vehicle_type_id":"4","last_reported":1743059429,"current_range_meters":12400,"station_id":"","pricing_plan_id":"cebpf4jnsgd1na2vs0mg"},{"bike_id":"12de2a5d-af1a-406f-ae29-1792c23b418c","system_id":"levelo_inurba_marseille","lat":43.28424,"lon":5.34997,"is_reserved":false,"is_disabled":true,"rental_uris":{"android":"levelo://app?vid=12de2a5d-af1a-406f-ae29-1792c23b418c","ios":"levelo://app?vid=12de2a5d-af1a-406f-ae29-1792c23b418c"},"vehicle_type_id":"4","last_reported":1743059429,"current_range_meters":12800,"station_id":"ce4bhbh2rcd13ifvqepg","pricing_plan_id":"cebpf4jnsgd1na2vs0mg"},{"bike_id":"c7c20ccb-e66c-4599-9681-122a443c8ef8","system_id":"levelo_inurba_marseille","lat":43.28721,"lon":5.36108,"is_reserved":false,"is_disabled":false,"rental_uris":{"android":"levelo://app?vid=c7c20ccb-e66c-4599-9681-122a443c8ef8","ios":"levelo://app?vid=c7c20ccb-e66c-4599-9681-122a443c8ef8"},"vehicle_type_id":"4","last_reported":1743059429,"current_range_meters":12800,"station_id":"cki0cbj6b192h4jlfktg","pricing_plan_id":"cebpf4jnsgd1na2vs0mg"},{"bike_id":"776cf818-eef5-4096-9df3-aa572959673c","system_id":"levelo_inurba_marseille","lat":43.280314,"lon":5.369537,"is_reserved":false,"is_disabled":false,"rental_uris":{"android":"levelo://app?vid=776cf818-eef5-4096-9df3-aa572959673c","ios":"levelo://app?vid=776cf818-eef5-4096-9df3-aa572959673c"},"vehicle_type_id":"4","last_reported":1743059429,"current_range_meters":12800,"station_id":"ce4bha12rcd13ifvqef0","pricing_plan_id":"cebpf4jnsgd1na2vs0mg"},{"bike_id":"d0f4d9ad-fce1-4008-bdb8-ed38a12009d6","system_id":"levelo_inurba_marseille","lat":43.26061,"lon":5.39398,"is_reserved":false,"is_disabled":false,"rental_uris":{"android":"levelo://app?vid=d0f4d9ad-fce1-4008-bdb8-ed38a12009d6","ios":"levelo://app?vid=d0f4d9ad-fce1-4008-bdb8-ed38a12009d6"},"vehicle_type_id":"4","last_reported":1743059429,"current_range_meters":12800,"station_id":"ce4bhh92rcd13ifvqfj0","pricing_plan_id":"cebpf4jnsgd1na2vs0mg"},{"bike_id":"46bc710b-ba5b-4a06-b139-1452387f1098","system_id":"levelo_inurba_marseille","lat":43.231476,"lon":5.437221,"is_reserved":false,"is_disabled":false,"rental_uris":{"android":"levelo://app?vid=46bc710b-ba5b-4a06-b139-1452387f1098","ios":"levelo://app?vid=46bc710b-ba5b-4a06-b139-1452387f1098"},"vehicle_type_id":"4","last_reported":1743059429,"current_range_meters":12800,"station_id":"ce4bhmp2rcd13ifvqgog","pricing_plan_id":"cebpf4jnsgd1na2vs0mg"},{"bike_id":"4bc6d656-cec5-4197-b8aa-2089609b81be","system_id":"levelo_inurba_marseille","lat":43.30826,"lon":5.38183,"is_reserved":false,"is_disabled":false,"rental_uris":{"android":"levelo://app?vid=4bc6d656-cec5-4197-b8aa-2089609b81be","ios":"levelo://app?vid=4bc6d656-cec5-4197-b8aa-2089609b81be"},"vehicle_type_id":"4","last_reported":1743059429,"current_range_meters":12800,"station_id":"ce4bgt12rcd13ifvqce0","pricing_plan_id":"cebpf4jnsgd1na2vs0mg"},{"bike_id":"0014b780-ef27-4888-af9d-17760e69cd38","system_id":"levelo_inurba_marseille","lat":43.27516,"lon":5.4244,"is_reserved":false,"is_disabled":false,"rental_uris":{"android":"levelo://app?vid=0014b780-ef27-4888-af9d-17760e69cd38","ios":"levelo://app?vid=0014b780-ef27-4888-af9d-17760e69cd38"},"vehicle_type_id":"4","last_reported":1743059429,"current_range_meters":12800,"station_id":"ce4bhn92rcd13ifvqgrg","pricing_plan_id":"cebpf4jnsgd1na2vs0mg"},{"bike_id":"8ce3e8ad-9362-40c8-9284-29a9342d7b87","system_id":"levelo_inurba_marseille","lat":43.30542,"lon":5.36532,"is_reserved":false,"is_disabled":false,"rental_uris":{"android":"levelo://app?vid=8ce3e8ad-9362-40c8-9284-29a9342d7b87","ios":"levelo://app?vid=8ce3e8ad-9362-40c8-9284-29a9342d7b87"},"vehicle_type_id":"4","last_reported":1743059429,"current_range_meters":12800,"station_id":"ce4bgs12rcd13ifvqcag","pricing_plan_id":"cebpf4jnsgd1na2vs0mg"},{"bike_id":"30cd612a-8cb0-4fab-9e3a-cd08e9fc22b5","system_id":"levelo_inurba_marseille","lat":43.29534,"lon":5.39433,"is_reserved":false,"is_disabled":true,"rental_uris":{"android":"levelo://app?vid=30cd612a-8cb0-4fab-9e3a-cd08e9fc22b5","ios":"levelo://app?vid=30cd612a-8cb0-4fab-9e3a-cd08e9fc22b5"},"vehicle_type_id":"4","last_reported":1743059429,"current_range_meters":12800,"station_id":"ce4bh292rcd13ifvqdf0","pricing_plan_id":"cebpf4jnsgd1na2vs0mg"},{"bike_id":"19221227-42ec-4f4b-8f04-42a0818e22f5","system_id":"levelo_inurba_marseille","lat":43.32107,"lon":5.36753,"is_reserved":false,"is_disabled":false,"rental_uris":{"android":"levelo://app?vid=19221227-42ec-4f4b-8f04-42a0818e22f5","ios":"levelo://app?vid=19221227-42ec-4f4b-8f04-42a0818e22f5"},"vehicle_type_id":"4","last_reported":1743059429,"current_range_meters":12800,"station_id":"ce4bhrh2rcd13ifvqhug","pricing_plan_id":"cebpf4jnsgd1na2vs0mg"},{"bike_id":"cbbe37a3-0aa0-48c1-ba7f-65c2f6110082","system_id":"levelo_inurba_marseille","lat":43.29023,"lon":5.38143,"is_reserved":false,"is_disabled":false,"rental_uris":{"android":"levelo://app?vid=cbbe37a3-0aa0-48c1-ba7f-65c2f6110082","ios":"levelo://app?vid=cbbe37a3-0aa0-48c1-ba7f-65c2f6110082"},"vehicle_type_id":"4","last_reported":1743059429,"current_range_meters":12800,"station_id":"ce4bh4p2rcd13ifvqe1g","pricing_plan_id":"cebpf4jnsgd1na2vs0mg"},{"bike_id":"2fe546b8-fa69-42c4-ae8f-4b3f4b863d6b","system_id":"levelo_inurba_marseille","lat":43.28162,"lon":5.42663,"is_reserved":false,"is_disabled":false,"rental_uris":{"android":"levelo://app?vid=2fe546b8-fa69-42c4-ae8f-4b3f4b863d6b","ios":"levelo://app?vid=2fe546b8-fa69-42c4-ae8f-4b3f4b863d6b"},"vehicle_type_id":"4","last_reported":1743059429,"current_range_meters":12800,"station_id":"ce4bhnh2rcd13ifvqgug","pricing_plan_id":"cebpf4jnsgd1na2vs0mg"},{"bike_id":"aabd682a-105c-46e6-a4fe-4b72a3fb7bb6","system_id":"levelo_inurba_marseille","lat":43.24084,"lon":5.37754,"is_reserved":false,"is_disabled":false,"rental_uris":{"android":"levelo://app?vid=aabd682a-105c-46e6-a4fe-4b72a3fb7bb6","ios":"levelo://app?vid=aabd682a-105c-46e6-a4fe-4b72a3fb7bb6"},"vehicle_type_id":"4","last_reported":1743059429,"current_range_meters":12800,"station_id":"ce4bhnp2rcd13ifvqgvg","pricing_plan_id":"cebpf4jnsgd1na2vs0mg"},{"bike_id":"f00e0bf1-e77c-4752-8f1b-63a2e565cf51","system_id":"levelo_inurba_marseille","lat":43.279662,"lon":5.387496,"is_reserved":false,"is_disabled":true,"rental_uris":{"android":"levelo://app?vid=f00e0bf1-e77c-4752-8f1b-63a2e565cf51","ios":"levelo://app?vid=f00e0bf1-e77c-4752-8f1b-63a2e565cf51"},"vehicle_type_id":"4","last_reported":1743059429,"current_range_meters":13600,"station_id":"ce4bhg12rcd13ifvqf80","pricing_plan_id":"cebpf4jnsgd1na2vs0mg"},{"bike_id":"3794eee4-f755-48a0-8699-76dca7fff8ee","system_id":"levelo_inurba_marseille","lat":43.21272,"lon":5.35398,"is_reserved":false,"is_disabled":false,"rental_uris":{"android":"levelo://app?vid=3794eee4-f755-48a0-8699-76dca7fff8ee","ios":"levelo://app?vid=3794eee4-f755-48a0-8699-76dca7fff8ee"},"vehicle_type_id":"4","last_reported":1743059429,"current_range_meters":13600,"station_id":"","pricing_plan_id":"cebpf4jnsgd1na2vs0mg"},{"bike_id":"8af3753b-b69a-4fab-aa3d-0c02defc1c51","system_id":"levelo_inurba_marseille","lat":43.28735,"lon":5.37947,"is_reserved":false,"is_disabled":false,"rental_uris":{"android":"levelo://app?vid=8af3753b-b69a-4fab-aa3d-0c02defc1c51","ios":"levelo://app?vid=8af3753b-b69a-4fab-aa3d-0c02defc1c51"},"vehicle_type_id":"4","last_reported":1743059429,"current_range_meters":13600,"station_id":"ce4bh9p2rcd13ifvqec0","pricing_plan_id":"cebpf4jnsgd1na2vs0mg"},{"bike_id":"346f42ed-917e-4861-9b0b-e1f20fe507dd","system_id":"levelo_inurba_marseille","lat":43.31381,"lon":5.36717,"is_reserved":false,"is_disabled":false,"rental_uris":{"android":"levelo://app?vid=346f42ed-917e-4861-9b0b-e1f20fe507dd","ios":"levelo://app?vid=346f42ed-917e-4861-9b0b-e1f20fe507dd"},"vehicle_type_id":"4","last_reported":1743059429,"current_range_meters":13600,"station_id":"ce4bgr92rcd13ifvqc6g","pricing_plan_id":"cebpf4jnsgd1na2vs0mg"},{"bike_id":"302a8568-b763-4ed8-9aa7-ccc17c2a2f92","system_id":"levelo_inurba_marseille","lat":43.31701,"lon":5.37733,"is_reserved":false,"is_disabled":false,"rental_uris":{"android":"levelo://app?vid=302a8568-b763-4ed8-9aa7-ccc17c2a2f92","ios":"levelo://app?vid=302a8568-b763-4ed8-9aa7-ccc17c2a2f92"},"vehicle_type_id":"4","last_reported":1743059429,"current_range_meters":13600,"station_id":"ce4bgth2rcd13ifvqch0","pricing_plan_id":"cebpf4jnsgd1na2vs0mg"},{"bike_id":"7c0e5242-d040-4261-99f3-fb7fecf35329","system_id":"levelo_inurba_marseille","lat":43.2837,"lon":5.38097,"is_reserved":false,"is_disabled":false,"rental_uris":{"android":"levelo://app?vid=7c0e5242-d040-4261-99f3-fb7fecf35329","ios":"levelo://app?vid=7c0e5242-d040-4261-99f3-fb7fecf35329"},"vehicle_type_id":"4","last_reported":1743059429,"current_range_meters":13600,"station_id":"ce4bh412rcd13ifvqdr0","pricing_plan_id":"cebpf4jnsgd1na2vs0mg"},{"bike_id":"d6e33064-410d-437c-8272-6a00ce3e7f5e","system_id":"levelo_inurba_marseille","lat":43.24627,"lon":5.38197,"is_reserved":false,"is_disabled":false,"rental_uris":{"android":"levelo://app?vid=d6e33064-410d-437c-8272-6a00ce3e7f5e","ios":"levelo://app?vid=d6e33064-410d-437c-8272-6a00ce3e7f5e"},"vehicle_type_id":"4","last_reported":1743059429,"current_range_meters":13600,"station_id":"ce4bhih2rcd13ifvqfr0","pricing_plan_id":"cebpf4jnsgd1na2vs0mg"},{"bike_id":"b92531f3-1086-4aff-8df8-9ccdf666ba85","system_id":"levelo_inurba_marseille","lat":43.29734,"lon":5.37717,"is_reserved":false,"is_disabled":true,"rental_uris":{"android":"levelo://app?vid=b92531f3-1086-4aff-8df8-9ccdf666ba85","ios":"levelo://app?vid=b92531f3-1086-4aff-8df8-9ccdf666ba85"},"vehicle_type_id":"4","last_reported":1743059429,"current_range_meters":13600,"station_id":"ce4bgkh2rcd13ifvqbl0","pricing_plan_id":"cebpf4jnsgd1na2vs0mg"},{"bike_id":"1b2a646b-96df-4054-bcd8-4e32a570ac79","system_id":"levelo_inurba_marseille","lat":43.24181,"lon":5.39728,"is_reserved":false,"is_disabled":false,"rental_uris":{"android":"levelo://app?vid=1b2a646b-96df-4054-bcd8-4e32a570ac79","ios":"levelo://app?vid=1b2a646b-96df-4054-bcd8-4e32a570ac79"},"vehicle_type_id":"4","last_reported":1743059429,"current_range_meters":13600,"station_id":"ce4bhn12rcd13ifvqgpg","pricing_plan_id":"cebpf4jnsgd1na2vs0mg"},{"bike_id":"435a72f7-adc6-427c-9e5f-bb522cae6b95","system_id":"levelo_inurba_marseille","lat":43.28269,"lon":5.35061,"is_reserved":false,"is_disabled":false,"rental_uris":{"android":"levelo://app?vid=435a72f7-adc6-427c-9e5f-bb522cae6b95","ios":"levelo://app?vid=435a72f7-adc6-427c-9e5f-bb522cae6b95"},"vehicle_type_id":"4","last_reported":1743059429,"current_range_meters":13600,"station_id":"ce4bhbp2rcd13ifvqerg","pricing_plan_id":"cebpf4jnsgd1na2vs0mg"},{"bike_id":"02fd761b-cdbf-40b3-b5c9-3660b06bbfb0","system_id":"levelo_inurba_marseille","lat":43.28935,"lon":5.36426,"is_reserved":false,"is_disabled":true,"rental_uris":{"android":"levelo://app?vid=02fd761b-cdbf-40b3-b5c9-3660b06bbfb0","ios":"levelo://app?vid=02fd761b-cdbf-40b3-b5c9-3660b06bbfb0"},"vehicle_type_id":"4","last_reported":1743059429,"current_range_meters":13600,"station_id":"ce4bhc92rcd13ifvqetg","pricing_plan_id":"cebpf4jnsgd1na2vs0mg"},{"bike_id":"af2e0675-f9ba-4397-8bc0-afc769f3f0cc","system_id":"levelo_inurba_marseille","lat":43.29608,"lon":5.38087,"is_reserved":false,"is_disabled":false,"rental_uris":{"android":"levelo://app?vid=af2e0675-f9ba-4397-8bc0-afc769f3f0cc","ios":"levelo://app?vid=af2e0675-f9ba-4397-8bc0-afc769f3f0cc"},"vehicle_type_id":"4","last_reported":1743059429,"current_range_meters":13600,"station_id":"ce4bgl12rcd13ifvqbo0","pricing_plan_id":"cebpf4jnsgd1na2vs0mg"},{"bike_id":"4605e24d-65b2-4424-9d4d-b88f889f4b8e","system_id":"levelo_inurba_marseille","lat":43.2811,"lon":5.3985,"is_reserved":false,"is_disabled":false,"rental_uris":{"android":"levelo://app?vid=4605e24d-65b2-4424-9d4d-b88f889f4b8e","ios":"levelo://app?vid=4605e24d-65b2-4424-9d4d-b88f889f4b8e"},"vehicle_type_id":"4","last_reported":1743059429,"current_range_meters":14000,"station_id":"","pricing_plan_id":"cebpf4jnsgd1na2vs0mg"},{"bike_id":"633757c0-a330-4c8a-8b45-f500ed63c7df","system_id":"levelo_inurba_marseille","lat":43.28453,"lon":5.35909,"is_reserved":false,"is_disabled":false,"rental_uris":{"android":"levelo://app?vid=633757c0-a330-4c8a-8b45-f500ed63c7df","ios":"levelo://app?vid=633757c0-a330-4c8a-8b45-f500ed63c7df"},"vehicle_type_id":"4","last_reported":1743059429,"current_range_meters":14400,"station_id":"ce4bhah2rcd13ifvqei0","pricing_plan_id":"cebpf4jnsgd1na2vs0mg"},{"bike_id":"4bf382b5-aace-4bd2-bacb-5b7a58f988d4","system_id":"levelo_inurba_marseille","lat":43.2952,"lon":5.38566,"is_reserved":false,"is_disabled":true,"rental_uris":{"android":"levelo://app?vid=4bf382b5-aace-4bd2-bacb-5b7a58f988d4","ios":"levelo://app?vid=4bf382b5-aace-4bd2-bacb-5b7a58f988d4"},"vehicle_type_id":"4","last_reported":1743059429,"current_range_meters":14400,"station_id":"ce4bgih2rcd13ifvqba0","pricing_plan_id":"cebpf4jnsgd1na2vs0mg"},{"bike_id":"c9d25743-68ae-4479-9c17-59c34dbbf7e8","system_id":"levelo_inurba_marseille","lat":43.27874,"lon":5.41237,"is_reserved":false,"is_disabled":false,"rental_uris":{"android":"levelo://app?vid=c9d25743-68ae-4479-9c17-59c34dbbf7e8","ios":"levelo://app?vid=c9d25743-68ae-4479-9c17-59c34dbbf7e8"},"vehicle_type_id":"4","last_reported":1743059429,"current_range_meters":14400,"station_id":"","pricing_plan_id":"cebpf4jnsgd1na2vs0mg"},{"bike_id":"7407108b-a37d-4a0b-b99a-4435ab43b46d","system_id":"levelo_inurba_marseille","lat":43.27829,"lon":5.40731,"is_reserved":false,"is_disabled":false,"rental_uris":{"android":"levelo://app?vid=7407108b-a37d-4a0b-b99a-4435ab43b46d","ios":"levelo://app?vid=7407108b-a37d-4a0b-b99a-4435ab43b46d"},"vehicle_type_id":"4","last_reported":1743059429,"current_range_meters":14400,"station_id":"ce4bhnh2rcd13ifvqgtg","pricing_plan_id":"cebpf4jnsgd1na2vs0mg"},{"bike_id":"e9fbcc8c-5ca5-47a7-a7cb-1b67ca13e267","system_id":"levelo_inurba_marseille","lat":43.30207,"lon":5.39486,"is_reserved":false,"is_disabled":false,"rental_uris":{"android":"levelo://app?vid=e9fbcc8c-5ca5-47a7-a7cb-1b67ca13e267","ios":"levelo://app?vid=e9fbcc8c-5ca5-47a7-a7cb-1b67ca13e267"},"vehicle_type_id":"4","last_reported":1743059429,"current_range_meters":14400,"station_id":"ce4bh0p2rcd13ifvqd70","pricing_plan_id":"cebpf4jnsgd1na2vs0mg"},{"bike_id":"a3a0f99e-d38a-4667-8cd4-08aaa4694863","system_id":"levelo_inurba_marseille","lat":43.29016,"lon":5.39984,"is_reserved":false,"is_disabled":false,"rental_uris":{"android":"levelo://app?vid=a3a0f99e-d38a-4667-8cd4-08aaa4694863","ios":"levelo://app?vid=a3a0f99e-d38a-4667-8cd4-08aaa4694863"},"vehicle_type_id":"4","last_reported":1743059429,"current_range_meters":14400,"station_id":"ce4bh392rcd13ifvqdm0","pricing_plan_id":"cebpf4jnsgd1na2vs0mg"},{"bike_id":"1ad49110-a3d5-4721-b311-96490d24edb1","system_id":"levelo_inurba_marseille","lat":43.24084,"lon":5.37753,"is_reserved":false,"is_disabled":false,"rental_uris":{"android":"levelo://app?vid=1ad49110-a3d5-4721-b311-96490d24edb1","ios":"levelo://app?vid=1ad49110-a3d5-4721-b311-96490d24edb1"},"vehicle_type_id":"4","last_reported":1743059429,"current_range_meters":14400,"station_id":"ce4bhnp2rcd13ifvqgvg","pricing_plan_id":"cebpf4jnsgd1na2vs0mg"},{"bike_id":"49748645-26a7-4869-b630-119c5a0defb9","system_id":"levelo_inurba_marseille","lat":43.3081,"lon":5.38135,"is_reserved":false,"is_disabled":false,"rental_uris":{"android":"levelo://app?vid=49748645-26a7-4869-b630-119c5a0defb9","ios":"levelo://app?vid=49748645-26a7-4869-b630-119c5a0defb9"},"vehicle_type_id":"4","last_reported":1743059429,"current_range_meters":14800,"station_id":"ce4bgt12rcd13ifvqce0","pricing_plan_id":"cebpf4jnsgd1na2vs0mg"},{"bike_id":"3a0c3c70-f897-42ea-adff-ea251c315b1a","system_id":"levelo_inurba_marseille","lat":43.31369,"lon":5.38495,"is_reserved":false,"is_disabled":false,"rental_uris":{"android":"levelo://app?vid=3a0c3c70-f897-42ea-adff-ea251c315b1a","ios":"levelo://app?vid=3a0c3c70-f897-42ea-adff-ea251c315b1a"},"vehicle_type_id":"4","last_reported":1743059429,"current_range_meters":14800,"station_id":"ce4bgt92rcd13ifvqcf0","pricing_plan_id":"cebpf4jnsgd1na2vs0mg"},{"bike_id":"e0f854e6-2375-437d-a78b-6d5bf2ead237","system_id":"levelo_inurba_marseille","lat":43.3342,"lon":5.400673,"is_reserved":false,"is_disabled":false,"rental_uris":{"android":"levelo://app?vid=e0f854e6-2375-437d-a78b-6d5bf2ead237","ios":"levelo://app?vid=e0f854e6-2375-437d-a78b-6d5bf2ead237"},"vehicle_type_id":"4","last_reported":1743059429,"current_range_meters":14800,"station_id":"","pricing_plan_id":"cebpf4jnsgd1na2vs0mg"},{"bike_id":"ef34c5df-04ac-43f5-b064-e6bc9741740d","system_id":"levelo_inurba_marseille","lat":43.32358,"lon":5.36766,"is_reserved":false,"is_disabled":false,"rental_uris":{"android":"levelo://app?vid=ef34c5df-04ac-43f5-b064-e6bc9741740d","ios":"levelo://app?vid=ef34c5df-04ac-43f5-b064-e6bc9741740d"},"vehicle_type_id":"4","last_reported":1743059429,"current_range_meters":14800,"station_id":"ce4bhsh2rcd13ifvqi2g","pricing_plan_id":"cebpf4jnsgd1na2vs0mg"},{"bike_id":"b58e838f-6a5a-4238-8a58-7f5c7bcfa19c","system_id":"levelo_inurba_marseille","lat":43.28442,"lon":5.35908,"is_reserved":false,"is_disabled":false,"rental_uris":{"android":"levelo://app?vid=b58e838f-6a5a-4238-8a58-7f5c7bcfa19c","ios":"levelo://app?vid=b58e838f-6a5a-4238-8a58-7f5c7bcfa19c"},"vehicle_type_id":"4","last_reported":1743059429,"current_range_meters":15200,"station_id":"ce4bhah2rcd13ifvqei0","pricing_plan_id":"cebpf4jnsgd1na2vs0mg"},{"bike_id":"7eb893fb-4a56-49c0-8a37-a513cbfc8ffd","system_id":"levelo_inurba_marseille","lat":43.30796,"lon":5.38134,"is_reserved":false,"is_disabled":false,"rental_uris":{"android":"levelo://app?vid=7eb893fb-4a56-49c0-8a37-a513cbfc8ffd","ios":"levelo://app?vid=7eb893fb-4a56-49c0-8a37-a513cbfc8ffd"},"vehicle_type_id":"4","last_reported":1743059429,"current_range_meters":15200,"station_id":"ce4bgt12rcd13ifvqce0","pricing_plan_id":"cebpf4jnsgd1na2vs0mg"},{"bike_id":"ecb10dd1-35ea-438c-ab3f-3f7890ab7e47","system_id":"levelo_inurba_marseille","lat":43.30502,"lon":5.38876,"is_reserved":false,"is_disabled":false,"rental_uris":{"android":"levelo://app?vid=ecb10dd1-35ea-438c-ab3f-3f7890ab7e47","ios":"levelo://app?vid=ecb10dd1-35ea-438c-ab3f-3f7890ab7e47"},"vehicle_type_id":"4","last_reported":1743059429,"current_range_meters":15200,"station_id":"ce4bgk12rcd13ifvqbi0","pricing_plan_id":"cebpf4jnsgd1na2vs0mg"},{"bike_id":"6b26b053-03e6-4938-b1cb-8b036ed0694e","system_id":"levelo_inurba_marseille","lat":43.27497,"lon":5.42451,"is_reserved":false,"is_disabled":false,"rental_uris":{"android":"levelo://app?vid=6b26b053-03e6-4938-b1cb-8b036ed0694e","ios":"levelo://app?vid=6b26b053-03e6-4938-b1cb-8b036ed0694e"},"vehicle_type_id":"4","last_reported":1743059429,"current_range_meters":15200,"station_id":"ce4bhn92rcd13ifvqgrg","pricing_plan_id":"cebpf4jnsgd1na2vs0mg"},{"bike_id":"1c14bf9c-ada4-4a36-8853-740a1a2c000a","system_id":"levelo_inurba_marseille","lat":43.23208,"lon":5.3558,"is_reserved":false,"is_disabled":false,"rental_uris":{"android":"levelo://app?vid=1c14bf9c-ada4-4a36-8853-740a1a2c000a","ios":"levelo://app?vid=1c14bf9c-ada4-4a36-8853-740a1a2c000a"},"vehicle_type_id":"4","last_reported":1743059429,"current_range_meters":15200,"station_id":"ce4bhu92rcd13ifvqi70","pricing_plan_id":"cebpf4jnsgd1na2vs0mg"},{"bike_id":"a5f84dae-1994-46b8-bcf8-fd6b10d6ee7c","system_id":"levelo_inurba_marseille","lat":43.240847,"lon":5.377292,"is_reserved":false,"is_disabled":false,"rental_uris":{"android":"levelo://app?vid=a5f84dae-1994-46b8-bcf8-fd6b10d6ee7c","ios":"levelo://app?vid=a5f84dae-1994-46b8-bcf8-fd6b10d6ee7c"},"vehicle_type_id":"4","last_reported":1743059429,"current_range_meters":15200,"station_id":"ce4bhnp2rcd13ifvqgvg","pricing_plan_id":"cebpf4jnsgd1na2vs0mg"},{"bike_id":"bb6d3e35-eb6d-49e4-9094-4a82b36c2c46","system_id":"levelo_inurba_marseille","lat":43.32362,"lon":5.36766,"is_reserved":false,"is_disabled":false,"rental_uris":{"android":"levelo://app?vid=bb6d3e35-eb6d-49e4-9094-4a82b36c2c46","ios":"levelo://app?vid=bb6d3e35-eb6d-49e4-9094-4a82b36c2c46"},"vehicle_type_id":"4","last_reported":1743059429,"current_range_meters":16000,"station_id":"ce4bhsh2rcd13ifvqi2g","pricing_plan_id":"cebpf4jnsgd1na2vs0mg"},{"bike_id":"7195a4a6-7049-4a03-9b16-91a5e664e18a","system_id":"levelo_inurba_marseille","lat":43.27988,"lon":5.41678,"is_reserved":false,"is_disabled":false,"rental_uris":{"android":"levelo://app?vid=7195a4a6-7049-4a03-9b16-91a5e664e18a","ios":"levelo://app?vid=7195a4a6-7049-4a03-9b16-91a5e664e18a"},"vehicle_type_id":"4","last_reported":1743059429,"current_range_meters":16000,"station_id":"ce4bho12rcd13ifvqh1g","pricing_plan_id":"cebpf4jnsgd1na2vs0mg"},{"bike_id":"f5c0233d-9eab-4081-995e-13558cd2f8cc","system_id":"levelo_inurba_marseille","lat":43.28948,"lon":5.36643,"is_reserved":false,"is_disabled":false,"rental_uris":{"android":"levelo://app?vid=f5c0233d-9eab-4081-995e-13558cd2f8cc","ios":"levelo://app?vid=f5c0233d-9eab-4081-995e-13558cd2f8cc"},"vehicle_type_id":"4","last_reported":1743059429,"current_range_meters":16000,"station_id":"ce4bhap2rcd13ifvqek0","pricing_plan_id":"cebpf4jnsgd1na2vs0mg"},{"bike_id":"7d752d2b-319a-433d-b4e0-a5d71d519229","system_id":"levelo_inurba_marseille","lat":43.2318,"lon":5.40007,"is_reserved":false,"is_disabled":false,"rental_uris":{"android":"levelo://app?vid=7d752d2b-319a-433d-b4e0-a5d71d519229","ios":"levelo://app?vid=7d752d2b-319a-433d-b4e0-a5d71d519229"},"vehicle_type_id":"4","last_reported":1743059429,"current_range_meters":16000,"station_id":"ce4bhn12rcd13ifvqgqg","pricing_plan_id":"cebpf4jnsgd1na2vs0mg"},{"bike_id":"78ab2b23-b81b-49b3-81f1-dea3cce7cf64","system_id":"levelo_inurba_marseille","lat":43.27495,"lon":5.42451,"is_reserved":false,"is_disabled":false,"rental_uris":{"android":"levelo://app?vid=78ab2b23-b81b-49b3-81f1-dea3cce7cf64","ios":"levelo://app?vid=78ab2b23-b81b-49b3-81f1-dea3cce7cf64"},"vehicle_type_id":"4","last_reported":1743059429,"current_range_meters":16000,"station_id":"ce4bhn92rcd13ifvqgrg","pricing_plan_id":"cebpf4jnsgd1na2vs0mg"},{"bike_id":"0a5b4595-a0ff-4243-933d-883a1c098aca","system_id":"levelo_inurba_marseille","lat":43.304167,"lon":5.41286,"is_reserved":false,"is_disabled":true,"rental_uris":{"android":"levelo://app?vid=0a5b4595-a0ff-4243-933d-883a1c098aca","ios":"levelo://app?vid=0a5b4595-a0ff-4243-933d-883a1c098aca"},"vehicle_type_id":"4","last_reported":1743059429,"current_range_meters":16000,"station_id":"ce4bhop2rcd13ifvqh8g","pricing_plan_id":"cebpf4jnsgd1na2vs0mg"},