{"last_updated":1713852599,"ttl":30,"version":"2.2","data":{"bikes":[{"bike_id":"7665139c-ea7e-4351-9e21-14299f2d9f4b","system_id":"levelo_inurba_marseille","lat":43.31341,"lon":5.367098,"is_reserved":false,"is_disabled":false,"rental_uris":{"android":"levelo://app?vid=7665139c-ea7e-4351-9e21-14299f2d9f4b","ios":"levelo://app?vid=7665139c-ea7e-4351-9e21-14299f2d9f4b"},"vehicle_type_id":"4","last_reported":1713852599,"current_range_meters":20400,"station_id":"ce4bgr92rcd13ifvqc6g","pricing_plan_id":"cebpf4jnsgd1na2vs0mg"},{"bike_id":"a974079d-7f0c-458c-ac9f-f2a17f88f8ff","system_id":"levelo_inurba_marseille","lat":43.31341,"lon":5.367098,"is_reserved":false,"is_disabled":false,"rental_uris":{"android":"levelo://app?vid=a974079d-7f0c-458c-ac9f-f2a17f88f8ff","ios":"levelo://app?vid=a974079d-7f0c-458c-ac9f-f2a17f88f8ff"},"vehicle_type_id":"4","last_reported":1713852599,"current_range_meters":27200,"station_id":"ce4bgr92rcd13ifvqc6g","pricing_plan_id":"cebpf4jnsgd1na2vs0mg"},{"bike_id":"00a81ab2-98b9-4721-ad1d-5341a2638561","system_id":"levelo_inurba_marseille","lat":43.312239,"lon":5.368562,"is_reserved":false,"is_disabled":false,"rental_uris":{"android":"levelo://app?vid=00a81ab2-98b9-4721-ad1d-5341a2638561","ios":"levelo://app?vid=00a81ab2-98b9-4721-ad1d-5341a2638561"},"vehicle_type_id":"4","last_reported":1713852599,"current_range_meters":5200,"station_id":"ce4bgl92rcd13ifvqbq0","pricing_plan_id":"cebpf4jnsgd1na2vs0mg"},{"bike_id":"0ce8d2c0-3d8c-48d0-9b30-128d44a06d4e","system_id":"levelo_inurba_marseille","lat":43.312239,"lon":5.368562,"is_reserved":false,"is_disabled":false,"rental_uris":{"android":"levelo://app?vid=0ce8d2c0-3d8c-48d0-9b30-128d44a06d4e","ios":"levelo://app?vid=0ce8d2c0-3d8c-48d0-9b30-128d44a06d4e"},"vehicle_type_id":"4","last_reported":1713852599,"current_range_meters":18400,"station_id":"ce4bgl92rcd13ifvqbq0","pricing_plan_id":"cebpf4jnsgd1na2vs0mg"},{"bike_id":"7fc6e486-c526-444d-8182-f477951b3421","system_id":"levelo_inurba_marseille","lat":43.312239,"lon":5.368562,"is_reserved":false,"is_disabled":false,"rental_uris":{"android":"levelo://app?vid=7fc6e486-c526-444d-8182-f477951b3421","ios":"levelo://app?vid=7fc6e486-c526-444d-8182-f477951b3421"},"vehicle_type_id":"4","last_reported":1713852599,"current_range_meters":23600,"station_id":"ce4bgl92rcd13ifvqbq0","pricing_plan_id":"cebpf4jnsgd1na2vs0mg"},{"bike_id":"8790d3e7-2e38-4d15-9b77-8f39474be235","system_id":"levelo_inurba_marseille","lat":43.292749,"lon":5.368402,"is_reserved":false,"is_disabled":false,"rental_uris":{"android":"levelo://app?vid=8790d3e7-2e38-4d15-9b77-8f39474be235","ios":"levelo://app?vid=8790d3e7-2e38-4d15-9b77-8f39474be235"},"vehicle_type_id":"4","last_reported":1713852599,"current_range_meters":23600,"station_id":"ce4bhbp2rcd13ifvqesg","pricing_plan_id":"cebpf4jnsgd1na2vs0mg"},{"bike_id":"d12f1643-c65a-427e-b1c8-7d54c0349f4a","system_id":"levelo_inurba_marseille","lat":43.30901,"lon":5.36842,"is_reserved":false,"is_disabled":false,"rental_uris":{"android":"levelo://app?vid=d12f1643-c65a-427e-b1c8-7d54c0349f4a","ios":"levelo://app?vid=d12f1643-c65a-427e-b1c8-7d54c0349f4a"},"vehicle_type_id":"4","last_reported":1713852599,"current_range_meters":0,"station_id":"ce4bgn92rcd13ifvqbvg","pricing_plan_id":"cebpf4jnsgd1na2vs0mg"},{"bike_id":"87eb805c-723e-440e-8162-7a0d63d9f283","system_id":"levelo_inurba_marseille","lat":43.31486,"lon":5.37305,"is_reserved":false,"is_disabled":false,"rental_uris":{"android":"levelo://app?vid=87eb805c-723e-440e-8162-7a0d63d9f283","ios":"levelo://app?vid=87eb805c-723e-440e-8162-7a0d63d9f283"},"vehicle_type_id":"4","last_reported":1713852599,"current_range_meters":14000,"station_id":"ce4bgt12rcd13ifvqcd0","pricing_plan_id":"cebpf4jnsgd1na2vs0mg"},{"bike_id":"f7b8b6c5-7a21-4dfe-ba19-dc12c4e69bd5","system_id":"levelo_inurba_marseille","lat":43.314811,"lon":5.373103,"is_reserved":false,"is_disabled":false,"rental_uris":{"android":"levelo://app?vid=f7b8b6c5-7a21-4dfe-ba19-dc12c4e69bd5","ios":"levelo://app?vid=f7b8b6c5-7a21-4dfe-ba19-dc12c4e69bd5"},"vehicle_type_id":"4","last_reported":1713852599,"current_range_meters":0,"station_id":"ce4bgt12rcd13ifvqcd0","pricing_plan_id":"cebpf4jnsgd1na2vs0mg"},{"bike_id":"b346ad18-3ea8-4fd6-b339-b3db90c00ce3","system_id":"levelo_inurba_marseille","lat":43.314811,"lon":5.373104,"is_reserved":false,"is_disabled":false,"rental_uris":{"android":"levelo://app?vid=b346ad18-3ea8-4fd6-b339-b3db90c00ce3","ios":"levelo://app?vid=b346ad18-3ea8-4fd6-b339-b3db90c00ce3"},"vehicle_type_id":"4","last_reported":1713852599,"current_range_meters":16400,"station_id":"ce4bgt12rcd13ifvqcd0","pricing_plan_id":"cebpf4jnsgd1na2vs0mg"},{"bike_id":"7b7cc210-a8d3-4b14-bcd8-3db997047803","system_id":"levelo_inurba_marseille","lat":43.309039,"lon":5.371797,"is_reserved":false,"is_disabled":false,"rental_uris":{"android":"levelo://app?vid=7b7cc210-a8d3-4b14-bcd8-3db997047803","ios":"levelo://app?vid=7b7cc210-a8d3-4b14-bcd8-3db997047803"},"vehicle_type_id":"4","last_reported":1713852599,"current_range_meters":22000,"station_id":"ce4bguh2rcd13ifvqckg","pricing_plan_id":"cebpf4jnsgd1na2vs0mg"},{"bike_id":"ff84f06c-7776-4d3d-b2f6-71298c7bd988","system_id":"levelo_inurba_marseille","lat":43.309039,"lon":5.371797,"is_reserved":false,"is_disabled":false,"rental_uris":{"android":"levelo://app?vid=ff84f06c-7776-4d3d-b2f6-71298c7bd988","ios":"levelo://app?vid=ff84f06c-7776-4d3d-b2f6-71298c7bd988"},"vehicle_type_id":"4","last_reported":1713852599,"current_range_meters":1200,"station_id":"ce4bguh2rcd13ifvqckg","pricing_plan_id":"cebpf4jnsgd1na2vs0mg"},{"bike_id":"ac5c2e49-4ecc-413f-ad57-c70ccd837a18","system_id":"levelo_inurba_marseille","lat":43.309039,"lon":5.371797,"is_reserved":false,"is_disabled":false,"rental_uris":{"android":"levelo://app?vid=ac5c2e49-4ecc-413f-ad57-c70ccd837a18","ios":"levelo://app?vid=ac5c2e49-4ecc-413f-ad57-c70ccd837a18"},"vehicle_type_id":"4","last_reported":1713852599,"current_range_meters":21600,"station_id":"ce4bguh2rcd13ifvqckg","pricing_plan_id":"cebpf4jnsgd1na2vs0mg"},{"bike_id":"9dea4cc0-6ab0-47ea-90a2-7d822b4fa2c7","system_id":"levelo_inurba_marseille","lat":43.309034,"lon":5.371783,"is_reserved":false,"is_disabled":false,"rental_uris":{"android":"levelo://app?vid=9dea4cc0-6ab0-47ea-90a2-7d822b4fa2c7","ios":"levelo://app?vid=9dea4cc0-6ab0-47ea-90a2-7d822b4fa2c7"},"vehicle_type_id":"4","last_reported":1713852599,"current_range_meters":26800,"station_id":"ce4bguh2rcd13ifvqckg","pricing_plan_id":"cebpf4jnsgd1na2vs0mg"},{"bike_id":"cb5e7be0-9e24-4c02-90c4-dfc813bad657","system_id":"levelo_inurba_marseille","lat":43.309039,"lon":5.371797,"is_reserved":false,"is_disabled":false,"rental_uris":{"android":"levelo://app?vid=cb5e7be0-9e24-4c02-90c4-dfc813bad657","ios":"levelo://app?vid=cb5e7be0-9e24-4c02-90c4-dfc813bad657"},"vehicle_type_id":"4","last_reported":1713852599,"current_range_meters":31200,"station_id":"ce4bguh2rcd13ifvqckg","pricing_plan_id":"cebpf4jnsgd1na2vs0mg"},{"bike_id":"2c63965b-b30c-4f1a-9072-100474f4cfe3","system_id":"levelo_inurba_marseille","lat":43.309039,"lon":5.371797,"is_reserved":false,"is_disabled":false,"rental_uris":{"android":"levelo://app?vid=2c63965b-b30c-4f1a-9072-100474f4cfe3","ios":"levelo://app?vid=2c63965b-b30c-4f1a-9072-100474f4cfe3"},"vehicle_type_id":"4","last_reported":1713852599,"current_range_meters":19200,"station_id":"ce4bguh2rcd13ifvqckg","pricing_plan_id":"cebpf4jnsgd1na2vs0mg"},{"bike_id":"1f2071b6-e701-48ab-ad70-7c8d5d6d938d","system_id":"levelo_inurba_marseille","lat":43.309039,"lon":5.371797,"is_reserved":false,"is_disabled":false,"rental_uris":{"android":"levelo://app?vid=1f2071b6-e701-48ab-ad70-7c8d5d6d938d","ios":"levelo://app?vid=1f2071b6-e701-48ab-ad70-7c8d5d6d938d"},"vehicle_type_id":"4","last_reported":1713852599,"current_range_meters":22800,"station_id":"ce4bguh2rcd13ifvqckg","pricing_plan_id":"cebpf4jnsgd1na2vs0mg"},{"bike_id":"1b914e00-f197-4c7b-b82f-a8c1ab83dbd1","system_id":"levelo_inurba_marseille","lat":43.309039,"lon":5.371797,"is_reserved":false,"is_disabled":false,"rental_uris":{"android":"levelo://app?vid=1b914e00-f197-4c7b-b82f-a8c1ab83dbd1","ios":"levelo://app?vid=1b914e00-f197-4c7b-b82f-a8c1ab83dbd1"},"vehicle_type_id":"4","last_reported":1713852599,"current_range_meters":14000,"station_id":"ce4bguh2rcd13ifvqckg","pricing_plan_id":"cebpf4jnsgd1na2vs0mg"},{"bike_id":"f3c8e660-adb7-448d-9d5d-55a0433da1f6","system_id":"levelo_inurba_marseille","lat":43.309039,"lon":5.371797,"is_reserved":false,"is_disabled":false,"rental_uris":{"android":"levelo://app?vid=f3c8e660-adb7-448d-9d5d-55a0433da1f6","ios":"levelo://app?vid=f3c8e660-adb7-448d-9d5d-55a0433da1f6"},"vehicle_type_id":"4","last_reported":1713852599,"current_range_meters":21600,"station_id":"ce4bguh2rcd13ifvqckg","pricing_plan_id":"cebpf4jnsgd1na2vs0mg"},{"bike_id":"c717c4fe-daa9-44f9-9517-d5a9f01de69e","system_id":"levelo_inurba_marseille","lat":43.309039,"lon":5.371797,"is_reserved":false,"is_disabled":false,"rental_uris":{"android":"levelo://app?vid=c717c4fe-daa9-44f9-9517-d5a9f01de69e","ios":"levelo://app?vid=c717c4fe-daa9-44f9-9517-d5a9f01de69e"},"vehicle_type_id":"4","last_reported":1713852599,"current_range_meters":0,"station_id":"ce4bguh2rcd13ifvqckg","pricing_plan_id":"cebpf4jnsgd1na2vs0mg"},{"bike_id":"13fcd8c0-136b-44ad-b39b-ea28d46d08b8","system_id":"levelo_inurba_marseille","lat":43.309034,"lon":5.371783,"is_reserved":false,"is_disabled":false,"rental_uris":{"android":"levelo://app?vid=13fcd8c0-136b-44ad-b39b-ea28d46d08b8","ios":"levelo://app?vid=13fcd8c0-136b-44ad-b39b-ea28d46d08b8"},"vehicle_type_id":"4","last_reported":1713852599,"current_range_meters":22000,"station_id":"ce4bguh2rcd13ifvqckg","pricing_plan_id":"cebpf4jnsgd1na2vs0mg"},{"bike_id":"7a142b55-7a13-40b7-89ac-d26179867507","system_id":"levelo_inurba_marseille","lat":43.309034,"lon":5.371783,"is_reserved":false,"is_disabled":false,"rental_uris":{"android":"levelo://app?vid=7a142b55-7a13-40b7-89ac-d26179867507","ios":"levelo://app?vid=7a142b55-7a13-40b7-89ac-d26179867507"},"vehicle_type_id":"4","last_reported":1713852599,"current_range_meters":12400,"station_id":"ce4bguh2rcd13ifvqckg","pricing_plan_id":"cebpf4jnsgd1na2vs0mg"},{"bike_id":"01297242-f819-4e00-9e6e-24e4b3ee8d60","system_id":"levelo_inurba_marseille","lat":43.308834,"lon":5.372008,"is_reserved":false,"is_disabled":false,"rental_uris":{"android":"levelo://app?vid=01297242-f819-4e00-9e6e-24e4b3ee8d60","ios":"levelo://app?vid=01297242-f819-4e00-9e6e-24e4b3ee8d60"},"vehicle_type_id":"4","last_reported":1713852599,"current_range_meters":17200,"station_id":"ce4bguh2rcd13ifvqckg","pricing_plan_id":"cebpf4jnsgd1na2vs0mg"},{"bike_id":"89d95410-a577-4866-8e56-2ac061df1f14","system_id":"levelo_inurba_marseille","lat":43.309039,"lon":5.371797,"is_reserved":false,"is_disabled":false,"rental_uris":{"android":"levelo://app?vid=89d95410-a577-4866-8e56-2ac061df1f14","ios":"levelo://app?vid=89d95410-a577-4866-8e56-2ac061df1f14"},"vehicle_type_id":"4","last_reported":1713852599,"current_range_meters":22800,"station_id":"ce4bguh2rcd13ifvqckg","pricing_plan_id":"cebpf4jnsgd1na2vs0mg"},{"bike_id":"fe077dd8-0907-483f-b5d0-1bcd846f1a23","system_id":"levelo_inurba_marseille","lat":43.309034,"lon":5.371783,"is_reserved":false,"is_disabled":false,"rental_uris":{"android":"levelo://app?vid=fe077dd8-0907-483f-b5d0-1bcd846f1a23","ios":"levelo://app?vid=fe077dd8-0907-483f-b5d0-1bcd846f1a23"},"vehicle_type_id":"4","last_reported":1713852599,"current_range_meters":20000,"station_id":"ce4bguh2rcd13ifvqckg","pricing_plan_id":"cebpf4jnsgd1na2vs0mg"},{"bike_id":"bde6e74c-3503-4144-a646-b6a745ec77c1","system_id":"levelo_inurba_marseille","lat":43.30537,"lon":5.367345,"is_reserved":false,"is_disabled":false,"rental_uris":{"android":"levelo://app?vid=bde6e74c-3503-4144-a646-b6a745ec77c1","ios":"levelo://app?vid=bde6e74c-3503-4144-a646-b6a745ec77c1"},"vehicle_type_id":"4","last_reported":1713852599,"current_range_meters":22400,"station_id":"ce4bgrp2rcd13ifvqc9g","pricing_plan_id":"cebpf4jnsgd1na2vs0mg"},{"bike_id":"442c901f-b279-4893-8b23-09b5d6714d9b","system_id":"levelo_inurba_marseille","lat":43.30537,"lon":5.367345,"is_reserved":false,"is_disabled":false,"rental_uris":{"android":"levelo://app?vid=442c901f-b279-4893-8b23-09b5d6714d9b","ios":"levelo://app?vid=442c901f-b279-4893-8b23-09b5d6714d9b"},"vehicle_type_id":"4","last_reported":1713852599,"current_range_meters":17600,"station_id":"ce4bgrp2rcd13ifvqc9g","pricing_plan_id":"cebpf4jnsgd1na2vs0mg"},{"bike_id":"6d2e17e9-aa90-4d2c-b68a-3ee5c5505bd2","system_id":"levelo_inurba_marseille","lat":43.30537,"lon":5.367345,"is_reserved":false,"is_disabled":false,"rental_uris":{"android":"levelo://app?vid=6d2e17e9-aa90-4d2c-b68a-3ee5c5505bd2","ios":"levelo://app?vid=6d2e17e9-aa90-4d2c-b68a-3ee5c5505bd2"},"vehicle_type_id":"4","last_reported":1713852599,"current_range_meters":20800,"station_id":"ce4bgrp2rcd13ifvqc9g","pricing_plan_id":"cebpf4jnsgd1na2vs0mg"},{"bike_id":"6b314411-4dda-47d3-95d3-e5f0f2eb0bba","system_id":"levelo_inurba_marseille","lat":43.30537,"lon":5.367345,"is_reserved":false,"is_disabled":false,"rental_uris":{"android":"levelo://app?vid=6b314411-4dda-47d3-95d3-e5f0f2eb0bba","ios":"levelo://app?vid=6b314411-4dda-47d3-95d3-e5f0f2eb0bba"},"vehicle_type_id":"4","last_reported":1713852599,"current_range_meters":27600,"station_id":"ce4bgrp2rcd13ifvqc9g","pricing_plan_id":"cebpf4jnsgd1na2vs0mg"},{"bike_id":"6b8bf207-a363-4d21-9b69-43b8a4552fa2","system_id":"levelo_inurba_marseille","lat":43.30537,"lon":5.367345,"is_reserved":false,"is_disabled":false,"rental_uris":{"android":"levelo://app?vid=6b8bf207-a363-4d21-9b69-43b8a4552fa2","ios":"levelo://app?vid=6b8bf207-a363-4d21-9b69-43b8a4552fa2"},"vehicle_type_id":"4","last_reported":1713852599,"current_range_meters":19200,"station_id":"ce4bgrp2rcd13ifvqc9g","pricing_plan_id":"cebpf4jnsgd1na2vs0mg"},{"bike_id":"ae9dbb51-859f-49f8-8ced-145029a98162","system_id":"levelo_inurba_marseille","lat":43.30537,"lon":5.367345,"is_reserved":false,"is_disabled":false,"rental_uris":{"android":"levelo://app?vid=ae9dbb51-859f-49f8-8ced-145029a98162","ios":"levelo://app?vid=ae9dbb51-859f-49f8-8ced-145029a98162"},"vehicle_type_id":"4","last_reported":1713852599,"current_range_meters":23600,"station_id":"ce4bgrp2rcd13ifvqc9g","pricing_plan_id":"cebpf4jnsgd1na2vs0mg"},{"bike_id":"828f0807-fe1c-4e0a-b9fa-e5b7d079789e","system_id":"levelo_inurba_marseille","lat":43.305408,"lon":5.366999,"is_reserved":false,"is_disabled":false,"rental_uris":{"android":"levelo://app?vid=828f0807-fe1c-4e0a-b9fa-e5b7d079789e","ios":"levelo://app?vid=828f0807-fe1c-4e0a-b9fa-e5b7d079789e"},"vehicle_type_id":"4","last_reported":1713852599,"current_range_meters":4400,"station_id":"ce4bgrp2rcd13ifvqc9g","pricing_plan_id":"cebpf4jnsgd1na2vs0mg"},{"bike_id":"4530e95f-962b-4ce8-97eb-d17db795172b","system_id":"levelo_inurba_marseille","lat":43.30537,"lon":5.367345,"is_reserved":false,"is_disabled":false,"rental_uris":{"android":"levelo://app?vid=4530e95f-962b-4ce8-97eb-d17db795172b","ios":"levelo://app?vid=4530e95f-962b-4ce8-97eb-d17db795172b"},"vehicle_type_id":"4","last_reported":1713852599,"current_range_meters":26800,"station_id":"ce4bgrp2rcd13ifvqc9g","pricing_plan_id":"cebpf4jnsgd1na2vs0mg"},{"bike_id":"90418d28-4a18-47c6-a431-29250fb779a7","system_id":"levelo_inurba_marseille","lat":43.30537,"lon":5.367345,"is_reserved":false,"is_disabled":false,"rental_uris":{"android":"levelo://app?vid=90418d28-4a18-47c6-a431-29250fb779a7","ios":"levelo://app?vid=90418d28-4a18-47c6-a431-29250fb779a7"},"vehicle_type_id":"4","last_reported":1713852599,"current_range_meters":25600,"station_id":"ce4bgrp2rcd13ifvqc9g","pricing_plan_id":"cebpf4jnsgd1na2vs0mg"},{"bike_id":"8ccba4fa-2b75-47cf-85d2-bf42802d6c7f","system_id":"levelo_inurba_marseille","lat":43.305714,"lon":5.365633,"is_reserved":false,"is_disabled":false,"rental_uris":{"android":"levelo://app?vid=8ccba4fa-2b75-47cf-85d2-bf42802d6c7f","ios":"levelo://app?vid=8ccba4fa-2b75-47cf-85d2-bf42802d6c7f"},"vehicle_type_id":"4","last_reported":1713852599,"current_range_meters":10800,"station_id":"ce4bgs12rcd13ifvqcag","pricing_plan_id":"cebpf4jnsgd1na2vs0mg"},{"bike_id":"3de1d5d1-dfb7-457a-a582-3eebb9656aad","system_id":"levelo_inurba_marseille","lat":43.305706,"lon":5.365654,"is_reserved":false,"is_disabled":false,"rental_uris":{"android":"levelo://app?vid=3de1d5d1-dfb7-457a-a582-3eebb9656aad","ios":"levelo://app?vid=3de1d5d1-dfb7-457a-a582-3eebb9656aad"},"vehicle_type_id":"4","last_reported":1713852599,"current_range_meters":20000,"station_id":"ce4bgs12rcd13ifvqcag","pricing_plan_id":"cebpf4jnsgd1na2vs0mg"},{"bike_id":"92fd59ce-6cbd-411d-8697-cbd91186b1c8","system_id":"levelo_inurba_marseille","lat":43.305368,"lon":5.367343,"is_reserved":false,"is_disabled":false,"rental_uris":{"android":"levelo://app?vid=92fd59ce-6cbd-411d-8697-cbd91186b1c8","ios":"levelo://app?vid=92fd59ce-6cbd-411d-8697-cbd91186b1c8"},"vehicle_type_id":"4","last_reported":1713852599,"current_range_meters":21200,"station_id":"ce4bgrp2rcd13ifvqc9g","pricing_plan_id":"cebpf4jnsgd1na2vs0mg"},{"bike_id":"d18c7cef-3e2b-42fa-8b7a-764296325d29","system_id":"levelo_inurba_marseille","lat":43.305706,"lon":5.365654,"is_reserved":false,"is_disabled":false,"rental_uris":{"android":"levelo://app?vid=d18c7cef-3e2b-42fa-8b7a-764296325d29","ios":"levelo://app?vid=d18c7cef-3e2b-42fa-8b7a-764296325d29"},"vehicle_type_id":"4","last_reported":1713852599,"current_range_meters":28800,"station_id":"ce4bgs12rcd13ifvqcag","pricing_plan_id":"cebpf4jnsgd1na2vs0mg"},{"bike_id":"5ad82eb4-89c7-4bc3-834f-5e222b4153cf","system_id":"levelo_inurba_marseille","lat":43.305706,"lon":5.365654,"is_reserved":false,"is_disabled":false,"rental_uris":{"android":"levelo://app?vid=5ad82eb4-89c7-4bc3-834f-5e222b4153cf","ios":"levelo://app?vid=5ad82eb4-89c7-4bc3-834f-5e222b4153cf"},"vehicle_type_id":"4","last_reported":1713852599,"current_range_meters":20000,"station_id":"ce4bgs12rcd13ifvqcag","pricing_plan_id":"cebpf4jnsgd1na2vs0mg"},{"bike_id":"a990981c-21ab-4745-9462-5cc650238641","system_id":"levelo_inurba_marseille","lat":43.305706,"lon":5.365654,"is_reserved":false,"is_disabled":false,"rental_uris":{"android":"levelo://app?vid=a990981c-21ab-4745-9462-5cc650238641","ios":"levelo://app?vid=a990981c-21ab-4745-9462-5cc650238641"},"vehicle_type_id":"4","last_reported":1713852599,"current_range_meters":24000,"station_id":"ce4bgs12rcd13ifvqcag","pricing_plan_id":"cebpf4jnsgd1na2vs0mg"},{"bike_id":"26b12c9d-88a1-4a9c-90fd-bafa8957f4c7","system_id":"levelo_inurba_marseille","lat":43.305989,"lon":5.37225,"is_reserved":false,"is_disabled":false,"rental_uris":{"android":"levelo://app?vid=26b12c9d-88a1-4a9c-90fd-bafa8957f4c7","ios":"levelo://app?vid=26b12c9d-88a1-4a9c-90fd-bafa8957f4c7"},"vehicle_type_id":"4","last_reported":1713852599,"current_range_meters":6400,"station_id":"ce4bgqh2rcd13ifvqc4g","pricing_plan_id":"cebpf4jnsgd1na2vs0mg"},{"bike_id":"c663e9a4-f192-48f6-b7f5-3ea6811d7902","system_id":"levelo_inurba_marseille","lat":43.30595,"lon":5.37228,"is_reserved":false,"is_disabled":false,"rental_uris":{"android":"levelo://app?vid=c663e9a4-f192-48f6-b7f5-3ea6811d7902","ios":"levelo://app?vid=c663e9a4-f192-48f6-b7f5-3ea6811d7902"},"vehicle_type_id":"4","last_reported":1713852599,"current_range_meters":5600,"station_id":"ce4bgqh2rcd13ifvqc4g","pricing_plan_id":"cebpf4jnsgd1na2vs0mg"},{"bike_id":"396776d0-5752-4c34-a9b1-084519584274","system_id":"levelo_inurba_marseille","lat":43.305989,"lon":5.37225,"is_reserved":false,"is_disabled":false,"rental_uris":{"android":"levelo://app?vid=396776d0-5752-4c34-a9b1-084519584274","ios":"levelo://app?vid=396776d0-5752-4c34-a9b1-084519584274"},"vehicle_type_id":"4","last_reported":1713852599,"current_range_meters":3200,"station_id":"ce4bgqh2rcd13ifvqc4g","pricing_plan_id":"cebpf4jnsgd1na2vs0mg"},{"bike_id":"b001bd5d-0dcc-452a-b2ea-b787f61d3847","system_id":"levelo_inurba_marseille","lat":43.292749,"lon":5.368402,"is_reserved":false,"is_disabled":false,"rental_uris":{"android":"levelo://app?vid=b001bd5d-0dcc-452a-b2ea-b787f61d3847","ios":"levelo://app?vid=b001bd5d-0dcc-452a-b2ea-b787f61d3847"},"vehicle_type_id":"4","last_reported":1713852599,"current_range_meters":26400,"station_id":"ce4bhbp2rcd13ifvqesg","pricing_plan_id":"cebpf4jnsgd1na2vs0mg"},{"bike_id":"b0c32b44-feaf-435c-a091-c44b0cb45308","system_id":"levelo_inurba_marseille","lat":43.311125,"lon":5.377624,"is_reserved":false,"is_disabled":false,"rental_uris":{"android":"levelo://app?vid=b0c32b44-feaf-435c-a091-c44b0cb45308","ios":"levelo://app?vid=b0c32b44-feaf-435c-a091-c44b0cb45308"},"vehicle_type_id":"4","last_reported":1713852599,"current_range_meters":22000,"station_id":"ce4bgt92rcd13ifvqcg0","pricing_plan_id":"cebpf4jnsgd1na2vs0mg"},{"bike_id":"704f465e-073b-4f67-ae7e-676bb1da07e1","system_id":"levelo_inurba_marseille","lat":43.311125,"lon":5.377624,"is_reserved":false,"is_disabled":false,"rental_uris":{"android":"levelo://app?vid=704f465e-073b-4f67-ae7e-676bb1da07e1","ios":"levelo://app?vid=704f465e-073b-4f67-ae7e-676bb1da07e1"},"vehicle_type_id":"4","last_reported":1713852599,"current_range_meters":27200,"station_id":"ce4bgt92rcd13ifvqcg0","pricing_plan_id":"cebpf4jnsgd1na2vs0mg"},{"bike_id":"b974460a-3963-48d2-a0a0-1e01e825e481","system_id":"levelo_inurba_marseille","lat":43.311125,"lon":5.377624,"is_reserved":false,"is_disabled":false,"rental_uris":{"android":"levelo://app?vid=b974460a-3963-48d2-a0a0-1e01e825e481","ios":"levelo://app?vid=b974460a-3963-48d2-a0a0-1e01e825e481"},"vehicle_type_id":"4","last_reported":1713852599,"current_range_meters":24400,"station_id":"ce4bgt92rcd13ifvqcg0","pricing_plan_id":"cebpf4jnsgd1na2vs0mg"},{"bike_id":"946ca3a2-ee32-4913-a8d6-244aef63147c","system_id":"levelo_inurba_marseille","lat":43.317075,"lon":5.377367,"is_reserved":false,"is_disabled":false,"rental_uris":{"android":"levelo://app?vid=946ca3a2-ee32-4913-a8d6-244aef63147c","ios":"levelo://app?vid=946ca3a2-ee32-4913-a8d6-244aef63147c"},"vehicle_type_id":"4","last_reported":1713852599,"current_range_meters":27200,"station_id":"ce4bgth2rcd13ifvqch0","pricing_plan_id":"cebpf4jnsgd1na2vs0mg"},{"bike_id":"7bd9dcd7-cfa4-4720-b545-724872c01541","system_id":"levelo_inurba_marseille","lat":43.317155,"lon":5.377478,"is_reserved":false,"is_disabled":false,"rental_uris":{"android":"levelo://app?vid=7bd9dcd7-cfa4-4720-b545-724872c01541","ios":"levelo://app?vid=7bd9dcd7-cfa4-4720-b545-724872c01541"},"vehicle_type_id":"4","last_reported":1713852599,"current_range_meters":23600,"station_id":"ce4bgth2rcd13ifvqch0","pricing_plan_id":"cebpf4jnsgd1na2vs0mg"},{"bike_id":"39aaf6d0-7a08-48b6-864c-b572e27b7b16","system_id":"levelo_inurba_marseille","lat":43.30619,"lon":5.37555,"is_reserved":false,"is_disabled":false,"rental_uris":{"android":"levelo://app?vid=39aaf6d0-7a08-48b6-864c-b572e27b7b16","ios":"levelo://app?vid=39aaf6d0-7a08-48b6-864c-b572e27b7b16"},"vehicle_type_id":"4","last_reported":1713852599,"current_range_meters":8000,"station_id":"","pricing_plan_id":"cebpf4jnsgd1na2vs0mg"},{"bike_id":"0a43eaf1-ee84-49ef-8698-eb1429bb9512","system_id":"levelo_inurba_marseille","lat":43.303046,"lon":5.368981,"is_reserved":false,"is_disabled":false,"rental_uris":{"android":"levelo://app?vid=0a43eaf1-ee84-49ef-8698-eb1429bb9512","ios":"levelo://app?vid=0a43eaf1-ee84-49ef-8698-eb1429bb9512"},"vehicle_type_id":"4","last_reported":1713852599,"current_range_meters":10000,"station_id":"ce4bgqh2rcd13ifvqc5g","pricing_plan_id":"cebpf4jnsgd1na2vs0mg"},{"bike_id":"19f25d95-5e6f-4551-b0a3-5110d01f16de","system_id":"levelo_inurba_marseille","lat":43.303046,"lon":5.368981,"is_reserved":false,"is_disabled":false,"rental_uris":{"android":"levelo://app?vid=19f25d95-5e6f-4551-b0a3-5110d01f16de","ios":"levelo://app?vid=19f25d95-5e6f-4551-b0a3-5110d01f16de"},"vehicle_type_id":"4","last_reported":1713852599,"current_range_meters":26800,"station_id":"ce4bgqh2rcd13ifvqc5g","pricing_plan_id":"cebpf4jnsgd1na2vs0mg"},{"bike_id":"206a6d29-401f-46b3-b878-6d387e8710ad","system_id":"levelo_inurba_marseille","lat":43.30304,"lon":5.368987,"is_reserved":false,"is_disabled":false,"rental_uris":{"android":"levelo://app?vid=206a6d29-401f-46b3-b878-6d387e8710ad","ios":"levelo://app?vid=206a6d29-401f-46b3-b878-6d387e8710ad"},"vehicle_type_id":"4","last_reported":1713852599,"current_range_meters":22000,"station_id":"ce4bgqh2rcd13ifvqc5g","pricing_plan_id":"cebpf4jnsgd1na2vs0mg"},{"bike_id":"3fe57c5f-ad80-4997-b059-460e086c908f","system_id":"levelo_inurba_marseille","lat":43.315289,"lon":5.380349,"is_reserved":false,"is_disabled":false,"rental_uris":{"android":"levelo://app?vid=3fe57c5f-ad80-4997-b059-460e086c908f","ios":"levelo://app?vid=3fe57c5f-ad80-4997-b059-460e086c908f"},"vehicle_type_id":"4","last_reported":1713852599,"current_range_meters":31200,"station_id":"ce4bhsp2rcd13ifvqi50","pricing_plan_id":"cebpf4jnsgd1na2vs0mg"},{"bike_id":"86a4c3b9-2fa6-4ec1-8814-ca9ca261329d","system_id":"levelo_inurba_marseille","lat":43.315293,"lon":5.380349,"is_reserved":false,"is_disabled":false,"rental_uris":{"android":"levelo://app?vid=86a4c3b9-2fa6-4ec1-8814-ca9ca261329d","ios":"levelo://app?vid=86a4c3b9-2fa6-4ec1-8814-ca9ca261329d"},"vehicle_type_id":"4","last_reported":1713852599,"current_range_meters":30400,"station_id":"ce4bhsp2rcd13ifvqi50","pricing_plan_id":"cebpf4jnsgd1na2vs0mg"},{"bike_id":"1054f8ee-329d-4bbf-88f6-14421c7ddba1","system_id":"levelo_inurba_marseille","lat":43.301939,"lon":5.366286,"is_reserved":false,"is_disabled":false,"rental_uris":{"android":"levelo://app?vid=1054f8ee-329d-4bbf-88f6-14421c7ddba1","ios":"levelo://app?vid=1054f8ee-329d-4bbf-88f6-14421c7ddba1"},"vehicle_type_id":"4","last_reported":1713852599,"current_range_meters":22800,"station_id":"ce4bgrh2rcd13ifvqc8g","pricing_plan_id":"cebpf4jnsgd1na2vs0mg"},{"bike_id":"36707860-c491-43ab-af8d-6c33cff7dbad","system_id":"levelo_inurba_marseille","lat":43.301939,"lon":5.366286,"is_reserved":false,"is_disabled":false,"rental_uris":{"android":"levelo://app?vid=36707860-c491-43ab-af8d-6c33cff7dbad","ios":"levelo://app?vid=36707860-c491-43ab-af8d-6c33cff7dbad"},"vehicle_type_id":"4","last_reported":1713852599,"current_range_meters":20000,"station_id":"ce4bgrh2rcd13ifvqc8g","pricing_plan_id":"cebpf4jnsgd1na2vs0mg"},{"bike_id":"e688e599-ef7d-4abc-ae0a-f4895fe5e112","system_id":"levelo_inurba_marseille","lat":43.324771,"lon":5.36557,"is_reserved":false,"is_disabled":false,"rental_uris":{"android":"levelo://app?vid=e688e599-ef7d-4abc-ae0a-f4895fe5e112","ios":"levelo://app?vid=e688e599-ef7d-4abc-ae0a-f4895fe5e112"},"vehicle_type_id":"4","last_reported":1713852599,"current_range_meters":22800,"station_id":"ce4bhs12rcd13ifvqhvg","pricing_plan_id":"cebpf4jnsgd1na2vs0mg"},{"bike_id":"25d3b51a-ac6d-477a-bf4f-16b642a53050","system_id":"levelo_inurba_marseille","lat":43.306403,"lon":5.3802,"is_reserved":false,"is_disabled":false,"rental_uris":{"android":"levelo://app?vid=25d3b51a-ac6d-477a-bf4f-16b642a53050","ios":"levelo://app?vid=25d3b51a-ac6d-477a-bf4f-16b642a53050"},"vehicle_type_id":"4","last_reported":1713852599,"current_range_meters":11600,"station_id":"","pricing_plan_id":"cebpf4jnsgd1na2vs0mg"},{"bike_id":"3c208ef6-ab16-44fa-b4ab-cdf0cc525e98","system_id":"levelo_inurba_marseille","lat":43.308012,"lon":5.381511,"is_reserved":false,"is_disabled":false,"rental_uris":{"android":"levelo://app?vid=3c208ef6-ab16-44fa-b4ab-cdf0cc525e98","ios":"levelo://app?vid=3c208ef6-ab16-44fa-b4ab-cdf0cc525e98"},"vehicle_type_id":"4","last_reported":1713852599,"current_range_meters":13200,"station_id":"ce4bgt12rcd13ifvqce0","pricing_plan_id":"cebpf4jnsgd1na2vs0mg"},{"bike_id":"9e6bc310-05ce-4550-83d7-66ed8fa972b4","system_id":"levelo_inurba_marseille","lat":43.308012,"lon":5.381511,"is_reserved":false,"is_disabled":false,"rental_uris":{"android":"levelo://app?vid=9e6bc310-05ce-4550-83d7-66ed8fa972b4","ios":"levelo://app?vid=9e6bc310-05ce-4550-83d7-66ed8fa972b4"},"vehicle_type_id":"4","last_reported":1713852599,"current_range_meters":30800,"station_id":"ce4bgt12rcd13ifvqce0","pricing_plan_id":"cebpf4jnsgd1na2vs0mg"},{"bike_id":"5854da98-282e-46ec-82b6-2d88c16ded3b","system_id":"levelo_inurba_marseille","lat":43.308012,"lon":5.381511,"is_reserved":false,"is_disabled":false,"rental_uris":{"android":"levelo://app?vid=5854da98-282e-46ec-82b6-2d88c16ded3b","ios":"levelo://app?vid=5854da98-282e-46ec-82b6-2d88c16ded3b"},"vehicle_type_id":"4","last_reported":1713852599,"current_range_meters":23200,"station_id":"ce4bgt12rcd13ifvqce0","pricing_plan_id":"cebpf4jnsgd1na2vs0mg"},{"bike_id":"4e0da47c-c93c-4bbf-a385-b539b95c4f0c","system_id":"levelo_inurba_marseille","lat":43.308012,"lon":5.381511,"is_reserved":false,"is_disabled":false,"rental_uris":{"android":"levelo://app?vid=4e0da47c-c93c-4bbf-a385-b539b95c4f0c","ios":"levelo://app?vid=4e0da47c-c93c-4bbf-a385-b539b95c4f0c"},"vehicle_type_id":"4","last_reported":1713852599,"current_range_meters":22400,"station_id":"ce4bgt12rcd13ifvqce0","pricing_plan_id":"cebpf4jnsgd1na2vs0mg"},{"bike_id":"0195dad8-c557-4783-a353-01d369884b33","system_id":"levelo_inurba_marseille","lat":43.30487,"lon":5.37895,"is_reserved":false,"is_disabled":false,"rental_uris":{"android":"levelo://app?vid=0195dad8-c557-4783-a353-01d369884b33","ios":"levelo://app?vid=0195dad8-c557-4783-a353-01d369884b33"},"vehicle_type_id":"4","last_reported":1713852599,"current_range_meters":5200,"station_id":"ce4bgup2rcd13ifvqcn0","pricing_plan_id":"cebpf4jnsgd1na2vs0mg"},{"bike_id":"ea246842-e0dc-4567-aa95-664eeabcf48e","system_id":"levelo_inurba_marseille","lat":43.30474,"lon":5.37901,"is_reserved":false,"is_disabled":false,"rental_uris":{"android":"levelo://app?vid=ea246842-e0dc-4567-aa95-664eeabcf48e","ios":"levelo://app?vid=ea246842-e0dc-4567-aa95-664eeabcf48e"},"vehicle_type_id":"4","last_reported":1713852599,"current_range_meters":0,"station_id":"ce4bgup2rcd13ifvqcn0","pricing_plan_id":"cebpf4jnsgd1na2vs0mg"},{"bike_id":"7d6c472f-0085-4396-a9c3-3298c846a3be","system_id":"levelo_inurba_marseille","lat":43.304606,"lon":5.379026,"is_reserved":false,"is_disabled":false,"rental_uris":{"android":"levelo://app?vid=7d6c472f-0085-4396-a9c3-3298c846a3be","ios":"levelo://app?vid=7d6c472f-0085-4396-a9c3-3298c846a3be"},"vehicle_type_id":"4","last_reported":1713852599,"current_range_meters":31200,"station_id":"ce4bgup2rcd13ifvqcn0","pricing_plan_id":"cebpf4jnsgd1na2vs0mg"},{"bike_id":"50578c5e-80ed-4118-890d-e4855770135d","system_id":"levelo_inurba_marseille","lat":43.304606,"lon":5.379026,"is_reserved":false,"is_disabled":false,"rental_uris":{"android":"levelo://app?vid=50578c5e-80ed-4118-890d-e4855770135d","ios":"levelo://app?vid=50578c5e-80ed-4118-890d-e4855770135d"},"vehicle_type_id":"4","last_reported":1713852599,"current_range_meters":20000,"station_id":"ce4bgup2rcd13ifvqcn0","pricing_plan_id":"cebpf4jnsgd1na2vs0mg"},{"bike_id":"902ff35f-ae95-47ae-b594-ff1dbc66ef66","system_id":"levelo_inurba_marseille","lat":43.304606,"lon":5.379026,"is_reserved":false,"is_disabled":false,"rental_uris":{"android":"levelo://app?vid=902ff35f-ae95-47ae-b594-ff1dbc66ef66","ios":"levelo://app?vid=902ff35f-ae95-47ae-b594-ff1dbc66ef66"},"vehicle_type_id":"4","last_reported":1713852599,"current_range_meters":11600,"station_id":"ce4bgup2rcd13ifvqcn0","pricing_plan_id":"cebpf4jnsgd1na2vs0mg"},{"bike_id":"588cc68b-5b45-4d7a-8487-5fa9d91577ef","system_id":"levelo_inurba_marseille","lat":43.304606,"lon":5.379026,"is_reserved":false,"is_disabled":false,"rental_uris":{"android":"levelo://app?vid=588cc68b-5b45-4d7a-8487-5fa9d91577ef","ios":"levelo://app?vid=588cc68b-5b45-4d7a-8487-5fa9d91577ef"},"vehicle_type_id":"4","last_reported":1713852599,"current_range_meters":14000,"station_id":"ce4bgup2rcd13ifvqcn0","pricing_plan_id":"cebpf4jnsgd1na2vs0mg"},{"bike_id":"d8fa7c92-852e-4292-bfb0-cef2fd9409f0","system_id":"levelo_inurba_marseille","lat":43.30474,"lon":5.37908,"is_reserved":false,"is_disabled":false,"rental_uris":{"android":"levelo://app?vid=d8fa7c92-852e-4292-bfb0-cef2fd9409f0","ios":"levelo://app?vid=d8fa7c92-852e-4292-bfb0-cef2fd9409f0"},"vehicle_type_id":"4","last_reported":1713852599,"current_range_meters":10400,"station_id":"ce4bgup2rcd13ifvqcn0","pricing_plan_id":"cebpf4jnsgd1na2vs0mg"},{"bike_id":"32914e5a-ffd8-4d36-93a3-b98eefa9858e","system_id":"levelo_inurba_marseille","lat":43.304606,"lon":5.379026,"is_reserved":false,"is_disabled":false,"rental_uris":{"android":"levelo://app?vid=32914e5a-ffd8-4d36-93a3-b98eefa9858e","ios":"levelo://app?vid=32914e5a-ffd8-4d36-93a3-b98eefa9858e"},"vehicle_type_id":"4","last_reported":1713852599,"current_range_meters":22800,"station_id":"ce4bgup2rcd13ifvqcn0","pricing_plan_id":"cebpf4jnsgd1na2vs0mg"},{"bike_id":"60e2001e-5808-4837-ad47-d9e9f29e8eee","system_id":"levelo_inurba_marseille","lat":43.3047,"lon":5.37904,"is_reserved":false,"is_disabled":false,"rental_uris":{"android":"levelo://app?vid=60e2001e-5808-4837-ad47-d9e9f29e8eee","ios":"levelo://app?vid=60e2001e-5808-4837-ad47-d9e9f29e8eee"},"vehicle_type_id":"4","last_reported":1713852599,"current_range_meters":4400,"station_id":"ce4bgup2rcd13ifvqcn0","pricing_plan_id":"cebpf4jnsgd1na2vs0mg"},{"bike_id":"b4901f26-836e-4505-a033-8a2728333f13","system_id":"levelo_inurba_marseille","lat":43.304606,"lon":5.379026,"is_reserved":false,"is_disabled":false,"rental_uris":{"android":"levelo://app?vid=b4901f26-836e-4505-a033-8a2728333f13","ios":"levelo://app?vid=b4901f26-836e-4505-a033-8a2728333f13"},"vehicle_type_id":"4","last_reported":1713852599,"current_range_meters":30400,"station_id":"ce4bgup2rcd13ifvqcn0","pricing_plan_id":"cebpf4jnsgd1na2vs0mg"},{"bike_id":"13fa0f7e-84d5-43bc-8201-b51a22c6af83","system_id":"levelo_inurba_marseille","lat":43.30473,"lon":5.3791,"is_reserved":false,"is_disabled":false,"rental_uris":{"android":"levelo://app?vid=13fa0f7e-84d5-43bc-8201-b51a22c6af83","ios":"levelo://app?vid=13fa0f7e-84d5-43bc-8201-b51a22c6af83"},"vehicle_type_id":"4","last_reported":1713852599,"current_range_meters":24800,"station_id":"ce4bgup2rcd13ifvqcn0","pricing_plan_id":"cebpf4jnsgd1na2vs0mg"},{"bike_id":"796077b6-25a4-433f-ac2b-e988c9b01e71","system_id":"levelo_inurba_marseille","lat":43.304606,"lon":5.379026,"is_reserved":false,"is_disabled":false,"rental_uris":{"android":"levelo://app?vid=796077b6-25a4-433f-ac2b-e988c9b01e71","ios":"levelo://app?vid=796077b6-25a4-433f-ac2b-e988c9b01e71"},"vehicle_type_id":"4","last_reported":1713852599,"current_range_meters":27200,"station_id":"ce4bgup2rcd13ifvqcn0","pricing_plan_id":"cebpf4jnsgd1na2vs0mg"},{"bike_id":"fc349a47-3825-41e5-b928-50f49e970d79","system_id":"levelo_inurba_marseille","lat":43.304606,"lon":5.379026,"is_reserved":false,"is_disabled":false,"rental_uris":{"android":"levelo://app?vid=fc349a47-3825-41e5-b928-50f49e970d79","ios":"levelo://app?vid=fc349a47-3825-41e5-b928-50f49e970d79"},"vehicle_type_id":"4","last_reported":1713852599,"current_range_meters":22000,"station_id":"ce4bgup2rcd13ifvqcn0","pricing_plan_id":"cebpf4jnsgd1na2vs0mg"},{"bike_id":"e6af3e04-a5ed-4b66-9ab4-a25a1c836f46","system_id":"levelo_inurba_marseille","lat":43.304606,"lon":5.379026,"is_reserved":false,"is_disabled":false,"rental_uris":{"android":"levelo://app?vid=e6af3e04-a5ed-4b66-9ab4-a25a1c836f46","ios":"levelo://app?vid=e6af3e04-a5ed-4b66-9ab4-a25a1c836f46"},"vehicle_type_id":"4","last_reported":1713852599,"current_range_meters":16400,"station_id":"ce4bgup2rcd13ifvqcn0","pricing_plan_id":"cebpf4jnsgd1na2vs0mg"},{"bike_id":"744cd2f1-8c1e-40cd-9c2b-2bf8af04d241","system_id":"levelo_inurba_marseille","lat":43.304606,"lon":5.379026,"is_reserved":false,"is_disabled":false,"rental_uris":{"android":"levelo://app?vid=744cd2f1-8c1e-40cd-9c2b-2bf8af04d241","ios":"levelo://app?vid=744cd2f1-8c1e-40cd-9c2b-2bf8af04d241"},"vehicle_type_id":"4","last_reported":1713852599,"current_range_meters":17200,"station_id":"ce4bgup2rcd13ifvqcn0","pricing_plan_id":"cebpf4jnsgd1na2vs0mg"},{"bike_id":"aa257ddc-b53d-42e6-8dab-4b50b3932522","system_id":"levelo_inurba_marseille","lat":43.304606,"lon":5.379026,"is_reserved":false,"is_disabled":false,"rental_uris":{"android":"levelo://app?vid=aa257ddc-b53d-42e6-8dab-4b50b3932522","ios":"levelo://app?vid=aa257ddc-b53d-42e6-8dab-4b50b3932522"},"vehicle_type_id":"4","last_reported":1713852599,"current_range_meters":13600,"station_id":"ce4bgup2rcd13ifvqcn0","pricing_plan_id":"cebpf4jnsgd1na2vs0mg"},{"bike_id":"36c7a188-b4fb-4faa-8304-d22fe18a1d6f","system_id":"levelo_inurba_marseille","lat":43.30462,"lon":5.37902,"is_reserved":false,"is_disabled":false,"rental_uris":{"android":"levelo://app?vid=36c7a188-b4fb-4faa-8304-d22fe18a1d6f","ios":"levelo://app?vid=36c7a188-b4fb-4faa-8304-d22fe18a1d6f"},"vehicle_type_id":"4","last_reported":1713852599,"current_range_meters":27600,"station_id":"ce4bgup2rcd13ifvqcn0","pricing_plan_id":"cebpf4jnsgd1na2vs0mg"},{"bike_id":"32d01e6f-456d-4888-bac8-9cd086489b63","system_id":"levelo_inurba_marseille","lat":43.304606,"lon":5.379026,"is_reserved":false,"is_disabled":false,"rental_uris":{"android":"levelo://app?vid=32d01e6f-456d-4888-bac8-9cd086489b63","ios":"levelo://app?vid=32d01e6f-456d-4888-bac8-9cd086489b63"},"vehicle_type_id":"4","last_reported":1713852599,"current_range_meters":4800,"station_id":"ce4bgup2rcd13ifvqcn0","pricing_plan_id":"cebpf4jnsgd1na2vs0mg"},{"bike_id":"08432e4f-8323-4682-b1e5-49215352d9ef","system_id":"levelo_inurba_marseille","lat":43.304606,"lon":5.379026,"is_reserved":false,"is_disabled":false,"rental_uris":{"android":"levelo://app?vid=08432e4f-8323-4682-b1e5-49215352d9ef","ios":"levelo://app?vid=08432e4f-8323-4682-b1e5-49215352d9ef"},"vehicle_type_id":"4","last_reported":1713852599,"current_range_meters":28400,"station_id":"ce4bgup2rcd13ifvqcn0","pricing_plan_id":"cebpf4jnsgd1na2vs0mg"},{"bike_id":"65dc7234-583c-4aee-b9aa-016e5bbd7235","system_id":"levelo_inurba_marseille","lat":43.304606,"lon":5.379026,"is_reserved":false,"is_disabled":false,"rental_uris":{"android":"levelo://app?vid=65dc7234-583c-4aee-b9aa-016e5bbd7235","ios":"levelo://app?vid=65dc7234-583c-4aee-b9aa-016e5bbd7235"},"vehicle_type_id":"4","last_reported":1713852599,"current_range_meters":12400,"station_id":"ce4bgup2rcd13ifvqcn0","pricing_plan_id":"cebpf4jnsgd1na2vs0mg"},{"bike_id":"c0ae5cbb-e9bc-48dc-be81-540d9c691bba","system_id":"levelo_inurba_marseille","lat":43.304606,"lon":5.379026,"is_reserved":false,"is_disabled":false,"rental_uris":{"android":"levelo://app?vid=c0ae5cbb-e9bc-48dc-be81-540d9c691bba","ios":"levelo://app?vid=c0ae5cbb-e9bc-48dc-be81-540d9c691bba"},"vehicle_type_id":"4","last_reported":1713852599,"current_range_meters":24800,"station_id":"ce4bgup2rcd13ifvqcn0","pricing_plan_id":"cebpf4jnsgd1na2vs0mg"},{"bike_id":"9a9998e3-38b2-44c1-a3b4-10993df809a8","system_id":"levelo_inurba_marseille","lat":43.30458,"lon":5.379,"is_reserved":false,"is_disabled":false,"rental_uris":{"android":"levelo://app?vid=9a9998e3-38b2-44c1-a3b4-10993df809a8","ios":"levelo://app?vid=9a9998e3-38b2-44c1-a3b4-10993df809a8"},"vehicle_type_id":"4","last_reported":1713852599,"current_range_meters":28400,"station_id":"ce4bgup2rcd13ifvqcn0","pricing_plan_id":"cebpf4jnsgd1na2vs0mg"},{"bike_id":"5e4864a1-dbef-44d2-8c34-32f7f71b02f9","system_id":"levelo_inurba_marseille","lat":43.304606,"lon":5.379026,"is_reserved":false,"is_disabled":false,"rental_uris":{"android":"levelo://app?vid=5e4864a1-dbef-44d2-8c34-32f7f71b02f9","ios":"levelo://app?vid=5e4864a1-dbef-44d2-8c34-32f7f71b02f9"},"vehicle_type_id":"4","last_reported":1713852599,"current_range_meters":9200,"station_id":"ce4bgup2rcd13ifvqcn0","pricing_plan_id":"cebpf4jnsgd1na2vs0mg"},{"bike_id":"47d5aeca-64bf-4d86-9e46-437e4472baf5","system_id":"levelo_inurba_marseille","lat":43.30459,"lon":5.37902,"is_reserved":false,"is_disabled":false,"rental_uris":{"android":"levelo://app?vid=47d5aeca-64bf-4d86-9e46-437e4472baf5","ios":"levelo://app?vid=47d5aeca-64bf-4d86-9e46-437e4472baf5"},"vehicle_type_id":"4","last_reported":1713852599,"current_range_meters":18800,"station_id":"ce4bgup2rcd13ifvqcn0","pricing_plan_id":"cebpf4jnsgd1na2vs0mg"},{"bike_id":"cd63eedf-0a4e-4fff-b335-e0408c7916c8","system_id":"levelo_inurba_marseille","lat":43.304606,"lon":5.379026,"is_reserved":false,"is_disabled":false,"rental_uris":{"android":"levelo://app?vid=cd63eedf-0a4e-4fff-b335-e0408c7916c8","ios":"levelo://app?vid=cd63eedf-0a4e-4fff-b335-e0408c7916c8"},"vehicle_type_id":"4","last_reported":1713852599,"current_range_meters":2400,"station_id":"ce4bgup2rcd13ifvqcn0","pricing_plan_id":"cebpf4jnsgd1na2vs0mg"},{"bike_id":"e740acc4-fe7d-4720-8898-69f7ffbdaf25","system_id":"levelo_inurba_marseille","lat":43.304606,"lon":5.379026,"is_reserved":false,"is_disabled":false,"rental_uris":{"android":"levelo://app?vid=e740acc4-fe7d-4720-8898-69f7ffbdaf25","ios":"levelo://app?vid=e740acc4-fe7d-4720-8898-69f7ffbdaf25"},"vehicle_type_id":"4","last_reported":1713852599,"current_range_meters":20400,"station_id":"ce4bgup2rcd13ifvqcn0","pricing_plan_id":"cebpf4jnsgd1na2vs0mg"},{"bike_id":"6ff82b92-19e2-4d86-9dc7-e31b8ca56345","system_id":"levelo_inurba_marseille","lat":43.304606,"lon":5.379026,"is_reserved":false,"is_disabled":false,"rental_uris":{"android":"levelo://app?vid=6ff82b92-19e2-4d86-9dc7-e31b8ca56345","ios":"levelo://app?vid=6ff82b92-19e2-4d86-9dc7-e31b8ca56345"},"vehicle_type_id":"4","last_reported":1713852599,"current_range_meters":6400,"station_id":"ce4bgup2rcd13ifvqcn0","pricing_plan_id":"cebpf4jnsgd1na2vs0mg"},{"bike_id":"3bd821db-bd49-4827-96d2-ece888e955bd","system_id":"levelo_inurba_marseille","lat":43.304606,"lon":5.379026,"is_reserved":false,"is_disabled":false,"rental_uris":{"android":"levelo://app?vid=3bd821db-bd49-4827-96d2-ece888e955bd","ios":"levelo://app?vid=3bd821db-bd49-4827-96d2-ece888e955bd"},"vehicle_type_id":"4","last_reported":1713852599,"current_range_meters":27200,"station_id":"ce4bgup2rcd13ifvqcn0","pricing_plan_id":"cebpf4jnsgd1na2vs0mg"},{"bike_id":"a1d2e0fd-70f9-4228-a730-f0cb91bf489f","system_id":"levelo_inurba_marseille","lat":43.30458,"lon":5.37902,"is_reserved":false,"is_disabled":false,"rental_uris":{"android":"levelo://app?vid=a1d2e0fd-70f9-4228-a730-f0cb91bf489f","ios":"levelo://app?vid=a1d2e0fd-70f9-4228-a730-f0cb91bf489f"},"vehicle_type_id":"4","last_reported":1713852599,"current_range_meters":8000,"station_id":"ce4bgup2rcd13ifvqcn0","pricing_plan_id":"cebpf4jnsgd1na2vs0mg"},{"bike_id":"a8c21b7c-b0cf-49d2-8679-fdb0f411a095","system_id":"levelo_inurba_marseille","lat":43.304606,"lon":5.379026,"is_reserved":false,"is_disabled":false,"rental_uris":{"android":"levelo://app?vid=a8c21b7c-b0cf-49d2-8679-fdb0f411a095","ios":"levelo://app?vid=a8c21b7c-b0cf-49d2-8679-fdb0f411a095"},"vehicle_type_id":"4","last_reported":1713852599,"current_range_meters":15600,"station_id":"ce4bgup2rcd13ifvqcn0","pricing_plan_id":"cebpf4jnsgd1na2vs0mg"},{"bike_id":"6a721eb1-9737-457e-b32d-59f93253930c","system_id":"levelo_inurba_marseille","lat":43.304606,"lon":5.379026,"is_reserved":false,"is_disabled":false,"rental_uris":{"android":"levelo://app?vid=6a721eb1-9737-457e-b32d-59f93253930c","ios":"levelo://app?vid=6a721eb1-9737-457e-b32d-59f93253930c"},"vehicle_type_id":"4","last_reported":1713852599,"current_range_meters":30000,"station_id":"ce4bgup2rcd13ifvqcn0","pricing_plan_id":"cebpf4jnsgd1na2vs0mg"},{"bike_id":"3e5f4c49-a4e8-46ee-85c0-f53f20d0b0de","system_id":"levelo_inurba_marseille","lat":43.304606,"lon":5.379026,"is_reserved":false,"is_disabled":false,"rental_uris":{"android":"levelo://app?vid=3e5f4c49-a4e8-46ee-85c0-f53f20d0b0de","ios":"levelo://app?vid=3e5f4c49-a4e8-46ee-85c0-f53f20d0b0de"},"vehicle_type_id":"4","last_reported":1713852599,"current_range_meters":25200,"station_id":"ce4bgup2rcd13ifvqcn0","pricing_plan_id":"cebpf4jnsgd1na2vs0mg"},{"bike_id":"d852c37b-39d1-4488-86a8-ab1ead36320f","system_id":"levelo_inurba_marseille","lat":43.304606,"lon":5.379026,"is_reserved":false,"is_disabled":false,"rental_uris":{"android":"levelo://app?vid=d852c37b-39d1-4488-86a8-ab1ead36320f","ios":"levelo://app?vid=d852c37b-39d1-4488-86a8-ab1ead36320f"},"vehicle_type_id":"4","last_reported":1713852599,"current_range_meters":13600,"station_id":"ce4bgup2rcd13ifvqcn0","pricing_plan_id":"cebpf4jnsgd1na2vs0mg"},{"bike_id":"239c391a-5ddc-4131-9b17-2a75b694cc3b","system_id":"levelo_inurba_marseille","lat":43.30464,"lon":5.37911,"is_reserved":false,"is_disabled":false,"rental_uris":{"android":"levelo://app?vid=239c391a-5ddc-4131-9b17-2a75b694cc3b","ios":"levelo://app?vid=239c391a-5ddc-4131-9b17-2a75b694cc3b"},"vehicle_type_id":"4","last_reported":1713852599,"current_range_meters":12800,"station_id":"","pricing_plan_id":"cebpf4jnsgd1na2vs0mg"},{"bike_id":"1ec3543d-68b5-45b8-87dc-996ea75c7404","system_id":"levelo_inurba_marseille","lat":43.30467,"lon":5.37915,"is_reserved":false,"is_disabled":false,"rental_uris":{"android":"levelo://app?vid=1ec3543d-68b5-45b8-87dc-996ea75c7404","ios":"levelo://app?vid=1ec3543d-68b5-45b8-87dc-996ea75c7404"},"vehicle_type_id":"4","last_reported":1713852599,"current_range_meters":14000,"station_id":"ce4bgup2rcd13ifvqcn0","pricing_plan_id":"cebpf4jnsgd1na2vs0mg"},{"bike_id":"a9bd5fb5-9468-408d-97ef-86bfa5f1393f","system_id":"levelo_inurba_marseille","lat":43.304606,"lon":5.379026,"is_reserved":false,"is_disabled":false,"rental_uris":{"android":"levelo://app?vid=a9bd5fb5-9468-408d-97ef-86bfa5f1393f","ios":"levelo://app?vid=a9bd5fb5-9468-408d-97ef-86bfa5f1393f"},"vehicle_type_id":"4","last_reported":1713852599,"current_range_meters":28000,"station_id":"ce4bgup2rcd13ifvqcn0","pricing_plan_id":"cebpf4jnsgd1na2vs0mg"},{"bike_id":"82917002-2eb2-4400-a56e-01b0f8df6e13","system_id":"levelo_inurba_marseille","lat":43.304606,"lon":5.379026,"is_reserved":false,"is_disabled":false,"rental_uris":{"android":"levelo://app?vid=82917002-2eb2-4400-a56e-01b0f8df6e13","ios":"levelo://app?vid=82917002-2eb2-4400-a56e-01b0f8df6e13"},"vehicle_type_id":"4","last_reported":1713852599,"current_range_meters":13600,"station_id":"ce4bgup2rcd13ifvqcn0","pricing_plan_id":"cebpf4jnsgd1na2vs0mg"},{"bike_id":"8de91465-9f88-44ba-b96d-04194660a578","system_id":"levelo_inurba_marseille","lat":43.304606,"lon":5.379026,"is_reserved":false,"is_disabled":false,"rental_uris":{"android":"levelo://app?vid=8de91465-9f88-44ba-b96d-04194660a578","ios":"levelo://app?vid=8de91465-9f88-44ba-b96d-04194660a578"},"vehicle_type_id":"4","last_reported":1713852599,"current_range_meters":28400,"station_id":"ce4bgup2rcd13ifvqcn0","pricing_plan_id":"cebpf4jnsgd1na2vs0mg"},{"bike_id":"3b73bca7-dd4c-42e6-addd-0f12852cc7d2","system_id":"levelo_inurba_marseille","lat":43.304606,"lon":5.379026,"is_reserved":false,"is_disabled":false,"rental_uris":{"android":"levelo://app?vid=3b73bca7-dd4c-42e6-addd-0f12852cc7d2","ios":"levelo://app?vid=3b73bca7-dd4c-42e6-addd-0f12852cc7d2"},"vehicle_type_id":"4","last_reported":1713852599,"current_range_meters":18400,"station_id":"ce4bgup2rcd13ifvqcn0","pricing_plan_id":"cebpf4jnsgd1na2vs0mg"},{"bike_id":"8da394b3-d4e0-419a-a363-4630463fd546","system_id":"levelo_inurba_marseille","lat":43.304606,"lon":5.379026,"is_reserved":false,"is_disabled":false,"rental_uris":{"android":"levelo://app?vid=8da394b3-d4e0-419a-a363-4630463fd546","ios":"levelo://app?vid=8da394b3-d4e0-419a-a363-4630463fd546"},"vehicle_type_id":"4","last_reported":1713852599,"current_range_meters":8800,"station_id":"ce4bgup2rcd13ifvqcn0","pricing_plan_id":"cebpf4jnsgd1na2vs0mg"},{"bike_id":"b1a8e6e4-6144-445b-b8d0-4fc43d27d523","system_id":"levelo_inurba_marseille","lat":43.304606,"lon":5.379026,"is_reserved":false,"is_disabled":false,"rental_uris":{"android":"levelo://app?vid=b1a8e6e4-6144-445b-b8d0-4fc43d27d523","ios":"levelo://app?vid=b1a8e6e4-6144-445b-b8d0-4fc43d27d523"},"vehicle_type_id":"4","last_reported":1713852599,"current_range_meters":24400,"station_id":"ce4bgup2rcd13ifvqcn0","pricing_plan_id":"cebpf4jnsgd1na2vs0mg"},{"bike_id":"8f69a0f4-bdee-4763-bec1-e7194f6ac595","system_id":"levelo_inurba_marseille","lat":43.304606,"lon":5.379026,"is_reserved":false,"is_disabled":false,"rental_uris":{"android":"levelo://app?vid=8f69a0f4-bdee-4763-bec1-e7194f6ac595","ios":"levelo://app?vid=8f69a0f4-bdee-4763-bec1-e7194f6ac595"},"vehicle_type_id":"4","last_reported":1713852599,"current_range_meters":21200,"station_id":"ce4bgup2rcd13ifvqcn0","pricing_plan_id":"cebpf4jnsgd1na2vs0mg"},{"bike_id":"6b5fce75-5d60-43be-80c4-ceff2a264b74","system_id":"levelo_inurba_marseille","lat":43.304606,"lon":5.379026,"is_reserved":false,"is_disabled":false,"rental_uris":{"android":"levelo://app?vid=6b5fce75-5d60-43be-80c4-ceff2a264b74","ios":"levelo://app?vid=6b5fce75-5d60-43be-80c4-ceff2a264b74"},"vehicle_type_id":"4","last_reported":1713852599,"current_range_meters":22400,"station_id":"ce4bgup2rcd13ifvqcn0","pricing_plan_id":"cebpf4jnsgd1na2vs0mg"},{"bike_id":"1321a8b3-ae81-4382-b1ff-a8ced603f998","system_id":"levelo_inurba_marseille","lat":43.304606,"lon":5.379026,"is_reserved":false,"is_disabled":false,"rental_uris":{"android":"levelo://app?vid=1321a8b3-ae81-4382-b1ff-a8ced603f998","ios":"levelo://app?vid=1321a8b3-ae81-4382-b1ff-a8ced603f998"},"vehicle_type_id":"4","last_reported":1713852599,"current_range_meters":22400,"station_id":"ce4bgup2rcd13ifvqcn0","pricing_plan_id":"cebpf4jnsgd1na2vs0mg"},{"bike_id":"93cf05cf-247c-44fd-8239-5459e93ea3ed","system_id":"levelo_inurba_marseille","lat":43.324771,"lon":5.36557,"is_reserved":false,"is_disabled":false,"rental_uris":{"android":"levelo://app?vid=93cf05cf-247c-44fd-8239-5459e93ea3ed","ios":"levelo://app?vid=93cf05cf-247c-44fd-8239-5459e93ea3ed"},"vehicle_type_id":"4","last_reported":1713852599,"current_range_meters":14800,"station_id":"ce4bhs12rcd13ifvqhvg","pricing_plan_id":"cebpf4jnsgd1na2vs0mg"},{"bike_id":"4de203a6-e210-4aa0-bcb0-972d5a213134","system_id":"levelo_inurba_marseille","lat":43.324771,"lon":5.36557,"is_reserved":false,"is_disabled":false,"rental_uris":{"android":"levelo://app?vid=4de203a6-e210-4aa0-bcb0-972d5a213134","ios":"levelo://app?vid=4de203a6-e210-4aa0-bcb0-972d5a213134"},"vehicle_type_id":"4","last_reported":1713852599,"current_range_meters":19600,"station_id":"ce4bhs12rcd13ifvqhvg","pricing_plan_id":"cebpf4jnsgd1na2vs0mg"},{"bike_id":"bef39e5f-69ef-4fe8-9684-4cf76d6fb47e","system_id":"levelo_inurba_marseille","lat":43.324771,"lon":5.36557,"is_reserved":false,"is_disabled":false,"rental_uris":{"android":"levelo://app?vid=bef39e5f-69ef-4fe8-9684-4cf76d6fb47e","ios":"levelo://app?vid=bef39e5f-69ef-4fe8-9684-4cf76d6fb47e"},"vehicle_type_id":"4","last_reported":1713852599,"current_range_meters":7200,"station_id":"ce4bhs12rcd13ifvqhvg","pricing_plan_id":"cebpf4jnsgd1na2vs0mg"},{"bike_id":"079bc0b2-ee8e-424a-bafa-e6c72c196ecd","system_id":"levelo_inurba_marseille","lat":43.302784,"lon":5.377158,"is_reserved":false,"is_disabled":false,"rental_uris":{"android":"levelo://app?vid=079bc0b2-ee8e-424a-bafa-e6c72c196ecd","ios":"levelo://app?vid=079bc0b2-ee8e-424a-bafa-e6c72c196ecd"},"vehicle_type_id":"4","last_reported":1713852599,"current_range_meters":17200,"station_id":"ce4bguh2rcd13ifvqcj0","pricing_plan_id":"cebpf4jnsgd1na2vs0mg"},{"bike_id":"8aa90576-5fcd-4176-bc45-c0ad5460d54d","system_id":"levelo_inurba_marseille","lat":43.301429,"lon":5.37413,"is_reserved":false,"is_disabled":false,"rental_uris":{"android":"levelo://app?vid=8aa90576-5fcd-4176-bc45-c0ad5460d54d","ios":"levelo://app?vid=8aa90576-5fcd-4176-bc45-c0ad5460d54d"},"vehicle_type_id":"4","last_reported":1713852599,"current_range_meters":31200,"station_id":"ce4bgs92rcd13ifvqcc0","pricing_plan_id":"cebpf4jnsgd1na2vs0mg"},{"bike_id":"a898ef2a-ea14-49db-ac26-da894a207b38","system_id":"levelo_inurba_marseille","lat":43.301429,"lon":5.37413,"is_reserved":false,"is_disabled":false,"rental_uris":{"android":"levelo://app?vid=a898ef2a-ea14-49db-ac26-da894a207b38","ios":"levelo://app?vid=a898ef2a-ea14-49db-ac26-da894a207b38"},"vehicle_type_id":"4","last_reported":1713852599,"current_range_meters":2800,"station_id":"ce4bgs92rcd13ifvqcc0","pricing_plan_id":"cebpf4jnsgd1na2vs0mg"},{"bike_id":"75976e00-443f-4463-b8f8-57dc3682df23","system_id":"levelo_inurba_marseille","lat":43.302784,"lon":5.377158,"is_reserved":false,"is_disabled":false,"rental_uris":{"android":"levelo://app?vid=75976e00-443f-4463-b8f8-57dc3682df23","ios":"levelo://app?vid=75976e00-443f-4463-b8f8-57dc3682df23"},"vehicle_type_id":"4","last_reported":1713852599,"current_range_meters":7200,"station_id":"ce4bguh2rcd13ifvqcj0","pricing_plan_id":"cebpf4jnsgd1na2vs0mg"},{"bike_id":"b6448e4e-bc8c-4096-befe-00e7d7b27d86","system_id":"levelo_inurba_marseille","lat":43.319935,"lon":5.381699,"is_reserved":false,"is_disabled":false,"rental_uris":{"android":"levelo://app?vid=b6448e4e-bc8c-4096-befe-00e7d7b27d86","ios":"levelo://app?vid=b6448e4e-bc8c-4096-befe-00e7d7b27d86"},"vehicle_type_id":"4","last_reported":1713852599,"current_range_meters":8400,"station_id":"ce4bhr12rcd13ifvqhpg","pricing_plan_id":"cebpf4jnsgd1na2vs0mg"},{"bike_id":"fec8dffa-10ef-4635-82bc-fa57de892e01","system_id":"levelo_inurba_marseille","lat":43.319935,"lon":5.381699,"is_reserved":false,"is_disabled":false,"rental_uris":{"android":"levelo://app?vid=fec8dffa-10ef-4635-82bc-fa57de892e01","ios":"levelo://app?vid=fec8dffa-10ef-4635-82bc-fa57de892e01"},"vehicle_type_id":"4","last_reported":1713852599,"current_range_meters":30800,"station_id":"ce4bhr12rcd13ifvqhpg","pricing_plan_id":"cebpf4jnsgd1na2vs0mg"},{"bike_id":"433458f1-4592-4f2a-9af5-551c5a82a6c5","system_id":"levelo_inurba_marseille","lat":43.31995,"lon":5.38156,"is_reserved":false,"is_disabled":false,"rental_uris":{"android":"levelo://app?vid=433458f1-4592-4f2a-9af5-551c5a82a6c5","ios":"levelo://app?vid=433458f1-4592-4f2a-9af5-551c5a82a6c5"},"vehicle_type_id":"4","last_reported":1713852599,"current_range_meters":23600,"station_id":"ce4bhr12rcd13ifvqhpg","pricing_plan_id":"cebpf4jnsgd1na2vs0mg"},{"bike_id":"71adbe34-2f9a-470e-9db9-22e3f5446b00","system_id":"levelo_inurba_marseille","lat":43.319935,"lon":5.381699,"is_reserved":false,"is_disabled":false,"rental_uris":{"android":"levelo://app?vid=71adbe34-2f9a-470e-9db9-22e3f5446b00","ios":"levelo://app?vid=71adbe34-2f9a-470e-9db9-22e3f5446b00"},"vehicle_type_id":"4","last_reported":1713852599,"current_range_meters":16000,"station_id":"ce4bhr12rcd13ifvqhpg","pricing_plan_id":"cebpf4jnsgd1na2vs0mg"},{"bike_id":"f93eef6b-628d-49e2-addc-56cb17903cdc","system_id":"levelo_inurba_marseille","lat":43.319935,"lon":5.381699,"is_reserved":false,"is_disabled":false,"rental_uris":{"android":"levelo://app?vid=f93eef6b-628d-49e2-addc-56cb17903cdc","ios":"levelo://app?vid=f93eef6b-628d-49e2-addc-56cb17903cdc"},"vehicle_type_id":"4","last_reported":1713852599,"current_range_meters":17600,"station_id":"ce4bhr12rcd13ifvqhpg","pricing_plan_id":"cebpf4jnsgd1na2vs0mg"},{"bike_id":"36e6c597-4c9b-44fd-b549-5a94fcfa18a9","system_id":"levelo_inurba_marseille","lat":43.319935,"lon":5.381699,"is_reserved":false,"is_disabled":false,"rental_uris":{"android":"levelo://app?vid=36e6c597-4c9b-44fd-b549-5a94fcfa18a9","ios":"levelo://app?vid=36e6c597-4c9b-44fd-b549-5a94fcfa18a9"},"vehicle_type_id":"4","last_reported":1713852599,"current_range_meters":16800,"station_id":"ce4bhr12rcd13ifvqhpg","pricing_plan_id":"cebpf4jnsgd1na2vs0mg"},{"bike_id":"70ad4208-4ea1-48bc-a19d-39f226fe0387","system_id":"levelo_inurba_marseille","lat":43.31991,"lon":5.38167,"is_reserved":false,"is_disabled":false,"rental_uris":{"android":"levelo://app?vid=70ad4208-4ea1-48bc-a19d-39f226fe0387","ios":"levelo://app?vid=70ad4208-4ea1-48bc-a19d-39f226fe0387"},"vehicle_type_id":"4","last_reported":1713852599,"current_range_meters":30800,"station_id":"ce4bhr12rcd13ifvqhpg","pricing_plan_id":"cebpf4jnsgd1na2vs0mg"},{"bike_id":"d5756a2c-0bde-4b11-b001-0ffad50e6de8","system_id":"levelo_inurba_marseille","lat":43.313571,"lon":5.384829,"is_reserved":false,"is_disabled":false,"rental_uris":{"android":"levelo://app?vid=d5756a2c-0bde-4b11-b001-0ffad50e6de8","ios":"levelo://app?vid=d5756a2c-0bde-4b11-b001-0ffad50e6de8"},"vehicle_type_id":"4","last_reported":1713852599,"current_range_meters":26800,"station_id":"ce4bgt92rcd13ifvqcf0","pricing_plan_id":"cebpf4jnsgd1na2vs0mg"},{"bike_id":"7102c219-a9d7-4e22-af83-f5be2cd3cbfd","system_id":"levelo_inurba_marseille","lat":43.313571,"lon":5.384829,"is_reserved":false,"is_disabled":false,"rental_uris":{"android":"levelo://app?vid=7102c219-a9d7-4e22-af83-f5be2cd3cbfd","ios":"levelo://app?vid=7102c219-a9d7-4e22-af83-f5be2cd3cbfd"},"vehicle_type_id":"4","last_reported":1713852599,"current_range_meters":24400,"station_id":"ce4bgt92rcd13ifvqcf0","pricing_plan_id":"cebpf4jnsgd1na2vs0mg"},{"bike_id":"1febad8b-55e4-4046-ba42-c9e193dbc955","system_id":"levelo_inurba_marseille","lat":43.313571,"lon":5.384829,"is_reserved":false,"is_disabled":false,"rental_uris":{"android":"levelo://app?vid=1febad8b-55e4-4046-ba42-c9e193dbc955","ios":"levelo://app?vid=1febad8b-55e4-4046-ba42-c9e193dbc955"},"vehicle_type_id":"4","last_reported":1713852599,"current_range_meters":28800,"station_id":"ce4bgt92rcd13ifvqcf0","pricing_plan_id":"cebpf4jnsgd1na2vs0mg"},{"bike_id":"db31ee4d-d5e8-4aa9-b189-dfc4e67cb12e","system_id":"levelo_inurba_marseille","lat":43.313571,"lon":5.384829,"is_reserved":false,"is_disabled":false,"rental_uris":{"android":"levelo://app?vid=db31ee4d-d5e8-4aa9-b189-dfc4e67cb12e","ios":"levelo://app?vid=db31ee4d-d5e8-4aa9-b189-dfc4e67cb12e"},"vehicle_type_id":"4","last_reported":1713852599,"current_range_meters":28400,"station_id":"ce4bgt92rcd13ifvqcf0","pricing_plan_id":"cebpf4jnsgd1na2vs0mg"},{"bike_id":"31513ef5-ac5b-4253-b629-e083d524af6f","system_id":"levelo_inurba_marseille","lat":43.313571,"lon":5.384829,"is_reserved":false,"is_disabled":false,"rental_uris":{"android":"levelo://app?vid=31513ef5-ac5b-4253-b629-e083d524af6f","ios":"levelo://app?vid=31513ef5-ac5b-4253-b629-e083d524af6f"},"vehicle_type_id":"4","last_reported":1713852599,"current_range_meters":23200,"station_id":"ce4bgt92rcd13ifvqcf0","pricing_plan_id":"cebpf4jnsgd1na2vs0mg"},{"bike_id":"1027e629-2ce3-4b00-8654-e09d99e2e22f","system_id":"levelo_inurba_marseille","lat":43.313571,"lon":5.384829,"is_reserved":false,"is_disabled":false,"rental_uris":{"android":"levelo://app?vid=1027e629-2ce3-4b00-8654-e09d99e2e22f","ios":"levelo://app?vid=1027e629-2ce3-4b00-8654-e09d99e2e22f"},"vehicle_type_id":"4","last_reported":1713852599,"current_range_meters":8000,"station_id":"ce4bgt92rcd13ifvqcf0","pricing_plan_id":"cebpf4jnsgd1na2vs0mg"},{"bike_id":"fd8375f8-eaab-4fca-80eb-97be54e62b6b","system_id":"levelo_inurba_marseille","lat":43.313571,"lon":5.384829,"is_reserved":false,"is_disabled":false,"rental_uris":{"android":"levelo://app?vid=fd8375f8-eaab-4fca-80eb-97be54e62b6b","ios":"levelo://app?vid=fd8375f8-eaab-4fca-80eb-97be54e62b6b"},"vehicle_type_id":"4","last_reported":1713852599,"current_range_meters":30000,"station_id":"ce4bgt92rcd13ifvqcf0","pricing_plan_id":"cebpf4jnsgd1na2vs0mg"},{"bike_id":"267f4927-f82e-46f4-bdd6-8b2057f1868d","system_id":"levelo_inurba_marseille","lat":43.313571,"lon":5.384829,"is_reserved":false,"is_disabled":false,"rental_uris":{"android":"levelo://app?vid=267f4927-f82e-46f4-bdd6-8b2057f1868d","ios":"levelo://app?vid=267f4927-f82e-46f4-bdd6-8b2057f1868d"},"vehicle_type_id":"4","last_reported":1713852599,"current_range_meters":13200,"station_id":"ce4bgt92rcd13ifvqcf0","pricing_plan_id":"cebpf4jnsgd1na2vs0mg"},{"bike_id":"199fa78b-0d25-4b1a-b53c-1af25abccc99","system_id":"levelo_inurba_marseille","lat":43.313571,"lon":5.384829,"is_reserved":false,"is_disabled":false,"rental_uris":{"android":"levelo://app?vid=199fa78b-0d25-4b1a-b53c-1af25abccc99","ios":"levelo://app?vid=199fa78b-0d25-4b1a-b53c-1af25abccc99"},"vehicle_type_id":"4","last_reported":1713852599,"current_range_meters":10000,"station_id":"ce4bgt92rcd13ifvqcf0","pricing_plan_id":"cebpf4jnsgd1na2vs0mg"},{"bike_id":"ef291fc9-3ea2-4d38-b6c2-2ab3ef96c0cd","system_id":"levelo_inurba_marseille","lat":43.313571,"lon":5.384829,"is_reserved":false,"is_disabled":false,"rental_uris":{"android":"levelo://app?vid=ef291fc9-3ea2-4d38-b6c2-2ab3ef96c0cd","ios":"levelo://app?vid=ef291fc9-3ea2-4d38-b6c2-2ab3ef96c0cd"},"vehicle_type_id":"4","last_reported":1713852599,"current_range_meters":12800,"station_id":"ce4bgt92rcd13ifvqcf0","pricing_plan_id":"cebpf4jnsgd1na2vs0mg"},{"bike_id":"cfbc6904-d0a6-4526-a5cb-3b7cc466a2e5","system_id":"levelo_inurba_marseille","lat":43.313571,"lon":5.384829,"is_reserved":false,"is_disabled":false,"rental_uris":{"android":"levelo://app?vid=cfbc6904-d0a6-4526-a5cb-3b7cc466a2e5","ios":"levelo://app?vid=cfbc6904-d0a6-4526-a5cb-3b7cc466a2e5"},"vehicle_type_id":"4","last_reported":1713852599,"current_range_meters":31200,"station_id":"ce4bgt92rcd13ifvqcf0","pricing_plan_id":"cebpf4jnsgd1na2vs0mg"},{"bike_id":"318ec6c5-8346-481d-896c-62ac1aff7688","system_id":"levelo_inurba_marseille","lat":43.313571,"lon":5.384829,"is_reserved":false,"is_disabled":false,"rental_uris":{"android":"levelo://app?vid=318ec6c5-8346-481d-896c-62ac1aff7688","ios":"levelo://app?vid=318ec6c5-8346-481d-896c-62ac1aff7688"},"vehicle_type_id":"4","last_reported":1713852599,"current_range_meters":30000,"station_id":"ce4bgt92rcd13ifvqcf0","pricing_plan_id":"cebpf4jnsgd1na2vs0mg"},{"bike_id":"7bd4ff73-5caf-4826-a93f-178c8263efbf","system_id":"levelo_inurba_marseille","lat":43.313571,"lon":5.384829,"is_reserved":false,"is_disabled":false,"rental_uris":{"android":"levelo://app?vid=7bd4ff73-5caf-4826-a93f-178c8263efbf","ios":"levelo://app?vid=7bd4ff73-5caf-4826-a93f-178c8263efbf"},"vehicle_type_id":"4","last_reported":1713852599,"current_range_meters":19600,"station_id":"ce4bgt92rcd13ifvqcf0","pricing_plan_id":"cebpf4jnsgd1na2vs0mg"},{"bike_id":"dccb9002-855d-4a8c-82b7-825a38c09596","system_id":"levelo_inurba_marseille","lat":43.299222,"lon":5.365554,"is_reserved":false,"is_disabled":false,"rental_uris":{"android":"levelo://app?vid=dccb9002-855d-4a8c-82b7-825a38c09596","ios":"levelo://app?vid=dccb9002-855d-4a8c-82b7-825a38c09596"},"vehicle_type_id":"4","last_reported":1713852599,"current_range_meters":7600,"station_id":"ce4bgm92rcd13ifvqbr0","pricing_plan_id":"cebpf4jnsgd1na2vs0mg"},{"bike_id":"8c74152c-44be-4d4a-975b-027d1446708c","system_id":"levelo_inurba_marseille","lat":43.299222,"lon":5.365554,"is_reserved":false,"is_disabled":false,"rental_uris":{"android":"levelo://app?vid=8c74152c-44be-4d4a-975b-027d1446708c","ios":"levelo://app?vid=8c74152c-44be-4d4a-975b-027d1446708c"},"vehicle_type_id":"4","last_reported":1713852599,"current_range_meters":14800,"station_id":"ce4bgm92rcd13ifvqbr0","pricing_plan_id":"cebpf4jnsgd1na2vs0mg"},{"bike_id":"5b591945-1a12-4923-a79a-ccf3e314a38d","system_id":"levelo_inurba_marseille","lat":43.299222,"lon":5.365554,"is_reserved":false,"is_disabled":false,"rental_uris":{"android":"levelo://app?vid=5b591945-1a12-4923-a79a-ccf3e314a38d","ios":"levelo://app?vid=5b591945-1a12-4923-a79a-ccf3e314a38d"},"vehicle_type_id":"4","last_reported":1713852599,"current_range_meters":24400,"station_id":"ce4bgm92rcd13ifvqbr0","pricing_plan_id":"cebpf4jnsgd1na2vs0mg"},{"bike_id":"abadb87e-d6c9-4594-a4cb-277a49d5fa89","system_id":"levelo_inurba_marseille","lat":43.298433,"lon":5.362774,"is_reserved":false,"is_disabled":false,"rental_uris":{"android":"levelo://app?vid=abadb87e-d6c9-4594-a4cb-277a49d5fa89","ios":"levelo://app?vid=abadb87e-d6c9-4594-a4cb-277a49d5fa89"},"vehicle_type_id":"4","last_reported":1713852599,"current_range_meters":21600,"station_id":"ce4bgpp2rcd13ifvqc3g","pricing_plan_id":"cebpf4jnsgd1na2vs0mg"},{"bike_id":"ce5ec8d7-5da5-4c41-a62c-9be6c08d9309","system_id":"levelo_inurba_marseille","lat":43.305364,"lon":5.384119,"is_reserved":false,"is_disabled":false,"rental_uris":{"android":"levelo://app?vid=ce5ec8d7-5da5-4c41-a62c-9be6c08d9309","ios":"levelo://app?vid=ce5ec8d7-5da5-4c41-a62c-9be6c08d9309"},"vehicle_type_id":"4","last_reported":1713852599,"current_range_meters":28000,"station_id":"ce4bgg92rcd13ifvqb30","pricing_plan_id":"cebpf4jnsgd1na2vs0mg"},{"bike_id":"282a0637-f50e-40cb-9b67-bb3b8a56d2a3","system_id":"levelo_inurba_marseille","lat":43.298433,"lon":5.362774,"is_reserved":false,"is_disabled":false,"rental_uris":{"android":"levelo://app?vid=282a0637-f50e-40cb-9b67-bb3b8a56d2a3","ios":"levelo://app?vid=282a0637-f50e-40cb-9b67-bb3b8a56d2a3"},"vehicle_type_id":"4","last_reported":1713852599,"current_range_meters":1600,"station_id":"ce4bgpp2rcd13ifvqc3g","pricing_plan_id":"cebpf4jnsgd1na2vs0mg"},{"bike_id":"9b31c5cc-0e04-41b6-acaf-075e374232fa","system_id":"levelo_inurba_marseille","lat":43.298433,"lon":5.362774,"is_reserved":false,"is_disabled":false,"rental_uris":{"android":"levelo://app?vid=9b31c5cc-0e04-41b6-acaf-075e374232fa","ios":"levelo://app?vid=9b31c5cc-0e04-41b6-acaf-075e374232fa"},"vehicle_type_id":"4","last_reported":1713852599,"current_range_meters":30400,"station_id":"ce4bgpp2rcd13ifvqc3g","pricing_plan_id":"cebpf4jnsgd1na2vs0mg"},{"bike_id":"bea8eece-a67d-4e27-8c47-5b0be0a8092a","system_id":"levelo_inurba_marseille","lat":43.298433,"lon":5.362774,"is_reserved":false,"is_disabled":false,"rental_uris":{"android":"levelo://app?vid=bea8eece-a67d-4e27-8c47-5b0be0a8092a","ios":"levelo://app?vid=bea8eece-a67d-4e27-8c47-5b0be0a8092a"},"vehicle_type_id":"4","last_reported":1713852599,"current_range_meters":22800,"station_id":"ce4bgpp2rcd13ifvqc3g","pricing_plan_id":"cebpf4jnsgd1na2vs0mg"},{"bike_id":"215de65b-6666-4e24-b81c-a332abbe917a","system_id":"levelo_inurba_marseille","lat":43.305364,"lon":5.384119,"is_reserved":false,"is_disabled":false,"rental_uris":{"android":"levelo://app?vid=215de65b-6666-4e24-b81c-a332abbe917a","ios":"levelo://app?vid=215de65b-6666-4e24-b81c-a332abbe917a"},"vehicle_type_id":"4","last_reported":1713852599,"current_range_meters":22400,"station_id":"ce4bgg92rcd13ifvqb30","pricing_plan_id":"cebpf4jnsgd1na2vs0mg"},{"bike_id":"6c89c2bc-1623-45d9-9c46-6eeda9ce9860","system_id":"levelo_inurba_marseille","lat":43.305364,"lon":5.384119,"is_reserved":false,"is_disabled":false,"rental_uris":{"android":"levelo://app?vid=6c89c2bc-1623-45d9-9c46-6eeda9ce9860","ios":"levelo://app?vid=6c89c2bc-1623-45d9-9c46-6eeda9ce9860"},"vehicle_type_id":"4","last_reported":1713852599,"current_range_meters":14000,"station_id":"ce4bgg92rcd13ifvqb30","pricing_plan_id":"cebpf4jnsgd1na2vs0mg"},{"bike_id":"6606259c-56ee-4f72-9c7e-642e2574fcf8","system_id":"levelo_inurba_marseille","lat":43.305364,"lon":5.384119,"is_reserved":false,"is_disabled":false,"rental_uris":{"android":"levelo://app?vid=6606259c-56ee-4f72-9c7e-642e2574fcf8","ios":"levelo://app?vid=6606259c-56ee-4f72-9c7e-642e2574fcf8"},"vehicle_type_id":"4","last_reported":1713852599,"current_range_meters":28000,"station_id":"ce4bgg92rcd13ifvqb30","pricing_plan_id":"cebpf4jnsgd1na2vs0mg"},{"bike_id":"793de283-510f-4469-b523-cd758663af6c","system_id":"levelo_inurba_marseille","lat":43.305364,"lon":5.384119,"is_reserved":false,"is_disabled":false,"rental_uris":{"android":"levelo://app?vid=793de283-510f-4469-b523-cd758663af6c","ios":"levelo://app?vid=793de283-510f-4469-b523-cd758663af6c"},"vehicle_type_id":"4","last_reported":1713852599,"current_range_meters":28000,"station_id":"ce4bgg92rcd13ifvqb30","pricing_plan_id":"cebpf4jnsgd1na2vs0mg"},{"bike_id":"54614408-b024-47f5-a07c-10df6978df30","system_id":"levelo_inurba_marseille","lat":43.305355,"lon":5.384345,"is_reserved":false,"is_disabled":false,"rental_uris":{"android":"levelo://app?vid=54614408-b024-47f5-a07c-10df6978df30","ios":"levelo://app?vid=54614408-b024-47f5-a07c-10df6978df30"},"vehicle_type_id":"4","last_reported":1713852599,"current_range_meters":16400,"station_id":"ce4bgg92rcd13ifvqb30","pricing_plan_id":"cebpf4jnsgd1na2vs0mg"},{"bike_id":"e9bed29d-bb5d-4b85-bf38-7441d3f77241","system_id":"levelo_inurba_marseille","lat":43.298433,"lon":5.362774,"is_reserved":false,"is_disabled":false,"rental_uris":{"android":"levelo://app?vid=e9bed29d-bb5d-4b85-bf38-7441d3f77241","ios":"levelo://app?vid=e9bed29d-bb5d-4b85-bf38-7441d3f77241"},"vehicle_type_id":"4","last_reported":1713852599,"current_range_meters":17200,"station_id":"ce4bgpp2rcd13ifvqc3g","pricing_plan_id":"cebpf4jnsgd1na2vs0mg"},{"bike_id":"ecf4358f-b42c-4bd7-a886-c3494f2fc1ee","system_id":"levelo_inurba_marseille","lat":43.29912,"lon":5.37459,"is_reserved":false,"is_disabled":false,"rental_uris":{"android":"levelo://app?vid=ecf4358f-b42c-4bd7-a886-c3494f2fc1ee","ios":"levelo://app?vid=ecf4358f-b42c-4bd7-a886-c3494f2fc1ee"},"vehicle_type_id":"4","last_reported":1713852599,"current_range_meters":4400,"station_id":"ce4bgjh2rcd13ifvqbg0","pricing_plan_id":"cebpf4jnsgd1na2vs0mg"},{"bike_id":"0d82cb9d-4f0e-4cd7-afcd-cf9b32e59f9a","system_id":"levelo_inurba_marseille","lat":43.311722,"lon":5.387247,"is_reserved":false,"is_disabled":false,"rental_uris":{"android":"levelo://app?vid=0d82cb9d-4f0e-4cd7-afcd-cf9b32e59f9a","ios":"levelo://app?vid=0d82cb9d-4f0e-4cd7-afcd-cf9b32e59f9a"},"vehicle_type_id":"4","last_reported":1713852599,"current_range_meters":7200,"station_id":"ce4bgv12rcd13ifvqcp0","pricing_plan_id":"cebpf4jnsgd1na2vs0mg"},{"bike_id":"f98f9783-4ab5-40b1-a1f0-17f9f1f137c5","system_id":"levelo_inurba_marseille","lat":43.29777,"lon":5.37093,"is_reserved":false,"is_disabled":false,"rental_uris":{"android":"levelo://app?vid=f98f9783-4ab5-40b1-a1f0-17f9f1f137c5","ios":"levelo://app?vid=f98f9783-4ab5-40b1-a1f0-17f9f1f137c5"},"vehicle_type_id":"4","last_reported":1713852599,"current_range_meters":23200,"station_id":"ce4bgop2rcd13ifvqc1g","pricing_plan_id":"cebpf4jnsgd1na2vs0mg"},{"bike_id":"fa2a8b85-b515-405b-b33b-068777ad296e","system_id":"levelo_inurba_marseille","lat":43.322872,"lon":5.382756,"is_reserved":false,"is_disabled":false,"rental_uris":{"android":"levelo://app?vid=fa2a8b85-b515-405b-b33b-068777ad296e","ios":"levelo://app?vid=fa2a8b85-b515-405b-b33b-068777ad296e"},"vehicle_type_id":"4","last_reported":1713852599,"current_range_meters":26000,"station_id":"ce4bhr12rcd13ifvqhqg","pricing_plan_id":"cebpf4jnsgd1na2vs0mg"},{"bike_id":"454f2963-a870-401a-a816-3704b04ea77e","system_id":"levelo_inurba_marseille","lat":43.322872,"lon":5.382756,"is_reserved":false,"is_disabled":false,"rental_uris":{"android":"levelo://app?vid=454f2963-a870-401a-a816-3704b04ea77e","ios":"levelo://app?vid=454f2963-a870-401a-a816-3704b04ea77e"},"vehicle_type_id":"4","last_reported":1713852599,"current_range_meters":31200,"station_id":"ce4bhr12rcd13ifvqhqg","pricing_plan_id":"cebpf4jnsgd1na2vs0mg"},{"bike_id":"b87c4180-08df-49c8-872f-4a266b5c0162","system_id":"levelo_inurba_marseille","lat":43.322872,"lon":5.382756,"is_reserved":false,"is_disabled":false,"rental_uris":{"android":"levelo://app?vid=b87c4180-08df-49c8-872f-4a266b5c0162","ios":"levelo://app?vid=b87c4180-08df-49c8-872f-4a266b5c0162"},"vehicle_type_id":"4","last_reported":1713852599,"current_range_meters":19200,"station_id":"ce4bhr12rcd13ifvqhqg","pricing_plan_id":"cebpf4jnsgd1na2vs0mg"},{"bike_id":"a4cc2678-1ae4-4d41-a3d2-cbb8a9fd73ac","system_id":"levelo_inurba_marseille","lat":43.322872,"lon":5.382756,"is_reserved":false,"is_disabled":false,"rental_uris":{"android":"levelo://app?vid=a4cc2678-1ae4-4d41-a3d2-cbb8a9fd73ac","ios":"levelo://app?vid=a4cc2678-1ae4-4d41-a3d2-cbb8a9fd73ac"},"vehicle_type_id":"4","last_reported":1713852599,"current_range_meters":31200,"station_id":"ce4bhr12rcd13ifvqhqg","pricing_plan_id":"cebpf4jnsgd1na2vs0mg"},{"bike_id":"8d4b7445-69e0-4f61-b1e5-f9b1bb71ca78","system_id":"levelo_inurba_marseille","lat":43.322872,"lon":5.382756,"is_reserved":false,"is_disabled":false,"rental_uris":{"android":"levelo://app?vid=8d4b7445-69e0-4f61-b1e5-f9b1bb71ca78","ios":"levelo://app?vid=8d4b7445-69e0-4f61-b1e5-f9b1bb71ca78"},"vehicle_type_id":"4","last_reported":1713852599,"current_range_meters":18400,"station_id":"ce4bhr12rcd13ifvqhqg","pricing_plan_id":"cebpf4jnsgd1na2vs0mg"},{"bike_id":"ef61a51c-36c6-4c2f-9a98-9ec3cb0d9ad4","system_id":"levelo_inurba_marseille","lat":43.322872,"lon":5.382756,"is_reserved":false,"is_disabled":false,"rental_uris":{"android":"levelo://app?vid=ef61a51c-36c6-4c2f-9a98-9ec3cb0d9ad4","ios":"levelo://app?vid=ef61a51c-36c6-4c2f-9a98-9ec3cb0d9ad4"},"vehicle_type_id":"4","last_reported":1713852599,"current_range_meters":18400,"station_id":"ce4bhr12rcd13ifvqhqg","pricing_plan_id":"cebpf4jnsgd1na2vs0mg"},{"bike_id":"92c24665-badb-4ed7-9129-70f50714ed40","system_id":"levelo_inurba_marseille","lat":43.322872,"lon":5.382756,"is_reserved":false,"is_disabled":false,"rental_uris":{"android":"levelo://app?vid=92c24665-badb-4ed7-9129-70f50714ed40","ios":"levelo://app?vid=92c24665-badb-4ed7-9129-70f50714ed40"},"vehicle_type_id":"4","last_reported":1713852599,"current_range_meters":11200,"station_id":"ce4bhr12rcd13ifvqhqg","pricing_plan_id":"cebpf4jnsgd1na2vs0mg"},{"bike_id":"c46d9a8d-ee81-498e-bbb5-006f1b556bbe","system_id":"levelo_inurba_marseille","lat":43.322872,"lon":5.382756,"is_reserved":false,"is_disabled":false,"rental_uris":{"android":"levelo://app?vid=c46d9a8d-ee81-498e-bbb5-006f1b556bbe","ios":"levelo://app?vid=c46d9a8d-ee81-498e-bbb5-006f1b556bbe"},"vehicle_type_id":"4","last_reported":1713852599,"current_range_meters":10800,"station_id":"ce4bhr12rcd13ifvqhqg","pricing_plan_id":"cebpf4jnsgd1na2vs0mg"},{"bike_id":"0b32fa2b-6e99-4115-bc6d-55694d0bf299","system_id":"levelo_inurba_marseille","lat":43.322872,"lon":5.382756,"is_reserved":false,"is_disabled":false,"rental_uris":{"android":"levelo://app?vid=0b32fa2b-6e99-4115-bc6d-55694d0bf299","ios":"levelo://app?vid=0b32fa2b-6e99-4115-bc6d-55694d0bf299"},"vehicle_type_id":"4","last_reported":1713852599,"current_range_meters":31200,"station_id":"ce4bhr12rcd13ifvqhqg","pricing_plan_id":"cebpf4jnsgd1na2vs0mg"},{"bike_id":"4aa6bbb6-acfe-4a72-b7aa-c41f660e7dba","system_id":"levelo_inurba_marseille","lat":43.322872,"lon":5.382756,"is_reserved":false,"is_disabled":false,"rental_uris":{"android":"levelo://app?vid=4aa6bbb6-acfe-4a72-b7aa-c41f660e7dba","ios":"levelo://app?vid=4aa6bbb6-acfe-4a72-b7aa-c41f660e7dba"},"vehicle_type_id":"4","last_reported":1713852599,"current_range_meters":27600,"station_id":"ce4bhr12rcd13ifvqhqg","pricing_plan_id":"cebpf4jnsgd1na2vs0mg"},{"bike_id":"56d91149-6e86-4d7c-a134-c4517c20ecff","system_id":"levelo_inurba_marseille","lat":43.297118,"lon":5.366057,"is_reserved":false,"is_disabled":false,"rental_uris":{"android":"levelo://app?vid=56d91149-6e86-4d7c-a134-c4517c20ecff","ios":"levelo://app?vid=56d91149-6e86-4d7c-a134-c4517c20ecff"},"vehicle_type_id":"4","last_reported":1713852599,"current_range_meters":11600,"station_id":"ce4bgn12rcd13ifvqbt0","pricing_plan_id":"cebpf4jnsgd1na2vs0mg"},{"bike_id":"77423322-5b97-4d45-a055-63655884e5c2","system_id":"levelo_inurba_marseille","lat":43.29711,"lon":5.36608,"is_reserved":false,"is_disabled":false,"rental_uris":{"android":"levelo://app?vid=77423322-5b97-4d45-a055-63655884e5c2","ios":"levelo://app?vid=77423322-5b97-4d45-a055-63655884e5c2"},"vehicle_type_id":"4","last_reported":1713852599,"current_range_meters":26400,"station_id":"ce4bgn12rcd13ifvqbt0","pricing_plan_id":"cebpf4jnsgd1na2vs0mg"},{"bike_id":"a3f2630f-3f36-46c1-8241-2237e09056bd","system_id":"levelo_inurba_marseille","lat":43.279975,"lon":5.40009,"is_reserved":false,"is_disabled":false,"rental_uris":{"android":"levelo://app?vid=a3f2630f-3f36-46c1-8241-2237e09056bd","ios":"levelo://app?vid=a3f2630f-3f36-46c1-8241-2237e09056bd"},"vehicle_type_id":"4","last_reported":1713852599,"current_range_meters":2000,"station_id":"ce4bho92rcd13ifvqh4g","pricing_plan_id":"cebpf4jnsgd1na2vs0mg"},{"bike_id":"8bb3317e-96b1-4656-84ac-aa85834cc641","system_id":"levelo_inurba_marseille","lat":43.325724,"lon":5.380563,"is_reserved":false,"is_disabled":false,"rental_uris":{"android":"levelo://app?vid=8bb3317e-96b1-4656-84ac-aa85834cc641","ios":"levelo://app?vid=8bb3317e-96b1-4656-84ac-aa85834cc641"},"vehicle_type_id":"4","last_reported":1713852599,"current_range_meters":6000,"station_id":"","pricing_plan_id":"cebpf4jnsgd1na2vs0mg"},{"bike_id":"9eee7cfb-5174-4a42-aee0-09e09a972821","system_id":"levelo_inurba_marseille","lat":43.2968,"lon":5.37291,"is_reserved":false,"is_disabled":false,"rental_uris":{"android":"levelo://app?vid=9eee7cfb-5174-4a42-aee0-09e09a972821","ios":"levelo://app?vid=9eee7cfb-5174-4a42-aee0-09e09a972821"},"vehicle_type_id":"4","last_reported":1713852599,"current_range_meters":16800,"station_id":"ce4bgk12rcd13ifvqbj0","pricing_plan_id":"cebpf4jnsgd1na2vs0mg"},{"bike_id":"c8492147-ebd7-42e7-8411-426039ecaede","system_id":"levelo_inurba_marseille","lat":43.296129,"lon":5.370777,"is_reserved":false,"is_disabled":false,"rental_uris":{"android":"levelo://app?vid=c8492147-ebd7-42e7-8411-426039ecaede","ios":"levelo://app?vid=c8492147-ebd7-42e7-8411-426039ecaede"},"vehicle_type_id":"4","last_reported":1713852599,"current_range_meters":27600,"station_id":"ce4bgnh2rcd13ifvqc0g","pricing_plan_id":"cebpf4jnsgd1na2vs0mg"},{"bike_id":"6d4062c1-88ab-4a11-be08-93f3898a84af","system_id":"levelo_inurba_marseille","lat":43.29573,"lon":5.367355,"is_reserved":false,"is_disabled":false,"rental_uris":{"android":"levelo://app?vid=6d4062c1-88ab-4a11-be08-93f3898a84af","ios":"levelo://app?vid=6d4062c1-88ab-4a11-be08-93f3898a84af"},"vehicle_type_id":"4","last_reported":1713852599,"current_range_meters":25200,"station_id":"ce4bgph2rcd13ifvqc2g","pricing_plan_id":"cebpf4jnsgd1na2vs0mg"},{"bike_id":"22ee16ca-a245-4dc1-ad8a-db06da73955c","system_id":"levelo_inurba_marseille","lat":43.29587,"lon":5.368769,"is_reserved":false,"is_disabled":false,"rental_uris":{"android":"levelo://app?vid=22ee16ca-a245-4dc1-ad8a-db06da73955c","ios":"levelo://app?vid=22ee16ca-a245-4dc1-ad8a-db06da73955c"},"vehicle_type_id":"4","last_reported":1713852599,"current_range_meters":14800,"station_id":"","pricing_plan_id":"cebpf4jnsgd1na2vs0mg"},{"bike_id":"d6f16b8e-aa6b-4d9b-9f51-55e3613e95fa","system_id":"levelo_inurba_marseille","lat":43.29573,"lon":5.367355,"is_reserved":false,"is_disabled":false,"rental_uris":{"android":"levelo://app?vid=d6f16b8e-aa6b-4d9b-9f51-55e3613e95fa","ios":"levelo://app?vid=d6f16b8e-aa6b-4d9b-9f51-55e3613e95fa"},"vehicle_type_id":"4","last_reported":1713852599,"current_range_meters":22000,"station_id":"ce4bgph2rcd13ifvqc2g","pricing_plan_id":"cebpf4jnsgd1na2vs0mg"},{"bike_id":"d9fe4fbd-e09a-41ed-a43d-eed28fab1259","system_id":"levelo_inurba_marseille","lat":43.296921,"lon":5.376579,"is_reserved":false,"is_disabled":false,"rental_uris":{"android":"levelo://app?vid=d9fe4fbd-e09a-41ed-a43d-eed28fab1259","ios":"levelo://app?vid=d9fe4fbd-e09a-41ed-a43d-eed28fab1259"},"vehicle_type_id":"4","last_reported":1713852599,"current_range_meters":30800,"station_id":"ce4bgkh2rcd13ifvqbl0","pricing_plan_id":"cebpf4jnsgd1na2vs0mg"},{"bike_id":"77102b21-ea90-4c3f-bc57-7a43ac94d554","system_id":"levelo_inurba_marseille","lat":43.296935,"lon":5.376544,"is_reserved":false,"is_disabled":false,"rental_uris":{"android":"levelo://app?vid=77102b21-ea90-4c3f-bc57-7a43ac94d554","ios":"levelo://app?vid=77102b21-ea90-4c3f-bc57-7a43ac94d554"},"vehicle_type_id":"4","last_reported":1713852599,"current_range_meters":29200,"station_id":"ce4bgkh2rcd13ifvqbl0","pricing_plan_id":"cebpf4jnsgd1na2vs0mg"},{"bike_id":"08f667a4-0132-49ec-965e-912771d67712","system_id":"levelo_inurba_marseille","lat":43.299028,"lon":5.381509,"is_reserved":false,"is_disabled":false,"rental_uris":{"android":"levelo://app?vid=08f667a4-0132-49ec-965e-912771d67712","ios":"levelo://app?vid=08f667a4-0132-49ec-965e-912771d67712"},"vehicle_type_id":"4","last_reported":1713852599,"current_range_meters":14000,"station_id":"ce4bgj12rcd13ifvqbc0","pricing_plan_id":"cebpf4jnsgd1na2vs0mg"},{"bike_id":"18f370a7-913e-4076-a8ae-214d3e6baf53","system_id":"levelo_inurba_marseille","lat":43.309589,"lon":5.390258,"is_reserved":false,"is_disabled":false,"rental_uris":{"android":"levelo://app?vid=18f370a7-913e-4076-a8ae-214d3e6baf53","ios":"levelo://app?vid=18f370a7-913e-4076-a8ae-214d3e6baf53"},"vehicle_type_id":"4","last_reported":1713852599,"current_range_meters":10400,"station_id":"ce4bgup2rcd13ifvqco0","pricing_plan_id":"cebpf4jnsgd1na2vs0mg"},{"bike_id":"b18950e9-5e25-410b-84ae-0738509965e6","system_id":"levelo_inurba_marseille","lat":43.309589,"lon":5.390258,"is_reserved":false,"is_disabled":false,"rental_uris":{"android":"levelo://app?vid=b18950e9-5e25-410b-84ae-0738509965e6","ios":"levelo://app?vid=b18950e9-5e25-410b-84ae-0738509965e6"},"vehicle_type_id":"4","last_reported":1713852599,"current_range_meters":30000,"station_id":"ce4bgup2rcd13ifvqco0","pricing_plan_id":"cebpf4jnsgd1na2vs0mg"},{"bike_id":"ec12ebbb-294f-4667-b3ff-ae2641317d4b","system_id":"levelo_inurba_marseille","lat":43.309589,"lon":5.390258,"is_reserved":false,"is_disabled":false,"rental_uris":{"android":"levelo://app?vid=ec12ebbb-294f-4667-b3ff-ae2641317d4b","ios":"levelo://app?vid=ec12ebbb-294f-4667-b3ff-ae2641317d4b"},"vehicle_type_id":"4","last_reported":1713852599,"current_range_meters":22000,"station_id":"ce4bgup2rcd13ifvqco0","pricing_plan_id":"cebpf4jnsgd1na2vs0mg"},{"bike_id":"93bf4b0e-ea5c-4ce8-94e0-73fd01750ea3","system_id":"levelo_inurba_marseille","lat":43.296935,"lon":5.376544,"is_reserved":false,"is_disabled":false,"rental_uris":{"android":"levelo://app?vid=93bf4b0e-ea5c-4ce8-94e0-73fd01750ea3","ios":"levelo://app?vid=93bf4b0e-ea5c-4ce8-94e0-73fd01750ea3"},"vehicle_type_id":"4","last_reported":1713852599,"current_range_meters":6800,"station_id":"ce4bgkh2rcd13ifvqbl0","pricing_plan_id":"cebpf4jnsgd1na2vs0mg"},{"bike_id":"64de4753-224d-4bed-8152-d456d0a3b9ff","system_id":"levelo_inurba_marseille","lat":43.309589,"lon":5.390258,"is_reserved":false,"is_disabled":false,"rental_uris":{"android":"levelo://app?vid=64de4753-224d-4bed-8152-d456d0a3b9ff","ios":"levelo://app?vid=64de4753-224d-4bed-8152-d456d0a3b9ff"},"vehicle_type_id":"4","last_reported":1713852599,"current_range_meters":31600,"station_id":"ce4bgup2rcd13ifvqco0","pricing_plan_id":"cebpf4jnsgd1na2vs0mg"},{"bike_id":"1eefd095-5b76-4558-868a-8aad9efcdc30","system_id":"levelo_inurba_marseille","lat":43.317557,"lon":5.390173,"is_reserved":false,"is_disabled":false,"rental_uris":{"android":"levelo://app?vid=1eefd095-5b76-4558-868a-8aad9efcdc30","ios":"levelo://app?vid=1eefd095-5b76-4558-868a-8aad9efcdc30"},"vehicle_type_id":"4","last_reported":1713852599,"current_range_meters":31200,"station_id":"ce4bhqp2rcd13ifvqhng","pricing_plan_id":"cebpf4jnsgd1na2vs0mg"},{"bike_id":"77b54333-6717-4140-a34e-88e9fb7a10fd","system_id":"levelo_inurba_marseille","lat":43.298037,"lon":5.381066,"is_reserved":false,"is_disabled":false,"rental_uris":{"android":"levelo://app?vid=77b54333-6717-4140-a34e-88e9fb7a10fd","ios":"levelo://app?vid=77b54333-6717-4140-a34e-88e9fb7a10fd"},"vehicle_type_id":"4","last_reported":1713852599,"current_range_meters":25200,"station_id":"ce4bgip2rcd13ifvqbb0","pricing_plan_id":"cebpf4jnsgd1na2vs0mg"},{"bike_id":"0b91c5d6-de2a-4f1e-8cb6-c529c5270cae","system_id":"levelo_inurba_marseille","lat":43.304278,"lon":5.388868,"is_reserved":false,"is_disabled":false,"rental_uris":{"android":"levelo://app?vid=0b91c5d6-de2a-4f1e-8cb6-c529c5270cae","ios":"levelo://app?vid=0b91c5d6-de2a-4f1e-8cb6-c529c5270cae"},"vehicle_type_id":"4","last_reported":1713852599,"current_range_meters":14400,"station_id":"ce4bgk12rcd13ifvqbi0","pricing_plan_id":"cebpf4jnsgd1na2vs0mg"},{"bike_id":"e2521b9d-e4f3-40ae-9631-c66113299f7a","system_id":"levelo_inurba_marseille","lat":43.295748,"lon":5.37522,"is_reserved":false,"is_disabled":false,"rental_uris":{"android":"levelo://app?vid=e2521b9d-e4f3-40ae-9631-c66113299f7a","ios":"levelo://app?vid=e2521b9d-e4f3-40ae-9631-c66113299f7a"},"vehicle_type_id":"4","last_reported":1713852599,"current_range_meters":28400,"station_id":"ce4bgh92rcd13ifvqb50","pricing_plan_id":"cebpf4jnsgd1na2vs0mg"},{"bike_id":"bf43fd00-27c1-432f-8318-fe3a5e6ddcd0","system_id":"levelo_inurba_marseille","lat":43.304278,"lon":5.388868,"is_reserved":false,"is_disabled":false,"rental_uris":{"android":"levelo://app?vid=bf43fd00-27c1-432f-8318-fe3a5e6ddcd0","ios":"levelo://app?vid=bf43fd00-27c1-432f-8318-fe3a5e6ddcd0"},"vehicle_type_id":"4","last_reported":1713852599,"current_range_meters":25600,"station_id":"ce4bgk12rcd13ifvqbi0","pricing_plan_id":"cebpf4jnsgd1na2vs0mg"},{"bike_id":"e6434e77-9055-4d54-90f8-4e20cbcf3af6","system_id":"levelo_inurba_marseille","lat":43.295748,"lon":5.37522,"is_reserved":false,"is_disabled":false,"rental_uris":{"android":"levelo://app?vid=e6434e77-9055-4d54-90f8-4e20cbcf3af6","ios":"levelo://app?vid=e6434e77-9055-4d54-90f8-4e20cbcf3af6"},"vehicle_type_id":"4","last_reported":1713852599,"current_range_meters":21200,"station_id":"ce4bgh92rcd13ifvqb50","pricing_plan_id":"cebpf4jnsgd1na2vs0mg"},{"bike_id":"49f2b2c8-2d0b-48aa-ba7c-4b6f6151fff0","system_id":"levelo_inurba_marseille","lat":43.304278,"lon":5.388868,"is_reserved":false,"is_disabled":false,"rental_uris":{"android":"levelo://app?vid=49f2b2c8-2d0b-48aa-ba7c-4b6f6151fff0","ios":"levelo://app?vid=49f2b2c8-2d0b-48aa-ba7c-4b6f6151fff0"},"vehicle_type_id":"4","last_reported":1713852599,"current_range_meters":25600,"station_id":"ce4bgk12rcd13ifvqbi0","pricing_plan_id":"cebpf4jnsgd1na2vs0mg"},{"bike_id":"8037ae75-e401-41b9-88fa-3da08475f4ac","system_id":"levelo_inurba_marseille","lat":43.295748,"lon":5.37522,"is_reserved":false,"is_disabled":false,"rental_uris":{"android":"levelo://app?vid=8037ae75-e401-41b9-88fa-3da08475f4ac","ios":"levelo://app?vid=8037ae75-e401-41b9-88fa-3da08475f4ac"},"vehicle_type_id":"4","last_reported":1713852599,"current_range_meters":30800,"station_id":"ce4bgh92rcd13ifvqb50","pricing_plan_id":"cebpf4jnsgd1na2vs0mg"},{"bike_id":"b5dd08dd-fe6f-4d8a-9b33-0de114cf4c68","system_id":"levelo_inurba_marseille","lat":43.296277,"lon":5.377108,"is_reserved":false,"is_disabled":false,"rental_uris":{"android":"levelo://app?vid=b5dd08dd-fe6f-4d8a-9b33-0de114cf4c68","ios":"levelo://app?vid=b5dd08dd-fe6f-4d8a-9b33-0de114cf4c68"},"vehicle_type_id":"4","last_reported":1713852599,"current_range_meters":4000,"station_id":"ce4bgi92rcd13ifvqb90","pricing_plan_id":"cebpf4jnsgd1na2vs0mg"},{"bike_id":"e972088e-3242-43dd-9663-ae4514d023c9","system_id":"levelo_inurba_marseille","lat":43.299717,"lon":5.384845,"is_reserved":false,"is_disabled":false,"rental_uris":{"android":"levelo://app?vid=e972088e-3242-43dd-9663-ae4514d023c9","ios":"levelo://app?vid=e972088e-3242-43dd-9663-ae4514d023c9"},"vehicle_type_id":"4","last_reported":1713852599,"current_range_meters":18000,"station_id":"ce4bgj92rcd13ifvqbd0","pricing_plan_id":"cebpf4jnsgd1na2vs0mg"},{"bike_id":"86f00be4-3d01-4f81-ad45-3c155854ef72","system_id":"levelo_inurba_marseille","lat":43.29493,"lon":5.37517,"is_reserved":false,"is_disabled":false,"rental_uris":{"android":"levelo://app?vid=86f00be4-3d01-4f81-ad45-3c155854ef72","ios":"levelo://app?vid=86f00be4-3d01-4f81-ad45-3c155854ef72"},"vehicle_type_id":"4","last_reported":1713852599,"current_range_meters":13600,"station_id":"ce4bgup2rcd13ifvqcn0","pricing_plan_id":"cebpf4jnsgd1na2vs0mg"},{"bike_id":"f74d458b-f793-4c9d-8d40-4766904c0344","system_id":"levelo_inurba_marseille","lat":43.309589,"lon":5.390258,"is_reserved":false,"is_disabled":false,"rental_uris":{"android":"levelo://app?vid=f74d458b-f793-4c9d-8d40-4766904c0344","ios":"levelo://app?vid=f74d458b-f793-4c9d-8d40-4766904c0344"},"vehicle_type_id":"4","last_reported":1713852599,"current_range_meters":24000,"station_id":"ce4bgup2rcd13ifvqco0","pricing_plan_id":"cebpf4jnsgd1na2vs0mg"},{"bike_id":"533a7494-4e10-41ee-a97f-604728e2df14","system_id":"levelo_inurba_marseille","lat":43.29601,"lon":5.381084,"is_reserved":false,"is_disabled":false,"rental_uris":{"android":"levelo://app?vid=533a7494-4e10-41ee-a97f-604728e2df14","ios":"levelo://app?vid=533a7494-4e10-41ee-a97f-604728e2df14"},"vehicle_type_id":"4","last_reported":1713852599,"current_range_meters":30400,"station_id":"ce4bgl12rcd13ifvqbo0","pricing_plan_id":"cebpf4jnsgd1na2vs0mg"},{"bike_id":"84fcbba0-a528-49f6-8786-6d3dc1c3d573","system_id":"levelo_inurba_marseille","lat":43.293259,"lon":5.371586,"is_reserved":false,"is_disabled":false,"rental_uris":{"android":"levelo://app?vid=84fcbba0-a528-49f6-8786-6d3dc1c3d573","ios":"levelo://app?vid=84fcbba0-a528-49f6-8786-6d3dc1c3d573"},"vehicle_type_id":"4","last_reported":1713852599,"current_range_meters":30000,"station_id":"ce4bgh92rcd13ifvqb40","pricing_plan_id":"cebpf4jnsgd1na2vs0mg"},{"bike_id":"a4e9c45c-b9dc-45c1-94c2-ac11efe9d79b","system_id":"levelo_inurba_marseille","lat":43.318694,"lon":5.393485,"is_reserved":false,"is_disabled":false,"rental_uris":{"android":"levelo://app?vid=a4e9c45c-b9dc-45c1-94c2-ac11efe9d79b","ios":"levelo://app?vid=a4e9c45c-b9dc-45c1-94c2-ac11efe9d79b"},"vehicle_type_id":"4","last_reported":1713852599,"current_range_meters":23600,"station_id":"","pricing_plan_id":"cebpf4jnsgd1na2vs0mg"},{"bike_id":"a44ec6cc-7e48-4074-b7cb-0b34a1488638","system_id":"levelo_inurba_marseille","lat":43.2931,"lon":5.374485,"is_reserved":false,"is_disabled":false,"rental_uris":{"android":"levelo://app?vid=a44ec6cc-7e48-4074-b7cb-0b34a1488638","ios":"levelo://app?vid=a44ec6cc-7e48-4074-b7cb-0b34a1488638"},"vehicle_type_id":"4","last_reported":1713852599,"current_range_meters":1200,"station_id":"ce4bgi12rcd13ifvqb70","pricing_plan_id":"cebpf4jnsgd1na2vs0mg"},{"bike_id":"5322cd5c-204a-4445-84e9-b01e580708c5","system_id":"levelo_inurba_marseille","lat":43.293009,"lon":5.374584,"is_reserved":false,"is_disabled":false,"rental_uris":{"android":"levelo://app?vid=5322cd5c-204a-4445-84e9-b01e580708c5","ios":"levelo://app?vid=5322cd5c-204a-4445-84e9-b01e580708c5"},"vehicle_type_id":"4","last_reported":1713852599,"current_range_meters":27200,"station_id":"ce4bgi12rcd13ifvqb70","pricing_plan_id":"cebpf4jnsgd1na2vs0mg"},{"bike_id":"cd8c8886-5d11-4c23-bf02-92236e7a9a85","system_id":"levelo_inurba_marseille","lat":43.305994,"lon":5.393687,"is_reserved":false,"is_disabled":false,"rental_uris":{"android":"levelo://app?vid=cd8c8886-5d11-4c23-bf02-92236e7a9a85","ios":"levelo://app?vid=cd8c8886-5d11-4c23-bf02-92236e7a9a85"},"vehicle_type_id":"4","last_reported":1713852599,"current_range_meters":31200,"station_id":"ce4bh0p2rcd13ifvqd80","pricing_plan_id":"cebpf4jnsgd1na2vs0mg"},{"bike_id":"0693c29f-2c46-406e-ba26-ed7aad9e1127","system_id":"levelo_inurba_marseille","lat":43.305994,"lon":5.393687,"is_reserved":false,"is_disabled":false,"rental_uris":{"android":"levelo://app?vid=0693c29f-2c46-406e-ba26-ed7aad9e1127","ios":"levelo://app?vid=0693c29f-2c46-406e-ba26-ed7aad9e1127"},"vehicle_type_id":"4","last_reported":1713852599,"current_range_meters":30000,"station_id":"ce4bh0p2rcd13ifvqd80","pricing_plan_id":"cebpf4jnsgd1na2vs0mg"},{"bike_id":"8afb8ecc-f214-4778-a98f-44039ef3af3a","system_id":"levelo_inurba_marseille","lat":43.305994,"lon":5.393687,"is_reserved":false,"is_disabled":false,"rental_uris":{"android":"levelo://app?vid=8afb8ecc-f214-4778-a98f-44039ef3af3a","ios":"levelo://app?vid=8afb8ecc-f214-4778-a98f-44039ef3af3a"},"vehicle_type_id":"4","last_reported":1713852599,"current_range_meters":25200,"station_id":"ce4bh0p2rcd13ifvqd80","pricing_plan_id":"cebpf4jnsgd1na2vs0mg"},{"bike_id":"11ba0abe-b9d4-4cfb-b446-f0819b2793cb","system_id":"levelo_inurba_marseille","lat":43.292311,"lon":5.360731,"is_reserved":false,"is_disabled":false,"rental_uris":{"android":"levelo://app?vid=11ba0abe-b9d4-4cfb-b446-f0819b2793cb","ios":"levelo://app?vid=11ba0abe-b9d4-4cfb-b446-f0819b2793cb"},"vehicle_type_id":"4","last_reported":1713852599,"current_range_meters":22000,"station_id":"ce4bhbh2rcd13ifvqeqg","pricing_plan_id":"cebpf4jnsgd1na2vs0mg"},{"bike_id":"3b6a14fa-a692-44c5-8693-89be6870c918","system_id":"levelo_inurba_marseille","lat":43.292311,"lon":5.360731,"is_reserved":false,"is_disabled":false,"rental_uris":{"android":"levelo://app?vid=3b6a14fa-a692-44c5-8693-89be6870c918","ios":"levelo://app?vid=3b6a14fa-a692-44c5-8693-89be6870c918"},"vehicle_type_id":"4","last_reported":1713852599,"current_range_meters":30800,"station_id":"ce4bhbh2rcd13ifvqeqg","pricing_plan_id":"cebpf4jnsgd1na2vs0mg"},{"bike_id":"a1e18202-3642-4973-8e69-f24a94259d70","system_id":"levelo_inurba_marseille","lat":43.292311,"lon":5.360731,"is_reserved":false,"is_disabled":false,"rental_uris":{"android":"levelo://app?vid=a1e18202-3642-4973-8e69-f24a94259d70","ios":"levelo://app?vid=a1e18202-3642-4973-8e69-f24a94259d70"},"vehicle_type_id":"4","last_reported":1713852599,"current_range_meters":24800,"station_id":"ce4bhbh2rcd13ifvqeqg","pricing_plan_id":"cebpf4jnsgd1na2vs0mg"},{"bike_id":"c38fc3fe-2580-4eef-86dc-cff4cdc8ffce","system_id":"levelo_inurba_marseille","lat":43.292311,"lon":5.360731,"is_reserved":false,"is_disabled":false,"rental_uris":{"android":"levelo://app?vid=c38fc3fe-2580-4eef-86dc-cff4cdc8ffce","ios":"levelo://app?vid=c38fc3fe-2580-4eef-86dc-cff4cdc8ffce"},"vehicle_type_id":"4","last_reported":1713852599,"current_range_meters":2400,"station_id":"ce4bhbh2rcd13ifvqeqg","pricing_plan_id":"cebpf4jnsgd1na2vs0mg"},{"bike_id":"6027036a-1291-4a6b-9e4b-6f6902c8dd18","system_id":"levelo_inurba_marseille","lat":43.292311,"lon":5.360731,"is_reserved":false,"is_disabled":false,"rental_uris":{"android":"levelo://app?vid=6027036a-1291-4a6b-9e4b-6f6902c8dd18","ios":"levelo://app?vid=6027036a-1291-4a6b-9e4b-6f6902c8dd18"},"vehicle_type_id":"4","last_reported":1713852599,"current_range_meters":24400,"station_id":"ce4bhbh2rcd13ifvqeqg","pricing_plan_id":"cebpf4jnsgd1na2vs0mg"},{"bike_id":"58f576a0-dc99-4b7a-8aa9-78df10e9f946","system_id":"levelo_inurba_marseille","lat":43.292311,"lon":5.360731,"is_reserved":false,"is_disabled":false,"rental_uris":{"android":"levelo://app?vid=58f576a0-dc99-4b7a-8aa9-78df10e9f946","ios":"levelo://app?vid=58f576a0-dc99-4b7a-8aa9-78df10e9f946"},"vehicle_type_id":"4","last_reported":1713852599,"current_range_meters":14400,"station_id":"ce4bhbh2rcd13ifvqeqg","pricing_plan_id":"cebpf4jnsgd1na2vs0mg"},{"bike_id":"46f80415-8b26-4cc9-94ca-3376583f72cc","system_id":"levelo_inurba_marseille","lat":43.292311,"lon":5.360731,"is_reserved":false,"is_disabled":false,"rental_uris":{"android":"levelo://app?vid=46f80415-8b26-4cc9-94ca-3376583f72cc","ios":"levelo://app?vid=46f80415-8b26-4cc9-94ca-3376583f72cc"},"vehicle_type_id":"4","last_reported":1713852599,"current_range_meters":31600,"station_id":"ce4bhbh2rcd13ifvqeqg","pricing_plan_id":"cebpf4jnsgd1na2vs0mg"},{"bike_id":"45d81d26-ab2c-45a2-98df-21861df607b7","system_id":"levelo_inurba_marseille","lat":43.30093,"lon":5.39081,"is_reserved":false,"is_disabled":false,"rental_uris":{"android":"levelo://app?vid=45d81d26-ab2c-45a2-98df-21861df607b7","ios":"levelo://app?vid=45d81d26-ab2c-45a2-98df-21861df607b7"},"vehicle_type_id":"4","last_reported":1713852599,"current_range_meters":400,"station_id":"ce4bh192rcd13ifvqdb0","pricing_plan_id":"cebpf4jnsgd1na2vs0mg"},{"bike_id":"d1437bb2-4748-488f-84a1-087801b9c4b1","system_id":"levelo_inurba_marseille","lat":43.292311,"lon":5.360731,"is_reserved":false,"is_disabled":false,"rental_uris":{"android":"levelo://app?vid=d1437bb2-4748-488f-84a1-087801b9c4b1","ios":"levelo://app?vid=d1437bb2-4748-488f-84a1-087801b9c4b1"},"vehicle_type_id":"4","last_reported":1713852599,"current_range_meters":7200,"station_id":"ce4bhbh2rcd13ifvqeqg","pricing_plan_id":"cebpf4jnsgd1na2vs0mg"},{"bike_id":"ade1c4fe-f587-43fe-8d98-c2d7c9c559dc","system_id":"levelo_inurba_marseille","lat":43.292178,"lon":5.360509,"is_reserved":false,"is_disabled":false,"rental_uris":{"android":"levelo://app?vid=ade1c4fe-f587-43fe-8d98-c2d7c9c559dc","ios":"levelo://app?vid=ade1c4fe-f587-43fe-8d98-c2d7c9c559dc"},"vehicle_type_id":"4","last_reported":1713852599,"current_range_meters":29200,"station_id":"ce4bhbh2rcd13ifvqeqg","pricing_plan_id":"cebpf4jnsgd1na2vs0mg"},{"bike_id":"72d39ba5-758a-448b-b942-97043c06c6aa","system_id":"levelo_inurba_marseille","lat":43.291671,"lon":5.371575,"is_reserved":false,"is_disabled":false,"rental_uris":{"android":"levelo://app?vid=72d39ba5-758a-448b-b942-97043c06c6aa","ios":"levelo://app?vid=72d39ba5-758a-448b-b942-97043c06c6aa"},"vehicle_type_id":"4","last_reported":1713852599,"current_range_meters":24000,"station_id":"ce4bha92rcd13ifvqeh0","pricing_plan_id":"cebpf4jnsgd1na2vs0mg"},{"bike_id":"7ff9837a-4fcd-4680-91d6-790b006dda35","system_id":"levelo_inurba_marseille","lat":43.295279,"lon":5.375048,"is_reserved":false,"is_disabled":false,"rental_uris":{"android":"levelo://app?vid=7ff9837a-4fcd-4680-91d6-790b006dda35","ios":"levelo://app?vid=7ff9837a-4fcd-4680-91d6-790b006dda35"},"vehicle_type_id":"4","last_reported":1713852599,"current_range_meters":25600,"station_id":"ce4bgkp2rcd13ifvqbmg","pricing_plan_id":"cebpf4jnsgd1na2vs0mg"},{"bike_id":"1ae5b373-3345-420e-a7d7-2ee0f0e1ace7","system_id":"levelo_inurba_marseille","lat":43.29201,"lon":5.35808,"is_reserved":false,"is_disabled":false,"rental_uris":{"android":"levelo://app?vid=1ae5b373-3345-420e-a7d7-2ee0f0e1ace7","ios":"levelo://app?vid=1ae5b373-3345-420e-a7d7-2ee0f0e1ace7"},"vehicle_type_id":"4","last_reported":1713852599,"current_range_meters":25200,"station_id":"ce4bhb12rcd13ifvqel0","pricing_plan_id":"cebpf4jnsgd1na2vs0mg"},{"bike_id":"fdf103d3-19e6-4467-8acc-7565ab271e21","system_id":"levelo_inurba_marseille","lat":43.309038,"lon":5.396546,"is_reserved":false,"is_disabled":false,"rental_uris":{"android":"levelo://app?vid=fdf103d3-19e6-4467-8acc-7565ab271e21","ios":"levelo://app?vid=fdf103d3-19e6-4467-8acc-7565ab271e21"},"vehicle_type_id":"4","last_reported":1713852599,"current_range_meters":30000,"station_id":"ce4bh012rcd13ifvqcv0","pricing_plan_id":"cebpf4jnsgd1na2vs0mg"},{"bike_id":"b144b4d4-02cf-4f13-87fa-f46fd2719858","system_id":"levelo_inurba_marseille","lat":43.292005,"lon":5.357875,"is_reserved":false,"is_disabled":false,"rental_uris":{"android":"levelo://app?vid=b144b4d4-02cf-4f13-87fa-f46fd2719858","ios":"levelo://app?vid=b144b4d4-02cf-4f13-87fa-f46fd2719858"},"vehicle_type_id":"4","last_reported":1713852599,"current_range_meters":31200,"station_id":"ce4bhb12rcd13ifvqel0","pricing_plan_id":"cebpf4jnsgd1na2vs0mg"},{"bike_id":"56f9d725-c5b0-4496-b839-4d07b3cdbc31","system_id":"levelo_inurba_marseille","lat":43.292005,"lon":5.357875,"is_reserved":false,"is_disabled":false,"rental_uris":{"android":"levelo://app?vid=56f9d725-c5b0-4496-b839-4d07b3cdbc31","ios":"levelo://app?vid=56f9d725-c5b0-4496-b839-4d07b3cdbc31"},"vehicle_type_id":"4","last_reported":1713852599,"current_range_meters":29600,"station_id":"ce4bhb12rcd13ifvqel0","pricing_plan_id":"cebpf4jnsgd1na2vs0mg"},{"bike_id":"6d7957f9-6081-4889-a3d2-ee9265a636e3","system_id":"levelo_inurba_marseille","lat":43.291994,"lon":5.357886,"is_reserved":false,"is_disabled":false,"rental_uris":{"android":"levelo://app?vid=6d7957f9-6081-4889-a3d2-ee9265a636e3","ios":"levelo://app?vid=6d7957f9-6081-4889-a3d2-ee9265a636e3"},"vehicle_type_id":"4","last_reported":1713852599,"current_range_meters":32000,"station_id":"ce4bhb12rcd13ifvqel0","pricing_plan_id":"cebpf4jnsgd1na2vs0mg"},{"bike_id":"d56092db-a2b7-4ec8-b761-a121f686aaaa","system_id":"levelo_inurba_marseille","lat":43.309038,"lon":5.396546,"is_reserved":false,"is_disabled":false,"rental_uris":{"android":"levelo://app?vid=d56092db-a2b7-4ec8-b761-a121f686aaaa","ios":"levelo://app?vid=d56092db-a2b7-4ec8-b761-a121f686aaaa"},"vehicle_type_id":"4","last_reported":1713852599,"current_range_meters":15600,"station_id":"ce4bh012rcd13ifvqcv0","pricing_plan_id":"cebpf4jnsgd1na2vs0mg"},{"bike_id":"6efce0b7-a6e5-4e3f-90d6-0a45b465c914","system_id":"levelo_inurba_marseille","lat":43.309038,"lon":5.396546,"is_reserved":false,"is_disabled":false,"rental_uris":{"android":"levelo://app?vid=6efce0b7-a6e5-4e3f-90d6-0a45b465c914","ios":"levelo://app?vid=6efce0b7-a6e5-4e3f-90d6-0a45b465c914"},"vehicle_type_id":"4","last_reported":1713852599,"current_range_meters":30000,"station_id":"ce4bh012rcd13ifvqcv0","pricing_plan_id":"cebpf4jnsgd1na2vs0mg"},{"bike_id":"be52dea2-2b28-4a45-a82b-d227d8d76c64","system_id":"levelo_inurba_marseille","lat":43.309038,"lon":5.396546,"is_reserved":false,"is_disabled":false,"rental_uris":{"android":"levelo://app?vid=be52dea2-2b28-4a45-a82b-d227d8d76c64","ios":"levelo://app?vid=be52dea2-2b28-4a45-a82b-d227d8d76c64"},"vehicle_type_id":"4","last_reported":1713852599,"current_range_meters":24800,"station_id":"ce4bh012rcd13ifvqcv0","pricing_plan_id":"cebpf4jnsgd1na2vs0mg"},