{"last_updated":1702901616,"ttl":30,"version":"2.2","data":{"bikes":[{"bike_id":"b5000af6-8590-4a2a-8cad-b991eba8b864","system_id":"levelo_inurba_marseille","lat":43.313391,"lon":5.36706,"is_reserved":false,"is_disabled":false,"rental_uris":{"android":"levelo://app?vid=b5000af6-8590-4a2a-8cad-b991eba8b864","ios":"levelo://app?vid=b5000af6-8590-4a2a-8cad-b991eba8b864"},"vehicle_type_id":"4","last_reported":1702901616,"current_range_meters":22000,"station_id":"ce4bgr92rcd13ifvqc6g","pricing_plan_id":"free"},{"bike_id":"41070b6f-d8cc-4e8c-bc9d-79716b5b1159","system_id":"levelo_inurba_marseille","lat":43.31341,"lon":5.367098,"is_reserved":false,"is_disabled":false,"rental_uris":{"android":"levelo://app?vid=41070b6f-d8cc-4e8c-bc9d-79716b5b1159","ios":"levelo://app?vid=41070b6f-d8cc-4e8c-bc9d-79716b5b1159"},"vehicle_type_id":"4","last_reported":1702901616,"current_range_meters":21600,"station_id":"ce4bgr92rcd13ifvqc6g","pricing_plan_id":"free"},{"bike_id":"e223c69a-1d61-4a03-811f-5db9cad1005b","system_id":"levelo_inurba_marseille","lat":43.31341,"lon":5.367098,"is_reserved":false,"is_disabled":false,"rental_uris":{"android":"levelo://app?vid=e223c69a-1d61-4a03-811f-5db9cad1005b","ios":"levelo://app?vid=e223c69a-1d61-4a03-811f-5db9cad1005b"},"vehicle_type_id":"4","last_reported":1702901616,"current_range_meters":31600,"station_id":"ce4bgr92rcd13ifvqc6g","pricing_plan_id":"free"},{"bike_id":"4fc9f832-7db8-4188-af64-2e5c98dde42e","system_id":"levelo_inurba_marseille","lat":43.313391,"lon":5.36706,"is_reserved":false,"is_disabled":false,"rental_uris":{"android":"levelo://app?vid=4fc9f832-7db8-4188-af64-2e5c98dde42e","ios":"levelo://app?vid=4fc9f832-7db8-4188-af64-2e5c98dde42e"},"vehicle_type_id":"4","last_reported":1702901616,"current_range_meters":30400,"station_id":"ce4bgr92rcd13ifvqc6g","pricing_plan_id":"free"},{"bike_id":"b9e387d8-18f5-443a-b524-a9bc938b3c3c","system_id":"levelo_inurba_marseille","lat":43.31358,"lon":5.36718,"is_reserved":false,"is_disabled":false,"rental_uris":{"android":"levelo://app?vid=b9e387d8-18f5-443a-b524-a9bc938b3c3c","ios":"levelo://app?vid=b9e387d8-18f5-443a-b524-a9bc938b3c3c"},"vehicle_type_id":"4","last_reported":1702901616,"current_range_meters":22400,"station_id":"ce4bgr92rcd13ifvqc6g","pricing_plan_id":"free"},{"bike_id":"2a35484a-0926-4daa-abd1-ee8694286426","system_id":"levelo_inurba_marseille","lat":43.31341,"lon":5.367098,"is_reserved":false,"is_disabled":false,"rental_uris":{"android":"levelo://app?vid=2a35484a-0926-4daa-abd1-ee8694286426","ios":"levelo://app?vid=2a35484a-0926-4daa-abd1-ee8694286426"},"vehicle_type_id":"4","last_reported":1702901616,"current_range_meters":22400,"station_id":"ce4bgr92rcd13ifvqc6g","pricing_plan_id":"free"},{"bike_id":"19d38c64-1f80-4241-ae3f-24cc0f2bed28","system_id":"levelo_inurba_marseille","lat":43.31341,"lon":5.367098,"is_reserved":false,"is_disabled":false,"rental_uris":{"android":"levelo://app?vid=19d38c64-1f80-4241-ae3f-24cc0f2bed28","ios":"levelo://app?vid=19d38c64-1f80-4241-ae3f-24cc0f2bed28"},"vehicle_type_id":"4","last_reported":1702901616,"current_range_meters":19600,"station_id":"ce4bgr92rcd13ifvqc6g","pricing_plan_id":"free"},{"bike_id":"22041a00-c209-485e-b261-f69ee9cb67b3","system_id":"levelo_inurba_marseille","lat":43.312239,"lon":5.368562,"is_reserved":false,"is_disabled":false,"rental_uris":{"android":"levelo://app?vid=22041a00-c209-485e-b261-f69ee9cb67b3","ios":"levelo://app?vid=22041a00-c209-485e-b261-f69ee9cb67b3"},"vehicle_type_id":"4","last_reported":1702901616,"current_range_meters":24800,"station_id":"ce4bgl92rcd13ifvqbq0","pricing_plan_id":"free"},{"bike_id":"01d70f39-5032-4183-a483-d8f8ab4cc9ec","system_id":"levelo_inurba_marseille","lat":43.312239,"lon":5.368562,"is_reserved":false,"is_disabled":false,"rental_uris":{"android":"levelo://app?vid=01d70f39-5032-4183-a483-d8f8ab4cc9ec","ios":"levelo://app?vid=01d70f39-5032-4183-a483-d8f8ab4cc9ec"},"vehicle_type_id":"4","last_reported":1702901616,"current_range_meters":15200,"station_id":"ce4bgl92rcd13ifvqbq0","pricing_plan_id":"free"},{"bike_id":"47726aa0-e745-4d9c-9908-3d4ddab2a909","system_id":"levelo_inurba_marseille","lat":43.309076,"lon":5.368465,"is_reserved":false,"is_disabled":false,"rental_uris":{"android":"levelo://app?vid=47726aa0-e745-4d9c-9908-3d4ddab2a909","ios":"levelo://app?vid=47726aa0-e745-4d9c-9908-3d4ddab2a909"},"vehicle_type_id":"4","last_reported":1702901616,"current_range_meters":31600,"station_id":"ce4bgn92rcd13ifvqbvg","pricing_plan_id":"free"},{"bike_id":"17518c11-9ff9-4e3b-8858-32d744eb9e16","system_id":"levelo_inurba_marseille","lat":43.309076,"lon":5.368465,"is_reserved":false,"is_disabled":false,"rental_uris":{"android":"levelo://app?vid=17518c11-9ff9-4e3b-8858-32d744eb9e16","ios":"levelo://app?vid=17518c11-9ff9-4e3b-8858-32d744eb9e16"},"vehicle_type_id":"4","last_reported":1702901616,"current_range_meters":31200,"station_id":"ce4bgn92rcd13ifvqbvg","pricing_plan_id":"free"},{"bike_id":"b68c4dbf-fd47-480a-bc56-568c1ee4f600","system_id":"levelo_inurba_marseille","lat":43.309076,"lon":5.368465,"is_reserved":false,"is_disabled":false,"rental_uris":{"android":"levelo://app?vid=b68c4dbf-fd47-480a-bc56-568c1ee4f600","ios":"levelo://app?vid=b68c4dbf-fd47-480a-bc56-568c1ee4f600"},"vehicle_type_id":"4","last_reported":1702901616,"current_range_meters":18400,"station_id":"ce4bgn92rcd13ifvqbvg","pricing_plan_id":"free"},{"bike_id":"97feb4a9-95f3-4623-b18e-e01b976c3eff","system_id":"levelo_inurba_marseille","lat":43.309039,"lon":5.371797,"is_reserved":false,"is_disabled":false,"rental_uris":{"android":"levelo://app?vid=97feb4a9-95f3-4623-b18e-e01b976c3eff","ios":"levelo://app?vid=97feb4a9-95f3-4623-b18e-e01b976c3eff"},"vehicle_type_id":"4","last_reported":1702901616,"current_range_meters":28000,"station_id":"ce4bguh2rcd13ifvqckg","pricing_plan_id":"free"},{"bike_id":"f5243271-d4dd-4b90-86d9-af9cbf375878","system_id":"levelo_inurba_marseille","lat":43.30542,"lon":5.36709,"is_reserved":false,"is_disabled":false,"rental_uris":{"android":"levelo://app?vid=f5243271-d4dd-4b90-86d9-af9cbf375878","ios":"levelo://app?vid=f5243271-d4dd-4b90-86d9-af9cbf375878"},"vehicle_type_id":"4","last_reported":1702901616,"current_range_meters":13600,"station_id":"ce4bgrp2rcd13ifvqc9g","pricing_plan_id":"free"},{"bike_id":"0a2c59a4-aa59-45d6-ab68-83b2fbf98a6f","system_id":"levelo_inurba_marseille","lat":43.305714,"lon":5.365633,"is_reserved":false,"is_disabled":false,"rental_uris":{"android":"levelo://app?vid=0a2c59a4-aa59-45d6-ab68-83b2fbf98a6f","ios":"levelo://app?vid=0a2c59a4-aa59-45d6-ab68-83b2fbf98a6f"},"vehicle_type_id":"4","last_reported":1702901616,"current_range_meters":1200,"station_id":"ce4bgs12rcd13ifvqcag","pricing_plan_id":"free"},{"bike_id":"400a0f05-7d9d-4763-8667-9b632d5bde40","system_id":"levelo_inurba_marseille","lat":43.305706,"lon":5.365654,"is_reserved":false,"is_disabled":false,"rental_uris":{"android":"levelo://app?vid=400a0f05-7d9d-4763-8667-9b632d5bde40","ios":"levelo://app?vid=400a0f05-7d9d-4763-8667-9b632d5bde40"},"vehicle_type_id":"4","last_reported":1702901616,"current_range_meters":15200,"station_id":"ce4bgs12rcd13ifvqcag","pricing_plan_id":"free"},{"bike_id":"955e4ab2-16e5-44e8-a986-a2f50ff96c06","system_id":"levelo_inurba_marseille","lat":43.305382,"lon":5.365389,"is_reserved":false,"is_disabled":false,"rental_uris":{"android":"levelo://app?vid=955e4ab2-16e5-44e8-a986-a2f50ff96c06","ios":"levelo://app?vid=955e4ab2-16e5-44e8-a986-a2f50ff96c06"},"vehicle_type_id":"4","last_reported":1702901616,"current_range_meters":8000,"station_id":"","pricing_plan_id":"free"},{"bike_id":"8b14228e-b765-48fc-8bfb-a82b2e9441d1","system_id":"levelo_inurba_marseille","lat":43.305706,"lon":5.365654,"is_reserved":false,"is_disabled":false,"rental_uris":{"android":"levelo://app?vid=8b14228e-b765-48fc-8bfb-a82b2e9441d1","ios":"levelo://app?vid=8b14228e-b765-48fc-8bfb-a82b2e9441d1"},"vehicle_type_id":"4","last_reported":1702901616,"current_range_meters":23600,"station_id":"ce4bgs12rcd13ifvqcag","pricing_plan_id":"free"},{"bike_id":"3644b26c-bab2-4e31-8ce9-ddf01a8eb439","system_id":"levelo_inurba_marseille","lat":43.305706,"lon":5.365654,"is_reserved":false,"is_disabled":false,"rental_uris":{"android":"levelo://app?vid=3644b26c-bab2-4e31-8ce9-ddf01a8eb439","ios":"levelo://app?vid=3644b26c-bab2-4e31-8ce9-ddf01a8eb439"},"vehicle_type_id":"4","last_reported":1702901616,"current_range_meters":2000,"station_id":"ce4bgs12rcd13ifvqcag","pricing_plan_id":"free"},{"bike_id":"05fa78bb-31b8-4484-a9b9-352b2251b854","system_id":"levelo_inurba_marseille","lat":43.305706,"lon":5.365654,"is_reserved":false,"is_disabled":false,"rental_uris":{"android":"levelo://app?vid=05fa78bb-31b8-4484-a9b9-352b2251b854","ios":"levelo://app?vid=05fa78bb-31b8-4484-a9b9-352b2251b854"},"vehicle_type_id":"4","last_reported":1702901616,"current_range_meters":31600,"station_id":"ce4bgs12rcd13ifvqcag","pricing_plan_id":"free"},{"bike_id":"c546a0d4-0a81-4258-8f26-1e2ff49527fb","system_id":"levelo_inurba_marseille","lat":43.305989,"lon":5.37225,"is_reserved":false,"is_disabled":false,"rental_uris":{"android":"levelo://app?vid=c546a0d4-0a81-4258-8f26-1e2ff49527fb","ios":"levelo://app?vid=c546a0d4-0a81-4258-8f26-1e2ff49527fb"},"vehicle_type_id":"4","last_reported":1702901616,"current_range_meters":6000,"station_id":"ce4bgqh2rcd13ifvqc4g","pricing_plan_id":"free"},{"bike_id":"fe91fb61-80ce-4b34-b8cb-d1f11505aa53","system_id":"levelo_inurba_marseille","lat":43.31113,"lon":5.37763,"is_reserved":false,"is_disabled":false,"rental_uris":{"android":"levelo://app?vid=fe91fb61-80ce-4b34-b8cb-d1f11505aa53","ios":"levelo://app?vid=fe91fb61-80ce-4b34-b8cb-d1f11505aa53"},"vehicle_type_id":"4","last_reported":1702901616,"current_range_meters":16000,"station_id":"ce4bgt92rcd13ifvqcg0","pricing_plan_id":"free"},{"bike_id":"f845128f-13fd-450d-911c-c17198a8712f","system_id":"levelo_inurba_marseille","lat":43.317075,"lon":5.377367,"is_reserved":false,"is_disabled":false,"rental_uris":{"android":"levelo://app?vid=f845128f-13fd-450d-911c-c17198a8712f","ios":"levelo://app?vid=f845128f-13fd-450d-911c-c17198a8712f"},"vehicle_type_id":"4","last_reported":1702901616,"current_range_meters":28400,"station_id":"ce4bgth2rcd13ifvqch0","pricing_plan_id":"free"},{"bike_id":"d266ace8-093e-431d-9f9a-282349f74109","system_id":"levelo_inurba_marseille","lat":43.301939,"lon":5.366286,"is_reserved":false,"is_disabled":false,"rental_uris":{"android":"levelo://app?vid=d266ace8-093e-431d-9f9a-282349f74109","ios":"levelo://app?vid=d266ace8-093e-431d-9f9a-282349f74109"},"vehicle_type_id":"4","last_reported":1702901616,"current_range_meters":22000,"station_id":"ce4bgrh2rcd13ifvqc8g","pricing_plan_id":"free"},{"bike_id":"ad6cdc3c-8e25-46d3-a15f-8f68fbdb7f10","system_id":"levelo_inurba_marseille","lat":43.301939,"lon":5.366286,"is_reserved":false,"is_disabled":false,"rental_uris":{"android":"levelo://app?vid=ad6cdc3c-8e25-46d3-a15f-8f68fbdb7f10","ios":"levelo://app?vid=ad6cdc3c-8e25-46d3-a15f-8f68fbdb7f10"},"vehicle_type_id":"4","last_reported":1702901616,"current_range_meters":23600,"station_id":"ce4bgrh2rcd13ifvqc8g","pricing_plan_id":"free"},{"bike_id":"7badd7f7-c4ef-47d9-a13d-f09f22cfa649","system_id":"levelo_inurba_marseille","lat":43.308012,"lon":5.381511,"is_reserved":false,"is_disabled":false,"rental_uris":{"android":"levelo://app?vid=7badd7f7-c4ef-47d9-a13d-f09f22cfa649","ios":"levelo://app?vid=7badd7f7-c4ef-47d9-a13d-f09f22cfa649"},"vehicle_type_id":"4","last_reported":1702901616,"current_range_meters":19200,"station_id":"ce4bgt12rcd13ifvqce0","pricing_plan_id":"free"},{"bike_id":"ba9dab49-1eda-4166-a246-691b2dd62560","system_id":"levelo_inurba_marseille","lat":43.304606,"lon":5.379026,"is_reserved":false,"is_disabled":false,"rental_uris":{"android":"levelo://app?vid=ba9dab49-1eda-4166-a246-691b2dd62560","ios":"levelo://app?vid=ba9dab49-1eda-4166-a246-691b2dd62560"},"vehicle_type_id":"4","last_reported":1702901616,"current_range_meters":0,"station_id":"ce4bgup2rcd13ifvqcn0","pricing_plan_id":"free"},{"bike_id":"9ef99c8d-7c64-48ba-a739-abe39e51b422","system_id":"levelo_inurba_marseille","lat":43.304606,"lon":5.379026,"is_reserved":false,"is_disabled":false,"rental_uris":{"android":"levelo://app?vid=9ef99c8d-7c64-48ba-a739-abe39e51b422","ios":"levelo://app?vid=9ef99c8d-7c64-48ba-a739-abe39e51b422"},"vehicle_type_id":"4","last_reported":1702901616,"current_range_meters":10000,"station_id":"ce4bgup2rcd13ifvqcn0","pricing_plan_id":"free"},{"bike_id":"8b97c3f1-bb5f-4c4b-bae8-74bcb68230ca","system_id":"levelo_inurba_marseille","lat":43.31071,"lon":5.383329,"is_reserved":false,"is_disabled":false,"rental_uris":{"android":"levelo://app?vid=8b97c3f1-bb5f-4c4b-bae8-74bcb68230ca","ios":"levelo://app?vid=8b97c3f1-bb5f-4c4b-bae8-74bcb68230ca"},"vehicle_type_id":"4","last_reported":1702901616,"current_range_meters":1600,"station_id":"","pricing_plan_id":"free"},{"bike_id":"182138f8-12d8-4c90-9fef-cb2cdbd95e2e","system_id":"levelo_inurba_marseille","lat":43.30143,"lon":5.37415,"is_reserved":false,"is_disabled":false,"rental_uris":{"android":"levelo://app?vid=182138f8-12d8-4c90-9fef-cb2cdbd95e2e","ios":"levelo://app?vid=182138f8-12d8-4c90-9fef-cb2cdbd95e2e"},"vehicle_type_id":"4","last_reported":1702901616,"current_range_meters":28800,"station_id":"ce4bgs92rcd13ifvqcc0","pricing_plan_id":"free"},{"bike_id":"ef157e0f-7f03-4f2a-b5bc-11570eb6b3f8","system_id":"levelo_inurba_marseille","lat":43.31356,"lon":5.38492,"is_reserved":false,"is_disabled":false,"rental_uris":{"android":"levelo://app?vid=ef157e0f-7f03-4f2a-b5bc-11570eb6b3f8","ios":"levelo://app?vid=ef157e0f-7f03-4f2a-b5bc-11570eb6b3f8"},"vehicle_type_id":"4","last_reported":1702901616,"current_range_meters":11600,"station_id":"","pricing_plan_id":"free"},{"bike_id":"819cb438-2e9c-4e0b-902b-5e19ef554d5c","system_id":"levelo_inurba_marseille","lat":43.305491,"lon":5.384284,"is_reserved":false,"is_disabled":false,"rental_uris":{"android":"levelo://app?vid=819cb438-2e9c-4e0b-902b-5e19ef554d5c","ios":"levelo://app?vid=819cb438-2e9c-4e0b-902b-5e19ef554d5c"},"vehicle_type_id":"4","last_reported":1702901616,"current_range_meters":6800,"station_id":"","pricing_plan_id":"free"},{"bike_id":"c4e77394-aef9-4077-b745-e99148625344","system_id":"levelo_inurba_marseille","lat":43.32733,"lon":5.36707,"is_reserved":false,"is_disabled":false,"rental_uris":{"android":"levelo://app?vid=c4e77394-aef9-4077-b745-e99148625344","ios":"levelo://app?vid=c4e77394-aef9-4077-b745-e99148625344"},"vehicle_type_id":"4","last_reported":1702901616,"current_range_meters":15200,"station_id":"","pricing_plan_id":"free"},{"bike_id":"1895694d-c4c4-440b-bbb0-231b4346cfde","system_id":"levelo_inurba_marseille","lat":43.298433,"lon":5.362774,"is_reserved":false,"is_disabled":false,"rental_uris":{"android":"levelo://app?vid=1895694d-c4c4-440b-bbb0-231b4346cfde","ios":"levelo://app?vid=1895694d-c4c4-440b-bbb0-231b4346cfde"},"vehicle_type_id":"4","last_reported":1702901616,"current_range_meters":19200,"station_id":"ce4bgpp2rcd13ifvqc3g","pricing_plan_id":"free"},{"bike_id":"dff10063-7915-4daf-9149-2703e25625a1","system_id":"levelo_inurba_marseille","lat":43.299243,"lon":5.37481,"is_reserved":false,"is_disabled":false,"rental_uris":{"android":"levelo://app?vid=dff10063-7915-4daf-9149-2703e25625a1","ios":"levelo://app?vid=dff10063-7915-4daf-9149-2703e25625a1"},"vehicle_type_id":"4","last_reported":1702901616,"current_range_meters":30400,"station_id":"ce4bgjh2rcd13ifvqbg0","pricing_plan_id":"free"},{"bike_id":"5ab7c4a2-de56-4d11-b0c7-3077b969465c","system_id":"levelo_inurba_marseille","lat":43.299243,"lon":5.374807,"is_reserved":false,"is_disabled":false,"rental_uris":{"android":"levelo://app?vid=5ab7c4a2-de56-4d11-b0c7-3077b969465c","ios":"levelo://app?vid=5ab7c4a2-de56-4d11-b0c7-3077b969465c"},"vehicle_type_id":"4","last_reported":1702901616,"current_range_meters":28000,"station_id":"ce4bgjh2rcd13ifvqbg0","pricing_plan_id":"free"},{"bike_id":"688ede03-2b29-491e-a222-76a13515e41e","system_id":"levelo_inurba_marseille","lat":43.3117,"lon":5.38717,"is_reserved":false,"is_disabled":false,"rental_uris":{"android":"levelo://app?vid=688ede03-2b29-491e-a222-76a13515e41e","ios":"levelo://app?vid=688ede03-2b29-491e-a222-76a13515e41e"},"vehicle_type_id":"4","last_reported":1702901616,"current_range_meters":15600,"station_id":"ce4bgv12rcd13ifvqcp0","pricing_plan_id":"free"},{"bike_id":"3c7305f6-40c1-4035-a966-076741553dbd","system_id":"levelo_inurba_marseille","lat":43.29793,"lon":5.37108,"is_reserved":false,"is_disabled":false,"rental_uris":{"android":"levelo://app?vid=3c7305f6-40c1-4035-a966-076741553dbd","ios":"levelo://app?vid=3c7305f6-40c1-4035-a966-076741553dbd"},"vehicle_type_id":"4","last_reported":1702901616,"current_range_meters":30400,"station_id":"ce4bgop2rcd13ifvqc1g","pricing_plan_id":"free"},{"bike_id":"3737aebe-1cce-415b-8132-94746ed5f00f","system_id":"levelo_inurba_marseille","lat":43.32297,"lon":5.38268,"is_reserved":false,"is_disabled":false,"rental_uris":{"android":"levelo://app?vid=3737aebe-1cce-415b-8132-94746ed5f00f","ios":"levelo://app?vid=3737aebe-1cce-415b-8132-94746ed5f00f"},"vehicle_type_id":"4","last_reported":1702901616,"current_range_meters":0,"station_id":"ce4bhr12rcd13ifvqhqg","pricing_plan_id":"free"},{"bike_id":"c3a7019c-820c-46f3-8dc9-cb91a4b4dfa2","system_id":"levelo_inurba_marseille","lat":43.3283,"lon":5.36686,"is_reserved":false,"is_disabled":false,"rental_uris":{"android":"levelo://app?vid=c3a7019c-820c-46f3-8dc9-cb91a4b4dfa2","ios":"levelo://app?vid=c3a7019c-820c-46f3-8dc9-cb91a4b4dfa2"},"vehicle_type_id":"4","last_reported":1702901616,"current_range_meters":20000,"station_id":"ce4bhs92rcd13ifvqi0g","pricing_plan_id":"free"},{"bike_id":"1c4e0be7-4a56-4d58-8b2f-9899334fc7b6","system_id":"levelo_inurba_marseille","lat":43.328336,"lon":5.366735,"is_reserved":false,"is_disabled":false,"rental_uris":{"android":"levelo://app?vid=1c4e0be7-4a56-4d58-8b2f-9899334fc7b6","ios":"levelo://app?vid=1c4e0be7-4a56-4d58-8b2f-9899334fc7b6"},"vehicle_type_id":"4","last_reported":1702901616,"current_range_meters":21600,"station_id":"ce4bhs92rcd13ifvqi0g","pricing_plan_id":"free"},{"bike_id":"9fcd5b0f-25d6-4793-a340-447e301b5c35","system_id":"levelo_inurba_marseille","lat":43.2968,"lon":5.37291,"is_reserved":false,"is_disabled":false,"rental_uris":{"android":"levelo://app?vid=9fcd5b0f-25d6-4793-a340-447e301b5c35","ios":"levelo://app?vid=9fcd5b0f-25d6-4793-a340-447e301b5c35"},"vehicle_type_id":"4","last_reported":1702901616,"current_range_meters":11200,"station_id":"ce4bgk12rcd13ifvqbj0","pricing_plan_id":"free"},{"bike_id":"b70b9acb-024a-4c73-a32a-62e0181dfe4e","system_id":"levelo_inurba_marseille","lat":43.29573,"lon":5.367355,"is_reserved":false,"is_disabled":false,"rental_uris":{"android":"levelo://app?vid=b70b9acb-024a-4c73-a32a-62e0181dfe4e","ios":"levelo://app?vid=b70b9acb-024a-4c73-a32a-62e0181dfe4e"},"vehicle_type_id":"4","last_reported":1702901616,"current_range_meters":5200,"station_id":"ce4bgph2rcd13ifvqc2g","pricing_plan_id":"free"},{"bike_id":"6f57b297-196a-4540-a0d8-8bca873ef3db","system_id":"levelo_inurba_marseille","lat":43.296921,"lon":5.376579,"is_reserved":false,"is_disabled":false,"rental_uris":{"android":"levelo://app?vid=6f57b297-196a-4540-a0d8-8bca873ef3db","ios":"levelo://app?vid=6f57b297-196a-4540-a0d8-8bca873ef3db"},"vehicle_type_id":"4","last_reported":1702901616,"current_range_meters":29200,"station_id":"ce4bgkh2rcd13ifvqbl0","pricing_plan_id":"free"},{"bike_id":"055d0139-5e5a-40a6-90f7-34e5427b55cb","system_id":"levelo_inurba_marseille","lat":43.296921,"lon":5.376579,"is_reserved":false,"is_disabled":false,"rental_uris":{"android":"levelo://app?vid=055d0139-5e5a-40a6-90f7-34e5427b55cb","ios":"levelo://app?vid=055d0139-5e5a-40a6-90f7-34e5427b55cb"},"vehicle_type_id":"4","last_reported":1702901616,"current_range_meters":30800,"station_id":"ce4bgkh2rcd13ifvqbl0","pricing_plan_id":"free"},{"bike_id":"883a1f9f-3c39-4851-9790-8d9041739437","system_id":"levelo_inurba_marseille","lat":43.309589,"lon":5.390258,"is_reserved":false,"is_disabled":false,"rental_uris":{"android":"levelo://app?vid=883a1f9f-3c39-4851-9790-8d9041739437","ios":"levelo://app?vid=883a1f9f-3c39-4851-9790-8d9041739437"},"vehicle_type_id":"4","last_reported":1702901616,"current_range_meters":15600,"station_id":"ce4bgup2rcd13ifvqco0","pricing_plan_id":"free"},{"bike_id":"601ce47a-a9be-49c8-8a84-b5fc4b12357e","system_id":"levelo_inurba_marseille","lat":43.29797,"lon":5.381,"is_reserved":false,"is_disabled":false,"rental_uris":{"android":"levelo://app?vid=601ce47a-a9be-49c8-8a84-b5fc4b12357e","ios":"levelo://app?vid=601ce47a-a9be-49c8-8a84-b5fc4b12357e"},"vehicle_type_id":"4","last_reported":1702901616,"current_range_meters":26800,"station_id":"ce4bgip2rcd13ifvqbb0","pricing_plan_id":"free"},{"bike_id":"ad91892f-79b5-4e2f-8c6a-ba07f9e00b71","system_id":"levelo_inurba_marseille","lat":43.29796,"lon":5.38106,"is_reserved":false,"is_disabled":false,"rental_uris":{"android":"levelo://app?vid=ad91892f-79b5-4e2f-8c6a-ba07f9e00b71","ios":"levelo://app?vid=ad91892f-79b5-4e2f-8c6a-ba07f9e00b71"},"vehicle_type_id":"4","last_reported":1702901616,"current_range_meters":28000,"station_id":"ce4bgip2rcd13ifvqbb0","pricing_plan_id":"free"},{"bike_id":"79d348c5-9ae5-4453-87a8-686c84d47989","system_id":"levelo_inurba_marseille","lat":43.295748,"lon":5.37522,"is_reserved":false,"is_disabled":false,"rental_uris":{"android":"levelo://app?vid=79d348c5-9ae5-4453-87a8-686c84d47989","ios":"levelo://app?vid=79d348c5-9ae5-4453-87a8-686c84d47989"},"vehicle_type_id":"4","last_reported":1702901616,"current_range_meters":28400,"station_id":"ce4bgh92rcd13ifvqb50","pricing_plan_id":"free"},{"bike_id":"b4ab74b0-700e-4853-8eba-1ce23b7abcfd","system_id":"levelo_inurba_marseille","lat":43.29788,"lon":5.38103,"is_reserved":false,"is_disabled":false,"rental_uris":{"android":"levelo://app?vid=b4ab74b0-700e-4853-8eba-1ce23b7abcfd","ios":"levelo://app?vid=b4ab74b0-700e-4853-8eba-1ce23b7abcfd"},"vehicle_type_id":"4","last_reported":1702901616,"current_range_meters":19200,"station_id":"ce4bgip2rcd13ifvqbb0","pricing_plan_id":"free"},{"bike_id":"3b79c512-5827-45d6-9922-6e62c2766455","system_id":"levelo_inurba_marseille","lat":43.29787,"lon":5.38104,"is_reserved":false,"is_disabled":false,"rental_uris":{"android":"levelo://app?vid=3b79c512-5827-45d6-9922-6e62c2766455","ios":"levelo://app?vid=3b79c512-5827-45d6-9922-6e62c2766455"},"vehicle_type_id":"4","last_reported":1702901616,"current_range_meters":26800,"station_id":"ce4bgip2rcd13ifvqbb0","pricing_plan_id":"free"},{"bike_id":"a58457d2-793d-4290-9a60-d1638b6d4828","system_id":"levelo_inurba_marseille","lat":43.297836,"lon":5.381081,"is_reserved":false,"is_disabled":false,"rental_uris":{"android":"levelo://app?vid=a58457d2-793d-4290-9a60-d1638b6d4828","ios":"levelo://app?vid=a58457d2-793d-4290-9a60-d1638b6d4828"},"vehicle_type_id":"4","last_reported":1702901616,"current_range_meters":8400,"station_id":"","pricing_plan_id":"free"},{"bike_id":"3fdb361e-158c-43a4-b677-9e6478e5645a","system_id":"levelo_inurba_marseille","lat":43.299707,"lon":5.384859,"is_reserved":false,"is_disabled":false,"rental_uris":{"android":"levelo://app?vid=3fdb361e-158c-43a4-b677-9e6478e5645a","ios":"levelo://app?vid=3fdb361e-158c-43a4-b677-9e6478e5645a"},"vehicle_type_id":"4","last_reported":1702901616,"current_range_meters":30000,"station_id":"ce4bgj92rcd13ifvqbd0","pricing_plan_id":"free"},{"bike_id":"ad04f84b-ae55-4dc8-98a9-9cce1a9c70e7","system_id":"levelo_inurba_marseille","lat":43.299707,"lon":5.384859,"is_reserved":false,"is_disabled":false,"rental_uris":{"android":"levelo://app?vid=ad04f84b-ae55-4dc8-98a9-9cce1a9c70e7","ios":"levelo://app?vid=ad04f84b-ae55-4dc8-98a9-9cce1a9c70e7"},"vehicle_type_id":"4","last_reported":1702901616,"current_range_meters":27200,"station_id":"ce4bgj92rcd13ifvqbd0","pricing_plan_id":"free"},{"bike_id":"da349a63-4bdc-416b-9f26-a9b449753f94","system_id":"levelo_inurba_marseille","lat":43.2997,"lon":5.385,"is_reserved":false,"is_disabled":false,"rental_uris":{"android":"levelo://app?vid=da349a63-4bdc-416b-9f26-a9b449753f94","ios":"levelo://app?vid=da349a63-4bdc-416b-9f26-a9b449753f94"},"vehicle_type_id":"4","last_reported":1702901616,"current_range_meters":25600,"station_id":"ce4bgj92rcd13ifvqbd0","pricing_plan_id":"free"},{"bike_id":"894bf720-a004-4a9d-9fb5-dc9cf30967eb","system_id":"levelo_inurba_marseille","lat":43.299724,"lon":5.384848,"is_reserved":false,"is_disabled":false,"rental_uris":{"android":"levelo://app?vid=894bf720-a004-4a9d-9fb5-dc9cf30967eb","ios":"levelo://app?vid=894bf720-a004-4a9d-9fb5-dc9cf30967eb"},"vehicle_type_id":"4","last_reported":1702901616,"current_range_meters":10000,"station_id":"ce4bgj92rcd13ifvqbd0","pricing_plan_id":"free"},{"bike_id":"2fad7ce5-0048-4d38-b1c0-087289073cde","system_id":"levelo_inurba_marseille","lat":43.299724,"lon":5.384848,"is_reserved":false,"is_disabled":false,"rental_uris":{"android":"levelo://app?vid=2fad7ce5-0048-4d38-b1c0-087289073cde","ios":"levelo://app?vid=2fad7ce5-0048-4d38-b1c0-087289073cde"},"vehicle_type_id":"4","last_reported":1702901616,"current_range_meters":12400,"station_id":"ce4bgj92rcd13ifvqbd0","pricing_plan_id":"free"},{"bike_id":"c4f9bc29-7317-49d5-8bdc-66e7c764e3ea","system_id":"levelo_inurba_marseille","lat":43.32367,"lon":5.388836,"is_reserved":false,"is_disabled":false,"rental_uris":{"android":"levelo://app?vid=c4f9bc29-7317-49d5-8bdc-66e7c764e3ea","ios":"levelo://app?vid=c4f9bc29-7317-49d5-8bdc-66e7c764e3ea"},"vehicle_type_id":"4","last_reported":1702901616,"current_range_meters":0,"station_id":"ce4bhqp2rcd13ifvqhog","pricing_plan_id":"free"},{"bike_id":"8837fb0e-fe21-41bb-a093-7f1764105404","system_id":"levelo_inurba_marseille","lat":43.29601,"lon":5.381084,"is_reserved":false,"is_disabled":false,"rental_uris":{"android":"levelo://app?vid=8837fb0e-fe21-41bb-a093-7f1764105404","ios":"levelo://app?vid=8837fb0e-fe21-41bb-a093-7f1764105404"},"vehicle_type_id":"4","last_reported":1702901616,"current_range_meters":0,"station_id":"ce4bgl12rcd13ifvqbo0","pricing_plan_id":"free"},{"bike_id":"2ade7473-2436-4e05-969a-b66ab28892b5","system_id":"levelo_inurba_marseille","lat":43.29601,"lon":5.381084,"is_reserved":false,"is_disabled":false,"rental_uris":{"android":"levelo://app?vid=2ade7473-2436-4e05-969a-b66ab28892b5","ios":"levelo://app?vid=2ade7473-2436-4e05-969a-b66ab28892b5"},"vehicle_type_id":"4","last_reported":1702901616,"current_range_meters":0,"station_id":"ce4bgl12rcd13ifvqbo0","pricing_plan_id":"free"},{"bike_id":"1410cb1c-a39a-4ba7-b4bf-7b6ff5d7b32a","system_id":"levelo_inurba_marseille","lat":43.29305,"lon":5.37456,"is_reserved":false,"is_disabled":false,"rental_uris":{"android":"levelo://app?vid=1410cb1c-a39a-4ba7-b4bf-7b6ff5d7b32a","ios":"levelo://app?vid=1410cb1c-a39a-4ba7-b4bf-7b6ff5d7b32a"},"vehicle_type_id":"4","last_reported":1702901616,"current_range_meters":27200,"station_id":"ce4bgi12rcd13ifvqb70","pricing_plan_id":"free"},{"bike_id":"7e56b56a-9a99-4129-909d-60c90008b8cc","system_id":"levelo_inurba_marseille","lat":43.30602,"lon":5.39361,"is_reserved":false,"is_disabled":false,"rental_uris":{"android":"levelo://app?vid=7e56b56a-9a99-4129-909d-60c90008b8cc","ios":"levelo://app?vid=7e56b56a-9a99-4129-909d-60c90008b8cc"},"vehicle_type_id":"4","last_reported":1702901616,"current_range_meters":0,"station_id":"ce4bh0p2rcd13ifvqd80","pricing_plan_id":"free"},{"bike_id":"cc4beb4e-d666-4ea8-8dd2-adc81bc78504","system_id":"levelo_inurba_marseille","lat":43.293009,"lon":5.374584,"is_reserved":false,"is_disabled":false,"rental_uris":{"android":"levelo://app?vid=cc4beb4e-d666-4ea8-8dd2-adc81bc78504","ios":"levelo://app?vid=cc4beb4e-d666-4ea8-8dd2-adc81bc78504"},"vehicle_type_id":"4","last_reported":1702901616,"current_range_meters":25200,"station_id":"ce4bgi12rcd13ifvqb70","pricing_plan_id":"free"},{"bike_id":"e1c6663d-3f50-4662-9346-cc34d6e07b65","system_id":"levelo_inurba_marseille","lat":43.303002,"lon":5.392142,"is_reserved":false,"is_disabled":false,"rental_uris":{"android":"levelo://app?vid=e1c6663d-3f50-4662-9346-cc34d6e07b65","ios":"levelo://app?vid=e1c6663d-3f50-4662-9346-cc34d6e07b65"},"vehicle_type_id":"4","last_reported":1702901616,"current_range_meters":3600,"station_id":"ce4bgkh2rcd13ifvqbk0","pricing_plan_id":"free"},{"bike_id":"f747611c-87f5-4ad7-a020-29255acecbbe","system_id":"levelo_inurba_marseille","lat":43.29225,"lon":5.36054,"is_reserved":false,"is_disabled":false,"rental_uris":{"android":"levelo://app?vid=f747611c-87f5-4ad7-a020-29255acecbbe","ios":"levelo://app?vid=f747611c-87f5-4ad7-a020-29255acecbbe"},"vehicle_type_id":"4","last_reported":1702901616,"current_range_meters":0,"station_id":"ce4bhbh2rcd13ifvqeqg","pricing_plan_id":"free"},{"bike_id":"d3636c9e-709b-4ee4-8849-ada01e50110e","system_id":"levelo_inurba_marseille","lat":43.293009,"lon":5.374584,"is_reserved":false,"is_disabled":false,"rental_uris":{"android":"levelo://app?vid=d3636c9e-709b-4ee4-8849-ada01e50110e","ios":"levelo://app?vid=d3636c9e-709b-4ee4-8849-ada01e50110e"},"vehicle_type_id":"4","last_reported":1702901616,"current_range_meters":18800,"station_id":"ce4bgi12rcd13ifvqb70","pricing_plan_id":"free"},{"bike_id":"8b5ddacb-caad-47da-a76f-b671d7b34786","system_id":"levelo_inurba_marseille","lat":43.291671,"lon":5.371575,"is_reserved":false,"is_disabled":false,"rental_uris":{"android":"levelo://app?vid=8b5ddacb-caad-47da-a76f-b671d7b34786","ios":"levelo://app?vid=8b5ddacb-caad-47da-a76f-b671d7b34786"},"vehicle_type_id":"4","last_reported":1702901616,"current_range_meters":23600,"station_id":"ce4bha92rcd13ifvqeh0","pricing_plan_id":"free"},{"bike_id":"29387ec5-1c73-4316-9551-18d1dd3f84db","system_id":"levelo_inurba_marseille","lat":43.291994,"lon":5.357886,"is_reserved":false,"is_disabled":false,"rental_uris":{"android":"levelo://app?vid=29387ec5-1c73-4316-9551-18d1dd3f84db","ios":"levelo://app?vid=29387ec5-1c73-4316-9551-18d1dd3f84db"},"vehicle_type_id":"4","last_reported":1702901616,"current_range_meters":20400,"station_id":"ce4bhb12rcd13ifvqel0","pricing_plan_id":"free"},{"bike_id":"d86a7396-4b73-4415-9be2-905ac8e452fc","system_id":"levelo_inurba_marseille","lat":43.309047,"lon":5.396551,"is_reserved":false,"is_disabled":false,"rental_uris":{"android":"levelo://app?vid=d86a7396-4b73-4415-9be2-905ac8e452fc","ios":"levelo://app?vid=d86a7396-4b73-4415-9be2-905ac8e452fc"},"vehicle_type_id":"4","last_reported":1702901616,"current_range_meters":18400,"station_id":"ce4bh012rcd13ifvqcv0","pricing_plan_id":"free"},{"bike_id":"cc6e41df-f179-447a-a3e4-0921c1abcba3","system_id":"levelo_inurba_marseille","lat":43.309038,"lon":5.396546,"is_reserved":false,"is_disabled":false,"rental_uris":{"android":"levelo://app?vid=cc6e41df-f179-447a-a3e4-0921c1abcba3","ios":"levelo://app?vid=cc6e41df-f179-447a-a3e4-0921c1abcba3"},"vehicle_type_id":"4","last_reported":1702901616,"current_range_meters":8800,"station_id":"ce4bh012rcd13ifvqcv0","pricing_plan_id":"free"},{"bike_id":"9d5c61d7-906a-4f92-9d8a-96ed8155f283","system_id":"levelo_inurba_marseille","lat":43.309038,"lon":5.396546,"is_reserved":false,"is_disabled":false,"rental_uris":{"android":"levelo://app?vid=9d5c61d7-906a-4f92-9d8a-96ed8155f283","ios":"levelo://app?vid=9d5c61d7-906a-4f92-9d8a-96ed8155f283"},"vehicle_type_id":"4","last_reported":1702901616,"current_range_meters":0,"station_id":"ce4bh012rcd13ifvqcv0","pricing_plan_id":"free"},{"bike_id":"37f747e4-5e95-43eb-a879-6fe985c6b304","system_id":"levelo_inurba_marseille","lat":43.290779,"lon":5.371482,"is_reserved":false,"is_disabled":false,"rental_uris":{"android":"levelo://app?vid=37f747e4-5e95-43eb-a879-6fe985c6b304","ios":"levelo://app?vid=37f747e4-5e95-43eb-a879-6fe985c6b304"},"vehicle_type_id":"4","last_reported":1702901616,"current_range_meters":25200,"station_id":"ce4bh5p2rcd13ifvqe4g","pricing_plan_id":"free"},{"bike_id":"36c3b337-0eb0-4965-bb18-a139a9db9d13","system_id":"levelo_inurba_marseille","lat":43.290779,"lon":5.371482,"is_reserved":false,"is_disabled":false,"rental_uris":{"android":"levelo://app?vid=36c3b337-0eb0-4965-bb18-a139a9db9d13","ios":"levelo://app?vid=36c3b337-0eb0-4965-bb18-a139a9db9d13"},"vehicle_type_id":"4","last_reported":1702901616,"current_range_meters":26800,"station_id":"ce4bh5p2rcd13ifvqe4g","pricing_plan_id":"free"},{"bike_id":"cacbe3d8-3a7b-4a4b-9c6c-f3731be09096","system_id":"levelo_inurba_marseille","lat":43.302008,"lon":5.394694,"is_reserved":false,"is_disabled":false,"rental_uris":{"android":"levelo://app?vid=cacbe3d8-3a7b-4a4b-9c6c-f3731be09096","ios":"levelo://app?vid=cacbe3d8-3a7b-4a4b-9c6c-f3731be09096"},"vehicle_type_id":"4","last_reported":1702901616,"current_range_meters":12000,"station_id":"ce4bh0p2rcd13ifvqd70","pricing_plan_id":"free"},{"bike_id":"0d091555-f1c1-4c98-b95e-3c0b4ff332d4","system_id":"levelo_inurba_marseille","lat":43.284462,"lon":5.392121,"is_reserved":false,"is_disabled":false,"rental_uris":{"android":"levelo://app?vid=0d091555-f1c1-4c98-b95e-3c0b4ff332d4","ios":"levelo://app?vid=0d091555-f1c1-4c98-b95e-3c0b4ff332d4"},"vehicle_type_id":"4","last_reported":1702901616,"current_range_meters":25600,"station_id":"ce4bhoh2rcd13ifvqh5g","pricing_plan_id":"free"},{"bike_id":"00d53bf4-4386-49ec-ba0d-7155bc37f55a","system_id":"levelo_inurba_marseille","lat":43.294166,"lon":5.386326,"is_reserved":false,"is_disabled":false,"rental_uris":{"android":"levelo://app?vid=00d53bf4-4386-49ec-ba0d-7155bc37f55a","ios":"levelo://app?vid=00d53bf4-4386-49ec-ba0d-7155bc37f55a"},"vehicle_type_id":"4","last_reported":1702901616,"current_range_meters":17200,"station_id":"","pricing_plan_id":"free"},{"bike_id":"fb3171ae-5bc0-4cd4-af5d-76bb74344544","system_id":"levelo_inurba_marseille","lat":43.28949,"lon":5.36389,"is_reserved":false,"is_disabled":false,"rental_uris":{"android":"levelo://app?vid=fb3171ae-5bc0-4cd4-af5d-76bb74344544","ios":"levelo://app?vid=fb3171ae-5bc0-4cd4-af5d-76bb74344544"},"vehicle_type_id":"4","last_reported":1702901616,"current_range_meters":10000,"station_id":"ce4bhc92rcd13ifvqetg","pricing_plan_id":"free"},{"bike_id":"77f39389-bcd3-4d0e-bc2e-6c09aac0799d","system_id":"levelo_inurba_marseille","lat":43.292642,"lon":5.384254,"is_reserved":false,"is_disabled":false,"rental_uris":{"android":"levelo://app?vid=77f39389-bcd3-4d0e-bc2e-6c09aac0799d","ios":"levelo://app?vid=77f39389-bcd3-4d0e-bc2e-6c09aac0799d"},"vehicle_type_id":"4","last_reported":1702901616,"current_range_meters":0,"station_id":"ce4bh692rcd13ifvqea0","pricing_plan_id":"free"},{"bike_id":"755cb2f2-54ba-47a4-8686-d1e6d1320437","system_id":"levelo_inurba_marseille","lat":43.290067,"lon":5.356287,"is_reserved":false,"is_disabled":false,"rental_uris":{"android":"levelo://app?vid=755cb2f2-54ba-47a4-8686-d1e6d1320437","ios":"levelo://app?vid=755cb2f2-54ba-47a4-8686-d1e6d1320437"},"vehicle_type_id":"4","last_reported":1702901616,"current_range_meters":25200,"station_id":"ce4bhb92rcd13ifvqen0","pricing_plan_id":"free"},{"bike_id":"b1045af2-26a0-4931-a155-fbf066d132a2","system_id":"levelo_inurba_marseille","lat":43.290104,"lon":5.356111,"is_reserved":false,"is_disabled":false,"rental_uris":{"android":"levelo://app?vid=b1045af2-26a0-4931-a155-fbf066d132a2","ios":"levelo://app?vid=b1045af2-26a0-4931-a155-fbf066d132a2"},"vehicle_type_id":"4","last_reported":1702901616,"current_range_meters":27200,"station_id":"ce4bhb92rcd13ifvqen0","pricing_plan_id":"free"},{"bike_id":"37f1ce68-f2ba-48fe-971d-a24e67bb0eb6","system_id":"levelo_inurba_marseille","lat":43.290104,"lon":5.356111,"is_reserved":false,"is_disabled":false,"rental_uris":{"android":"levelo://app?vid=37f1ce68-f2ba-48fe-971d-a24e67bb0eb6","ios":"levelo://app?vid=37f1ce68-f2ba-48fe-971d-a24e67bb0eb6"},"vehicle_type_id":"4","last_reported":1702901616,"current_range_meters":19600,"station_id":"ce4bhb92rcd13ifvqen0","pricing_plan_id":"free"},{"bike_id":"092e6ec0-25c6-46fe-ba4d-3a92d1b03330","system_id":"levelo_inurba_marseille","lat":43.290995,"lon":5.381361,"is_reserved":false,"is_disabled":false,"rental_uris":{"android":"levelo://app?vid=092e6ec0-25c6-46fe-ba4d-3a92d1b03330","ios":"levelo://app?vid=092e6ec0-25c6-46fe-ba4d-3a92d1b03330"},"vehicle_type_id":"4","last_reported":1702901616,"current_range_meters":10000,"station_id":"ce4bh512rcd13ifvqe2g","pricing_plan_id":"free"},{"bike_id":"50b13795-79fa-4a07-bc03-972986013486","system_id":"levelo_inurba_marseille","lat":43.289743,"lon":5.378304,"is_reserved":false,"is_disabled":false,"rental_uris":{"android":"levelo://app?vid=50b13795-79fa-4a07-bc03-972986013486","ios":"levelo://app?vid=50b13795-79fa-4a07-bc03-972986013486"},"vehicle_type_id":"4","last_reported":1702901616,"current_range_meters":16800,"station_id":"ce4bh9p2rcd13ifvqed0","pricing_plan_id":"free"},{"bike_id":"9a6684c7-adcc-471e-b650-12aed9952ada","system_id":"levelo_inurba_marseille","lat":43.290094,"lon":5.381264,"is_reserved":false,"is_disabled":false,"rental_uris":{"android":"levelo://app?vid=9a6684c7-adcc-471e-b650-12aed9952ada","ios":"levelo://app?vid=9a6684c7-adcc-471e-b650-12aed9952ada"},"vehicle_type_id":"4","last_reported":1702901616,"current_range_meters":30800,"station_id":"ce4bh4p2rcd13ifvqe1g","pricing_plan_id":"free"},{"bike_id":"0221fc65-d6d3-43b6-8d9e-8aa47390afee","system_id":"levelo_inurba_marseille","lat":43.28851,"lon":5.3584,"is_reserved":false,"is_disabled":false,"rental_uris":{"android":"levelo://app?vid=0221fc65-d6d3-43b6-8d9e-8aa47390afee","ios":"levelo://app?vid=0221fc65-d6d3-43b6-8d9e-8aa47390afee"},"vehicle_type_id":"4","last_reported":1702901616,"current_range_meters":13200,"station_id":"ce4bhb12rcd13ifvqem0","pricing_plan_id":"free"},{"bike_id":"95d7d297-7ff1-4854-a572-143b88cd3598","system_id":"levelo_inurba_marseille","lat":43.30922,"lon":5.40141,"is_reserved":false,"is_disabled":false,"rental_uris":{"android":"levelo://app?vid=95d7d297-7ff1-4854-a572-143b88cd3598","ios":"levelo://app?vid=95d7d297-7ff1-4854-a572-143b88cd3598"},"vehicle_type_id":"4","last_reported":1702901616,"current_range_meters":15200,"station_id":"ce4bgvp2rcd13ifvqct0","pricing_plan_id":"free"},{"bike_id":"fc8d24bb-0c26-4688-9bac-affcc075aa4d","system_id":"levelo_inurba_marseille","lat":43.33758,"lon":5.374706,"is_reserved":false,"is_disabled":false,"rental_uris":{"android":"levelo://app?vid=fc8d24bb-0c26-4688-9bac-affcc075aa4d","ios":"levelo://app?vid=fc8d24bb-0c26-4688-9bac-affcc075aa4d"},"vehicle_type_id":"4","last_reported":1702901616,"current_range_meters":30800,"station_id":"","pricing_plan_id":"free"},{"bike_id":"ef5e9149-dbcc-4b34-95c6-3318c094cee3","system_id":"levelo_inurba_marseille","lat":43.30642,"lon":5.401031,"is_reserved":false,"is_disabled":false,"rental_uris":{"android":"levelo://app?vid=ef5e9149-dbcc-4b34-95c6-3318c094cee3","ios":"levelo://app?vid=ef5e9149-dbcc-4b34-95c6-3318c094cee3"},"vehicle_type_id":"4","last_reported":1702901616,"current_range_meters":21200,"station_id":"ce4bh112rcd13ifvqda0","pricing_plan_id":"free"},{"bike_id":"4f8ce058-3472-42d9-8c0d-fe295efa2539","system_id":"levelo_inurba_marseille","lat":43.30642,"lon":5.401031,"is_reserved":false,"is_disabled":false,"rental_uris":{"android":"levelo://app?vid=4f8ce058-3472-42d9-8c0d-fe295efa2539","ios":"levelo://app?vid=4f8ce058-3472-42d9-8c0d-fe295efa2539"},"vehicle_type_id":"4","last_reported":1702901616,"current_range_meters":5600,"station_id":"ce4bh112rcd13ifvqda0","pricing_plan_id":"free"},{"bike_id":"fd5245cb-9c10-4544-9568-b806914082ea","system_id":"levelo_inurba_marseille","lat":43.30642,"lon":5.401031,"is_reserved":false,"is_disabled":false,"rental_uris":{"android":"levelo://app?vid=fd5245cb-9c10-4544-9568-b806914082ea","ios":"levelo://app?vid=fd5245cb-9c10-4544-9568-b806914082ea"},"vehicle_type_id":"4","last_reported":1702901616,"current_range_meters":5200,"station_id":"ce4bh112rcd13ifvqda0","pricing_plan_id":"free"},{"bike_id":"e3f44868-3bd0-4e91-b097-9c91925dc46b","system_id":"levelo_inurba_marseille","lat":43.3013,"lon":5.39875,"is_reserved":false,"is_disabled":false,"rental_uris":{"android":"levelo://app?vid=e3f44868-3bd0-4e91-b097-9c91925dc46b","ios":"levelo://app?vid=e3f44868-3bd0-4e91-b097-9c91925dc46b"},"vehicle_type_id":"4","last_reported":1702901616,"current_range_meters":1600,"station_id":"ce4bh0h2rcd13ifvqd40","pricing_plan_id":"free"},{"bike_id":"8d2b9de2-ad71-45cc-b4dd-f62c9cdf9aff","system_id":"levelo_inurba_marseille","lat":43.28727,"lon":5.36078,"is_reserved":false,"is_disabled":false,"rental_uris":{"android":"levelo://app?vid=8d2b9de2-ad71-45cc-b4dd-f62c9cdf9aff","ios":"levelo://app?vid=8d2b9de2-ad71-45cc-b4dd-f62c9cdf9aff"},"vehicle_type_id":"4","last_reported":1702901616,"current_range_meters":3600,"station_id":"cki0cbj6b192h4jlfktg","pricing_plan_id":"free"},{"bike_id":"0ceceeda-2265-44a7-abdd-f2629c341760","system_id":"levelo_inurba_marseille","lat":43.295196,"lon":5.39397,"is_reserved":false,"is_disabled":false,"rental_uris":{"android":"levelo://app?vid=0ceceeda-2265-44a7-abdd-f2629c341760","ios":"levelo://app?vid=0ceceeda-2265-44a7-abdd-f2629c341760"},"vehicle_type_id":"4","last_reported":1702901616,"current_range_meters":14000,"station_id":"ce4bh292rcd13ifvqdf0","pricing_plan_id":"free"},{"bike_id":"40e934d6-807d-4b3f-ba7f-277d0802f78c","system_id":"levelo_inurba_marseille","lat":43.286039,"lon":5.370679,"is_reserved":false,"is_disabled":false,"rental_uris":{"android":"levelo://app?vid=40e934d6-807d-4b3f-ba7f-277d0802f78c","ios":"levelo://app?vid=40e934d6-807d-4b3f-ba7f-277d0802f78c"},"vehicle_type_id":"4","last_reported":1702901616,"current_range_meters":26400,"station_id":"ce4bht12rcd13ifvqi60","pricing_plan_id":"free"},{"bike_id":"87ec457e-e14e-4b4b-b230-55f02c5dac1a","system_id":"levelo_inurba_marseille","lat":43.316828,"lon":5.404723,"is_reserved":false,"is_disabled":false,"rental_uris":{"android":"levelo://app?vid=87ec457e-e14e-4b4b-b230-55f02c5dac1a","ios":"levelo://app?vid=87ec457e-e14e-4b4b-b230-55f02c5dac1a"},"vehicle_type_id":"4","last_reported":1702901616,"current_range_meters":0,"station_id":"ce4bh012rcd13ifvqd00","pricing_plan_id":"free"},{"bike_id":"aa1ee429-abab-4b18-bf26-eb900d28aaf6","system_id":"levelo_inurba_marseille","lat":43.284538,"lon":5.358657,"is_reserved":false,"is_disabled":false,"rental_uris":{"android":"levelo://app?vid=aa1ee429-abab-4b18-bf26-eb900d28aaf6","ios":"levelo://app?vid=aa1ee429-abab-4b18-bf26-eb900d28aaf6"},"vehicle_type_id":"4","last_reported":1702901616,"current_range_meters":18800,"station_id":"ce4bhah2rcd13ifvqei0","pricing_plan_id":"free"},{"bike_id":"5a3b30b6-e860-4c31-888b-7818a5d94955","system_id":"levelo_inurba_marseille","lat":43.284538,"lon":5.358657,"is_reserved":false,"is_disabled":false,"rental_uris":{"android":"levelo://app?vid=5a3b30b6-e860-4c31-888b-7818a5d94955","ios":"levelo://app?vid=5a3b30b6-e860-4c31-888b-7818a5d94955"},"vehicle_type_id":"4","last_reported":1702901616,"current_range_meters":20000,"station_id":"ce4bhah2rcd13ifvqei0","pricing_plan_id":"free"},{"bike_id":"08ced7b6-0cd0-45ae-b37c-f7a2bca88cf2","system_id":"levelo_inurba_marseille","lat":43.284538,"lon":5.358657,"is_reserved":false,"is_disabled":false,"rental_uris":{"android":"levelo://app?vid=08ced7b6-0cd0-45ae-b37c-f7a2bca88cf2","ios":"levelo://app?vid=08ced7b6-0cd0-45ae-b37c-f7a2bca88cf2"},"vehicle_type_id":"4","last_reported":1702901616,"current_range_meters":2000,"station_id":"ce4bhah2rcd13ifvqei0","pricing_plan_id":"free"},{"bike_id":"84d42f38-4252-442e-9e49-55f442ca799a","system_id":"levelo_inurba_marseille","lat":43.285856,"lon":5.350771,"is_reserved":false,"is_disabled":false,"rental_uris":{"android":"levelo://app?vid=84d42f38-4252-442e-9e49-55f442ca799a","ios":"levelo://app?vid=84d42f38-4252-442e-9e49-55f442ca799a"},"vehicle_type_id":"4","last_reported":1702901616,"current_range_meters":27600,"station_id":"ce4bhch2rcd13ifvqeug","pricing_plan_id":"free"},{"bike_id":"1ae0bcf0-feff-42fc-8be3-81bf0e360515","system_id":"levelo_inurba_marseille","lat":43.295713,"lon":5.399639,"is_reserved":false,"is_disabled":false,"rental_uris":{"android":"levelo://app?vid=1ae0bcf0-feff-42fc-8be3-81bf0e360515","ios":"levelo://app?vid=1ae0bcf0-feff-42fc-8be3-81bf0e360515"},"vehicle_type_id":"4","last_reported":1702901616,"current_range_meters":13600,"station_id":"ce4bh312rcd13ifvqdj0","pricing_plan_id":"free"},{"bike_id":"bbac6aae-86a0-44b4-bdb5-90fb23fb9cf4","system_id":"levelo_inurba_marseille","lat":43.283998,"lon":5.375062,"is_reserved":false,"is_disabled":false,"rental_uris":{"android":"levelo://app?vid=bbac6aae-86a0-44b4-bdb5-90fb23fb9cf4","ios":"levelo://app?vid=bbac6aae-86a0-44b4-bdb5-90fb23fb9cf4"},"vehicle_type_id":"4","last_reported":1702901616,"current_range_meters":20400,"station_id":"ce4bh412rcd13ifvqds0","pricing_plan_id":"free"},{"bike_id":"2dfa5049-0e1b-4839-b5c3-156910a65dbd","system_id":"levelo_inurba_marseille","lat":43.33218,"lon":5.397067,"is_reserved":false,"is_disabled":false,"rental_uris":{"android":"levelo://app?vid=2dfa5049-0e1b-4839-b5c3-156910a65dbd","ios":"levelo://app?vid=2dfa5049-0e1b-4839-b5c3-156910a65dbd"},"vehicle_type_id":"4","last_reported":1702901616,"current_range_meters":5200,"station_id":"","pricing_plan_id":"free"},{"bike_id":"831e2d4c-5f0e-4ae5-9050-c85672a4a9fb","system_id":"levelo_inurba_marseille","lat":43.319179,"lon":5.407725,"is_reserved":false,"is_disabled":false,"rental_uris":{"android":"levelo://app?vid=831e2d4c-5f0e-4ae5-9050-c85672a4a9fb","ios":"levelo://app?vid=831e2d4c-5f0e-4ae5-9050-c85672a4a9fb"},"vehicle_type_id":"4","last_reported":1702901616,"current_range_meters":27600,"station_id":"ce4bhq12rcd13ifvqhig","pricing_plan_id":"free"},{"bike_id":"d7712de3-f0cd-46af-b706-7fa343bd6e56","system_id":"levelo_inurba_marseille","lat":43.337168,"lon":5.391825,"is_reserved":false,"is_disabled":false,"rental_uris":{"android":"levelo://app?vid=d7712de3-f0cd-46af-b706-7fa343bd6e56","ios":"levelo://app?vid=d7712de3-f0cd-46af-b706-7fa343bd6e56"},"vehicle_type_id":"4","last_reported":1702901616,"current_range_meters":24800,"station_id":"ce4bhr92rcd13ifvqhsg","pricing_plan_id":"free"},{"bike_id":"083043c8-61da-4373-8452-17e26d2c7634","system_id":"levelo_inurba_marseille","lat":43.284793,"lon":5.384119,"is_reserved":false,"is_disabled":false,"rental_uris":{"android":"levelo://app?vid=083043c8-61da-4373-8452-17e26d2c7634","ios":"levelo://app?vid=083043c8-61da-4373-8452-17e26d2c7634"},"vehicle_type_id":"4","last_reported":1702901616,"current_range_meters":22800,"station_id":"ce4bh512rcd13ifvqe3g","pricing_plan_id":"free"},{"bike_id":"c2c21caf-0ab0-4fd1-8066-ba2a005247ff","system_id":"levelo_inurba_marseille","lat":43.29795,"lon":5.404086,"is_reserved":false,"is_disabled":false,"rental_uris":{"android":"levelo://app?vid=c2c21caf-0ab0-4fd1-8066-ba2a005247ff","ios":"levelo://app?vid=c2c21caf-0ab0-4fd1-8066-ba2a005247ff"},"vehicle_type_id":"4","last_reported":1702901616,"current_range_meters":30400,"station_id":"ce4bh112rcd13ifvqd90","pricing_plan_id":"free"},{"bike_id":"cccdd609-6c58-4a96-b1f4-84617f5ff249","system_id":"levelo_inurba_marseille","lat":43.288501,"lon":5.393087,"is_reserved":false,"is_disabled":false,"rental_uris":{"android":"levelo://app?vid=cccdd609-6c58-4a96-b1f4-84617f5ff249","ios":"levelo://app?vid=cccdd609-6c58-4a96-b1f4-84617f5ff249"},"vehicle_type_id":"4","last_reported":1702901616,"current_range_meters":10800,"station_id":"ce4bh2p2rcd13ifvqdi0","pricing_plan_id":"free"},{"bike_id":"4750a7db-0b58-45be-b2a6-7f7ae8d3db56","system_id":"levelo_inurba_marseille","lat":43.284219,"lon":5.3497,"is_reserved":false,"is_disabled":false,"rental_uris":{"android":"levelo://app?vid=4750a7db-0b58-45be-b2a6-7f7ae8d3db56","ios":"levelo://app?vid=4750a7db-0b58-45be-b2a6-7f7ae8d3db56"},"vehicle_type_id":"4","last_reported":1702901616,"current_range_meters":18000,"station_id":"ce4bhbh2rcd13ifvqepg","pricing_plan_id":"free"},{"bike_id":"da266b58-db63-459d-9a74-74f999cb30b3","system_id":"levelo_inurba_marseille","lat":43.283498,"lon":5.380948,"is_reserved":false,"is_disabled":false,"rental_uris":{"android":"levelo://app?vid=da266b58-db63-459d-9a74-74f999cb30b3","ios":"levelo://app?vid=da266b58-db63-459d-9a74-74f999cb30b3"},"vehicle_type_id":"4","last_reported":1702901616,"current_range_meters":13600,"station_id":"ce4bh412rcd13ifvqdr0","pricing_plan_id":"free"},{"bike_id":"1a23e290-f5d2-46d4-8f68-0532ce140f03","system_id":"levelo_inurba_marseille","lat":43.284219,"lon":5.3497,"is_reserved":false,"is_disabled":false,"rental_uris":{"android":"levelo://app?vid=1a23e290-f5d2-46d4-8f68-0532ce140f03","ios":"levelo://app?vid=1a23e290-f5d2-46d4-8f68-0532ce140f03"},"vehicle_type_id":"4","last_reported":1702901616,"current_range_meters":13200,"station_id":"ce4bhbh2rcd13ifvqepg","pricing_plan_id":"free"},{"bike_id":"1c096ec0-5471-4197-ab62-ffa18c311bc5","system_id":"levelo_inurba_marseille","lat":43.306412,"lon":5.401035,"is_reserved":false,"is_disabled":false,"rental_uris":{"android":"levelo://app?vid=1c096ec0-5471-4197-ab62-ffa18c311bc5","ios":"levelo://app?vid=1c096ec0-5471-4197-ab62-ffa18c311bc5"},"vehicle_type_id":"4","last_reported":1702901616,"current_range_meters":27200,"station_id":"ce4bh112rcd13ifvqda0","pricing_plan_id":"free"},{"bike_id":"9153737e-99e5-496e-b061-56c0c7aead41","system_id":"levelo_inurba_marseille","lat":43.282744,"lon":5.350533,"is_reserved":false,"is_disabled":false,"rental_uris":{"android":"levelo://app?vid=9153737e-99e5-496e-b061-56c0c7aead41","ios":"levelo://app?vid=9153737e-99e5-496e-b061-56c0c7aead41"},"vehicle_type_id":"4","last_reported":1702901616,"current_range_meters":26400,"station_id":"ce4bhbp2rcd13ifvqerg","pricing_plan_id":"free"},{"bike_id":"b51e4b6b-2b53-4ac4-af43-8967e1ed67c2","system_id":"levelo_inurba_marseille","lat":43.282754,"lon":5.350519,"is_reserved":false,"is_disabled":false,"rental_uris":{"android":"levelo://app?vid=b51e4b6b-2b53-4ac4-af43-8967e1ed67c2","ios":"levelo://app?vid=b51e4b6b-2b53-4ac4-af43-8967e1ed67c2"},"vehicle_type_id":"4","last_reported":1702901616,"current_range_meters":13600,"station_id":"ce4bhbp2rcd13ifvqerg","pricing_plan_id":"free"},{"bike_id":"f33a8310-1c14-4b8e-8352-76e4bd257b95","system_id":"levelo_inurba_marseille","lat":43.283502,"lon":5.386471,"is_reserved":false,"is_disabled":false,"rental_uris":{"android":"levelo://app?vid=f33a8310-1c14-4b8e-8352-76e4bd257b95","ios":"levelo://app?vid=f33a8310-1c14-4b8e-8352-76e4bd257b95"},"vehicle_type_id":"4","last_reported":1702901616,"current_range_meters":9200,"station_id":"ce4bh492rcd13ifvqdvg","pricing_plan_id":"free"},{"bike_id":"836f3013-eb69-498b-9e67-ba4b54387cbe","system_id":"levelo_inurba_marseille","lat":43.283502,"lon":5.386471,"is_reserved":false,"is_disabled":false,"rental_uris":{"android":"levelo://app?vid=836f3013-eb69-498b-9e67-ba4b54387cbe","ios":"levelo://app?vid=836f3013-eb69-498b-9e67-ba4b54387cbe"},"vehicle_type_id":"4","last_reported":1702901616,"current_range_meters":22800,"station_id":"ce4bh492rcd13ifvqdvg","pricing_plan_id":"free"},{"bike_id":"6cce8977-6c91-4a22-94b6-8a1e134c1534","system_id":"levelo_inurba_marseille","lat":43.282744,"lon":5.350533,"is_reserved":false,"is_disabled":false,"rental_uris":{"android":"levelo://app?vid=6cce8977-6c91-4a22-94b6-8a1e134c1534","ios":"levelo://app?vid=6cce8977-6c91-4a22-94b6-8a1e134c1534"},"vehicle_type_id":"4","last_reported":1702901616,"current_range_meters":20400,"station_id":"ce4bhbp2rcd13ifvqerg","pricing_plan_id":"free"},{"bike_id":"20e00828-4b78-4bbf-b240-5f6ab4edb46b","system_id":"levelo_inurba_marseille","lat":43.2804,"lon":5.36942,"is_reserved":false,"is_disabled":false,"rental_uris":{"android":"levelo://app?vid=20e00828-4b78-4bbf-b240-5f6ab4edb46b","ios":"levelo://app?vid=20e00828-4b78-4bbf-b240-5f6ab4edb46b"},"vehicle_type_id":"4","last_reported":1702901616,"current_range_meters":3200,"station_id":"ce4bha12rcd13ifvqef0","pricing_plan_id":"free"},{"bike_id":"8e7581a4-bee5-4330-a11e-65db4a112dd2","system_id":"levelo_inurba_marseille","lat":43.280382,"lon":5.369291,"is_reserved":false,"is_disabled":false,"rental_uris":{"android":"levelo://app?vid=8e7581a4-bee5-4330-a11e-65db4a112dd2","ios":"levelo://app?vid=8e7581a4-bee5-4330-a11e-65db4a112dd2"},"vehicle_type_id":"4","last_reported":1702901616,"current_range_meters":18400,"station_id":"ce4bha12rcd13ifvqef0","pricing_plan_id":"free"},{"bike_id":"305a7d37-3656-43c9-bd2d-11c88a837744","system_id":"levelo_inurba_marseille","lat":43.283502,"lon":5.386471,"is_reserved":false,"is_disabled":false,"rental_uris":{"android":"levelo://app?vid=305a7d37-3656-43c9-bd2d-11c88a837744","ios":"levelo://app?vid=305a7d37-3656-43c9-bd2d-11c88a837744"},"vehicle_type_id":"4","last_reported":1702901616,"current_range_meters":10800,"station_id":"ce4bh492rcd13ifvqdvg","pricing_plan_id":"free"},{"bike_id":"f6a3c2d6-8496-4ace-aa91-5c36ceb7f3b1","system_id":"levelo_inurba_marseille","lat":43.29041,"lon":5.399634,"is_reserved":false,"is_disabled":false,"rental_uris":{"android":"levelo://app?vid=f6a3c2d6-8496-4ace-aa91-5c36ceb7f3b1","ios":"levelo://app?vid=f6a3c2d6-8496-4ace-aa91-5c36ceb7f3b1"},"vehicle_type_id":"4","last_reported":1702901616,"current_range_meters":0,"station_id":"ce4bh392rcd13ifvqdm0","pricing_plan_id":"free"},{"bike_id":"0b0fd667-498c-4d9e-b24c-785d18d8166e","system_id":"levelo_inurba_marseille","lat":43.281044,"lon":5.378308,"is_reserved":false,"is_disabled":false,"rental_uris":{"android":"levelo://app?vid=0b0fd667-498c-4d9e-b24c-785d18d8166e","ios":"levelo://app?vid=0b0fd667-498c-4d9e-b24c-785d18d8166e"},"vehicle_type_id":"4","last_reported":1702901616,"current_range_meters":27600,"station_id":"ce4bha12rcd13ifvqee0","pricing_plan_id":"free"},{"bike_id":"999ff430-b6af-4dc1-a744-fa163deb19d6","system_id":"levelo_inurba_marseille","lat":43.296263,"lon":5.40601,"is_reserved":false,"is_disabled":false,"rental_uris":{"android":"levelo://app?vid=999ff430-b6af-4dc1-a744-fa163deb19d6","ios":"levelo://app?vid=999ff430-b6af-4dc1-a744-fa163deb19d6"},"vehicle_type_id":"4","last_reported":1702901616,"current_range_meters":18800,"station_id":"ce4bh0h2rcd13ifvqd60","pricing_plan_id":"free"},{"bike_id":"16e7faa3-f0cc-483a-ad48-c3938590e9e8","system_id":"levelo_inurba_marseille","lat":43.28573,"lon":5.394992,"is_reserved":false,"is_disabled":false,"rental_uris":{"android":"levelo://app?vid=16e7faa3-f0cc-483a-ad48-c3938590e9e8","ios":"levelo://app?vid=16e7faa3-f0cc-483a-ad48-c3938590e9e8"},"vehicle_type_id":"4","last_reported":1702901616,"current_range_meters":16800,"station_id":"ce4bh292rcd13ifvqdg0","pricing_plan_id":"free"},{"bike_id":"c9a59b04-600c-45c8-989e-bea4665420ab","system_id":"levelo_inurba_marseille","lat":43.299577,"lon":5.413277,"is_reserved":false,"is_disabled":false,"rental_uris":{"android":"levelo://app?vid=c9a59b04-600c-45c8-989e-bea4665420ab","ios":"levelo://app?vid=c9a59b04-600c-45c8-989e-bea4665420ab"},"vehicle_type_id":"4","last_reported":1702901616,"current_range_meters":30000,"station_id":"ce4bhp12rcd13ifvqh9g","pricing_plan_id":"free"},{"bike_id":"b5403f37-b9c5-4890-963b-867555b474a4","system_id":"levelo_inurba_marseille","lat":43.320045,"lon":5.415048,"is_reserved":false,"is_disabled":false,"rental_uris":{"android":"levelo://app?vid=b5403f37-b9c5-4890-963b-867555b474a4","ios":"levelo://app?vid=b5403f37-b9c5-4890-963b-867555b474a4"},"vehicle_type_id":"4","last_reported":1702901616,"current_range_meters":24400,"station_id":"ce4bhq92rcd13ifvqhkg","pricing_plan_id":"free"},{"bike_id":"9783b029-37a4-4b0f-b2eb-c8b4f0a0e6a4","system_id":"levelo_inurba_marseille","lat":43.32536,"lon":5.41423,"is_reserved":false,"is_disabled":false,"rental_uris":{"android":"levelo://app?vid=9783b029-37a4-4b0f-b2eb-c8b4f0a0e6a4","ios":"levelo://app?vid=9783b029-37a4-4b0f-b2eb-c8b4f0a0e6a4"},"vehicle_type_id":"4","last_reported":1702901616,"current_range_meters":31200,"station_id":"ce4bhq12rcd13ifvqhhg","pricing_plan_id":"free"},{"bike_id":"459d580d-dcbf-4ffd-a3fe-c4beb4d7ae5a","system_id":"levelo_inurba_marseille","lat":43.32538,"lon":5.41424,"is_reserved":false,"is_disabled":false,"rental_uris":{"android":"levelo://app?vid=459d580d-dcbf-4ffd-a3fe-c4beb4d7ae5a","ios":"levelo://app?vid=459d580d-dcbf-4ffd-a3fe-c4beb4d7ae5a"},"vehicle_type_id":"4","last_reported":1702901616,"current_range_meters":27600,"station_id":"ce4bhq12rcd13ifvqhhg","pricing_plan_id":"free"},{"bike_id":"f25ea5b6-b591-4bf5-a2b4-9765332068ae","system_id":"levelo_inurba_marseille","lat":43.325243,"lon":5.414326,"is_reserved":false,"is_disabled":false,"rental_uris":{"android":"levelo://app?vid=f25ea5b6-b591-4bf5-a2b4-9765332068ae","ios":"levelo://app?vid=f25ea5b6-b591-4bf5-a2b4-9765332068ae"},"vehicle_type_id":"4","last_reported":1702901616,"current_range_meters":28000,"station_id":"ce4bhq12rcd13ifvqhhg","pricing_plan_id":"free"},{"bike_id":"224bcffd-86fc-4c77-ac09-12306f63094d","system_id":"levelo_inurba_marseille","lat":43.32539,"lon":5.41437,"is_reserved":false,"is_disabled":false,"rental_uris":{"android":"levelo://app?vid=224bcffd-86fc-4c77-ac09-12306f63094d","ios":"levelo://app?vid=224bcffd-86fc-4c77-ac09-12306f63094d"},"vehicle_type_id":"4","last_reported":1702901616,"current_range_meters":31200,"station_id":"ce4bhq12rcd13ifvqhhg","pricing_plan_id":"free"},{"bike_id":"8b89a6cf-b837-45b4-ae98-4ba2c5780b41","system_id":"levelo_inurba_marseille","lat":43.325243,"lon":5.414326,"is_reserved":false,"is_disabled":false,"rental_uris":{"android":"levelo://app?vid=8b89a6cf-b837-45b4-ae98-4ba2c5780b41","ios":"levelo://app?vid=8b89a6cf-b837-45b4-ae98-4ba2c5780b41"},"vehicle_type_id":"4","last_reported":1702901616,"current_range_meters":30800,"station_id":"ce4bhq12rcd13ifvqhhg","pricing_plan_id":"free"},{"bike_id":"0996178a-e20e-429d-88c9-783e15747b15","system_id":"levelo_inurba_marseille","lat":43.325243,"lon":5.414326,"is_reserved":false,"is_disabled":false,"rental_uris":{"android":"levelo://app?vid=0996178a-e20e-429d-88c9-783e15747b15","ios":"levelo://app?vid=0996178a-e20e-429d-88c9-783e15747b15"},"vehicle_type_id":"4","last_reported":1702901616,"current_range_meters":4800,"station_id":"ce4bhq12rcd13ifvqhhg","pricing_plan_id":"free"},{"bike_id":"f3574543-274c-4e4e-821e-c6001038406a","system_id":"levelo_inurba_marseille","lat":43.276179,"lon":5.361009,"is_reserved":false,"is_disabled":false,"rental_uris":{"android":"levelo://app?vid=f3574543-274c-4e4e-821e-c6001038406a","ios":"levelo://app?vid=f3574543-274c-4e4e-821e-c6001038406a"},"vehicle_type_id":"4","last_reported":1702901616,"current_range_meters":13600,"station_id":"ce4bgj92rcd13ifvqbe0","pricing_plan_id":"free"},{"bike_id":"5434558f-8c11-47e2-b63f-369b6b8f85f3","system_id":"levelo_inurba_marseille","lat":43.280784,"lon":5.396622,"is_reserved":false,"is_disabled":false,"rental_uris":{"android":"levelo://app?vid=5434558f-8c11-47e2-b63f-369b6b8f85f3","ios":"levelo://app?vid=5434558f-8c11-47e2-b63f-369b6b8f85f3"},"vehicle_type_id":"4","last_reported":1702901616,"current_range_meters":28400,"station_id":"ce4bho12rcd13ifvqh2g","pricing_plan_id":"free"},{"bike_id":"c2cc2e3a-5ec8-4a4b-8453-c93e07e97a6b","system_id":"levelo_inurba_marseille","lat":43.273613,"lon":5.362705,"is_reserved":false,"is_disabled":false,"rental_uris":{"android":"levelo://app?vid=c2cc2e3a-5ec8-4a4b-8453-c93e07e97a6b","ios":"levelo://app?vid=c2cc2e3a-5ec8-4a4b-8453-c93e07e97a6b"},"vehicle_type_id":"4","last_reported":1702901616,"current_range_meters":16800,"station_id":"ce4bhbh2rcd13ifvqeo0","pricing_plan_id":"free"},{"bike_id":"f6d15e4d-9bcb-4cf3-a47e-c0f6bc60be7f","system_id":"levelo_inurba_marseille","lat":43.33606,"lon":5.41045,"is_reserved":false,"is_disabled":false,"rental_uris":{"android":"levelo://app?vid=f6d15e4d-9bcb-4cf3-a47e-c0f6bc60be7f","ios":"levelo://app?vid=f6d15e4d-9bcb-4cf3-a47e-c0f6bc60be7f"},"vehicle_type_id":"4","last_reported":1702901616,"current_range_meters":9600,"station_id":"ce4bhqh2rcd13ifvqhmg","pricing_plan_id":"free"},{"bike_id":"dbacf333-149a-4773-8993-468a136d8f8b","system_id":"levelo_inurba_marseille","lat":43.276771,"lon":5.388799,"is_reserved":false,"is_disabled":false,"rental_uris":{"android":"levelo://app?vid=dbacf333-149a-4773-8993-468a136d8f8b","ios":"levelo://app?vid=dbacf333-149a-4773-8993-468a136d8f8b"},"vehicle_type_id":"4","last_reported":1702901616,"current_range_meters":5200,"station_id":"ce4bhi12rcd13ifvqfo0","pricing_plan_id":"free"},{"bike_id":"ba23a49f-f752-40f9-b881-d731ba920e07","system_id":"levelo_inurba_marseille","lat":43.32423,"lon":5.42002,"is_reserved":false,"is_disabled":false,"rental_uris":{"android":"levelo://app?vid=ba23a49f-f752-40f9-b881-d731ba920e07","ios":"levelo://app?vid=ba23a49f-f752-40f9-b881-d731ba920e07"},"vehicle_type_id":"4","last_reported":1702901616,"current_range_meters":28400,"station_id":"","pricing_plan_id":"free"},{"bike_id":"3ca2c2d2-99b0-4aa6-a05d-e30f02e6a7fb","system_id":"levelo_inurba_marseille","lat":43.276092,"lon":5.395289,"is_reserved":false,"is_disabled":false,"rental_uris":{"android":"levelo://app?vid=3ca2c2d2-99b0-4aa6-a05d-e30f02e6a7fb","ios":"levelo://app?vid=3ca2c2d2-99b0-4aa6-a05d-e30f02e6a7fb"},"vehicle_type_id":"4","last_reported":1702901616,"current_range_meters":13600,"station_id":"","pricing_plan_id":"free"},{"bike_id":"6822a6a2-f5c1-4b58-8045-e6ed4ff65469","system_id":"levelo_inurba_marseille","lat":43.274099,"lon":5.394019,"is_reserved":false,"is_disabled":false,"rental_uris":{"android":"levelo://app?vid=6822a6a2-f5c1-4b58-8045-e6ed4ff65469","ios":"levelo://app?vid=6822a6a2-f5c1-4b58-8045-e6ed4ff65469"},"vehicle_type_id":"4","last_reported":1702901616,"current_range_meters":17600,"station_id":"ce4bhdp2rcd13ifvqf20","pricing_plan_id":"free"},{"bike_id":"9b8f5ce3-81d5-4ecb-80a2-771cfce35fc0","system_id":"levelo_inurba_marseille","lat":43.295511,"lon":5.422926,"is_reserved":false,"is_disabled":false,"rental_uris":{"android":"levelo://app?vid=9b8f5ce3-81d5-4ecb-80a2-771cfce35fc0","ios":"levelo://app?vid=9b8f5ce3-81d5-4ecb-80a2-771cfce35fc0"},"vehicle_type_id":"4","last_reported":1702901616,"current_range_meters":26000,"station_id":"ce4bhph2rcd13ifvqhdg","pricing_plan_id":"free"},{"bike_id":"3be05306-32ba-460c-830b-c3f5cb8fc928","system_id":"levelo_inurba_marseille","lat":43.295511,"lon":5.422926,"is_reserved":false,"is_disabled":false,"rental_uris":{"android":"levelo://app?vid=3be05306-32ba-460c-830b-c3f5cb8fc928","ios":"levelo://app?vid=3be05306-32ba-460c-830b-c3f5cb8fc928"},"vehicle_type_id":"4","last_reported":1702901616,"current_range_meters":28400,"station_id":"ce4bhph2rcd13ifvqhdg","pricing_plan_id":"free"},{"bike_id":"7c4cb4b8-c5a4-4039-9877-e1fd973e994a","system_id":"levelo_inurba_marseille","lat":43.295511,"lon":5.422926,"is_reserved":false,"is_disabled":false,"rental_uris":{"android":"levelo://app?vid=7c4cb4b8-c5a4-4039-9877-e1fd973e994a","ios":"levelo://app?vid=7c4cb4b8-c5a4-4039-9877-e1fd973e994a"},"vehicle_type_id":"4","last_reported":1702901616,"current_range_meters":25600,"station_id":"ce4bhph2rcd13ifvqhdg","pricing_plan_id":"free"},{"bike_id":"cb94324f-2a65-478e-a112-0f4d70250d1b","system_id":"levelo_inurba_marseille","lat":43.295528,"lon":5.42281,"is_reserved":false,"is_disabled":false,"rental_uris":{"android":"levelo://app?vid=cb94324f-2a65-478e-a112-0f4d70250d1b","ios":"levelo://app?vid=cb94324f-2a65-478e-a112-0f4d70250d1b"},"vehicle_type_id":"4","last_reported":1702901616,"current_range_meters":27600,"station_id":"ce4bhph2rcd13ifvqhdg","pricing_plan_id":"free"},{"bike_id":"c5b44840-1601-43ac-abe9-c1e5b739efac","system_id":"levelo_inurba_marseille","lat":43.295523,"lon":5.422926,"is_reserved":false,"is_disabled":false,"rental_uris":{"android":"levelo://app?vid=c5b44840-1601-43ac-abe9-c1e5b739efac","ios":"levelo://app?vid=c5b44840-1601-43ac-abe9-c1e5b739efac"},"vehicle_type_id":"4","last_reported":1702901616,"current_range_meters":28400,"station_id":"ce4bhph2rcd13ifvqhdg","pricing_plan_id":"free"},{"bike_id":"9cbe5e87-404e-4c09-afbe-5ee44247e5dc","system_id":"levelo_inurba_marseille","lat":43.295523,"lon":5.422926,"is_reserved":false,"is_disabled":false,"rental_uris":{"android":"levelo://app?vid=9cbe5e87-404e-4c09-afbe-5ee44247e5dc","ios":"levelo://app?vid=9cbe5e87-404e-4c09-afbe-5ee44247e5dc"},"vehicle_type_id":"4","last_reported":1702901616,"current_range_meters":32000,"station_id":"ce4bhph2rcd13ifvqhdg","pricing_plan_id":"free"},{"bike_id":"628a1844-4de6-4ff8-b7b8-44bb12a39376","system_id":"levelo_inurba_marseille","lat":43.295511,"lon":5.422926,"is_reserved":false,"is_disabled":false,"rental_uris":{"android":"levelo://app?vid=628a1844-4de6-4ff8-b7b8-44bb12a39376","ios":"levelo://app?vid=628a1844-4de6-4ff8-b7b8-44bb12a39376"},"vehicle_type_id":"4","last_reported":1702901616,"current_range_meters":31600,"station_id":"ce4bhph2rcd13ifvqhdg","pricing_plan_id":"free"},{"bike_id":"35f4c7df-1dd1-49cd-b086-e9b64d14ba25","system_id":"levelo_inurba_marseille","lat":43.295511,"lon":5.422926,"is_reserved":false,"is_disabled":false,"rental_uris":{"android":"levelo://app?vid=35f4c7df-1dd1-49cd-b086-e9b64d14ba25","ios":"levelo://app?vid=35f4c7df-1dd1-49cd-b086-e9b64d14ba25"},"vehicle_type_id":"4","last_reported":1702901616,"current_range_meters":26400,"station_id":"ce4bhph2rcd13ifvqhdg","pricing_plan_id":"free"},{"bike_id":"fb094048-824a-49d1-905f-084ec3753a88","system_id":"levelo_inurba_marseille","lat":43.295523,"lon":5.422926,"is_reserved":false,"is_disabled":false,"rental_uris":{"android":"levelo://app?vid=fb094048-824a-49d1-905f-084ec3753a88","ios":"levelo://app?vid=fb094048-824a-49d1-905f-084ec3753a88"},"vehicle_type_id":"4","last_reported":1702901616,"current_range_meters":25200,"station_id":"ce4bhph2rcd13ifvqhdg","pricing_plan_id":"free"},{"bike_id":"7c5e5a9a-9f39-4a14-9573-d5b8ab599dd5","system_id":"levelo_inurba_marseille","lat":43.27188,"lon":5.39224,"is_reserved":false,"is_disabled":false,"rental_uris":{"android":"levelo://app?vid=7c5e5a9a-9f39-4a14-9573-d5b8ab599dd5","ios":"levelo://app?vid=7c5e5a9a-9f39-4a14-9573-d5b8ab599dd5"},"vehicle_type_id":"4","last_reported":1702901616,"current_range_meters":14400,"station_id":"ce4bhhp2rcd13ifvqfm0","pricing_plan_id":"free"},{"bike_id":"aa79de49-c13c-4189-8bf5-9307e52fafed","system_id":"levelo_inurba_marseille","lat":43.278128,"lon":5.407195,"is_reserved":false,"is_disabled":false,"rental_uris":{"android":"levelo://app?vid=aa79de49-c13c-4189-8bf5-9307e52fafed","ios":"levelo://app?vid=aa79de49-c13c-4189-8bf5-9307e52fafed"},"vehicle_type_id":"4","last_reported":1702901616,"current_range_meters":30000,"station_id":"ce4bhnh2rcd13ifvqgtg","pricing_plan_id":"free"},{"bike_id":"bfc4481d-07c1-42e1-bf91-4f40acee05c2","system_id":"levelo_inurba_marseille","lat":43.278128,"lon":5.407195,"is_reserved":false,"is_disabled":false,"rental_uris":{"android":"levelo://app?vid=bfc4481d-07c1-42e1-bf91-4f40acee05c2","ios":"levelo://app?vid=bfc4481d-07c1-42e1-bf91-4f40acee05c2"},"vehicle_type_id":"4","last_reported":1702901616,"current_range_meters":15200,"station_id":"ce4bhnh2rcd13ifvqgtg","pricing_plan_id":"free"},{"bike_id":"c243e7ca-515a-493f-b07e-41640a38c815","system_id":"levelo_inurba_marseille","lat":43.278128,"lon":5.407195,"is_reserved":false,"is_disabled":false,"rental_uris":{"android":"levelo://app?vid=c243e7ca-515a-493f-b07e-41640a38c815","ios":"levelo://app?vid=c243e7ca-515a-493f-b07e-41640a38c815"},"vehicle_type_id":"4","last_reported":1702901616,"current_range_meters":30000,"station_id":"ce4bhnh2rcd13ifvqgtg","pricing_plan_id":"free"},{"bike_id":"5fa474d5-f070-4086-b105-0c3f476d6cce","system_id":"levelo_inurba_marseille","lat":43.27808,"lon":5.4072,"is_reserved":false,"is_disabled":false,"rental_uris":{"android":"levelo://app?vid=5fa474d5-f070-4086-b105-0c3f476d6cce","ios":"levelo://app?vid=5fa474d5-f070-4086-b105-0c3f476d6cce"},"vehicle_type_id":"4","last_reported":1702901616,"current_range_meters":31200,"station_id":"ce4bhnh2rcd13ifvqgtg","pricing_plan_id":"free"},{"bike_id":"9f6c6e0f-0e27-4528-abdf-1088033c37ed","system_id":"levelo_inurba_marseille","lat":43.269467,"lon":5.386439,"is_reserved":false,"is_disabled":false,"rental_uris":{"android":"levelo://app?vid=9f6c6e0f-0e27-4528-abdf-1088033c37ed","ios":"levelo://app?vid=9f6c6e0f-0e27-4528-abdf-1088033c37ed"},"vehicle_type_id":"4","last_reported":1702901616,"current_range_meters":17600,"station_id":"ce4bhh92rcd13ifvqfh0","pricing_plan_id":"free"},{"bike_id":"667613aa-2fcf-436e-bbdc-1abad38f1798","system_id":"levelo_inurba_marseille","lat":43.279465,"lon":5.410561,"is_reserved":false,"is_disabled":false,"rental_uris":{"android":"levelo://app?vid=667613aa-2fcf-436e-bbdc-1abad38f1798","ios":"levelo://app?vid=667613aa-2fcf-436e-bbdc-1abad38f1798"},"vehicle_type_id":"4","last_reported":1702901616,"current_range_meters":31200,"station_id":"ce4bhnp2rcd13ifvqh0g","pricing_plan_id":"free"},{"bike_id":"0dd289f2-7f07-4556-8e26-e0ef8090caba","system_id":"levelo_inurba_marseille","lat":43.279525,"lon":5.41042,"is_reserved":false,"is_disabled":false,"rental_uris":{"android":"levelo://app?vid=0dd289f2-7f07-4556-8e26-e0ef8090caba","ios":"levelo://app?vid=0dd289f2-7f07-4556-8e26-e0ef8090caba"},"vehicle_type_id":"4","last_reported":1702901616,"current_range_meters":29600,"station_id":"ce4bhnp2rcd13ifvqh0g","pricing_plan_id":"free"},{"bike_id":"f0fee9dc-8832-4206-bce1-b91d2c190d45","system_id":"levelo_inurba_marseille","lat":43.2795,"lon":5.41042,"is_reserved":false,"is_disabled":false,"rental_uris":{"android":"levelo://app?vid=f0fee9dc-8832-4206-bce1-b91d2c190d45","ios":"levelo://app?vid=f0fee9dc-8832-4206-bce1-b91d2c190d45"},"vehicle_type_id":"4","last_reported":1702901616,"current_range_meters":30400,"station_id":"ce4bhnp2rcd13ifvqh0g","pricing_plan_id":"free"},{"bike_id":"67cf9c99-2a49-403e-9c43-8f292437af26","system_id":"levelo_inurba_marseille","lat":43.27939,"lon":5.41033,"is_reserved":false,"is_disabled":false,"rental_uris":{"android":"levelo://app?vid=67cf9c99-2a49-403e-9c43-8f292437af26","ios":"levelo://app?vid=67cf9c99-2a49-403e-9c43-8f292437af26"},"vehicle_type_id":"4","last_reported":1702901616,"current_range_meters":30400,"station_id":"ce4bhnp2rcd13ifvqh0g","pricing_plan_id":"free"},{"bike_id":"1989e321-c7cd-42b0-b69f-4576b7a86b22","system_id":"levelo_inurba_marseille","lat":43.279465,"lon":5.410561,"is_reserved":false,"is_disabled":false,"rental_uris":{"android":"levelo://app?vid=1989e321-c7cd-42b0-b69f-4576b7a86b22","ios":"levelo://app?vid=1989e321-c7cd-42b0-b69f-4576b7a86b22"},"vehicle_type_id":"4","last_reported":1702901616,"current_range_meters":23600,"station_id":"ce4bhnp2rcd13ifvqh0g","pricing_plan_id":"free"},{"bike_id":"4bd4f947-575f-4f52-8566-4ac90b1e3a3b","system_id":"levelo_inurba_marseille","lat":43.269319,"lon":5.389397,"is_reserved":false,"is_disabled":false,"rental_uris":{"android":"levelo://app?vid=4bd4f947-575f-4f52-8566-4ac90b1e3a3b","ios":"levelo://app?vid=4bd4f947-575f-4f52-8566-4ac90b1e3a3b"},"vehicle_type_id":"4","last_reported":1702901616,"current_range_meters":27600,"station_id":"ce4bhhh2rcd13ifvqfl0","pricing_plan_id":"free"},{"bike_id":"db774753-4382-453e-a138-c32d538f9839","system_id":"levelo_inurba_marseille","lat":43.358673,"lon":5.356887,"is_reserved":false,"is_disabled":false,"rental_uris":{"android":"levelo://app?vid=db774753-4382-453e-a138-c32d538f9839","ios":"levelo://app?vid=db774753-4382-453e-a138-c32d538f9839"},"vehicle_type_id":"4","last_reported":1702901616,"current_range_meters":9600,"station_id":"","pricing_plan_id":"free"},{"bike_id":"699b2556-3b0c-48f8-938a-84b85204dbcb","system_id":"levelo_inurba_marseille","lat":43.265578,"lon":5.372887,"is_reserved":false,"is_disabled":false,"rental_uris":{"android":"levelo://app?vid=699b2556-3b0c-48f8-938a-84b85204dbcb","ios":"levelo://app?vid=699b2556-3b0c-48f8-938a-84b85204dbcb"},"vehicle_type_id":"4","last_reported":1702901616,"current_range_meters":24800,"station_id":"ce4bhg12rcd13ifvqf70","pricing_plan_id":"free"},{"bike_id":"aace4bf7-67a0-4161-840d-95d449713c44","system_id":"levelo_inurba_marseille","lat":43.265714,"lon":5.372891,"is_reserved":false,"is_disabled":false,"rental_uris":{"android":"levelo://app?vid=aace4bf7-67a0-4161-840d-95d449713c44","ios":"levelo://app?vid=aace4bf7-67a0-4161-840d-95d449713c44"},"vehicle_type_id":"4","last_reported":1702901616,"current_range_meters":1600,"station_id":"ce4bhg12rcd13ifvqf70","pricing_plan_id":"free"},{"bike_id":"1d676511-3b4b-47fd-b5e1-1dcc6f3e83ad","system_id":"levelo_inurba_marseille","lat":43.26552,"lon":5.37285,"is_reserved":false,"is_disabled":false,"rental_uris":{"android":"levelo://app?vid=1d676511-3b4b-47fd-b5e1-1dcc6f3e83ad","ios":"levelo://app?vid=1d676511-3b4b-47fd-b5e1-1dcc6f3e83ad"},"vehicle_type_id":"4","last_reported":1702901616,"current_range_meters":25200,"station_id":"ce4bhg12rcd13ifvqf70","pricing_plan_id":"free"},{"bike_id":"53058b4c-369d-4979-8a38-a159f7b9063f","system_id":"levelo_inurba_marseille","lat":43.265467,"lon":5.372823,"is_reserved":false,"is_disabled":false,"rental_uris":{"android":"levelo://app?vid=53058b4c-369d-4979-8a38-a159f7b9063f","ios":"levelo://app?vid=53058b4c-369d-4979-8a38-a159f7b9063f"},"vehicle_type_id":"4","last_reported":1702901616,"current_range_meters":8000,"station_id":"ce4bhg12rcd13ifvqf70","pricing_plan_id":"free"},{"bike_id":"0519215d-32e4-4f20-abcf-50d7be4e3298","system_id":"levelo_inurba_marseille","lat":43.27996,"lon":5.416624,"is_reserved":false,"is_disabled":false,"rental_uris":{"android":"levelo://app?vid=0519215d-32e4-4f20-abcf-50d7be4e3298","ios":"levelo://app?vid=0519215d-32e4-4f20-abcf-50d7be4e3298"},"vehicle_type_id":"4","last_reported":1702901616,"current_range_meters":30800,"station_id":"ce4bho12rcd13ifvqh1g","pricing_plan_id":"free"},{"bike_id":"5abcec44-0c2c-47e1-96cd-ac237d9ab184","system_id":"levelo_inurba_marseille","lat":43.27996,"lon":5.416624,"is_reserved":false,"is_disabled":false,"rental_uris":{"android":"levelo://app?vid=5abcec44-0c2c-47e1-96cd-ac237d9ab184","ios":"levelo://app?vid=5abcec44-0c2c-47e1-96cd-ac237d9ab184"},"vehicle_type_id":"4","last_reported":1702901616,"current_range_meters":31200,"station_id":"ce4bho12rcd13ifvqh1g","pricing_plan_id":"free"},{"bike_id":"52d02a16-98a7-42b3-9676-007c2ae8e728","system_id":"levelo_inurba_marseille","lat":43.27996,"lon":5.416624,"is_reserved":false,"is_disabled":false,"rental_uris":{"android":"levelo://app?vid=52d02a16-98a7-42b3-9676-007c2ae8e728","ios":"levelo://app?vid=52d02a16-98a7-42b3-9676-007c2ae8e728"},"vehicle_type_id":"4","last_reported":1702901616,"current_range_meters":29200,"station_id":"ce4bho12rcd13ifvqh1g","pricing_plan_id":"free"},{"bike_id":"5a40380c-931a-4253-a157-41b8d69b5bab","system_id":"levelo_inurba_marseille","lat":43.2678,"lon":5.39419,"is_reserved":false,"is_disabled":false,"rental_uris":{"android":"levelo://app?vid=5a40380c-931a-4253-a157-41b8d69b5bab","ios":"levelo://app?vid=5a40380c-931a-4253-a157-41b8d69b5bab"},"vehicle_type_id":"4","last_reported":1702901616,"current_range_meters":29200,"station_id":"ce4bhh12rcd13ifvqfg0","pricing_plan_id":"free"},{"bike_id":"b4aeb79b-e1dd-4d4d-8b0b-cf6b55066d8b","system_id":"levelo_inurba_marseille","lat":43.265569,"lon":5.390047,"is_reserved":false,"is_disabled":false,"rental_uris":{"android":"levelo://app?vid=b4aeb79b-e1dd-4d4d-8b0b-cf6b55066d8b","ios":"levelo://app?vid=b4aeb79b-e1dd-4d4d-8b0b-cf6b55066d8b"},"vehicle_type_id":"4","last_reported":1702901616,"current_range_meters":23200,"station_id":"ce4bhe12rcd13ifvqf30","pricing_plan_id":"free"},{"bike_id":"48d383f2-b45d-4433-9c9d-57809da91944","system_id":"levelo_inurba_marseille","lat":43.265571,"lon":5.390032,"is_reserved":false,"is_disabled":false,"rental_uris":{"android":"levelo://app?vid=48d383f2-b45d-4433-9c9d-57809da91944","ios":"levelo://app?vid=48d383f2-b45d-4433-9c9d-57809da91944"},"vehicle_type_id":"4","last_reported":1702901616,"current_range_meters":20400,"station_id":"ce4bhe12rcd13ifvqf30","pricing_plan_id":"free"},{"bike_id":"a4cc3643-0b78-49ea-bb69-072a51937fbe","system_id":"levelo_inurba_marseille","lat":43.26189,"lon":5.37439,"is_reserved":false,"is_disabled":false,"rental_uris":{"android":"levelo://app?vid=a4cc3643-0b78-49ea-bb69-072a51937fbe","ios":"levelo://app?vid=a4cc3643-0b78-49ea-bb69-072a51937fbe"},"vehicle_type_id":"4","last_reported":1702901616,"current_range_meters":25200,"station_id":"","pricing_plan_id":"free"},{"bike_id":"ee1964dd-bd19-4163-8977-66dfe213996c","system_id":"levelo_inurba_marseille","lat":43.261782,"lon":5.374515,"is_reserved":false,"is_disabled":false,"rental_uris":{"android":"levelo://app?vid=ee1964dd-bd19-4163-8977-66dfe213996c","ios":"levelo://app?vid=ee1964dd-bd19-4163-8977-66dfe213996c"},"vehicle_type_id":"4","last_reported":1702901616,"current_range_meters":19200,"station_id":"ce4bhgp2rcd13ifvqfc0","pricing_plan_id":"free"},{"bike_id":"9c515f07-c571-484d-bf87-cdd0319dec38","system_id":"levelo_inurba_marseille","lat":43.26185,"lon":5.37444,"is_reserved":false,"is_disabled":false,"rental_uris":{"android":"levelo://app?vid=9c515f07-c571-484d-bf87-cdd0319dec38","ios":"levelo://app?vid=9c515f07-c571-484d-bf87-cdd0319dec38"},"vehicle_type_id":"4","last_reported":1702901616,"current_range_meters":24400,"station_id":"ce4bhgp2rcd13ifvqfc0","pricing_plan_id":"free"},{"bike_id":"703b6509-8c35-4db9-ad24-8c18ddb8785e","system_id":"levelo_inurba_marseille","lat":43.26202,"lon":5.379299,"is_reserved":false,"is_disabled":false,"rental_uris":{"android":"levelo://app?vid=703b6509-8c35-4db9-ad24-8c18ddb8785e","ios":"levelo://app?vid=703b6509-8c35-4db9-ad24-8c18ddb8785e"},"vehicle_type_id":"4","last_reported":1702901616,"current_range_meters":30400,"station_id":"ce4bhjp2rcd13ifvqg90","pricing_plan_id":"free"},{"bike_id":"3689f1f2-d401-4226-b753-16dc9143befe","system_id":"levelo_inurba_marseille","lat":43.267959,"lon":5.402687,"is_reserved":false,"is_disabled":false,"rental_uris":{"android":"levelo://app?vid=3689f1f2-d401-4226-b753-16dc9143befe","ios":"levelo://app?vid=3689f1f2-d401-4226-b753-16dc9143befe"},"vehicle_type_id":"4","last_reported":1702901616,"current_range_meters":8400,"station_id":"ce501612rcd8frsf0b60","pricing_plan_id":"free"},{"bike_id":"8b000818-ee66-4afa-956c-06d1feec8088","system_id":"levelo_inurba_marseille","lat":43.298768,"lon":5.43643,"is_reserved":false,"is_disabled":false,"rental_uris":{"android":"levelo://app?vid=8b000818-ee66-4afa-956c-06d1feec8088","ios":"levelo://app?vid=8b000818-ee66-4afa-956c-06d1feec8088"},"vehicle_type_id":"4","last_reported":1702901616,"current_range_meters":31200,"station_id":"ce4bhpp2rcd13ifvqhfg","pricing_plan_id":"free"},{"bike_id":"be3c7518-3a90-4ace-b263-cbe424279bc2","system_id":"levelo_inurba_marseille","lat":43.298768,"lon":5.43643,"is_reserved":false,"is_disabled":false,"rental_uris":{"android":"levelo://app?vid=be3c7518-3a90-4ace-b263-cbe424279bc2","ios":"levelo://app?vid=be3c7518-3a90-4ace-b263-cbe424279bc2"},"vehicle_type_id":"4","last_reported":1702901616,"current_range_meters":28000,"station_id":"ce4bhpp2rcd13ifvqhfg","pricing_plan_id":"free"},{"bike_id":"8511549a-ea56-4454-9c7a-4281042c965e","system_id":"levelo_inurba_marseille","lat":43.298768,"lon":5.43643,"is_reserved":false,"is_disabled":false,"rental_uris":{"android":"levelo://app?vid=8511549a-ea56-4454-9c7a-4281042c965e","ios":"levelo://app?vid=8511549a-ea56-4454-9c7a-4281042c965e"},"vehicle_type_id":"4","last_reported":1702901616,"current_range_meters":6800,"station_id":"ce4bhpp2rcd13ifvqhfg","pricing_plan_id":"free"},{"bike_id":"c9a3d65d-2491-4ef4-915d-7e74ff265d0f","system_id":"levelo_inurba_marseille","lat":43.260225,"lon":5.375455,"is_reserved":false,"is_disabled":false,"rental_uris":{"android":"levelo://app?vid=c9a3d65d-2491-4ef4-915d-7e74ff265d0f","ios":"levelo://app?vid=c9a3d65d-2491-4ef4-915d-7e74ff265d0f"},"vehicle_type_id":"4","last_reported":1702901616,"current_range_meters":30400,"station_id":"ce4bhgh2rcd13ifvqfa0","pricing_plan_id":"free"},{"bike_id":"99867697-39b0-4506-8cb3-35ad1ffd1128","system_id":"levelo_inurba_marseille","lat":43.26033,"lon":5.37552,"is_reserved":false,"is_disabled":false,"rental_uris":{"android":"levelo://app?vid=99867697-39b0-4506-8cb3-35ad1ffd1128","ios":"levelo://app?vid=99867697-39b0-4506-8cb3-35ad1ffd1128"},"vehicle_type_id":"4","last_reported":1702901616,"current_range_meters":25600,"station_id":"ce4bhgh2rcd13ifvqfa0","pricing_plan_id":"free"},{"bike_id":"7bd30b8c-d34e-4b55-a5a3-898b9d728a98","system_id":"levelo_inurba_marseille","lat":43.2607,"lon":5.393983,"is_reserved":false,"is_disabled":false,"rental_uris":{"android":"levelo://app?vid=7bd30b8c-d34e-4b55-a5a3-898b9d728a98","ios":"levelo://app?vid=7bd30b8c-d34e-4b55-a5a3-898b9d728a98"},"vehicle_type_id":"4","last_reported":1702901616,"current_range_meters":31600,"station_id":"ce4bhh92rcd13ifvqfj0","pricing_plan_id":"free"},{"bike_id":"5e86fbab-807a-4ddf-af4c-7e9d6f7d0080","system_id":"levelo_inurba_marseille","lat":43.2607,"lon":5.393983,"is_reserved":false,"is_disabled":false,"rental_uris":{"android":"levelo://app?vid=5e86fbab-807a-4ddf-af4c-7e9d6f7d0080","ios":"levelo://app?vid=5e86fbab-807a-4ddf-af4c-7e9d6f7d0080"},"vehicle_type_id":"4","last_reported":1702901616,"current_range_meters":20000,"station_id":"ce4bhh92rcd13ifvqfj0","pricing_plan_id":"free"},{"bike_id":"ff00ffc6-1f36-457c-a38b-c213194d2ed3","system_id":"levelo_inurba_marseille","lat":43.275028,"lon":5.424534,"is_reserved":false,"is_disabled":false,"rental_uris":{"android":"levelo://app?vid=ff00ffc6-1f36-457c-a38b-c213194d2ed3","ios":"levelo://app?vid=ff00ffc6-1f36-457c-a38b-c213194d2ed3"},"vehicle_type_id":"4","last_reported":1702901616,"current_range_meters":31200,"station_id":"ce4bhn92rcd13ifvqgrg","pricing_plan_id":"free"},{"bike_id":"d2007443-4338-42cb-923c-147041d30edf","system_id":"levelo_inurba_marseille","lat":43.275028,"lon":5.424534,"is_reserved":false,"is_disabled":false,"rental_uris":{"android":"levelo://app?vid=d2007443-4338-42cb-923c-147041d30edf","ios":"levelo://app?vid=d2007443-4338-42cb-923c-147041d30edf"},"vehicle_type_id":"4","last_reported":1702901616,"current_range_meters":31200,"station_id":"ce4bhn92rcd13ifvqgrg","pricing_plan_id":"free"},{"bike_id":"b41d8c65-a328-409e-a2f2-8750a4fd551a","system_id":"levelo_inurba_marseille","lat":43.275028,"lon":5.424534,"is_reserved":false,"is_disabled":false,"rental_uris":{"android":"levelo://app?vid=b41d8c65-a328-409e-a2f2-8750a4fd551a","ios":"levelo://app?vid=b41d8c65-a328-409e-a2f2-8750a4fd551a"},"vehicle_type_id":"4","last_reported":1702901616,"current_range_meters":31200,"station_id":"ce4bhn92rcd13ifvqgrg","pricing_plan_id":"free"},{"bike_id":"6a24c9c2-0536-4d05-8056-8d8332f4bc28","system_id":"levelo_inurba_marseille","lat":43.275028,"lon":5.424534,"is_reserved":false,"is_disabled":false,"rental_uris":{"android":"levelo://app?vid=6a24c9c2-0536-4d05-8056-8d8332f4bc28","ios":"levelo://app?vid=6a24c9c2-0536-4d05-8056-8d8332f4bc28"},"vehicle_type_id":"4","last_reported":1702901616,"current_range_meters":31200,"station_id":"ce4bhn92rcd13ifvqgrg","pricing_plan_id":"free"},{"bike_id":"8ce65bd2-6385-4b97-8ac6-1877d7ca4f72","system_id":"levelo_inurba_marseille","lat":43.26088,"lon":5.39766,"is_reserved":false,"is_disabled":false,"rental_uris":{"android":"levelo://app?vid=8ce65bd2-6385-4b97-8ac6-1877d7ca4f72","ios":"levelo://app?vid=8ce65bd2-6385-4b97-8ac6-1877d7ca4f72"},"vehicle_type_id":"4","last_reported":1702901616,"current_range_meters":30800,"station_id":"","pricing_plan_id":"free"},{"bike_id":"f5075650-2824-4d3b-a7ef-e7bc4b7f03f1","system_id":"levelo_inurba_marseille","lat":43.255848,"lon":5.382205,"is_reserved":false,"is_disabled":false,"rental_uris":{"android":"levelo://app?vid=f5075650-2824-4d3b-a7ef-e7bc4b7f03f1","ios":"levelo://app?vid=f5075650-2824-4d3b-a7ef-e7bc4b7f03f1"},"vehicle_type_id":"4","last_reported":1702901616,"current_range_meters":0,"station_id":"ce4bhih2rcd13ifvqfs0","pricing_plan_id":"free"},{"bike_id":"83ae4143-0b80-4b86-af8d-bced285766a8","system_id":"levelo_inurba_marseille","lat":43.25582,"lon":5.38238,"is_reserved":false,"is_disabled":false,"rental_uris":{"android":"levelo://app?vid=83ae4143-0b80-4b86-af8d-bced285766a8","ios":"levelo://app?vid=83ae4143-0b80-4b86-af8d-bced285766a8"},"vehicle_type_id":"4","last_reported":1702901616,"current_range_meters":20400,"station_id":"ce4bhih2rcd13ifvqfs0","pricing_plan_id":"free"},{"bike_id":"fdceae04-adce-4951-89fc-a39188c2b1d8","system_id":"levelo_inurba_marseille","lat":43.25579,"lon":5.38231,"is_reserved":false,"is_disabled":false,"rental_uris":{"android":"levelo://app?vid=fdceae04-adce-4951-89fc-a39188c2b1d8","ios":"levelo://app?vid=fdceae04-adce-4951-89fc-a39188c2b1d8"},"vehicle_type_id":"4","last_reported":1702901616,"current_range_meters":16000,"station_id":"ce4bhih2rcd13ifvqfs0","pricing_plan_id":"free"},{"bike_id":"e556e286-fc2d-495d-9049-140edac504cc","system_id":"levelo_inurba_marseille","lat":43.258224,"lon":5.394369,"is_reserved":false,"is_disabled":false,"rental_uris":{"android":"levelo://app?vid=e556e286-fc2d-495d-9049-140edac504cc","ios":"levelo://app?vid=e556e286-fc2d-495d-9049-140edac504cc"},"vehicle_type_id":"4","last_reported":1702901616,"current_range_meters":20400,"station_id":"ce4bhip2rcd13ifvqft0","pricing_plan_id":"free"},{"bike_id":"57d795dc-eac6-4278-8a39-fc0e3f331682","system_id":"levelo_inurba_marseille","lat":43.258224,"lon":5.394369,"is_reserved":false,"is_disabled":false,"rental_uris":{"android":"levelo://app?vid=57d795dc-eac6-4278-8a39-fc0e3f331682","ios":"levelo://app?vid=57d795dc-eac6-4278-8a39-fc0e3f331682"},"vehicle_type_id":"4","last_reported":1702901616,"current_range_meters":10000,"station_id":"ce4bhip2rcd13ifvqft0","pricing_plan_id":"free"},{"bike_id":"2a49bcf8-fdfb-41e1-91bd-16a50274d949","system_id":"levelo_inurba_marseille","lat":43.25506,"lon":5.37646,"is_reserved":false,"is_disabled":false,"rental_uris":{"android":"levelo://app?vid=2a49bcf8-fdfb-41e1-91bd-16a50274d949","ios":"levelo://app?vid=2a49bcf8-fdfb-41e1-91bd-16a50274d949"},"vehicle_type_id":"4","last_reported":1702901616,"current_range_meters":29200,"station_id":"ce4bhh12rcd13ifvqff0","pricing_plan_id":"free"},{"bike_id":"554b9716-3962-44dd-9cdb-dc4e11773c87","system_id":"levelo_inurba_marseille","lat":43.255064,"lon":5.376512,"is_reserved":false,"is_disabled":false,"rental_uris":{"android":"levelo://app?vid=554b9716-3962-44dd-9cdb-dc4e11773c87","ios":"levelo://app?vid=554b9716-3962-44dd-9cdb-dc4e11773c87"},"vehicle_type_id":"4","last_reported":1702901616,"current_range_meters":30000,"station_id":"ce4bhh12rcd13ifvqff0","pricing_plan_id":"free"},{"bike_id":"15cd475d-8f66-4ed5-a1bf-e16d9818e344","system_id":"levelo_inurba_marseille","lat":43.25503,"lon":5.37651,"is_reserved":false,"is_disabled":false,"rental_uris":{"android":"levelo://app?vid=15cd475d-8f66-4ed5-a1bf-e16d9818e344","ios":"levelo://app?vid=15cd475d-8f66-4ed5-a1bf-e16d9818e344"},"vehicle_type_id":"4","last_reported":1702901616,"current_range_meters":9200,"station_id":"ce4bhh12rcd13ifvqff0","pricing_plan_id":"free"},{"bike_id":"f1610506-02fc-4f1d-998e-2c43f96c3238","system_id":"levelo_inurba_marseille","lat":43.25502,"lon":5.37646,"is_reserved":false,"is_disabled":false,"rental_uris":{"android":"levelo://app?vid=f1610506-02fc-4f1d-998e-2c43f96c3238","ios":"levelo://app?vid=f1610506-02fc-4f1d-998e-2c43f96c3238"},"vehicle_type_id":"4","last_reported":1702901616,"current_range_meters":24800,"station_id":"ce4bhh12rcd13ifvqff0","pricing_plan_id":"free"},{"bike_id":"60eede1b-ac4d-4892-9773-f8a5cb9486b9","system_id":"levelo_inurba_marseille","lat":43.255,"lon":5.3765,"is_reserved":false,"is_disabled":false,"rental_uris":{"android":"levelo://app?vid=60eede1b-ac4d-4892-9773-f8a5cb9486b9","ios":"levelo://app?vid=60eede1b-ac4d-4892-9773-f8a5cb9486b9"},"vehicle_type_id":"4","last_reported":1702901616,"current_range_meters":30800,"station_id":"ce4bhh12rcd13ifvqff0","pricing_plan_id":"free"},{"bike_id":"c96612af-e83a-48f9-b251-5e8b8bb1c819","system_id":"levelo_inurba_marseille","lat":43.254947,"lon":5.376454,"is_reserved":false,"is_disabled":false,"rental_uris":{"android":"levelo://app?vid=c96612af-e83a-48f9-b251-5e8b8bb1c819","ios":"levelo://app?vid=c96612af-e83a-48f9-b251-5e8b8bb1c819"},"vehicle_type_id":"4","last_reported":1702901616,"current_range_meters":31200,"station_id":"ce4bhh12rcd13ifvqff0","pricing_plan_id":"free"},{"bike_id":"aca2dcca-a316-4f0c-ac24-39f4a3a60bd2","system_id":"levelo_inurba_marseille","lat":43.254947,"lon":5.376454,"is_reserved":false,"is_disabled":false,"rental_uris":{"android":"levelo://app?vid=aca2dcca-a316-4f0c-ac24-39f4a3a60bd2","ios":"levelo://app?vid=aca2dcca-a316-4f0c-ac24-39f4a3a60bd2"},"vehicle_type_id":"4","last_reported":1702901616,"current_range_meters":31200,"station_id":"ce4bhh12rcd13ifvqff0","pricing_plan_id":"free"},{"bike_id":"fe246cc1-9e05-408f-96d5-f0c10c79350c","system_id":"levelo_inurba_marseille","lat":43.270721,"lon":5.422764,"is_reserved":false,"is_disabled":false,"rental_uris":{"android":"levelo://app?vid=fe246cc1-9e05-408f-96d5-f0c10c79350c","ios":"levelo://app?vid=fe246cc1-9e05-408f-96d5-f0c10c79350c"},"vehicle_type_id":"4","last_reported":1702901616,"current_range_meters":22400,"station_id":"ce4bhk92rcd13ifvqgb0","pricing_plan_id":"free"},{"bike_id":"c32677d3-05e0-42d9-a41d-1e1c27475afb","system_id":"levelo_inurba_marseille","lat":43.27069,"lon":5.42279,"is_reserved":false,"is_disabled":false,"rental_uris":{"android":"levelo://app?vid=c32677d3-05e0-42d9-a41d-1e1c27475afb","ios":"levelo://app?vid=c32677d3-05e0-42d9-a41d-1e1c27475afb"},"vehicle_type_id":"4","last_reported":1702901616,"current_range_meters":30800,"station_id":"ce4bhk92rcd13ifvqgb0","pricing_plan_id":"free"},{"bike_id":"5420a08a-6c87-499e-beec-30fc66b08773","system_id":"levelo_inurba_marseille","lat":43.259013,"lon":5.409301,"is_reserved":false,"is_disabled":false,"rental_uris":{"android":"levelo://app?vid=5420a08a-6c87-499e-beec-30fc66b08773","ios":"levelo://app?vid=5420a08a-6c87-499e-beec-30fc66b08773"},"vehicle_type_id":"4","last_reported":1702901616,"current_range_meters":22000,"station_id":"ce4bhm92rcd13ifvqglg","pricing_plan_id":"free"},{"bike_id":"418b19ae-6fb6-4d94-bab6-c8b738cb1c25","system_id":"levelo_inurba_marseille","lat":43.25933,"lon":5.40913,"is_reserved":false,"is_disabled":false,"rental_uris":{"android":"levelo://app?vid=418b19ae-6fb6-4d94-bab6-c8b738cb1c25","ios":"levelo://app?vid=418b19ae-6fb6-4d94-bab6-c8b738cb1c25"},"vehicle_type_id":"4","last_reported":1702901616,"current_range_meters":31200,"station_id":"ce4bhm92rcd13ifvqglg","pricing_plan_id":"free"},{"bike_id":"75b58ad3-589c-4015-9a40-0297bf20ca67","system_id":"levelo_inurba_marseille","lat":43.25928,"lon":5.40909,"is_reserved":false,"is_disabled":false,"rental_uris":{"android":"levelo://app?vid=75b58ad3-589c-4015-9a40-0297bf20ca67","ios":"levelo://app?vid=75b58ad3-589c-4015-9a40-0297bf20ca67"},"vehicle_type_id":"4","last_reported":1702901616,"current_range_meters":31200,"station_id":"ce4bhm92rcd13ifvqglg","pricing_plan_id":"free"},{"bike_id":"d1643b37-094b-4021-a8c9-b96fdb2a620a","system_id":"levelo_inurba_marseille","lat":43.25929,"lon":5.40918,"is_reserved":false,"is_disabled":false,"rental_uris":{"android":"levelo://app?vid=d1643b37-094b-4021-a8c9-b96fdb2a620a","ios":"levelo://app?vid=d1643b37-094b-4021-a8c9-b96fdb2a620a"},"vehicle_type_id":"4","last_reported":1702901616,"current_range_meters":15200,"station_id":"ce4bhm92rcd13ifvqglg","pricing_plan_id":"free"},{"bike_id":"61a4c449-70c1-4d31-941e-a3fe596474dd","system_id":"levelo_inurba_marseille","lat":43.2589,"lon":5.40922,"is_reserved":false,"is_disabled":false,"rental_uris":{"android":"levelo://app?vid=61a4c449-70c1-4d31-941e-a3fe596474dd","ios":"levelo://app?vid=61a4c449-70c1-4d31-941e-a3fe596474dd"},"vehicle_type_id":"4","last_reported":1702901616,"current_range_meters":29200,"station_id":"ce4bhm92rcd13ifvqglg","pricing_plan_id":"free"},{"bike_id":"3ec10c70-a7bb-48e5-835e-6e4794721133","system_id":"levelo_inurba_marseille","lat":43.257079,"lon":5.411051,"is_reserved":false,"is_disabled":false,"rental_uris":{"android":"levelo://app?vid=3ec10c70-a7bb-48e5-835e-6e4794721133","ios":"levelo://app?vid=3ec10c70-a7bb-48e5-835e-6e4794721133"},"vehicle_type_id":"4","last_reported":1702901616,"current_range_meters":13200,"station_id":"ce4bhkp2rcd13ifvqgd0","pricing_plan_id":"free"},{"bike_id":"1b5b8572-9f39-4d0f-8e18-fca8919c82a0","system_id":"levelo_inurba_marseille","lat":43.257079,"lon":5.411051,"is_reserved":false,"is_disabled":false,"rental_uris":{"android":"levelo://app?vid=1b5b8572-9f39-4d0f-8e18-fca8919c82a0","ios":"levelo://app?vid=1b5b8572-9f39-4d0f-8e18-fca8919c82a0"},"vehicle_type_id":"4","last_reported":1702901616,"current_range_meters":31200,"station_id":"ce4bhkp2rcd13ifvqgd0","pricing_plan_id":"free"},{"bike_id":"ace7b35c-16fb-4476-b8cd-c6dba46436f8","system_id":"levelo_inurba_marseille","lat":43.257079,"lon":5.411051,"is_reserved":false,"is_disabled":false,"rental_uris":{"android":"levelo://app?vid=ace7b35c-16fb-4476-b8cd-c6dba46436f8","ios":"levelo://app?vid=ace7b35c-16fb-4476-b8cd-c6dba46436f8"},"vehicle_type_id":"4","last_reported":1702901616,"current_range_meters":16000,"station_id":"ce4bhkp2rcd13ifvqgd0","pricing_plan_id":"free"},{"bike_id":"4b7d94dd-cd49-4a98-a14a-8cf152345b96","system_id":"levelo_inurba_marseille","lat":43.2479,"lon":5.374457,"is_reserved":false,"is_disabled":false,"rental_uris":{"android":"levelo://app?vid=4b7d94dd-cd49-4a98-a14a-8cf152345b96","ios":"levelo://app?vid=4b7d94dd-cd49-4a98-a14a-8cf152345b96"},"vehicle_type_id":"4","last_reported":1702901616,"current_range_meters":0,"station_id":"ce4bhgh2rcd13ifvqfb0","pricing_plan_id":"free"},{"bike_id":"f7355d0c-75e0-4eb6-a66b-8a3f13e7d068","system_id":"levelo_inurba_marseille","lat":43.250966,"lon":5.395186,"is_reserved":false,"is_disabled":false,"rental_uris":{"android":"levelo://app?vid=f7355d0c-75e0-4eb6-a66b-8a3f13e7d068","ios":"levelo://app?vid=f7355d0c-75e0-4eb6-a66b-8a3f13e7d068"},"vehicle_type_id":"4","last_reported":1702901616,"current_range_meters":24000,"station_id":"ce4bhm12rcd13ifvqgkg","pricing_plan_id":"free"},{"bike_id":"d4424c6b-f552-461a-b35c-f5d9cae308d8","system_id":"levelo_inurba_marseille","lat":43.250966,"lon":5.395186,"is_reserved":false,"is_disabled":false,"rental_uris":{"android":"levelo://app?vid=d4424c6b-f552-461a-b35c-f5d9cae308d8","ios":"levelo://app?vid=d4424c6b-f552-461a-b35c-f5d9cae308d8"},"vehicle_type_id":"4","last_reported":1702901616,"current_range_meters":30400,"station_id":"ce4bhm12rcd13ifvqgkg","pricing_plan_id":"free"},{"bike_id":"a36ee7d6-7478-4780-a02f-bfde9ae51bbd","system_id":"levelo_inurba_marseille","lat":43.250966,"lon":5.395186,"is_reserved":false,"is_disabled":false,"rental_uris":{"android":"levelo://app?vid=a36ee7d6-7478-4780-a02f-bfde9ae51bbd","ios":"levelo://app?vid=a36ee7d6-7478-4780-a02f-bfde9ae51bbd"},"vehicle_type_id":"4","last_reported":1702901616,"current_range_meters":16400,"station_id":"ce4bhm12rcd13ifvqgkg","pricing_plan_id":"free"},{"bike_id":"6b4e3152-ecef-4e4d-9920-c61442bd6df4","system_id":"levelo_inurba_marseille","lat":43.250966,"lon":5.395186,"is_reserved":false,"is_disabled":false,"rental_uris":{"android":"levelo://app?vid=6b4e3152-ecef-4e4d-9920-c61442bd6df4","ios":"levelo://app?vid=6b4e3152-ecef-4e4d-9920-c61442bd6df4"},"vehicle_type_id":"4","last_reported":1702901616,"current_range_meters":15200,"station_id":"ce4bhm12rcd13ifvqgkg","pricing_plan_id":"free"},{"bike_id":"3a99e888-0857-466a-800e-6101d2f621db","system_id":"levelo_inurba_marseille","lat":43.246461,"lon":5.389014,"is_reserved":false,"is_disabled":false,"rental_uris":{"android":"levelo://app?vid=3a99e888-0857-466a-800e-6101d2f621db","ios":"levelo://app?vid=3a99e888-0857-466a-800e-6101d2f621db"},"vehicle_type_id":"4","last_reported":1702901616,"current_range_meters":17600,"station_id":"ce4bhg12rcd13ifvqf60","pricing_plan_id":"free"},{"bike_id":"fb4f65da-0732-4294-a1c2-f61a2ad40d2a","system_id":"levelo_inurba_marseille","lat":43.243884,"lon":5.370737,"is_reserved":false,"is_disabled":false,"rental_uris":{"android":"levelo://app?vid=fb4f65da-0732-4294-a1c2-f61a2ad40d2a","ios":"levelo://app?vid=fb4f65da-0732-4294-a1c2-f61a2ad40d2a"},"vehicle_type_id":"4","last_reported":1702901616,"current_range_meters":22000,"station_id":"ce4bhhh2rcd13ifvqfk0","pricing_plan_id":"free"},{"bike_id":"e8952ce2-8f44-42e9-b90b-7b5a236a0e4c","system_id":"levelo_inurba_marseille","lat":43.243884,"lon":5.370736,"is_reserved":false,"is_disabled":false,"rental_uris":{"android":"levelo://app?vid=e8952ce2-8f44-42e9-b90b-7b5a236a0e4c","ios":"levelo://app?vid=e8952ce2-8f44-42e9-b90b-7b5a236a0e4c"},"vehicle_type_id":"4","last_reported":1702901616,"current_range_meters":16400,"station_id":"ce4bhhh2rcd13ifvqfk0","pricing_plan_id":"free"},{"bike_id":"c12b7d14-a51c-49c4-869d-02522ee67892","system_id":"levelo_inurba_marseille","lat":43.24547,"lon":5.39527,"is_reserved":false,"is_disabled":false,"rental_uris":{"android":"levelo://app?vid=c12b7d14-a51c-49c4-869d-02522ee67892","ios":"levelo://app?vid=c12b7d14-a51c-49c4-869d-02522ee67892"},"vehicle_type_id":"4","last_reported":1702901616,"current_range_meters":21200,"station_id":"ce4bhlp2rcd13ifvqgjg","pricing_plan_id":"free"},{"bike_id":"337ca3c7-9462-4737-ac66-26cb921cd8a2","system_id":"levelo_inurba_marseille","lat":43.239588,"lon":5.366238,"is_reserved":false,"is_disabled":false,"rental_uris":{"android":"levelo://app?vid=337ca3c7-9462-4737-ac66-26cb921cd8a2","ios":"levelo://app?vid=337ca3c7-9462-4737-ac66-26cb921cd8a2"},"vehicle_type_id":"4","last_reported":1702901616,"current_range_meters":31200,"station_id":"ce4bhi12rcd13ifvqfp0","pricing_plan_id":"free"},{"bike_id":"f93bd17e-c01d-48ca-bfd8-2a624d454bce","system_id":"levelo_inurba_marseille","lat":43.239588,"lon":5.366238,"is_reserved":false,"is_disabled":false,"rental_uris":{"android":"levelo://app?vid=f93bd17e-c01d-48ca-bfd8-2a624d454bce","ios":"levelo://app?vid=f93bd17e-c01d-48ca-bfd8-2a624d454bce"},"vehicle_type_id":"4","last_reported":1702901616,"current_range_meters":19600,"station_id":"ce4bhi12rcd13ifvqfp0","pricing_plan_id":"free"},{"bike_id":"945031ea-46a0-45dc-b827-f2c1848c09af","system_id":"levelo_inurba_marseille","lat":43.239588,"lon":5.366238,"is_reserved":false,"is_disabled":false,"rental_uris":{"android":"levelo://app?vid=945031ea-46a0-45dc-b827-f2c1848c09af","ios":"levelo://app?vid=945031ea-46a0-45dc-b827-f2c1848c09af"},"vehicle_type_id":"4","last_reported":1702901616,"current_range_meters":31600,"station_id":"ce4bhi12rcd13ifvqfp0","pricing_plan_id":"free"},{"bike_id":"192f6b49-591c-4a7a-818b-cb3e1dd788f1","system_id":"levelo_inurba_marseille","lat":43.23611,"lon":5.36169,"is_reserved":false,"is_disabled":false,"rental_uris":{"android":"levelo://app?vid=192f6b49-591c-4a7a-818b-cb3e1dd788f1","ios":"levelo://app?vid=192f6b49-591c-4a7a-818b-cb3e1dd788f1"},"vehicle_type_id":"4","last_reported":1702901616,"current_range_meters":0,"station_id":"","pricing_plan_id":"free"},{"bike_id":"3f7500c4-e050-4359-a304-d2ae74d9edf0","system_id":"levelo_inurba_marseille","lat":43.23188,"lon":5.39976,"is_reserved":false,"is_disabled":false,"rental_uris":{"android":"levelo://app?vid=3f7500c4-e050-4359-a304-d2ae74d9edf0","ios":"levelo://app?vid=3f7500c4-e050-4359-a304-d2ae74d9edf0"},"vehicle_type_id":"4","last_reported":1702901616,"current_range_meters":30800,"station_id":"ce4bhn12rcd13ifvqgqg","pricing_plan_id":"free"},{"bike_id":"c72f640a-d17c-4b02-a7e4-b9cd6015f5ad","system_id":"levelo_inurba_marseille","lat":43.231793,"lon":5.400044,"is_reserved":false,"is_disabled":false,"rental_uris":{"android":"levelo://app?vid=c72f640a-d17c-4b02-a7e4-b9cd6015f5ad","ios":"levelo://app?vid=c72f640a-d17c-4b02-a7e4-b9cd6015f5ad"},"vehicle_type_id":"4","last_reported":1702901616,"current_range_meters":26400,"station_id":"ce4bhn12rcd13ifvqgqg","pricing_plan_id":"free"},{"bike_id":"b0bad05c-52a3-4cce-a6c6-3954af2ae0b6","system_id":"levelo_inurba_marseille","lat":43.231793,"lon":5.400044,"is_reserved":false,"is_disabled":false,"rental_uris":{"android":"levelo://app?vid=b0bad05c-52a3-4cce-a6c6-3954af2ae0b6","ios":"levelo://app?vid=b0bad05c-52a3-4cce-a6c6-3954af2ae0b6"},"vehicle_type_id":"4","last_reported":1702901616,"current_range_meters":30000,"station_id":"ce4bhn12rcd13ifvqgqg","pricing_plan_id":"free"},{"bike_id":"acf0dd34-f913-498b-aa4b-4fc19f73e994","system_id":"levelo_inurba_marseille","lat":43.231794,"lon":5.400052,"is_reserved":false,"is_disabled":false,"rental_uris":{"android":"levelo://app?vid=acf0dd34-f913-498b-aa4b-4fc19f73e994","ios":"levelo://app?vid=acf0dd34-f913-498b-aa4b-4fc19f73e994"},