{"last_updated":1760984188,"ttl":60,"version":"2.2","data":{"bikes":[{"bike_id":"e7e8b93c-02d4-466b-82b5-3f4c4f15c2ae","system_id":"levelo_inurba_marseille","lat":43.288142,"lon":5.438443,"is_reserved":false,"is_disabled":false,"rental_uris":{"android":"levelo://app?vid=e7e8b93c-02d4-466b-82b5-3f4c4f15c2ae","ios":"levelo://app?vid=e7e8b93c-02d4-466b-82b5-3f4c4f15c2ae"},"vehicle_type_id":"4","last_reported":1760984189,"current_range_meters":2800,"station_id":"","pricing_plan_id":"cebpf4jnsgd1na2vs0mg"},{"bike_id":"e87beb78-4b85-4665-97c6-18b2c40f207c","system_id":"levelo_inurba_marseille","lat":43.27491,"lon":5.42449,"is_reserved":false,"is_disabled":false,"rental_uris":{"android":"levelo://app?vid=e87beb78-4b85-4665-97c6-18b2c40f207c","ios":"levelo://app?vid=e87beb78-4b85-4665-97c6-18b2c40f207c"},"vehicle_type_id":"4","last_reported":1760984189,"current_range_meters":2800,"station_id":"ce4bhn92rcd13ifvqgrg","pricing_plan_id":"cebpf4jnsgd1na2vs0mg"},{"bike_id":"341025ca-ef2d-442d-80ac-78ca83dc4a7c","system_id":"levelo_inurba_marseille","lat":43.29928,"lon":5.36938,"is_reserved":false,"is_disabled":false,"rental_uris":{"android":"levelo://app?vid=341025ca-ef2d-442d-80ac-78ca83dc4a7c","ios":"levelo://app?vid=341025ca-ef2d-442d-80ac-78ca83dc4a7c"},"vehicle_type_id":"4","last_reported":1760984189,"current_range_meters":2800,"station_id":"","pricing_plan_id":"cebpf4jnsgd1na2vs0mg"},{"bike_id":"75fe3c2c-92f1-4d8e-8330-4d49ac28cdfd","system_id":"levelo_inurba_marseille","lat":43.24545,"lon":5.39522,"is_reserved":false,"is_disabled":false,"rental_uris":{"android":"levelo://app?vid=75fe3c2c-92f1-4d8e-8330-4d49ac28cdfd","ios":"levelo://app?vid=75fe3c2c-92f1-4d8e-8330-4d49ac28cdfd"},"vehicle_type_id":"4","last_reported":1760984189,"current_range_meters":2800,"station_id":"ce4bhlp2rcd13ifvqgjg","pricing_plan_id":"cebpf4jnsgd1na2vs0mg"},{"bike_id":"ee330c18-92a5-4b9d-b640-6fc52e434da2","system_id":"levelo_inurba_marseille","lat":43.29031,"lon":5.38659,"is_reserved":false,"is_disabled":false,"rental_uris":{"android":"levelo://app?vid=ee330c18-92a5-4b9d-b640-6fc52e434da2","ios":"levelo://app?vid=ee330c18-92a5-4b9d-b640-6fc52e434da2"},"vehicle_type_id":"4","last_reported":1760984189,"current_range_meters":3200,"station_id":"ce4bh4p2rcd13ifvqe0g","pricing_plan_id":"cebpf4jnsgd1na2vs0mg"},{"bike_id":"0a414463-fe1a-4833-8a11-178a3c2c879a","system_id":"levelo_inurba_marseille","lat":43.29852,"lon":5.37897,"is_reserved":false,"is_disabled":false,"rental_uris":{"android":"levelo://app?vid=0a414463-fe1a-4833-8a11-178a3c2c879a","ios":"levelo://app?vid=0a414463-fe1a-4833-8a11-178a3c2c879a"},"vehicle_type_id":"4","last_reported":1760984189,"current_range_meters":3600,"station_id":"","pricing_plan_id":"cebpf4jnsgd1na2vs0mg"},{"bike_id":"72c48493-5fc5-4009-9c73-b7e625e7daf5","system_id":"levelo_inurba_marseille","lat":43.29032,"lon":5.39985,"is_reserved":false,"is_disabled":false,"rental_uris":{"android":"levelo://app?vid=72c48493-5fc5-4009-9c73-b7e625e7daf5","ios":"levelo://app?vid=72c48493-5fc5-4009-9c73-b7e625e7daf5"},"vehicle_type_id":"4","last_reported":1760984189,"current_range_meters":3600,"station_id":"ce4bh392rcd13ifvqdm0","pricing_plan_id":"cebpf4jnsgd1na2vs0mg"},{"bike_id":"c2c5e0a3-31d9-4a13-9891-4117859ee8f4","system_id":"levelo_inurba_marseille","lat":43.240753,"lon":5.377534,"is_reserved":false,"is_disabled":false,"rental_uris":{"android":"levelo://app?vid=c2c5e0a3-31d9-4a13-9891-4117859ee8f4","ios":"levelo://app?vid=c2c5e0a3-31d9-4a13-9891-4117859ee8f4"},"vehicle_type_id":"4","last_reported":1760984189,"current_range_meters":3600,"station_id":"ce4bhnp2rcd13ifvqgvg","pricing_plan_id":"cebpf4jnsgd1na2vs0mg"},{"bike_id":"6de21c3a-e38e-4844-9ddb-a61d617ae484","system_id":"levelo_inurba_marseille","lat":43.26067,"lon":5.394,"is_reserved":false,"is_disabled":false,"rental_uris":{"android":"levelo://app?vid=6de21c3a-e38e-4844-9ddb-a61d617ae484","ios":"levelo://app?vid=6de21c3a-e38e-4844-9ddb-a61d617ae484"},"vehicle_type_id":"4","last_reported":1760984189,"current_range_meters":3600,"station_id":"ce4bhh92rcd13ifvqfj0","pricing_plan_id":"cebpf4jnsgd1na2vs0mg"},{"bike_id":"08a1d5b6-5e7b-4da6-8366-762c1e4b16df","system_id":"levelo_inurba_marseille","lat":43.265855,"lon":5.390325,"is_reserved":false,"is_disabled":false,"rental_uris":{"android":"levelo://app?vid=08a1d5b6-5e7b-4da6-8366-762c1e4b16df","ios":"levelo://app?vid=08a1d5b6-5e7b-4da6-8366-762c1e4b16df"},"vehicle_type_id":"4","last_reported":1760984189,"current_range_meters":4000,"station_id":"ce4bhe12rcd13ifvqf30","pricing_plan_id":"cebpf4jnsgd1na2vs0mg"},{"bike_id":"87430967-3a7a-4672-a89f-62f3bb503f94","system_id":"levelo_inurba_marseille","lat":43.324806,"lon":5.365579,"is_reserved":false,"is_disabled":false,"rental_uris":{"android":"levelo://app?vid=87430967-3a7a-4672-a89f-62f3bb503f94","ios":"levelo://app?vid=87430967-3a7a-4672-a89f-62f3bb503f94"},"vehicle_type_id":"4","last_reported":1760984189,"current_range_meters":4000,"station_id":"ce4bhs12rcd13ifvqhvg","pricing_plan_id":"cebpf4jnsgd1na2vs0mg"},{"bike_id":"e03a1f0a-1b40-4314-b623-8ce4575c53bf","system_id":"levelo_inurba_marseille","lat":43.29199,"lon":5.39314,"is_reserved":false,"is_disabled":false,"rental_uris":{"android":"levelo://app?vid=e03a1f0a-1b40-4314-b623-8ce4575c53bf","ios":"levelo://app?vid=e03a1f0a-1b40-4314-b623-8ce4575c53bf"},"vehicle_type_id":"4","last_reported":1760984189,"current_range_meters":4000,"station_id":"ce4bh192rcd13ifvqdd0","pricing_plan_id":"cebpf4jnsgd1na2vs0mg"},{"bike_id":"ee05ab4b-b72f-453e-8914-a9150b6d1bdd","system_id":"levelo_inurba_marseille","lat":43.28612,"lon":5.35105,"is_reserved":false,"is_disabled":false,"rental_uris":{"android":"levelo://app?vid=ee05ab4b-b72f-453e-8914-a9150b6d1bdd","ios":"levelo://app?vid=ee05ab4b-b72f-453e-8914-a9150b6d1bdd"},"vehicle_type_id":"4","last_reported":1760984189,"current_range_meters":4000,"station_id":"","pricing_plan_id":"cebpf4jnsgd1na2vs0mg"},{"bike_id":"a2b277a2-af39-49d0-adc4-81584d408093","system_id":"levelo_inurba_marseille","lat":43.26932,"lon":5.40262,"is_reserved":false,"is_disabled":false,"rental_uris":{"android":"levelo://app?vid=a2b277a2-af39-49d0-adc4-81584d408093","ios":"levelo://app?vid=a2b277a2-af39-49d0-adc4-81584d408093"},"vehicle_type_id":"4","last_reported":1760984189,"current_range_meters":4000,"station_id":"cjm6bp8fraef2m0cb0m0","pricing_plan_id":"cebpf4jnsgd1na2vs0mg"},{"bike_id":"aa821399-05f6-4933-ae8e-6733ffa58a10","system_id":"levelo_inurba_marseille","lat":43.30246,"lon":5.40065,"is_reserved":false,"is_disabled":false,"rental_uris":{"android":"levelo://app?vid=aa821399-05f6-4933-ae8e-6733ffa58a10","ios":"levelo://app?vid=aa821399-05f6-4933-ae8e-6733ffa58a10"},"vehicle_type_id":"4","last_reported":1760984189,"current_range_meters":4000,"station_id":"ce4bgvh2rcd13ifvqcs0","pricing_plan_id":"cebpf4jnsgd1na2vs0mg"},{"bike_id":"2bbea2ae-db23-4efb-bdd8-574197db4826","system_id":"levelo_inurba_marseille","lat":43.30133,"lon":5.3986,"is_reserved":false,"is_disabled":false,"rental_uris":{"android":"levelo://app?vid=2bbea2ae-db23-4efb-bdd8-574197db4826","ios":"levelo://app?vid=2bbea2ae-db23-4efb-bdd8-574197db4826"},"vehicle_type_id":"4","last_reported":1760984189,"current_range_meters":4000,"station_id":"ce4bh0h2rcd13ifvqd40","pricing_plan_id":"cebpf4jnsgd1na2vs0mg"},{"bike_id":"e8b45772-2fe8-472e-ae6b-3ab8873288b4","system_id":"levelo_inurba_marseille","lat":43.28657,"lon":5.36354,"is_reserved":false,"is_disabled":false,"rental_uris":{"android":"levelo://app?vid=e8b45772-2fe8-472e-ae6b-3ab8873288b4","ios":"levelo://app?vid=e8b45772-2fe8-472e-ae6b-3ab8873288b4"},"vehicle_type_id":"4","last_reported":1760984189,"current_range_meters":4000,"station_id":"ce4bhah2rcd13ifvqej0","pricing_plan_id":"cebpf4jnsgd1na2vs0mg"},{"bike_id":"6ab24d57-951b-45a3-a954-6f5c21ecde6e","system_id":"levelo_inurba_marseille","lat":43.30726,"lon":5.42433,"is_reserved":false,"is_disabled":false,"rental_uris":{"android":"levelo://app?vid=6ab24d57-951b-45a3-a954-6f5c21ecde6e","ios":"levelo://app?vid=6ab24d57-951b-45a3-a954-6f5c21ecde6e"},"vehicle_type_id":"4","last_reported":1760984189,"current_range_meters":4000,"station_id":"st_cvj6ca6bvosntc0bfgr0","pricing_plan_id":"cebpf4jnsgd1na2vs0mg"},{"bike_id":"9b12efb8-4745-48c9-b6b8-0c8b6b7dbcf5","system_id":"levelo_inurba_marseille","lat":43.30874,"lon":5.37883,"is_reserved":false,"is_disabled":false,"rental_uris":{"android":"levelo://app?vid=9b12efb8-4745-48c9-b6b8-0c8b6b7dbcf5","ios":"levelo://app?vid=9b12efb8-4745-48c9-b6b8-0c8b6b7dbcf5"},"vehicle_type_id":"4","last_reported":1760984189,"current_range_meters":4000,"station_id":"","pricing_plan_id":"cebpf4jnsgd1na2vs0mg"},{"bike_id":"3170a251-d687-456b-9940-32507cf0a3e8","system_id":"levelo_inurba_marseille","lat":43.29605,"lon":5.37721,"is_reserved":false,"is_disabled":true,"rental_uris":{"android":"levelo://app?vid=3170a251-d687-456b-9940-32507cf0a3e8","ios":"levelo://app?vid=3170a251-d687-456b-9940-32507cf0a3e8"},"vehicle_type_id":"4","last_reported":1760984189,"current_range_meters":4400,"station_id":"ce4bgi92rcd13ifvqb90","pricing_plan_id":"cebpf4jnsgd1na2vs0mg"},{"bike_id":"fd1605e3-1fc8-4098-b889-a5f2d07cf3e2","system_id":"levelo_inurba_marseille","lat":43.27942,"lon":5.41048,"is_reserved":false,"is_disabled":false,"rental_uris":{"android":"levelo://app?vid=fd1605e3-1fc8-4098-b889-a5f2d07cf3e2","ios":"levelo://app?vid=fd1605e3-1fc8-4098-b889-a5f2d07cf3e2"},"vehicle_type_id":"4","last_reported":1760984189,"current_range_meters":4400,"station_id":"ce4bhnp2rcd13ifvqh0g","pricing_plan_id":"cebpf4jnsgd1na2vs0mg"},{"bike_id":"9895c269-88e5-46d4-9788-14a69ffebc9f","system_id":"levelo_inurba_marseille","lat":43.29198,"lon":5.39314,"is_reserved":false,"is_disabled":false,"rental_uris":{"android":"levelo://app?vid=9895c269-88e5-46d4-9788-14a69ffebc9f","ios":"levelo://app?vid=9895c269-88e5-46d4-9788-14a69ffebc9f"},"vehicle_type_id":"4","last_reported":1760984189,"current_range_meters":4400,"station_id":"ce4bh192rcd13ifvqdd0","pricing_plan_id":"cebpf4jnsgd1na2vs0mg"},{"bike_id":"1d443700-dbf4-48cd-898b-656520f60116","system_id":"levelo_inurba_marseille","lat":43.26684,"lon":5.38277,"is_reserved":false,"is_disabled":false,"rental_uris":{"android":"levelo://app?vid=1d443700-dbf4-48cd-898b-656520f60116","ios":"levelo://app?vid=1d443700-dbf4-48cd-898b-656520f60116"},"vehicle_type_id":"4","last_reported":1760984189,"current_range_meters":4400,"station_id":"ce4bhg92rcd13ifvqf90","pricing_plan_id":"cebpf4jnsgd1na2vs0mg"},{"bike_id":"224e7052-2353-48f8-b34d-27b485e82bb7","system_id":"levelo_inurba_marseille","lat":43.275653,"lon":5.384193,"is_reserved":false,"is_disabled":false,"rental_uris":{"android":"levelo://app?vid=224e7052-2353-48f8-b34d-27b485e82bb7","ios":"levelo://app?vid=224e7052-2353-48f8-b34d-27b485e82bb7"},"vehicle_type_id":"4","last_reported":1760984189,"current_range_meters":4800,"station_id":"ce4bhh92rcd13ifvqfi0","pricing_plan_id":"cebpf4jnsgd1na2vs0mg"},{"bike_id":"115d6c05-393c-4bd4-9f6e-abf819196209","system_id":"levelo_inurba_marseille","lat":43.29165,"lon":5.3715,"is_reserved":false,"is_disabled":false,"rental_uris":{"android":"levelo://app?vid=115d6c05-393c-4bd4-9f6e-abf819196209","ios":"levelo://app?vid=115d6c05-393c-4bd4-9f6e-abf819196209"},"vehicle_type_id":"4","last_reported":1760984189,"current_range_meters":4800,"station_id":"ce4bha92rcd13ifvqeh0","pricing_plan_id":"cebpf4jnsgd1na2vs0mg"},{"bike_id":"ed76f5db-1fe1-4774-92f7-e1e11ae2b96b","system_id":"levelo_inurba_marseille","lat":43.297211,"lon":5.427301,"is_reserved":false,"is_disabled":false,"rental_uris":{"android":"levelo://app?vid=ed76f5db-1fe1-4774-92f7-e1e11ae2b96b","ios":"levelo://app?vid=ed76f5db-1fe1-4774-92f7-e1e11ae2b96b"},"vehicle_type_id":"4","last_reported":1760984189,"current_range_meters":4800,"station_id":"st_d3md5207bmas73dh9klg","pricing_plan_id":"cebpf4jnsgd1na2vs0mg"},{"bike_id":"ce69e107-4ef6-4548-bfa3-e635d4dff83e","system_id":"levelo_inurba_marseille","lat":43.28111,"lon":5.37831,"is_reserved":false,"is_disabled":false,"rental_uris":{"android":"levelo://app?vid=ce69e107-4ef6-4548-bfa3-e635d4dff83e","ios":"levelo://app?vid=ce69e107-4ef6-4548-bfa3-e635d4dff83e"},"vehicle_type_id":"4","last_reported":1760984189,"current_range_meters":4800,"station_id":"ce4bha12rcd13ifvqee0","pricing_plan_id":"cebpf4jnsgd1na2vs0mg"},{"bike_id":"c039ff92-de5c-45c0-8fd5-a7ac16a7354c","system_id":"levelo_inurba_marseille","lat":43.28711,"lon":5.39993,"is_reserved":false,"is_disabled":false,"rental_uris":{"android":"levelo://app?vid=c039ff92-de5c-45c0-8fd5-a7ac16a7354c","ios":"levelo://app?vid=c039ff92-de5c-45c0-8fd5-a7ac16a7354c"},"vehicle_type_id":"4","last_reported":1760984189,"current_range_meters":4800,"station_id":"ce4bho92rcd13ifvqh3g","pricing_plan_id":"cebpf4jnsgd1na2vs0mg"},{"bike_id":"ac09a6c7-1ac2-431c-ae53-46c283287c42","system_id":"levelo_inurba_marseille","lat":43.24808,"lon":5.37453,"is_reserved":false,"is_disabled":false,"rental_uris":{"android":"levelo://app?vid=ac09a6c7-1ac2-431c-ae53-46c283287c42","ios":"levelo://app?vid=ac09a6c7-1ac2-431c-ae53-46c283287c42"},"vehicle_type_id":"4","last_reported":1760984189,"current_range_meters":5600,"station_id":"ce4bhgh2rcd13ifvqfb0","pricing_plan_id":"cebpf4jnsgd1na2vs0mg"},{"bike_id":"365b1110-8604-4b2d-ad9b-3263b8a258f2","system_id":"levelo_inurba_marseille","lat":43.28655,"lon":5.3634,"is_reserved":false,"is_disabled":false,"rental_uris":{"android":"levelo://app?vid=365b1110-8604-4b2d-ad9b-3263b8a258f2","ios":"levelo://app?vid=365b1110-8604-4b2d-ad9b-3263b8a258f2"},"vehicle_type_id":"4","last_reported":1760984189,"current_range_meters":5600,"station_id":"ce4bhah2rcd13ifvqej0","pricing_plan_id":"cebpf4jnsgd1na2vs0mg"},{"bike_id":"6f0737a5-2425-4905-a16b-eeebe3e4ab99","system_id":"levelo_inurba_marseille","lat":43.29967,"lon":5.37177,"is_reserved":false,"is_disabled":false,"rental_uris":{"android":"levelo://app?vid=6f0737a5-2425-4905-a16b-eeebe3e4ab99","ios":"levelo://app?vid=6f0737a5-2425-4905-a16b-eeebe3e4ab99"},"vehicle_type_id":"4","last_reported":1760984189,"current_range_meters":5600,"station_id":"ce4bgr92rcd13ifvqc7g","pricing_plan_id":"cebpf4jnsgd1na2vs0mg"},{"bike_id":"321b9d5b-ce02-4780-90fa-b89bcae7b155","system_id":"levelo_inurba_marseille","lat":43.29227,"lon":5.36092,"is_reserved":false,"is_disabled":false,"rental_uris":{"android":"levelo://app?vid=321b9d5b-ce02-4780-90fa-b89bcae7b155","ios":"levelo://app?vid=321b9d5b-ce02-4780-90fa-b89bcae7b155"},"vehicle_type_id":"4","last_reported":1760984189,"current_range_meters":5600,"station_id":"ce4bhbh2rcd13ifvqeqg","pricing_plan_id":"cebpf4jnsgd1na2vs0mg"},{"bike_id":"ac6d2c4d-74a8-443d-a9f9-0d9807feacda","system_id":"levelo_inurba_marseille","lat":43.33772,"lon":5.37469,"is_reserved":false,"is_disabled":false,"rental_uris":{"android":"levelo://app?vid=ac6d2c4d-74a8-443d-a9f9-0d9807feacda","ios":"levelo://app?vid=ac6d2c4d-74a8-443d-a9f9-0d9807feacda"},"vehicle_type_id":"4","last_reported":1760984189,"current_range_meters":5600,"station_id":"","pricing_plan_id":"cebpf4jnsgd1na2vs0mg"},{"bike_id":"e978660f-731d-4a95-8df5-e0a54d8fe8be","system_id":"levelo_inurba_marseille","lat":43.21202,"lon":5.35076,"is_reserved":false,"is_disabled":false,"rental_uris":{"android":"levelo://app?vid=e978660f-731d-4a95-8df5-e0a54d8fe8be","ios":"levelo://app?vid=e978660f-731d-4a95-8df5-e0a54d8fe8be"},"vehicle_type_id":"4","last_reported":1760984189,"current_range_meters":5600,"station_id":"st_cvj6sg6p6f1abm77japg","pricing_plan_id":"cebpf4jnsgd1na2vs0mg"},{"bike_id":"8bcd16f2-94b0-4272-b896-586013721baf","system_id":"levelo_inurba_marseille","lat":43.26212,"lon":5.3744,"is_reserved":false,"is_disabled":false,"rental_uris":{"android":"levelo://app?vid=8bcd16f2-94b0-4272-b896-586013721baf","ios":"levelo://app?vid=8bcd16f2-94b0-4272-b896-586013721baf"},"vehicle_type_id":"4","last_reported":1760984189,"current_range_meters":6000,"station_id":"ce4bhgp2rcd13ifvqfc0","pricing_plan_id":"cebpf4jnsgd1na2vs0mg"},{"bike_id":"20cba117-cd1f-43cd-9ec4-b4079c6102b8","system_id":"levelo_inurba_marseille","lat":43.24649,"lon":5.38888,"is_reserved":false,"is_disabled":false,"rental_uris":{"android":"levelo://app?vid=20cba117-cd1f-43cd-9ec4-b4079c6102b8","ios":"levelo://app?vid=20cba117-cd1f-43cd-9ec4-b4079c6102b8"},"vehicle_type_id":"4","last_reported":1760984189,"current_range_meters":6000,"station_id":"ce4bhg12rcd13ifvqf60","pricing_plan_id":"cebpf4jnsgd1na2vs0mg"},{"bike_id":"ed376a7d-3184-4e9e-95bb-98d150ea03eb","system_id":"levelo_inurba_marseille","lat":43.28449,"lon":5.35899,"is_reserved":false,"is_disabled":false,"rental_uris":{"android":"levelo://app?vid=ed376a7d-3184-4e9e-95bb-98d150ea03eb","ios":"levelo://app?vid=ed376a7d-3184-4e9e-95bb-98d150ea03eb"},"vehicle_type_id":"4","last_reported":1760984189,"current_range_meters":6000,"station_id":"ce4bhah2rcd13ifvqei0","pricing_plan_id":"cebpf4jnsgd1na2vs0mg"},{"bike_id":"720543e7-6938-413e-9c6c-10f7542a8213","system_id":"levelo_inurba_marseille","lat":43.29539,"lon":5.38543,"is_reserved":false,"is_disabled":false,"rental_uris":{"android":"levelo://app?vid=720543e7-6938-413e-9c6c-10f7542a8213","ios":"levelo://app?vid=720543e7-6938-413e-9c6c-10f7542a8213"},"vehicle_type_id":"4","last_reported":1760984189,"current_range_meters":6000,"station_id":"ce4bgih2rcd13ifvqba0","pricing_plan_id":"cebpf4jnsgd1na2vs0mg"},{"bike_id":"1e280a34-e5de-4862-8f8a-ba09f9aff9cf","system_id":"levelo_inurba_marseille","lat":43.28719,"lon":5.37933,"is_reserved":false,"is_disabled":false,"rental_uris":{"android":"levelo://app?vid=1e280a34-e5de-4862-8f8a-ba09f9aff9cf","ios":"levelo://app?vid=1e280a34-e5de-4862-8f8a-ba09f9aff9cf"},"vehicle_type_id":"4","last_reported":1760984189,"current_range_meters":6000,"station_id":"ce4bh9p2rcd13ifvqec0","pricing_plan_id":"cebpf4jnsgd1na2vs0mg"},{"bike_id":"4d339d20-dfe6-4a1e-a062-a177c6959e5e","system_id":"levelo_inurba_marseille","lat":43.28699,"lon":5.3998,"is_reserved":false,"is_disabled":false,"rental_uris":{"android":"levelo://app?vid=4d339d20-dfe6-4a1e-a062-a177c6959e5e","ios":"levelo://app?vid=4d339d20-dfe6-4a1e-a062-a177c6959e5e"},"vehicle_type_id":"4","last_reported":1760984189,"current_range_meters":6400,"station_id":"ce4bho92rcd13ifvqh3g","pricing_plan_id":"cebpf4jnsgd1na2vs0mg"},{"bike_id":"b3ef2420-d2fb-4db7-b30c-518d72aea008","system_id":"levelo_inurba_marseille","lat":43.27837,"lon":5.39221,"is_reserved":false,"is_disabled":false,"rental_uris":{"android":"levelo://app?vid=b3ef2420-d2fb-4db7-b30c-518d72aea008","ios":"levelo://app?vid=b3ef2420-d2fb-4db7-b30c-518d72aea008"},"vehicle_type_id":"4","last_reported":1760984189,"current_range_meters":6400,"station_id":"ce4bhjp2rcd13ifvqga0","pricing_plan_id":"cebpf4jnsgd1na2vs0mg"},{"bike_id":"b9ec5c2f-cb81-4fd4-bf9a-20716dc32120","system_id":"levelo_inurba_marseille","lat":43.29858,"lon":5.39731,"is_reserved":false,"is_disabled":false,"rental_uris":{"android":"levelo://app?vid=b9ec5c2f-cb81-4fd4-bf9a-20716dc32120","ios":"levelo://app?vid=b9ec5c2f-cb81-4fd4-bf9a-20716dc32120"},"vehicle_type_id":"4","last_reported":1760984189,"current_range_meters":6400,"station_id":"ce4bh0h2rcd13ifvqd50","pricing_plan_id":"cebpf4jnsgd1na2vs0mg"},{"bike_id":"200b4708-5b01-4425-b02a-e1ecccef9ba2","system_id":"levelo_inurba_marseille","lat":43.21749,"lon":5.34602,"is_reserved":false,"is_disabled":false,"rental_uris":{"android":"levelo://app?vid=200b4708-5b01-4425-b02a-e1ecccef9ba2","ios":"levelo://app?vid=200b4708-5b01-4425-b02a-e1ecccef9ba2"},"vehicle_type_id":"4","last_reported":1760984189,"current_range_meters":6400,"station_id":"st_cvj6r9ubvosntc0bgbag","pricing_plan_id":"cebpf4jnsgd1na2vs0mg"},{"bike_id":"b8502cde-1ec2-4341-ba4d-410a04afe60a","system_id":"levelo_inurba_marseille","lat":43.29038,"lon":5.39981,"is_reserved":false,"is_disabled":true,"rental_uris":{"android":"levelo://app?vid=b8502cde-1ec2-4341-ba4d-410a04afe60a","ios":"levelo://app?vid=b8502cde-1ec2-4341-ba4d-410a04afe60a"},"vehicle_type_id":"4","last_reported":1760984189,"current_range_meters":6400,"station_id":"ce4bh392rcd13ifvqdm0","pricing_plan_id":"cebpf4jnsgd1na2vs0mg"},{"bike_id":"2a3c6020-5ce3-40bc-af99-ed6d91a7ad6f","system_id":"levelo_inurba_marseille","lat":43.29275,"lon":5.36851,"is_reserved":false,"is_disabled":false,"rental_uris":{"android":"levelo://app?vid=2a3c6020-5ce3-40bc-af99-ed6d91a7ad6f","ios":"levelo://app?vid=2a3c6020-5ce3-40bc-af99-ed6d91a7ad6f"},"vehicle_type_id":"4","last_reported":1760984189,"current_range_meters":6400,"station_id":"ce4bhbp2rcd13ifvqesg","pricing_plan_id":"cebpf4jnsgd1na2vs0mg"},{"bike_id":"b0bf974c-5d5b-4271-827c-dd16748c85fc","system_id":"levelo_inurba_marseille","lat":43.26782,"lon":5.39412,"is_reserved":false,"is_disabled":false,"rental_uris":{"android":"levelo://app?vid=b0bf974c-5d5b-4271-827c-dd16748c85fc","ios":"levelo://app?vid=b0bf974c-5d5b-4271-827c-dd16748c85fc"},"vehicle_type_id":"4","last_reported":1760984189,"current_range_meters":6400,"station_id":"ce4bhh12rcd13ifvqfg0","pricing_plan_id":"cebpf4jnsgd1na2vs0mg"},{"bike_id":"ff3adba8-4365-4eda-b697-d608d619c5a3","system_id":"levelo_inurba_marseille","lat":43.29612,"lon":5.37722,"is_reserved":false,"is_disabled":false,"rental_uris":{"android":"levelo://app?vid=ff3adba8-4365-4eda-b697-d608d619c5a3","ios":"levelo://app?vid=ff3adba8-4365-4eda-b697-d608d619c5a3"},"vehicle_type_id":"4","last_reported":1760984189,"current_range_meters":6400,"station_id":"ce4bgi92rcd13ifvqb90","pricing_plan_id":"cebpf4jnsgd1na2vs0mg"},{"bike_id":"1f938c25-3575-48d0-b8ad-b59e21319611","system_id":"levelo_inurba_marseille","lat":43.28717,"lon":5.37947,"is_reserved":false,"is_disabled":false,"rental_uris":{"android":"levelo://app?vid=1f938c25-3575-48d0-b8ad-b59e21319611","ios":"levelo://app?vid=1f938c25-3575-48d0-b8ad-b59e21319611"},"vehicle_type_id":"4","last_reported":1760984189,"current_range_meters":6400,"station_id":"ce4bh9p2rcd13ifvqec0","pricing_plan_id":"cebpf4jnsgd1na2vs0mg"},{"bike_id":"0fe33433-b1ae-41fb-82f9-36c3c34cf175","system_id":"levelo_inurba_marseille","lat":43.29254,"lon":5.38435,"is_reserved":false,"is_disabled":false,"rental_uris":{"android":"levelo://app?vid=0fe33433-b1ae-41fb-82f9-36c3c34cf175","ios":"levelo://app?vid=0fe33433-b1ae-41fb-82f9-36c3c34cf175"},"vehicle_type_id":"4","last_reported":1760984189,"current_range_meters":6400,"station_id":"ce4bh692rcd13ifvqea0","pricing_plan_id":"cebpf4jnsgd1na2vs0mg"},{"bike_id":"50631401-0ede-4c8a-a0be-6d60f0cc8673","system_id":"levelo_inurba_marseille","lat":43.26805,"lon":5.4027,"is_reserved":false,"is_disabled":false,"rental_uris":{"android":"levelo://app?vid=50631401-0ede-4c8a-a0be-6d60f0cc8673","ios":"levelo://app?vid=50631401-0ede-4c8a-a0be-6d60f0cc8673"},"vehicle_type_id":"4","last_reported":1760984189,"current_range_meters":6400,"station_id":"ce501612rcd8frsf0b60","pricing_plan_id":"cebpf4jnsgd1na2vs0mg"},{"bike_id":"b7386431-5ebf-4826-9300-e07f92e3c2f5","system_id":"levelo_inurba_marseille","lat":43.28845,"lon":5.3585,"is_reserved":false,"is_disabled":false,"rental_uris":{"android":"levelo://app?vid=b7386431-5ebf-4826-9300-e07f92e3c2f5","ios":"levelo://app?vid=b7386431-5ebf-4826-9300-e07f92e3c2f5"},"vehicle_type_id":"4","last_reported":1760984189,"current_range_meters":6400,"station_id":"ce4bhb12rcd13ifvqem0","pricing_plan_id":"cebpf4jnsgd1na2vs0mg"},{"bike_id":"88ff2dc2-bc20-4a18-8a2d-8b553503d18a","system_id":"levelo_inurba_marseille","lat":43.25119,"lon":5.4032,"is_reserved":false,"is_disabled":false,"rental_uris":{"android":"levelo://app?vid=88ff2dc2-bc20-4a18-8a2d-8b553503d18a","ios":"levelo://app?vid=88ff2dc2-bc20-4a18-8a2d-8b553503d18a"},"vehicle_type_id":"4","last_reported":1760984189,"current_range_meters":6400,"station_id":"ce4bhlh2rcd13ifvqgig","pricing_plan_id":"cebpf4jnsgd1na2vs0mg"},{"bike_id":"be23f4f6-1977-402d-96f0-5e1359023b4a","system_id":"levelo_inurba_marseille","lat":43.24944,"lon":5.40494,"is_reserved":false,"is_disabled":false,"rental_uris":{"android":"levelo://app?vid=be23f4f6-1977-402d-96f0-5e1359023b4a","ios":"levelo://app?vid=be23f4f6-1977-402d-96f0-5e1359023b4a"},"vehicle_type_id":"4","last_reported":1760984189,"current_range_meters":6400,"station_id":"st_d2ngiaodas8pm72gd1h0","pricing_plan_id":"cebpf4jnsgd1na2vs0mg"},{"bike_id":"b9f4c452-f1a0-4b31-854c-2325a5b73556","system_id":"levelo_inurba_marseille","lat":43.21465,"lon":5.34315,"is_reserved":false,"is_disabled":false,"rental_uris":{"android":"levelo://app?vid=b9f4c452-f1a0-4b31-854c-2325a5b73556","ios":"levelo://app?vid=b9f4c452-f1a0-4b31-854c-2325a5b73556"},"vehicle_type_id":"4","last_reported":1760984189,"current_range_meters":6400,"station_id":"","pricing_plan_id":"cebpf4jnsgd1na2vs0mg"},{"bike_id":"57ee3bcc-0a2f-48e0-802f-172b4a52e6f4","system_id":"levelo_inurba_marseille","lat":43.295222,"lon":5.385385,"is_reserved":false,"is_disabled":false,"rental_uris":{"android":"levelo://app?vid=57ee3bcc-0a2f-48e0-802f-172b4a52e6f4","ios":"levelo://app?vid=57ee3bcc-0a2f-48e0-802f-172b4a52e6f4"},"vehicle_type_id":"4","last_reported":1760984189,"current_range_meters":6800,"station_id":"ce4bgih2rcd13ifvqba0","pricing_plan_id":"cebpf4jnsgd1na2vs0mg"},{"bike_id":"bb4f3402-dc5e-445a-bd66-3836c615fa81","system_id":"levelo_inurba_marseille","lat":43.26493,"lon":5.39542,"is_reserved":false,"is_disabled":false,"rental_uris":{"android":"levelo://app?vid=bb4f3402-dc5e-445a-bd66-3836c615fa81","ios":"levelo://app?vid=bb4f3402-dc5e-445a-bd66-3836c615fa81"},"vehicle_type_id":"4","last_reported":1760984189,"current_range_meters":6800,"station_id":"ce4bhi12rcd13ifvqfq0","pricing_plan_id":"cebpf4jnsgd1na2vs0mg"},{"bike_id":"634b1cc2-9ee2-4f45-9c1b-7a6cd0bdc0f4","system_id":"levelo_inurba_marseille","lat":43.245468,"lon":5.395205,"is_reserved":false,"is_disabled":false,"rental_uris":{"android":"levelo://app?vid=634b1cc2-9ee2-4f45-9c1b-7a6cd0bdc0f4","ios":"levelo://app?vid=634b1cc2-9ee2-4f45-9c1b-7a6cd0bdc0f4"},"vehicle_type_id":"4","last_reported":1760984189,"current_range_meters":6800,"station_id":"ce4bhlp2rcd13ifvqgjg","pricing_plan_id":"cebpf4jnsgd1na2vs0mg"},{"bike_id":"f08ce4d4-6b61-4dc2-aeb3-647e5900e7fb","system_id":"levelo_inurba_marseille","lat":43.24675,"lon":5.38163,"is_reserved":false,"is_disabled":false,"rental_uris":{"android":"levelo://app?vid=f08ce4d4-6b61-4dc2-aeb3-647e5900e7fb","ios":"levelo://app?vid=f08ce4d4-6b61-4dc2-aeb3-647e5900e7fb"},"vehicle_type_id":"4","last_reported":1760984189,"current_range_meters":6800,"station_id":"ce4bhih2rcd13ifvqfr0","pricing_plan_id":"cebpf4jnsgd1na2vs0mg"},{"bike_id":"c0d7216c-71bc-4811-b1ea-39d9f46cef7e","system_id":"levelo_inurba_marseille","lat":43.295227,"lon":5.390332,"is_reserved":false,"is_disabled":true,"rental_uris":{"android":"levelo://app?vid=c0d7216c-71bc-4811-b1ea-39d9f46cef7e","ios":"levelo://app?vid=c0d7216c-71bc-4811-b1ea-39d9f46cef7e"},"vehicle_type_id":"4","last_reported":1760984189,"current_range_meters":6800,"station_id":"ce4bh3p2rcd13ifvqdp0","pricing_plan_id":"cebpf4jnsgd1na2vs0mg"},{"bike_id":"0fe5f988-499b-40e5-a930-cd6431a1b2ca","system_id":"levelo_inurba_marseille","lat":43.28347,"lon":5.39818,"is_reserved":false,"is_disabled":false,"rental_uris":{"android":"levelo://app?vid=0fe5f988-499b-40e5-a930-cd6431a1b2ca","ios":"levelo://app?vid=0fe5f988-499b-40e5-a930-cd6431a1b2ca"},"vehicle_type_id":"4","last_reported":1760984189,"current_range_meters":6800,"station_id":"","pricing_plan_id":"cebpf4jnsgd1na2vs0mg"},{"bike_id":"a463e313-a49e-4913-86e0-55372fde2260","system_id":"levelo_inurba_marseille","lat":43.33245,"lon":5.44188,"is_reserved":false,"is_disabled":true,"rental_uris":{"android":"levelo://app?vid=a463e313-a49e-4913-86e0-55372fde2260","ios":"levelo://app?vid=a463e313-a49e-4913-86e0-55372fde2260"},"vehicle_type_id":"4","last_reported":1760984189,"current_range_meters":7200,"station_id":"","pricing_plan_id":"cebpf4jnsgd1na2vs0mg"},{"bike_id":"49b9bfee-0058-428f-851b-c317f7fd50a9","system_id":"levelo_inurba_marseille","lat":43.24811,"lon":5.37443,"is_reserved":false,"is_disabled":false,"rental_uris":{"android":"levelo://app?vid=49b9bfee-0058-428f-851b-c317f7fd50a9","ios":"levelo://app?vid=49b9bfee-0058-428f-851b-c317f7fd50a9"},"vehicle_type_id":"4","last_reported":1760984189,"current_range_meters":7200,"station_id":"ce4bhgh2rcd13ifvqfb0","pricing_plan_id":"cebpf4jnsgd1na2vs0mg"},{"bike_id":"07e8bb5e-29cb-4249-8d1f-b854fd34d259","system_id":"levelo_inurba_marseille","lat":43.29217,"lon":5.36081,"is_reserved":false,"is_disabled":false,"rental_uris":{"android":"levelo://app?vid=07e8bb5e-29cb-4249-8d1f-b854fd34d259","ios":"levelo://app?vid=07e8bb5e-29cb-4249-8d1f-b854fd34d259"},"vehicle_type_id":"4","last_reported":1760984189,"current_range_meters":7200,"station_id":"ce4bhbh2rcd13ifvqeqg","pricing_plan_id":"cebpf4jnsgd1na2vs0mg"},{"bike_id":"e731a457-ffaa-49a5-a323-bde7da418b3a","system_id":"levelo_inurba_marseille","lat":43.29519,"lon":5.39049,"is_reserved":false,"is_disabled":false,"rental_uris":{"android":"levelo://app?vid=e731a457-ffaa-49a5-a323-bde7da418b3a","ios":"levelo://app?vid=e731a457-ffaa-49a5-a323-bde7da418b3a"},"vehicle_type_id":"4","last_reported":1760984189,"current_range_meters":7200,"station_id":"ce4bh3p2rcd13ifvqdp0","pricing_plan_id":"cebpf4jnsgd1na2vs0mg"},{"bike_id":"8cd818e3-a9e2-4f48-92b2-26306f507696","system_id":"levelo_inurba_marseille","lat":43.31349,"lon":5.37913,"is_reserved":false,"is_disabled":false,"rental_uris":{"android":"levelo://app?vid=8cd818e3-a9e2-4f48-92b2-26306f507696","ios":"levelo://app?vid=8cd818e3-a9e2-4f48-92b2-26306f507696"},"vehicle_type_id":"4","last_reported":1760984189,"current_range_meters":7200,"station_id":"","pricing_plan_id":"cebpf4jnsgd1na2vs0mg"},{"bike_id":"75904b70-be37-49eb-96b4-f06dc61c48dd","system_id":"levelo_inurba_marseille","lat":43.2572,"lon":5.41109,"is_reserved":false,"is_disabled":false,"rental_uris":{"android":"levelo://app?vid=75904b70-be37-49eb-96b4-f06dc61c48dd","ios":"levelo://app?vid=75904b70-be37-49eb-96b4-f06dc61c48dd"},"vehicle_type_id":"4","last_reported":1760984189,"current_range_meters":7200,"station_id":"ce4bhkp2rcd13ifvqgd0","pricing_plan_id":"cebpf4jnsgd1na2vs0mg"},{"bike_id":"eac2d9c2-cde1-4319-ac4c-08bed138f32a","system_id":"levelo_inurba_marseille","lat":43.308169,"lon":5.396549,"is_reserved":false,"is_disabled":false,"rental_uris":{"android":"levelo://app?vid=eac2d9c2-cde1-4319-ac4c-08bed138f32a","ios":"levelo://app?vid=eac2d9c2-cde1-4319-ac4c-08bed138f32a"},"vehicle_type_id":"4","last_reported":1760984189,"current_range_meters":7200,"station_id":"ce4bh012rcd13ifvqcv0","pricing_plan_id":"cebpf4jnsgd1na2vs0mg"},{"bike_id":"4dd33d39-e5b8-489b-b588-20d9b5a34cd9","system_id":"levelo_inurba_marseille","lat":43.258386,"lon":5.394336,"is_reserved":false,"is_disabled":false,"rental_uris":{"android":"levelo://app?vid=4dd33d39-e5b8-489b-b588-20d9b5a34cd9","ios":"levelo://app?vid=4dd33d39-e5b8-489b-b588-20d9b5a34cd9"},"vehicle_type_id":"4","last_reported":1760984189,"current_range_meters":7200,"station_id":"ce4bhip2rcd13ifvqft0","pricing_plan_id":"cebpf4jnsgd1na2vs0mg"},{"bike_id":"9dd1d8fe-c2a8-4a70-a175-61f5f9fe7fd2","system_id":"levelo_inurba_marseille","lat":43.315501,"lon":5.390252,"is_reserved":false,"is_disabled":false,"rental_uris":{"android":"levelo://app?vid=9dd1d8fe-c2a8-4a70-a175-61f5f9fe7fd2","ios":"levelo://app?vid=9dd1d8fe-c2a8-4a70-a175-61f5f9fe7fd2"},"vehicle_type_id":"4","last_reported":1760984189,"current_range_meters":8000,"station_id":"","pricing_plan_id":"cebpf4jnsgd1na2vs0mg"},{"bike_id":"0a950a0d-01ce-40b2-be0e-ad7894fd72f2","system_id":"levelo_inurba_marseille","lat":43.32099,"lon":5.36785,"is_reserved":false,"is_disabled":true,"rental_uris":{"android":"levelo://app?vid=0a950a0d-01ce-40b2-be0e-ad7894fd72f2","ios":"levelo://app?vid=0a950a0d-01ce-40b2-be0e-ad7894fd72f2"},"vehicle_type_id":"4","last_reported":1760984189,"current_range_meters":8000,"station_id":"ce4bhrh2rcd13ifvqhug","pricing_plan_id":"cebpf4jnsgd1na2vs0mg"},{"bike_id":"dc43c8e2-283c-4038-b294-7f1444560933","system_id":"levelo_inurba_marseille","lat":43.2845,"lon":5.392,"is_reserved":false,"is_disabled":false,"rental_uris":{"android":"levelo://app?vid=dc43c8e2-283c-4038-b294-7f1444560933","ios":"levelo://app?vid=dc43c8e2-283c-4038-b294-7f1444560933"},"vehicle_type_id":"4","last_reported":1760984189,"current_range_meters":8000,"station_id":"ce4bhoh2rcd13ifvqh5g","pricing_plan_id":"cebpf4jnsgd1na2vs0mg"},{"bike_id":"63af7f75-ae37-4bd3-9613-127db36eb0c3","system_id":"levelo_inurba_marseille","lat":43.28859,"lon":5.42524,"is_reserved":false,"is_disabled":false,"rental_uris":{"android":"levelo://app?vid=63af7f75-ae37-4bd3-9613-127db36eb0c3","ios":"levelo://app?vid=63af7f75-ae37-4bd3-9613-127db36eb0c3"},"vehicle_type_id":"4","last_reported":1760984189,"current_range_meters":8000,"station_id":"st_d3b462108ojc7389ooeg","pricing_plan_id":"cebpf4jnsgd1na2vs0mg"},{"bike_id":"7ee1207e-6eef-4cca-98b0-903997d04c67","system_id":"levelo_inurba_marseille","lat":43.246872,"lon":5.3892,"is_reserved":false,"is_disabled":false,"rental_uris":{"android":"levelo://app?vid=7ee1207e-6eef-4cca-98b0-903997d04c67","ios":"levelo://app?vid=7ee1207e-6eef-4cca-98b0-903997d04c67"},"vehicle_type_id":"4","last_reported":1760984189,"current_range_meters":8000,"station_id":"ce4bhg12rcd13ifvqf60","pricing_plan_id":"cebpf4jnsgd1na2vs0mg"},{"bike_id":"5fac650f-098e-41d6-8f95-586463c37cfe","system_id":"levelo_inurba_marseille","lat":43.29699,"lon":5.377,"is_reserved":false,"is_disabled":false,"rental_uris":{"android":"levelo://app?vid=5fac650f-098e-41d6-8f95-586463c37cfe","ios":"levelo://app?vid=5fac650f-098e-41d6-8f95-586463c37cfe"},"vehicle_type_id":"4","last_reported":1760984189,"current_range_meters":8000,"station_id":"ce4bgkh2rcd13ifvqbl0","pricing_plan_id":"cebpf4jnsgd1na2vs0mg"},{"bike_id":"88be6551-626c-458d-afa7-44432675e27a","system_id":"levelo_inurba_marseille","lat":43.25576,"lon":5.3824,"is_reserved":false,"is_disabled":false,"rental_uris":{"android":"levelo://app?vid=88be6551-626c-458d-afa7-44432675e27a","ios":"levelo://app?vid=88be6551-626c-458d-afa7-44432675e27a"},"vehicle_type_id":"4","last_reported":1760984189,"current_range_meters":8400,"station_id":"ce4bhih2rcd13ifvqfs0","pricing_plan_id":"cebpf4jnsgd1na2vs0mg"},{"bike_id":"f34c2513-4609-41d8-b3b6-e16e4f152654","system_id":"levelo_inurba_marseille","lat":43.26789,"lon":5.39415,"is_reserved":false,"is_disabled":false,"rental_uris":{"android":"levelo://app?vid=f34c2513-4609-41d8-b3b6-e16e4f152654","ios":"levelo://app?vid=f34c2513-4609-41d8-b3b6-e16e4f152654"},"vehicle_type_id":"4","last_reported":1760984189,"current_range_meters":8400,"station_id":"ce4bhh12rcd13ifvqfg0","pricing_plan_id":"cebpf4jnsgd1na2vs0mg"},{"bike_id":"7fd36eea-805d-4dce-89b5-46f277eaf158","system_id":"levelo_inurba_marseille","lat":43.305097,"lon":5.366695,"is_reserved":false,"is_disabled":false,"rental_uris":{"android":"levelo://app?vid=7fd36eea-805d-4dce-89b5-46f277eaf158","ios":"levelo://app?vid=7fd36eea-805d-4dce-89b5-46f277eaf158"},"vehicle_type_id":"4","last_reported":1760984189,"current_range_meters":8400,"station_id":"","pricing_plan_id":"cebpf4jnsgd1na2vs0mg"},{"bike_id":"679c3c1f-72e8-4456-b0d9-4c2ad9c70dd9","system_id":"levelo_inurba_marseille","lat":43.211898,"lon":5.350788,"is_reserved":false,"is_disabled":false,"rental_uris":{"android":"levelo://app?vid=679c3c1f-72e8-4456-b0d9-4c2ad9c70dd9","ios":"levelo://app?vid=679c3c1f-72e8-4456-b0d9-4c2ad9c70dd9"},"vehicle_type_id":"4","last_reported":1760984189,"current_range_meters":8400,"station_id":"st_cvj6sg6p6f1abm77japg","pricing_plan_id":"cebpf4jnsgd1na2vs0mg"},{"bike_id":"86ce52f8-f590-4694-90e1-216ddc477b29","system_id":"levelo_inurba_marseille","lat":43.30968,"lon":5.3812,"is_reserved":false,"is_disabled":false,"rental_uris":{"android":"levelo://app?vid=86ce52f8-f590-4694-90e1-216ddc477b29","ios":"levelo://app?vid=86ce52f8-f590-4694-90e1-216ddc477b29"},"vehicle_type_id":"4","last_reported":1760984189,"current_range_meters":8400,"station_id":"","pricing_plan_id":"cebpf4jnsgd1na2vs0mg"},{"bike_id":"af35879d-4b9c-47a6-b266-ac0c1d9e1da6","system_id":"levelo_inurba_marseille","lat":43.24734,"lon":5.40061,"is_reserved":false,"is_disabled":false,"rental_uris":{"android":"levelo://app?vid=af35879d-4b9c-47a6-b266-ac0c1d9e1da6","ios":"levelo://app?vid=af35879d-4b9c-47a6-b266-ac0c1d9e1da6"},"vehicle_type_id":"4","last_reported":1760984189,"current_range_meters":8400,"station_id":"","pricing_plan_id":"cebpf4jnsgd1na2vs0mg"},{"bike_id":"1450981b-104c-4212-9b96-94e78687f823","system_id":"levelo_inurba_marseille","lat":43.27935,"lon":5.41045,"is_reserved":false,"is_disabled":false,"rental_uris":{"android":"levelo://app?vid=1450981b-104c-4212-9b96-94e78687f823","ios":"levelo://app?vid=1450981b-104c-4212-9b96-94e78687f823"},"vehicle_type_id":"4","last_reported":1760984189,"current_range_meters":8400,"station_id":"ce4bhnp2rcd13ifvqh0g","pricing_plan_id":"cebpf4jnsgd1na2vs0mg"},{"bike_id":"492e8845-1180-484d-8157-f41eb43c028a","system_id":"levelo_inurba_marseille","lat":43.25111,"lon":5.40322,"is_reserved":false,"is_disabled":false,"rental_uris":{"android":"levelo://app?vid=492e8845-1180-484d-8157-f41eb43c028a","ios":"levelo://app?vid=492e8845-1180-484d-8157-f41eb43c028a"},"vehicle_type_id":"4","last_reported":1760984189,"current_range_meters":8400,"station_id":"ce4bhlh2rcd13ifvqgig","pricing_plan_id":"cebpf4jnsgd1na2vs0mg"},{"bike_id":"b6c96865-3542-4e09-a1b0-283e97502d96","system_id":"levelo_inurba_marseille","lat":43.293039,"lon":5.374623,"is_reserved":false,"is_disabled":false,"rental_uris":{"android":"levelo://app?vid=b6c96865-3542-4e09-a1b0-283e97502d96","ios":"levelo://app?vid=b6c96865-3542-4e09-a1b0-283e97502d96"},"vehicle_type_id":"4","last_reported":1760984189,"current_range_meters":8400,"station_id":"ce4bgh92rcd13ifvqb50","pricing_plan_id":"cebpf4jnsgd1na2vs0mg"},{"bike_id":"cb9ea38d-86b1-45bd-a76d-14eaf1fcfd3e","system_id":"levelo_inurba_marseille","lat":43.3107,"lon":5.38366,"is_reserved":false,"is_disabled":false,"rental_uris":{"android":"levelo://app?vid=cb9ea38d-86b1-45bd-a76d-14eaf1fcfd3e","ios":"levelo://app?vid=cb9ea38d-86b1-45bd-a76d-14eaf1fcfd3e"},"vehicle_type_id":"4","last_reported":1760984189,"current_range_meters":8400,"station_id":"ce4bgv92rcd13ifvqcr0","pricing_plan_id":"cebpf4jnsgd1na2vs0mg"},{"bike_id":"2c59cc86-a348-4735-8f6f-75bf0e4aac2c","system_id":"levelo_inurba_marseille","lat":43.33143,"lon":5.39052,"is_reserved":false,"is_disabled":false,"rental_uris":{"android":"levelo://app?vid=2c59cc86-a348-4735-8f6f-75bf0e4aac2c","ios":"levelo://app?vid=2c59cc86-a348-4735-8f6f-75bf0e4aac2c"},"vehicle_type_id":"4","last_reported":1760984189,"current_range_meters":8400,"station_id":"","pricing_plan_id":"cebpf4jnsgd1na2vs0mg"},{"bike_id":"7a8ac50b-c3a4-490a-8f96-9c005f89ed5d","system_id":"levelo_inurba_marseille","lat":43.26521,"lon":5.39049,"is_reserved":false,"is_disabled":false,"rental_uris":{"android":"levelo://app?vid=7a8ac50b-c3a4-490a-8f96-9c005f89ed5d","ios":"levelo://app?vid=7a8ac50b-c3a4-490a-8f96-9c005f89ed5d"},"vehicle_type_id":"4","last_reported":1760984189,"current_range_meters":8800,"station_id":"","pricing_plan_id":"cebpf4jnsgd1na2vs0mg"},{"bike_id":"676d88a8-f06e-4192-886d-e52926318b91","system_id":"levelo_inurba_marseille","lat":43.211982,"lon":5.350734,"is_reserved":false,"is_disabled":false,"rental_uris":{"android":"levelo://app?vid=676d88a8-f06e-4192-886d-e52926318b91","ios":"levelo://app?vid=676d88a8-f06e-4192-886d-e52926318b91"},"vehicle_type_id":"4","last_reported":1760984189,"current_range_meters":8800,"station_id":"st_cvj6sg6p6f1abm77japg","pricing_plan_id":"cebpf4jnsgd1na2vs0mg"},{"bike_id":"e7461d30-e397-4db3-9ae6-773f70dcb2e1","system_id":"levelo_inurba_marseille","lat":43.29593,"lon":5.38093,"is_reserved":false,"is_disabled":false,"rental_uris":{"android":"levelo://app?vid=e7461d30-e397-4db3-9ae6-773f70dcb2e1","ios":"levelo://app?vid=e7461d30-e397-4db3-9ae6-773f70dcb2e1"},"vehicle_type_id":"4","last_reported":1760984189,"current_range_meters":8800,"station_id":"ce4bgl12rcd13ifvqbo0","pricing_plan_id":"cebpf4jnsgd1na2vs0mg"},{"bike_id":"47cd5fdf-8db3-4993-8f46-2de3dce8da6b","system_id":"levelo_inurba_marseille","lat":43.29534,"lon":5.38548,"is_reserved":false,"is_disabled":false,"rental_uris":{"android":"levelo://app?vid=47cd5fdf-8db3-4993-8f46-2de3dce8da6b","ios":"levelo://app?vid=47cd5fdf-8db3-4993-8f46-2de3dce8da6b"},"vehicle_type_id":"4","last_reported":1760984189,"current_range_meters":8800,"station_id":"ce4bgih2rcd13ifvqba0","pricing_plan_id":"cebpf4jnsgd1na2vs0mg"},{"bike_id":"8f9bf87c-d002-4c92-b22a-9a73f817682c","system_id":"levelo_inurba_marseille","lat":43.25091,"lon":5.39519,"is_reserved":false,"is_disabled":false,"rental_uris":{"android":"levelo://app?vid=8f9bf87c-d002-4c92-b22a-9a73f817682c","ios":"levelo://app?vid=8f9bf87c-d002-4c92-b22a-9a73f817682c"},"vehicle_type_id":"4","last_reported":1760984189,"current_range_meters":8800,"station_id":"ce4bhm12rcd13ifvqgkg","pricing_plan_id":"cebpf4jnsgd1na2vs0mg"},{"bike_id":"06763d6d-60fd-4139-ac5a-e925ed6df649","system_id":"levelo_inurba_marseille","lat":43.23779,"lon":5.36623,"is_reserved":false,"is_disabled":false,"rental_uris":{"android":"levelo://app?vid=06763d6d-60fd-4139-ac5a-e925ed6df649","ios":"levelo://app?vid=06763d6d-60fd-4139-ac5a-e925ed6df649"},"vehicle_type_id":"4","last_reported":1760984189,"current_range_meters":9200,"station_id":"st_d3nk18o9ro0c73en2l3g","pricing_plan_id":"cebpf4jnsgd1na2vs0mg"},{"bike_id":"e015a312-f4e2-4fa5-962c-4dc7593461dd","system_id":"levelo_inurba_marseille","lat":43.27377,"lon":5.36251,"is_reserved":false,"is_disabled":false,"rental_uris":{"android":"levelo://app?vid=e015a312-f4e2-4fa5-962c-4dc7593461dd","ios":"levelo://app?vid=e015a312-f4e2-4fa5-962c-4dc7593461dd"},"vehicle_type_id":"4","last_reported":1760984189,"current_range_meters":9200,"station_id":"","pricing_plan_id":"cebpf4jnsgd1na2vs0mg"},{"bike_id":"4bbd6801-e86f-4670-a08c-5a08e1dabb92","system_id":"levelo_inurba_marseille","lat":43.29196,"lon":5.38089,"is_reserved":false,"is_disabled":false,"rental_uris":{"android":"levelo://app?vid=4bbd6801-e86f-4670-a08c-5a08e1dabb92","ios":"levelo://app?vid=4bbd6801-e86f-4670-a08c-5a08e1dabb92"},"vehicle_type_id":"4","last_reported":1760984189,"current_range_meters":9200,"station_id":"","pricing_plan_id":"cebpf4jnsgd1na2vs0mg"},{"bike_id":"9652283e-21f4-4490-ac9e-ffa9429f0005","system_id":"levelo_inurba_marseille","lat":43.29036,"lon":5.40527,"is_reserved":false,"is_disabled":false,"rental_uris":{"android":"levelo://app?vid=9652283e-21f4-4490-ac9e-ffa9429f0005","ios":"levelo://app?vid=9652283e-21f4-4490-ac9e-ffa9429f0005"},"vehicle_type_id":"4","last_reported":1760984189,"current_range_meters":9200,"station_id":"","pricing_plan_id":"cebpf4jnsgd1na2vs0mg"},{"bike_id":"e4bc47b9-1bcc-454b-8e8f-6aca87bbce9a","system_id":"levelo_inurba_marseille","lat":43.29971,"lon":5.38495,"is_reserved":false,"is_disabled":false,"rental_uris":{"android":"levelo://app?vid=e4bc47b9-1bcc-454b-8e8f-6aca87bbce9a","ios":"levelo://app?vid=e4bc47b9-1bcc-454b-8e8f-6aca87bbce9a"},"vehicle_type_id":"4","last_reported":1760984189,"current_range_meters":9200,"station_id":"ce4bgj92rcd13ifvqbd0","pricing_plan_id":"cebpf4jnsgd1na2vs0mg"},{"bike_id":"a7f997d3-a4f9-4f30-bdce-2ddde27a7b05","system_id":"levelo_inurba_marseille","lat":43.28166,"lon":5.37693,"is_reserved":false,"is_disabled":false,"rental_uris":{"android":"levelo://app?vid=a7f997d3-a4f9-4f30-bdce-2ddde27a7b05","ios":"levelo://app?vid=a7f997d3-a4f9-4f30-bdce-2ddde27a7b05"},"vehicle_type_id":"4","last_reported":1760984189,"current_range_meters":9200,"station_id":"","pricing_plan_id":"cebpf4jnsgd1na2vs0mg"},{"bike_id":"533b116b-392e-4946-b51d-0049629c430d","system_id":"levelo_inurba_marseille","lat":43.2791,"lon":5.38012,"is_reserved":false,"is_disabled":false,"rental_uris":{"android":"levelo://app?vid=533b116b-392e-4946-b51d-0049629c430d","ios":"levelo://app?vid=533b116b-392e-4946-b51d-0049629c430d"},"vehicle_type_id":"4","last_reported":1760984189,"current_range_meters":9200,"station_id":"ce4bhf92rcd13ifvqf50","pricing_plan_id":"cebpf4jnsgd1na2vs0mg"},{"bike_id":"486fdc60-6474-4ddf-ab7c-3d68e10cdc63","system_id":"levelo_inurba_marseille","lat":43.28765,"lon":5.38417,"is_reserved":false,"is_disabled":false,"rental_uris":{"android":"levelo://app?vid=486fdc60-6474-4ddf-ab7c-3d68e10cdc63","ios":"levelo://app?vid=486fdc60-6474-4ddf-ab7c-3d68e10cdc63"},"vehicle_type_id":"4","last_reported":1760984189,"current_range_meters":9200,"station_id":"","pricing_plan_id":"cebpf4jnsgd1na2vs0mg"},{"bike_id":"226d8ad2-b1af-40bd-9c83-c98e95e888e3","system_id":"levelo_inurba_marseille","lat":43.284862,"lon":5.390844,"is_reserved":false,"is_disabled":false,"rental_uris":{"android":"levelo://app?vid=226d8ad2-b1af-40bd-9c83-c98e95e888e3","ios":"levelo://app?vid=226d8ad2-b1af-40bd-9c83-c98e95e888e3"},"vehicle_type_id":"4","last_reported":1760984189,"current_range_meters":9200,"station_id":"ce4bhoh2rcd13ifvqh5g","pricing_plan_id":"cebpf4jnsgd1na2vs0mg"},{"bike_id":"88ddf386-2a2b-4fc9-8a56-77c231ac45ee","system_id":"levelo_inurba_marseille","lat":43.28154,"lon":5.42648,"is_reserved":false,"is_disabled":false,"rental_uris":{"android":"levelo://app?vid=88ddf386-2a2b-4fc9-8a56-77c231ac45ee","ios":"levelo://app?vid=88ddf386-2a2b-4fc9-8a56-77c231ac45ee"},"vehicle_type_id":"4","last_reported":1760984189,"current_range_meters":9200,"station_id":"ce4bhnh2rcd13ifvqgug","pricing_plan_id":"cebpf4jnsgd1na2vs0mg"},{"bike_id":"0f787efd-37ca-4060-a03d-15d3c3ce389f","system_id":"levelo_inurba_marseille","lat":43.30005,"lon":5.37363,"is_reserved":false,"is_disabled":false,"rental_uris":{"android":"levelo://app?vid=0f787efd-37ca-4060-a03d-15d3c3ce389f","ios":"levelo://app?vid=0f787efd-37ca-4060-a03d-15d3c3ce389f"},"vehicle_type_id":"4","last_reported":1760984189,"current_range_meters":9200,"station_id":"","pricing_plan_id":"cebpf4jnsgd1na2vs0mg"},{"bike_id":"1682451e-a93d-427d-964b-37cfd56b0d3a","system_id":"levelo_inurba_marseille","lat":43.30426,"lon":5.38889,"is_reserved":false,"is_disabled":false,"rental_uris":{"android":"levelo://app?vid=1682451e-a93d-427d-964b-37cfd56b0d3a","ios":"levelo://app?vid=1682451e-a93d-427d-964b-37cfd56b0d3a"},"vehicle_type_id":"4","last_reported":1760984189,"current_range_meters":9600,"station_id":"ce4bgk12rcd13ifvqbi0","pricing_plan_id":"cebpf4jnsgd1na2vs0mg"},{"bike_id":"245a030c-0c43-41f8-a4cc-088d55252b06","system_id":"levelo_inurba_marseille","lat":43.24483,"lon":5.36944,"is_reserved":false,"is_disabled":false,"rental_uris":{"android":"levelo://app?vid=245a030c-0c43-41f8-a4cc-088d55252b06","ios":"levelo://app?vid=245a030c-0c43-41f8-a4cc-088d55252b06"},"vehicle_type_id":"4","last_reported":1760984189,"current_range_meters":9600,"station_id":"","pricing_plan_id":"cebpf4jnsgd1na2vs0mg"},{"bike_id":"8cf339f4-8d69-46d9-9bc3-41cf00b6c7c9","system_id":"levelo_inurba_marseille","lat":43.29191,"lon":5.35795,"is_reserved":false,"is_disabled":false,"rental_uris":{"android":"levelo://app?vid=8cf339f4-8d69-46d9-9bc3-41cf00b6c7c9","ios":"levelo://app?vid=8cf339f4-8d69-46d9-9bc3-41cf00b6c7c9"},"vehicle_type_id":"4","last_reported":1760984189,"current_range_meters":9600,"station_id":"ce4bhb12rcd13ifvqel0","pricing_plan_id":"cebpf4jnsgd1na2vs0mg"},{"bike_id":"c19289aa-c358-437c-b7b2-ed4e4efe66f9","system_id":"levelo_inurba_marseille","lat":43.30084,"lon":5.387,"is_reserved":false,"is_disabled":false,"rental_uris":{"android":"levelo://app?vid=c19289aa-c358-437c-b7b2-ed4e4efe66f9","ios":"levelo://app?vid=c19289aa-c358-437c-b7b2-ed4e4efe66f9"},"vehicle_type_id":"4","last_reported":1760984189,"current_range_meters":9600,"station_id":"","pricing_plan_id":"cebpf4jnsgd1na2vs0mg"},{"bike_id":"b795dcee-745f-4569-9cc0-ecc3631ffb10","system_id":"levelo_inurba_marseille","lat":43.30165,"lon":5.37209,"is_reserved":false,"is_disabled":false,"rental_uris":{"android":"levelo://app?vid=b795dcee-745f-4569-9cc0-ecc3631ffb10","ios":"levelo://app?vid=b795dcee-745f-4569-9cc0-ecc3631ffb10"},"vehicle_type_id":"4","last_reported":1760984189,"current_range_meters":10000,"station_id":"","pricing_plan_id":"cebpf4jnsgd1na2vs0mg"},{"bike_id":"8f5b4e3f-d0c8-438b-955e-3fd6c08bc9d3","system_id":"levelo_inurba_marseille","lat":43.24166,"lon":5.36399,"is_reserved":false,"is_disabled":false,"rental_uris":{"android":"levelo://app?vid=8f5b4e3f-d0c8-438b-955e-3fd6c08bc9d3","ios":"levelo://app?vid=8f5b4e3f-d0c8-438b-955e-3fd6c08bc9d3"},"vehicle_type_id":"4","last_reported":1760984189,"current_range_meters":10000,"station_id":"cpo36qri1sfpv3e86is0","pricing_plan_id":"cebpf4jnsgd1na2vs0mg"},{"bike_id":"9d6ffc22-83bf-4103-bbc2-4cc19efe231b","system_id":"levelo_inurba_marseille","lat":43.279996,"lon":5.416641,"is_reserved":false,"is_disabled":false,"rental_uris":{"android":"levelo://app?vid=9d6ffc22-83bf-4103-bbc2-4cc19efe231b","ios":"levelo://app?vid=9d6ffc22-83bf-4103-bbc2-4cc19efe231b"},"vehicle_type_id":"4","last_reported":1760984189,"current_range_meters":10000,"station_id":"ce4bho12rcd13ifvqh1g","pricing_plan_id":"cebpf4jnsgd1na2vs0mg"},{"bike_id":"05e1d9dd-7ba9-4ff5-820e-ee3f11a205ef","system_id":"levelo_inurba_marseille","lat":43.3021,"lon":5.39458,"is_reserved":false,"is_disabled":false,"rental_uris":{"android":"levelo://app?vid=05e1d9dd-7ba9-4ff5-820e-ee3f11a205ef","ios":"levelo://app?vid=05e1d9dd-7ba9-4ff5-820e-ee3f11a205ef"},"vehicle_type_id":"4","last_reported":1760984189,"current_range_meters":10000,"station_id":"ce4bh0p2rcd13ifvqd70","pricing_plan_id":"cebpf4jnsgd1na2vs0mg"},{"bike_id":"552ee1db-5bf7-4108-9536-cfc0b569d445","system_id":"levelo_inurba_marseille","lat":43.29262,"lon":5.40911,"is_reserved":false,"is_disabled":false,"rental_uris":{"android":"levelo://app?vid=552ee1db-5bf7-4108-9536-cfc0b569d445","ios":"levelo://app?vid=552ee1db-5bf7-4108-9536-cfc0b569d445"},"vehicle_type_id":"4","last_reported":1760984189,"current_range_meters":10000,"station_id":"ce4bh192rcd13ifvqdc0","pricing_plan_id":"cebpf4jnsgd1na2vs0mg"},{"bike_id":"da22a6bb-ece8-4168-87fa-39fdca8adc0a","system_id":"levelo_inurba_marseille","lat":43.248064,"lon":5.374574,"is_reserved":false,"is_disabled":false,"rental_uris":{"android":"levelo://app?vid=da22a6bb-ece8-4168-87fa-39fdca8adc0a","ios":"levelo://app?vid=da22a6bb-ece8-4168-87fa-39fdca8adc0a"},"vehicle_type_id":"4","last_reported":1760984189,"current_range_meters":10000,"station_id":"ce4bhgh2rcd13ifvqfb0","pricing_plan_id":"cebpf4jnsgd1na2vs0mg"},{"bike_id":"59aed43f-13a8-4014-b2c4-38bf40a4080c","system_id":"levelo_inurba_marseille","lat":43.268033,"lon":5.402666,"is_reserved":false,"is_disabled":true,"rental_uris":{"android":"levelo://app?vid=59aed43f-13a8-4014-b2c4-38bf40a4080c","ios":"levelo://app?vid=59aed43f-13a8-4014-b2c4-38bf40a4080c"},"vehicle_type_id":"4","last_reported":1760984189,"current_range_meters":10800,"station_id":"ce501612rcd8frsf0b60","pricing_plan_id":"cebpf4jnsgd1na2vs0mg"},{"bike_id":"0342bb77-be8d-4a96-8bd1-afc180008342","system_id":"levelo_inurba_marseille","lat":43.28668,"lon":5.38666,"is_reserved":false,"is_disabled":false,"rental_uris":{"android":"levelo://app?vid=0342bb77-be8d-4a96-8bd1-afc180008342","ios":"levelo://app?vid=0342bb77-be8d-4a96-8bd1-afc180008342"},"vehicle_type_id":"4","last_reported":1760984189,"current_range_meters":10800,"station_id":"ce4bh492rcd13ifvqdug","pricing_plan_id":"cebpf4jnsgd1na2vs0mg"},{"bike_id":"441b23e6-0664-4956-9526-02e94720e317","system_id":"levelo_inurba_marseille","lat":43.28442,"lon":5.35896,"is_reserved":false,"is_disabled":false,"rental_uris":{"android":"levelo://app?vid=441b23e6-0664-4956-9526-02e94720e317","ios":"levelo://app?vid=441b23e6-0664-4956-9526-02e94720e317"},"vehicle_type_id":"4","last_reported":1760984189,"current_range_meters":10800,"station_id":"ce4bhah2rcd13ifvqei0","pricing_plan_id":"cebpf4jnsgd1na2vs0mg"},{"bike_id":"78fe83c7-5376-41e5-afa1-483e220954a6","system_id":"levelo_inurba_marseille","lat":43.29133,"lon":5.37085,"is_reserved":false,"is_disabled":false,"rental_uris":{"android":"levelo://app?vid=78fe83c7-5376-41e5-afa1-483e220954a6","ios":"levelo://app?vid=78fe83c7-5376-41e5-afa1-483e220954a6"},"vehicle_type_id":"4","last_reported":1760984189,"current_range_meters":10800,"station_id":"","pricing_plan_id":"cebpf4jnsgd1na2vs0mg"},{"bike_id":"b64f5a90-0c5f-4ae5-b1e4-8d412cb049d3","system_id":"levelo_inurba_marseille","lat":43.27342,"lon":5.41569,"is_reserved":false,"is_disabled":false,"rental_uris":{"android":"levelo://app?vid=b64f5a90-0c5f-4ae5-b1e4-8d412cb049d3","ios":"levelo://app?vid=b64f5a90-0c5f-4ae5-b1e4-8d412cb049d3"},"vehicle_type_id":"4","last_reported":1760984189,"current_range_meters":10800,"station_id":"","pricing_plan_id":"cebpf4jnsgd1na2vs0mg"},{"bike_id":"9d449aff-01f0-4b92-9983-749d954577ea","system_id":"levelo_inurba_marseille","lat":43.27234,"lon":5.40055,"is_reserved":false,"is_disabled":false,"rental_uris":{"android":"levelo://app?vid=9d449aff-01f0-4b92-9983-749d954577ea","ios":"levelo://app?vid=9d449aff-01f0-4b92-9983-749d954577ea"},"vehicle_type_id":"4","last_reported":1760984189,"current_range_meters":10800,"station_id":"","pricing_plan_id":"cebpf4jnsgd1na2vs0mg"},{"bike_id":"1b7fbba9-edc4-4526-ad57-b6fe3ba4bf93","system_id":"levelo_inurba_marseille","lat":43.21752,"lon":5.346,"is_reserved":false,"is_disabled":false,"rental_uris":{"android":"levelo://app?vid=1b7fbba9-edc4-4526-ad57-b6fe3ba4bf93","ios":"levelo://app?vid=1b7fbba9-edc4-4526-ad57-b6fe3ba4bf93"},"vehicle_type_id":"4","last_reported":1760984189,"current_range_meters":10800,"station_id":"st_cvj6r9ubvosntc0bgbag","pricing_plan_id":"cebpf4jnsgd1na2vs0mg"},{"bike_id":"599c01b3-22df-4a9a-9d4e-358da650153e","system_id":"levelo_inurba_marseille","lat":43.337444,"lon":5.374475,"is_reserved":false,"is_disabled":false,"rental_uris":{"android":"levelo://app?vid=599c01b3-22df-4a9a-9d4e-358da650153e","ios":"levelo://app?vid=599c01b3-22df-4a9a-9d4e-358da650153e"},"vehicle_type_id":"4","last_reported":1760984189,"current_range_meters":10800,"station_id":"","pricing_plan_id":"cebpf4jnsgd1na2vs0mg"},{"bike_id":"bd06224d-a6bf-47bc-a86d-516e389a35f9","system_id":"levelo_inurba_marseille","lat":43.28941,"lon":5.36635,"is_reserved":false,"is_disabled":false,"rental_uris":{"android":"levelo://app?vid=bd06224d-a6bf-47bc-a86d-516e389a35f9","ios":"levelo://app?vid=bd06224d-a6bf-47bc-a86d-516e389a35f9"},"vehicle_type_id":"4","last_reported":1760984189,"current_range_meters":10800,"station_id":"ce4bhap2rcd13ifvqek0","pricing_plan_id":"cebpf4jnsgd1na2vs0mg"},{"bike_id":"dde75b88-ae6b-435b-a57e-449367fe22d5","system_id":"levelo_inurba_marseille","lat":43.24668,"lon":5.3817,"is_reserved":false,"is_disabled":true,"rental_uris":{"android":"levelo://app?vid=dde75b88-ae6b-435b-a57e-449367fe22d5","ios":"levelo://app?vid=dde75b88-ae6b-435b-a57e-449367fe22d5"},"vehicle_type_id":"4","last_reported":1760984189,"current_range_meters":10800,"station_id":"ce4bhih2rcd13ifvqfr0","pricing_plan_id":"cebpf4jnsgd1na2vs0mg"},{"bike_id":"793bd619-12af-4bc1-a674-b70d86b415bd","system_id":"levelo_inurba_marseille","lat":43.33135,"lon":5.39134,"is_reserved":false,"is_disabled":false,"rental_uris":{"android":"levelo://app?vid=793bd619-12af-4bc1-a674-b70d86b415bd","ios":"levelo://app?vid=793bd619-12af-4bc1-a674-b70d86b415bd"},"vehicle_type_id":"4","last_reported":1760984189,"current_range_meters":10800,"station_id":"","pricing_plan_id":"cebpf4jnsgd1na2vs0mg"},{"bike_id":"da6b7e48-fa16-41a7-871c-63a357da74c2","system_id":"levelo_inurba_marseille","lat":43.27069,"lon":5.42279,"is_reserved":false,"is_disabled":false,"rental_uris":{"android":"levelo://app?vid=da6b7e48-fa16-41a7-871c-63a357da74c2","ios":"levelo://app?vid=da6b7e48-fa16-41a7-871c-63a357da74c2"},"vehicle_type_id":"4","last_reported":1760984189,"current_range_meters":11200,"station_id":"ce4bhk92rcd13ifvqgb0","pricing_plan_id":"cebpf4jnsgd1na2vs0mg"},{"bike_id":"e1216ea9-9258-4a77-b50c-2d9f2759f715","system_id":"levelo_inurba_marseille","lat":43.28155,"lon":5.42641,"is_reserved":false,"is_disabled":false,"rental_uris":{"android":"levelo://app?vid=e1216ea9-9258-4a77-b50c-2d9f2759f715","ios":"levelo://app?vid=e1216ea9-9258-4a77-b50c-2d9f2759f715"},"vehicle_type_id":"4","last_reported":1760984189,"current_range_meters":11200,"station_id":"ce4bhnh2rcd13ifvqgug","pricing_plan_id":"cebpf4jnsgd1na2vs0mg"},{"bike_id":"54004626-dbf5-49a9-b6d8-b030f567eeec","system_id":"levelo_inurba_marseille","lat":43.29865,"lon":5.3974,"is_reserved":false,"is_disabled":false,"rental_uris":{"android":"levelo://app?vid=54004626-dbf5-49a9-b6d8-b030f567eeec","ios":"levelo://app?vid=54004626-dbf5-49a9-b6d8-b030f567eeec"},"vehicle_type_id":"4","last_reported":1760984189,"current_range_meters":11200,"station_id":"ce4bh0h2rcd13ifvqd50","pricing_plan_id":"cebpf4jnsgd1na2vs0mg"},{"bike_id":"2010d1c0-54eb-4cf9-b5e7-d1f1f50ca71a","system_id":"levelo_inurba_marseille","lat":43.25332,"lon":5.42166,"is_reserved":false,"is_disabled":false,"rental_uris":{"android":"levelo://app?vid=2010d1c0-54eb-4cf9-b5e7-d1f1f50ca71a","ios":"levelo://app?vid=2010d1c0-54eb-4cf9-b5e7-d1f1f50ca71a"},"vehicle_type_id":"4","last_reported":1760984189,"current_range_meters":11200,"station_id":"st_d2m65c5bi1j21697t3ng","pricing_plan_id":"cebpf4jnsgd1na2vs0mg"},{"bike_id":"fbf45233-5b2e-47b2-8f6d-b078fe72be0d","system_id":"levelo_inurba_marseille","lat":43.298121,"lon":5.440671,"is_reserved":false,"is_disabled":false,"rental_uris":{"android":"levelo://app?vid=fbf45233-5b2e-47b2-8f6d-b078fe72be0d","ios":"levelo://app?vid=fbf45233-5b2e-47b2-8f6d-b078fe72be0d"},"vehicle_type_id":"4","last_reported":1760984189,"current_range_meters":11200,"station_id":"","pricing_plan_id":"cebpf4jnsgd1na2vs0mg"},{"bike_id":"c530e950-50a8-4b2f-81e6-a5f7e6f752e8","system_id":"levelo_inurba_marseille","lat":43.33759,"lon":5.37473,"is_reserved":false,"is_disabled":false,"rental_uris":{"android":"levelo://app?vid=c530e950-50a8-4b2f-81e6-a5f7e6f752e8","ios":"levelo://app?vid=c530e950-50a8-4b2f-81e6-a5f7e6f752e8"},"vehicle_type_id":"4","last_reported":1760984189,"current_range_meters":11200,"station_id":"","pricing_plan_id":"cebpf4jnsgd1na2vs0mg"},{"bike_id":"3e9f1bf7-e529-4049-991a-2535aa0af807","system_id":"levelo_inurba_marseille","lat":43.28407,"lon":5.37512,"is_reserved":false,"is_disabled":false,"rental_uris":{"android":"levelo://app?vid=3e9f1bf7-e529-4049-991a-2535aa0af807","ios":"levelo://app?vid=3e9f1bf7-e529-4049-991a-2535aa0af807"},"vehicle_type_id":"4","last_reported":1760984189,"current_range_meters":11200,"station_id":"ce4bh412rcd13ifvqds0","pricing_plan_id":"cebpf4jnsgd1na2vs0mg"},{"bike_id":"d6318f9e-0184-4ff6-931a-ee0c5a28c2b7","system_id":"levelo_inurba_marseille","lat":43.231889,"lon":5.355559,"is_reserved":false,"is_disabled":false,"rental_uris":{"android":"levelo://app?vid=d6318f9e-0184-4ff6-931a-ee0c5a28c2b7","ios":"levelo://app?vid=d6318f9e-0184-4ff6-931a-ee0c5a28c2b7"},"vehicle_type_id":"4","last_reported":1760984189,"current_range_meters":11200,"station_id":"ce4bhu92rcd13ifvqi70","pricing_plan_id":"cebpf4jnsgd1na2vs0mg"},{"bike_id":"5b9d0a61-a699-4cb6-b15f-262a007856cf","system_id":"levelo_inurba_marseille","lat":43.288751,"lon":5.359089,"is_reserved":false,"is_disabled":false,"rental_uris":{"android":"levelo://app?vid=5b9d0a61-a699-4cb6-b15f-262a007856cf","ios":"levelo://app?vid=5b9d0a61-a699-4cb6-b15f-262a007856cf"},"vehicle_type_id":"4","last_reported":1760984189,"current_range_meters":11200,"station_id":"ce4bhb12rcd13ifvqem0","pricing_plan_id":"cebpf4jnsgd1na2vs0mg"},{"bike_id":"92a4c54e-1924-4e71-bd6c-6e63ea351fc2","system_id":"levelo_inurba_marseille","lat":43.28408,"lon":5.37528,"is_reserved":false,"is_disabled":false,"rental_uris":{"android":"levelo://app?vid=92a4c54e-1924-4e71-bd6c-6e63ea351fc2","ios":"levelo://app?vid=92a4c54e-1924-4e71-bd6c-6e63ea351fc2"},"vehicle_type_id":"4","last_reported":1760984189,"current_range_meters":11200,"station_id":"ce4bh412rcd13ifvqds0","pricing_plan_id":"cebpf4jnsgd1na2vs0mg"},{"bike_id":"e88e2205-7360-4419-8e67-76f9c38bfa88","system_id":"levelo_inurba_marseille","lat":43.2903,"lon":5.386482,"is_reserved":false,"is_disabled":false,"rental_uris":{"android":"levelo://app?vid=e88e2205-7360-4419-8e67-76f9c38bfa88","ios":"levelo://app?vid=e88e2205-7360-4419-8e67-76f9c38bfa88"},"vehicle_type_id":"4","last_reported":1760984189,"current_range_meters":11600,"station_id":"ce4bh4p2rcd13ifvqe0g","pricing_plan_id":"cebpf4jnsgd1na2vs0mg"},{"bike_id":"0cf9e023-a78d-4456-b64b-861008e04aad","system_id":"levelo_inurba_marseille","lat":43.305998,"lon":5.404676,"is_reserved":false,"is_disabled":false,"rental_uris":{"android":"levelo://app?vid=0cf9e023-a78d-4456-b64b-861008e04aad","ios":"levelo://app?vid=0cf9e023-a78d-4456-b64b-861008e04aad"},"vehicle_type_id":"4","last_reported":1760984189,"current_range_meters":11600,"station_id":"","pricing_plan_id":"cebpf4jnsgd1na2vs0mg"},{"bike_id":"15420d38-a7a6-4ef1-a6fb-d9427abf4333","system_id":"levelo_inurba_marseille","lat":43.30482,"lon":5.40078,"is_reserved":false,"is_disabled":false,"rental_uris":{"android":"levelo://app?vid=15420d38-a7a6-4ef1-a6fb-d9427abf4333","ios":"levelo://app?vid=15420d38-a7a6-4ef1-a6fb-d9427abf4333"},"vehicle_type_id":"4","last_reported":1760984189,"current_range_meters":11600,"station_id":"","pricing_plan_id":"cebpf4jnsgd1na2vs0mg"},{"bike_id":"b84f5d5c-4af3-41b9-bd23-a606402416d4","system_id":"levelo_inurba_marseille","lat":43.32041,"lon":5.41543,"is_reserved":false,"is_disabled":false,"rental_uris":{"android":"levelo://app?vid=b84f5d5c-4af3-41b9-bd23-a606402416d4","ios":"levelo://app?vid=b84f5d5c-4af3-41b9-bd23-a606402416d4"},"vehicle_type_id":"4","last_reported":1760984189,"current_range_meters":11600,"station_id":"","pricing_plan_id":"cebpf4jnsgd1na2vs0mg"},{"bike_id":"35d8b230-e487-439a-9c56-35e9d4b94c5e","system_id":"levelo_inurba_marseille","lat":43.243835,"lon":5.370495,"is_reserved":false,"is_disabled":false,"rental_uris":{"android":"levelo://app?vid=35d8b230-e487-439a-9c56-35e9d4b94c5e","ios":"levelo://app?vid=35d8b230-e487-439a-9c56-35e9d4b94c5e"},"vehicle_type_id":"4","last_reported":1760984189,"current_range_meters":11600,"station_id":"ce4bhhh2rcd13ifvqfk0","pricing_plan_id":"cebpf4jnsgd1na2vs0mg"},{"bike_id":"de546147-cf9f-44c4-a7dd-0846f4a4c36a","system_id":"levelo_inurba_marseille","lat":43.26484,"lon":5.39541,"is_reserved":false,"is_disabled":false,"rental_uris":{"android":"levelo://app?vid=de546147-cf9f-44c4-a7dd-0846f4a4c36a","ios":"levelo://app?vid=de546147-cf9f-44c4-a7dd-0846f4a4c36a"},"vehicle_type_id":"4","last_reported":1760984189,"current_range_meters":11600,"station_id":"ce4bhi12rcd13ifvqfq0","pricing_plan_id":"cebpf4jnsgd1na2vs0mg"},{"bike_id":"4515bc92-7735-427c-a2ae-8d3771aa37a9","system_id":"levelo_inurba_marseille","lat":43.23178,"lon":5.39984,"is_reserved":false,"is_disabled":false,"rental_uris":{"android":"levelo://app?vid=4515bc92-7735-427c-a2ae-8d3771aa37a9","ios":"levelo://app?vid=4515bc92-7735-427c-a2ae-8d3771aa37a9"},"vehicle_type_id":"4","last_reported":1760984189,"current_range_meters":12000,"station_id":"ce4bhn12rcd13ifvqgqg","pricing_plan_id":"cebpf4jnsgd1na2vs0mg"},{"bike_id":"3cbb0706-a5db-4392-8d23-c1d91599db83","system_id":"levelo_inurba_marseille","lat":43.27054,"lon":5.40268,"is_reserved":false,"is_disabled":false,"rental_uris":{"android":"levelo://app?vid=3cbb0706-a5db-4392-8d23-c1d91599db83","ios":"levelo://app?vid=3cbb0706-a5db-4392-8d23-c1d91599db83"},"vehicle_type_id":"4","last_reported":1760984189,"current_range_meters":12000,"station_id":"ce4bhk92rcd13ifvqgc0","pricing_plan_id":"cebpf4jnsgd1na2vs0mg"},{"bike_id":"6e8ed827-a6f7-46f1-ad28-2f0468b71691","system_id":"levelo_inurba_marseille","lat":43.32087,"lon":5.36751,"is_reserved":false,"is_disabled":true,"rental_uris":{"android":"levelo://app?vid=6e8ed827-a6f7-46f1-ad28-2f0468b71691","ios":"levelo://app?vid=6e8ed827-a6f7-46f1-ad28-2f0468b71691"},"vehicle_type_id":"4","last_reported":1760984189,"current_range_meters":12000,"station_id":"ce4bhrh2rcd13ifvqhug","pricing_plan_id":"cebpf4jnsgd1na2vs0mg"},{"bike_id":"8f64d89a-f39c-4694-a714-8b55e9562bbe","system_id":"levelo_inurba_marseille","lat":43.295238,"lon":5.38548,"is_reserved":false,"is_disabled":false,"rental_uris":{"android":"levelo://app?vid=8f64d89a-f39c-4694-a714-8b55e9562bbe","ios":"levelo://app?vid=8f64d89a-f39c-4694-a714-8b55e9562bbe"},"vehicle_type_id":"4","last_reported":1760984189,"current_range_meters":12000,"station_id":"ce4bgih2rcd13ifvqba0","pricing_plan_id":"cebpf4jnsgd1na2vs0mg"},{"bike_id":"53753413-cedd-4407-b9e1-9b1d0c899b61","system_id":"levelo_inurba_marseille","lat":43.25825,"lon":5.39439,"is_reserved":false,"is_disabled":false,"rental_uris":{"android":"levelo://app?vid=53753413-cedd-4407-b9e1-9b1d0c899b61","ios":"levelo://app?vid=53753413-cedd-4407-b9e1-9b1d0c899b61"},"vehicle_type_id":"4","last_reported":1760984189,"current_range_meters":12000,"station_id":"ce4bhip2rcd13ifvqft0","pricing_plan_id":"cebpf4jnsgd1na2vs0mg"},{"bike_id":"c38d4779-18e1-43c4-a71d-5d81c3a33a62","system_id":"levelo_inurba_marseille","lat":43.298,"lon":5.38115,"is_reserved":false,"is_disabled":true,"rental_uris":{"android":"levelo://app?vid=c38d4779-18e1-43c4-a71d-5d81c3a33a62","ios":"levelo://app?vid=c38d4779-18e1-43c4-a71d-5d81c3a33a62"},"vehicle_type_id":"4","last_reported":1760984189,"current_range_meters":12000,"station_id":"ce4bgip2rcd13ifvqbb0","pricing_plan_id":"cebpf4jnsgd1na2vs0mg"},{"bike_id":"faa3e668-6719-4125-8206-72a0a37494c0","system_id":"levelo_inurba_marseille","lat":43.269403,"lon":5.40248,"is_reserved":false,"is_disabled":true,"rental_uris":{"android":"levelo://app?vid=faa3e668-6719-4125-8206-72a0a37494c0","ios":"levelo://app?vid=faa3e668-6719-4125-8206-72a0a37494c0"},"vehicle_type_id":"4","last_reported":1760984189,"current_range_meters":12000,"station_id":"cjm6bp8fraef2m0cb0m0","pricing_plan_id":"cebpf4jnsgd1na2vs0mg"},{"bike_id":"8c2b079a-bae4-4f2e-b3c8-e46f90b10d4b","system_id":"levelo_inurba_marseille","lat":43.26508,"lon":5.39551,"is_reserved":false,"is_disabled":false,"rental_uris":{"android":"levelo://app?vid=8c2b079a-bae4-4f2e-b3c8-e46f90b10d4b","ios":"levelo://app?vid=8c2b079a-bae4-4f2e-b3c8-e46f90b10d4b"},"vehicle_type_id":"4","last_reported":1760984189,"current_range_meters":12000,"station_id":"ce4bhi12rcd13ifvqfq0","pricing_plan_id":"cebpf4jnsgd1na2vs0mg"},{"bike_id":"3ab9f270-2485-4602-896a-d3e9c1a3492e","system_id":"levelo_inurba_marseille","lat":43.27942,"lon":5.41058,"is_reserved":false,"is_disabled":false,"rental_uris":{"android":"levelo://app?vid=3ab9f270-2485-4602-896a-d3e9c1a3492e","ios":"levelo://app?vid=3ab9f270-2485-4602-896a-d3e9c1a3492e"},"vehicle_type_id":"4","last_reported":1760984189,"current_range_meters":12000,"station_id":"ce4bhnp2rcd13ifvqh0g","pricing_plan_id":"cebpf4jnsgd1na2vs0mg"},{"bike_id":"d398a772-9196-41ef-90d9-f6f0b4faacd5","system_id":"levelo_inurba_marseille","lat":43.3254,"lon":5.41429,"is_reserved":false,"is_disabled":false,"rental_uris":{"android":"levelo://app?vid=d398a772-9196-41ef-90d9-f6f0b4faacd5","ios":"levelo://app?vid=d398a772-9196-41ef-90d9-f6f0b4faacd5"},"vehicle_type_id":"4","last_reported":1760984189,"current_range_meters":12000,"station_id":"ce4bhq12rcd13ifvqhhg","pricing_plan_id":"cebpf4jnsgd1na2vs0mg"},{"bike_id":"d032faaa-8457-4a7d-baf0-5c72344f723e","system_id":"levelo_inurba_marseille","lat":43.30239,"lon":5.40059,"is_reserved":false,"is_disabled":false,"rental_uris":{"android":"levelo://app?vid=d032faaa-8457-4a7d-baf0-5c72344f723e","ios":"levelo://app?vid=d032faaa-8457-4a7d-baf0-5c72344f723e"},"vehicle_type_id":"4","last_reported":1760984189,"current_range_meters":12000,"station_id":"ce4bgvh2rcd13ifvqcs0","pricing_plan_id":"cebpf4jnsgd1na2vs0mg"},{"bike_id":"1a363257-6960-40c3-b98f-57aad6679084","system_id":"levelo_inurba_marseille","lat":43.291976,"lon":5.393252,"is_reserved":false,"is_disabled":false,"rental_uris":{"android":"levelo://app?vid=1a363257-6960-40c3-b98f-57aad6679084","ios":"levelo://app?vid=1a363257-6960-40c3-b98f-57aad6679084"},"vehicle_type_id":"4","last_reported":1760984189,"current_range_meters":12400,"station_id":"ce4bh192rcd13ifvqdd0","pricing_plan_id":"cebpf4jnsgd1na2vs0mg"},{"bike_id":"c43e58ad-3456-4641-8a1f-62edbfff6267","system_id":"levelo_inurba_marseille","lat":43.29298,"lon":5.40147,"is_reserved":false,"is_disabled":false,"rental_uris":{"android":"levelo://app?vid=c43e58ad-3456-4641-8a1f-62edbfff6267","ios":"levelo://app?vid=c43e58ad-3456-4641-8a1f-62edbfff6267"},"vehicle_type_id":"4","last_reported":1760984189,"current_range_meters":12400,"station_id":"ce4bh312rcd13ifvqdk0","pricing_plan_id":"cebpf4jnsgd1na2vs0mg"},{"bike_id":"7735b6f1-abf0-4c1c-93a3-aaf3aa4358c4","system_id":"levelo_inurba_marseille","lat":43.25859,"lon":5.38886,"is_reserved":false,"is_disabled":false,"rental_uris":{"android":"levelo://app?vid=7735b6f1-abf0-4c1c-93a3-aaf3aa4358c4","ios":"levelo://app?vid=7735b6f1-abf0-4c1c-93a3-aaf3aa4358c4"},"vehicle_type_id":"4","last_reported":1760984189,"current_range_meters":12400,"station_id":"","pricing_plan_id":"cebpf4jnsgd1na2vs0mg"},{"bike_id":"e917c6fa-cf51-46bb-9636-c9e80079121a","system_id":"levelo_inurba_marseille","lat":43.29865,"lon":5.3974,"is_reserved":false,"is_disabled":false,"rental_uris":{"android":"levelo://app?vid=e917c6fa-cf51-46bb-9636-c9e80079121a","ios":"levelo://app?vid=e917c6fa-cf51-46bb-9636-c9e80079121a"},"vehicle_type_id":"4","last_reported":1760984189,"current_range_meters":12400,"station_id":"ce4bh0h2rcd13ifvqd50","pricing_plan_id":"cebpf4jnsgd1na2vs0mg"},{"bike_id":"4a4c8b1a-d6a6-4a18-a07a-4320640afc31","system_id":"levelo_inurba_marseille","lat":43.258867,"lon":5.398887,"is_reserved":false,"is_disabled":false,"rental_uris":{"android":"levelo://app?vid=4a4c8b1a-d6a6-4a18-a07a-4320640afc31","ios":"levelo://app?vid=4a4c8b1a-d6a6-4a18-a07a-4320640afc31"},"vehicle_type_id":"4","last_reported":1760984189,"current_range_meters":12400,"station_id":"ce4bhl92rcd13ifvqghg","pricing_plan_id":"cebpf4jnsgd1na2vs0mg"},{"bike_id":"06c84d1b-6e81-4ab2-ab43-e166647822bc","system_id":"levelo_inurba_marseille","lat":43.28939,"lon":5.36857,"is_reserved":false,"is_disabled":false,"rental_uris":{"android":"levelo://app?vid=06c84d1b-6e81-4ab2-ab43-e166647822bc","ios":"levelo://app?vid=06c84d1b-6e81-4ab2-ab43-e166647822bc"},"vehicle_type_id":"4","last_reported":1760984189,"current_range_meters":12800,"station_id":"","pricing_plan_id":"cebpf4jnsgd1na2vs0mg"},{"bike_id":"7df4aa92-8fdf-415f-b290-8f2081dee6cb","system_id":"levelo_inurba_marseille","lat":43.290039,"lon":5.356241,"is_reserved":false,"is_disabled":false,"rental_uris":{"android":"levelo://app?vid=7df4aa92-8fdf-415f-b290-8f2081dee6cb","ios":"levelo://app?vid=7df4aa92-8fdf-415f-b290-8f2081dee6cb"},"vehicle_type_id":"4","last_reported":1760984189,"current_range_meters":12800,"station_id":"ce4bhbp2rcd13ifvqesg","pricing_plan_id":"cebpf4jnsgd1na2vs0mg"},{"bike_id":"0f8a5c60-4dd6-4977-a149-55e166123795","system_id":"levelo_inurba_marseille","lat":43.25719,"lon":5.41114,"is_reserved":false,"is_disabled":false,"rental_uris":{"android":"levelo://app?vid=0f8a5c60-4dd6-4977-a149-55e166123795","ios":"levelo://app?vid=0f8a5c60-4dd6-4977-a149-55e166123795"},"vehicle_type_id":"4","last_reported":1760984189,"current_range_meters":12800,"station_id":"ce4bhkp2rcd13ifvqgd0","pricing_plan_id":"cebpf4jnsgd1na2vs0mg"},{"bike_id":"24cbe971-4c73-45dd-87c3-7ef8b952a24d","system_id":"levelo_inurba_marseille","lat":43.24543,"lon":5.39516,"is_reserved":false,"is_disabled":false,"rental_uris":{"android":"levelo://app?vid=24cbe971-4c73-45dd-87c3-7ef8b952a24d","ios":"levelo://app?vid=24cbe971-4c73-45dd-87c3-7ef8b952a24d"},"vehicle_type_id":"4","last_reported":1760984189,"current_range_meters":12800,"station_id":"ce4bhlp2rcd13ifvqgjg","pricing_plan_id":"cebpf4jnsgd1na2vs0mg"},{"bike_id":"19e12642-bec1-4542-be51-03af5f7687f4","system_id":"levelo_inurba_marseille","lat":43.26542,"lon":5.40329,"is_reserved":false,"is_disabled":false,"rental_uris":{"android":"levelo://app?vid=19e12642-bec1-4542-be51-03af5f7687f4","ios":"levelo://app?vid=19e12642-bec1-4542-be51-03af5f7687f4"},"vehicle_type_id":"4","last_reported":1760984189,"current_range_meters":12800,"station_id":"ce4bhmp2rcd13ifvqgng","pricing_plan_id":"cebpf4jnsgd1na2vs0mg"},{"bike_id":"f70fdde2-5672-4297-852b-b870044653a4","system_id":"levelo_inurba_marseille","lat":43.25338,"lon":5.42169,"is_reserved":false,"is_disabled":false,"rental_uris":{"android":"levelo://app?vid=f70fdde2-5672-4297-852b-b870044653a4","ios":"levelo://app?vid=f70fdde2-5672-4297-852b-b870044653a4"},"vehicle_type_id":"4","last_reported":1760984189,"current_range_meters":12800,"station_id":"st_d2m65c5bi1j21697t3ng","pricing_plan_id":"cebpf4jnsgd1na2vs0mg"},{"bike_id":"50256437-f563-4e18-83ab-119789c51b86","system_id":"levelo_inurba_marseille","lat":43.31651,"lon":5.37605,"is_reserved":false,"is_disabled":false,"rental_uris":{"android":"levelo://app?vid=50256437-f563-4e18-83ab-119789c51b86","ios":"levelo://app?vid=50256437-f563-4e18-83ab-119789c51b86"},"vehicle_type_id":"4","last_reported":1760984189,"current_range_meters":13600,"station_id":"","pricing_plan_id":"cebpf4jnsgd1na2vs0mg"},{"bike_id":"11f3bdaa-2d64-4d26-a24f-b83945ccbfa8","system_id":"levelo_inurba_marseille","lat":43.28457,"lon":5.35887,"is_reserved":false,"is_disabled":false,"rental_uris":{"android":"levelo://app?vid=11f3bdaa-2d64-4d26-a24f-b83945ccbfa8","ios":"levelo://app?vid=11f3bdaa-2d64-4d26-a24f-b83945ccbfa8"},"vehicle_type_id":"4","last_reported":1760984189,"current_range_meters":13600,"station_id":"ce4bhah2rcd13ifvqei0","pricing_plan_id":"cebpf4jnsgd1na2vs0mg"},{"bike_id":"31cb3d2f-4cef-467b-b224-dc631a06dab6","system_id":"levelo_inurba_marseille","lat":43.298678,"lon":5.397271,"is_reserved":false,"is_disabled":false,"rental_uris":{"android":"levelo://app?vid=31cb3d2f-4cef-467b-b224-dc631a06dab6","ios":"levelo://app?vid=31cb3d2f-4cef-467b-b224-dc631a06dab6"},"vehicle_type_id":"4","last_reported":1760984189,"current_range_meters":13600,"station_id":"ce4bh0h2rcd13ifvqd50","pricing_plan_id":"cebpf4jnsgd1na2vs0mg"},{"bike_id":"44def8bb-fc22-46bb-a308-b8e670ec5dfd","system_id":"levelo_inurba_marseille","lat":43.30131,"lon":5.37428,"is_reserved":false,"is_disabled":true,"rental_uris":{"android":"levelo://app?vid=44def8bb-fc22-46bb-a308-b8e670ec5dfd","ios":"levelo://app?vid=44def8bb-fc22-46bb-a308-b8e670ec5dfd"},"vehicle_type_id":"4","last_reported":1760984189,"current_range_meters":13600,"station_id":"ce4bgs92rcd13ifvqcc0","pricing_plan_id":"cebpf4jnsgd1na2vs0mg"},{"bike_id":"32dbdba0-e039-4c71-9c95-70d7b309a29d","system_id":"levelo_inurba_marseille","lat":43.28209,"lon":5.34997,"is_reserved":false,"is_disabled":false,"rental_uris":{"android":"levelo://app?vid=32dbdba0-e039-4c71-9c95-70d7b309a29d","ios":"levelo://app?vid=32dbdba0-e039-4c71-9c95-70d7b309a29d"},"vehicle_type_id":"4","last_reported":1760984189,"current_range_meters":13600,"station_id":"","pricing_plan_id":"cebpf4jnsgd1na2vs0mg"},{"bike_id":"2ab235ce-ce1c-4e5a-b8f7-e903ac97becc","system_id":"levelo_inurba_marseille","lat":43.33466,"lon":5.39997,"is_reserved":false,"is_disabled":false,"rental_uris":{"android":"levelo://app?vid=2ab235ce-ce1c-4e5a-b8f7-e903ac97becc","ios":"levelo://app?vid=2ab235ce-ce1c-4e5a-b8f7-e903ac97becc"},"vehicle_type_id":"4","last_reported":1760984189,"current_range_meters":13600,"station_id":"","pricing_plan_id":"cebpf4jnsgd1na2vs0mg"},{"bike_id":"55e9cbf9-96d6-4ffc-86ab-3a7c3309f38f","system_id":"levelo_inurba_marseille","lat":43.32658,"lon":5.40998,"is_reserved":false,"is_disabled":false,"rental_uris":{"android":"levelo://app?vid=55e9cbf9-96d6-4ffc-86ab-3a7c3309f38f","ios":"levelo://app?vid=55e9cbf9-96d6-4ffc-86ab-3a7c3309f38f"},"vehicle_type_id":"4","last_reported":1760984189,"current_range_meters":14000,"station_id":"ce4bhpp2rcd13ifvqhgg","pricing_plan_id":"cebpf4jnsgd1na2vs0mg"},{"bike_id":"adb5285d-ef75-485e-98f6-8acbb9b3a5f9","system_id":"levelo_inurba_marseille","lat":43.29034,"lon":5.38654,"is_reserved":false,"is_disabled":false,"rental_uris":{"android":"levelo://app?vid=adb5285d-ef75-485e-98f6-8acbb9b3a5f9","ios":"levelo://app?vid=adb5285d-ef75-485e-98f6-8acbb9b3a5f9"},"vehicle_type_id":"4","last_reported":1760984189,"current_range_meters":14000,"station_id":"ce4bh4p2rcd13ifvqe0g","pricing_plan_id":"cebpf4jnsgd1na2vs0mg"},{"bike_id":"bd07bb0a-7914-4975-b9b3-a3b2eaf40169","system_id":"levelo_inurba_marseille","lat":43.31708,"lon":5.37744,"is_reserved":false,"is_disabled":true,"rental_uris":{"android":"levelo://app?vid=bd07bb0a-7914-4975-b9b3-a3b2eaf40169","ios":"levelo://app?vid=bd07bb0a-7914-4975-b9b3-a3b2eaf40169"},"vehicle_type_id":"4","last_reported":1760984189,"current_range_meters":14000,"station_id":"ce4bgth2rcd13ifvqch0","pricing_plan_id":"cebpf4jnsgd1na2vs0mg"},{"bike_id":"69cd22cd-b8c8-4965-82b3-701f71d59c16","system_id":"levelo_inurba_marseille","lat":43.28955,"lon":5.36638,"is_reserved":false,"is_disabled":false,"rental_uris":{"android":"levelo://app?vid=69cd22cd-b8c8-4965-82b3-701f71d59c16","ios":"levelo://app?vid=69cd22cd-b8c8-4965-82b3-701f71d59c16"},"vehicle_type_id":"4","last_reported":1760984189,"current_range_meters":14000,"station_id":"ce4bhap2rcd13ifvqek0","pricing_plan_id":"cebpf4jnsgd1na2vs0mg"},{"bike_id":"5a35347d-1dbb-434c-8651-0148cd77cd1e","system_id":"levelo_inurba_marseille","lat":43.3175,"lon":5.38585,"is_reserved":false,"is_disabled":false,"rental_uris":{"android":"levelo://app?vid=5a35347d-1dbb-434c-8651-0148cd77cd1e","ios":"levelo://app?vid=5a35347d-1dbb-434c-8651-0148cd77cd1e"},"vehicle_type_id":"4","last_reported":1760984189,"current_range_meters":14000,"station_id":"","pricing_plan_id":"cebpf4jnsgd1na2vs0mg"},{"bike_id":"fefc0cbf-878f-4b7e-bc59-a72ad466ef0b","system_id":"levelo_inurba_marseille","lat":43.280743,"lon":5.396502,"is_reserved":false,"is_disabled":false,"rental_uris":{"android":"levelo://app?vid=fefc0cbf-878f-4b7e-bc59-a72ad466ef0b","ios":"levelo://app?vid=fefc0cbf-878f-4b7e-bc59-a72ad466ef0b"},"vehicle_type_id":"4","last_reported":1760984189,"current_range_meters":14000,"station_id":"ce4bho12rcd13ifvqh2g","pricing_plan_id":"cebpf4jnsgd1na2vs0mg"},{"bike_id":"241f4278-8126-4dad-bdde-bbda289230ee","system_id":"levelo_inurba_marseille","lat":43.31991,"lon":5.38102,"is_reserved":false,"is_disabled":false,"rental_uris":{"android":"levelo://app?vid=241f4278-8126-4dad-bdde-bbda289230ee","ios":"levelo://app?vid=241f4278-8126-4dad-bdde-bbda289230ee"},"vehicle_type_id":"4","last_reported":1760984189,"current_range_meters":14000,"station_id":"","pricing_plan_id":"cebpf4jnsgd1na2vs0mg"},{"bike_id":"499c56f8-27a4-4bb7-b4b1-d7f85a7355fa","system_id":"levelo_inurba_marseille","lat":43.29377,"lon":5.37828,"is_reserved":false,"is_disabled":false,"rental_uris":{"android":"levelo://app?vid=499c56f8-27a4-4bb7-b4b1-d7f85a7355fa","ios":"levelo://app?vid=499c56f8-27a4-4bb7-b4b1-d7f85a7355fa"},"vehicle_type_id":"4","last_reported":1760984189,"current_range_meters":14400,"station_id":"ce4bgjh2rcd13ifvqbf0","pricing_plan_id":"cebpf4jnsgd1na2vs0mg"},{"bike_id":"75d82543-0d0a-4743-8b49-fb9b12c86d8b","system_id":"levelo_inurba_marseille","lat":43.311404,"lon":5.387434,"is_reserved":false,"is_disabled":false,"rental_uris":{"android":"levelo://app?vid=75d82543-0d0a-4743-8b49-fb9b12c86d8b","ios":"levelo://app?vid=75d82543-0d0a-4743-8b49-fb9b12c86d8b"},"vehicle_type_id":"4","last_reported":1760984189,"current_range_meters":14400,"station_id":"ce4bgv12rcd13ifvqcp0","pricing_plan_id":"cebpf4jnsgd1na2vs0mg"},{"bike_id":"9953bb32-6d68-488a-9e42-24a31e2ab81f","system_id":"levelo_inurba_marseille","lat":43.31525,"lon":5.38034,"is_reserved":false,"is_disabled":false,"rental_uris":{"android":"levelo://app?vid=9953bb32-6d68-488a-9e42-24a31e2ab81f","ios":"levelo://app?vid=9953bb32-6d68-488a-9e42-24a31e2ab81f"},"vehicle_type_id":"4","last_reported":1760984189,"current_range_meters":14400,"station_id":"ce4bhsp2rcd13ifvqi50","pricing_plan_id":"cebpf4jnsgd1na2vs0mg"},{"bike_id":"2471cc2f-6aef-4aa0-b3c1-68ed4dbce567","system_id":"levelo_inurba_marseille","lat":43.29527,"lon":5.38541,"is_reserved":false,"is_disabled":false,"rental_uris":{"android":"levelo://app?vid=2471cc2f-6aef-4aa0-b3c1-68ed4dbce567","ios":"levelo://app?vid=2471cc2f-6aef-4aa0-b3c1-68ed4dbce567"},"vehicle_type_id":"4","last_reported":1760984189,"current_range_meters":14400,"station_id":"ce4bgih2rcd13ifvqba0","pricing_plan_id":"cebpf4jnsgd1na2vs0mg"},{"bike_id":"af2b1227-7d32-4713-bc16-dd0378a8632d","system_id":"levelo_inurba_marseille","lat":43.30416,"lon":5.39758,"is_reserved":false,"is_disabled":false,"rental_uris":{"android":"levelo://app?vid=af2b1227-7d32-4713-bc16-dd0378a8632d","ios":"levelo://app?vid=af2b1227-7d32-4713-bc16-dd0378a8632d"},"vehicle_type_id":"4","last_reported":1760984189,"current_range_meters":14400,"station_id":"ce4bh092rcd13ifvqd20","pricing_plan_id":"cebpf4jnsgd1na2vs0mg"},{"bike_id":"888d58b0-2772-42db-b380-0d0831a2a945","system_id":"levelo_inurba_marseille","lat":43.28663,"lon":5.38671,"is_reserved":false,"is_disabled":false,"rental_uris":{"android":"levelo://app?vid=888d58b0-2772-42db-b380-0d0831a2a945","ios":"levelo://app?vid=888d58b0-2772-42db-b380-0d0831a2a945"},"vehicle_type_id":"4","last_reported":1760984189,"current_range_meters":14400,"station_id":"ce4bh492rcd13ifvqdug","pricing_plan_id":"cebpf4jnsgd1na2vs0mg"},{"bike_id":"609cc4d8-3b0a-4009-a5cc-41b110f9149e","system_id":"levelo_inurba_marseille","lat":43.28719,"lon":5.36083,"is_reserved":false,"is_disabled":false,"rental_uris":{"android":"levelo://app?vid=609cc4d8-3b0a-4009-a5cc-41b110f9149e","ios":"levelo://app?vid=609cc4d8-3b0a-4009-a5cc-41b110f9149e"},"vehicle_type_id":"4","last_reported":1760984189,"current_range_meters":14400,"station_id":"cki0cbj6b192h4jlfktg","pricing_plan_id":"cebpf4jnsgd1na2vs0mg"},{"bike_id":"aff26c85-5d18-4d6c-aefe-ab50409dc055","system_id":"levelo_inurba_marseille","lat":43.28867,"lon":5.42526,"is_reserved":false,"is_disabled":false,"rental_uris":{"android":"levelo://app?vid=aff26c85-5d18-4d6c-aefe-ab50409dc055","ios":"levelo://app?vid=aff26c85-5d18-4d6c-aefe-ab50409dc055"},"vehicle_type_id":"4","last_reported":1760984189,"current_range_meters":14400,"station_id":"st_d3b462108ojc7389ooeg","pricing_plan_id":"cebpf4jnsgd1na2vs0mg"},{"bike_id":"c741a9b3-ad96-4e46-93e9-72e065f6c115","system_id":"levelo_inurba_marseille","lat":43.29197,"lon":5.39316,"is_reserved":false,"is_disabled":false,"rental_uris":{"android":"levelo://app?vid=c741a9b3-ad96-4e46-93e9-72e065f6c115","ios":"levelo://app?vid=c741a9b3-ad96-4e46-93e9-72e065f6c115"},"vehicle_type_id":"4","last_reported":1760984189,"current_range_meters":14400,"station_id":"ce4bh192rcd13ifvqdd0","pricing_plan_id":"cebpf4jnsgd1na2vs0mg"},{"bike_id":"5f1015a4-e527-423a-8450-0f79576a99ad","system_id":"levelo_inurba_marseille","lat":43.30273,"lon":5.43519,"is_reserved":false,"is_disabled":false,"rental_uris":{"android":"levelo://app?vid=5f1015a4-e527-423a-8450-0f79576a99ad","ios":"levelo://app?vid=5f1015a4-e527-423a-8450-0f79576a99ad"},"vehicle_type_id":"4","last_reported":1760984189,"current_range_meters":14400,"station_id":"","pricing_plan_id":"cebpf4jnsgd1na2vs0mg"},{"bike_id":"ea6f0fe7-a336-4ef0-a24e-71dbf5d49189","system_id":"levelo_inurba_marseille","lat":43.29816,"lon":5.44065,"is_reserved":false,"is_disabled":false,"rental_uris":{"android":"levelo://app?vid=ea6f0fe7-a336-4ef0-a24e-71dbf5d49189","ios":"levelo://app?vid=ea6f0fe7-a336-4ef0-a24e-71dbf5d49189"},"vehicle_type_id":"4","last_reported":1760984189,"current_range_meters":14400,"station_id":"st_d3jp68qikq2c7381ktn0","pricing_plan_id":"cebpf4jnsgd1na2vs0mg"},{"bike_id":"9d3ae994-9f8f-4684-818a-9e47b87560ff","system_id":"levelo_inurba_marseille","lat":43.25711,"lon":5.41103,"is_reserved":false,"is_disabled":false,"rental_uris":{"android":"levelo://app?vid=9d3ae994-9f8f-4684-818a-9e47b87560ff","ios":"levelo://app?vid=9d3ae994-9f8f-4684-818a-9e47b87560ff"},"vehicle_type_id":"4","last_reported":1760984189,"current_range_meters":14800,"station_id":"ce4bhkp2rcd13ifvqgd0","pricing_plan_id":"cebpf4jnsgd1na2vs0mg"},{"bike_id":"d024a5dc-047d-4c62-9be8-05dec29917f1","system_id":"levelo_inurba_marseille","lat":43.28416,"lon":5.38448,"is_reserved":false,"is_disabled":true,"rental_uris":{"android":"levelo://app?vid=d024a5dc-047d-4c62-9be8-05dec29917f1","ios":"levelo://app?vid=d024a5dc-047d-4c62-9be8-05dec29917f1"},"vehicle_type_id":"4","last_reported":1760984189,"current_range_meters":14800,"station_id":"ce4bh512rcd13ifvqe3g","pricing_plan_id":"cebpf4jnsgd1na2vs0mg"},{"bike_id":"a7ba6a6a-8dda-4e76-8a63-3f1cbbb0d6aa","system_id":"levelo_inurba_marseille","lat":43.34133,"lon":5.40907,"is_reserved":false,"is_disabled":false,"rental_uris":{"android":"levelo://app?vid=a7ba6a6a-8dda-4e76-8a63-3f1cbbb0d6aa","ios":"levelo://app?vid=a7ba6a6a-8dda-4e76-8a63-3f1cbbb0d6aa"},"vehicle_type_id":"4","last_reported":1760984189,"current_range_meters":14800,"station_id":"ce4bhqh2rcd13ifvqhlg","pricing_plan_id":"cebpf4jnsgd1na2vs0mg"},{"bike_id":"0556e768-f024-45b5-af11-e15f24f3c5b3","system_id":"levelo_inurba_marseille","lat":43.29559,"lon":5.39958,"is_reserved":false,"is_disabled":true,"rental_uris":{"android":"levelo://app?vid=0556e768-f024-45b5-af11-e15f24f3c5b3","ios":"levelo://app?vid=0556e768-f024-45b5-af11-e15f24f3c5b3"},"vehicle_type_id":"4","last_reported":1760984189,"current_range_meters":14800,"station_id":"ce4bh312rcd13ifvqdj0","pricing_plan_id":"cebpf4jnsgd1na2vs0mg"},{"bike_id":"2e67643b-d341-4102-ab0e-b8ecc435eb92","system_id":"levelo_inurba_marseille","lat":43.31514,"lon":5.38748,"is_reserved":false,"is_disabled":false,"rental_uris":{"android":"levelo://app?vid=2e67643b-d341-4102-ab0e-b8ecc435eb92","ios":"levelo://app?vid=2e67643b-d341-4102-ab0e-b8ecc435eb92"},"vehicle_type_id":"4","last_reported":1760984189,"current_range_meters":14800,"station_id":"","pricing_plan_id":"cebpf4jnsgd1na2vs0mg"},{"bike_id":"9f31e2d7-8168-4525-9076-739e91fbd8a3","system_id":"levelo_inurba_marseille","lat":43.24643,"lon":5.38899,"is_reserved":false,"is_disabled":false,"rental_uris":{"android":"levelo://app?vid=9f31e2d7-8168-4525-9076-739e91fbd8a3","ios":"levelo://app?vid=9f31e2d7-8168-4525-9076-739e91fbd8a3"},"vehicle_type_id":"4","last_reported":1760984189,"current_range_meters":14800,"station_id":"ce4bhg12rcd13ifvqf60","pricing_plan_id":"cebpf4jnsgd1na2vs0mg"},{"bike_id":"8cfdc42a-d2ca-4e9b-8d86-08af829be997","system_id":"levelo_inurba_marseille","lat":43.23968,"lon":5.3663,"is_reserved":false,"is_disabled":false,"rental_uris":{"android":"levelo://app?vid=8cfdc42a-d2ca-4e9b-8d86-08af829be997","ios":"levelo://app?vid=8cfdc42a-d2ca-4e9b-8d86-08af829be997"},"vehicle_type_id":"4","last_reported":1760984189,"current_range_meters":14800,"station_id":"ce4bhi12rcd13ifvqfp0","pricing_plan_id":"cebpf4jnsgd1na2vs0mg"},{"bike_id":"fde8e455-4195-4eb9-b5e0-aa7484b773cc","system_id":"levelo_inurba_marseille","lat":43.30879,"lon":5.39665,"is_reserved":false,"is_disabled":false,"rental_uris":{"android":"levelo://app?vid=fde8e455-4195-4eb9-b5e0-aa7484b773cc","ios":"levelo://app?vid=fde8e455-4195-4eb9-b5e0-aa7484b773cc"},"vehicle_type_id":"4","last_reported":1760984189,"current_range_meters":15200,"station_id":"ce4bh012rcd13ifvqcv0","pricing_plan_id":"cebpf4jnsgd1na2vs0mg"},{"bike_id":"a27423e0-ceb0-4a8f-86e7-7b89077ab2b5","system_id":"levelo_inurba_marseille","lat":43.28155,"lon":5.36124,"is_reserved":false,"is_disabled":false,"rental_uris":{"android":"levelo://app?vid=a27423e0-ceb0-4a8f-86e7-7b89077ab2b5","ios":"levelo://app?vid=a27423e0-ceb0-4a8f-86e7-7b89077ab2b5"},"vehicle_type_id":"4","last_reported":1760984189,"current_range_meters":15200,"station_id":"","pricing_plan_id":"cebpf4jnsgd1na2vs0mg"},{"bike_id":"1c3a62d6-9dc5-4b1d-b145-ff75c0ccb3b4","system_id":"levelo_inurba_marseille","lat":43.2827,"lon":5.35058,"is_reserved":false,"is_disabled":false,"rental_uris":{"android":"levelo://app?vid=1c3a62d6-9dc5-4b1d-b145-ff75c0ccb3b4","ios":"levelo://app?vid=1c3a62d6-9dc5-4b1d-b145-ff75c0ccb3b4"},"vehicle_type_id":"4","last_reported":1760984189,"current_range_meters":15200,"station_id":"","pricing_plan_id":"cebpf4jnsgd1na2vs0mg"},{"bike_id":"da3afb73-be6a-4156-ba11-1a4426cf9a60","system_id":"levelo_inurba_marseille","lat":43.29567,"lon":5.39971,"is_reserved":false,"is_disabled":false,"rental_uris":{"android":"levelo://app?vid=da3afb73-be6a-4156-ba11-1a4426cf9a60","ios":"levelo://app?vid=da3afb73-be6a-4156-ba11-1a4426cf9a60"},"vehicle_type_id":"4","last_reported":1760984189,"current_range_meters":16000,"station_id":"ce4bh312rcd13ifvqdj0","pricing_plan_id":"cebpf4jnsgd1na2vs0mg"},{"bike_id":"516c1e56-708f-4b58-bc5d-f987985e5695","system_id":"levelo_inurba_marseille","lat":43.23164,"lon":5.40002,"is_reserved":false,"is_disabled":false,"rental_uris":{"android":"levelo://app?vid=516c1e56-708f-4b58-bc5d-f987985e5695","ios":"levelo://app?vid=516c1e56-708f-4b58-bc5d-f987985e5695"},"vehicle_type_id":"4","last_reported":1760984189,"current_range_meters":16000,"station_id":"ce4bhn12rcd13ifvqgqg","pricing_plan_id":"cebpf4jnsgd1na2vs0mg"},{"bike_id":"e069097c-de32-4c84-83d9-c1d61362110e","system_id":"levelo_inurba_marseille","lat":43.30461,"lon":5.37906,"is_reserved":false,"is_disabled":false,"rental_uris":{"android":"levelo://app?vid=e069097c-de32-4c84-83d9-c1d61362110e","ios":"levelo://app?vid=e069097c-de32-4c84-83d9-c1d61362110e"},"vehicle_type_id":"4","last_reported":1760984189,"current_range_meters":16000,"station_id":"ce4bgup2rcd13ifvqcn0","pricing_plan_id":"cebpf4jnsgd1na2vs0mg"},{"bike_id":"f7bc1b94-a8e8-42b5-9694-5993a69ba238","system_id":"levelo_inurba_marseille","lat":43.25106,"lon":5.40338,"is_reserved":false,"is_disabled":true,"rental_uris":{"android":"levelo://app?vid=f7bc1b94-a8e8-42b5-9694-5993a69ba238","ios":"levelo://app?vid=f7bc1b94-a8e8-42b5-9694-5993a69ba238"},"vehicle_type_id":"4","last_reported":1760984189,"current_range_meters":16000,"station_id":"ce4bhlh2rcd13ifvqgig","pricing_plan_id":"cebpf4jnsgd1na2vs0mg"},{"bike_id":"06c03a3b-37c6-499a-8107-e4910efb4f14","system_id":"levelo_inurba_marseille","lat":43.239136,"lon":5.365658,"is_reserved":false,"is_disabled":false,"rental_uris":{"android":"levelo://app?vid=06c03a3b-37c6-499a-8107-e4910efb4f14","ios":"levelo://app?vid=06c03a3b-37c6-499a-8107-e4910efb4f14"},"vehicle_type_id":"4","last_reported":1760984189,"current_range_meters":16000,"station_id":"ce4bhgh2rcd13ifvqfa0","pricing_plan_id":"cebpf4jnsgd1na2vs0mg"},{"bike_id":"f872f71b-3067-4d94-be65-680e7a389af0","system_id":"levelo_inurba_marseille","lat":43.30887,"lon":5.39636,"is_reserved":false,"is_disabled":false,"rental_uris":{"android":"levelo://app?vid=f872f71b-3067-4d94-be65-680e7a389af0","ios":"levelo://app?vid=f872f71b-3067-4d94-be65-680e7a389af0"},"vehicle_type_id":"4","last_reported":1760984189,"current_range_meters":16000,"station_id":"ce4bh012rcd13ifvqcv0","pricing_plan_id":"cebpf4jnsgd1na2vs0mg"},{"bike_id":"b4dd57b5-fcf3-46d4-8f00-44cd689898c9","system_id":"levelo_inurba_marseille","lat":43.25336,"lon":5.42166,"is_reserved":false,"is_disabled":false,"rental_uris":{"android":"levelo://app?vid=b4dd57b5-fcf3-46d4-8f00-44cd689898c9","ios":"levelo://app?vid=b4dd57b5-fcf3-46d4-8f00-44cd689898c9"},"vehicle_type_id":"4","last_reported":1760984189,"current_range_meters":16400,"station_id":"st_d2m65c5bi1j21697t3ng","pricing_plan_id":"cebpf4jnsgd1na2vs0mg"},{"bike_id":"3500c908-297e-4054-9aba-70ee2962e831","system_id":"levelo_inurba_marseille","lat":43.31755,"lon":5.39014,"is_reserved":false,"is_disabled":false,"rental_uris":{"android":"levelo://app?vid=3500c908-297e-4054-9aba-70ee2962e831","ios":"levelo://app?vid=3500c908-297e-4054-9aba-70ee2962e831"},"vehicle_type_id":"4","last_reported":1760984189,"current_range_meters":16400,"station_id":"ce4bhqp2rcd13ifvqhng","pricing_plan_id":"cebpf4jnsgd1na2vs0mg"},{"bike_id":"b14fa3f8-aae1-46e3-b682-dad93ba86e32","system_id":"levelo_inurba_marseille","lat":43.25084,"lon":5.39506,"is_reserved":false,"is_disabled":false,"rental_uris":{"android":"levelo://app?vid=b14fa3f8-aae1-46e3-b682-dad93ba86e32","ios":"levelo://app?vid=b14fa3f8-aae1-46e3-b682-dad93ba86e32"},"vehicle_type_id":"4","last_reported":1760984189,"current_range_meters":16400,"station_id":"ce4bhm12rcd13ifvqgkg","pricing_plan_id":"cebpf4jnsgd1na2vs0mg"},{"bike_id":"737796b0-9eed-4879-8123-81b53466978c","system_id":"levelo_inurba_marseille","lat":43.279874,"lon":5.416625,"is_reserved":false,"is_disabled":false,"rental_uris":{"android":"levelo://app?vid=737796b0-9eed-4879-8123-81b53466978c","ios":"levelo://app?vid=737796b0-9eed-4879-8123-81b53466978c"},"vehicle_type_id":"4","last_reported":1760984189,"current_range_meters":16400,"station_id":"ce4bho12rcd13ifvqh1g","pricing_plan_id":"cebpf4jnsgd1na2vs0mg"},{"bike_id":"ee541b89-16c0-411b-94f7-b1b83718973b","system_id":"levelo_inurba_marseille","lat":43.27997,"lon":5.41667,"is_reserved":false,"is_disabled":false,"rental_uris":{"android":"levelo://app?vid=ee541b89-16c0-411b-94f7-b1b83718973b","ios":"levelo://app?vid=ee541b89-16c0-411b-94f7-b1b83718973b"},"vehicle_type_id":"4","last_reported":1760984189,"current_range_meters":16400,"station_id":"ce4bho12rcd13ifvqh1g","pricing_plan_id":"cebpf4jnsgd1na2vs0mg"},{"bike_id":"d950ada0-7546-479b-b1de-6e0c92ac2fca","system_id":"levelo_inurba_marseille","lat":43.29029,"lon":5.38662,"is_reserved":false,"is_disabled":true,"rental_uris":{"android":"levelo://app?vid=d950ada0-7546-479b-b1de-6e0c92ac2fca","ios":"levelo://app?vid=d950ada0-7546-479b-b1de-6e0c92ac2fca"},"vehicle_type_id":"4","last_reported":1760984189,"current_range_meters":16400,"station_id":"ce4bh4p2rcd13ifvqe0g","pricing_plan_id":"cebpf4jnsgd1na2vs0mg"},{"bike_id":"d2cff068-ce92-438c-8baa-7cd366cef1d1","system_id":"levelo_inurba_marseille","lat":43.27422,"lon":5.39423,"is_reserved":false,"is_disabled":false,"rental_uris":{"android":"levelo://app?vid=d2cff068-ce92-438c-8baa-7cd366cef1d1","ios":"levelo://app?vid=d2cff068-ce92-438c-8baa-7cd366cef1d1"},"vehicle_type_id":"4","last_reported":1760984189,"current_range_meters":16400,"station_id":"ce4bhdp2rcd13ifvqf20","pricing_plan_id":"cebpf4jnsgd1na2vs0mg"},{"bike_id":"3cef5c66-b2e9-4295-b392-2eb2885cc4bb","system_id":"levelo_inurba_marseille","lat":43.28607,"lon":5.37067,"is_reserved":false,"is_disabled":false,"rental_uris":{"android":"levelo://app?vid=3cef5c66-b2e9-4295-b392-2eb2885cc4bb","ios":"levelo://app?vid=3cef5c66-b2e9-4295-b392-2eb2885cc4bb"},"vehicle_type_id":"4","last_reported":1760984189,"current_range_meters":16400,"station_id":"ce4bht12rcd13ifvqi60","pricing_plan_id":"cebpf4jnsgd1na2vs0mg"},{"bike_id":"40617a59-a4c2-4066-ac53-b4f37168ac6f","system_id":"levelo_inurba_marseille","lat":43.337736,"lon":5.374688,"is_reserved":false,"is_disabled":false,"rental_uris":{"android":"levelo://app?vid=40617a59-a4c2-4066-ac53-b4f37168ac6f","ios":"levelo://app?vid=40617a59-a4c2-4066-ac53-b4f37168ac6f"},"vehicle_type_id":"4","last_reported":1760984189,"current_range_meters":16400,"station_id":"","pricing_plan_id":"cebpf4jnsgd1na2vs0mg"},{"bike_id":"3123a6a7-35c3-42a8-bf8d-e4a1257af3e7","system_id":"levelo_inurba_marseille","lat":43.29971,"lon":5.38499,"is_reserved":false,"is_disabled":false,"rental_uris":{"android":"levelo://app?vid=3123a6a7-35c3-42a8-bf8d-e4a1257af3e7","ios":"levelo://app?vid=3123a6a7-35c3-42a8-bf8d-e4a1257af3e7"},"vehicle_type_id":"4","last_reported":1760984189,"current_range_meters":16400,"station_id":"ce4bgj92rcd13ifvqbd0","pricing_plan_id":"cebpf4jnsgd1na2vs0mg"},{"bike_id":"2f09c9be-359a-414b-9339-b6dbcd93427c","system_id":"levelo_inurba_marseille","lat":43.29577,"lon":5.38117,"is_reserved":false,"is_disabled":true,"rental_uris":{"android":"levelo://app?vid=2f09c9be-359a-414b-9339-b6dbcd93427c","ios":"levelo://app?vid=2f09c9be-359a-414b-9339-b6dbcd93427c"},"vehicle_type_id":"4","last_reported":1760984189,"current_range_meters":16400,"station_id":"ce4bgl12rcd13ifvqbo0","pricing_plan_id":"cebpf4jnsgd1na2vs0mg"},{"bike_id":"1d998c11-23a7-4a77-9b46-99c9f483b6e4","system_id":"levelo_inurba_marseille","lat":43.2495,"lon":5.40479,"is_reserved":false,"is_disabled":false,"rental_uris":{"android":"levelo://app?vid=1d998c11-23a7-4a77-9b46-99c9f483b6e4","ios":"levelo://app?vid=1d998c11-23a7-4a77-9b46-99c9f483b6e4"},"vehicle_type_id":"4","last_reported":1760984189,"current_range_meters":16400,"station_id":"st_d2ngiaodas8pm72gd1h0","pricing_plan_id":"cebpf4jnsgd1na2vs0mg"},{"bike_id":"b63f4144-84f6-4ba1-b6df-f6ebabe9ef26","system_id":"levelo_inurba_marseille","lat":43.27925,"lon":5.40421,"is_reserved":false,"is_disabled":false,"rental_uris":{"android":"levelo://app?vid=b63f4144-84f6-4ba1-b6df-f6ebabe9ef26","ios":"levelo://app?vid=b63f4144-84f6-4ba1-b6df-f6ebabe9ef26"},"vehicle_type_id":"4","last_reported":1760984189,"current_range_meters":16400,"station_id":"","pricing_plan_id":"cebpf4jnsgd1na2vs0mg"},{"bike_id":"ecc71f2f-a8c8-48f2-a3d5-7917b274cd85","system_id":"levelo_inurba_marseille","lat":43.28286,"lon":5.39658,"is_reserved":false,"is_disabled":false,"rental_uris":{"android":"levelo://app?vid=ecc71f2f-a8c8-48f2-a3d5-7917b274cd85","ios":"levelo://app?vid=ecc71f2f-a8c8-48f2-a3d5-7917b274cd85"},"vehicle_type_id":"4","last_reported":1760984189,"current_range_meters":16800,"station_id":"","pricing_plan_id":"cebpf4jnsgd1na2vs0mg"},{"bike_id":"0db9ab5d-e4b9-4e8d-8841-4099a10de2ae","system_id":"levelo_inurba_marseille","lat":43.28483,"lon":5.48401,"is_reserved":false,"is_disabled":false,"rental_uris":{"android":"levelo://app?vid=0db9ab5d-e4b9-4e8d-8841-4099a10de2ae","ios":"levelo://app?vid=0db9ab5d-e4b9-4e8d-8841-4099a10de2ae"},"vehicle_type_id":"4","last_reported":1760984189,"current_range_meters":16800,"station_id":"st_d3jp68qikq2c7381ktn0","pricing_plan_id":"cebpf4jnsgd1na2vs0mg"},{"bike_id":"40f79638-07e6-404a-88b2-4006179a9637","system_id":"levelo_inurba_marseille","lat":43.24545,"lon":5.39519,"is_reserved":false,"is_disabled":false,"rental_uris":{"android":"levelo://app?vid=40f79638-07e6-404a-88b2-4006179a9637","ios":"levelo://app?vid=40f79638-07e6-404a-88b2-4006179a9637"},"vehicle_type_id":"4","last_reported":1760984189,"current_range_meters":16800,"station_id":"ce4bhlp2rcd13ifvqgjg","pricing_plan_id":"cebpf4jnsgd1na2vs0mg"},{"bike_id":"20d9d3c4-a46a-4dac-bafb-410f46cebfba","system_id":"levelo_inurba_marseille","lat":43.258409,"lon":5.393574,"is_reserved":false,"is_disabled":false,"rental_uris":{"android":"levelo://app?vid=20d9d3c4-a46a-4dac-bafb-410f46cebfba","ios":"levelo://app?vid=20d9d3c4-a46a-4dac-bafb-410f46cebfba"},"vehicle_type_id":"4","last_reported":1760984189,"current_range_meters":16800,"station_id":"","pricing_plan_id":"cebpf4jnsgd1na2vs0mg"},{"bike_id":"12c7b0d2-ddbf-431c-8610-ad9ab6df2f6a","system_id":"levelo_inurba_marseille","lat":43.32062,"lon":5.36726,"is_reserved":false,"is_disabled":false,"rental_uris":{"android":"levelo://app?vid=12c7b0d2-ddbf-431c-8610-ad9ab6df2f6a","ios":"levelo://app?vid=12c7b0d2-ddbf-431c-8610-ad9ab6df2f6a"},"vehicle_type_id":"4","last_reported":1760984189,"current_range_meters":16800,"station_id":"ce4bhrh2rcd13ifvqhug","pricing_plan_id":"cebpf4jnsgd1na2vs0mg"},{"bike_id":"950968fb-8948-4f66-b433-5e975b34f2e2","system_id":"levelo_inurba_marseille","lat":43.23184,"lon":5.39981,"is_reserved":false,"is_disabled":false,"rental_uris":{"android":"levelo://app?vid=950968fb-8948-4f66-b433-5e975b34f2e2","ios":"levelo://app?vid=950968fb-8948-4f66-b433-5e975b34f2e2"},"vehicle_type_id":"4","last_reported":1760984189,"current_range_meters":16800,"station_id":"ce4bhn12rcd13ifvqgqg","pricing_plan_id":"cebpf4jnsgd1na2vs0mg"},{"bike_id":"e3f546e7-0d53-4f39-a2ad-de471057ddd2","system_id":"levelo_inurba_marseille","lat":43.28663,"lon":5.36347,"is_reserved":false,"is_disabled":false,"rental_uris":{"android":"levelo://app?vid=e3f546e7-0d53-4f39-a2ad-de471057ddd2","ios":"levelo://app?vid=e3f546e7-0d53-4f39-a2ad-de471057ddd2"},"vehicle_type_id":"4","last_reported":1760984189,"current_range_meters":16800,"station_id":"ce4bhah2rcd13ifvqej0","pricing_plan_id":"cebpf4jnsgd1na2vs0mg"},{"bike_id":"650bb74a-57ef-4e4a-8406-528f721d7e7f","system_id":"levelo_inurba_marseille","lat":43.28708,"lon":5.37374,"is_reserved":false,"is_disabled":false,"rental_uris":{"android":"levelo://app?vid=650bb74a-57ef-4e4a-8406-528f721d7e7f","ios":"levelo://app?vid=650bb74a-57ef-4e4a-8406-528f721d7e7f"},