{"last_updated":1768839418,"ttl":60,"version":"2.2","data":{"bikes":[{"bike_id":"295b7637-50fc-408f-933b-54632a076cab","system_id":"levelo_inurba_marseille","lat":43.284725,"lon":5.384184,"is_reserved":false,"is_disabled":false,"rental_uris":{"android":"levelo://app?vid=295b7637-50fc-408f-933b-54632a076cab","ios":"levelo://app?vid=295b7637-50fc-408f-933b-54632a076cab"},"vehicle_type_id":"4","last_reported":1768839419,"current_range_meters":2800,"station_id":"","pricing_plan_id":"cebpf4jnsgd1na2vs0mg"},{"bike_id":"4074827b-9367-49e4-97dc-cc69d5d31612","system_id":"levelo_inurba_marseille","lat":43.25349,"lon":5.42166,"is_reserved":false,"is_disabled":false,"rental_uris":{"android":"levelo://app?vid=4074827b-9367-49e4-97dc-cc69d5d31612","ios":"levelo://app?vid=4074827b-9367-49e4-97dc-cc69d5d31612"},"vehicle_type_id":"4","last_reported":1768839419,"current_range_meters":2800,"station_id":"st_d2m65c5bi1j21697t3ng","pricing_plan_id":"cebpf4jnsgd1na2vs0mg"},{"bike_id":"4d57c879-6d5d-4c97-ab51-f9c4883e5bb2","system_id":"levelo_inurba_marseille","lat":43.24395,"lon":5.37075,"is_reserved":false,"is_disabled":false,"rental_uris":{"android":"levelo://app?vid=4d57c879-6d5d-4c97-ab51-f9c4883e5bb2","ios":"levelo://app?vid=4d57c879-6d5d-4c97-ab51-f9c4883e5bb2"},"vehicle_type_id":"4","last_reported":1768839419,"current_range_meters":2800,"station_id":"ce4bhhh2rcd13ifvqfk0","pricing_plan_id":"cebpf4jnsgd1na2vs0mg"},{"bike_id":"ae8e775e-473a-403a-a960-b995399bb17e","system_id":"levelo_inurba_marseille","lat":43.28876,"lon":5.42516,"is_reserved":false,"is_disabled":false,"rental_uris":{"android":"levelo://app?vid=ae8e775e-473a-403a-a960-b995399bb17e","ios":"levelo://app?vid=ae8e775e-473a-403a-a960-b995399bb17e"},"vehicle_type_id":"4","last_reported":1768839419,"current_range_meters":2800,"station_id":"st_d3b462108ojc7389ooeg","pricing_plan_id":"cebpf4jnsgd1na2vs0mg"},{"bike_id":"cf6cf1ef-aa37-4729-aa27-a12ea3577227","system_id":"levelo_inurba_marseille","lat":43.30374,"lon":5.37725,"is_reserved":false,"is_disabled":false,"rental_uris":{"android":"levelo://app?vid=cf6cf1ef-aa37-4729-aa27-a12ea3577227","ios":"levelo://app?vid=cf6cf1ef-aa37-4729-aa27-a12ea3577227"},"vehicle_type_id":"4","last_reported":1768839419,"current_range_meters":2800,"station_id":"","pricing_plan_id":"cebpf4jnsgd1na2vs0mg"},{"bike_id":"fac5b6df-9a47-4e46-be53-c56df5ec2b27","system_id":"levelo_inurba_marseille","lat":43.225563,"lon":5.416261,"is_reserved":false,"is_disabled":true,"rental_uris":{"android":"levelo://app?vid=fac5b6df-9a47-4e46-be53-c56df5ec2b27","ios":"levelo://app?vid=fac5b6df-9a47-4e46-be53-c56df5ec2b27"},"vehicle_type_id":"4","last_reported":1768839419,"current_range_meters":2800,"station_id":"st_d2o4gvlbi1j2169b742g","pricing_plan_id":"cebpf4jnsgd1na2vs0mg"},{"bike_id":"04296a31-6732-4172-b312-463c57081d76","system_id":"levelo_inurba_marseille","lat":43.27559,"lon":5.3841,"is_reserved":false,"is_disabled":false,"rental_uris":{"android":"levelo://app?vid=04296a31-6732-4172-b312-463c57081d76","ios":"levelo://app?vid=04296a31-6732-4172-b312-463c57081d76"},"vehicle_type_id":"4","last_reported":1768839419,"current_range_meters":2800,"station_id":"ce4bhh92rcd13ifvqfi0","pricing_plan_id":"cebpf4jnsgd1na2vs0mg"},{"bike_id":"ca28744b-9d9c-4bce-bd57-6521a0415ccc","system_id":"levelo_inurba_marseille","lat":43.2649,"lon":5.39552,"is_reserved":false,"is_disabled":false,"rental_uris":{"android":"levelo://app?vid=ca28744b-9d9c-4bce-bd57-6521a0415ccc","ios":"levelo://app?vid=ca28744b-9d9c-4bce-bd57-6521a0415ccc"},"vehicle_type_id":"4","last_reported":1768839419,"current_range_meters":2800,"station_id":"ce4bhi12rcd13ifvqfq0","pricing_plan_id":"cebpf4jnsgd1na2vs0mg"},{"bike_id":"4adc3fa4-2077-447e-b0ea-2249d03c6de8","system_id":"levelo_inurba_marseille","lat":43.2415,"lon":5.39722,"is_reserved":false,"is_disabled":false,"rental_uris":{"android":"levelo://app?vid=4adc3fa4-2077-447e-b0ea-2249d03c6de8","ios":"levelo://app?vid=4adc3fa4-2077-447e-b0ea-2249d03c6de8"},"vehicle_type_id":"4","last_reported":1768839419,"current_range_meters":3200,"station_id":"ce4bhn12rcd13ifvqgpg","pricing_plan_id":"cebpf4jnsgd1na2vs0mg"},{"bike_id":"0217887a-8c5b-44bd-a806-474e51ffaf08","system_id":"levelo_inurba_marseille","lat":43.27988,"lon":5.41664,"is_reserved":false,"is_disabled":false,"rental_uris":{"android":"levelo://app?vid=0217887a-8c5b-44bd-a806-474e51ffaf08","ios":"levelo://app?vid=0217887a-8c5b-44bd-a806-474e51ffaf08"},"vehicle_type_id":"4","last_reported":1768839419,"current_range_meters":3200,"station_id":"ce4bho12rcd13ifvqh1g","pricing_plan_id":"cebpf4jnsgd1na2vs0mg"},{"bike_id":"986a75c0-9796-4e24-8a70-d6875d9b1e95","system_id":"levelo_inurba_marseille","lat":43.29243,"lon":5.38456,"is_reserved":false,"is_disabled":false,"rental_uris":{"android":"levelo://app?vid=986a75c0-9796-4e24-8a70-d6875d9b1e95","ios":"levelo://app?vid=986a75c0-9796-4e24-8a70-d6875d9b1e95"},"vehicle_type_id":"4","last_reported":1768839419,"current_range_meters":3200,"station_id":"ce4bh692rcd13ifvqea0","pricing_plan_id":"cebpf4jnsgd1na2vs0mg"},{"bike_id":"eb530094-7d39-4890-85ff-5b0790a5172f","system_id":"levelo_inurba_marseille","lat":43.25539,"lon":5.43232,"is_reserved":false,"is_disabled":false,"rental_uris":{"android":"levelo://app?vid=eb530094-7d39-4890-85ff-5b0790a5172f","ios":"levelo://app?vid=eb530094-7d39-4890-85ff-5b0790a5172f"},"vehicle_type_id":"4","last_reported":1768839419,"current_range_meters":3200,"station_id":"","pricing_plan_id":"cebpf4jnsgd1na2vs0mg"},{"bike_id":"ee5a5513-9417-4366-ad57-ae7f24569952","system_id":"levelo_inurba_marseille","lat":43.24813,"lon":5.3745,"is_reserved":false,"is_disabled":false,"rental_uris":{"android":"levelo://app?vid=ee5a5513-9417-4366-ad57-ae7f24569952","ios":"levelo://app?vid=ee5a5513-9417-4366-ad57-ae7f24569952"},"vehicle_type_id":"4","last_reported":1768839419,"current_range_meters":3200,"station_id":"ce4bhgh2rcd13ifvqfb0","pricing_plan_id":"cebpf4jnsgd1na2vs0mg"},{"bike_id":"4faa1e6c-4a91-44dd-8370-e7a7848122c8","system_id":"levelo_inurba_marseille","lat":43.2447,"lon":5.42529,"is_reserved":false,"is_disabled":false,"rental_uris":{"android":"levelo://app?vid=4faa1e6c-4a91-44dd-8370-e7a7848122c8","ios":"levelo://app?vid=4faa1e6c-4a91-44dd-8370-e7a7848122c8"},"vehicle_type_id":"4","last_reported":1768839419,"current_range_meters":3200,"station_id":"st_d4a3vfp97mjs738cd8kg","pricing_plan_id":"cebpf4jnsgd1na2vs0mg"},{"bike_id":"36d81f7e-b1c3-4fe6-b5aa-7b5a18031396","system_id":"levelo_inurba_marseille","lat":43.26209,"lon":5.37421,"is_reserved":false,"is_disabled":false,"rental_uris":{"android":"levelo://app?vid=36d81f7e-b1c3-4fe6-b5aa-7b5a18031396","ios":"levelo://app?vid=36d81f7e-b1c3-4fe6-b5aa-7b5a18031396"},"vehicle_type_id":"4","last_reported":1768839419,"current_range_meters":3600,"station_id":"ce4bhgp2rcd13ifvqfc0","pricing_plan_id":"cebpf4jnsgd1na2vs0mg"},{"bike_id":"ceac69a1-c70e-483e-8597-2b27851c5fdf","system_id":"levelo_inurba_marseille","lat":43.25574,"lon":5.38223,"is_reserved":false,"is_disabled":false,"rental_uris":{"android":"levelo://app?vid=ceac69a1-c70e-483e-8597-2b27851c5fdf","ios":"levelo://app?vid=ceac69a1-c70e-483e-8597-2b27851c5fdf"},"vehicle_type_id":"4","last_reported":1768839419,"current_range_meters":3600,"station_id":"ce4bhih2rcd13ifvqfs0","pricing_plan_id":"cebpf4jnsgd1na2vs0mg"},{"bike_id":"9cf066cd-b3a6-4dcf-81e1-3a1cd5ef49ac","system_id":"levelo_inurba_marseille","lat":43.25857,"lon":5.39942,"is_reserved":false,"is_disabled":false,"rental_uris":{"android":"levelo://app?vid=9cf066cd-b3a6-4dcf-81e1-3a1cd5ef49ac","ios":"levelo://app?vid=9cf066cd-b3a6-4dcf-81e1-3a1cd5ef49ac"},"vehicle_type_id":"4","last_reported":1768839419,"current_range_meters":3600,"station_id":"ce4bhl92rcd13ifvqghg","pricing_plan_id":"cebpf4jnsgd1na2vs0mg"},{"bike_id":"b8a52be7-8740-45d9-966a-1ddcbac12d10","system_id":"levelo_inurba_marseille","lat":43.28494,"lon":5.48383,"is_reserved":false,"is_disabled":false,"rental_uris":{"android":"levelo://app?vid=b8a52be7-8740-45d9-966a-1ddcbac12d10","ios":"levelo://app?vid=b8a52be7-8740-45d9-966a-1ddcbac12d10"},"vehicle_type_id":"4","last_reported":1768839419,"current_range_meters":3600,"station_id":"","pricing_plan_id":"cebpf4jnsgd1na2vs0mg"},{"bike_id":"cb9b796d-e7a3-4a46-b5b0-0ffb7b4e4160","system_id":"levelo_inurba_marseille","lat":43.30322,"lon":5.40445,"is_reserved":false,"is_disabled":false,"rental_uris":{"android":"levelo://app?vid=cb9b796d-e7a3-4a46-b5b0-0ffb7b4e4160","ios":"levelo://app?vid=cb9b796d-e7a3-4a46-b5b0-0ffb7b4e4160"},"vehicle_type_id":"4","last_reported":1768839419,"current_range_meters":3600,"station_id":"ce4bh012rcd13ifvqd10","pricing_plan_id":"cebpf4jnsgd1na2vs0mg"},{"bike_id":"ce57df57-2a76-4557-9819-dd7308e47bc4","system_id":"levelo_inurba_marseille","lat":43.24811,"lon":5.37449,"is_reserved":false,"is_disabled":false,"rental_uris":{"android":"levelo://app?vid=ce57df57-2a76-4557-9819-dd7308e47bc4","ios":"levelo://app?vid=ce57df57-2a76-4557-9819-dd7308e47bc4"},"vehicle_type_id":"4","last_reported":1768839419,"current_range_meters":3600,"station_id":"ce4bhgh2rcd13ifvqfb0","pricing_plan_id":"cebpf4jnsgd1na2vs0mg"},{"bike_id":"951af3c2-e410-4181-856d-ac0bf777f0ea","system_id":"levelo_inurba_marseille","lat":43.30405,"lon":5.40976,"is_reserved":false,"is_disabled":false,"rental_uris":{"android":"levelo://app?vid=951af3c2-e410-4181-856d-ac0bf777f0ea","ios":"levelo://app?vid=951af3c2-e410-4181-856d-ac0bf777f0ea"},"vehicle_type_id":"4","last_reported":1768839419,"current_range_meters":3600,"station_id":"","pricing_plan_id":"cebpf4jnsgd1na2vs0mg"},{"bike_id":"1b143c6b-2c43-4c50-93a5-9cc38e4e945d","system_id":"levelo_inurba_marseille","lat":43.24217,"lon":5.39712,"is_reserved":false,"is_disabled":false,"rental_uris":{"android":"levelo://app?vid=1b143c6b-2c43-4c50-93a5-9cc38e4e945d","ios":"levelo://app?vid=1b143c6b-2c43-4c50-93a5-9cc38e4e945d"},"vehicle_type_id":"4","last_reported":1768839419,"current_range_meters":3600,"station_id":"ce4bhn12rcd13ifvqgpg","pricing_plan_id":"cebpf4jnsgd1na2vs0mg"},{"bike_id":"829ca6ba-509c-451a-a278-6c150b28f569","system_id":"levelo_inurba_marseille","lat":43.31212,"lon":5.36881,"is_reserved":false,"is_disabled":false,"rental_uris":{"android":"levelo://app?vid=829ca6ba-509c-451a-a278-6c150b28f569","ios":"levelo://app?vid=829ca6ba-509c-451a-a278-6c150b28f569"},"vehicle_type_id":"4","last_reported":1768839419,"current_range_meters":4000,"station_id":"ce4bgl92rcd13ifvqbq0","pricing_plan_id":"cebpf4jnsgd1na2vs0mg"},{"bike_id":"40ecb84e-d2ac-4a6c-ad1d-6416db8fb424","system_id":"levelo_inurba_marseille","lat":43.24187,"lon":5.39717,"is_reserved":false,"is_disabled":false,"rental_uris":{"android":"levelo://app?vid=40ecb84e-d2ac-4a6c-ad1d-6416db8fb424","ios":"levelo://app?vid=40ecb84e-d2ac-4a6c-ad1d-6416db8fb424"},"vehicle_type_id":"4","last_reported":1768839419,"current_range_meters":4000,"station_id":"ce4bhn12rcd13ifvqgpg","pricing_plan_id":"cebpf4jnsgd1na2vs0mg"},{"bike_id":"0173a4a0-d218-484f-87ce-1fc0a3bcd947","system_id":"levelo_inurba_marseille","lat":43.30129,"lon":5.38781,"is_reserved":false,"is_disabled":false,"rental_uris":{"android":"levelo://app?vid=0173a4a0-d218-484f-87ce-1fc0a3bcd947","ios":"levelo://app?vid=0173a4a0-d218-484f-87ce-1fc0a3bcd947"},"vehicle_type_id":"4","last_reported":1768839419,"current_range_meters":4000,"station_id":"ce4bghh2rcd13ifvqb60","pricing_plan_id":"cebpf4jnsgd1na2vs0mg"},{"bike_id":"23c29b1d-14ea-4846-90e3-8702fb6b44ff","system_id":"levelo_inurba_marseille","lat":43.24179,"lon":5.39735,"is_reserved":false,"is_disabled":false,"rental_uris":{"android":"levelo://app?vid=23c29b1d-14ea-4846-90e3-8702fb6b44ff","ios":"levelo://app?vid=23c29b1d-14ea-4846-90e3-8702fb6b44ff"},"vehicle_type_id":"4","last_reported":1768839419,"current_range_meters":4000,"station_id":"ce4bhn12rcd13ifvqgpg","pricing_plan_id":"cebpf4jnsgd1na2vs0mg"},{"bike_id":"d9886c1a-279f-43dd-8640-9d720eba9676","system_id":"levelo_inurba_marseille","lat":43.25576,"lon":5.38228,"is_reserved":false,"is_disabled":false,"rental_uris":{"android":"levelo://app?vid=d9886c1a-279f-43dd-8640-9d720eba9676","ios":"levelo://app?vid=d9886c1a-279f-43dd-8640-9d720eba9676"},"vehicle_type_id":"4","last_reported":1768839419,"current_range_meters":4000,"station_id":"ce4bhih2rcd13ifvqfs0","pricing_plan_id":"cebpf4jnsgd1na2vs0mg"},{"bike_id":"45be07eb-7b8b-4438-87f5-34a08f87a459","system_id":"levelo_inurba_marseille","lat":43.30306,"lon":5.37648,"is_reserved":false,"is_disabled":false,"rental_uris":{"android":"levelo://app?vid=45be07eb-7b8b-4438-87f5-34a08f87a459","ios":"levelo://app?vid=45be07eb-7b8b-4438-87f5-34a08f87a459"},"vehicle_type_id":"4","last_reported":1768839419,"current_range_meters":4000,"station_id":"","pricing_plan_id":"cebpf4jnsgd1na2vs0mg"},{"bike_id":"cb2e4f41-657b-486b-9c36-7388c7c605e7","system_id":"levelo_inurba_marseille","lat":43.24392,"lon":5.3704,"is_reserved":false,"is_disabled":false,"rental_uris":{"android":"levelo://app?vid=cb2e4f41-657b-486b-9c36-7388c7c605e7","ios":"levelo://app?vid=cb2e4f41-657b-486b-9c36-7388c7c605e7"},"vehicle_type_id":"4","last_reported":1768839419,"current_range_meters":4000,"station_id":"ce4bhhh2rcd13ifvqfk0","pricing_plan_id":"cebpf4jnsgd1na2vs0mg"},{"bike_id":"f7662739-d69c-4274-a8c7-8f29a69d71e7","system_id":"levelo_inurba_marseille","lat":43.21743,"lon":5.34593,"is_reserved":false,"is_disabled":false,"rental_uris":{"android":"levelo://app?vid=f7662739-d69c-4274-a8c7-8f29a69d71e7","ios":"levelo://app?vid=f7662739-d69c-4274-a8c7-8f29a69d71e7"},"vehicle_type_id":"4","last_reported":1768839419,"current_range_meters":4000,"station_id":"st_cvj6r9ubvosntc0bgbag","pricing_plan_id":"cebpf4jnsgd1na2vs0mg"},{"bike_id":"ffc441e7-e55b-42bb-96f2-614e465f2aae","system_id":"levelo_inurba_marseille","lat":43.309,"lon":5.36873,"is_reserved":false,"is_disabled":false,"rental_uris":{"android":"levelo://app?vid=ffc441e7-e55b-42bb-96f2-614e465f2aae","ios":"levelo://app?vid=ffc441e7-e55b-42bb-96f2-614e465f2aae"},"vehicle_type_id":"4","last_reported":1768839419,"current_range_meters":4400,"station_id":"ce4bgn92rcd13ifvqbvg","pricing_plan_id":"cebpf4jnsgd1na2vs0mg"},{"bike_id":"a0ec07d0-2325-4a64-ac6c-c9ac3695e358","system_id":"levelo_inurba_marseille","lat":43.29904,"lon":5.38132,"is_reserved":false,"is_disabled":false,"rental_uris":{"android":"levelo://app?vid=a0ec07d0-2325-4a64-ac6c-c9ac3695e358","ios":"levelo://app?vid=a0ec07d0-2325-4a64-ac6c-c9ac3695e358"},"vehicle_type_id":"4","last_reported":1768839419,"current_range_meters":4400,"station_id":"ce4bgj12rcd13ifvqbc0","pricing_plan_id":"cebpf4jnsgd1na2vs0mg"},{"bike_id":"f5a7fe50-3f88-4424-9093-9d69e6cd583d","system_id":"levelo_inurba_marseille","lat":43.22561,"lon":5.41619,"is_reserved":false,"is_disabled":false,"rental_uris":{"android":"levelo://app?vid=f5a7fe50-3f88-4424-9093-9d69e6cd583d","ios":"levelo://app?vid=f5a7fe50-3f88-4424-9093-9d69e6cd583d"},"vehicle_type_id":"4","last_reported":1768839419,"current_range_meters":4400,"station_id":"st_d2o4gvlbi1j2169b742g","pricing_plan_id":"cebpf4jnsgd1na2vs0mg"},{"bike_id":"788dcc85-724c-407b-9a4c-26471c1317fb","system_id":"levelo_inurba_marseille","lat":43.320151,"lon":5.414386,"is_reserved":false,"is_disabled":false,"rental_uris":{"android":"levelo://app?vid=788dcc85-724c-407b-9a4c-26471c1317fb","ios":"levelo://app?vid=788dcc85-724c-407b-9a4c-26471c1317fb"},"vehicle_type_id":"4","last_reported":1768839419,"current_range_meters":4400,"station_id":"ce4bhq92rcd13ifvqhkg","pricing_plan_id":"cebpf4jnsgd1na2vs0mg"},{"bike_id":"a10eca83-916b-44fa-b2b4-c1bfebd8bd35","system_id":"levelo_inurba_marseille","lat":43.22928,"lon":5.35383,"is_reserved":false,"is_disabled":false,"rental_uris":{"android":"levelo://app?vid=a10eca83-916b-44fa-b2b4-c1bfebd8bd35","ios":"levelo://app?vid=a10eca83-916b-44fa-b2b4-c1bfebd8bd35"},"vehicle_type_id":"4","last_reported":1768839419,"current_range_meters":4400,"station_id":"cpo3532slgdg3j2ikp40","pricing_plan_id":"cebpf4jnsgd1na2vs0mg"},{"bike_id":"6473bd0f-8511-4a8a-89c5-9091f9cdad57","system_id":"levelo_inurba_marseille","lat":43.25589,"lon":5.38217,"is_reserved":false,"is_disabled":false,"rental_uris":{"android":"levelo://app?vid=6473bd0f-8511-4a8a-89c5-9091f9cdad57","ios":"levelo://app?vid=6473bd0f-8511-4a8a-89c5-9091f9cdad57"},"vehicle_type_id":"4","last_reported":1768839419,"current_range_meters":4400,"station_id":"ce4bhih2rcd13ifvqfs0","pricing_plan_id":"cebpf4jnsgd1na2vs0mg"},{"bike_id":"b83c301d-6a09-4142-a82b-3802a6a2089f","system_id":"levelo_inurba_marseille","lat":43.28464,"lon":5.48412,"is_reserved":false,"is_disabled":false,"rental_uris":{"android":"levelo://app?vid=b83c301d-6a09-4142-a82b-3802a6a2089f","ios":"levelo://app?vid=b83c301d-6a09-4142-a82b-3802a6a2089f"},"vehicle_type_id":"4","last_reported":1768839419,"current_range_meters":4400,"station_id":"st_d3svhcjqgbts73a3dn0g","pricing_plan_id":"cebpf4jnsgd1na2vs0mg"},{"bike_id":"8ebb2247-586f-48b1-a963-c98a0d338c56","system_id":"levelo_inurba_marseille","lat":43.237808,"lon":5.366337,"is_reserved":false,"is_disabled":false,"rental_uris":{"android":"levelo://app?vid=8ebb2247-586f-48b1-a963-c98a0d338c56","ios":"levelo://app?vid=8ebb2247-586f-48b1-a963-c98a0d338c56"},"vehicle_type_id":"4","last_reported":1768839419,"current_range_meters":4400,"station_id":"st_d3nk18o9ro0c73en2l3g","pricing_plan_id":"cebpf4jnsgd1na2vs0mg"},{"bike_id":"3210090b-9c02-43f1-bc20-2bd6d99158da","system_id":"levelo_inurba_marseille","lat":43.28843,"lon":5.39302,"is_reserved":false,"is_disabled":false,"rental_uris":{"android":"levelo://app?vid=3210090b-9c02-43f1-bc20-2bd6d99158da","ios":"levelo://app?vid=3210090b-9c02-43f1-bc20-2bd6d99158da"},"vehicle_type_id":"4","last_reported":1768839419,"current_range_meters":4400,"station_id":"ce4bh2p2rcd13ifvqdi0","pricing_plan_id":"cebpf4jnsgd1na2vs0mg"},{"bike_id":"5b16a301-fe50-4f94-aac6-f644218baa6f","system_id":"levelo_inurba_marseille","lat":43.27208,"lon":5.39175,"is_reserved":false,"is_disabled":false,"rental_uris":{"android":"levelo://app?vid=5b16a301-fe50-4f94-aac6-f644218baa6f","ios":"levelo://app?vid=5b16a301-fe50-4f94-aac6-f644218baa6f"},"vehicle_type_id":"4","last_reported":1768839419,"current_range_meters":4400,"station_id":"ce4bhhp2rcd13ifvqfm0","pricing_plan_id":"cebpf4jnsgd1na2vs0mg"},{"bike_id":"7c429d88-caa9-46ca-87e9-a9f1305ab716","system_id":"levelo_inurba_marseille","lat":43.26064,"lon":5.39387,"is_reserved":false,"is_disabled":false,"rental_uris":{"android":"levelo://app?vid=7c429d88-caa9-46ca-87e9-a9f1305ab716","ios":"levelo://app?vid=7c429d88-caa9-46ca-87e9-a9f1305ab716"},"vehicle_type_id":"4","last_reported":1768839419,"current_range_meters":4400,"station_id":"ce4bhh92rcd13ifvqfj0","pricing_plan_id":"cebpf4jnsgd1na2vs0mg"},{"bike_id":"cb732f63-067a-4cbf-bb7c-c5ee788886f0","system_id":"levelo_inurba_marseille","lat":43.295167,"lon":5.394051,"is_reserved":false,"is_disabled":false,"rental_uris":{"android":"levelo://app?vid=cb732f63-067a-4cbf-bb7c-c5ee788886f0","ios":"levelo://app?vid=cb732f63-067a-4cbf-bb7c-c5ee788886f0"},"vehicle_type_id":"4","last_reported":1768839419,"current_range_meters":4400,"station_id":"ce4bh292rcd13ifvqdf0","pricing_plan_id":"cebpf4jnsgd1na2vs0mg"},{"bike_id":"bbe76d6d-dca3-4763-bcad-edc1f4802bb6","system_id":"levelo_inurba_marseille","lat":43.27972,"lon":5.38525,"is_reserved":false,"is_disabled":false,"rental_uris":{"android":"levelo://app?vid=bbe76d6d-dca3-4763-bcad-edc1f4802bb6","ios":"levelo://app?vid=bbe76d6d-dca3-4763-bcad-edc1f4802bb6"},"vehicle_type_id":"4","last_reported":1768839419,"current_range_meters":4800,"station_id":"","pricing_plan_id":"cebpf4jnsgd1na2vs0mg"},{"bike_id":"9ae53b78-c214-4b59-bdf7-9a5152c2fa2f","system_id":"levelo_inurba_marseille","lat":43.2886,"lon":5.42517,"is_reserved":false,"is_disabled":false,"rental_uris":{"android":"levelo://app?vid=9ae53b78-c214-4b59-bdf7-9a5152c2fa2f","ios":"levelo://app?vid=9ae53b78-c214-4b59-bdf7-9a5152c2fa2f"},"vehicle_type_id":"4","last_reported":1768839419,"current_range_meters":4800,"station_id":"st_d3b462108ojc7389ooeg","pricing_plan_id":"cebpf4jnsgd1na2vs0mg"},{"bike_id":"566c16cb-af13-4ec7-91df-08d6c3c5e69d","system_id":"levelo_inurba_marseille","lat":43.27385,"lon":5.362456,"is_reserved":false,"is_disabled":false,"rental_uris":{"android":"levelo://app?vid=566c16cb-af13-4ec7-91df-08d6c3c5e69d","ios":"levelo://app?vid=566c16cb-af13-4ec7-91df-08d6c3c5e69d"},"vehicle_type_id":"4","last_reported":1768839419,"current_range_meters":4800,"station_id":"ce4bhbh2rcd13ifvqeo0","pricing_plan_id":"cebpf4jnsgd1na2vs0mg"},{"bike_id":"ccd74f8a-2d31-4e3e-90cd-d53db1b81c64","system_id":"levelo_inurba_marseille","lat":43.260555,"lon":5.386446,"is_reserved":false,"is_disabled":false,"rental_uris":{"android":"levelo://app?vid=ccd74f8a-2d31-4e3e-90cd-d53db1b81c64","ios":"levelo://app?vid=ccd74f8a-2d31-4e3e-90cd-d53db1b81c64"},"vehicle_type_id":"4","last_reported":1768839419,"current_range_meters":4800,"station_id":"","pricing_plan_id":"cebpf4jnsgd1na2vs0mg"},{"bike_id":"ccbc7cc7-8082-4767-b087-b8c8e3e07b84","system_id":"levelo_inurba_marseille","lat":43.23195,"lon":5.35543,"is_reserved":false,"is_disabled":false,"rental_uris":{"android":"levelo://app?vid=ccbc7cc7-8082-4767-b087-b8c8e3e07b84","ios":"levelo://app?vid=ccbc7cc7-8082-4767-b087-b8c8e3e07b84"},"vehicle_type_id":"4","last_reported":1768839419,"current_range_meters":4800,"station_id":"ce4bhu92rcd13ifvqi70","pricing_plan_id":"cebpf4jnsgd1na2vs0mg"},{"bike_id":"cce7be02-80bd-4769-b012-dc06457e18d6","system_id":"levelo_inurba_marseille","lat":43.241786,"lon":5.397246,"is_reserved":false,"is_disabled":false,"rental_uris":{"android":"levelo://app?vid=cce7be02-80bd-4769-b012-dc06457e18d6","ios":"levelo://app?vid=cce7be02-80bd-4769-b012-dc06457e18d6"},"vehicle_type_id":"4","last_reported":1768839419,"current_range_meters":4800,"station_id":"ce4bhn12rcd13ifvqgpg","pricing_plan_id":"cebpf4jnsgd1na2vs0mg"},{"bike_id":"ebea35c1-4acc-4d3d-82b8-2e7aa954a0d4","system_id":"levelo_inurba_marseille","lat":43.24547,"lon":5.39524,"is_reserved":false,"is_disabled":false,"rental_uris":{"android":"levelo://app?vid=ebea35c1-4acc-4d3d-82b8-2e7aa954a0d4","ios":"levelo://app?vid=ebea35c1-4acc-4d3d-82b8-2e7aa954a0d4"},"vehicle_type_id":"4","last_reported":1768839419,"current_range_meters":4800,"station_id":"ce4bhlp2rcd13ifvqgjg","pricing_plan_id":"cebpf4jnsgd1na2vs0mg"},{"bike_id":"b2163139-abab-427e-8e7a-fe339d81b393","system_id":"levelo_inurba_marseille","lat":43.23961,"lon":5.36627,"is_reserved":false,"is_disabled":false,"rental_uris":{"android":"levelo://app?vid=b2163139-abab-427e-8e7a-fe339d81b393","ios":"levelo://app?vid=b2163139-abab-427e-8e7a-fe339d81b393"},"vehicle_type_id":"4","last_reported":1768839419,"current_range_meters":4800,"station_id":"ce4bhi12rcd13ifvqfp0","pricing_plan_id":"cebpf4jnsgd1na2vs0mg"},{"bike_id":"a7b9cdf7-d3ba-444b-a212-5edc361237f4","system_id":"levelo_inurba_marseille","lat":43.28472,"lon":5.48423,"is_reserved":false,"is_disabled":false,"rental_uris":{"android":"levelo://app?vid=a7b9cdf7-d3ba-444b-a212-5edc361237f4","ios":"levelo://app?vid=a7b9cdf7-d3ba-444b-a212-5edc361237f4"},"vehicle_type_id":"4","last_reported":1768839419,"current_range_meters":4800,"station_id":"","pricing_plan_id":"cebpf4jnsgd1na2vs0mg"},{"bike_id":"c03cee17-aa65-48eb-a23d-a23354e902d5","system_id":"levelo_inurba_marseille","lat":43.25821,"lon":5.39433,"is_reserved":false,"is_disabled":false,"rental_uris":{"android":"levelo://app?vid=c03cee17-aa65-48eb-a23d-a23354e902d5","ios":"levelo://app?vid=c03cee17-aa65-48eb-a23d-a23354e902d5"},"vehicle_type_id":"4","last_reported":1768839419,"current_range_meters":4800,"station_id":"ce4bhip2rcd13ifvqft0","pricing_plan_id":"cebpf4jnsgd1na2vs0mg"},{"bike_id":"117903ef-5bd6-4546-bff1-baffee665714","system_id":"levelo_inurba_marseille","lat":43.28468,"lon":5.48404,"is_reserved":false,"is_disabled":false,"rental_uris":{"android":"levelo://app?vid=117903ef-5bd6-4546-bff1-baffee665714","ios":"levelo://app?vid=117903ef-5bd6-4546-bff1-baffee665714"},"vehicle_type_id":"4","last_reported":1768839419,"current_range_meters":4800,"station_id":"st_d3svhcjqgbts73a3dn0g","pricing_plan_id":"cebpf4jnsgd1na2vs0mg"},{"bike_id":"e057ae2d-4eea-4583-8acf-116960ce087b","system_id":"levelo_inurba_marseille","lat":43.27819,"lon":5.40728,"is_reserved":false,"is_disabled":false,"rental_uris":{"android":"levelo://app?vid=e057ae2d-4eea-4583-8acf-116960ce087b","ios":"levelo://app?vid=e057ae2d-4eea-4583-8acf-116960ce087b"},"vehicle_type_id":"4","last_reported":1768839419,"current_range_meters":4800,"station_id":"ce4bhnh2rcd13ifvqgtg","pricing_plan_id":"cebpf4jnsgd1na2vs0mg"},{"bike_id":"fba9b5a8-96ff-4172-a7ef-f01d8e0779b7","system_id":"levelo_inurba_marseille","lat":43.299651,"lon":5.384932,"is_reserved":false,"is_disabled":false,"rental_uris":{"android":"levelo://app?vid=fba9b5a8-96ff-4172-a7ef-f01d8e0779b7","ios":"levelo://app?vid=fba9b5a8-96ff-4172-a7ef-f01d8e0779b7"},"vehicle_type_id":"4","last_reported":1768839419,"current_range_meters":5600,"station_id":"","pricing_plan_id":"cebpf4jnsgd1na2vs0mg"},{"bike_id":"8c675252-f995-4cab-bc9d-6050b2977bf7","system_id":"levelo_inurba_marseille","lat":43.25337,"lon":5.42153,"is_reserved":false,"is_disabled":false,"rental_uris":{"android":"levelo://app?vid=8c675252-f995-4cab-bc9d-6050b2977bf7","ios":"levelo://app?vid=8c675252-f995-4cab-bc9d-6050b2977bf7"},"vehicle_type_id":"4","last_reported":1768839419,"current_range_meters":5600,"station_id":"st_d2m65c5bi1j21697t3ng","pricing_plan_id":"cebpf4jnsgd1na2vs0mg"},{"bike_id":"18f7ef13-b6cd-4f0d-b776-b4d71a83d34e","system_id":"levelo_inurba_marseille","lat":43.27812,"lon":5.40711,"is_reserved":false,"is_disabled":false,"rental_uris":{"android":"levelo://app?vid=18f7ef13-b6cd-4f0d-b776-b4d71a83d34e","ios":"levelo://app?vid=18f7ef13-b6cd-4f0d-b776-b4d71a83d34e"},"vehicle_type_id":"4","last_reported":1768839419,"current_range_meters":5600,"station_id":"ce4bhnh2rcd13ifvqgtg","pricing_plan_id":"cebpf4jnsgd1na2vs0mg"},{"bike_id":"910cfe43-a618-4ee9-a7b1-5d5b63afa86d","system_id":"levelo_inurba_marseille","lat":43.25873,"lon":5.39892,"is_reserved":false,"is_disabled":false,"rental_uris":{"android":"levelo://app?vid=910cfe43-a618-4ee9-a7b1-5d5b63afa86d","ios":"levelo://app?vid=910cfe43-a618-4ee9-a7b1-5d5b63afa86d"},"vehicle_type_id":"4","last_reported":1768839419,"current_range_meters":5600,"station_id":"ce4bhl92rcd13ifvqghg","pricing_plan_id":"cebpf4jnsgd1na2vs0mg"},{"bike_id":"519b1b23-ee6a-48f5-b3d6-7b553c904b51","system_id":"levelo_inurba_marseille","lat":43.22949,"lon":5.3542,"is_reserved":false,"is_disabled":false,"rental_uris":{"android":"levelo://app?vid=519b1b23-ee6a-48f5-b3d6-7b553c904b51","ios":"levelo://app?vid=519b1b23-ee6a-48f5-b3d6-7b553c904b51"},"vehicle_type_id":"4","last_reported":1768839419,"current_range_meters":5600,"station_id":"cpo3532slgdg3j2ikp40","pricing_plan_id":"cebpf4jnsgd1na2vs0mg"},{"bike_id":"adfdcb17-e56a-40ea-abeb-5e7a10692630","system_id":"levelo_inurba_marseille","lat":43.279595,"lon":5.4106,"is_reserved":false,"is_disabled":false,"rental_uris":{"android":"levelo://app?vid=adfdcb17-e56a-40ea-abeb-5e7a10692630","ios":"levelo://app?vid=adfdcb17-e56a-40ea-abeb-5e7a10692630"},"vehicle_type_id":"4","last_reported":1768839419,"current_range_meters":5600,"station_id":"ce4bhnp2rcd13ifvqh0g","pricing_plan_id":"cebpf4jnsgd1na2vs0mg"},{"bike_id":"02716a77-f5e1-4458-9825-dd28d9bb4577","system_id":"levelo_inurba_marseille","lat":43.24815,"lon":5.37458,"is_reserved":false,"is_disabled":false,"rental_uris":{"android":"levelo://app?vid=02716a77-f5e1-4458-9825-dd28d9bb4577","ios":"levelo://app?vid=02716a77-f5e1-4458-9825-dd28d9bb4577"},"vehicle_type_id":"4","last_reported":1768839419,"current_range_meters":5600,"station_id":"ce4bhgh2rcd13ifvqfb0","pricing_plan_id":"cebpf4jnsgd1na2vs0mg"},{"bike_id":"d8be4cd5-b26c-441b-bf6d-b13567d9a5d9","system_id":"levelo_inurba_marseille","lat":43.29628,"lon":5.37151,"is_reserved":false,"is_disabled":false,"rental_uris":{"android":"levelo://app?vid=d8be4cd5-b26c-441b-bf6d-b13567d9a5d9","ios":"levelo://app?vid=d8be4cd5-b26c-441b-bf6d-b13567d9a5d9"},"vehicle_type_id":"4","last_reported":1768839419,"current_range_meters":5600,"station_id":"ce4bgnh2rcd13ifvqc0g","pricing_plan_id":"cebpf4jnsgd1na2vs0mg"},{"bike_id":"b9b4f431-82fc-4bbf-9af4-1dfdef347107","system_id":"levelo_inurba_marseille","lat":43.28485,"lon":5.38536,"is_reserved":false,"is_disabled":false,"rental_uris":{"android":"levelo://app?vid=b9b4f431-82fc-4bbf-9af4-1dfdef347107","ios":"levelo://app?vid=b9b4f431-82fc-4bbf-9af4-1dfdef347107"},"vehicle_type_id":"4","last_reported":1768839419,"current_range_meters":5600,"station_id":"ce4bh8p2rcd13ifvqeb0","pricing_plan_id":"cebpf4jnsgd1na2vs0mg"},{"bike_id":"0431c530-a435-4150-a944-1b40bee617f3","system_id":"levelo_inurba_marseille","lat":43.26233,"lon":5.4045,"is_reserved":false,"is_disabled":false,"rental_uris":{"android":"levelo://app?vid=0431c530-a435-4150-a944-1b40bee617f3","ios":"levelo://app?vid=0431c530-a435-4150-a944-1b40bee617f3"},"vehicle_type_id":"4","last_reported":1768839419,"current_range_meters":5600,"station_id":"ce4bhmh2rcd13ifvqgmg","pricing_plan_id":"cebpf4jnsgd1na2vs0mg"},{"bike_id":"89738f7c-685b-44d7-93f1-60b67cb64c01","system_id":"levelo_inurba_marseille","lat":43.31074,"lon":5.3714,"is_reserved":false,"is_disabled":false,"rental_uris":{"android":"levelo://app?vid=89738f7c-685b-44d7-93f1-60b67cb64c01","ios":"levelo://app?vid=89738f7c-685b-44d7-93f1-60b67cb64c01"},"vehicle_type_id":"4","last_reported":1768839419,"current_range_meters":5600,"station_id":"st_d4kl2rp97mjs73e7tdfg","pricing_plan_id":"cebpf4jnsgd1na2vs0mg"},{"bike_id":"8a265c0b-2922-4b68-984d-8e135335885c","system_id":"levelo_inurba_marseille","lat":43.31173,"lon":5.38716,"is_reserved":false,"is_disabled":false,"rental_uris":{"android":"levelo://app?vid=8a265c0b-2922-4b68-984d-8e135335885c","ios":"levelo://app?vid=8a265c0b-2922-4b68-984d-8e135335885c"},"vehicle_type_id":"4","last_reported":1768839419,"current_range_meters":5600,"station_id":"ce4bgv12rcd13ifvqcp0","pricing_plan_id":"cebpf4jnsgd1na2vs0mg"},{"bike_id":"74aff274-ab61-44a1-ae03-c9a6d20e7f3a","system_id":"levelo_inurba_marseille","lat":43.27052,"lon":5.38311,"is_reserved":false,"is_disabled":false,"rental_uris":{"android":"levelo://app?vid=74aff274-ab61-44a1-ae03-c9a6d20e7f3a","ios":"levelo://app?vid=74aff274-ab61-44a1-ae03-c9a6d20e7f3a"},"vehicle_type_id":"4","last_reported":1768839419,"current_range_meters":5600,"station_id":"st_d3n2fo6cfp8s73cte1j0","pricing_plan_id":"cebpf4jnsgd1na2vs0mg"},{"bike_id":"da41ca7a-710c-4080-8c1e-bb4e8720ced1","system_id":"levelo_inurba_marseille","lat":43.27814,"lon":5.4071,"is_reserved":false,"is_disabled":false,"rental_uris":{"android":"levelo://app?vid=da41ca7a-710c-4080-8c1e-bb4e8720ced1","ios":"levelo://app?vid=da41ca7a-710c-4080-8c1e-bb4e8720ced1"},"vehicle_type_id":"4","last_reported":1768839419,"current_range_meters":6000,"station_id":"ce4bhnh2rcd13ifvqgtg","pricing_plan_id":"cebpf4jnsgd1na2vs0mg"},{"bike_id":"8fc40975-6cc9-4b56-9cfb-b7a269b5783c","system_id":"levelo_inurba_marseille","lat":43.26062,"lon":5.39384,"is_reserved":false,"is_disabled":false,"rental_uris":{"android":"levelo://app?vid=8fc40975-6cc9-4b56-9cfb-b7a269b5783c","ios":"levelo://app?vid=8fc40975-6cc9-4b56-9cfb-b7a269b5783c"},"vehicle_type_id":"4","last_reported":1768839419,"current_range_meters":6000,"station_id":"ce4bhh92rcd13ifvqfj0","pricing_plan_id":"cebpf4jnsgd1na2vs0mg"},{"bike_id":"2a387084-a6cc-4af4-b63f-1443441fc658","system_id":"levelo_inurba_marseille","lat":43.27612,"lon":5.36113,"is_reserved":false,"is_disabled":false,"rental_uris":{"android":"levelo://app?vid=2a387084-a6cc-4af4-b63f-1443441fc658","ios":"levelo://app?vid=2a387084-a6cc-4af4-b63f-1443441fc658"},"vehicle_type_id":"4","last_reported":1768839419,"current_range_meters":6000,"station_id":"ce4bgj92rcd13ifvqbe0","pricing_plan_id":"cebpf4jnsgd1na2vs0mg"},{"bike_id":"1e064ac5-997e-4102-a700-a96ce59a5367","system_id":"levelo_inurba_marseille","lat":43.28491,"lon":5.44142,"is_reserved":false,"is_disabled":false,"rental_uris":{"android":"levelo://app?vid=1e064ac5-997e-4102-a700-a96ce59a5367","ios":"levelo://app?vid=1e064ac5-997e-4102-a700-a96ce59a5367"},"vehicle_type_id":"4","last_reported":1768839419,"current_range_meters":6000,"station_id":"","pricing_plan_id":"cebpf4jnsgd1na2vs0mg"},{"bike_id":"48e8e837-e722-4d41-a8a7-5b31df698b38","system_id":"levelo_inurba_marseille","lat":43.23181,"lon":5.39994,"is_reserved":false,"is_disabled":false,"rental_uris":{"android":"levelo://app?vid=48e8e837-e722-4d41-a8a7-5b31df698b38","ios":"levelo://app?vid=48e8e837-e722-4d41-a8a7-5b31df698b38"},"vehicle_type_id":"4","last_reported":1768839419,"current_range_meters":6000,"station_id":"ce4bhn12rcd13ifvqgqg","pricing_plan_id":"cebpf4jnsgd1na2vs0mg"},{"bike_id":"dc975570-e0fe-44a4-8bfd-40871c4b64c7","system_id":"levelo_inurba_marseille","lat":43.26783,"lon":5.39409,"is_reserved":false,"is_disabled":false,"rental_uris":{"android":"levelo://app?vid=dc975570-e0fe-44a4-8bfd-40871c4b64c7","ios":"levelo://app?vid=dc975570-e0fe-44a4-8bfd-40871c4b64c7"},"vehicle_type_id":"4","last_reported":1768839419,"current_range_meters":6000,"station_id":"ce4bhh12rcd13ifvqfg0","pricing_plan_id":"cebpf4jnsgd1na2vs0mg"},{"bike_id":"dc9b8f42-6fb6-4a92-81b5-3ba3201183a1","system_id":"levelo_inurba_marseille","lat":43.29977,"lon":5.38504,"is_reserved":false,"is_disabled":true,"rental_uris":{"android":"levelo://app?vid=dc9b8f42-6fb6-4a92-81b5-3ba3201183a1","ios":"levelo://app?vid=dc9b8f42-6fb6-4a92-81b5-3ba3201183a1"},"vehicle_type_id":"4","last_reported":1768839419,"current_range_meters":6000,"station_id":"ce4bgj92rcd13ifvqbd0","pricing_plan_id":"cebpf4jnsgd1na2vs0mg"},{"bike_id":"3d8a5239-eb14-468f-be90-3f7ff969a036","system_id":"levelo_inurba_marseille","lat":43.305467,"lon":5.365319,"is_reserved":false,"is_disabled":false,"rental_uris":{"android":"levelo://app?vid=3d8a5239-eb14-468f-be90-3f7ff969a036","ios":"levelo://app?vid=3d8a5239-eb14-468f-be90-3f7ff969a036"},"vehicle_type_id":"4","last_reported":1768839419,"current_range_meters":6000,"station_id":"ce4bgs12rcd13ifvqcag","pricing_plan_id":"cebpf4jnsgd1na2vs0mg"},{"bike_id":"58713724-2b25-4434-ac95-768a9f7f218a","system_id":"levelo_inurba_marseille","lat":43.25221,"lon":5.38037,"is_reserved":false,"is_disabled":false,"rental_uris":{"android":"levelo://app?vid=58713724-2b25-4434-ac95-768a9f7f218a","ios":"levelo://app?vid=58713724-2b25-4434-ac95-768a9f7f218a"},"vehicle_type_id":"4","last_reported":1768839419,"current_range_meters":6000,"station_id":"","pricing_plan_id":"cebpf4jnsgd1na2vs0mg"},{"bike_id":"ddc9e117-7fb8-4cb9-87ea-9a0bb1767c17","system_id":"levelo_inurba_marseille","lat":43.213824,"lon":5.350399,"is_reserved":false,"is_disabled":false,"rental_uris":{"android":"levelo://app?vid=ddc9e117-7fb8-4cb9-87ea-9a0bb1767c17","ios":"levelo://app?vid=ddc9e117-7fb8-4cb9-87ea-9a0bb1767c17"},"vehicle_type_id":"4","last_reported":1768839419,"current_range_meters":6000,"station_id":"","pricing_plan_id":"cebpf4jnsgd1na2vs0mg"},{"bike_id":"fc81b9d6-c23c-4a2c-a207-e8e651dd406e","system_id":"levelo_inurba_marseille","lat":43.27996,"lon":5.41664,"is_reserved":false,"is_disabled":false,"rental_uris":{"android":"levelo://app?vid=fc81b9d6-c23c-4a2c-a207-e8e651dd406e","ios":"levelo://app?vid=fc81b9d6-c23c-4a2c-a207-e8e651dd406e"},"vehicle_type_id":"4","last_reported":1768839419,"current_range_meters":6400,"station_id":"ce4bho12rcd13ifvqh1g","pricing_plan_id":"cebpf4jnsgd1na2vs0mg"},{"bike_id":"57d29cba-b269-4d3a-9f6a-9e2e25fad12b","system_id":"levelo_inurba_marseille","lat":43.24813,"lon":5.3744,"is_reserved":false,"is_disabled":false,"rental_uris":{"android":"levelo://app?vid=57d29cba-b269-4d3a-9f6a-9e2e25fad12b","ios":"levelo://app?vid=57d29cba-b269-4d3a-9f6a-9e2e25fad12b"},"vehicle_type_id":"4","last_reported":1768839419,"current_range_meters":6400,"station_id":"ce4bhgh2rcd13ifvqfb0","pricing_plan_id":"cebpf4jnsgd1na2vs0mg"},{"bike_id":"a4a6af33-604e-4b5a-a662-fd199e256423","system_id":"levelo_inurba_marseille","lat":43.31754,"lon":5.39016,"is_reserved":false,"is_disabled":false,"rental_uris":{"android":"levelo://app?vid=a4a6af33-604e-4b5a-a662-fd199e256423","ios":"levelo://app?vid=a4a6af33-604e-4b5a-a662-fd199e256423"},"vehicle_type_id":"4","last_reported":1768839419,"current_range_meters":6400,"station_id":"ce4bhqp2rcd13ifvqhng","pricing_plan_id":"cebpf4jnsgd1na2vs0mg"},{"bike_id":"9fc6ac0d-bade-4fb6-8533-07cc6e23f68c","system_id":"levelo_inurba_marseille","lat":43.2694,"lon":5.40249,"is_reserved":false,"is_disabled":false,"rental_uris":{"android":"levelo://app?vid=9fc6ac0d-bade-4fb6-8533-07cc6e23f68c","ios":"levelo://app?vid=9fc6ac0d-bade-4fb6-8533-07cc6e23f68c"},"vehicle_type_id":"4","last_reported":1768839419,"current_range_meters":6400,"station_id":"cjm6bp8fraef2m0cb0m0","pricing_plan_id":"cebpf4jnsgd1na2vs0mg"},{"bike_id":"20ff67e5-d319-4566-8b20-7f51d229e5de","system_id":"levelo_inurba_marseille","lat":43.23795,"lon":5.36639,"is_reserved":false,"is_disabled":false,"rental_uris":{"android":"levelo://app?vid=20ff67e5-d319-4566-8b20-7f51d229e5de","ios":"levelo://app?vid=20ff67e5-d319-4566-8b20-7f51d229e5de"},"vehicle_type_id":"4","last_reported":1768839419,"current_range_meters":6400,"station_id":"st_d3nk18o9ro0c73en2l3g","pricing_plan_id":"cebpf4jnsgd1na2vs0mg"},{"bike_id":"06aa1e22-882b-4a8c-bb89-f22e976a2f36","system_id":"levelo_inurba_marseille","lat":43.24158,"lon":5.39747,"is_reserved":false,"is_disabled":false,"rental_uris":{"android":"levelo://app?vid=06aa1e22-882b-4a8c-bb89-f22e976a2f36","ios":"levelo://app?vid=06aa1e22-882b-4a8c-bb89-f22e976a2f36"},"vehicle_type_id":"4","last_reported":1768839419,"current_range_meters":6400,"station_id":"ce4bhn12rcd13ifvqgpg","pricing_plan_id":"cebpf4jnsgd1na2vs0mg"},{"bike_id":"5704e9bd-5b46-470f-b72c-dc5633415471","system_id":"levelo_inurba_marseille","lat":43.23151,"lon":5.43718,"is_reserved":false,"is_disabled":true,"rental_uris":{"android":"levelo://app?vid=5704e9bd-5b46-470f-b72c-dc5633415471","ios":"levelo://app?vid=5704e9bd-5b46-470f-b72c-dc5633415471"},"vehicle_type_id":"4","last_reported":1768839419,"current_range_meters":6400,"station_id":"ce4bhmp2rcd13ifvqgog","pricing_plan_id":"cebpf4jnsgd1na2vs0mg"},{"bike_id":"d3812b38-2182-4903-b326-c4852403c5ce","system_id":"levelo_inurba_marseille","lat":43.28767,"lon":5.37126,"is_reserved":false,"is_disabled":false,"rental_uris":{"android":"levelo://app?vid=d3812b38-2182-4903-b326-c4852403c5ce","ios":"levelo://app?vid=d3812b38-2182-4903-b326-c4852403c5ce"},"vehicle_type_id":"4","last_reported":1768839419,"current_range_meters":6400,"station_id":"","pricing_plan_id":"cebpf4jnsgd1na2vs0mg"},{"bike_id":"1d53d8bc-f0dc-422e-b6d0-a0abdf57df70","system_id":"levelo_inurba_marseille","lat":43.29799,"lon":5.39354,"is_reserved":false,"is_disabled":false,"rental_uris":{"android":"levelo://app?vid=1d53d8bc-f0dc-422e-b6d0-a0abdf57df70","ios":"levelo://app?vid=1d53d8bc-f0dc-422e-b6d0-a0abdf57df70"},"vehicle_type_id":"4","last_reported":1768839419,"current_range_meters":6400,"station_id":"chh1huq6cuj3fo74tm60","pricing_plan_id":"cebpf4jnsgd1na2vs0mg"},{"bike_id":"5bdbac83-4ca9-4acc-953c-d7ce0bac2fc0","system_id":"levelo_inurba_marseille","lat":43.33753,"lon":5.37462,"is_reserved":false,"is_disabled":false,"rental_uris":{"android":"levelo://app?vid=5bdbac83-4ca9-4acc-953c-d7ce0bac2fc0","ios":"levelo://app?vid=5bdbac83-4ca9-4acc-953c-d7ce0bac2fc0"},"vehicle_type_id":"4","last_reported":1768839419,"current_range_meters":6400,"station_id":"","pricing_plan_id":"cebpf4jnsgd1na2vs0mg"},{"bike_id":"306ae422-344d-4e31-b790-440e968153a0","system_id":"levelo_inurba_marseille","lat":43.25311,"lon":5.38019,"is_reserved":false,"is_disabled":false,"rental_uris":{"android":"levelo://app?vid=306ae422-344d-4e31-b790-440e968153a0","ios":"levelo://app?vid=306ae422-344d-4e31-b790-440e968153a0"},"vehicle_type_id":"4","last_reported":1768839419,"current_range_meters":6400,"station_id":"","pricing_plan_id":"cebpf4jnsgd1na2vs0mg"},{"bike_id":"5ae88bbd-8cbd-41bb-a736-0a14706247a2","system_id":"levelo_inurba_marseille","lat":43.265696,"lon":5.403229,"is_reserved":false,"is_disabled":false,"rental_uris":{"android":"levelo://app?vid=5ae88bbd-8cbd-41bb-a736-0a14706247a2","ios":"levelo://app?vid=5ae88bbd-8cbd-41bb-a736-0a14706247a2"},"vehicle_type_id":"4","last_reported":1768839419,"current_range_meters":6400,"station_id":"ce4bhmp2rcd13ifvqgng","pricing_plan_id":"cebpf4jnsgd1na2vs0mg"},{"bike_id":"9a0669ff-6eeb-42f6-98b8-4a0483d719d0","system_id":"levelo_inurba_marseille","lat":43.28925,"lon":5.38408,"is_reserved":false,"is_disabled":false,"rental_uris":{"android":"levelo://app?vid=9a0669ff-6eeb-42f6-98b8-4a0483d719d0","ios":"levelo://app?vid=9a0669ff-6eeb-42f6-98b8-4a0483d719d0"},"vehicle_type_id":"4","last_reported":1768839419,"current_range_meters":6400,"station_id":"ce4bh612rcd13ifvqe6g","pricing_plan_id":"cebpf4jnsgd1na2vs0mg"},{"bike_id":"fc67e3f2-2883-4821-838b-cbd3c636615f","system_id":"levelo_inurba_marseille","lat":43.24176,"lon":5.39718,"is_reserved":false,"is_disabled":false,"rental_uris":{"android":"levelo://app?vid=fc67e3f2-2883-4821-838b-cbd3c636615f","ios":"levelo://app?vid=fc67e3f2-2883-4821-838b-cbd3c636615f"},"vehicle_type_id":"4","last_reported":1768839419,"current_range_meters":6400,"station_id":"ce4bhn12rcd13ifvqgpg","pricing_plan_id":"cebpf4jnsgd1na2vs0mg"},{"bike_id":"74936c71-37c2-4317-ac96-b6773140ff2e","system_id":"levelo_inurba_marseille","lat":43.25889,"lon":5.3987,"is_reserved":false,"is_disabled":false,"rental_uris":{"android":"levelo://app?vid=74936c71-37c2-4317-ac96-b6773140ff2e","ios":"levelo://app?vid=74936c71-37c2-4317-ac96-b6773140ff2e"},"vehicle_type_id":"4","last_reported":1768839419,"current_range_meters":6400,"station_id":"ce4bhl92rcd13ifvqghg","pricing_plan_id":"cebpf4jnsgd1na2vs0mg"},{"bike_id":"dd2d87bf-1138-4fbe-ba66-fd66fce036e7","system_id":"levelo_inurba_marseille","lat":43.30908,"lon":5.36852,"is_reserved":false,"is_disabled":false,"rental_uris":{"android":"levelo://app?vid=dd2d87bf-1138-4fbe-ba66-fd66fce036e7","ios":"levelo://app?vid=dd2d87bf-1138-4fbe-ba66-fd66fce036e7"},"vehicle_type_id":"4","last_reported":1768839419,"current_range_meters":6400,"station_id":"ce4bgn92rcd13ifvqbvg","pricing_plan_id":"cebpf4jnsgd1na2vs0mg"},{"bike_id":"8ebc361f-23b0-4d5b-a591-0256a70eb6b0","system_id":"levelo_inurba_marseille","lat":43.25333,"lon":5.4217,"is_reserved":false,"is_disabled":false,"rental_uris":{"android":"levelo://app?vid=8ebc361f-23b0-4d5b-a591-0256a70eb6b0","ios":"levelo://app?vid=8ebc361f-23b0-4d5b-a591-0256a70eb6b0"},"vehicle_type_id":"4","last_reported":1768839419,"current_range_meters":6400,"station_id":"st_d2m65c5bi1j21697t3ng","pricing_plan_id":"cebpf4jnsgd1na2vs0mg"},{"bike_id":"7d749b6a-8530-40b5-8808-8db60adf67d4","system_id":"levelo_inurba_marseille","lat":43.289761,"lon":5.378434,"is_reserved":false,"is_disabled":false,"rental_uris":{"android":"levelo://app?vid=7d749b6a-8530-40b5-8808-8db60adf67d4","ios":"levelo://app?vid=7d749b6a-8530-40b5-8808-8db60adf67d4"},"vehicle_type_id":"4","last_reported":1768839419,"current_range_meters":6800,"station_id":"ce4bh9p2rcd13ifvqed0","pricing_plan_id":"cebpf4jnsgd1na2vs0mg"},{"bike_id":"20df884b-a2b2-44f7-a1cf-24de25e06883","system_id":"levelo_inurba_marseille","lat":43.27207,"lon":5.39181,"is_reserved":false,"is_disabled":false,"rental_uris":{"android":"levelo://app?vid=20df884b-a2b2-44f7-a1cf-24de25e06883","ios":"levelo://app?vid=20df884b-a2b2-44f7-a1cf-24de25e06883"},"vehicle_type_id":"4","last_reported":1768839419,"current_range_meters":6800,"station_id":"ce4bhhp2rcd13ifvqfm0","pricing_plan_id":"cebpf4jnsgd1na2vs0mg"},{"bike_id":"51cc78b3-56e5-468f-95db-127ca277f928","system_id":"levelo_inurba_marseille","lat":43.24981,"lon":5.38975,"is_reserved":false,"is_disabled":false,"rental_uris":{"android":"levelo://app?vid=51cc78b3-56e5-468f-95db-127ca277f928","ios":"levelo://app?vid=51cc78b3-56e5-468f-95db-127ca277f928"},"vehicle_type_id":"4","last_reported":1768839419,"current_range_meters":6800,"station_id":"","pricing_plan_id":"cebpf4jnsgd1na2vs0mg"},{"bike_id":"a83679e3-65d3-49c0-aa96-4844e203de21","system_id":"levelo_inurba_marseille","lat":43.33758,"lon":5.37493,"is_reserved":false,"is_disabled":false,"rental_uris":{"android":"levelo://app?vid=a83679e3-65d3-49c0-aa96-4844e203de21","ios":"levelo://app?vid=a83679e3-65d3-49c0-aa96-4844e203de21"},"vehicle_type_id":"4","last_reported":1768839419,"current_range_meters":6800,"station_id":"","pricing_plan_id":"cebpf4jnsgd1na2vs0mg"},{"bike_id":"1dd59fdd-775c-4c2f-a5a5-3355fae7a44c","system_id":"levelo_inurba_marseille","lat":43.27817,"lon":5.40701,"is_reserved":false,"is_disabled":false,"rental_uris":{"android":"levelo://app?vid=1dd59fdd-775c-4c2f-a5a5-3355fae7a44c","ios":"levelo://app?vid=1dd59fdd-775c-4c2f-a5a5-3355fae7a44c"},"vehicle_type_id":"4","last_reported":1768839419,"current_range_meters":6800,"station_id":"ce4bhnh2rcd13ifvqgtg","pricing_plan_id":"cebpf4jnsgd1na2vs0mg"},{"bike_id":"f0befa4e-2514-4cfc-9d8e-5e61727dd335","system_id":"levelo_inurba_marseille","lat":43.29,"lon":5.3561,"is_reserved":false,"is_disabled":false,"rental_uris":{"android":"levelo://app?vid=f0befa4e-2514-4cfc-9d8e-5e61727dd335","ios":"levelo://app?vid=f0befa4e-2514-4cfc-9d8e-5e61727dd335"},"vehicle_type_id":"4","last_reported":1768839419,"current_range_meters":6800,"station_id":"ce4bhb92rcd13ifvqen0","pricing_plan_id":"cebpf4jnsgd1na2vs0mg"},{"bike_id":"cc6944a3-010b-4be8-863a-786debb11f95","system_id":"levelo_inurba_marseille","lat":43.292635,"lon":5.384341,"is_reserved":false,"is_disabled":false,"rental_uris":{"android":"levelo://app?vid=cc6944a3-010b-4be8-863a-786debb11f95","ios":"levelo://app?vid=cc6944a3-010b-4be8-863a-786debb11f95"},"vehicle_type_id":"4","last_reported":1768839419,"current_range_meters":6800,"station_id":"ce4bh692rcd13ifvqea0","pricing_plan_id":"cebpf4jnsgd1na2vs0mg"},{"bike_id":"43565008-54b6-415c-9faf-fa9e6acb1f2c","system_id":"levelo_inurba_marseille","lat":43.27996,"lon":5.39982,"is_reserved":false,"is_disabled":false,"rental_uris":{"android":"levelo://app?vid=43565008-54b6-415c-9faf-fa9e6acb1f2c","ios":"levelo://app?vid=43565008-54b6-415c-9faf-fa9e6acb1f2c"},"vehicle_type_id":"4","last_reported":1768839419,"current_range_meters":6800,"station_id":"ce4bho92rcd13ifvqh4g","pricing_plan_id":"cebpf4jnsgd1na2vs0mg"},{"bike_id":"88d3af62-307c-472a-850a-91fe2fd8ba0c","system_id":"levelo_inurba_marseille","lat":43.28529,"lon":5.44084,"is_reserved":false,"is_disabled":false,"rental_uris":{"android":"levelo://app?vid=88d3af62-307c-472a-850a-91fe2fd8ba0c","ios":"levelo://app?vid=88d3af62-307c-472a-850a-91fe2fd8ba0c"},"vehicle_type_id":"4","last_reported":1768839419,"current_range_meters":6800,"station_id":"st_d3j3df2ikq2c7380ej80","pricing_plan_id":"cebpf4jnsgd1na2vs0mg"},{"bike_id":"8f8e260c-38fd-4641-a80f-706f3d6d18ed","system_id":"levelo_inurba_marseille","lat":43.298931,"lon":5.43675,"is_reserved":false,"is_disabled":false,"rental_uris":{"android":"levelo://app?vid=8f8e260c-38fd-4641-a80f-706f3d6d18ed","ios":"levelo://app?vid=8f8e260c-38fd-4641-a80f-706f3d6d18ed"},"vehicle_type_id":"4","last_reported":1768839419,"current_range_meters":6800,"station_id":"ce4bhpp2rcd13ifvqhfg","pricing_plan_id":"cebpf4jnsgd1na2vs0mg"},{"bike_id":"6f837731-cf54-4967-8659-d0cccc748050","system_id":"levelo_inurba_marseille","lat":43.26389,"lon":5.41063,"is_reserved":false,"is_disabled":false,"rental_uris":{"android":"levelo://app?vid=6f837731-cf54-4967-8659-d0cccc748050","ios":"levelo://app?vid=6f837731-cf54-4967-8659-d0cccc748050"},"vehicle_type_id":"4","last_reported":1768839419,"current_range_meters":6800,"station_id":"st_d4e5ca6na9uc73bfl5fg","pricing_plan_id":"cebpf4jnsgd1na2vs0mg"},{"bike_id":"b9191914-44a7-40fa-86b6-e12b060320ad","system_id":"levelo_inurba_marseille","lat":43.295227,"lon":5.390226,"is_reserved":false,"is_disabled":false,"rental_uris":{"android":"levelo://app?vid=b9191914-44a7-40fa-86b6-e12b060320ad","ios":"levelo://app?vid=b9191914-44a7-40fa-86b6-e12b060320ad"},"vehicle_type_id":"4","last_reported":1768839419,"current_range_meters":6800,"station_id":"ce4bh0p2rcd13ifvqd70","pricing_plan_id":"cebpf4jnsgd1na2vs0mg"},{"bike_id":"13da125f-4521-4fe2-a137-a13bd6fc1b34","system_id":"levelo_inurba_marseille","lat":43.25332,"lon":5.42166,"is_reserved":false,"is_disabled":false,"rental_uris":{"android":"levelo://app?vid=13da125f-4521-4fe2-a137-a13bd6fc1b34","ios":"levelo://app?vid=13da125f-4521-4fe2-a137-a13bd6fc1b34"},"vehicle_type_id":"4","last_reported":1768839419,"current_range_meters":7200,"station_id":"st_d2m65c5bi1j21697t3ng","pricing_plan_id":"cebpf4jnsgd1na2vs0mg"},{"bike_id":"46d6d074-0010-4db5-a3ab-441825cc65bb","system_id":"levelo_inurba_marseille","lat":43.30175,"lon":5.37962,"is_reserved":false,"is_disabled":false,"rental_uris":{"android":"levelo://app?vid=46d6d074-0010-4db5-a3ab-441825cc65bb","ios":"levelo://app?vid=46d6d074-0010-4db5-a3ab-441825cc65bb"},"vehicle_type_id":"4","last_reported":1768839419,"current_range_meters":7200,"station_id":"","pricing_plan_id":"cebpf4jnsgd1na2vs0mg"},{"bike_id":"fbfb5801-eba1-478b-a00b-a94da627fa86","system_id":"levelo_inurba_marseille","lat":43.2827,"lon":5.35053,"is_reserved":false,"is_disabled":false,"rental_uris":{"android":"levelo://app?vid=fbfb5801-eba1-478b-a00b-a94da627fa86","ios":"levelo://app?vid=fbfb5801-eba1-478b-a00b-a94da627fa86"},"vehicle_type_id":"4","last_reported":1768839419,"current_range_meters":7200,"station_id":"ce4bhbp2rcd13ifvqerg","pricing_plan_id":"cebpf4jnsgd1na2vs0mg"},{"bike_id":"f336c3d1-92f0-437c-8a24-0fd4f7906c2d","system_id":"levelo_inurba_marseille","lat":43.265,"lon":5.39543,"is_reserved":false,"is_disabled":false,"rental_uris":{"android":"levelo://app?vid=f336c3d1-92f0-437c-8a24-0fd4f7906c2d","ios":"levelo://app?vid=f336c3d1-92f0-437c-8a24-0fd4f7906c2d"},"vehicle_type_id":"4","last_reported":1768839419,"current_range_meters":7200,"station_id":"","pricing_plan_id":"cebpf4jnsgd1na2vs0mg"},{"bike_id":"d6daaaa9-f946-4eab-92b9-574cc16557f1","system_id":"levelo_inurba_marseille","lat":43.27808,"lon":5.40709,"is_reserved":false,"is_disabled":false,"rental_uris":{"android":"levelo://app?vid=d6daaaa9-f946-4eab-92b9-574cc16557f1","ios":"levelo://app?vid=d6daaaa9-f946-4eab-92b9-574cc16557f1"},"vehicle_type_id":"4","last_reported":1768839419,"current_range_meters":7200,"station_id":"ce4bhnh2rcd13ifvqgtg","pricing_plan_id":"cebpf4jnsgd1na2vs0mg"},{"bike_id":"0328d966-1bb8-4104-bc8c-65287b271812","system_id":"levelo_inurba_marseille","lat":43.22936,"lon":5.3537,"is_reserved":false,"is_disabled":false,"rental_uris":{"android":"levelo://app?vid=0328d966-1bb8-4104-bc8c-65287b271812","ios":"levelo://app?vid=0328d966-1bb8-4104-bc8c-65287b271812"},"vehicle_type_id":"4","last_reported":1768839419,"current_range_meters":7200,"station_id":"cpo3532slgdg3j2ikp40","pricing_plan_id":"cebpf4jnsgd1na2vs0mg"},{"bike_id":"acaa8ffd-d6bb-453e-8ba1-c98b6c468cd3","system_id":"levelo_inurba_marseille","lat":43.22932,"lon":5.3537,"is_reserved":false,"is_disabled":false,"rental_uris":{"android":"levelo://app?vid=acaa8ffd-d6bb-453e-8ba1-c98b6c468cd3","ios":"levelo://app?vid=acaa8ffd-d6bb-453e-8ba1-c98b6c468cd3"},"vehicle_type_id":"4","last_reported":1768839419,"current_range_meters":7200,"station_id":"cpo3532slgdg3j2ikp40","pricing_plan_id":"cebpf4jnsgd1na2vs0mg"},{"bike_id":"2f41e160-ae0e-4981-a182-e0ec9c9778a7","system_id":"levelo_inurba_marseille","lat":43.264946,"lon":5.395401,"is_reserved":false,"is_disabled":false,"rental_uris":{"android":"levelo://app?vid=2f41e160-ae0e-4981-a182-e0ec9c9778a7","ios":"levelo://app?vid=2f41e160-ae0e-4981-a182-e0ec9c9778a7"},"vehicle_type_id":"4","last_reported":1768839419,"current_range_meters":7200,"station_id":"ce4bhi12rcd13ifvqfq0","pricing_plan_id":"cebpf4jnsgd1na2vs0mg"},{"bike_id":"d2a0b97b-a60c-4a54-8d36-387802b00664","system_id":"levelo_inurba_marseille","lat":43.30806,"lon":5.38153,"is_reserved":false,"is_disabled":false,"rental_uris":{"android":"levelo://app?vid=d2a0b97b-a60c-4a54-8d36-387802b00664","ios":"levelo://app?vid=d2a0b97b-a60c-4a54-8d36-387802b00664"},"vehicle_type_id":"4","last_reported":1768839419,"current_range_meters":7200,"station_id":"ce4bgt12rcd13ifvqce0","pricing_plan_id":"cebpf4jnsgd1na2vs0mg"},{"bike_id":"5f195323-5623-4e6c-81ad-6a125f1ac01b","system_id":"levelo_inurba_marseille","lat":43.27299,"lon":5.39124,"is_reserved":false,"is_disabled":false,"rental_uris":{"android":"levelo://app?vid=5f195323-5623-4e6c-81ad-6a125f1ac01b","ios":"levelo://app?vid=5f195323-5623-4e6c-81ad-6a125f1ac01b"},"vehicle_type_id":"4","last_reported":1768839419,"current_range_meters":7200,"station_id":"ce4bhgp2rcd13ifvqfe0","pricing_plan_id":"cebpf4jnsgd1na2vs0mg"},{"bike_id":"ccc4ff47-1441-4ab4-a8dc-dc13c4eaa1c1","system_id":"levelo_inurba_marseille","lat":43.22556,"lon":5.41651,"is_reserved":false,"is_disabled":false,"rental_uris":{"android":"levelo://app?vid=ccc4ff47-1441-4ab4-a8dc-dc13c4eaa1c1","ios":"levelo://app?vid=ccc4ff47-1441-4ab4-a8dc-dc13c4eaa1c1"},"vehicle_type_id":"4","last_reported":1768839419,"current_range_meters":7200,"station_id":"st_d2o4gvlbi1j2169b742g","pricing_plan_id":"cebpf4jnsgd1na2vs0mg"},{"bike_id":"3bff1722-2d94-4fad-b0de-e97e95277ca6","system_id":"levelo_inurba_marseille","lat":43.25196,"lon":5.40082,"is_reserved":false,"is_disabled":false,"rental_uris":{"android":"levelo://app?vid=3bff1722-2d94-4fad-b0de-e97e95277ca6","ios":"levelo://app?vid=3bff1722-2d94-4fad-b0de-e97e95277ca6"},"vehicle_type_id":"4","last_reported":1768839419,"current_range_meters":7200,"station_id":"","pricing_plan_id":"cebpf4jnsgd1na2vs0mg"},{"bike_id":"021245d1-2447-411c-ae8b-dc86f3fa4f87","system_id":"levelo_inurba_marseille","lat":43.26502,"lon":5.39548,"is_reserved":false,"is_disabled":false,"rental_uris":{"android":"levelo://app?vid=021245d1-2447-411c-ae8b-dc86f3fa4f87","ios":"levelo://app?vid=021245d1-2447-411c-ae8b-dc86f3fa4f87"},"vehicle_type_id":"4","last_reported":1768839419,"current_range_meters":7200,"station_id":"ce4bhi12rcd13ifvqfq0","pricing_plan_id":"cebpf4jnsgd1na2vs0mg"},{"bike_id":"27e27ec9-57e5-4a75-b0c3-0ec59720efd0","system_id":"levelo_inurba_marseille","lat":43.30141,"lon":5.39866,"is_reserved":false,"is_disabled":false,"rental_uris":{"android":"levelo://app?vid=27e27ec9-57e5-4a75-b0c3-0ec59720efd0","ios":"levelo://app?vid=27e27ec9-57e5-4a75-b0c3-0ec59720efd0"},"vehicle_type_id":"4","last_reported":1768839419,"current_range_meters":7200,"station_id":"ce4bh0h2rcd13ifvqd40","pricing_plan_id":"cebpf4jnsgd1na2vs0mg"},{"bike_id":"f34c1d3f-5a1d-47aa-bcb6-20e6c78f462c","system_id":"levelo_inurba_marseille","lat":43.24165,"lon":5.39718,"is_reserved":false,"is_disabled":false,"rental_uris":{"android":"levelo://app?vid=f34c1d3f-5a1d-47aa-bcb6-20e6c78f462c","ios":"levelo://app?vid=f34c1d3f-5a1d-47aa-bcb6-20e6c78f462c"},"vehicle_type_id":"4","last_reported":1768839419,"current_range_meters":7200,"station_id":"ce4bhn12rcd13ifvqgpg","pricing_plan_id":"cebpf4jnsgd1na2vs0mg"},{"bike_id":"27712a59-bc8c-4f42-9dbe-a8031ae04625","system_id":"levelo_inurba_marseille","lat":43.248077,"lon":5.37456,"is_reserved":false,"is_disabled":false,"rental_uris":{"android":"levelo://app?vid=27712a59-bc8c-4f42-9dbe-a8031ae04625","ios":"levelo://app?vid=27712a59-bc8c-4f42-9dbe-a8031ae04625"},"vehicle_type_id":"4","last_reported":1768839419,"current_range_meters":7200,"station_id":"ce4bhgh2rcd13ifvqfb0","pricing_plan_id":"cebpf4jnsgd1na2vs0mg"},{"bike_id":"57be3e91-b810-4f66-9bd9-c6a2219dc40e","system_id":"levelo_inurba_marseille","lat":43.31144,"lon":5.37972,"is_reserved":false,"is_disabled":false,"rental_uris":{"android":"levelo://app?vid=57be3e91-b810-4f66-9bd9-c6a2219dc40e","ios":"levelo://app?vid=57be3e91-b810-4f66-9bd9-c6a2219dc40e"},"vehicle_type_id":"4","last_reported":1768839419,"current_range_meters":7200,"station_id":"","pricing_plan_id":"cebpf4jnsgd1na2vs0mg"},{"bike_id":"1c9c535a-0e0c-4d30-b79f-90067fffd249","system_id":"levelo_inurba_marseille","lat":43.25336,"lon":5.42181,"is_reserved":false,"is_disabled":false,"rental_uris":{"android":"levelo://app?vid=1c9c535a-0e0c-4d30-b79f-90067fffd249","ios":"levelo://app?vid=1c9c535a-0e0c-4d30-b79f-90067fffd249"},"vehicle_type_id":"4","last_reported":1768839419,"current_range_meters":7200,"station_id":"st_d2m65c5bi1j21697t3ng","pricing_plan_id":"cebpf4jnsgd1na2vs0mg"},{"bike_id":"34a3c7f4-c8be-4749-b66c-ec9e01cc5793","system_id":"levelo_inurba_marseille","lat":43.25343,"lon":5.42193,"is_reserved":false,"is_disabled":false,"rental_uris":{"android":"levelo://app?vid=34a3c7f4-c8be-4749-b66c-ec9e01cc5793","ios":"levelo://app?vid=34a3c7f4-c8be-4749-b66c-ec9e01cc5793"},"vehicle_type_id":"4","last_reported":1768839419,"current_range_meters":8000,"station_id":"st_d2m65c5bi1j21697t3ng","pricing_plan_id":"cebpf4jnsgd1na2vs0mg"},{"bike_id":"f4e48943-7c61-4e64-a2bb-8ed9a5946f73","system_id":"levelo_inurba_marseille","lat":43.27983,"lon":5.40012,"is_reserved":false,"is_disabled":false,"rental_uris":{"android":"levelo://app?vid=f4e48943-7c61-4e64-a2bb-8ed9a5946f73","ios":"levelo://app?vid=f4e48943-7c61-4e64-a2bb-8ed9a5946f73"},"vehicle_type_id":"4","last_reported":1768839419,"current_range_meters":8000,"station_id":"ce4bho92rcd13ifvqh4g","pricing_plan_id":"cebpf4jnsgd1na2vs0mg"},{"bike_id":"aa3643ff-356f-46c2-b40b-dc28ae448ae1","system_id":"levelo_inurba_marseille","lat":43.31257,"lon":5.36858,"is_reserved":false,"is_disabled":false,"rental_uris":{"android":"levelo://app?vid=aa3643ff-356f-46c2-b40b-dc28ae448ae1","ios":"levelo://app?vid=aa3643ff-356f-46c2-b40b-dc28ae448ae1"},"vehicle_type_id":"4","last_reported":1768839419,"current_range_meters":8000,"station_id":"ce4bgl92rcd13ifvqbq0","pricing_plan_id":"cebpf4jnsgd1na2vs0mg"},{"bike_id":"780cff24-2f0b-4214-a9d2-0d7056d089ce","system_id":"levelo_inurba_marseille","lat":43.26368,"lon":5.41067,"is_reserved":false,"is_disabled":false,"rental_uris":{"android":"levelo://app?vid=780cff24-2f0b-4214-a9d2-0d7056d089ce","ios":"levelo://app?vid=780cff24-2f0b-4214-a9d2-0d7056d089ce"},"vehicle_type_id":"4","last_reported":1768839419,"current_range_meters":8000,"station_id":"st_d4e5ca6na9uc73bfl5fg","pricing_plan_id":"cebpf4jnsgd1na2vs0mg"},{"bike_id":"afef40a4-d60a-4b10-8526-4ff9f145813a","system_id":"levelo_inurba_marseille","lat":43.31502,"lon":5.36498,"is_reserved":false,"is_disabled":false,"rental_uris":{"android":"levelo://app?vid=afef40a4-d60a-4b10-8526-4ff9f145813a","ios":"levelo://app?vid=afef40a4-d60a-4b10-8526-4ff9f145813a"},"vehicle_type_id":"4","last_reported":1768839419,"current_range_meters":8000,"station_id":"","pricing_plan_id":"cebpf4jnsgd1na2vs0mg"},{"bike_id":"05cd7e5a-b4bd-4b6f-b3d6-497cfd8d5643","system_id":"levelo_inurba_marseille","lat":43.25818,"lon":5.39442,"is_reserved":false,"is_disabled":false,"rental_uris":{"android":"levelo://app?vid=05cd7e5a-b4bd-4b6f-b3d6-497cfd8d5643","ios":"levelo://app?vid=05cd7e5a-b4bd-4b6f-b3d6-497cfd8d5643"},"vehicle_type_id":"4","last_reported":1768839419,"current_range_meters":8000,"station_id":"ce4bhip2rcd13ifvqft0","pricing_plan_id":"cebpf4jnsgd1na2vs0mg"},{"bike_id":"4754b381-ed0a-4074-a1f1-a72a1d20517f","system_id":"levelo_inurba_marseille","lat":43.24471,"lon":5.42576,"is_reserved":false,"is_disabled":false,"rental_uris":{"android":"levelo://app?vid=4754b381-ed0a-4074-a1f1-a72a1d20517f","ios":"levelo://app?vid=4754b381-ed0a-4074-a1f1-a72a1d20517f"},"vehicle_type_id":"4","last_reported":1768839419,"current_range_meters":8000,"station_id":"st_d4a3vfp97mjs738cd8kg","pricing_plan_id":"cebpf4jnsgd1na2vs0mg"},{"bike_id":"5151743b-c714-4a58-b647-a359c3085256","system_id":"levelo_inurba_marseille","lat":43.30571,"lon":5.36719,"is_reserved":false,"is_disabled":false,"rental_uris":{"android":"levelo://app?vid=5151743b-c714-4a58-b647-a359c3085256","ios":"levelo://app?vid=5151743b-c714-4a58-b647-a359c3085256"},"vehicle_type_id":"4","last_reported":1768839419,"current_range_meters":8000,"station_id":"ce4bgrp2rcd13ifvqc9g","pricing_plan_id":"cebpf4jnsgd1na2vs0mg"},{"bike_id":"52a54695-2fa8-4dbc-af4e-de36e0c11ef7","system_id":"levelo_inurba_marseille","lat":43.24951,"lon":5.40489,"is_reserved":false,"is_disabled":true,"rental_uris":{"android":"levelo://app?vid=52a54695-2fa8-4dbc-af4e-de36e0c11ef7","ios":"levelo://app?vid=52a54695-2fa8-4dbc-af4e-de36e0c11ef7"},"vehicle_type_id":"4","last_reported":1768839419,"current_range_meters":8000,"station_id":"st_d2ngiaodas8pm72gd1h0","pricing_plan_id":"cebpf4jnsgd1na2vs0mg"},{"bike_id":"6b69fba9-79f1-4149-b974-3eb802cc0fd8","system_id":"levelo_inurba_marseille","lat":43.317124,"lon":5.436972,"is_reserved":false,"is_disabled":false,"rental_uris":{"android":"levelo://app?vid=6b69fba9-79f1-4149-b974-3eb802cc0fd8","ios":"levelo://app?vid=6b69fba9-79f1-4149-b974-3eb802cc0fd8"},"vehicle_type_id":"4","last_reported":1768839419,"current_range_meters":8000,"station_id":"ce4bhp92rcd13ifvqhcg","pricing_plan_id":"cebpf4jnsgd1na2vs0mg"},{"bike_id":"5dbff422-dd1f-46e7-9d1a-61bdd6bff1c6","system_id":"levelo_inurba_marseille","lat":43.26558,"lon":5.39005,"is_reserved":false,"is_disabled":false,"rental_uris":{"android":"levelo://app?vid=5dbff422-dd1f-46e7-9d1a-61bdd6bff1c6","ios":"levelo://app?vid=5dbff422-dd1f-46e7-9d1a-61bdd6bff1c6"},"vehicle_type_id":"4","last_reported":1768839419,"current_range_meters":8000,"station_id":"ce4bhe12rcd13ifvqf30","pricing_plan_id":"cebpf4jnsgd1na2vs0mg"},{"bike_id":"6323d876-7ccd-4c78-a867-219c210b49e9","system_id":"levelo_inurba_marseille","lat":43.301264,"lon":5.431131,"is_reserved":false,"is_disabled":false,"rental_uris":{"android":"levelo://app?vid=6323d876-7ccd-4c78-a867-219c210b49e9","ios":"levelo://app?vid=6323d876-7ccd-4c78-a867-219c210b49e9"},"vehicle_type_id":"4","last_reported":1768839419,"current_range_meters":8400,"station_id":"st_d3js3co5814s73ftftug","pricing_plan_id":"cebpf4jnsgd1na2vs0mg"},{"bike_id":"577bc121-cb16-4831-9d98-1ec1907af138","system_id":"levelo_inurba_marseille","lat":43.24168,"lon":5.36399,"is_reserved":false,"is_disabled":false,"rental_uris":{"android":"levelo://app?vid=577bc121-cb16-4831-9d98-1ec1907af138","ios":"levelo://app?vid=577bc121-cb16-4831-9d98-1ec1907af138"},"vehicle_type_id":"4","last_reported":1768839419,"current_range_meters":8400,"station_id":"cpo36qri1sfpv3e86is0","pricing_plan_id":"cebpf4jnsgd1na2vs0mg"},{"bike_id":"7dd13941-101d-45cd-b1ba-9319f32c063f","system_id":"levelo_inurba_marseille","lat":43.323496,"lon":5.367318,"is_reserved":false,"is_disabled":false,"rental_uris":{"android":"levelo://app?vid=7dd13941-101d-45cd-b1ba-9319f32c063f","ios":"levelo://app?vid=7dd13941-101d-45cd-b1ba-9319f32c063f"},"vehicle_type_id":"4","last_reported":1768839419,"current_range_meters":8400,"station_id":"ce4bhsh2rcd13ifvqi2g","pricing_plan_id":"cebpf4jnsgd1na2vs0mg"},{"bike_id":"86265432-a1f8-4465-89b4-518a4facc392","system_id":"levelo_inurba_marseille","lat":43.24174,"lon":5.39725,"is_reserved":false,"is_disabled":false,"rental_uris":{"android":"levelo://app?vid=86265432-a1f8-4465-89b4-518a4facc392","ios":"levelo://app?vid=86265432-a1f8-4465-89b4-518a4facc392"},"vehicle_type_id":"4","last_reported":1768839419,"current_range_meters":8400,"station_id":"ce4bhn12rcd13ifvqgpg","pricing_plan_id":"cebpf4jnsgd1na2vs0mg"},{"bike_id":"12b74617-9d23-477b-808a-4d98d0a13eaa","system_id":"levelo_inurba_marseille","lat":43.311326,"lon":5.377889,"is_reserved":false,"is_disabled":false,"rental_uris":{"android":"levelo://app?vid=12b74617-9d23-477b-808a-4d98d0a13eaa","ios":"levelo://app?vid=12b74617-9d23-477b-808a-4d98d0a13eaa"},"vehicle_type_id":"4","last_reported":1768839419,"current_range_meters":8400,"station_id":"ce4bgt92rcd13ifvqcg0","pricing_plan_id":"cebpf4jnsgd1na2vs0mg"},{"bike_id":"de5f3ca3-22fd-4c8c-afac-8827e3455c9d","system_id":"levelo_inurba_marseille","lat":43.29054,"lon":5.37542,"is_reserved":false,"is_disabled":false,"rental_uris":{"android":"levelo://app?vid=de5f3ca3-22fd-4c8c-afac-8827e3455c9d","ios":"levelo://app?vid=de5f3ca3-22fd-4c8c-afac-8827e3455c9d"},"vehicle_type_id":"4","last_reported":1768839419,"current_range_meters":8400,"station_id":"ce4bh692rcd13ifvqe90","pricing_plan_id":"cebpf4jnsgd1na2vs0mg"},{"bike_id":"9f8c9ead-92c8-44dd-b506-fbc3b0df6f61","system_id":"levelo_inurba_marseille","lat":43.24998,"lon":5.38926,"is_reserved":false,"is_disabled":false,"rental_uris":{"android":"levelo://app?vid=9f8c9ead-92c8-44dd-b506-fbc3b0df6f61","ios":"levelo://app?vid=9f8c9ead-92c8-44dd-b506-fbc3b0df6f61"},"vehicle_type_id":"4","last_reported":1768839419,"current_range_meters":8400,"station_id":"ce4bhgp2rcd13ifvqfd0","pricing_plan_id":"cebpf4jnsgd1na2vs0mg"},{"bike_id":"87a0bd82-0485-42a9-8ea8-2c44da12ad98","system_id":"levelo_inurba_marseille","lat":43.30122,"lon":5.43087,"is_reserved":false,"is_disabled":false,"rental_uris":{"android":"levelo://app?vid=87a0bd82-0485-42a9-8ea8-2c44da12ad98","ios":"levelo://app?vid=87a0bd82-0485-42a9-8ea8-2c44da12ad98"},"vehicle_type_id":"4","last_reported":1768839419,"current_range_meters":8400,"station_id":"st_d3js3co5814s73ftftug","pricing_plan_id":"cebpf4jnsgd1na2vs0mg"},{"bike_id":"da0ad026-b199-4969-84a3-287aa818d529","system_id":"levelo_inurba_marseille","lat":43.281718,"lon":5.426186,"is_reserved":false,"is_disabled":false,"rental_uris":{"android":"levelo://app?vid=da0ad026-b199-4969-84a3-287aa818d529","ios":"levelo://app?vid=da0ad026-b199-4969-84a3-287aa818d529"},"vehicle_type_id":"4","last_reported":1768839419,"current_range_meters":8400,"station_id":"ce4bhnh2rcd13ifvqgug","pricing_plan_id":"cebpf4jnsgd1na2vs0mg"},{"bike_id":"bed6c02b-3d39-4f06-990b-b75f65e852f3","system_id":"levelo_inurba_marseille","lat":43.29615,"lon":5.37727,"is_reserved":false,"is_disabled":false,"rental_uris":{"android":"levelo://app?vid=bed6c02b-3d39-4f06-990b-b75f65e852f3","ios":"levelo://app?vid=bed6c02b-3d39-4f06-990b-b75f65e852f3"},"vehicle_type_id":"4","last_reported":1768839419,"current_range_meters":8400,"station_id":"ce4bgi92rcd13ifvqb90","pricing_plan_id":"cebpf4jnsgd1na2vs0mg"},{"bike_id":"a354e8f1-0376-4a9c-a066-f6ef75bdf134","system_id":"levelo_inurba_marseille","lat":43.26874,"lon":5.39604,"is_reserved":false,"is_disabled":false,"rental_uris":{"android":"levelo://app?vid=a354e8f1-0376-4a9c-a066-f6ef75bdf134","ios":"levelo://app?vid=a354e8f1-0376-4a9c-a066-f6ef75bdf134"},"vehicle_type_id":"4","last_reported":1768839419,"current_range_meters":8400,"station_id":"","pricing_plan_id":"cebpf4jnsgd1na2vs0mg"},{"bike_id":"d8172597-a2a9-416d-aa9c-f9d345a032da","system_id":"levelo_inurba_marseille","lat":43.250044,"lon":5.38923,"is_reserved":false,"is_disabled":false,"rental_uris":{"android":"levelo://app?vid=d8172597-a2a9-416d-aa9c-f9d345a032da","ios":"levelo://app?vid=d8172597-a2a9-416d-aa9c-f9d345a032da"},"vehicle_type_id":"4","last_reported":1768839419,"current_range_meters":8400,"station_id":"ce4bhgp2rcd13ifvqfd0","pricing_plan_id":"cebpf4jnsgd1na2vs0mg"},{"bike_id":"307d0b8c-c0ca-405e-9cdd-5e9ec8105ff2","system_id":"levelo_inurba_marseille","lat":43.27996,"lon":5.41681,"is_reserved":false,"is_disabled":false,"rental_uris":{"android":"levelo://app?vid=307d0b8c-c0ca-405e-9cdd-5e9ec8105ff2","ios":"levelo://app?vid=307d0b8c-c0ca-405e-9cdd-5e9ec8105ff2"},"vehicle_type_id":"4","last_reported":1768839419,"current_range_meters":8400,"station_id":"ce4bho12rcd13ifvqh1g","pricing_plan_id":"cebpf4jnsgd1na2vs0mg"},{"bike_id":"805126df-50da-4bf0-8b6c-48e638bfb2fa","system_id":"levelo_inurba_marseille","lat":43.31754,"lon":5.39016,"is_reserved":false,"is_disabled":false,"rental_uris":{"android":"levelo://app?vid=805126df-50da-4bf0-8b6c-48e638bfb2fa","ios":"levelo://app?vid=805126df-50da-4bf0-8b6c-48e638bfb2fa"},"vehicle_type_id":"4","last_reported":1768839419,"current_range_meters":8400,"station_id":"ce4bhqp2rcd13ifvqhng","pricing_plan_id":"cebpf4jnsgd1na2vs0mg"},{"bike_id":"8b85e06b-a35c-4e7b-b0cd-fdd8d626d85a","system_id":"levelo_inurba_marseille","lat":43.31199,"lon":5.369,"is_reserved":false,"is_disabled":false,"rental_uris":{"android":"levelo://app?vid=8b85e06b-a35c-4e7b-b0cd-fdd8d626d85a","ios":"levelo://app?vid=8b85e06b-a35c-4e7b-b0cd-fdd8d626d85a"},"vehicle_type_id":"4","last_reported":1768839419,"current_range_meters":8400,"station_id":"ce4bgl92rcd13ifvqbq0","pricing_plan_id":"cebpf4jnsgd1na2vs0mg"},{"bike_id":"3558e1ed-a90e-4ae7-9126-dc45b36e9eb9","system_id":"levelo_inurba_marseille","lat":43.27681,"lon":5.38874,"is_reserved":false,"is_disabled":false,"rental_uris":{"android":"levelo://app?vid=3558e1ed-a90e-4ae7-9126-dc45b36e9eb9","ios":"levelo://app?vid=3558e1ed-a90e-4ae7-9126-dc45b36e9eb9"},"vehicle_type_id":"4","last_reported":1768839419,"current_range_meters":8400,"station_id":"ce4bhi12rcd13ifvqfo0","pricing_plan_id":"cebpf4jnsgd1na2vs0mg"},{"bike_id":"0c0b8b9e-385e-4dea-bac5-d489cb9bf8d7","system_id":"levelo_inurba_marseille","lat":43.295982,"lon":5.380899,"is_reserved":false,"is_disabled":false,"rental_uris":{"android":"levelo://app?vid=0c0b8b9e-385e-4dea-bac5-d489cb9bf8d7","ios":"levelo://app?vid=0c0b8b9e-385e-4dea-bac5-d489cb9bf8d7"},"vehicle_type_id":"4","last_reported":1768839419,"current_range_meters":8400,"station_id":"ce4bgl12rcd13ifvqbo0","pricing_plan_id":"cebpf4jnsgd1na2vs0mg"},{"bike_id":"3b7d1059-f493-4af7-a3db-225bb265c0d6","system_id":"levelo_inurba_marseille","lat":43.25821,"lon":5.39416,"is_reserved":false,"is_disabled":false,"rental_uris":{"android":"levelo://app?vid=3b7d1059-f493-4af7-a3db-225bb265c0d6","ios":"levelo://app?vid=3b7d1059-f493-4af7-a3db-225bb265c0d6"},"vehicle_type_id":"4","last_reported":1768839419,"current_range_meters":8400,"station_id":"ce4bhip2rcd13ifvqft0","pricing_plan_id":"cebpf4jnsgd1na2vs0mg"},{"bike_id":"2723bfbb-fe38-4d7f-b03c-9c11f9b02499","system_id":"levelo_inurba_marseille","lat":43.28872,"lon":5.42499,"is_reserved":false,"is_disabled":false,"rental_uris":{"android":"levelo://app?vid=2723bfbb-fe38-4d7f-b03c-9c11f9b02499","ios":"levelo://app?vid=2723bfbb-fe38-4d7f-b03c-9c11f9b02499"},"vehicle_type_id":"4","last_reported":1768839419,"current_range_meters":8400,"station_id":"st_d3b462108ojc7389ooeg","pricing_plan_id":"cebpf4jnsgd1na2vs0mg"},{"bike_id":"6656b804-573d-4bd7-beec-255d1319f693","system_id":"levelo_inurba_marseille","lat":43.27989,"lon":5.40037,"is_reserved":false,"is_disabled":false,"rental_uris":{"android":"levelo://app?vid=6656b804-573d-4bd7-beec-255d1319f693","ios":"levelo://app?vid=6656b804-573d-4bd7-beec-255d1319f693"},"vehicle_type_id":"4","last_reported":1768839419,"current_range_meters":8800,"station_id":"ce4bho92rcd13ifvqh4g","pricing_plan_id":"cebpf4jnsgd1na2vs0mg"},{"bike_id":"8ee5ace6-b688-4278-b782-21f802133a0f","system_id":"levelo_inurba_marseille","lat":43.24627,"lon":5.43146,"is_reserved":false,"is_disabled":false,"rental_uris":{"android":"levelo://app?vid=8ee5ace6-b688-4278-b782-21f802133a0f","ios":"levelo://app?vid=8ee5ace6-b688-4278-b782-21f802133a0f"},"vehicle_type_id":"4","last_reported":1768839419,"current_range_meters":8800,"station_id":"st_d2m6c4gdas8pm72e190g","pricing_plan_id":"cebpf4jnsgd1na2vs0mg"},{"bike_id":"593b643a-c803-4d19-a281-cacea4f9d88e","system_id":"levelo_inurba_marseille","lat":43.27939,"lon":5.41041,"is_reserved":false,"is_disabled":false,"rental_uris":{"android":"levelo://app?vid=593b643a-c803-4d19-a281-cacea4f9d88e","ios":"levelo://app?vid=593b643a-c803-4d19-a281-cacea4f9d88e"},"vehicle_type_id":"4","last_reported":1768839419,"current_range_meters":8800,"station_id":"ce4bhnp2rcd13ifvqh0g","pricing_plan_id":"cebpf4jnsgd1na2vs0mg"},{"bike_id":"a6eb309a-af83-4cbb-8a37-5d6d4de190ee","system_id":"levelo_inurba_marseille","lat":43.26521,"lon":5.39536,"is_reserved":false,"is_disabled":false,"rental_uris":{"android":"levelo://app?vid=a6eb309a-af83-4cbb-8a37-5d6d4de190ee","ios":"levelo://app?vid=a6eb309a-af83-4cbb-8a37-5d6d4de190ee"},"vehicle_type_id":"4","last_reported":1768839419,"current_range_meters":8800,"station_id":"ce4bhi12rcd13ifvqfq0","pricing_plan_id":"cebpf4jnsgd1na2vs0mg"},{"bike_id":"3ba0d64d-9f7f-4707-9a7e-d2bb874e31bf","system_id":"levelo_inurba_marseille","lat":43.2447,"lon":5.42535,"is_reserved":false,"is_disabled":false,"rental_uris":{"android":"levelo://app?vid=3ba0d64d-9f7f-4707-9a7e-d2bb874e31bf","ios":"levelo://app?vid=3ba0d64d-9f7f-4707-9a7e-d2bb874e31bf"},"vehicle_type_id":"4","last_reported":1768839419,"current_range_meters":8800,"station_id":"st_d4a3vfp97mjs738cd8kg","pricing_plan_id":"cebpf4jnsgd1na2vs0mg"},{"bike_id":"4650f407-bc82-4c79-8bf1-e1e423078e7c","system_id":"levelo_inurba_marseille","lat":43.27992,"lon":5.40001,"is_reserved":false,"is_disabled":false,"rental_uris":{"android":"levelo://app?vid=4650f407-bc82-4c79-8bf1-e1e423078e7c","ios":"levelo://app?vid=4650f407-bc82-4c79-8bf1-e1e423078e7c"},"vehicle_type_id":"4","last_reported":1768839419,"current_range_meters":8800,"station_id":"ce4bho92rcd13ifvqh4g","pricing_plan_id":"cebpf4jnsgd1na2vs0mg"},{"bike_id":"ff8745c4-faf1-4826-a408-20955957778b","system_id":"levelo_inurba_marseille","lat":43.29757,"lon":5.42775,"is_reserved":false,"is_disabled":false,"rental_uris":{"android":"levelo://app?vid=ff8745c4-faf1-4826-a408-20955957778b","ios":"levelo://app?vid=ff8745c4-faf1-4826-a408-20955957778b"},"vehicle_type_id":"4","last_reported":1768839419,"current_range_meters":8800,"station_id":"st_d3md5207bmas73dh9klg","pricing_plan_id":"cebpf4jnsgd1na2vs0mg"},{"bike_id":"7d5056bc-d995-40a2-b862-14a61c203225","system_id":"levelo_inurba_marseille","lat":43.278,"lon":5.40692,"is_reserved":false,"is_disabled":false,"rental_uris":{"android":"levelo://app?vid=7d5056bc-d995-40a2-b862-14a61c203225","ios":"levelo://app?vid=7d5056bc-d995-40a2-b862-14a61c203225"},"vehicle_type_id":"4","last_reported":1768839419,"current_range_meters":8800,"station_id":"ce4bhnh2rcd13ifvqgtg","pricing_plan_id":"cebpf4jnsgd1na2vs0mg"},{"bike_id":"031ceb54-6f26-4623-bb87-6fe6a644af73","system_id":"levelo_inurba_marseille","lat":43.24158,"lon":5.36385,"is_reserved":false,"is_disabled":false,"rental_uris":{"android":"levelo://app?vid=031ceb54-6f26-4623-bb87-6fe6a644af73","ios":"levelo://app?vid=031ceb54-6f26-4623-bb87-6fe6a644af73"},"vehicle_type_id":"4","last_reported":1768839419,"current_range_meters":8800,"station_id":"cpo36qri1sfpv3e86is0","pricing_plan_id":"cebpf4jnsgd1na2vs0mg"},{"bike_id":"d938f418-a6a7-4fd7-bdf0-363eac71fa5b","system_id":"levelo_inurba_marseille","lat":43.24171,"lon":5.39729,"is_reserved":false,"is_disabled":false,"rental_uris":{"android":"levelo://app?vid=d938f418-a6a7-4fd7-bdf0-363eac71fa5b","ios":"levelo://app?vid=d938f418-a6a7-4fd7-bdf0-363eac71fa5b"},"vehicle_type_id":"4","last_reported":1768839419,"current_range_meters":8800,"station_id":"ce4bhn12rcd13ifvqgpg","pricing_plan_id":"cebpf4jnsgd1na2vs0mg"},{"bike_id":"3756036c-033e-4c36-a714-1af542a63298","system_id":"levelo_inurba_marseille","lat":43.26557,"lon":5.37285,"is_reserved":false,"is_disabled":false,"rental_uris":{"android":"levelo://app?vid=3756036c-033e-4c36-a714-1af542a63298","ios":"levelo://app?vid=3756036c-033e-4c36-a714-1af542a63298"},"vehicle_type_id":"4","last_reported":1768839419,"current_range_meters":8800,"station_id":"ce4bhg12rcd13ifvqf70","pricing_plan_id":"cebpf4jnsgd1na2vs0mg"},{"bike_id":"34bf4f2e-03d1-44d0-a52f-67b87d4045ee","system_id":"levelo_inurba_marseille","lat":43.26554,"lon":5.37284,"is_reserved":false,"is_disabled":false,"rental_uris":{"android":"levelo://app?vid=34bf4f2e-03d1-44d0-a52f-67b87d4045ee","ios":"levelo://app?vid=34bf4f2e-03d1-44d0-a52f-67b87d4045ee"},"vehicle_type_id":"4","last_reported":1768839419,"current_range_meters":8800,"station_id":"ce4bhg12rcd13ifvqf70","pricing_plan_id":"cebpf4jnsgd1na2vs0mg"},{"bike_id":"60252f81-4612-4f0f-b1f8-33dbf352ebfb","system_id":"levelo_inurba_marseille","lat":43.29737,"lon":5.37304,"is_reserved":false,"is_disabled":false,"rental_uris":{"android":"levelo://app?vid=60252f81-4612-4f0f-b1f8-33dbf352ebfb","ios":"levelo://app?vid=60252f81-4612-4f0f-b1f8-33dbf352ebfb"},"vehicle_type_id":"4","last_reported":1768839419,"current_range_meters":8800,"station_id":"","pricing_plan_id":"cebpf4jnsgd1na2vs0mg"},{"bike_id":"4632152f-a8df-490e-ac09-407a881c6ecf","system_id":"levelo_inurba_marseille","lat":43.30142,"lon":5.37432,"is_reserved":false,"is_disabled":false,"rental_uris":{"android":"levelo://app?vid=4632152f-a8df-490e-ac09-407a881c6ecf","ios":"levelo://app?vid=4632152f-a8df-490e-ac09-407a881c6ecf"},"vehicle_type_id":"4","last_reported":1768839419,"current_range_meters":8800,"station_id":"ce4bgs92rcd13ifvqcc0","pricing_plan_id":"cebpf4jnsgd1na2vs0mg"},{"bike_id":"5d7a13a2-90e7-421c-b29f-02c1307405f6","system_id":"levelo_inurba_marseille","lat":43.29635,"lon":5.37153,"is_reserved":false,"is_disabled":false,"rental_uris":{"android":"levelo://app?vid=5d7a13a2-90e7-421c-b29f-02c1307405f6","ios":"levelo://app?vid=5d7a13a2-90e7-421c-b29f-02c1307405f6"},"vehicle_type_id":"4","last_reported":1768839419,"current_range_meters":8800,"station_id":"ce4bgnh2rcd13ifvqc0g","pricing_plan_id":"cebpf4jnsgd1na2vs0mg"},{"bike_id":"bac234ec-c9b1-4f34-b12f-13fb38be106f","system_id":"levelo_inurba_marseille","lat":43.275634,"lon":5.384113,"is_reserved":false,"is_disabled":false,"rental_uris":{"android":"levelo://app?vid=bac234ec-c9b1-4f34-b12f-13fb38be106f","ios":"levelo://app?vid=bac234ec-c9b1-4f34-b12f-13fb38be106f"},"vehicle_type_id":"4","last_reported":1768839419,"current_range_meters":8800,"station_id":"ce4bhh92rcd13ifvqfi0","pricing_plan_id":"cebpf4jnsgd1na2vs0mg"},{"bike_id":"fe691611-82ba-4f61-981f-88c3cc8482ae","system_id":"levelo_inurba_marseille","lat":43.27948,"lon":5.41051,"is_reserved":false,"is_disabled":false,"rental_uris":{"android":"levelo://app?vid=fe691611-82ba-4f61-981f-88c3cc8482ae","ios":"levelo://app?vid=fe691611-82ba-4f61-981f-88c3cc8482ae"},"vehicle_type_id":"4","last_reported":1768839419,"current_range_meters":8800,"station_id":"ce4bhnp2rcd13ifvqh0g","pricing_plan_id":"cebpf4jnsgd1na2vs0mg"},{"bike_id":"160068fb-85f0-4670-999b-6e5179c968a8","system_id":"levelo_inurba_marseille","lat":43.3133,"lon":5.36921,"is_reserved":false,"is_disabled":false,"rental_uris":{"android":"levelo://app?vid=160068fb-85f0-4670-999b-6e5179c968a8","ios":"levelo://app?vid=160068fb-85f0-4670-999b-6e5179c968a8"},"vehicle_type_id":"4","last_reported":1768839419,"current_range_meters":8800,"station_id":"ce4bgl92rcd13ifvqbq0","pricing_plan_id":"cebpf4jnsgd1na2vs0mg"},{"bike_id":"eb40b9ae-40f2-450b-a3d3-a215b2c06bfd","system_id":"levelo_inurba_marseille","lat":43.31556,"lon":5.38002,"is_reserved":false,"is_disabled":false,"rental_uris":{"android":"levelo://app?vid=eb40b9ae-40f2-450b-a3d3-a215b2c06bfd","ios":"levelo://app?vid=eb40b9ae-40f2-450b-a3d3-a215b2c06bfd"},"vehicle_type_id":"4","last_reported":1768839419,"current_range_meters":8800,"station_id":"ce4bhsp2rcd13ifvqi50","pricing_plan_id":"cebpf4jnsgd1na2vs0mg"},{"bike_id":"c8df4b98-1cdd-4d91-a5ac-a7f9348f51a6","system_id":"levelo_inurba_marseille","lat":43.26024,"lon":5.4171,"is_reserved":false,"is_disabled":false,"rental_uris":{"android":"levelo://app?vid=c8df4b98-1cdd-4d91-a5ac-a7f9348f51a6","ios":"levelo://app?vid=c8df4b98-1cdd-4d91-a5ac-a7f9348f51a6"},"vehicle_type_id":"4","last_reported":1768839419,"current_range_meters":8800,"station_id":"","pricing_plan_id":"cebpf4jnsgd1na2vs0mg"},{"bike_id":"5fc52565-6f50-4d9d-9a50-78581b9e2c33","system_id":"levelo_inurba_marseille","lat":43.22555,"lon":5.41624,"is_reserved":false,"is_disabled":false,"rental_uris":{"android":"levelo://app?vid=5fc52565-6f50-4d9d-9a50-78581b9e2c33","ios":"levelo://app?vid=5fc52565-6f50-4d9d-9a50-78581b9e2c33"},"vehicle_type_id":"4","last_reported":1768839419,"current_range_meters":8800,"station_id":"st_d2o4gvlbi1j2169b742g","pricing_plan_id":"cebpf4jnsgd1na2vs0mg"},{"bike_id":"45f6d4ac-5181-4355-ba56-f8b29b34911e","system_id":"levelo_inurba_marseille","lat":43.23785,"lon":5.36626,"is_reserved":false,"is_disabled":false,"rental_uris":{"android":"levelo://app?vid=45f6d4ac-5181-4355-ba56-f8b29b34911e","ios":"levelo://app?vid=45f6d4ac-5181-4355-ba56-f8b29b34911e"},"vehicle_type_id":"4","last_reported":1768839419,"current_range_meters":8800,"station_id":"st_d3nk18o9ro0c73en2l3g","pricing_plan_id":"cebpf4jnsgd1na2vs0mg"},{"bike_id":"eb243468-bdf5-4b02-8303-fec3406f4620","system_id":"levelo_inurba_marseille","lat":43.2893,"lon":5.38408,"is_reserved":false,"is_disabled":true,"rental_uris":{"android":"levelo://app?vid=eb243468-bdf5-4b02-8303-fec3406f4620","ios":"levelo://app?vid=eb243468-bdf5-4b02-8303-fec3406f4620"},"vehicle_type_id":"4","last_reported":1768839419,"current_range_meters":8800,"station_id":"ce4bh612rcd13ifvqe6g","pricing_plan_id":"cebpf4jnsgd1na2vs0mg"},{"bike_id":"bcddf850-3b2f-4444-aa5f-b022b7614ec1","system_id":"levelo_inurba_marseille","lat":43.29756,"lon":5.42775,"is_reserved":false,"is_disabled":false,"rental_uris":{"android":"levelo://app?vid=bcddf850-3b2f-4444-aa5f-b022b7614ec1","ios":"levelo://app?vid=bcddf850-3b2f-4444-aa5f-b022b7614ec1"},"vehicle_type_id":"4","last_reported":1768839419,"current_range_meters":8800,"station_id":"st_d3md5207bmas73dh9klg","pricing_plan_id":"cebpf4jnsgd1na2vs0mg"},{"bike_id":"b7c580e6-6952-48df-a12d-631c94c85558","system_id":"levelo_inurba_marseille","lat":43.28906,"lon":5.42955,"is_reserved":false,"is_disabled":false,"rental_uris":{"android":"levelo://app?vid=b7c580e6-6952-48df-a12d-631c94c85558","ios":"levelo://app?vid=b7c580e6-6952-48df-a12d-631c94c85558"},"vehicle_type_id":"4","last_reported":1768839419,"current_range_meters":8800,"station_id":"","pricing_plan_id":"cebpf4jnsgd1na2vs0mg"},{"bike_id":"d439a0cf-43b2-46df-96b0-2127ed6b63a0","system_id":"levelo_inurba_marseille","lat":43.24464,"lon":5.42531,"is_reserved":false,"is_disabled":false,"rental_uris":{"android":"levelo://app?vid=d439a0cf-43b2-46df-96b0-2127ed6b63a0","ios":"levelo://app?vid=d439a0cf-43b2-46df-96b0-2127ed6b63a0"},"vehicle_type_id":"4","last_reported":1768839419,"current_range_meters":9200,"station_id":"st_d4a3vfp97mjs738cd8kg","pricing_plan_id":"cebpf4jnsgd1na2vs0mg"},{"bike_id":"b115d95f-740a-4cca-98ff-e2f399e732c0","system_id":"levelo_inurba_marseille","lat":43.30277,"lon":5.3769,"is_reserved":false,"is_disabled":false,"rental_uris":{"android":"levelo://app?vid=b115d95f-740a-4cca-98ff-e2f399e732c0","ios":"levelo://app?vid=b115d95f-740a-4cca-98ff-e2f399e732c0"},"vehicle_type_id":"4","last_reported":1768839419,"current_range_meters":9200,"station_id":"ce4bguh2rcd13ifvqcj0","pricing_plan_id":"cebpf4jnsgd1na2vs0mg"},{"bike_id":"bc6ef339-77f0-43c0-9a51-d222e054e209","system_id":"levelo_inurba_marseille","lat":43.26064,"lon":5.39389,"is_reserved":false,"is_disabled":false,"rental_uris":{"android":"levelo://app?vid=bc6ef339-77f0-43c0-9a51-d222e054e209","ios":"levelo://app?vid=bc6ef339-77f0-43c0-9a51-d222e054e209"},"vehicle_type_id":"4","last_reported":1768839419,"current_range_meters":9200,"station_id":"ce4bhh92rcd13ifvqfj0","pricing_plan_id":"cebpf4jnsgd1na2vs0mg"},{"bike_id":"26e3a85f-ffb5-4828-97af-3a2ce907364e","system_id":"levelo_inurba_marseille","lat":43.26565,"lon":5.40332,"is_reserved":false,"is_disabled":false,"rental_uris":{"android":"levelo://app?vid=26e3a85f-ffb5-4828-97af-3a2ce907364e","ios":"levelo://app?vid=26e3a85f-ffb5-4828-97af-3a2ce907364e"},"vehicle_type_id":"4","last_reported":1768839419,"current_range_meters":9200,"station_id":"ce4bhmp2rcd13ifvqgng","pricing_plan_id":"cebpf4jnsgd1na2vs0mg"},{"bike_id":"6f8b575c-ec29-419c-982d-883da8eaf4ae","system_id":"levelo_inurba_marseille","lat":43.33171,"lon":5.37674,"is_reserved":false,"is_disabled":false,"rental_uris":{"android":"levelo://app?vid=6f8b575c-ec29-419c-982d-883da8eaf4ae","ios":"levelo://app?vid=6f8b575c-ec29-419c-982d-883da8eaf4ae"},"vehicle_type_id":"4","last_reported":1768839419,"current_range_meters":9200,"station_id":"st_d46cu089ee8s73dldbu0","pricing_plan_id":"cebpf4jnsgd1na2vs0mg"},{"bike_id":"853e0b3d-34dc-48b7-ad2a-0c85f20ca650","system_id":"levelo_inurba_marseille","lat":43.265775,"lon":5.390171,"is_reserved":false,"is_disabled":false,"rental_uris":{"android":"levelo://app?vid=853e0b3d-34dc-48b7-ad2a-0c85f20ca650","ios":"levelo://app?vid=853e0b3d-34dc-48b7-ad2a-0c85f20ca650"},"vehicle_type_id":"4","last_reported":1768839419,"current_range_meters":9200,"station_id":"ce4bhe12rcd13ifvqf30","pricing_plan_id":"cebpf4jnsgd1na2vs0mg"},{"bike_id":"bcd356d2-e481-40ce-9575-c122d8805aa1","system_id":"levelo_inurba_marseille","lat":43.2606,"lon":5.39399,"is_reserved":false,"is_disabled":false,"rental_uris":{"android":"levelo://app?vid=bcd356d2-e481-40ce-9575-c122d8805aa1","ios":"levelo://app?vid=bcd356d2-e481-40ce-9575-c122d8805aa1"},"vehicle_type_id":"4","last_reported":1768839419,"current_range_meters":9200,"station_id":"ce4bhh92rcd13ifvqfj0","pricing_plan_id":"cebpf4jnsgd1na2vs0mg"},{"bike_id":"2e93942b-2b11-4616-8061-e9324ff65c67","system_id":"levelo_inurba_marseille","lat":43.30322,"lon":5.40445,"is_reserved":false,"is_disabled":false,"rental_uris":{"android":"levelo://app?vid=2e93942b-2b11-4616-8061-e9324ff65c67","ios":"levelo://app?vid=2e93942b-2b11-4616-8061-e9324ff65c67"},"vehicle_type_id":"4","last_reported":1768839419,"current_range_meters":9200,"station_id":"ce4bh012rcd13ifvqd10","pricing_plan_id":"cebpf4jnsgd1na2vs0mg"},{"bike_id":"bc8ae365-5f94-4121-b4e5-05c05b849c07","system_id":"levelo_inurba_marseille","lat":43.28621,"lon":5.39863,"is_reserved":false,"is_disabled":true,"rental_uris":{"android":"levelo://app?vid=bc8ae365-5f94-4121-b4e5-05c05b849c07","ios":"levelo://app?vid=bc8ae365-5f94-4121-b4e5-05c05b849c07"},"vehicle_type_id":"4","last_reported":1768839419,"current_range_meters":9200,"station_id":"ce4bho92rcd13ifvqh3g","pricing_plan_id":"cebpf4jnsgd1na2vs0mg"},{"bike_id":"7425d75a-c7de-46b5-bd84-85c19ab69f2d","system_id":"levelo_inurba_marseille","lat":43.24139,"lon":5.39714,"is_reserved":false,"is_disabled":false,"rental_uris":{"android":"levelo://app?vid=7425d75a-c7de-46b5-bd84-85c19ab69f2d","ios":"levelo://app?vid=7425d75a-c7de-46b5-bd84-85c19ab69f2d"},"vehicle_type_id":"4","last_reported":1768839419,"current_range_meters":9200,"station_id":"ce4bhn12rcd13ifvqgpg","pricing_plan_id":"cebpf4jnsgd1na2vs0mg"},{"bike_id":"e20e2f09-2bc7-40ce-8da4-e1258881bd24","system_id":"levelo_inurba_marseille","lat":43.24462,"lon":5.42536,"is_reserved":false,"is_disabled":false,"rental_uris":{"android":"levelo://app?vid=e20e2f09-2bc7-40ce-8da4-e1258881bd24","ios":"levelo://app?vid=e20e2f09-2bc7-40ce-8da4-e1258881bd24"},"vehicle_type_id":"4","last_reported":1768839419,"current_range_meters":9200,"station_id":"st_d4a3vfp97mjs738cd8kg","pricing_plan_id":"cebpf4jnsgd1na2vs0mg"},{"bike_id":"1d2efba0-fa53-4ce2-9e4d-81c1694f8245","system_id":"levelo_inurba_marseille","lat":43.305398,"lon":5.36545,"is_reserved":false,"is_disabled":true,"rental_uris":{"android":"levelo://app?vid=1d2efba0-fa53-4ce2-9e4d-81c1694f8245","ios":"levelo://app?vid=1d2efba0-fa53-4ce2-9e4d-81c1694f8245"},"vehicle_type_id":"4","last_reported":1768839419,"current_range_meters":9200,"station_id":"ce4bgs12rcd13ifvqcag","pricing_plan_id":"cebpf4jnsgd1na2vs0mg"},{"bike_id":"f62b459f-1a86-4618-bcb4-2c01f05d64f1","system_id":"levelo_inurba_marseille","lat":43.28147,"lon":5.43146,"is_reserved":false,"is_disabled":false,"rental_uris":{"android":"levelo://app?vid=f62b459f-1a86-4618-bcb4-2c01f05d64f1","ios":"levelo://app?vid=f62b459f-1a86-4618-bcb4-2c01f05d64f1"},"vehicle_type_id":"4","last_reported":1768839419,"current_range_meters":9200,"station_id":"","pricing_plan_id":"cebpf4jnsgd1na2vs0mg"},{"bike_id":"aba1b4c5-be49-4ccb-ae72-110cae12e06e","system_id":"levelo_inurba_marseille","lat":43.2867,"lon":5.38654,"is_reserved":false,"is_disabled":false,"rental_uris":{"android":"levelo://app?vid=aba1b4c5-be49-4ccb-ae72-110cae12e06e","ios":"levelo://app?vid=aba1b4c5-be49-4ccb-ae72-110cae12e06e"},"vehicle_type_id":"4","last_reported":1768839419,"current_range_meters":9200,"station_id":"ce4bh492rcd13ifvqdug","pricing_plan_id":"cebpf4jnsgd1na2vs0mg"},{"bike_id":"d60d1a27-683d-4fc6-b03d-099740ed2de5","system_id":"levelo_inurba_marseille","lat":43.23124,"lon":5.43728,"is_reserved":false,"is_disabled":false,"rental_uris":{"android":"levelo://app?vid=d60d1a27-683d-4fc6-b03d-099740ed2de5","ios":"levelo://app?vid=d60d1a27-683d-4fc6-b03d-099740ed2de5"},"vehicle_type_id":"4","last_reported":1768839419,"current_range_meters":9200,"station_id":"ce4bhmp2rcd13ifvqgog","pricing_plan_id":"cebpf4jnsgd1na2vs0mg"},{"bike_id":"556386fb-6c93-4670-ad31-cccd049685ec","system_id":"levelo_inurba_marseille","lat":43.27987,"lon":5.41668,"is_reserved":false,"is_disabled":false,"rental_uris":{"android":"levelo://app?vid=556386fb-6c93-4670-ad31-cccd049685ec","ios":"levelo://app?vid=556386fb-6c93-4670-ad31-cccd049685ec"},"vehicle_type_id":"4","last_reported":1768839419,"current_range_meters":9200,"station_id":"ce4bho12rcd13ifvqh1g","pricing_plan_id":"cebpf4jnsgd1na2vs0mg"},{"bike_id":"e83b2dec-c502-4ce5-8695-2b74293a1817","system_id":"levelo_inurba_marseille","lat":43.26574,"lon":5.39022,"is_reserved":false,"is_disabled":false,"rental_uris":{"android":"levelo://app?vid=e83b2dec-c502-4ce5-8695-2b74293a1817","ios":"levelo://app?vid=e83b2dec-c502-4ce5-8695-2b74293a1817"},"vehicle_type_id":"4","last_reported":1768839419,"current_range_meters":9600,"station_id":"ce4bhe12rcd13ifvqf30","pricing_plan_id":"cebpf4jnsgd1na2vs0mg"},{"bike_id":"460c38b8-de49-4a2a-a083-dbdc1bb1e2ea","system_id":"levelo_inurba_marseille","lat":43.27991,"lon":5.41658,"is_reserved":false,"is_disabled":false,"rental_uris":{"android":"levelo://app?vid=460c38b8-de49-4a2a-a083-dbdc1bb1e2ea","ios":"levelo://app?vid=460c38b8-de49-4a2a-a083-dbdc1bb1e2ea"},"vehicle_type_id":"4","last_reported":1768839419,"current_range_meters":9600,"station_id":"ce4bho12rcd13ifvqh1g","pricing_plan_id":"cebpf4jnsgd1na2vs0mg"},{"bike_id":"fb170a31-36a9-4476-9f35-99bbf21c7f4b","system_id":"levelo_inurba_marseille","lat":43.31303,"lon":5.36903,"is_reserved":false,"is_disabled":false,"rental_uris":{"android":"levelo://app?vid=fb170a31-36a9-4476-9f35-99bbf21c7f4b","ios":"levelo://app?vid=fb170a31-36a9-4476-9f35-99bbf21c7f4b"},"vehicle_type_id":"4","last_reported":1768839419,"current_range_meters":9600,"station_id":"","pricing_plan_id":"cebpf4jnsgd1na2vs0mg"},{"bike_id":"464f5fd3-d3aa-44ea-99ed-958e899847b1","system_id":"levelo_inurba_marseille","lat":43.30676,"lon":5.36554,"is_reserved":false,"is_disabled":false,"rental_uris":{"android":"levelo://app?vid=464f5fd3-d3aa-44ea-99ed-958e899847b1","ios":"levelo://app?vid=464f5fd3-d3aa-44ea-99ed-958e899847b1"},"vehicle_type_id":"4","last_reported":1768839419,"current_range_meters":9600,"station_id":"","pricing_plan_id":"cebpf4jnsgd1na2vs0mg"},{"bike_id":"597fd967-89d0-4f00-a092-ffecad62bc9a","system_id":"levelo_inurba_marseille","lat":43.29107,"lon":5.38913,"is_reserved":false,"is_disabled":false,"rental_uris":{"android":"levelo://app?vid=597fd967-89d0-4f00-a092-ffecad62bc9a","ios":"levelo://app?vid=597fd967-89d0-4f00-a092-ffecad62bc9a"},"vehicle_type_id":"4","last_reported":1768839419,"current_range_meters":9600,"station_id":"","pricing_plan_id":"cebpf4jnsgd1na2vs0mg"},{"bike_id":"dd28e199-1a6b-47a6-a7be-2735b32cc9f8","system_id":"levelo_inurba_marseille","lat":43.29017,"lon":5.38129,"is_reserved":false,"is_disabled":false,"rental_uris":{"android":"levelo://app?vid=dd28e199-1a6b-47a6-a7be-2735b32cc9f8","ios":"levelo://app?vid=dd28e199-1a6b-47a6-a7be-2735b32cc9f8"},"vehicle_type_id":"4","last_reported":1768839419,"current_range_meters":9600,"station_id":"ce4bh4p2rcd13ifvqe1g","pricing_plan_id":"cebpf4jnsgd1na2vs0mg"},{"bike_id":"4ffc280c-a929-4951-b0a7-b03e1a7178ef","system_id":"levelo_inurba_marseille","lat":43.292542,"lon":5.409028,"is_reserved":false,"is_disabled":false,"rental_uris":{"android":"levelo://app?vid=4ffc280c-a929-4951-b0a7-b03e1a7178ef","ios":"levelo://app?vid=4ffc280c-a929-4951-b0a7-b03e1a7178ef"},"vehicle_type_id":"4","last_reported":1768839419,"current_range_meters":9600,"station_id":"ce4bh192rcd13ifvqdc0","pricing_plan_id":"cebpf4jnsgd1na2vs0mg"},{"bike_id":"06e87140-a360-4fca-8dc9-084a14760456","system_id":"levelo_inurba_marseille","lat":43.30266,"lon":5.43429,"is_reserved":false,"is_disabled":false,"rental_uris":{"android":"levelo://app?vid=06e87140-a360-4fca-8dc9-084a14760456","ios":"levelo://app?vid=06e87140-a360-4fca-8dc9-084a14760456"},"vehicle_type_id":"4","last_reported":1768839419,"current_range_meters":9600,"station_id":"","pricing_plan_id":"cebpf4jnsgd1na2vs0mg"},{"bike_id":"af222631-1971-4425-87fb-ab92a26577fa","system_id":"levelo_inurba_marseille","lat":43.26217,"lon":5.40436,"is_reserved":false,"is_disabled":true,"rental_uris":{"android":"levelo://app?vid=af222631-1971-4425-87fb-ab92a26577fa","ios":"levelo://app?vid=af222631-1971-4425-87fb-ab92a26577fa"},"vehicle_type_id":"4","last_reported":1768839419,"current_range_meters":9600,"station_id":"ce4bhmh2rcd13ifvqgmg","pricing_plan_id":"cebpf4jnsgd1na2vs0mg"},{"bike_id":"38c0e5ac-1fb3-4495-babe-994d6b3f776a","system_id":"levelo_inurba_marseille","lat":43.3317,"lon":5.37682,"is_reserved":false,"is_disabled":false,"rental_uris":{"android":"levelo://app?vid=38c0e5ac-1fb3-4495-babe-994d6b3f776a","ios":"levelo://app?vid=38c0e5ac-1fb3-4495-babe-994d6b3f776a"},"vehicle_type_id":"4","last_reported":1768839419,"current_range_meters":9600,"station_id":"st_d46cu089ee8s73dldbu0","pricing_plan_id":"cebpf4jnsgd1na2vs0mg"},{"bike_id":"4aed1bd7-f989-4075-931c-a9f5133795a4","system_id":"levelo_inurba_marseille","lat":43.30337,"lon":5.36919,"is_reserved":false,"is_disabled":false,"rental_uris":{"android":"levelo://app?vid=4aed1bd7-f989-4075-931c-a9f5133795a4","ios":"levelo://app?vid=4aed1bd7-f989-4075-931c-a9f5133795a4"},"vehicle_type_id":"4","last_reported":1768839419,"current_range_meters":9600,"station_id":"ce4bgqh2rcd13ifvqc5g","pricing_plan_id":"cebpf4jnsgd1na2vs0mg"},{"bike_id":"001c412e-2e05-4692-a1b0-e917d30d7cb4","system_id":"levelo_inurba_marseille","lat":43.32347,"lon":5.36753,"is_reserved":false,"is_disabled":false,"rental_uris":{"android":"levelo://app?vid=001c412e-2e05-4692-a1b0-e917d30d7cb4","ios":"levelo://app?vid=001c412e-2e05-4692-a1b0-e917d30d7cb4"},"vehicle_type_id":"4","last_reported":1768839419,"current_range_meters":9600,"station_id":"ce4bhsh2rcd13ifvqi2g","pricing_plan_id":"cebpf4jnsgd1na2vs0mg"},{"bike_id":"86bcbb50-e95c-4d08-bd20-5cbf82230b4c","system_id":"levelo_inurba_marseille","lat":43.29252,"lon":5.409,"is_reserved":false,"is_disabled":false,"rental_uris":{"android":"levelo://app?vid=86bcbb50-e95c-4d08-bd20-5cbf82230b4c","ios":"levelo://app?vid=86bcbb50-e95c-4d08-bd20-5cbf82230b4c"},"vehicle_type_id":"4","last_reported":1768839419,"current_range_meters":9600,"station_id":"ce4bh192rcd13ifvqdc0","pricing_plan_id":"cebpf4jnsgd1na2vs0mg"},{"bike_id":"d794b8be-0e08-44c9-bb04-f8f3b224cbbb","system_id":"levelo_inurba_marseille","lat":43.3028,"lon":5.36852,"is_reserved":false,"is_disabled":false,"rental_uris":{"android":"levelo://app?vid=d794b8be-0e08-44c9-bb04-f8f3b224cbbb","ios":"levelo://app?vid=d794b8be-0e08-44c9-bb04-f8f3b224cbbb"},"vehicle_type_id":"4","last_reported":1768839419,"current_range_meters":9600,"station_id":"ce4bgqh2rcd13ifvqc5g","pricing_plan_id":"cebpf4jnsgd1na2vs0mg"},{"bike_id":"54ec988b-fad8-4ac3-bcc9-3a51bbee7297","system_id":"levelo_inurba_marseille","lat":43.26485,"lon":5.39549,"is_reserved":false,"is_disabled":false,"rental_uris":{"android":"levelo://app?vid=54ec988b-fad8-4ac3-bcc9-3a51bbee7297","ios":"levelo://app?vid=54ec988b-fad8-4ac3-bcc9-3a51bbee7297"},"vehicle_type_id":"4","last_reported":1768839419,"current_range_meters":9600,"station_id":"ce4bhi12rcd13ifvqfq0","pricing_plan_id":"cebpf4jnsgd1na2vs0mg"},{"bike_id":"b79cf36e-4e03-4422-9782-600682148e13","system_id":"levelo_inurba_marseille","lat":43.31068,"lon":5.37128,"is_reserved":false,"is_disabled":false,"rental_uris":{"android":"levelo://app?vid=b79cf36e-4e03-4422-9782-600682148e13","ios":"levelo://app?vid=b79cf36e-4e03-4422-9782-600682148e13"},"vehicle_type_id":"4","last_reported":1768839419,"current_range_meters":9600,"station_id":"st_d4kl2rp97mjs73e7tdfg","pricing_plan_id":"cebpf4jnsgd1na2vs0mg"},{"bike_id":"8511dc19-5b67-49ed-ba62-fa12d381ffc3","system_id":"levelo_inurba_marseille","lat":43.265648,"lon":5.390101,"is_reserved":false,"is_disabled":false,"rental_uris":{"android":"levelo://app?vid=8511dc19-5b67-49ed-ba62-fa12d381ffc3","ios":"levelo://app?vid=8511dc19-5b67-49ed-ba62-fa12d381ffc3"},"vehicle_type_id":"4","last_reported":1768839419,"current_range_meters":9600,"station_id":"","pricing_plan_id":"cebpf4jnsgd1na2vs0mg"},{"bike_id":"7411adbd-865f-470f-bcbd-936cf971ece4","system_id":"levelo_inurba_marseille","lat":43.28572,"lon":5.39488,"is_reserved":false,"is_disabled":false,"rental_uris":{"android":"levelo://app?vid=7411adbd-865f-470f-bcbd-936cf971ece4","ios":"levelo://app?vid=7411adbd-865f-470f-bcbd-936cf971ece4"},"vehicle_type_id":"4","last_reported":1768839419,"current_range_meters":9600,"station_id":"ce4bh292rcd13ifvqdg0","pricing_plan_id":"cebpf4jnsgd1na2vs0mg"},{"bike_id":"1f76fe58-7a9c-4fd2-b3da-19706779579d","system_id":"levelo_inurba_marseille","lat":43.27201,"lon":5.39192,"is_reserved":false,"is_disabled":false,"rental_uris":{"android":"levelo://app?vid=1f76fe58-7a9c-4fd2-b3da-19706779579d","ios":"levelo://app?vid=1f76fe58-7a9c-4fd2-b3da-19706779579d"},"vehicle_type_id":"4","last_reported":1768839419,"current_range_meters":9600,"station_id":"ce4bhhp2rcd13ifvqfm0","pricing_plan_id":"cebpf4jnsgd1na2vs0mg"},{"bike_id":"da378bed-b69a-478e-bc7a-72a89d521129","system_id":"levelo_inurba_marseille","lat":43.292816,"lon":5.4012,"is_reserved":false,"is_disabled":true,"rental_uris":{"android":"levelo://app?vid=da378bed-b69a-478e-bc7a-72a89d521129","ios":"levelo://app?vid=da378bed-b69a-478e-bc7a-72a89d521129"},"vehicle_type_id":"4","last_reported":1768839419,"current_range_meters":9600,"station_id":"ce4bh312rcd13ifvqdk0","pricing_plan_id":"cebpf4jnsgd1na2vs0mg"},{"bike_id":"a1996df2-c3f0-4898-8db8-f0f36a8152ee","system_id":"levelo_inurba_marseille","lat":43.23196,"lon":5.35545,"is_reserved":false,"is_disabled":false,"rental_uris":{"android":"levelo://app?vid=a1996df2-c3f0-4898-8db8-f0f36a8152ee","ios":"levelo://app?vid=a1996df2-c3f0-4898-8db8-f0f36a8152ee"},"vehicle_type_id":"4","last_reported":1768839419,"current_range_meters":10000,"station_id":"ce4bhu92rcd13ifvqi70","pricing_plan_id":"cebpf4jnsgd1na2vs0mg"},{"bike_id":"88a366bb-8fb7-45b3-93b7-d631f0b6bf45","system_id":"levelo_inurba_marseille","lat":43.30554,"lon":5.36544,"is_reserved":false,"is_disabled":true,"rental_uris":{"android":"levelo://app?vid=88a366bb-8fb7-45b3-93b7-d631f0b6bf45","ios":"levelo://app?vid=88a366bb-8fb7-45b3-93b7-d631f0b6bf45"},"vehicle_type_id":"4","last_reported":1768839419,"current_range_meters":10000,"station_id":"ce4bgs12rcd13ifvqcag","pricing_plan_id":"cebpf4jnsgd1na2vs0mg"},{"bike_id":"cde99455-ada5-43f5-b84a-4cd1375de012","system_id":"levelo_inurba_marseille","lat":43.27931,"lon":5.38721,"is_reserved":false,"is_disabled":false,"rental_uris":{"android":"levelo://app?vid=cde99455-ada5-43f5-b84a-4cd1375de012","ios":"levelo://app?vid=cde99455-ada5-43f5-b84a-4cd1375de012"},"vehicle_type_id":"4","last_reported":1768839419,"current_range_meters":10000,"station_id":"ce4bhg12rcd13ifvqf80","pricing_plan_id":"cebpf4jnsgd1na2vs0mg"},{"bike_id":"4c1ce58f-8d82-4f58-9165-964167d5a081","system_id":"levelo_inurba_marseille","lat":43.260694,"lon":5.393998,"is_reserved":false,"is_disabled":false,"rental_uris":{"android":"levelo://app?vid=4c1ce58f-8d82-4f58-9165-964167d5a081","ios":"levelo://app?vid=4c1ce58f-8d82-4f58-9165-964167d5a081"},"vehicle_type_id":"4","last_reported":1768839419,"current_range_meters":10000,"station_id":"ce4bhh92rcd13ifvqfj0","pricing_plan_id":"cebpf4jnsgd1na2vs0mg"},{"bike_id":"0491d08f-7e87-41a1-8c02-020250f22fd3","system_id":"levelo_inurba_marseille","lat":43.28472,"lon":5.48393,"is_reserved":false,"is_disabled":false,"rental_uris":{"android":"levelo://app?vid=0491d08f-7e87-41a1-8c02-020250f22fd3","ios":"levelo://app?vid=0491d08f-7e87-41a1-8c02-020250f22fd3"},"vehicle_type_id":"4","last_reported":1768839419,"current_range_meters":10000,"station_id":"st_d3svhcjqgbts73a3dn0g","pricing_plan_id":"cebpf4jnsgd1na2vs0mg"},