{"last_updated":1770024899,"ttl":60,"version":"2.2","data":{"bikes":[{"bike_id":"ecdd52fd-98df-4ed8-9b9f-16db4fdb1985","system_id":"levelo_inurba_marseille","lat":43.24067,"lon":5.37767,"is_reserved":false,"is_disabled":false,"rental_uris":{"android":"levelo://app?vid=ecdd52fd-98df-4ed8-9b9f-16db4fdb1985","ios":"levelo://app?vid=ecdd52fd-98df-4ed8-9b9f-16db4fdb1985"},"vehicle_type_id":"4","last_reported":1770024900,"current_range_meters":2800,"station_id":"ce4bhnp2rcd13ifvqgvg","pricing_plan_id":"cebpf4jnsgd1na2vs0mg"},{"bike_id":"4b538e95-d67b-4c55-8519-1ec597c2ad3f","system_id":"levelo_inurba_marseille","lat":43.24067,"lon":5.37749,"is_reserved":false,"is_disabled":false,"rental_uris":{"android":"levelo://app?vid=4b538e95-d67b-4c55-8519-1ec597c2ad3f","ios":"levelo://app?vid=4b538e95-d67b-4c55-8519-1ec597c2ad3f"},"vehicle_type_id":"4","last_reported":1770024900,"current_range_meters":2800,"station_id":"ce4bhnp2rcd13ifvqgvg","pricing_plan_id":"cebpf4jnsgd1na2vs0mg"},{"bike_id":"4dd7c8cd-c4fb-4510-a23c-5093a24e05f8","system_id":"levelo_inurba_marseille","lat":43.270001,"lon":5.392161,"is_reserved":false,"is_disabled":false,"rental_uris":{"android":"levelo://app?vid=4dd7c8cd-c4fb-4510-a23c-5093a24e05f8","ios":"levelo://app?vid=4dd7c8cd-c4fb-4510-a23c-5093a24e05f8"},"vehicle_type_id":"4","last_reported":1770024900,"current_range_meters":2800,"station_id":"ce4bhh12rcd13ifvqfg0","pricing_plan_id":"cebpf4jnsgd1na2vs0mg"},{"bike_id":"93e60425-8aae-4f4b-b447-57ef8147db67","system_id":"levelo_inurba_marseille","lat":43.284791,"lon":5.484086,"is_reserved":false,"is_disabled":false,"rental_uris":{"android":"levelo://app?vid=93e60425-8aae-4f4b-b447-57ef8147db67","ios":"levelo://app?vid=93e60425-8aae-4f4b-b447-57ef8147db67"},"vehicle_type_id":"4","last_reported":1770024900,"current_range_meters":2800,"station_id":"","pricing_plan_id":"cebpf4jnsgd1na2vs0mg"},{"bike_id":"464b93a8-0f3c-4e30-aec3-8389c8f75462","system_id":"levelo_inurba_marseille","lat":43.26561,"lon":5.37277,"is_reserved":false,"is_disabled":false,"rental_uris":{"android":"levelo://app?vid=464b93a8-0f3c-4e30-aec3-8389c8f75462","ios":"levelo://app?vid=464b93a8-0f3c-4e30-aec3-8389c8f75462"},"vehicle_type_id":"4","last_reported":1770024900,"current_range_meters":2800,"station_id":"ce4bhg12rcd13ifvqf70","pricing_plan_id":"cebpf4jnsgd1na2vs0mg"},{"bike_id":"847173ba-8a70-446b-a882-864c1eea0020","system_id":"levelo_inurba_marseille","lat":43.24071,"lon":5.37752,"is_reserved":false,"is_disabled":false,"rental_uris":{"android":"levelo://app?vid=847173ba-8a70-446b-a882-864c1eea0020","ios":"levelo://app?vid=847173ba-8a70-446b-a882-864c1eea0020"},"vehicle_type_id":"4","last_reported":1770024900,"current_range_meters":2800,"station_id":"ce4bhnp2rcd13ifvqgvg","pricing_plan_id":"cebpf4jnsgd1na2vs0mg"},{"bike_id":"957bcc64-89c0-4333-b8ed-9b438b7b5214","system_id":"levelo_inurba_marseille","lat":43.26549,"lon":5.3729,"is_reserved":false,"is_disabled":false,"rental_uris":{"android":"levelo://app?vid=957bcc64-89c0-4333-b8ed-9b438b7b5214","ios":"levelo://app?vid=957bcc64-89c0-4333-b8ed-9b438b7b5214"},"vehicle_type_id":"4","last_reported":1770024900,"current_range_meters":2800,"station_id":"ce4bhg12rcd13ifvqf70","pricing_plan_id":"cebpf4jnsgd1na2vs0mg"},{"bike_id":"c8ff2f07-ecbf-494b-9bb5-d55830c1e30a","system_id":"levelo_inurba_marseille","lat":43.25502,"lon":5.37678,"is_reserved":false,"is_disabled":false,"rental_uris":{"android":"levelo://app?vid=c8ff2f07-ecbf-494b-9bb5-d55830c1e30a","ios":"levelo://app?vid=c8ff2f07-ecbf-494b-9bb5-d55830c1e30a"},"vehicle_type_id":"4","last_reported":1770024900,"current_range_meters":2800,"station_id":"ce4bhh12rcd13ifvqff0","pricing_plan_id":"cebpf4jnsgd1na2vs0mg"},{"bike_id":"d662b595-dd41-41dc-9b26-69350593db92","system_id":"levelo_inurba_marseille","lat":43.29745,"lon":5.4278,"is_reserved":false,"is_disabled":false,"rental_uris":{"android":"levelo://app?vid=d662b595-dd41-41dc-9b26-69350593db92","ios":"levelo://app?vid=d662b595-dd41-41dc-9b26-69350593db92"},"vehicle_type_id":"4","last_reported":1770024900,"current_range_meters":2800,"station_id":"st_d3md5207bmas73dh9klg","pricing_plan_id":"cebpf4jnsgd1na2vs0mg"},{"bike_id":"c16bbffc-3f7b-4299-aa6c-4c3611fa54d9","system_id":"levelo_inurba_marseille","lat":43.28439,"lon":5.39086,"is_reserved":false,"is_disabled":true,"rental_uris":{"android":"levelo://app?vid=c16bbffc-3f7b-4299-aa6c-4c3611fa54d9","ios":"levelo://app?vid=c16bbffc-3f7b-4299-aa6c-4c3611fa54d9"},"vehicle_type_id":"4","last_reported":1770024900,"current_range_meters":3200,"station_id":"","pricing_plan_id":"cebpf4jnsgd1na2vs0mg"},{"bike_id":"d2a8c5fa-0c36-41dd-8f7a-8a7d34ee666f","system_id":"levelo_inurba_marseille","lat":43.255798,"lon":5.382218,"is_reserved":false,"is_disabled":false,"rental_uris":{"android":"levelo://app?vid=d2a8c5fa-0c36-41dd-8f7a-8a7d34ee666f","ios":"levelo://app?vid=d2a8c5fa-0c36-41dd-8f7a-8a7d34ee666f"},"vehicle_type_id":"4","last_reported":1770024900,"current_range_meters":3200,"station_id":"ce4bhih2rcd13ifvqfs0","pricing_plan_id":"cebpf4jnsgd1na2vs0mg"},{"bike_id":"3dd56d9c-28cc-45da-921a-72e38044e4e4","system_id":"levelo_inurba_marseille","lat":43.30635,"lon":5.40086,"is_reserved":false,"is_disabled":false,"rental_uris":{"android":"levelo://app?vid=3dd56d9c-28cc-45da-921a-72e38044e4e4","ios":"levelo://app?vid=3dd56d9c-28cc-45da-921a-72e38044e4e4"},"vehicle_type_id":"4","last_reported":1770024900,"current_range_meters":3200,"station_id":"ce4bh112rcd13ifvqda0","pricing_plan_id":"cebpf4jnsgd1na2vs0mg"},{"bike_id":"7974b1b2-000f-4cf2-b1f2-c280cc324e92","system_id":"levelo_inurba_marseille","lat":43.26492,"lon":5.39556,"is_reserved":false,"is_disabled":true,"rental_uris":{"android":"levelo://app?vid=7974b1b2-000f-4cf2-b1f2-c280cc324e92","ios":"levelo://app?vid=7974b1b2-000f-4cf2-b1f2-c280cc324e92"},"vehicle_type_id":"4","last_reported":1770024900,"current_range_meters":3200,"station_id":"ce4bhi12rcd13ifvqfq0","pricing_plan_id":"cebpf4jnsgd1na2vs0mg"},{"bike_id":"26bd2557-3046-4212-82fc-da1fdbd42b2c","system_id":"levelo_inurba_marseille","lat":43.28539,"lon":5.44092,"is_reserved":false,"is_disabled":false,"rental_uris":{"android":"levelo://app?vid=26bd2557-3046-4212-82fc-da1fdbd42b2c","ios":"levelo://app?vid=26bd2557-3046-4212-82fc-da1fdbd42b2c"},"vehicle_type_id":"4","last_reported":1770024900,"current_range_meters":3200,"station_id":"st_d3j3df2ikq2c7380ej80","pricing_plan_id":"cebpf4jnsgd1na2vs0mg"},{"bike_id":"f8a0ae1c-a37d-4006-8541-a752d1a3cea9","system_id":"levelo_inurba_marseille","lat":43.2965,"lon":5.40105,"is_reserved":false,"is_disabled":false,"rental_uris":{"android":"levelo://app?vid=f8a0ae1c-a37d-4006-8541-a752d1a3cea9","ios":"levelo://app?vid=f8a0ae1c-a37d-4006-8541-a752d1a3cea9"},"vehicle_type_id":"4","last_reported":1770024900,"current_range_meters":3200,"station_id":"","pricing_plan_id":"cebpf4jnsgd1na2vs0mg"},{"bike_id":"c144db75-457a-4b4f-bf92-fbe470e461d2","system_id":"levelo_inurba_marseille","lat":43.28706,"lon":5.36103,"is_reserved":false,"is_disabled":false,"rental_uris":{"android":"levelo://app?vid=c144db75-457a-4b4f-bf92-fbe470e461d2","ios":"levelo://app?vid=c144db75-457a-4b4f-bf92-fbe470e461d2"},"vehicle_type_id":"4","last_reported":1770024900,"current_range_meters":3200,"station_id":"cki0cbj6b192h4jlfktg","pricing_plan_id":"cebpf4jnsgd1na2vs0mg"},{"bike_id":"0b331fa1-be61-4ee4-8f48-817f3b90db42","system_id":"levelo_inurba_marseille","lat":43.28689,"lon":5.35546,"is_reserved":false,"is_disabled":false,"rental_uris":{"android":"levelo://app?vid=0b331fa1-be61-4ee4-8f48-817f3b90db42","ios":"levelo://app?vid=0b331fa1-be61-4ee4-8f48-817f3b90db42"},"vehicle_type_id":"4","last_reported":1770024900,"current_range_meters":3200,"station_id":"","pricing_plan_id":"cebpf4jnsgd1na2vs0mg"},{"bike_id":"f272140a-ba8c-41f4-b937-d299664fe4de","system_id":"levelo_inurba_marseille","lat":43.24078,"lon":5.37732,"is_reserved":false,"is_disabled":false,"rental_uris":{"android":"levelo://app?vid=f272140a-ba8c-41f4-b937-d299664fe4de","ios":"levelo://app?vid=f272140a-ba8c-41f4-b937-d299664fe4de"},"vehicle_type_id":"4","last_reported":1770024900,"current_range_meters":3200,"station_id":"ce4bhnp2rcd13ifvqgvg","pricing_plan_id":"cebpf4jnsgd1na2vs0mg"},{"bike_id":"9d38806d-560b-458b-9b58-a407dcc1c3a4","system_id":"levelo_inurba_marseille","lat":43.23148,"lon":5.43712,"is_reserved":false,"is_disabled":false,"rental_uris":{"android":"levelo://app?vid=9d38806d-560b-458b-9b58-a407dcc1c3a4","ios":"levelo://app?vid=9d38806d-560b-458b-9b58-a407dcc1c3a4"},"vehicle_type_id":"4","last_reported":1770024900,"current_range_meters":3200,"station_id":"ce4bhmp2rcd13ifvqgog","pricing_plan_id":"cebpf4jnsgd1na2vs0mg"},{"bike_id":"e8fa66cc-805c-4ac6-8036-6b85aaeb4d1e","system_id":"levelo_inurba_marseille","lat":43.29858,"lon":5.37602,"is_reserved":false,"is_disabled":false,"rental_uris":{"android":"levelo://app?vid=e8fa66cc-805c-4ac6-8036-6b85aaeb4d1e","ios":"levelo://app?vid=e8fa66cc-805c-4ac6-8036-6b85aaeb4d1e"},"vehicle_type_id":"4","last_reported":1770024900,"current_range_meters":3200,"station_id":"","pricing_plan_id":"cebpf4jnsgd1na2vs0mg"},{"bike_id":"3f016251-f617-46a2-8e71-d5c73095e4c4","system_id":"levelo_inurba_marseille","lat":43.29,"lon":5.35618,"is_reserved":false,"is_disabled":true,"rental_uris":{"android":"levelo://app?vid=3f016251-f617-46a2-8e71-d5c73095e4c4","ios":"levelo://app?vid=3f016251-f617-46a2-8e71-d5c73095e4c4"},"vehicle_type_id":"4","last_reported":1770024900,"current_range_meters":3600,"station_id":"ce4bhb92rcd13ifvqen0","pricing_plan_id":"cebpf4jnsgd1na2vs0mg"},{"bike_id":"6f8455de-cdcb-4115-8f9f-1a1c57d7cc8a","system_id":"levelo_inurba_marseille","lat":43.2499,"lon":5.38943,"is_reserved":false,"is_disabled":false,"rental_uris":{"android":"levelo://app?vid=6f8455de-cdcb-4115-8f9f-1a1c57d7cc8a","ios":"levelo://app?vid=6f8455de-cdcb-4115-8f9f-1a1c57d7cc8a"},"vehicle_type_id":"4","last_reported":1770024900,"current_range_meters":3600,"station_id":"ce4bhgp2rcd13ifvqfd0","pricing_plan_id":"cebpf4jnsgd1na2vs0mg"},{"bike_id":"dc68db14-c906-4c81-af24-38ade0c0fe18","system_id":"levelo_inurba_marseille","lat":43.22558,"lon":5.41631,"is_reserved":false,"is_disabled":false,"rental_uris":{"android":"levelo://app?vid=dc68db14-c906-4c81-af24-38ade0c0fe18","ios":"levelo://app?vid=dc68db14-c906-4c81-af24-38ade0c0fe18"},"vehicle_type_id":"4","last_reported":1770024900,"current_range_meters":3600,"station_id":"st_d2o4gvlbi1j2169b742g","pricing_plan_id":"cebpf4jnsgd1na2vs0mg"},{"bike_id":"774c22c7-f16c-47df-a738-39192bab6699","system_id":"levelo_inurba_marseille","lat":43.27615,"lon":5.36103,"is_reserved":false,"is_disabled":false,"rental_uris":{"android":"levelo://app?vid=774c22c7-f16c-47df-a738-39192bab6699","ios":"levelo://app?vid=774c22c7-f16c-47df-a738-39192bab6699"},"vehicle_type_id":"4","last_reported":1770024900,"current_range_meters":3600,"station_id":"ce4bgj92rcd13ifvqbe0","pricing_plan_id":"cebpf4jnsgd1na2vs0mg"},{"bike_id":"b00753f6-9e43-40ef-9959-628446071746","system_id":"levelo_inurba_marseille","lat":43.27833,"lon":5.40722,"is_reserved":false,"is_disabled":true,"rental_uris":{"android":"levelo://app?vid=b00753f6-9e43-40ef-9959-628446071746","ios":"levelo://app?vid=b00753f6-9e43-40ef-9959-628446071746"},"vehicle_type_id":"4","last_reported":1770024900,"current_range_meters":3600,"station_id":"ce4bhnh2rcd13ifvqgtg","pricing_plan_id":"cebpf4jnsgd1na2vs0mg"},{"bike_id":"767dc731-f365-45e9-b7a0-0144ed9ff9a5","system_id":"levelo_inurba_marseille","lat":43.31168,"lon":5.36826,"is_reserved":false,"is_disabled":false,"rental_uris":{"android":"levelo://app?vid=767dc731-f365-45e9-b7a0-0144ed9ff9a5","ios":"levelo://app?vid=767dc731-f365-45e9-b7a0-0144ed9ff9a5"},"vehicle_type_id":"4","last_reported":1770024900,"current_range_meters":3600,"station_id":"","pricing_plan_id":"cebpf4jnsgd1na2vs0mg"},{"bike_id":"74ac2feb-a7ae-41ed-97e6-16a7d353da55","system_id":"levelo_inurba_marseille","lat":43.24813,"lon":5.37464,"is_reserved":false,"is_disabled":true,"rental_uris":{"android":"levelo://app?vid=74ac2feb-a7ae-41ed-97e6-16a7d353da55","ios":"levelo://app?vid=74ac2feb-a7ae-41ed-97e6-16a7d353da55"},"vehicle_type_id":"4","last_reported":1770024900,"current_range_meters":3600,"station_id":"ce4bhgh2rcd13ifvqfb0","pricing_plan_id":"cebpf4jnsgd1na2vs0mg"},{"bike_id":"1a60da73-6d1e-462b-ba57-6d88145eee7a","system_id":"levelo_inurba_marseille","lat":43.30465,"lon":5.37902,"is_reserved":false,"is_disabled":false,"rental_uris":{"android":"levelo://app?vid=1a60da73-6d1e-462b-ba57-6d88145eee7a","ios":"levelo://app?vid=1a60da73-6d1e-462b-ba57-6d88145eee7a"},"vehicle_type_id":"4","last_reported":1770024900,"current_range_meters":3600,"station_id":"ce4bgup2rcd13ifvqcn0","pricing_plan_id":"cebpf4jnsgd1na2vs0mg"},{"bike_id":"1b30bfe9-20ea-4eef-baed-4f0a967547e2","system_id":"levelo_inurba_marseille","lat":43.302133,"lon":5.394697,"is_reserved":false,"is_disabled":false,"rental_uris":{"android":"levelo://app?vid=1b30bfe9-20ea-4eef-baed-4f0a967547e2","ios":"levelo://app?vid=1b30bfe9-20ea-4eef-baed-4f0a967547e2"},"vehicle_type_id":"4","last_reported":1770024900,"current_range_meters":3600,"station_id":"ce4bh0p2rcd13ifvqd70","pricing_plan_id":"cebpf4jnsgd1na2vs0mg"},{"bike_id":"e5b9c854-52bd-4571-9d09-3836aec2957e","system_id":"levelo_inurba_marseille","lat":43.24154,"lon":5.36418,"is_reserved":false,"is_disabled":false,"rental_uris":{"android":"levelo://app?vid=e5b9c854-52bd-4571-9d09-3836aec2957e","ios":"levelo://app?vid=e5b9c854-52bd-4571-9d09-3836aec2957e"},"vehicle_type_id":"4","last_reported":1770024900,"current_range_meters":3600,"station_id":"cpo36qri1sfpv3e86is0","pricing_plan_id":"cebpf4jnsgd1na2vs0mg"},{"bike_id":"e3e986c3-0db0-40fd-a1a5-f07ce5425792","system_id":"levelo_inurba_marseille","lat":43.27296,"lon":5.39109,"is_reserved":false,"is_disabled":true,"rental_uris":{"android":"levelo://app?vid=e3e986c3-0db0-40fd-a1a5-f07ce5425792","ios":"levelo://app?vid=e3e986c3-0db0-40fd-a1a5-f07ce5425792"},"vehicle_type_id":"4","last_reported":1770024900,"current_range_meters":3600,"station_id":"ce4bhgp2rcd13ifvqfe0","pricing_plan_id":"cebpf4jnsgd1na2vs0mg"},{"bike_id":"419e6abb-0874-44e4-9204-0dace6715096","system_id":"levelo_inurba_marseille","lat":43.33585,"lon":5.41025,"is_reserved":false,"is_disabled":false,"rental_uris":{"android":"levelo://app?vid=419e6abb-0874-44e4-9204-0dace6715096","ios":"levelo://app?vid=419e6abb-0874-44e4-9204-0dace6715096"},"vehicle_type_id":"4","last_reported":1770024900,"current_range_meters":4000,"station_id":"ce4bhqh2rcd13ifvqhmg","pricing_plan_id":"cebpf4jnsgd1na2vs0mg"},{"bike_id":"55821144-4cea-4c88-a4ef-ac2c18f1fa0e","system_id":"levelo_inurba_marseille","lat":43.24085,"lon":5.37772,"is_reserved":false,"is_disabled":false,"rental_uris":{"android":"levelo://app?vid=55821144-4cea-4c88-a4ef-ac2c18f1fa0e","ios":"levelo://app?vid=55821144-4cea-4c88-a4ef-ac2c18f1fa0e"},"vehicle_type_id":"4","last_reported":1770024900,"current_range_meters":4000,"station_id":"ce4bhnp2rcd13ifvqgvg","pricing_plan_id":"cebpf4jnsgd1na2vs0mg"},{"bike_id":"1c1f8539-b1ae-43f7-94e2-f9ba91100b64","system_id":"levelo_inurba_marseille","lat":43.31767,"lon":5.37705,"is_reserved":false,"is_disabled":false,"rental_uris":{"android":"levelo://app?vid=1c1f8539-b1ae-43f7-94e2-f9ba91100b64","ios":"levelo://app?vid=1c1f8539-b1ae-43f7-94e2-f9ba91100b64"},"vehicle_type_id":"4","last_reported":1770024900,"current_range_meters":4000,"station_id":"","pricing_plan_id":"cebpf4jnsgd1na2vs0mg"},{"bike_id":"dc2c97f4-77e9-469e-b7f4-cfdc7db4a37e","system_id":"levelo_inurba_marseille","lat":43.25496,"lon":5.37673,"is_reserved":false,"is_disabled":false,"rental_uris":{"android":"levelo://app?vid=dc2c97f4-77e9-469e-b7f4-cfdc7db4a37e","ios":"levelo://app?vid=dc2c97f4-77e9-469e-b7f4-cfdc7db4a37e"},"vehicle_type_id":"4","last_reported":1770024900,"current_range_meters":4000,"station_id":"ce4bhh12rcd13ifvqff0","pricing_plan_id":"cebpf4jnsgd1na2vs0mg"},{"bike_id":"d02a39b5-b9e6-42c0-89cf-ec41b03ef41c","system_id":"levelo_inurba_marseille","lat":43.27368,"lon":5.36274,"is_reserved":false,"is_disabled":false,"rental_uris":{"android":"levelo://app?vid=d02a39b5-b9e6-42c0-89cf-ec41b03ef41c","ios":"levelo://app?vid=d02a39b5-b9e6-42c0-89cf-ec41b03ef41c"},"vehicle_type_id":"4","last_reported":1770024900,"current_range_meters":4000,"station_id":"ce4bhbh2rcd13ifvqeo0","pricing_plan_id":"cebpf4jnsgd1na2vs0mg"},{"bike_id":"83b0c6a2-5e64-44ff-82ae-2e65241f9e96","system_id":"levelo_inurba_marseille","lat":43.24077,"lon":5.3776,"is_reserved":false,"is_disabled":false,"rental_uris":{"android":"levelo://app?vid=83b0c6a2-5e64-44ff-82ae-2e65241f9e96","ios":"levelo://app?vid=83b0c6a2-5e64-44ff-82ae-2e65241f9e96"},"vehicle_type_id":"4","last_reported":1770024900,"current_range_meters":4000,"station_id":"ce4bhnp2rcd13ifvqgvg","pricing_plan_id":"cebpf4jnsgd1na2vs0mg"},{"bike_id":"ae41425b-da34-4009-9433-dcdf7092a3d7","system_id":"levelo_inurba_marseille","lat":43.30311,"lon":5.37736,"is_reserved":false,"is_disabled":false,"rental_uris":{"android":"levelo://app?vid=ae41425b-da34-4009-9433-dcdf7092a3d7","ios":"levelo://app?vid=ae41425b-da34-4009-9433-dcdf7092a3d7"},"vehicle_type_id":"4","last_reported":1770024900,"current_range_meters":4000,"station_id":"ce4bguh2rcd13ifvqcj0","pricing_plan_id":"cebpf4jnsgd1na2vs0mg"},{"bike_id":"efc90966-4a96-483e-8db1-1b5d593938eb","system_id":"levelo_inurba_marseille","lat":43.31241,"lon":5.36776,"is_reserved":false,"is_disabled":false,"rental_uris":{"android":"levelo://app?vid=efc90966-4a96-483e-8db1-1b5d593938eb","ios":"levelo://app?vid=efc90966-4a96-483e-8db1-1b5d593938eb"},"vehicle_type_id":"4","last_reported":1770024900,"current_range_meters":4000,"station_id":"","pricing_plan_id":"cebpf4jnsgd1na2vs0mg"},{"bike_id":"54e0ff64-435b-46c4-97df-663dd90037bc","system_id":"levelo_inurba_marseille","lat":43.24084,"lon":5.37748,"is_reserved":false,"is_disabled":false,"rental_uris":{"android":"levelo://app?vid=54e0ff64-435b-46c4-97df-663dd90037bc","ios":"levelo://app?vid=54e0ff64-435b-46c4-97df-663dd90037bc"},"vehicle_type_id":"4","last_reported":1770024900,"current_range_meters":4000,"station_id":"ce4bhnp2rcd13ifvqgvg","pricing_plan_id":"cebpf4jnsgd1na2vs0mg"},{"bike_id":"669cbfea-a557-4cea-af48-034865d30cc0","system_id":"levelo_inurba_marseille","lat":43.23174,"lon":5.39961,"is_reserved":false,"is_disabled":true,"rental_uris":{"android":"levelo://app?vid=669cbfea-a557-4cea-af48-034865d30cc0","ios":"levelo://app?vid=669cbfea-a557-4cea-af48-034865d30cc0"},"vehicle_type_id":"4","last_reported":1770024900,"current_range_meters":4000,"station_id":"","pricing_plan_id":"cebpf4jnsgd1na2vs0mg"},{"bike_id":"08c04026-029c-49a2-b697-ec4c70ee4946","system_id":"levelo_inurba_marseille","lat":43.26207,"lon":5.37916,"is_reserved":false,"is_disabled":false,"rental_uris":{"android":"levelo://app?vid=08c04026-029c-49a2-b697-ec4c70ee4946","ios":"levelo://app?vid=08c04026-029c-49a2-b697-ec4c70ee4946"},"vehicle_type_id":"4","last_reported":1770024900,"current_range_meters":4000,"station_id":"ce4bhjp2rcd13ifvqg90","pricing_plan_id":"cebpf4jnsgd1na2vs0mg"},{"bike_id":"5b4c0c7a-c0c9-4273-96c2-faded5f9cc26","system_id":"levelo_inurba_marseille","lat":43.27918,"lon":5.41053,"is_reserved":false,"is_disabled":false,"rental_uris":{"android":"levelo://app?vid=5b4c0c7a-c0c9-4273-96c2-faded5f9cc26","ios":"levelo://app?vid=5b4c0c7a-c0c9-4273-96c2-faded5f9cc26"},"vehicle_type_id":"4","last_reported":1770024900,"current_range_meters":4400,"station_id":"ce4bhnp2rcd13ifvqh0g","pricing_plan_id":"cebpf4jnsgd1na2vs0mg"},{"bike_id":"de80b79a-cef0-4e30-9ffa-41f22a773c78","system_id":"levelo_inurba_marseille","lat":43.29054,"lon":5.3759,"is_reserved":false,"is_disabled":false,"rental_uris":{"android":"levelo://app?vid=de80b79a-cef0-4e30-9ffa-41f22a773c78","ios":"levelo://app?vid=de80b79a-cef0-4e30-9ffa-41f22a773c78"},"vehicle_type_id":"4","last_reported":1770024900,"current_range_meters":4400,"station_id":"ce4bh692rcd13ifvqe90","pricing_plan_id":"cebpf4jnsgd1na2vs0mg"},{"bike_id":"09e8f712-2d3f-42c3-8273-19bbaf32447d","system_id":"levelo_inurba_marseille","lat":43.26564,"lon":5.40324,"is_reserved":false,"is_disabled":true,"rental_uris":{"android":"levelo://app?vid=09e8f712-2d3f-42c3-8273-19bbaf32447d","ios":"levelo://app?vid=09e8f712-2d3f-42c3-8273-19bbaf32447d"},"vehicle_type_id":"4","last_reported":1770024900,"current_range_meters":4400,"station_id":"ce4bhmp2rcd13ifvqgng","pricing_plan_id":"cebpf4jnsgd1na2vs0mg"},{"bike_id":"c9f48c9b-8a34-442c-b519-55185a953e4a","system_id":"levelo_inurba_marseille","lat":43.2903,"lon":5.37531,"is_reserved":false,"is_disabled":false,"rental_uris":{"android":"levelo://app?vid=c9f48c9b-8a34-442c-b519-55185a953e4a","ios":"levelo://app?vid=c9f48c9b-8a34-442c-b519-55185a953e4a"},"vehicle_type_id":"4","last_reported":1770024900,"current_range_meters":4400,"station_id":"ce4bh692rcd13ifvqe90","pricing_plan_id":"cebpf4jnsgd1na2vs0mg"},{"bike_id":"e1d85e8f-816e-43e5-832f-fa3bb6c7d9fd","system_id":"levelo_inurba_marseille","lat":43.29807,"lon":5.44103,"is_reserved":false,"is_disabled":false,"rental_uris":{"android":"levelo://app?vid=e1d85e8f-816e-43e5-832f-fa3bb6c7d9fd","ios":"levelo://app?vid=e1d85e8f-816e-43e5-832f-fa3bb6c7d9fd"},"vehicle_type_id":"4","last_reported":1770024900,"current_range_meters":4400,"station_id":"","pricing_plan_id":"cebpf4jnsgd1na2vs0mg"},{"bike_id":"1382f623-0261-429d-8a1d-8dba8ed96a7a","system_id":"levelo_inurba_marseille","lat":43.23154,"lon":5.43722,"is_reserved":false,"is_disabled":false,"rental_uris":{"android":"levelo://app?vid=1382f623-0261-429d-8a1d-8dba8ed96a7a","ios":"levelo://app?vid=1382f623-0261-429d-8a1d-8dba8ed96a7a"},"vehicle_type_id":"4","last_reported":1770024900,"current_range_meters":4400,"station_id":"ce4bhmp2rcd13ifvqgog","pricing_plan_id":"cebpf4jnsgd1na2vs0mg"},{"bike_id":"e1b9d24f-2421-486f-a00c-01e9adfdba49","system_id":"levelo_inurba_marseille","lat":43.23188,"lon":5.39991,"is_reserved":false,"is_disabled":false,"rental_uris":{"android":"levelo://app?vid=e1b9d24f-2421-486f-a00c-01e9adfdba49","ios":"levelo://app?vid=e1b9d24f-2421-486f-a00c-01e9adfdba49"},"vehicle_type_id":"4","last_reported":1770024900,"current_range_meters":4400,"station_id":"ce4bhn12rcd13ifvqgqg","pricing_plan_id":"cebpf4jnsgd1na2vs0mg"},{"bike_id":"282b4c58-6430-4481-adf2-6fc926d2a7c4","system_id":"levelo_inurba_marseille","lat":43.23187,"lon":5.35555,"is_reserved":false,"is_disabled":false,"rental_uris":{"android":"levelo://app?vid=282b4c58-6430-4481-adf2-6fc926d2a7c4","ios":"levelo://app?vid=282b4c58-6430-4481-adf2-6fc926d2a7c4"},"vehicle_type_id":"4","last_reported":1770024900,"current_range_meters":4800,"station_id":"ce4bhu92rcd13ifvqi70","pricing_plan_id":"cebpf4jnsgd1na2vs0mg"},{"bike_id":"edf4a2c8-f86b-4565-b4e9-60bf9c8c713d","system_id":"levelo_inurba_marseille","lat":43.24087,"lon":5.37753,"is_reserved":false,"is_disabled":false,"rental_uris":{"android":"levelo://app?vid=edf4a2c8-f86b-4565-b4e9-60bf9c8c713d","ios":"levelo://app?vid=edf4a2c8-f86b-4565-b4e9-60bf9c8c713d"},"vehicle_type_id":"4","last_reported":1770024900,"current_range_meters":4800,"station_id":"ce4bhnp2rcd13ifvqgvg","pricing_plan_id":"cebpf4jnsgd1na2vs0mg"},{"bike_id":"bafe06f4-691a-42ad-b544-2647048d76df","system_id":"levelo_inurba_marseille","lat":43.23029,"lon":5.35501,"is_reserved":false,"is_disabled":false,"rental_uris":{"android":"levelo://app?vid=bafe06f4-691a-42ad-b544-2647048d76df","ios":"levelo://app?vid=bafe06f4-691a-42ad-b544-2647048d76df"},"vehicle_type_id":"4","last_reported":1770024900,"current_range_meters":4800,"station_id":"cpo3342slgdg3j2ifvpg","pricing_plan_id":"cebpf4jnsgd1na2vs0mg"},{"bike_id":"8791bebb-8e0b-4ff1-9213-d620c7784012","system_id":"levelo_inurba_marseille","lat":43.293119,"lon":5.371707,"is_reserved":false,"is_disabled":false,"rental_uris":{"android":"levelo://app?vid=8791bebb-8e0b-4ff1-9213-d620c7784012","ios":"levelo://app?vid=8791bebb-8e0b-4ff1-9213-d620c7784012"},"vehicle_type_id":"4","last_reported":1770024900,"current_range_meters":4800,"station_id":"ce4bgh92rcd13ifvqb40","pricing_plan_id":"cebpf4jnsgd1na2vs0mg"},{"bike_id":"064b8bc8-52f1-41a1-98a8-692ee47c9995","system_id":"levelo_inurba_marseille","lat":43.21753,"lon":5.34601,"is_reserved":false,"is_disabled":true,"rental_uris":{"android":"levelo://app?vid=064b8bc8-52f1-41a1-98a8-692ee47c9995","ios":"levelo://app?vid=064b8bc8-52f1-41a1-98a8-692ee47c9995"},"vehicle_type_id":"4","last_reported":1770024900,"current_range_meters":4800,"station_id":"st_cvj6r9ubvosntc0bgbag","pricing_plan_id":"cebpf4jnsgd1na2vs0mg"},{"bike_id":"53336c15-c4a9-4afd-ad5c-4a4cebf6f0c1","system_id":"levelo_inurba_marseille","lat":43.24166,"lon":5.36397,"is_reserved":false,"is_disabled":false,"rental_uris":{"android":"levelo://app?vid=53336c15-c4a9-4afd-ad5c-4a4cebf6f0c1","ios":"levelo://app?vid=53336c15-c4a9-4afd-ad5c-4a4cebf6f0c1"},"vehicle_type_id":"4","last_reported":1770024900,"current_range_meters":4800,"station_id":"cpo36qri1sfpv3e86is0","pricing_plan_id":"cebpf4jnsgd1na2vs0mg"},{"bike_id":"55392003-6bce-4df2-a517-2db7a8819d4b","system_id":"levelo_inurba_marseille","lat":43.28342,"lon":5.38109,"is_reserved":false,"is_disabled":false,"rental_uris":{"android":"levelo://app?vid=55392003-6bce-4df2-a517-2db7a8819d4b","ios":"levelo://app?vid=55392003-6bce-4df2-a517-2db7a8819d4b"},"vehicle_type_id":"4","last_reported":1770024900,"current_range_meters":5600,"station_id":"ce4bh412rcd13ifvqdr0","pricing_plan_id":"cebpf4jnsgd1na2vs0mg"},{"bike_id":"0a1300ad-2f14-46b7-8956-d36a4a430b42","system_id":"levelo_inurba_marseille","lat":43.24805,"lon":5.37451,"is_reserved":false,"is_disabled":false,"rental_uris":{"android":"levelo://app?vid=0a1300ad-2f14-46b7-8956-d36a4a430b42","ios":"levelo://app?vid=0a1300ad-2f14-46b7-8956-d36a4a430b42"},"vehicle_type_id":"4","last_reported":1770024900,"current_range_meters":5600,"station_id":"ce4bhgh2rcd13ifvqfb0","pricing_plan_id":"cebpf4jnsgd1na2vs0mg"},{"bike_id":"76f131b9-2576-46ba-8298-c814a5a348ab","system_id":"levelo_inurba_marseille","lat":43.27948,"lon":5.42326,"is_reserved":false,"is_disabled":false,"rental_uris":{"android":"levelo://app?vid=76f131b9-2576-46ba-8298-c814a5a348ab","ios":"levelo://app?vid=76f131b9-2576-46ba-8298-c814a5a348ab"},"vehicle_type_id":"4","last_reported":1770024900,"current_range_meters":5600,"station_id":"","pricing_plan_id":"cebpf4jnsgd1na2vs0mg"},{"bike_id":"d2ee53f1-49b6-44a6-a171-d364ff8162cf","system_id":"levelo_inurba_marseille","lat":43.3336,"lon":5.43139,"is_reserved":false,"is_disabled":false,"rental_uris":{"android":"levelo://app?vid=d2ee53f1-49b6-44a6-a171-d364ff8162cf","ios":"levelo://app?vid=d2ee53f1-49b6-44a6-a171-d364ff8162cf"},"vehicle_type_id":"4","last_reported":1770024900,"current_range_meters":5600,"station_id":"","pricing_plan_id":"cebpf4jnsgd1na2vs0mg"},{"bike_id":"2143853c-60e1-470b-ade6-219310f4f674","system_id":"levelo_inurba_marseille","lat":43.25513,"lon":5.37645,"is_reserved":false,"is_disabled":false,"rental_uris":{"android":"levelo://app?vid=2143853c-60e1-470b-ade6-219310f4f674","ios":"levelo://app?vid=2143853c-60e1-470b-ade6-219310f4f674"},"vehicle_type_id":"4","last_reported":1770024900,"current_range_meters":5600,"station_id":"ce4bhh12rcd13ifvqff0","pricing_plan_id":"cebpf4jnsgd1na2vs0mg"},{"bike_id":"461a2893-efc2-4e09-ab9d-8da8c86d5332","system_id":"levelo_inurba_marseille","lat":43.24986,"lon":5.38961,"is_reserved":false,"is_disabled":false,"rental_uris":{"android":"levelo://app?vid=461a2893-efc2-4e09-ab9d-8da8c86d5332","ios":"levelo://app?vid=461a2893-efc2-4e09-ab9d-8da8c86d5332"},"vehicle_type_id":"4","last_reported":1770024900,"current_range_meters":5600,"station_id":"ce4bhgp2rcd13ifvqfd0","pricing_plan_id":"cebpf4jnsgd1na2vs0mg"},{"bike_id":"fff7e7d9-a5a2-4648-8c64-acd8db891467","system_id":"levelo_inurba_marseille","lat":43.2622,"lon":5.40442,"is_reserved":false,"is_disabled":false,"rental_uris":{"android":"levelo://app?vid=fff7e7d9-a5a2-4648-8c64-acd8db891467","ios":"levelo://app?vid=fff7e7d9-a5a2-4648-8c64-acd8db891467"},"vehicle_type_id":"4","last_reported":1770024900,"current_range_meters":5600,"station_id":"ce4bhmh2rcd13ifvqgmg","pricing_plan_id":"cebpf4jnsgd1na2vs0mg"},{"bike_id":"73d3043d-1347-40e9-ae92-d252d39efff6","system_id":"levelo_inurba_marseille","lat":43.30398,"lon":5.42485,"is_reserved":false,"is_disabled":false,"rental_uris":{"android":"levelo://app?vid=73d3043d-1347-40e9-ae92-d252d39efff6","ios":"levelo://app?vid=73d3043d-1347-40e9-ae92-d252d39efff6"},"vehicle_type_id":"4","last_reported":1770024900,"current_range_meters":5600,"station_id":"ce4bhoh2rcd13ifvqh6g","pricing_plan_id":"cebpf4jnsgd1na2vs0mg"},{"bike_id":"d1da5c85-5393-4ca7-9880-c49b370fa393","system_id":"levelo_inurba_marseille","lat":43.244,"lon":5.37083,"is_reserved":false,"is_disabled":false,"rental_uris":{"android":"levelo://app?vid=d1da5c85-5393-4ca7-9880-c49b370fa393","ios":"levelo://app?vid=d1da5c85-5393-4ca7-9880-c49b370fa393"},"vehicle_type_id":"4","last_reported":1770024900,"current_range_meters":5600,"station_id":"ce4bhhh2rcd13ifvqfk0","pricing_plan_id":"cebpf4jnsgd1na2vs0mg"},{"bike_id":"cec514c3-7ecb-423b-80b5-18639cf7781d","system_id":"levelo_inurba_marseille","lat":43.25637,"lon":5.37656,"is_reserved":false,"is_disabled":false,"rental_uris":{"android":"levelo://app?vid=cec514c3-7ecb-423b-80b5-18639cf7781d","ios":"levelo://app?vid=cec514c3-7ecb-423b-80b5-18639cf7781d"},"vehicle_type_id":"4","last_reported":1770024900,"current_range_meters":5600,"station_id":"","pricing_plan_id":"cebpf4jnsgd1na2vs0mg"},{"bike_id":"0ff0c1dd-0327-4798-84ba-33917f9ad64c","system_id":"levelo_inurba_marseille","lat":43.29933,"lon":5.36532,"is_reserved":false,"is_disabled":false,"rental_uris":{"android":"levelo://app?vid=0ff0c1dd-0327-4798-84ba-33917f9ad64c","ios":"levelo://app?vid=0ff0c1dd-0327-4798-84ba-33917f9ad64c"},"vehicle_type_id":"4","last_reported":1770024900,"current_range_meters":5600,"station_id":"ce4bgm92rcd13ifvqbr0","pricing_plan_id":"cebpf4jnsgd1na2vs0mg"},{"bike_id":"b9a9097f-13d0-49a9-bb46-6f5237ccc9ec","system_id":"levelo_inurba_marseille","lat":43.27364,"lon":5.36233,"is_reserved":false,"is_disabled":false,"rental_uris":{"android":"levelo://app?vid=b9a9097f-13d0-49a9-bb46-6f5237ccc9ec","ios":"levelo://app?vid=b9a9097f-13d0-49a9-bb46-6f5237ccc9ec"},"vehicle_type_id":"4","last_reported":1770024900,"current_range_meters":5600,"station_id":"ce4bhbh2rcd13ifvqeo0","pricing_plan_id":"cebpf4jnsgd1na2vs0mg"},{"bike_id":"53061a28-e296-46d5-9753-c79bfeeeba60","system_id":"levelo_inurba_marseille","lat":43.27205,"lon":5.39187,"is_reserved":false,"is_disabled":false,"rental_uris":{"android":"levelo://app?vid=53061a28-e296-46d5-9753-c79bfeeeba60","ios":"levelo://app?vid=53061a28-e296-46d5-9753-c79bfeeeba60"},"vehicle_type_id":"4","last_reported":1770024900,"current_range_meters":5600,"station_id":"ce4bhhp2rcd13ifvqfm0","pricing_plan_id":"cebpf4jnsgd1na2vs0mg"},{"bike_id":"eae001be-3b34-469f-b5f5-7615da95a4ed","system_id":"levelo_inurba_marseille","lat":43.27813,"lon":5.40714,"is_reserved":false,"is_disabled":false,"rental_uris":{"android":"levelo://app?vid=eae001be-3b34-469f-b5f5-7615da95a4ed","ios":"levelo://app?vid=eae001be-3b34-469f-b5f5-7615da95a4ed"},"vehicle_type_id":"4","last_reported":1770024900,"current_range_meters":6000,"station_id":"ce4bhnh2rcd13ifvqgtg","pricing_plan_id":"cebpf4jnsgd1na2vs0mg"},{"bike_id":"d431d2dc-fe64-4d55-be3e-18b6291747e9","system_id":"levelo_inurba_marseille","lat":43.23058,"lon":5.35479,"is_reserved":false,"is_disabled":false,"rental_uris":{"android":"levelo://app?vid=d431d2dc-fe64-4d55-be3e-18b6291747e9","ios":"levelo://app?vid=d431d2dc-fe64-4d55-be3e-18b6291747e9"},"vehicle_type_id":"4","last_reported":1770024900,"current_range_meters":6000,"station_id":"cpo3342slgdg3j2ifvpg","pricing_plan_id":"cebpf4jnsgd1na2vs0mg"},{"bike_id":"8d19955e-e09c-4b47-a6e3-ae607dbe5088","system_id":"levelo_inurba_marseille","lat":43.2637,"lon":5.37143,"is_reserved":false,"is_disabled":true,"rental_uris":{"android":"levelo://app?vid=8d19955e-e09c-4b47-a6e3-ae607dbe5088","ios":"levelo://app?vid=8d19955e-e09c-4b47-a6e3-ae607dbe5088"},"vehicle_type_id":"4","last_reported":1770024900,"current_range_meters":6000,"station_id":"","pricing_plan_id":"cebpf4jnsgd1na2vs0mg"},{"bike_id":"b6312071-7764-4894-a911-dea7dace47bd","system_id":"levelo_inurba_marseille","lat":43.29532,"lon":5.375,"is_reserved":false,"is_disabled":false,"rental_uris":{"android":"levelo://app?vid=b6312071-7764-4894-a911-dea7dace47bd","ios":"levelo://app?vid=b6312071-7764-4894-a911-dea7dace47bd"},"vehicle_type_id":"4","last_reported":1770024900,"current_range_meters":6000,"station_id":"ce4bgkp2rcd13ifvqbmg","pricing_plan_id":"cebpf4jnsgd1na2vs0mg"},{"bike_id":"2fa2eb19-29f3-43dc-bc2a-1b8f0a907de6","system_id":"levelo_inurba_marseille","lat":43.308913,"lon":5.396607,"is_reserved":false,"is_disabled":false,"rental_uris":{"android":"levelo://app?vid=2fa2eb19-29f3-43dc-bc2a-1b8f0a907de6","ios":"levelo://app?vid=2fa2eb19-29f3-43dc-bc2a-1b8f0a907de6"},"vehicle_type_id":"4","last_reported":1770024900,"current_range_meters":6000,"station_id":"ce4bh012rcd13ifvqcv0","pricing_plan_id":"cebpf4jnsgd1na2vs0mg"},{"bike_id":"680cc17b-e2f7-4815-a75c-dc05bc8d1c3e","system_id":"levelo_inurba_marseille","lat":43.29266,"lon":5.36852,"is_reserved":false,"is_disabled":false,"rental_uris":{"android":"levelo://app?vid=680cc17b-e2f7-4815-a75c-dc05bc8d1c3e","ios":"levelo://app?vid=680cc17b-e2f7-4815-a75c-dc05bc8d1c3e"},"vehicle_type_id":"4","last_reported":1770024900,"current_range_meters":6000,"station_id":"ce4bhbp2rcd13ifvqesg","pricing_plan_id":"cebpf4jnsgd1na2vs0mg"},{"bike_id":"5a46f343-f8c0-4bd7-9859-14e3ca910ba6","system_id":"levelo_inurba_marseille","lat":43.29497,"lon":5.43322,"is_reserved":false,"is_disabled":false,"rental_uris":{"android":"levelo://app?vid=5a46f343-f8c0-4bd7-9859-14e3ca910ba6","ios":"levelo://app?vid=5a46f343-f8c0-4bd7-9859-14e3ca910ba6"},"vehicle_type_id":"4","last_reported":1770024900,"current_range_meters":6000,"station_id":"st_d3j5ugp08ojc73fj9d10","pricing_plan_id":"cebpf4jnsgd1na2vs0mg"},{"bike_id":"76695816-489b-4401-ac2a-0147df0088c5","system_id":"levelo_inurba_marseille","lat":43.30472,"lon":5.37892,"is_reserved":false,"is_disabled":true,"rental_uris":{"android":"levelo://app?vid=76695816-489b-4401-ac2a-0147df0088c5","ios":"levelo://app?vid=76695816-489b-4401-ac2a-0147df0088c5"},"vehicle_type_id":"4","last_reported":1770024900,"current_range_meters":6400,"station_id":"ce4bgup2rcd13ifvqcn0","pricing_plan_id":"cebpf4jnsgd1na2vs0mg"},{"bike_id":"2f272f9d-bafe-4a44-a2e3-105574c73c4b","system_id":"levelo_inurba_marseille","lat":43.24169,"lon":5.3974,"is_reserved":false,"is_disabled":false,"rental_uris":{"android":"levelo://app?vid=2f272f9d-bafe-4a44-a2e3-105574c73c4b","ios":"levelo://app?vid=2f272f9d-bafe-4a44-a2e3-105574c73c4b"},"vehicle_type_id":"4","last_reported":1770024900,"current_range_meters":6400,"station_id":"ce4bhn12rcd13ifvqgpg","pricing_plan_id":"cebpf4jnsgd1na2vs0mg"},{"bike_id":"76d75860-135e-4342-8d60-d738c4449126","system_id":"levelo_inurba_marseille","lat":43.25956,"lon":5.40904,"is_reserved":false,"is_disabled":false,"rental_uris":{"android":"levelo://app?vid=76d75860-135e-4342-8d60-d738c4449126","ios":"levelo://app?vid=76d75860-135e-4342-8d60-d738c4449126"},"vehicle_type_id":"4","last_reported":1770024900,"current_range_meters":6400,"station_id":"ce4bhm92rcd13ifvqglg","pricing_plan_id":"cebpf4jnsgd1na2vs0mg"},{"bike_id":"abcab4db-93bd-4c59-a7f0-0f5d87134d92","system_id":"levelo_inurba_marseille","lat":43.29292,"lon":5.374537,"is_reserved":false,"is_disabled":false,"rental_uris":{"android":"levelo://app?vid=abcab4db-93bd-4c59-a7f0-0f5d87134d92","ios":"levelo://app?vid=abcab4db-93bd-4c59-a7f0-0f5d87134d92"},"vehicle_type_id":"4","last_reported":1770024900,"current_range_meters":6400,"station_id":"ce4bgi12rcd13ifvqb70","pricing_plan_id":"cebpf4jnsgd1na2vs0mg"},{"bike_id":"d64baf67-1a62-4b86-9aae-88e7781f3b30","system_id":"levelo_inurba_marseille","lat":43.231856,"lon":5.399909,"is_reserved":false,"is_disabled":false,"rental_uris":{"android":"levelo://app?vid=d64baf67-1a62-4b86-9aae-88e7781f3b30","ios":"levelo://app?vid=d64baf67-1a62-4b86-9aae-88e7781f3b30"},"vehicle_type_id":"4","last_reported":1770024900,"current_range_meters":6400,"station_id":"ce4bhn12rcd13ifvqgqg","pricing_plan_id":"cebpf4jnsgd1na2vs0mg"},{"bike_id":"4d614b31-2487-459c-80b4-20568895cab0","system_id":"levelo_inurba_marseille","lat":43.24012,"lon":5.37822,"is_reserved":false,"is_disabled":true,"rental_uris":{"android":"levelo://app?vid=4d614b31-2487-459c-80b4-20568895cab0","ios":"levelo://app?vid=4d614b31-2487-459c-80b4-20568895cab0"},"vehicle_type_id":"4","last_reported":1770024900,"current_range_meters":6400,"station_id":"ce4bhnp2rcd13ifvqgvg","pricing_plan_id":"cebpf4jnsgd1na2vs0mg"},{"bike_id":"46a20b62-64ae-4717-b610-6e8bb569cadb","system_id":"levelo_inurba_marseille","lat":43.25853,"lon":5.39931,"is_reserved":false,"is_disabled":false,"rental_uris":{"android":"levelo://app?vid=46a20b62-64ae-4717-b610-6e8bb569cadb","ios":"levelo://app?vid=46a20b62-64ae-4717-b610-6e8bb569cadb"},"vehicle_type_id":"4","last_reported":1770024900,"current_range_meters":6400,"station_id":"ce4bhl92rcd13ifvqghg","pricing_plan_id":"cebpf4jnsgd1na2vs0mg"},{"bike_id":"4c50b102-00aa-40e2-83bd-5e90d2e54b17","system_id":"levelo_inurba_marseille","lat":43.28002,"lon":5.39978,"is_reserved":false,"is_disabled":false,"rental_uris":{"android":"levelo://app?vid=4c50b102-00aa-40e2-83bd-5e90d2e54b17","ios":"levelo://app?vid=4c50b102-00aa-40e2-83bd-5e90d2e54b17"},"vehicle_type_id":"4","last_reported":1770024900,"current_range_meters":6400,"station_id":"ce4bho92rcd13ifvqh4g","pricing_plan_id":"cebpf4jnsgd1na2vs0mg"},{"bike_id":"c9843640-776e-4044-862e-049f5b9f5c80","system_id":"levelo_inurba_marseille","lat":43.3031,"lon":5.36893,"is_reserved":false,"is_disabled":false,"rental_uris":{"android":"levelo://app?vid=c9843640-776e-4044-862e-049f5b9f5c80","ios":"levelo://app?vid=c9843640-776e-4044-862e-049f5b9f5c80"},"vehicle_type_id":"4","last_reported":1770024900,"current_range_meters":6400,"station_id":"ce4bgqh2rcd13ifvqc5g","pricing_plan_id":"cebpf4jnsgd1na2vs0mg"},{"bike_id":"0de0a9c6-8323-42c8-980b-f49235ca4c0b","system_id":"levelo_inurba_marseille","lat":43.29631,"lon":5.37733,"is_reserved":false,"is_disabled":false,"rental_uris":{"android":"levelo://app?vid=0de0a9c6-8323-42c8-980b-f49235ca4c0b","ios":"levelo://app?vid=0de0a9c6-8323-42c8-980b-f49235ca4c0b"},"vehicle_type_id":"4","last_reported":1770024900,"current_range_meters":6400,"station_id":"ce4bgi92rcd13ifvqb90","pricing_plan_id":"cebpf4jnsgd1na2vs0mg"},{"bike_id":"fb770f52-ce98-4cd4-aae7-0a310d77081f","system_id":"levelo_inurba_marseille","lat":43.28869,"lon":5.4251,"is_reserved":false,"is_disabled":true,"rental_uris":{"android":"levelo://app?vid=fb770f52-ce98-4cd4-aae7-0a310d77081f","ios":"levelo://app?vid=fb770f52-ce98-4cd4-aae7-0a310d77081f"},"vehicle_type_id":"4","last_reported":1770024900,"current_range_meters":6400,"station_id":"st_d3b462108ojc7389ooeg","pricing_plan_id":"cebpf4jnsgd1na2vs0mg"},{"bike_id":"52601930-0fee-43f8-b0ba-1785be6d7c5c","system_id":"levelo_inurba_marseille","lat":43.30205,"lon":5.39449,"is_reserved":false,"is_disabled":false,"rental_uris":{"android":"levelo://app?vid=52601930-0fee-43f8-b0ba-1785be6d7c5c","ios":"levelo://app?vid=52601930-0fee-43f8-b0ba-1785be6d7c5c"},"vehicle_type_id":"4","last_reported":1770024900,"current_range_meters":6400,"station_id":"","pricing_plan_id":"cebpf4jnsgd1na2vs0mg"},{"bike_id":"fb4a42e6-4b95-4d29-93ec-2fbab2cfeec3","system_id":"levelo_inurba_marseille","lat":43.30163,"lon":5.38089,"is_reserved":false,"is_disabled":false,"rental_uris":{"android":"levelo://app?vid=fb4a42e6-4b95-4d29-93ec-2fbab2cfeec3","ios":"levelo://app?vid=fb4a42e6-4b95-4d29-93ec-2fbab2cfeec3"},"vehicle_type_id":"4","last_reported":1770024900,"current_range_meters":6400,"station_id":"ce4bgjp2rcd13ifvqbh0","pricing_plan_id":"cebpf4jnsgd1na2vs0mg"},{"bike_id":"48defe86-fd01-4bdf-bb58-0b96240d5da2","system_id":"levelo_inurba_marseille","lat":43.28484,"lon":5.48373,"is_reserved":false,"is_disabled":false,"rental_uris":{"android":"levelo://app?vid=48defe86-fd01-4bdf-bb58-0b96240d5da2","ios":"levelo://app?vid=48defe86-fd01-4bdf-bb58-0b96240d5da2"},"vehicle_type_id":"4","last_reported":1770024900,"current_range_meters":6400,"station_id":"st_d3svhcjqgbts73a3dn0g","pricing_plan_id":"cebpf4jnsgd1na2vs0mg"},{"bike_id":"94cbe5a1-172e-4cc9-bb27-f3369919b100","system_id":"levelo_inurba_marseille","lat":43.24062,"lon":5.37721,"is_reserved":false,"is_disabled":false,"rental_uris":{"android":"levelo://app?vid=94cbe5a1-172e-4cc9-bb27-f3369919b100","ios":"levelo://app?vid=94cbe5a1-172e-4cc9-bb27-f3369919b100"},"vehicle_type_id":"4","last_reported":1770024900,"current_range_meters":6800,"station_id":"ce4bhnp2rcd13ifvqgvg","pricing_plan_id":"cebpf4jnsgd1na2vs0mg"},{"bike_id":"e09e2717-153b-489f-b446-f480f14d97b2","system_id":"levelo_inurba_marseille","lat":43.27942,"lon":5.410449,"is_reserved":false,"is_disabled":false,"rental_uris":{"android":"levelo://app?vid=e09e2717-153b-489f-b446-f480f14d97b2","ios":"levelo://app?vid=e09e2717-153b-489f-b446-f480f14d97b2"},"vehicle_type_id":"4","last_reported":1770024900,"current_range_meters":6800,"station_id":"ce4bhnp2rcd13ifvqh0g","pricing_plan_id":"cebpf4jnsgd1na2vs0mg"},{"bike_id":"b38789cc-18dd-40d1-ae76-cc4e95e9c6fd","system_id":"levelo_inurba_marseille","lat":43.31362,"lon":5.36717,"is_reserved":false,"is_disabled":false,"rental_uris":{"android":"levelo://app?vid=b38789cc-18dd-40d1-ae76-cc4e95e9c6fd","ios":"levelo://app?vid=b38789cc-18dd-40d1-ae76-cc4e95e9c6fd"},"vehicle_type_id":"4","last_reported":1770024900,"current_range_meters":6800,"station_id":"ce4bgr92rcd13ifvqc6g","pricing_plan_id":"cebpf4jnsgd1na2vs0mg"},{"bike_id":"4b39f1cc-8d5c-4330-8483-0300616cf7c0","system_id":"levelo_inurba_marseille","lat":43.24038,"lon":5.36386,"is_reserved":false,"is_disabled":false,"rental_uris":{"android":"levelo://app?vid=4b39f1cc-8d5c-4330-8483-0300616cf7c0","ios":"levelo://app?vid=4b39f1cc-8d5c-4330-8483-0300616cf7c0"},"vehicle_type_id":"4","last_reported":1770024900,"current_range_meters":6800,"station_id":"","pricing_plan_id":"cebpf4jnsgd1na2vs0mg"},{"bike_id":"35e94623-6487-4043-aec6-ee449fcb47c5","system_id":"levelo_inurba_marseille","lat":43.2593,"lon":5.40888,"is_reserved":false,"is_disabled":false,"rental_uris":{"android":"levelo://app?vid=35e94623-6487-4043-aec6-ee449fcb47c5","ios":"levelo://app?vid=35e94623-6487-4043-aec6-ee449fcb47c5"},"vehicle_type_id":"4","last_reported":1770024900,"current_range_meters":6800,"station_id":"ce4bhm92rcd13ifvqglg","pricing_plan_id":"cebpf4jnsgd1na2vs0mg"},{"bike_id":"ead9d525-178d-43f7-b202-498aac541976","system_id":"levelo_inurba_marseille","lat":43.22564,"lon":5.41634,"is_reserved":false,"is_disabled":false,"rental_uris":{"android":"levelo://app?vid=ead9d525-178d-43f7-b202-498aac541976","ios":"levelo://app?vid=ead9d525-178d-43f7-b202-498aac541976"},"vehicle_type_id":"4","last_reported":1770024900,"current_range_meters":6800,"station_id":"st_d2o4gvlbi1j2169b742g","pricing_plan_id":"cebpf4jnsgd1na2vs0mg"},{"bike_id":"16dd67a6-73f4-4b53-9426-1c2067bc8238","system_id":"levelo_inurba_marseille","lat":43.303119,"lon":5.404435,"is_reserved":false,"is_disabled":false,"rental_uris":{"android":"levelo://app?vid=16dd67a6-73f4-4b53-9426-1c2067bc8238","ios":"levelo://app?vid=16dd67a6-73f4-4b53-9426-1c2067bc8238"},"vehicle_type_id":"4","last_reported":1770024900,"current_range_meters":6800,"station_id":"ce4bh012rcd13ifvqd10","pricing_plan_id":"cebpf4jnsgd1na2vs0mg"},{"bike_id":"0120f280-addb-4cd6-8fb0-47e716725bd0","system_id":"levelo_inurba_marseille","lat":43.30835,"lon":5.38304,"is_reserved":false,"is_disabled":false,"rental_uris":{"android":"levelo://app?vid=0120f280-addb-4cd6-8fb0-47e716725bd0","ios":"levelo://app?vid=0120f280-addb-4cd6-8fb0-47e716725bd0"},"vehicle_type_id":"4","last_reported":1770024900,"current_range_meters":6800,"station_id":"","pricing_plan_id":"cebpf4jnsgd1na2vs0mg"},{"bike_id":"926a8edb-6c8d-4b2e-993e-6675e7b51abd","system_id":"levelo_inurba_marseille","lat":43.23784,"lon":5.36632,"is_reserved":false,"is_disabled":false,"rental_uris":{"android":"levelo://app?vid=926a8edb-6c8d-4b2e-993e-6675e7b51abd","ios":"levelo://app?vid=926a8edb-6c8d-4b2e-993e-6675e7b51abd"},"vehicle_type_id":"4","last_reported":1770024900,"current_range_meters":6800,"station_id":"st_d3nk18o9ro0c73en2l3g","pricing_plan_id":"cebpf4jnsgd1na2vs0mg"},{"bike_id":"3a58788c-4a23-4531-9872-db4b04a34512","system_id":"levelo_inurba_marseille","lat":43.25025,"lon":5.38928,"is_reserved":false,"is_disabled":false,"rental_uris":{"android":"levelo://app?vid=3a58788c-4a23-4531-9872-db4b04a34512","ios":"levelo://app?vid=3a58788c-4a23-4531-9872-db4b04a34512"},"vehicle_type_id":"4","last_reported":1770024900,"current_range_meters":6800,"station_id":"ce4bhgp2rcd13ifvqfd0","pricing_plan_id":"cebpf4jnsgd1na2vs0mg"},{"bike_id":"25fa64a5-b83a-4b77-9fc0-d8981c1c39e7","system_id":"levelo_inurba_marseille","lat":43.299367,"lon":5.365419,"is_reserved":false,"is_disabled":false,"rental_uris":{"android":"levelo://app?vid=25fa64a5-b83a-4b77-9fc0-d8981c1c39e7","ios":"levelo://app?vid=25fa64a5-b83a-4b77-9fc0-d8981c1c39e7"},"vehicle_type_id":"4","last_reported":1770024900,"current_range_meters":6800,"station_id":"ce4bgm92rcd13ifvqbr0","pricing_plan_id":"cebpf4jnsgd1na2vs0mg"},{"bike_id":"6632b7eb-39fd-4ac6-ab18-a3a8fd79732f","system_id":"levelo_inurba_marseille","lat":43.30874,"lon":5.37149,"is_reserved":false,"is_disabled":false,"rental_uris":{"android":"levelo://app?vid=6632b7eb-39fd-4ac6-ab18-a3a8fd79732f","ios":"levelo://app?vid=6632b7eb-39fd-4ac6-ab18-a3a8fd79732f"},"vehicle_type_id":"4","last_reported":1770024900,"current_range_meters":6800,"station_id":"ce4bguh2rcd13ifvqckg","pricing_plan_id":"cebpf4jnsgd1na2vs0mg"},{"bike_id":"53a012bd-16c2-4c35-9868-c74d5c6bc555","system_id":"levelo_inurba_marseille","lat":43.31388,"lon":5.36677,"is_reserved":false,"is_disabled":false,"rental_uris":{"android":"levelo://app?vid=53a012bd-16c2-4c35-9868-c74d5c6bc555","ios":"levelo://app?vid=53a012bd-16c2-4c35-9868-c74d5c6bc555"},"vehicle_type_id":"4","last_reported":1770024900,"current_range_meters":6800,"station_id":"","pricing_plan_id":"cebpf4jnsgd1na2vs0mg"},{"bike_id":"a35d1ffc-4772-4b43-81d7-120f92a89b28","system_id":"levelo_inurba_marseille","lat":43.28139,"lon":5.42573,"is_reserved":false,"is_disabled":false,"rental_uris":{"android":"levelo://app?vid=a35d1ffc-4772-4b43-81d7-120f92a89b28","ios":"levelo://app?vid=a35d1ffc-4772-4b43-81d7-120f92a89b28"},"vehicle_type_id":"4","last_reported":1770024900,"current_range_meters":6800,"station_id":"","pricing_plan_id":"cebpf4jnsgd1na2vs0mg"},{"bike_id":"4a4bc2bb-3123-4f54-88d8-9bdb25dd5c45","system_id":"levelo_inurba_marseille","lat":43.29008,"lon":5.37751,"is_reserved":false,"is_disabled":false,"rental_uris":{"android":"levelo://app?vid=4a4bc2bb-3123-4f54-88d8-9bdb25dd5c45","ios":"levelo://app?vid=4a4bc2bb-3123-4f54-88d8-9bdb25dd5c45"},"vehicle_type_id":"4","last_reported":1770024900,"current_range_meters":7200,"station_id":"","pricing_plan_id":"cebpf4jnsgd1na2vs0mg"},{"bike_id":"c908c76d-5841-48a6-bd50-48ef6a9cf886","system_id":"levelo_inurba_marseille","lat":43.32484,"lon":5.38296,"is_reserved":false,"is_disabled":false,"rental_uris":{"android":"levelo://app?vid=c908c76d-5841-48a6-bd50-48ef6a9cf886","ios":"levelo://app?vid=c908c76d-5841-48a6-bd50-48ef6a9cf886"},"vehicle_type_id":"4","last_reported":1770024900,"current_range_meters":7200,"station_id":"st_d4asgbiv49dc73anf9m0","pricing_plan_id":"cebpf4jnsgd1na2vs0mg"},{"bike_id":"297d13dc-a8fe-4c7e-ab4e-c67c01d72bc9","system_id":"levelo_inurba_marseille","lat":43.26675,"lon":5.38254,"is_reserved":false,"is_disabled":false,"rental_uris":{"android":"levelo://app?vid=297d13dc-a8fe-4c7e-ab4e-c67c01d72bc9","ios":"levelo://app?vid=297d13dc-a8fe-4c7e-ab4e-c67c01d72bc9"},"vehicle_type_id":"4","last_reported":1770024900,"current_range_meters":7200,"station_id":"ce4bhg92rcd13ifvqf90","pricing_plan_id":"cebpf4jnsgd1na2vs0mg"},{"bike_id":"83954c91-b1be-419e-85e2-be05d774291d","system_id":"levelo_inurba_marseille","lat":43.24053,"lon":5.37709,"is_reserved":false,"is_disabled":false,"rental_uris":{"android":"levelo://app?vid=83954c91-b1be-419e-85e2-be05d774291d","ios":"levelo://app?vid=83954c91-b1be-419e-85e2-be05d774291d"},"vehicle_type_id":"4","last_reported":1770024900,"current_range_meters":7200,"station_id":"ce4bhnp2rcd13ifvqgvg","pricing_plan_id":"cebpf4jnsgd1na2vs0mg"},{"bike_id":"78f87509-7a97-4d09-86ee-cdbe34d59bc6","system_id":"levelo_inurba_marseille","lat":43.24825,"lon":5.38467,"is_reserved":false,"is_disabled":false,"rental_uris":{"android":"levelo://app?vid=78f87509-7a97-4d09-86ee-cdbe34d59bc6","ios":"levelo://app?vid=78f87509-7a97-4d09-86ee-cdbe34d59bc6"},"vehicle_type_id":"4","last_reported":1770024900,"current_range_meters":7200,"station_id":"","pricing_plan_id":"cebpf4jnsgd1na2vs0mg"},{"bike_id":"2e89fdd1-7445-4232-b055-a170710a3c69","system_id":"levelo_inurba_marseille","lat":43.30138,"lon":5.37411,"is_reserved":false,"is_disabled":false,"rental_uris":{"android":"levelo://app?vid=2e89fdd1-7445-4232-b055-a170710a3c69","ios":"levelo://app?vid=2e89fdd1-7445-4232-b055-a170710a3c69"},"vehicle_type_id":"4","last_reported":1770024900,"current_range_meters":7200,"station_id":"ce4bgs92rcd13ifvqcc0","pricing_plan_id":"cebpf4jnsgd1na2vs0mg"},{"bike_id":"0f8ab205-b08e-4dd8-9e0a-11809d5e78f9","system_id":"levelo_inurba_marseille","lat":43.30521,"lon":5.36551,"is_reserved":false,"is_disabled":false,"rental_uris":{"android":"levelo://app?vid=0f8ab205-b08e-4dd8-9e0a-11809d5e78f9","ios":"levelo://app?vid=0f8ab205-b08e-4dd8-9e0a-11809d5e78f9"},"vehicle_type_id":"4","last_reported":1770024900,"current_range_meters":7200,"station_id":"ce4bgs12rcd13ifvqcag","pricing_plan_id":"cebpf4jnsgd1na2vs0mg"},{"bike_id":"56a4bae4-bfa4-41b7-a15b-c9d1c79421ee","system_id":"levelo_inurba_marseille","lat":43.29961,"lon":5.37163,"is_reserved":false,"is_disabled":false,"rental_uris":{"android":"levelo://app?vid=56a4bae4-bfa4-41b7-a15b-c9d1c79421ee","ios":"levelo://app?vid=56a4bae4-bfa4-41b7-a15b-c9d1c79421ee"},"vehicle_type_id":"4","last_reported":1770024900,"current_range_meters":7200,"station_id":"ce4bgr92rcd13ifvqc7g","pricing_plan_id":"cebpf4jnsgd1na2vs0mg"},{"bike_id":"3475ef01-6815-478c-8253-72b3293c048d","system_id":"levelo_inurba_marseille","lat":43.31248,"lon":5.36832,"is_reserved":false,"is_disabled":false,"rental_uris":{"android":"levelo://app?vid=3475ef01-6815-478c-8253-72b3293c048d","ios":"levelo://app?vid=3475ef01-6815-478c-8253-72b3293c048d"},"vehicle_type_id":"4","last_reported":1770024900,"current_range_meters":7200,"station_id":"ce4bgl92rcd13ifvqbq0","pricing_plan_id":"cebpf4jnsgd1na2vs0mg"},{"bike_id":"83087f4e-0d78-41d4-8b16-ef75c68aab04","system_id":"levelo_inurba_marseille","lat":43.30533,"lon":5.36542,"is_reserved":false,"is_disabled":false,"rental_uris":{"android":"levelo://app?vid=83087f4e-0d78-41d4-8b16-ef75c68aab04","ios":"levelo://app?vid=83087f4e-0d78-41d4-8b16-ef75c68aab04"},"vehicle_type_id":"4","last_reported":1770024900,"current_range_meters":7200,"station_id":"ce4bgs12rcd13ifvqcag","pricing_plan_id":"cebpf4jnsgd1na2vs0mg"},{"bike_id":"f34b59e1-4e39-4af3-a25b-ab4cbda4d328","system_id":"levelo_inurba_marseille","lat":43.24779,"lon":5.37423,"is_reserved":false,"is_disabled":false,"rental_uris":{"android":"levelo://app?vid=f34b59e1-4e39-4af3-a25b-ab4cbda4d328","ios":"levelo://app?vid=f34b59e1-4e39-4af3-a25b-ab4cbda4d328"},"vehicle_type_id":"4","last_reported":1770024900,"current_range_meters":7200,"station_id":"ce4bhgh2rcd13ifvqfb0","pricing_plan_id":"cebpf4jnsgd1na2vs0mg"},{"bike_id":"7339baea-42a7-44c8-866b-b3318d7a94e4","system_id":"levelo_inurba_marseille","lat":43.3104,"lon":5.37176,"is_reserved":false,"is_disabled":false,"rental_uris":{"android":"levelo://app?vid=7339baea-42a7-44c8-866b-b3318d7a94e4","ios":"levelo://app?vid=7339baea-42a7-44c8-866b-b3318d7a94e4"},"vehicle_type_id":"4","last_reported":1770024900,"current_range_meters":7200,"station_id":"st_d4kl2rp97mjs73e7tdfg","pricing_plan_id":"cebpf4jnsgd1na2vs0mg"},{"bike_id":"f56f94da-df0e-4c1e-b86b-0fe27ed7485e","system_id":"levelo_inurba_marseille","lat":43.27326,"lon":5.39066,"is_reserved":false,"is_disabled":false,"rental_uris":{"android":"levelo://app?vid=f56f94da-df0e-4c1e-b86b-0fe27ed7485e","ios":"levelo://app?vid=f56f94da-df0e-4c1e-b86b-0fe27ed7485e"},"vehicle_type_id":"4","last_reported":1770024900,"current_range_meters":7200,"station_id":"ce4bhgp2rcd13ifvqfe0","pricing_plan_id":"cebpf4jnsgd1na2vs0mg"},{"bike_id":"42e23a25-3f3b-41a6-affc-754a84a75d61","system_id":"levelo_inurba_marseille","lat":43.26683,"lon":5.38269,"is_reserved":false,"is_disabled":false,"rental_uris":{"android":"levelo://app?vid=42e23a25-3f3b-41a6-affc-754a84a75d61","ios":"levelo://app?vid=42e23a25-3f3b-41a6-affc-754a84a75d61"},"vehicle_type_id":"4","last_reported":1770024900,"current_range_meters":7200,"station_id":"ce4bhg92rcd13ifvqf90","pricing_plan_id":"cebpf4jnsgd1na2vs0mg"},{"bike_id":"103d9878-2da6-4373-a147-e7fd1a4a7487","system_id":"levelo_inurba_marseille","lat":43.31061,"lon":5.37185,"is_reserved":false,"is_disabled":false,"rental_uris":{"android":"levelo://app?vid=103d9878-2da6-4373-a147-e7fd1a4a7487","ios":"levelo://app?vid=103d9878-2da6-4373-a147-e7fd1a4a7487"},"vehicle_type_id":"4","last_reported":1770024900,"current_range_meters":7200,"station_id":"st_d4kl2rp97mjs73e7tdfg","pricing_plan_id":"cebpf4jnsgd1na2vs0mg"},{"bike_id":"df56c3cd-b8f3-4331-9204-6cdae907a930","system_id":"levelo_inurba_marseille","lat":43.29965,"lon":5.37193,"is_reserved":false,"is_disabled":false,"rental_uris":{"android":"levelo://app?vid=df56c3cd-b8f3-4331-9204-6cdae907a930","ios":"levelo://app?vid=df56c3cd-b8f3-4331-9204-6cdae907a930"},"vehicle_type_id":"4","last_reported":1770024900,"current_range_meters":7200,"station_id":"ce4bgr92rcd13ifvqc7g","pricing_plan_id":"cebpf4jnsgd1na2vs0mg"},{"bike_id":"598c3be9-e516-4a68-8ee3-e84cf24002f9","system_id":"levelo_inurba_marseille","lat":43.24999,"lon":5.38929,"is_reserved":false,"is_disabled":false,"rental_uris":{"android":"levelo://app?vid=598c3be9-e516-4a68-8ee3-e84cf24002f9","ios":"levelo://app?vid=598c3be9-e516-4a68-8ee3-e84cf24002f9"},"vehicle_type_id":"4","last_reported":1770024900,"current_range_meters":7200,"station_id":"ce4bhgp2rcd13ifvqfd0","pricing_plan_id":"cebpf4jnsgd1na2vs0mg"},{"bike_id":"b8029b75-fba0-48c4-84f4-7557871162ff","system_id":"levelo_inurba_marseille","lat":43.291742,"lon":5.371587,"is_reserved":false,"is_disabled":false,"rental_uris":{"android":"levelo://app?vid=b8029b75-fba0-48c4-84f4-7557871162ff","ios":"levelo://app?vid=b8029b75-fba0-48c4-84f4-7557871162ff"},"vehicle_type_id":"4","last_reported":1770024900,"current_range_meters":8000,"station_id":"ce4bha92rcd13ifvqeh0","pricing_plan_id":"cebpf4jnsgd1na2vs0mg"},{"bike_id":"2d538e38-1b37-4b8e-bd2e-7d47bdc6040e","system_id":"levelo_inurba_marseille","lat":43.29026,"lon":5.37554,"is_reserved":false,"is_disabled":true,"rental_uris":{"android":"levelo://app?vid=2d538e38-1b37-4b8e-bd2e-7d47bdc6040e","ios":"levelo://app?vid=2d538e38-1b37-4b8e-bd2e-7d47bdc6040e"},"vehicle_type_id":"4","last_reported":1770024900,"current_range_meters":8000,"station_id":"ce4bh692rcd13ifvqe90","pricing_plan_id":"cebpf4jnsgd1na2vs0mg"},{"bike_id":"7ac53e7b-4a27-4aab-9631-08495b8cb3e9","system_id":"levelo_inurba_marseille","lat":43.29538,"lon":5.37494,"is_reserved":false,"is_disabled":false,"rental_uris":{"android":"levelo://app?vid=7ac53e7b-4a27-4aab-9631-08495b8cb3e9","ios":"levelo://app?vid=7ac53e7b-4a27-4aab-9631-08495b8cb3e9"},"vehicle_type_id":"4","last_reported":1770024900,"current_range_meters":8000,"station_id":"ce4bgkp2rcd13ifvqbmg","pricing_plan_id":"cebpf4jnsgd1na2vs0mg"},{"bike_id":"3732f1eb-e4a8-4e19-ac1d-f42f35b721e7","system_id":"levelo_inurba_marseille","lat":43.30099,"lon":5.39075,"is_reserved":false,"is_disabled":false,"rental_uris":{"android":"levelo://app?vid=3732f1eb-e4a8-4e19-ac1d-f42f35b721e7","ios":"levelo://app?vid=3732f1eb-e4a8-4e19-ac1d-f42f35b721e7"},"vehicle_type_id":"4","last_reported":1770024900,"current_range_meters":8000,"station_id":"ce4bh192rcd13ifvqdb0","pricing_plan_id":"cebpf4jnsgd1na2vs0mg"},{"bike_id":"afd4599a-bce3-4586-87e8-b420b6da49a7","system_id":"levelo_inurba_marseille","lat":43.25929,"lon":5.4092,"is_reserved":false,"is_disabled":false,"rental_uris":{"android":"levelo://app?vid=afd4599a-bce3-4586-87e8-b420b6da49a7","ios":"levelo://app?vid=afd4599a-bce3-4586-87e8-b420b6da49a7"},"vehicle_type_id":"4","last_reported":1770024900,"current_range_meters":8000,"station_id":"ce4bhm92rcd13ifvqglg","pricing_plan_id":"cebpf4jnsgd1na2vs0mg"},{"bike_id":"15441752-de89-46d3-a5a4-a1bc8c6e7535","system_id":"levelo_inurba_marseille","lat":43.26954,"lon":5.38645,"is_reserved":false,"is_disabled":false,"rental_uris":{"android":"levelo://app?vid=15441752-de89-46d3-a5a4-a1bc8c6e7535","ios":"levelo://app?vid=15441752-de89-46d3-a5a4-a1bc8c6e7535"},"vehicle_type_id":"4","last_reported":1770024900,"current_range_meters":8000,"station_id":"ce4bhh92rcd13ifvqfh0","pricing_plan_id":"cebpf4jnsgd1na2vs0mg"},{"bike_id":"15e168de-f8b5-4837-80d2-59067bb38fb7","system_id":"levelo_inurba_marseille","lat":43.27499,"lon":5.42453,"is_reserved":false,"is_disabled":false,"rental_uris":{"android":"levelo://app?vid=15e168de-f8b5-4837-80d2-59067bb38fb7","ios":"levelo://app?vid=15e168de-f8b5-4837-80d2-59067bb38fb7"},"vehicle_type_id":"4","last_reported":1770024900,"current_range_meters":8000,"station_id":"ce4bhn92rcd13ifvqgrg","pricing_plan_id":"cebpf4jnsgd1na2vs0mg"},{"bike_id":"e73a6b18-e6bd-4af3-92ae-5f38381bf229","system_id":"levelo_inurba_marseille","lat":43.30162,"lon":5.37416,"is_reserved":false,"is_disabled":false,"rental_uris":{"android":"levelo://app?vid=e73a6b18-e6bd-4af3-92ae-5f38381bf229","ios":"levelo://app?vid=e73a6b18-e6bd-4af3-92ae-5f38381bf229"},"vehicle_type_id":"4","last_reported":1770024900,"current_range_meters":8000,"station_id":"ce4bgs92rcd13ifvqcc0","pricing_plan_id":"cebpf4jnsgd1na2vs0mg"},{"bike_id":"1948f599-abbd-4a5c-8323-e45a670a006c","system_id":"levelo_inurba_marseille","lat":43.29551,"lon":5.37501,"is_reserved":false,"is_disabled":false,"rental_uris":{"android":"levelo://app?vid=1948f599-abbd-4a5c-8323-e45a670a006c","ios":"levelo://app?vid=1948f599-abbd-4a5c-8323-e45a670a006c"},"vehicle_type_id":"4","last_reported":1770024900,"current_range_meters":8000,"station_id":"ce4bgkp2rcd13ifvqbmg","pricing_plan_id":"cebpf4jnsgd1na2vs0mg"},{"bike_id":"7a75a6cc-b453-45e2-9e0a-6e67cd359fca","system_id":"levelo_inurba_marseille","lat":43.27321,"lon":5.39084,"is_reserved":false,"is_disabled":false,"rental_uris":{"android":"levelo://app?vid=7a75a6cc-b453-45e2-9e0a-6e67cd359fca","ios":"levelo://app?vid=7a75a6cc-b453-45e2-9e0a-6e67cd359fca"},"vehicle_type_id":"4","last_reported":1770024900,"current_range_meters":8000,"station_id":"ce4bhgp2rcd13ifvqfe0","pricing_plan_id":"cebpf4jnsgd1na2vs0mg"},{"bike_id":"180da0d1-bd60-4b3f-a4d6-ad95d36df675","system_id":"levelo_inurba_marseille","lat":43.23191,"lon":5.35549,"is_reserved":false,"is_disabled":false,"rental_uris":{"android":"levelo://app?vid=180da0d1-bd60-4b3f-a4d6-ad95d36df675","ios":"levelo://app?vid=180da0d1-bd60-4b3f-a4d6-ad95d36df675"},"vehicle_type_id":"4","last_reported":1770024900,"current_range_meters":8000,"station_id":"ce4bhu92rcd13ifvqi70","pricing_plan_id":"cebpf4jnsgd1na2vs0mg"},{"bike_id":"11dd8a11-c8bc-42b0-b90f-0f9ed1cd3060","system_id":"levelo_inurba_marseille","lat":43.29584,"lon":5.37506,"is_reserved":false,"is_disabled":false,"rental_uris":{"android":"levelo://app?vid=11dd8a11-c8bc-42b0-b90f-0f9ed1cd3060","ios":"levelo://app?vid=11dd8a11-c8bc-42b0-b90f-0f9ed1cd3060"},"vehicle_type_id":"4","last_reported":1770024900,"current_range_meters":8000,"station_id":"ce4bgh92rcd13ifvqb50","pricing_plan_id":"cebpf4jnsgd1na2vs0mg"},{"bike_id":"a06d1820-eddd-4a49-9c6c-2e4c10ff35be","system_id":"levelo_inurba_marseille","lat":43.262006,"lon":5.379143,"is_reserved":false,"is_disabled":false,"rental_uris":{"android":"levelo://app?vid=a06d1820-eddd-4a49-9c6c-2e4c10ff35be","ios":"levelo://app?vid=a06d1820-eddd-4a49-9c6c-2e4c10ff35be"},"vehicle_type_id":"4","last_reported":1770024900,"current_range_meters":8000,"station_id":"","pricing_plan_id":"cebpf4jnsgd1na2vs0mg"},{"bike_id":"7cb4d92c-ddfd-4673-939d-de19e5a92bf3","system_id":"levelo_inurba_marseille","lat":43.30229,"lon":5.38048,"is_reserved":false,"is_disabled":true,"rental_uris":{"android":"levelo://app?vid=7cb4d92c-ddfd-4673-939d-de19e5a92bf3","ios":"levelo://app?vid=7cb4d92c-ddfd-4673-939d-de19e5a92bf3"},"vehicle_type_id":"4","last_reported":1770024900,"current_range_meters":8000,"station_id":"","pricing_plan_id":"cebpf4jnsgd1na2vs0mg"},{"bike_id":"d4236494-fb12-45a5-b440-8f1f89d83f90","system_id":"levelo_inurba_marseille","lat":43.27773,"lon":5.388236,"is_reserved":false,"is_disabled":false,"rental_uris":{"android":"levelo://app?vid=d4236494-fb12-45a5-b440-8f1f89d83f90","ios":"levelo://app?vid=d4236494-fb12-45a5-b440-8f1f89d83f90"},"vehicle_type_id":"4","last_reported":1770024900,"current_range_meters":8400,"station_id":"ce4bhgp2rcd13ifvqfe0","pricing_plan_id":"cebpf4jnsgd1na2vs0mg"},{"bike_id":"383629b2-73f2-4b1e-9cf1-7119fdaec39e","system_id":"levelo_inurba_marseille","lat":43.2738,"lon":5.3624,"is_reserved":false,"is_disabled":false,"rental_uris":{"android":"levelo://app?vid=383629b2-73f2-4b1e-9cf1-7119fdaec39e","ios":"levelo://app?vid=383629b2-73f2-4b1e-9cf1-7119fdaec39e"},"vehicle_type_id":"4","last_reported":1770024900,"current_range_meters":8400,"station_id":"ce4bhbh2rcd13ifvqeo0","pricing_plan_id":"cebpf4jnsgd1na2vs0mg"},{"bike_id":"42f3911a-939e-4889-9561-3c06517c8f7e","system_id":"levelo_inurba_marseille","lat":43.26812,"lon":5.39433,"is_reserved":false,"is_disabled":true,"rental_uris":{"android":"levelo://app?vid=42f3911a-939e-4889-9561-3c06517c8f7e","ios":"levelo://app?vid=42f3911a-939e-4889-9561-3c06517c8f7e"},"vehicle_type_id":"4","last_reported":1770024900,"current_range_meters":8400,"station_id":"ce4bhh12rcd13ifvqfg0","pricing_plan_id":"cebpf4jnsgd1na2vs0mg"},{"bike_id":"62af0ab7-05b6-4f47-9cdb-5da8f9fcdec4","system_id":"levelo_inurba_marseille","lat":43.22564,"lon":5.41633,"is_reserved":false,"is_disabled":false,"rental_uris":{"android":"levelo://app?vid=62af0ab7-05b6-4f47-9cdb-5da8f9fcdec4","ios":"levelo://app?vid=62af0ab7-05b6-4f47-9cdb-5da8f9fcdec4"},"vehicle_type_id":"4","last_reported":1770024900,"current_range_meters":8400,"station_id":"st_d2o4gvlbi1j2169b742g","pricing_plan_id":"cebpf4jnsgd1na2vs0mg"},{"bike_id":"11669f92-a768-40e3-968e-23d92654a864","system_id":"levelo_inurba_marseille","lat":43.2794,"lon":5.41054,"is_reserved":false,"is_disabled":false,"rental_uris":{"android":"levelo://app?vid=11669f92-a768-40e3-968e-23d92654a864","ios":"levelo://app?vid=11669f92-a768-40e3-968e-23d92654a864"},"vehicle_type_id":"4","last_reported":1770024900,"current_range_meters":8400,"station_id":"ce4bhnp2rcd13ifvqh0g","pricing_plan_id":"cebpf4jnsgd1na2vs0mg"},{"bike_id":"8774adf0-091c-4acb-a18a-0b7f970d22ca","system_id":"levelo_inurba_marseille","lat":43.29832,"lon":5.38457,"is_reserved":false,"is_disabled":false,"rental_uris":{"android":"levelo://app?vid=8774adf0-091c-4acb-a18a-0b7f970d22ca","ios":"levelo://app?vid=8774adf0-091c-4acb-a18a-0b7f970d22ca"},"vehicle_type_id":"4","last_reported":1770024900,"current_range_meters":8400,"station_id":"","pricing_plan_id":"cebpf4jnsgd1na2vs0mg"},{"bike_id":"c0aefe3c-480c-475c-8458-7f167f7fca54","system_id":"levelo_inurba_marseille","lat":43.27497,"lon":5.42456,"is_reserved":false,"is_disabled":false,"rental_uris":{"android":"levelo://app?vid=c0aefe3c-480c-475c-8458-7f167f7fca54","ios":"levelo://app?vid=c0aefe3c-480c-475c-8458-7f167f7fca54"},"vehicle_type_id":"4","last_reported":1770024900,"current_range_meters":8400,"station_id":"ce4bhn92rcd13ifvqgrg","pricing_plan_id":"cebpf4jnsgd1na2vs0mg"},{"bike_id":"3b9c8f3e-f433-4f76-92cb-a9ab1b517dc0","system_id":"levelo_inurba_marseille","lat":43.294684,"lon":5.376049,"is_reserved":false,"is_disabled":false,"rental_uris":{"android":"levelo://app?vid=3b9c8f3e-f433-4f76-92cb-a9ab1b517dc0","ios":"levelo://app?vid=3b9c8f3e-f433-4f76-92cb-a9ab1b517dc0"},"vehicle_type_id":"4","last_reported":1770024900,"current_range_meters":8400,"station_id":"","pricing_plan_id":"cebpf4jnsgd1na2vs0mg"},{"bike_id":"551b7a29-d776-4906-b0b3-5e3381c6f5a6","system_id":"levelo_inurba_marseille","lat":43.29248,"lon":5.37624,"is_reserved":false,"is_disabled":false,"rental_uris":{"android":"levelo://app?vid=551b7a29-d776-4906-b0b3-5e3381c6f5a6","ios":"levelo://app?vid=551b7a29-d776-4906-b0b3-5e3381c6f5a6"},"vehicle_type_id":"4","last_reported":1770024900,"current_range_meters":8400,"station_id":"ce4bgi12rcd13ifvqb80","pricing_plan_id":"cebpf4jnsgd1na2vs0mg"},{"bike_id":"20e5a6ab-b7c2-47d7-a8a2-b30b7e3c699b","system_id":"levelo_inurba_marseille","lat":43.28481,"lon":5.48408,"is_reserved":false,"is_disabled":false,"rental_uris":{"android":"levelo://app?vid=20e5a6ab-b7c2-47d7-a8a2-b30b7e3c699b","ios":"levelo://app?vid=20e5a6ab-b7c2-47d7-a8a2-b30b7e3c699b"},"vehicle_type_id":"4","last_reported":1770024900,"current_range_meters":8400,"station_id":"st_d3svhcjqgbts73a3dn0g","pricing_plan_id":"cebpf4jnsgd1na2vs0mg"},{"bike_id":"952045d2-3431-4cee-8ea5-02331c0b9d56","system_id":"levelo_inurba_marseille","lat":43.25928,"lon":5.40906,"is_reserved":false,"is_disabled":false,"rental_uris":{"android":"levelo://app?vid=952045d2-3431-4cee-8ea5-02331c0b9d56","ios":"levelo://app?vid=952045d2-3431-4cee-8ea5-02331c0b9d56"},"vehicle_type_id":"4","last_reported":1770024900,"current_range_meters":8400,"station_id":"ce4bhm92rcd13ifvqglg","pricing_plan_id":"cebpf4jnsgd1na2vs0mg"},{"bike_id":"cd51f784-a77c-4831-b04b-afe6fd280c95","system_id":"levelo_inurba_marseille","lat":43.23208,"lon":5.35555,"is_reserved":false,"is_disabled":false,"rental_uris":{"android":"levelo://app?vid=cd51f784-a77c-4831-b04b-afe6fd280c95","ios":"levelo://app?vid=cd51f784-a77c-4831-b04b-afe6fd280c95"},"vehicle_type_id":"4","last_reported":1770024900,"current_range_meters":8400,"station_id":"ce4bhu92rcd13ifvqi70","pricing_plan_id":"cebpf4jnsgd1na2vs0mg"},{"bike_id":"414b0dda-ee4d-4a23-8607-b5b7b9b943da","system_id":"levelo_inurba_marseille","lat":43.27318,"lon":5.39076,"is_reserved":false,"is_disabled":false,"rental_uris":{"android":"levelo://app?vid=414b0dda-ee4d-4a23-8607-b5b7b9b943da","ios":"levelo://app?vid=414b0dda-ee4d-4a23-8607-b5b7b9b943da"},"vehicle_type_id":"4","last_reported":1770024900,"current_range_meters":8400,"station_id":"ce4bhgp2rcd13ifvqfe0","pricing_plan_id":"cebpf4jnsgd1na2vs0mg"},{"bike_id":"9113ed34-4eae-4a17-a7d2-71a7b76f8d6a","system_id":"levelo_inurba_marseille","lat":43.25918,"lon":5.40873,"is_reserved":false,"is_disabled":false,"rental_uris":{"android":"levelo://app?vid=9113ed34-4eae-4a17-a7d2-71a7b76f8d6a","ios":"levelo://app?vid=9113ed34-4eae-4a17-a7d2-71a7b76f8d6a"},"vehicle_type_id":"4","last_reported":1770024900,"current_range_meters":8400,"station_id":"ce4bhm92rcd13ifvqglg","pricing_plan_id":"cebpf4jnsgd1na2vs0mg"},{"bike_id":"9fff0643-071c-436a-8cfd-837b6e92089a","system_id":"levelo_inurba_marseille","lat":43.25923,"lon":5.40917,"is_reserved":false,"is_disabled":false,"rental_uris":{"android":"levelo://app?vid=9fff0643-071c-436a-8cfd-837b6e92089a","ios":"levelo://app?vid=9fff0643-071c-436a-8cfd-837b6e92089a"},"vehicle_type_id":"4","last_reported":1770024900,"current_range_meters":8400,"station_id":"ce4bhm92rcd13ifvqglg","pricing_plan_id":"cebpf4jnsgd1na2vs0mg"},{"bike_id":"a7a08982-a4b3-4165-befb-342335e20b0b","system_id":"levelo_inurba_marseille","lat":43.23766,"lon":5.36663,"is_reserved":false,"is_disabled":false,"rental_uris":{"android":"levelo://app?vid=a7a08982-a4b3-4165-befb-342335e20b0b","ios":"levelo://app?vid=a7a08982-a4b3-4165-befb-342335e20b0b"},"vehicle_type_id":"4","last_reported":1770024900,"current_range_meters":8800,"station_id":"st_d3nk18o9ro0c73en2l3g","pricing_plan_id":"cebpf4jnsgd1na2vs0mg"},{"bike_id":"a4a78e26-f7cc-42fe-a5d9-4836263a9354","system_id":"levelo_inurba_marseille","lat":43.33164,"lon":5.37687,"is_reserved":false,"is_disabled":false,"rental_uris":{"android":"levelo://app?vid=a4a78e26-f7cc-42fe-a5d9-4836263a9354","ios":"levelo://app?vid=a4a78e26-f7cc-42fe-a5d9-4836263a9354"},"vehicle_type_id":"4","last_reported":1770024900,"current_range_meters":8800,"station_id":"st_d46cu089ee8s73dldbu0","pricing_plan_id":"cebpf4jnsgd1na2vs0mg"},{"bike_id":"3ef65dfb-54d4-469d-946a-35ac1380b0ff","system_id":"levelo_inurba_marseille","lat":43.27369,"lon":5.36254,"is_reserved":false,"is_disabled":false,"rental_uris":{"android":"levelo://app?vid=3ef65dfb-54d4-469d-946a-35ac1380b0ff","ios":"levelo://app?vid=3ef65dfb-54d4-469d-946a-35ac1380b0ff"},"vehicle_type_id":"4","last_reported":1770024900,"current_range_meters":8800,"station_id":"ce4bhbh2rcd13ifvqeo0","pricing_plan_id":"cebpf4jnsgd1na2vs0mg"},{"bike_id":"450d125b-db69-4dd8-9efc-f1b0ec2c3479","system_id":"levelo_inurba_marseille","lat":43.23176,"lon":5.43657,"is_reserved":false,"is_disabled":false,"rental_uris":{"android":"levelo://app?vid=450d125b-db69-4dd8-9efc-f1b0ec2c3479","ios":"levelo://app?vid=450d125b-db69-4dd8-9efc-f1b0ec2c3479"},"vehicle_type_id":"4","last_reported":1770024900,"current_range_meters":8800,"station_id":"ce4bhmp2rcd13ifvqgog","pricing_plan_id":"cebpf4jnsgd1na2vs0mg"},{"bike_id":"1a8a6686-5e0a-481c-b2a8-1ac4c1dba7c4","system_id":"levelo_inurba_marseille","lat":43.30457,"lon":5.37909,"is_reserved":false,"is_disabled":false,"rental_uris":{"android":"levelo://app?vid=1a8a6686-5e0a-481c-b2a8-1ac4c1dba7c4","ios":"levelo://app?vid=1a8a6686-5e0a-481c-b2a8-1ac4c1dba7c4"},"vehicle_type_id":"4","last_reported":1770024900,"current_range_meters":8800,"station_id":"ce4bgup2rcd13ifvqcn0","pricing_plan_id":"cebpf4jnsgd1na2vs0mg"},{"bike_id":"5fd56762-7b7c-4271-9de2-7b895b74202c","system_id":"levelo_inurba_marseille","lat":43.28417,"lon":5.34984,"is_reserved":false,"is_disabled":false,"rental_uris":{"android":"levelo://app?vid=5fd56762-7b7c-4271-9de2-7b895b74202c","ios":"levelo://app?vid=5fd56762-7b7c-4271-9de2-7b895b74202c"},"vehicle_type_id":"4","last_reported":1770024900,"current_range_meters":8800,"station_id":"ce4bhbh2rcd13ifvqepg","pricing_plan_id":"cebpf4jnsgd1na2vs0mg"},{"bike_id":"5601be48-9a84-4144-ac93-b2cfc1e8a74f","system_id":"levelo_inurba_marseille","lat":43.290288,"lon":5.399742,"is_reserved":false,"is_disabled":false,"rental_uris":{"android":"levelo://app?vid=5601be48-9a84-4144-ac93-b2cfc1e8a74f","ios":"levelo://app?vid=5601be48-9a84-4144-ac93-b2cfc1e8a74f"},"vehicle_type_id":"4","last_reported":1770024900,"current_range_meters":8800,"station_id":"ce4bh392rcd13ifvqdm0","pricing_plan_id":"cebpf4jnsgd1na2vs0mg"},{"bike_id":"7ca074bc-6a81-4ae8-a613-b996e8830abe","system_id":"levelo_inurba_marseille","lat":43.30305,"lon":5.39214,"is_reserved":false,"is_disabled":false,"rental_uris":{"android":"levelo://app?vid=7ca074bc-6a81-4ae8-a613-b996e8830abe","ios":"levelo://app?vid=7ca074bc-6a81-4ae8-a613-b996e8830abe"},"vehicle_type_id":"4","last_reported":1770024900,"current_range_meters":8800,"station_id":"ce4bgkh2rcd13ifvqbk0","pricing_plan_id":"cebpf4jnsgd1na2vs0mg"},{"bike_id":"fc1ba069-51d0-4a86-909b-84b497d76f8e","system_id":"levelo_inurba_marseille","lat":43.30938,"lon":5.40137,"is_reserved":false,"is_disabled":false,"rental_uris":{"android":"levelo://app?vid=fc1ba069-51d0-4a86-909b-84b497d76f8e","ios":"levelo://app?vid=fc1ba069-51d0-4a86-909b-84b497d76f8e"},"vehicle_type_id":"4","last_reported":1770024900,"current_range_meters":8800,"station_id":"ce4bgvp2rcd13ifvqct0","pricing_plan_id":"cebpf4jnsgd1na2vs0mg"},{"bike_id":"ada20fd7-edee-4547-81d7-01d0919d10ab","system_id":"levelo_inurba_marseille","lat":43.33598,"lon":5.41027,"is_reserved":false,"is_disabled":false,"rental_uris":{"android":"levelo://app?vid=ada20fd7-edee-4547-81d7-01d0919d10ab","ios":"levelo://app?vid=ada20fd7-edee-4547-81d7-01d0919d10ab"},"vehicle_type_id":"4","last_reported":1770024900,"current_range_meters":8800,"station_id":"ce4bhqh2rcd13ifvqhmg","pricing_plan_id":"cebpf4jnsgd1na2vs0mg"},{"bike_id":"ae37f4ed-1c7e-48e9-927f-477832e5c8bb","system_id":"levelo_inurba_marseille","lat":43.24176,"lon":5.39741,"is_reserved":false,"is_disabled":false,"rental_uris":{"android":"levelo://app?vid=ae37f4ed-1c7e-48e9-927f-477832e5c8bb","ios":"levelo://app?vid=ae37f4ed-1c7e-48e9-927f-477832e5c8bb"},"vehicle_type_id":"4","last_reported":1770024900,"current_range_meters":8800,"station_id":"ce4bhn12rcd13ifvqgpg","pricing_plan_id":"cebpf4jnsgd1na2vs0mg"},{"bike_id":"f58a70ca-a8c9-4664-815b-877262da506a","system_id":"levelo_inurba_marseille","lat":43.32553,"lon":5.41465,"is_reserved":false,"is_disabled":false,"rental_uris":{"android":"levelo://app?vid=f58a70ca-a8c9-4664-815b-877262da506a","ios":"levelo://app?vid=f58a70ca-a8c9-4664-815b-877262da506a"},"vehicle_type_id":"4","last_reported":1770024900,"current_range_meters":8800,"station_id":"ce4bhq12rcd13ifvqhhg","pricing_plan_id":"cebpf4jnsgd1na2vs0mg"},{"bike_id":"03cf7401-9f27-4896-93d7-76aca7249916","system_id":"levelo_inurba_marseille","lat":43.24071,"lon":5.37752,"is_reserved":false,"is_disabled":false,"rental_uris":{"android":"levelo://app?vid=03cf7401-9f27-4896-93d7-76aca7249916","ios":"levelo://app?vid=03cf7401-9f27-4896-93d7-76aca7249916"},"vehicle_type_id":"4","last_reported":1770024900,"current_range_meters":8800,"station_id":"ce4bhnp2rcd13ifvqgvg","pricing_plan_id":"cebpf4jnsgd1na2vs0mg"},{"bike_id":"eaecb828-b76d-4182-97d7-3d3819619546","system_id":"levelo_inurba_marseille","lat":43.27306,"lon":5.39067,"is_reserved":false,"is_disabled":false,"rental_uris":{"android":"levelo://app?vid=eaecb828-b76d-4182-97d7-3d3819619546","ios":"levelo://app?vid=eaecb828-b76d-4182-97d7-3d3819619546"},"vehicle_type_id":"4","last_reported":1770024900,"current_range_meters":8800,"station_id":"ce4bhgp2rcd13ifvqfe0","pricing_plan_id":"cebpf4jnsgd1na2vs0mg"},{"bike_id":"f2d74811-1503-4a4b-b3d2-6b14165485c5","system_id":"levelo_inurba_marseille","lat":43.3091,"lon":5.36851,"is_reserved":false,"is_disabled":false,"rental_uris":{"android":"levelo://app?vid=f2d74811-1503-4a4b-b3d2-6b14165485c5","ios":"levelo://app?vid=f2d74811-1503-4a4b-b3d2-6b14165485c5"},"vehicle_type_id":"4","last_reported":1770024900,"current_range_meters":8800,"station_id":"ce4bgn92rcd13ifvqbvg","pricing_plan_id":"cebpf4jnsgd1na2vs0mg"},{"bike_id":"ac5c9602-e433-4a2b-8091-d027da8b9fa6","system_id":"levelo_inurba_marseille","lat":43.23163,"lon":5.39996,"is_reserved":false,"is_disabled":false,"rental_uris":{"android":"levelo://app?vid=ac5c9602-e433-4a2b-8091-d027da8b9fa6","ios":"levelo://app?vid=ac5c9602-e433-4a2b-8091-d027da8b9fa6"},"vehicle_type_id":"4","last_reported":1770024900,"current_range_meters":8800,"station_id":"ce4bhn12rcd13ifvqgqg","pricing_plan_id":"cebpf4jnsgd1na2vs0mg"},{"bike_id":"69acac07-cb80-49f9-978e-bbc28b75e035","system_id":"levelo_inurba_marseille","lat":43.24082,"lon":5.37746,"is_reserved":false,"is_disabled":false,"rental_uris":{"android":"levelo://app?vid=69acac07-cb80-49f9-978e-bbc28b75e035","ios":"levelo://app?vid=69acac07-cb80-49f9-978e-bbc28b75e035"},"vehicle_type_id":"4","last_reported":1770024900,"current_range_meters":8800,"station_id":"ce4bhnp2rcd13ifvqgvg","pricing_plan_id":"cebpf4jnsgd1na2vs0mg"},{"bike_id":"2fa2c29c-1079-447f-9840-16848f1eaa54","system_id":"levelo_inurba_marseille","lat":43.29754,"lon":5.37858,"is_reserved":false,"is_disabled":false,"rental_uris":{"android":"levelo://app?vid=2fa2c29c-1079-447f-9840-16848f1eaa54","ios":"levelo://app?vid=2fa2c29c-1079-447f-9840-16848f1eaa54"},"vehicle_type_id":"4","last_reported":1770024900,"current_range_meters":9200,"station_id":"","pricing_plan_id":"cebpf4jnsgd1na2vs0mg"},{"bike_id":"f2b46649-f2d2-4dab-a524-4025b198537f","system_id":"levelo_inurba_marseille","lat":43.29752,"lon":5.42791,"is_reserved":false,"is_disabled":false,"rental_uris":{"android":"levelo://app?vid=f2b46649-f2d2-4dab-a524-4025b198537f","ios":"levelo://app?vid=f2b46649-f2d2-4dab-a524-4025b198537f"},"vehicle_type_id":"4","last_reported":1770024900,"current_range_meters":9200,"station_id":"st_d3md5207bmas73dh9klg","pricing_plan_id":"cebpf4jnsgd1na2vs0mg"},{"bike_id":"2ebe3d1a-eb9d-4119-9eb6-9d700362d893","system_id":"levelo_inurba_marseille","lat":43.24172,"lon":5.39728,"is_reserved":false,"is_disabled":false,"rental_uris":{"android":"levelo://app?vid=2ebe3d1a-eb9d-4119-9eb6-9d700362d893","ios":"levelo://app?vid=2ebe3d1a-eb9d-4119-9eb6-9d700362d893"},"vehicle_type_id":"4","last_reported":1770024900,"current_range_meters":9200,"station_id":"ce4bhn12rcd13ifvqgpg","pricing_plan_id":"cebpf4jnsgd1na2vs0mg"},{"bike_id":"771ea2bc-bf93-42aa-8bb5-10cd9d180578","system_id":"levelo_inurba_marseille","lat":43.33551,"lon":5.37449,"is_reserved":false,"is_disabled":false,"rental_uris":{"android":"levelo://app?vid=771ea2bc-bf93-42aa-8bb5-10cd9d180578","ios":"levelo://app?vid=771ea2bc-bf93-42aa-8bb5-10cd9d180578"},"vehicle_type_id":"4","last_reported":1770024900,"current_range_meters":9200,"station_id":"st_d46tts09ee8s73dlu43g","pricing_plan_id":"cebpf4jnsgd1na2vs0mg"},{"bike_id":"7bfa4b57-17f3-4ffb-906e-4ac6f600d95b","system_id":"levelo_inurba_marseille","lat":43.299016,"lon":5.436639,"is_reserved":false,"is_disabled":false,"rental_uris":{"android":"levelo://app?vid=7bfa4b57-17f3-4ffb-906e-4ac6f600d95b","ios":"levelo://app?vid=7bfa4b57-17f3-4ffb-906e-4ac6f600d95b"},"vehicle_type_id":"4","last_reported":1770024900,"current_range_meters":9200,"station_id":"ce4bhpp2rcd13ifvqhfg","pricing_plan_id":"cebpf4jnsgd1na2vs0mg"},{"bike_id":"34563dd1-22ef-47ee-b5f6-1a548e8b6096","system_id":"levelo_inurba_marseille","lat":43.29794,"lon":5.38104,"is_reserved":false,"is_disabled":false,"rental_uris":{"android":"levelo://app?vid=34563dd1-22ef-47ee-b5f6-1a548e8b6096","ios":"levelo://app?vid=34563dd1-22ef-47ee-b5f6-1a548e8b6096"},"vehicle_type_id":"4","last_reported":1770024900,"current_range_meters":9200,"station_id":"ce4bgip2rcd13ifvqbb0","pricing_plan_id":"cebpf4jnsgd1na2vs0mg"},{"bike_id":"7af7fd93-8501-4af2-a05a-7a66f6aac093","system_id":"levelo_inurba_marseille","lat":43.29528,"lon":5.3902,"is_reserved":false,"is_disabled":false,"rental_uris":{"android":"levelo://app?vid=7af7fd93-8501-4af2-a05a-7a66f6aac093","ios":"levelo://app?vid=7af7fd93-8501-4af2-a05a-7a66f6aac093"},"vehicle_type_id":"4","last_reported":1770024900,"current_range_meters":9200,"station_id":"ce4bh3p2rcd13ifvqdp0","pricing_plan_id":"cebpf4jnsgd1na2vs0mg"},{"bike_id":"08b20334-3e9e-45da-98e2-403d0460dda8","system_id":"levelo_inurba_marseille","lat":43.23187,"lon":5.35586,"is_reserved":false,"is_disabled":false,"rental_uris":{"android":"levelo://app?vid=08b20334-3e9e-45da-98e2-403d0460dda8","ios":"levelo://app?vid=08b20334-3e9e-45da-98e2-403d0460dda8"},"vehicle_type_id":"4","last_reported":1770024900,"current_range_meters":9200,"station_id":"ce4bhu92rcd13ifvqi70","pricing_plan_id":"cebpf4jnsgd1na2vs0mg"},{"bike_id":"90ba5afa-5575-45ce-af95-476a5d039955","system_id":"levelo_inurba_marseille","lat":43.257265,"lon":5.411128,"is_reserved":false,"is_disabled":false,"rental_uris":{"android":"levelo://app?vid=90ba5afa-5575-45ce-af95-476a5d039955","ios":"levelo://app?vid=90ba5afa-5575-45ce-af95-476a5d039955"},"vehicle_type_id":"4","last_reported":1770024900,"current_range_meters":9200,"station_id":"ce4bhkp2rcd13ifvqgd0","pricing_plan_id":"cebpf4jnsgd1na2vs0mg"},{"bike_id":"ae255bd0-9835-47df-b385-88eb6d2ac6b7","system_id":"levelo_inurba_marseille","lat":43.27806,"lon":5.40705,"is_reserved":false,"is_disabled":false,"rental_uris":{"android":"levelo://app?vid=ae255bd0-9835-47df-b385-88eb6d2ac6b7","ios":"levelo://app?vid=ae255bd0-9835-47df-b385-88eb6d2ac6b7"},"vehicle_type_id":"4","last_reported":1770024900,"current_range_meters":9200,"station_id":"ce4bhnh2rcd13ifvqgtg","pricing_plan_id":"cebpf4jnsgd1na2vs0mg"},{"bike_id":"30045bb6-99b5-4634-948c-95b948d16c6f","system_id":"levelo_inurba_marseille","lat":43.29627,"lon":5.37743,"is_reserved":false,"is_disabled":false,"rental_uris":{"android":"levelo://app?vid=30045bb6-99b5-4634-948c-95b948d16c6f","ios":"levelo://app?vid=30045bb6-99b5-4634-948c-95b948d16c6f"},"vehicle_type_id":"4","last_reported":1770024900,"current_range_meters":9200,"station_id":"ce4bgi92rcd13ifvqb90","pricing_plan_id":"cebpf4jnsgd1na2vs0mg"},{"bike_id":"d060beae-5484-437a-9828-e4c487ad0108","system_id":"levelo_inurba_marseille","lat":43.26955,"lon":5.38643,"is_reserved":false,"is_disabled":false,"rental_uris":{"android":"levelo://app?vid=d060beae-5484-437a-9828-e4c487ad0108","ios":"levelo://app?vid=d060beae-5484-437a-9828-e4c487ad0108"},"vehicle_type_id":"4","last_reported":1770024900,"current_range_meters":9200,"station_id":"ce4bhh92rcd13ifvqfh0","pricing_plan_id":"cebpf4jnsgd1na2vs0mg"},{"bike_id":"3f624f26-2d27-45df-a7a3-72d7bebfc4a7","system_id":"levelo_inurba_marseille","lat":43.24482,"lon":5.42527,"is_reserved":false,"is_disabled":false,"rental_uris":{"android":"levelo://app?vid=3f624f26-2d27-45df-a7a3-72d7bebfc4a7","ios":"levelo://app?vid=3f624f26-2d27-45df-a7a3-72d7bebfc4a7"},"vehicle_type_id":"4","last_reported":1770024900,"current_range_meters":9200,"station_id":"st_d4a3vfp97mjs738cd8kg","pricing_plan_id":"cebpf4jnsgd1na2vs0mg"},{"bike_id":"77664360-035c-4d82-9456-35cb07920bef","system_id":"levelo_inurba_marseille","lat":43.24809,"lon":5.37441,"is_reserved":false,"is_disabled":false,"rental_uris":{"android":"levelo://app?vid=77664360-035c-4d82-9456-35cb07920bef","ios":"levelo://app?vid=77664360-035c-4d82-9456-35cb07920bef"},"vehicle_type_id":"4","last_reported":1770024900,"current_range_meters":9200,"station_id":"ce4bhgh2rcd13ifvqfb0","pricing_plan_id":"cebpf4jnsgd1na2vs0mg"},{"bike_id":"c062aa34-fffd-40cf-8dc3-ef00546731c9","system_id":"levelo_inurba_marseille","lat":43.3128,"lon":5.37763,"is_reserved":false,"is_disabled":false,"rental_uris":{"android":"levelo://app?vid=c062aa34-fffd-40cf-8dc3-ef00546731c9","ios":"levelo://app?vid=c062aa34-fffd-40cf-8dc3-ef00546731c9"},"vehicle_type_id":"4","last_reported":1770024900,"current_range_meters":9200,"station_id":"","pricing_plan_id":"cebpf4jnsgd1na2vs0mg"},{"bike_id":"0161be71-5acc-4bef-a661-add8f18169dc","system_id":"levelo_inurba_marseille","lat":43.29887,"lon":5.43705,"is_reserved":false,"is_disabled":false,"rental_uris":{"android":"levelo://app?vid=0161be71-5acc-4bef-a661-add8f18169dc","ios":"levelo://app?vid=0161be71-5acc-4bef-a661-add8f18169dc"},"vehicle_type_id":"4","last_reported":1770024900,"current_range_meters":9200,"station_id":"","pricing_plan_id":"cebpf4jnsgd1na2vs0mg"},{"bike_id":"ace0dc22-412f-44b8-a9b2-41f4864ac30b","system_id":"levelo_inurba_marseille","lat":43.26958,"lon":5.38624,"is_reserved":false,"is_disabled":false,"rental_uris":{"android":"levelo://app?vid=ace0dc22-412f-44b8-a9b2-41f4864ac30b","ios":"levelo://app?vid=ace0dc22-412f-44b8-a9b2-41f4864ac30b"},"vehicle_type_id":"4","last_reported":1770024900,"current_range_meters":9200,"station_id":"ce4bhh92rcd13ifvqfh0","pricing_plan_id":"cebpf4jnsgd1na2vs0mg"},{"bike_id":"81ae8bd1-f2ab-4703-acf8-57dfe12da164","system_id":"levelo_inurba_marseille","lat":43.28259,"lon":5.35078,"is_reserved":false,"is_disabled":false,"rental_uris":{"android":"levelo://app?vid=81ae8bd1-f2ab-4703-acf8-57dfe12da164","ios":"levelo://app?vid=81ae8bd1-f2ab-4703-acf8-57dfe12da164"},"vehicle_type_id":"4","last_reported":1770024900,"current_range_meters":9600,"station_id":"ce4bhbp2rcd13ifvqerg","pricing_plan_id":"cebpf4jnsgd1na2vs0mg"},{"bike_id":"1ffbf4c6-ed2a-4597-a740-6d4a84e10707","system_id":"levelo_inurba_marseille","lat":43.27829,"lon":5.40725,"is_reserved":false,"is_disabled":false,"rental_uris":{"android":"levelo://app?vid=1ffbf4c6-ed2a-4597-a740-6d4a84e10707","ios":"levelo://app?vid=1ffbf4c6-ed2a-4597-a740-6d4a84e10707"},"vehicle_type_id":"4","last_reported":1770024900,"current_range_meters":9600,"station_id":"ce4bhnh2rcd13ifvqgtg","pricing_plan_id":"cebpf4jnsgd1na2vs0mg"},{"bike_id":"08649d84-e1d6-4e07-9829-b3006714256b","system_id":"levelo_inurba_marseille","lat":43.24175,"lon":5.39728,"is_reserved":false,"is_disabled":false,"rental_uris":{"android":"levelo://app?vid=08649d84-e1d6-4e07-9829-b3006714256b","ios":"levelo://app?vid=08649d84-e1d6-4e07-9829-b3006714256b"},"vehicle_type_id":"4","last_reported":1770024900,"current_range_meters":9600,"station_id":"ce4bhn12rcd13ifvqgpg","pricing_plan_id":"cebpf4jnsgd1na2vs0mg"},{"bike_id":"ac9ec827-040d-4d56-8b5a-09bbd8324851","system_id":"levelo_inurba_marseille","lat":43.30958,"lon":5.39043,"is_reserved":false,"is_disabled":false,"rental_uris":{"android":"levelo://app?vid=ac9ec827-040d-4d56-8b5a-09bbd8324851","ios":"levelo://app?vid=ac9ec827-040d-4d56-8b5a-09bbd8324851"},"vehicle_type_id":"4","last_reported":1770024900,"current_range_meters":9600,"station_id":"ce4bgup2rcd13ifvqco0","pricing_plan_id":"cebpf4jnsgd1na2vs0mg"},{"bike_id":"4e491b3e-0704-4c9d-9283-ae60d0cec9c2","system_id":"levelo_inurba_marseille","lat":43.29264,"lon":5.3685,"is_reserved":false,"is_disabled":false,"rental_uris":{"android":"levelo://app?vid=4e491b3e-0704-4c9d-9283-ae60d0cec9c2","ios":"levelo://app?vid=4e491b3e-0704-4c9d-9283-ae60d0cec9c2"},"vehicle_type_id":"4","last_reported":1770024900,"current_range_meters":9600,"station_id":"ce4bhbp2rcd13ifvqesg","pricing_plan_id":"cebpf4jnsgd1na2vs0mg"},{"bike_id":"8c34401f-5308-4100-993b-4be205aa9273","system_id":"levelo_inurba_marseille","lat":43.29275,"lon":5.36849,"is_reserved":false,"is_disabled":false,"rental_uris":{"android":"levelo://app?vid=8c34401f-5308-4100-993b-4be205aa9273","ios":"levelo://app?vid=8c34401f-5308-4100-993b-4be205aa9273"},"vehicle_type_id":"4","last_reported":1770024900,"current_range_meters":9600,"station_id":"ce4bhbp2rcd13ifvqesg","pricing_plan_id":"cebpf4jnsgd1na2vs0mg"},{"bike_id":"f4bef384-efce-4dfc-97cd-21cc8e160d07","system_id":"levelo_inurba_marseille","lat":43.31715,"lon":5.42421,"is_reserved":false,"is_disabled":false,"rental_uris":{"android":"levelo://app?vid=f4bef384-efce-4dfc-97cd-21cc8e160d07","ios":"levelo://app?vid=f4bef384-efce-4dfc-97cd-21cc8e160d07"},"vehicle_type_id":"4","last_reported":1770024900,"current_range_meters":9600,"station_id":"ce4bhp92rcd13ifvqhbg","pricing_plan_id":"cebpf4jnsgd1na2vs0mg"},{"bike_id":"339cf8cd-aae0-46f7-862f-624887548393","system_id":"levelo_inurba_marseille","lat":43.27955,"lon":5.38694,"is_reserved":false,"is_disabled":false,"rental_uris":{"android":"levelo://app?vid=339cf8cd-aae0-46f7-862f-624887548393","ios":"levelo://app?vid=339cf8cd-aae0-46f7-862f-624887548393"},"vehicle_type_id":"4","last_reported":1770024900,"current_range_meters":9600,"station_id":"ce4bhg12rcd13ifvqf80","pricing_plan_id":"cebpf4jnsgd1na2vs0mg"},{"bike_id":"69bce1d6-d9af-4ff0-8b44-12769911a4a1","system_id":"levelo_inurba_marseille","lat":43.28967,"lon":5.37838,"is_reserved":false,"is_disabled":false,"rental_uris":{"android":"levelo://app?vid=69bce1d6-d9af-4ff0-8b44-12769911a4a1","ios":"levelo://app?vid=69bce1d6-d9af-4ff0-8b44-12769911a4a1"},"vehicle_type_id":"4","last_reported":1770024900,"current_range_meters":9600,"station_id":"ce4bh9p2rcd13ifvqed0","pricing_plan_id":"cebpf4jnsgd1na2vs0mg"},{"bike_id":"d65e7611-55ca-42ca-909a-fde8278b5659","system_id":"levelo_inurba_marseille","lat":43.21192,"lon":5.3507,"is_reserved":false,"is_disabled":true,"rental_uris":{"android":"levelo://app?vid=d65e7611-55ca-42ca-909a-fde8278b5659","ios":"levelo://app?vid=d65e7611-55ca-42ca-909a-fde8278b5659"},"vehicle_type_id":"4","last_reported":1770024900,"current_range_meters":9600,"station_id":"st_cvj6sg6p6f1abm77japg","pricing_plan_id":"cebpf4jnsgd1na2vs0mg"},{"bike_id":"e6346c86-0173-49c5-9572-0906338b1b0b","system_id":"levelo_inurba_marseille","lat":43.28722,"lon":5.37934,"is_reserved":false,"is_disabled":false,"rental_uris":{"android":"levelo://app?vid=e6346c86-0173-49c5-9572-0906338b1b0b","ios":"levelo://app?vid=e6346c86-0173-49c5-9572-0906338b1b0b"},"vehicle_type_id":"4","last_reported":1770024900,"current_range_meters":9600,"station_id":"ce4bh9p2rcd13ifvqec0","pricing_plan_id":"cebpf4jnsgd1na2vs0mg"},{"bike_id":"f4dde5d0-dd73-4196-bfcd-e68e1ae2c8a6","system_id":"levelo_inurba_marseille","lat":43.30214,"lon":5.3946,"is_reserved":false,"is_disabled":false,"rental_uris":{"android":"levelo://app?vid=f4dde5d0-dd73-4196-bfcd-e68e1ae2c8a6","ios":"levelo://app?vid=f4dde5d0-dd73-4196-bfcd-e68e1ae2c8a6"},"vehicle_type_id":"4","last_reported":1770024900,"current_range_meters":9600,"station_id":"ce4bh0p2rcd13ifvqd70","pricing_plan_id":"cebpf4jnsgd1na2vs0mg"},{"bike_id":"bff22768-2cde-4a3f-98d2-4af19e4efeec","system_id":"levelo_inurba_marseille","lat":43.31027,"lon":5.37185,"is_reserved":false,"is_disabled":false,"rental_uris":{"android":"levelo://app?vid=bff22768-2cde-4a3f-98d2-4af19e4efeec","ios":"levelo://app?vid=bff22768-2cde-4a3f-98d2-4af19e4efeec"},"vehicle_type_id":"4","last_reported":1770024900,"current_range_meters":9600,"station_id":"st_d4kl2rp97mjs73e7tdfg","pricing_plan_id":"cebpf4jnsgd1na2vs0mg"},{"bike_id":"de99eea9-5b5f-45db-b29e-86e7108f5361","system_id":"levelo_inurba_marseille","lat":43.28466,"lon":5.38399,"is_reserved":false,"is_disabled":false,"rental_uris":{"android":"levelo://app?vid=de99eea9-5b5f-45db-b29e-86e7108f5361","ios":"levelo://app?vid=de99eea9-5b5f-45db-b29e-86e7108f5361"},"vehicle_type_id":"4","last_reported":1770024900,"current_range_meters":9600,"station_id":"ce4bh512rcd13ifvqe3g","pricing_plan_id":"cebpf4jnsgd1na2vs0mg"},{"bike_id":"5704d325-44da-4640-841e-d73cfa2e6959","system_id":"levelo_inurba_marseille","lat":43.31175,"lon":5.38028,"is_reserved":false,"is_disabled":false,"rental_uris":{"android":"levelo://app?vid=5704d325-44da-4640-841e-d73cfa2e6959","ios":"levelo://app?vid=5704d325-44da-4640-841e-d73cfa2e6959"},"vehicle_type_id":"4","last_reported":1770024900,"current_range_meters":9600,"station_id":"","pricing_plan_id":"cebpf4jnsgd1na2vs0mg"},{"bike_id":"9e82ccca-a401-48fb-8c8e-38aea5c23c2d","system_id":"levelo_inurba_marseille","lat":43.31245,"lon":5.3682,"is_reserved":false,"is_disabled":false,"rental_uris":{"android":"levelo://app?vid=9e82ccca-a401-48fb-8c8e-38aea5c23c2d","ios":"levelo://app?vid=9e82ccca-a401-48fb-8c8e-38aea5c23c2d"},"vehicle_type_id":"4","last_reported":1770024900,"current_range_meters":9600,"station_id":"ce4bgl92rcd13ifvqbq0","pricing_plan_id":"cebpf4jnsgd1na2vs0mg"},{"bike_id":"b4da3c95-9f92-4d98-9243-d1a099fbcabf","system_id":"levelo_inurba_marseille","lat":43.249926,"lon":5.389372,"is_reserved":false,"is_disabled":false,"rental_uris":{"android":"levelo://app?vid=b4da3c95-9f92-4d98-9243-d1a099fbcabf","ios":"levelo://app?vid=b4da3c95-9f92-4d98-9243-d1a099fbcabf"},"vehicle_type_id":"4","last_reported":1770024900,"current_range_meters":10000,"station_id":"ce4bhgp2rcd13ifvqfd0","pricing_plan_id":"cebpf4jnsgd1na2vs0mg"},{"bike_id":"6460c266-762f-472e-8583-aca66fe8ea6d","system_id":"levelo_inurba_marseille","lat":43.24078,"lon":5.37753,"is_reserved":false,"is_disabled":false,"rental_uris":{"android":"levelo://app?vid=6460c266-762f-472e-8583-aca66fe8ea6d","ios":"levelo://app?vid=6460c266-762f-472e-8583-aca66fe8ea6d"},"vehicle_type_id":"4","last_reported":1770024900,"current_range_meters":10000,"station_id":"ce4bhnp2rcd13ifvqgvg","pricing_plan_id":"cebpf4jnsgd1na2vs0mg"},{"bike_id":"7ea469f1-f16e-4924-a213-85ca76ef9bcc","system_id":"levelo_inurba_marseille","lat":43.29822,"lon":5.38075,"is_reserved":false,"is_disabled":false,"rental_uris":{"android":"levelo://app?vid=7ea469f1-f16e-4924-a213-85ca76ef9bcc","ios":"levelo://app?vid=7ea469f1-f16e-4924-a213-85ca76ef9bcc"},"vehicle_type_id":"4","last_reported":1770024900,"current_range_meters":10000,"station_id":"ce4bgip2rcd13ifvqbb0","pricing_plan_id":"cebpf4jnsgd1na2vs0mg"},{"bike_id":"950ef2fd-ac9f-4024-bdd2-e70e2f21cb2a","system_id":"levelo_inurba_marseille","lat":43.27926,"lon":5.39596,"is_reserved":false,"is_disabled":false,"rental_uris":{"android":"levelo://app?vid=950ef2fd-ac9f-4024-bdd2-e70e2f21cb2a","ios":"levelo://app?vid=950ef2fd-ac9f-4024-bdd2-e70e2f21cb2a"},"vehicle_type_id":"4","last_reported":1770024900,"current_range_meters":10000,"station_id":"ce4bhf92rcd13ifvqf40","pricing_plan_id":"cebpf4jnsgd1na2vs0mg"},{"bike_id":"bdc8f3f1-7191-4554-b1d6-3542e00caa57","system_id":"levelo_inurba_marseille","lat":43.2843,"lon":5.34976,"is_reserved":false,"is_disabled":false,"rental_uris":{"android":"levelo://app?vid=bdc8f3f1-7191-4554-b1d6-3542e00caa57","ios":"levelo://app?vid=bdc8f3f1-7191-4554-b1d6-3542e00caa57"},"vehicle_type_id":"4","last_reported":1770024900,"current_range_meters":10000,"station_id":"ce4bhbh2rcd13ifvqepg","pricing_plan_id":"cebpf4jnsgd1na2vs0mg"},{"bike_id":"05ed06f3-681a-44e4-982f-ee709f8fb504","system_id":"levelo_inurba_marseille","lat":43.29786,"lon":5.38106,"is_reserved":false,"is_disabled":false,"rental_uris":{"android":"levelo://app?vid=05ed06f3-681a-44e4-982f-ee709f8fb504","ios":"levelo://app?vid=05ed06f3-681a-44e4-982f-ee709f8fb504"},"vehicle_type_id":"4","last_reported":1770024900,"current_range_meters":10000,"station_id":"ce4bgip2rcd13ifvqbb0","pricing_plan_id":"cebpf4jnsgd1na2vs0mg"},{"bike_id":"e125effe-867f-4979-a6cf-c39437316782","system_id":"levelo_inurba_marseille","lat":43.2407,"lon":5.37808,"is_reserved":false,"is_disabled":false,"rental_uris":{"android":"levelo://app?vid=e125effe-867f-4979-a6cf-c39437316782","ios":"levelo://app?vid=e125effe-867f-4979-a6cf-c39437316782"},"vehicle_type_id":"4","last_reported":1770024900,"current_range_meters":10000,"station_id":"ce4bhnp2rcd13ifvqgvg","pricing_plan_id":"cebpf4jnsgd1na2vs0mg"},{"bike_id":"5049f44b-a994-41e4-85c4-2776528ca057","system_id":"levelo_inurba_marseille","lat":43.26552,"lon":5.37295,"is_reserved":false,"is_disabled":true,"rental_uris":{"android":"levelo://app?vid=5049f44b-a994-41e4-85c4-2776528ca057","ios":"levelo://app?vid=5049f44b-a994-41e4-85c4-2776528ca057"},"vehicle_type_id":"4","last_reported":1770024900,"current_range_meters":10000,"station_id":"ce4bhg12rcd13ifvqf70","pricing_plan_id":"cebpf4jnsgd1na2vs0mg"},{"bike_id":"a2b7e688-c355-44e3-8f09-d139df01719d","system_id":"levelo_inurba_marseille","lat":43.28925,"lon":5.36383,"is_reserved":false,"is_disabled":false,"rental_uris":{"android":"levelo://app?vid=a2b7e688-c355-44e3-8f09-d139df01719d","ios":"levelo://app?vid=a2b7e688-c355-44e3-8f09-d139df01719d"},"vehicle_type_id":"4","last_reported":1770024900,"current_range_meters":10000,"station_id":"ce4bhc92rcd13ifvqetg","pricing_plan_id":"cebpf4jnsgd1na2vs0mg"},{"bike_id":"76c8fc78-3107-4a30-bfc0-80b4c769e9eb","system_id":"levelo_inurba_marseille","lat":43.24073,"lon":5.37754,"is_reserved":false,"is_disabled":false,"rental_uris":{"android":"levelo://app?vid=76c8fc78-3107-4a30-bfc0-80b4c769e9eb","ios":"levelo://app?vid=76c8fc78-3107-4a30-bfc0-80b4c769e9eb"},"vehicle_type_id":"4","last_reported":1770024900,"current_range_meters":10000,"station_id":"ce4bhnp2rcd13ifvqgvg","pricing_plan_id":"cebpf4jnsgd1na2vs0mg"},{"bike_id":"182249cb-1b65-4cda-be85-10d084311aa6","system_id":"levelo_inurba_marseille","lat":43.302124,"lon":5.394673,"is_reserved":false,"is_disabled":false,"rental_uris":{"android":"levelo://app?vid=182249cb-1b65-4cda-be85-10d084311aa6","ios":"levelo://app?vid=182249cb-1b65-4cda-be85-10d084311aa6"},"vehicle_type_id":"4","last_reported":1770024900,"current_range_meters":10000,"station_id":"ce4bh0p2rcd13ifvqd70","pricing_plan_id":"cebpf4jnsgd1na2vs0mg"},{"bike_id":"f0653f9d-58c6-4236-ad69-87e4f2d312de","system_id":"levelo_inurba_marseille","lat":43.28604,"lon":5.35096,"is_reserved":false,"is_disabled":true,"rental_uris":{"android":"levelo://app?vid=f0653f9d-58c6-4236-ad69-87e4f2d312de","ios":"levelo://app?vid=f0653f9d-58c6-4236-ad69-87e4f2d312de"},"vehicle_type_id":"4","last_reported":1770024900,"current_range_meters":10000,"station_id":"ce4bhch2rcd13ifvqeug","pricing_plan_id":"cebpf4jnsgd1na2vs0mg"},{"bike_id":"7c48928e-9a34-40c6-8c02-f16fa56b2c4a","system_id":"levelo_inurba_marseille","lat":43.240759,"lon":5.377558,"is_reserved":false,"is_disabled":false,"rental_uris":{"android":"levelo://app?vid=7c48928e-9a34-40c6-8c02-f16fa56b2c4a","ios":"levelo://app?vid=7c48928e-9a34-40c6-8c02-f16fa56b2c4a"},"vehicle_type_id":"4","last_reported":1770024900,"current_range_meters":10000,"station_id":"ce4bhnp2rcd13ifvqgvg","pricing_plan_id":"cebpf4jnsgd1na2vs0mg"},{"bike_id":"00aa65f2-b269-417d-9516-05011b7ebc65","system_id":"levelo_inurba_marseille","lat":43.28489,"lon":5.38432,"is_reserved":false,"is_disabled":false,"rental_uris":{"android":"levelo://app?vid=00aa65f2-b269-417d-9516-05011b7ebc65","ios":"levelo://app?vid=00aa65f2-b269-417d-9516-05011b7ebc65"},"vehicle_type_id":"4","last_reported":1770024900,"current_range_meters":10000,"station_id":"ce4bh512rcd13ifvqe3g","pricing_plan_id":"cebpf4jnsgd1na2vs0mg"},{"bike_id":"dd41267e-6370-4639-8c88-d923873bb35c","system_id":"levelo_inurba_marseille","lat":43.27504,"lon":5.4245,"is_reserved":false,"is_disabled":false,"rental_uris":{"android":"levelo://app?vid=dd41267e-6370-4639-8c88-d923873bb35c","ios":"levelo://app?vid=dd41267e-6370-4639-8c88-d923873bb35c"},"vehicle_type_id":"4","last_reported":1770024900,"current_range_meters":10000,"station_id":"ce4bhn92rcd13ifvqgrg","pricing_plan_id":"cebpf4jnsgd1na2vs0mg"},{"bike_id":"9856ac21-8758-4457-ad87-2d03ea77e6e1","system_id":"levelo_inurba_marseille","lat":43.29477,"lon":5.42893,"is_reserved":false,"is_disabled":false,"rental_uris":{"android":"levelo://app?vid=9856ac21-8758-4457-ad87-2d03ea77e6e1","ios":"levelo://app?vid=9856ac21-8758-4457-ad87-2d03ea77e6e1"},"vehicle_type_id":"4","last_reported":1770024900,"current_range_meters":10800,"station_id":"","pricing_plan_id":"cebpf4jnsgd1na2vs0mg"},{"bike_id":"6ca9ea11-e24b-44dd-9591-e8e049789ac0","system_id":"levelo_inurba_marseille","lat":43.31067,"lon":5.37181,"is_reserved":false,"is_disabled":false,"rental_uris":{"android":"levelo://app?vid=6ca9ea11-e24b-44dd-9591-e8e049789ac0","ios":"levelo://app?vid=6ca9ea11-e24b-44dd-9591-e8e049789ac0"},"vehicle_type_id":"4","last_reported":1770024900,"current_range_meters":10800,"station_id":"st_d4kl2rp97mjs73e7tdfg","pricing_plan_id":"cebpf4jnsgd1na2vs0mg"},{"bike_id":"7f90f827-7dd6-4c19-8235-0f1df3368cc6","system_id":"levelo_inurba_marseille","lat":43.24076,"lon":5.37754,"is_reserved":false,"is_disabled":false,"rental_uris":{"android":"levelo://app?vid=7f90f827-7dd6-4c19-8235-0f1df3368cc6","ios":"levelo://app?vid=7f90f827-7dd6-4c19-8235-0f1df3368cc6"},"vehicle_type_id":"4","last_reported":1770024900,"current_range_meters":10800,"station_id":"ce4bhnp2rcd13ifvqgvg","pricing_plan_id":"cebpf4jnsgd1na2vs0mg"},{"bike_id":"071d422e-bf78-4543-b080-48c21b7250ce","system_id":"levelo_inurba_marseille","lat":43.24795,"lon":5.37459,"is_reserved":false,"is_disabled":false,"rental_uris":{"android":"levelo://app?vid=071d422e-bf78-4543-b080-48c21b7250ce","ios":"levelo://app?vid=071d422e-bf78-4543-b080-48c21b7250ce"},"vehicle_type_id":"4","last_reported":1770024900,"current_range_meters":10800,"station_id":"ce4bhgh2rcd13ifvqfb0","pricing_plan_id":"cebpf4jnsgd1na2vs0mg"},{"bike_id":"d72b8f61-4fd4-4866-9411-b2ee01711121","system_id":"levelo_inurba_marseille","lat":43.27965,"lon":5.38707,"is_reserved":false,"is_disabled":false,"rental_uris":{"android":"levelo://app?vid=d72b8f61-4fd4-4866-9411-b2ee01711121","ios":"levelo://app?vid=d72b8f61-4fd4-4866-9411-b2ee01711121"},"vehicle_type_id":"4","last_reported":1770024900,"current_range_meters":10800,"station_id":"ce4bhg12rcd13ifvqf80","pricing_plan_id":"cebpf4jnsgd1na2vs0mg"},{"bike_id":"4ef31b73-dd19-4a55-b6c4-d5088c717beb","system_id":"levelo_inurba_marseille","lat":43.30887,"lon":5.37188,"is_reserved":false,"is_disabled":false,"rental_uris":{"android":"levelo://app?vid=4ef31b73-dd19-4a55-b6c4-d5088c717beb","ios":"levelo://app?vid=4ef31b73-dd19-4a55-b6c4-d5088c717beb"},"vehicle_type_id":"4","last_reported":1770024900,"current_range_meters":10800,"station_id":"ce4bguh2rcd13ifvqckg","pricing_plan_id":"cebpf4jnsgd1na2vs0mg"},