{"last_updated":1774117303,"ttl":60,"version":"2.2","data":{"bikes":[{"bike_id":"079921cc-5f2b-408c-ad49-3463c064b465","system_id":"levelo_inurba_marseille","lat":43.29528,"lon":5.38561,"is_reserved":false,"is_disabled":false,"rental_uris":{"android":"levelo://app?vid=079921cc-5f2b-408c-ad49-3463c064b465","ios":"levelo://app?vid=079921cc-5f2b-408c-ad49-3463c064b465"},"vehicle_type_id":"4","last_reported":1774117304,"current_range_meters":2800,"station_id":"ce4bgih2rcd13ifvqba0","pricing_plan_id":"cebpf4jnsgd1na2vs0mg"},{"bike_id":"5724b1c3-2a6d-477b-b867-3e94531de8b0","system_id":"levelo_inurba_marseille","lat":43.28417,"lon":5.37505,"is_reserved":false,"is_disabled":false,"rental_uris":{"android":"levelo://app?vid=5724b1c3-2a6d-477b-b867-3e94531de8b0","ios":"levelo://app?vid=5724b1c3-2a6d-477b-b867-3e94531de8b0"},"vehicle_type_id":"4","last_reported":1774117304,"current_range_meters":2800,"station_id":"ce4bh412rcd13ifvqds0","pricing_plan_id":"cebpf4jnsgd1na2vs0mg"},{"bike_id":"24d6c305-c11c-4d3e-8a18-58a38bd76ae6","system_id":"levelo_inurba_marseille","lat":43.29839,"lon":5.36271,"is_reserved":false,"is_disabled":false,"rental_uris":{"android":"levelo://app?vid=24d6c305-c11c-4d3e-8a18-58a38bd76ae6","ios":"levelo://app?vid=24d6c305-c11c-4d3e-8a18-58a38bd76ae6"},"vehicle_type_id":"4","last_reported":1774117304,"current_range_meters":2800,"station_id":"ce4bgpp2rcd13ifvqc3g","pricing_plan_id":"cebpf4jnsgd1na2vs0mg"},{"bike_id":"caeb4135-814c-4bec-8775-9b54eb9ff0b3","system_id":"levelo_inurba_marseille","lat":43.28278,"lon":5.35078,"is_reserved":false,"is_disabled":false,"rental_uris":{"android":"levelo://app?vid=caeb4135-814c-4bec-8775-9b54eb9ff0b3","ios":"levelo://app?vid=caeb4135-814c-4bec-8775-9b54eb9ff0b3"},"vehicle_type_id":"4","last_reported":1774117304,"current_range_meters":2800,"station_id":"ce4bhbp2rcd13ifvqerg","pricing_plan_id":"cebpf4jnsgd1na2vs0mg"},{"bike_id":"feef55a9-165c-40b0-ab63-0afc18b21d07","system_id":"levelo_inurba_marseille","lat":43.33536,"lon":5.37447,"is_reserved":false,"is_disabled":false,"rental_uris":{"android":"levelo://app?vid=feef55a9-165c-40b0-ab63-0afc18b21d07","ios":"levelo://app?vid=feef55a9-165c-40b0-ab63-0afc18b21d07"},"vehicle_type_id":"4","last_reported":1774117304,"current_range_meters":2800,"station_id":"st_d46tts09ee8s73dlu43g","pricing_plan_id":"cebpf4jnsgd1na2vs0mg"},{"bike_id":"45f343c6-d246-4003-b6a7-edca73dbc20b","system_id":"levelo_inurba_marseille","lat":43.27908,"lon":5.39175,"is_reserved":false,"is_disabled":false,"rental_uris":{"android":"levelo://app?vid=45f343c6-d246-4003-b6a7-edca73dbc20b","ios":"levelo://app?vid=45f343c6-d246-4003-b6a7-edca73dbc20b"},"vehicle_type_id":"4","last_reported":1774117304,"current_range_meters":2800,"station_id":"","pricing_plan_id":"cebpf4jnsgd1na2vs0mg"},{"bike_id":"da15e1d8-257d-42d3-9e14-df706ce60898","system_id":"levelo_inurba_marseille","lat":43.26808,"lon":5.40272,"is_reserved":false,"is_disabled":false,"rental_uris":{"android":"levelo://app?vid=da15e1d8-257d-42d3-9e14-df706ce60898","ios":"levelo://app?vid=da15e1d8-257d-42d3-9e14-df706ce60898"},"vehicle_type_id":"4","last_reported":1774117304,"current_range_meters":2800,"station_id":"ce501612rcd8frsf0b60","pricing_plan_id":"cebpf4jnsgd1na2vs0mg"},{"bike_id":"49b1310a-9ee2-4c81-a683-d11933e51d81","system_id":"levelo_inurba_marseille","lat":43.30299,"lon":5.39212,"is_reserved":false,"is_disabled":false,"rental_uris":{"android":"levelo://app?vid=49b1310a-9ee2-4c81-a683-d11933e51d81","ios":"levelo://app?vid=49b1310a-9ee2-4c81-a683-d11933e51d81"},"vehicle_type_id":"4","last_reported":1774117304,"current_range_meters":2800,"station_id":"ce4bgkh2rcd13ifvqbk0","pricing_plan_id":"cebpf4jnsgd1na2vs0mg"},{"bike_id":"c6c5db13-9775-4ff0-8171-3084049dd05a","system_id":"levelo_inurba_marseille","lat":43.30936,"lon":5.40146,"is_reserved":false,"is_disabled":false,"rental_uris":{"android":"levelo://app?vid=c6c5db13-9775-4ff0-8171-3084049dd05a","ios":"levelo://app?vid=c6c5db13-9775-4ff0-8171-3084049dd05a"},"vehicle_type_id":"4","last_reported":1774117304,"current_range_meters":2800,"station_id":"ce4bgvp2rcd13ifvqct0","pricing_plan_id":"cebpf4jnsgd1na2vs0mg"},{"bike_id":"50741f56-c70c-47ee-a277-fe2993e95f3a","system_id":"levelo_inurba_marseille","lat":43.29525,"lon":5.39403,"is_reserved":false,"is_disabled":false,"rental_uris":{"android":"levelo://app?vid=50741f56-c70c-47ee-a277-fe2993e95f3a","ios":"levelo://app?vid=50741f56-c70c-47ee-a277-fe2993e95f3a"},"vehicle_type_id":"4","last_reported":1774117304,"current_range_meters":2800,"station_id":"ce4bh292rcd13ifvqdf0","pricing_plan_id":"cebpf4jnsgd1na2vs0mg"},{"bike_id":"4448753b-5929-4138-9590-dead1ac99ab6","system_id":"levelo_inurba_marseille","lat":43.29197,"lon":5.35807,"is_reserved":false,"is_disabled":false,"rental_uris":{"android":"levelo://app?vid=4448753b-5929-4138-9590-dead1ac99ab6","ios":"levelo://app?vid=4448753b-5929-4138-9590-dead1ac99ab6"},"vehicle_type_id":"4","last_reported":1774117304,"current_range_meters":2800,"station_id":"ce4bhb12rcd13ifvqel0","pricing_plan_id":"cebpf4jnsgd1na2vs0mg"},{"bike_id":"0e9df1b6-908f-4e18-81e1-9a164798c2e1","system_id":"levelo_inurba_marseille","lat":43.30464,"lon":5.36707,"is_reserved":false,"is_disabled":true,"rental_uris":{"android":"levelo://app?vid=0e9df1b6-908f-4e18-81e1-9a164798c2e1","ios":"levelo://app?vid=0e9df1b6-908f-4e18-81e1-9a164798c2e1"},"vehicle_type_id":"4","last_reported":1774117304,"current_range_meters":2800,"station_id":"","pricing_plan_id":"cebpf4jnsgd1na2vs0mg"},{"bike_id":"cc155026-55d9-40cf-b209-50c22c29b75a","system_id":"levelo_inurba_marseille","lat":43.28395,"lon":5.37504,"is_reserved":false,"is_disabled":false,"rental_uris":{"android":"levelo://app?vid=cc155026-55d9-40cf-b209-50c22c29b75a","ios":"levelo://app?vid=cc155026-55d9-40cf-b209-50c22c29b75a"},"vehicle_type_id":"4","last_reported":1774117304,"current_range_meters":2800,"station_id":"ce4bh412rcd13ifvqds0","pricing_plan_id":"cebpf4jnsgd1na2vs0mg"},{"bike_id":"cc5eef0d-52b1-4d23-b587-231c4d030e47","system_id":"levelo_inurba_marseille","lat":43.225308,"lon":5.348296,"is_reserved":false,"is_disabled":false,"rental_uris":{"android":"levelo://app?vid=cc5eef0d-52b1-4d23-b587-231c4d030e47","ios":"levelo://app?vid=cc5eef0d-52b1-4d23-b587-231c4d030e47"},"vehicle_type_id":"4","last_reported":1774117304,"current_range_meters":2800,"station_id":"","pricing_plan_id":"cebpf4jnsgd1na2vs0mg"},{"bike_id":"83907c9f-35fb-4c55-a706-da5ddce21dcc","system_id":"levelo_inurba_marseille","lat":43.292756,"lon":5.368472,"is_reserved":false,"is_disabled":false,"rental_uris":{"android":"levelo://app?vid=83907c9f-35fb-4c55-a706-da5ddce21dcc","ios":"levelo://app?vid=83907c9f-35fb-4c55-a706-da5ddce21dcc"},"vehicle_type_id":"4","last_reported":1774117304,"current_range_meters":2800,"station_id":"ce4bhbp2rcd13ifvqesg","pricing_plan_id":"cebpf4jnsgd1na2vs0mg"},{"bike_id":"44ddd783-b8ae-4a51-b008-e2699792e035","system_id":"levelo_inurba_marseille","lat":43.29264,"lon":5.3844,"is_reserved":false,"is_disabled":false,"rental_uris":{"android":"levelo://app?vid=44ddd783-b8ae-4a51-b008-e2699792e035","ios":"levelo://app?vid=44ddd783-b8ae-4a51-b008-e2699792e035"},"vehicle_type_id":"4","last_reported":1774117304,"current_range_meters":2800,"station_id":"ce4bh692rcd13ifvqea0","pricing_plan_id":"cebpf4jnsgd1na2vs0mg"},{"bike_id":"a4c5e210-e189-4775-9894-d36f327e4641","system_id":"levelo_inurba_marseille","lat":43.23892,"lon":5.37461,"is_reserved":false,"is_disabled":false,"rental_uris":{"android":"levelo://app?vid=a4c5e210-e189-4775-9894-d36f327e4641","ios":"levelo://app?vid=a4c5e210-e189-4775-9894-d36f327e4641"},"vehicle_type_id":"4","last_reported":1774117304,"current_range_meters":2800,"station_id":"st_d6sm7csbq4hs73f8fpjg","pricing_plan_id":"cebpf4jnsgd1na2vs0mg"},{"bike_id":"282414c3-76c0-40d0-b74c-bccc96960863","system_id":"levelo_inurba_marseille","lat":43.27218,"lon":5.39192,"is_reserved":false,"is_disabled":false,"rental_uris":{"android":"levelo://app?vid=282414c3-76c0-40d0-b74c-bccc96960863","ios":"levelo://app?vid=282414c3-76c0-40d0-b74c-bccc96960863"},"vehicle_type_id":"4","last_reported":1774117304,"current_range_meters":2800,"station_id":"ce4bhhp2rcd13ifvqfm0","pricing_plan_id":"cebpf4jnsgd1na2vs0mg"},{"bike_id":"29ceb06a-4df8-4e2a-9dd9-b070e185b37f","system_id":"levelo_inurba_marseille","lat":43.28486,"lon":5.48411,"is_reserved":false,"is_disabled":false,"rental_uris":{"android":"levelo://app?vid=29ceb06a-4df8-4e2a-9dd9-b070e185b37f","ios":"levelo://app?vid=29ceb06a-4df8-4e2a-9dd9-b070e185b37f"},"vehicle_type_id":"4","last_reported":1774117304,"current_range_meters":2800,"station_id":"","pricing_plan_id":"cebpf4jnsgd1na2vs0mg"},{"bike_id":"0a3421b2-ae44-4d7d-8b23-5db6081fcd61","system_id":"levelo_inurba_marseille","lat":43.292807,"lon":5.368491,"is_reserved":false,"is_disabled":false,"rental_uris":{"android":"levelo://app?vid=0a3421b2-ae44-4d7d-8b23-5db6081fcd61","ios":"levelo://app?vid=0a3421b2-ae44-4d7d-8b23-5db6081fcd61"},"vehicle_type_id":"4","last_reported":1774117304,"current_range_meters":2800,"station_id":"ce4bhbp2rcd13ifvqesg","pricing_plan_id":"cebpf4jnsgd1na2vs0mg"},{"bike_id":"e1050c8e-7b86-4c6c-9c7a-593903ea48d0","system_id":"levelo_inurba_marseille","lat":43.28947,"lon":5.36579,"is_reserved":false,"is_disabled":false,"rental_uris":{"android":"levelo://app?vid=e1050c8e-7b86-4c6c-9c7a-593903ea48d0","ios":"levelo://app?vid=e1050c8e-7b86-4c6c-9c7a-593903ea48d0"},"vehicle_type_id":"4","last_reported":1774117304,"current_range_meters":2800,"station_id":"","pricing_plan_id":"cebpf4jnsgd1na2vs0mg"},{"bike_id":"2e21a74b-ad4f-4277-ae7a-e97ac57305ef","system_id":"levelo_inurba_marseille","lat":43.29076,"lon":5.35948,"is_reserved":false,"is_disabled":false,"rental_uris":{"android":"levelo://app?vid=2e21a74b-ad4f-4277-ae7a-e97ac57305ef","ios":"levelo://app?vid=2e21a74b-ad4f-4277-ae7a-e97ac57305ef"},"vehicle_type_id":"4","last_reported":1774117304,"current_range_meters":2800,"station_id":"ce4bha92rcd13ifvqeg0","pricing_plan_id":"cebpf4jnsgd1na2vs0mg"},{"bike_id":"c765f97d-4e6d-4b04-8d9d-1dcc4463d067","system_id":"levelo_inurba_marseille","lat":43.26952,"lon":5.38648,"is_reserved":false,"is_disabled":false,"rental_uris":{"android":"levelo://app?vid=c765f97d-4e6d-4b04-8d9d-1dcc4463d067","ios":"levelo://app?vid=c765f97d-4e6d-4b04-8d9d-1dcc4463d067"},"vehicle_type_id":"4","last_reported":1774117304,"current_range_meters":2800,"station_id":"ce4bhh92rcd13ifvqfh0","pricing_plan_id":"cebpf4jnsgd1na2vs0mg"},{"bike_id":"c8b24612-adbe-466b-8fe6-7f36118e967b","system_id":"levelo_inurba_marseille","lat":43.3053,"lon":5.38427,"is_reserved":false,"is_disabled":false,"rental_uris":{"android":"levelo://app?vid=c8b24612-adbe-466b-8fe6-7f36118e967b","ios":"levelo://app?vid=c8b24612-adbe-466b-8fe6-7f36118e967b"},"vehicle_type_id":"4","last_reported":1774117304,"current_range_meters":3200,"station_id":"ce4bgg92rcd13ifvqb30","pricing_plan_id":"cebpf4jnsgd1na2vs0mg"},{"bike_id":"f055e20c-aaef-4e97-aa87-08af5343b6c5","system_id":"levelo_inurba_marseille","lat":43.29627,"lon":5.37726,"is_reserved":false,"is_disabled":false,"rental_uris":{"android":"levelo://app?vid=f055e20c-aaef-4e97-aa87-08af5343b6c5","ios":"levelo://app?vid=f055e20c-aaef-4e97-aa87-08af5343b6c5"},"vehicle_type_id":"4","last_reported":1774117304,"current_range_meters":3200,"station_id":"ce4bgi92rcd13ifvqb90","pricing_plan_id":"cebpf4jnsgd1na2vs0mg"},{"bike_id":"d01f55c5-7e4e-4e8d-8ef0-e660ea4c6972","system_id":"levelo_inurba_marseille","lat":43.29096,"lon":5.38152,"is_reserved":false,"is_disabled":false,"rental_uris":{"android":"levelo://app?vid=d01f55c5-7e4e-4e8d-8ef0-e660ea4c6972","ios":"levelo://app?vid=d01f55c5-7e4e-4e8d-8ef0-e660ea4c6972"},"vehicle_type_id":"4","last_reported":1774117304,"current_range_meters":3200,"station_id":"ce4bh512rcd13ifvqe2g","pricing_plan_id":"cebpf4jnsgd1na2vs0mg"},{"bike_id":"a775511c-9985-4a58-8c4c-775aad7f3e36","system_id":"levelo_inurba_marseille","lat":43.29897,"lon":5.43664,"is_reserved":false,"is_disabled":false,"rental_uris":{"android":"levelo://app?vid=a775511c-9985-4a58-8c4c-775aad7f3e36","ios":"levelo://app?vid=a775511c-9985-4a58-8c4c-775aad7f3e36"},"vehicle_type_id":"4","last_reported":1774117304,"current_range_meters":3200,"station_id":"ce4bhpp2rcd13ifvqhfg","pricing_plan_id":"cebpf4jnsgd1na2vs0mg"},{"bike_id":"7e3fe35a-02a8-4e9a-bafd-ecb393f71d00","system_id":"levelo_inurba_marseille","lat":43.28856,"lon":5.4254,"is_reserved":false,"is_disabled":false,"rental_uris":{"android":"levelo://app?vid=7e3fe35a-02a8-4e9a-bafd-ecb393f71d00","ios":"levelo://app?vid=7e3fe35a-02a8-4e9a-bafd-ecb393f71d00"},"vehicle_type_id":"4","last_reported":1774117304,"current_range_meters":3200,"station_id":"","pricing_plan_id":"cebpf4jnsgd1na2vs0mg"},{"bike_id":"03a74229-5ede-4cd5-9ad9-d142ed50c73e","system_id":"levelo_inurba_marseille","lat":43.24455,"lon":5.42524,"is_reserved":false,"is_disabled":false,"rental_uris":{"android":"levelo://app?vid=03a74229-5ede-4cd5-9ad9-d142ed50c73e","ios":"levelo://app?vid=03a74229-5ede-4cd5-9ad9-d142ed50c73e"},"vehicle_type_id":"4","last_reported":1774117304,"current_range_meters":3200,"station_id":"st_d4a3vfp97mjs738cd8kg","pricing_plan_id":"cebpf4jnsgd1na2vs0mg"},{"bike_id":"51053df0-545d-4819-8a9a-c17bd8285bd6","system_id":"levelo_inurba_marseille","lat":43.29608,"lon":5.38107,"is_reserved":false,"is_disabled":false,"rental_uris":{"android":"levelo://app?vid=51053df0-545d-4819-8a9a-c17bd8285bd6","ios":"levelo://app?vid=51053df0-545d-4819-8a9a-c17bd8285bd6"},"vehicle_type_id":"4","last_reported":1774117304,"current_range_meters":3200,"station_id":"ce4bgl12rcd13ifvqbo0","pricing_plan_id":"cebpf4jnsgd1na2vs0mg"},{"bike_id":"98d841bb-092f-4a39-b4cf-c6bafe5466eb","system_id":"levelo_inurba_marseille","lat":43.29435,"lon":5.39749,"is_reserved":false,"is_disabled":false,"rental_uris":{"android":"levelo://app?vid=98d841bb-092f-4a39-b4cf-c6bafe5466eb","ios":"levelo://app?vid=98d841bb-092f-4a39-b4cf-c6bafe5466eb"},"vehicle_type_id":"4","last_reported":1774117304,"current_range_meters":3200,"station_id":"ce4bh3h2rcd13ifvqdo0","pricing_plan_id":"cebpf4jnsgd1na2vs0mg"},{"bike_id":"bd2a6239-bc21-40d3-a5f8-2882a6440e12","system_id":"levelo_inurba_marseille","lat":43.28845,"lon":5.35851,"is_reserved":false,"is_disabled":false,"rental_uris":{"android":"levelo://app?vid=bd2a6239-bc21-40d3-a5f8-2882a6440e12","ios":"levelo://app?vid=bd2a6239-bc21-40d3-a5f8-2882a6440e12"},"vehicle_type_id":"4","last_reported":1774117304,"current_range_meters":3200,"station_id":"ce4bhb12rcd13ifvqem0","pricing_plan_id":"cebpf4jnsgd1na2vs0mg"},{"bike_id":"8b3626a3-5e1c-464d-b9e1-6bd39037638b","system_id":"levelo_inurba_marseille","lat":43.27179,"lon":5.4099,"is_reserved":false,"is_disabled":false,"rental_uris":{"android":"levelo://app?vid=8b3626a3-5e1c-464d-b9e1-6bd39037638b","ios":"levelo://app?vid=8b3626a3-5e1c-464d-b9e1-6bd39037638b"},"vehicle_type_id":"4","last_reported":1774117304,"current_range_meters":3200,"station_id":"ce4bhl12rcd13ifvqgf0","pricing_plan_id":"cebpf4jnsgd1na2vs0mg"},{"bike_id":"89ad46cf-ad84-4e5e-be57-87ac2cebe69c","system_id":"levelo_inurba_marseille","lat":43.28507,"lon":5.48415,"is_reserved":false,"is_disabled":false,"rental_uris":{"android":"levelo://app?vid=89ad46cf-ad84-4e5e-be57-87ac2cebe69c","ios":"levelo://app?vid=89ad46cf-ad84-4e5e-be57-87ac2cebe69c"},"vehicle_type_id":"4","last_reported":1774117304,"current_range_meters":3200,"station_id":"st_d3svhcjqgbts73a3dn0g","pricing_plan_id":"cebpf4jnsgd1na2vs0mg"},{"bike_id":"e5f11919-3fd4-4aa2-91da-cb2429d332ec","system_id":"levelo_inurba_marseille","lat":43.27999,"lon":5.400071,"is_reserved":false,"is_disabled":false,"rental_uris":{"android":"levelo://app?vid=e5f11919-3fd4-4aa2-91da-cb2429d332ec","ios":"levelo://app?vid=e5f11919-3fd4-4aa2-91da-cb2429d332ec"},"vehicle_type_id":"4","last_reported":1774117304,"current_range_meters":3200,"station_id":"ce4bho92rcd13ifvqh4g","pricing_plan_id":"cebpf4jnsgd1na2vs0mg"},{"bike_id":"c13bb1a3-ca9f-4f81-bcdb-1284f0136901","system_id":"levelo_inurba_marseille","lat":43.28949,"lon":5.36644,"is_reserved":false,"is_disabled":false,"rental_uris":{"android":"levelo://app?vid=c13bb1a3-ca9f-4f81-bcdb-1284f0136901","ios":"levelo://app?vid=c13bb1a3-ca9f-4f81-bcdb-1284f0136901"},"vehicle_type_id":"4","last_reported":1774117304,"current_range_meters":3200,"station_id":"ce4bhap2rcd13ifvqek0","pricing_plan_id":"cebpf4jnsgd1na2vs0mg"},{"bike_id":"b2e89dfa-c66e-4d84-b4d4-16f8b834bf49","system_id":"levelo_inurba_marseille","lat":43.29305,"lon":5.38463,"is_reserved":false,"is_disabled":false,"rental_uris":{"android":"levelo://app?vid=b2e89dfa-c66e-4d84-b4d4-16f8b834bf49","ios":"levelo://app?vid=b2e89dfa-c66e-4d84-b4d4-16f8b834bf49"},"vehicle_type_id":"4","last_reported":1774117304,"current_range_meters":3200,"station_id":"","pricing_plan_id":"cebpf4jnsgd1na2vs0mg"},{"bike_id":"c9cfc67c-4e42-4833-b4ab-11ad690d27f6","system_id":"levelo_inurba_marseille","lat":43.3302,"lon":5.39323,"is_reserved":false,"is_disabled":false,"rental_uris":{"android":"levelo://app?vid=c9cfc67c-4e42-4833-b4ab-11ad690d27f6","ios":"levelo://app?vid=c9cfc67c-4e42-4833-b4ab-11ad690d27f6"},"vehicle_type_id":"4","last_reported":1774117304,"current_range_meters":3200,"station_id":"","pricing_plan_id":"cebpf4jnsgd1na2vs0mg"},{"bike_id":"c070bb2e-79c9-45da-b2e7-001cc8e87669","system_id":"levelo_inurba_marseille","lat":43.28538,"lon":5.44105,"is_reserved":false,"is_disabled":false,"rental_uris":{"android":"levelo://app?vid=c070bb2e-79c9-45da-b2e7-001cc8e87669","ios":"levelo://app?vid=c070bb2e-79c9-45da-b2e7-001cc8e87669"},"vehicle_type_id":"4","last_reported":1774117304,"current_range_meters":3200,"station_id":"st_d3j3df2ikq2c7380ej80","pricing_plan_id":"cebpf4jnsgd1na2vs0mg"},{"bike_id":"31838d52-f0ea-49e0-b924-40ad3488baf6","system_id":"levelo_inurba_marseille","lat":43.29984,"lon":5.371682,"is_reserved":false,"is_disabled":false,"rental_uris":{"android":"levelo://app?vid=31838d52-f0ea-49e0-b924-40ad3488baf6","ios":"levelo://app?vid=31838d52-f0ea-49e0-b924-40ad3488baf6"},"vehicle_type_id":"4","last_reported":1774117304,"current_range_meters":3200,"station_id":"ce4bgr92rcd13ifvqc7g","pricing_plan_id":"cebpf4jnsgd1na2vs0mg"},{"bike_id":"d13beb39-6370-4275-bcf3-5e08790510bd","system_id":"levelo_inurba_marseille","lat":43.28552,"lon":5.44093,"is_reserved":false,"is_disabled":false,"rental_uris":{"android":"levelo://app?vid=d13beb39-6370-4275-bcf3-5e08790510bd","ios":"levelo://app?vid=d13beb39-6370-4275-bcf3-5e08790510bd"},"vehicle_type_id":"4","last_reported":1774117304,"current_range_meters":3200,"station_id":"st_d3j3df2ikq2c7380ej80","pricing_plan_id":"cebpf4jnsgd1na2vs0mg"},{"bike_id":"a1062db5-fc92-47cc-9f2f-d09225770c2b","system_id":"levelo_inurba_marseille","lat":43.3034,"lon":5.40514,"is_reserved":false,"is_disabled":false,"rental_uris":{"android":"levelo://app?vid=a1062db5-fc92-47cc-9f2f-d09225770c2b","ios":"levelo://app?vid=a1062db5-fc92-47cc-9f2f-d09225770c2b"},"vehicle_type_id":"4","last_reported":1774117304,"current_range_meters":3600,"station_id":"ce4bh012rcd13ifvqd10","pricing_plan_id":"cebpf4jnsgd1na2vs0mg"},{"bike_id":"53f48266-4564-420b-96ab-d243233055dc","system_id":"levelo_inurba_marseille","lat":43.28477,"lon":5.48411,"is_reserved":false,"is_disabled":false,"rental_uris":{"android":"levelo://app?vid=53f48266-4564-420b-96ab-d243233055dc","ios":"levelo://app?vid=53f48266-4564-420b-96ab-d243233055dc"},"vehicle_type_id":"4","last_reported":1774117304,"current_range_meters":3600,"station_id":"","pricing_plan_id":"cebpf4jnsgd1na2vs0mg"},{"bike_id":"d515c210-508b-4ddc-a01f-6f38eaf7a9f9","system_id":"levelo_inurba_marseille","lat":43.27815,"lon":5.4072,"is_reserved":false,"is_disabled":false,"rental_uris":{"android":"levelo://app?vid=d515c210-508b-4ddc-a01f-6f38eaf7a9f9","ios":"levelo://app?vid=d515c210-508b-4ddc-a01f-6f38eaf7a9f9"},"vehicle_type_id":"4","last_reported":1774117304,"current_range_meters":3600,"station_id":"ce4bhnh2rcd13ifvqgtg","pricing_plan_id":"cebpf4jnsgd1na2vs0mg"},{"bike_id":"aac8f5b0-f705-4fd6-9df0-ced6ecfa3f4e","system_id":"levelo_inurba_marseille","lat":43.28935,"lon":5.38409,"is_reserved":false,"is_disabled":false,"rental_uris":{"android":"levelo://app?vid=aac8f5b0-f705-4fd6-9df0-ced6ecfa3f4e","ios":"levelo://app?vid=aac8f5b0-f705-4fd6-9df0-ced6ecfa3f4e"},"vehicle_type_id":"4","last_reported":1774117304,"current_range_meters":3600,"station_id":"ce4bh612rcd13ifvqe6g","pricing_plan_id":"cebpf4jnsgd1na2vs0mg"},{"bike_id":"25711bef-13f9-48fd-8f33-592148b8dc65","system_id":"levelo_inurba_marseille","lat":43.25337,"lon":5.42172,"is_reserved":false,"is_disabled":false,"rental_uris":{"android":"levelo://app?vid=25711bef-13f9-48fd-8f33-592148b8dc65","ios":"levelo://app?vid=25711bef-13f9-48fd-8f33-592148b8dc65"},"vehicle_type_id":"4","last_reported":1774117304,"current_range_meters":3600,"station_id":"st_d2m65c5bi1j21697t3ng","pricing_plan_id":"cebpf4jnsgd1na2vs0mg"},{"bike_id":"d621bb7b-713b-4fc7-92bb-b9e29fa0ebfb","system_id":"levelo_inurba_marseille","lat":43.24836,"lon":5.37463,"is_reserved":false,"is_disabled":false,"rental_uris":{"android":"levelo://app?vid=d621bb7b-713b-4fc7-92bb-b9e29fa0ebfb","ios":"levelo://app?vid=d621bb7b-713b-4fc7-92bb-b9e29fa0ebfb"},"vehicle_type_id":"4","last_reported":1774117304,"current_range_meters":3600,"station_id":"","pricing_plan_id":"cebpf4jnsgd1na2vs0mg"},{"bike_id":"9b91f71d-6123-4003-9c0b-5c859ade40e3","system_id":"levelo_inurba_marseille","lat":43.27991,"lon":5.40039,"is_reserved":false,"is_disabled":false,"rental_uris":{"android":"levelo://app?vid=9b91f71d-6123-4003-9c0b-5c859ade40e3","ios":"levelo://app?vid=9b91f71d-6123-4003-9c0b-5c859ade40e3"},"vehicle_type_id":"4","last_reported":1774117304,"current_range_meters":3600,"station_id":"ce4bho92rcd13ifvqh4g","pricing_plan_id":"cebpf4jnsgd1na2vs0mg"},{"bike_id":"57a2828c-6077-42a8-91df-3b89bead445f","system_id":"levelo_inurba_marseille","lat":43.26005,"lon":5.3756,"is_reserved":false,"is_disabled":false,"rental_uris":{"android":"levelo://app?vid=57a2828c-6077-42a8-91df-3b89bead445f","ios":"levelo://app?vid=57a2828c-6077-42a8-91df-3b89bead445f"},"vehicle_type_id":"4","last_reported":1774117304,"current_range_meters":3600,"station_id":"ce4bhgh2rcd13ifvqfa0","pricing_plan_id":"cebpf4jnsgd1na2vs0mg"},{"bike_id":"da5ed8cd-14a2-412b-ad07-6398a32c23f8","system_id":"levelo_inurba_marseille","lat":43.2953,"lon":5.39408,"is_reserved":false,"is_disabled":false,"rental_uris":{"android":"levelo://app?vid=da5ed8cd-14a2-412b-ad07-6398a32c23f8","ios":"levelo://app?vid=da5ed8cd-14a2-412b-ad07-6398a32c23f8"},"vehicle_type_id":"4","last_reported":1774117304,"current_range_meters":3600,"station_id":"ce4bh292rcd13ifvqdf0","pricing_plan_id":"cebpf4jnsgd1na2vs0mg"},{"bike_id":"311f53d5-d8f7-46d4-98ce-3a1413e3746b","system_id":"levelo_inurba_marseille","lat":43.27682,"lon":5.38883,"is_reserved":false,"is_disabled":false,"rental_uris":{"android":"levelo://app?vid=311f53d5-d8f7-46d4-98ce-3a1413e3746b","ios":"levelo://app?vid=311f53d5-d8f7-46d4-98ce-3a1413e3746b"},"vehicle_type_id":"4","last_reported":1774117304,"current_range_meters":3600,"station_id":"ce4bhi12rcd13ifvqfo0","pricing_plan_id":"cebpf4jnsgd1na2vs0mg"},{"bike_id":"1cc6a868-fdcb-4ff1-8c33-38eed5a9e588","system_id":"levelo_inurba_marseille","lat":43.30431,"lon":5.39744,"is_reserved":false,"is_disabled":false,"rental_uris":{"android":"levelo://app?vid=1cc6a868-fdcb-4ff1-8c33-38eed5a9e588","ios":"levelo://app?vid=1cc6a868-fdcb-4ff1-8c33-38eed5a9e588"},"vehicle_type_id":"4","last_reported":1774117304,"current_range_meters":3600,"station_id":"ce4bh092rcd13ifvqd20","pricing_plan_id":"cebpf4jnsgd1na2vs0mg"},{"bike_id":"10e5dec8-e91c-42fc-9ce7-71be637225e8","system_id":"levelo_inurba_marseille","lat":43.27975,"lon":5.38684,"is_reserved":false,"is_disabled":false,"rental_uris":{"android":"levelo://app?vid=10e5dec8-e91c-42fc-9ce7-71be637225e8","ios":"levelo://app?vid=10e5dec8-e91c-42fc-9ce7-71be637225e8"},"vehicle_type_id":"4","last_reported":1774117304,"current_range_meters":3600,"station_id":"ce4bhg12rcd13ifvqf80","pricing_plan_id":"cebpf4jnsgd1na2vs0mg"},{"bike_id":"a7bbb797-2e8f-4129-b033-3065ff459af8","system_id":"levelo_inurba_marseille","lat":43.29908,"lon":5.38138,"is_reserved":false,"is_disabled":false,"rental_uris":{"android":"levelo://app?vid=a7bbb797-2e8f-4129-b033-3065ff459af8","ios":"levelo://app?vid=a7bbb797-2e8f-4129-b033-3065ff459af8"},"vehicle_type_id":"4","last_reported":1774117304,"current_range_meters":3600,"station_id":"ce4bgj12rcd13ifvqbc0","pricing_plan_id":"cebpf4jnsgd1na2vs0mg"},{"bike_id":"8e0a30ac-6579-442d-ae50-f249f44eb429","system_id":"levelo_inurba_marseille","lat":43.28853,"lon":5.3933,"is_reserved":false,"is_disabled":false,"rental_uris":{"android":"levelo://app?vid=8e0a30ac-6579-442d-ae50-f249f44eb429","ios":"levelo://app?vid=8e0a30ac-6579-442d-ae50-f249f44eb429"},"vehicle_type_id":"4","last_reported":1774117304,"current_range_meters":3600,"station_id":"ce4bh2p2rcd13ifvqdi0","pricing_plan_id":"cebpf4jnsgd1na2vs0mg"},{"bike_id":"a96bed03-4bc3-412a-9ef2-84e473f7d464","system_id":"levelo_inurba_marseille","lat":43.27183,"lon":5.40996,"is_reserved":false,"is_disabled":false,"rental_uris":{"android":"levelo://app?vid=a96bed03-4bc3-412a-9ef2-84e473f7d464","ios":"levelo://app?vid=a96bed03-4bc3-412a-9ef2-84e473f7d464"},"vehicle_type_id":"4","last_reported":1774117304,"current_range_meters":3600,"station_id":"ce4bhl12rcd13ifvqgf0","pricing_plan_id":"cebpf4jnsgd1na2vs0mg"},{"bike_id":"d77fad12-1a02-4ace-96b8-fe868b193bf0","system_id":"levelo_inurba_marseille","lat":43.29808,"lon":5.38092,"is_reserved":false,"is_disabled":false,"rental_uris":{"android":"levelo://app?vid=d77fad12-1a02-4ace-96b8-fe868b193bf0","ios":"levelo://app?vid=d77fad12-1a02-4ace-96b8-fe868b193bf0"},"vehicle_type_id":"4","last_reported":1774117304,"current_range_meters":3600,"station_id":"ce4bgip2rcd13ifvqbb0","pricing_plan_id":"cebpf4jnsgd1na2vs0mg"},{"bike_id":"77f8a8b1-2bdb-42b0-adbe-1a8ec0f6e7dc","system_id":"levelo_inurba_marseille","lat":43.2983,"lon":5.44031,"is_reserved":false,"is_disabled":false,"rental_uris":{"android":"levelo://app?vid=77f8a8b1-2bdb-42b0-adbe-1a8ec0f6e7dc","ios":"levelo://app?vid=77f8a8b1-2bdb-42b0-adbe-1a8ec0f6e7dc"},"vehicle_type_id":"4","last_reported":1774117304,"current_range_meters":4000,"station_id":"st_d3jp68qikq2c7381ktn0","pricing_plan_id":"cebpf4jnsgd1na2vs0mg"},{"bike_id":"0f699794-8202-4161-a052-1d39a341c5fa","system_id":"levelo_inurba_marseille","lat":43.31189,"lon":5.38698,"is_reserved":false,"is_disabled":true,"rental_uris":{"android":"levelo://app?vid=0f699794-8202-4161-a052-1d39a341c5fa","ios":"levelo://app?vid=0f699794-8202-4161-a052-1d39a341c5fa"},"vehicle_type_id":"4","last_reported":1774117304,"current_range_meters":4000,"station_id":"ce4bgv12rcd13ifvqcp0","pricing_plan_id":"cebpf4jnsgd1na2vs0mg"},{"bike_id":"140a1a39-fef7-4c72-ac1c-3d64882c21d0","system_id":"levelo_inurba_marseille","lat":43.24178,"lon":5.3973,"is_reserved":false,"is_disabled":false,"rental_uris":{"android":"levelo://app?vid=140a1a39-fef7-4c72-ac1c-3d64882c21d0","ios":"levelo://app?vid=140a1a39-fef7-4c72-ac1c-3d64882c21d0"},"vehicle_type_id":"4","last_reported":1774117304,"current_range_meters":4000,"station_id":"ce4bhn12rcd13ifvqgpg","pricing_plan_id":"cebpf4jnsgd1na2vs0mg"},{"bike_id":"8aeb1ffc-b432-4235-8304-c0a4c58e7fe3","system_id":"levelo_inurba_marseille","lat":43.29812,"lon":5.38404,"is_reserved":false,"is_disabled":false,"rental_uris":{"android":"levelo://app?vid=8aeb1ffc-b432-4235-8304-c0a4c58e7fe3","ios":"levelo://app?vid=8aeb1ffc-b432-4235-8304-c0a4c58e7fe3"},"vehicle_type_id":"4","last_reported":1774117304,"current_range_meters":4000,"station_id":"","pricing_plan_id":"cebpf4jnsgd1na2vs0mg"},{"bike_id":"5f6fa73b-71ba-446d-b5de-a78339e35ef1","system_id":"levelo_inurba_marseille","lat":43.29974,"lon":5.3849,"is_reserved":false,"is_disabled":false,"rental_uris":{"android":"levelo://app?vid=5f6fa73b-71ba-446d-b5de-a78339e35ef1","ios":"levelo://app?vid=5f6fa73b-71ba-446d-b5de-a78339e35ef1"},"vehicle_type_id":"4","last_reported":1774117304,"current_range_meters":4000,"station_id":"ce4bgj92rcd13ifvqbd0","pricing_plan_id":"cebpf4jnsgd1na2vs0mg"},{"bike_id":"9c4ec55a-e6dc-4e22-9b48-7493b21d2bf3","system_id":"levelo_inurba_marseille","lat":43.27979,"lon":5.38754,"is_reserved":false,"is_disabled":false,"rental_uris":{"android":"levelo://app?vid=9c4ec55a-e6dc-4e22-9b48-7493b21d2bf3","ios":"levelo://app?vid=9c4ec55a-e6dc-4e22-9b48-7493b21d2bf3"},"vehicle_type_id":"4","last_reported":1774117304,"current_range_meters":4000,"station_id":"ce4bhg12rcd13ifvqf80","pricing_plan_id":"cebpf4jnsgd1na2vs0mg"},{"bike_id":"03046f7a-5758-49fb-8e19-a233a60f12e1","system_id":"levelo_inurba_marseille","lat":43.30306,"lon":5.39209,"is_reserved":false,"is_disabled":false,"rental_uris":{"android":"levelo://app?vid=03046f7a-5758-49fb-8e19-a233a60f12e1","ios":"levelo://app?vid=03046f7a-5758-49fb-8e19-a233a60f12e1"},"vehicle_type_id":"4","last_reported":1774117304,"current_range_meters":4000,"station_id":"ce4bgkh2rcd13ifvqbk0","pricing_plan_id":"cebpf4jnsgd1na2vs0mg"},{"bike_id":"0f771cd3-1d0f-48ec-9e98-e612640fd9b2","system_id":"levelo_inurba_marseille","lat":43.29507,"lon":5.3903,"is_reserved":false,"is_disabled":false,"rental_uris":{"android":"levelo://app?vid=0f771cd3-1d0f-48ec-9e98-e612640fd9b2","ios":"levelo://app?vid=0f771cd3-1d0f-48ec-9e98-e612640fd9b2"},"vehicle_type_id":"4","last_reported":1774117304,"current_range_meters":4000,"station_id":"ce4bh3p2rcd13ifvqdp0","pricing_plan_id":"cebpf4jnsgd1na2vs0mg"},{"bike_id":"9bedb971-6887-4d43-88c8-1762430f453d","system_id":"levelo_inurba_marseille","lat":43.2469,"lon":5.38179,"is_reserved":false,"is_disabled":true,"rental_uris":{"android":"levelo://app?vid=9bedb971-6887-4d43-88c8-1762430f453d","ios":"levelo://app?vid=9bedb971-6887-4d43-88c8-1762430f453d"},"vehicle_type_id":"4","last_reported":1774117304,"current_range_meters":4000,"station_id":"ce4bhih2rcd13ifvqfr0","pricing_plan_id":"cebpf4jnsgd1na2vs0mg"},{"bike_id":"10ab2210-a122-4bc3-a893-d2215799a586","system_id":"levelo_inurba_marseille","lat":43.30654,"lon":5.40103,"is_reserved":false,"is_disabled":false,"rental_uris":{"android":"levelo://app?vid=10ab2210-a122-4bc3-a893-d2215799a586","ios":"levelo://app?vid=10ab2210-a122-4bc3-a893-d2215799a586"},"vehicle_type_id":"4","last_reported":1774117304,"current_range_meters":4000,"station_id":"ce4bh112rcd13ifvqda0","pricing_plan_id":"cebpf4jnsgd1na2vs0mg"},{"bike_id":"227eba85-8211-4d0d-bd09-d4a734cfd50d","system_id":"levelo_inurba_marseille","lat":43.2954,"lon":5.38579,"is_reserved":false,"is_disabled":false,"rental_uris":{"android":"levelo://app?vid=227eba85-8211-4d0d-bd09-d4a734cfd50d","ios":"levelo://app?vid=227eba85-8211-4d0d-bd09-d4a734cfd50d"},"vehicle_type_id":"4","last_reported":1774117304,"current_range_meters":4000,"station_id":"ce4bgih2rcd13ifvqba0","pricing_plan_id":"cebpf4jnsgd1na2vs0mg"},{"bike_id":"7fa64d84-cd92-4f02-a79d-c348b129b15f","system_id":"levelo_inurba_marseille","lat":43.24184,"lon":5.3641,"is_reserved":false,"is_disabled":false,"rental_uris":{"android":"levelo://app?vid=7fa64d84-cd92-4f02-a79d-c348b129b15f","ios":"levelo://app?vid=7fa64d84-cd92-4f02-a79d-c348b129b15f"},"vehicle_type_id":"4","last_reported":1774117304,"current_range_meters":4000,"station_id":"cpo36qri1sfpv3e86is0","pricing_plan_id":"cebpf4jnsgd1na2vs0mg"},{"bike_id":"270d24e3-65de-4e8b-ace0-d5c90552cfcb","system_id":"levelo_inurba_marseille","lat":43.2513,"lon":5.40342,"is_reserved":false,"is_disabled":false,"rental_uris":{"android":"levelo://app?vid=270d24e3-65de-4e8b-ace0-d5c90552cfcb","ios":"levelo://app?vid=270d24e3-65de-4e8b-ace0-d5c90552cfcb"},"vehicle_type_id":"4","last_reported":1774117304,"current_range_meters":4000,"station_id":"ce4bhlh2rcd13ifvqgig","pricing_plan_id":"cebpf4jnsgd1na2vs0mg"},{"bike_id":"b27599fa-7784-4cf9-962d-d8ae1e236da9","system_id":"levelo_inurba_marseille","lat":43.29841,"lon":5.36266,"is_reserved":false,"is_disabled":false,"rental_uris":{"android":"levelo://app?vid=b27599fa-7784-4cf9-962d-d8ae1e236da9","ios":"levelo://app?vid=b27599fa-7784-4cf9-962d-d8ae1e236da9"},"vehicle_type_id":"4","last_reported":1774117304,"current_range_meters":4000,"station_id":"ce4bgpp2rcd13ifvqc3g","pricing_plan_id":"cebpf4jnsgd1na2vs0mg"},{"bike_id":"3a99e771-4dc4-4370-9387-7ee01e28d831","system_id":"levelo_inurba_marseille","lat":43.28678,"lon":5.3636,"is_reserved":false,"is_disabled":false,"rental_uris":{"android":"levelo://app?vid=3a99e771-4dc4-4370-9387-7ee01e28d831","ios":"levelo://app?vid=3a99e771-4dc4-4370-9387-7ee01e28d831"},"vehicle_type_id":"4","last_reported":1774117304,"current_range_meters":4000,"station_id":"ce4bhah2rcd13ifvqej0","pricing_plan_id":"cebpf4jnsgd1na2vs0mg"},{"bike_id":"76e3a855-6bf4-460f-ac74-ec562db94e69","system_id":"levelo_inurba_marseille","lat":43.30808,"lon":5.40004,"is_reserved":false,"is_disabled":false,"rental_uris":{"android":"levelo://app?vid=76e3a855-6bf4-460f-ac74-ec562db94e69","ios":"levelo://app?vid=76e3a855-6bf4-460f-ac74-ec562db94e69"},"vehicle_type_id":"4","last_reported":1774117304,"current_range_meters":4000,"station_id":"","pricing_plan_id":"cebpf4jnsgd1na2vs0mg"},{"bike_id":"1e38b8aa-38e5-4eed-a67b-f7244903396f","system_id":"levelo_inurba_marseille","lat":43.30952,"lon":5.39035,"is_reserved":false,"is_disabled":false,"rental_uris":{"android":"levelo://app?vid=1e38b8aa-38e5-4eed-a67b-f7244903396f","ios":"levelo://app?vid=1e38b8aa-38e5-4eed-a67b-f7244903396f"},"vehicle_type_id":"4","last_reported":1774117304,"current_range_meters":4000,"station_id":"ce4bgup2rcd13ifvqco0","pricing_plan_id":"cebpf4jnsgd1na2vs0mg"},{"bike_id":"9ae4e98e-6d45-456e-a68a-69cf2ca20aa5","system_id":"levelo_inurba_marseille","lat":43.29299,"lon":5.37447,"is_reserved":false,"is_disabled":false,"rental_uris":{"android":"levelo://app?vid=9ae4e98e-6d45-456e-a68a-69cf2ca20aa5","ios":"levelo://app?vid=9ae4e98e-6d45-456e-a68a-69cf2ca20aa5"},"vehicle_type_id":"4","last_reported":1774117304,"current_range_meters":4000,"station_id":"ce4bgi12rcd13ifvqb70","pricing_plan_id":"cebpf4jnsgd1na2vs0mg"},{"bike_id":"2831fe83-1d91-4777-9f7c-b943198c31e0","system_id":"levelo_inurba_marseille","lat":43.29533,"lon":5.38562,"is_reserved":false,"is_disabled":false,"rental_uris":{"android":"levelo://app?vid=2831fe83-1d91-4777-9f7c-b943198c31e0","ios":"levelo://app?vid=2831fe83-1d91-4777-9f7c-b943198c31e0"},"vehicle_type_id":"4","last_reported":1774117304,"current_range_meters":4400,"station_id":"ce4bgih2rcd13ifvqba0","pricing_plan_id":"cebpf4jnsgd1na2vs0mg"},{"bike_id":"8a4ee7b7-fcbb-4e7a-a2d1-3d56548ff53c","system_id":"levelo_inurba_marseille","lat":43.29096,"lon":5.38157,"is_reserved":false,"is_disabled":false,"rental_uris":{"android":"levelo://app?vid=8a4ee7b7-fcbb-4e7a-a2d1-3d56548ff53c","ios":"levelo://app?vid=8a4ee7b7-fcbb-4e7a-a2d1-3d56548ff53c"},"vehicle_type_id":"4","last_reported":1774117304,"current_range_meters":4400,"station_id":"ce4bh512rcd13ifvqe2g","pricing_plan_id":"cebpf4jnsgd1na2vs0mg"},{"bike_id":"32595f14-33b8-4e36-b90f-613d5926a27f","system_id":"levelo_inurba_marseille","lat":43.24949,"lon":5.4049,"is_reserved":false,"is_disabled":false,"rental_uris":{"android":"levelo://app?vid=32595f14-33b8-4e36-b90f-613d5926a27f","ios":"levelo://app?vid=32595f14-33b8-4e36-b90f-613d5926a27f"},"vehicle_type_id":"4","last_reported":1774117304,"current_range_meters":4400,"station_id":"st_d2ngiaodas8pm72gd1h0","pricing_plan_id":"cebpf4jnsgd1na2vs0mg"},{"bike_id":"dcb7fa85-9576-461b-9db4-bfb93259aa75","system_id":"levelo_inurba_marseille","lat":43.25548,"lon":5.37672,"is_reserved":false,"is_disabled":true,"rental_uris":{"android":"levelo://app?vid=dcb7fa85-9576-461b-9db4-bfb93259aa75","ios":"levelo://app?vid=dcb7fa85-9576-461b-9db4-bfb93259aa75"},"vehicle_type_id":"4","last_reported":1774117304,"current_range_meters":4400,"station_id":"","pricing_plan_id":"cebpf4jnsgd1na2vs0mg"},{"bike_id":"781a908b-c5fd-4a56-9a1a-49d0988c2468","system_id":"levelo_inurba_marseille","lat":43.27935,"lon":5.39587,"is_reserved":false,"is_disabled":false,"rental_uris":{"android":"levelo://app?vid=781a908b-c5fd-4a56-9a1a-49d0988c2468","ios":"levelo://app?vid=781a908b-c5fd-4a56-9a1a-49d0988c2468"},"vehicle_type_id":"4","last_reported":1774117304,"current_range_meters":4400,"station_id":"ce4bhf92rcd13ifvqf40","pricing_plan_id":"cebpf4jnsgd1na2vs0mg"},{"bike_id":"7ba80008-60b8-4bf7-9180-542631266876","system_id":"levelo_inurba_marseille","lat":43.33535,"lon":5.37473,"is_reserved":false,"is_disabled":false,"rental_uris":{"android":"levelo://app?vid=7ba80008-60b8-4bf7-9180-542631266876","ios":"levelo://app?vid=7ba80008-60b8-4bf7-9180-542631266876"},"vehicle_type_id":"4","last_reported":1774117304,"current_range_meters":4400,"station_id":"st_d46tts09ee8s73dlu43g","pricing_plan_id":"cebpf4jnsgd1na2vs0mg"},{"bike_id":"24f59a95-b69c-4801-a633-3ae2d2646ba0","system_id":"levelo_inurba_marseille","lat":43.29904,"lon":5.37475,"is_reserved":false,"is_disabled":false,"rental_uris":{"android":"levelo://app?vid=24f59a95-b69c-4801-a633-3ae2d2646ba0","ios":"levelo://app?vid=24f59a95-b69c-4801-a633-3ae2d2646ba0"},"vehicle_type_id":"4","last_reported":1774117304,"current_range_meters":4400,"station_id":"ce4bgjh2rcd13ifvqbg0","pricing_plan_id":"cebpf4jnsgd1na2vs0mg"},{"bike_id":"2a05ffdc-5ab3-41f0-bbf1-465eb8a8fb88","system_id":"levelo_inurba_marseille","lat":43.29193,"lon":5.35811,"is_reserved":false,"is_disabled":false,"rental_uris":{"android":"levelo://app?vid=2a05ffdc-5ab3-41f0-bbf1-465eb8a8fb88","ios":"levelo://app?vid=2a05ffdc-5ab3-41f0-bbf1-465eb8a8fb88"},"vehicle_type_id":"4","last_reported":1774117304,"current_range_meters":4400,"station_id":"ce4bhb12rcd13ifvqel0","pricing_plan_id":"cebpf4jnsgd1na2vs0mg"},{"bike_id":"fdc655d4-8c99-4d97-9c1e-46ec98ef8979","system_id":"levelo_inurba_marseille","lat":43.2863,"lon":5.35102,"is_reserved":false,"is_disabled":true,"rental_uris":{"android":"levelo://app?vid=fdc655d4-8c99-4d97-9c1e-46ec98ef8979","ios":"levelo://app?vid=fdc655d4-8c99-4d97-9c1e-46ec98ef8979"},"vehicle_type_id":"4","last_reported":1774117304,"current_range_meters":4800,"station_id":"ce4bhch2rcd13ifvqeug","pricing_plan_id":"cebpf4jnsgd1na2vs0mg"},{"bike_id":"6d569311-c3c5-46fa-b635-73c3cb119aab","system_id":"levelo_inurba_marseille","lat":43.28935,"lon":5.36393,"is_reserved":false,"is_disabled":false,"rental_uris":{"android":"levelo://app?vid=6d569311-c3c5-46fa-b635-73c3cb119aab","ios":"levelo://app?vid=6d569311-c3c5-46fa-b635-73c3cb119aab"},"vehicle_type_id":"4","last_reported":1774117304,"current_range_meters":4800,"station_id":"ce4bhc92rcd13ifvqetg","pricing_plan_id":"cebpf4jnsgd1na2vs0mg"},{"bike_id":"c8f87935-b49c-40c3-8044-9e63b43c39f5","system_id":"levelo_inurba_marseille","lat":43.28623,"lon":5.35124,"is_reserved":false,"is_disabled":false,"rental_uris":{"android":"levelo://app?vid=c8f87935-b49c-40c3-8044-9e63b43c39f5","ios":"levelo://app?vid=c8f87935-b49c-40c3-8044-9e63b43c39f5"},"vehicle_type_id":"4","last_reported":1774117304,"current_range_meters":4800,"station_id":"ce4bhch2rcd13ifvqeug","pricing_plan_id":"cebpf4jnsgd1na2vs0mg"},{"bike_id":"e2420c11-4646-4145-aa2e-baedb91a43dc","system_id":"levelo_inurba_marseille","lat":43.32384,"lon":5.36764,"is_reserved":false,"is_disabled":false,"rental_uris":{"android":"levelo://app?vid=e2420c11-4646-4145-aa2e-baedb91a43dc","ios":"levelo://app?vid=e2420c11-4646-4145-aa2e-baedb91a43dc"},"vehicle_type_id":"4","last_reported":1774117304,"current_range_meters":4800,"station_id":"ce4bhsh2rcd13ifvqi2g","pricing_plan_id":"cebpf4jnsgd1na2vs0mg"},{"bike_id":"286fba00-1c70-49c5-9491-0b3044de24cb","system_id":"levelo_inurba_marseille","lat":43.26223,"lon":5.40454,"is_reserved":false,"is_disabled":true,"rental_uris":{"android":"levelo://app?vid=286fba00-1c70-49c5-9491-0b3044de24cb","ios":"levelo://app?vid=286fba00-1c70-49c5-9491-0b3044de24cb"},"vehicle_type_id":"4","last_reported":1774117304,"current_range_meters":4800,"station_id":"ce4bhmh2rcd13ifvqgmg","pricing_plan_id":"cebpf4jnsgd1na2vs0mg"},{"bike_id":"f3414e99-2d7c-4b03-96db-df8c1c6d3f2b","system_id":"levelo_inurba_marseille","lat":43.28508,"lon":5.4841,"is_reserved":false,"is_disabled":false,"rental_uris":{"android":"levelo://app?vid=f3414e99-2d7c-4b03-96db-df8c1c6d3f2b","ios":"levelo://app?vid=f3414e99-2d7c-4b03-96db-df8c1c6d3f2b"},"vehicle_type_id":"4","last_reported":1774117304,"current_range_meters":4800,"station_id":"","pricing_plan_id":"cebpf4jnsgd1na2vs0mg"},{"bike_id":"23f4ec13-f29d-496c-893c-626161a8e735","system_id":"levelo_inurba_marseille","lat":43.289421,"lon":5.366438,"is_reserved":false,"is_disabled":false,"rental_uris":{"android":"levelo://app?vid=23f4ec13-f29d-496c-893c-626161a8e735","ios":"levelo://app?vid=23f4ec13-f29d-496c-893c-626161a8e735"},"vehicle_type_id":"4","last_reported":1774117304,"current_range_meters":4800,"station_id":"ce4bhap2rcd13ifvqek0","pricing_plan_id":"cebpf4jnsgd1na2vs0mg"},{"bike_id":"7096f64d-358c-467f-94b3-289d9728fd17","system_id":"levelo_inurba_marseille","lat":43.23968,"lon":5.36649,"is_reserved":false,"is_disabled":false,"rental_uris":{"android":"levelo://app?vid=7096f64d-358c-467f-94b3-289d9728fd17","ios":"levelo://app?vid=7096f64d-358c-467f-94b3-289d9728fd17"},"vehicle_type_id":"4","last_reported":1774117304,"current_range_meters":4800,"station_id":"ce4bhi12rcd13ifvqfp0","pricing_plan_id":"cebpf4jnsgd1na2vs0mg"},{"bike_id":"16fe25c4-6472-47d6-882b-5ff94101fa7d","system_id":"levelo_inurba_marseille","lat":43.21194,"lon":5.35098,"is_reserved":false,"is_disabled":false,"rental_uris":{"android":"levelo://app?vid=16fe25c4-6472-47d6-882b-5ff94101fa7d","ios":"levelo://app?vid=16fe25c4-6472-47d6-882b-5ff94101fa7d"},"vehicle_type_id":"4","last_reported":1774117304,"current_range_meters":4800,"station_id":"st_cvj6sg6p6f1abm77japg","pricing_plan_id":"cebpf4jnsgd1na2vs0mg"},{"bike_id":"a8c8307b-e1e9-4950-a785-578e1a82f805","system_id":"levelo_inurba_marseille","lat":43.31246,"lon":5.37821,"is_reserved":false,"is_disabled":false,"rental_uris":{"android":"levelo://app?vid=a8c8307b-e1e9-4950-a785-578e1a82f805","ios":"levelo://app?vid=a8c8307b-e1e9-4950-a785-578e1a82f805"},"vehicle_type_id":"4","last_reported":1774117304,"current_range_meters":4800,"station_id":"","pricing_plan_id":"cebpf4jnsgd1na2vs0mg"},{"bike_id":"962e3e51-db50-4f61-a079-9b1c6a103eb5","system_id":"levelo_inurba_marseille","lat":43.30963,"lon":5.36814,"is_reserved":false,"is_disabled":false,"rental_uris":{"android":"levelo://app?vid=962e3e51-db50-4f61-a079-9b1c6a103eb5","ios":"levelo://app?vid=962e3e51-db50-4f61-a079-9b1c6a103eb5"},"vehicle_type_id":"4","last_reported":1774117304,"current_range_meters":4800,"station_id":"","pricing_plan_id":"cebpf4jnsgd1na2vs0mg"},{"bike_id":"7f50c553-8ef4-46fd-be9e-3636a7cc9d25","system_id":"levelo_inurba_marseille","lat":43.29308,"lon":5.37449,"is_reserved":false,"is_disabled":false,"rental_uris":{"android":"levelo://app?vid=7f50c553-8ef4-46fd-be9e-3636a7cc9d25","ios":"levelo://app?vid=7f50c553-8ef4-46fd-be9e-3636a7cc9d25"},"vehicle_type_id":"4","last_reported":1774117304,"current_range_meters":4800,"station_id":"ce4bgi12rcd13ifvqb70","pricing_plan_id":"cebpf4jnsgd1na2vs0mg"},{"bike_id":"c12b631c-dac8-401b-9208-307123665fa4","system_id":"levelo_inurba_marseille","lat":43.27907,"lon":5.38009,"is_reserved":false,"is_disabled":false,"rental_uris":{"android":"levelo://app?vid=c12b631c-dac8-401b-9208-307123665fa4","ios":"levelo://app?vid=c12b631c-dac8-401b-9208-307123665fa4"},"vehicle_type_id":"4","last_reported":1774117304,"current_range_meters":4800,"station_id":"ce4bhf92rcd13ifvqf50","pricing_plan_id":"cebpf4jnsgd1na2vs0mg"},{"bike_id":"3fac1fb1-b3fe-4076-b0e1-2a2d1311d9ad","system_id":"levelo_inurba_marseille","lat":43.29283,"lon":5.36845,"is_reserved":false,"is_disabled":false,"rental_uris":{"android":"levelo://app?vid=3fac1fb1-b3fe-4076-b0e1-2a2d1311d9ad","ios":"levelo://app?vid=3fac1fb1-b3fe-4076-b0e1-2a2d1311d9ad"},"vehicle_type_id":"4","last_reported":1774117304,"current_range_meters":4800,"station_id":"ce4bhbp2rcd13ifvqesg","pricing_plan_id":"cebpf4jnsgd1na2vs0mg"},{"bike_id":"f37ef9d8-1ce9-47ed-9234-c7a23732ed2e","system_id":"levelo_inurba_marseille","lat":43.27168,"lon":5.40996,"is_reserved":false,"is_disabled":false,"rental_uris":{"android":"levelo://app?vid=f37ef9d8-1ce9-47ed-9234-c7a23732ed2e","ios":"levelo://app?vid=f37ef9d8-1ce9-47ed-9234-c7a23732ed2e"},"vehicle_type_id":"4","last_reported":1774117304,"current_range_meters":4800,"station_id":"ce4bhl12rcd13ifvqgf0","pricing_plan_id":"cebpf4jnsgd1na2vs0mg"},{"bike_id":"2cea9d46-c32a-4a24-9abe-5dc099975957","system_id":"levelo_inurba_marseille","lat":43.28512,"lon":5.48412,"is_reserved":false,"is_disabled":false,"rental_uris":{"android":"levelo://app?vid=2cea9d46-c32a-4a24-9abe-5dc099975957","ios":"levelo://app?vid=2cea9d46-c32a-4a24-9abe-5dc099975957"},"vehicle_type_id":"4","last_reported":1774117304,"current_range_meters":4800,"station_id":"","pricing_plan_id":"cebpf4jnsgd1na2vs0mg"},{"bike_id":"2d9e4754-9b17-40b5-bbeb-5b1c9c5bbe64","system_id":"levelo_inurba_marseille","lat":43.30122,"lon":5.38775,"is_reserved":false,"is_disabled":true,"rental_uris":{"android":"levelo://app?vid=2d9e4754-9b17-40b5-bbeb-5b1c9c5bbe64","ios":"levelo://app?vid=2d9e4754-9b17-40b5-bbeb-5b1c9c5bbe64"},"vehicle_type_id":"4","last_reported":1774117304,"current_range_meters":4800,"station_id":"ce4bghh2rcd13ifvqb60","pricing_plan_id":"cebpf4jnsgd1na2vs0mg"},{"bike_id":"8aae69ee-1386-423b-94ef-ac35e377a153","system_id":"levelo_inurba_marseille","lat":43.29866,"lon":5.36533,"is_reserved":false,"is_disabled":false,"rental_uris":{"android":"levelo://app?vid=8aae69ee-1386-423b-94ef-ac35e377a153","ios":"levelo://app?vid=8aae69ee-1386-423b-94ef-ac35e377a153"},"vehicle_type_id":"4","last_reported":1774117304,"current_range_meters":4800,"station_id":"","pricing_plan_id":"cebpf4jnsgd1na2vs0mg"},{"bike_id":"adc5ac07-5147-43c6-b3e9-46b364b058d3","system_id":"levelo_inurba_marseille","lat":43.21759,"lon":5.34603,"is_reserved":false,"is_disabled":true,"rental_uris":{"android":"levelo://app?vid=adc5ac07-5147-43c6-b3e9-46b364b058d3","ios":"levelo://app?vid=adc5ac07-5147-43c6-b3e9-46b364b058d3"},"vehicle_type_id":"4","last_reported":1774117304,"current_range_meters":4800,"station_id":"st_cvj6r9ubvosntc0bgbag","pricing_plan_id":"cebpf4jnsgd1na2vs0mg"},{"bike_id":"92c46307-0404-45a9-aa60-4d8a297a4bd4","system_id":"levelo_inurba_marseille","lat":43.29601,"lon":5.38099,"is_reserved":false,"is_disabled":false,"rental_uris":{"android":"levelo://app?vid=92c46307-0404-45a9-aa60-4d8a297a4bd4","ios":"levelo://app?vid=92c46307-0404-45a9-aa60-4d8a297a4bd4"},"vehicle_type_id":"4","last_reported":1774117304,"current_range_meters":4800,"station_id":"ce4bgl12rcd13ifvqbo0","pricing_plan_id":"cebpf4jnsgd1na2vs0mg"},{"bike_id":"eb246450-06ef-43ee-8aec-21194f6a62b0","system_id":"levelo_inurba_marseille","lat":43.29872,"lon":5.39745,"is_reserved":false,"is_disabled":false,"rental_uris":{"android":"levelo://app?vid=eb246450-06ef-43ee-8aec-21194f6a62b0","ios":"levelo://app?vid=eb246450-06ef-43ee-8aec-21194f6a62b0"},"vehicle_type_id":"4","last_reported":1774117304,"current_range_meters":4800,"station_id":"ce4bh0h2rcd13ifvqd50","pricing_plan_id":"cebpf4jnsgd1na2vs0mg"},{"bike_id":"5672f140-f178-4766-bb60-5301b26a0e4e","system_id":"levelo_inurba_marseille","lat":43.2847,"lon":5.48356,"is_reserved":false,"is_disabled":false,"rental_uris":{"android":"levelo://app?vid=5672f140-f178-4766-bb60-5301b26a0e4e","ios":"levelo://app?vid=5672f140-f178-4766-bb60-5301b26a0e4e"},"vehicle_type_id":"4","last_reported":1774117304,"current_range_meters":5600,"station_id":"","pricing_plan_id":"cebpf4jnsgd1na2vs0mg"},{"bike_id":"53663f10-c972-4dad-83a0-96ec19d2a37e","system_id":"levelo_inurba_marseille","lat":43.25049,"lon":5.38992,"is_reserved":false,"is_disabled":true,"rental_uris":{"android":"levelo://app?vid=53663f10-c972-4dad-83a0-96ec19d2a37e","ios":"levelo://app?vid=53663f10-c972-4dad-83a0-96ec19d2a37e"},"vehicle_type_id":"4","last_reported":1774117304,"current_range_meters":5600,"station_id":"ce4bhgp2rcd13ifvqfd0","pricing_plan_id":"cebpf4jnsgd1na2vs0mg"},{"bike_id":"856aa881-5504-4e98-ac32-8ccd5de7e577","system_id":"levelo_inurba_marseille","lat":43.31328,"lon":5.39693,"is_reserved":false,"is_disabled":false,"rental_uris":{"android":"levelo://app?vid=856aa881-5504-4e98-ac32-8ccd5de7e577","ios":"levelo://app?vid=856aa881-5504-4e98-ac32-8ccd5de7e577"},"vehicle_type_id":"4","last_reported":1774117304,"current_range_meters":5600,"station_id":"ce4bgvp2rcd13ifvqcu0","pricing_plan_id":"cebpf4jnsgd1na2vs0mg"},{"bike_id":"8648ff3d-a49d-4491-be6c-bab3f9812603","system_id":"levelo_inurba_marseille","lat":43.28286,"lon":5.43838,"is_reserved":false,"is_disabled":false,"rental_uris":{"android":"levelo://app?vid=8648ff3d-a49d-4491-be6c-bab3f9812603","ios":"levelo://app?vid=8648ff3d-a49d-4491-be6c-bab3f9812603"},"vehicle_type_id":"4","last_reported":1774117304,"current_range_meters":5600,"station_id":"","pricing_plan_id":"cebpf4jnsgd1na2vs0mg"},{"bike_id":"aa1c74ba-e540-45ce-8e97-4868fa0e5a19","system_id":"levelo_inurba_marseille","lat":43.25381,"lon":5.41734,"is_reserved":false,"is_disabled":false,"rental_uris":{"android":"levelo://app?vid=aa1c74ba-e540-45ce-8e97-4868fa0e5a19","ios":"levelo://app?vid=aa1c74ba-e540-45ce-8e97-4868fa0e5a19"},"vehicle_type_id":"4","last_reported":1774117304,"current_range_meters":5600,"station_id":"","pricing_plan_id":"cebpf4jnsgd1na2vs0mg"},{"bike_id":"e57ec600-9b95-4abe-b98f-14f9be32426a","system_id":"levelo_inurba_marseille","lat":43.27102,"lon":5.42285,"is_reserved":false,"is_disabled":false,"rental_uris":{"android":"levelo://app?vid=e57ec600-9b95-4abe-b98f-14f9be32426a","ios":"levelo://app?vid=e57ec600-9b95-4abe-b98f-14f9be32426a"},"vehicle_type_id":"4","last_reported":1774117304,"current_range_meters":5600,"station_id":"ce4bhk92rcd13ifvqgb0","pricing_plan_id":"cebpf4jnsgd1na2vs0mg"},{"bike_id":"aa8fbcc7-edc7-40e0-ba05-3db8fc503603","system_id":"levelo_inurba_marseille","lat":43.30216,"lon":5.39486,"is_reserved":false,"is_disabled":false,"rental_uris":{"android":"levelo://app?vid=aa8fbcc7-edc7-40e0-ba05-3db8fc503603","ios":"levelo://app?vid=aa8fbcc7-edc7-40e0-ba05-3db8fc503603"},"vehicle_type_id":"4","last_reported":1774117304,"current_range_meters":5600,"station_id":"ce4bh0p2rcd13ifvqd70","pricing_plan_id":"cebpf4jnsgd1na2vs0mg"},{"bike_id":"2d0906ff-aeed-419b-83b6-fd2861496b8f","system_id":"levelo_inurba_marseille","lat":43.26223,"lon":5.4048,"is_reserved":false,"is_disabled":false,"rental_uris":{"android":"levelo://app?vid=2d0906ff-aeed-419b-83b6-fd2861496b8f","ios":"levelo://app?vid=2d0906ff-aeed-419b-83b6-fd2861496b8f"},"vehicle_type_id":"4","last_reported":1774117304,"current_range_meters":5600,"station_id":"ce4bhmh2rcd13ifvqgmg","pricing_plan_id":"cebpf4jnsgd1na2vs0mg"},{"bike_id":"265e8953-ec63-4a53-92c4-1c2a5e4d3a91","system_id":"levelo_inurba_marseille","lat":43.28944,"lon":5.36635,"is_reserved":false,"is_disabled":false,"rental_uris":{"android":"levelo://app?vid=265e8953-ec63-4a53-92c4-1c2a5e4d3a91","ios":"levelo://app?vid=265e8953-ec63-4a53-92c4-1c2a5e4d3a91"},"vehicle_type_id":"4","last_reported":1774117304,"current_range_meters":5600,"station_id":"ce4bhap2rcd13ifvqek0","pricing_plan_id":"cebpf4jnsgd1na2vs0mg"},{"bike_id":"21dcff95-3114-402a-9713-10e340a8f8dd","system_id":"levelo_inurba_marseille","lat":43.29293,"lon":5.37158,"is_reserved":false,"is_disabled":false,"rental_uris":{"android":"levelo://app?vid=21dcff95-3114-402a-9713-10e340a8f8dd","ios":"levelo://app?vid=21dcff95-3114-402a-9713-10e340a8f8dd"},"vehicle_type_id":"4","last_reported":1774117304,"current_range_meters":5600,"station_id":"ce4bgh92rcd13ifvqb40","pricing_plan_id":"cebpf4jnsgd1na2vs0mg"},{"bike_id":"d9d14cfa-36f5-4008-9db9-b7c3a904c6ff","system_id":"levelo_inurba_marseille","lat":43.2512,"lon":5.40325,"is_reserved":false,"is_disabled":false,"rental_uris":{"android":"levelo://app?vid=d9d14cfa-36f5-4008-9db9-b7c3a904c6ff","ios":"levelo://app?vid=d9d14cfa-36f5-4008-9db9-b7c3a904c6ff"},"vehicle_type_id":"4","last_reported":1774117304,"current_range_meters":5600,"station_id":"ce4bhlh2rcd13ifvqgig","pricing_plan_id":"cebpf4jnsgd1na2vs0mg"},{"bike_id":"8692abf4-50ff-42a8-a322-21cf0917b67b","system_id":"levelo_inurba_marseille","lat":43.29579,"lon":5.39974,"is_reserved":false,"is_disabled":false,"rental_uris":{"android":"levelo://app?vid=8692abf4-50ff-42a8-a322-21cf0917b67b","ios":"levelo://app?vid=8692abf4-50ff-42a8-a322-21cf0917b67b"},"vehicle_type_id":"4","last_reported":1774117304,"current_range_meters":5600,"station_id":"ce4bh312rcd13ifvqdj0","pricing_plan_id":"cebpf4jnsgd1na2vs0mg"},{"bike_id":"5994fa39-f5fa-4bdc-a109-3dc115e8160d","system_id":"levelo_inurba_marseille","lat":43.28692,"lon":5.3999,"is_reserved":false,"is_disabled":false,"rental_uris":{"android":"levelo://app?vid=5994fa39-f5fa-4bdc-a109-3dc115e8160d","ios":"levelo://app?vid=5994fa39-f5fa-4bdc-a109-3dc115e8160d"},"vehicle_type_id":"4","last_reported":1774117304,"current_range_meters":5600,"station_id":"ce4bho92rcd13ifvqh3g","pricing_plan_id":"cebpf4jnsgd1na2vs0mg"},{"bike_id":"5d4abb71-13f3-4852-bc6d-3ce65d056840","system_id":"levelo_inurba_marseille","lat":43.27821,"lon":5.39215,"is_reserved":false,"is_disabled":false,"rental_uris":{"android":"levelo://app?vid=5d4abb71-13f3-4852-bc6d-3ce65d056840","ios":"levelo://app?vid=5d4abb71-13f3-4852-bc6d-3ce65d056840"},"vehicle_type_id":"4","last_reported":1774117304,"current_range_meters":6000,"station_id":"ce4bhjp2rcd13ifvqga0","pricing_plan_id":"cebpf4jnsgd1na2vs0mg"},{"bike_id":"0d76f79d-f270-465a-b1fa-af453377b449","system_id":"levelo_inurba_marseille","lat":43.29068,"lon":5.37178,"is_reserved":false,"is_disabled":false,"rental_uris":{"android":"levelo://app?vid=0d76f79d-f270-465a-b1fa-af453377b449","ios":"levelo://app?vid=0d76f79d-f270-465a-b1fa-af453377b449"},"vehicle_type_id":"4","last_reported":1774117304,"current_range_meters":6000,"station_id":"ce4bh5p2rcd13ifvqe4g","pricing_plan_id":"cebpf4jnsgd1na2vs0mg"},{"bike_id":"92f32112-8a58-4a2d-8380-c50aa46da344","system_id":"levelo_inurba_marseille","lat":43.24094,"lon":5.36365,"is_reserved":false,"is_disabled":false,"rental_uris":{"android":"levelo://app?vid=92f32112-8a58-4a2d-8380-c50aa46da344","ios":"levelo://app?vid=92f32112-8a58-4a2d-8380-c50aa46da344"},"vehicle_type_id":"4","last_reported":1774117304,"current_range_meters":6000,"station_id":"","pricing_plan_id":"cebpf4jnsgd1na2vs0mg"},{"bike_id":"df2fc00f-f4f5-4a7b-9335-275c1bad6b5c","system_id":"levelo_inurba_marseille","lat":43.30813,"lon":5.38157,"is_reserved":false,"is_disabled":false,"rental_uris":{"android":"levelo://app?vid=df2fc00f-f4f5-4a7b-9335-275c1bad6b5c","ios":"levelo://app?vid=df2fc00f-f4f5-4a7b-9335-275c1bad6b5c"},"vehicle_type_id":"4","last_reported":1774117304,"current_range_meters":6000,"station_id":"ce4bgt12rcd13ifvqce0","pricing_plan_id":"cebpf4jnsgd1na2vs0mg"},{"bike_id":"91cb0af5-f29b-47ef-b347-ba46f8e8adc1","system_id":"levelo_inurba_marseille","lat":43.29011,"lon":5.38117,"is_reserved":false,"is_disabled":false,"rental_uris":{"android":"levelo://app?vid=91cb0af5-f29b-47ef-b347-ba46f8e8adc1","ios":"levelo://app?vid=91cb0af5-f29b-47ef-b347-ba46f8e8adc1"},"vehicle_type_id":"4","last_reported":1774117304,"current_range_meters":6000,"station_id":"ce4bh4p2rcd13ifvqe1g","pricing_plan_id":"cebpf4jnsgd1na2vs0mg"},{"bike_id":"bfa999de-7a32-454a-b31e-f99ace51a3fc","system_id":"levelo_inurba_marseille","lat":43.2848,"lon":5.48395,"is_reserved":false,"is_disabled":false,"rental_uris":{"android":"levelo://app?vid=bfa999de-7a32-454a-b31e-f99ace51a3fc","ios":"levelo://app?vid=bfa999de-7a32-454a-b31e-f99ace51a3fc"},"vehicle_type_id":"4","last_reported":1774117304,"current_range_meters":6000,"station_id":"","pricing_plan_id":"cebpf4jnsgd1na2vs0mg"},{"bike_id":"a068e9de-cdeb-4936-8a9b-bd068dca309c","system_id":"levelo_inurba_marseille","lat":43.23891,"lon":5.37466,"is_reserved":false,"is_disabled":false,"rental_uris":{"android":"levelo://app?vid=a068e9de-cdeb-4936-8a9b-bd068dca309c","ios":"levelo://app?vid=a068e9de-cdeb-4936-8a9b-bd068dca309c"},"vehicle_type_id":"4","last_reported":1774117304,"current_range_meters":6000,"station_id":"st_d6sm7csbq4hs73f8fpjg","pricing_plan_id":"cebpf4jnsgd1na2vs0mg"},{"bike_id":"e25da1e2-3ead-4615-95eb-2fb9d3cdfaa6","system_id":"levelo_inurba_marseille","lat":43.29257,"lon":5.38446,"is_reserved":false,"is_disabled":false,"rental_uris":{"android":"levelo://app?vid=e25da1e2-3ead-4615-95eb-2fb9d3cdfaa6","ios":"levelo://app?vid=e25da1e2-3ead-4615-95eb-2fb9d3cdfaa6"},"vehicle_type_id":"4","last_reported":1774117304,"current_range_meters":6000,"station_id":"ce4bh692rcd13ifvqea0","pricing_plan_id":"cebpf4jnsgd1na2vs0mg"},{"bike_id":"fb44a719-62f0-47d9-80c5-185e74beb7f2","system_id":"levelo_inurba_marseille","lat":43.29163,"lon":5.37159,"is_reserved":false,"is_disabled":false,"rental_uris":{"android":"levelo://app?vid=fb44a719-62f0-47d9-80c5-185e74beb7f2","ios":"levelo://app?vid=fb44a719-62f0-47d9-80c5-185e74beb7f2"},"vehicle_type_id":"4","last_reported":1774117304,"current_range_meters":6000,"station_id":"ce4bha92rcd13ifvqeh0","pricing_plan_id":"cebpf4jnsgd1na2vs0mg"},{"bike_id":"8c69132c-2984-4cc6-9bef-dfc23fde7db7","system_id":"levelo_inurba_marseille","lat":43.29883,"lon":5.38901,"is_reserved":false,"is_disabled":false,"rental_uris":{"android":"levelo://app?vid=8c69132c-2984-4cc6-9bef-dfc23fde7db7","ios":"levelo://app?vid=8c69132c-2984-4cc6-9bef-dfc23fde7db7"},"vehicle_type_id":"4","last_reported":1774117304,"current_range_meters":6000,"station_id":"ce4bh392rcd13ifvqdl0","pricing_plan_id":"cebpf4jnsgd1na2vs0mg"},{"bike_id":"47efb401-c51b-46fd-bc6f-b874c731d32b","system_id":"levelo_inurba_marseille","lat":43.29582,"lon":5.36752,"is_reserved":false,"is_disabled":true,"rental_uris":{"android":"levelo://app?vid=47efb401-c51b-46fd-bc6f-b874c731d32b","ios":"levelo://app?vid=47efb401-c51b-46fd-bc6f-b874c731d32b"},"vehicle_type_id":"4","last_reported":1774117304,"current_range_meters":6000,"station_id":"ce4bgph2rcd13ifvqc2g","pricing_plan_id":"cebpf4jnsgd1na2vs0mg"},{"bike_id":"ec531884-8bfa-420b-bd77-1512f322e6f0","system_id":"levelo_inurba_marseille","lat":43.29896,"lon":5.43671,"is_reserved":false,"is_disabled":false,"rental_uris":{"android":"levelo://app?vid=ec531884-8bfa-420b-bd77-1512f322e6f0","ios":"levelo://app?vid=ec531884-8bfa-420b-bd77-1512f322e6f0"},"vehicle_type_id":"4","last_reported":1774117304,"current_range_meters":6000,"station_id":"ce4bhpp2rcd13ifvqhfg","pricing_plan_id":"cebpf4jnsgd1na2vs0mg"},{"bike_id":"a1e1a8f3-45e7-48ad-8240-5a4415743779","system_id":"levelo_inurba_marseille","lat":43.29173,"lon":5.3717,"is_reserved":false,"is_disabled":false,"rental_uris":{"android":"levelo://app?vid=a1e1a8f3-45e7-48ad-8240-5a4415743779","ios":"levelo://app?vid=a1e1a8f3-45e7-48ad-8240-5a4415743779"},"vehicle_type_id":"4","last_reported":1774117304,"current_range_meters":6000,"station_id":"ce4bha92rcd13ifvqeh0","pricing_plan_id":"cebpf4jnsgd1na2vs0mg"},{"bike_id":"afaf009b-854b-4a4a-9a19-fdc9f27a88ec","system_id":"levelo_inurba_marseille","lat":43.29038,"lon":5.38655,"is_reserved":false,"is_disabled":true,"rental_uris":{"android":"levelo://app?vid=afaf009b-854b-4a4a-9a19-fdc9f27a88ec","ios":"levelo://app?vid=afaf009b-854b-4a4a-9a19-fdc9f27a88ec"},"vehicle_type_id":"4","last_reported":1774117304,"current_range_meters":6000,"station_id":"ce4bh4p2rcd13ifvqe0g","pricing_plan_id":"cebpf4jnsgd1na2vs0mg"},{"bike_id":"2cd11bbe-ed2d-4401-ac74-aa88c1ac5db6","system_id":"levelo_inurba_marseille","lat":43.2945,"lon":5.3976,"is_reserved":false,"is_disabled":false,"rental_uris":{"android":"levelo://app?vid=2cd11bbe-ed2d-4401-ac74-aa88c1ac5db6","ios":"levelo://app?vid=2cd11bbe-ed2d-4401-ac74-aa88c1ac5db6"},"vehicle_type_id":"4","last_reported":1774117304,"current_range_meters":6000,"station_id":"ce4bh3h2rcd13ifvqdo0","pricing_plan_id":"cebpf4jnsgd1na2vs0mg"},{"bike_id":"acbdc342-de96-416c-9eeb-14dce59a08dd","system_id":"levelo_inurba_marseille","lat":43.29045,"lon":5.39965,"is_reserved":false,"is_disabled":false,"rental_uris":{"android":"levelo://app?vid=acbdc342-de96-416c-9eeb-14dce59a08dd","ios":"levelo://app?vid=acbdc342-de96-416c-9eeb-14dce59a08dd"},"vehicle_type_id":"4","last_reported":1774117304,"current_range_meters":6000,"station_id":"ce4bh392rcd13ifvqdm0","pricing_plan_id":"cebpf4jnsgd1na2vs0mg"},{"bike_id":"9562cb1b-3eaf-4a03-a5e3-1337d62db9d4","system_id":"levelo_inurba_marseille","lat":43.28944,"lon":5.36399,"is_reserved":false,"is_disabled":false,"rental_uris":{"android":"levelo://app?vid=9562cb1b-3eaf-4a03-a5e3-1337d62db9d4","ios":"levelo://app?vid=9562cb1b-3eaf-4a03-a5e3-1337d62db9d4"},"vehicle_type_id":"4","last_reported":1774117304,"current_range_meters":6400,"station_id":"ce4bhc92rcd13ifvqetg","pricing_plan_id":"cebpf4jnsgd1na2vs0mg"},{"bike_id":"d4c257db-a314-44eb-bcc1-57268745131d","system_id":"levelo_inurba_marseille","lat":43.28045,"lon":5.36953,"is_reserved":false,"is_disabled":false,"rental_uris":{"android":"levelo://app?vid=d4c257db-a314-44eb-bcc1-57268745131d","ios":"levelo://app?vid=d4c257db-a314-44eb-bcc1-57268745131d"},"vehicle_type_id":"4","last_reported":1774117304,"current_range_meters":6400,"station_id":"ce4bha12rcd13ifvqef0","pricing_plan_id":"cebpf4jnsgd1na2vs0mg"},{"bike_id":"71389fc3-a4c3-46c5-a0f9-4330fcbb165b","system_id":"levelo_inurba_marseille","lat":43.27954,"lon":5.41048,"is_reserved":false,"is_disabled":true,"rental_uris":{"android":"levelo://app?vid=71389fc3-a4c3-46c5-a0f9-4330fcbb165b","ios":"levelo://app?vid=71389fc3-a4c3-46c5-a0f9-4330fcbb165b"},"vehicle_type_id":"4","last_reported":1774117304,"current_range_meters":6400,"station_id":"ce4bhnp2rcd13ifvqh0g","pricing_plan_id":"cebpf4jnsgd1na2vs0mg"},{"bike_id":"964577b6-35a3-4bbb-b298-df0580d73607","system_id":"levelo_inurba_marseille","lat":43.29028,"lon":5.37575,"is_reserved":false,"is_disabled":false,"rental_uris":{"android":"levelo://app?vid=964577b6-35a3-4bbb-b298-df0580d73607","ios":"levelo://app?vid=964577b6-35a3-4bbb-b298-df0580d73607"},"vehicle_type_id":"4","last_reported":1774117304,"current_range_meters":6400,"station_id":"ce4bh692rcd13ifvqe90","pricing_plan_id":"cebpf4jnsgd1na2vs0mg"},{"bike_id":"8a84358d-8041-4193-a83a-ea98e64dd79d","system_id":"levelo_inurba_marseille","lat":43.29573,"lon":5.37513,"is_reserved":false,"is_disabled":false,"rental_uris":{"android":"levelo://app?vid=8a84358d-8041-4193-a83a-ea98e64dd79d","ios":"levelo://app?vid=8a84358d-8041-4193-a83a-ea98e64dd79d"},"vehicle_type_id":"4","last_reported":1774117304,"current_range_meters":6400,"station_id":"ce4bgh92rcd13ifvqb50","pricing_plan_id":"cebpf4jnsgd1na2vs0mg"},{"bike_id":"e5889c18-6483-46e2-8e97-7aa7bb200275","system_id":"levelo_inurba_marseille","lat":43.24488,"lon":5.42524,"is_reserved":false,"is_disabled":false,"rental_uris":{"android":"levelo://app?vid=e5889c18-6483-46e2-8e97-7aa7bb200275","ios":"levelo://app?vid=e5889c18-6483-46e2-8e97-7aa7bb200275"},"vehicle_type_id":"4","last_reported":1774117304,"current_range_meters":6400,"station_id":"st_d4a3vfp97mjs738cd8kg","pricing_plan_id":"cebpf4jnsgd1na2vs0mg"},{"bike_id":"aca02e18-5940-4457-bade-a83a3729d2e4","system_id":"levelo_inurba_marseille","lat":43.29479,"lon":5.43285,"is_reserved":false,"is_disabled":false,"rental_uris":{"android":"levelo://app?vid=aca02e18-5940-4457-bade-a83a3729d2e4","ios":"levelo://app?vid=aca02e18-5940-4457-bade-a83a3729d2e4"},"vehicle_type_id":"4","last_reported":1774117304,"current_range_meters":6400,"station_id":"st_d3j5ugp08ojc73fj9d10","pricing_plan_id":"cebpf4jnsgd1na2vs0mg"},{"bike_id":"a52ba6dc-1b15-4a85-8d00-b41ad0623a75","system_id":"levelo_inurba_marseille","lat":43.32348,"lon":5.36742,"is_reserved":false,"is_disabled":false,"rental_uris":{"android":"levelo://app?vid=a52ba6dc-1b15-4a85-8d00-b41ad0623a75","ios":"levelo://app?vid=a52ba6dc-1b15-4a85-8d00-b41ad0623a75"},"vehicle_type_id":"4","last_reported":1774117304,"current_range_meters":6400,"station_id":"ce4bhsh2rcd13ifvqi2g","pricing_plan_id":"cebpf4jnsgd1na2vs0mg"},{"bike_id":"fcbe5b5a-7499-4500-bf0c-9633087232f5","system_id":"levelo_inurba_marseille","lat":43.24075,"lon":5.37766,"is_reserved":false,"is_disabled":false,"rental_uris":{"android":"levelo://app?vid=fcbe5b5a-7499-4500-bf0c-9633087232f5","ios":"levelo://app?vid=fcbe5b5a-7499-4500-bf0c-9633087232f5"},"vehicle_type_id":"4","last_reported":1774117304,"current_range_meters":6400,"station_id":"ce4bhnp2rcd13ifvqgvg","pricing_plan_id":"cebpf4jnsgd1na2vs0mg"},{"bike_id":"3727d6e3-4577-49ea-959e-93a5e09450a3","system_id":"levelo_inurba_marseille","lat":43.31453,"lon":5.40081,"is_reserved":false,"is_disabled":false,"rental_uris":{"android":"levelo://app?vid=3727d6e3-4577-49ea-959e-93a5e09450a3","ios":"levelo://app?vid=3727d6e3-4577-49ea-959e-93a5e09450a3"},"vehicle_type_id":"4","last_reported":1774117304,"current_range_meters":6400,"station_id":"","pricing_plan_id":"cebpf4jnsgd1na2vs0mg"},{"bike_id":"10d92ea4-ebb3-40a7-af28-02eba0ebbca2","system_id":"levelo_inurba_marseille","lat":43.26956,"lon":5.3864,"is_reserved":false,"is_disabled":false,"rental_uris":{"android":"levelo://app?vid=10d92ea4-ebb3-40a7-af28-02eba0ebbca2","ios":"levelo://app?vid=10d92ea4-ebb3-40a7-af28-02eba0ebbca2"},"vehicle_type_id":"4","last_reported":1774117304,"current_range_meters":6400,"station_id":"ce4bhh92rcd13ifvqfh0","pricing_plan_id":"cebpf4jnsgd1na2vs0mg"},{"bike_id":"3e06b7b0-b21b-4b52-acca-b6d3afa5c3d7","system_id":"levelo_inurba_marseille","lat":43.26695,"lon":5.38266,"is_reserved":false,"is_disabled":false,"rental_uris":{"android":"levelo://app?vid=3e06b7b0-b21b-4b52-acca-b6d3afa5c3d7","ios":"levelo://app?vid=3e06b7b0-b21b-4b52-acca-b6d3afa5c3d7"},"vehicle_type_id":"4","last_reported":1774117304,"current_range_meters":6400,"station_id":"ce4bhg92rcd13ifvqf90","pricing_plan_id":"cebpf4jnsgd1na2vs0mg"},{"bike_id":"a666c9ae-84bf-4ed3-a878-20a83ecf18ce","system_id":"levelo_inurba_marseille","lat":43.28847,"lon":5.39315,"is_reserved":false,"is_disabled":false,"rental_uris":{"android":"levelo://app?vid=a666c9ae-84bf-4ed3-a878-20a83ecf18ce","ios":"levelo://app?vid=a666c9ae-84bf-4ed3-a878-20a83ecf18ce"},"vehicle_type_id":"4","last_reported":1774117304,"current_range_meters":6400,"station_id":"ce4bh2p2rcd13ifvqdi0","pricing_plan_id":"cebpf4jnsgd1na2vs0mg"},{"bike_id":"83f26f0c-76a5-412b-b3a4-76d2e6d84a47","system_id":"levelo_inurba_marseille","lat":43.29542,"lon":5.3855,"is_reserved":false,"is_disabled":false,"rental_uris":{"android":"levelo://app?vid=83f26f0c-76a5-412b-b3a4-76d2e6d84a47","ios":"levelo://app?vid=83f26f0c-76a5-412b-b3a4-76d2e6d84a47"},"vehicle_type_id":"4","last_reported":1774117304,"current_range_meters":6400,"station_id":"ce4bgih2rcd13ifvqba0","pricing_plan_id":"cebpf4jnsgd1na2vs0mg"},{"bike_id":"f7064545-c443-4f34-8ec6-2eafadfdc639","system_id":"levelo_inurba_marseille","lat":43.28229,"lon":5.3907,"is_reserved":false,"is_disabled":false,"rental_uris":{"android":"levelo://app?vid=f7064545-c443-4f34-8ec6-2eafadfdc639","ios":"levelo://app?vid=f7064545-c443-4f34-8ec6-2eafadfdc639"},"vehicle_type_id":"4","last_reported":1774117304,"current_range_meters":6800,"station_id":"ce4bhn92rcd13ifvqgsg","pricing_plan_id":"cebpf4jnsgd1na2vs0mg"},{"bike_id":"42ab0379-da99-4e4d-86ad-a3df2009332a","system_id":"levelo_inurba_marseille","lat":43.29607,"lon":5.38106,"is_reserved":false,"is_disabled":false,"rental_uris":{"android":"levelo://app?vid=42ab0379-da99-4e4d-86ad-a3df2009332a","ios":"levelo://app?vid=42ab0379-da99-4e4d-86ad-a3df2009332a"},"vehicle_type_id":"4","last_reported":1774117304,"current_range_meters":6800,"station_id":"ce4bgl12rcd13ifvqbo0","pricing_plan_id":"cebpf4jnsgd1na2vs0mg"},{"bike_id":"8d23e784-daa6-4893-bb08-d9c8fbf9a04e","system_id":"levelo_inurba_marseille","lat":43.29778,"lon":5.37111,"is_reserved":false,"is_disabled":false,"rental_uris":{"android":"levelo://app?vid=8d23e784-daa6-4893-bb08-d9c8fbf9a04e","ios":"levelo://app?vid=8d23e784-daa6-4893-bb08-d9c8fbf9a04e"},"vehicle_type_id":"4","last_reported":1774117304,"current_range_meters":6800,"station_id":"ce4bgop2rcd13ifvqc1g","pricing_plan_id":"cebpf4jnsgd1na2vs0mg"},{"bike_id":"afab17fe-5945-4eab-9129-fe150d6e725c","system_id":"levelo_inurba_marseille","lat":43.31059,"lon":5.37123,"is_reserved":false,"is_disabled":false,"rental_uris":{"android":"levelo://app?vid=afab17fe-5945-4eab-9129-fe150d6e725c","ios":"levelo://app?vid=afab17fe-5945-4eab-9129-fe150d6e725c"},"vehicle_type_id":"4","last_reported":1774117304,"current_range_meters":6800,"station_id":"st_d4kl2rp97mjs73e7tdfg","pricing_plan_id":"cebpf4jnsgd1na2vs0mg"},{"bike_id":"bb406d78-f7ce-4c2f-bdee-a1a51e35007d","system_id":"levelo_inurba_marseille","lat":43.31107,"lon":5.3776,"is_reserved":false,"is_disabled":false,"rental_uris":{"android":"levelo://app?vid=bb406d78-f7ce-4c2f-bdee-a1a51e35007d","ios":"levelo://app?vid=bb406d78-f7ce-4c2f-bdee-a1a51e35007d"},"vehicle_type_id":"4","last_reported":1774117304,"current_range_meters":6800,"station_id":"ce4bgt92rcd13ifvqcg0","pricing_plan_id":"cebpf4jnsgd1na2vs0mg"},{"bike_id":"364595bc-58c1-401b-9def-fd5b4f8d9626","system_id":"levelo_inurba_marseille","lat":43.2465,"lon":5.38892,"is_reserved":false,"is_disabled":false,"rental_uris":{"android":"levelo://app?vid=364595bc-58c1-401b-9def-fd5b4f8d9626","ios":"levelo://app?vid=364595bc-58c1-401b-9def-fd5b4f8d9626"},"vehicle_type_id":"4","last_reported":1774117304,"current_range_meters":6800,"station_id":"ce4bhg12rcd13ifvqf60","pricing_plan_id":"cebpf4jnsgd1na2vs0mg"},{"bike_id":"37fd8b91-bebb-483f-9ede-850904204da2","system_id":"levelo_inurba_marseille","lat":43.33448,"lon":5.35701,"is_reserved":false,"is_disabled":false,"rental_uris":{"android":"levelo://app?vid=37fd8b91-bebb-483f-9ede-850904204da2","ios":"levelo://app?vid=37fd8b91-bebb-483f-9ede-850904204da2"},"vehicle_type_id":"4","last_reported":1774117304,"current_range_meters":6800,"station_id":"","pricing_plan_id":"cebpf4jnsgd1na2vs0mg"},{"bike_id":"7735375d-1041-4f99-b2b7-719b8a41cb75","system_id":"levelo_inurba_marseille","lat":43.28154,"lon":5.42645,"is_reserved":false,"is_disabled":true,"rental_uris":{"android":"levelo://app?vid=7735375d-1041-4f99-b2b7-719b8a41cb75","ios":"levelo://app?vid=7735375d-1041-4f99-b2b7-719b8a41cb75"},"vehicle_type_id":"4","last_reported":1774117304,"current_range_meters":6800,"station_id":"ce4bhnh2rcd13ifvqgug","pricing_plan_id":"cebpf4jnsgd1na2vs0mg"},{"bike_id":"d9a2340f-4dc0-456b-89f0-454af4d93a65","system_id":"levelo_inurba_marseille","lat":43.28507,"lon":5.35135,"is_reserved":false,"is_disabled":false,"rental_uris":{"android":"levelo://app?vid=d9a2340f-4dc0-456b-89f0-454af4d93a65","ios":"levelo://app?vid=d9a2340f-4dc0-456b-89f0-454af4d93a65"},"vehicle_type_id":"4","last_reported":1774117304,"current_range_meters":6800,"station_id":"","pricing_plan_id":"cebpf4jnsgd1na2vs0mg"},{"bike_id":"3b123e81-f66d-4bce-b858-b205177b5e6f","system_id":"levelo_inurba_marseille","lat":43.25822,"lon":5.39433,"is_reserved":false,"is_disabled":false,"rental_uris":{"android":"levelo://app?vid=3b123e81-f66d-4bce-b858-b205177b5e6f","ios":"levelo://app?vid=3b123e81-f66d-4bce-b858-b205177b5e6f"},"vehicle_type_id":"4","last_reported":1774117304,"current_range_meters":6800,"station_id":"ce4bhip2rcd13ifvqft0","pricing_plan_id":"cebpf4jnsgd1na2vs0mg"},{"bike_id":"cd1364b1-baef-45a2-9fa5-7994136dbd0d","system_id":"levelo_inurba_marseille","lat":43.2905,"lon":5.39989,"is_reserved":false,"is_disabled":false,"rental_uris":{"android":"levelo://app?vid=cd1364b1-baef-45a2-9fa5-7994136dbd0d","ios":"levelo://app?vid=cd1364b1-baef-45a2-9fa5-7994136dbd0d"},"vehicle_type_id":"4","last_reported":1774117304,"current_range_meters":6800,"station_id":"ce4bh392rcd13ifvqdm0","pricing_plan_id":"cebpf4jnsgd1na2vs0mg"},{"bike_id":"0bb01b52-fb32-485b-9779-7f2f18f2f46e","system_id":"levelo_inurba_marseille","lat":43.29521,"lon":5.3854,"is_reserved":false,"is_disabled":false,"rental_uris":{"android":"levelo://app?vid=0bb01b52-fb32-485b-9779-7f2f18f2f46e","ios":"levelo://app?vid=0bb01b52-fb32-485b-9779-7f2f18f2f46e"},"vehicle_type_id":"4","last_reported":1774117304,"current_range_meters":6800,"station_id":"ce4bgih2rcd13ifvqba0","pricing_plan_id":"cebpf4jnsgd1na2vs0mg"},{"bike_id":"1f7bd905-6cfa-4177-9702-133844b289cf","system_id":"levelo_inurba_marseille","lat":43.29303,"lon":5.37434,"is_reserved":false,"is_disabled":false,"rental_uris":{"android":"levelo://app?vid=1f7bd905-6cfa-4177-9702-133844b289cf","ios":"levelo://app?vid=1f7bd905-6cfa-4177-9702-133844b289cf"},"vehicle_type_id":"4","last_reported":1774117304,"current_range_meters":6800,"station_id":"ce4bgi12rcd13ifvqb70","pricing_plan_id":"cebpf4jnsgd1na2vs0mg"},{"bike_id":"409dfb63-4d74-4284-93ac-4cd2be298b8b","system_id":"levelo_inurba_marseille","lat":43.29612,"lon":5.38108,"is_reserved":false,"is_disabled":false,"rental_uris":{"android":"levelo://app?vid=409dfb63-4d74-4284-93ac-4cd2be298b8b","ios":"levelo://app?vid=409dfb63-4d74-4284-93ac-4cd2be298b8b"},"vehicle_type_id":"4","last_reported":1774117304,"current_range_meters":6800,"station_id":"ce4bgl12rcd13ifvqbo0","pricing_plan_id":"cebpf4jnsgd1na2vs0mg"},{"bike_id":"2269e68d-f48b-428d-993e-bfd909030469","system_id":"levelo_inurba_marseille","lat":43.28506,"lon":5.38838,"is_reserved":false,"is_disabled":false,"rental_uris":{"android":"levelo://app?vid=2269e68d-f48b-428d-993e-bfd909030469","ios":"levelo://app?vid=2269e68d-f48b-428d-993e-bfd909030469"},"vehicle_type_id":"4","last_reported":1774117304,"current_range_meters":6800,"station_id":"","pricing_plan_id":"cebpf4jnsgd1na2vs0mg"},{"bike_id":"dac9aef8-a51d-4234-b7c9-efd3c254a7ee","system_id":"levelo_inurba_marseille","lat":43.2992,"lon":5.3935,"is_reserved":false,"is_disabled":false,"rental_uris":{"android":"levelo://app?vid=dac9aef8-a51d-4234-b7c9-efd3c254a7ee","ios":"levelo://app?vid=dac9aef8-a51d-4234-b7c9-efd3c254a7ee"},"vehicle_type_id":"4","last_reported":1774117304,"current_range_meters":6800,"station_id":"chh1huq6cuj3fo74tm60","pricing_plan_id":"cebpf4jnsgd1na2vs0mg"},{"bike_id":"cc4104cb-4e2f-426e-9dd1-a1e293d1bbe0","system_id":"levelo_inurba_marseille","lat":43.28852,"lon":5.35862,"is_reserved":false,"is_disabled":false,"rental_uris":{"android":"levelo://app?vid=cc4104cb-4e2f-426e-9dd1-a1e293d1bbe0","ios":"levelo://app?vid=cc4104cb-4e2f-426e-9dd1-a1e293d1bbe0"},"vehicle_type_id":"4","last_reported":1774117304,"current_range_meters":6800,"station_id":"ce4bhb12rcd13ifvqem0","pricing_plan_id":"cebpf4jnsgd1na2vs0mg"},{"bike_id":"97851d56-e849-4012-8de5-a18a8eb83f1f","system_id":"levelo_inurba_marseille","lat":43.24781,"lon":5.37452,"is_reserved":false,"is_disabled":false,"rental_uris":{"android":"levelo://app?vid=97851d56-e849-4012-8de5-a18a8eb83f1f","ios":"levelo://app?vid=97851d56-e849-4012-8de5-a18a8eb83f1f"},"vehicle_type_id":"4","last_reported":1774117304,"current_range_meters":6800,"station_id":"ce4bhgh2rcd13ifvqfb0","pricing_plan_id":"cebpf4jnsgd1na2vs0mg"},{"bike_id":"b87d7938-28e4-46e7-994e-fdebd5392225","system_id":"levelo_inurba_marseille","lat":43.32106,"lon":5.3678,"is_reserved":false,"is_disabled":false,"rental_uris":{"android":"levelo://app?vid=b87d7938-28e4-46e7-994e-fdebd5392225","ios":"levelo://app?vid=b87d7938-28e4-46e7-994e-fdebd5392225"},"vehicle_type_id":"4","last_reported":1774117304,"current_range_meters":6800,"station_id":"ce4bhrh2rcd13ifvqhug","pricing_plan_id":"cebpf4jnsgd1na2vs0mg"},{"bike_id":"156de1da-67b2-4a6b-a8c2-ab6320693d6c","system_id":"levelo_inurba_marseille","lat":43.26582,"lon":5.3902,"is_reserved":false,"is_disabled":false,"rental_uris":{"android":"levelo://app?vid=156de1da-67b2-4a6b-a8c2-ab6320693d6c","ios":"levelo://app?vid=156de1da-67b2-4a6b-a8c2-ab6320693d6c"},"vehicle_type_id":"4","last_reported":1774117304,"current_range_meters":7200,"station_id":"ce4bhe12rcd13ifvqf30","pricing_plan_id":"cebpf4jnsgd1na2vs0mg"},{"bike_id":"aefe4713-b962-43ef-a0c2-a180e99da315","system_id":"levelo_inurba_marseille","lat":43.28461,"lon":5.35888,"is_reserved":false,"is_disabled":false,"rental_uris":{"android":"levelo://app?vid=aefe4713-b962-43ef-a0c2-a180e99da315","ios":"levelo://app?vid=aefe4713-b962-43ef-a0c2-a180e99da315"},"vehicle_type_id":"4","last_reported":1774117304,"current_range_meters":7200,"station_id":"ce4bhah2rcd13ifvqei0","pricing_plan_id":"cebpf4jnsgd1na2vs0mg"},{"bike_id":"38430f80-9b78-4214-bc43-2b747d021622","system_id":"levelo_inurba_marseille","lat":43.296924,"lon":5.379302,"is_reserved":false,"is_disabled":false,"rental_uris":{"android":"levelo://app?vid=38430f80-9b78-4214-bc43-2b747d021622","ios":"levelo://app?vid=38430f80-9b78-4214-bc43-2b747d021622"},"vehicle_type_id":"4","last_reported":1774117304,"current_range_meters":7200,"station_id":"ce4bh692rcd13ifvqea0","pricing_plan_id":"cebpf4jnsgd1na2vs0mg"},{"bike_id":"fc2dcf2b-41a3-424c-82cd-3a61e0ae0557","system_id":"levelo_inurba_marseille","lat":43.29038,"lon":5.38194,"is_reserved":false,"is_disabled":false,"rental_uris":{"android":"levelo://app?vid=fc2dcf2b-41a3-424c-82cd-3a61e0ae0557","ios":"levelo://app?vid=fc2dcf2b-41a3-424c-82cd-3a61e0ae0557"},"vehicle_type_id":"4","last_reported":1774117304,"current_range_meters":7200,"station_id":"","pricing_plan_id":"cebpf4jnsgd1na2vs0mg"},{"bike_id":"077ba1f4-9955-44ea-8995-8df9c4ed43ac","system_id":"levelo_inurba_marseille","lat":43.31051,"lon":5.3717,"is_reserved":false,"is_disabled":false,"rental_uris":{"android":"levelo://app?vid=077ba1f4-9955-44ea-8995-8df9c4ed43ac","ios":"levelo://app?vid=077ba1f4-9955-44ea-8995-8df9c4ed43ac"},"vehicle_type_id":"4","last_reported":1774117304,"current_range_meters":7200,"station_id":"st_d4kl2rp97mjs73e7tdfg","pricing_plan_id":"cebpf4jnsgd1na2vs0mg"},{"bike_id":"17df013b-ed40-4ae3-a66c-e9afe84f2c02","system_id":"levelo_inurba_marseille","lat":43.29295,"lon":5.37461,"is_reserved":false,"is_disabled":false,"rental_uris":{"android":"levelo://app?vid=17df013b-ed40-4ae3-a66c-e9afe84f2c02","ios":"levelo://app?vid=17df013b-ed40-4ae3-a66c-e9afe84f2c02"},"vehicle_type_id":"4","last_reported":1774117304,"current_range_meters":7200,"station_id":"ce4bgi12rcd13ifvqb70","pricing_plan_id":"cebpf4jnsgd1na2vs0mg"},{"bike_id":"8e70251c-8f02-4240-8304-f6a3026eaebe","system_id":"levelo_inurba_marseille","lat":43.30901,"lon":5.36882,"is_reserved":false,"is_disabled":false,"rental_uris":{"android":"levelo://app?vid=8e70251c-8f02-4240-8304-f6a3026eaebe","ios":"levelo://app?vid=8e70251c-8f02-4240-8304-f6a3026eaebe"},"vehicle_type_id":"4","last_reported":1774117304,"current_range_meters":7200,"station_id":"ce4bgn92rcd13ifvqbvg","pricing_plan_id":"cebpf4jnsgd1na2vs0mg"},{"bike_id":"37752f22-4e24-4242-a38c-e44293abad6b","system_id":"levelo_inurba_marseille","lat":43.27978,"lon":5.38721,"is_reserved":false,"is_disabled":true,"rental_uris":{"android":"levelo://app?vid=37752f22-4e24-4242-a38c-e44293abad6b","ios":"levelo://app?vid=37752f22-4e24-4242-a38c-e44293abad6b"},"vehicle_type_id":"4","last_reported":1774117304,"current_range_meters":7200,"station_id":"ce4bhg12rcd13ifvqf80","pricing_plan_id":"cebpf4jnsgd1na2vs0mg"},{"bike_id":"af4f2a74-9b6d-437a-80f1-a5a483cec32e","system_id":"levelo_inurba_marseille","lat":43.28672,"lon":5.38675,"is_reserved":false,"is_disabled":false,"rental_uris":{"android":"levelo://app?vid=af4f2a74-9b6d-437a-80f1-a5a483cec32e","ios":"levelo://app?vid=af4f2a74-9b6d-437a-80f1-a5a483cec32e"},"vehicle_type_id":"4","last_reported":1774117304,"current_range_meters":7200,"station_id":"ce4bh492rcd13ifvqdug","pricing_plan_id":"cebpf4jnsgd1na2vs0mg"},{"bike_id":"fd11dd76-057e-4393-a68a-f665b1f8cef4","system_id":"levelo_inurba_marseille","lat":43.30593,"lon":5.39357,"is_reserved":false,"is_disabled":false,"rental_uris":{"android":"levelo://app?vid=fd11dd76-057e-4393-a68a-f665b1f8cef4","ios":"levelo://app?vid=fd11dd76-057e-4393-a68a-f665b1f8cef4"},"vehicle_type_id":"4","last_reported":1774117304,"current_range_meters":7200,"station_id":"ce4bh0p2rcd13ifvqd80","pricing_plan_id":"cebpf4jnsgd1na2vs0mg"},{"bike_id":"86799b27-44a5-4119-9c71-c5787cc5127b","system_id":"levelo_inurba_marseille","lat":43.23884,"lon":5.37471,"is_reserved":false,"is_disabled":false,"rental_uris":{"android":"levelo://app?vid=86799b27-44a5-4119-9c71-c5787cc5127b","ios":"levelo://app?vid=86799b27-44a5-4119-9c71-c5787cc5127b"},"vehicle_type_id":"4","last_reported":1774117304,"current_range_meters":7200,"station_id":"st_d6sm7csbq4hs73f8fpjg","pricing_plan_id":"cebpf4jnsgd1na2vs0mg"},{"bike_id":"1e3c0759-8336-40b4-9369-a143c61f7fd4","system_id":"levelo_inurba_marseille","lat":43.30602,"lon":5.39356,"is_reserved":false,"is_disabled":false,"rental_uris":{"android":"levelo://app?vid=1e3c0759-8336-40b4-9369-a143c61f7fd4","ios":"levelo://app?vid=1e3c0759-8336-40b4-9369-a143c61f7fd4"},"vehicle_type_id":"4","last_reported":1774117304,"current_range_meters":7200,"station_id":"ce4bh0p2rcd13ifvqd80","pricing_plan_id":"cebpf4jnsgd1na2vs0mg"},{"bike_id":"f4fdb6d7-5c3f-42d0-84a0-b37ee5411158","system_id":"levelo_inurba_marseille","lat":43.30209,"lon":5.39462,"is_reserved":false,"is_disabled":false,"rental_uris":{"android":"levelo://app?vid=f4fdb6d7-5c3f-42d0-84a0-b37ee5411158","ios":"levelo://app?vid=f4fdb6d7-5c3f-42d0-84a0-b37ee5411158"},"vehicle_type_id":"4","last_reported":1774117304,"current_range_meters":7200,"station_id":"ce4bh0p2rcd13ifvqd70","pricing_plan_id":"cebpf4jnsgd1na2vs0mg"},{"bike_id":"5206b1c0-ea28-4288-9fb7-15de647e09fa","system_id":"levelo_inurba_marseille","lat":43.33557,"lon":5.37454,"is_reserved":false,"is_disabled":false,"rental_uris":{"android":"levelo://app?vid=5206b1c0-ea28-4288-9fb7-15de647e09fa","ios":"levelo://app?vid=5206b1c0-ea28-4288-9fb7-15de647e09fa"},"vehicle_type_id":"4","last_reported":1774117304,"current_range_meters":7200,"station_id":"st_d46tts09ee8s73dlu43g","pricing_plan_id":"cebpf4jnsgd1na2vs0mg"},{"bike_id":"4cfbfa6f-5626-4810-9e83-9f7d2f4044c0","system_id":"levelo_inurba_marseille","lat":43.29539,"lon":5.38542,"is_reserved":false,"is_disabled":false,"rental_uris":{"android":"levelo://app?vid=4cfbfa6f-5626-4810-9e83-9f7d2f4044c0","ios":"levelo://app?vid=4cfbfa6f-5626-4810-9e83-9f7d2f4044c0"},"vehicle_type_id":"4","last_reported":1774117304,"current_range_meters":7200,"station_id":"ce4bgih2rcd13ifvqba0","pricing_plan_id":"cebpf4jnsgd1na2vs0mg"},{"bike_id":"a32a2470-28c1-4625-838f-d3410b2a4e19","system_id":"levelo_inurba_marseille","lat":43.29009,"lon":5.38135,"is_reserved":false,"is_disabled":false,"rental_uris":{"android":"levelo://app?vid=a32a2470-28c1-4625-838f-d3410b2a4e19","ios":"levelo://app?vid=a32a2470-28c1-4625-838f-d3410b2a4e19"},"vehicle_type_id":"4","last_reported":1774117304,"current_range_meters":7200,"station_id":"ce4bh4p2rcd13ifvqe1g","pricing_plan_id":"cebpf4jnsgd1na2vs0mg"},{"bike_id":"bb64248e-0e5d-4ee1-9d8f-d48a0dd77d66","system_id":"levelo_inurba_marseille","lat":43.21623,"lon":5.34489,"is_reserved":false,"is_disabled":false,"rental_uris":{"android":"levelo://app?vid=bb64248e-0e5d-4ee1-9d8f-d48a0dd77d66","ios":"levelo://app?vid=bb64248e-0e5d-4ee1-9d8f-d48a0dd77d66"},"vehicle_type_id":"4","last_reported":1774117304,"current_range_meters":7200,"station_id":"","pricing_plan_id":"cebpf4jnsgd1na2vs0mg"},{"bike_id":"8b4f866a-3768-4a07-8bfe-a6313214166a","system_id":"levelo_inurba_marseille","lat":43.27835,"lon":5.3922,"is_reserved":false,"is_disabled":false,"rental_uris":{"android":"levelo://app?vid=8b4f866a-3768-4a07-8bfe-a6313214166a","ios":"levelo://app?vid=8b4f866a-3768-4a07-8bfe-a6313214166a"},"vehicle_type_id":"4","last_reported":1774117304,"current_range_meters":7200,"station_id":"ce4bhjp2rcd13ifvqga0","pricing_plan_id":"cebpf4jnsgd1na2vs0mg"},{"bike_id":"703efbe1-feef-417d-a9e3-0fca1a7eab74","system_id":"levelo_inurba_marseille","lat":43.34972,"lon":5.37937,"is_reserved":false,"is_disabled":false,"rental_uris":{"android":"levelo://app?vid=703efbe1-feef-417d-a9e3-0fca1a7eab74","ios":"levelo://app?vid=703efbe1-feef-417d-a9e3-0fca1a7eab74"},"vehicle_type_id":"4","last_reported":1774117304,"current_range_meters":7200,"station_id":"","pricing_plan_id":"cebpf4jnsgd1na2vs0mg"},{"bike_id":"0846e49b-d67d-4e09-b8db-c313e218e62f","system_id":"levelo_inurba_marseille","lat":43.30219,"lon":5.39461,"is_reserved":false,"is_disabled":false,"rental_uris":{"android":"levelo://app?vid=0846e49b-d67d-4e09-b8db-c313e218e62f","ios":"levelo://app?vid=0846e49b-d67d-4e09-b8db-c313e218e62f"},"vehicle_type_id":"4","last_reported":1774117304,"current_range_meters":7200,"station_id":"ce4bh0p2rcd13ifvqd70","pricing_plan_id":"cebpf4jnsgd1na2vs0mg"},{"bike_id":"8c4ccbb9-2592-41b7-bdcf-616a3429acf2","system_id":"levelo_inurba_marseille","lat":43.25125,"lon":5.4034,"is_reserved":false,"is_disabled":false,"rental_uris":{"android":"levelo://app?vid=8c4ccbb9-2592-41b7-bdcf-616a3429acf2","ios":"levelo://app?vid=8c4ccbb9-2592-41b7-bdcf-616a3429acf2"},"vehicle_type_id":"4","last_reported":1774117304,"current_range_meters":7200,"station_id":"ce4bhlh2rcd13ifvqgig","pricing_plan_id":"cebpf4jnsgd1na2vs0mg"},{"bike_id":"e1709185-5afa-49b9-ba1d-d7401d0ea711","system_id":"levelo_inurba_marseille","lat":43.2953,"lon":5.3941,"is_reserved":false,"is_disabled":false,"rental_uris":{"android":"levelo://app?vid=e1709185-5afa-49b9-ba1d-d7401d0ea711","ios":"levelo://app?vid=e1709185-5afa-49b9-ba1d-d7401d0ea711"},"vehicle_type_id":"4","last_reported":1774117304,"current_range_meters":7200,"station_id":"ce4bh292rcd13ifvqdf0","pricing_plan_id":"cebpf4jnsgd1na2vs0mg"},{"bike_id":"190ac252-5242-4b2b-86f5-67c93f33d240","system_id":"levelo_inurba_marseille","lat":43.25351,"lon":5.42158,"is_reserved":false,"is_disabled":false,"rental_uris":{"android":"levelo://app?vid=190ac252-5242-4b2b-86f5-67c93f33d240","ios":"levelo://app?vid=190ac252-5242-4b2b-86f5-67c93f33d240"},"vehicle_type_id":"4","last_reported":1774117304,"current_range_meters":8000,"station_id":"st_d2m65c5bi1j21697t3ng","pricing_plan_id":"cebpf4jnsgd1na2vs0mg"},{"bike_id":"6fbf9e1a-5ad3-420f-89dd-fdb96fe39086","system_id":"levelo_inurba_marseille","lat":43.31076,"lon":5.37232,"is_reserved":false,"is_disabled":false,"rental_uris":{"android":"levelo://app?vid=6fbf9e1a-5ad3-420f-89dd-fdb96fe39086","ios":"levelo://app?vid=6fbf9e1a-5ad3-420f-89dd-fdb96fe39086"},"vehicle_type_id":"4","last_reported":1774117304,"current_range_meters":8000,"station_id":"st_d4kl2rp97mjs73e7tdfg","pricing_plan_id":"cebpf4jnsgd1na2vs0mg"},{"bike_id":"c7cc5081-8a90-4664-8378-0ac0db8d74fb","system_id":"levelo_inurba_marseille","lat":43.29801,"lon":5.36683,"is_reserved":false,"is_disabled":false,"rental_uris":{"android":"levelo://app?vid=c7cc5081-8a90-4664-8378-0ac0db8d74fb","ios":"levelo://app?vid=c7cc5081-8a90-4664-8378-0ac0db8d74fb"},"vehicle_type_id":"4","last_reported":1774117304,"current_range_meters":8000,"station_id":"","pricing_plan_id":"cebpf4jnsgd1na2vs0mg"},{"bike_id":"fb2fe282-db9f-4047-a00d-9fa8876597bc","system_id":"levelo_inurba_marseille","lat":43.28693,"lon":5.36358,"is_reserved":false,"is_disabled":false,"rental_uris":{"android":"levelo://app?vid=fb2fe282-db9f-4047-a00d-9fa8876597bc","ios":"levelo://app?vid=fb2fe282-db9f-4047-a00d-9fa8876597bc"},"vehicle_type_id":"4","last_reported":1774117304,"current_range_meters":8000,"station_id":"ce4bhah2rcd13ifvqej0","pricing_plan_id":"cebpf4jnsgd1na2vs0mg"},{"bike_id":"df5ad533-8354-43dd-b4db-d4118becde63","system_id":"levelo_inurba_marseille","lat":43.28526,"lon":5.48307,"is_reserved":false,"is_disabled":false,"rental_uris":{"android":"levelo://app?vid=df5ad533-8354-43dd-b4db-d4118becde63","ios":"levelo://app?vid=df5ad533-8354-43dd-b4db-d4118becde63"},"vehicle_type_id":"4","last_reported":1774117304,"current_range_meters":8000,"station_id":"","pricing_plan_id":"cebpf4jnsgd1na2vs0mg"},{"bike_id":"5b8465c8-a7ef-46b3-ba97-d01814b7d839","system_id":"levelo_inurba_marseille","lat":43.27073,"lon":5.42281,"is_reserved":false,"is_disabled":false,"rental_uris":{"android":"levelo://app?vid=5b8465c8-a7ef-46b3-ba97-d01814b7d839","ios":"levelo://app?vid=5b8465c8-a7ef-46b3-ba97-d01814b7d839"},"vehicle_type_id":"4","last_reported":1774117304,"current_range_meters":8000,"station_id":"ce4bhk92rcd13ifvqgb0","pricing_plan_id":"cebpf4jnsgd1na2vs0mg"},{"bike_id":"1b239c51-98f5-4f98-9f93-5c2d5a0137d8","system_id":"levelo_inurba_marseille","lat":43.28939,"lon":5.36384,"is_reserved":false,"is_disabled":false,"rental_uris":{"android":"levelo://app?vid=1b239c51-98f5-4f98-9f93-5c2d5a0137d8","ios":"levelo://app?vid=1b239c51-98f5-4f98-9f93-5c2d5a0137d8"},"vehicle_type_id":"4","last_reported":1774117304,"current_range_meters":8000,"station_id":"ce4bhc92rcd13ifvqetg","pricing_plan_id":"cebpf4jnsgd1na2vs0mg"},{"bike_id":"5dd840ca-71a1-4f6b-b41f-f59bff17dce6","system_id":"levelo_inurba_marseille","lat":43.29443,"lon":5.3976,"is_reserved":false,"is_disabled":false,"rental_uris":{"android":"levelo://app?vid=5dd840ca-71a1-4f6b-b41f-f59bff17dce6","ios":"levelo://app?vid=5dd840ca-71a1-4f6b-b41f-f59bff17dce6"},"vehicle_type_id":"4","last_reported":1774117304,"current_range_meters":8000,"station_id":"ce4bh3h2rcd13ifvqdo0","pricing_plan_id":"cebpf4jnsgd1na2vs0mg"},{"bike_id":"84dc3d68-1c59-4a3a-a8d1-cca6c5afc7c9","system_id":"levelo_inurba_marseille","lat":43.2805,"lon":5.3697,"is_reserved":false,"is_disabled":false,"rental_uris":{"android":"levelo://app?vid=84dc3d68-1c59-4a3a-a8d1-cca6c5afc7c9","ios":"levelo://app?vid=84dc3d68-1c59-4a3a-a8d1-cca6c5afc7c9"},"vehicle_type_id":"4","last_reported":1774117304,"current_range_meters":8000,"station_id":"ce4bha12rcd13ifvqef0","pricing_plan_id":"cebpf4jnsgd1na2vs0mg"},{"bike_id":"881552ad-57ca-4484-9a05-f159c58f50d9","system_id":"levelo_inurba_marseille","lat":43.31708,"lon":5.38699,"is_reserved":false,"is_disabled":false,"rental_uris":{"android":"levelo://app?vid=881552ad-57ca-4484-9a05-f159c58f50d9","ios":"levelo://app?vid=881552ad-57ca-4484-9a05-f159c58f50d9"},"vehicle_type_id":"4","last_reported":1774117304,"current_range_meters":8000,"station_id":"","pricing_plan_id":"cebpf4jnsgd1na2vs0mg"},{"bike_id":"fb41cb70-582c-49df-ba35-78777ff80151","system_id":"levelo_inurba_marseille","lat":43.295314,"lon":5.385472,"is_reserved":false,"is_disabled":false,"rental_uris":{"android":"levelo://app?vid=fb41cb70-582c-49df-ba35-78777ff80151","ios":"levelo://app?vid=fb41cb70-582c-49df-ba35-78777ff80151"},"vehicle_type_id":"4","last_reported":1774117304,"current_range_meters":8000,"station_id":"ce4bgih2rcd13ifvqba0","pricing_plan_id":"cebpf4jnsgd1na2vs0mg"},{"bike_id":"d090a803-95a9-45d8-9d0c-efd95354e4ef","system_id":"levelo_inurba_marseille","lat":43.28612,"lon":5.35107,"is_reserved":false,"is_disabled":false,"rental_uris":{"android":"levelo://app?vid=d090a803-95a9-45d8-9d0c-efd95354e4ef","ios":"levelo://app?vid=d090a803-95a9-45d8-9d0c-efd95354e4ef"},"vehicle_type_id":"4","last_reported":1774117304,"current_range_meters":8000,"station_id":"ce4bhch2rcd13ifvqeug","pricing_plan_id":"cebpf4jnsgd1na2vs0mg"},{"bike_id":"a134cd72-0e0c-4d5d-92fd-e3492e2d8ef2","system_id":"levelo_inurba_marseille","lat":43.29824,"lon":5.38103,"is_reserved":false,"is_disabled":false,"rental_uris":{"android":"levelo://app?vid=a134cd72-0e0c-4d5d-92fd-e3492e2d8ef2","ios":"levelo://app?vid=a134cd72-0e0c-4d5d-92fd-e3492e2d8ef2"},"vehicle_type_id":"4","last_reported":1774117304,"current_range_meters":8000,"station_id":"ce4bgip2rcd13ifvqbb0","pricing_plan_id":"cebpf4jnsgd1na2vs0mg"},{"bike_id":"9428c957-f603-4346-9e68-4f9e4a780b24","system_id":"levelo_inurba_marseille","lat":43.21791,"lon":5.34656,"is_reserved":false,"is_disabled":true,"rental_uris":{"android":"levelo://app?vid=9428c957-f603-4346-9e68-4f9e4a780b24","ios":"levelo://app?vid=9428c957-f603-4346-9e68-4f9e4a780b24"},"vehicle_type_id":"4","last_reported":1774117304,"current_range_meters":8400,"station_id":"","pricing_plan_id":"cebpf4jnsgd1na2vs0mg"},{"bike_id":"b6fffe2f-9423-41b9-a53f-4ddbccd10965","system_id":"levelo_inurba_marseille","lat":43.33547,"lon":5.37448,"is_reserved":false,"is_disabled":false,"rental_uris":{"android":"levelo://app?vid=b6fffe2f-9423-41b9-a53f-4ddbccd10965","ios":"levelo://app?vid=b6fffe2f-9423-41b9-a53f-4ddbccd10965"},"vehicle_type_id":"4","last_reported":1774117304,"current_range_meters":8400,"station_id":"st_d46tts09ee8s73dlu43g","pricing_plan_id":"cebpf4jnsgd1na2vs0mg"},{"bike_id":"037af263-c94a-46ee-b673-7aa7948320d5","system_id":"levelo_inurba_marseille","lat":43.29247,"lon":5.38442,"is_reserved":false,"is_disabled":true,"rental_uris":{"android":"levelo://app?vid=037af263-c94a-46ee-b673-7aa7948320d5","ios":"levelo://app?vid=037af263-c94a-46ee-b673-7aa7948320d5"},"vehicle_type_id":"4","last_reported":1774117304,"current_range_meters":8400,"station_id":"ce4bh692rcd13ifvqea0","pricing_plan_id":"cebpf4jnsgd1na2vs0mg"},{"bike_id":"77a3984a-ab80-4a96-938f-62dfc3161428","system_id":"levelo_inurba_marseille","lat":43.26806,"lon":5.40275,"is_reserved":false,"is_disabled":false,"rental_uris":{"android":"levelo://app?vid=77a3984a-ab80-4a96-938f-62dfc3161428","ios":"levelo://app?vid=77a3984a-ab80-4a96-938f-62dfc3161428"},"vehicle_type_id":"4","last_reported":1774117304,"current_range_meters":8400,"station_id":"ce501612rcd8frsf0b60","pricing_plan_id":"cebpf4jnsgd1na2vs0mg"},{"bike_id":"7b0f0f3b-2681-48b9-a05a-ce2124e68777","system_id":"levelo_inurba_marseille","lat":43.23903,"lon":5.37454,"is_reserved":false,"is_disabled":false,"rental_uris":{"android":"levelo://app?vid=7b0f0f3b-2681-48b9-a05a-ce2124e68777","ios":"levelo://app?vid=7b0f0f3b-2681-48b9-a05a-ce2124e68777"},"vehicle_type_id":"4","last_reported":1774117304,"current_range_meters":8400,"station_id":"st_d6sm7csbq4hs73f8fpjg","pricing_plan_id":"cebpf4jnsgd1na2vs0mg"},{"bike_id":"206c29e9-196d-4c84-9ea8-f04312ad7086","system_id":"levelo_inurba_marseille","lat":43.29534,"lon":5.38548,"is_reserved":false,"is_disabled":false,"rental_uris":{"android":"levelo://app?vid=206c29e9-196d-4c84-9ea8-f04312ad7086","ios":"levelo://app?vid=206c29e9-196d-4c84-9ea8-f04312ad7086"},"vehicle_type_id":"4","last_reported":1774117304,"current_range_meters":8400,"station_id":"ce4bgih2rcd13ifvqba0","pricing_plan_id":"cebpf4jnsgd1na2vs0mg"},{"bike_id":"280578b9-60d3-4d63-bb0d-4693a52f0b6d","system_id":"levelo_inurba_marseille","lat":43.29028,"lon":5.38112,"is_reserved":false,"is_disabled":true,"rental_uris":{"android":"levelo://app?vid=280578b9-60d3-4d63-bb0d-4693a52f0b6d","ios":"levelo://app?vid=280578b9-60d3-4d63-bb0d-4693a52f0b6d"},"vehicle_type_id":"4","last_reported":1774117304,"current_range_meters":8400,"station_id":"ce4bh4p2rcd13ifvqe1g","pricing_plan_id":"cebpf4jnsgd1na2vs0mg"},{"bike_id":"f84df946-1fe9-4d68-b54f-3a23cc20fde7","system_id":"levelo_inurba_marseille","lat":43.29938,"lon":5.42051,"is_reserved":false,"is_disabled":false,"rental_uris":{"android":"levelo://app?vid=f84df946-1fe9-4d68-b54f-3a23cc20fde7","ios":"levelo://app?vid=f84df946-1fe9-4d68-b54f-3a23cc20fde7"},"vehicle_type_id":"4","last_reported":1774117304,"current_range_meters":8400,"station_id":"st_d6tc004otcvc738tfe70","pricing_plan_id":"cebpf4jnsgd1na2vs0mg"},{"bike_id":"d65bd890-bd76-40b1-a464-add252f480e6","system_id":"levelo_inurba_marseille","lat":43.31736,"lon":5.38999,"is_reserved":false,"is_disabled":false,"rental_uris":{"android":"levelo://app?vid=d65bd890-bd76-40b1-a464-add252f480e6","ios":"levelo://app?vid=d65bd890-bd76-40b1-a464-add252f480e6"},"vehicle_type_id":"4","last_reported":1774117304,"current_range_meters":8400,"station_id":"ce4bhqp2rcd13ifvqhng","pricing_plan_id":"cebpf4jnsgd1na2vs0mg"},{"bike_id":"be27c081-d6c0-4feb-a587-965600a5f4f7","system_id":"levelo_inurba_marseille","lat":43.26366,"lon":5.41083,"is_reserved":false,"is_disabled":false,"rental_uris":{"android":"levelo://app?vid=be27c081-d6c0-4feb-a587-965600a5f4f7","ios":"levelo://app?vid=be27c081-d6c0-4feb-a587-965600a5f4f7"},"vehicle_type_id":"4","last_reported":1774117304,"current_range_meters":8400,"station_id":"st_d4e5ca6na9uc73bfl5fg","pricing_plan_id":"cebpf4jnsgd1na2vs0mg"},{"bike_id":"1f6728d7-e832-4496-b1ee-95724cfa577f","system_id":"levelo_inurba_marseille","lat":43.29521,"lon":5.37583,"is_reserved":false,"is_disabled":false,"rental_uris":{"android":"levelo://app?vid=1f6728d7-e832-4496-b1ee-95724cfa577f","ios":"levelo://app?vid=1f6728d7-e832-4496-b1ee-95724cfa577f"},"vehicle_type_id":"4","last_reported":1774117304,"current_range_meters":8400,"station_id":"","pricing_plan_id":"cebpf4jnsgd1na2vs0mg"},{"bike_id":"a48f6e87-1cf8-42e4-b7c6-304c645e2a94","system_id":"levelo_inurba_marseille","lat":43.29773,"lon":5.37094,"is_reserved":false,"is_disabled":false,"rental_uris":{"android":"levelo://app?vid=a48f6e87-1cf8-42e4-b7c6-304c645e2a94","ios":"levelo://app?vid=a48f6e87-1cf8-42e4-b7c6-304c645e2a94"},"vehicle_type_id":"4","last_reported":1774117304,"current_range_meters":8400,"station_id":"ce4bgop2rcd13ifvqc1g","pricing_plan_id":"cebpf4jnsgd1na2vs0mg"},{"bike_id":"4f37ddd5-de71-4982-af1c-8359f9962f26","system_id":"levelo_inurba_marseille","lat":43.28506,"lon":5.38433,"is_reserved":false,"is_disabled":false,"rental_uris":{"android":"levelo://app?vid=4f37ddd5-de71-4982-af1c-8359f9962f26","ios":"levelo://app?vid=4f37ddd5-de71-4982-af1c-8359f9962f26"},"vehicle_type_id":"4","last_reported":1774117304,"current_range_meters":8400,"station_id":"ce4bh512rcd13ifvqe3g","pricing_plan_id":"cebpf4jnsgd1na2vs0mg"},{"bike_id":"1ba7d1a8-2ae9-48d9-9b56-084e5a601f80","system_id":"levelo_inurba_marseille","lat":43.28002,"lon":5.40049,"is_reserved":false,"is_disabled":false,"rental_uris":{"android":"levelo://app?vid=1ba7d1a8-2ae9-48d9-9b56-084e5a601f80","ios":"levelo://app?vid=1ba7d1a8-2ae9-48d9-9b56-084e5a601f80"},"vehicle_type_id":"4","last_reported":1774117304,"current_range_meters":8400,"station_id":"ce4bho92rcd13ifvqh4g","pricing_plan_id":"cebpf4jnsgd1na2vs0mg"},{"bike_id":"0101a3c2-3161-4777-a1e0-c1ef5cf2ecb3","system_id":"levelo_inurba_marseille","lat":43.2757,"lon":5.38412,"is_reserved":false,"is_disabled":false,"rental_uris":{"android":"levelo://app?vid=0101a3c2-3161-4777-a1e0-c1ef5cf2ecb3","ios":"levelo://app?vid=0101a3c2-3161-4777-a1e0-c1ef5cf2ecb3"},"vehicle_type_id":"4","last_reported":1774117304,"current_range_meters":8400,"station_id":"ce4bhh92rcd13ifvqfi0","pricing_plan_id":"cebpf4jnsgd1na2vs0mg"},{"bike_id":"efe4b101-a4c2-4a36-bd51-36393273087f","system_id":"levelo_inurba_marseille","lat":43.28458,"lon":5.48413,"is_reserved":false,"is_disabled":false,"rental_uris":{"android":"levelo://app?vid=efe4b101-a4c2-4a36-bd51-36393273087f","ios":"levelo://app?vid=efe4b101-a4c2-4a36-bd51-36393273087f"},"vehicle_type_id":"4","last_reported":1774117304,"current_range_meters":8400,"station_id":"","pricing_plan_id":"cebpf4jnsgd1na2vs0mg"},{"bike_id":"0d92f880-9c2c-4db9-b8af-8bb53f7d6d54","system_id":"levelo_inurba_marseille","lat":43.29436,"lon":5.39752,"is_reserved":false,"is_disabled":false,"rental_uris":{"android":"levelo://app?vid=0d92f880-9c2c-4db9-b8af-8bb53f7d6d54","ios":"levelo://app?vid=0d92f880-9c2c-4db9-b8af-8bb53f7d6d54"},"vehicle_type_id":"4","last_reported":1774117304,"current_range_meters":8400,"station_id":"ce4bh3h2rcd13ifvqdo0","pricing_plan_id":"cebpf4jnsgd1na2vs0mg"},{"bike_id":"5369d941-756a-4a39-ae59-10b7c47d2be3","system_id":"levelo_inurba_marseille","lat":43.31049,"lon":5.37176,"is_reserved":false,"is_disabled":false,"rental_uris":{"android":"levelo://app?vid=5369d941-756a-4a39-ae59-10b7c47d2be3","ios":"levelo://app?vid=5369d941-756a-4a39-ae59-10b7c47d2be3"},"vehicle_type_id":"4","last_reported":1774117304,"current_range_meters":8400,"station_id":"st_d4kl2rp97mjs73e7tdfg","pricing_plan_id":"cebpf4jnsgd1na2vs0mg"},{"bike_id":"7cf29e1f-f4b3-43a1-a547-8bd4d69b8980","system_id":"levelo_inurba_marseille","lat":43.29905,"lon":5.38085,"is_reserved":false,"is_disabled":false,"rental_uris":{"android":"levelo://app?vid=7cf29e1f-f4b3-43a1-a547-8bd4d69b8980","ios":"levelo://app?vid=7cf29e1f-f4b3-43a1-a547-8bd4d69b8980"},"vehicle_type_id":"4","last_reported":1774117304,"current_range_meters":8800,"station_id":"","pricing_plan_id":"cebpf4jnsgd1na2vs0mg"},{"bike_id":"62ccf4a8-0426-42c8-92c7-60b92e2221c9","system_id":"levelo_inurba_marseille","lat":43.28514,"lon":5.48394,"is_reserved":false,"is_disabled":false,"rental_uris":{"android":"levelo://app?vid=62ccf4a8-0426-42c8-92c7-60b92e2221c9","ios":"levelo://app?vid=62ccf4a8-0426-42c8-92c7-60b92e2221c9"},