{"last_updated":1770640953,"ttl":60,"version":"2.2","data":{"bikes":[{"bike_id":"e9238960-d4ac-4a8e-9976-8813d9f67878","system_id":"levelo_inurba_marseille","lat":43.24927,"lon":5.40264,"is_reserved":false,"is_disabled":false,"rental_uris":{"android":"levelo://app?vid=e9238960-d4ac-4a8e-9976-8813d9f67878","ios":"levelo://app?vid=e9238960-d4ac-4a8e-9976-8813d9f67878"},"vehicle_type_id":"4","last_reported":1770640954,"current_range_meters":2800,"station_id":"","pricing_plan_id":"cebpf4jnsgd1na2vs0mg"},{"bike_id":"a9de86c6-f619-4313-9ebc-5fa5305f1682","system_id":"levelo_inurba_marseille","lat":43.24467,"lon":5.42508,"is_reserved":false,"is_disabled":false,"rental_uris":{"android":"levelo://app?vid=a9de86c6-f619-4313-9ebc-5fa5305f1682","ios":"levelo://app?vid=a9de86c6-f619-4313-9ebc-5fa5305f1682"},"vehicle_type_id":"4","last_reported":1770640954,"current_range_meters":2800,"station_id":"st_d4a3vfp97mjs738cd8kg","pricing_plan_id":"cebpf4jnsgd1na2vs0mg"},{"bike_id":"70519adb-911c-4120-b6a7-3660c44ac45b","system_id":"levelo_inurba_marseille","lat":43.24739,"lon":5.39272,"is_reserved":false,"is_disabled":false,"rental_uris":{"android":"levelo://app?vid=70519adb-911c-4120-b6a7-3660c44ac45b","ios":"levelo://app?vid=70519adb-911c-4120-b6a7-3660c44ac45b"},"vehicle_type_id":"4","last_reported":1770640954,"current_range_meters":2800,"station_id":"","pricing_plan_id":"cebpf4jnsgd1na2vs0mg"},{"bike_id":"0bc842b8-6edb-4aca-9edf-3251b04cbb6f","system_id":"levelo_inurba_marseille","lat":43.29278,"lon":5.40111,"is_reserved":false,"is_disabled":false,"rental_uris":{"android":"levelo://app?vid=0bc842b8-6edb-4aca-9edf-3251b04cbb6f","ios":"levelo://app?vid=0bc842b8-6edb-4aca-9edf-3251b04cbb6f"},"vehicle_type_id":"4","last_reported":1770640954,"current_range_meters":2800,"station_id":"ce4bh312rcd13ifvqdk0","pricing_plan_id":"cebpf4jnsgd1na2vs0mg"},{"bike_id":"d4451d30-c48c-44da-a789-dbad5081ff1e","system_id":"levelo_inurba_marseille","lat":43.23381,"lon":5.4123,"is_reserved":false,"is_disabled":false,"rental_uris":{"android":"levelo://app?vid=d4451d30-c48c-44da-a789-dbad5081ff1e","ios":"levelo://app?vid=d4451d30-c48c-44da-a789-dbad5081ff1e"},"vehicle_type_id":"4","last_reported":1770640954,"current_range_meters":2800,"station_id":"","pricing_plan_id":"cebpf4jnsgd1na2vs0mg"},{"bike_id":"c620e79b-7199-4607-a8a8-fb72ed4a1c27","system_id":"levelo_inurba_marseille","lat":43.28111,"lon":5.42635,"is_reserved":false,"is_disabled":false,"rental_uris":{"android":"levelo://app?vid=c620e79b-7199-4607-a8a8-fb72ed4a1c27","ios":"levelo://app?vid=c620e79b-7199-4607-a8a8-fb72ed4a1c27"},"vehicle_type_id":"4","last_reported":1770640954,"current_range_meters":2800,"station_id":"ce4bhnh2rcd13ifvqgug","pricing_plan_id":"cebpf4jnsgd1na2vs0mg"},{"bike_id":"d896e061-9356-46a7-8e21-9b23aa89cf4f","system_id":"levelo_inurba_marseille","lat":43.33538,"lon":5.37464,"is_reserved":false,"is_disabled":false,"rental_uris":{"android":"levelo://app?vid=d896e061-9356-46a7-8e21-9b23aa89cf4f","ios":"levelo://app?vid=d896e061-9356-46a7-8e21-9b23aa89cf4f"},"vehicle_type_id":"4","last_reported":1770640954,"current_range_meters":2800,"station_id":"st_d46tts09ee8s73dlu43g","pricing_plan_id":"cebpf4jnsgd1na2vs0mg"},{"bike_id":"ba8ef613-96d2-49bc-ac95-731a5078ae82","system_id":"levelo_inurba_marseille","lat":43.301404,"lon":5.387689,"is_reserved":false,"is_disabled":true,"rental_uris":{"android":"levelo://app?vid=ba8ef613-96d2-49bc-ac95-731a5078ae82","ios":"levelo://app?vid=ba8ef613-96d2-49bc-ac95-731a5078ae82"},"vehicle_type_id":"4","last_reported":1770640954,"current_range_meters":3200,"station_id":"ce4bgkh2rcd13ifvqbk0","pricing_plan_id":"cebpf4jnsgd1na2vs0mg"},{"bike_id":"cb2de75c-6daa-4a4e-bbee-83853f0e755e","system_id":"levelo_inurba_marseille","lat":43.33175,"lon":5.3771,"is_reserved":false,"is_disabled":false,"rental_uris":{"android":"levelo://app?vid=cb2de75c-6daa-4a4e-bbee-83853f0e755e","ios":"levelo://app?vid=cb2de75c-6daa-4a4e-bbee-83853f0e755e"},"vehicle_type_id":"4","last_reported":1770640954,"current_range_meters":3200,"station_id":"st_d46cu089ee8s73dldbu0","pricing_plan_id":"cebpf4jnsgd1na2vs0mg"},{"bike_id":"a78deaa9-108a-489a-bcbb-e9a8ada5834c","system_id":"levelo_inurba_marseille","lat":43.27554,"lon":5.38422,"is_reserved":false,"is_disabled":false,"rental_uris":{"android":"levelo://app?vid=a78deaa9-108a-489a-bcbb-e9a8ada5834c","ios":"levelo://app?vid=a78deaa9-108a-489a-bcbb-e9a8ada5834c"},"vehicle_type_id":"4","last_reported":1770640954,"current_range_meters":3200,"station_id":"ce4bhh92rcd13ifvqfi0","pricing_plan_id":"cebpf4jnsgd1na2vs0mg"},{"bike_id":"40ebe5f8-2026-4bc6-aaea-8fa2dd1985ec","system_id":"levelo_inurba_marseille","lat":43.29801,"lon":5.38093,"is_reserved":false,"is_disabled":false,"rental_uris":{"android":"levelo://app?vid=40ebe5f8-2026-4bc6-aaea-8fa2dd1985ec","ios":"levelo://app?vid=40ebe5f8-2026-4bc6-aaea-8fa2dd1985ec"},"vehicle_type_id":"4","last_reported":1770640954,"current_range_meters":3200,"station_id":"ce4bgip2rcd13ifvqbb0","pricing_plan_id":"cebpf4jnsgd1na2vs0mg"},{"bike_id":"f031ebdc-e7fd-4860-b35e-fca828d7b97e","system_id":"levelo_inurba_marseille","lat":43.32052,"lon":5.36767,"is_reserved":false,"is_disabled":false,"rental_uris":{"android":"levelo://app?vid=f031ebdc-e7fd-4860-b35e-fca828d7b97e","ios":"levelo://app?vid=f031ebdc-e7fd-4860-b35e-fca828d7b97e"},"vehicle_type_id":"4","last_reported":1770640954,"current_range_meters":3200,"station_id":"ce4bhrh2rcd13ifvqhug","pricing_plan_id":"cebpf4jnsgd1na2vs0mg"},{"bike_id":"2ba86f51-47d8-4b39-916f-4632e35c2fd1","system_id":"levelo_inurba_marseille","lat":43.26212,"lon":5.3744,"is_reserved":false,"is_disabled":false,"rental_uris":{"android":"levelo://app?vid=2ba86f51-47d8-4b39-916f-4632e35c2fd1","ios":"levelo://app?vid=2ba86f51-47d8-4b39-916f-4632e35c2fd1"},"vehicle_type_id":"4","last_reported":1770640954,"current_range_meters":3200,"station_id":"ce4bhgp2rcd13ifvqfc0","pricing_plan_id":"cebpf4jnsgd1na2vs0mg"},{"bike_id":"1d68e91c-5ff1-4742-8484-e25582f0b78a","system_id":"levelo_inurba_marseille","lat":43.32479,"lon":5.36574,"is_reserved":false,"is_disabled":false,"rental_uris":{"android":"levelo://app?vid=1d68e91c-5ff1-4742-8484-e25582f0b78a","ios":"levelo://app?vid=1d68e91c-5ff1-4742-8484-e25582f0b78a"},"vehicle_type_id":"4","last_reported":1770640954,"current_range_meters":3600,"station_id":"ce4bhs12rcd13ifvqhvg","pricing_plan_id":"cebpf4jnsgd1na2vs0mg"},{"bike_id":"1efe1a19-fbf0-44a6-870c-a91345e7555b","system_id":"levelo_inurba_marseille","lat":43.337444,"lon":5.374475,"is_reserved":false,"is_disabled":false,"rental_uris":{"android":"levelo://app?vid=1efe1a19-fbf0-44a6-870c-a91345e7555b","ios":"levelo://app?vid=1efe1a19-fbf0-44a6-870c-a91345e7555b"},"vehicle_type_id":"4","last_reported":1770640954,"current_range_meters":3600,"station_id":"","pricing_plan_id":"cebpf4jnsgd1na2vs0mg"},{"bike_id":"3000f1e1-d9c3-4c9d-9da7-d39caf81d040","system_id":"levelo_inurba_marseille","lat":43.29225,"lon":5.36057,"is_reserved":false,"is_disabled":false,"rental_uris":{"android":"levelo://app?vid=3000f1e1-d9c3-4c9d-9da7-d39caf81d040","ios":"levelo://app?vid=3000f1e1-d9c3-4c9d-9da7-d39caf81d040"},"vehicle_type_id":"4","last_reported":1770640954,"current_range_meters":3600,"station_id":"ce4bhbh2rcd13ifvqeqg","pricing_plan_id":"cebpf4jnsgd1na2vs0mg"},{"bike_id":"97df4165-e044-4fd2-98e0-9b9d86f5a592","system_id":"levelo_inurba_marseille","lat":43.27939,"lon":5.41046,"is_reserved":false,"is_disabled":false,"rental_uris":{"android":"levelo://app?vid=97df4165-e044-4fd2-98e0-9b9d86f5a592","ios":"levelo://app?vid=97df4165-e044-4fd2-98e0-9b9d86f5a592"},"vehicle_type_id":"4","last_reported":1770640954,"current_range_meters":3600,"station_id":"ce4bhnp2rcd13ifvqh0g","pricing_plan_id":"cebpf4jnsgd1na2vs0mg"},{"bike_id":"d9c49242-2714-4c46-9072-ad91dfc1418d","system_id":"levelo_inurba_marseille","lat":43.31462,"lon":5.45398,"is_reserved":false,"is_disabled":false,"rental_uris":{"android":"levelo://app?vid=d9c49242-2714-4c46-9072-ad91dfc1418d","ios":"levelo://app?vid=d9c49242-2714-4c46-9072-ad91dfc1418d"},"vehicle_type_id":"4","last_reported":1770640954,"current_range_meters":3600,"station_id":"","pricing_plan_id":"cebpf4jnsgd1na2vs0mg"},{"bike_id":"7234f890-6455-4b46-8576-820d2b9cf766","system_id":"levelo_inurba_marseille","lat":43.23153,"lon":5.43707,"is_reserved":false,"is_disabled":false,"rental_uris":{"android":"levelo://app?vid=7234f890-6455-4b46-8576-820d2b9cf766","ios":"levelo://app?vid=7234f890-6455-4b46-8576-820d2b9cf766"},"vehicle_type_id":"4","last_reported":1770640954,"current_range_meters":3600,"station_id":"ce4bhmp2rcd13ifvqgog","pricing_plan_id":"cebpf4jnsgd1na2vs0mg"},{"bike_id":"05280667-4306-4a3c-89fe-64debd7d10a7","system_id":"levelo_inurba_marseille","lat":43.25003,"lon":5.38928,"is_reserved":false,"is_disabled":false,"rental_uris":{"android":"levelo://app?vid=05280667-4306-4a3c-89fe-64debd7d10a7","ios":"levelo://app?vid=05280667-4306-4a3c-89fe-64debd7d10a7"},"vehicle_type_id":"4","last_reported":1770640954,"current_range_meters":3600,"station_id":"ce4bhgp2rcd13ifvqfd0","pricing_plan_id":"cebpf4jnsgd1na2vs0mg"},{"bike_id":"6dedaafe-5ee7-4a4b-b764-f1f9e016d363","system_id":"levelo_inurba_marseille","lat":43.2981,"lon":5.44062,"is_reserved":false,"is_disabled":false,"rental_uris":{"android":"levelo://app?vid=6dedaafe-5ee7-4a4b-b764-f1f9e016d363","ios":"levelo://app?vid=6dedaafe-5ee7-4a4b-b764-f1f9e016d363"},"vehicle_type_id":"4","last_reported":1770640954,"current_range_meters":4000,"station_id":"st_d3jp68qikq2c7381ktn0","pricing_plan_id":"cebpf4jnsgd1na2vs0mg"},{"bike_id":"62468bc0-7c46-4734-a9fc-6c79792208c6","system_id":"levelo_inurba_marseille","lat":43.275629,"lon":5.384192,"is_reserved":false,"is_disabled":false,"rental_uris":{"android":"levelo://app?vid=62468bc0-7c46-4734-a9fc-6c79792208c6","ios":"levelo://app?vid=62468bc0-7c46-4734-a9fc-6c79792208c6"},"vehicle_type_id":"4","last_reported":1770640954,"current_range_meters":4000,"station_id":"ce4bh0h2rcd13ifvqd60","pricing_plan_id":"cebpf4jnsgd1na2vs0mg"},{"bike_id":"a2f08b7b-3148-4ae3-b1d5-0ad2ed6e132c","system_id":"levelo_inurba_marseille","lat":43.28621,"lon":5.44346,"is_reserved":false,"is_disabled":false,"rental_uris":{"android":"levelo://app?vid=a2f08b7b-3148-4ae3-b1d5-0ad2ed6e132c","ios":"levelo://app?vid=a2f08b7b-3148-4ae3-b1d5-0ad2ed6e132c"},"vehicle_type_id":"4","last_reported":1770640954,"current_range_meters":4000,"station_id":"","pricing_plan_id":"cebpf4jnsgd1na2vs0mg"},{"bike_id":"61003dcb-1e04-4ea0-9829-a482153db859","system_id":"levelo_inurba_marseille","lat":43.29845,"lon":5.37579,"is_reserved":false,"is_disabled":false,"rental_uris":{"android":"levelo://app?vid=61003dcb-1e04-4ea0-9829-a482153db859","ios":"levelo://app?vid=61003dcb-1e04-4ea0-9829-a482153db859"},"vehicle_type_id":"4","last_reported":1770640954,"current_range_meters":4000,"station_id":"","pricing_plan_id":"cebpf4jnsgd1na2vs0mg"},{"bike_id":"e1b1ed61-5b5e-4796-9d94-c31665b3025f","system_id":"levelo_inurba_marseille","lat":43.24084,"lon":5.37757,"is_reserved":false,"is_disabled":false,"rental_uris":{"android":"levelo://app?vid=e1b1ed61-5b5e-4796-9d94-c31665b3025f","ios":"levelo://app?vid=e1b1ed61-5b5e-4796-9d94-c31665b3025f"},"vehicle_type_id":"4","last_reported":1770640954,"current_range_meters":4400,"station_id":"ce4bhnp2rcd13ifvqgvg","pricing_plan_id":"cebpf4jnsgd1na2vs0mg"},{"bike_id":"78099b73-3013-4386-9912-3feaed044a3c","system_id":"levelo_inurba_marseille","lat":43.33718,"lon":5.39179,"is_reserved":false,"is_disabled":false,"rental_uris":{"android":"levelo://app?vid=78099b73-3013-4386-9912-3feaed044a3c","ios":"levelo://app?vid=78099b73-3013-4386-9912-3feaed044a3c"},"vehicle_type_id":"4","last_reported":1770640954,"current_range_meters":4400,"station_id":"ce4bhr92rcd13ifvqhsg","pricing_plan_id":"cebpf4jnsgd1na2vs0mg"},{"bike_id":"487fc073-5753-4b99-8750-3d7591a8434f","system_id":"levelo_inurba_marseille","lat":43.28945,"lon":5.36393,"is_reserved":false,"is_disabled":false,"rental_uris":{"android":"levelo://app?vid=487fc073-5753-4b99-8750-3d7591a8434f","ios":"levelo://app?vid=487fc073-5753-4b99-8750-3d7591a8434f"},"vehicle_type_id":"4","last_reported":1770640954,"current_range_meters":4400,"station_id":"ce4bhc92rcd13ifvqetg","pricing_plan_id":"cebpf4jnsgd1na2vs0mg"},{"bike_id":"716c4e80-e8b9-4c75-80e7-583969387289","system_id":"levelo_inurba_marseille","lat":43.28524,"lon":5.44113,"is_reserved":false,"is_disabled":false,"rental_uris":{"android":"levelo://app?vid=716c4e80-e8b9-4c75-80e7-583969387289","ios":"levelo://app?vid=716c4e80-e8b9-4c75-80e7-583969387289"},"vehicle_type_id":"4","last_reported":1770640954,"current_range_meters":4400,"station_id":"st_d3j3df2ikq2c7380ej80","pricing_plan_id":"cebpf4jnsgd1na2vs0mg"},{"bike_id":"5340db2b-33e8-4cf6-92f5-f6c07e148b13","system_id":"levelo_inurba_marseille","lat":43.28852,"lon":5.35859,"is_reserved":false,"is_disabled":false,"rental_uris":{"android":"levelo://app?vid=5340db2b-33e8-4cf6-92f5-f6c07e148b13","ios":"levelo://app?vid=5340db2b-33e8-4cf6-92f5-f6c07e148b13"},"vehicle_type_id":"4","last_reported":1770640954,"current_range_meters":4800,"station_id":"ce4bhb12rcd13ifvqem0","pricing_plan_id":"cebpf4jnsgd1na2vs0mg"},{"bike_id":"85e2e194-987c-4be4-b307-3b3758569b5b","system_id":"levelo_inurba_marseille","lat":43.28489,"lon":5.38433,"is_reserved":false,"is_disabled":false,"rental_uris":{"android":"levelo://app?vid=85e2e194-987c-4be4-b307-3b3758569b5b","ios":"levelo://app?vid=85e2e194-987c-4be4-b307-3b3758569b5b"},"vehicle_type_id":"4","last_reported":1770640954,"current_range_meters":4800,"station_id":"ce4bh512rcd13ifvqe3g","pricing_plan_id":"cebpf4jnsgd1na2vs0mg"},{"bike_id":"ffcfb0a6-be0d-4d3d-b9ec-3a4698a83e7b","system_id":"levelo_inurba_marseille","lat":43.25948,"lon":5.40915,"is_reserved":false,"is_disabled":false,"rental_uris":{"android":"levelo://app?vid=ffcfb0a6-be0d-4d3d-b9ec-3a4698a83e7b","ios":"levelo://app?vid=ffcfb0a6-be0d-4d3d-b9ec-3a4698a83e7b"},"vehicle_type_id":"4","last_reported":1770640954,"current_range_meters":4800,"station_id":"ce4bhm92rcd13ifvqglg","pricing_plan_id":"cebpf4jnsgd1na2vs0mg"},{"bike_id":"cb4e831c-6025-4234-bd44-dc892f6a6133","system_id":"levelo_inurba_marseille","lat":43.26563,"lon":5.403178,"is_reserved":false,"is_disabled":false,"rental_uris":{"android":"levelo://app?vid=cb4e831c-6025-4234-bd44-dc892f6a6133","ios":"levelo://app?vid=cb4e831c-6025-4234-bd44-dc892f6a6133"},"vehicle_type_id":"4","last_reported":1770640954,"current_range_meters":4800,"station_id":"ce4bhmp2rcd13ifvqgng","pricing_plan_id":"cebpf4jnsgd1na2vs0mg"},{"bike_id":"ea104fac-392b-44e1-823d-aab32a71eaf9","system_id":"levelo_inurba_marseille","lat":43.29195,"lon":5.39312,"is_reserved":false,"is_disabled":false,"rental_uris":{"android":"levelo://app?vid=ea104fac-392b-44e1-823d-aab32a71eaf9","ios":"levelo://app?vid=ea104fac-392b-44e1-823d-aab32a71eaf9"},"vehicle_type_id":"4","last_reported":1770640954,"current_range_meters":4800,"station_id":"ce4bh192rcd13ifvqdd0","pricing_plan_id":"cebpf4jnsgd1na2vs0mg"},{"bike_id":"47c89afc-4dc4-44b8-99d4-a719398fbf27","system_id":"levelo_inurba_marseille","lat":43.28357,"lon":5.38644,"is_reserved":false,"is_disabled":false,"rental_uris":{"android":"levelo://app?vid=47c89afc-4dc4-44b8-99d4-a719398fbf27","ios":"levelo://app?vid=47c89afc-4dc4-44b8-99d4-a719398fbf27"},"vehicle_type_id":"4","last_reported":1770640954,"current_range_meters":5600,"station_id":"ce4bh492rcd13ifvqdvg","pricing_plan_id":"cebpf4jnsgd1na2vs0mg"},{"bike_id":"9c5847f8-2630-4e30-96ca-9059778cf36a","system_id":"levelo_inurba_marseille","lat":43.29262,"lon":5.3685,"is_reserved":false,"is_disabled":false,"rental_uris":{"android":"levelo://app?vid=9c5847f8-2630-4e30-96ca-9059778cf36a","ios":"levelo://app?vid=9c5847f8-2630-4e30-96ca-9059778cf36a"},"vehicle_type_id":"4","last_reported":1770640954,"current_range_meters":5600,"station_id":"ce4bhbp2rcd13ifvqesg","pricing_plan_id":"cebpf4jnsgd1na2vs0mg"},{"bike_id":"d5242b4a-769b-48b8-8522-816e7c28d15b","system_id":"levelo_inurba_marseille","lat":43.2622,"lon":5.374485,"is_reserved":false,"is_disabled":false,"rental_uris":{"android":"levelo://app?vid=d5242b4a-769b-48b8-8522-816e7c28d15b","ios":"levelo://app?vid=d5242b4a-769b-48b8-8522-816e7c28d15b"},"vehicle_type_id":"4","last_reported":1770640954,"current_range_meters":5600,"station_id":"","pricing_plan_id":"cebpf4jnsgd1na2vs0mg"},{"bike_id":"1c8b18fd-8bf9-4366-9f19-7a0dc0bfc08a","system_id":"levelo_inurba_marseille","lat":43.28102,"lon":5.37835,"is_reserved":false,"is_disabled":false,"rental_uris":{"android":"levelo://app?vid=1c8b18fd-8bf9-4366-9f19-7a0dc0bfc08a","ios":"levelo://app?vid=1c8b18fd-8bf9-4366-9f19-7a0dc0bfc08a"},"vehicle_type_id":"4","last_reported":1770640954,"current_range_meters":5600,"station_id":"ce4bha12rcd13ifvqee0","pricing_plan_id":"cebpf4jnsgd1na2vs0mg"},{"bike_id":"4634de86-d18b-4601-bf43-5873826add01","system_id":"levelo_inurba_marseille","lat":43.28217,"lon":5.40574,"is_reserved":false,"is_disabled":false,"rental_uris":{"android":"levelo://app?vid=4634de86-d18b-4601-bf43-5873826add01","ios":"levelo://app?vid=4634de86-d18b-4601-bf43-5873826add01"},"vehicle_type_id":"4","last_reported":1770640954,"current_range_meters":5600,"station_id":"","pricing_plan_id":"cebpf4jnsgd1na2vs0mg"},{"bike_id":"2de90d20-1546-4df5-8bc4-65d0775c8941","system_id":"levelo_inurba_marseille","lat":43.2894,"lon":5.36372,"is_reserved":false,"is_disabled":false,"rental_uris":{"android":"levelo://app?vid=2de90d20-1546-4df5-8bc4-65d0775c8941","ios":"levelo://app?vid=2de90d20-1546-4df5-8bc4-65d0775c8941"},"vehicle_type_id":"4","last_reported":1770640954,"current_range_meters":5600,"station_id":"ce4bhc92rcd13ifvqetg","pricing_plan_id":"cebpf4jnsgd1na2vs0mg"},{"bike_id":"d756b69a-f89e-45e9-8367-cec99ad981ec","system_id":"levelo_inurba_marseille","lat":43.29584,"lon":5.39956,"is_reserved":false,"is_disabled":true,"rental_uris":{"android":"levelo://app?vid=d756b69a-f89e-45e9-8367-cec99ad981ec","ios":"levelo://app?vid=d756b69a-f89e-45e9-8367-cec99ad981ec"},"vehicle_type_id":"4","last_reported":1770640954,"current_range_meters":6000,"station_id":"ce4bh312rcd13ifvqdj0","pricing_plan_id":"cebpf4jnsgd1na2vs0mg"},{"bike_id":"fb42dd14-8842-4c1b-bf3c-4ce250e467ea","system_id":"levelo_inurba_marseille","lat":43.257226,"lon":5.410996,"is_reserved":false,"is_disabled":false,"rental_uris":{"android":"levelo://app?vid=fb42dd14-8842-4c1b-bf3c-4ce250e467ea","ios":"levelo://app?vid=fb42dd14-8842-4c1b-bf3c-4ce250e467ea"},"vehicle_type_id":"4","last_reported":1770640954,"current_range_meters":6000,"station_id":"ce4bhkp2rcd13ifvqgd0","pricing_plan_id":"cebpf4jnsgd1na2vs0mg"},{"bike_id":"7793efe0-796a-47b9-b395-f00d6d2ba2f3","system_id":"levelo_inurba_marseille","lat":43.3354,"lon":5.374646,"is_reserved":false,"is_disabled":false,"rental_uris":{"android":"levelo://app?vid=7793efe0-796a-47b9-b395-f00d6d2ba2f3","ios":"levelo://app?vid=7793efe0-796a-47b9-b395-f00d6d2ba2f3"},"vehicle_type_id":"4","last_reported":1770640954,"current_range_meters":6000,"station_id":"st_d46tts09ee8s73dlu43g","pricing_plan_id":"cebpf4jnsgd1na2vs0mg"},{"bike_id":"eb4c876b-88dd-43ec-8628-44a384f402f0","system_id":"levelo_inurba_marseille","lat":43.33565,"lon":5.37484,"is_reserved":false,"is_disabled":false,"rental_uris":{"android":"levelo://app?vid=eb4c876b-88dd-43ec-8628-44a384f402f0","ios":"levelo://app?vid=eb4c876b-88dd-43ec-8628-44a384f402f0"},"vehicle_type_id":"4","last_reported":1770640954,"current_range_meters":6000,"station_id":"st_d46tts09ee8s73dlu43g","pricing_plan_id":"cebpf4jnsgd1na2vs0mg"},{"bike_id":"4b6ae7cf-a20c-45bf-93e3-f78d3a6e7a98","system_id":"levelo_inurba_marseille","lat":43.25938,"lon":5.40885,"is_reserved":false,"is_disabled":false,"rental_uris":{"android":"levelo://app?vid=4b6ae7cf-a20c-45bf-93e3-f78d3a6e7a98","ios":"levelo://app?vid=4b6ae7cf-a20c-45bf-93e3-f78d3a6e7a98"},"vehicle_type_id":"4","last_reported":1770640954,"current_range_meters":6000,"station_id":"ce4bhm92rcd13ifvqglg","pricing_plan_id":"cebpf4jnsgd1na2vs0mg"},{"bike_id":"56f0f1b8-4d65-4c7c-9e62-4a24173c3789","system_id":"levelo_inurba_marseille","lat":43.25935,"lon":5.40909,"is_reserved":false,"is_disabled":false,"rental_uris":{"android":"levelo://app?vid=56f0f1b8-4d65-4c7c-9e62-4a24173c3789","ios":"levelo://app?vid=56f0f1b8-4d65-4c7c-9e62-4a24173c3789"},"vehicle_type_id":"4","last_reported":1770640954,"current_range_meters":6000,"station_id":"ce4bhm92rcd13ifvqglg","pricing_plan_id":"cebpf4jnsgd1na2vs0mg"},{"bike_id":"10e7a4aa-423b-42a4-a43a-a4d889f23e78","system_id":"levelo_inurba_marseille","lat":43.29294,"lon":5.37447,"is_reserved":false,"is_disabled":false,"rental_uris":{"android":"levelo://app?vid=10e7a4aa-423b-42a4-a43a-a4d889f23e78","ios":"levelo://app?vid=10e7a4aa-423b-42a4-a43a-a4d889f23e78"},"vehicle_type_id":"4","last_reported":1770640954,"current_range_meters":6000,"station_id":"ce4bgi12rcd13ifvqb70","pricing_plan_id":"cebpf4jnsgd1na2vs0mg"},{"bike_id":"73d8aa1d-9b92-4d19-9119-ddd66e96689f","system_id":"levelo_inurba_marseille","lat":43.279211,"lon":5.395719,"is_reserved":false,"is_disabled":false,"rental_uris":{"android":"levelo://app?vid=73d8aa1d-9b92-4d19-9119-ddd66e96689f","ios":"levelo://app?vid=73d8aa1d-9b92-4d19-9119-ddd66e96689f"},"vehicle_type_id":"4","last_reported":1770640954,"current_range_meters":6000,"station_id":"ce4bhf92rcd13ifvqf40","pricing_plan_id":"cebpf4jnsgd1na2vs0mg"},{"bike_id":"ac645712-adb7-427c-9a1d-bbc03b4ccac1","system_id":"levelo_inurba_marseille","lat":43.21197,"lon":5.35092,"is_reserved":false,"is_disabled":false,"rental_uris":{"android":"levelo://app?vid=ac645712-adb7-427c-9a1d-bbc03b4ccac1","ios":"levelo://app?vid=ac645712-adb7-427c-9a1d-bbc03b4ccac1"},"vehicle_type_id":"4","last_reported":1770640954,"current_range_meters":6000,"station_id":"st_cvj6sg6p6f1abm77japg","pricing_plan_id":"cebpf4jnsgd1na2vs0mg"},{"bike_id":"4c1084d3-0348-48bc-a610-f24daa86db77","system_id":"levelo_inurba_marseille","lat":43.263682,"lon":5.410756,"is_reserved":false,"is_disabled":false,"rental_uris":{"android":"levelo://app?vid=4c1084d3-0348-48bc-a610-f24daa86db77","ios":"levelo://app?vid=4c1084d3-0348-48bc-a610-f24daa86db77"},"vehicle_type_id":"4","last_reported":1770640954,"current_range_meters":6000,"station_id":"st_d4e5ca6na9uc73bfl5fg","pricing_plan_id":"cebpf4jnsgd1na2vs0mg"},{"bike_id":"19d8982e-e70c-4b5b-98db-88bf29b75db0","system_id":"levelo_inurba_marseille","lat":43.27376,"lon":5.36261,"is_reserved":false,"is_disabled":false,"rental_uris":{"android":"levelo://app?vid=19d8982e-e70c-4b5b-98db-88bf29b75db0","ios":"levelo://app?vid=19d8982e-e70c-4b5b-98db-88bf29b75db0"},"vehicle_type_id":"4","last_reported":1770640954,"current_range_meters":6000,"station_id":"ce4bhbh2rcd13ifvqeo0","pricing_plan_id":"cebpf4jnsgd1na2vs0mg"},{"bike_id":"e9503d31-d87a-4e6b-9e2a-26103af365ad","system_id":"levelo_inurba_marseille","lat":43.31687,"lon":5.40465,"is_reserved":false,"is_disabled":false,"rental_uris":{"android":"levelo://app?vid=e9503d31-d87a-4e6b-9e2a-26103af365ad","ios":"levelo://app?vid=e9503d31-d87a-4e6b-9e2a-26103af365ad"},"vehicle_type_id":"4","last_reported":1770640954,"current_range_meters":6000,"station_id":"ce4bh012rcd13ifvqd00","pricing_plan_id":"cebpf4jnsgd1na2vs0mg"},{"bike_id":"5aba6095-7643-4143-8b09-182d2f94183c","system_id":"levelo_inurba_marseille","lat":43.2985,"lon":5.36278,"is_reserved":false,"is_disabled":false,"rental_uris":{"android":"levelo://app?vid=5aba6095-7643-4143-8b09-182d2f94183c","ios":"levelo://app?vid=5aba6095-7643-4143-8b09-182d2f94183c"},"vehicle_type_id":"4","last_reported":1770640954,"current_range_meters":6400,"station_id":"ce4bgpp2rcd13ifvqc3g","pricing_plan_id":"cebpf4jnsgd1na2vs0mg"},{"bike_id":"a5f7b14c-7bed-4ffe-9ed6-ae04eb384654","system_id":"levelo_inurba_marseille","lat":43.31274,"lon":5.40158,"is_reserved":false,"is_disabled":false,"rental_uris":{"android":"levelo://app?vid=a5f7b14c-7bed-4ffe-9ed6-ae04eb384654","ios":"levelo://app?vid=a5f7b14c-7bed-4ffe-9ed6-ae04eb384654"},"vehicle_type_id":"4","last_reported":1770640954,"current_range_meters":6400,"station_id":"ce4bh092rcd13ifvqd30","pricing_plan_id":"cebpf4jnsgd1na2vs0mg"},{"bike_id":"49f463a5-3d96-4cc7-89c1-3404868742e4","system_id":"levelo_inurba_marseille","lat":43.28032,"lon":5.36943,"is_reserved":false,"is_disabled":false,"rental_uris":{"android":"levelo://app?vid=49f463a5-3d96-4cc7-89c1-3404868742e4","ios":"levelo://app?vid=49f463a5-3d96-4cc7-89c1-3404868742e4"},"vehicle_type_id":"4","last_reported":1770640954,"current_range_meters":6400,"station_id":"ce4bha12rcd13ifvqef0","pricing_plan_id":"cebpf4jnsgd1na2vs0mg"},{"bike_id":"42d14ae0-b057-4881-a435-4d88ebb79611","system_id":"levelo_inurba_marseille","lat":43.26682,"lon":5.38266,"is_reserved":false,"is_disabled":false,"rental_uris":{"android":"levelo://app?vid=42d14ae0-b057-4881-a435-4d88ebb79611","ios":"levelo://app?vid=42d14ae0-b057-4881-a435-4d88ebb79611"},"vehicle_type_id":"4","last_reported":1770640954,"current_range_meters":6400,"station_id":"ce4bhg92rcd13ifvqf90","pricing_plan_id":"cebpf4jnsgd1na2vs0mg"},{"bike_id":"3677d988-5978-44c4-82e7-a7994579bc69","system_id":"levelo_inurba_marseille","lat":43.284751,"lon":5.384284,"is_reserved":false,"is_disabled":true,"rental_uris":{"android":"levelo://app?vid=3677d988-5978-44c4-82e7-a7994579bc69","ios":"levelo://app?vid=3677d988-5978-44c4-82e7-a7994579bc69"},"vehicle_type_id":"4","last_reported":1770640954,"current_range_meters":6400,"station_id":"ce4bh512rcd13ifvqe3g","pricing_plan_id":"cebpf4jnsgd1na2vs0mg"},{"bike_id":"ce88b0f3-4209-4e59-89b2-18b6a3071f39","system_id":"levelo_inurba_marseille","lat":43.28158,"lon":5.42647,"is_reserved":false,"is_disabled":false,"rental_uris":{"android":"levelo://app?vid=ce88b0f3-4209-4e59-89b2-18b6a3071f39","ios":"levelo://app?vid=ce88b0f3-4209-4e59-89b2-18b6a3071f39"},"vehicle_type_id":"4","last_reported":1770640954,"current_range_meters":6400,"station_id":"ce4bhnh2rcd13ifvqgug","pricing_plan_id":"cebpf4jnsgd1na2vs0mg"},{"bike_id":"27063983-3089-4ef3-aa1e-4b40408d9f40","system_id":"levelo_inurba_marseille","lat":43.29185,"lon":5.35801,"is_reserved":false,"is_disabled":false,"rental_uris":{"android":"levelo://app?vid=27063983-3089-4ef3-aa1e-4b40408d9f40","ios":"levelo://app?vid=27063983-3089-4ef3-aa1e-4b40408d9f40"},"vehicle_type_id":"4","last_reported":1770640954,"current_range_meters":6400,"station_id":"ce4bhb12rcd13ifvqel0","pricing_plan_id":"cebpf4jnsgd1na2vs0mg"},{"bike_id":"ea5b640c-f9cc-4437-aff2-20b9a17b6db1","system_id":"levelo_inurba_marseille","lat":43.25956,"lon":5.40915,"is_reserved":false,"is_disabled":false,"rental_uris":{"android":"levelo://app?vid=ea5b640c-f9cc-4437-aff2-20b9a17b6db1","ios":"levelo://app?vid=ea5b640c-f9cc-4437-aff2-20b9a17b6db1"},"vehicle_type_id":"4","last_reported":1770640954,"current_range_meters":6800,"station_id":"ce4bhm92rcd13ifvqglg","pricing_plan_id":"cebpf4jnsgd1na2vs0mg"},{"bike_id":"f6a0fc22-d80a-4031-abbc-7a663bb38332","system_id":"levelo_inurba_marseille","lat":43.23151,"lon":5.43718,"is_reserved":false,"is_disabled":false,"rental_uris":{"android":"levelo://app?vid=f6a0fc22-d80a-4031-abbc-7a663bb38332","ios":"levelo://app?vid=f6a0fc22-d80a-4031-abbc-7a663bb38332"},"vehicle_type_id":"4","last_reported":1770640954,"current_range_meters":6800,"station_id":"ce4bhmp2rcd13ifvqgog","pricing_plan_id":"cebpf4jnsgd1na2vs0mg"},{"bike_id":"41f83291-7c13-4a3b-a1c5-9da21c4a0d6b","system_id":"levelo_inurba_marseille","lat":43.275014,"lon":5.424572,"is_reserved":false,"is_disabled":false,"rental_uris":{"android":"levelo://app?vid=41f83291-7c13-4a3b-a1c5-9da21c4a0d6b","ios":"levelo://app?vid=41f83291-7c13-4a3b-a1c5-9da21c4a0d6b"},"vehicle_type_id":"4","last_reported":1770640954,"current_range_meters":6800,"station_id":"ce4bhn92rcd13ifvqgrg","pricing_plan_id":"cebpf4jnsgd1na2vs0mg"},{"bike_id":"049587f1-6c40-4bf9-9a55-32051e3b43f5","system_id":"levelo_inurba_marseille","lat":43.24166,"lon":5.39707,"is_reserved":false,"is_disabled":false,"rental_uris":{"android":"levelo://app?vid=049587f1-6c40-4bf9-9a55-32051e3b43f5","ios":"levelo://app?vid=049587f1-6c40-4bf9-9a55-32051e3b43f5"},"vehicle_type_id":"4","last_reported":1770640954,"current_range_meters":6800,"station_id":"ce4bhn12rcd13ifvqgpg","pricing_plan_id":"cebpf4jnsgd1na2vs0mg"},{"bike_id":"8c139d21-9d12-4792-a44d-13109cee3e0a","system_id":"levelo_inurba_marseille","lat":43.27023,"lon":5.41997,"is_reserved":false,"is_disabled":false,"rental_uris":{"android":"levelo://app?vid=8c139d21-9d12-4792-a44d-13109cee3e0a","ios":"levelo://app?vid=8c139d21-9d12-4792-a44d-13109cee3e0a"},"vehicle_type_id":"4","last_reported":1770640954,"current_range_meters":6800,"station_id":"","pricing_plan_id":"cebpf4jnsgd1na2vs0mg"},{"bike_id":"40f29671-710c-446d-967e-e581c8345869","system_id":"levelo_inurba_marseille","lat":43.3026,"lon":5.40077,"is_reserved":false,"is_disabled":false,"rental_uris":{"android":"levelo://app?vid=40f29671-710c-446d-967e-e581c8345869","ios":"levelo://app?vid=40f29671-710c-446d-967e-e581c8345869"},"vehicle_type_id":"4","last_reported":1770640954,"current_range_meters":6800,"station_id":"ce4bgvh2rcd13ifvqcs0","pricing_plan_id":"cebpf4jnsgd1na2vs0mg"},{"bike_id":"f3573b32-a1f6-406b-8e19-a08eafd3553f","system_id":"levelo_inurba_marseille","lat":43.27501,"lon":5.42457,"is_reserved":false,"is_disabled":false,"rental_uris":{"android":"levelo://app?vid=f3573b32-a1f6-406b-8e19-a08eafd3553f","ios":"levelo://app?vid=f3573b32-a1f6-406b-8e19-a08eafd3553f"},"vehicle_type_id":"4","last_reported":1770640954,"current_range_meters":6800,"station_id":"ce4bhn92rcd13ifvqgrg","pricing_plan_id":"cebpf4jnsgd1na2vs0mg"},{"bike_id":"2a41a4e7-1277-4985-ba78-22bce5859488","system_id":"levelo_inurba_marseille","lat":43.259426,"lon":5.409098,"is_reserved":false,"is_disabled":false,"rental_uris":{"android":"levelo://app?vid=2a41a4e7-1277-4985-ba78-22bce5859488","ios":"levelo://app?vid=2a41a4e7-1277-4985-ba78-22bce5859488"},"vehicle_type_id":"4","last_reported":1770640954,"current_range_meters":6800,"station_id":"ce4bhm92rcd13ifvqglg","pricing_plan_id":"cebpf4jnsgd1na2vs0mg"},{"bike_id":"27c29ef9-6971-4a98-8030-2f3da3364f50","system_id":"levelo_inurba_marseille","lat":43.27499,"lon":5.42446,"is_reserved":false,"is_disabled":false,"rental_uris":{"android":"levelo://app?vid=27c29ef9-6971-4a98-8030-2f3da3364f50","ios":"levelo://app?vid=27c29ef9-6971-4a98-8030-2f3da3364f50"},"vehicle_type_id":"4","last_reported":1770640954,"current_range_meters":7200,"station_id":"ce4bhn92rcd13ifvqgrg","pricing_plan_id":"cebpf4jnsgd1na2vs0mg"},{"bike_id":"b65a7e72-9e74-4b3f-b167-e422d10fb3a2","system_id":"levelo_inurba_marseille","lat":43.299455,"lon":5.38506,"is_reserved":false,"is_disabled":false,"rental_uris":{"android":"levelo://app?vid=b65a7e72-9e74-4b3f-b167-e422d10fb3a2","ios":"levelo://app?vid=b65a7e72-9e74-4b3f-b167-e422d10fb3a2"},"vehicle_type_id":"4","last_reported":1770640954,"current_range_meters":7200,"station_id":"ce4bgj92rcd13ifvqbd0","pricing_plan_id":"cebpf4jnsgd1na2vs0mg"},{"bike_id":"3a648550-61a0-4981-8963-906064980733","system_id":"levelo_inurba_marseille","lat":43.23158,"lon":5.43706,"is_reserved":false,"is_disabled":false,"rental_uris":{"android":"levelo://app?vid=3a648550-61a0-4981-8963-906064980733","ios":"levelo://app?vid=3a648550-61a0-4981-8963-906064980733"},"vehicle_type_id":"4","last_reported":1770640954,"current_range_meters":7200,"station_id":"ce4bhmp2rcd13ifvqgog","pricing_plan_id":"cebpf4jnsgd1na2vs0mg"},{"bike_id":"c494ea00-8657-431c-b02a-5c614eac3be3","system_id":"levelo_inurba_marseille","lat":43.28699,"lon":5.39985,"is_reserved":false,"is_disabled":false,"rental_uris":{"android":"levelo://app?vid=c494ea00-8657-431c-b02a-5c614eac3be3","ios":"levelo://app?vid=c494ea00-8657-431c-b02a-5c614eac3be3"},"vehicle_type_id":"4","last_reported":1770640954,"current_range_meters":7200,"station_id":"ce4bho92rcd13ifvqh3g","pricing_plan_id":"cebpf4jnsgd1na2vs0mg"},{"bike_id":"fc830711-c6c4-41fc-8c3c-a2ef4151426a","system_id":"levelo_inurba_marseille","lat":43.26797,"lon":5.40273,"is_reserved":false,"is_disabled":false,"rental_uris":{"android":"levelo://app?vid=fc830711-c6c4-41fc-8c3c-a2ef4151426a","ios":"levelo://app?vid=fc830711-c6c4-41fc-8c3c-a2ef4151426a"},"vehicle_type_id":"4","last_reported":1770640954,"current_range_meters":7200,"station_id":"ce501612rcd8frsf0b60","pricing_plan_id":"cebpf4jnsgd1na2vs0mg"},{"bike_id":"56332bed-505b-4a0c-ae08-e6510dec8a0f","system_id":"levelo_inurba_marseille","lat":43.27916,"lon":5.39577,"is_reserved":false,"is_disabled":false,"rental_uris":{"android":"levelo://app?vid=56332bed-505b-4a0c-ae08-e6510dec8a0f","ios":"levelo://app?vid=56332bed-505b-4a0c-ae08-e6510dec8a0f"},"vehicle_type_id":"4","last_reported":1770640954,"current_range_meters":7200,"station_id":"ce4bhf92rcd13ifvqf40","pricing_plan_id":"cebpf4jnsgd1na2vs0mg"},{"bike_id":"0c19d373-6eb2-4333-8212-205e194a0e67","system_id":"levelo_inurba_marseille","lat":43.24389,"lon":5.37068,"is_reserved":false,"is_disabled":false,"rental_uris":{"android":"levelo://app?vid=0c19d373-6eb2-4333-8212-205e194a0e67","ios":"levelo://app?vid=0c19d373-6eb2-4333-8212-205e194a0e67"},"vehicle_type_id":"4","last_reported":1770640954,"current_range_meters":7200,"station_id":"ce4bhhh2rcd13ifvqfk0","pricing_plan_id":"cebpf4jnsgd1na2vs0mg"},{"bike_id":"d6aee196-cc92-4d64-b6e5-12dab2bf06f5","system_id":"levelo_inurba_marseille","lat":43.33522,"lon":5.37473,"is_reserved":false,"is_disabled":false,"rental_uris":{"android":"levelo://app?vid=d6aee196-cc92-4d64-b6e5-12dab2bf06f5","ios":"levelo://app?vid=d6aee196-cc92-4d64-b6e5-12dab2bf06f5"},"vehicle_type_id":"4","last_reported":1770640954,"current_range_meters":7200,"station_id":"st_d46tts09ee8s73dlu43g","pricing_plan_id":"cebpf4jnsgd1na2vs0mg"},{"bike_id":"660eccfb-5611-468b-99ec-ac7e67fffa78","system_id":"levelo_inurba_marseille","lat":43.255727,"lon":5.382374,"is_reserved":false,"is_disabled":false,"rental_uris":{"android":"levelo://app?vid=660eccfb-5611-468b-99ec-ac7e67fffa78","ios":"levelo://app?vid=660eccfb-5611-468b-99ec-ac7e67fffa78"},"vehicle_type_id":"4","last_reported":1770640954,"current_range_meters":7200,"station_id":"ce4bhih2rcd13ifvqfs0","pricing_plan_id":"cebpf4jnsgd1na2vs0mg"},{"bike_id":"777f1f50-9ccf-46db-a1bf-cfe765ca1373","system_id":"levelo_inurba_marseille","lat":43.260646,"lon":5.393948,"is_reserved":false,"is_disabled":false,"rental_uris":{"android":"levelo://app?vid=777f1f50-9ccf-46db-a1bf-cfe765ca1373","ios":"levelo://app?vid=777f1f50-9ccf-46db-a1bf-cfe765ca1373"},"vehicle_type_id":"4","last_reported":1770640954,"current_range_meters":7200,"station_id":"ce4bhh92rcd13ifvqfj0","pricing_plan_id":"cebpf4jnsgd1na2vs0mg"},{"bike_id":"9757f4c5-aeb4-450f-b44c-e38c5bf129d0","system_id":"levelo_inurba_marseille","lat":43.30536,"lon":5.36724,"is_reserved":false,"is_disabled":false,"rental_uris":{"android":"levelo://app?vid=9757f4c5-aeb4-450f-b44c-e38c5bf129d0","ios":"levelo://app?vid=9757f4c5-aeb4-450f-b44c-e38c5bf129d0"},"vehicle_type_id":"4","last_reported":1770640954,"current_range_meters":7200,"station_id":"ce4bgrp2rcd13ifvqc9g","pricing_plan_id":"cebpf4jnsgd1na2vs0mg"},{"bike_id":"1b0741ff-7033-4d2c-837b-f2f4d5799248","system_id":"levelo_inurba_marseille","lat":43.315349,"lon":5.380379,"is_reserved":false,"is_disabled":false,"rental_uris":{"android":"levelo://app?vid=1b0741ff-7033-4d2c-837b-f2f4d5799248","ios":"levelo://app?vid=1b0741ff-7033-4d2c-837b-f2f4d5799248"},"vehicle_type_id":"4","last_reported":1770640954,"current_range_meters":7200,"station_id":"ce4bhsp2rcd13ifvqi50","pricing_plan_id":"cebpf4jnsgd1na2vs0mg"},{"bike_id":"245f3a00-5ae9-48cf-b7da-8774ff9b41ba","system_id":"levelo_inurba_marseille","lat":43.284754,"lon":5.48394,"is_reserved":false,"is_disabled":false,"rental_uris":{"android":"levelo://app?vid=245f3a00-5ae9-48cf-b7da-8774ff9b41ba","ios":"levelo://app?vid=245f3a00-5ae9-48cf-b7da-8774ff9b41ba"},"vehicle_type_id":"4","last_reported":1770640954,"current_range_meters":8000,"station_id":"","pricing_plan_id":"cebpf4jnsgd1na2vs0mg"},{"bike_id":"3b51b137-b0f5-4720-8050-df6e6c8f19ea","system_id":"levelo_inurba_marseille","lat":43.259297,"lon":5.409112,"is_reserved":false,"is_disabled":false,"rental_uris":{"android":"levelo://app?vid=3b51b137-b0f5-4720-8050-df6e6c8f19ea","ios":"levelo://app?vid=3b51b137-b0f5-4720-8050-df6e6c8f19ea"},"vehicle_type_id":"4","last_reported":1770640954,"current_range_meters":8000,"station_id":"ce4bhm92rcd13ifvqglg","pricing_plan_id":"cebpf4jnsgd1na2vs0mg"},{"bike_id":"35b7a33b-807e-4b83-8e10-e70f79c57c09","system_id":"levelo_inurba_marseille","lat":43.30429,"lon":5.38873,"is_reserved":false,"is_disabled":false,"rental_uris":{"android":"levelo://app?vid=35b7a33b-807e-4b83-8e10-e70f79c57c09","ios":"levelo://app?vid=35b7a33b-807e-4b83-8e10-e70f79c57c09"},"vehicle_type_id":"4","last_reported":1770640954,"current_range_meters":8000,"station_id":"ce4bgk12rcd13ifvqbi0","pricing_plan_id":"cebpf4jnsgd1na2vs0mg"},{"bike_id":"16a1688f-c2f5-4bf5-96dc-0466fbc0522d","system_id":"levelo_inurba_marseille","lat":43.27971,"lon":5.38736,"is_reserved":false,"is_disabled":false,"rental_uris":{"android":"levelo://app?vid=16a1688f-c2f5-4bf5-96dc-0466fbc0522d","ios":"levelo://app?vid=16a1688f-c2f5-4bf5-96dc-0466fbc0522d"},"vehicle_type_id":"4","last_reported":1770640954,"current_range_meters":8000,"station_id":"ce4bhg12rcd13ifvqf80","pricing_plan_id":"cebpf4jnsgd1na2vs0mg"},{"bike_id":"7d59f1f1-2621-4853-91a8-34ee2eea3bf8","system_id":"levelo_inurba_marseille","lat":43.243981,"lon":5.370712,"is_reserved":false,"is_disabled":false,"rental_uris":{"android":"levelo://app?vid=7d59f1f1-2621-4853-91a8-34ee2eea3bf8","ios":"levelo://app?vid=7d59f1f1-2621-4853-91a8-34ee2eea3bf8"},"vehicle_type_id":"4","last_reported":1770640954,"current_range_meters":8000,"station_id":"ce4bhhh2rcd13ifvqfk0","pricing_plan_id":"cebpf4jnsgd1na2vs0mg"},{"bike_id":"db2e5c22-9f82-4c32-b356-f06e3f0ce6ed","system_id":"levelo_inurba_marseille","lat":43.240778,"lon":5.377434,"is_reserved":false,"is_disabled":false,"rental_uris":{"android":"levelo://app?vid=db2e5c22-9f82-4c32-b356-f06e3f0ce6ed","ios":"levelo://app?vid=db2e5c22-9f82-4c32-b356-f06e3f0ce6ed"},"vehicle_type_id":"4","last_reported":1770640954,"current_range_meters":8000,"station_id":"ce4bhnp2rcd13ifvqgvg","pricing_plan_id":"cebpf4jnsgd1na2vs0mg"},{"bike_id":"f13b8832-1f22-4cab-8f5d-b649a53f8630","system_id":"levelo_inurba_marseille","lat":43.28363,"lon":5.38626,"is_reserved":false,"is_disabled":false,"rental_uris":{"android":"levelo://app?vid=f13b8832-1f22-4cab-8f5d-b649a53f8630","ios":"levelo://app?vid=f13b8832-1f22-4cab-8f5d-b649a53f8630"},"vehicle_type_id":"4","last_reported":1770640954,"current_range_meters":8000,"station_id":"ce4bh492rcd13ifvqdvg","pricing_plan_id":"cebpf4jnsgd1na2vs0mg"},{"bike_id":"9698c60d-d86e-4dca-bf44-9776b34ffa52","system_id":"levelo_inurba_marseille","lat":43.26676,"lon":5.3826,"is_reserved":false,"is_disabled":false,"rental_uris":{"android":"levelo://app?vid=9698c60d-d86e-4dca-bf44-9776b34ffa52","ios":"levelo://app?vid=9698c60d-d86e-4dca-bf44-9776b34ffa52"},"vehicle_type_id":"4","last_reported":1770640954,"current_range_meters":8000,"station_id":"ce4bhg92rcd13ifvqf90","pricing_plan_id":"cebpf4jnsgd1na2vs0mg"},{"bike_id":"48e3f053-c19d-4b8c-81ce-b3e61d0a8d2b","system_id":"levelo_inurba_marseille","lat":43.30464,"lon":5.3791,"is_reserved":false,"is_disabled":false,"rental_uris":{"android":"levelo://app?vid=48e3f053-c19d-4b8c-81ce-b3e61d0a8d2b","ios":"levelo://app?vid=48e3f053-c19d-4b8c-81ce-b3e61d0a8d2b"},"vehicle_type_id":"4","last_reported":1770640954,"current_range_meters":8000,"station_id":"ce4bgup2rcd13ifvqcn0","pricing_plan_id":"cebpf4jnsgd1na2vs0mg"},{"bike_id":"33d39168-43b4-4aa2-888d-aa4d04950579","system_id":"levelo_inurba_marseille","lat":43.25122,"lon":5.40349,"is_reserved":false,"is_disabled":false,"rental_uris":{"android":"levelo://app?vid=33d39168-43b4-4aa2-888d-aa4d04950579","ios":"levelo://app?vid=33d39168-43b4-4aa2-888d-aa4d04950579"},"vehicle_type_id":"4","last_reported":1770640954,"current_range_meters":8000,"station_id":"ce4bhlh2rcd13ifvqgig","pricing_plan_id":"cebpf4jnsgd1na2vs0mg"},{"bike_id":"e83d9e2f-7571-4d83-99bc-489b34ff4643","system_id":"levelo_inurba_marseille","lat":43.25338,"lon":5.42173,"is_reserved":false,"is_disabled":false,"rental_uris":{"android":"levelo://app?vid=e83d9e2f-7571-4d83-99bc-489b34ff4643","ios":"levelo://app?vid=e83d9e2f-7571-4d83-99bc-489b34ff4643"},"vehicle_type_id":"4","last_reported":1770640954,"current_range_meters":8000,"station_id":"st_d2m65c5bi1j21697t3ng","pricing_plan_id":"cebpf4jnsgd1na2vs0mg"},{"bike_id":"c0b6c3eb-4055-48c5-be4e-2f3633e2e95f","system_id":"levelo_inurba_marseille","lat":43.22555,"lon":5.41636,"is_reserved":false,"is_disabled":false,"rental_uris":{"android":"levelo://app?vid=c0b6c3eb-4055-48c5-be4e-2f3633e2e95f","ios":"levelo://app?vid=c0b6c3eb-4055-48c5-be4e-2f3633e2e95f"},"vehicle_type_id":"4","last_reported":1770640954,"current_range_meters":8000,"station_id":"st_d2o4gvlbi1j2169b742g","pricing_plan_id":"cebpf4jnsgd1na2vs0mg"},{"bike_id":"cf016afa-8583-400e-9a37-9cb1dbcd7006","system_id":"levelo_inurba_marseille","lat":43.31218,"lon":5.368723,"is_reserved":false,"is_disabled":false,"rental_uris":{"android":"levelo://app?vid=cf016afa-8583-400e-9a37-9cb1dbcd7006","ios":"levelo://app?vid=cf016afa-8583-400e-9a37-9cb1dbcd7006"},"vehicle_type_id":"4","last_reported":1770640954,"current_range_meters":8000,"station_id":"ce4bgl92rcd13ifvqbq0","pricing_plan_id":"cebpf4jnsgd1na2vs0mg"},{"bike_id":"15b58f47-748f-41df-af35-c90ad9f44241","system_id":"levelo_inurba_marseille","lat":43.3135,"lon":5.36767,"is_reserved":false,"is_disabled":false,"rental_uris":{"android":"levelo://app?vid=15b58f47-748f-41df-af35-c90ad9f44241","ios":"levelo://app?vid=15b58f47-748f-41df-af35-c90ad9f44241"},"vehicle_type_id":"4","last_reported":1770640954,"current_range_meters":8000,"station_id":"","pricing_plan_id":"cebpf4jnsgd1na2vs0mg"},{"bike_id":"91fdd7ab-d339-4963-8616-9757378509a7","system_id":"levelo_inurba_marseille","lat":43.28614,"lon":5.3705,"is_reserved":false,"is_disabled":false,"rental_uris":{"android":"levelo://app?vid=91fdd7ab-d339-4963-8616-9757378509a7","ios":"levelo://app?vid=91fdd7ab-d339-4963-8616-9757378509a7"},"vehicle_type_id":"4","last_reported":1770640954,"current_range_meters":8000,"station_id":"ce4bht12rcd13ifvqi60","pricing_plan_id":"cebpf4jnsgd1na2vs0mg"},{"bike_id":"08236147-43ba-467a-afb2-42276807f77b","system_id":"levelo_inurba_marseille","lat":43.30807,"lon":5.38195,"is_reserved":false,"is_disabled":false,"rental_uris":{"android":"levelo://app?vid=08236147-43ba-467a-afb2-42276807f77b","ios":"levelo://app?vid=08236147-43ba-467a-afb2-42276807f77b"},"vehicle_type_id":"4","last_reported":1770640954,"current_range_meters":8000,"station_id":"ce4bgt12rcd13ifvqce0","pricing_plan_id":"cebpf4jnsgd1na2vs0mg"},{"bike_id":"e1242b72-e1d7-481b-8195-5c5f6d9a0b11","system_id":"levelo_inurba_marseille","lat":43.246312,"lon":5.431466,"is_reserved":false,"is_disabled":false,"rental_uris":{"android":"levelo://app?vid=e1242b72-e1d7-481b-8195-5c5f6d9a0b11","ios":"levelo://app?vid=e1242b72-e1d7-481b-8195-5c5f6d9a0b11"},"vehicle_type_id":"4","last_reported":1770640954,"current_range_meters":8000,"station_id":"st_d2m6c4gdas8pm72e190g","pricing_plan_id":"cebpf4jnsgd1na2vs0mg"},{"bike_id":"7e01f57b-ade8-4cc3-81c3-76e88fac1321","system_id":"levelo_inurba_marseille","lat":43.284646,"lon":5.484075,"is_reserved":false,"is_disabled":false,"rental_uris":{"android":"levelo://app?vid=7e01f57b-ade8-4cc3-81c3-76e88fac1321","ios":"levelo://app?vid=7e01f57b-ade8-4cc3-81c3-76e88fac1321"},"vehicle_type_id":"4","last_reported":1770640954,"current_range_meters":8000,"station_id":"st_d3svhcjqgbts73a3dn0g","pricing_plan_id":"cebpf4jnsgd1na2vs0mg"},{"bike_id":"002734e7-3b52-4a9a-867f-3a36a6e3294a","system_id":"levelo_inurba_marseille","lat":43.26683,"lon":5.38269,"is_reserved":false,"is_disabled":false,"rental_uris":{"android":"levelo://app?vid=002734e7-3b52-4a9a-867f-3a36a6e3294a","ios":"levelo://app?vid=002734e7-3b52-4a9a-867f-3a36a6e3294a"},"vehicle_type_id":"4","last_reported":1770640954,"current_range_meters":8000,"station_id":"ce4bhg92rcd13ifvqf90","pricing_plan_id":"cebpf4jnsgd1na2vs0mg"},{"bike_id":"d9dd74ac-36a1-4118-ba80-6d740c082c46","system_id":"levelo_inurba_marseille","lat":43.305558,"lon":5.367678,"is_reserved":false,"is_disabled":false,"rental_uris":{"android":"levelo://app?vid=d9dd74ac-36a1-4118-ba80-6d740c082c46","ios":"levelo://app?vid=d9dd74ac-36a1-4118-ba80-6d740c082c46"},"vehicle_type_id":"4","last_reported":1770640954,"current_range_meters":8000,"station_id":"ce4bgr92rcd13ifvqc6g","pricing_plan_id":"cebpf4jnsgd1na2vs0mg"},{"bike_id":"40ca09fe-7866-480e-ac60-f7b7f539bb36","system_id":"levelo_inurba_marseille","lat":43.2339,"lon":5.41229,"is_reserved":false,"is_disabled":false,"rental_uris":{"android":"levelo://app?vid=40ca09fe-7866-480e-ac60-f7b7f539bb36","ios":"levelo://app?vid=40ca09fe-7866-480e-ac60-f7b7f539bb36"},"vehicle_type_id":"4","last_reported":1770640954,"current_range_meters":8000,"station_id":"","pricing_plan_id":"cebpf4jnsgd1na2vs0mg"},{"bike_id":"eb7b89f2-b5c9-4236-bac4-e69244d87b10","system_id":"levelo_inurba_marseille","lat":43.25006,"lon":5.38916,"is_reserved":false,"is_disabled":false,"rental_uris":{"android":"levelo://app?vid=eb7b89f2-b5c9-4236-bac4-e69244d87b10","ios":"levelo://app?vid=eb7b89f2-b5c9-4236-bac4-e69244d87b10"},"vehicle_type_id":"4","last_reported":1770640954,"current_range_meters":8000,"station_id":"ce4bhgp2rcd13ifvqfd0","pricing_plan_id":"cebpf4jnsgd1na2vs0mg"},{"bike_id":"9a0a4f5b-d5f2-4be0-a4fa-450256499716","system_id":"levelo_inurba_marseille","lat":43.27046,"lon":5.39868,"is_reserved":false,"is_disabled":false,"rental_uris":{"android":"levelo://app?vid=9a0a4f5b-d5f2-4be0-a4fa-450256499716","ios":"levelo://app?vid=9a0a4f5b-d5f2-4be0-a4fa-450256499716"},"vehicle_type_id":"4","last_reported":1770640954,"current_range_meters":8000,"station_id":"","pricing_plan_id":"cebpf4jnsgd1na2vs0mg"},{"bike_id":"3020e5bf-c011-4b5f-920c-0fd0cf4f8af0","system_id":"levelo_inurba_marseille","lat":43.279898,"lon":5.400075,"is_reserved":false,"is_disabled":false,"rental_uris":{"android":"levelo://app?vid=3020e5bf-c011-4b5f-920c-0fd0cf4f8af0","ios":"levelo://app?vid=3020e5bf-c011-4b5f-920c-0fd0cf4f8af0"},"vehicle_type_id":"4","last_reported":1770640954,"current_range_meters":8400,"station_id":"ce4bho92rcd13ifvqh4g","pricing_plan_id":"cebpf4jnsgd1na2vs0mg"},{"bike_id":"fd158031-c8ec-435b-b315-8360533800f5","system_id":"levelo_inurba_marseille","lat":43.26239,"lon":5.40471,"is_reserved":false,"is_disabled":true,"rental_uris":{"android":"levelo://app?vid=fd158031-c8ec-435b-b315-8360533800f5","ios":"levelo://app?vid=fd158031-c8ec-435b-b315-8360533800f5"},"vehicle_type_id":"4","last_reported":1770640954,"current_range_meters":8400,"station_id":"ce4bhmh2rcd13ifvqgmg","pricing_plan_id":"cebpf4jnsgd1na2vs0mg"},{"bike_id":"f23a5ea8-cccd-472e-abcc-91e4bbd449a7","system_id":"levelo_inurba_marseille","lat":43.30315,"lon":5.36907,"is_reserved":false,"is_disabled":true,"rental_uris":{"android":"levelo://app?vid=f23a5ea8-cccd-472e-abcc-91e4bbd449a7","ios":"levelo://app?vid=f23a5ea8-cccd-472e-abcc-91e4bbd449a7"},"vehicle_type_id":"4","last_reported":1770640954,"current_range_meters":8400,"station_id":"ce4bgqh2rcd13ifvqc5g","pricing_plan_id":"cebpf4jnsgd1na2vs0mg"},{"bike_id":"fe6f8294-65ba-45f1-a4f6-c1ee0f12ef18","system_id":"levelo_inurba_marseille","lat":43.2257,"lon":5.41619,"is_reserved":false,"is_disabled":false,"rental_uris":{"android":"levelo://app?vid=fe6f8294-65ba-45f1-a4f6-c1ee0f12ef18","ios":"levelo://app?vid=fe6f8294-65ba-45f1-a4f6-c1ee0f12ef18"},"vehicle_type_id":"4","last_reported":1770640954,"current_range_meters":8400,"station_id":"st_d2o4gvlbi1j2169b742g","pricing_plan_id":"cebpf4jnsgd1na2vs0mg"},{"bike_id":"8d65ea59-159e-4e8e-8acb-244f43059bc9","system_id":"levelo_inurba_marseille","lat":43.24152,"lon":5.36429,"is_reserved":false,"is_disabled":false,"rental_uris":{"android":"levelo://app?vid=8d65ea59-159e-4e8e-8acb-244f43059bc9","ios":"levelo://app?vid=8d65ea59-159e-4e8e-8acb-244f43059bc9"},"vehicle_type_id":"4","last_reported":1770640954,"current_range_meters":8400,"station_id":"cpo36qri1sfpv3e86is0","pricing_plan_id":"cebpf4jnsgd1na2vs0mg"},{"bike_id":"f1a9e62c-bfe0-42e4-ab84-82eb9e1c47d6","system_id":"levelo_inurba_marseille","lat":43.26698,"lon":5.38267,"is_reserved":false,"is_disabled":false,"rental_uris":{"android":"levelo://app?vid=f1a9e62c-bfe0-42e4-ab84-82eb9e1c47d6","ios":"levelo://app?vid=f1a9e62c-bfe0-42e4-ab84-82eb9e1c47d6"},"vehicle_type_id":"4","last_reported":1770640954,"current_range_meters":8400,"station_id":"ce4bhg92rcd13ifvqf90","pricing_plan_id":"cebpf4jnsgd1na2vs0mg"},{"bike_id":"24cc7bdb-5261-4fff-80e2-27bfd8421313","system_id":"levelo_inurba_marseille","lat":43.24052,"lon":5.37748,"is_reserved":false,"is_disabled":false,"rental_uris":{"android":"levelo://app?vid=24cc7bdb-5261-4fff-80e2-27bfd8421313","ios":"levelo://app?vid=24cc7bdb-5261-4fff-80e2-27bfd8421313"},"vehicle_type_id":"4","last_reported":1770640954,"current_range_meters":8400,"station_id":"ce4bhnp2rcd13ifvqgvg","pricing_plan_id":"cebpf4jnsgd1na2vs0mg"},{"bike_id":"8f91f29e-0897-43d8-a3cf-8b8240b92337","system_id":"levelo_inurba_marseille","lat":43.299024,"lon":5.4366,"is_reserved":false,"is_disabled":false,"rental_uris":{"android":"levelo://app?vid=8f91f29e-0897-43d8-a3cf-8b8240b92337","ios":"levelo://app?vid=8f91f29e-0897-43d8-a3cf-8b8240b92337"},"vehicle_type_id":"4","last_reported":1770640954,"current_range_meters":8400,"station_id":"ce4bhpp2rcd13ifvqhfg","pricing_plan_id":"cebpf4jnsgd1na2vs0mg"},{"bike_id":"e2c3118e-ecc2-476a-9be9-aafebb10c1c9","system_id":"levelo_inurba_marseille","lat":43.246314,"lon":5.431428,"is_reserved":false,"is_disabled":false,"rental_uris":{"android":"levelo://app?vid=e2c3118e-ecc2-476a-9be9-aafebb10c1c9","ios":"levelo://app?vid=e2c3118e-ecc2-476a-9be9-aafebb10c1c9"},"vehicle_type_id":"4","last_reported":1770640954,"current_range_meters":8400,"station_id":"st_d2m6c4gdas8pm72e190g","pricing_plan_id":"cebpf4jnsgd1na2vs0mg"},{"bike_id":"a6ac5bf6-fd73-4284-9bef-ae3d5e3079de","system_id":"levelo_inurba_marseille","lat":43.24075,"lon":5.3776,"is_reserved":false,"is_disabled":false,"rental_uris":{"android":"levelo://app?vid=a6ac5bf6-fd73-4284-9bef-ae3d5e3079de","ios":"levelo://app?vid=a6ac5bf6-fd73-4284-9bef-ae3d5e3079de"},"vehicle_type_id":"4","last_reported":1770640954,"current_range_meters":8400,"station_id":"ce4bhnp2rcd13ifvqgvg","pricing_plan_id":"cebpf4jnsgd1na2vs0mg"},{"bike_id":"6e79fd0f-9e8e-4459-8240-57d4fd86c647","system_id":"levelo_inurba_marseille","lat":43.297701,"lon":5.381154,"is_reserved":false,"is_disabled":false,"rental_uris":{"android":"levelo://app?vid=6e79fd0f-9e8e-4459-8240-57d4fd86c647","ios":"levelo://app?vid=6e79fd0f-9e8e-4459-8240-57d4fd86c647"},"vehicle_type_id":"4","last_reported":1770640954,"current_range_meters":8400,"station_id":"ce4bgip2rcd13ifvqbb0","pricing_plan_id":"cebpf4jnsgd1na2vs0mg"},{"bike_id":"d9cc9baa-5238-45d6-835e-d06b69beabe8","system_id":"levelo_inurba_marseille","lat":43.270587,"lon":5.40246,"is_reserved":false,"is_disabled":false,"rental_uris":{"android":"levelo://app?vid=d9cc9baa-5238-45d6-835e-d06b69beabe8","ios":"levelo://app?vid=d9cc9baa-5238-45d6-835e-d06b69beabe8"},"vehicle_type_id":"4","last_reported":1770640954,"current_range_meters":8400,"station_id":"ce4bhk92rcd13ifvqgc0","pricing_plan_id":"cebpf4jnsgd1na2vs0mg"},{"bike_id":"6316a440-6079-4cd7-8710-8e12c6c0a2b7","system_id":"levelo_inurba_marseille","lat":43.29889,"lon":5.4366,"is_reserved":false,"is_disabled":false,"rental_uris":{"android":"levelo://app?vid=6316a440-6079-4cd7-8710-8e12c6c0a2b7","ios":"levelo://app?vid=6316a440-6079-4cd7-8710-8e12c6c0a2b7"},"vehicle_type_id":"4","last_reported":1770640954,"current_range_meters":8400,"station_id":"ce4bhpp2rcd13ifvqhfg","pricing_plan_id":"cebpf4jnsgd1na2vs0mg"},{"bike_id":"eab405ca-0f7d-43bd-ad4b-10c554108ac0","system_id":"levelo_inurba_marseille","lat":43.279138,"lon":5.395878,"is_reserved":false,"is_disabled":false,"rental_uris":{"android":"levelo://app?vid=eab405ca-0f7d-43bd-ad4b-10c554108ac0","ios":"levelo://app?vid=eab405ca-0f7d-43bd-ad4b-10c554108ac0"},"vehicle_type_id":"4","last_reported":1770640954,"current_range_meters":8800,"station_id":"ce4bhf92rcd13ifvqf40","pricing_plan_id":"cebpf4jnsgd1na2vs0mg"},{"bike_id":"54bd52e6-912c-41e4-90a6-85e5c05a7d3d","system_id":"levelo_inurba_marseille","lat":43.22527,"lon":5.41633,"is_reserved":false,"is_disabled":false,"rental_uris":{"android":"levelo://app?vid=54bd52e6-912c-41e4-90a6-85e5c05a7d3d","ios":"levelo://app?vid=54bd52e6-912c-41e4-90a6-85e5c05a7d3d"},"vehicle_type_id":"4","last_reported":1770640954,"current_range_meters":8800,"station_id":"st_d2o4gvlbi1j2169b742g","pricing_plan_id":"cebpf4jnsgd1na2vs0mg"},{"bike_id":"a07cd24c-7e73-437e-917a-60bdbc1072fc","system_id":"levelo_inurba_marseille","lat":43.24391,"lon":5.3702,"is_reserved":false,"is_disabled":false,"rental_uris":{"android":"levelo://app?vid=a07cd24c-7e73-437e-917a-60bdbc1072fc","ios":"levelo://app?vid=a07cd24c-7e73-437e-917a-60bdbc1072fc"},"vehicle_type_id":"4","last_reported":1770640954,"current_range_meters":8800,"station_id":"ce4bhhh2rcd13ifvqfk0","pricing_plan_id":"cebpf4jnsgd1na2vs0mg"},{"bike_id":"0d435044-39b2-4402-857a-610b31675306","system_id":"levelo_inurba_marseille","lat":43.310803,"lon":5.37462,"is_reserved":false,"is_disabled":true,"rental_uris":{"android":"levelo://app?vid=0d435044-39b2-4402-857a-610b31675306","ios":"levelo://app?vid=0d435044-39b2-4402-857a-610b31675306"},"vehicle_type_id":"4","last_reported":1770640954,"current_range_meters":8800,"station_id":"","pricing_plan_id":"cebpf4jnsgd1na2vs0mg"},{"bike_id":"36ac8fb1-1e6b-4c04-8e8e-9441a471d5f6","system_id":"levelo_inurba_marseille","lat":43.28477,"lon":5.48396,"is_reserved":false,"is_disabled":false,"rental_uris":{"android":"levelo://app?vid=36ac8fb1-1e6b-4c04-8e8e-9441a471d5f6","ios":"levelo://app?vid=36ac8fb1-1e6b-4c04-8e8e-9441a471d5f6"},"vehicle_type_id":"4","last_reported":1770640954,"current_range_meters":8800,"station_id":"","pricing_plan_id":"cebpf4jnsgd1na2vs0mg"},{"bike_id":"26e0f1f8-b3e0-4228-800c-1894d774c7b1","system_id":"levelo_inurba_marseille","lat":43.30149,"lon":5.38075,"is_reserved":false,"is_disabled":false,"rental_uris":{"android":"levelo://app?vid=26e0f1f8-b3e0-4228-800c-1894d774c7b1","ios":"levelo://app?vid=26e0f1f8-b3e0-4228-800c-1894d774c7b1"},"vehicle_type_id":"4","last_reported":1770640954,"current_range_meters":8800,"station_id":"ce4bgjp2rcd13ifvqbh0","pricing_plan_id":"cebpf4jnsgd1na2vs0mg"},{"bike_id":"d917330e-8029-461a-95c3-ed551a62a88f","system_id":"levelo_inurba_marseille","lat":43.22557,"lon":5.41625,"is_reserved":false,"is_disabled":false,"rental_uris":{"android":"levelo://app?vid=d917330e-8029-461a-95c3-ed551a62a88f","ios":"levelo://app?vid=d917330e-8029-461a-95c3-ed551a62a88f"},"vehicle_type_id":"4","last_reported":1770640954,"current_range_meters":8800,"station_id":"st_d2o4gvlbi1j2169b742g","pricing_plan_id":"cebpf4jnsgd1na2vs0mg"},{"bike_id":"83062ade-c076-467d-b125-720c7e101dca","system_id":"levelo_inurba_marseille","lat":43.29611,"lon":5.37722,"is_reserved":false,"is_disabled":true,"rental_uris":{"android":"levelo://app?vid=83062ade-c076-467d-b125-720c7e101dca","ios":"levelo://app?vid=83062ade-c076-467d-b125-720c7e101dca"},"vehicle_type_id":"4","last_reported":1770640954,"current_range_meters":8800,"station_id":"ce4bgi92rcd13ifvqb90","pricing_plan_id":"cebpf4jnsgd1na2vs0mg"},{"bike_id":"738ace95-69b5-422f-91a8-940bb61d6675","system_id":"levelo_inurba_marseille","lat":43.32104,"lon":5.36768,"is_reserved":false,"is_disabled":false,"rental_uris":{"android":"levelo://app?vid=738ace95-69b5-422f-91a8-940bb61d6675","ios":"levelo://app?vid=738ace95-69b5-422f-91a8-940bb61d6675"},"vehicle_type_id":"4","last_reported":1770640954,"current_range_meters":8800,"station_id":"ce4bhrh2rcd13ifvqhug","pricing_plan_id":"cebpf4jnsgd1na2vs0mg"},{"bike_id":"0f6c9d55-7af0-4c26-8d61-5bd11967943c","system_id":"levelo_inurba_marseille","lat":43.27494,"lon":5.42435,"is_reserved":false,"is_disabled":false,"rental_uris":{"android":"levelo://app?vid=0f6c9d55-7af0-4c26-8d61-5bd11967943c","ios":"levelo://app?vid=0f6c9d55-7af0-4c26-8d61-5bd11967943c"},"vehicle_type_id":"4","last_reported":1770640954,"current_range_meters":8800,"station_id":"ce4bhn92rcd13ifvqgrg","pricing_plan_id":"cebpf4jnsgd1na2vs0mg"},{"bike_id":"b1429378-b93e-4184-b373-85f0415c9919","system_id":"levelo_inurba_marseille","lat":43.24645,"lon":5.43125,"is_reserved":false,"is_disabled":false,"rental_uris":{"android":"levelo://app?vid=b1429378-b93e-4184-b373-85f0415c9919","ios":"levelo://app?vid=b1429378-b93e-4184-b373-85f0415c9919"},"vehicle_type_id":"4","last_reported":1770640954,"current_range_meters":8800,"station_id":"st_d2m6c4gdas8pm72e190g","pricing_plan_id":"cebpf4jnsgd1na2vs0mg"},{"bike_id":"707ec874-b5a2-4a2d-a9a2-966e6d124f03","system_id":"levelo_inurba_marseille","lat":43.28701,"lon":5.37391,"is_reserved":false,"is_disabled":false,"rental_uris":{"android":"levelo://app?vid=707ec874-b5a2-4a2d-a9a2-966e6d124f03","ios":"levelo://app?vid=707ec874-b5a2-4a2d-a9a2-966e6d124f03"},"vehicle_type_id":"4","last_reported":1770640954,"current_range_meters":8800,"station_id":"ce4bh3p2rcd13ifvqdq0","pricing_plan_id":"cebpf4jnsgd1na2vs0mg"},{"bike_id":"2cdec53d-6be2-4404-91f9-bfd63ab928a6","system_id":"levelo_inurba_marseille","lat":43.25578,"lon":5.38249,"is_reserved":false,"is_disabled":false,"rental_uris":{"android":"levelo://app?vid=2cdec53d-6be2-4404-91f9-bfd63ab928a6","ios":"levelo://app?vid=2cdec53d-6be2-4404-91f9-bfd63ab928a6"},"vehicle_type_id":"4","last_reported":1770640954,"current_range_meters":8800,"station_id":"ce4bhih2rcd13ifvqfs0","pricing_plan_id":"cebpf4jnsgd1na2vs0mg"},{"bike_id":"f8c8c74c-aee3-4b52-a42f-cddfe270a480","system_id":"levelo_inurba_marseille","lat":43.2572,"lon":5.41105,"is_reserved":false,"is_disabled":false,"rental_uris":{"android":"levelo://app?vid=f8c8c74c-aee3-4b52-a42f-cddfe270a480","ios":"levelo://app?vid=f8c8c74c-aee3-4b52-a42f-cddfe270a480"},"vehicle_type_id":"4","last_reported":1770640954,"current_range_meters":8800,"station_id":"ce4bhkp2rcd13ifvqgd0","pricing_plan_id":"cebpf4jnsgd1na2vs0mg"},{"bike_id":"e20506fc-81c8-45aa-af10-6b0aa01b93ce","system_id":"levelo_inurba_marseille","lat":43.25576,"lon":5.38231,"is_reserved":false,"is_disabled":false,"rental_uris":{"android":"levelo://app?vid=e20506fc-81c8-45aa-af10-6b0aa01b93ce","ios":"levelo://app?vid=e20506fc-81c8-45aa-af10-6b0aa01b93ce"},"vehicle_type_id":"4","last_reported":1770640954,"current_range_meters":8800,"station_id":"ce4bhih2rcd13ifvqfs0","pricing_plan_id":"cebpf4jnsgd1na2vs0mg"},{"bike_id":"a36b6f8e-e657-434c-ae48-b869c309949f","system_id":"levelo_inurba_marseille","lat":43.285698,"lon":5.394943,"is_reserved":false,"is_disabled":true,"rental_uris":{"android":"levelo://app?vid=a36b6f8e-e657-434c-ae48-b869c309949f","ios":"levelo://app?vid=a36b6f8e-e657-434c-ae48-b869c309949f"},"vehicle_type_id":"4","last_reported":1770640954,"current_range_meters":8800,"station_id":"ce4bh292rcd13ifvqdg0","pricing_plan_id":"cebpf4jnsgd1na2vs0mg"},{"bike_id":"6f29502f-0cf7-4771-8134-b5e21277421f","system_id":"levelo_inurba_marseille","lat":43.30946,"lon":5.3903,"is_reserved":false,"is_disabled":false,"rental_uris":{"android":"levelo://app?vid=6f29502f-0cf7-4771-8134-b5e21277421f","ios":"levelo://app?vid=6f29502f-0cf7-4771-8134-b5e21277421f"},"vehicle_type_id":"4","last_reported":1770640954,"current_range_meters":8800,"station_id":"ce4bgup2rcd13ifvqco0","pricing_plan_id":"cebpf4jnsgd1na2vs0mg"},{"bike_id":"ab2f3432-4c0e-4e17-b057-2c32757d53e2","system_id":"levelo_inurba_marseille","lat":43.24491,"lon":5.42556,"is_reserved":false,"is_disabled":false,"rental_uris":{"android":"levelo://app?vid=ab2f3432-4c0e-4e17-b057-2c32757d53e2","ios":"levelo://app?vid=ab2f3432-4c0e-4e17-b057-2c32757d53e2"},"vehicle_type_id":"4","last_reported":1770640954,"current_range_meters":8800,"station_id":"st_d4a3vfp97mjs738cd8kg","pricing_plan_id":"cebpf4jnsgd1na2vs0mg"},{"bike_id":"97baf141-ab6b-4a08-bebe-b0f0b4c42187","system_id":"levelo_inurba_marseille","lat":43.24171,"lon":5.36396,"is_reserved":false,"is_disabled":false,"rental_uris":{"android":"levelo://app?vid=97baf141-ab6b-4a08-bebe-b0f0b4c42187","ios":"levelo://app?vid=97baf141-ab6b-4a08-bebe-b0f0b4c42187"},"vehicle_type_id":"4","last_reported":1770640954,"current_range_meters":8800,"station_id":"cpo36qri1sfpv3e86is0","pricing_plan_id":"cebpf4jnsgd1na2vs0mg"},{"bike_id":"b6ef09ed-d357-4465-bd2f-ee587e4263cc","system_id":"levelo_inurba_marseille","lat":43.28458,"lon":5.40996,"is_reserved":false,"is_disabled":false,"rental_uris":{"android":"levelo://app?vid=b6ef09ed-d357-4465-bd2f-ee587e4263cc","ios":"levelo://app?vid=b6ef09ed-d357-4465-bd2f-ee587e4263cc"},"vehicle_type_id":"4","last_reported":1770640954,"current_range_meters":8800,"station_id":"","pricing_plan_id":"cebpf4jnsgd1na2vs0mg"},{"bike_id":"eab93a8a-5504-4a51-b4b2-4e2f94859117","system_id":"levelo_inurba_marseille","lat":43.272088,"lon":5.391777,"is_reserved":false,"is_disabled":false,"rental_uris":{"android":"levelo://app?vid=eab93a8a-5504-4a51-b4b2-4e2f94859117","ios":"levelo://app?vid=eab93a8a-5504-4a51-b4b2-4e2f94859117"},"vehicle_type_id":"4","last_reported":1770640954,"current_range_meters":8800,"station_id":"ce4bhhp2rcd13ifvqfm0","pricing_plan_id":"cebpf4jnsgd1na2vs0mg"},{"bike_id":"af109b45-02d2-41f8-be4b-42b484fd3394","system_id":"levelo_inurba_marseille","lat":43.29903,"lon":5.43672,"is_reserved":false,"is_disabled":false,"rental_uris":{"android":"levelo://app?vid=af109b45-02d2-41f8-be4b-42b484fd3394","ios":"levelo://app?vid=af109b45-02d2-41f8-be4b-42b484fd3394"},"vehicle_type_id":"4","last_reported":1770640954,"current_range_meters":8800,"station_id":"ce4bhpp2rcd13ifvqhfg","pricing_plan_id":"cebpf4jnsgd1na2vs0mg"},{"bike_id":"4240880d-88bf-48aa-91ea-700e773e4fa1","system_id":"levelo_inurba_marseille","lat":43.2561,"lon":5.38222,"is_reserved":false,"is_disabled":false,"rental_uris":{"android":"levelo://app?vid=4240880d-88bf-48aa-91ea-700e773e4fa1","ios":"levelo://app?vid=4240880d-88bf-48aa-91ea-700e773e4fa1"},"vehicle_type_id":"4","last_reported":1770640954,"current_range_meters":9200,"station_id":"ce4bhih2rcd13ifvqfs0","pricing_plan_id":"cebpf4jnsgd1na2vs0mg"},{"bike_id":"54368038-1aa5-4bac-a318-02c8e4c449fa","system_id":"levelo_inurba_marseille","lat":43.23154,"lon":5.43698,"is_reserved":false,"is_disabled":false,"rental_uris":{"android":"levelo://app?vid=54368038-1aa5-4bac-a318-02c8e4c449fa","ios":"levelo://app?vid=54368038-1aa5-4bac-a318-02c8e4c449fa"},"vehicle_type_id":"4","last_reported":1770640954,"current_range_meters":9200,"station_id":"ce4bhmp2rcd13ifvqgog","pricing_plan_id":"cebpf4jnsgd1na2vs0mg"},{"bike_id":"654a8c69-e34e-48fa-b792-a1983317de36","system_id":"levelo_inurba_marseille","lat":43.284712,"lon":5.484225,"is_reserved":false,"is_disabled":false,"rental_uris":{"android":"levelo://app?vid=654a8c69-e34e-48fa-b792-a1983317de36","ios":"levelo://app?vid=654a8c69-e34e-48fa-b792-a1983317de36"},"vehicle_type_id":"4","last_reported":1770640954,"current_range_meters":9200,"station_id":"","pricing_plan_id":"cebpf4jnsgd1na2vs0mg"},{"bike_id":"d90864a0-3e39-4d6f-a6b9-5dcbde7b93cd","system_id":"levelo_inurba_marseille","lat":43.33163,"lon":5.37673,"is_reserved":false,"is_disabled":false,"rental_uris":{"android":"levelo://app?vid=d90864a0-3e39-4d6f-a6b9-5dcbde7b93cd","ios":"levelo://app?vid=d90864a0-3e39-4d6f-a6b9-5dcbde7b93cd"},"vehicle_type_id":"4","last_reported":1770640954,"current_range_meters":9200,"station_id":"st_d46cu089ee8s73dldbu0","pricing_plan_id":"cebpf4jnsgd1na2vs0mg"},{"bike_id":"8789a082-40b6-4b48-a7ba-4195da8e2f77","system_id":"levelo_inurba_marseille","lat":43.23158,"lon":5.43694,"is_reserved":false,"is_disabled":false,"rental_uris":{"android":"levelo://app?vid=8789a082-40b6-4b48-a7ba-4195da8e2f77","ios":"levelo://app?vid=8789a082-40b6-4b48-a7ba-4195da8e2f77"},"vehicle_type_id":"4","last_reported":1770640954,"current_range_meters":9200,"station_id":"ce4bhmp2rcd13ifvqgog","pricing_plan_id":"cebpf4jnsgd1na2vs0mg"},{"bike_id":"3b5567a6-efa3-498b-ad01-b9c12c6390c4","system_id":"levelo_inurba_marseille","lat":43.31725,"lon":5.42398,"is_reserved":false,"is_disabled":false,"rental_uris":{"android":"levelo://app?vid=3b5567a6-efa3-498b-ad01-b9c12c6390c4","ios":"levelo://app?vid=3b5567a6-efa3-498b-ad01-b9c12c6390c4"},"vehicle_type_id":"4","last_reported":1770640954,"current_range_meters":9200,"station_id":"ce4bhp92rcd13ifvqhbg","pricing_plan_id":"cebpf4jnsgd1na2vs0mg"},{"bike_id":"88f0075a-4fe2-4763-bf2c-585ea83a418b","system_id":"levelo_inurba_marseille","lat":43.23159,"lon":5.43697,"is_reserved":false,"is_disabled":false,"rental_uris":{"android":"levelo://app?vid=88f0075a-4fe2-4763-bf2c-585ea83a418b","ios":"levelo://app?vid=88f0075a-4fe2-4763-bf2c-585ea83a418b"},"vehicle_type_id":"4","last_reported":1770640954,"current_range_meters":9200,"station_id":"ce4bhmp2rcd13ifvqgog","pricing_plan_id":"cebpf4jnsgd1na2vs0mg"},{"bike_id":"8d407a28-d240-46ec-a9b0-945ce90b8164","system_id":"levelo_inurba_marseille","lat":43.30938,"lon":5.40137,"is_reserved":false,"is_disabled":false,"rental_uris":{"android":"levelo://app?vid=8d407a28-d240-46ec-a9b0-945ce90b8164","ios":"levelo://app?vid=8d407a28-d240-46ec-a9b0-945ce90b8164"},"vehicle_type_id":"4","last_reported":1770640954,"current_range_meters":9200,"station_id":"ce4bgvp2rcd13ifvqct0","pricing_plan_id":"cebpf4jnsgd1na2vs0mg"},{"bike_id":"30513758-c61b-4fc7-a14e-4781c9806bbc","system_id":"levelo_inurba_marseille","lat":43.31716,"lon":5.42404,"is_reserved":false,"is_disabled":false,"rental_uris":{"android":"levelo://app?vid=30513758-c61b-4fc7-a14e-4781c9806bbc","ios":"levelo://app?vid=30513758-c61b-4fc7-a14e-4781c9806bbc"},"vehicle_type_id":"4","last_reported":1770640954,"current_range_meters":9200,"station_id":"ce4bhp92rcd13ifvqhbg","pricing_plan_id":"cebpf4jnsgd1na2vs0mg"},{"bike_id":"e60a504d-2633-407b-ab82-e9486a72275e","system_id":"levelo_inurba_marseille","lat":43.308382,"lon":5.373978,"is_reserved":false,"is_disabled":false,"rental_uris":{"android":"levelo://app?vid=e60a504d-2633-407b-ab82-e9486a72275e","ios":"levelo://app?vid=e60a504d-2633-407b-ab82-e9486a72275e"},"vehicle_type_id":"4","last_reported":1770640954,"current_range_meters":9200,"station_id":"","pricing_plan_id":"cebpf4jnsgd1na2vs0mg"},{"bike_id":"98fe643a-2789-4fb0-9cb9-57bbe23f949f","system_id":"levelo_inurba_marseille","lat":43.284802,"lon":5.484061,"is_reserved":false,"is_disabled":false,"rental_uris":{"android":"levelo://app?vid=98fe643a-2789-4fb0-9cb9-57bbe23f949f","ios":"levelo://app?vid=98fe643a-2789-4fb0-9cb9-57bbe23f949f"},"vehicle_type_id":"4","last_reported":1770640954,"current_range_meters":9200,"station_id":"st_d3svhcjqgbts73a3dn0g","pricing_plan_id":"cebpf4jnsgd1na2vs0mg"},{"bike_id":"dcffb64c-9bea-40cd-a5fe-c7eeb8475cd8","system_id":"levelo_inurba_marseille","lat":43.30296,"lon":5.37679,"is_reserved":false,"is_disabled":true,"rental_uris":{"android":"levelo://app?vid=dcffb64c-9bea-40cd-a5fe-c7eeb8475cd8","ios":"levelo://app?vid=dcffb64c-9bea-40cd-a5fe-c7eeb8475cd8"},"vehicle_type_id":"4","last_reported":1770640954,"current_range_meters":9600,"station_id":"ce4bguh2rcd13ifvqcj0","pricing_plan_id":"cebpf4jnsgd1na2vs0mg"},{"bike_id":"c704a501-b920-4ba5-82ac-cf3939b9400d","system_id":"levelo_inurba_marseille","lat":43.3122,"lon":5.36895,"is_reserved":false,"is_disabled":false,"rental_uris":{"android":"levelo://app?vid=c704a501-b920-4ba5-82ac-cf3939b9400d","ios":"levelo://app?vid=c704a501-b920-4ba5-82ac-cf3939b9400d"},"vehicle_type_id":"4","last_reported":1770640954,"current_range_meters":9600,"station_id":"ce4bgl92rcd13ifvqbq0","pricing_plan_id":"cebpf4jnsgd1na2vs0mg"},{"bike_id":"04566f04-5f37-4847-8fd9-aad36a20879f","system_id":"levelo_inurba_marseille","lat":43.28935,"lon":5.3964,"is_reserved":false,"is_disabled":false,"rental_uris":{"android":"levelo://app?vid=04566f04-5f37-4847-8fd9-aad36a20879f","ios":"levelo://app?vid=04566f04-5f37-4847-8fd9-aad36a20879f"},"vehicle_type_id":"4","last_reported":1770640954,"current_range_meters":9600,"station_id":"ce4bh3h2rcd13ifvqdn0","pricing_plan_id":"cebpf4jnsgd1na2vs0mg"},{"bike_id":"f1fc2053-4395-4376-9224-a3696af091bf","system_id":"levelo_inurba_marseille","lat":43.305541,"lon":5.365304,"is_reserved":false,"is_disabled":false,"rental_uris":{"android":"levelo://app?vid=f1fc2053-4395-4376-9224-a3696af091bf","ios":"levelo://app?vid=f1fc2053-4395-4376-9224-a3696af091bf"},"vehicle_type_id":"4","last_reported":1770640954,"current_range_meters":9600,"station_id":"ce4bgs12rcd13ifvqcag","pricing_plan_id":"cebpf4jnsgd1na2vs0mg"},{"bike_id":"b7aa4800-191c-4648-bad5-b25ea71c984e","system_id":"levelo_inurba_marseille","lat":43.29011,"lon":5.35616,"is_reserved":false,"is_disabled":false,"rental_uris":{"android":"levelo://app?vid=b7aa4800-191c-4648-bad5-b25ea71c984e","ios":"levelo://app?vid=b7aa4800-191c-4648-bad5-b25ea71c984e"},"vehicle_type_id":"4","last_reported":1770640954,"current_range_meters":9600,"station_id":"ce4bhb92rcd13ifvqen0","pricing_plan_id":"cebpf4jnsgd1na2vs0mg"},{"bike_id":"05d628e9-781f-4f77-a9a7-087d759ed084","system_id":"levelo_inurba_marseille","lat":43.229279,"lon":5.353806,"is_reserved":false,"is_disabled":false,"rental_uris":{"android":"levelo://app?vid=05d628e9-781f-4f77-a9a7-087d759ed084","ios":"levelo://app?vid=05d628e9-781f-4f77-a9a7-087d759ed084"},"vehicle_type_id":"4","last_reported":1770640954,"current_range_meters":9600,"station_id":"cpo3532slgdg3j2ikp40","pricing_plan_id":"cebpf4jnsgd1na2vs0mg"},{"bike_id":"f12f6f11-1feb-482e-8dc3-a79b8963e979","system_id":"levelo_inurba_marseille","lat":43.3354,"lon":5.37462,"is_reserved":false,"is_disabled":false,"rental_uris":{"android":"levelo://app?vid=f12f6f11-1feb-482e-8dc3-a79b8963e979","ios":"levelo://app?vid=f12f6f11-1feb-482e-8dc3-a79b8963e979"},"vehicle_type_id":"4","last_reported":1770640954,"current_range_meters":9600,"station_id":"st_d46tts09ee8s73dlu43g","pricing_plan_id":"cebpf4jnsgd1na2vs0mg"},{"bike_id":"a948137a-4200-4a90-ae91-35161837f029","system_id":"levelo_inurba_marseille","lat":43.3063,"lon":5.37674,"is_reserved":false,"is_disabled":false,"rental_uris":{"android":"levelo://app?vid=a948137a-4200-4a90-ae91-35161837f029","ios":"levelo://app?vid=a948137a-4200-4a90-ae91-35161837f029"},"vehicle_type_id":"4","last_reported":1770640954,"current_range_meters":9600,"station_id":"","pricing_plan_id":"cebpf4jnsgd1na2vs0mg"},{"bike_id":"bfc07130-be47-4eef-8325-e33d6610d729","system_id":"levelo_inurba_marseille","lat":43.301214,"lon":5.431151,"is_reserved":false,"is_disabled":false,"rental_uris":{"android":"levelo://app?vid=bfc07130-be47-4eef-8325-e33d6610d729","ios":"levelo://app?vid=bfc07130-be47-4eef-8325-e33d6610d729"},"vehicle_type_id":"4","last_reported":1770640954,"current_range_meters":10000,"station_id":"st_d3js3co5814s73ftftug","pricing_plan_id":"cebpf4jnsgd1na2vs0mg"},{"bike_id":"8084258d-a7c8-4363-a201-239bfd403d14","system_id":"levelo_inurba_marseille","lat":43.30278,"lon":5.37714,"is_reserved":false,"is_disabled":false,"rental_uris":{"android":"levelo://app?vid=8084258d-a7c8-4363-a201-239bfd403d14","ios":"levelo://app?vid=8084258d-a7c8-4363-a201-239bfd403d14"},"vehicle_type_id":"4","last_reported":1770640954,"current_range_meters":10000,"station_id":"ce4bguh2rcd13ifvqcj0","pricing_plan_id":"cebpf4jnsgd1na2vs0mg"},{"bike_id":"81089c31-0f23-400c-91cf-65461521d37b","system_id":"levelo_inurba_marseille","lat":43.25844,"lon":5.3941,"is_reserved":false,"is_disabled":false,"rental_uris":{"android":"levelo://app?vid=81089c31-0f23-400c-91cf-65461521d37b","ios":"levelo://app?vid=81089c31-0f23-400c-91cf-65461521d37b"},"vehicle_type_id":"4","last_reported":1770640954,"current_range_meters":10000,"station_id":"ce4bhip2rcd13ifvqft0","pricing_plan_id":"cebpf4jnsgd1na2vs0mg"},{"bike_id":"652029fd-7389-40d5-a0bd-e85f7aa43d7c","system_id":"levelo_inurba_marseille","lat":43.22563,"lon":5.4163,"is_reserved":false,"is_disabled":false,"rental_uris":{"android":"levelo://app?vid=652029fd-7389-40d5-a0bd-e85f7aa43d7c","ios":"levelo://app?vid=652029fd-7389-40d5-a0bd-e85f7aa43d7c"},"vehicle_type_id":"4","last_reported":1770640954,"current_range_meters":10000,"station_id":"st_d2o4gvlbi1j2169b742g","pricing_plan_id":"cebpf4jnsgd1na2vs0mg"},{"bike_id":"ee213b40-802c-442b-9390-5e22834db5df","system_id":"levelo_inurba_marseille","lat":43.2417,"lon":5.36404,"is_reserved":false,"is_disabled":false,"rental_uris":{"android":"levelo://app?vid=ee213b40-802c-442b-9390-5e22834db5df","ios":"levelo://app?vid=ee213b40-802c-442b-9390-5e22834db5df"},"vehicle_type_id":"4","last_reported":1770640954,"current_range_meters":10000,"station_id":"cpo36qri1sfpv3e86is0","pricing_plan_id":"cebpf4jnsgd1na2vs0mg"},{"bike_id":"eb988073-8fe7-4bb4-897d-222ac9bc4a1f","system_id":"levelo_inurba_marseille","lat":43.25863,"lon":5.39906,"is_reserved":false,"is_disabled":false,"rental_uris":{"android":"levelo://app?vid=eb988073-8fe7-4bb4-897d-222ac9bc4a1f","ios":"levelo://app?vid=eb988073-8fe7-4bb4-897d-222ac9bc4a1f"},"vehicle_type_id":"4","last_reported":1770640954,"current_range_meters":10000,"station_id":"ce4bhl92rcd13ifvqghg","pricing_plan_id":"cebpf4jnsgd1na2vs0mg"},{"bike_id":"cc9d8b4e-9bda-47b4-8088-3f93b11014d1","system_id":"levelo_inurba_marseille","lat":43.25226,"lon":5.40701,"is_reserved":false,"is_disabled":false,"rental_uris":{"android":"levelo://app?vid=cc9d8b4e-9bda-47b4-8088-3f93b11014d1","ios":"levelo://app?vid=cc9d8b4e-9bda-47b4-8088-3f93b11014d1"},"vehicle_type_id":"4","last_reported":1770640954,"current_range_meters":10000,"station_id":"","pricing_plan_id":"cebpf4jnsgd1na2vs0mg"},{"bike_id":"85dd1ff3-48fb-473b-a6b8-2f438c995677","system_id":"levelo_inurba_marseille","lat":43.29894,"lon":5.43659,"is_reserved":false,"is_disabled":false,"rental_uris":{"android":"levelo://app?vid=85dd1ff3-48fb-473b-a6b8-2f438c995677","ios":"levelo://app?vid=85dd1ff3-48fb-473b-a6b8-2f438c995677"},"vehicle_type_id":"4","last_reported":1770640954,"current_range_meters":10000,"station_id":"ce4bhpp2rcd13ifvqhfg","pricing_plan_id":"cebpf4jnsgd1na2vs0mg"},{"bike_id":"5f7df976-2770-4b0d-bd16-1a5d3e4bd86a","system_id":"levelo_inurba_marseille","lat":43.26025,"lon":5.3755,"is_reserved":false,"is_disabled":false,"rental_uris":{"android":"levelo://app?vid=5f7df976-2770-4b0d-bd16-1a5d3e4bd86a","ios":"levelo://app?vid=5f7df976-2770-4b0d-bd16-1a5d3e4bd86a"},"vehicle_type_id":"4","last_reported":1770640954,"current_range_meters":10000,"station_id":"ce4bhgh2rcd13ifvqfa0","pricing_plan_id":"cebpf4jnsgd1na2vs0mg"},{"bike_id":"6da7b2c8-ded6-41b1-b326-7acbfdccc073","system_id":"levelo_inurba_marseille","lat":43.29656,"lon":5.38027,"is_reserved":false,"is_disabled":false,"rental_uris":{"android":"levelo://app?vid=6da7b2c8-ded6-41b1-b326-7acbfdccc073","ios":"levelo://app?vid=6da7b2c8-ded6-41b1-b326-7acbfdccc073"},"vehicle_type_id":"4","last_reported":1770640954,"current_range_meters":10000,"station_id":"","pricing_plan_id":"cebpf4jnsgd1na2vs0mg"},{"bike_id":"f62a384c-82ea-406f-b454-65dc89a8251e","system_id":"levelo_inurba_marseille","lat":43.28011,"lon":5.41106,"is_reserved":false,"is_disabled":false,"rental_uris":{"android":"levelo://app?vid=f62a384c-82ea-406f-b454-65dc89a8251e","ios":"levelo://app?vid=f62a384c-82ea-406f-b454-65dc89a8251e"},"vehicle_type_id":"4","last_reported":1770640954,"current_range_meters":10000,"station_id":"","pricing_plan_id":"cebpf4jnsgd1na2vs0mg"},{"bike_id":"3f613fb8-4a1c-4997-ac2c-693b9c75a794","system_id":"levelo_inurba_marseille","lat":43.30561,"lon":5.366659,"is_reserved":false,"is_disabled":false,"rental_uris":{"android":"levelo://app?vid=3f613fb8-4a1c-4997-ac2c-693b9c75a794","ios":"levelo://app?vid=3f613fb8-4a1c-4997-ac2c-693b9c75a794"},"vehicle_type_id":"4","last_reported":1770640954,"current_range_meters":10000,"station_id":"ce4bgrp2rcd13ifvqc9g","pricing_plan_id":"cebpf4jnsgd1na2vs0mg"},{"bike_id":"9afb2f8c-959c-475c-aee4-864089796f55","system_id":"levelo_inurba_marseille","lat":43.28563,"lon":5.44089,"is_reserved":false,"is_disabled":false,"rental_uris":{"android":"levelo://app?vid=9afb2f8c-959c-475c-aee4-864089796f55","ios":"levelo://app?vid=9afb2f8c-959c-475c-aee4-864089796f55"},"vehicle_type_id":"4","last_reported":1770640954,"current_range_meters":10000,"station_id":"st_d3j3df2ikq2c7380ej80","pricing_plan_id":"cebpf4jnsgd1na2vs0mg"},{"bike_id":"8421ab96-057e-4c56-8da9-39ca27ce7356","system_id":"levelo_inurba_marseille","lat":43.29972,"lon":5.41314,"is_reserved":false,"is_disabled":false,"rental_uris":{"android":"levelo://app?vid=8421ab96-057e-4c56-8da9-39ca27ce7356","ios":"levelo://app?vid=8421ab96-057e-4c56-8da9-39ca27ce7356"},"vehicle_type_id":"4","last_reported":1770640954,"current_range_meters":10000,"station_id":"ce4bhp12rcd13ifvqh9g","pricing_plan_id":"cebpf4jnsgd1na2vs0mg"},{"bike_id":"6f387dae-813b-46d7-a64a-f5ba6a352621","system_id":"levelo_inurba_marseille","lat":43.266828,"lon":5.382726,"is_reserved":false,"is_disabled":false,"rental_uris":{"android":"levelo://app?vid=6f387dae-813b-46d7-a64a-f5ba6a352621","ios":"levelo://app?vid=6f387dae-813b-46d7-a64a-f5ba6a352621"},"vehicle_type_id":"4","last_reported":1770640954,"current_range_meters":10000,"station_id":"ce4bhg92rcd13ifvqf90","pricing_plan_id":"cebpf4jnsgd1na2vs0mg"},{"bike_id":"4657966d-f1c0-4b2c-8e2d-612a3de62de6","system_id":"levelo_inurba_marseille","lat":43.29035,"lon":5.39965,"is_reserved":false,"is_disabled":false,"rental_uris":{"android":"levelo://app?vid=4657966d-f1c0-4b2c-8e2d-612a3de62de6","ios":"levelo://app?vid=4657966d-f1c0-4b2c-8e2d-612a3de62de6"},"vehicle_type_id":"4","last_reported":1770640954,"current_range_meters":10000,"station_id":"ce4bh392rcd13ifvqdm0","pricing_plan_id":"cebpf4jnsgd1na2vs0mg"},{"bike_id":"19d4a2bd-dcb3-461f-a80e-a14f4a93d837","system_id":"levelo_inurba_marseille","lat":43.29536,"lon":5.39401,"is_reserved":false,"is_disabled":false,"rental_uris":{"android":"levelo://app?vid=19d4a2bd-dcb3-461f-a80e-a14f4a93d837","ios":"levelo://app?vid=19d4a2bd-dcb3-461f-a80e-a14f4a93d837"},"vehicle_type_id":"4","last_reported":1770640954,"current_range_meters":10000,"station_id":"ce4bh292rcd13ifvqdf0","pricing_plan_id":"cebpf4jnsgd1na2vs0mg"},{"bike_id":"65653ad0-a964-4762-8fd7-873f72cb3e9d","system_id":"levelo_inurba_marseille","lat":43.28705,"lon":5.37926,"is_reserved":false,"is_disabled":false,"rental_uris":{"android":"levelo://app?vid=65653ad0-a964-4762-8fd7-873f72cb3e9d","ios":"levelo://app?vid=65653ad0-a964-4762-8fd7-873f72cb3e9d"},"vehicle_type_id":"4","last_reported":1770640954,"current_range_meters":10000,"station_id":"ce4bh9p2rcd13ifvqec0","pricing_plan_id":"cebpf4jnsgd1na2vs0mg"},{"bike_id":"41489d1d-8f65-4acc-ad4a-a6a8dc9439fd","system_id":"levelo_inurba_marseille","lat":43.29418,"lon":5.41329,"is_reserved":false,"is_disabled":false,"rental_uris":{"android":"levelo://app?vid=41489d1d-8f65-4acc-ad4a-a6a8dc9439fd","ios":"levelo://app?vid=41489d1d-8f65-4acc-ad4a-a6a8dc9439fd"},"vehicle_type_id":"4","last_reported":1770640954,"current_range_meters":10000,"station_id":"","pricing_plan_id":"cebpf4jnsgd1na2vs0mg"},{"bike_id":"855a3475-1980-4d64-b472-752292241c3d","system_id":"levelo_inurba_marseille","lat":43.29532,"lon":5.43337,"is_reserved":false,"is_disabled":false,"rental_uris":{"android":"levelo://app?vid=855a3475-1980-4d64-b472-752292241c3d","ios":"levelo://app?vid=855a3475-1980-4d64-b472-752292241c3d"},"vehicle_type_id":"4","last_reported":1770640954,"current_range_meters":10000,"station_id":"st_d3j5ugp08ojc73fj9d10","pricing_plan_id":"cebpf4jnsgd1na2vs0mg"},{"bike_id":"29dced35-e380-4021-a625-fb42f9a9138f","system_id":"levelo_inurba_marseille","lat":43.24383,"lon":5.37044,"is_reserved":false,"is_disabled":false,"rental_uris":{"android":"levelo://app?vid=29dced35-e380-4021-a625-fb42f9a9138f","ios":"levelo://app?vid=29dced35-e380-4021-a625-fb42f9a9138f"},"vehicle_type_id":"4","last_reported":1770640954,"current_range_meters":10800,"station_id":"ce4bhhh2rcd13ifvqfk0","pricing_plan_id":"cebpf4jnsgd1na2vs0mg"},{"bike_id":"8ae17b81-0000-4570-ac79-fe68f254c27c","system_id":"levelo_inurba_marseille","lat":43.29655,"lon":5.37655,"is_reserved":false,"is_disabled":true,"rental_uris":{"android":"levelo://app?vid=8ae17b81-0000-4570-ac79-fe68f254c27c","ios":"levelo://app?vid=8ae17b81-0000-4570-ac79-fe68f254c27c"},"vehicle_type_id":"4","last_reported":1770640954,"current_range_meters":10800,"station_id":"","pricing_plan_id":"cebpf4jnsgd1na2vs0mg"},{"bike_id":"6343840c-4812-4223-bfc5-5dc186440fa9","system_id":"levelo_inurba_marseille","lat":43.31356,"lon":5.384815,"is_reserved":false,"is_disabled":false,"rental_uris":{"android":"levelo://app?vid=6343840c-4812-4223-bfc5-5dc186440fa9","ios":"levelo://app?vid=6343840c-4812-4223-bfc5-5dc186440fa9"},"vehicle_type_id":"4","last_reported":1770640954,"current_range_meters":10800,"station_id":"ce4bgt92rcd13ifvqcf0","pricing_plan_id":"cebpf4jnsgd1na2vs0mg"},{"bike_id":"30dcf271-c66c-4ee7-94a9-1e221751bad2","system_id":"levelo_inurba_marseille","lat":43.25941,"lon":5.40866,"is_reserved":false,"is_disabled":false,"rental_uris":{"android":"levelo://app?vid=30dcf271-c66c-4ee7-94a9-1e221751bad2","ios":"levelo://app?vid=30dcf271-c66c-4ee7-94a9-1e221751bad2"},"vehicle_type_id":"4","last_reported":1770640954,"current_range_meters":10800,"station_id":"ce4bhm92rcd13ifvqglg","pricing_plan_id":"cebpf4jnsgd1na2vs0mg"},{"bike_id":"6aa6da6f-1976-49d0-ac99-282daecf7451","system_id":"levelo_inurba_marseille","lat":43.24076,"lon":5.37761,"is_reserved":false,"is_disabled":false,"rental_uris":{"android":"levelo://app?vid=6aa6da6f-1976-49d0-ac99-282daecf7451","ios":"levelo://app?vid=6aa6da6f-1976-49d0-ac99-282daecf7451"},"vehicle_type_id":"4","last_reported":1770640954,"current_range_meters":10800,"station_id":"ce4bhnp2rcd13ifvqgvg","pricing_plan_id":"cebpf4jnsgd1na2vs0mg"},{"bike_id":"d587feeb-d002-423c-a60d-ce0bbea9f2cb","system_id":"levelo_inurba_marseille","lat":43.29036,"lon":5.39995,"is_reserved":false,"is_disabled":false,"rental_uris":{"android":"levelo://app?vid=d587feeb-d002-423c-a60d-ce0bbea9f2cb","ios":"levelo://app?vid=d587feeb-d002-423c-a60d-ce0bbea9f2cb"},"vehicle_type_id":"4","last_reported":1770640954,"current_range_meters":10800,"station_id":"ce4bh392rcd13ifvqdm0","pricing_plan_id":"cebpf4jnsgd1na2vs0mg"},{"bike_id":"a1a1e459-dc33-458a-a156-5735d4cb79a9","system_id":"levelo_inurba_marseille","lat":43.29565,"lon":5.42263,"is_reserved":false,"is_disabled":false,"rental_uris":{"android":"levelo://app?vid=a1a1e459-dc33-458a-a156-5735d4cb79a9","ios":"levelo://app?vid=a1a1e459-dc33-458a-a156-5735d4cb79a9"},"vehicle_type_id":"4","last_reported":1770640954,"current_range_meters":10800,"station_id":"ce4bhph2rcd13ifvqhdg","pricing_plan_id":"cebpf4jnsgd1na2vs0mg"},{"bike_id":"c11b48aa-5b4e-4ac0-bbcc-eafa246b4e92","system_id":"levelo_inurba_marseille","lat":43.27615,"lon":5.36117,"is_reserved":false,"is_disabled":false,"rental_uris":{"android":"levelo://app?vid=c11b48aa-5b4e-4ac0-bbcc-eafa246b4e92","ios":"levelo://app?vid=c11b48aa-5b4e-4ac0-bbcc-eafa246b4e92"},"vehicle_type_id":"4","last_reported":1770640954,"current_range_meters":10800,"station_id":"ce4bgj92rcd13ifvqbe0","pricing_plan_id":"cebpf4jnsgd1na2vs0mg"},{"bike_id":"c43c57b1-9914-4106-b784-896825e244bb","system_id":"levelo_inurba_marseille","lat":43.292774,"lon":5.368403,"is_reserved":false,"is_disabled":false,"rental_uris":{"android":"levelo://app?vid=c43c57b1-9914-4106-b784-896825e244bb","ios":"levelo://app?vid=c43c57b1-9914-4106-b784-896825e244bb"},"vehicle_type_id":"4","last_reported":1770640954,"current_range_meters":10800,"station_id":"ce4bhbp2rcd13ifvqesg","pricing_plan_id":"cebpf4jnsgd1na2vs0mg"},{"bike_id":"46b69bcd-f35a-433e-b9f1-16ab03d0ac0e","system_id":"levelo_inurba_marseille","lat":43.258717,"lon":5.39905,"is_reserved":false,"is_disabled":false,"rental_uris":{"android":"levelo://app?vid=46b69bcd-f35a-433e-b9f1-16ab03d0ac0e","ios":"levelo://app?vid=46b69bcd-f35a-433e-b9f1-16ab03d0ac0e"},"vehicle_type_id":"4","last_reported":1770640954,"current_range_meters":10800,"station_id":"ce4bhl92rcd13ifvqghg","pricing_plan_id":"cebpf4jnsgd1na2vs0mg"},{"bike_id":"5d86506f-f4ce-4e04-998c-995692a6b98c","system_id":"levelo_inurba_marseille","lat":43.2121,"lon":5.35079,"is_reserved":false,"is_disabled":false,"rental_uris":{"android":"levelo://app?vid=5d86506f-f4ce-4e04-998c-995692a6b98c","ios":"levelo://app?vid=5d86506f-f4ce-4e04-998c-995692a6b98c"},"vehicle_type_id":"4","last_reported":1770640954,"current_range_meters":10800,"station_id":"st_cvj6sg6p6f1abm77japg","pricing_plan_id":"cebpf4jnsgd1na2vs0mg"},{"bike_id":"89446920-5bad-4011-b083-61088b42ddfa","system_id":"levelo_inurba_marseille","lat":43.24813,"lon":5.37446,"is_reserved":false,"is_disabled":false,"rental_uris":{"android":"levelo://app?vid=89446920-5bad-4011-b083-61088b42ddfa","ios":"levelo://app?vid=89446920-5bad-4011-b083-61088b42ddfa"},"vehicle_type_id":"4","last_reported":1770640954,"current_range_meters":10800,"station_id":"ce4bhgh2rcd13ifvqfb0","pricing_plan_id":"cebpf4jnsgd1na2vs0mg"},{"bike_id":"990e96c3-1411-40db-8c41-21f5095438bf","system_id":"levelo_inurba_marseille","lat":43.30578,"lon":5.36605,"is_reserved":false,"is_disabled":false,"rental_uris":{"android":"levelo://app?vid=990e96c3-1411-40db-8c41-21f5095438bf","ios":"levelo://app?vid=990e96c3-1411-40db-8c41-21f5095438bf"},"vehicle_type_id":"4","last_reported":1770640954,"current_range_meters":10800,"station_id":"ce4bgs12rcd13ifvqcag","pricing_plan_id":"cebpf4jnsgd1na2vs0mg"},{"bike_id":"f07b7fa7-6ce0-456e-86f3-e3d7f84f670c","system_id":"levelo_inurba_marseille","lat":43.30359,"lon":5.41875,"is_reserved":false,"is_disabled":false,"rental_uris":{"android":"levelo://app?vid=f07b7fa7-6ce0-456e-86f3-e3d7f84f670c","ios":"levelo://app?vid=f07b7fa7-6ce0-456e-86f3-e3d7f84f670c"},"vehicle_type_id":"4","last_reported":1770640954,"current_range_meters":10800,"station_id":"ce4bhop2rcd13ifvqh7g","pricing_plan_id":"cebpf4jnsgd1na2vs0mg"},{"bike_id":"fbf2ee9c-6bb8-4094-8b37-53871d20f3ba","system_id":"levelo_inurba_marseille","lat":43.31354,"lon":5.3674,"is_reserved":false,"is_disabled":false,"rental_uris":{"android":"levelo://app?vid=fbf2ee9c-6bb8-4094-8b37-53871d20f3ba","ios":"levelo://app?vid=fbf2ee9c-6bb8-4094-8b37-53871d20f3ba"},"vehicle_type_id":"4","last_reported":1770640954,"current_range_meters":10800,"station_id":"ce4bgr92rcd13ifvqc6g","pricing_plan_id":"cebpf4jnsgd1na2vs0mg"},{"bike_id":"22d8d839-db4c-4efa-bd5d-d78efaca55ca","system_id":"levelo_inurba_marseille","lat":43.25575,"lon":5.3824,"is_reserved":false,"is_disabled":false,"rental_uris":{"android":"levelo://app?vid=22d8d839-db4c-4efa-bd5d-d78efaca55ca","ios":"levelo://app?vid=22d8d839-db4c-4efa-bd5d-d78efaca55ca"},"vehicle_type_id":"4","last_reported":1770640954,"current_range_meters":10800,"station_id":"ce4bhih2rcd13ifvqfs0","pricing_plan_id":"cebpf4jnsgd1na2vs0mg"},{"bike_id":"c067ca78-bad6-401b-90fb-e71f131a6d8e","system_id":"levelo_inurba_marseille","lat":43.24464,"lon":5.42546,"is_reserved":false,"is_disabled":false,"rental_uris":{"android":"levelo://app?vid=c067ca78-bad6-401b-90fb-e71f131a6d8e","ios":"levelo://app?vid=c067ca78-bad6-401b-90fb-e71f131a6d8e"},"vehicle_type_id":"4","last_reported":1770640954,"current_range_meters":10800,"station_id":"st_d4a3vfp97mjs738cd8kg","pricing_plan_id":"cebpf4jnsgd1na2vs0mg"},{"bike_id":"534d0005-0d9d-4965-ae77-43e2af08857e","system_id":"levelo_inurba_marseille","lat":43.26374,"lon":5.41042,"is_reserved":false,"is_disabled":false,"rental_uris":{"android":"levelo://app?vid=534d0005-0d9d-4965-ae77-43e2af08857e","ios":"levelo://app?vid=534d0005-0d9d-4965-ae77-43e2af08857e"},"vehicle_type_id":"4","last_reported":1770640954,"current_range_meters":10800,"station_id":"st_d4e5ca6na9uc73bfl5fg","pricing_plan_id":"cebpf4jnsgd1na2vs0mg"},{"bike_id":"1d84a6a9-53dd-4546-9d02-4bb696d8451e","system_id":"levelo_inurba_marseille","lat":43.31691,"lon":5.37649,"is_reserved":false,"is_disabled":false,"rental_uris":{"android":"levelo://app?vid=1d84a6a9-53dd-4546-9d02-4bb696d8451e","ios":"levelo://app?vid=1d84a6a9-53dd-4546-9d02-4bb696d8451e"},"vehicle_type_id":"4","last_reported":1770640954,"current_range_meters":10800,"station_id":"","pricing_plan_id":"cebpf4jnsgd1na2vs0mg"},{"bike_id":"e0e62f17-5475-416c-8879-ceaa3f1d92bf","system_id":"levelo_inurba_marseille","lat":43.24076,"lon":5.37756,"is_reserved":false,"is_disabled":false,"rental_uris":{"android":"levelo://app?vid=e0e62f17-5475-416c-8879-ceaa3f1d92bf","ios":"levelo://app?vid=e0e62f17-5475-416c-8879-ceaa3f1d92bf"},"vehicle_type_id":"4","last_reported":1770640954,"current_range_meters":10800,"station_id":"ce4bhnp2rcd13ifvqgvg","pricing_plan_id":"cebpf4jnsgd1na2vs0mg"},{"bike_id":"08e4a71e-fd18-42f7-99a6-0fba09c7fecc","system_id":"levelo_inurba_marseille","lat":43.231475,"lon":5.43725,"is_reserved":false,"is_disabled":false,"rental_uris":{"android":"levelo://app?vid=08e4a71e-fd18-42f7-99a6-0fba09c7fecc","ios":"levelo://app?vid=08e4a71e-fd18-42f7-99a6-0fba09c7fecc"},"vehicle_type_id":"4","last_reported":1770640954,"current_range_meters":11200,"station_id":"ce4bhmp2rcd13ifvqgog","pricing_plan_id":"cebpf4jnsgd1na2vs0mg"},{"bike_id":"05abb5d5-7a0f-4692-a6b6-119f614f1bb6","system_id":"levelo_inurba_marseille","lat":43.25595,"lon":5.38276,"is_reserved":false,"is_disabled":false,"rental_uris":{"android":"levelo://app?vid=05abb5d5-7a0f-4692-a6b6-119f614f1bb6","ios":"levelo://app?vid=05abb5d5-7a0f-4692-a6b6-119f614f1bb6"},"vehicle_type_id":"4","last_reported":1770640954,"current_range_meters":11200,"station_id":"ce4bhih2rcd13ifvqfs0","pricing_plan_id":"cebpf4jnsgd1na2vs0mg"},{"bike_id":"ab9f6fde-8484-4db4-98f1-a583df2c80cc","system_id":"levelo_inurba_marseille","lat":43.25105,"lon":5.40327,"is_reserved":false,"is_disabled":false,"rental_uris":{"android":"levelo://app?vid=ab9f6fde-8484-4db4-98f1-a583df2c80cc","ios":"levelo://app?vid=ab9f6fde-8484-4db4-98f1-a583df2c80cc"},"vehicle_type_id":"4","last_reported":1770640954,"current_range_meters":11200,"station_id":"ce4bhlh2rcd13ifvqgig","pricing_plan_id":"cebpf4jnsgd1na2vs0mg"},{"bike_id":"ffbe3718-fb64-481b-bbfe-6664f18f61cb","system_id":"levelo_inurba_marseille","lat":43.24657,"lon":5.4312,"is_reserved":false,"is_disabled":false,"rental_uris":{"android":"levelo://app?vid=ffbe3718-fb64-481b-bbfe-6664f18f61cb","ios":"levelo://app?vid=ffbe3718-fb64-481b-bbfe-6664f18f61cb"},"vehicle_type_id":"4","last_reported":1770640954,"current_range_meters":11200,"station_id":"st_d2m6c4gdas8pm72e190g","pricing_plan_id":"cebpf4jnsgd1na2vs0mg"},{"bike_id":"cbc40f0e-c367-448b-90ea-5a0e1e4f4ac2","system_id":"levelo_inurba_marseille","lat":43.26567,"lon":5.40346,"is_reserved":false,"is_disabled":false,"rental_uris":{"android":"levelo://app?vid=cbc40f0e-c367-448b-90ea-5a0e1e4f4ac2","ios":"levelo://app?vid=cbc40f0e-c367-448b-90ea-5a0e1e4f4ac2"},"vehicle_type_id":"4","last_reported":1770640954,"current_range_meters":11200,"station_id":"ce4bhmp2rcd13ifvqgng","pricing_plan_id":"cebpf4jnsgd1na2vs0mg"},{"bike_id":"fd26d1c5-b1c5-423d-91d3-56da6f563925","system_id":"levelo_inurba_marseille","lat":43.33136,"lon":5.37711,"is_reserved":false,"is_disabled":false,"rental_uris":{"android":"levelo://app?vid=fd26d1c5-b1c5-423d-91d3-56da6f563925","ios":"levelo://app?vid=fd26d1c5-b1c5-423d-91d3-56da6f563925"},"vehicle_type_id":"4","last_reported":1770640954,"current_range_meters":11200,"station_id":"st_d46cu089ee8s73dldbu0","pricing_plan_id":"cebpf4jnsgd1na2vs0mg"},{"bike_id":"b0577ca1-afa8-48fa-be5c-f4673c1a2294","system_id":"levelo_inurba_marseille","lat":43.27979,"lon":5.41307,"is_reserved":false,"is_disabled":false,"rental_uris":{"android":"levelo://app?vid=b0577ca1-afa8-48fa-be5c-f4673c1a2294","ios":"levelo://app?vid=b0577ca1-afa8-48fa-be5c-f4673c1a2294"},"vehicle_type_id":"4","last_reported":1770640954,"current_range_meters":11200,"station_id":"","pricing_plan_id":"cebpf4jnsgd1na2vs0mg"},{"bike_id":"914bd365-2174-44e8-81f6-c3c68ba64874","system_id":"levelo_inurba_marseille","lat":43.23189,"lon":5.3998,"is_reserved":false,"is_disabled":false,"rental_uris":{"android":"levelo://app?vid=914bd365-2174-44e8-81f6-c3c68ba64874","ios":"levelo://app?vid=914bd365-2174-44e8-81f6-c3c68ba64874"},"vehicle_type_id":"4","last_reported":1770640954,"current_range_meters":11200,"station_id":"ce4bhn12rcd13ifvqgqg","pricing_plan_id":"cebpf4jnsgd1na2vs0mg"},{"bike_id":"f91f91e7-cb75-4d46-ab53-f570e2e26557","system_id":"levelo_inurba_marseille","lat":43.27678,"lon":5.38077,"is_reserved":false,"is_disabled":false,"rental_uris":{"android":"levelo://app?vid=f91f91e7-cb75-4d46-ab53-f570e2e26557","ios":"levelo://app?vid=f91f91e7-cb75-4d46-ab53-f570e2e26557"},"vehicle_type_id":"4","last_reported":1770640954,"current_range_meters":11200,"station_id":"","pricing_plan_id":"cebpf4jnsgd1na2vs0mg"},{"bike_id":"e0450db0-c8b3-4403-bc43-ed5a007877b8","system_id":"levelo_inurba_marseille","lat":43.24641,"lon":5.4313,"is_reserved":false,"is_disabled":false,"rental_uris":{"android":"levelo://app?vid=e0450db0-c8b3-4403-bc43-ed5a007877b8","ios":"levelo://app?vid=e0450db0-c8b3-4403-bc43-ed5a007877b8"},"vehicle_type_id":"4","last_reported":1770640954,"current_range_meters":11600,"station_id":"st_d2m6c4gdas8pm72e190g","pricing_plan_id":"cebpf4jnsgd1na2vs0mg"},{"bike_id":"50b635d3-0b93-40ca-af60-8fdd9b2f83d2","system_id":"levelo_inurba_marseille","lat":43.298,"lon":5.38095,"is_reserved":false,"is_disabled":true,"rental_uris":{"android":"levelo://app?vid=50b635d3-0b93-40ca-af60-8fdd9b2f83d2","ios":"levelo://app?vid=50b635d3-0b93-40ca-af60-8fdd9b2f83d2"},"vehicle_type_id":"4","last_reported":1770640954,"current_range_meters":11600,"station_id":"ce4bgip2rcd13ifvqbb0","pricing_plan_id":"cebpf4jnsgd1na2vs0mg"},{"bike_id":"38370158-fe74-49c7-b2b0-0072e2c97500","system_id":"levelo_inurba_marseille","lat":43.22938,"lon":5.35394,"is_reserved":false,"is_disabled":false,"rental_uris":{"android":"levelo://app?vid=38370158-fe74-49c7-b2b0-0072e2c97500","ios":"levelo://app?vid=38370158-fe74-49c7-b2b0-0072e2c97500"},"vehicle_type_id":"4","last_reported":1770640954,"current_range_meters":11600,"station_id":"cpo3532slgdg3j2ikp40","pricing_plan_id":"cebpf4jnsgd1na2vs0mg"},{"bike_id":"27267fc6-f735-4e4b-a5ed-432bd8592e5c","system_id":"levelo_inurba_marseille","lat":43.296284,"lon":5.377342,"is_reserved":false,"is_disabled":false,"rental_uris":{"android":"levelo://app?vid=27267fc6-f735-4e4b-a5ed-432bd8592e5c","ios":"levelo://app?vid=27267fc6-f735-4e4b-a5ed-432bd8592e5c"},"vehicle_type_id":"4","last_reported":1770640954,"current_range_meters":11600,"station_id":"ce4bgi92rcd13ifvqb90","pricing_plan_id":"cebpf4jnsgd1na2vs0mg"},{"bike_id":"55ecadcd-30c2-40a8-ba9d-10339521f492","system_id":"levelo_inurba_marseille","lat":43.24804,"lon":5.37456,"is_reserved":false,"is_disabled":false,"rental_uris":{"android":"levelo://app?vid=55ecadcd-30c2-40a8-ba9d-10339521f492","ios":"levelo://app?vid=55ecadcd-30c2-40a8-ba9d-10339521f492"},"vehicle_type_id":"4","last_reported":1770640954,"current_range_meters":11600,"station_id":"ce4bhgh2rcd13ifvqfb0","pricing_plan_id":"cebpf4jnsgd1na2vs0mg"},{"bike_id":"b84f2022-aa92-4dff-a27a-e10b4cfb90e9","system_id":"levelo_inurba_marseille","lat":43.28416,"lon":5.34981,"is_reserved":false,"is_disabled":false,"rental_uris":{"android":"levelo://app?vid=b84f2022-aa92-4dff-a27a-e10b4cfb90e9","ios":"levelo://app?vid=b84f2022-aa92-4dff-a27a-e10b4cfb90e9"},"vehicle_type_id":"4","last_reported":1770640954,"current_range_meters":11600,"station_id":"ce4bhbh2rcd13ifvqepg","pricing_plan_id":"cebpf4jnsgd1na2vs0mg"},{"bike_id":"91181466-01f4-4c10-9030-9f0bfdaa201b","system_id":"levelo_inurba_marseille","lat":43.3054,"lon":5.36544,"is_reserved":false,"is_disabled":false,"rental_uris":{"android":"levelo://app?vid=91181466-01f4-4c10-9030-9f0bfdaa201b","ios":"levelo://app?vid=91181466-01f4-4c10-9030-9f0bfdaa201b"},"vehicle_type_id":"4","last_reported":1770640954,"current_range_meters":11600,"station_id":"ce4bgs12rcd13ifvqcag","pricing_plan_id":"cebpf4jnsgd1na2vs0mg"},{"bike_id":"98f0713e-6402-4600-9353-a72594fc6185","system_id":"levelo_inurba_marseille","lat":43.246711,"lon":5.381574,"is_reserved":false,"is_disabled":false,"rental_uris":{"android":"levelo://app?vid=98f0713e-6402-4600-9353-a72594fc6185","ios":"levelo://app?vid=98f0713e-6402-4600-9353-a72594fc6185"},"vehicle_type_id":"4","last_reported":1770640954,"current_range_meters":11600,"station_id":"ce4bhih2rcd13ifvqfr0","pricing_plan_id":"cebpf4jnsgd1na2vs0mg"},{"bike_id":"a3a73fe8-15ad-4d65-9fbf-5d2c7057d63a","system_id":"levelo_inurba_marseille","lat":43.26204,"lon":5.37452,"is_reserved":false,"is_disabled":false,"rental_uris":{"android":"levelo://app?vid=a3a73fe8-15ad-4d65-9fbf-5d2c7057d63a","ios":"levelo://app?vid=a3a73fe8-15ad-4d65-9fbf-5d2c7057d63a"},"vehicle_type_id":"4","last_reported":1770640954,"current_range_meters":11600,"station_id":"ce4bhgp2rcd13ifvqfc0","pricing_plan_id":"cebpf4jnsgd1na2vs0mg"},{"bike_id":"556db1c3-8279-43d7-88c9-a63b64c4c5db","system_id":"levelo_inurba_marseille","lat":43.295,"lon":5.433,"is_reserved":false,"is_disabled":false,"rental_uris":{"android":"levelo://app?vid=556db1c3-8279-43d7-88c9-a63b64c4c5db","ios":"levelo://app?vid=556db1c3-8279-43d7-88c9-a63b64c4c5db"},"vehicle_type_id":"4","last_reported":1770640954,"current_range_meters":11600,"station_id":"st_d3j5ugp08ojc73fj9d10","pricing_plan_id":"cebpf4jnsgd1na2vs0mg"},{"bike_id":"bd0bd668-aed5-4f69-87b0-3a3082845c06","system_id":"levelo_inurba_marseille","lat":43.29931,"lon":5.36548,"is_reserved":false,"is_disabled":false,"rental_uris":{"android":"levelo://app?vid=bd0bd668-aed5-4f69-87b0-3a3082845c06","ios":"levelo://app?vid=bd0bd668-aed5-4f69-87b0-3a3082845c06"},"vehicle_type_id":"4","last_reported":1770640954,"current_range_meters":11600,"station_id":"ce4bgm92rcd13ifvqbr0","pricing_plan_id":"cebpf4jnsgd1na2vs0mg"},{"bike_id":"4c25b773-bd4a-43f1-b1d2-45f9cbcf7f42","system_id":"levelo_inurba_marseille","lat":43.239626,"lon":5.366241,"is_reserved":false,"is_disabled":false,"rental_uris":{"android":"levelo://app?vid=4c25b773-bd4a-43f1-b1d2-45f9cbcf7f42","ios":"levelo://app?vid=4c25b773-bd4a-43f1-b1d2-45f9cbcf7f42"},"vehicle_type_id":"4","last_reported":1770640954,"current_range_meters":11600,"station_id":"ce4bhb12rcd13ifvqel0","pricing_plan_id":"cebpf4jnsgd1na2vs0mg"},{"bike_id":"d069d506-37a6-4fe3-b196-400f8350b9ed","system_id":"levelo_inurba_marseille","lat":43.269877,"lon":5.386825,"is_reserved":false,"is_disabled":false,"rental_uris":{"android":"levelo://app?vid=d069d506-37a6-4fe3-b196-400f8350b9ed","ios":"levelo://app?vid=d069d506-37a6-4fe3-b196-400f8350b9ed"},"vehicle_type_id":"4","last_reported":1770640954,"current_range_meters":12000,"station_id":"ce4bh412rcd13ifvqds0","pricing_plan_id":"cebpf4jnsgd1na2vs0mg"},{"bike_id":"4659f5f2-43a6-4213-b84f-184d5dec64b3","system_id":"levelo_inurba_marseille","lat":43.33544,"lon":5.37458,"is_reserved":false,"is_disabled":false,"rental_uris":{"android":"levelo://app?vid=4659f5f2-43a6-4213-b84f-184d5dec64b3","ios":"levelo://app?vid=4659f5f2-43a6-4213-b84f-184d5dec64b3"},"vehicle_type_id":"4","last_reported":1770640954,"current_range_meters":12000,"station_id":"st_d46tts09ee8s73dlu43g","pricing_plan_id":"cebpf4jnsgd1na2vs0mg"},{"bike_id":"73e4d159-f405-45cd-901e-4f0a1d5f4bb6","system_id":"levelo_inurba_marseille","lat":43.335469,"lon":5.374607,"is_reserved":false,"is_disabled":false,"rental_uris":{"android":"levelo://app?vid=73e4d159-f405-45cd-901e-4f0a1d5f4bb6","ios":"levelo://app?vid=73e4d159-f405-45cd-901e-4f0a1d5f4bb6"},"vehicle_type_id":"4","last_reported":1770640954,"current_range_meters":12000,"station_id":"st_d46tts09ee8s73dlu43g","pricing_plan_id":"cebpf4jnsgd1na2vs0mg"},{"bike_id":"61e7a56e-a3a9-4b6a-8720-cb799648adf1","system_id":"levelo_inurba_marseille","lat":43.303157,"lon":5.368987,"is_reserved":false,"is_disabled":false,"rental_uris":{"android":"levelo://app?vid=61e7a56e-a3a9-4b6a-8720-cb799648adf1","ios":"levelo://app?vid=61e7a56e-a3a9-4b6a-8720-cb799648adf1"},