{"last_updated":1742296120,"ttl":60,"version":"2.2","data":{"bikes":[{"bike_id":"6590d970-1506-4a0b-ac5e-f881c0183309","system_id":"levelo_inurba_marseille","lat":43.28858,"lon":5.39315,"is_reserved":false,"is_disabled":false,"rental_uris":{"android":"levelo://app?vid=6590d970-1506-4a0b-ac5e-f881c0183309","ios":"levelo://app?vid=6590d970-1506-4a0b-ac5e-f881c0183309"},"vehicle_type_id":"4","last_reported":1742296120,"current_range_meters":2800,"station_id":"ce4bh2p2rcd13ifvqdi0","pricing_plan_id":"cebpf4jnsgd1na2vs0mg"},{"bike_id":"c87df4e7-0f98-4f48-b5fd-ef99539c3f96","system_id":"levelo_inurba_marseille","lat":43.27207,"lon":5.39173,"is_reserved":false,"is_disabled":false,"rental_uris":{"android":"levelo://app?vid=c87df4e7-0f98-4f48-b5fd-ef99539c3f96","ios":"levelo://app?vid=c87df4e7-0f98-4f48-b5fd-ef99539c3f96"},"vehicle_type_id":"4","last_reported":1742296120,"current_range_meters":2800,"station_id":"ce4bhhp2rcd13ifvqfm0","pricing_plan_id":"cebpf4jnsgd1na2vs0mg"},{"bike_id":"5a219346-1be0-43f0-a35b-f2bca2d9ddf9","system_id":"levelo_inurba_marseille","lat":43.31074,"lon":5.38358,"is_reserved":false,"is_disabled":false,"rental_uris":{"android":"levelo://app?vid=5a219346-1be0-43f0-a35b-f2bca2d9ddf9","ios":"levelo://app?vid=5a219346-1be0-43f0-a35b-f2bca2d9ddf9"},"vehicle_type_id":"4","last_reported":1742296120,"current_range_meters":3200,"station_id":"ce4bgv92rcd13ifvqcr0","pricing_plan_id":"cebpf4jnsgd1na2vs0mg"},{"bike_id":"7867c5a6-358b-4331-9f66-6bc722e19156","system_id":"levelo_inurba_marseille","lat":43.282987,"lon":5.423918,"is_reserved":false,"is_disabled":false,"rental_uris":{"android":"levelo://app?vid=7867c5a6-358b-4331-9f66-6bc722e19156","ios":"levelo://app?vid=7867c5a6-358b-4331-9f66-6bc722e19156"},"vehicle_type_id":"4","last_reported":1742296120,"current_range_meters":2000,"station_id":"ce4bgl12rcd13ifvqbo0","pricing_plan_id":"cebpf4jnsgd1na2vs0mg"},{"bike_id":"e39f083d-4542-4f7b-9173-1e8fe9e09597","system_id":"levelo_inurba_marseille","lat":43.27496,"lon":5.42457,"is_reserved":false,"is_disabled":true,"rental_uris":{"android":"levelo://app?vid=e39f083d-4542-4f7b-9173-1e8fe9e09597","ios":"levelo://app?vid=e39f083d-4542-4f7b-9173-1e8fe9e09597"},"vehicle_type_id":"4","last_reported":1742296120,"current_range_meters":3200,"station_id":"ce4bhn92rcd13ifvqgrg","pricing_plan_id":"cebpf4jnsgd1na2vs0mg"},{"bike_id":"03862c3a-74fb-4afb-9147-b2e4768bcf3b","system_id":"levelo_inurba_marseille","lat":43.29617,"lon":5.37722,"is_reserved":false,"is_disabled":false,"rental_uris":{"android":"levelo://app?vid=03862c3a-74fb-4afb-9147-b2e4768bcf3b","ios":"levelo://app?vid=03862c3a-74fb-4afb-9147-b2e4768bcf3b"},"vehicle_type_id":"4","last_reported":1742296120,"current_range_meters":5600,"station_id":"ce4bgi92rcd13ifvqb90","pricing_plan_id":"cebpf4jnsgd1na2vs0mg"},{"bike_id":"bed7a26a-3ff1-4071-8461-1b6347007290","system_id":"levelo_inurba_marseille","lat":43.29573,"lon":5.39986,"is_reserved":false,"is_disabled":false,"rental_uris":{"android":"levelo://app?vid=bed7a26a-3ff1-4071-8461-1b6347007290","ios":"levelo://app?vid=bed7a26a-3ff1-4071-8461-1b6347007290"},"vehicle_type_id":"4","last_reported":1742296120,"current_range_meters":3200,"station_id":"ce4bh312rcd13ifvqdj0","pricing_plan_id":"cebpf4jnsgd1na2vs0mg"},{"bike_id":"fbb04c53-68ec-4b6f-9004-bddc416b8795","system_id":"levelo_inurba_marseille","lat":43.27059,"lon":5.40264,"is_reserved":false,"is_disabled":false,"rental_uris":{"android":"levelo://app?vid=fbb04c53-68ec-4b6f-9004-bddc416b8795","ios":"levelo://app?vid=fbb04c53-68ec-4b6f-9004-bddc416b8795"},"vehicle_type_id":"4","last_reported":1742296120,"current_range_meters":3600,"station_id":"ce4bhk92rcd13ifvqgc0","pricing_plan_id":"cebpf4jnsgd1na2vs0mg"},{"bike_id":"9db33768-0edf-4f21-9edd-ac42a5ac13c9","system_id":"levelo_inurba_marseille","lat":43.27496,"lon":5.42463,"is_reserved":false,"is_disabled":false,"rental_uris":{"android":"levelo://app?vid=9db33768-0edf-4f21-9edd-ac42a5ac13c9","ios":"levelo://app?vid=9db33768-0edf-4f21-9edd-ac42a5ac13c9"},"vehicle_type_id":"4","last_reported":1742296120,"current_range_meters":3600,"station_id":"ce4bhn92rcd13ifvqgrg","pricing_plan_id":"cebpf4jnsgd1na2vs0mg"},{"bike_id":"784d9120-add7-4963-ab75-e1eb7c983ec3","system_id":"levelo_inurba_marseille","lat":43.32492,"lon":5.3657,"is_reserved":false,"is_disabled":false,"rental_uris":{"android":"levelo://app?vid=784d9120-add7-4963-ab75-e1eb7c983ec3","ios":"levelo://app?vid=784d9120-add7-4963-ab75-e1eb7c983ec3"},"vehicle_type_id":"4","last_reported":1742296120,"current_range_meters":3600,"station_id":"ce4bhs12rcd13ifvqhvg","pricing_plan_id":"cebpf4jnsgd1na2vs0mg"},{"bike_id":"c869a08e-31bb-4b3b-855d-5547b736ee84","system_id":"levelo_inurba_marseille","lat":43.2842,"lon":5.34978,"is_reserved":false,"is_disabled":false,"rental_uris":{"android":"levelo://app?vid=c869a08e-31bb-4b3b-855d-5547b736ee84","ios":"levelo://app?vid=c869a08e-31bb-4b3b-855d-5547b736ee84"},"vehicle_type_id":"4","last_reported":1742296120,"current_range_meters":3600,"station_id":"ce4bhbh2rcd13ifvqepg","pricing_plan_id":"cebpf4jnsgd1na2vs0mg"},{"bike_id":"5600ef63-f7a2-4308-9fdb-70e36f576d7a","system_id":"levelo_inurba_marseille","lat":43.29009,"lon":5.35608,"is_reserved":false,"is_disabled":false,"rental_uris":{"android":"levelo://app?vid=5600ef63-f7a2-4308-9fdb-70e36f576d7a","ios":"levelo://app?vid=5600ef63-f7a2-4308-9fdb-70e36f576d7a"},"vehicle_type_id":"4","last_reported":1742296120,"current_range_meters":3200,"station_id":"ce4bhb92rcd13ifvqen0","pricing_plan_id":"cebpf4jnsgd1na2vs0mg"},{"bike_id":"73c99d18-0162-432c-99cd-614fc7791a56","system_id":"levelo_inurba_marseille","lat":43.29612,"lon":5.3808,"is_reserved":false,"is_disabled":false,"rental_uris":{"android":"levelo://app?vid=73c99d18-0162-432c-99cd-614fc7791a56","ios":"levelo://app?vid=73c99d18-0162-432c-99cd-614fc7791a56"},"vehicle_type_id":"4","last_reported":1742296120,"current_range_meters":3600,"station_id":"ce4bgl12rcd13ifvqbo0","pricing_plan_id":"cebpf4jnsgd1na2vs0mg"},{"bike_id":"55ba7983-7669-435c-9daa-d84960f8c444","system_id":"levelo_inurba_marseille","lat":43.32093,"lon":5.36776,"is_reserved":false,"is_disabled":false,"rental_uris":{"android":"levelo://app?vid=55ba7983-7669-435c-9daa-d84960f8c444","ios":"levelo://app?vid=55ba7983-7669-435c-9daa-d84960f8c444"},"vehicle_type_id":"4","last_reported":1742296120,"current_range_meters":3600,"station_id":"ce4bhrh2rcd13ifvqhug","pricing_plan_id":"cebpf4jnsgd1na2vs0mg"},{"bike_id":"13030fe0-f542-4016-b5c9-0b3ccfd48774","system_id":"levelo_inurba_marseille","lat":43.31211,"lon":5.36872,"is_reserved":false,"is_disabled":false,"rental_uris":{"android":"levelo://app?vid=13030fe0-f542-4016-b5c9-0b3ccfd48774","ios":"levelo://app?vid=13030fe0-f542-4016-b5c9-0b3ccfd48774"},"vehicle_type_id":"4","last_reported":1742296120,"current_range_meters":4000,"station_id":"ce4bgl92rcd13ifvqbq0","pricing_plan_id":"cebpf4jnsgd1na2vs0mg"},{"bike_id":"a5e8aaef-ef02-4dd8-b67f-a3f02bc81f96","system_id":"levelo_inurba_marseille","lat":43.28708,"lon":5.39974,"is_reserved":false,"is_disabled":false,"rental_uris":{"android":"levelo://app?vid=a5e8aaef-ef02-4dd8-b67f-a3f02bc81f96","ios":"levelo://app?vid=a5e8aaef-ef02-4dd8-b67f-a3f02bc81f96"},"vehicle_type_id":"4","last_reported":1742296120,"current_range_meters":4000,"station_id":"ce4bho92rcd13ifvqh3g","pricing_plan_id":"cebpf4jnsgd1na2vs0mg"},{"bike_id":"4f4e8f9d-64bc-4477-af11-38241ec3aac0","system_id":"levelo_inurba_marseille","lat":43.26053,"lon":5.394,"is_reserved":false,"is_disabled":false,"rental_uris":{"android":"levelo://app?vid=4f4e8f9d-64bc-4477-af11-38241ec3aac0","ios":"levelo://app?vid=4f4e8f9d-64bc-4477-af11-38241ec3aac0"},"vehicle_type_id":"4","last_reported":1742296120,"current_range_meters":4000,"station_id":"ce4bhh92rcd13ifvqfj0","pricing_plan_id":"cebpf4jnsgd1na2vs0mg"},{"bike_id":"57b9ee4f-8a9c-4ccd-823f-e41393b2cc76","system_id":"levelo_inurba_marseille","lat":43.30479,"lon":5.37911,"is_reserved":false,"is_disabled":false,"rental_uris":{"android":"levelo://app?vid=57b9ee4f-8a9c-4ccd-823f-e41393b2cc76","ios":"levelo://app?vid=57b9ee4f-8a9c-4ccd-823f-e41393b2cc76"},"vehicle_type_id":"4","last_reported":1742296120,"current_range_meters":4000,"station_id":"ce4bgup2rcd13ifvqcn0","pricing_plan_id":"cebpf4jnsgd1na2vs0mg"},{"bike_id":"9498b8d1-1a26-4adb-94b7-abf5278caff7","system_id":"levelo_inurba_marseille","lat":43.25883,"lon":5.39937,"is_reserved":false,"is_disabled":true,"rental_uris":{"android":"levelo://app?vid=9498b8d1-1a26-4adb-94b7-abf5278caff7","ios":"levelo://app?vid=9498b8d1-1a26-4adb-94b7-abf5278caff7"},"vehicle_type_id":"4","last_reported":1742296120,"current_range_meters":4400,"station_id":"ce4bhl92rcd13ifvqghg","pricing_plan_id":"cebpf4jnsgd1na2vs0mg"},{"bike_id":"268ae582-fc6b-4794-b71f-914ab0733e53","system_id":"levelo_inurba_marseille","lat":43.28857,"lon":5.35845,"is_reserved":false,"is_disabled":false,"rental_uris":{"android":"levelo://app?vid=268ae582-fc6b-4794-b71f-914ab0733e53","ios":"levelo://app?vid=268ae582-fc6b-4794-b71f-914ab0733e53"},"vehicle_type_id":"4","last_reported":1742296120,"current_range_meters":4800,"station_id":"ce4bhb12rcd13ifvqem0","pricing_plan_id":"cebpf4jnsgd1na2vs0mg"},{"bike_id":"5559eb72-95c9-45da-9da4-442fe7cbc036","system_id":"levelo_inurba_marseille","lat":43.28338,"lon":5.38099,"is_reserved":false,"is_disabled":false,"rental_uris":{"android":"levelo://app?vid=5559eb72-95c9-45da-9da4-442fe7cbc036","ios":"levelo://app?vid=5559eb72-95c9-45da-9da4-442fe7cbc036"},"vehicle_type_id":"4","last_reported":1742296120,"current_range_meters":4400,"station_id":"ce4bh412rcd13ifvqdr0","pricing_plan_id":"cebpf4jnsgd1na2vs0mg"},{"bike_id":"04b16798-c1d9-4509-a7c0-01ca79b6de32","system_id":"levelo_inurba_marseille","lat":43.27211,"lon":5.39181,"is_reserved":false,"is_disabled":false,"rental_uris":{"android":"levelo://app?vid=04b16798-c1d9-4509-a7c0-01ca79b6de32","ios":"levelo://app?vid=04b16798-c1d9-4509-a7c0-01ca79b6de32"},"vehicle_type_id":"4","last_reported":1742296120,"current_range_meters":6000,"station_id":"ce4bhhp2rcd13ifvqfm0","pricing_plan_id":"cebpf4jnsgd1na2vs0mg"},{"bike_id":"4edcf062-3998-4e2d-8be3-16ac14b52d75","system_id":"levelo_inurba_marseille","lat":43.28703,"lon":5.39987,"is_reserved":false,"is_disabled":false,"rental_uris":{"android":"levelo://app?vid=4edcf062-3998-4e2d-8be3-16ac14b52d75","ios":"levelo://app?vid=4edcf062-3998-4e2d-8be3-16ac14b52d75"},"vehicle_type_id":"4","last_reported":1742296120,"current_range_meters":5600,"station_id":"ce4bho92rcd13ifvqh3g","pricing_plan_id":"cebpf4jnsgd1na2vs0mg"},{"bike_id":"1bf6bcd4-3ed1-4abf-ae86-dbe8961fc298","system_id":"levelo_inurba_marseille","lat":43.27937,"lon":5.41053,"is_reserved":false,"is_disabled":false,"rental_uris":{"android":"levelo://app?vid=1bf6bcd4-3ed1-4abf-ae86-dbe8961fc298","ios":"levelo://app?vid=1bf6bcd4-3ed1-4abf-ae86-dbe8961fc298"},"vehicle_type_id":"4","last_reported":1742296120,"current_range_meters":5600,"station_id":"ce4bhnp2rcd13ifvqh0g","pricing_plan_id":"cebpf4jnsgd1na2vs0mg"},{"bike_id":"40d52e74-1999-437f-acf3-0bd9d37c759c","system_id":"levelo_inurba_marseille","lat":43.31202,"lon":5.36854,"is_reserved":false,"is_disabled":false,"rental_uris":{"android":"levelo://app?vid=40d52e74-1999-437f-acf3-0bd9d37c759c","ios":"levelo://app?vid=40d52e74-1999-437f-acf3-0bd9d37c759c"},"vehicle_type_id":"4","last_reported":1742296120,"current_range_meters":5600,"station_id":"ce4bgl92rcd13ifvqbq0","pricing_plan_id":"cebpf4jnsgd1na2vs0mg"},{"bike_id":"29702d2b-96b7-47e7-a088-8a62571aa62d","system_id":"levelo_inurba_marseille","lat":43.28273,"lon":5.35054,"is_reserved":false,"is_disabled":false,"rental_uris":{"android":"levelo://app?vid=29702d2b-96b7-47e7-a088-8a62571aa62d","ios":"levelo://app?vid=29702d2b-96b7-47e7-a088-8a62571aa62d"},"vehicle_type_id":"4","last_reported":1742296120,"current_range_meters":6000,"station_id":"ce4bhbp2rcd13ifvqerg","pricing_plan_id":"cebpf4jnsgd1na2vs0mg"},{"bike_id":"32cce3f4-284a-4f96-800d-6eae91c87b57","system_id":"levelo_inurba_marseille","lat":43.29567,"lon":5.37503,"is_reserved":false,"is_disabled":false,"rental_uris":{"android":"levelo://app?vid=32cce3f4-284a-4f96-800d-6eae91c87b57","ios":"levelo://app?vid=32cce3f4-284a-4f96-800d-6eae91c87b57"},"vehicle_type_id":"4","last_reported":1742296120,"current_range_meters":6000,"station_id":"ce4bgh92rcd13ifvqb50","pricing_plan_id":"cebpf4jnsgd1na2vs0mg"},{"bike_id":"1ffc2ce7-fc8d-4088-8af1-7c559d45ff56","system_id":"levelo_inurba_marseille","lat":43.31375,"lon":5.36688,"is_reserved":false,"is_disabled":false,"rental_uris":{"android":"levelo://app?vid=1ffc2ce7-fc8d-4088-8af1-7c559d45ff56","ios":"levelo://app?vid=1ffc2ce7-fc8d-4088-8af1-7c559d45ff56"},"vehicle_type_id":"4","last_reported":1742296120,"current_range_meters":6000,"station_id":"ce4bgr92rcd13ifvqc6g","pricing_plan_id":"cebpf4jnsgd1na2vs0mg"},{"bike_id":"d03a0b06-bb1e-423c-b6b4-14fa6671c49a","system_id":"levelo_inurba_marseille","lat":43.29937,"lon":5.3655,"is_reserved":false,"is_disabled":false,"rental_uris":{"android":"levelo://app?vid=d03a0b06-bb1e-423c-b6b4-14fa6671c49a","ios":"levelo://app?vid=d03a0b06-bb1e-423c-b6b4-14fa6671c49a"},"vehicle_type_id":"4","last_reported":1742296120,"current_range_meters":6000,"station_id":"ce4bgm92rcd13ifvqbr0","pricing_plan_id":"cebpf4jnsgd1na2vs0mg"},{"bike_id":"82c43b3a-c164-45dc-b522-1d76965eff22","system_id":"levelo_inurba_marseille","lat":43.23152,"lon":5.43701,"is_reserved":false,"is_disabled":false,"rental_uris":{"android":"levelo://app?vid=82c43b3a-c164-45dc-b522-1d76965eff22","ios":"levelo://app?vid=82c43b3a-c164-45dc-b522-1d76965eff22"},"vehicle_type_id":"4","last_reported":1742296120,"current_range_meters":6000,"station_id":"ce4bhmp2rcd13ifvqgog","pricing_plan_id":"cebpf4jnsgd1na2vs0mg"},{"bike_id":"daec2ec8-301b-4151-b7b5-2e744b8ea9bc","system_id":"levelo_inurba_marseille","lat":43.28868,"lon":5.39323,"is_reserved":false,"is_disabled":false,"rental_uris":{"android":"levelo://app?vid=daec2ec8-301b-4151-b7b5-2e744b8ea9bc","ios":"levelo://app?vid=daec2ec8-301b-4151-b7b5-2e744b8ea9bc"},"vehicle_type_id":"4","last_reported":1742296120,"current_range_meters":6000,"station_id":"ce4bh2p2rcd13ifvqdi0","pricing_plan_id":"cebpf4jnsgd1na2vs0mg"},{"bike_id":"2e116e74-087e-4a0e-8f61-9da0c1714d44","system_id":"levelo_inurba_marseille","lat":43.26025,"lon":5.41724,"is_reserved":false,"is_disabled":false,"rental_uris":{"android":"levelo://app?vid=2e116e74-087e-4a0e-8f61-9da0c1714d44","ios":"levelo://app?vid=2e116e74-087e-4a0e-8f61-9da0c1714d44"},"vehicle_type_id":"4","last_reported":1742296120,"current_range_meters":6400,"station_id":"","pricing_plan_id":"cebpf4jnsgd1na2vs0mg"},{"bike_id":"057c4299-c24d-4a02-8ede-b4bf9523726b","system_id":"levelo_inurba_marseille","lat":43.2315,"lon":5.43724,"is_reserved":false,"is_disabled":true,"rental_uris":{"android":"levelo://app?vid=057c4299-c24d-4a02-8ede-b4bf9523726b","ios":"levelo://app?vid=057c4299-c24d-4a02-8ede-b4bf9523726b"},"vehicle_type_id":"4","last_reported":1742296120,"current_range_meters":6400,"station_id":"ce4bhmp2rcd13ifvqgog","pricing_plan_id":"cebpf4jnsgd1na2vs0mg"},{"bike_id":"e95151cd-abc4-4dae-8ab5-1de4cba734f5","system_id":"levelo_inurba_marseille","lat":43.2418,"lon":5.39715,"is_reserved":false,"is_disabled":false,"rental_uris":{"android":"levelo://app?vid=e95151cd-abc4-4dae-8ab5-1de4cba734f5","ios":"levelo://app?vid=e95151cd-abc4-4dae-8ab5-1de4cba734f5"},"vehicle_type_id":"4","last_reported":1742296120,"current_range_meters":6400,"station_id":"ce4bhn12rcd13ifvqgpg","pricing_plan_id":"cebpf4jnsgd1na2vs0mg"},{"bike_id":"b44ac867-8fe0-4d31-9d48-b44cdef430fc","system_id":"levelo_inurba_marseille","lat":43.296104,"lon":5.377204,"is_reserved":false,"is_disabled":true,"rental_uris":{"android":"levelo://app?vid=b44ac867-8fe0-4d31-9d48-b44cdef430fc","ios":"levelo://app?vid=b44ac867-8fe0-4d31-9d48-b44cdef430fc"},"vehicle_type_id":"4","last_reported":1742296120,"current_range_meters":6400,"station_id":"ce4bhh12rcd13ifvqff0","pricing_plan_id":"cebpf4jnsgd1na2vs0mg"},{"bike_id":"7c5db8a1-ef5d-4912-b4f8-07a5745c2c99","system_id":"levelo_inurba_marseille","lat":43.29906,"lon":5.43658,"is_reserved":false,"is_disabled":false,"rental_uris":{"android":"levelo://app?vid=7c5db8a1-ef5d-4912-b4f8-07a5745c2c99","ios":"levelo://app?vid=7c5db8a1-ef5d-4912-b4f8-07a5745c2c99"},"vehicle_type_id":"4","last_reported":1742296120,"current_range_meters":6400,"station_id":"ce4bhpp2rcd13ifvqhfg","pricing_plan_id":"cebpf4jnsgd1na2vs0mg"},{"bike_id":"b54a649d-2707-4569-87ee-d2c230e19409","system_id":"levelo_inurba_marseille","lat":43.27457,"lon":5.40903,"is_reserved":false,"is_disabled":false,"rental_uris":{"android":"levelo://app?vid=b54a649d-2707-4569-87ee-d2c230e19409","ios":"levelo://app?vid=b54a649d-2707-4569-87ee-d2c230e19409"},"vehicle_type_id":"4","last_reported":1742296120,"current_range_meters":6400,"station_id":"","pricing_plan_id":"cebpf4jnsgd1na2vs0mg"},{"bike_id":"07f5dd64-b7ab-4ae4-8343-9a8dcc9172c7","system_id":"levelo_inurba_marseille","lat":43.29307,"lon":5.37462,"is_reserved":false,"is_disabled":false,"rental_uris":{"android":"levelo://app?vid=07f5dd64-b7ab-4ae4-8343-9a8dcc9172c7","ios":"levelo://app?vid=07f5dd64-b7ab-4ae4-8343-9a8dcc9172c7"},"vehicle_type_id":"4","last_reported":1742296120,"current_range_meters":6400,"station_id":"ce4bgi12rcd13ifvqb70","pricing_plan_id":"cebpf4jnsgd1na2vs0mg"},{"bike_id":"dd117a7c-a536-40a1-91af-43693b0b8fe5","system_id":"levelo_inurba_marseille","lat":43.25938,"lon":5.40864,"is_reserved":false,"is_disabled":false,"rental_uris":{"android":"levelo://app?vid=dd117a7c-a536-40a1-91af-43693b0b8fe5","ios":"levelo://app?vid=dd117a7c-a536-40a1-91af-43693b0b8fe5"},"vehicle_type_id":"4","last_reported":1742296120,"current_range_meters":6400,"station_id":"ce4bhm92rcd13ifvqglg","pricing_plan_id":"cebpf4jnsgd1na2vs0mg"},{"bike_id":"791a472d-9726-4653-a068-46e7bd8f882a","system_id":"levelo_inurba_marseille","lat":43.27054,"lon":5.4026,"is_reserved":false,"is_disabled":false,"rental_uris":{"android":"levelo://app?vid=791a472d-9726-4653-a068-46e7bd8f882a","ios":"levelo://app?vid=791a472d-9726-4653-a068-46e7bd8f882a"},"vehicle_type_id":"4","last_reported":1742296120,"current_range_meters":6400,"station_id":"ce4bhk92rcd13ifvqgc0","pricing_plan_id":"cebpf4jnsgd1na2vs0mg"},{"bike_id":"40805b97-fadb-44c2-9cd1-665899423e7e","system_id":"levelo_inurba_marseille","lat":43.25719,"lon":5.41114,"is_reserved":false,"is_disabled":false,"rental_uris":{"android":"levelo://app?vid=40805b97-fadb-44c2-9cd1-665899423e7e","ios":"levelo://app?vid=40805b97-fadb-44c2-9cd1-665899423e7e"},"vehicle_type_id":"4","last_reported":1742296120,"current_range_meters":6400,"station_id":"ce4bhkp2rcd13ifvqgd0","pricing_plan_id":"cebpf4jnsgd1na2vs0mg"},{"bike_id":"f7c857bd-4ed8-41c9-8704-9eff12a04d79","system_id":"levelo_inurba_marseille","lat":43.25924,"lon":5.40881,"is_reserved":false,"is_disabled":false,"rental_uris":{"android":"levelo://app?vid=f7c857bd-4ed8-41c9-8704-9eff12a04d79","ios":"levelo://app?vid=f7c857bd-4ed8-41c9-8704-9eff12a04d79"},"vehicle_type_id":"4","last_reported":1742296120,"current_range_meters":6400,"station_id":"ce4bhm92rcd13ifvqglg","pricing_plan_id":"cebpf4jnsgd1na2vs0mg"},{"bike_id":"06494c52-3cd3-427c-b5eb-a0cda18f251a","system_id":"levelo_inurba_marseille","lat":43.28405,"lon":5.37523,"is_reserved":false,"is_disabled":false,"rental_uris":{"android":"levelo://app?vid=06494c52-3cd3-427c-b5eb-a0cda18f251a","ios":"levelo://app?vid=06494c52-3cd3-427c-b5eb-a0cda18f251a"},"vehicle_type_id":"4","last_reported":1742296120,"current_range_meters":6800,"station_id":"ce4bh412rcd13ifvqds0","pricing_plan_id":"cebpf4jnsgd1na2vs0mg"},{"bike_id":"694e2550-26c1-4e5d-b544-75ec19648790","system_id":"levelo_inurba_marseille","lat":43.32367,"lon":5.36765,"is_reserved":false,"is_disabled":false,"rental_uris":{"android":"levelo://app?vid=694e2550-26c1-4e5d-b544-75ec19648790","ios":"levelo://app?vid=694e2550-26c1-4e5d-b544-75ec19648790"},"vehicle_type_id":"4","last_reported":1742296120,"current_range_meters":6800,"station_id":"ce4bhsh2rcd13ifvqi2g","pricing_plan_id":"cebpf4jnsgd1na2vs0mg"},{"bike_id":"0e1521bd-0bc6-46df-970b-49ec5dd29256","system_id":"levelo_inurba_marseille","lat":43.29164,"lon":5.37894,"is_reserved":false,"is_disabled":false,"rental_uris":{"android":"levelo://app?vid=0e1521bd-0bc6-46df-970b-49ec5dd29256","ios":"levelo://app?vid=0e1521bd-0bc6-46df-970b-49ec5dd29256"},"vehicle_type_id":"4","last_reported":1742296120,"current_range_meters":6800,"station_id":"","pricing_plan_id":"cebpf4jnsgd1na2vs0mg"},{"bike_id":"d1676c12-45d0-460a-ab7d-e6bd42a8628c","system_id":"levelo_inurba_marseille","lat":43.25932,"lon":5.40878,"is_reserved":false,"is_disabled":false,"rental_uris":{"android":"levelo://app?vid=d1676c12-45d0-460a-ab7d-e6bd42a8628c","ios":"levelo://app?vid=d1676c12-45d0-460a-ab7d-e6bd42a8628c"},"vehicle_type_id":"4","last_reported":1742296120,"current_range_meters":6800,"station_id":"ce4bhm92rcd13ifvqglg","pricing_plan_id":"cebpf4jnsgd1na2vs0mg"},{"bike_id":"fa5f15ab-8994-45e1-84de-31aa4c8b3ced","system_id":"levelo_inurba_marseille","lat":43.23213,"lon":5.35527,"is_reserved":false,"is_disabled":false,"rental_uris":{"android":"levelo://app?vid=fa5f15ab-8994-45e1-84de-31aa4c8b3ced","ios":"levelo://app?vid=fa5f15ab-8994-45e1-84de-31aa4c8b3ced"},"vehicle_type_id":"4","last_reported":1742296120,"current_range_meters":6800,"station_id":"ce4bhu92rcd13ifvqi70","pricing_plan_id":"cebpf4jnsgd1na2vs0mg"},{"bike_id":"8440fe8d-4aee-4743-9f76-6d7853e56fe1","system_id":"levelo_inurba_marseille","lat":43.30936,"lon":5.40041,"is_reserved":false,"is_disabled":false,"rental_uris":{"android":"levelo://app?vid=8440fe8d-4aee-4743-9f76-6d7853e56fe1","ios":"levelo://app?vid=8440fe8d-4aee-4743-9f76-6d7853e56fe1"},"vehicle_type_id":"4","last_reported":1742296120,"current_range_meters":6800,"station_id":"ce4bh092rcd13ifvqd30","pricing_plan_id":"cebpf4jnsgd1na2vs0mg"},{"bike_id":"cf8ec61e-3090-4383-86b7-f4997aab89d1","system_id":"levelo_inurba_marseille","lat":43.29625,"lon":5.40594,"is_reserved":false,"is_disabled":false,"rental_uris":{"android":"levelo://app?vid=cf8ec61e-3090-4383-86b7-f4997aab89d1","ios":"levelo://app?vid=cf8ec61e-3090-4383-86b7-f4997aab89d1"},"vehicle_type_id":"4","last_reported":1742296120,"current_range_meters":4400,"station_id":"ce4bh0h2rcd13ifvqd60","pricing_plan_id":"cebpf4jnsgd1na2vs0mg"},{"bike_id":"e1f3b287-88f6-4704-9568-1fc928952704","system_id":"levelo_inurba_marseille","lat":43.32048,"lon":5.41558,"is_reserved":false,"is_disabled":false,"rental_uris":{"android":"levelo://app?vid=e1f3b287-88f6-4704-9568-1fc928952704","ios":"levelo://app?vid=e1f3b287-88f6-4704-9568-1fc928952704"},"vehicle_type_id":"4","last_reported":1742296120,"current_range_meters":6800,"station_id":"ce4bhq92rcd13ifvqhkg","pricing_plan_id":"cebpf4jnsgd1na2vs0mg"},{"bike_id":"6d8e8090-a4c7-4966-a3f4-a833922b9e5a","system_id":"levelo_inurba_marseille","lat":43.23211,"lon":5.35542,"is_reserved":false,"is_disabled":false,"rental_uris":{"android":"levelo://app?vid=6d8e8090-a4c7-4966-a3f4-a833922b9e5a","ios":"levelo://app?vid=6d8e8090-a4c7-4966-a3f4-a833922b9e5a"},"vehicle_type_id":"4","last_reported":1742296120,"current_range_meters":7200,"station_id":"ce4bhu92rcd13ifvqi70","pricing_plan_id":"cebpf4jnsgd1na2vs0mg"},{"bike_id":"d155b6d7-4f04-4869-a663-a1baa5b8f97e","system_id":"levelo_inurba_marseille","lat":43.23204,"lon":5.35564,"is_reserved":false,"is_disabled":false,"rental_uris":{"android":"levelo://app?vid=d155b6d7-4f04-4869-a663-a1baa5b8f97e","ios":"levelo://app?vid=d155b6d7-4f04-4869-a663-a1baa5b8f97e"},"vehicle_type_id":"4","last_reported":1742296120,"current_range_meters":7200,"station_id":"ce4bhu92rcd13ifvqi70","pricing_plan_id":"cebpf4jnsgd1na2vs0mg"},{"bike_id":"9d42435a-1154-473f-a4a9-a0fc5f627650","system_id":"levelo_inurba_marseille","lat":43.30435,"lon":5.39746,"is_reserved":false,"is_disabled":false,"rental_uris":{"android":"levelo://app?vid=9d42435a-1154-473f-a4a9-a0fc5f627650","ios":"levelo://app?vid=9d42435a-1154-473f-a4a9-a0fc5f627650"},"vehicle_type_id":"4","last_reported":1742296120,"current_range_meters":7200,"station_id":"ce4bh092rcd13ifvqd20","pricing_plan_id":"cebpf4jnsgd1na2vs0mg"},{"bike_id":"2665cc4b-07ed-4ae6-a66f-2b09983c709d","system_id":"levelo_inurba_marseille","lat":43.33761,"lon":5.37489,"is_reserved":false,"is_disabled":false,"rental_uris":{"android":"levelo://app?vid=2665cc4b-07ed-4ae6-a66f-2b09983c709d","ios":"levelo://app?vid=2665cc4b-07ed-4ae6-a66f-2b09983c709d"},"vehicle_type_id":"4","last_reported":1742296120,"current_range_meters":7200,"station_id":"","pricing_plan_id":"cebpf4jnsgd1na2vs0mg"},{"bike_id":"0a58f63c-51f1-4207-b504-e8870e890166","system_id":"levelo_inurba_marseille","lat":43.29966,"lon":5.37164,"is_reserved":false,"is_disabled":false,"rental_uris":{"android":"levelo://app?vid=0a58f63c-51f1-4207-b504-e8870e890166","ios":"levelo://app?vid=0a58f63c-51f1-4207-b504-e8870e890166"},"vehicle_type_id":"4","last_reported":1742296120,"current_range_meters":7200,"station_id":"ce4bgr92rcd13ifvqc7g","pricing_plan_id":"cebpf4jnsgd1na2vs0mg"},{"bike_id":"804128c7-633e-4c74-b021-ca536452f71f","system_id":"levelo_inurba_marseille","lat":43.31502,"lon":5.37281,"is_reserved":false,"is_disabled":false,"rental_uris":{"android":"levelo://app?vid=804128c7-633e-4c74-b021-ca536452f71f","ios":"levelo://app?vid=804128c7-633e-4c74-b021-ca536452f71f"},"vehicle_type_id":"4","last_reported":1742296120,"current_range_meters":8000,"station_id":"ce4bgt12rcd13ifvqcd0","pricing_plan_id":"cebpf4jnsgd1na2vs0mg"},{"bike_id":"b1b41327-66f3-4983-ac80-93a6af2a034d","system_id":"levelo_inurba_marseille","lat":43.23083,"lon":5.355,"is_reserved":false,"is_disabled":false,"rental_uris":{"android":"levelo://app?vid=b1b41327-66f3-4983-ac80-93a6af2a034d","ios":"levelo://app?vid=b1b41327-66f3-4983-ac80-93a6af2a034d"},"vehicle_type_id":"4","last_reported":1742296120,"current_range_meters":8000,"station_id":"cpo3342slgdg3j2ifvpg","pricing_plan_id":"cebpf4jnsgd1na2vs0mg"},{"bike_id":"4e98cc9a-2c15-4e32-9793-e01bc10451a4","system_id":"levelo_inurba_marseille","lat":43.26933,"lon":5.38643,"is_reserved":false,"is_disabled":false,"rental_uris":{"android":"levelo://app?vid=4e98cc9a-2c15-4e32-9793-e01bc10451a4","ios":"levelo://app?vid=4e98cc9a-2c15-4e32-9793-e01bc10451a4"},"vehicle_type_id":"4","last_reported":1742296120,"current_range_meters":8000,"station_id":"ce4bhh92rcd13ifvqfh0","pricing_plan_id":"cebpf4jnsgd1na2vs0mg"},{"bike_id":"5b067cd4-2595-4e8a-9d90-a18c6236c40c","system_id":"levelo_inurba_marseille","lat":43.28272,"lon":5.35082,"is_reserved":false,"is_disabled":false,"rental_uris":{"android":"levelo://app?vid=5b067cd4-2595-4e8a-9d90-a18c6236c40c","ios":"levelo://app?vid=5b067cd4-2595-4e8a-9d90-a18c6236c40c"},"vehicle_type_id":"4","last_reported":1742296120,"current_range_meters":7200,"station_id":"ce4bhbp2rcd13ifvqerg","pricing_plan_id":"cebpf4jnsgd1na2vs0mg"},{"bike_id":"08e80bb9-cb82-47a5-828b-291c4860b714","system_id":"levelo_inurba_marseille","lat":43.31729,"lon":5.42394,"is_reserved":false,"is_disabled":false,"rental_uris":{"android":"levelo://app?vid=08e80bb9-cb82-47a5-828b-291c4860b714","ios":"levelo://app?vid=08e80bb9-cb82-47a5-828b-291c4860b714"},"vehicle_type_id":"4","last_reported":1742296120,"current_range_meters":8000,"station_id":"ce4bhp92rcd13ifvqhbg","pricing_plan_id":"cebpf4jnsgd1na2vs0mg"},{"bike_id":"eb1c77a5-e872-49f2-aab4-89bb7dbdea8c","system_id":"levelo_inurba_marseille","lat":43.26691,"lon":5.38278,"is_reserved":false,"is_disabled":false,"rental_uris":{"android":"levelo://app?vid=eb1c77a5-e872-49f2-aab4-89bb7dbdea8c","ios":"levelo://app?vid=eb1c77a5-e872-49f2-aab4-89bb7dbdea8c"},"vehicle_type_id":"4","last_reported":1742296120,"current_range_meters":8000,"station_id":"ce4bhg92rcd13ifvqf90","pricing_plan_id":"cebpf4jnsgd1na2vs0mg"},{"bike_id":"0d3accb9-853e-4df0-b9d8-4607b8048f46","system_id":"levelo_inurba_marseille","lat":43.24168,"lon":5.36393,"is_reserved":false,"is_disabled":false,"rental_uris":{"android":"levelo://app?vid=0d3accb9-853e-4df0-b9d8-4607b8048f46","ios":"levelo://app?vid=0d3accb9-853e-4df0-b9d8-4607b8048f46"},"vehicle_type_id":"4","last_reported":1742296120,"current_range_meters":8000,"station_id":"cpo36qri1sfpv3e86is0","pricing_plan_id":"cebpf4jnsgd1na2vs0mg"},{"bike_id":"b3b435bc-527d-443c-a38c-42be9119e09f","system_id":"levelo_inurba_marseille","lat":43.23058,"lon":5.35511,"is_reserved":false,"is_disabled":false,"rental_uris":{"android":"levelo://app?vid=b3b435bc-527d-443c-a38c-42be9119e09f","ios":"levelo://app?vid=b3b435bc-527d-443c-a38c-42be9119e09f"},"vehicle_type_id":"4","last_reported":1742296120,"current_range_meters":8000,"station_id":"","pricing_plan_id":"cebpf4jnsgd1na2vs0mg"},{"bike_id":"8fe7e33b-57fc-439c-ba02-015988635c80","system_id":"levelo_inurba_marseille","lat":43.27068,"lon":5.42275,"is_reserved":false,"is_disabled":true,"rental_uris":{"android":"levelo://app?vid=8fe7e33b-57fc-439c-ba02-015988635c80","ios":"levelo://app?vid=8fe7e33b-57fc-439c-ba02-015988635c80"},"vehicle_type_id":"4","last_reported":1742296120,"current_range_meters":8000,"station_id":"ce4bhk92rcd13ifvqgb0","pricing_plan_id":"cebpf4jnsgd1na2vs0mg"},{"bike_id":"ed0b3ee9-d71f-4f28-967f-b451d0d25a28","system_id":"levelo_inurba_marseille","lat":43.29027,"lon":5.38653,"is_reserved":false,"is_disabled":false,"rental_uris":{"android":"levelo://app?vid=ed0b3ee9-d71f-4f28-967f-b451d0d25a28","ios":"levelo://app?vid=ed0b3ee9-d71f-4f28-967f-b451d0d25a28"},"vehicle_type_id":"4","last_reported":1742296120,"current_range_meters":6800,"station_id":"ce4bh4p2rcd13ifvqe0g","pricing_plan_id":"cebpf4jnsgd1na2vs0mg"},{"bike_id":"0b9ba582-634f-4ac1-9379-76b76e99eca3","system_id":"levelo_inurba_marseille","lat":43.30142,"lon":5.37419,"is_reserved":false,"is_disabled":false,"rental_uris":{"android":"levelo://app?vid=0b9ba582-634f-4ac1-9379-76b76e99eca3","ios":"levelo://app?vid=0b9ba582-634f-4ac1-9379-76b76e99eca3"},"vehicle_type_id":"4","last_reported":1742296120,"current_range_meters":8000,"station_id":"ce4bgs92rcd13ifvqcc0","pricing_plan_id":"cebpf4jnsgd1na2vs0mg"},{"bike_id":"5acfff0d-6883-40b9-90d2-621af333cea4","system_id":"levelo_inurba_marseille","lat":43.25901,"lon":5.40888,"is_reserved":false,"is_disabled":false,"rental_uris":{"android":"levelo://app?vid=5acfff0d-6883-40b9-90d2-621af333cea4","ios":"levelo://app?vid=5acfff0d-6883-40b9-90d2-621af333cea4"},"vehicle_type_id":"4","last_reported":1742296120,"current_range_meters":8400,"station_id":"ce4bhm92rcd13ifvqglg","pricing_plan_id":"cebpf4jnsgd1na2vs0mg"},{"bike_id":"6bf717e8-5a1d-40f8-ac0d-60d209ac9891","system_id":"levelo_inurba_marseille","lat":43.2848,"lon":5.38557,"is_reserved":false,"is_disabled":false,"rental_uris":{"android":"levelo://app?vid=6bf717e8-5a1d-40f8-ac0d-60d209ac9891","ios":"levelo://app?vid=6bf717e8-5a1d-40f8-ac0d-60d209ac9891"},"vehicle_type_id":"4","last_reported":1742296120,"current_range_meters":8000,"station_id":"ce4bh8p2rcd13ifvqeb0","pricing_plan_id":"cebpf4jnsgd1na2vs0mg"},{"bike_id":"471f5fbc-6874-4cb9-971b-b7eab940a21c","system_id":"levelo_inurba_marseille","lat":43.30935,"lon":5.40143,"is_reserved":false,"is_disabled":false,"rental_uris":{"android":"levelo://app?vid=471f5fbc-6874-4cb9-971b-b7eab940a21c","ios":"levelo://app?vid=471f5fbc-6874-4cb9-971b-b7eab940a21c"},"vehicle_type_id":"4","last_reported":1742296120,"current_range_meters":8400,"station_id":"ce4bgvp2rcd13ifvqct0","pricing_plan_id":"cebpf4jnsgd1na2vs0mg"},{"bike_id":"97a1e633-c2b3-487e-8569-9036bf18d175","system_id":"levelo_inurba_marseille","lat":43.24185,"lon":5.36388,"is_reserved":false,"is_disabled":false,"rental_uris":{"android":"levelo://app?vid=97a1e633-c2b3-487e-8569-9036bf18d175","ios":"levelo://app?vid=97a1e633-c2b3-487e-8569-9036bf18d175"},"vehicle_type_id":"4","last_reported":1742296120,"current_range_meters":8400,"station_id":"cpo36qri1sfpv3e86is0","pricing_plan_id":"cebpf4jnsgd1na2vs0mg"},{"bike_id":"0414c92c-7144-48ed-abc0-69cdccd9ea5d","system_id":"levelo_inurba_marseille","lat":43.24165,"lon":5.39695,"is_reserved":false,"is_disabled":false,"rental_uris":{"android":"levelo://app?vid=0414c92c-7144-48ed-abc0-69cdccd9ea5d","ios":"levelo://app?vid=0414c92c-7144-48ed-abc0-69cdccd9ea5d"},"vehicle_type_id":"4","last_reported":1742296120,"current_range_meters":8400,"station_id":"ce4bhn12rcd13ifvqgpg","pricing_plan_id":"cebpf4jnsgd1na2vs0mg"},{"bike_id":"51e852b1-f7ac-4d2b-82ed-5d3312e1320f","system_id":"levelo_inurba_marseille","lat":43.3362,"lon":5.40984,"is_reserved":false,"is_disabled":false,"rental_uris":{"android":"levelo://app?vid=51e852b1-f7ac-4d2b-82ed-5d3312e1320f","ios":"levelo://app?vid=51e852b1-f7ac-4d2b-82ed-5d3312e1320f"},"vehicle_type_id":"4","last_reported":1742296120,"current_range_meters":8400,"station_id":"ce4bhqh2rcd13ifvqhmg","pricing_plan_id":"cebpf4jnsgd1na2vs0mg"},{"bike_id":"e9b1bba1-e44b-4eeb-9fff-ea5fc3282856","system_id":"levelo_inurba_marseille","lat":43.32367,"lon":5.38886,"is_reserved":false,"is_disabled":false,"rental_uris":{"android":"levelo://app?vid=e9b1bba1-e44b-4eeb-9fff-ea5fc3282856","ios":"levelo://app?vid=e9b1bba1-e44b-4eeb-9fff-ea5fc3282856"},"vehicle_type_id":"4","last_reported":1742296120,"current_range_meters":8400,"station_id":"ce4bhqp2rcd13ifvqhog","pricing_plan_id":"cebpf4jnsgd1na2vs0mg"},{"bike_id":"bf53558a-323c-40e3-9c37-ac64ba388e1c","system_id":"levelo_inurba_marseille","lat":43.23962,"lon":5.3662,"is_reserved":false,"is_disabled":false,"rental_uris":{"android":"levelo://app?vid=bf53558a-323c-40e3-9c37-ac64ba388e1c","ios":"levelo://app?vid=bf53558a-323c-40e3-9c37-ac64ba388e1c"},"vehicle_type_id":"4","last_reported":1742296120,"current_range_meters":8400,"station_id":"ce4bhi12rcd13ifvqfp0","pricing_plan_id":"cebpf4jnsgd1na2vs0mg"},{"bike_id":"82d3dad7-63f3-4a7e-8219-54f8cb3f7636","system_id":"levelo_inurba_marseille","lat":43.23159,"lon":5.43722,"is_reserved":false,"is_disabled":false,"rental_uris":{"android":"levelo://app?vid=82d3dad7-63f3-4a7e-8219-54f8cb3f7636","ios":"levelo://app?vid=82d3dad7-63f3-4a7e-8219-54f8cb3f7636"},"vehicle_type_id":"4","last_reported":1742296120,"current_range_meters":8800,"station_id":"ce4bhmp2rcd13ifvqgog","pricing_plan_id":"cebpf4jnsgd1na2vs0mg"},{"bike_id":"ea7f16e6-de90-4692-b642-b4503d1ac536","system_id":"levelo_inurba_marseille","lat":43.2439,"lon":5.37042,"is_reserved":false,"is_disabled":false,"rental_uris":{"android":"levelo://app?vid=ea7f16e6-de90-4692-b642-b4503d1ac536","ios":"levelo://app?vid=ea7f16e6-de90-4692-b642-b4503d1ac536"},"vehicle_type_id":"4","last_reported":1742296120,"current_range_meters":8800,"station_id":"ce4bhhh2rcd13ifvqfk0","pricing_plan_id":"cebpf4jnsgd1na2vs0mg"},{"bike_id":"4de8e2ff-5a92-48dc-9656-d4c8e0b73981","system_id":"levelo_inurba_marseille","lat":43.24553,"lon":5.39518,"is_reserved":false,"is_disabled":false,"rental_uris":{"android":"levelo://app?vid=4de8e2ff-5a92-48dc-9656-d4c8e0b73981","ios":"levelo://app?vid=4de8e2ff-5a92-48dc-9656-d4c8e0b73981"},"vehicle_type_id":"4","last_reported":1742296120,"current_range_meters":8800,"station_id":"ce4bhlp2rcd13ifvqgjg","pricing_plan_id":"cebpf4jnsgd1na2vs0mg"},{"bike_id":"ac13bb18-fac9-468b-a3ac-62f37833720e","system_id":"levelo_inurba_marseille","lat":43.29259,"lon":5.37621,"is_reserved":false,"is_disabled":false,"rental_uris":{"android":"levelo://app?vid=ac13bb18-fac9-468b-a3ac-62f37833720e","ios":"levelo://app?vid=ac13bb18-fac9-468b-a3ac-62f37833720e"},"vehicle_type_id":"4","last_reported":1742296120,"current_range_meters":9200,"station_id":"ce4bgi12rcd13ifvqb80","pricing_plan_id":"cebpf4jnsgd1na2vs0mg"},{"bike_id":"5f45fabe-4370-4661-8c5d-1ccb3acdd2c3","system_id":"levelo_inurba_marseille","lat":43.3237,"lon":5.38882,"is_reserved":false,"is_disabled":false,"rental_uris":{"android":"levelo://app?vid=5f45fabe-4370-4661-8c5d-1ccb3acdd2c3","ios":"levelo://app?vid=5f45fabe-4370-4661-8c5d-1ccb3acdd2c3"},"vehicle_type_id":"4","last_reported":1742296120,"current_range_meters":8800,"station_id":"ce4bhqp2rcd13ifvqhog","pricing_plan_id":"cebpf4jnsgd1na2vs0mg"},{"bike_id":"eb11b094-bf47-43ab-bffd-d6c6fa0bddc2","system_id":"levelo_inurba_marseille","lat":43.25001,"lon":5.38937,"is_reserved":false,"is_disabled":false,"rental_uris":{"android":"levelo://app?vid=eb11b094-bf47-43ab-bffd-d6c6fa0bddc2","ios":"levelo://app?vid=eb11b094-bf47-43ab-bffd-d6c6fa0bddc2"},"vehicle_type_id":"4","last_reported":1742296120,"current_range_meters":9200,"station_id":"ce4bhgp2rcd13ifvqfd0","pricing_plan_id":"cebpf4jnsgd1na2vs0mg"},{"bike_id":"b73d4104-b747-4b3f-9858-c508f4b18edd","system_id":"levelo_inurba_marseille","lat":43.324869,"lon":5.36589,"is_reserved":false,"is_disabled":false,"rental_uris":{"android":"levelo://app?vid=b73d4104-b747-4b3f-9858-c508f4b18edd","ios":"levelo://app?vid=b73d4104-b747-4b3f-9858-c508f4b18edd"},"vehicle_type_id":"4","last_reported":1742296120,"current_range_meters":9200,"station_id":"ce4bhs12rcd13ifvqhvg","pricing_plan_id":"cebpf4jnsgd1na2vs0mg"},{"bike_id":"1ebf2e8f-468e-4ae8-a2d3-09b3b1d8cbbd","system_id":"levelo_inurba_marseille","lat":43.32487,"lon":5.3656,"is_reserved":false,"is_disabled":false,"rental_uris":{"android":"levelo://app?vid=1ebf2e8f-468e-4ae8-a2d3-09b3b1d8cbbd","ios":"levelo://app?vid=1ebf2e8f-468e-4ae8-a2d3-09b3b1d8cbbd"},"vehicle_type_id":"4","last_reported":1742296120,"current_range_meters":9200,"station_id":"ce4bhs12rcd13ifvqhvg","pricing_plan_id":"cebpf4jnsgd1na2vs0mg"},{"bike_id":"09be20b3-ccfa-43d5-8616-036d82fe33a0","system_id":"levelo_inurba_marseille","lat":43.25,"lon":5.38934,"is_reserved":false,"is_disabled":false,"rental_uris":{"android":"levelo://app?vid=09be20b3-ccfa-43d5-8616-036d82fe33a0","ios":"levelo://app?vid=09be20b3-ccfa-43d5-8616-036d82fe33a0"},"vehicle_type_id":"4","last_reported":1742296120,"current_range_meters":9200,"station_id":"ce4bhgp2rcd13ifvqfd0","pricing_plan_id":"cebpf4jnsgd1na2vs0mg"},{"bike_id":"2b455803-e416-4d5f-9b63-48c66adf1ea7","system_id":"levelo_inurba_marseille","lat":43.2706,"lon":5.40261,"is_reserved":false,"is_disabled":false,"rental_uris":{"android":"levelo://app?vid=2b455803-e416-4d5f-9b63-48c66adf1ea7","ios":"levelo://app?vid=2b455803-e416-4d5f-9b63-48c66adf1ea7"},"vehicle_type_id":"4","last_reported":1742296120,"current_range_meters":9200,"station_id":"ce4bhk92rcd13ifvqgc0","pricing_plan_id":"cebpf4jnsgd1na2vs0mg"},{"bike_id":"393025a0-1c51-472e-a5fd-83bb9b39b412","system_id":"levelo_inurba_marseille","lat":43.25596,"lon":5.38235,"is_reserved":false,"is_disabled":false,"rental_uris":{"android":"levelo://app?vid=393025a0-1c51-472e-a5fd-83bb9b39b412","ios":"levelo://app?vid=393025a0-1c51-472e-a5fd-83bb9b39b412"},"vehicle_type_id":"4","last_reported":1742296120,"current_range_meters":9200,"station_id":"ce4bhih2rcd13ifvqfs0","pricing_plan_id":"cebpf4jnsgd1na2vs0mg"},{"bike_id":"741d391f-90d7-4181-bd12-a5dd4665e554","system_id":"levelo_inurba_marseille","lat":43.25925,"lon":5.40869,"is_reserved":false,"is_disabled":false,"rental_uris":{"android":"levelo://app?vid=741d391f-90d7-4181-bd12-a5dd4665e554","ios":"levelo://app?vid=741d391f-90d7-4181-bd12-a5dd4665e554"},"vehicle_type_id":"4","last_reported":1742296120,"current_range_meters":9200,"station_id":"ce4bhm92rcd13ifvqglg","pricing_plan_id":"cebpf4jnsgd1na2vs0mg"},{"bike_id":"13ee90d6-43f1-4f5d-94d8-e0b0679e9a53","system_id":"levelo_inurba_marseille","lat":43.32096,"lon":5.36767,"is_reserved":false,"is_disabled":false,"rental_uris":{"android":"levelo://app?vid=13ee90d6-43f1-4f5d-94d8-e0b0679e9a53","ios":"levelo://app?vid=13ee90d6-43f1-4f5d-94d8-e0b0679e9a53"},"vehicle_type_id":"4","last_reported":1742296120,"current_range_meters":9200,"station_id":"ce4bhrh2rcd13ifvqhug","pricing_plan_id":"cebpf4jnsgd1na2vs0mg"},{"bike_id":"39d2df96-c36f-4593-8a68-432fe8c8d072","system_id":"levelo_inurba_marseille","lat":43.29905,"lon":5.43667,"is_reserved":false,"is_disabled":false,"rental_uris":{"android":"levelo://app?vid=39d2df96-c36f-4593-8a68-432fe8c8d072","ios":"levelo://app?vid=39d2df96-c36f-4593-8a68-432fe8c8d072"},"vehicle_type_id":"4","last_reported":1742296120,"current_range_meters":9600,"station_id":"ce4bhpp2rcd13ifvqhfg","pricing_plan_id":"cebpf4jnsgd1na2vs0mg"},{"bike_id":"88a59591-0c64-4e7c-826d-6b9574c6f954","system_id":"levelo_inurba_marseille","lat":43.24393,"lon":5.37074,"is_reserved":false,"is_disabled":false,"rental_uris":{"android":"levelo://app?vid=88a59591-0c64-4e7c-826d-6b9574c6f954","ios":"levelo://app?vid=88a59591-0c64-4e7c-826d-6b9574c6f954"},"vehicle_type_id":"4","last_reported":1742296120,"current_range_meters":9600,"station_id":"ce4bhhh2rcd13ifvqfk0","pricing_plan_id":"cebpf4jnsgd1na2vs0mg"},{"bike_id":"d0ecd06f-b344-485c-8550-9fa5bf448f53","system_id":"levelo_inurba_marseille","lat":43.25822,"lon":5.39438,"is_reserved":false,"is_disabled":false,"rental_uris":{"android":"levelo://app?vid=d0ecd06f-b344-485c-8550-9fa5bf448f53","ios":"levelo://app?vid=d0ecd06f-b344-485c-8550-9fa5bf448f53"},"vehicle_type_id":"4","last_reported":1742296120,"current_range_meters":9600,"station_id":"ce4bhip2rcd13ifvqft0","pricing_plan_id":"cebpf4jnsgd1na2vs0mg"},{"bike_id":"02f219f4-ab1e-4f3c-b8f8-0f3f096d2dc6","system_id":"levelo_inurba_marseille","lat":43.29577,"lon":5.38096,"is_reserved":false,"is_disabled":true,"rental_uris":{"android":"levelo://app?vid=02f219f4-ab1e-4f3c-b8f8-0f3f096d2dc6","ios":"levelo://app?vid=02f219f4-ab1e-4f3c-b8f8-0f3f096d2dc6"},"vehicle_type_id":"4","last_reported":1742296120,"current_range_meters":9600,"station_id":"ce4bgl12rcd13ifvqbo0","pricing_plan_id":"cebpf4jnsgd1na2vs0mg"},{"bike_id":"51f23f44-adc9-49f8-8563-11e4ac2b1978","system_id":"levelo_inurba_marseille","lat":43.23155,"lon":5.43715,"is_reserved":false,"is_disabled":false,"rental_uris":{"android":"levelo://app?vid=51f23f44-adc9-49f8-8563-11e4ac2b1978","ios":"levelo://app?vid=51f23f44-adc9-49f8-8563-11e4ac2b1978"},"vehicle_type_id":"4","last_reported":1742296120,"current_range_meters":9600,"station_id":"ce4bhmp2rcd13ifvqgog","pricing_plan_id":"cebpf4jnsgd1na2vs0mg"},{"bike_id":"0c4a64e1-11cb-4407-9cfa-fa4b4ced6c54","system_id":"levelo_inurba_marseille","lat":43.241887,"lon":5.396988,"is_reserved":false,"is_disabled":false,"rental_uris":{"android":"levelo://app?vid=0c4a64e1-11cb-4407-9cfa-fa4b4ced6c54","ios":"levelo://app?vid=0c4a64e1-11cb-4407-9cfa-fa4b4ced6c54"},"vehicle_type_id":"4","last_reported":1742296120,"current_range_meters":9600,"station_id":"ce4bhn12rcd13ifvqgpg","pricing_plan_id":"cebpf4jnsgd1na2vs0mg"},{"bike_id":"34d1629b-6df8-4406-a813-43ef29045376","system_id":"levelo_inurba_marseille","lat":43.30136,"lon":5.37425,"is_reserved":false,"is_disabled":false,"rental_uris":{"android":"levelo://app?vid=34d1629b-6df8-4406-a813-43ef29045376","ios":"levelo://app?vid=34d1629b-6df8-4406-a813-43ef29045376"},"vehicle_type_id":"4","last_reported":1742296120,"current_range_meters":9600,"station_id":"ce4bgs92rcd13ifvqcc0","pricing_plan_id":"cebpf4jnsgd1na2vs0mg"},{"bike_id":"8ac28d78-5edd-4b74-a78b-469ba0ce1454","system_id":"levelo_inurba_marseille","lat":43.27075,"lon":5.42269,"is_reserved":false,"is_disabled":false,"rental_uris":{"android":"levelo://app?vid=8ac28d78-5edd-4b74-a78b-469ba0ce1454","ios":"levelo://app?vid=8ac28d78-5edd-4b74-a78b-469ba0ce1454"},"vehicle_type_id":"4","last_reported":1742296120,"current_range_meters":9600,"station_id":"ce4bhk92rcd13ifvqgb0","pricing_plan_id":"cebpf4jnsgd1na2vs0mg"},{"bike_id":"4e950670-b096-4049-8c8c-3012830ea5a4","system_id":"levelo_inurba_marseille","lat":43.24389,"lon":5.37064,"is_reserved":false,"is_disabled":false,"rental_uris":{"android":"levelo://app?vid=4e950670-b096-4049-8c8c-3012830ea5a4","ios":"levelo://app?vid=4e950670-b096-4049-8c8c-3012830ea5a4"},"vehicle_type_id":"4","last_reported":1742296120,"current_range_meters":9600,"station_id":"ce4bhhh2rcd13ifvqfk0","pricing_plan_id":"cebpf4jnsgd1na2vs0mg"},{"bike_id":"0b60e72b-d8b1-4266-9b63-b94b87c1ad4b","system_id":"levelo_inurba_marseille","lat":43.23192,"lon":5.39984,"is_reserved":false,"is_disabled":false,"rental_uris":{"android":"levelo://app?vid=0b60e72b-d8b1-4266-9b63-b94b87c1ad4b","ios":"levelo://app?vid=0b60e72b-d8b1-4266-9b63-b94b87c1ad4b"},"vehicle_type_id":"4","last_reported":1742296120,"current_range_meters":10000,"station_id":"ce4bhn12rcd13ifvqgqg","pricing_plan_id":"cebpf4jnsgd1na2vs0mg"},{"bike_id":"29477c18-ae07-40ca-abca-b6a0b19bf64e","system_id":"levelo_inurba_marseille","lat":43.29253,"lon":5.37612,"is_reserved":false,"is_disabled":false,"rental_uris":{"android":"levelo://app?vid=29477c18-ae07-40ca-abca-b6a0b19bf64e","ios":"levelo://app?vid=29477c18-ae07-40ca-abca-b6a0b19bf64e"},"vehicle_type_id":"4","last_reported":1742296120,"current_range_meters":10000,"station_id":"ce4bgi12rcd13ifvqb80","pricing_plan_id":"cebpf4jnsgd1na2vs0mg"},{"bike_id":"519efbbc-7577-4063-8eac-658ef30e98a3","system_id":"levelo_inurba_marseille","lat":43.2502,"lon":5.38963,"is_reserved":false,"is_disabled":false,"rental_uris":{"android":"levelo://app?vid=519efbbc-7577-4063-8eac-658ef30e98a3","ios":"levelo://app?vid=519efbbc-7577-4063-8eac-658ef30e98a3"},"vehicle_type_id":"4","last_reported":1742296120,"current_range_meters":10000,"station_id":"ce4bhgp2rcd13ifvqfd0","pricing_plan_id":"cebpf4jnsgd1na2vs0mg"},{"bike_id":"794247f9-0198-41ae-9af5-991ded60b492","system_id":"levelo_inurba_marseille","lat":43.24695,"lon":5.38154,"is_reserved":false,"is_disabled":false,"rental_uris":{"android":"levelo://app?vid=794247f9-0198-41ae-9af5-991ded60b492","ios":"levelo://app?vid=794247f9-0198-41ae-9af5-991ded60b492"},"vehicle_type_id":"4","last_reported":1742296120,"current_range_meters":10000,"station_id":"ce4bhih2rcd13ifvqfr0","pricing_plan_id":"cebpf4jnsgd1na2vs0mg"},{"bike_id":"c445c78e-fa7f-4ea8-9bdd-3797de6e755f","system_id":"levelo_inurba_marseille","lat":43.27995,"lon":5.38748,"is_reserved":false,"is_disabled":false,"rental_uris":{"android":"levelo://app?vid=c445c78e-fa7f-4ea8-9bdd-3797de6e755f","ios":"levelo://app?vid=c445c78e-fa7f-4ea8-9bdd-3797de6e755f"},"vehicle_type_id":"4","last_reported":1742296120,"current_range_meters":10000,"station_id":"ce4bhg12rcd13ifvqf80","pricing_plan_id":"cebpf4jnsgd1na2vs0mg"},{"bike_id":"60ba5b69-d171-44fe-b70d-d520985a06d5","system_id":"levelo_inurba_marseille","lat":43.32366,"lon":5.38881,"is_reserved":false,"is_disabled":false,"rental_uris":{"android":"levelo://app?vid=60ba5b69-d171-44fe-b70d-d520985a06d5","ios":"levelo://app?vid=60ba5b69-d171-44fe-b70d-d520985a06d5"},"vehicle_type_id":"4","last_reported":1742296120,"current_range_meters":10000,"station_id":"ce4bhqp2rcd13ifvqhog","pricing_plan_id":"cebpf4jnsgd1na2vs0mg"},{"bike_id":"2fc9495d-c829-4229-a4db-5c8674880d7a","system_id":"levelo_inurba_marseille","lat":43.23062,"lon":5.35495,"is_reserved":false,"is_disabled":false,"rental_uris":{"android":"levelo://app?vid=2fc9495d-c829-4229-a4db-5c8674880d7a","ios":"levelo://app?vid=2fc9495d-c829-4229-a4db-5c8674880d7a"},"vehicle_type_id":"4","last_reported":1742296120,"current_range_meters":10000,"station_id":"cpo3342slgdg3j2ifvpg","pricing_plan_id":"cebpf4jnsgd1na2vs0mg"},{"bike_id":"b6cdf110-b816-4043-a17c-0c205b85ffed","system_id":"levelo_inurba_marseille","lat":43.25577,"lon":5.38232,"is_reserved":false,"is_disabled":false,"rental_uris":{"android":"levelo://app?vid=b6cdf110-b816-4043-a17c-0c205b85ffed","ios":"levelo://app?vid=b6cdf110-b816-4043-a17c-0c205b85ffed"},"vehicle_type_id":"4","last_reported":1742296120,"current_range_meters":10000,"station_id":"ce4bhih2rcd13ifvqfs0","pricing_plan_id":"cebpf4jnsgd1na2vs0mg"},{"bike_id":"dd4787ac-b247-4204-b3f3-a3164a30a846","system_id":"levelo_inurba_marseille","lat":43.30555,"lon":5.36528,"is_reserved":false,"is_disabled":false,"rental_uris":{"android":"levelo://app?vid=dd4787ac-b247-4204-b3f3-a3164a30a846","ios":"levelo://app?vid=dd4787ac-b247-4204-b3f3-a3164a30a846"},"vehicle_type_id":"4","last_reported":1742296120,"current_range_meters":10000,"station_id":"ce4bgs12rcd13ifvqcag","pricing_plan_id":"cebpf4jnsgd1na2vs0mg"},{"bike_id":"61a081fb-cc44-4014-8ce7-6d15812eb884","system_id":"levelo_inurba_marseille","lat":43.29569,"lon":5.39982,"is_reserved":false,"is_disabled":false,"rental_uris":{"android":"levelo://app?vid=61a081fb-cc44-4014-8ce7-6d15812eb884","ios":"levelo://app?vid=61a081fb-cc44-4014-8ce7-6d15812eb884"},"vehicle_type_id":"4","last_reported":1742296120,"current_range_meters":10800,"station_id":"ce4bh312rcd13ifvqdj0","pricing_plan_id":"cebpf4jnsgd1na2vs0mg"},{"bike_id":"556684a2-dbc0-411e-bc60-3a853e342ff2","system_id":"levelo_inurba_marseille","lat":43.24816,"lon":5.37462,"is_reserved":false,"is_disabled":false,"rental_uris":{"android":"levelo://app?vid=556684a2-dbc0-411e-bc60-3a853e342ff2","ios":"levelo://app?vid=556684a2-dbc0-411e-bc60-3a853e342ff2"},"vehicle_type_id":"4","last_reported":1742296120,"current_range_meters":10800,"station_id":"ce4bhgh2rcd13ifvqfb0","pricing_plan_id":"cebpf4jnsgd1na2vs0mg"},{"bike_id":"ba5d3480-1a5a-482d-ab61-a5d8efa4abbe","system_id":"levelo_inurba_marseille","lat":43.29262,"lon":5.37608,"is_reserved":false,"is_disabled":false,"rental_uris":{"android":"levelo://app?vid=ba5d3480-1a5a-482d-ab61-a5d8efa4abbe","ios":"levelo://app?vid=ba5d3480-1a5a-482d-ab61-a5d8efa4abbe"},"vehicle_type_id":"4","last_reported":1742296120,"current_range_meters":10800,"station_id":"ce4bgi12rcd13ifvqb80","pricing_plan_id":"cebpf4jnsgd1na2vs0mg"},{"bike_id":"b611c071-f0bb-41a2-aa25-420b921bc079","system_id":"levelo_inurba_marseille","lat":43.23061,"lon":5.35491,"is_reserved":false,"is_disabled":false,"rental_uris":{"android":"levelo://app?vid=b611c071-f0bb-41a2-aa25-420b921bc079","ios":"levelo://app?vid=b611c071-f0bb-41a2-aa25-420b921bc079"},"vehicle_type_id":"4","last_reported":1742296120,"current_range_meters":10800,"station_id":"cpo3342slgdg3j2ifvpg","pricing_plan_id":"cebpf4jnsgd1na2vs0mg"},{"bike_id":"5b9abdf1-3bd3-4da9-8cf3-0850e045aa24","system_id":"levelo_inurba_marseille","lat":43.2306,"lon":5.35489,"is_reserved":false,"is_disabled":false,"rental_uris":{"android":"levelo://app?vid=5b9abdf1-3bd3-4da9-8cf3-0850e045aa24","ios":"levelo://app?vid=5b9abdf1-3bd3-4da9-8cf3-0850e045aa24"},"vehicle_type_id":"4","last_reported":1742296120,"current_range_meters":10800,"station_id":"cpo3342slgdg3j2ifvpg","pricing_plan_id":"cebpf4jnsgd1na2vs0mg"},{"bike_id":"89a9a07a-5569-426e-baa6-da72a98a25be","system_id":"levelo_inurba_marseille","lat":43.323615,"lon":5.388745,"is_reserved":false,"is_disabled":false,"rental_uris":{"android":"levelo://app?vid=89a9a07a-5569-426e-baa6-da72a98a25be","ios":"levelo://app?vid=89a9a07a-5569-426e-baa6-da72a98a25be"},"vehicle_type_id":"4","last_reported":1742296120,"current_range_meters":10800,"station_id":"ce4bhqp2rcd13ifvqhog","pricing_plan_id":"cebpf4jnsgd1na2vs0mg"},{"bike_id":"d219273c-516a-433e-8518-27ae4fe8fad4","system_id":"levelo_inurba_marseille","lat":43.27688,"lon":5.38903,"is_reserved":false,"is_disabled":false,"rental_uris":{"android":"levelo://app?vid=d219273c-516a-433e-8518-27ae4fe8fad4","ios":"levelo://app?vid=d219273c-516a-433e-8518-27ae4fe8fad4"},"vehicle_type_id":"4","last_reported":1742296120,"current_range_meters":10800,"station_id":"ce4bhi12rcd13ifvqfo0","pricing_plan_id":"cebpf4jnsgd1na2vs0mg"},{"bike_id":"68cc12d4-dbb0-4edf-b050-67efc670d3a8","system_id":"levelo_inurba_marseille","lat":43.31222,"lon":5.36865,"is_reserved":false,"is_disabled":false,"rental_uris":{"android":"levelo://app?vid=68cc12d4-dbb0-4edf-b050-67efc670d3a8","ios":"levelo://app?vid=68cc12d4-dbb0-4edf-b050-67efc670d3a8"},"vehicle_type_id":"4","last_reported":1742296120,"current_range_meters":10800,"station_id":"ce4bgl92rcd13ifvqbq0","pricing_plan_id":"cebpf4jnsgd1na2vs0mg"},{"bike_id":"25ced1d0-c7f3-4b5e-b25e-0f66ead06834","system_id":"levelo_inurba_marseille","lat":43.25865,"lon":5.39907,"is_reserved":false,"is_disabled":true,"rental_uris":{"android":"levelo://app?vid=25ced1d0-c7f3-4b5e-b25e-0f66ead06834","ios":"levelo://app?vid=25ced1d0-c7f3-4b5e-b25e-0f66ead06834"},"vehicle_type_id":"4","last_reported":1742296120,"current_range_meters":11200,"station_id":"ce4bhl92rcd13ifvqghg","pricing_plan_id":"cebpf4jnsgd1na2vs0mg"},{"bike_id":"181e3e56-f011-4aab-956d-9d49d55e063c","system_id":"levelo_inurba_marseille","lat":43.32366,"lon":5.36761,"is_reserved":false,"is_disabled":false,"rental_uris":{"android":"levelo://app?vid=181e3e56-f011-4aab-956d-9d49d55e063c","ios":"levelo://app?vid=181e3e56-f011-4aab-956d-9d49d55e063c"},"vehicle_type_id":"4","last_reported":1742296120,"current_range_meters":11200,"station_id":"ce4bhsh2rcd13ifvqi2g","pricing_plan_id":"cebpf4jnsgd1na2vs0mg"},{"bike_id":"3f3a8876-1a04-4a76-981d-27bf92fbe325","system_id":"levelo_inurba_marseille","lat":43.31714,"lon":5.43706,"is_reserved":false,"is_disabled":false,"rental_uris":{"android":"levelo://app?vid=3f3a8876-1a04-4a76-981d-27bf92fbe325","ios":"levelo://app?vid=3f3a8876-1a04-4a76-981d-27bf92fbe325"},"vehicle_type_id":"4","last_reported":1742296120,"current_range_meters":11200,"station_id":"ce4bhp92rcd13ifvqhcg","pricing_plan_id":"cebpf4jnsgd1na2vs0mg"},{"bike_id":"abf89516-883d-4e4d-848f-d8d21d61ec38","system_id":"levelo_inurba_marseille","lat":43.295803,"lon":5.37521,"is_reserved":false,"is_disabled":false,"rental_uris":{"android":"levelo://app?vid=abf89516-883d-4e4d-848f-d8d21d61ec38","ios":"levelo://app?vid=abf89516-883d-4e4d-848f-d8d21d61ec38"},"vehicle_type_id":"4","last_reported":1742296120,"current_range_meters":11200,"station_id":"ce4bha92rcd13ifvqeh0","pricing_plan_id":"cebpf4jnsgd1na2vs0mg"},{"bike_id":"8fe397d1-0f69-4faf-95d9-5ccc5e1a02c4","system_id":"levelo_inurba_marseille","lat":43.25021,"lon":5.38928,"is_reserved":false,"is_disabled":false,"rental_uris":{"android":"levelo://app?vid=8fe397d1-0f69-4faf-95d9-5ccc5e1a02c4","ios":"levelo://app?vid=8fe397d1-0f69-4faf-95d9-5ccc5e1a02c4"},"vehicle_type_id":"4","last_reported":1742296120,"current_range_meters":11200,"station_id":"ce4bhgp2rcd13ifvqfd0","pricing_plan_id":"cebpf4jnsgd1na2vs0mg"},{"bike_id":"b885f75f-3c96-46ec-8caf-25e821eabbb9","system_id":"levelo_inurba_marseille","lat":43.23138,"lon":5.4369,"is_reserved":false,"is_disabled":false,"rental_uris":{"android":"levelo://app?vid=b885f75f-3c96-46ec-8caf-25e821eabbb9","ios":"levelo://app?vid=b885f75f-3c96-46ec-8caf-25e821eabbb9"},"vehicle_type_id":"4","last_reported":1742296120,"current_range_meters":11200,"station_id":"ce4bhmp2rcd13ifvqgog","pricing_plan_id":"cebpf4jnsgd1na2vs0mg"},{"bike_id":"7f2d3a10-fb38-49e6-9c91-ea2286af82e2","system_id":"levelo_inurba_marseille","lat":43.25932,"lon":5.40913,"is_reserved":false,"is_disabled":false,"rental_uris":{"android":"levelo://app?vid=7f2d3a10-fb38-49e6-9c91-ea2286af82e2","ios":"levelo://app?vid=7f2d3a10-fb38-49e6-9c91-ea2286af82e2"},"vehicle_type_id":"4","last_reported":1742296120,"current_range_meters":11200,"station_id":"ce4bhm92rcd13ifvqglg","pricing_plan_id":"cebpf4jnsgd1na2vs0mg"},{"bike_id":"fe78a566-04ec-4269-a62f-23329583c7d4","system_id":"levelo_inurba_marseille","lat":43.324831,"lon":5.365683,"is_reserved":false,"is_disabled":false,"rental_uris":{"android":"levelo://app?vid=fe78a566-04ec-4269-a62f-23329583c7d4","ios":"levelo://app?vid=fe78a566-04ec-4269-a62f-23329583c7d4"},"vehicle_type_id":"4","last_reported":1742296120,"current_range_meters":11200,"station_id":"ce4bhs12rcd13ifvqhvg","pricing_plan_id":"cebpf4jnsgd1na2vs0mg"},{"bike_id":"6d985db4-1dee-417e-a887-82d742f29815","system_id":"levelo_inurba_marseille","lat":43.27058,"lon":5.40257,"is_reserved":false,"is_disabled":false,"rental_uris":{"android":"levelo://app?vid=6d985db4-1dee-417e-a887-82d742f29815","ios":"levelo://app?vid=6d985db4-1dee-417e-a887-82d742f29815"},"vehicle_type_id":"4","last_reported":1742296120,"current_range_meters":11600,"station_id":"ce4bhk92rcd13ifvqgc0","pricing_plan_id":"cebpf4jnsgd1na2vs0mg"},{"bike_id":"522f99cb-f105-4bf1-8b05-dccec75ba908","system_id":"levelo_inurba_marseille","lat":43.302756,"lon":5.37683,"is_reserved":false,"is_disabled":true,"rental_uris":{"android":"levelo://app?vid=522f99cb-f105-4bf1-8b05-dccec75ba908","ios":"levelo://app?vid=522f99cb-f105-4bf1-8b05-dccec75ba908"},"vehicle_type_id":"4","last_reported":1742296120,"current_range_meters":11600,"station_id":"","pricing_plan_id":"cebpf4jnsgd1na2vs0mg"},{"bike_id":"2f12fca9-4d34-49cf-9dff-efeedc1d1347","system_id":"levelo_inurba_marseille","lat":43.29025,"lon":5.38645,"is_reserved":false,"is_disabled":false,"rental_uris":{"android":"levelo://app?vid=2f12fca9-4d34-49cf-9dff-efeedc1d1347","ios":"levelo://app?vid=2f12fca9-4d34-49cf-9dff-efeedc1d1347"},"vehicle_type_id":"4","last_reported":1742296120,"current_range_meters":11600,"station_id":"ce4bh4p2rcd13ifvqe0g","pricing_plan_id":"cebpf4jnsgd1na2vs0mg"},{"bike_id":"ad21d957-c0ea-4c86-82f5-b3682e2201c9","system_id":"levelo_inurba_marseille","lat":43.24164,"lon":5.39731,"is_reserved":false,"is_disabled":false,"rental_uris":{"android":"levelo://app?vid=ad21d957-c0ea-4c86-82f5-b3682e2201c9","ios":"levelo://app?vid=ad21d957-c0ea-4c86-82f5-b3682e2201c9"},"vehicle_type_id":"4","last_reported":1742296120,"current_range_meters":11600,"station_id":"ce4bhn12rcd13ifvqgpg","pricing_plan_id":"cebpf4jnsgd1na2vs0mg"},{"bike_id":"21ccb767-52a1-45b3-a164-abf872aeb2d6","system_id":"levelo_inurba_marseille","lat":43.3361,"lon":5.41006,"is_reserved":false,"is_disabled":false,"rental_uris":{"android":"levelo://app?vid=21ccb767-52a1-45b3-a164-abf872aeb2d6","ios":"levelo://app?vid=21ccb767-52a1-45b3-a164-abf872aeb2d6"},"vehicle_type_id":"4","last_reported":1742296120,"current_range_meters":12000,"station_id":"ce4bhqh2rcd13ifvqhmg","pricing_plan_id":"cebpf4jnsgd1na2vs0mg"},{"bike_id":"90831094-9c74-44df-b579-ae685fca05e4","system_id":"levelo_inurba_marseille","lat":43.29283,"lon":5.40117,"is_reserved":false,"is_disabled":false,"rental_uris":{"android":"levelo://app?vid=90831094-9c74-44df-b579-ae685fca05e4","ios":"levelo://app?vid=90831094-9c74-44df-b579-ae685fca05e4"},"vehicle_type_id":"4","last_reported":1742296120,"current_range_meters":12000,"station_id":"ce4bh312rcd13ifvqdk0","pricing_plan_id":"cebpf4jnsgd1na2vs0mg"},{"bike_id":"d00028dc-9b0d-47df-ad9d-778d21fb21b2","system_id":"levelo_inurba_marseille","lat":43.23194,"lon":5.35572,"is_reserved":false,"is_disabled":false,"rental_uris":{"android":"levelo://app?vid=d00028dc-9b0d-47df-ad9d-778d21fb21b2","ios":"levelo://app?vid=d00028dc-9b0d-47df-ad9d-778d21fb21b2"},"vehicle_type_id":"4","last_reported":1742296120,"current_range_meters":12000,"station_id":"ce4bhu92rcd13ifvqi70","pricing_plan_id":"cebpf4jnsgd1na2vs0mg"},{"bike_id":"1b3cc6c9-4228-43d9-b632-b84cec2340c1","system_id":"levelo_inurba_marseille","lat":43.28159,"lon":5.42645,"is_reserved":false,"is_disabled":false,"rental_uris":{"android":"levelo://app?vid=1b3cc6c9-4228-43d9-b632-b84cec2340c1","ios":"levelo://app?vid=1b3cc6c9-4228-43d9-b632-b84cec2340c1"},"vehicle_type_id":"4","last_reported":1742296120,"current_range_meters":12000,"station_id":"ce4bhnh2rcd13ifvqgug","pricing_plan_id":"cebpf4jnsgd1na2vs0mg"},{"bike_id":"ca1c0a28-8faf-435f-9d8b-370c3a07ff34","system_id":"levelo_inurba_marseille","lat":43.2416,"lon":5.36391,"is_reserved":false,"is_disabled":false,"rental_uris":{"android":"levelo://app?vid=ca1c0a28-8faf-435f-9d8b-370c3a07ff34","ios":"levelo://app?vid=ca1c0a28-8faf-435f-9d8b-370c3a07ff34"},"vehicle_type_id":"4","last_reported":1742296120,"current_range_meters":12000,"station_id":"cpo36qri1sfpv3e86is0","pricing_plan_id":"cebpf4jnsgd1na2vs0mg"},{"bike_id":"fb0ffda9-5a26-4999-bb9e-ea956bf8766e","system_id":"levelo_inurba_marseille","lat":43.29852,"lon":5.36286,"is_reserved":false,"is_disabled":false,"rental_uris":{"android":"levelo://app?vid=fb0ffda9-5a26-4999-bb9e-ea956bf8766e","ios":"levelo://app?vid=fb0ffda9-5a26-4999-bb9e-ea956bf8766e"},"vehicle_type_id":"4","last_reported":1742296120,"current_range_meters":12000,"station_id":"ce4bgpp2rcd13ifvqc3g","pricing_plan_id":"cebpf4jnsgd1na2vs0mg"},{"bike_id":"37962361-eb60-43c8-9b46-342d6fca5b1f","system_id":"levelo_inurba_marseille","lat":43.30148,"lon":5.37414,"is_reserved":false,"is_disabled":false,"rental_uris":{"android":"levelo://app?vid=37962361-eb60-43c8-9b46-342d6fca5b1f","ios":"levelo://app?vid=37962361-eb60-43c8-9b46-342d6fca5b1f"},"vehicle_type_id":"4","last_reported":1742296120,"current_range_meters":12000,"station_id":"ce4bgs92rcd13ifvqcc0","pricing_plan_id":"cebpf4jnsgd1na2vs0mg"},{"bike_id":"45b55da8-f323-4cd8-b162-cc15ad06598f","system_id":"levelo_inurba_marseille","lat":43.29048,"lon":5.35913,"is_reserved":false,"is_disabled":false,"rental_uris":{"android":"levelo://app?vid=45b55da8-f323-4cd8-b162-cc15ad06598f","ios":"levelo://app?vid=45b55da8-f323-4cd8-b162-cc15ad06598f"},"vehicle_type_id":"4","last_reported":1742296120,"current_range_meters":14400,"station_id":"ce4bha92rcd13ifvqeg0","pricing_plan_id":"cebpf4jnsgd1na2vs0mg"},{"bike_id":"51340ab1-538a-4c08-bec1-bdaac5a5d72f","system_id":"levelo_inurba_marseille","lat":43.23137,"lon":5.43706,"is_reserved":false,"is_disabled":false,"rental_uris":{"android":"levelo://app?vid=51340ab1-538a-4c08-bec1-bdaac5a5d72f","ios":"levelo://app?vid=51340ab1-538a-4c08-bec1-bdaac5a5d72f"},"vehicle_type_id":"4","last_reported":1742296120,"current_range_meters":12000,"station_id":"ce4bhmp2rcd13ifvqgog","pricing_plan_id":"cebpf4jnsgd1na2vs0mg"},{"bike_id":"d36c89e8-07d2-4942-be59-0b2e43ed175d","system_id":"levelo_inurba_marseille","lat":43.25914,"lon":5.40886,"is_reserved":false,"is_disabled":false,"rental_uris":{"android":"levelo://app?vid=d36c89e8-07d2-4942-be59-0b2e43ed175d","ios":"levelo://app?vid=d36c89e8-07d2-4942-be59-0b2e43ed175d"},"vehicle_type_id":"4","last_reported":1742296120,"current_range_meters":12400,"station_id":"ce4bhm92rcd13ifvqglg","pricing_plan_id":"cebpf4jnsgd1na2vs0mg"},{"bike_id":"8581e34a-e545-4ecd-94c3-9ab5366e4794","system_id":"levelo_inurba_marseille","lat":43.27489,"lon":5.42473,"is_reserved":false,"is_disabled":false,"rental_uris":{"android":"levelo://app?vid=8581e34a-e545-4ecd-94c3-9ab5366e4794","ios":"levelo://app?vid=8581e34a-e545-4ecd-94c3-9ab5366e4794"},"vehicle_type_id":"4","last_reported":1742296120,"current_range_meters":12400,"station_id":"ce4bhn92rcd13ifvqgrg","pricing_plan_id":"cebpf4jnsgd1na2vs0mg"},{"bike_id":"30afd827-1af8-40de-a576-149b865b7207","system_id":"levelo_inurba_marseille","lat":43.24089,"lon":5.37744,"is_reserved":false,"is_disabled":false,"rental_uris":{"android":"levelo://app?vid=30afd827-1af8-40de-a576-149b865b7207","ios":"levelo://app?vid=30afd827-1af8-40de-a576-149b865b7207"},"vehicle_type_id":"4","last_reported":1742296120,"current_range_meters":12800,"station_id":"ce4bhnp2rcd13ifvqgvg","pricing_plan_id":"cebpf4jnsgd1na2vs0mg"},{"bike_id":"0cb439ba-c73c-4e00-a10d-d81c8bff11ec","system_id":"levelo_inurba_marseille","lat":43.32494,"lon":5.36554,"is_reserved":false,"is_disabled":false,"rental_uris":{"android":"levelo://app?vid=0cb439ba-c73c-4e00-a10d-d81c8bff11ec","ios":"levelo://app?vid=0cb439ba-c73c-4e00-a10d-d81c8bff11ec"},"vehicle_type_id":"4","last_reported":1742296120,"current_range_meters":12800,"station_id":"ce4bhs12rcd13ifvqhvg","pricing_plan_id":"cebpf4jnsgd1na2vs0mg"},{"bike_id":"175919c0-deb0-4e48-9a06-eea90edc3e69","system_id":"levelo_inurba_marseille","lat":43.23204,"lon":5.35552,"is_reserved":false,"is_disabled":false,"rental_uris":{"android":"levelo://app?vid=175919c0-deb0-4e48-9a06-eea90edc3e69","ios":"levelo://app?vid=175919c0-deb0-4e48-9a06-eea90edc3e69"},"vehicle_type_id":"4","last_reported":1742296120,"current_range_meters":12800,"station_id":"ce4bhu92rcd13ifvqi70","pricing_plan_id":"cebpf4jnsgd1na2vs0mg"},{"bike_id":"ab11fa9b-759f-447f-a4f1-b143e2360775","system_id":"levelo_inurba_marseille","lat":43.31347,"lon":5.39157,"is_reserved":false,"is_disabled":false,"rental_uris":{"android":"levelo://app?vid=ab11fa9b-759f-447f-a4f1-b143e2360775","ios":"levelo://app?vid=ab11fa9b-759f-447f-a4f1-b143e2360775"},"vehicle_type_id":"4","last_reported":1742296120,"current_range_meters":12800,"station_id":"","pricing_plan_id":"cebpf4jnsgd1na2vs0mg"},{"bike_id":"08058f9b-5fd7-489c-a6cd-58711359da60","system_id":"levelo_inurba_marseille","lat":43.32552,"lon":5.41458,"is_reserved":false,"is_disabled":false,"rental_uris":{"android":"levelo://app?vid=08058f9b-5fd7-489c-a6cd-58711359da60","ios":"levelo://app?vid=08058f9b-5fd7-489c-a6cd-58711359da60"},"vehicle_type_id":"4","last_reported":1742296120,"current_range_meters":12800,"station_id":"ce4bhq12rcd13ifvqhhg","pricing_plan_id":"cebpf4jnsgd1na2vs0mg"},{"bike_id":"58a4145b-708d-4924-8cdb-6fe4d69a5aee","system_id":"levelo_inurba_marseille","lat":43.266757,"lon":5.382665,"is_reserved":false,"is_disabled":false,"rental_uris":{"android":"levelo://app?vid=58a4145b-708d-4924-8cdb-6fe4d69a5aee","ios":"levelo://app?vid=58a4145b-708d-4924-8cdb-6fe4d69a5aee"},"vehicle_type_id":"4","last_reported":1742296120,"current_range_meters":12800,"station_id":"ce4bhg92rcd13ifvqf90","pricing_plan_id":"cebpf4jnsgd1na2vs0mg"},{"bike_id":"89cb3140-d211-4c4d-97ca-7e01c3c4da90","system_id":"levelo_inurba_marseille","lat":43.23197,"lon":5.35582,"is_reserved":false,"is_disabled":false,"rental_uris":{"android":"levelo://app?vid=89cb3140-d211-4c4d-97ca-7e01c3c4da90","ios":"levelo://app?vid=89cb3140-d211-4c4d-97ca-7e01c3c4da90"},"vehicle_type_id":"4","last_reported":1742296120,"current_range_meters":12800,"station_id":"ce4bhu92rcd13ifvqi70","pricing_plan_id":"cebpf4jnsgd1na2vs0mg"},{"bike_id":"5e6df97f-d86f-47a9-ab08-1097abc2da1a","system_id":"levelo_inurba_marseille","lat":43.27987,"lon":5.38754,"is_reserved":false,"is_disabled":false,"rental_uris":{"android":"levelo://app?vid=5e6df97f-d86f-47a9-ab08-1097abc2da1a","ios":"levelo://app?vid=5e6df97f-d86f-47a9-ab08-1097abc2da1a"},"vehicle_type_id":"4","last_reported":1742296120,"current_range_meters":12800,"station_id":"ce4bhg12rcd13ifvqf80","pricing_plan_id":"cebpf4jnsgd1na2vs0mg"},{"bike_id":"0d8011d2-740d-4898-8f44-8bbfcee4f52c","system_id":"levelo_inurba_marseille","lat":43.29251,"lon":5.37622,"is_reserved":false,"is_disabled":false,"rental_uris":{"android":"levelo://app?vid=0d8011d2-740d-4898-8f44-8bbfcee4f52c","ios":"levelo://app?vid=0d8011d2-740d-4898-8f44-8bbfcee4f52c"},"vehicle_type_id":"4","last_reported":1742296120,"current_range_meters":12800,"station_id":"ce4bgi12rcd13ifvqb80","pricing_plan_id":"cebpf4jnsgd1na2vs0mg"},{"bike_id":"add2a4b5-1f6a-433f-ae34-9075a4d3f8ff","system_id":"levelo_inurba_marseille","lat":43.30543,"lon":5.36523,"is_reserved":false,"is_disabled":false,"rental_uris":{"android":"levelo://app?vid=add2a4b5-1f6a-433f-ae34-9075a4d3f8ff","ios":"levelo://app?vid=add2a4b5-1f6a-433f-ae34-9075a4d3f8ff"},"vehicle_type_id":"4","last_reported":1742296120,"current_range_meters":13600,"station_id":"ce4bgs12rcd13ifvqcag","pricing_plan_id":"cebpf4jnsgd1na2vs0mg"},{"bike_id":"549886c0-485f-4da9-8897-ac55aaf38b66","system_id":"levelo_inurba_marseille","lat":43.2668,"lon":5.38262,"is_reserved":false,"is_disabled":false,"rental_uris":{"android":"levelo://app?vid=549886c0-485f-4da9-8897-ac55aaf38b66","ios":"levelo://app?vid=549886c0-485f-4da9-8897-ac55aaf38b66"},"vehicle_type_id":"4","last_reported":1742296120,"current_range_meters":13600,"station_id":"ce4bhg92rcd13ifvqf90","pricing_plan_id":"cebpf4jnsgd1na2vs0mg"},{"bike_id":"78ea25a1-744a-4b7a-99e8-d45871f3ecaa","system_id":"levelo_inurba_marseille","lat":43.30424,"lon":5.39753,"is_reserved":false,"is_disabled":false,"rental_uris":{"android":"levelo://app?vid=78ea25a1-744a-4b7a-99e8-d45871f3ecaa","ios":"levelo://app?vid=78ea25a1-744a-4b7a-99e8-d45871f3ecaa"},"vehicle_type_id":"4","last_reported":1742296120,"current_range_meters":13600,"station_id":"ce4bh092rcd13ifvqd20","pricing_plan_id":"cebpf4jnsgd1na2vs0mg"},{"bike_id":"50bd61d7-e997-4126-abf4-d1b76ac4a270","system_id":"levelo_inurba_marseille","lat":43.27326,"lon":5.3907,"is_reserved":false,"is_disabled":false,"rental_uris":{"android":"levelo://app?vid=50bd61d7-e997-4126-abf4-d1b76ac4a270","ios":"levelo://app?vid=50bd61d7-e997-4126-abf4-d1b76ac4a270"},"vehicle_type_id":"4","last_reported":1742296120,"current_range_meters":13600,"station_id":"ce4bhgp2rcd13ifvqfe0","pricing_plan_id":"cebpf4jnsgd1na2vs0mg"},{"bike_id":"5b6cdec2-dbe8-4758-b303-c8f5b7b35576","system_id":"levelo_inurba_marseille","lat":43.26794,"lon":5.39411,"is_reserved":false,"is_disabled":true,"rental_uris":{"android":"levelo://app?vid=5b6cdec2-dbe8-4758-b303-c8f5b7b35576","ios":"levelo://app?vid=5b6cdec2-dbe8-4758-b303-c8f5b7b35576"},"vehicle_type_id":"4","last_reported":1742296120,"current_range_meters":14000,"station_id":"ce4bhh12rcd13ifvqfg0","pricing_plan_id":"cebpf4jnsgd1na2vs0mg"},{"bike_id":"2ff0bf88-6fcd-42ec-a3e0-38f5efd75038","system_id":"levelo_inurba_marseille","lat":43.3122,"lon":5.36881,"is_reserved":false,"is_disabled":false,"rental_uris":{"android":"levelo://app?vid=2ff0bf88-6fcd-42ec-a3e0-38f5efd75038","ios":"levelo://app?vid=2ff0bf88-6fcd-42ec-a3e0-38f5efd75038"},"vehicle_type_id":"4","last_reported":1742296120,"current_range_meters":14000,"station_id":"ce4bgl92rcd13ifvqbq0","pricing_plan_id":"cebpf4jnsgd1na2vs0mg"},{"bike_id":"c4ab908c-6ae9-4ef1-9805-1daecd563f02","system_id":"levelo_inurba_marseille","lat":43.299377,"lon":5.365722,"is_reserved":false,"is_disabled":false,"rental_uris":{"android":"levelo://app?vid=c4ab908c-6ae9-4ef1-9805-1daecd563f02","ios":"levelo://app?vid=c4ab908c-6ae9-4ef1-9805-1daecd563f02"},"vehicle_type_id":"4","last_reported":1742296120,"current_range_meters":16800,"station_id":"ce4bguh2rcd13ifvqcj0","pricing_plan_id":"cebpf4jnsgd1na2vs0mg"},{"bike_id":"46fb0b1b-1955-4ab4-b766-1924deb90ec6","system_id":"levelo_inurba_marseille","lat":43.24087,"lon":5.37745,"is_reserved":false,"is_disabled":false,"rental_uris":{"android":"levelo://app?vid=46fb0b1b-1955-4ab4-b766-1924deb90ec6","ios":"levelo://app?vid=46fb0b1b-1955-4ab4-b766-1924deb90ec6"},"vehicle_type_id":"4","last_reported":1742296120,"current_range_meters":14400,"station_id":"ce4bhnp2rcd13ifvqgvg","pricing_plan_id":"cebpf4jnsgd1na2vs0mg"},{"bike_id":"01cd1ae6-bf8d-4270-b368-31e9791618b1","system_id":"levelo_inurba_marseille","lat":43.31346,"lon":5.36704,"is_reserved":false,"is_disabled":false,"rental_uris":{"android":"levelo://app?vid=01cd1ae6-bf8d-4270-b368-31e9791618b1","ios":"levelo://app?vid=01cd1ae6-bf8d-4270-b368-31e9791618b1"},"vehicle_type_id":"4","last_reported":1742296120,"current_range_meters":14400,"station_id":"ce4bgr92rcd13ifvqc6g","pricing_plan_id":"cebpf4jnsgd1na2vs0mg"},{"bike_id":"1b816da1-b5df-49f9-9180-41dff3e2b872","system_id":"levelo_inurba_marseille","lat":43.24162,"lon":5.39725,"is_reserved":false,"is_disabled":false,"rental_uris":{"android":"levelo://app?vid=1b816da1-b5df-49f9-9180-41dff3e2b872","ios":"levelo://app?vid=1b816da1-b5df-49f9-9180-41dff3e2b872"},"vehicle_type_id":"4","last_reported":1742296120,"current_range_meters":14400,"station_id":"ce4bhn12rcd13ifvqgpg","pricing_plan_id":"cebpf4jnsgd1na2vs0mg"},{"bike_id":"623b1d48-fe8c-4a6a-b45e-f5a8ef1ac996","system_id":"levelo_inurba_marseille","lat":43.30546,"lon":5.36547,"is_reserved":false,"is_disabled":false,"rental_uris":{"android":"levelo://app?vid=623b1d48-fe8c-4a6a-b45e-f5a8ef1ac996","ios":"levelo://app?vid=623b1d48-fe8c-4a6a-b45e-f5a8ef1ac996"},"vehicle_type_id":"4","last_reported":1742296120,"current_range_meters":14400,"station_id":"ce4bgs12rcd13ifvqcag","pricing_plan_id":"cebpf4jnsgd1na2vs0mg"},{"bike_id":"1c831178-980a-4c46-970b-b84b7ae8ebc8","system_id":"levelo_inurba_marseille","lat":43.28714,"lon":5.39993,"is_reserved":false,"is_disabled":false,"rental_uris":{"android":"levelo://app?vid=1c831178-980a-4c46-970b-b84b7ae8ebc8","ios":"levelo://app?vid=1c831178-980a-4c46-970b-b84b7ae8ebc8"},"vehicle_type_id":"4","last_reported":1742296120,"current_range_meters":14400,"station_id":"","pricing_plan_id":"cebpf4jnsgd1na2vs0mg"},{"bike_id":"ef1c1528-aa7a-46e8-a577-9de7cbd990cb","system_id":"levelo_inurba_marseille","lat":43.24172,"lon":5.364,"is_reserved":false,"is_disabled":false,"rental_uris":{"android":"levelo://app?vid=ef1c1528-aa7a-46e8-a577-9de7cbd990cb","ios":"levelo://app?vid=ef1c1528-aa7a-46e8-a577-9de7cbd990cb"},"vehicle_type_id":"4","last_reported":1742296120,"current_range_meters":14800,"station_id":"cpo36qri1sfpv3e86is0","pricing_plan_id":"cebpf4jnsgd1na2vs0mg"},{"bike_id":"b6f9b9ce-289a-4e66-b4d0-984ba11df15f","system_id":"levelo_inurba_marseille","lat":43.31217,"lon":5.36924,"is_reserved":false,"is_disabled":false,"rental_uris":{"android":"levelo://app?vid=b6f9b9ce-289a-4e66-b4d0-984ba11df15f","ios":"levelo://app?vid=b6f9b9ce-289a-4e66-b4d0-984ba11df15f"},"vehicle_type_id":"4","last_reported":1742296120,"current_range_meters":14800,"station_id":"ce4bgl92rcd13ifvqbq0","pricing_plan_id":"cebpf4jnsgd1na2vs0mg"},{"bike_id":"d8c1ae52-2a9e-4470-a363-aadad54f73dd","system_id":"levelo_inurba_marseille","lat":43.26208,"lon":5.4044,"is_reserved":false,"is_disabled":false,"rental_uris":{"android":"levelo://app?vid=d8c1ae52-2a9e-4470-a363-aadad54f73dd","ios":"levelo://app?vid=d8c1ae52-2a9e-4470-a363-aadad54f73dd"},"vehicle_type_id":"4","last_reported":1742296120,"current_range_meters":14800,"station_id":"ce4bhmh2rcd13ifvqgmg","pricing_plan_id":"cebpf4jnsgd1na2vs0mg"},{"bike_id":"34fe0eeb-e945-4452-a676-cadedbb9ccb6","system_id":"levelo_inurba_marseille","lat":43.27208,"lon":5.39175,"is_reserved":false,"is_disabled":false,"rental_uris":{"android":"levelo://app?vid=34fe0eeb-e945-4452-a676-cadedbb9ccb6","ios":"levelo://app?vid=34fe0eeb-e945-4452-a676-cadedbb9ccb6"},"vehicle_type_id":"4","last_reported":1742296120,"current_range_meters":14800,"station_id":"ce4bhhp2rcd13ifvqfm0","pricing_plan_id":"cebpf4jnsgd1na2vs0mg"},{"bike_id":"7341297d-d43a-4895-907f-c3efe66c169b","system_id":"levelo_inurba_marseille","lat":43.30304,"lon":5.37699,"is_reserved":false,"is_disabled":false,"rental_uris":{"android":"levelo://app?vid=7341297d-d43a-4895-907f-c3efe66c169b","ios":"levelo://app?vid=7341297d-d43a-4895-907f-c3efe66c169b"},"vehicle_type_id":"4","last_reported":1742296120,"current_range_meters":14800,"station_id":"ce4bguh2rcd13ifvqcj0","pricing_plan_id":"cebpf4jnsgd1na2vs0mg"},{"bike_id":"3c054d98-734f-40a9-bc9f-5a6912ba9713","system_id":"levelo_inurba_marseille","lat":43.33603,"lon":5.40978,"is_reserved":false,"is_disabled":false,"rental_uris":{"android":"levelo://app?vid=3c054d98-734f-40a9-bc9f-5a6912ba9713","ios":"levelo://app?vid=3c054d98-734f-40a9-bc9f-5a6912ba9713"},"vehicle_type_id":"4","last_reported":1742296120,"current_range_meters":14800,"station_id":"ce4bhqh2rcd13ifvqhmg","pricing_plan_id":"cebpf4jnsgd1na2vs0mg"},{"bike_id":"e60c1153-ceb4-4f72-92cd-2dc1051b5e4c","system_id":"levelo_inurba_marseille","lat":43.26066,"lon":5.39392,"is_reserved":false,"is_disabled":true,"rental_uris":{"android":"levelo://app?vid=e60c1153-ceb4-4f72-92cd-2dc1051b5e4c","ios":"levelo://app?vid=e60c1153-ceb4-4f72-92cd-2dc1051b5e4c"},"vehicle_type_id":"4","last_reported":1742296120,"current_range_meters":15200,"station_id":"ce4bhh92rcd13ifvqfj0","pricing_plan_id":"cebpf4jnsgd1na2vs0mg"},{"bike_id":"e3781a67-4e8a-412f-97b7-95afb1cdcbc4","system_id":"levelo_inurba_marseille","lat":43.29914,"lon":5.38145,"is_reserved":false,"is_disabled":false,"rental_uris":{"android":"levelo://app?vid=e3781a67-4e8a-412f-97b7-95afb1cdcbc4","ios":"levelo://app?vid=e3781a67-4e8a-412f-97b7-95afb1cdcbc4"},"vehicle_type_id":"4","last_reported":1742296120,"current_range_meters":15200,"station_id":"ce4bgj12rcd13ifvqbc0","pricing_plan_id":"cebpf4jnsgd1na2vs0mg"},{"bike_id":"36039125-2a17-48d0-b828-86cfdcb61646","system_id":"levelo_inurba_marseille","lat":43.30403,"lon":5.41281,"is_reserved":false,"is_disabled":false,"rental_uris":{"android":"levelo://app?vid=36039125-2a17-48d0-b828-86cfdcb61646","ios":"levelo://app?vid=36039125-2a17-48d0-b828-86cfdcb61646"},"vehicle_type_id":"4","last_reported":1742296120,"current_range_meters":15200,"station_id":"ce4bhop2rcd13ifvqh8g","pricing_plan_id":"cebpf4jnsgd1na2vs0mg"},{"bike_id":"ff037ac5-a7ea-45e6-93cf-7d394f2f7759","system_id":"levelo_inurba_marseille","lat":43.30509,"lon":5.3653,"is_reserved":false,"is_disabled":false,"rental_uris":{"android":"levelo://app?vid=ff037ac5-a7ea-45e6-93cf-7d394f2f7759","ios":"levelo://app?vid=ff037ac5-a7ea-45e6-93cf-7d394f2f7759"},"vehicle_type_id":"4","last_reported":1742296120,"current_range_meters":15200,"station_id":"","pricing_plan_id":"cebpf4jnsgd1na2vs0mg"},{"bike_id":"cf6265a1-47c3-4f28-82bd-a18b06e57bd4","system_id":"levelo_inurba_marseille","lat":43.23167,"lon":5.43696,"is_reserved":false,"is_disabled":false,"rental_uris":{"android":"levelo://app?vid=cf6265a1-47c3-4f28-82bd-a18b06e57bd4","ios":"levelo://app?vid=cf6265a1-47c3-4f28-82bd-a18b06e57bd4"},"vehicle_type_id":"4","last_reported":1742296120,"current_range_meters":15200,"station_id":"ce4bhmp2rcd13ifvqgog","pricing_plan_id":"cebpf4jnsgd1na2vs0mg"},{"bike_id":"f5b5b897-b776-4f00-9f85-b4d42ed7205c","system_id":"levelo_inurba_marseille","lat":43.259311,"lon":5.409336,"is_reserved":false,"is_disabled":false,"rental_uris":{"android":"levelo://app?vid=f5b5b897-b776-4f00-9f85-b4d42ed7205c","ios":"levelo://app?vid=f5b5b897-b776-4f00-9f85-b4d42ed7205c"},"vehicle_type_id":"4","last_reported":1742296120,"current_range_meters":15200,"station_id":"ce4bhm92rcd13ifvqglg","pricing_plan_id":"cebpf4jnsgd1na2vs0mg"},{"bike_id":"82cb9fa5-051e-43c5-b4ca-9053f02aa43a","system_id":"levelo_inurba_marseille","lat":43.29539,"lon":5.37505,"is_reserved":false,"is_disabled":false,"rental_uris":{"android":"levelo://app?vid=82cb9fa5-051e-43c5-b4ca-9053f02aa43a","ios":"levelo://app?vid=82cb9fa5-051e-43c5-b4ca-9053f02aa43a"},"vehicle_type_id":"4","last_reported":1742296120,"current_range_meters":15200,"station_id":"ce4bgkp2rcd13ifvqbmg","pricing_plan_id":"cebpf4jnsgd1na2vs0mg"},{"bike_id":"63a81eb7-9a8b-4f6c-879e-5225ac8ff5c1","system_id":"levelo_inurba_marseille","lat":43.27319,"lon":5.39084,"is_reserved":false,"is_disabled":false,"rental_uris":{"android":"levelo://app?vid=63a81eb7-9a8b-4f6c-879e-5225ac8ff5c1","ios":"levelo://app?vid=63a81eb7-9a8b-4f6c-879e-5225ac8ff5c1"},"vehicle_type_id":"4","last_reported":1742296120,"current_range_meters":15200,"station_id":"ce4bhgp2rcd13ifvqfe0","pricing_plan_id":"cebpf4jnsgd1na2vs0mg"},{"bike_id":"f82eca24-85fe-4966-819d-9f923b6c15c1","system_id":"levelo_inurba_marseille","lat":43.29618,"lon":5.37734,"is_reserved":false,"is_disabled":false,"rental_uris":{"android":"levelo://app?vid=f82eca24-85fe-4966-819d-9f923b6c15c1","ios":"levelo://app?vid=f82eca24-85fe-4966-819d-9f923b6c15c1"},"vehicle_type_id":"4","last_reported":1742296120,"current_range_meters":16000,"station_id":"ce4bgi92rcd13ifvqb90","pricing_plan_id":"cebpf4jnsgd1na2vs0mg"},{"bike_id":"3455258b-4135-46b9-9a26-10bf95160e40","system_id":"levelo_inurba_marseille","lat":43.23194,"lon":5.35553,"is_reserved":false,"is_disabled":false,"rental_uris":{"android":"levelo://app?vid=3455258b-4135-46b9-9a26-10bf95160e40","ios":"levelo://app?vid=3455258b-4135-46b9-9a26-10bf95160e40"},"vehicle_type_id":"4","last_reported":1742296120,"current_range_meters":16000,"station_id":"ce4bhu92rcd13ifvqi70","pricing_plan_id":"cebpf4jnsgd1na2vs0mg"},{"bike_id":"64d71ee6-c4eb-48e7-807c-ac0c590e2a09","system_id":"levelo_inurba_marseille","lat":43.24664,"lon":5.38168,"is_reserved":false,"is_disabled":false,"rental_uris":{"android":"levelo://app?vid=64d71ee6-c4eb-48e7-807c-ac0c590e2a09","ios":"levelo://app?vid=64d71ee6-c4eb-48e7-807c-ac0c590e2a09"},"vehicle_type_id":"4","last_reported":1742296120,"current_range_meters":16000,"station_id":"ce4bhih2rcd13ifvqfr0","pricing_plan_id":"cebpf4jnsgd1na2vs0mg"},{"bike_id":"c769f2e8-3d08-4e7a-acab-9ccbfe770462","system_id":"levelo_inurba_marseille","lat":43.31997,"lon":5.38154,"is_reserved":false,"is_disabled":false,"rental_uris":{"android":"levelo://app?vid=c769f2e8-3d08-4e7a-acab-9ccbfe770462","ios":"levelo://app?vid=c769f2e8-3d08-4e7a-acab-9ccbfe770462"},"vehicle_type_id":"4","last_reported":1742296120,"current_range_meters":15200,"station_id":"ce4bhr12rcd13ifvqhpg","pricing_plan_id":"cebpf4jnsgd1na2vs0mg"},{"bike_id":"2ebdd665-45bc-41e4-ba36-29ebf27d9e85","system_id":"levelo_inurba_marseille","lat":43.25929,"lon":5.40888,"is_reserved":false,"is_disabled":false,"rental_uris":{"android":"levelo://app?vid=2ebdd665-45bc-41e4-ba36-29ebf27d9e85","ios":"levelo://app?vid=2ebdd665-45bc-41e4-ba36-29ebf27d9e85"},"vehicle_type_id":"4","last_reported":1742296120,"current_range_meters":16000,"station_id":"ce4bhm92rcd13ifvqglg","pricing_plan_id":"cebpf4jnsgd1na2vs0mg"},{"bike_id":"ee5247d7-b0a8-4dce-90ad-48e79724b2ab","system_id":"levelo_inurba_marseille","lat":43.275005,"lon":5.42443,"is_reserved":false,"is_disabled":false,"rental_uris":{"android":"levelo://app?vid=ee5247d7-b0a8-4dce-90ad-48e79724b2ab","ios":"levelo://app?vid=ee5247d7-b0a8-4dce-90ad-48e79724b2ab"},"vehicle_type_id":"4","last_reported":1742296120,"current_range_meters":16000,"station_id":"ce4bhn92rcd13ifvqgrg","pricing_plan_id":"cebpf4jnsgd1na2vs0mg"},{"bike_id":"883b32dd-5060-41c4-aeea-e2267cfa2618","system_id":"levelo_inurba_marseille","lat":43.28005,"lon":5.41678,"is_reserved":false,"is_disabled":false,"rental_uris":{"android":"levelo://app?vid=883b32dd-5060-41c4-aeea-e2267cfa2618","ios":"levelo://app?vid=883b32dd-5060-41c4-aeea-e2267cfa2618"},"vehicle_type_id":"4","last_reported":1742296120,"current_range_meters":16000,"station_id":"ce4bho12rcd13ifvqh1g","pricing_plan_id":"cebpf4jnsgd1na2vs0mg"},{"bike_id":"22d2c90b-f995-4e82-965b-480ee412421c","system_id":"levelo_inurba_marseille","lat":43.3054,"lon":5.36566,"is_reserved":false,"is_disabled":false,"rental_uris":{"android":"levelo://app?vid=22d2c90b-f995-4e82-965b-480ee412421c","ios":"levelo://app?vid=22d2c90b-f995-4e82-965b-480ee412421c"},"vehicle_type_id":"4","last_reported":1742296120,"current_range_meters":16400,"station_id":"ce4bgs12rcd13ifvqcag","pricing_plan_id":"cebpf4jnsgd1na2vs0mg"},{"bike_id":"6193b074-5ac2-48ec-901d-c6a58dee7e36","system_id":"levelo_inurba_marseille","lat":43.30149,"lon":5.37415,"is_reserved":false,"is_disabled":false,"rental_uris":{"android":"levelo://app?vid=6193b074-5ac2-48ec-901d-c6a58dee7e36","ios":"levelo://app?vid=6193b074-5ac2-48ec-901d-c6a58dee7e36"},"vehicle_type_id":"4","last_reported":1742296120,"current_range_meters":16400,"station_id":"ce4bgs92rcd13ifvqcc0","pricing_plan_id":"cebpf4jnsgd1na2vs0mg"},{"bike_id":"36f5e068-26e9-485b-84a3-fa1ce5017122","system_id":"levelo_inurba_marseille","lat":43.26946,"lon":5.38915,"is_reserved":false,"is_disabled":false,"rental_uris":{"android":"levelo://app?vid=36f5e068-26e9-485b-84a3-fa1ce5017122","ios":"levelo://app?vid=36f5e068-26e9-485b-84a3-fa1ce5017122"},"vehicle_type_id":"4","last_reported":1742296120,"current_range_meters":16400,"station_id":"ce4bhhh2rcd13ifvqfl0","pricing_plan_id":"cebpf4jnsgd1na2vs0mg"},{"bike_id":"222ebe1b-c6fe-4c1b-8c0d-3400ed8fa9ac","system_id":"levelo_inurba_marseille","lat":43.29602,"lon":5.38096,"is_reserved":false,"is_disabled":false,"rental_uris":{"android":"levelo://app?vid=222ebe1b-c6fe-4c1b-8c0d-3400ed8fa9ac","ios":"levelo://app?vid=222ebe1b-c6fe-4c1b-8c0d-3400ed8fa9ac"},"vehicle_type_id":"4","last_reported":1742296120,"current_range_meters":16400,"station_id":"ce4bgl12rcd13ifvqbo0","pricing_plan_id":"cebpf4jnsgd1na2vs0mg"},{"bike_id":"f52a9808-de99-4214-b6d8-d8a401436e34","system_id":"levelo_inurba_marseille","lat":43.31307,"lon":5.39038,"is_reserved":false,"is_disabled":false,"rental_uris":{"android":"levelo://app?vid=f52a9808-de99-4214-b6d8-d8a401436e34","ios":"levelo://app?vid=f52a9808-de99-4214-b6d8-d8a401436e34"},"vehicle_type_id":"4","last_reported":1742296120,"current_range_meters":16400,"station_id":"","pricing_plan_id":"cebpf4jnsgd1na2vs0mg"},{"bike_id":"b82e118f-e011-41a1-997c-136a4bd95913","system_id":"levelo_inurba_marseille","lat":43.28854,"lon":5.39329,"is_reserved":false,"is_disabled":false,"rental_uris":{"android":"levelo://app?vid=b82e118f-e011-41a1-997c-136a4bd95913","ios":"levelo://app?vid=b82e118f-e011-41a1-997c-136a4bd95913"},"vehicle_type_id":"4","last_reported":1742296120,"current_range_meters":16400,"station_id":"ce4bh2p2rcd13ifvqdi0","pricing_plan_id":"cebpf4jnsgd1na2vs0mg"},{"bike_id":"26d3f0a3-4736-4466-9b23-cd440e12c74f","system_id":"levelo_inurba_marseille","lat":43.23963,"lon":5.36632,"is_reserved":false,"is_disabled":false,"rental_uris":{"android":"levelo://app?vid=26d3f0a3-4736-4466-9b23-cd440e12c74f","ios":"levelo://app?vid=26d3f0a3-4736-4466-9b23-cd440e12c74f"},"vehicle_type_id":"4","last_reported":1742296120,"current_range_meters":16400,"station_id":"ce4bhi12rcd13ifvqfp0","pricing_plan_id":"cebpf4jnsgd1na2vs0mg"},{"bike_id":"b404ad0f-6f90-4a10-ae0d-3ca0b7bc21a1","system_id":"levelo_inurba_marseille","lat":43.24655,"lon":5.38156,"is_reserved":false,"is_disabled":false,"rental_uris":{"android":"levelo://app?vid=b404ad0f-6f90-4a10-ae0d-3ca0b7bc21a1","ios":"levelo://app?vid=b404ad0f-6f90-4a10-ae0d-3ca0b7bc21a1"},"vehicle_type_id":"4","last_reported":1742296120,"current_range_meters":16800,"station_id":"ce4bhih2rcd13ifvqfr0","pricing_plan_id":"cebpf4jnsgd1na2vs0mg"},{"bike_id":"d7c3e417-f2ba-45e5-a03d-34b7ce67614d","system_id":"levelo_inurba_marseille","lat":43.29262,"lon":5.3763,"is_reserved":false,"is_disabled":false,"rental_uris":{"android":"levelo://app?vid=d7c3e417-f2ba-45e5-a03d-34b7ce67614d","ios":"levelo://app?vid=d7c3e417-f2ba-45e5-a03d-34b7ce67614d"},"vehicle_type_id":"4","last_reported":1742296120,"current_range_meters":16800,"station_id":"ce4bgi12rcd13ifvqb80","pricing_plan_id":"cebpf4jnsgd1na2vs0mg"},{"bike_id":"0d8be51d-5d60-4768-b79c-08d207c22ec7","system_id":"levelo_inurba_marseille","lat":43.25938,"lon":5.40884,"is_reserved":false,"is_disabled":false,"rental_uris":{"android":"levelo://app?vid=0d8be51d-5d60-4768-b79c-08d207c22ec7","ios":"levelo://app?vid=0d8be51d-5d60-4768-b79c-08d207c22ec7"},"vehicle_type_id":"4","last_reported":1742296120,"current_range_meters":16800,"station_id":"ce4bhm92rcd13ifvqglg","pricing_plan_id":"cebpf4jnsgd1na2vs0mg"},{"bike_id":"43c564a0-0bef-46dd-a4cc-9df4b0df498f","system_id":"levelo_inurba_marseille","lat":43.29578,"lon":5.36736,"is_reserved":false,"is_disabled":false,"rental_uris":{"android":"levelo://app?vid=43c564a0-0bef-46dd-a4cc-9df4b0df498f","ios":"levelo://app?vid=43c564a0-0bef-46dd-a4cc-9df4b0df498f"},"vehicle_type_id":"4","last_reported":1742296120,"current_range_meters":16800,"station_id":"ce4bgph2rcd13ifvqc2g","pricing_plan_id":"cebpf4jnsgd1na2vs0mg"},{"bike_id":"1bda2135-56d7-4a0c-bc4b-b00d2e6e5c9f","system_id":"levelo_inurba_marseille","lat":43.28698,"lon":5.39979,"is_reserved":false,"is_disabled":false,"rental_uris":{"android":"levelo://app?vid=1bda2135-56d7-4a0c-bc4b-b00d2e6e5c9f","ios":"levelo://app?vid=1bda2135-56d7-4a0c-bc4b-b00d2e6e5c9f"},"vehicle_type_id":"4","last_reported":1742296120,"current_range_meters":16800,"station_id":"ce4bho92rcd13ifvqh3g","pricing_plan_id":"cebpf4jnsgd1na2vs0mg"},{"bike_id":"95f28da3-ba24-4f59-96a4-78e2d7cd063b","system_id":"levelo_inurba_marseille","lat":43.23154,"lon":5.43721,"is_reserved":false,"is_disabled":false,"rental_uris":{"android":"levelo://app?vid=95f28da3-ba24-4f59-96a4-78e2d7cd063b","ios":"levelo://app?vid=95f28da3-ba24-4f59-96a4-78e2d7cd063b"},"vehicle_type_id":"4","last_reported":1742296120,"current_range_meters":16800,"station_id":"ce4bhmp2rcd13ifvqgog","pricing_plan_id":"cebpf4jnsgd1na2vs0mg"},{"bike_id":"c6604503-70aa-43e1-971e-f940cd00d541","system_id":"levelo_inurba_marseille","lat":43.26673,"lon":5.38271,"is_reserved":false,"is_disabled":true,"rental_uris":{"android":"levelo://app?vid=c6604503-70aa-43e1-971e-f940cd00d541","ios":"levelo://app?vid=c6604503-70aa-43e1-971e-f940cd00d541"},"vehicle_type_id":"4","last_reported":1742296120,"current_range_meters":16800,"station_id":"ce4bhg92rcd13ifvqf90","pricing_plan_id":"cebpf4jnsgd1na2vs0mg"},{"bike_id":"1d80de78-ecea-41e3-b22c-bbfc0a7ce780","system_id":"levelo_inurba_marseille","lat":43.29276,"lon":5.401043,"is_reserved":false,"is_disabled":true,"rental_uris":{"android":"levelo://app?vid=1d80de78-ecea-41e3-b22c-bbfc0a7ce780","ios":"levelo://app?vid=1d80de78-ecea-41e3-b22c-bbfc0a7ce780"},"vehicle_type_id":"4","last_reported":1742296120,"current_range_meters":17200,"station_id":"","pricing_plan_id":"cebpf4jnsgd1na2vs0mg"},{"bike_id":"42d717dc-c198-4ad5-b4c0-32f89ea158ac","system_id":"levelo_inurba_marseille","lat":43.29581,"lon":5.37521,"is_reserved":false,"is_disabled":false,"rental_uris":{"android":"levelo://app?vid=42d717dc-c198-4ad5-b4c0-32f89ea158ac","ios":"levelo://app?vid=42d717dc-c198-4ad5-b4c0-32f89ea158ac"},"vehicle_type_id":"4","last_reported":1742296120,"current_range_meters":17200,"station_id":"","pricing_plan_id":"cebpf4jnsgd1na2vs0mg"},{"bike_id":"0f6ff7bd-3145-4c43-a183-74a272394d3a","system_id":"levelo_inurba_marseille","lat":43.27914,"lon":5.39578,"is_reserved":false,"is_disabled":false,"rental_uris":{"android":"levelo://app?vid=0f6ff7bd-3145-4c43-a183-74a272394d3a","ios":"levelo://app?vid=0f6ff7bd-3145-4c43-a183-74a272394d3a"},"vehicle_type_id":"4","last_reported":1742296120,"current_range_meters":17200,"station_id":"ce4bhf92rcd13ifvqf40","pricing_plan_id":"cebpf4jnsgd1na2vs0mg"},{"bike_id":"f740fa20-c4bc-4209-9c6c-ac7619331196","system_id":"levelo_inurba_marseille","lat":43.25104,"lon":5.40326,"is_reserved":false,"is_disabled":false,"rental_uris":{"android":"levelo://app?vid=f740fa20-c4bc-4209-9c6c-ac7619331196","ios":"levelo://app?vid=f740fa20-c4bc-4209-9c6c-ac7619331196"},"vehicle_type_id":"4","last_reported":1742296120,"current_range_meters":17200,"station_id":"ce4bhlh2rcd13ifvqgig","pricing_plan_id":"cebpf4jnsgd1na2vs0mg"},{"bike_id":"0ca05f0e-1b4e-46f0-b40a-f431534771f4","system_id":"levelo_inurba_marseille","lat":43.29022,"lon":5.35596,"is_reserved":false,"is_disabled":false,"rental_uris":{"android":"levelo://app?vid=0ca05f0e-1b4e-46f0-b40a-f431534771f4","ios":"levelo://app?vid=0ca05f0e-1b4e-46f0-b40a-f431534771f4"},"vehicle_type_id":"4","last_reported":1742296120,"current_range_meters":16800,"station_id":"ce4bhb92rcd13ifvqen0","pricing_plan_id":"cebpf4jnsgd1na2vs0mg"},{"bike_id":"eaa16f1d-1abb-46a5-88a7-4d9cc8058b7a","system_id":"levelo_inurba_marseille","lat":43.2502,"lon":5.38913,"is_reserved":false,"is_disabled":false,"rental_uris":{"android":"levelo://app?vid=eaa16f1d-1abb-46a5-88a7-4d9cc8058b7a","ios":"levelo://app?vid=eaa16f1d-1abb-46a5-88a7-4d9cc8058b7a"},"vehicle_type_id":"4","last_reported":1742296120,"current_range_meters":17200,"station_id":"ce4bhgp2rcd13ifvqfd0","pricing_plan_id":"cebpf4jnsgd1na2vs0mg"},{"bike_id":"4e2e162b-e6d1-40f4-b6f1-f1475799d8fb","system_id":"levelo_inurba_marseille","lat":43.31483,"lon":5.37287,"is_reserved":false,"is_disabled":false,"rental_uris":{"android":"levelo://app?vid=4e2e162b-e6d1-40f4-b6f1-f1475799d8fb","ios":"levelo://app?vid=4e2e162b-e6d1-40f4-b6f1-f1475799d8fb"},"vehicle_type_id":"4","last_reported":1742296120,"current_range_meters":16800,"station_id":"ce4bgt12rcd13ifvqcd0","pricing_plan_id":"cebpf4jnsgd1na2vs0mg"},{"bike_id":"cc3a9f22-a1e9-4ac4-bb08-52aeb81d6d50","system_id":"levelo_inurba_marseille","lat":43.24662,"lon":5.3817,"is_reserved":false,"is_disabled":false,"rental_uris":{"android":"levelo://app?vid=cc3a9f22-a1e9-4ac4-bb08-52aeb81d6d50","ios":"levelo://app?vid=cc3a9f22-a1e9-4ac4-bb08-52aeb81d6d50"},"vehicle_type_id":"4","last_reported":1742296120,"current_range_meters":17200,"station_id":"ce4bhih2rcd13ifvqfr0","pricing_plan_id":"cebpf4jnsgd1na2vs0mg"},{"bike_id":"3d4bbbd2-19e2-435f-863d-a66da5d0d13f","system_id":"levelo_inurba_marseille","lat":43.28731,"lon":5.40008,"is_reserved":false,"is_disabled":true,"rental_uris":{"android":"levelo://app?vid=3d4bbbd2-19e2-435f-863d-a66da5d0d13f","ios":"levelo://app?vid=3d4bbbd2-19e2-435f-863d-a66da5d0d13f"},"vehicle_type_id":"4","last_reported":1742296120,"current_range_meters":17200,"station_id":"ce4bho92rcd13ifvqh3g","pricing_plan_id":"cebpf4jnsgd1na2vs0mg"},{"bike_id":"00b586d5-1e4d-4cfe-a1f5-2bb16cc037ad","system_id":"levelo_inurba_marseille","lat":43.28066,"lon":5.38711,"is_reserved":false,"is_disabled":false,"rental_uris":{"android":"levelo://app?vid=00b586d5-1e4d-4cfe-a1f5-2bb16cc037ad","ios":"levelo://app?vid=00b586d5-1e4d-4cfe-a1f5-2bb16cc037ad"},"vehicle_type_id":"4","last_reported":1742296120,"current_range_meters":17200,"station_id":"ce4bhg12rcd13ifvqf80","pricing_plan_id":"cebpf4jnsgd1na2vs0mg"},{"bike_id":"9b749ce9-9288-4902-be8e-4e163d821017","system_id":"levelo_inurba_marseille","lat":43.29902,"lon":5.43667,"is_reserved":false,"is_disabled":false,"rental_uris":{"android":"levelo://app?vid=9b749ce9-9288-4902-be8e-4e163d821017","ios":"levelo://app?vid=9b749ce9-9288-4902-be8e-4e163d821017"},"vehicle_type_id":"4","last_reported":1742296120,"current_range_meters":17200,"station_id":"ce4bhpp2rcd13ifvqhfg","pricing_plan_id":"cebpf4jnsgd1na2vs0mg"},{"bike_id":"0facce62-ec8a-411a-a1e6-5d69c47fc333","system_id":"levelo_inurba_marseille","lat":43.30447,"lon":5.3673,"is_reserved":false,"is_disabled":false,"rental_uris":{"android":"levelo://app?vid=0facce62-ec8a-411a-a1e6-5d69c47fc333","ios":"levelo://app?vid=0facce62-ec8a-411a-a1e6-5d69c47fc333"},"vehicle_type_id":"4","last_reported":1742296120,"current_range_meters":17200,"station_id":"","pricing_plan_id":"cebpf4jnsgd1na2vs0mg"},{"bike_id":"2762a08c-b062-436c-923f-6aeec304cf5c","system_id":"levelo_inurba_marseille","lat":43.29926,"lon":5.36502,"is_reserved":false,"is_disabled":false,"rental_uris":{"android":"levelo://app?vid=2762a08c-b062-436c-923f-6aeec304cf5c","ios":"levelo://app?vid=2762a08c-b062-436c-923f-6aeec304cf5c"},"vehicle_type_id":"4","last_reported":1742296120,"current_range_meters":17600,"station_id":"ce4bgm92rcd13ifvqbr0","pricing_plan_id":"cebpf4jnsgd1na2vs0mg"},{"bike_id":"8faa2f0a-2b62-4c8b-bcaa-80196f91f044","system_id":"levelo_inurba_marseille","lat":43.26569,"lon":5.37286,"is_reserved":false,"is_disabled":false,"rental_uris":{"android":"levelo://app?vid=8faa2f0a-2b62-4c8b-bcaa-80196f91f044","ios":"levelo://app?vid=8faa2f0a-2b62-4c8b-bcaa-80196f91f044"},"vehicle_type_id":"4","last_reported":1742296120,"current_range_meters":17600,"station_id":"ce4bhg12rcd13ifvqf70","pricing_plan_id":"cebpf4jnsgd1na2vs0mg"},{"bike_id":"4f4d9703-44ee-458a-944f-99ae2eebf50a","system_id":"levelo_inurba_marseille","lat":43.25729,"lon":5.41106,"is_reserved":false,"is_disabled":false,"rental_uris":{"android":"levelo://app?vid=4f4d9703-44ee-458a-944f-99ae2eebf50a","ios":"levelo://app?vid=4f4d9703-44ee-458a-944f-99ae2eebf50a"},"vehicle_type_id":"4","last_reported":1742296120,"current_range_meters":17600,"station_id":"ce4bhkp2rcd13ifvqgd0","pricing_plan_id":"cebpf4jnsgd1na2vs0mg"},{"bike_id":"ed03a496-f856-4a69-878e-710b409bee48","system_id":"levelo_inurba_marseille","lat":43.25001,"lon":5.38923,"is_reserved":false,"is_disabled":false,"rental_uris":{"android":"levelo://app?vid=ed03a496-f856-4a69-878e-710b409bee48","ios":"levelo://app?vid=ed03a496-f856-4a69-878e-710b409bee48"},"vehicle_type_id":"4","last_reported":1742296120,"current_range_meters":17600,"station_id":"ce4bhgp2rcd13ifvqfd0","pricing_plan_id":"cebpf4jnsgd1na2vs0mg"},{"bike_id":"430e6b6a-a6a5-488d-bca4-60a638679466","system_id":"levelo_inurba_marseille","lat":43.2929,"lon":5.37449,"is_reserved":false,"is_disabled":false,"rental_uris":{"android":"levelo://app?vid=430e6b6a-a6a5-488d-bca4-60a638679466","ios":"levelo://app?vid=430e6b6a-a6a5-488d-bca4-60a638679466"},"vehicle_type_id":"4","last_reported":1742296120,"current_range_meters":17200,"station_id":"ce4bgi12rcd13ifvqb70","pricing_plan_id":"cebpf4jnsgd1na2vs0mg"},{"bike_id":"b98e3221-2ae6-41a2-9202-ae163e9517f2","system_id":"levelo_inurba_marseille","lat":43.25579,"lon":5.38228,"is_reserved":false,"is_disabled":false,"rental_uris":{"android":"levelo://app?vid=b98e3221-2ae6-41a2-9202-ae163e9517f2","ios":"levelo://app?vid=b98e3221-2ae6-41a2-9202-ae163e9517f2"},"vehicle_type_id":"4","last_reported":1742296120,"current_range_meters":17200,"station_id":"ce4bhih2rcd13ifvqfs0","pricing_plan_id":"cebpf4jnsgd1na2vs0mg"},{"bike_id":"564956fe-1dda-40fa-ab07-ec6d412e6063","system_id":"levelo_inurba_marseille","lat":43.23061,"lon":5.35491,"is_reserved":false,"is_disabled":false,"rental_uris":{"android":"levelo://app?vid=564956fe-1dda-40fa-ab07-ec6d412e6063","ios":"levelo://app?vid=564956fe-1dda-40fa-ab07-ec6d412e6063"},"vehicle_type_id":"4","last_reported":1742296120,"current_range_meters":17600,"station_id":"cpo3342slgdg3j2ifvpg","pricing_plan_id":"cebpf4jnsgd1na2vs0mg"},{"bike_id":"8a6fbe8e-ac57-45a0-8a53-222d27d2ab4e","system_id":"levelo_inurba_marseille","lat":43.25723,"lon":5.41113,"is_reserved":false,"is_disabled":false,"rental_uris":{"android":"levelo://app?vid=8a6fbe8e-ac57-45a0-8a53-222d27d2ab4e","ios":"levelo://app?vid=8a6fbe8e-ac57-45a0-8a53-222d27d2ab4e"},"vehicle_type_id":"4","last_reported":1742296120,"current_range_meters":17600,"station_id":"ce4bhkp2rcd13ifvqgd0","pricing_plan_id":"cebpf4jnsgd1na2vs0mg"},{"bike_id":"22c4663a-4492-4623-9402-2dfb2586b472","system_id":"levelo_inurba_marseille","lat":43.3249,"lon":5.36567,"is_reserved":false,"is_disabled":false,"rental_uris":{"android":"levelo://app?vid=22c4663a-4492-4623-9402-2dfb2586b472","ios":"levelo://app?vid=22c4663a-4492-4623-9402-2dfb2586b472"},"vehicle_type_id":"4","last_reported":1742296120,"current_range_meters":17600,"station_id":"ce4bhs12rcd13ifvqhvg","pricing_plan_id":"cebpf4jnsgd1na2vs0mg"},{"bike_id":"948d306b-42e0-4ba6-93a8-a10bb3eef8e3","system_id":"levelo_inurba_marseille","lat":43.26219,"lon":5.4044,"is_reserved":false,"is_disabled":false,"rental_uris":{"android":"levelo://app?vid=948d306b-42e0-4ba6-93a8-a10bb3eef8e3","ios":"levelo://app?vid=948d306b-42e0-4ba6-93a8-a10bb3eef8e3"},"vehicle_type_id":"4","last_reported":1742296120,"current_range_meters":17600,"station_id":"ce4bhmh2rcd13ifvqgmg","pricing_plan_id":"cebpf4jnsgd1na2vs0mg"},{"bike_id":"efe0f7e2-83ad-4b1f-8762-f45c4aedf1a1","system_id":"levelo_inurba_marseille","lat":43.230567,"lon":5.354917,"is_reserved":false,"is_disabled":false,"rental_uris":{"android":"levelo://app?vid=efe0f7e2-83ad-4b1f-8762-f45c4aedf1a1","ios":"levelo://app?vid=efe0f7e2-83ad-4b1f-8762-f45c4aedf1a1"},"vehicle_type_id":"4","last_reported":1742296120,"current_range_meters":17600,"station_id":"cpo3342slgdg3j2ifvpg","pricing_plan_id":"cebpf4jnsgd1na2vs0mg"},{"bike_id":"1bf72af5-3c9c-4f42-99f7-41c055b30c49","system_id":"levelo_inurba_marseille","lat":43.33603,"lon":5.41024,"is_reserved":false,"is_disabled":false,"rental_uris":{"android":"levelo://app?vid=1bf72af5-3c9c-4f42-99f7-41c055b30c49","ios":"levelo://app?vid=1bf72af5-3c9c-4f42-99f7-41c055b30c49"},"vehicle_type_id":"4","last_reported":1742296120,"current_range_meters":17600,"station_id":"ce4bhqh2rcd13ifvqhmg","pricing_plan_id":"cebpf4jnsgd1na2vs0mg"},{"bike_id":"08380846-4862-41a8-93b7-52419ac5e042","system_id":"levelo_inurba_marseille","lat":43.3138,"lon":5.36728,"is_reserved":false,"is_disabled":false,"rental_uris":{"android":"levelo://app?vid=08380846-4862-41a8-93b7-52419ac5e042","ios":"levelo://app?vid=08380846-4862-41a8-93b7-52419ac5e042"},"vehicle_type_id":"4","last_reported":1742296120,"current_range_meters":18000,"station_id":"ce4bgr92rcd13ifvqc6g","pricing_plan_id":"cebpf4jnsgd1na2vs0mg"},{"bike_id":"c2d5a123-d09a-4b21-a2ef-a198ad54bfc2","system_id":"levelo_inurba_marseille","lat":43.230644,"lon":5.354929,"is_reserved":false,"is_disabled":false,"rental_uris":{"android":"levelo://app?vid=c2d5a123-d09a-4b21-a2ef-a198ad54bfc2","ios":"levelo://app?vid=c2d5a123-d09a-4b21-a2ef-a198ad54bfc2"},"vehicle_type_id":"4","last_reported":1742296120,"current_range_meters":18000,"station_id":"cpo3342slgdg3j2ifvpg","pricing_plan_id":"cebpf4jnsgd1na2vs0mg"},{"bike_id":"bbb4a69f-e41d-403a-8660-d8563a70657e","system_id":"levelo_inurba_marseille","lat":43.30141,"lon":5.37422,"is_reserved":false,"is_disabled":false,"rental_uris":{"android":"levelo://app?vid=bbb4a69f-e41d-403a-8660-d8563a70657e","ios":"levelo://app?vid=bbb4a69f-e41d-403a-8660-d8563a70657e"},"vehicle_type_id":"4","last_reported":1742296120,"current_range_meters":18000,"station_id":"ce4bgs92rcd13ifvqcc0","pricing_plan_id":"cebpf4jnsgd1na2vs0mg"},