{"last_updated":1726949319,"ttl":30,"version":"2.2","data":{"bikes":[{"bike_id":"0d544cb3-5db5-4a21-b3c2-34479d641154","system_id":"levelo_inurba_marseille","lat":43.23964,"lon":5.3663,"is_reserved":false,"is_disabled":false,"rental_uris":{"android":"levelo://app?vid=0d544cb3-5db5-4a21-b3c2-34479d641154","ios":"levelo://app?vid=0d544cb3-5db5-4a21-b3c2-34479d641154"},"vehicle_type_id":"4","last_reported":1726949319,"current_range_meters":18000,"station_id":"ce4bhi12rcd13ifvqfp0","pricing_plan_id":"cebpf4jnsgd1na2vs0mg"},{"bike_id":"fd84f170-c075-4570-a556-c5e617e29406","system_id":"levelo_inurba_marseille","lat":43.28305,"lon":5.40901,"is_reserved":false,"is_disabled":false,"rental_uris":{"android":"levelo://app?vid=fd84f170-c075-4570-a556-c5e617e29406","ios":"levelo://app?vid=fd84f170-c075-4570-a556-c5e617e29406"},"vehicle_type_id":"4","last_reported":1726949319,"current_range_meters":21600,"station_id":"","pricing_plan_id":"cebpf4jnsgd1na2vs0mg"},{"bike_id":"5a54b612-489f-4fbe-8501-cb9fd58c10d6","system_id":"levelo_inurba_marseille","lat":43.27998,"lon":5.40022,"is_reserved":false,"is_disabled":false,"rental_uris":{"android":"levelo://app?vid=5a54b612-489f-4fbe-8501-cb9fd58c10d6","ios":"levelo://app?vid=5a54b612-489f-4fbe-8501-cb9fd58c10d6"},"vehicle_type_id":"4","last_reported":1726949319,"current_range_meters":39200,"station_id":"ce4bho92rcd13ifvqh4g","pricing_plan_id":"cebpf4jnsgd1na2vs0mg"},{"bike_id":"91ea66f7-d575-43aa-88a0-2571c1fbb833","system_id":"levelo_inurba_marseille","lat":43.23192,"lon":5.35559,"is_reserved":false,"is_disabled":false,"rental_uris":{"android":"levelo://app?vid=91ea66f7-d575-43aa-88a0-2571c1fbb833","ios":"levelo://app?vid=91ea66f7-d575-43aa-88a0-2571c1fbb833"},"vehicle_type_id":"4","last_reported":1726949319,"current_range_meters":36000,"station_id":"ce4bhu92rcd13ifvqi70","pricing_plan_id":"cebpf4jnsgd1na2vs0mg"},{"bike_id":"3b4e2f3c-0640-4e07-9932-97358e8bbeca","system_id":"levelo_inurba_marseille","lat":43.30559,"lon":5.38426,"is_reserved":false,"is_disabled":false,"rental_uris":{"android":"levelo://app?vid=3b4e2f3c-0640-4e07-9932-97358e8bbeca","ios":"levelo://app?vid=3b4e2f3c-0640-4e07-9932-97358e8bbeca"},"vehicle_type_id":"4","last_reported":1726949319,"current_range_meters":6400,"station_id":"ce4bgg92rcd13ifvqb30","pricing_plan_id":"cebpf4jnsgd1na2vs0mg"},{"bike_id":"8bb9f58a-7025-4e9c-802b-91c900607241","system_id":"levelo_inurba_marseille","lat":43.29424,"lon":5.38616,"is_reserved":false,"is_disabled":false,"rental_uris":{"android":"levelo://app?vid=8bb9f58a-7025-4e9c-802b-91c900607241","ios":"levelo://app?vid=8bb9f58a-7025-4e9c-802b-91c900607241"},"vehicle_type_id":"4","last_reported":1726949319,"current_range_meters":21600,"station_id":"ce4bh2h2rcd13ifvqdh0","pricing_plan_id":"cebpf4jnsgd1na2vs0mg"},{"bike_id":"1ca03984-3d36-412d-9272-910459217bc7","system_id":"levelo_inurba_marseille","lat":43.295174,"lon":5.394044,"is_reserved":false,"is_disabled":false,"rental_uris":{"android":"levelo://app?vid=1ca03984-3d36-412d-9272-910459217bc7","ios":"levelo://app?vid=1ca03984-3d36-412d-9272-910459217bc7"},"vehicle_type_id":"4","last_reported":1726949319,"current_range_meters":38800,"station_id":"ce4bh4p2rcd13ifvqe1g","pricing_plan_id":"cebpf4jnsgd1na2vs0mg"},{"bike_id":"c0993040-99f3-4e65-8495-c15b103ad0e7","system_id":"levelo_inurba_marseille","lat":43.32113,"lon":5.38579,"is_reserved":false,"is_disabled":false,"rental_uris":{"android":"levelo://app?vid=c0993040-99f3-4e65-8495-c15b103ad0e7","ios":"levelo://app?vid=c0993040-99f3-4e65-8495-c15b103ad0e7"},"vehicle_type_id":"4","last_reported":1726949319,"current_range_meters":7200,"station_id":"","pricing_plan_id":"cebpf4jnsgd1na2vs0mg"},{"bike_id":"edbb5496-0c94-4700-a91b-1965b1b6dd03","system_id":"levelo_inurba_marseille","lat":43.29037,"lon":5.38635,"is_reserved":false,"is_disabled":false,"rental_uris":{"android":"levelo://app?vid=edbb5496-0c94-4700-a91b-1965b1b6dd03","ios":"levelo://app?vid=edbb5496-0c94-4700-a91b-1965b1b6dd03"},"vehicle_type_id":"4","last_reported":1726949319,"current_range_meters":27200,"station_id":"ce4bh4p2rcd13ifvqe0g","pricing_plan_id":"cebpf4jnsgd1na2vs0mg"},{"bike_id":"19dd9f4a-a7bb-4939-8984-e00835f470fd","system_id":"levelo_inurba_marseille","lat":43.30641,"lon":5.40089,"is_reserved":false,"is_disabled":false,"rental_uris":{"android":"levelo://app?vid=19dd9f4a-a7bb-4939-8984-e00835f470fd","ios":"levelo://app?vid=19dd9f4a-a7bb-4939-8984-e00835f470fd"},"vehicle_type_id":"4","last_reported":1726949319,"current_range_meters":38800,"station_id":"ce4bh112rcd13ifvqda0","pricing_plan_id":"cebpf4jnsgd1na2vs0mg"},{"bike_id":"f931dce2-ba59-45d0-ba7c-7690ec111770","system_id":"levelo_inurba_marseille","lat":43.29422,"lon":5.38625,"is_reserved":false,"is_disabled":false,"rental_uris":{"android":"levelo://app?vid=f931dce2-ba59-45d0-ba7c-7690ec111770","ios":"levelo://app?vid=f931dce2-ba59-45d0-ba7c-7690ec111770"},"vehicle_type_id":"4","last_reported":1726949319,"current_range_meters":37600,"station_id":"ce4bh2h2rcd13ifvqdh0","pricing_plan_id":"cebpf4jnsgd1na2vs0mg"},{"bike_id":"e0bce922-4df3-4df1-936a-fc243f82f763","system_id":"levelo_inurba_marseille","lat":43.29271,"lon":5.38447,"is_reserved":false,"is_disabled":false,"rental_uris":{"android":"levelo://app?vid=e0bce922-4df3-4df1-936a-fc243f82f763","ios":"levelo://app?vid=e0bce922-4df3-4df1-936a-fc243f82f763"},"vehicle_type_id":"4","last_reported":1726949319,"current_range_meters":7200,"station_id":"ce4bh692rcd13ifvqea0","pricing_plan_id":"cebpf4jnsgd1na2vs0mg"},{"bike_id":"07f8e3e6-7847-4fe1-a4a7-ea496357d16b","system_id":"levelo_inurba_marseille","lat":43.30353,"lon":5.41887,"is_reserved":false,"is_disabled":false,"rental_uris":{"android":"levelo://app?vid=07f8e3e6-7847-4fe1-a4a7-ea496357d16b","ios":"levelo://app?vid=07f8e3e6-7847-4fe1-a4a7-ea496357d16b"},"vehicle_type_id":"4","last_reported":1726949319,"current_range_meters":0,"station_id":"ce4bhop2rcd13ifvqh7g","pricing_plan_id":"cebpf4jnsgd1na2vs0mg"},{"bike_id":"d1e51797-0dcb-436c-bfcc-9d78efafcc06","system_id":"levelo_inurba_marseille","lat":43.29419,"lon":5.38627,"is_reserved":false,"is_disabled":false,"rental_uris":{"android":"levelo://app?vid=d1e51797-0dcb-436c-bfcc-9d78efafcc06","ios":"levelo://app?vid=d1e51797-0dcb-436c-bfcc-9d78efafcc06"},"vehicle_type_id":"4","last_reported":1726949319,"current_range_meters":20400,"station_id":"ce4bh2h2rcd13ifvqdh0","pricing_plan_id":"cebpf4jnsgd1na2vs0mg"},{"bike_id":"f6153498-302e-48b7-ac4d-b25f8d056815","system_id":"levelo_inurba_marseille","lat":43.29707,"lon":5.3739,"is_reserved":false,"is_disabled":false,"rental_uris":{"android":"levelo://app?vid=f6153498-302e-48b7-ac4d-b25f8d056815","ios":"levelo://app?vid=f6153498-302e-48b7-ac4d-b25f8d056815"},"vehicle_type_id":"4","last_reported":1726949319,"current_range_meters":20400,"station_id":"","pricing_plan_id":"cebpf4jnsgd1na2vs0mg"},{"bike_id":"7740f99f-4af0-45b4-a944-e512b5ab03d0","system_id":"levelo_inurba_marseille","lat":43.29265,"lon":5.3844,"is_reserved":false,"is_disabled":false,"rental_uris":{"android":"levelo://app?vid=7740f99f-4af0-45b4-a944-e512b5ab03d0","ios":"levelo://app?vid=7740f99f-4af0-45b4-a944-e512b5ab03d0"},"vehicle_type_id":"4","last_reported":1726949319,"current_range_meters":8000,"station_id":"ce4bh692rcd13ifvqea0","pricing_plan_id":"cebpf4jnsgd1na2vs0mg"},{"bike_id":"578ac1bc-99e4-4719-974d-d8c3aa90c12a","system_id":"levelo_inurba_marseille","lat":43.29048,"lon":5.35915,"is_reserved":false,"is_disabled":false,"rental_uris":{"android":"levelo://app?vid=578ac1bc-99e4-4719-974d-d8c3aa90c12a","ios":"levelo://app?vid=578ac1bc-99e4-4719-974d-d8c3aa90c12a"},"vehicle_type_id":"4","last_reported":1726949319,"current_range_meters":27200,"station_id":"ce4bha92rcd13ifvqeg0","pricing_plan_id":"cebpf4jnsgd1na2vs0mg"},{"bike_id":"29c3801a-7b4c-47aa-a6ad-d81b447de9a5","system_id":"levelo_inurba_marseille","lat":43.30417,"lon":5.4129,"is_reserved":false,"is_disabled":false,"rental_uris":{"android":"levelo://app?vid=29c3801a-7b4c-47aa-a6ad-d81b447de9a5","ios":"levelo://app?vid=29c3801a-7b4c-47aa-a6ad-d81b447de9a5"},"vehicle_type_id":"4","last_reported":1726949319,"current_range_meters":28800,"station_id":"ce4bhop2rcd13ifvqh8g","pricing_plan_id":"cebpf4jnsgd1na2vs0mg"},{"bike_id":"139813f4-74c8-4e15-a7df-8ee61537a030","system_id":"levelo_inurba_marseille","lat":43.23957,"lon":5.36637,"is_reserved":false,"is_disabled":false,"rental_uris":{"android":"levelo://app?vid=139813f4-74c8-4e15-a7df-8ee61537a030","ios":"levelo://app?vid=139813f4-74c8-4e15-a7df-8ee61537a030"},"vehicle_type_id":"4","last_reported":1726949319,"current_range_meters":8000,"station_id":"ce4bhi12rcd13ifvqfp0","pricing_plan_id":"cebpf4jnsgd1na2vs0mg"},{"bike_id":"b9043ee7-1b51-4205-a7f8-061a93eb7c50","system_id":"levelo_inurba_marseille","lat":43.294128,"lon":5.386208,"is_reserved":false,"is_disabled":false,"rental_uris":{"android":"levelo://app?vid=b9043ee7-1b51-4205-a7f8-061a93eb7c50","ios":"levelo://app?vid=b9043ee7-1b51-4205-a7f8-061a93eb7c50"},"vehicle_type_id":"4","last_reported":1726949319,"current_range_meters":30000,"station_id":"ce4bhq12rcd13ifvqhig","pricing_plan_id":"cebpf4jnsgd1na2vs0mg"},{"bike_id":"3f3a1968-161c-4281-9dac-b1f6f3f79cd0","system_id":"levelo_inurba_marseille","lat":43.27494,"lon":5.42449,"is_reserved":false,"is_disabled":false,"rental_uris":{"android":"levelo://app?vid=3f3a1968-161c-4281-9dac-b1f6f3f79cd0","ios":"levelo://app?vid=3f3a1968-161c-4281-9dac-b1f6f3f79cd0"},"vehicle_type_id":"4","last_reported":1726949319,"current_range_meters":20000,"station_id":"ce4bhn92rcd13ifvqgrg","pricing_plan_id":"cebpf4jnsgd1na2vs0mg"},{"bike_id":"5555a5b5-088d-4c14-9b11-5b965fcc3403","system_id":"levelo_inurba_marseille","lat":43.29524,"lon":5.38538,"is_reserved":false,"is_disabled":false,"rental_uris":{"android":"levelo://app?vid=5555a5b5-088d-4c14-9b11-5b965fcc3403","ios":"levelo://app?vid=5555a5b5-088d-4c14-9b11-5b965fcc3403"},"vehicle_type_id":"4","last_reported":1726949319,"current_range_meters":29600,"station_id":"ce4bgih2rcd13ifvqba0","pricing_plan_id":"cebpf4jnsgd1na2vs0mg"},{"bike_id":"5180f67d-0bab-4afd-aba9-bb9ada568e23","system_id":"levelo_inurba_marseille","lat":43.28728,"lon":5.36089,"is_reserved":false,"is_disabled":false,"rental_uris":{"android":"levelo://app?vid=5180f67d-0bab-4afd-aba9-bb9ada568e23","ios":"levelo://app?vid=5180f67d-0bab-4afd-aba9-bb9ada568e23"},"vehicle_type_id":"4","last_reported":1726949319,"current_range_meters":30400,"station_id":"cki0cbj6b192h4jlfktg","pricing_plan_id":"cebpf4jnsgd1na2vs0mg"},{"bike_id":"ebabfaca-3986-4d00-be3b-c82a93b1fd1c","system_id":"levelo_inurba_marseille","lat":43.31367,"lon":5.38494,"is_reserved":false,"is_disabled":false,"rental_uris":{"android":"levelo://app?vid=ebabfaca-3986-4d00-be3b-c82a93b1fd1c","ios":"levelo://app?vid=ebabfaca-3986-4d00-be3b-c82a93b1fd1c"},"vehicle_type_id":"4","last_reported":1726949319,"current_range_meters":8800,"station_id":"ce4bgt92rcd13ifvqcf0","pricing_plan_id":"cebpf4jnsgd1na2vs0mg"},{"bike_id":"8e2f1964-321f-4b2b-84af-b31aae8372e0","system_id":"levelo_inurba_marseille","lat":43.28478,"lon":5.38536,"is_reserved":false,"is_disabled":false,"rental_uris":{"android":"levelo://app?vid=8e2f1964-321f-4b2b-84af-b31aae8372e0","ios":"levelo://app?vid=8e2f1964-321f-4b2b-84af-b31aae8372e0"},"vehicle_type_id":"4","last_reported":1726949319,"current_range_meters":38800,"station_id":"ce4bh8p2rcd13ifvqeb0","pricing_plan_id":"cebpf4jnsgd1na2vs0mg"},{"bike_id":"3cdbf2d7-bbfd-4bfc-872d-26e3d23bc7cf","system_id":"levelo_inurba_marseille","lat":43.326599,"lon":5.409941,"is_reserved":false,"is_disabled":false,"rental_uris":{"android":"levelo://app?vid=3cdbf2d7-bbfd-4bfc-872d-26e3d23bc7cf","ios":"levelo://app?vid=3cdbf2d7-bbfd-4bfc-872d-26e3d23bc7cf"},"vehicle_type_id":"4","last_reported":1726949319,"current_range_meters":18800,"station_id":"ce4bhpp2rcd13ifvqhgg","pricing_plan_id":"cebpf4jnsgd1na2vs0mg"},{"bike_id":"bc263bf5-20a1-4ba2-aabd-537a1ca16121","system_id":"levelo_inurba_marseille","lat":43.29419,"lon":5.38629,"is_reserved":false,"is_disabled":false,"rental_uris":{"android":"levelo://app?vid=bc263bf5-20a1-4ba2-aabd-537a1ca16121","ios":"levelo://app?vid=bc263bf5-20a1-4ba2-aabd-537a1ca16121"},"vehicle_type_id":"4","last_reported":1726949319,"current_range_meters":8800,"station_id":"ce4bh2h2rcd13ifvqdh0","pricing_plan_id":"cebpf4jnsgd1na2vs0mg"},{"bike_id":"6f1ebe60-fb80-480a-9eec-b69e669e9336","system_id":"levelo_inurba_marseille","lat":43.25503,"lon":5.37651,"is_reserved":false,"is_disabled":false,"rental_uris":{"android":"levelo://app?vid=6f1ebe60-fb80-480a-9eec-b69e669e9336","ios":"levelo://app?vid=6f1ebe60-fb80-480a-9eec-b69e669e9336"},"vehicle_type_id":"4","last_reported":1726949319,"current_range_meters":6000,"station_id":"ce4bhh12rcd13ifvqff0","pricing_plan_id":"cebpf4jnsgd1na2vs0mg"},{"bike_id":"2abfd0da-52ff-49fd-a5cb-a8f4dd818089","system_id":"levelo_inurba_marseille","lat":43.28158,"lon":5.42653,"is_reserved":false,"is_disabled":false,"rental_uris":{"android":"levelo://app?vid=2abfd0da-52ff-49fd-a5cb-a8f4dd818089","ios":"levelo://app?vid=2abfd0da-52ff-49fd-a5cb-a8f4dd818089"},"vehicle_type_id":"4","last_reported":1726949319,"current_range_meters":39200,"station_id":"ce4bhnh2rcd13ifvqgug","pricing_plan_id":"cebpf4jnsgd1na2vs0mg"},{"bike_id":"edfb1ff5-b81b-4225-8da9-100a9115b1e3","system_id":"levelo_inurba_marseille","lat":43.29735,"lon":5.36561,"is_reserved":false,"is_disabled":false,"rental_uris":{"android":"levelo://app?vid=edfb1ff5-b81b-4225-8da9-100a9115b1e3","ios":"levelo://app?vid=edfb1ff5-b81b-4225-8da9-100a9115b1e3"},"vehicle_type_id":"4","last_reported":1726949319,"current_range_meters":6800,"station_id":"","pricing_plan_id":"cebpf4jnsgd1na2vs0mg"},{"bike_id":"417bf012-9448-468b-870d-546414c85563","system_id":"levelo_inurba_marseille","lat":43.30612,"lon":5.37226,"is_reserved":false,"is_disabled":false,"rental_uris":{"android":"levelo://app?vid=417bf012-9448-468b-870d-546414c85563","ios":"levelo://app?vid=417bf012-9448-468b-870d-546414c85563"},"vehicle_type_id":"4","last_reported":1726949319,"current_range_meters":38000,"station_id":"ce4bgqh2rcd13ifvqc4g","pricing_plan_id":"cebpf4jnsgd1na2vs0mg"},{"bike_id":"ffa02814-39e2-452f-b359-1c1ae1125f63","system_id":"levelo_inurba_marseille","lat":43.30298,"lon":5.36892,"is_reserved":false,"is_disabled":false,"rental_uris":{"android":"levelo://app?vid=ffa02814-39e2-452f-b359-1c1ae1125f63","ios":"levelo://app?vid=ffa02814-39e2-452f-b359-1c1ae1125f63"},"vehicle_type_id":"4","last_reported":1726949319,"current_range_meters":4400,"station_id":"ce4bgqh2rcd13ifvqc5g","pricing_plan_id":"cebpf4jnsgd1na2vs0mg"},{"bike_id":"e4f79511-a0f2-4db6-b264-7929c40d9e58","system_id":"levelo_inurba_marseille","lat":43.27905,"lon":5.38003,"is_reserved":false,"is_disabled":false,"rental_uris":{"android":"levelo://app?vid=e4f79511-a0f2-4db6-b264-7929c40d9e58","ios":"levelo://app?vid=e4f79511-a0f2-4db6-b264-7929c40d9e58"},"vehicle_type_id":"4","last_reported":1726949319,"current_range_meters":8000,"station_id":"ce4bhf92rcd13ifvqf50","pricing_plan_id":"cebpf4jnsgd1na2vs0mg"},{"bike_id":"9f3ab45a-8540-4a32-8475-6b1c6ce0c146","system_id":"levelo_inurba_marseille","lat":43.29425,"lon":5.38624,"is_reserved":false,"is_disabled":false,"rental_uris":{"android":"levelo://app?vid=9f3ab45a-8540-4a32-8475-6b1c6ce0c146","ios":"levelo://app?vid=9f3ab45a-8540-4a32-8475-6b1c6ce0c146"},"vehicle_type_id":"4","last_reported":1726949319,"current_range_meters":22000,"station_id":"ce4bh2h2rcd13ifvqdh0","pricing_plan_id":"cebpf4jnsgd1na2vs0mg"},{"bike_id":"8369c096-8353-433e-81c8-e21cb6645440","system_id":"levelo_inurba_marseille","lat":43.294098,"lon":5.386219,"is_reserved":false,"is_disabled":false,"rental_uris":{"android":"levelo://app?vid=8369c096-8353-433e-81c8-e21cb6645440","ios":"levelo://app?vid=8369c096-8353-433e-81c8-e21cb6645440"},"vehicle_type_id":"4","last_reported":1726949319,"current_range_meters":4400,"station_id":"ce4bh2h2rcd13ifvqdh0","pricing_plan_id":"cebpf4jnsgd1na2vs0mg"},{"bike_id":"c3dc579f-f082-4ab1-9a2e-7e539fa05150","system_id":"levelo_inurba_marseille","lat":43.27071,"lon":5.42279,"is_reserved":false,"is_disabled":false,"rental_uris":{"android":"levelo://app?vid=c3dc579f-f082-4ab1-9a2e-7e539fa05150","ios":"levelo://app?vid=c3dc579f-f082-4ab1-9a2e-7e539fa05150"},"vehicle_type_id":"4","last_reported":1726949319,"current_range_meters":8000,"station_id":"ce4bhk92rcd13ifvqgb0","pricing_plan_id":"cebpf4jnsgd1na2vs0mg"},{"bike_id":"2a078445-4245-41e8-a2ec-aad2d864a707","system_id":"levelo_inurba_marseille","lat":43.27918,"lon":5.38008,"is_reserved":false,"is_disabled":false,"rental_uris":{"android":"levelo://app?vid=2a078445-4245-41e8-a2ec-aad2d864a707","ios":"levelo://app?vid=2a078445-4245-41e8-a2ec-aad2d864a707"},"vehicle_type_id":"4","last_reported":1726949319,"current_range_meters":14400,"station_id":"ce4bhf92rcd13ifvqf50","pricing_plan_id":"cebpf4jnsgd1na2vs0mg"},{"bike_id":"eb51972c-e901-47c9-aa4c-bb287b81e5fb","system_id":"levelo_inurba_marseille","lat":43.31757,"lon":5.3902,"is_reserved":false,"is_disabled":false,"rental_uris":{"android":"levelo://app?vid=eb51972c-e901-47c9-aa4c-bb287b81e5fb","ios":"levelo://app?vid=eb51972c-e901-47c9-aa4c-bb287b81e5fb"},"vehicle_type_id":"4","last_reported":1726949319,"current_range_meters":39200,"station_id":"ce4bhqp2rcd13ifvqhng","pricing_plan_id":"cebpf4jnsgd1na2vs0mg"},{"bike_id":"3af56387-c0a9-406d-b9ab-767e425be036","system_id":"levelo_inurba_marseille","lat":43.25496,"lon":5.37651,"is_reserved":false,"is_disabled":false,"rental_uris":{"android":"levelo://app?vid=3af56387-c0a9-406d-b9ab-767e425be036","ios":"levelo://app?vid=3af56387-c0a9-406d-b9ab-767e425be036"},"vehicle_type_id":"4","last_reported":1726949319,"current_range_meters":38400,"station_id":"ce4bhh12rcd13ifvqff0","pricing_plan_id":"cebpf4jnsgd1na2vs0mg"},{"bike_id":"bd0e2cd1-cc45-4174-876e-623d089b0031","system_id":"levelo_inurba_marseille","lat":43.2408,"lon":5.37756,"is_reserved":false,"is_disabled":false,"rental_uris":{"android":"levelo://app?vid=bd0e2cd1-cc45-4174-876e-623d089b0031","ios":"levelo://app?vid=bd0e2cd1-cc45-4174-876e-623d089b0031"},"vehicle_type_id":"4","last_reported":1726949319,"current_range_meters":35600,"station_id":"ce4bhnp2rcd13ifvqgvg","pricing_plan_id":"cebpf4jnsgd1na2vs0mg"},{"bike_id":"21cbc733-337f-498a-941f-dd8c739f3bb0","system_id":"levelo_inurba_marseille","lat":43.29034,"lon":5.38655,"is_reserved":false,"is_disabled":false,"rental_uris":{"android":"levelo://app?vid=21cbc733-337f-498a-941f-dd8c739f3bb0","ios":"levelo://app?vid=21cbc733-337f-498a-941f-dd8c739f3bb0"},"vehicle_type_id":"4","last_reported":1726949319,"current_range_meters":23200,"station_id":"ce4bh4p2rcd13ifvqe0g","pricing_plan_id":"cebpf4jnsgd1na2vs0mg"},{"bike_id":"73c7be31-c09e-4d3b-a821-d101f9423d42","system_id":"levelo_inurba_marseille","lat":43.29534,"lon":5.39397,"is_reserved":false,"is_disabled":false,"rental_uris":{"android":"levelo://app?vid=73c7be31-c09e-4d3b-a821-d101f9423d42","ios":"levelo://app?vid=73c7be31-c09e-4d3b-a821-d101f9423d42"},"vehicle_type_id":"4","last_reported":1726949319,"current_range_meters":28800,"station_id":"ce4bh292rcd13ifvqdf0","pricing_plan_id":"cebpf4jnsgd1na2vs0mg"},{"bike_id":"9e0efb9e-b74c-46c1-b670-2ef9a6e39873","system_id":"levelo_inurba_marseille","lat":43.29419,"lon":5.38627,"is_reserved":false,"is_disabled":false,"rental_uris":{"android":"levelo://app?vid=9e0efb9e-b74c-46c1-b670-2ef9a6e39873","ios":"levelo://app?vid=9e0efb9e-b74c-46c1-b670-2ef9a6e39873"},"vehicle_type_id":"4","last_reported":1726949319,"current_range_meters":9600,"station_id":"ce4bh2h2rcd13ifvqdh0","pricing_plan_id":"cebpf4jnsgd1na2vs0mg"},{"bike_id":"54b7f973-33ed-4b77-bfc3-7847058bc7a6","system_id":"levelo_inurba_marseille","lat":43.31727,"lon":5.424,"is_reserved":false,"is_disabled":false,"rental_uris":{"android":"levelo://app?vid=54b7f973-33ed-4b77-bfc3-7847058bc7a6","ios":"levelo://app?vid=54b7f973-33ed-4b77-bfc3-7847058bc7a6"},"vehicle_type_id":"4","last_reported":1726949319,"current_range_meters":37600,"station_id":"ce4bhp92rcd13ifvqhbg","pricing_plan_id":"cebpf4jnsgd1na2vs0mg"},{"bike_id":"cf56b16a-cf20-467f-a367-08d3a7793af8","system_id":"levelo_inurba_marseille","lat":43.2455,"lon":5.39522,"is_reserved":false,"is_disabled":false,"rental_uris":{"android":"levelo://app?vid=cf56b16a-cf20-467f-a367-08d3a7793af8","ios":"levelo://app?vid=cf56b16a-cf20-467f-a367-08d3a7793af8"},"vehicle_type_id":"4","last_reported":1726949319,"current_range_meters":16400,"station_id":"ce4bhlp2rcd13ifvqgjg","pricing_plan_id":"cebpf4jnsgd1na2vs0mg"},{"bike_id":"eb9f67ff-4867-449f-b00d-9cbb0674363e","system_id":"levelo_inurba_marseille","lat":43.29027,"lon":5.38107,"is_reserved":false,"is_disabled":false,"rental_uris":{"android":"levelo://app?vid=eb9f67ff-4867-449f-b00d-9cbb0674363e","ios":"levelo://app?vid=eb9f67ff-4867-449f-b00d-9cbb0674363e"},"vehicle_type_id":"4","last_reported":1726949319,"current_range_meters":38800,"station_id":"ce4bh4p2rcd13ifvqe1g","pricing_plan_id":"cebpf4jnsgd1na2vs0mg"},{"bike_id":"423f020e-2129-42e2-848b-369681b4cc36","system_id":"levelo_inurba_marseille","lat":43.29197,"lon":5.39331,"is_reserved":false,"is_disabled":false,"rental_uris":{"android":"levelo://app?vid=423f020e-2129-42e2-848b-369681b4cc36","ios":"levelo://app?vid=423f020e-2129-42e2-848b-369681b4cc36"},"vehicle_type_id":"4","last_reported":1726949319,"current_range_meters":29600,"station_id":"ce4bh192rcd13ifvqdd0","pricing_plan_id":"cebpf4jnsgd1na2vs0mg"},{"bike_id":"386d7d39-d9a0-4f2f-9dfa-7b382234f940","system_id":"levelo_inurba_marseille","lat":43.23196,"lon":5.35557,"is_reserved":false,"is_disabled":false,"rental_uris":{"android":"levelo://app?vid=386d7d39-d9a0-4f2f-9dfa-7b382234f940","ios":"levelo://app?vid=386d7d39-d9a0-4f2f-9dfa-7b382234f940"},"vehicle_type_id":"4","last_reported":1726949319,"current_range_meters":19200,"station_id":"ce4bhu92rcd13ifvqi70","pricing_plan_id":"cebpf4jnsgd1na2vs0mg"},{"bike_id":"5419b1bf-d37c-4076-a34c-52ede101758e","system_id":"levelo_inurba_marseille","lat":43.337444,"lon":5.374475,"is_reserved":false,"is_disabled":false,"rental_uris":{"android":"levelo://app?vid=5419b1bf-d37c-4076-a34c-52ede101758e","ios":"levelo://app?vid=5419b1bf-d37c-4076-a34c-52ede101758e"},"vehicle_type_id":"4","last_reported":1726949319,"current_range_meters":31200,"station_id":"","pricing_plan_id":"cebpf4jnsgd1na2vs0mg"},{"bike_id":"013a1a54-8c71-4d7d-ad66-178705a1f09a","system_id":"levelo_inurba_marseille","lat":43.2587,"lon":5.39898,"is_reserved":false,"is_disabled":false,"rental_uris":{"android":"levelo://app?vid=013a1a54-8c71-4d7d-ad66-178705a1f09a","ios":"levelo://app?vid=013a1a54-8c71-4d7d-ad66-178705a1f09a"},"vehicle_type_id":"4","last_reported":1726949319,"current_range_meters":24800,"station_id":"ce4bhl92rcd13ifvqghg","pricing_plan_id":"cebpf4jnsgd1na2vs0mg"},{"bike_id":"3d11801b-4666-46ed-99aa-aabfb05b911e","system_id":"levelo_inurba_marseille","lat":43.31997,"lon":5.38148,"is_reserved":false,"is_disabled":false,"rental_uris":{"android":"levelo://app?vid=3d11801b-4666-46ed-99aa-aabfb05b911e","ios":"levelo://app?vid=3d11801b-4666-46ed-99aa-aabfb05b911e"},"vehicle_type_id":"4","last_reported":1726949319,"current_range_meters":30800,"station_id":"ce4bhr12rcd13ifvqhpg","pricing_plan_id":"cebpf4jnsgd1na2vs0mg"},{"bike_id":"a3d88174-ae74-4f27-9e30-28bf0e771eb8","system_id":"levelo_inurba_marseille","lat":43.30138,"lon":5.38784,"is_reserved":false,"is_disabled":false,"rental_uris":{"android":"levelo://app?vid=a3d88174-ae74-4f27-9e30-28bf0e771eb8","ios":"levelo://app?vid=a3d88174-ae74-4f27-9e30-28bf0e771eb8"},"vehicle_type_id":"4","last_reported":1726949319,"current_range_meters":24400,"station_id":"ce4bghh2rcd13ifvqb60","pricing_plan_id":"cebpf4jnsgd1na2vs0mg"},{"bike_id":"68cf61e7-0b06-4fd1-9367-a09645642add","system_id":"levelo_inurba_marseille","lat":43.29983,"lon":5.38488,"is_reserved":false,"is_disabled":false,"rental_uris":{"android":"levelo://app?vid=68cf61e7-0b06-4fd1-9367-a09645642add","ios":"levelo://app?vid=68cf61e7-0b06-4fd1-9367-a09645642add"},"vehicle_type_id":"4","last_reported":1726949319,"current_range_meters":38400,"station_id":"ce4bgj92rcd13ifvqbd0","pricing_plan_id":"cebpf4jnsgd1na2vs0mg"},{"bike_id":"0789c753-7296-4e61-9942-17d9551f6f04","system_id":"levelo_inurba_marseille","lat":43.29095,"lon":5.38137,"is_reserved":false,"is_disabled":false,"rental_uris":{"android":"levelo://app?vid=0789c753-7296-4e61-9942-17d9551f6f04","ios":"levelo://app?vid=0789c753-7296-4e61-9942-17d9551f6f04"},"vehicle_type_id":"4","last_reported":1726949319,"current_range_meters":38800,"station_id":"ce4bh512rcd13ifvqe2g","pricing_plan_id":"cebpf4jnsgd1na2vs0mg"},{"bike_id":"efe12098-1752-458d-925d-bda16cc5f089","system_id":"levelo_inurba_marseille","lat":43.29269,"lon":5.38446,"is_reserved":false,"is_disabled":false,"rental_uris":{"android":"levelo://app?vid=efe12098-1752-458d-925d-bda16cc5f089","ios":"levelo://app?vid=efe12098-1752-458d-925d-bda16cc5f089"},"vehicle_type_id":"4","last_reported":1726949319,"current_range_meters":7200,"station_id":"ce4bh692rcd13ifvqea0","pricing_plan_id":"cebpf4jnsgd1na2vs0mg"},{"bike_id":"470259e3-b1c4-4a86-b9be-ae3f1006b367","system_id":"levelo_inurba_marseille","lat":43.31331,"lon":5.39689,"is_reserved":false,"is_disabled":false,"rental_uris":{"android":"levelo://app?vid=470259e3-b1c4-4a86-b9be-ae3f1006b367","ios":"levelo://app?vid=470259e3-b1c4-4a86-b9be-ae3f1006b367"},"vehicle_type_id":"4","last_reported":1726949319,"current_range_meters":38400,"station_id":"ce4bgvp2rcd13ifvqcu0","pricing_plan_id":"cebpf4jnsgd1na2vs0mg"},{"bike_id":"4e6f82d3-515b-4301-a94e-03419f8cdcb5","system_id":"levelo_inurba_marseille","lat":43.28703,"lon":5.39979,"is_reserved":false,"is_disabled":false,"rental_uris":{"android":"levelo://app?vid=4e6f82d3-515b-4301-a94e-03419f8cdcb5","ios":"levelo://app?vid=4e6f82d3-515b-4301-a94e-03419f8cdcb5"},"vehicle_type_id":"4","last_reported":1726949319,"current_range_meters":3200,"station_id":"ce4bho92rcd13ifvqh3g","pricing_plan_id":"cebpf4jnsgd1na2vs0mg"},{"bike_id":"6e2fd8fb-799c-468d-a60b-38d2bf81aa37","system_id":"levelo_inurba_marseille","lat":43.23957,"lon":5.36635,"is_reserved":false,"is_disabled":false,"rental_uris":{"android":"levelo://app?vid=6e2fd8fb-799c-468d-a60b-38d2bf81aa37","ios":"levelo://app?vid=6e2fd8fb-799c-468d-a60b-38d2bf81aa37"},"vehicle_type_id":"4","last_reported":1726949319,"current_range_meters":38000,"station_id":"ce4bhi12rcd13ifvqfp0","pricing_plan_id":"cebpf4jnsgd1na2vs0mg"},{"bike_id":"5f970973-f4f4-4937-9fbe-7af0359838f0","system_id":"levelo_inurba_marseille","lat":43.32358,"lon":5.40619,"is_reserved":false,"is_disabled":false,"rental_uris":{"android":"levelo://app?vid=5f970973-f4f4-4937-9fbe-7af0359838f0","ios":"levelo://app?vid=5f970973-f4f4-4937-9fbe-7af0359838f0"},"vehicle_type_id":"4","last_reported":1726949319,"current_range_meters":30000,"station_id":"ce4bhq92rcd13ifvqhjg","pricing_plan_id":"cebpf4jnsgd1na2vs0mg"},{"bike_id":"d1182685-572a-4f17-af06-4ec180e329d5","system_id":"levelo_inurba_marseille","lat":43.29425,"lon":5.38616,"is_reserved":false,"is_disabled":false,"rental_uris":{"android":"levelo://app?vid=d1182685-572a-4f17-af06-4ec180e329d5","ios":"levelo://app?vid=d1182685-572a-4f17-af06-4ec180e329d5"},"vehicle_type_id":"4","last_reported":1726949319,"current_range_meters":12800,"station_id":"ce4bh2h2rcd13ifvqdh0","pricing_plan_id":"cebpf4jnsgd1na2vs0mg"},{"bike_id":"f59f9f07-2020-454d-8f62-ca65292624a4","system_id":"levelo_inurba_marseille","lat":43.309,"lon":5.39616,"is_reserved":false,"is_disabled":false,"rental_uris":{"android":"levelo://app?vid=f59f9f07-2020-454d-8f62-ca65292624a4","ios":"levelo://app?vid=f59f9f07-2020-454d-8f62-ca65292624a4"},"vehicle_type_id":"4","last_reported":1726949319,"current_range_meters":38400,"station_id":"ce4bh012rcd13ifvqcv0","pricing_plan_id":"cebpf4jnsgd1na2vs0mg"},{"bike_id":"2a400e7d-e53a-458e-8b62-b1abed231e8f","system_id":"levelo_inurba_marseille","lat":43.30955,"lon":5.39039,"is_reserved":false,"is_disabled":false,"rental_uris":{"android":"levelo://app?vid=2a400e7d-e53a-458e-8b62-b1abed231e8f","ios":"levelo://app?vid=2a400e7d-e53a-458e-8b62-b1abed231e8f"},"vehicle_type_id":"4","last_reported":1726949319,"current_range_meters":38800,"station_id":"ce4bgup2rcd13ifvqco0","pricing_plan_id":"cebpf4jnsgd1na2vs0mg"},{"bike_id":"f196cae4-4da8-4191-8e3a-3f8fcdaa11a6","system_id":"levelo_inurba_marseille","lat":43.31065,"lon":5.38359,"is_reserved":false,"is_disabled":false,"rental_uris":{"android":"levelo://app?vid=f196cae4-4da8-4191-8e3a-3f8fcdaa11a6","ios":"levelo://app?vid=f196cae4-4da8-4191-8e3a-3f8fcdaa11a6"},"vehicle_type_id":"4","last_reported":1726949319,"current_range_meters":36800,"station_id":"ce4bgv92rcd13ifvqcr0","pricing_plan_id":"cebpf4jnsgd1na2vs0mg"},{"bike_id":"f54e40c1-afa4-4d7b-863a-cb9f2cb31a04","system_id":"levelo_inurba_marseille","lat":43.29536,"lon":5.38551,"is_reserved":false,"is_disabled":false,"rental_uris":{"android":"levelo://app?vid=f54e40c1-afa4-4d7b-863a-cb9f2cb31a04","ios":"levelo://app?vid=f54e40c1-afa4-4d7b-863a-cb9f2cb31a04"},"vehicle_type_id":"4","last_reported":1726949319,"current_range_meters":24800,"station_id":"ce4bgih2rcd13ifvqba0","pricing_plan_id":"cebpf4jnsgd1na2vs0mg"},{"bike_id":"149779fc-bc45-458a-857f-33707eedaf6a","system_id":"levelo_inurba_marseille","lat":43.23196,"lon":5.35548,"is_reserved":false,"is_disabled":false,"rental_uris":{"android":"levelo://app?vid=149779fc-bc45-458a-857f-33707eedaf6a","ios":"levelo://app?vid=149779fc-bc45-458a-857f-33707eedaf6a"},"vehicle_type_id":"4","last_reported":1726949319,"current_range_meters":19200,"station_id":"ce4bhu92rcd13ifvqi70","pricing_plan_id":"cebpf4jnsgd1na2vs0mg"},{"bike_id":"adea4142-201e-4d62-8b5f-c33b95d4ba3b","system_id":"levelo_inurba_marseille","lat":43.29444,"lon":5.3975,"is_reserved":false,"is_disabled":false,"rental_uris":{"android":"levelo://app?vid=adea4142-201e-4d62-8b5f-c33b95d4ba3b","ios":"levelo://app?vid=adea4142-201e-4d62-8b5f-c33b95d4ba3b"},"vehicle_type_id":"4","last_reported":1726949319,"current_range_meters":22400,"station_id":"ce4bh3h2rcd13ifvqdo0","pricing_plan_id":"cebpf4jnsgd1na2vs0mg"},{"bike_id":"ad7f03e2-bab9-4970-8f7e-9f0b52463893","system_id":"levelo_inurba_marseille","lat":43.2847,"lon":5.38407,"is_reserved":false,"is_disabled":false,"rental_uris":{"android":"levelo://app?vid=ad7f03e2-bab9-4970-8f7e-9f0b52463893","ios":"levelo://app?vid=ad7f03e2-bab9-4970-8f7e-9f0b52463893"},"vehicle_type_id":"4","last_reported":1726949319,"current_range_meters":8400,"station_id":"ce4bh512rcd13ifvqe3g","pricing_plan_id":"cebpf4jnsgd1na2vs0mg"},{"bike_id":"bb76b413-9951-4ff8-b81c-8662085e6e7c","system_id":"levelo_inurba_marseille","lat":43.29911,"lon":5.37479,"is_reserved":false,"is_disabled":false,"rental_uris":{"android":"levelo://app?vid=bb76b413-9951-4ff8-b81c-8662085e6e7c","ios":"levelo://app?vid=bb76b413-9951-4ff8-b81c-8662085e6e7c"},"vehicle_type_id":"4","last_reported":1726949319,"current_range_meters":14800,"station_id":"ce4bgjh2rcd13ifvqbg0","pricing_plan_id":"cebpf4jnsgd1na2vs0mg"},{"bike_id":"ca6b1ca6-b285-4dc5-ae06-f1139491d957","system_id":"levelo_inurba_marseille","lat":43.29963,"lon":5.41319,"is_reserved":false,"is_disabled":false,"rental_uris":{"android":"levelo://app?vid=ca6b1ca6-b285-4dc5-ae06-f1139491d957","ios":"levelo://app?vid=ca6b1ca6-b285-4dc5-ae06-f1139491d957"},"vehicle_type_id":"4","last_reported":1726949319,"current_range_meters":19200,"station_id":"ce4bhp12rcd13ifvqh9g","pricing_plan_id":"cebpf4jnsgd1na2vs0mg"},{"bike_id":"604c9531-be4f-4974-bfe2-bd7828d7386f","system_id":"levelo_inurba_marseille","lat":43.29896,"lon":5.43682,"is_reserved":false,"is_disabled":false,"rental_uris":{"android":"levelo://app?vid=604c9531-be4f-4974-bfe2-bd7828d7386f","ios":"levelo://app?vid=604c9531-be4f-4974-bfe2-bd7828d7386f"},"vehicle_type_id":"4","last_reported":1726949319,"current_range_meters":22400,"station_id":"ce4bhpp2rcd13ifvqhfg","pricing_plan_id":"cebpf4jnsgd1na2vs0mg"},{"bike_id":"5ef0b433-96f4-4857-9015-d303c6af775f","system_id":"levelo_inurba_marseille","lat":43.30525,"lon":5.36716,"is_reserved":false,"is_disabled":false,"rental_uris":{"android":"levelo://app?vid=5ef0b433-96f4-4857-9015-d303c6af775f","ios":"levelo://app?vid=5ef0b433-96f4-4857-9015-d303c6af775f"},"vehicle_type_id":"4","last_reported":1726949319,"current_range_meters":36000,"station_id":"ce4bgrp2rcd13ifvqc9g","pricing_plan_id":"cebpf4jnsgd1na2vs0mg"},{"bike_id":"920517af-9d9d-412a-a645-e0e00b1b13cc","system_id":"levelo_inurba_marseille","lat":43.23966,"lon":5.3663,"is_reserved":false,"is_disabled":false,"rental_uris":{"android":"levelo://app?vid=920517af-9d9d-412a-a645-e0e00b1b13cc","ios":"levelo://app?vid=920517af-9d9d-412a-a645-e0e00b1b13cc"},"vehicle_type_id":"4","last_reported":1726949319,"current_range_meters":4800,"station_id":"ce4bhi12rcd13ifvqfp0","pricing_plan_id":"cebpf4jnsgd1na2vs0mg"},{"bike_id":"3a5e6f89-f5c7-4457-940d-af909d334a9e","system_id":"levelo_inurba_marseille","lat":43.30041,"lon":5.37883,"is_reserved":false,"is_disabled":false,"rental_uris":{"android":"levelo://app?vid=3a5e6f89-f5c7-4457-940d-af909d334a9e","ios":"levelo://app?vid=3a5e6f89-f5c7-4457-940d-af909d334a9e"},"vehicle_type_id":"4","last_reported":1726949319,"current_range_meters":25600,"station_id":"","pricing_plan_id":"cebpf4jnsgd1na2vs0mg"},{"bike_id":"574fee4d-8f25-45bd-bf39-ca752095d1c3","system_id":"levelo_inurba_marseille","lat":43.29533,"lon":5.3854,"is_reserved":false,"is_disabled":false,"rental_uris":{"android":"levelo://app?vid=574fee4d-8f25-45bd-bf39-ca752095d1c3","ios":"levelo://app?vid=574fee4d-8f25-45bd-bf39-ca752095d1c3"},"vehicle_type_id":"4","last_reported":1726949319,"current_range_meters":33600,"station_id":"ce4bgih2rcd13ifvqba0","pricing_plan_id":"cebpf4jnsgd1na2vs0mg"},{"bike_id":"0dd26f86-116d-44a9-935c-7c20ef5d66bb","system_id":"levelo_inurba_marseille","lat":43.2942,"lon":5.3862,"is_reserved":false,"is_disabled":false,"rental_uris":{"android":"levelo://app?vid=0dd26f86-116d-44a9-935c-7c20ef5d66bb","ios":"levelo://app?vid=0dd26f86-116d-44a9-935c-7c20ef5d66bb"},"vehicle_type_id":"4","last_reported":1726949319,"current_range_meters":9600,"station_id":"ce4bh2h2rcd13ifvqdh0","pricing_plan_id":"cebpf4jnsgd1na2vs0mg"},{"bike_id":"b3a0f2fb-99f3-4a32-b458-c51fa5722e5e","system_id":"levelo_inurba_marseille","lat":43.3095,"lon":5.3904,"is_reserved":false,"is_disabled":false,"rental_uris":{"android":"levelo://app?vid=b3a0f2fb-99f3-4a32-b458-c51fa5722e5e","ios":"levelo://app?vid=b3a0f2fb-99f3-4a32-b458-c51fa5722e5e"},"vehicle_type_id":"4","last_reported":1726949319,"current_range_meters":10800,"station_id":"ce4bgup2rcd13ifvqco0","pricing_plan_id":"cebpf4jnsgd1na2vs0mg"},{"bike_id":"a8d42cf3-65fd-4e73-93d7-47142c435399","system_id":"levelo_inurba_marseille","lat":43.34387,"lon":5.40841,"is_reserved":false,"is_disabled":false,"rental_uris":{"android":"levelo://app?vid=a8d42cf3-65fd-4e73-93d7-47142c435399","ios":"levelo://app?vid=a8d42cf3-65fd-4e73-93d7-47142c435399"},"vehicle_type_id":"4","last_reported":1726949319,"current_range_meters":25200,"station_id":"","pricing_plan_id":"cebpf4jnsgd1na2vs0mg"},{"bike_id":"70c59413-39ae-491c-b378-e84d6bd04937","system_id":"levelo_inurba_marseille","lat":43.2953,"lon":5.38544,"is_reserved":false,"is_disabled":false,"rental_uris":{"android":"levelo://app?vid=70c59413-39ae-491c-b378-e84d6bd04937","ios":"levelo://app?vid=70c59413-39ae-491c-b378-e84d6bd04937"},"vehicle_type_id":"4","last_reported":1726949319,"current_range_meters":8400,"station_id":"ce4bgih2rcd13ifvqba0","pricing_plan_id":"cebpf4jnsgd1na2vs0mg"},{"bike_id":"05d05c97-717a-425a-acad-79499bee3008","system_id":"levelo_inurba_marseille","lat":43.3095,"lon":5.39045,"is_reserved":false,"is_disabled":false,"rental_uris":{"android":"levelo://app?vid=05d05c97-717a-425a-acad-79499bee3008","ios":"levelo://app?vid=05d05c97-717a-425a-acad-79499bee3008"},"vehicle_type_id":"4","last_reported":1726949319,"current_range_meters":38800,"station_id":"ce4bgup2rcd13ifvqco0","pricing_plan_id":"cebpf4jnsgd1na2vs0mg"},{"bike_id":"6998aa83-735a-4541-9dd3-904a387590df","system_id":"levelo_inurba_marseille","lat":43.2988,"lon":5.39733,"is_reserved":false,"is_disabled":false,"rental_uris":{"android":"levelo://app?vid=6998aa83-735a-4541-9dd3-904a387590df","ios":"levelo://app?vid=6998aa83-735a-4541-9dd3-904a387590df"},"vehicle_type_id":"4","last_reported":1726949319,"current_range_meters":38800,"station_id":"ce4bh0h2rcd13ifvqd50","pricing_plan_id":"cebpf4jnsgd1na2vs0mg"},{"bike_id":"eb0e566e-7d71-4cc0-bc76-de33a9fd73a8","system_id":"levelo_inurba_marseille","lat":43.23199,"lon":5.3555,"is_reserved":false,"is_disabled":false,"rental_uris":{"android":"levelo://app?vid=eb0e566e-7d71-4cc0-bc76-de33a9fd73a8","ios":"levelo://app?vid=eb0e566e-7d71-4cc0-bc76-de33a9fd73a8"},"vehicle_type_id":"4","last_reported":1726949319,"current_range_meters":38800,"station_id":"ce4bhu92rcd13ifvqi70","pricing_plan_id":"cebpf4jnsgd1na2vs0mg"},{"bike_id":"2bec6f58-67ad-44cf-8132-36473139d1b4","system_id":"levelo_inurba_marseille","lat":43.29895,"lon":5.38895,"is_reserved":false,"is_disabled":false,"rental_uris":{"android":"levelo://app?vid=2bec6f58-67ad-44cf-8132-36473139d1b4","ios":"levelo://app?vid=2bec6f58-67ad-44cf-8132-36473139d1b4"},"vehicle_type_id":"4","last_reported":1726949319,"current_range_meters":24800,"station_id":"ce4bh392rcd13ifvqdl0","pricing_plan_id":"cebpf4jnsgd1na2vs0mg"},{"bike_id":"37b9f058-c8e7-4643-aa44-65576a6c29ec","system_id":"levelo_inurba_marseille","lat":43.29523,"lon":5.38541,"is_reserved":false,"is_disabled":false,"rental_uris":{"android":"levelo://app?vid=37b9f058-c8e7-4643-aa44-65576a6c29ec","ios":"levelo://app?vid=37b9f058-c8e7-4643-aa44-65576a6c29ec"},"vehicle_type_id":"4","last_reported":1726949319,"current_range_meters":36800,"station_id":"ce4bgih2rcd13ifvqba0","pricing_plan_id":"cebpf4jnsgd1na2vs0mg"},{"bike_id":"3fbf41e5-61ac-43e4-b61d-239be8b751eb","system_id":"levelo_inurba_marseille","lat":43.2902,"lon":5.38636,"is_reserved":false,"is_disabled":false,"rental_uris":{"android":"levelo://app?vid=3fbf41e5-61ac-43e4-b61d-239be8b751eb","ios":"levelo://app?vid=3fbf41e5-61ac-43e4-b61d-239be8b751eb"},"vehicle_type_id":"4","last_reported":1726949319,"current_range_meters":38800,"station_id":"ce4bh4p2rcd13ifvqe0g","pricing_plan_id":"cebpf4jnsgd1na2vs0mg"},{"bike_id":"c90889c6-4c61-48f2-b140-89043e514d7b","system_id":"levelo_inurba_marseille","lat":43.25945,"lon":5.40903,"is_reserved":false,"is_disabled":false,"rental_uris":{"android":"levelo://app?vid=c90889c6-4c61-48f2-b140-89043e514d7b","ios":"levelo://app?vid=c90889c6-4c61-48f2-b140-89043e514d7b"},"vehicle_type_id":"4","last_reported":1726949319,"current_range_meters":5600,"station_id":"ce4bhm92rcd13ifvqglg","pricing_plan_id":"cebpf4jnsgd1na2vs0mg"},{"bike_id":"ed564cd2-38af-4711-af4b-cfb81096839b","system_id":"levelo_inurba_marseille","lat":43.311774,"lon":5.3872,"is_reserved":false,"is_disabled":false,"rental_uris":{"android":"levelo://app?vid=ed564cd2-38af-4711-af4b-cfb81096839b","ios":"levelo://app?vid=ed564cd2-38af-4711-af4b-cfb81096839b"},"vehicle_type_id":"4","last_reported":1726949319,"current_range_meters":3600,"station_id":"ce4bgv12rcd13ifvqcp0","pricing_plan_id":"cebpf4jnsgd1na2vs0mg"},{"bike_id":"53e37a90-e89c-4a09-988d-177e9062cfcb","system_id":"levelo_inurba_marseille","lat":43.28541,"lon":5.3851,"is_reserved":false,"is_disabled":false,"rental_uris":{"android":"levelo://app?vid=53e37a90-e89c-4a09-988d-177e9062cfcb","ios":"levelo://app?vid=53e37a90-e89c-4a09-988d-177e9062cfcb"},"vehicle_type_id":"4","last_reported":1726949319,"current_range_meters":20400,"station_id":"","pricing_plan_id":"cebpf4jnsgd1na2vs0mg"},{"bike_id":"5d991e98-79d5-4dc0-9a6a-d2306ad42c9d","system_id":"levelo_inurba_marseille","lat":43.29558,"lon":5.42276,"is_reserved":false,"is_disabled":false,"rental_uris":{"android":"levelo://app?vid=5d991e98-79d5-4dc0-9a6a-d2306ad42c9d","ios":"levelo://app?vid=5d991e98-79d5-4dc0-9a6a-d2306ad42c9d"},"vehicle_type_id":"4","last_reported":1726949319,"current_range_meters":38800,"station_id":"ce4bhph2rcd13ifvqhdg","pricing_plan_id":"cebpf4jnsgd1na2vs0mg"},{"bike_id":"1681f49b-6446-4171-a4d2-35305e42b626","system_id":"levelo_inurba_marseille","lat":43.26943,"lon":5.40258,"is_reserved":false,"is_disabled":false,"rental_uris":{"android":"levelo://app?vid=1681f49b-6446-4171-a4d2-35305e42b626","ios":"levelo://app?vid=1681f49b-6446-4171-a4d2-35305e42b626"},"vehicle_type_id":"4","last_reported":1726949319,"current_range_meters":38800,"station_id":"cjm6bp8fraef2m0cb0m0","pricing_plan_id":"cebpf4jnsgd1na2vs0mg"},{"bike_id":"db3e6781-6aaf-49ab-a69b-f951f8ee4f70","system_id":"levelo_inurba_marseille","lat":43.313049,"lon":5.385173,"is_reserved":false,"is_disabled":false,"rental_uris":{"android":"levelo://app?vid=db3e6781-6aaf-49ab-a69b-f951f8ee4f70","ios":"levelo://app?vid=db3e6781-6aaf-49ab-a69b-f951f8ee4f70"},"vehicle_type_id":"4","last_reported":1726949319,"current_range_meters":16800,"station_id":"ce4bgt92rcd13ifvqcf0","pricing_plan_id":"cebpf4jnsgd1na2vs0mg"},{"bike_id":"7b9dd459-340b-4978-bfb0-6c163a5263e8","system_id":"levelo_inurba_marseille","lat":43.23196,"lon":5.35551,"is_reserved":false,"is_disabled":false,"rental_uris":{"android":"levelo://app?vid=7b9dd459-340b-4978-bfb0-6c163a5263e8","ios":"levelo://app?vid=7b9dd459-340b-4978-bfb0-6c163a5263e8"},"vehicle_type_id":"4","last_reported":1726949319,"current_range_meters":38800,"station_id":"ce4bhu92rcd13ifvqi70","pricing_plan_id":"cebpf4jnsgd1na2vs0mg"},{"bike_id":"82596a06-ff6c-4fb5-be3f-fd6ac5718f7c","system_id":"levelo_inurba_marseille","lat":43.31336,"lon":5.39691,"is_reserved":false,"is_disabled":false,"rental_uris":{"android":"levelo://app?vid=82596a06-ff6c-4fb5-be3f-fd6ac5718f7c","ios":"levelo://app?vid=82596a06-ff6c-4fb5-be3f-fd6ac5718f7c"},"vehicle_type_id":"4","last_reported":1726949319,"current_range_meters":23200,"station_id":"ce4bgvp2rcd13ifvqcu0","pricing_plan_id":"cebpf4jnsgd1na2vs0mg"},{"bike_id":"0cdae095-b117-4e38-b931-84c839aab656","system_id":"levelo_inurba_marseille","lat":43.25117,"lon":5.4032,"is_reserved":false,"is_disabled":false,"rental_uris":{"android":"levelo://app?vid=0cdae095-b117-4e38-b931-84c839aab656","ios":"levelo://app?vid=0cdae095-b117-4e38-b931-84c839aab656"},"vehicle_type_id":"4","last_reported":1726949319,"current_range_meters":8800,"station_id":"ce4bhlh2rcd13ifvqgig","pricing_plan_id":"cebpf4jnsgd1na2vs0mg"},{"bike_id":"4ffe9673-4769-49f4-9c33-2e748e3dd1be","system_id":"levelo_inurba_marseille","lat":43.28439,"lon":5.39207,"is_reserved":false,"is_disabled":false,"rental_uris":{"android":"levelo://app?vid=4ffe9673-4769-49f4-9c33-2e748e3dd1be","ios":"levelo://app?vid=4ffe9673-4769-49f4-9c33-2e748e3dd1be"},"vehicle_type_id":"4","last_reported":1726949319,"current_range_meters":38800,"station_id":"ce4bhoh2rcd13ifvqh5g","pricing_plan_id":"cebpf4jnsgd1na2vs0mg"},{"bike_id":"71aa8592-ddf7-4343-aed4-c00d3433340f","system_id":"levelo_inurba_marseille","lat":43.337444,"lon":5.374475,"is_reserved":false,"is_disabled":false,"rental_uris":{"android":"levelo://app?vid=71aa8592-ddf7-4343-aed4-c00d3433340f","ios":"levelo://app?vid=71aa8592-ddf7-4343-aed4-c00d3433340f"},"vehicle_type_id":"4","last_reported":1726949319,"current_range_meters":34800,"station_id":"","pricing_plan_id":"cebpf4jnsgd1na2vs0mg"},{"bike_id":"3740c6df-06cd-419b-9ae6-b8d9e5eff548","system_id":"levelo_inurba_marseille","lat":43.2753,"lon":5.40935,"is_reserved":false,"is_disabled":false,"rental_uris":{"android":"levelo://app?vid=3740c6df-06cd-419b-9ae6-b8d9e5eff548","ios":"levelo://app?vid=3740c6df-06cd-419b-9ae6-b8d9e5eff548"},"vehicle_type_id":"4","last_reported":1726949319,"current_range_meters":16400,"station_id":"","pricing_plan_id":"cebpf4jnsgd1na2vs0mg"},{"bike_id":"dde6e198-2d4b-449a-9654-31311b80a78a","system_id":"levelo_inurba_marseille","lat":43.26563,"lon":5.37287,"is_reserved":false,"is_disabled":false,"rental_uris":{"android":"levelo://app?vid=dde6e198-2d4b-449a-9654-31311b80a78a","ios":"levelo://app?vid=dde6e198-2d4b-449a-9654-31311b80a78a"},"vehicle_type_id":"4","last_reported":1726949319,"current_range_meters":19200,"station_id":"ce4bhg12rcd13ifvqf70","pricing_plan_id":"cebpf4jnsgd1na2vs0mg"},{"bike_id":"69e87ad1-6813-43d1-9e13-95c60e03a938","system_id":"levelo_inurba_marseille","lat":43.29546,"lon":5.42278,"is_reserved":false,"is_disabled":false,"rental_uris":{"android":"levelo://app?vid=69e87ad1-6813-43d1-9e13-95c60e03a938","ios":"levelo://app?vid=69e87ad1-6813-43d1-9e13-95c60e03a938"},"vehicle_type_id":"4","last_reported":1726949319,"current_range_meters":4800,"station_id":"ce4bhph2rcd13ifvqhdg","pricing_plan_id":"cebpf4jnsgd1na2vs0mg"},{"bike_id":"031c7f84-a43a-4deb-9b43-a573dd4a878e","system_id":"levelo_inurba_marseille","lat":43.3053,"lon":5.36654,"is_reserved":false,"is_disabled":false,"rental_uris":{"android":"levelo://app?vid=031c7f84-a43a-4deb-9b43-a573dd4a878e","ios":"levelo://app?vid=031c7f84-a43a-4deb-9b43-a573dd4a878e"},"vehicle_type_id":"4","last_reported":1726949319,"current_range_meters":29600,"station_id":"","pricing_plan_id":"cebpf4jnsgd1na2vs0mg"},{"bike_id":"e0d63518-ce82-4a35-839c-d51eeb5123a2","system_id":"levelo_inurba_marseille","lat":43.28484,"lon":5.38559,"is_reserved":false,"is_disabled":false,"rental_uris":{"android":"levelo://app?vid=e0d63518-ce82-4a35-839c-d51eeb5123a2","ios":"levelo://app?vid=e0d63518-ce82-4a35-839c-d51eeb5123a2"},"vehicle_type_id":"4","last_reported":1726949319,"current_range_meters":38800,"station_id":"ce4bh8p2rcd13ifvqeb0","pricing_plan_id":"cebpf4jnsgd1na2vs0mg"},{"bike_id":"6528ea46-21d2-4392-8d15-a2e18652b29e","system_id":"levelo_inurba_marseille","lat":43.2919,"lon":5.39317,"is_reserved":false,"is_disabled":false,"rental_uris":{"android":"levelo://app?vid=6528ea46-21d2-4392-8d15-a2e18652b29e","ios":"levelo://app?vid=6528ea46-21d2-4392-8d15-a2e18652b29e"},"vehicle_type_id":"4","last_reported":1726949319,"current_range_meters":38800,"station_id":"ce4bh192rcd13ifvqdd0","pricing_plan_id":"cebpf4jnsgd1na2vs0mg"},{"bike_id":"314fbbe9-5fd9-4d9d-bd10-270759356c42","system_id":"levelo_inurba_marseille","lat":43.31366,"lon":5.38497,"is_reserved":false,"is_disabled":false,"rental_uris":{"android":"levelo://app?vid=314fbbe9-5fd9-4d9d-bd10-270759356c42","ios":"levelo://app?vid=314fbbe9-5fd9-4d9d-bd10-270759356c42"},"vehicle_type_id":"4","last_reported":1726949319,"current_range_meters":38400,"station_id":"ce4bgt92rcd13ifvqcf0","pricing_plan_id":"cebpf4jnsgd1na2vs0mg"},{"bike_id":"4e72cd3f-3b37-41dd-95d5-fdc15881d494","system_id":"levelo_inurba_marseille","lat":43.30962,"lon":5.39038,"is_reserved":false,"is_disabled":false,"rental_uris":{"android":"levelo://app?vid=4e72cd3f-3b37-41dd-95d5-fdc15881d494","ios":"levelo://app?vid=4e72cd3f-3b37-41dd-95d5-fdc15881d494"},"vehicle_type_id":"4","last_reported":1726949319,"current_range_meters":28800,"station_id":"ce4bgup2rcd13ifvqco0","pricing_plan_id":"cebpf4jnsgd1na2vs0mg"},{"bike_id":"4b77e169-b84a-49b5-9bf8-501b38c4ab47","system_id":"levelo_inurba_marseille","lat":43.29631,"lon":5.40596,"is_reserved":false,"is_disabled":false,"rental_uris":{"android":"levelo://app?vid=4b77e169-b84a-49b5-9bf8-501b38c4ab47","ios":"levelo://app?vid=4b77e169-b84a-49b5-9bf8-501b38c4ab47"},"vehicle_type_id":"4","last_reported":1726949319,"current_range_meters":22000,"station_id":"ce4bh0h2rcd13ifvqd60","pricing_plan_id":"cebpf4jnsgd1na2vs0mg"},{"bike_id":"c287e983-27da-492a-831c-cdb326b2ab11","system_id":"levelo_inurba_marseille","lat":43.3014,"lon":5.38785,"is_reserved":false,"is_disabled":false,"rental_uris":{"android":"levelo://app?vid=c287e983-27da-492a-831c-cdb326b2ab11","ios":"levelo://app?vid=c287e983-27da-492a-831c-cdb326b2ab11"},"vehicle_type_id":"4","last_reported":1726949319,"current_range_meters":38800,"station_id":"ce4bghh2rcd13ifvqb60","pricing_plan_id":"cebpf4jnsgd1na2vs0mg"},{"bike_id":"9d92b67d-58e6-44df-9080-ab5b9336a0e5","system_id":"levelo_inurba_marseille","lat":43.299778,"lon":5.372009,"is_reserved":false,"is_disabled":false,"rental_uris":{"android":"levelo://app?vid=9d92b67d-58e6-44df-9080-ab5b9336a0e5","ios":"levelo://app?vid=9d92b67d-58e6-44df-9080-ab5b9336a0e5"},"vehicle_type_id":"4","last_reported":1726949319,"current_range_meters":38800,"station_id":"ce4bgr92rcd13ifvqc7g","pricing_plan_id":"cebpf4jnsgd1na2vs0mg"},{"bike_id":"7c20fd33-ebd0-4043-94d4-59df37dc0702","system_id":"levelo_inurba_marseille","lat":43.27949,"lon":5.41046,"is_reserved":false,"is_disabled":false,"rental_uris":{"android":"levelo://app?vid=7c20fd33-ebd0-4043-94d4-59df37dc0702","ios":"levelo://app?vid=7c20fd33-ebd0-4043-94d4-59df37dc0702"},"vehicle_type_id":"4","last_reported":1726949319,"current_range_meters":22000,"station_id":"ce4bhnp2rcd13ifvqh0g","pricing_plan_id":"cebpf4jnsgd1na2vs0mg"},{"bike_id":"3d82e80a-8421-44e3-a395-89f1000bc084","system_id":"levelo_inurba_marseille","lat":43.262115,"lon":5.374408,"is_reserved":false,"is_disabled":false,"rental_uris":{"android":"levelo://app?vid=3d82e80a-8421-44e3-a395-89f1000bc084","ios":"levelo://app?vid=3d82e80a-8421-44e3-a395-89f1000bc084"},"vehicle_type_id":"4","last_reported":1726949319,"current_range_meters":38000,"station_id":"ce4bh2p2rcd13ifvqdi0","pricing_plan_id":"cebpf4jnsgd1na2vs0mg"},{"bike_id":"8b2cf52a-cc3e-4abe-8268-8348c592fdee","system_id":"levelo_inurba_marseille","lat":43.29416,"lon":5.3863,"is_reserved":false,"is_disabled":false,"rental_uris":{"android":"levelo://app?vid=8b2cf52a-cc3e-4abe-8268-8348c592fdee","ios":"levelo://app?vid=8b2cf52a-cc3e-4abe-8268-8348c592fdee"},"vehicle_type_id":"4","last_reported":1726949319,"current_range_meters":38400,"station_id":"ce4bh2h2rcd13ifvqdh0","pricing_plan_id":"cebpf4jnsgd1na2vs0mg"},{"bike_id":"c297a478-0e72-4af7-8f19-3d4f7340ed73","system_id":"levelo_inurba_marseille","lat":43.286706,"lon":5.386713,"is_reserved":false,"is_disabled":false,"rental_uris":{"android":"levelo://app?vid=c297a478-0e72-4af7-8f19-3d4f7340ed73","ios":"levelo://app?vid=c297a478-0e72-4af7-8f19-3d4f7340ed73"},"vehicle_type_id":"4","last_reported":1726949319,"current_range_meters":28400,"station_id":"ce4bh492rcd13ifvqdug","pricing_plan_id":"cebpf4jnsgd1na2vs0mg"},{"bike_id":"1575e777-51f8-479e-bd95-714cef91a125","system_id":"levelo_inurba_marseille","lat":43.241791,"lon":5.397048,"is_reserved":false,"is_disabled":false,"rental_uris":{"android":"levelo://app?vid=1575e777-51f8-479e-bd95-714cef91a125","ios":"levelo://app?vid=1575e777-51f8-479e-bd95-714cef91a125"},"vehicle_type_id":"4","last_reported":1726949319,"current_range_meters":28800,"station_id":"ce4bhn12rcd13ifvqgpg","pricing_plan_id":"cebpf4jnsgd1na2vs0mg"},{"bike_id":"4f6cd953-65f5-4d4f-a052-70118d864e1d","system_id":"levelo_inurba_marseille","lat":43.29896,"lon":5.43671,"is_reserved":false,"is_disabled":false,"rental_uris":{"android":"levelo://app?vid=4f6cd953-65f5-4d4f-a052-70118d864e1d","ios":"levelo://app?vid=4f6cd953-65f5-4d4f-a052-70118d864e1d"},"vehicle_type_id":"4","last_reported":1726949319,"current_range_meters":7200,"station_id":"ce4bhpp2rcd13ifvqhfg","pricing_plan_id":"cebpf4jnsgd1na2vs0mg"},{"bike_id":"48b4553c-c012-4a85-a39a-53103e7c9644","system_id":"levelo_inurba_marseille","lat":43.31711,"lon":5.37756,"is_reserved":false,"is_disabled":false,"rental_uris":{"android":"levelo://app?vid=48b4553c-c012-4a85-a39a-53103e7c9644","ios":"levelo://app?vid=48b4553c-c012-4a85-a39a-53103e7c9644"},"vehicle_type_id":"4","last_reported":1726949319,"current_range_meters":38800,"station_id":"ce4bgth2rcd13ifvqch0","pricing_plan_id":"cebpf4jnsgd1na2vs0mg"},{"bike_id":"7dc55a1d-4272-4f9f-aaeb-9076a0c0256c","system_id":"levelo_inurba_marseille","lat":43.29074,"lon":5.37156,"is_reserved":false,"is_disabled":false,"rental_uris":{"android":"levelo://app?vid=7dc55a1d-4272-4f9f-aaeb-9076a0c0256c","ios":"levelo://app?vid=7dc55a1d-4272-4f9f-aaeb-9076a0c0256c"},"vehicle_type_id":"4","last_reported":1726949319,"current_range_meters":4000,"station_id":"ce4bh5p2rcd13ifvqe4g","pricing_plan_id":"cebpf4jnsgd1na2vs0mg"},{"bike_id":"742fe014-1f5e-499c-bbc5-66a0cbb87904","system_id":"levelo_inurba_marseille","lat":43.23204,"lon":5.35547,"is_reserved":false,"is_disabled":false,"rental_uris":{"android":"levelo://app?vid=742fe014-1f5e-499c-bbc5-66a0cbb87904","ios":"levelo://app?vid=742fe014-1f5e-499c-bbc5-66a0cbb87904"},"vehicle_type_id":"4","last_reported":1726949319,"current_range_meters":36800,"station_id":"ce4bhu92rcd13ifvqi70","pricing_plan_id":"cebpf4jnsgd1na2vs0mg"},{"bike_id":"8dea4094-9b4d-4380-aa80-9a18e3973a1c","system_id":"levelo_inurba_marseille","lat":43.29264,"lon":5.38445,"is_reserved":false,"is_disabled":false,"rental_uris":{"android":"levelo://app?vid=8dea4094-9b4d-4380-aa80-9a18e3973a1c","ios":"levelo://app?vid=8dea4094-9b4d-4380-aa80-9a18e3973a1c"},"vehicle_type_id":"4","last_reported":1726949319,"current_range_meters":19200,"station_id":"ce4bh692rcd13ifvqea0","pricing_plan_id":"cebpf4jnsgd1na2vs0mg"},{"bike_id":"ce66abe4-bc7d-421e-b6ba-dfef4863f50c","system_id":"levelo_inurba_marseille","lat":43.29372,"lon":5.37842,"is_reserved":false,"is_disabled":false,"rental_uris":{"android":"levelo://app?vid=ce66abe4-bc7d-421e-b6ba-dfef4863f50c","ios":"levelo://app?vid=ce66abe4-bc7d-421e-b6ba-dfef4863f50c"},"vehicle_type_id":"4","last_reported":1726949319,"current_range_meters":38800,"station_id":"ce4bgjh2rcd13ifvqbf0","pricing_plan_id":"cebpf4jnsgd1na2vs0mg"},{"bike_id":"bf959b43-6bc6-4240-b108-ca97e562128e","system_id":"levelo_inurba_marseille","lat":43.29966,"lon":5.38495,"is_reserved":false,"is_disabled":false,"rental_uris":{"android":"levelo://app?vid=bf959b43-6bc6-4240-b108-ca97e562128e","ios":"levelo://app?vid=bf959b43-6bc6-4240-b108-ca97e562128e"},"vehicle_type_id":"4","last_reported":1726949319,"current_range_meters":32400,"station_id":"ce4bgj92rcd13ifvqbd0","pricing_plan_id":"cebpf4jnsgd1na2vs0mg"},{"bike_id":"feb42740-c719-4916-9efa-d99f861e0e6d","system_id":"levelo_inurba_marseille","lat":43.32482,"lon":5.36574,"is_reserved":false,"is_disabled":false,"rental_uris":{"android":"levelo://app?vid=feb42740-c719-4916-9efa-d99f861e0e6d","ios":"levelo://app?vid=feb42740-c719-4916-9efa-d99f861e0e6d"},"vehicle_type_id":"4","last_reported":1726949319,"current_range_meters":38000,"station_id":"ce4bhs12rcd13ifvqhvg","pricing_plan_id":"cebpf4jnsgd1na2vs0mg"},{"bike_id":"49bef121-5c64-4fc0-93d9-adfa4d941f86","system_id":"levelo_inurba_marseille","lat":43.28918,"lon":5.38383,"is_reserved":false,"is_disabled":false,"rental_uris":{"android":"levelo://app?vid=49bef121-5c64-4fc0-93d9-adfa4d941f86","ios":"levelo://app?vid=49bef121-5c64-4fc0-93d9-adfa4d941f86"},"vehicle_type_id":"4","last_reported":1726949319,"current_range_meters":27200,"station_id":"ce4bh612rcd13ifvqe6g","pricing_plan_id":"cebpf4jnsgd1na2vs0mg"},{"bike_id":"6ab6933a-1d40-4dbd-8eb1-cb7ef6a30762","system_id":"levelo_inurba_marseille","lat":43.29198,"lon":5.39324,"is_reserved":false,"is_disabled":false,"rental_uris":{"android":"levelo://app?vid=6ab6933a-1d40-4dbd-8eb1-cb7ef6a30762","ios":"levelo://app?vid=6ab6933a-1d40-4dbd-8eb1-cb7ef6a30762"},"vehicle_type_id":"4","last_reported":1726949319,"current_range_meters":7200,"station_id":"ce4bh192rcd13ifvqdd0","pricing_plan_id":"cebpf4jnsgd1na2vs0mg"},{"bike_id":"8a5f19b2-b930-44ff-ba36-e74b9e6cfce7","system_id":"levelo_inurba_marseille","lat":43.29268,"lon":5.3845,"is_reserved":false,"is_disabled":false,"rental_uris":{"android":"levelo://app?vid=8a5f19b2-b930-44ff-ba36-e74b9e6cfce7","ios":"levelo://app?vid=8a5f19b2-b930-44ff-ba36-e74b9e6cfce7"},"vehicle_type_id":"4","last_reported":1726949319,"current_range_meters":26800,"station_id":"ce4bh692rcd13ifvqea0","pricing_plan_id":"cebpf4jnsgd1na2vs0mg"},{"bike_id":"fce734b4-6c36-4cb6-983c-c95238702258","system_id":"levelo_inurba_marseille","lat":43.31079,"lon":5.38106,"is_reserved":false,"is_disabled":false,"rental_uris":{"android":"levelo://app?vid=fce734b4-6c36-4cb6-983c-c95238702258","ios":"levelo://app?vid=fce734b4-6c36-4cb6-983c-c95238702258"},"vehicle_type_id":"4","last_reported":1726949319,"current_range_meters":17200,"station_id":"","pricing_plan_id":"cebpf4jnsgd1na2vs0mg"},{"bike_id":"adb4b3fb-4071-440a-b726-3c9fd5ebb6b2","system_id":"levelo_inurba_marseille","lat":43.29248,"lon":5.374985,"is_reserved":false,"is_disabled":false,"rental_uris":{"android":"levelo://app?vid=adb4b3fb-4071-440a-b726-3c9fd5ebb6b2","ios":"levelo://app?vid=adb4b3fb-4071-440a-b726-3c9fd5ebb6b2"},"vehicle_type_id":"4","last_reported":1726949319,"current_range_meters":22800,"station_id":"ce4bgrh2rcd13ifvqc8g","pricing_plan_id":"cebpf4jnsgd1na2vs0mg"},{"bike_id":"c775ecb7-3eaa-4b15-938b-cc10bd0e2ff0","system_id":"levelo_inurba_marseille","lat":43.29269,"lon":5.38449,"is_reserved":false,"is_disabled":false,"rental_uris":{"android":"levelo://app?vid=c775ecb7-3eaa-4b15-938b-cc10bd0e2ff0","ios":"levelo://app?vid=c775ecb7-3eaa-4b15-938b-cc10bd0e2ff0"},"vehicle_type_id":"4","last_reported":1726949319,"current_range_meters":38800,"station_id":"ce4bh692rcd13ifvqea0","pricing_plan_id":"cebpf4jnsgd1na2vs0mg"},{"bike_id":"641f5b3a-0958-49cd-babc-8214d157118d","system_id":"levelo_inurba_marseille","lat":43.28446,"lon":5.39192,"is_reserved":false,"is_disabled":false,"rental_uris":{"android":"levelo://app?vid=641f5b3a-0958-49cd-babc-8214d157118d","ios":"levelo://app?vid=641f5b3a-0958-49cd-babc-8214d157118d"},"vehicle_type_id":"4","last_reported":1726949319,"current_range_meters":32800,"station_id":"ce4bhoh2rcd13ifvqh5g","pricing_plan_id":"cebpf4jnsgd1na2vs0mg"},{"bike_id":"f06a3ef0-d945-49f9-8b62-3f5c8393f95b","system_id":"levelo_inurba_marseille","lat":43.31889,"lon":5.40742,"is_reserved":false,"is_disabled":false,"rental_uris":{"android":"levelo://app?vid=f06a3ef0-d945-49f9-8b62-3f5c8393f95b","ios":"levelo://app?vid=f06a3ef0-d945-49f9-8b62-3f5c8393f95b"},"vehicle_type_id":"4","last_reported":1726949319,"current_range_meters":28000,"station_id":"ce4bhq12rcd13ifvqhig","pricing_plan_id":"cebpf4jnsgd1na2vs0mg"},{"bike_id":"f74941be-f473-4ce7-9230-0799526567ae","system_id":"levelo_inurba_marseille","lat":43.23199,"lon":5.35552,"is_reserved":false,"is_disabled":false,"rental_uris":{"android":"levelo://app?vid=f74941be-f473-4ce7-9230-0799526567ae","ios":"levelo://app?vid=f74941be-f473-4ce7-9230-0799526567ae"},"vehicle_type_id":"4","last_reported":1726949319,"current_range_meters":38800,"station_id":"ce4bhu92rcd13ifvqi70","pricing_plan_id":"cebpf4jnsgd1na2vs0mg"},{"bike_id":"c1ac3a25-dfa3-4df9-a68d-7bda117294da","system_id":"levelo_inurba_marseille","lat":43.29027,"lon":5.38652,"is_reserved":false,"is_disabled":false,"rental_uris":{"android":"levelo://app?vid=c1ac3a25-dfa3-4df9-a68d-7bda117294da","ios":"levelo://app?vid=c1ac3a25-dfa3-4df9-a68d-7bda117294da"},"vehicle_type_id":"4","last_reported":1726949319,"current_range_meters":38800,"station_id":"ce4bh4p2rcd13ifvqe0g","pricing_plan_id":"cebpf4jnsgd1na2vs0mg"},{"bike_id":"1b0377f1-d878-4328-a741-9dcdd239aabf","system_id":"levelo_inurba_marseille","lat":43.31361,"lon":5.38485,"is_reserved":false,"is_disabled":false,"rental_uris":{"android":"levelo://app?vid=1b0377f1-d878-4328-a741-9dcdd239aabf","ios":"levelo://app?vid=1b0377f1-d878-4328-a741-9dcdd239aabf"},"vehicle_type_id":"4","last_reported":1726949319,"current_range_meters":24000,"station_id":"ce4bgt92rcd13ifvqcf0","pricing_plan_id":"cebpf4jnsgd1na2vs0mg"},{"bike_id":"bc2224ad-a18e-479e-9927-fa7d79220cd4","system_id":"levelo_inurba_marseille","lat":43.32346,"lon":5.40613,"is_reserved":false,"is_disabled":false,"rental_uris":{"android":"levelo://app?vid=bc2224ad-a18e-479e-9927-fa7d79220cd4","ios":"levelo://app?vid=bc2224ad-a18e-479e-9927-fa7d79220cd4"},"vehicle_type_id":"4","last_reported":1726949319,"current_range_meters":27600,"station_id":"ce4bhq92rcd13ifvqhjg","pricing_plan_id":"cebpf4jnsgd1na2vs0mg"},{"bike_id":"276c89d7-3883-42ac-b531-6d27bb47ad29","system_id":"levelo_inurba_marseille","lat":43.29846,"lon":5.36273,"is_reserved":false,"is_disabled":false,"rental_uris":{"android":"levelo://app?vid=276c89d7-3883-42ac-b531-6d27bb47ad29","ios":"levelo://app?vid=276c89d7-3883-42ac-b531-6d27bb47ad29"},"vehicle_type_id":"4","last_reported":1726949319,"current_range_meters":23200,"station_id":"ce4bgpp2rcd13ifvqc3g","pricing_plan_id":"cebpf4jnsgd1na2vs0mg"},{"bike_id":"50f928d9-3647-4d4a-af1a-df90d51df24c","system_id":"levelo_inurba_marseille","lat":43.29268,"lon":5.36844,"is_reserved":false,"is_disabled":false,"rental_uris":{"android":"levelo://app?vid=50f928d9-3647-4d4a-af1a-df90d51df24c","ios":"levelo://app?vid=50f928d9-3647-4d4a-af1a-df90d51df24c"},"vehicle_type_id":"4","last_reported":1726949319,"current_range_meters":28800,"station_id":"ce4bhbp2rcd13ifvqesg","pricing_plan_id":"cebpf4jnsgd1na2vs0mg"},{"bike_id":"69ed2595-df42-4795-8076-69b60fe164c4","system_id":"levelo_inurba_marseille","lat":43.31756,"lon":5.39017,"is_reserved":false,"is_disabled":false,"rental_uris":{"android":"levelo://app?vid=69ed2595-df42-4795-8076-69b60fe164c4","ios":"levelo://app?vid=69ed2595-df42-4795-8076-69b60fe164c4"},"vehicle_type_id":"4","last_reported":1726949319,"current_range_meters":24800,"station_id":"ce4bhqp2rcd13ifvqhng","pricing_plan_id":"cebpf4jnsgd1na2vs0mg"},{"bike_id":"4c29bce8-a660-4d62-afb1-b347111ec47f","system_id":"levelo_inurba_marseille","lat":43.29712,"lon":5.36613,"is_reserved":false,"is_disabled":false,"rental_uris":{"android":"levelo://app?vid=4c29bce8-a660-4d62-afb1-b347111ec47f","ios":"levelo://app?vid=4c29bce8-a660-4d62-afb1-b347111ec47f"},"vehicle_type_id":"4","last_reported":1726949319,"current_range_meters":9600,"station_id":"ce4bgn12rcd13ifvqbt0","pricing_plan_id":"cebpf4jnsgd1na2vs0mg"},{"bike_id":"aa18d1b9-803b-47fa-bea1-cb0edab5554a","system_id":"levelo_inurba_marseille","lat":43.28688,"lon":5.39989,"is_reserved":false,"is_disabled":false,"rental_uris":{"android":"levelo://app?vid=aa18d1b9-803b-47fa-bea1-cb0edab5554a","ios":"levelo://app?vid=aa18d1b9-803b-47fa-bea1-cb0edab5554a"},"vehicle_type_id":"4","last_reported":1726949319,"current_range_meters":12800,"station_id":"ce4bho92rcd13ifvqh3g","pricing_plan_id":"cebpf4jnsgd1na2vs0mg"},{"bike_id":"5b4c3f4c-0bc2-447a-ae2a-362f300c7f4b","system_id":"levelo_inurba_marseille","lat":43.30533,"lon":5.38423,"is_reserved":false,"is_disabled":false,"rental_uris":{"android":"levelo://app?vid=5b4c3f4c-0bc2-447a-ae2a-362f300c7f4b","ios":"levelo://app?vid=5b4c3f4c-0bc2-447a-ae2a-362f300c7f4b"},"vehicle_type_id":"4","last_reported":1726949319,"current_range_meters":16000,"station_id":"ce4bgg92rcd13ifvqb30","pricing_plan_id":"cebpf4jnsgd1na2vs0mg"},{"bike_id":"2ce07468-9b3e-42a6-a2fd-7625bfc9d4c1","system_id":"levelo_inurba_marseille","lat":43.28281,"lon":5.35065,"is_reserved":false,"is_disabled":false,"rental_uris":{"android":"levelo://app?vid=2ce07468-9b3e-42a6-a2fd-7625bfc9d4c1","ios":"levelo://app?vid=2ce07468-9b3e-42a6-a2fd-7625bfc9d4c1"},"vehicle_type_id":"4","last_reported":1726949319,"current_range_meters":5600,"station_id":"ce4bhbp2rcd13ifvqerg","pricing_plan_id":"cebpf4jnsgd1na2vs0mg"},{"bike_id":"6c4c3607-82cf-4fe2-8301-90c894cc563f","system_id":"levelo_inurba_marseille","lat":43.31378,"lon":5.38493,"is_reserved":false,"is_disabled":false,"rental_uris":{"android":"levelo://app?vid=6c4c3607-82cf-4fe2-8301-90c894cc563f","ios":"levelo://app?vid=6c4c3607-82cf-4fe2-8301-90c894cc563f"},"vehicle_type_id":"4","last_reported":1726949319,"current_range_meters":35200,"station_id":"ce4bgt92rcd13ifvqcf0","pricing_plan_id":"cebpf4jnsgd1na2vs0mg"},{"bike_id":"fb2b63d9-4a26-4602-9a57-d2caab531ee7","system_id":"levelo_inurba_marseille","lat":43.33718,"lon":5.39185,"is_reserved":false,"is_disabled":false,"rental_uris":{"android":"levelo://app?vid=fb2b63d9-4a26-4602-9a57-d2caab531ee7","ios":"levelo://app?vid=fb2b63d9-4a26-4602-9a57-d2caab531ee7"},"vehicle_type_id":"4","last_reported":1726949319,"current_range_meters":36800,"station_id":"ce4bhr92rcd13ifvqhsg","pricing_plan_id":"cebpf4jnsgd1na2vs0mg"},{"bike_id":"9b973919-94ff-4bb6-8a8f-f49c8dea4648","system_id":"levelo_inurba_marseille","lat":43.29795,"lon":5.38118,"is_reserved":false,"is_disabled":false,"rental_uris":{"android":"levelo://app?vid=9b973919-94ff-4bb6-8a8f-f49c8dea4648","ios":"levelo://app?vid=9b973919-94ff-4bb6-8a8f-f49c8dea4648"},"vehicle_type_id":"4","last_reported":1726949319,"current_range_meters":38800,"station_id":"ce4bgip2rcd13ifvqbb0","pricing_plan_id":"cebpf4jnsgd1na2vs0mg"},{"bike_id":"8eb86fac-56cd-428b-bc51-61c7217fb127","system_id":"levelo_inurba_marseille","lat":43.28656,"lon":5.386601,"is_reserved":false,"is_disabled":false,"rental_uris":{"android":"levelo://app?vid=8eb86fac-56cd-428b-bc51-61c7217fb127","ios":"levelo://app?vid=8eb86fac-56cd-428b-bc51-61c7217fb127"},"vehicle_type_id":"4","last_reported":1726949319,"current_range_meters":18000,"station_id":"ce4bhn12rcd13ifvqgqg","pricing_plan_id":"cebpf4jnsgd1na2vs0mg"},{"bike_id":"f20828a7-a1ce-4592-87f1-1009f45ad895","system_id":"levelo_inurba_marseille","lat":43.30794,"lon":5.38155,"is_reserved":false,"is_disabled":false,"rental_uris":{"android":"levelo://app?vid=f20828a7-a1ce-4592-87f1-1009f45ad895","ios":"levelo://app?vid=f20828a7-a1ce-4592-87f1-1009f45ad895"},"vehicle_type_id":"4","last_reported":1726949319,"current_range_meters":28000,"station_id":"ce4bgt12rcd13ifvqce0","pricing_plan_id":"cebpf4jnsgd1na2vs0mg"},{"bike_id":"93db116e-03dc-445e-afc1-24502c13201e","system_id":"levelo_inurba_marseille","lat":43.29535,"lon":5.38545,"is_reserved":false,"is_disabled":false,"rental_uris":{"android":"levelo://app?vid=93db116e-03dc-445e-afc1-24502c13201e","ios":"levelo://app?vid=93db116e-03dc-445e-afc1-24502c13201e"},"vehicle_type_id":"4","last_reported":1726949319,"current_range_meters":8400,"station_id":"ce4bgih2rcd13ifvqba0","pricing_plan_id":"cebpf4jnsgd1na2vs0mg"},{"bike_id":"dec699ed-0c0d-4727-a171-8b9ebae751fb","system_id":"levelo_inurba_marseille","lat":43.290266,"lon":5.386386,"is_reserved":false,"is_disabled":false,"rental_uris":{"android":"levelo://app?vid=dec699ed-0c0d-4727-a171-8b9ebae751fb","ios":"levelo://app?vid=dec699ed-0c0d-4727-a171-8b9ebae751fb"},"vehicle_type_id":"4","last_reported":1726949319,"current_range_meters":2800,"station_id":"ce4bh4p2rcd13ifvqe0g","pricing_plan_id":"cebpf4jnsgd1na2vs0mg"},{"bike_id":"ac433075-cea9-4f92-b444-ccd3e0887e60","system_id":"levelo_inurba_marseille","lat":43.29035,"lon":5.3864,"is_reserved":false,"is_disabled":false,"rental_uris":{"android":"levelo://app?vid=ac433075-cea9-4f92-b444-ccd3e0887e60","ios":"levelo://app?vid=ac433075-cea9-4f92-b444-ccd3e0887e60"},"vehicle_type_id":"4","last_reported":1726949319,"current_range_meters":38800,"station_id":"ce4bh4p2rcd13ifvqe0g","pricing_plan_id":"cebpf4jnsgd1na2vs0mg"},{"bike_id":"644c96c8-8412-48f2-9fb6-4dfcacb0a2e1","system_id":"levelo_inurba_marseille","lat":43.29419,"lon":5.38626,"is_reserved":false,"is_disabled":false,"rental_uris":{"android":"levelo://app?vid=644c96c8-8412-48f2-9fb6-4dfcacb0a2e1","ios":"levelo://app?vid=644c96c8-8412-48f2-9fb6-4dfcacb0a2e1"},"vehicle_type_id":"4","last_reported":1726949319,"current_range_meters":4000,"station_id":"ce4bh2h2rcd13ifvqdh0","pricing_plan_id":"cebpf4jnsgd1na2vs0mg"},{"bike_id":"fa690805-233a-4a70-a9f3-33f1b67cdb1f","system_id":"levelo_inurba_marseille","lat":43.32294,"lon":5.38266,"is_reserved":false,"is_disabled":false,"rental_uris":{"android":"levelo://app?vid=fa690805-233a-4a70-a9f3-33f1b67cdb1f","ios":"levelo://app?vid=fa690805-233a-4a70-a9f3-33f1b67cdb1f"},"vehicle_type_id":"4","last_reported":1726949319,"current_range_meters":10000,"station_id":"ce4bhr12rcd13ifvqhqg","pricing_plan_id":"cebpf4jnsgd1na2vs0mg"},{"bike_id":"ef289433-174b-45f9-8ccd-326471fe6e4f","system_id":"levelo_inurba_marseille","lat":43.29943,"lon":5.37133,"is_reserved":false,"is_disabled":false,"rental_uris":{"android":"levelo://app?vid=ef289433-174b-45f9-8ccd-326471fe6e4f","ios":"levelo://app?vid=ef289433-174b-45f9-8ccd-326471fe6e4f"},"vehicle_type_id":"4","last_reported":1726949319,"current_range_meters":32800,"station_id":"","pricing_plan_id":"cebpf4jnsgd1na2vs0mg"},{"bike_id":"716f07ae-c32a-4cb1-9661-c039e55fa02f","system_id":"levelo_inurba_marseille","lat":43.29918,"lon":5.38546,"is_reserved":false,"is_disabled":false,"rental_uris":{"android":"levelo://app?vid=716f07ae-c32a-4cb1-9661-c039e55fa02f","ios":"levelo://app?vid=716f07ae-c32a-4cb1-9661-c039e55fa02f"},"vehicle_type_id":"4","last_reported":1726949319,"current_range_meters":16000,"station_id":"ce4bh392rcd13ifvqdl0","pricing_plan_id":"cebpf4jnsgd1na2vs0mg"},{"bike_id":"e31c90a3-6b6f-4a41-a7c1-11bf6902480d","system_id":"levelo_inurba_marseille","lat":43.296082,"lon":5.369663,"is_reserved":false,"is_disabled":false,"rental_uris":{"android":"levelo://app?vid=e31c90a3-6b6f-4a41-a7c1-11bf6902480d","ios":"levelo://app?vid=e31c90a3-6b6f-4a41-a7c1-11bf6902480d"},"vehicle_type_id":"4","last_reported":1726949319,"current_range_meters":28800,"station_id":"","pricing_plan_id":"cebpf4jnsgd1na2vs0mg"},{"bike_id":"259a79f8-16a2-45c3-af7f-f4c80675e36f","system_id":"levelo_inurba_marseille","lat":43.2816,"lon":5.38646,"is_reserved":false,"is_disabled":false,"rental_uris":{"android":"levelo://app?vid=259a79f8-16a2-45c3-af7f-f4c80675e36f","ios":"levelo://app?vid=259a79f8-16a2-45c3-af7f-f4c80675e36f"},"vehicle_type_id":"4","last_reported":1726949319,"current_range_meters":27200,"station_id":"ce4bh492rcd13ifvqdvg","pricing_plan_id":"cebpf4jnsgd1na2vs0mg"},{"bike_id":"04053605-b574-4841-808f-ba71fa164d6b","system_id":"levelo_inurba_marseille","lat":43.279,"lon":5.38008,"is_reserved":false,"is_disabled":false,"rental_uris":{"android":"levelo://app?vid=04053605-b574-4841-808f-ba71fa164d6b","ios":"levelo://app?vid=04053605-b574-4841-808f-ba71fa164d6b"},"vehicle_type_id":"4","last_reported":1726949319,"current_range_meters":19200,"station_id":"ce4bhf92rcd13ifvqf50","pricing_plan_id":"cebpf4jnsgd1na2vs0mg"},{"bike_id":"c9d2a6e1-4730-453b-a071-a1ec3ae87e05","system_id":"levelo_inurba_marseille","lat":43.29271,"lon":5.38449,"is_reserved":false,"is_disabled":false,"rental_uris":{"android":"levelo://app?vid=c9d2a6e1-4730-453b-a071-a1ec3ae87e05","ios":"levelo://app?vid=c9d2a6e1-4730-453b-a071-a1ec3ae87e05"},"vehicle_type_id":"4","last_reported":1726949319,"current_range_meters":3200,"station_id":"ce4bh692rcd13ifvqea0","pricing_plan_id":"cebpf4jnsgd1na2vs0mg"},{"bike_id":"b2763354-ec6c-4733-8de6-6c4493759ae9","system_id":"levelo_inurba_marseille","lat":43.29075,"lon":5.40153,"is_reserved":false,"is_disabled":false,"rental_uris":{"android":"levelo://app?vid=b2763354-ec6c-4733-8de6-6c4493759ae9","ios":"levelo://app?vid=b2763354-ec6c-4733-8de6-6c4493759ae9"},"vehicle_type_id":"4","last_reported":1726949319,"current_range_meters":12000,"station_id":"","pricing_plan_id":"cebpf4jnsgd1na2vs0mg"},{"bike_id":"7507f644-3548-4f39-bc85-a6db10d5302c","system_id":"levelo_inurba_marseille","lat":43.23963,"lon":5.36625,"is_reserved":false,"is_disabled":false,"rental_uris":{"android":"levelo://app?vid=7507f644-3548-4f39-bc85-a6db10d5302c","ios":"levelo://app?vid=7507f644-3548-4f39-bc85-a6db10d5302c"},"vehicle_type_id":"4","last_reported":1726949319,"current_range_meters":12800,"station_id":"ce4bhi12rcd13ifvqfp0","pricing_plan_id":"cebpf4jnsgd1na2vs0mg"},{"bike_id":"25132b35-4706-43bb-a221-fa452b170781","system_id":"levelo_inurba_marseille","lat":43.30306,"lon":5.4035,"is_reserved":false,"is_disabled":false,"rental_uris":{"android":"levelo://app?vid=25132b35-4706-43bb-a221-fa452b170781","ios":"levelo://app?vid=25132b35-4706-43bb-a221-fa452b170781"},"vehicle_type_id":"4","last_reported":1726949319,"current_range_meters":3600,"station_id":"","pricing_plan_id":"cebpf4jnsgd1na2vs0mg"},{"bike_id":"76088fb5-ba29-4f0b-86a7-d612621ed0f2","system_id":"levelo_inurba_marseille","lat":43.309,"lon":5.36849,"is_reserved":false,"is_disabled":false,"rental_uris":{"android":"levelo://app?vid=76088fb5-ba29-4f0b-86a7-d612621ed0f2","ios":"levelo://app?vid=76088fb5-ba29-4f0b-86a7-d612621ed0f2"},"vehicle_type_id":"4","last_reported":1726949319,"current_range_meters":37600,"station_id":"ce4bgn92rcd13ifvqbvg","pricing_plan_id":"cebpf4jnsgd1na2vs0mg"},{"bike_id":"e31de2a4-85fb-467d-a504-2f3cf4294688","system_id":"levelo_inurba_marseille","lat":43.25824,"lon":5.39427,"is_reserved":false,"is_disabled":false,"rental_uris":{"android":"levelo://app?vid=e31de2a4-85fb-467d-a504-2f3cf4294688","ios":"levelo://app?vid=e31de2a4-85fb-467d-a504-2f3cf4294688"},"vehicle_type_id":"4","last_reported":1726949319,"current_range_meters":22400,"station_id":"ce4bhip2rcd13ifvqft0","pricing_plan_id":"cebpf4jnsgd1na2vs0mg"},{"bike_id":"5fc49b3e-7dcd-40d6-ae21-541b99de832a","system_id":"levelo_inurba_marseille","lat":43.295319,"lon":5.385589,"is_reserved":false,"is_disabled":false,"rental_uris":{"android":"levelo://app?vid=5fc49b3e-7dcd-40d6-ae21-541b99de832a","ios":"levelo://app?vid=5fc49b3e-7dcd-40d6-ae21-541b99de832a"},"vehicle_type_id":"4","last_reported":1726949319,"current_range_meters":22400,"station_id":"ce4bgih2rcd13ifvqba0","pricing_plan_id":"cebpf4jnsgd1na2vs0mg"},{"bike_id":"d660767d-b124-438d-b9c7-03657df331ae","system_id":"levelo_inurba_marseille","lat":43.29025,"lon":5.3864,"is_reserved":false,"is_disabled":false,"rental_uris":{"android":"levelo://app?vid=d660767d-b124-438d-b9c7-03657df331ae","ios":"levelo://app?vid=d660767d-b124-438d-b9c7-03657df331ae"},"vehicle_type_id":"4","last_reported":1726949319,"current_range_meters":22400,"station_id":"ce4bh4p2rcd13ifvqe0g","pricing_plan_id":"cebpf4jnsgd1na2vs0mg"},{"bike_id":"00856b94-5898-4e45-86cf-02ab007d94f5","system_id":"levelo_inurba_marseille","lat":43.29529,"lon":5.38552,"is_reserved":false,"is_disabled":false,"rental_uris":{"android":"levelo://app?vid=00856b94-5898-4e45-86cf-02ab007d94f5","ios":"levelo://app?vid=00856b94-5898-4e45-86cf-02ab007d94f5"},"vehicle_type_id":"4","last_reported":1726949319,"current_range_meters":6400,"station_id":"ce4bgih2rcd13ifvqba0","pricing_plan_id":"cebpf4jnsgd1na2vs0mg"},{"bike_id":"5659d333-b841-44a4-819b-e49fc2c64344","system_id":"levelo_inurba_marseille","lat":43.29526,"lon":5.38542,"is_reserved":false,"is_disabled":false,"rental_uris":{"android":"levelo://app?vid=5659d333-b841-44a4-819b-e49fc2c64344","ios":"levelo://app?vid=5659d333-b841-44a4-819b-e49fc2c64344"},"vehicle_type_id":"4","last_reported":1726949319,"current_range_meters":16400,"station_id":"ce4bgih2rcd13ifvqba0","pricing_plan_id":"cebpf4jnsgd1na2vs0mg"},{"bike_id":"2b40b9d7-323b-4207-b2de-d3cf4cff3e1f","system_id":"levelo_inurba_marseille","lat":43.23197,"lon":5.35552,"is_reserved":false,"is_disabled":false,"rental_uris":{"android":"levelo://app?vid=2b40b9d7-323b-4207-b2de-d3cf4cff3e1f","ios":"levelo://app?vid=2b40b9d7-323b-4207-b2de-d3cf4cff3e1f"},"vehicle_type_id":"4","last_reported":1726949319,"current_range_meters":19200,"station_id":"ce4bhu92rcd13ifvqi70","pricing_plan_id":"cebpf4jnsgd1na2vs0mg"},{"bike_id":"f20f670c-aa2a-442b-ad2a-1debbdde948f","system_id":"levelo_inurba_marseille","lat":43.24807,"lon":5.37458,"is_reserved":false,"is_disabled":false,"rental_uris":{"android":"levelo://app?vid=f20f670c-aa2a-442b-ad2a-1debbdde948f","ios":"levelo://app?vid=f20f670c-aa2a-442b-ad2a-1debbdde948f"},"vehicle_type_id":"4","last_reported":1726949319,"current_range_meters":26000,"station_id":"ce4bhgh2rcd13ifvqfb0","pricing_plan_id":"cebpf4jnsgd1na2vs0mg"},{"bike_id":"0a18868a-57d3-49b6-81e5-77bfaabf8d83","system_id":"levelo_inurba_marseille","lat":43.24999,"lon":5.38924,"is_reserved":false,"is_disabled":false,"rental_uris":{"android":"levelo://app?vid=0a18868a-57d3-49b6-81e5-77bfaabf8d83","ios":"levelo://app?vid=0a18868a-57d3-49b6-81e5-77bfaabf8d83"},"vehicle_type_id":"4","last_reported":1726949319,"current_range_meters":2800,"station_id":"ce4bhgp2rcd13ifvqfd0","pricing_plan_id":"cebpf4jnsgd1na2vs0mg"},{"bike_id":"695126b5-8d12-4254-8836-fc555ddab742","system_id":"levelo_inurba_marseille","lat":43.296074,"lon":5.387097,"is_reserved":false,"is_disabled":false,"rental_uris":{"android":"levelo://app?vid=695126b5-8d12-4254-8836-fc555ddab742","ios":"levelo://app?vid=695126b5-8d12-4254-8836-fc555ddab742"},"vehicle_type_id":"4","last_reported":1726949319,"current_range_meters":4800,"station_id":"","pricing_plan_id":"cebpf4jnsgd1na2vs0mg"},{"bike_id":"db549048-a637-4405-86e1-a72d2050ef71","system_id":"levelo_inurba_marseille","lat":43.29696,"lon":5.3659,"is_reserved":false,"is_disabled":false,"rental_uris":{"android":"levelo://app?vid=db549048-a637-4405-86e1-a72d2050ef71","ios":"levelo://app?vid=db549048-a637-4405-86e1-a72d2050ef71"},"vehicle_type_id":"4","last_reported":1726949319,"current_range_meters":8400,"station_id":"ce4bgn12rcd13ifvqbt0","pricing_plan_id":"cebpf4jnsgd1na2vs0mg"},{"bike_id":"fd75d0de-64a6-4bd1-ba82-21e5b5669e46","system_id":"levelo_inurba_marseille","lat":43.29033,"lon":5.38635,"is_reserved":false,"is_disabled":false,"rental_uris":{"android":"levelo://app?vid=fd75d0de-64a6-4bd1-ba82-21e5b5669e46","ios":"levelo://app?vid=fd75d0de-64a6-4bd1-ba82-21e5b5669e46"},"vehicle_type_id":"4","last_reported":1726949319,"current_range_meters":27200,"station_id":"ce4bh4p2rcd13ifvqe0g","pricing_plan_id":"cebpf4jnsgd1na2vs0mg"},{"bike_id":"da048515-ba92-4349-b7d4-e67776331e61","system_id":"levelo_inurba_marseille","lat":43.29535,"lon":5.38544,"is_reserved":false,"is_disabled":false,"rental_uris":{"android":"levelo://app?vid=da048515-ba92-4349-b7d4-e67776331e61","ios":"levelo://app?vid=da048515-ba92-4349-b7d4-e67776331e61"},"vehicle_type_id":"4","last_reported":1726949319,"current_range_meters":10000,"station_id":"ce4bgih2rcd13ifvqba0","pricing_plan_id":"cebpf4jnsgd1na2vs0mg"},{"bike_id":"112cae3d-3c83-4d8a-88f2-a07902322ba4","system_id":"levelo_inurba_marseille","lat":43.29029,"lon":5.38128,"is_reserved":false,"is_disabled":false,"rental_uris":{"android":"levelo://app?vid=112cae3d-3c83-4d8a-88f2-a07902322ba4","ios":"levelo://app?vid=112cae3d-3c83-4d8a-88f2-a07902322ba4"},"vehicle_type_id":"4","last_reported":1726949319,"current_range_meters":36000,"station_id":"ce4bh4p2rcd13ifvqe1g","pricing_plan_id":"cebpf4jnsgd1na2vs0mg"},{"bike_id":"2c6482fe-b8a6-47a4-b2a7-112d12d04ffd","system_id":"levelo_inurba_marseille","lat":43.30951,"lon":5.39039,"is_reserved":false,"is_disabled":false,"rental_uris":{"android":"levelo://app?vid=2c6482fe-b8a6-47a4-b2a7-112d12d04ffd","ios":"levelo://app?vid=2c6482fe-b8a6-47a4-b2a7-112d12d04ffd"},"vehicle_type_id":"4","last_reported":1726949319,"current_range_meters":38800,"station_id":"ce4bgup2rcd13ifvqco0","pricing_plan_id":"cebpf4jnsgd1na2vs0mg"},{"bike_id":"8a8ad3be-89f9-47dd-b101-b47113a9d6cb","system_id":"levelo_inurba_marseille","lat":43.28371,"lon":5.38627,"is_reserved":false,"is_disabled":false,"rental_uris":{"android":"levelo://app?vid=8a8ad3be-89f9-47dd-b101-b47113a9d6cb","ios":"levelo://app?vid=8a8ad3be-89f9-47dd-b101-b47113a9d6cb"},"vehicle_type_id":"4","last_reported":1726949319,"current_range_meters":33200,"station_id":"ce4bh492rcd13ifvqdvg","pricing_plan_id":"cebpf4jnsgd1na2vs0mg"},{"bike_id":"f74c9e74-fe06-4128-87bf-3d6b256af659","system_id":"levelo_inurba_marseille","lat":43.29622,"lon":5.377,"is_reserved":false,"is_disabled":false,"rental_uris":{"android":"levelo://app?vid=f74c9e74-fe06-4128-87bf-3d6b256af659","ios":"levelo://app?vid=f74c9e74-fe06-4128-87bf-3d6b256af659"},"vehicle_type_id":"4","last_reported":1726949319,"current_range_meters":6400,"station_id":"ce4bgi92rcd13ifvqb90","pricing_plan_id":"cebpf4jnsgd1na2vs0mg"},{"bike_id":"31444d97-ada7-4c14-9ccc-e8d8f546def7","system_id":"levelo_inurba_marseille","lat":43.26934,"lon":5.36668,"is_reserved":false,"is_disabled":false,"rental_uris":{"android":"levelo://app?vid=31444d97-ada7-4c14-9ccc-e8d8f546def7","ios":"levelo://app?vid=31444d97-ada7-4c14-9ccc-e8d8f546def7"},"vehicle_type_id":"4","last_reported":1726949319,"current_range_meters":8000,"station_id":"","pricing_plan_id":"cebpf4jnsgd1na2vs0mg"},{"bike_id":"ab97f218-9f41-4ea3-89b0-ec4db0a4d3b4","system_id":"levelo_inurba_marseille","lat":43.25488,"lon":5.37651,"is_reserved":false,"is_disabled":false,"rental_uris":{"android":"levelo://app?vid=ab97f218-9f41-4ea3-89b0-ec4db0a4d3b4","ios":"levelo://app?vid=ab97f218-9f41-4ea3-89b0-ec4db0a4d3b4"},"vehicle_type_id":"4","last_reported":1726949319,"current_range_meters":38800,"station_id":"ce4bhh12rcd13ifvqff0","pricing_plan_id":"cebpf4jnsgd1na2vs0mg"},{"bike_id":"05ffb554-d3db-4bf2-af24-dee9e881b2d3","system_id":"levelo_inurba_marseille","lat":43.24078,"lon":5.3775,"is_reserved":false,"is_disabled":false,"rental_uris":{"android":"levelo://app?vid=05ffb554-d3db-4bf2-af24-dee9e881b2d3","ios":"levelo://app?vid=05ffb554-d3db-4bf2-af24-dee9e881b2d3"},"vehicle_type_id":"4","last_reported":1726949319,"current_range_meters":3600,"station_id":"ce4bhnp2rcd13ifvqgvg","pricing_plan_id":"cebpf4jnsgd1na2vs0mg"},{"bike_id":"53c7f3bd-91dc-4b08-8941-aff3bef35de9","system_id":"levelo_inurba_marseille","lat":43.28491,"lon":5.38551,"is_reserved":false,"is_disabled":false,"rental_uris":{"android":"levelo://app?vid=53c7f3bd-91dc-4b08-8941-aff3bef35de9","ios":"levelo://app?vid=53c7f3bd-91dc-4b08-8941-aff3bef35de9"},"vehicle_type_id":"4","last_reported":1726949319,"current_range_meters":9200,"station_id":"ce4bh8p2rcd13ifvqeb0","pricing_plan_id":"cebpf4jnsgd1na2vs0mg"},{"bike_id":"d6ce5f37-b1c2-4387-aadc-a97266584bad","system_id":"levelo_inurba_marseille","lat":43.29311,"lon":5.37171,"is_reserved":false,"is_disabled":false,"rental_uris":{"android":"levelo://app?vid=d6ce5f37-b1c2-4387-aadc-a97266584bad","ios":"levelo://app?vid=d6ce5f37-b1c2-4387-aadc-a97266584bad"},"vehicle_type_id":"4","last_reported":1726949319,"current_range_meters":39200,"station_id":"ce4bgh92rcd13ifvqb40","pricing_plan_id":"cebpf4jnsgd1na2vs0mg"},{"bike_id":"382eb8c2-081f-48ed-a727-e31e6d5aaf53","system_id":"levelo_inurba_marseille","lat":43.2868,"lon":5.38676,"is_reserved":false,"is_disabled":false,"rental_uris":{"android":"levelo://app?vid=382eb8c2-081f-48ed-a727-e31e6d5aaf53","ios":"levelo://app?vid=382eb8c2-081f-48ed-a727-e31e6d5aaf53"},"vehicle_type_id":"4","last_reported":1726949319,"current_range_meters":16800,"station_id":"ce4bh492rcd13ifvqdug","pricing_plan_id":"cebpf4jnsgd1na2vs0mg"},{"bike_id":"af65f514-5cc5-4901-9b32-4d09979b53a5","system_id":"levelo_inurba_marseille","lat":43.298431,"lon":5.362751,"is_reserved":false,"is_disabled":false,"rental_uris":{"android":"levelo://app?vid=af65f514-5cc5-4901-9b32-4d09979b53a5","ios":"levelo://app?vid=af65f514-5cc5-4901-9b32-4d09979b53a5"},"vehicle_type_id":"4","last_reported":1726949319,"current_range_meters":8800,"station_id":"ce4bgpp2rcd13ifvqc3g","pricing_plan_id":"cebpf4jnsgd1na2vs0mg"},{"bike_id":"b3e7e622-0c9b-400d-a611-ba040c5e7f0a","system_id":"levelo_inurba_marseille","lat":43.29034,"lon":5.37574,"is_reserved":false,"is_disabled":false,"rental_uris":{"android":"levelo://app?vid=b3e7e622-0c9b-400d-a611-ba040c5e7f0a","ios":"levelo://app?vid=b3e7e622-0c9b-400d-a611-ba040c5e7f0a"},"vehicle_type_id":"4","last_reported":1726949319,"current_range_meters":4800,"station_id":"ce4bh692rcd13ifvqe90","pricing_plan_id":"cebpf4jnsgd1na2vs0mg"},{"bike_id":"31c18a3c-0d46-4957-8711-eb8663517f99","system_id":"levelo_inurba_marseille","lat":43.26495,"lon":5.39543,"is_reserved":false,"is_disabled":false,"rental_uris":{"android":"levelo://app?vid=31c18a3c-0d46-4957-8711-eb8663517f99","ios":"levelo://app?vid=31c18a3c-0d46-4957-8711-eb8663517f99"},"vehicle_type_id":"4","last_reported":1726949319,"current_range_meters":7200,"station_id":"ce4bhi12rcd13ifvqfq0","pricing_plan_id":"cebpf4jnsgd1na2vs0mg"},{"bike_id":"3753adac-4bc1-47a5-a14c-5eade0f1e89c","system_id":"levelo_inurba_marseille","lat":43.29894,"lon":5.43666,"is_reserved":false,"is_disabled":false,"rental_uris":{"android":"levelo://app?vid=3753adac-4bc1-47a5-a14c-5eade0f1e89c","ios":"levelo://app?vid=3753adac-4bc1-47a5-a14c-5eade0f1e89c"},"vehicle_type_id":"4","last_reported":1726949319,"current_range_meters":32000,"station_id":"ce4bhpp2rcd13ifvqhfg","pricing_plan_id":"cebpf4jnsgd1na2vs0mg"},{"bike_id":"ad179c9a-3ff8-4e78-b7a2-686e19fbf072","system_id":"levelo_inurba_marseille","lat":43.29535,"lon":5.3855,"is_reserved":false,"is_disabled":false,"rental_uris":{"android":"levelo://app?vid=ad179c9a-3ff8-4e78-b7a2-686e19fbf072","ios":"levelo://app?vid=ad179c9a-3ff8-4e78-b7a2-686e19fbf072"},"vehicle_type_id":"4","last_reported":1726949319,"current_range_meters":28400,"station_id":"ce4bgih2rcd13ifvqba0","pricing_plan_id":"cebpf4jnsgd1na2vs0mg"},{"bike_id":"7e9927b0-1dad-4129-88ee-4c29c68c2d82","system_id":"levelo_inurba_marseille","lat":43.28694,"lon":5.39987,"is_reserved":false,"is_disabled":false,"rental_uris":{"android":"levelo://app?vid=7e9927b0-1dad-4129-88ee-4c29c68c2d82","ios":"levelo://app?vid=7e9927b0-1dad-4129-88ee-4c29c68c2d82"},"vehicle_type_id":"4","last_reported":1726949319,"current_range_meters":19600,"station_id":"ce4bho92rcd13ifvqh3g","pricing_plan_id":"cebpf4jnsgd1na2vs0mg"},{"bike_id":"a8f6ae9c-1b75-42c4-a985-5eae2eec407f","system_id":"levelo_inurba_marseille","lat":43.27995,"lon":5.40009,"is_reserved":false,"is_disabled":false,"rental_uris":{"android":"levelo://app?vid=a8f6ae9c-1b75-42c4-a985-5eae2eec407f","ios":"levelo://app?vid=a8f6ae9c-1b75-42c4-a985-5eae2eec407f"},"vehicle_type_id":"4","last_reported":1726949319,"current_range_meters":27600,"station_id":"ce4bho92rcd13ifvqh4g","pricing_plan_id":"cebpf4jnsgd1na2vs0mg"},{"bike_id":"ecd87928-9ce4-40b2-bd15-1cb3e0aae524","system_id":"levelo_inurba_marseille","lat":43.24169,"lon":5.36398,"is_reserved":false,"is_disabled":false,"rental_uris":{"android":"levelo://app?vid=ecd87928-9ce4-40b2-bd15-1cb3e0aae524","ios":"levelo://app?vid=ecd87928-9ce4-40b2-bd15-1cb3e0aae524"},"vehicle_type_id":"4","last_reported":1726949319,"current_range_meters":36800,"station_id":"cpo36qri1sfpv3e86is0","pricing_plan_id":"cebpf4jnsgd1na2vs0mg"},{"bike_id":"d323bc23-4105-4d98-87ab-fb3899c88f8a","system_id":"levelo_inurba_marseille","lat":43.23193,"lon":5.35538,"is_reserved":false,"is_disabled":false,"rental_uris":{"android":"levelo://app?vid=d323bc23-4105-4d98-87ab-fb3899c88f8a","ios":"levelo://app?vid=d323bc23-4105-4d98-87ab-fb3899c88f8a"},"vehicle_type_id":"4","last_reported":1726949319,"current_range_meters":36000,"station_id":"ce4bhu92rcd13ifvqi70","pricing_plan_id":"cebpf4jnsgd1na2vs0mg"},{"bike_id":"9fa90b80-d681-4686-a126-35ce4b4065e1","system_id":"levelo_inurba_marseille","lat":43.29445,"lon":5.39751,"is_reserved":false,"is_disabled":false,"rental_uris":{"android":"levelo://app?vid=9fa90b80-d681-4686-a126-35ce4b4065e1","ios":"levelo://app?vid=9fa90b80-d681-4686-a126-35ce4b4065e1"},"vehicle_type_id":"4","last_reported":1726949319,"current_range_meters":36000,"station_id":"ce4bh3h2rcd13ifvqdo0","pricing_plan_id":"cebpf4jnsgd1na2vs0mg"},{"bike_id":"44579055-fda7-4ca9-91ba-1361f1b33c42","system_id":"levelo_inurba_marseille","lat":43.3117,"lon":5.38717,"is_reserved":false,"is_disabled":false,"rental_uris":{"android":"levelo://app?vid=44579055-fda7-4ca9-91ba-1361f1b33c42","ios":"levelo://app?vid=44579055-fda7-4ca9-91ba-1361f1b33c42"},"vehicle_type_id":"4","last_reported":1726949319,"current_range_meters":38000,"station_id":"ce4bgv12rcd13ifvqcp0","pricing_plan_id":"cebpf4jnsgd1na2vs0mg"},{"bike_id":"430848a7-fc28-4e6b-8148-2262f6e47389","system_id":"levelo_inurba_marseille","lat":43.31998,"lon":5.38152,"is_reserved":false,"is_disabled":false,"rental_uris":{"android":"levelo://app?vid=430848a7-fc28-4e6b-8148-2262f6e47389","ios":"levelo://app?vid=430848a7-fc28-4e6b-8148-2262f6e47389"},"vehicle_type_id":"4","last_reported":1726949319,"current_range_meters":11200,"station_id":"ce4bhr12rcd13ifvqhpg","pricing_plan_id":"cebpf4jnsgd1na2vs0mg"},{"bike_id":"56a3f965-4928-4290-8c7a-af669e4f4cb5","system_id":"levelo_inurba_marseille","lat":43.28702,"lon":5.37947,"is_reserved":false,"is_disabled":false,"rental_uris":{"android":"levelo://app?vid=56a3f965-4928-4290-8c7a-af669e4f4cb5","ios":"levelo://app?vid=56a3f965-4928-4290-8c7a-af669e4f4cb5"},"vehicle_type_id":"4","last_reported":1726949319,"current_range_meters":38800,"station_id":"ce4bh9p2rcd13ifvqec0","pricing_plan_id":"cebpf4jnsgd1na2vs0mg"},{"bike_id":"5de90350-eece-4dc9-8c24-5e5f8a365ac4","system_id":"levelo_inurba_marseille","lat":43.30805,"lon":5.43526,"is_reserved":false,"is_disabled":false,"rental_uris":{"android":"levelo://app?vid=5de90350-eece-4dc9-8c24-5e5f8a365ac4","ios":"levelo://app?vid=5de90350-eece-4dc9-8c24-5e5f8a365ac4"},"vehicle_type_id":"4","last_reported":1726949319,"current_range_meters":32000,"station_id":"ce4bhph2rcd13ifvqheg","pricing_plan_id":"cebpf4jnsgd1na2vs0mg"},{"bike_id":"5e319d59-6b66-47e8-917f-19391c1d0bf8","system_id":"levelo_inurba_marseille","lat":43.30796,"lon":5.37652,"is_reserved":false,"is_disabled":false,"rental_uris":{"android":"levelo://app?vid=5e319d59-6b66-47e8-917f-19391c1d0bf8","ios":"levelo://app?vid=5e319d59-6b66-47e8-917f-19391c1d0bf8"},"vehicle_type_id":"4","last_reported":1726949319,"current_range_meters":38800,"station_id":"ce4bgv92rcd13ifvqcq0","pricing_plan_id":"cebpf4jnsgd1na2vs0mg"},{"bike_id":"b3be407b-7cb4-437a-a703-75754320de30","system_id":"levelo_inurba_marseille","lat":43.25494,"lon":5.3765,"is_reserved":false,"is_disabled":false,"rental_uris":{"android":"levelo://app?vid=b3be407b-7cb4-437a-a703-75754320de30","ios":"levelo://app?vid=b3be407b-7cb4-437a-a703-75754320de30"},"vehicle_type_id":"4","last_reported":1726949319,"current_range_meters":38000,"station_id":"ce4bhh12rcd13ifvqff0","pricing_plan_id":"cebpf4jnsgd1na2vs0mg"},{"bike_id":"284426b3-ef5c-4b6b-8492-b9094a6d14f7","system_id":"levelo_inurba_marseille","lat":43.29421,"lon":5.38634,"is_reserved":false,"is_disabled":false,"rental_uris":{"android":"levelo://app?vid=284426b3-ef5c-4b6b-8492-b9094a6d14f7","ios":"levelo://app?vid=284426b3-ef5c-4b6b-8492-b9094a6d14f7"},"vehicle_type_id":"4","last_reported":1726949319,"current_range_meters":18000,"station_id":"ce4bh2h2rcd13ifvqdh0","pricing_plan_id":"cebpf4jnsgd1na2vs0mg"},{"bike_id":"5f9f9634-4816-4fd8-9d79-c350eb09d6ad","system_id":"levelo_inurba_marseille","lat":43.3094,"lon":5.40141,"is_reserved":false,"is_disabled":false,"rental_uris":{"android":"levelo://app?vid=5f9f9634-4816-4fd8-9d79-c350eb09d6ad","ios":"levelo://app?vid=5f9f9634-4816-4fd8-9d79-c350eb09d6ad"},"vehicle_type_id":"4","last_reported":1726949319,"current_range_meters":25600,"station_id":"ce4bgvp2rcd13ifvqct0","pricing_plan_id":"cebpf4jnsgd1na2vs0mg"},{"bike_id":"15d96cbf-d6d6-422a-bf67-8a42c4d7d8d2","system_id":"levelo_inurba_marseille","lat":43.28153,"lon":5.42644,"is_reserved":false,"is_disabled":false,"rental_uris":{"android":"levelo://app?vid=15d96cbf-d6d6-422a-bf67-8a42c4d7d8d2","ios":"levelo://app?vid=15d96cbf-d6d6-422a-bf67-8a42c4d7d8d2"},"vehicle_type_id":"4","last_reported":1726949319,"current_range_meters":35600,"station_id":"ce4bhnh2rcd13ifvqgug","pricing_plan_id":"cebpf4jnsgd1na2vs0mg"},{"bike_id":"867ccdbf-1097-4167-b6a6-7e0bfd7280ca","system_id":"levelo_inurba_marseille","lat":43.27949,"lon":5.41051,"is_reserved":false,"is_disabled":false,"rental_uris":{"android":"levelo://app?vid=867ccdbf-1097-4167-b6a6-7e0bfd7280ca","ios":"levelo://app?vid=867ccdbf-1097-4167-b6a6-7e0bfd7280ca"},"vehicle_type_id":"4","last_reported":1726949319,"current_range_meters":8800,"station_id":"ce4bhnp2rcd13ifvqh0g","pricing_plan_id":"cebpf4jnsgd1na2vs0mg"},{"bike_id":"417b67da-5db6-4939-bc85-d17f1a193753","system_id":"levelo_inurba_marseille","lat":43.27906,"lon":5.37993,"is_reserved":false,"is_disabled":false,"rental_uris":{"android":"levelo://app?vid=417b67da-5db6-4939-bc85-d17f1a193753","ios":"levelo://app?vid=417b67da-5db6-4939-bc85-d17f1a193753"},"vehicle_type_id":"4","last_reported":1726949319,"current_range_meters":17200,"station_id":"ce4bhf92rcd13ifvqf50","pricing_plan_id":"cebpf4jnsgd1na2vs0mg"},{"bike_id":"bcbe6095-74c6-4e6a-9235-6041481bec8a","system_id":"levelo_inurba_marseille","lat":43.23186,"lon":5.39981,"is_reserved":false,"is_disabled":false,"rental_uris":{"android":"levelo://app?vid=bcbe6095-74c6-4e6a-9235-6041481bec8a","ios":"levelo://app?vid=bcbe6095-74c6-4e6a-9235-6041481bec8a"},"vehicle_type_id":"4","last_reported":1726949319,"current_range_meters":10800,"station_id":"ce4bhn12rcd13ifvqgqg","pricing_plan_id":"cebpf4jnsgd1na2vs0mg"},{"bike_id":"f91f7161-6408-4bf3-8c4c-148c08d02058","system_id":"levelo_inurba_marseille","lat":43.3133,"lon":5.39694,"is_reserved":false,"is_disabled":false,"rental_uris":{"android":"levelo://app?vid=f91f7161-6408-4bf3-8c4c-148c08d02058","ios":"levelo://app?vid=f91f7161-6408-4bf3-8c4c-148c08d02058"},"vehicle_type_id":"4","last_reported":1726949319,"current_range_meters":6400,"station_id":"ce4bgvp2rcd13ifvqcu0","pricing_plan_id":"cebpf4jnsgd1na2vs0mg"},{"bike_id":"1a6f2e58-a964-4e9c-aef7-7ae314a51736","system_id":"levelo_inurba_marseille","lat":43.31375,"lon":5.38501,"is_reserved":false,"is_disabled":false,"rental_uris":{"android":"levelo://app?vid=1a6f2e58-a964-4e9c-aef7-7ae314a51736","ios":"levelo://app?vid=1a6f2e58-a964-4e9c-aef7-7ae314a51736"},"vehicle_type_id":"4","last_reported":1726949319,"current_range_meters":36400,"station_id":"ce4bgt92rcd13ifvqcf0","pricing_plan_id":"cebpf4jnsgd1na2vs0mg"},{"bike_id":"da2713a2-6928-4531-bdd8-42c9caac36c9","system_id":"levelo_inurba_marseille","lat":43.31999,"lon":5.38153,"is_reserved":false,"is_disabled":false,"rental_uris":{"android":"levelo://app?vid=da2713a2-6928-4531-bdd8-42c9caac36c9","ios":"levelo://app?vid=da2713a2-6928-4531-bdd8-42c9caac36c9"},"vehicle_type_id":"4","last_reported":1726949319,"current_range_meters":22400,"station_id":"ce4bhr12rcd13ifvqhpg","pricing_plan_id":"cebpf4jnsgd1na2vs0mg"},{"bike_id":"2b0228b6-7c17-46f9-b31c-136961501fa5","system_id":"levelo_inurba_marseille","lat":43.28671,"lon":5.38669,"is_reserved":false,"is_disabled":false,"rental_uris":{"android":"levelo://app?vid=2b0228b6-7c17-46f9-b31c-136961501fa5","ios":"levelo://app?vid=2b0228b6-7c17-46f9-b31c-136961501fa5"},"vehicle_type_id":"4","last_reported":1726949319,"current_range_meters":38800,"station_id":"ce4bh492rcd13ifvqdug","pricing_plan_id":"cebpf4jnsgd1na2vs0mg"},{"bike_id":"39ade657-6702-4ba0-902b-e32762d68405","system_id":"levelo_inurba_marseille","lat":43.2397,"lon":5.36631,"is_reserved":false,"is_disabled":false,"rental_uris":{"android":"levelo://app?vid=39ade657-6702-4ba0-902b-e32762d68405","ios":"levelo://app?vid=39ade657-6702-4ba0-902b-e32762d68405"},"vehicle_type_id":"4","last_reported":1726949319,"current_range_meters":24400,"station_id":"ce4bhi12rcd13ifvqfp0","pricing_plan_id":"cebpf4jnsgd1na2vs0mg"},{"bike_id":"ba475b2b-fa1f-449b-a7c1-e60774061d86","system_id":"levelo_inurba_marseille","lat":43.29262,"lon":5.38429,"is_reserved":false,"is_disabled":false,"rental_uris":{"android":"levelo://app?vid=ba475b2b-fa1f-449b-a7c1-e60774061d86","ios":"levelo://app?vid=ba475b2b-fa1f-449b-a7c1-e60774061d86"},"vehicle_type_id":"4","last_reported":1726949319,"current_range_meters":6800,"station_id":"ce4bh692rcd13ifvqea0","pricing_plan_id":"cebpf4jnsgd1na2vs0mg"},{"bike_id":"6c767b56-9466-4ec0-865d-63f9e07edd8e","system_id":"levelo_inurba_marseille","lat":43.3078,"lon":5.37648,"is_reserved":false,"is_disabled":false,"rental_uris":{"android":"levelo://app?vid=6c767b56-9466-4ec0-865d-63f9e07edd8e","ios":"levelo://app?vid=6c767b56-9466-4ec0-865d-63f9e07edd8e"},"vehicle_type_id":"4","last_reported":1726949319,"current_range_meters":38800,"station_id":"ce4bgv92rcd13ifvqcq0","pricing_plan_id":"cebpf4jnsgd1na2vs0mg"},{"bike_id":"e81d8bec-0ffd-4425-8728-3beef3324d5a","system_id":"levelo_inurba_marseille","lat":43.29531,"lon":5.38545,"is_reserved":false,"is_disabled":false,"rental_uris":{"android":"levelo://app?vid=e81d8bec-0ffd-4425-8728-3beef3324d5a","ios":"levelo://app?vid=e81d8bec-0ffd-4425-8728-3beef3324d5a"},"vehicle_type_id":"4","last_reported":1726949319,"current_range_meters":6400,"station_id":"ce4bgih2rcd13ifvqba0","pricing_plan_id":"cebpf4jnsgd1na2vs0mg"},{"bike_id":"a6b37efd-f01a-418d-aa28-f5510cea81bf","system_id":"levelo_inurba_marseille","lat":43.29808,"lon":5.40747,"is_reserved":false,"is_disabled":false,"rental_uris":{"android":"levelo://app?vid=a6b37efd-f01a-418d-aa28-f5510cea81bf","ios":"levelo://app?vid=a6b37efd-f01a-418d-aa28-f5510cea81bf"},"vehicle_type_id":"4","last_reported":1726949319,"current_range_meters":9600,"station_id":"","pricing_plan_id":"cebpf4jnsgd1na2vs0mg"},{"bike_id":"cb245be4-7461-4bea-882b-a29a6c574d52","system_id":"levelo_inurba_marseille","lat":43.292715,"lon":5.368493,"is_reserved":false,"is_disabled":false,"rental_uris":{"android":"levelo://app?vid=cb245be4-7461-4bea-882b-a29a6c574d52","ios":"levelo://app?vid=cb245be4-7461-4bea-882b-a29a6c574d52"},"vehicle_type_id":"4","last_reported":1726949319,"current_range_meters":11200,"station_id":"ce4bgj92rcd13ifvqbd0","pricing_plan_id":"cebpf4jnsgd1na2vs0mg"},{"bike_id":"173222c3-a0c3-4258-b3a8-c1454ef6bcf4","system_id":"levelo_inurba_marseille","lat":43.29544,"lon":5.38555,"is_reserved":false,"is_disabled":false,"rental_uris":{"android":"levelo://app?vid=173222c3-a0c3-4258-b3a8-c1454ef6bcf4","ios":"levelo://app?vid=173222c3-a0c3-4258-b3a8-c1454ef6bcf4"},"vehicle_type_id":"4","last_reported":1726949319,"current_range_meters":28000,"station_id":"ce4bgih2rcd13ifvqba0","pricing_plan_id":"cebpf4jnsgd1na2vs0mg"},{"bike_id":"99bc397a-8364-4b83-a5df-0e0866672d69","system_id":"levelo_inurba_marseille","lat":43.2418,"lon":5.39732,"is_reserved":false,"is_disabled":false,"rental_uris":{"android":"levelo://app?vid=99bc397a-8364-4b83-a5df-0e0866672d69","ios":"levelo://app?vid=99bc397a-8364-4b83-a5df-0e0866672d69"},"vehicle_type_id":"4","last_reported":1726949319,"current_range_meters":9600,"station_id":"ce4bhn12rcd13ifvqgpg","pricing_plan_id":"cebpf4jnsgd1na2vs0mg"},{"bike_id":"9f76b8bf-8cea-4ccb-af36-16f421e41074","system_id":"levelo_inurba_marseille","lat":43.29418,"lon":5.38622,"is_reserved":false,"is_disabled":false,"rental_uris":{"android":"levelo://app?vid=9f76b8bf-8cea-4ccb-af36-16f421e41074","ios":"levelo://app?vid=9f76b8bf-8cea-4ccb-af36-16f421e41074"},"vehicle_type_id":"4","last_reported":1726949319,"current_range_meters":6000,"station_id":"ce4bh2h2rcd13ifvqdh0","pricing_plan_id":"cebpf4jnsgd1na2vs0mg"},{"bike_id":"01331630-1d0b-4acc-9b17-f43ccb1dd3d3","system_id":"levelo_inurba_marseille","lat":43.2911,"lon":5.38133,"is_reserved":false,"is_disabled":false,"rental_uris":{"android":"levelo://app?vid=01331630-1d0b-4acc-9b17-f43ccb1dd3d3","ios":"levelo://app?vid=01331630-1d0b-4acc-9b17-f43ccb1dd3d3"},"vehicle_type_id":"4","last_reported":1726949319,"current_range_meters":38000,"station_id":"ce4bh512rcd13ifvqe2g","pricing_plan_id":"cebpf4jnsgd1na2vs0mg"},{"bike_id":"63faf33e-ff1d-4143-811b-38adb77b4df7","system_id":"levelo_inurba_marseille","lat":43.2605,"lon":5.39394,"is_reserved":false,"is_disabled":false,"rental_uris":{"android":"levelo://app?vid=63faf33e-ff1d-4143-811b-38adb77b4df7","ios":"levelo://app?vid=63faf33e-ff1d-4143-811b-38adb77b4df7"},"vehicle_type_id":"4","last_reported":1726949319,"current_range_meters":31200,"station_id":"ce4bhh92rcd13ifvqfj0","pricing_plan_id":"cebpf4jnsgd1na2vs0mg"},{"bike_id":"67f97636-f14a-462f-be64-88997631e4a7","system_id":"levelo_inurba_marseille","lat":43.30524,"lon":5.36716,"is_reserved":false,"is_disabled":false,"rental_uris":{"android":"levelo://app?vid=67f97636-f14a-462f-be64-88997631e4a7","ios":"levelo://app?vid=67f97636-f14a-462f-be64-88997631e4a7"},"vehicle_type_id":"4","last_reported":1726949319,"current_range_meters":4000,"station_id":"ce4bgrp2rcd13ifvqc9g","pricing_plan_id":"cebpf4jnsgd1na2vs0mg"},{"bike_id":"0aa761da-bea5-4d66-83a8-bdba18a86b11","system_id":"levelo_inurba_marseille","lat":43.29533,"lon":5.38552,"is_reserved":false,"is_disabled":false,"rental_uris":{"android":"levelo://app?vid=0aa761da-bea5-4d66-83a8-bdba18a86b11","ios":"levelo://app?vid=0aa761da-bea5-4d66-83a8-bdba18a86b11"},"vehicle_type_id":"4","last_reported":1726949319,"current_range_meters":27600,"station_id":"ce4bgih2rcd13ifvqba0","pricing_plan_id":"cebpf4jnsgd1na2vs0mg"},{"bike_id":"71745df1-8511-42d1-b236-94ecb1109e61","system_id":"levelo_inurba_marseille","lat":43.31676,"lon":5.39614,"is_reserved":false,"is_disabled":false,"rental_uris":{"android":"levelo://app?vid=71745df1-8511-42d1-b236-94ecb1109e61","ios":"levelo://app?vid=71745df1-8511-42d1-b236-94ecb1109e61"},