{"last_updated":1773769910,"ttl":60,"version":"2.2","data":{"bikes":[{"bike_id":"ab8ed3cf-dd65-453b-87ca-077ce7ed25e8","system_id":"levelo_inurba_marseille","lat":43.31886,"lon":5.36803,"is_reserved":false,"is_disabled":false,"rental_uris":{"android":"levelo://app?vid=ab8ed3cf-dd65-453b-87ca-077ce7ed25e8","ios":"levelo://app?vid=ab8ed3cf-dd65-453b-87ca-077ce7ed25e8"},"vehicle_type_id":"4","last_reported":1773769910,"current_range_meters":2800,"station_id":"st_d6o2h0d0559c73evc1b0","pricing_plan_id":"cebpf4jnsgd1na2vs0mg"},{"bike_id":"a59008a9-5ffe-49aa-8960-83d30281d3f9","system_id":"levelo_inurba_marseille","lat":43.248025,"lon":5.374505,"is_reserved":false,"is_disabled":false,"rental_uris":{"android":"levelo://app?vid=a59008a9-5ffe-49aa-8960-83d30281d3f9","ios":"levelo://app?vid=a59008a9-5ffe-49aa-8960-83d30281d3f9"},"vehicle_type_id":"4","last_reported":1773769910,"current_range_meters":2800,"station_id":"ce4bhgh2rcd13ifvqfb0","pricing_plan_id":"cebpf4jnsgd1na2vs0mg"},{"bike_id":"ed1cdfea-3dae-4070-96b5-10cbafc26e3d","system_id":"levelo_inurba_marseille","lat":43.26554,"lon":5.39018,"is_reserved":false,"is_disabled":false,"rental_uris":{"android":"levelo://app?vid=ed1cdfea-3dae-4070-96b5-10cbafc26e3d","ios":"levelo://app?vid=ed1cdfea-3dae-4070-96b5-10cbafc26e3d"},"vehicle_type_id":"4","last_reported":1773769910,"current_range_meters":2800,"station_id":"ce4bhe12rcd13ifvqf30","pricing_plan_id":"cebpf4jnsgd1na2vs0mg"},{"bike_id":"c6d69b4d-4c87-44fe-a02d-92b1370b69aa","system_id":"levelo_inurba_marseille","lat":43.22552,"lon":5.41627,"is_reserved":false,"is_disabled":false,"rental_uris":{"android":"levelo://app?vid=c6d69b4d-4c87-44fe-a02d-92b1370b69aa","ios":"levelo://app?vid=c6d69b4d-4c87-44fe-a02d-92b1370b69aa"},"vehicle_type_id":"4","last_reported":1773769910,"current_range_meters":2800,"station_id":"st_d2o4gvlbi1j2169b742g","pricing_plan_id":"cebpf4jnsgd1na2vs0mg"},{"bike_id":"03fc9476-1e7a-47c9-a89b-ab8c5a9ef4f0","system_id":"levelo_inurba_marseille","lat":43.24802,"lon":5.37462,"is_reserved":false,"is_disabled":false,"rental_uris":{"android":"levelo://app?vid=03fc9476-1e7a-47c9-a89b-ab8c5a9ef4f0","ios":"levelo://app?vid=03fc9476-1e7a-47c9-a89b-ab8c5a9ef4f0"},"vehicle_type_id":"4","last_reported":1773769910,"current_range_meters":2800,"station_id":"ce4bhgh2rcd13ifvqfb0","pricing_plan_id":"cebpf4jnsgd1na2vs0mg"},{"bike_id":"77748ea5-ab3b-4cb5-92b7-0b6390d885d1","system_id":"levelo_inurba_marseille","lat":43.27642,"lon":5.36075,"is_reserved":false,"is_disabled":false,"rental_uris":{"android":"levelo://app?vid=77748ea5-ab3b-4cb5-92b7-0b6390d885d1","ios":"levelo://app?vid=77748ea5-ab3b-4cb5-92b7-0b6390d885d1"},"vehicle_type_id":"4","last_reported":1773769910,"current_range_meters":2800,"station_id":"ce4bgj92rcd13ifvqbe0","pricing_plan_id":"cebpf4jnsgd1na2vs0mg"},{"bike_id":"38fd434e-cc0f-4a48-be69-67bd99374b2a","system_id":"levelo_inurba_marseille","lat":43.29849,"lon":5.36285,"is_reserved":false,"is_disabled":false,"rental_uris":{"android":"levelo://app?vid=38fd434e-cc0f-4a48-be69-67bd99374b2a","ios":"levelo://app?vid=38fd434e-cc0f-4a48-be69-67bd99374b2a"},"vehicle_type_id":"4","last_reported":1773769910,"current_range_meters":2800,"station_id":"ce4bgpp2rcd13ifvqc3g","pricing_plan_id":"cebpf4jnsgd1na2vs0mg"},{"bike_id":"4233c73c-9225-4c6e-b359-c3017c84c897","system_id":"levelo_inurba_marseille","lat":43.262027,"lon":5.379339,"is_reserved":false,"is_disabled":false,"rental_uris":{"android":"levelo://app?vid=4233c73c-9225-4c6e-b359-c3017c84c897","ios":"levelo://app?vid=4233c73c-9225-4c6e-b359-c3017c84c897"},"vehicle_type_id":"4","last_reported":1773769910,"current_range_meters":2800,"station_id":"ce4bhjp2rcd13ifvqg90","pricing_plan_id":"cebpf4jnsgd1na2vs0mg"},{"bike_id":"b3fb0cd9-0d50-4402-b1d7-e0ca7cbbf02f","system_id":"levelo_inurba_marseille","lat":43.22565,"lon":5.41653,"is_reserved":false,"is_disabled":false,"rental_uris":{"android":"levelo://app?vid=b3fb0cd9-0d50-4402-b1d7-e0ca7cbbf02f","ios":"levelo://app?vid=b3fb0cd9-0d50-4402-b1d7-e0ca7cbbf02f"},"vehicle_type_id":"4","last_reported":1773769910,"current_range_meters":2800,"station_id":"st_d2o4gvlbi1j2169b742g","pricing_plan_id":"cebpf4jnsgd1na2vs0mg"},{"bike_id":"e7d20ce8-61ee-4df3-9ba4-585a7648c721","system_id":"levelo_inurba_marseille","lat":43.24662,"lon":5.43147,"is_reserved":false,"is_disabled":false,"rental_uris":{"android":"levelo://app?vid=e7d20ce8-61ee-4df3-9ba4-585a7648c721","ios":"levelo://app?vid=e7d20ce8-61ee-4df3-9ba4-585a7648c721"},"vehicle_type_id":"4","last_reported":1773769910,"current_range_meters":2800,"station_id":"","pricing_plan_id":"cebpf4jnsgd1na2vs0mg"},{"bike_id":"f582649a-fd80-4eb7-80d2-5b9cb529fbbc","system_id":"levelo_inurba_marseille","lat":43.3176,"lon":5.39005,"is_reserved":false,"is_disabled":false,"rental_uris":{"android":"levelo://app?vid=f582649a-fd80-4eb7-80d2-5b9cb529fbbc","ios":"levelo://app?vid=f582649a-fd80-4eb7-80d2-5b9cb529fbbc"},"vehicle_type_id":"4","last_reported":1773769910,"current_range_meters":2800,"station_id":"ce4bhqp2rcd13ifvqhng","pricing_plan_id":"cebpf4jnsgd1na2vs0mg"},{"bike_id":"2d472ab9-04f5-4199-a05b-5747cb3039a8","system_id":"levelo_inurba_marseille","lat":43.28185,"lon":5.35103,"is_reserved":false,"is_disabled":false,"rental_uris":{"android":"levelo://app?vid=2d472ab9-04f5-4199-a05b-5747cb3039a8","ios":"levelo://app?vid=2d472ab9-04f5-4199-a05b-5747cb3039a8"},"vehicle_type_id":"4","last_reported":1773769910,"current_range_meters":2800,"station_id":"","pricing_plan_id":"cebpf4jnsgd1na2vs0mg"},{"bike_id":"e7596b07-8927-4fba-baf0-38b74d7c6487","system_id":"levelo_inurba_marseille","lat":43.24802,"lon":5.37465,"is_reserved":false,"is_disabled":false,"rental_uris":{"android":"levelo://app?vid=e7596b07-8927-4fba-baf0-38b74d7c6487","ios":"levelo://app?vid=e7596b07-8927-4fba-baf0-38b74d7c6487"},"vehicle_type_id":"4","last_reported":1773769910,"current_range_meters":2800,"station_id":"ce4bhgh2rcd13ifvqfb0","pricing_plan_id":"cebpf4jnsgd1na2vs0mg"},{"bike_id":"86b24167-6dd8-49bb-a772-a657c6b0f7ce","system_id":"levelo_inurba_marseille","lat":43.28414,"lon":5.34986,"is_reserved":false,"is_disabled":false,"rental_uris":{"android":"levelo://app?vid=86b24167-6dd8-49bb-a772-a657c6b0f7ce","ios":"levelo://app?vid=86b24167-6dd8-49bb-a772-a657c6b0f7ce"},"vehicle_type_id":"4","last_reported":1773769910,"current_range_meters":2800,"station_id":"ce4bhbh2rcd13ifvqepg","pricing_plan_id":"cebpf4jnsgd1na2vs0mg"},{"bike_id":"f7bcab84-5c99-4d0a-9d8c-60d7d503061b","system_id":"levelo_inurba_marseille","lat":43.29531,"lon":5.38545,"is_reserved":false,"is_disabled":false,"rental_uris":{"android":"levelo://app?vid=f7bcab84-5c99-4d0a-9d8c-60d7d503061b","ios":"levelo://app?vid=f7bcab84-5c99-4d0a-9d8c-60d7d503061b"},"vehicle_type_id":"4","last_reported":1773769910,"current_range_meters":3200,"station_id":"ce4bgih2rcd13ifvqba0","pricing_plan_id":"cebpf4jnsgd1na2vs0mg"},{"bike_id":"f2832982-8127-4de6-b88f-70ab4257829f","system_id":"levelo_inurba_marseille","lat":43.29074,"lon":5.3819,"is_reserved":false,"is_disabled":false,"rental_uris":{"android":"levelo://app?vid=f2832982-8127-4de6-b88f-70ab4257829f","ios":"levelo://app?vid=f2832982-8127-4de6-b88f-70ab4257829f"},"vehicle_type_id":"4","last_reported":1773769910,"current_range_meters":3200,"station_id":"ce4bh512rcd13ifvqe2g","pricing_plan_id":"cebpf4jnsgd1na2vs0mg"},{"bike_id":"20d965c2-9356-4a2d-b2d1-b586da5c97e8","system_id":"levelo_inurba_marseille","lat":43.28122,"lon":5.40615,"is_reserved":false,"is_disabled":true,"rental_uris":{"android":"levelo://app?vid=20d965c2-9356-4a2d-b2d1-b586da5c97e8","ios":"levelo://app?vid=20d965c2-9356-4a2d-b2d1-b586da5c97e8"},"vehicle_type_id":"4","last_reported":1773769910,"current_range_meters":3200,"station_id":"","pricing_plan_id":"cebpf4jnsgd1na2vs0mg"},{"bike_id":"d377eb2c-3c56-4f77-a072-5e39252f3591","system_id":"levelo_inurba_marseille","lat":43.25519,"lon":5.37648,"is_reserved":false,"is_disabled":false,"rental_uris":{"android":"levelo://app?vid=d377eb2c-3c56-4f77-a072-5e39252f3591","ios":"levelo://app?vid=d377eb2c-3c56-4f77-a072-5e39252f3591"},"vehicle_type_id":"4","last_reported":1773769910,"current_range_meters":3200,"station_id":"ce4bhh12rcd13ifvqff0","pricing_plan_id":"cebpf4jnsgd1na2vs0mg"},{"bike_id":"3d1bfdfa-bbdc-4216-8266-4c24b485057c","system_id":"levelo_inurba_marseille","lat":43.30281,"lon":5.37689,"is_reserved":false,"is_disabled":false,"rental_uris":{"android":"levelo://app?vid=3d1bfdfa-bbdc-4216-8266-4c24b485057c","ios":"levelo://app?vid=3d1bfdfa-bbdc-4216-8266-4c24b485057c"},"vehicle_type_id":"4","last_reported":1773769910,"current_range_meters":3200,"station_id":"ce4bguh2rcd13ifvqcj0","pricing_plan_id":"cebpf4jnsgd1na2vs0mg"},{"bike_id":"cfb2e14b-73a8-4466-83b0-51755dfd9dbb","system_id":"levelo_inurba_marseille","lat":43.23187,"lon":5.39983,"is_reserved":false,"is_disabled":false,"rental_uris":{"android":"levelo://app?vid=cfb2e14b-73a8-4466-83b0-51755dfd9dbb","ios":"levelo://app?vid=cfb2e14b-73a8-4466-83b0-51755dfd9dbb"},"vehicle_type_id":"4","last_reported":1773769910,"current_range_meters":3200,"station_id":"ce4bhn12rcd13ifvqgqg","pricing_plan_id":"cebpf4jnsgd1na2vs0mg"},{"bike_id":"796ed888-5e80-4248-a7be-20570706635d","system_id":"levelo_inurba_marseille","lat":43.23785,"lon":5.36625,"is_reserved":false,"is_disabled":false,"rental_uris":{"android":"levelo://app?vid=796ed888-5e80-4248-a7be-20570706635d","ios":"levelo://app?vid=796ed888-5e80-4248-a7be-20570706635d"},"vehicle_type_id":"4","last_reported":1773769910,"current_range_meters":3200,"station_id":"st_d3nk18o9ro0c73en2l3g","pricing_plan_id":"cebpf4jnsgd1na2vs0mg"},{"bike_id":"5ba187e9-635d-4a0e-bd3f-d081c382b7eb","system_id":"levelo_inurba_marseille","lat":43.29531,"lon":5.38534,"is_reserved":false,"is_disabled":false,"rental_uris":{"android":"levelo://app?vid=5ba187e9-635d-4a0e-bd3f-d081c382b7eb","ios":"levelo://app?vid=5ba187e9-635d-4a0e-bd3f-d081c382b7eb"},"vehicle_type_id":"4","last_reported":1773769910,"current_range_meters":3200,"station_id":"ce4bgih2rcd13ifvqba0","pricing_plan_id":"cebpf4jnsgd1na2vs0mg"},{"bike_id":"1eb60f61-91f1-4437-abf0-fda758bc54e7","system_id":"levelo_inurba_marseille","lat":43.2903,"lon":5.38644,"is_reserved":false,"is_disabled":false,"rental_uris":{"android":"levelo://app?vid=1eb60f61-91f1-4437-abf0-fda758bc54e7","ios":"levelo://app?vid=1eb60f61-91f1-4437-abf0-fda758bc54e7"},"vehicle_type_id":"4","last_reported":1773769910,"current_range_meters":3200,"station_id":"ce4bh4p2rcd13ifvqe0g","pricing_plan_id":"cebpf4jnsgd1na2vs0mg"},{"bike_id":"05797fa1-accf-4d33-953a-71b7e9c0f32e","system_id":"levelo_inurba_marseille","lat":43.2396,"lon":5.36639,"is_reserved":false,"is_disabled":false,"rental_uris":{"android":"levelo://app?vid=05797fa1-accf-4d33-953a-71b7e9c0f32e","ios":"levelo://app?vid=05797fa1-accf-4d33-953a-71b7e9c0f32e"},"vehicle_type_id":"4","last_reported":1773769910,"current_range_meters":3200,"station_id":"ce4bhi12rcd13ifvqfp0","pricing_plan_id":"cebpf4jnsgd1na2vs0mg"},{"bike_id":"5c13d3bc-3946-4016-b223-a96c424763ee","system_id":"levelo_inurba_marseille","lat":43.24162,"lon":5.364,"is_reserved":false,"is_disabled":false,"rental_uris":{"android":"levelo://app?vid=5c13d3bc-3946-4016-b223-a96c424763ee","ios":"levelo://app?vid=5c13d3bc-3946-4016-b223-a96c424763ee"},"vehicle_type_id":"4","last_reported":1773769910,"current_range_meters":3200,"station_id":"cpo36qri1sfpv3e86is0","pricing_plan_id":"cebpf4jnsgd1na2vs0mg"},{"bike_id":"90da0256-45c5-4a39-b1ac-e8f193bf6d2b","system_id":"levelo_inurba_marseille","lat":43.2954,"lon":5.38541,"is_reserved":false,"is_disabled":false,"rental_uris":{"android":"levelo://app?vid=90da0256-45c5-4a39-b1ac-e8f193bf6d2b","ios":"levelo://app?vid=90da0256-45c5-4a39-b1ac-e8f193bf6d2b"},"vehicle_type_id":"4","last_reported":1773769910,"current_range_meters":3200,"station_id":"ce4bgih2rcd13ifvqba0","pricing_plan_id":"cebpf4jnsgd1na2vs0mg"},{"bike_id":"c689c5db-592c-47e9-a293-c7e9eb6b0cc4","system_id":"levelo_inurba_marseille","lat":43.30472,"lon":5.39015,"is_reserved":false,"is_disabled":false,"rental_uris":{"android":"levelo://app?vid=c689c5db-592c-47e9-a293-c7e9eb6b0cc4","ios":"levelo://app?vid=c689c5db-592c-47e9-a293-c7e9eb6b0cc4"},"vehicle_type_id":"4","last_reported":1773769910,"current_range_meters":3200,"station_id":"","pricing_plan_id":"cebpf4jnsgd1na2vs0mg"},{"bike_id":"3e0e28d5-c6f6-40bb-8740-7ce7fb8ddcb0","system_id":"levelo_inurba_marseille","lat":43.28404,"lon":5.37514,"is_reserved":false,"is_disabled":false,"rental_uris":{"android":"levelo://app?vid=3e0e28d5-c6f6-40bb-8740-7ce7fb8ddcb0","ios":"levelo://app?vid=3e0e28d5-c6f6-40bb-8740-7ce7fb8ddcb0"},"vehicle_type_id":"4","last_reported":1773769910,"current_range_meters":3200,"station_id":"ce4bh412rcd13ifvqds0","pricing_plan_id":"cebpf4jnsgd1na2vs0mg"},{"bike_id":"d37a810c-fbac-4f05-9d1e-3e5669d2107e","system_id":"levelo_inurba_marseille","lat":43.29237,"lon":5.40938,"is_reserved":false,"is_disabled":false,"rental_uris":{"android":"levelo://app?vid=d37a810c-fbac-4f05-9d1e-3e5669d2107e","ios":"levelo://app?vid=d37a810c-fbac-4f05-9d1e-3e5669d2107e"},"vehicle_type_id":"4","last_reported":1773769910,"current_range_meters":3200,"station_id":"ce4bh192rcd13ifvqdc0","pricing_plan_id":"cebpf4jnsgd1na2vs0mg"},{"bike_id":"e5fbc4aa-78c6-4dc2-990a-2bc8f311c8f1","system_id":"levelo_inurba_marseille","lat":43.295162,"lon":5.390306,"is_reserved":false,"is_disabled":false,"rental_uris":{"android":"levelo://app?vid=e5fbc4aa-78c6-4dc2-990a-2bc8f311c8f1","ios":"levelo://app?vid=e5fbc4aa-78c6-4dc2-990a-2bc8f311c8f1"},"vehicle_type_id":"4","last_reported":1773769910,"current_range_meters":3200,"station_id":"ce4bh3p2rcd13ifvqdp0","pricing_plan_id":"cebpf4jnsgd1na2vs0mg"},{"bike_id":"0caacdc3-81da-4969-badd-05649d85802d","system_id":"levelo_inurba_marseille","lat":43.30436,"lon":5.38877,"is_reserved":false,"is_disabled":false,"rental_uris":{"android":"levelo://app?vid=0caacdc3-81da-4969-badd-05649d85802d","ios":"levelo://app?vid=0caacdc3-81da-4969-badd-05649d85802d"},"vehicle_type_id":"4","last_reported":1773769910,"current_range_meters":3200,"station_id":"ce4bgk12rcd13ifvqbi0","pricing_plan_id":"cebpf4jnsgd1na2vs0mg"},{"bike_id":"dc23ee38-9398-4dee-be05-fbdc8edd6338","system_id":"levelo_inurba_marseille","lat":43.30278,"lon":5.37715,"is_reserved":false,"is_disabled":false,"rental_uris":{"android":"levelo://app?vid=dc23ee38-9398-4dee-be05-fbdc8edd6338","ios":"levelo://app?vid=dc23ee38-9398-4dee-be05-fbdc8edd6338"},"vehicle_type_id":"4","last_reported":1773769910,"current_range_meters":3200,"station_id":"ce4bguh2rcd13ifvqcj0","pricing_plan_id":"cebpf4jnsgd1na2vs0mg"},{"bike_id":"8d306a34-d5ce-4a3b-b67a-978eaa09bbeb","system_id":"levelo_inurba_marseille","lat":43.28041,"lon":5.36946,"is_reserved":false,"is_disabled":false,"rental_uris":{"android":"levelo://app?vid=8d306a34-d5ce-4a3b-b67a-978eaa09bbeb","ios":"levelo://app?vid=8d306a34-d5ce-4a3b-b67a-978eaa09bbeb"},"vehicle_type_id":"4","last_reported":1773769910,"current_range_meters":3200,"station_id":"ce4bha12rcd13ifvqef0","pricing_plan_id":"cebpf4jnsgd1na2vs0mg"},{"bike_id":"d89134ff-a044-45c7-94db-9ed2eccb039f","system_id":"levelo_inurba_marseille","lat":43.3135,"lon":5.38497,"is_reserved":false,"is_disabled":true,"rental_uris":{"android":"levelo://app?vid=d89134ff-a044-45c7-94db-9ed2eccb039f","ios":"levelo://app?vid=d89134ff-a044-45c7-94db-9ed2eccb039f"},"vehicle_type_id":"4","last_reported":1773769910,"current_range_meters":3200,"station_id":"ce4bgt92rcd13ifvqcf0","pricing_plan_id":"cebpf4jnsgd1na2vs0mg"},{"bike_id":"d45f23be-94ba-4b48-91b6-f29972cdf9ac","system_id":"levelo_inurba_marseille","lat":43.30627,"lon":5.40099,"is_reserved":false,"is_disabled":false,"rental_uris":{"android":"levelo://app?vid=d45f23be-94ba-4b48-91b6-f29972cdf9ac","ios":"levelo://app?vid=d45f23be-94ba-4b48-91b6-f29972cdf9ac"},"vehicle_type_id":"4","last_reported":1773769910,"current_range_meters":3200,"station_id":"ce4bh112rcd13ifvqda0","pricing_plan_id":"cebpf4jnsgd1na2vs0mg"},{"bike_id":"550c6f48-64d4-43bc-a0e4-444a1f8184af","system_id":"levelo_inurba_marseille","lat":43.21759,"lon":5.3461,"is_reserved":false,"is_disabled":false,"rental_uris":{"android":"levelo://app?vid=550c6f48-64d4-43bc-a0e4-444a1f8184af","ios":"levelo://app?vid=550c6f48-64d4-43bc-a0e4-444a1f8184af"},"vehicle_type_id":"4","last_reported":1773769910,"current_range_meters":3200,"station_id":"st_cvj6r9ubvosntc0bgbag","pricing_plan_id":"cebpf4jnsgd1na2vs0mg"},{"bike_id":"f1bca153-ca1d-4f53-930a-930b5a66f82e","system_id":"levelo_inurba_marseille","lat":43.27325,"lon":5.39079,"is_reserved":false,"is_disabled":true,"rental_uris":{"android":"levelo://app?vid=f1bca153-ca1d-4f53-930a-930b5a66f82e","ios":"levelo://app?vid=f1bca153-ca1d-4f53-930a-930b5a66f82e"},"vehicle_type_id":"4","last_reported":1773769910,"current_range_meters":3200,"station_id":"ce4bhgp2rcd13ifvqfe0","pricing_plan_id":"cebpf4jnsgd1na2vs0mg"},{"bike_id":"12537a86-2395-4d78-9cb9-0daf43d662f8","system_id":"levelo_inurba_marseille","lat":43.30646,"lon":5.40108,"is_reserved":false,"is_disabled":false,"rental_uris":{"android":"levelo://app?vid=12537a86-2395-4d78-9cb9-0daf43d662f8","ios":"levelo://app?vid=12537a86-2395-4d78-9cb9-0daf43d662f8"},"vehicle_type_id":"4","last_reported":1773769910,"current_range_meters":3200,"station_id":"ce4bh112rcd13ifvqda0","pricing_plan_id":"cebpf4jnsgd1na2vs0mg"},{"bike_id":"998f1757-a38b-4fab-a2f4-096a176e9c82","system_id":"levelo_inurba_marseille","lat":43.29186,"lon":5.35805,"is_reserved":false,"is_disabled":false,"rental_uris":{"android":"levelo://app?vid=998f1757-a38b-4fab-a2f4-096a176e9c82","ios":"levelo://app?vid=998f1757-a38b-4fab-a2f4-096a176e9c82"},"vehicle_type_id":"4","last_reported":1773769910,"current_range_meters":3200,"station_id":"ce4bhb12rcd13ifvqel0","pricing_plan_id":"cebpf4jnsgd1na2vs0mg"},{"bike_id":"2f852663-39cd-4080-bd8d-77b7e3eafaae","system_id":"levelo_inurba_marseille","lat":43.29434,"lon":5.39756,"is_reserved":false,"is_disabled":false,"rental_uris":{"android":"levelo://app?vid=2f852663-39cd-4080-bd8d-77b7e3eafaae","ios":"levelo://app?vid=2f852663-39cd-4080-bd8d-77b7e3eafaae"},"vehicle_type_id":"4","last_reported":1773769910,"current_range_meters":3200,"station_id":"ce4bh3h2rcd13ifvqdo0","pricing_plan_id":"cebpf4jnsgd1na2vs0mg"},{"bike_id":"5546bd0f-7ced-4964-ba48-a430fa2adf47","system_id":"levelo_inurba_marseille","lat":43.21734,"lon":5.34626,"is_reserved":false,"is_disabled":true,"rental_uris":{"android":"levelo://app?vid=5546bd0f-7ced-4964-ba48-a430fa2adf47","ios":"levelo://app?vid=5546bd0f-7ced-4964-ba48-a430fa2adf47"},"vehicle_type_id":"4","last_reported":1773769910,"current_range_meters":3600,"station_id":"st_cvj6r9ubvosntc0bgbag","pricing_plan_id":"cebpf4jnsgd1na2vs0mg"},{"bike_id":"9ef08179-a4f9-48c8-a0ed-3539b4de75cc","system_id":"levelo_inurba_marseille","lat":43.29599,"lon":5.381,"is_reserved":false,"is_disabled":false,"rental_uris":{"android":"levelo://app?vid=9ef08179-a4f9-48c8-a0ed-3539b4de75cc","ios":"levelo://app?vid=9ef08179-a4f9-48c8-a0ed-3539b4de75cc"},"vehicle_type_id":"4","last_reported":1773769910,"current_range_meters":3600,"station_id":"ce4bgl12rcd13ifvqbo0","pricing_plan_id":"cebpf4jnsgd1na2vs0mg"},{"bike_id":"87cf2c9e-dd79-479c-9e15-2f0aaae6b8ee","system_id":"levelo_inurba_marseille","lat":43.31426,"lon":5.37359,"is_reserved":false,"is_disabled":false,"rental_uris":{"android":"levelo://app?vid=87cf2c9e-dd79-479c-9e15-2f0aaae6b8ee","ios":"levelo://app?vid=87cf2c9e-dd79-479c-9e15-2f0aaae6b8ee"},"vehicle_type_id":"4","last_reported":1773769910,"current_range_meters":3600,"station_id":"","pricing_plan_id":"cebpf4jnsgd1na2vs0mg"},{"bike_id":"2f6af145-9965-4232-ba20-a2113c18cb78","system_id":"levelo_inurba_marseille","lat":43.29577,"lon":5.39975,"is_reserved":false,"is_disabled":true,"rental_uris":{"android":"levelo://app?vid=2f6af145-9965-4232-ba20-a2113c18cb78","ios":"levelo://app?vid=2f6af145-9965-4232-ba20-a2113c18cb78"},"vehicle_type_id":"4","last_reported":1773769910,"current_range_meters":3600,"station_id":"ce4bh312rcd13ifvqdj0","pricing_plan_id":"cebpf4jnsgd1na2vs0mg"},{"bike_id":"849601a4-f153-4e69-8a81-266bd3c62be8","system_id":"levelo_inurba_marseille","lat":43.28438,"lon":5.35006,"is_reserved":false,"is_disabled":false,"rental_uris":{"android":"levelo://app?vid=849601a4-f153-4e69-8a81-266bd3c62be8","ios":"levelo://app?vid=849601a4-f153-4e69-8a81-266bd3c62be8"},"vehicle_type_id":"4","last_reported":1773769910,"current_range_meters":3600,"station_id":"ce4bhbh2rcd13ifvqepg","pricing_plan_id":"cebpf4jnsgd1na2vs0mg"},{"bike_id":"5ceea874-16bc-4dc6-9858-1b3ce34dfda6","system_id":"levelo_inurba_marseille","lat":43.28482,"lon":5.48379,"is_reserved":false,"is_disabled":false,"rental_uris":{"android":"levelo://app?vid=5ceea874-16bc-4dc6-9858-1b3ce34dfda6","ios":"levelo://app?vid=5ceea874-16bc-4dc6-9858-1b3ce34dfda6"},"vehicle_type_id":"4","last_reported":1773769910,"current_range_meters":3600,"station_id":"st_d3svhcjqgbts73a3dn0g","pricing_plan_id":"cebpf4jnsgd1na2vs0mg"},{"bike_id":"57e107db-9acb-46f0-bdff-4166a0b9c128","system_id":"levelo_inurba_marseille","lat":43.25568,"lon":5.38228,"is_reserved":false,"is_disabled":false,"rental_uris":{"android":"levelo://app?vid=57e107db-9acb-46f0-bdff-4166a0b9c128","ios":"levelo://app?vid=57e107db-9acb-46f0-bdff-4166a0b9c128"},"vehicle_type_id":"4","last_reported":1773769910,"current_range_meters":3600,"station_id":"ce4bhih2rcd13ifvqfs0","pricing_plan_id":"cebpf4jnsgd1na2vs0mg"},{"bike_id":"96c3e592-caf0-4266-a17d-83de489ffac5","system_id":"levelo_inurba_marseille","lat":43.29749,"lon":5.3814,"is_reserved":false,"is_disabled":false,"rental_uris":{"android":"levelo://app?vid=96c3e592-caf0-4266-a17d-83de489ffac5","ios":"levelo://app?vid=96c3e592-caf0-4266-a17d-83de489ffac5"},"vehicle_type_id":"4","last_reported":1773769910,"current_range_meters":3600,"station_id":"","pricing_plan_id":"cebpf4jnsgd1na2vs0mg"},{"bike_id":"ee1fdc0f-1f18-419f-bfbc-7f93e435e782","system_id":"levelo_inurba_marseille","lat":43.29005,"lon":5.356115,"is_reserved":false,"is_disabled":false,"rental_uris":{"android":"levelo://app?vid=ee1fdc0f-1f18-419f-bfbc-7f93e435e782","ios":"levelo://app?vid=ee1fdc0f-1f18-419f-bfbc-7f93e435e782"},"vehicle_type_id":"4","last_reported":1773769910,"current_range_meters":3600,"station_id":"ce4bhb92rcd13ifvqen0","pricing_plan_id":"cebpf4jnsgd1na2vs0mg"},{"bike_id":"fb22ab39-4722-4e5e-938b-dc20094c7233","system_id":"levelo_inurba_marseille","lat":43.21205,"lon":5.35109,"is_reserved":false,"is_disabled":false,"rental_uris":{"android":"levelo://app?vid=fb22ab39-4722-4e5e-938b-dc20094c7233","ios":"levelo://app?vid=fb22ab39-4722-4e5e-938b-dc20094c7233"},"vehicle_type_id":"4","last_reported":1773769910,"current_range_meters":3600,"station_id":"st_cvj6sg6p6f1abm77japg","pricing_plan_id":"cebpf4jnsgd1na2vs0mg"},{"bike_id":"d06b1804-70fd-40ad-8edd-a00949173812","system_id":"levelo_inurba_marseille","lat":43.23186,"lon":5.39991,"is_reserved":false,"is_disabled":false,"rental_uris":{"android":"levelo://app?vid=d06b1804-70fd-40ad-8edd-a00949173812","ios":"levelo://app?vid=d06b1804-70fd-40ad-8edd-a00949173812"},"vehicle_type_id":"4","last_reported":1773769910,"current_range_meters":3600,"station_id":"ce4bhn12rcd13ifvqgqg","pricing_plan_id":"cebpf4jnsgd1na2vs0mg"},{"bike_id":"b8dc91d1-c18d-4991-ba58-348b07d4bf7f","system_id":"levelo_inurba_marseille","lat":43.2966,"lon":5.37154,"is_reserved":false,"is_disabled":false,"rental_uris":{"android":"levelo://app?vid=b8dc91d1-c18d-4991-ba58-348b07d4bf7f","ios":"levelo://app?vid=b8dc91d1-c18d-4991-ba58-348b07d4bf7f"},"vehicle_type_id":"4","last_reported":1773769910,"current_range_meters":4000,"station_id":"ce4bgnh2rcd13ifvqc0g","pricing_plan_id":"cebpf4jnsgd1na2vs0mg"},{"bike_id":"d0fe6d23-0520-4ae2-ba22-adc8cf05a374","system_id":"levelo_inurba_marseille","lat":43.24971,"lon":5.4049,"is_reserved":false,"is_disabled":false,"rental_uris":{"android":"levelo://app?vid=d0fe6d23-0520-4ae2-ba22-adc8cf05a374","ios":"levelo://app?vid=d0fe6d23-0520-4ae2-ba22-adc8cf05a374"},"vehicle_type_id":"4","last_reported":1773769910,"current_range_meters":4000,"station_id":"st_d2ngiaodas8pm72gd1h0","pricing_plan_id":"cebpf4jnsgd1na2vs0mg"},{"bike_id":"87899a2f-c165-4257-9d9c-b49aa7b4f730","system_id":"levelo_inurba_marseille","lat":43.28721,"lon":5.3997,"is_reserved":false,"is_disabled":false,"rental_uris":{"android":"levelo://app?vid=87899a2f-c165-4257-9d9c-b49aa7b4f730","ios":"levelo://app?vid=87899a2f-c165-4257-9d9c-b49aa7b4f730"},"vehicle_type_id":"4","last_reported":1773769910,"current_range_meters":4000,"station_id":"ce4bho92rcd13ifvqh3g","pricing_plan_id":"cebpf4jnsgd1na2vs0mg"},{"bike_id":"3509fadb-0e58-41b9-b16e-49b428d5a0da","system_id":"levelo_inurba_marseille","lat":43.31493,"lon":5.37302,"is_reserved":false,"is_disabled":false,"rental_uris":{"android":"levelo://app?vid=3509fadb-0e58-41b9-b16e-49b428d5a0da","ios":"levelo://app?vid=3509fadb-0e58-41b9-b16e-49b428d5a0da"},"vehicle_type_id":"4","last_reported":1773769910,"current_range_meters":4000,"station_id":"ce4bgt12rcd13ifvqcd0","pricing_plan_id":"cebpf4jnsgd1na2vs0mg"},{"bike_id":"80e6734b-3764-4853-8c63-15cb07f7249f","system_id":"levelo_inurba_marseille","lat":43.29809,"lon":5.44068,"is_reserved":false,"is_disabled":false,"rental_uris":{"android":"levelo://app?vid=80e6734b-3764-4853-8c63-15cb07f7249f","ios":"levelo://app?vid=80e6734b-3764-4853-8c63-15cb07f7249f"},"vehicle_type_id":"4","last_reported":1773769910,"current_range_meters":4000,"station_id":"st_d3jp68qikq2c7381ktn0","pricing_plan_id":"cebpf4jnsgd1na2vs0mg"},{"bike_id":"0f53d472-bee4-40de-8ab2-7656a789b4f7","system_id":"levelo_inurba_marseille","lat":43.22549,"lon":5.34935,"is_reserved":false,"is_disabled":false,"rental_uris":{"android":"levelo://app?vid=0f53d472-bee4-40de-8ab2-7656a789b4f7","ios":"levelo://app?vid=0f53d472-bee4-40de-8ab2-7656a789b4f7"},"vehicle_type_id":"4","last_reported":1773769910,"current_range_meters":4000,"station_id":"","pricing_plan_id":"cebpf4jnsgd1na2vs0mg"},{"bike_id":"89f6044f-7e57-49f5-8263-c2e55e117b58","system_id":"levelo_inurba_marseille","lat":43.27795,"lon":5.40787,"is_reserved":false,"is_disabled":false,"rental_uris":{"android":"levelo://app?vid=89f6044f-7e57-49f5-8263-c2e55e117b58","ios":"levelo://app?vid=89f6044f-7e57-49f5-8263-c2e55e117b58"},"vehicle_type_id":"4","last_reported":1773769910,"current_range_meters":4000,"station_id":"","pricing_plan_id":"cebpf4jnsgd1na2vs0mg"},{"bike_id":"5d2534e6-7013-4602-9ce7-23f1bfb0d2fe","system_id":"levelo_inurba_marseille","lat":43.29996,"lon":5.40075,"is_reserved":false,"is_disabled":false,"rental_uris":{"android":"levelo://app?vid=5d2534e6-7013-4602-9ce7-23f1bfb0d2fe","ios":"levelo://app?vid=5d2534e6-7013-4602-9ce7-23f1bfb0d2fe"},"vehicle_type_id":"4","last_reported":1773769910,"current_range_meters":4000,"station_id":"","pricing_plan_id":"cebpf4jnsgd1na2vs0mg"},{"bike_id":"33215a01-c08a-4091-934f-ef9ac46917e1","system_id":"levelo_inurba_marseille","lat":43.26937,"lon":5.4026,"is_reserved":false,"is_disabled":false,"rental_uris":{"android":"levelo://app?vid=33215a01-c08a-4091-934f-ef9ac46917e1","ios":"levelo://app?vid=33215a01-c08a-4091-934f-ef9ac46917e1"},"vehicle_type_id":"4","last_reported":1773769910,"current_range_meters":4000,"station_id":"cjm6bp8fraef2m0cb0m0","pricing_plan_id":"cebpf4jnsgd1na2vs0mg"},{"bike_id":"0ee583c5-7544-469e-b1be-fb6f4a297bbe","system_id":"levelo_inurba_marseille","lat":43.28438,"lon":5.39209,"is_reserved":false,"is_disabled":false,"rental_uris":{"android":"levelo://app?vid=0ee583c5-7544-469e-b1be-fb6f4a297bbe","ios":"levelo://app?vid=0ee583c5-7544-469e-b1be-fb6f4a297bbe"},"vehicle_type_id":"4","last_reported":1773769910,"current_range_meters":4000,"station_id":"ce4bhoh2rcd13ifvqh5g","pricing_plan_id":"cebpf4jnsgd1na2vs0mg"},{"bike_id":"67d0381d-498e-4f4b-8823-1c9f56dc4409","system_id":"levelo_inurba_marseille","lat":43.3117,"lon":5.38723,"is_reserved":false,"is_disabled":false,"rental_uris":{"android":"levelo://app?vid=67d0381d-498e-4f4b-8823-1c9f56dc4409","ios":"levelo://app?vid=67d0381d-498e-4f4b-8823-1c9f56dc4409"},"vehicle_type_id":"4","last_reported":1773769910,"current_range_meters":4000,"station_id":"ce4bgv12rcd13ifvqcp0","pricing_plan_id":"cebpf4jnsgd1na2vs0mg"},{"bike_id":"1fb96194-0923-44a9-b805-b695b0c6f5eb","system_id":"levelo_inurba_marseille","lat":43.28269,"lon":5.35054,"is_reserved":false,"is_disabled":false,"rental_uris":{"android":"levelo://app?vid=1fb96194-0923-44a9-b805-b695b0c6f5eb","ios":"levelo://app?vid=1fb96194-0923-44a9-b805-b695b0c6f5eb"},"vehicle_type_id":"4","last_reported":1773769910,"current_range_meters":4000,"station_id":"ce4bhbp2rcd13ifvqerg","pricing_plan_id":"cebpf4jnsgd1na2vs0mg"},{"bike_id":"438a75ad-9ec0-4191-b401-da4c7e2c44bb","system_id":"levelo_inurba_marseille","lat":43.28701,"lon":5.37388,"is_reserved":false,"is_disabled":false,"rental_uris":{"android":"levelo://app?vid=438a75ad-9ec0-4191-b401-da4c7e2c44bb","ios":"levelo://app?vid=438a75ad-9ec0-4191-b401-da4c7e2c44bb"},"vehicle_type_id":"4","last_reported":1773769910,"current_range_meters":4000,"station_id":"ce4bh3p2rcd13ifvqdq0","pricing_plan_id":"cebpf4jnsgd1na2vs0mg"},{"bike_id":"11ff61a0-a636-48df-ba6b-194120ca29c3","system_id":"levelo_inurba_marseille","lat":43.29752,"lon":5.4273,"is_reserved":false,"is_disabled":false,"rental_uris":{"android":"levelo://app?vid=11ff61a0-a636-48df-ba6b-194120ca29c3","ios":"levelo://app?vid=11ff61a0-a636-48df-ba6b-194120ca29c3"},"vehicle_type_id":"4","last_reported":1773769910,"current_range_meters":4000,"station_id":"st_d3md5207bmas73dh9klg","pricing_plan_id":"cebpf4jnsgd1na2vs0mg"},{"bike_id":"29a54209-1805-4985-95a0-2df2873998c5","system_id":"levelo_inurba_marseille","lat":43.28402,"lon":5.34991,"is_reserved":false,"is_disabled":false,"rental_uris":{"android":"levelo://app?vid=29a54209-1805-4985-95a0-2df2873998c5","ios":"levelo://app?vid=29a54209-1805-4985-95a0-2df2873998c5"},"vehicle_type_id":"4","last_reported":1773769910,"current_range_meters":4000,"station_id":"ce4bhbh2rcd13ifvqepg","pricing_plan_id":"cebpf4jnsgd1na2vs0mg"},{"bike_id":"f771c435-32cd-416e-b589-71afdf86b854","system_id":"levelo_inurba_marseille","lat":43.27913,"lon":5.39587,"is_reserved":false,"is_disabled":false,"rental_uris":{"android":"levelo://app?vid=f771c435-32cd-416e-b589-71afdf86b854","ios":"levelo://app?vid=f771c435-32cd-416e-b589-71afdf86b854"},"vehicle_type_id":"4","last_reported":1773769910,"current_range_meters":4000,"station_id":"ce4bhf92rcd13ifvqf40","pricing_plan_id":"cebpf4jnsgd1na2vs0mg"},{"bike_id":"9c7aac32-0bc3-459b-8acd-b062787e0540","system_id":"levelo_inurba_marseille","lat":43.28947,"lon":5.366376,"is_reserved":false,"is_disabled":false,"rental_uris":{"android":"levelo://app?vid=9c7aac32-0bc3-459b-8acd-b062787e0540","ios":"levelo://app?vid=9c7aac32-0bc3-459b-8acd-b062787e0540"},"vehicle_type_id":"4","last_reported":1773769910,"current_range_meters":4000,"station_id":"ce4bhap2rcd13ifvqek0","pricing_plan_id":"cebpf4jnsgd1na2vs0mg"},{"bike_id":"cace3d1d-1bca-4b13-a9d9-15d4fe451dee","system_id":"levelo_inurba_marseille","lat":43.24653,"lon":5.43136,"is_reserved":false,"is_disabled":false,"rental_uris":{"android":"levelo://app?vid=cace3d1d-1bca-4b13-a9d9-15d4fe451dee","ios":"levelo://app?vid=cace3d1d-1bca-4b13-a9d9-15d4fe451dee"},"vehicle_type_id":"4","last_reported":1773769910,"current_range_meters":4000,"station_id":"","pricing_plan_id":"cebpf4jnsgd1na2vs0mg"},{"bike_id":"79d7e2d8-96ed-465e-b31b-1696801515fd","system_id":"levelo_inurba_marseille","lat":43.24165,"lon":5.3638,"is_reserved":false,"is_disabled":false,"rental_uris":{"android":"levelo://app?vid=79d7e2d8-96ed-465e-b31b-1696801515fd","ios":"levelo://app?vid=79d7e2d8-96ed-465e-b31b-1696801515fd"},"vehicle_type_id":"4","last_reported":1773769910,"current_range_meters":4400,"station_id":"cpo36qri1sfpv3e86is0","pricing_plan_id":"cebpf4jnsgd1na2vs0mg"},{"bike_id":"9761ea07-5436-44a3-b47a-edd5aaaf46a7","system_id":"levelo_inurba_marseille","lat":43.24804,"lon":5.37458,"is_reserved":false,"is_disabled":false,"rental_uris":{"android":"levelo://app?vid=9761ea07-5436-44a3-b47a-edd5aaaf46a7","ios":"levelo://app?vid=9761ea07-5436-44a3-b47a-edd5aaaf46a7"},"vehicle_type_id":"4","last_reported":1773769910,"current_range_meters":4400,"station_id":"ce4bhgh2rcd13ifvqfb0","pricing_plan_id":"cebpf4jnsgd1na2vs0mg"},{"bike_id":"69d2e5d2-aab9-4fc9-a42e-b520c7e8b4f1","system_id":"levelo_inurba_marseille","lat":43.23054,"lon":5.3549,"is_reserved":false,"is_disabled":false,"rental_uris":{"android":"levelo://app?vid=69d2e5d2-aab9-4fc9-a42e-b520c7e8b4f1","ios":"levelo://app?vid=69d2e5d2-aab9-4fc9-a42e-b520c7e8b4f1"},"vehicle_type_id":"4","last_reported":1773769910,"current_range_meters":4400,"station_id":"cpo3342slgdg3j2ifvpg","pricing_plan_id":"cebpf4jnsgd1na2vs0mg"},{"bike_id":"db208fe2-c42c-4a5c-a0d2-6ebb17026d02","system_id":"levelo_inurba_marseille","lat":43.27379,"lon":5.36259,"is_reserved":false,"is_disabled":false,"rental_uris":{"android":"levelo://app?vid=db208fe2-c42c-4a5c-a0d2-6ebb17026d02","ios":"levelo://app?vid=db208fe2-c42c-4a5c-a0d2-6ebb17026d02"},"vehicle_type_id":"4","last_reported":1773769910,"current_range_meters":4400,"station_id":"ce4bhbh2rcd13ifvqeo0","pricing_plan_id":"cebpf4jnsgd1na2vs0mg"},{"bike_id":"3ee20e24-ce5b-4d2b-a227-79f9d22e4d4c","system_id":"levelo_inurba_marseille","lat":43.31178,"lon":5.38721,"is_reserved":false,"is_disabled":false,"rental_uris":{"android":"levelo://app?vid=3ee20e24-ce5b-4d2b-a227-79f9d22e4d4c","ios":"levelo://app?vid=3ee20e24-ce5b-4d2b-a227-79f9d22e4d4c"},"vehicle_type_id":"4","last_reported":1773769910,"current_range_meters":4400,"station_id":"ce4bgv12rcd13ifvqcp0","pricing_plan_id":"cebpf4jnsgd1na2vs0mg"},{"bike_id":"f2afc8f5-3c24-464b-919a-404080fb3d72","system_id":"levelo_inurba_marseille","lat":43.308938,"lon":5.396605,"is_reserved":false,"is_disabled":false,"rental_uris":{"android":"levelo://app?vid=f2afc8f5-3c24-464b-919a-404080fb3d72","ios":"levelo://app?vid=f2afc8f5-3c24-464b-919a-404080fb3d72"},"vehicle_type_id":"4","last_reported":1773769910,"current_range_meters":4400,"station_id":"ce4bh012rcd13ifvqcv0","pricing_plan_id":"cebpf4jnsgd1na2vs0mg"},{"bike_id":"4182c1da-024b-48c8-a902-28c5b0ad7653","system_id":"levelo_inurba_marseille","lat":43.28419,"lon":5.34979,"is_reserved":false,"is_disabled":false,"rental_uris":{"android":"levelo://app?vid=4182c1da-024b-48c8-a902-28c5b0ad7653","ios":"levelo://app?vid=4182c1da-024b-48c8-a902-28c5b0ad7653"},"vehicle_type_id":"4","last_reported":1773769910,"current_range_meters":4400,"station_id":"ce4bhbh2rcd13ifvqepg","pricing_plan_id":"cebpf4jnsgd1na2vs0mg"},{"bike_id":"169407b0-da9e-45a2-9b1c-4f5c60648ed5","system_id":"levelo_inurba_marseille","lat":43.28439,"lon":5.39179,"is_reserved":false,"is_disabled":false,"rental_uris":{"android":"levelo://app?vid=169407b0-da9e-45a2-9b1c-4f5c60648ed5","ios":"levelo://app?vid=169407b0-da9e-45a2-9b1c-4f5c60648ed5"},"vehicle_type_id":"4","last_reported":1773769910,"current_range_meters":4400,"station_id":"ce4bhoh2rcd13ifvqh5g","pricing_plan_id":"cebpf4jnsgd1na2vs0mg"},{"bike_id":"cb5827e9-8523-4381-aabc-f85765e5ea1d","system_id":"levelo_inurba_marseille","lat":43.30951,"lon":5.39024,"is_reserved":false,"is_disabled":false,"rental_uris":{"android":"levelo://app?vid=cb5827e9-8523-4381-aabc-f85765e5ea1d","ios":"levelo://app?vid=cb5827e9-8523-4381-aabc-f85765e5ea1d"},"vehicle_type_id":"4","last_reported":1773769910,"current_range_meters":4400,"station_id":"ce4bgup2rcd13ifvqco0","pricing_plan_id":"cebpf4jnsgd1na2vs0mg"},{"bike_id":"99b3399f-a7f1-46ba-9d8d-17a6644bc2b4","system_id":"levelo_inurba_marseille","lat":43.21758,"lon":5.34597,"is_reserved":false,"is_disabled":false,"rental_uris":{"android":"levelo://app?vid=99b3399f-a7f1-46ba-9d8d-17a6644bc2b4","ios":"levelo://app?vid=99b3399f-a7f1-46ba-9d8d-17a6644bc2b4"},"vehicle_type_id":"4","last_reported":1773769910,"current_range_meters":4400,"station_id":"st_cvj6r9ubvosntc0bgbag","pricing_plan_id":"cebpf4jnsgd1na2vs0mg"},{"bike_id":"953d2939-b85f-45e0-9f48-4b5ed7c58aff","system_id":"levelo_inurba_marseille","lat":43.28035,"lon":5.36943,"is_reserved":false,"is_disabled":false,"rental_uris":{"android":"levelo://app?vid=953d2939-b85f-45e0-9f48-4b5ed7c58aff","ios":"levelo://app?vid=953d2939-b85f-45e0-9f48-4b5ed7c58aff"},"vehicle_type_id":"4","last_reported":1773769910,"current_range_meters":4800,"station_id":"ce4bha12rcd13ifvqef0","pricing_plan_id":"cebpf4jnsgd1na2vs0mg"},{"bike_id":"2d475c7c-0764-4ac9-8950-41d5059b573b","system_id":"levelo_inurba_marseille","lat":43.28472,"lon":5.48395,"is_reserved":false,"is_disabled":false,"rental_uris":{"android":"levelo://app?vid=2d475c7c-0764-4ac9-8950-41d5059b573b","ios":"levelo://app?vid=2d475c7c-0764-4ac9-8950-41d5059b573b"},"vehicle_type_id":"4","last_reported":1773769910,"current_range_meters":4800,"station_id":"","pricing_plan_id":"cebpf4jnsgd1na2vs0mg"},{"bike_id":"55ad6576-3c79-4a6b-881b-323a7e8b70a1","system_id":"levelo_inurba_marseille","lat":43.24993,"lon":5.3894,"is_reserved":false,"is_disabled":false,"rental_uris":{"android":"levelo://app?vid=55ad6576-3c79-4a6b-881b-323a7e8b70a1","ios":"levelo://app?vid=55ad6576-3c79-4a6b-881b-323a7e8b70a1"},"vehicle_type_id":"4","last_reported":1773769910,"current_range_meters":4800,"station_id":"ce4bhgp2rcd13ifvqfd0","pricing_plan_id":"cebpf4jnsgd1na2vs0mg"},{"bike_id":"fcc16676-bdcc-453d-943e-a6082336e83f","system_id":"levelo_inurba_marseille","lat":43.29855,"lon":5.4408,"is_reserved":false,"is_disabled":false,"rental_uris":{"android":"levelo://app?vid=fcc16676-bdcc-453d-943e-a6082336e83f","ios":"levelo://app?vid=fcc16676-bdcc-453d-943e-a6082336e83f"},"vehicle_type_id":"4","last_reported":1773769910,"current_range_meters":4800,"station_id":"st_d3jp68qikq2c7381ktn0","pricing_plan_id":"cebpf4jnsgd1na2vs0mg"},{"bike_id":"f7d8440a-63ed-449b-9c03-59f750327739","system_id":"levelo_inurba_marseille","lat":43.2505,"lon":5.40497,"is_reserved":false,"is_disabled":false,"rental_uris":{"android":"levelo://app?vid=f7d8440a-63ed-449b-9c03-59f750327739","ios":"levelo://app?vid=f7d8440a-63ed-449b-9c03-59f750327739"},"vehicle_type_id":"4","last_reported":1773769910,"current_range_meters":4800,"station_id":"","pricing_plan_id":"cebpf4jnsgd1na2vs0mg"},{"bike_id":"faafcd4a-8bed-4b93-84fc-e67f69b4b3c5","system_id":"levelo_inurba_marseille","lat":43.29195,"lon":5.39337,"is_reserved":false,"is_disabled":false,"rental_uris":{"android":"levelo://app?vid=faafcd4a-8bed-4b93-84fc-e67f69b4b3c5","ios":"levelo://app?vid=faafcd4a-8bed-4b93-84fc-e67f69b4b3c5"},"vehicle_type_id":"4","last_reported":1773769910,"current_range_meters":4800,"station_id":"ce4bh192rcd13ifvqdd0","pricing_plan_id":"cebpf4jnsgd1na2vs0mg"},{"bike_id":"6c6214af-e355-4293-b75c-ec8a5e4e4e9c","system_id":"levelo_inurba_marseille","lat":43.24188,"lon":5.39731,"is_reserved":false,"is_disabled":false,"rental_uris":{"android":"levelo://app?vid=6c6214af-e355-4293-b75c-ec8a5e4e4e9c","ios":"levelo://app?vid=6c6214af-e355-4293-b75c-ec8a5e4e4e9c"},"vehicle_type_id":"4","last_reported":1773769910,"current_range_meters":4800,"station_id":"ce4bhn12rcd13ifvqgpg","pricing_plan_id":"cebpf4jnsgd1na2vs0mg"},{"bike_id":"40c07e30-a957-4b31-b6d4-59819bb27d33","system_id":"levelo_inurba_marseille","lat":43.31324,"lon":5.39705,"is_reserved":false,"is_disabled":false,"rental_uris":{"android":"levelo://app?vid=40c07e30-a957-4b31-b6d4-59819bb27d33","ios":"levelo://app?vid=40c07e30-a957-4b31-b6d4-59819bb27d33"},"vehicle_type_id":"4","last_reported":1773769910,"current_range_meters":4800,"station_id":"ce4bgvp2rcd13ifvqcu0","pricing_plan_id":"cebpf4jnsgd1na2vs0mg"},{"bike_id":"ca2786e6-5157-4ab3-8916-81d583d6acde","system_id":"levelo_inurba_marseille","lat":43.22925,"lon":5.3541,"is_reserved":false,"is_disabled":false,"rental_uris":{"android":"levelo://app?vid=ca2786e6-5157-4ab3-8916-81d583d6acde","ios":"levelo://app?vid=ca2786e6-5157-4ab3-8916-81d583d6acde"},"vehicle_type_id":"4","last_reported":1773769910,"current_range_meters":4800,"station_id":"cpo3532slgdg3j2ikp40","pricing_plan_id":"cebpf4jnsgd1na2vs0mg"},{"bike_id":"fc47abe7-cfea-4603-9b16-e89f62a15b75","system_id":"levelo_inurba_marseille","lat":43.29976,"lon":5.38488,"is_reserved":false,"is_disabled":true,"rental_uris":{"android":"levelo://app?vid=fc47abe7-cfea-4603-9b16-e89f62a15b75","ios":"levelo://app?vid=fc47abe7-cfea-4603-9b16-e89f62a15b75"},"vehicle_type_id":"4","last_reported":1773769910,"current_range_meters":4800,"station_id":"ce4bgj92rcd13ifvqbd0","pricing_plan_id":"cebpf4jnsgd1na2vs0mg"},{"bike_id":"f1378e2c-b1f0-4add-a419-f9bc4545ca4c","system_id":"levelo_inurba_marseille","lat":43.29518,"lon":5.39039,"is_reserved":false,"is_disabled":false,"rental_uris":{"android":"levelo://app?vid=f1378e2c-b1f0-4add-a419-f9bc4545ca4c","ios":"levelo://app?vid=f1378e2c-b1f0-4add-a419-f9bc4545ca4c"},"vehicle_type_id":"4","last_reported":1773769910,"current_range_meters":4800,"station_id":"ce4bh3p2rcd13ifvqdp0","pricing_plan_id":"cebpf4jnsgd1na2vs0mg"},{"bike_id":"50411238-81cd-469f-826f-e73cc0ec72f7","system_id":"levelo_inurba_marseille","lat":43.24813,"lon":5.3746,"is_reserved":false,"is_disabled":false,"rental_uris":{"android":"levelo://app?vid=50411238-81cd-469f-826f-e73cc0ec72f7","ios":"levelo://app?vid=50411238-81cd-469f-826f-e73cc0ec72f7"},"vehicle_type_id":"4","last_reported":1773769910,"current_range_meters":4800,"station_id":"ce4bhgh2rcd13ifvqfb0","pricing_plan_id":"cebpf4jnsgd1na2vs0mg"},{"bike_id":"0594e419-7fa2-4466-a2a1-942090fe006a","system_id":"levelo_inurba_marseille","lat":43.23196,"lon":5.40019,"is_reserved":false,"is_disabled":false,"rental_uris":{"android":"levelo://app?vid=0594e419-7fa2-4466-a2a1-942090fe006a","ios":"levelo://app?vid=0594e419-7fa2-4466-a2a1-942090fe006a"},"vehicle_type_id":"4","last_reported":1773769910,"current_range_meters":4800,"station_id":"ce4bhn12rcd13ifvqgqg","pricing_plan_id":"cebpf4jnsgd1na2vs0mg"},{"bike_id":"ceccd7d7-4504-49fa-9d08-3df37dfab240","system_id":"levelo_inurba_marseille","lat":43.28713,"lon":5.37934,"is_reserved":false,"is_disabled":false,"rental_uris":{"android":"levelo://app?vid=ceccd7d7-4504-49fa-9d08-3df37dfab240","ios":"levelo://app?vid=ceccd7d7-4504-49fa-9d08-3df37dfab240"},"vehicle_type_id":"4","last_reported":1773769910,"current_range_meters":4800,"station_id":"ce4bh9p2rcd13ifvqec0","pricing_plan_id":"cebpf4jnsgd1na2vs0mg"},{"bike_id":"88858f89-fe21-45f8-acbb-9ce67472ddb3","system_id":"levelo_inurba_marseille","lat":43.22929,"lon":5.35381,"is_reserved":false,"is_disabled":false,"rental_uris":{"android":"levelo://app?vid=88858f89-fe21-45f8-acbb-9ce67472ddb3","ios":"levelo://app?vid=88858f89-fe21-45f8-acbb-9ce67472ddb3"},"vehicle_type_id":"4","last_reported":1773769910,"current_range_meters":4800,"station_id":"cpo3532slgdg3j2ikp40","pricing_plan_id":"cebpf4jnsgd1na2vs0mg"},{"bike_id":"ec23c9cb-3701-4fe0-887d-c0d885a1f498","system_id":"levelo_inurba_marseille","lat":43.29069,"lon":5.37162,"is_reserved":false,"is_disabled":false,"rental_uris":{"android":"levelo://app?vid=ec23c9cb-3701-4fe0-887d-c0d885a1f498","ios":"levelo://app?vid=ec23c9cb-3701-4fe0-887d-c0d885a1f498"},"vehicle_type_id":"4","last_reported":1773769910,"current_range_meters":4800,"station_id":"ce4bh5p2rcd13ifvqe4g","pricing_plan_id":"cebpf4jnsgd1na2vs0mg"},{"bike_id":"96dac97a-0c76-4079-a74f-d3b50e0ff04c","system_id":"levelo_inurba_marseille","lat":43.21198,"lon":5.35064,"is_reserved":false,"is_disabled":false,"rental_uris":{"android":"levelo://app?vid=96dac97a-0c76-4079-a74f-d3b50e0ff04c","ios":"levelo://app?vid=96dac97a-0c76-4079-a74f-d3b50e0ff04c"},"vehicle_type_id":"4","last_reported":1773769910,"current_range_meters":4800,"station_id":"st_cvj6sg6p6f1abm77japg","pricing_plan_id":"cebpf4jnsgd1na2vs0mg"},{"bike_id":"f29681ff-5176-488f-ab43-e8876fbd1eb7","system_id":"levelo_inurba_marseille","lat":43.28446,"lon":5.39198,"is_reserved":false,"is_disabled":false,"rental_uris":{"android":"levelo://app?vid=f29681ff-5176-488f-ab43-e8876fbd1eb7","ios":"levelo://app?vid=f29681ff-5176-488f-ab43-e8876fbd1eb7"},"vehicle_type_id":"4","last_reported":1773769910,"current_range_meters":4800,"station_id":"ce4bhoh2rcd13ifvqh5g","pricing_plan_id":"cebpf4jnsgd1na2vs0mg"},{"bike_id":"b3e3399c-3837-42b8-afac-39674642005e","system_id":"levelo_inurba_marseille","lat":43.29774,"lon":5.4279,"is_reserved":false,"is_disabled":false,"rental_uris":{"android":"levelo://app?vid=b3e3399c-3837-42b8-afac-39674642005e","ios":"levelo://app?vid=b3e3399c-3837-42b8-afac-39674642005e"},"vehicle_type_id":"4","last_reported":1773769910,"current_range_meters":4800,"station_id":"st_d3md5207bmas73dh9klg","pricing_plan_id":"cebpf4jnsgd1na2vs0mg"},{"bike_id":"95478457-536e-45d4-991e-dd3692977e73","system_id":"levelo_inurba_marseille","lat":43.25341,"lon":5.4217,"is_reserved":false,"is_disabled":false,"rental_uris":{"android":"levelo://app?vid=95478457-536e-45d4-991e-dd3692977e73","ios":"levelo://app?vid=95478457-536e-45d4-991e-dd3692977e73"},"vehicle_type_id":"4","last_reported":1773769910,"current_range_meters":4800,"station_id":"st_d2m65c5bi1j21697t3ng","pricing_plan_id":"cebpf4jnsgd1na2vs0mg"},{"bike_id":"2308325c-0d1f-40b6-8813-c48c20aa4af8","system_id":"levelo_inurba_marseille","lat":43.22956,"lon":5.35369,"is_reserved":false,"is_disabled":false,"rental_uris":{"android":"levelo://app?vid=2308325c-0d1f-40b6-8813-c48c20aa4af8","ios":"levelo://app?vid=2308325c-0d1f-40b6-8813-c48c20aa4af8"},"vehicle_type_id":"4","last_reported":1773769910,"current_range_meters":5600,"station_id":"cpo3532slgdg3j2ikp40","pricing_plan_id":"cebpf4jnsgd1na2vs0mg"},{"bike_id":"ab4438e0-4431-4b4b-acfd-3600de989789","system_id":"levelo_inurba_marseille","lat":43.26949,"lon":5.38628,"is_reserved":false,"is_disabled":false,"rental_uris":{"android":"levelo://app?vid=ab4438e0-4431-4b4b-acfd-3600de989789","ios":"levelo://app?vid=ab4438e0-4431-4b4b-acfd-3600de989789"},"vehicle_type_id":"4","last_reported":1773769910,"current_range_meters":5600,"station_id":"ce4bhh92rcd13ifvqfh0","pricing_plan_id":"cebpf4jnsgd1na2vs0mg"},{"bike_id":"33628d1e-0bd7-41c9-8bb3-f34b2c963dc2","system_id":"levelo_inurba_marseille","lat":43.31168,"lon":5.38717,"is_reserved":false,"is_disabled":false,"rental_uris":{"android":"levelo://app?vid=33628d1e-0bd7-41c9-8bb3-f34b2c963dc2","ios":"levelo://app?vid=33628d1e-0bd7-41c9-8bb3-f34b2c963dc2"},"vehicle_type_id":"4","last_reported":1773769910,"current_range_meters":5600,"station_id":"ce4bgv12rcd13ifvqcp0","pricing_plan_id":"cebpf4jnsgd1na2vs0mg"},{"bike_id":"e2e624fa-ff10-4b54-ac06-a4108d72337c","system_id":"levelo_inurba_marseille","lat":43.30803,"lon":5.38157,"is_reserved":false,"is_disabled":false,"rental_uris":{"android":"levelo://app?vid=e2e624fa-ff10-4b54-ac06-a4108d72337c","ios":"levelo://app?vid=e2e624fa-ff10-4b54-ac06-a4108d72337c"},"vehicle_type_id":"4","last_reported":1773769910,"current_range_meters":5600,"station_id":"ce4bgt12rcd13ifvqce0","pricing_plan_id":"cebpf4jnsgd1na2vs0mg"},{"bike_id":"4edc1e69-f919-4c2f-a6b8-66257e87a54f","system_id":"levelo_inurba_marseille","lat":43.2848,"lon":5.48402,"is_reserved":false,"is_disabled":false,"rental_uris":{"android":"levelo://app?vid=4edc1e69-f919-4c2f-a6b8-66257e87a54f","ios":"levelo://app?vid=4edc1e69-f919-4c2f-a6b8-66257e87a54f"},"vehicle_type_id":"4","last_reported":1773769910,"current_range_meters":5600,"station_id":"","pricing_plan_id":"cebpf4jnsgd1na2vs0mg"},{"bike_id":"2b5ab8ce-f918-4b73-9ad3-63d9b277ad08","system_id":"levelo_inurba_marseille","lat":43.30818,"lon":5.38153,"is_reserved":false,"is_disabled":false,"rental_uris":{"android":"levelo://app?vid=2b5ab8ce-f918-4b73-9ad3-63d9b277ad08","ios":"levelo://app?vid=2b5ab8ce-f918-4b73-9ad3-63d9b277ad08"},"vehicle_type_id":"4","last_reported":1773769910,"current_range_meters":6000,"station_id":"ce4bgt12rcd13ifvqce0","pricing_plan_id":"cebpf4jnsgd1na2vs0mg"},{"bike_id":"feaf2e83-6bc7-46d3-b8dc-e52b9fc8cf3e","system_id":"levelo_inurba_marseille","lat":43.22554,"lon":5.41659,"is_reserved":false,"is_disabled":false,"rental_uris":{"android":"levelo://app?vid=feaf2e83-6bc7-46d3-b8dc-e52b9fc8cf3e","ios":"levelo://app?vid=feaf2e83-6bc7-46d3-b8dc-e52b9fc8cf3e"},"vehicle_type_id":"4","last_reported":1773769910,"current_range_meters":6000,"station_id":"st_d2o4gvlbi1j2169b742g","pricing_plan_id":"cebpf4jnsgd1na2vs0mg"},{"bike_id":"03812eec-b185-465c-8c48-7984e651c3d0","system_id":"levelo_inurba_marseille","lat":43.33045,"lon":5.39043,"is_reserved":false,"is_disabled":false,"rental_uris":{"android":"levelo://app?vid=03812eec-b185-465c-8c48-7984e651c3d0","ios":"levelo://app?vid=03812eec-b185-465c-8c48-7984e651c3d0"},"vehicle_type_id":"4","last_reported":1773769910,"current_range_meters":6000,"station_id":"ce4bhr92rcd13ifvqhrg","pricing_plan_id":"cebpf4jnsgd1na2vs0mg"},{"bike_id":"21424fa0-b300-483a-98bc-527ab587fc94","system_id":"levelo_inurba_marseille","lat":43.28368,"lon":5.38637,"is_reserved":false,"is_disabled":false,"rental_uris":{"android":"levelo://app?vid=21424fa0-b300-483a-98bc-527ab587fc94","ios":"levelo://app?vid=21424fa0-b300-483a-98bc-527ab587fc94"},"vehicle_type_id":"4","last_reported":1773769910,"current_range_meters":6000,"station_id":"ce4bh492rcd13ifvqdvg","pricing_plan_id":"cebpf4jnsgd1na2vs0mg"},{"bike_id":"7e6e02a0-d392-46f7-8383-3ab2aaabc8d1","system_id":"levelo_inurba_marseille","lat":43.29886,"lon":5.37466,"is_reserved":false,"is_disabled":false,"rental_uris":{"android":"levelo://app?vid=7e6e02a0-d392-46f7-8383-3ab2aaabc8d1","ios":"levelo://app?vid=7e6e02a0-d392-46f7-8383-3ab2aaabc8d1"},"vehicle_type_id":"4","last_reported":1773769910,"current_range_meters":6000,"station_id":"ce4bgjh2rcd13ifvqbg0","pricing_plan_id":"cebpf4jnsgd1na2vs0mg"},{"bike_id":"83a8f656-029c-44c2-88ac-608ddab3aef1","system_id":"levelo_inurba_marseille","lat":43.29733,"lon":5.36581,"is_reserved":false,"is_disabled":false,"rental_uris":{"android":"levelo://app?vid=83a8f656-029c-44c2-88ac-608ddab3aef1","ios":"levelo://app?vid=83a8f656-029c-44c2-88ac-608ddab3aef1"},"vehicle_type_id":"4","last_reported":1773769910,"current_range_meters":6000,"station_id":"ce4bgn12rcd13ifvqbt0","pricing_plan_id":"cebpf4jnsgd1na2vs0mg"},{"bike_id":"2a394174-fa6b-4212-913a-1ddaad9b7087","system_id":"levelo_inurba_marseille","lat":43.2293,"lon":5.35381,"is_reserved":false,"is_disabled":false,"rental_uris":{"android":"levelo://app?vid=2a394174-fa6b-4212-913a-1ddaad9b7087","ios":"levelo://app?vid=2a394174-fa6b-4212-913a-1ddaad9b7087"},"vehicle_type_id":"4","last_reported":1773769910,"current_range_meters":6000,"station_id":"cpo3532slgdg3j2ikp40","pricing_plan_id":"cebpf4jnsgd1na2vs0mg"},{"bike_id":"851b9b34-1cd7-4c12-8ff5-087c90eaa0e6","system_id":"levelo_inurba_marseille","lat":43.29532,"lon":5.38546,"is_reserved":false,"is_disabled":false,"rental_uris":{"android":"levelo://app?vid=851b9b34-1cd7-4c12-8ff5-087c90eaa0e6","ios":"levelo://app?vid=851b9b34-1cd7-4c12-8ff5-087c90eaa0e6"},"vehicle_type_id":"4","last_reported":1773769910,"current_range_meters":6000,"station_id":"ce4bgih2rcd13ifvqba0","pricing_plan_id":"cebpf4jnsgd1na2vs0mg"},{"bike_id":"3dad20a7-e396-4101-adc6-30f4c7f64d56","system_id":"levelo_inurba_marseille","lat":43.2498,"lon":5.38944,"is_reserved":false,"is_disabled":false,"rental_uris":{"android":"levelo://app?vid=3dad20a7-e396-4101-adc6-30f4c7f64d56","ios":"levelo://app?vid=3dad20a7-e396-4101-adc6-30f4c7f64d56"},"vehicle_type_id":"4","last_reported":1773769910,"current_range_meters":6000,"station_id":"ce4bhgp2rcd13ifvqfd0","pricing_plan_id":"cebpf4jnsgd1na2vs0mg"},{"bike_id":"d6f4fcc9-529e-44c9-8ab1-66a46ec0a2d7","system_id":"levelo_inurba_marseille","lat":43.29658,"lon":5.37461,"is_reserved":false,"is_disabled":false,"rental_uris":{"android":"levelo://app?vid=d6f4fcc9-529e-44c9-8ab1-66a46ec0a2d7","ios":"levelo://app?vid=d6f4fcc9-529e-44c9-8ab1-66a46ec0a2d7"},"vehicle_type_id":"4","last_reported":1773769910,"current_range_meters":6000,"station_id":"","pricing_plan_id":"cebpf4jnsgd1na2vs0mg"},{"bike_id":"06ec2c43-44b3-4cfe-88d2-ce5305ab95e2","system_id":"levelo_inurba_marseille","lat":43.29535,"lon":5.39388,"is_reserved":false,"is_disabled":false,"rental_uris":{"android":"levelo://app?vid=06ec2c43-44b3-4cfe-88d2-ce5305ab95e2","ios":"levelo://app?vid=06ec2c43-44b3-4cfe-88d2-ce5305ab95e2"},"vehicle_type_id":"4","last_reported":1773769910,"current_range_meters":6000,"station_id":"ce4bh292rcd13ifvqdf0","pricing_plan_id":"cebpf4jnsgd1na2vs0mg"},{"bike_id":"69339487-5111-4807-94fa-3252ee1e953f","system_id":"levelo_inurba_marseille","lat":43.27432,"lon":5.3941,"is_reserved":false,"is_disabled":false,"rental_uris":{"android":"levelo://app?vid=69339487-5111-4807-94fa-3252ee1e953f","ios":"levelo://app?vid=69339487-5111-4807-94fa-3252ee1e953f"},"vehicle_type_id":"4","last_reported":1773769910,"current_range_meters":6000,"station_id":"ce4bhdp2rcd13ifvqf20","pricing_plan_id":"cebpf4jnsgd1na2vs0mg"},{"bike_id":"436b2096-9aed-479e-a901-c5b039fb5cd6","system_id":"levelo_inurba_marseille","lat":43.28216,"lon":5.39056,"is_reserved":false,"is_disabled":false,"rental_uris":{"android":"levelo://app?vid=436b2096-9aed-479e-a901-c5b039fb5cd6","ios":"levelo://app?vid=436b2096-9aed-479e-a901-c5b039fb5cd6"},"vehicle_type_id":"4","last_reported":1773769910,"current_range_meters":6000,"station_id":"ce4bhn92rcd13ifvqgsg","pricing_plan_id":"cebpf4jnsgd1na2vs0mg"},{"bike_id":"51d996e3-a5bc-48ea-8645-86831eab9b31","system_id":"levelo_inurba_marseille","lat":43.3043,"lon":5.38881,"is_reserved":false,"is_disabled":false,"rental_uris":{"android":"levelo://app?vid=51d996e3-a5bc-48ea-8645-86831eab9b31","ios":"levelo://app?vid=51d996e3-a5bc-48ea-8645-86831eab9b31"},"vehicle_type_id":"4","last_reported":1773769910,"current_range_meters":6000,"station_id":"ce4bgk12rcd13ifvqbi0","pricing_plan_id":"cebpf4jnsgd1na2vs0mg"},{"bike_id":"f3812c76-1d5b-49de-b637-bb4d0c01c1fa","system_id":"levelo_inurba_marseille","lat":43.23895,"lon":5.37458,"is_reserved":false,"is_disabled":false,"rental_uris":{"android":"levelo://app?vid=f3812c76-1d5b-49de-b637-bb4d0c01c1fa","ios":"levelo://app?vid=f3812c76-1d5b-49de-b637-bb4d0c01c1fa"},"vehicle_type_id":"4","last_reported":1773769910,"current_range_meters":6000,"station_id":"st_d6sm7csbq4hs73f8fpjg","pricing_plan_id":"cebpf4jnsgd1na2vs0mg"},{"bike_id":"7c245f6b-63fb-4c36-8493-afb8fd5288f8","system_id":"levelo_inurba_marseille","lat":43.31186,"lon":5.39076,"is_reserved":false,"is_disabled":false,"rental_uris":{"android":"levelo://app?vid=7c245f6b-63fb-4c36-8493-afb8fd5288f8","ios":"levelo://app?vid=7c245f6b-63fb-4c36-8493-afb8fd5288f8"},"vehicle_type_id":"4","last_reported":1773769910,"current_range_meters":6000,"station_id":"","pricing_plan_id":"cebpf4jnsgd1na2vs0mg"},{"bike_id":"e4b515b3-5a64-4f24-8a63-3407e3500a15","system_id":"levelo_inurba_marseille","lat":43.24316,"lon":5.40216,"is_reserved":false,"is_disabled":false,"rental_uris":{"android":"levelo://app?vid=e4b515b3-5a64-4f24-8a63-3407e3500a15","ios":"levelo://app?vid=e4b515b3-5a64-4f24-8a63-3407e3500a15"},"vehicle_type_id":"4","last_reported":1773769910,"current_range_meters":6000,"station_id":"","pricing_plan_id":"cebpf4jnsgd1na2vs0mg"},{"bike_id":"3df75077-2666-4436-8a3f-a69331f9ce94","system_id":"levelo_inurba_marseille","lat":43.24955,"lon":5.40484,"is_reserved":false,"is_disabled":false,"rental_uris":{"android":"levelo://app?vid=3df75077-2666-4436-8a3f-a69331f9ce94","ios":"levelo://app?vid=3df75077-2666-4436-8a3f-a69331f9ce94"},"vehicle_type_id":"4","last_reported":1773769910,"current_range_meters":6000,"station_id":"st_d2ngiaodas8pm72gd1h0","pricing_plan_id":"cebpf4jnsgd1na2vs0mg"},{"bike_id":"0537519a-bd9d-4e3a-bf84-9151b946a38c","system_id":"levelo_inurba_marseille","lat":43.27556,"lon":5.38424,"is_reserved":false,"is_disabled":false,"rental_uris":{"android":"levelo://app?vid=0537519a-bd9d-4e3a-bf84-9151b946a38c","ios":"levelo://app?vid=0537519a-bd9d-4e3a-bf84-9151b946a38c"},"vehicle_type_id":"4","last_reported":1773769910,"current_range_meters":6400,"station_id":"ce4bhh92rcd13ifvqfi0","pricing_plan_id":"cebpf4jnsgd1na2vs0mg"},{"bike_id":"57f59ea7-9661-484b-ab62-8930e39b76a3","system_id":"levelo_inurba_marseille","lat":43.23798,"lon":5.36621,"is_reserved":false,"is_disabled":false,"rental_uris":{"android":"levelo://app?vid=57f59ea7-9661-484b-ab62-8930e39b76a3","ios":"levelo://app?vid=57f59ea7-9661-484b-ab62-8930e39b76a3"},"vehicle_type_id":"4","last_reported":1773769910,"current_range_meters":6400,"station_id":"st_d3nk18o9ro0c73en2l3g","pricing_plan_id":"cebpf4jnsgd1na2vs0mg"},{"bike_id":"9616cd2e-013f-4260-88a8-63bac565c9fe","system_id":"levelo_inurba_marseille","lat":43.33539,"lon":5.37462,"is_reserved":false,"is_disabled":false,"rental_uris":{"android":"levelo://app?vid=9616cd2e-013f-4260-88a8-63bac565c9fe","ios":"levelo://app?vid=9616cd2e-013f-4260-88a8-63bac565c9fe"},"vehicle_type_id":"4","last_reported":1773769910,"current_range_meters":6400,"station_id":"st_d46tts09ee8s73dlu43g","pricing_plan_id":"cebpf4jnsgd1na2vs0mg"},{"bike_id":"0e5a93db-34a8-45bb-8956-f5180b536ef8","system_id":"levelo_inurba_marseille","lat":43.29166,"lon":5.37156,"is_reserved":false,"is_disabled":false,"rental_uris":{"android":"levelo://app?vid=0e5a93db-34a8-45bb-8956-f5180b536ef8","ios":"levelo://app?vid=0e5a93db-34a8-45bb-8956-f5180b536ef8"},"vehicle_type_id":"4","last_reported":1773769910,"current_range_meters":6400,"station_id":"ce4bha92rcd13ifvqeh0","pricing_plan_id":"cebpf4jnsgd1na2vs0mg"},{"bike_id":"c84865df-58a0-485a-b466-02fb26eb4ff0","system_id":"levelo_inurba_marseille","lat":43.23205,"lon":5.35548,"is_reserved":false,"is_disabled":false,"rental_uris":{"android":"levelo://app?vid=c84865df-58a0-485a-b466-02fb26eb4ff0","ios":"levelo://app?vid=c84865df-58a0-485a-b466-02fb26eb4ff0"},"vehicle_type_id":"4","last_reported":1773769910,"current_range_meters":6400,"station_id":"ce4bhu92rcd13ifvqi70","pricing_plan_id":"cebpf4jnsgd1na2vs0mg"},{"bike_id":"58df6535-2746-4ca5-8ec4-a2736cc7519f","system_id":"levelo_inurba_marseille","lat":43.21197,"lon":5.35068,"is_reserved":false,"is_disabled":false,"rental_uris":{"android":"levelo://app?vid=58df6535-2746-4ca5-8ec4-a2736cc7519f","ios":"levelo://app?vid=58df6535-2746-4ca5-8ec4-a2736cc7519f"},"vehicle_type_id":"4","last_reported":1773769910,"current_range_meters":6400,"station_id":"st_cvj6sg6p6f1abm77japg","pricing_plan_id":"cebpf4jnsgd1na2vs0mg"},{"bike_id":"6483c891-b568-4ab7-b210-eb907249e280","system_id":"levelo_inurba_marseille","lat":43.313576,"lon":5.384941,"is_reserved":false,"is_disabled":false,"rental_uris":{"android":"levelo://app?vid=6483c891-b568-4ab7-b210-eb907249e280","ios":"levelo://app?vid=6483c891-b568-4ab7-b210-eb907249e280"},"vehicle_type_id":"4","last_reported":1773769910,"current_range_meters":6400,"station_id":"ce4bgt92rcd13ifvqcf0","pricing_plan_id":"cebpf4jnsgd1na2vs0mg"},{"bike_id":"5fe453e8-63f8-45b7-a117-7a751d4a202c","system_id":"levelo_inurba_marseille","lat":43.22974,"lon":5.35326,"is_reserved":false,"is_disabled":false,"rental_uris":{"android":"levelo://app?vid=5fe453e8-63f8-45b7-a117-7a751d4a202c","ios":"levelo://app?vid=5fe453e8-63f8-45b7-a117-7a751d4a202c"},"vehicle_type_id":"4","last_reported":1773769910,"current_range_meters":6400,"station_id":"cpo3532slgdg3j2ikp40","pricing_plan_id":"cebpf4jnsgd1na2vs0mg"},{"bike_id":"830c28ad-2cc3-44ac-bbf4-452ee259e261","system_id":"levelo_inurba_marseille","lat":43.25865,"lon":5.39911,"is_reserved":false,"is_disabled":false,"rental_uris":{"android":"levelo://app?vid=830c28ad-2cc3-44ac-bbf4-452ee259e261","ios":"levelo://app?vid=830c28ad-2cc3-44ac-bbf4-452ee259e261"},"vehicle_type_id":"4","last_reported":1773769910,"current_range_meters":6400,"station_id":"ce4bhl92rcd13ifvqghg","pricing_plan_id":"cebpf4jnsgd1na2vs0mg"},{"bike_id":"36bcefea-1744-478b-a4f4-a282d99e8251","system_id":"levelo_inurba_marseille","lat":43.24547,"lon":5.39549,"is_reserved":false,"is_disabled":true,"rental_uris":{"android":"levelo://app?vid=36bcefea-1744-478b-a4f4-a282d99e8251","ios":"levelo://app?vid=36bcefea-1744-478b-a4f4-a282d99e8251"},"vehicle_type_id":"4","last_reported":1773769910,"current_range_meters":6400,"station_id":"ce4bhlp2rcd13ifvqgjg","pricing_plan_id":"cebpf4jnsgd1na2vs0mg"},{"bike_id":"913eeaf6-b6f7-447f-93e5-832b6655360f","system_id":"levelo_inurba_marseille","lat":43.32112,"lon":5.36819,"is_reserved":false,"is_disabled":false,"rental_uris":{"android":"levelo://app?vid=913eeaf6-b6f7-447f-93e5-832b6655360f","ios":"levelo://app?vid=913eeaf6-b6f7-447f-93e5-832b6655360f"},"vehicle_type_id":"4","last_reported":1773769910,"current_range_meters":6400,"station_id":"ce4bhrh2rcd13ifvqhug","pricing_plan_id":"cebpf4jnsgd1na2vs0mg"},{"bike_id":"11815e97-7ff9-4c21-bf30-a5918e7abea8","system_id":"levelo_inurba_marseille","lat":43.28931,"lon":5.38381,"is_reserved":false,"is_disabled":false,"rental_uris":{"android":"levelo://app?vid=11815e97-7ff9-4c21-bf30-a5918e7abea8","ios":"levelo://app?vid=11815e97-7ff9-4c21-bf30-a5918e7abea8"},"vehicle_type_id":"4","last_reported":1773769910,"current_range_meters":6400,"station_id":"ce4bh612rcd13ifvqe6g","pricing_plan_id":"cebpf4jnsgd1na2vs0mg"},{"bike_id":"b91c1346-bd0f-4db4-a66e-854353bcdd51","system_id":"levelo_inurba_marseille","lat":43.29515,"lon":5.39037,"is_reserved":false,"is_disabled":false,"rental_uris":{"android":"levelo://app?vid=b91c1346-bd0f-4db4-a66e-854353bcdd51","ios":"levelo://app?vid=b91c1346-bd0f-4db4-a66e-854353bcdd51"},"vehicle_type_id":"4","last_reported":1773769910,"current_range_meters":6400,"station_id":"ce4bh3p2rcd13ifvqdp0","pricing_plan_id":"cebpf4jnsgd1na2vs0mg"},{"bike_id":"8191304f-a5d9-498a-b999-1b17d3a8f866","system_id":"levelo_inurba_marseille","lat":43.29914,"lon":5.38149,"is_reserved":false,"is_disabled":false,"rental_uris":{"android":"levelo://app?vid=8191304f-a5d9-498a-b999-1b17d3a8f866","ios":"levelo://app?vid=8191304f-a5d9-498a-b999-1b17d3a8f866"},"vehicle_type_id":"4","last_reported":1773769910,"current_range_meters":6400,"station_id":"ce4bgj12rcd13ifvqbc0","pricing_plan_id":"cebpf4jnsgd1na2vs0mg"},{"bike_id":"08eae6d9-bd01-4665-9912-4de92d385c6d","system_id":"levelo_inurba_marseille","lat":43.25508,"lon":5.3766,"is_reserved":false,"is_disabled":false,"rental_uris":{"android":"levelo://app?vid=08eae6d9-bd01-4665-9912-4de92d385c6d","ios":"levelo://app?vid=08eae6d9-bd01-4665-9912-4de92d385c6d"},"vehicle_type_id":"4","last_reported":1773769910,"current_range_meters":6800,"station_id":"ce4bhh12rcd13ifvqff0","pricing_plan_id":"cebpf4jnsgd1na2vs0mg"},{"bike_id":"f6c860f4-9c2e-4a13-b509-50fb1709859b","system_id":"levelo_inurba_marseille","lat":43.21211,"lon":5.35054,"is_reserved":false,"is_disabled":false,"rental_uris":{"android":"levelo://app?vid=f6c860f4-9c2e-4a13-b509-50fb1709859b","ios":"levelo://app?vid=f6c860f4-9c2e-4a13-b509-50fb1709859b"},"vehicle_type_id":"4","last_reported":1773769910,"current_range_meters":6800,"station_id":"st_cvj6sg6p6f1abm77japg","pricing_plan_id":"cebpf4jnsgd1na2vs0mg"},{"bike_id":"4eeecf6d-6108-42a0-b77f-fc0c0b55b73c","system_id":"levelo_inurba_marseille","lat":43.29918,"lon":5.37468,"is_reserved":false,"is_disabled":true,"rental_uris":{"android":"levelo://app?vid=4eeecf6d-6108-42a0-b77f-fc0c0b55b73c","ios":"levelo://app?vid=4eeecf6d-6108-42a0-b77f-fc0c0b55b73c"},"vehicle_type_id":"4","last_reported":1773769910,"current_range_meters":6800,"station_id":"ce4bgjh2rcd13ifvqbg0","pricing_plan_id":"cebpf4jnsgd1na2vs0mg"},{"bike_id":"1d851264-6ba3-48c2-86f6-b84e8d5a0c62","system_id":"levelo_inurba_marseille","lat":43.29176,"lon":5.35805,"is_reserved":false,"is_disabled":true,"rental_uris":{"android":"levelo://app?vid=1d851264-6ba3-48c2-86f6-b84e8d5a0c62","ios":"levelo://app?vid=1d851264-6ba3-48c2-86f6-b84e8d5a0c62"},"vehicle_type_id":"4","last_reported":1773769910,"current_range_meters":6800,"station_id":"ce4bhb12rcd13ifvqel0","pricing_plan_id":"cebpf4jnsgd1na2vs0mg"},{"bike_id":"8afa82e0-443b-485e-812c-b0c0213ccf6b","system_id":"levelo_inurba_marseille","lat":43.29721,"lon":5.37702,"is_reserved":false,"is_disabled":true,"rental_uris":{"android":"levelo://app?vid=8afa82e0-443b-485e-812c-b0c0213ccf6b","ios":"levelo://app?vid=8afa82e0-443b-485e-812c-b0c0213ccf6b"},"vehicle_type_id":"4","last_reported":1773769910,"current_range_meters":6800,"station_id":"ce4bgkh2rcd13ifvqbl0","pricing_plan_id":"cebpf4jnsgd1na2vs0mg"},{"bike_id":"5198e659-e325-4ba2-ae91-6cc8358f39e8","system_id":"levelo_inurba_marseille","lat":43.29524,"lon":5.39024,"is_reserved":false,"is_disabled":false,"rental_uris":{"android":"levelo://app?vid=5198e659-e325-4ba2-ae91-6cc8358f39e8","ios":"levelo://app?vid=5198e659-e325-4ba2-ae91-6cc8358f39e8"},"vehicle_type_id":"4","last_reported":1773769910,"current_range_meters":6800,"station_id":"ce4bh3p2rcd13ifvqdp0","pricing_plan_id":"cebpf4jnsgd1na2vs0mg"},{"bike_id":"636bd2fe-b1d0-4947-a49b-be93611aab94","system_id":"levelo_inurba_marseille","lat":43.23955,"lon":5.36642,"is_reserved":false,"is_disabled":false,"rental_uris":{"android":"levelo://app?vid=636bd2fe-b1d0-4947-a49b-be93611aab94","ios":"levelo://app?vid=636bd2fe-b1d0-4947-a49b-be93611aab94"},"vehicle_type_id":"4","last_reported":1773769910,"current_range_meters":6800,"station_id":"ce4bhi12rcd13ifvqfp0","pricing_plan_id":"cebpf4jnsgd1na2vs0mg"},{"bike_id":"53336338-5141-44ec-bb59-6df2460b79a8","system_id":"levelo_inurba_marseille","lat":43.302,"lon":5.39465,"is_reserved":false,"is_disabled":true,"rental_uris":{"android":"levelo://app?vid=53336338-5141-44ec-bb59-6df2460b79a8","ios":"levelo://app?vid=53336338-5141-44ec-bb59-6df2460b79a8"},"vehicle_type_id":"4","last_reported":1773769910,"current_range_meters":6800,"station_id":"ce4bh0p2rcd13ifvqd70","pricing_plan_id":"cebpf4jnsgd1na2vs0mg"},{"bike_id":"a650f10d-9ab2-42e1-a1ec-b23d66310508","system_id":"levelo_inurba_marseille","lat":43.27354,"lon":5.4239,"is_reserved":false,"is_disabled":true,"rental_uris":{"android":"levelo://app?vid=a650f10d-9ab2-42e1-a1ec-b23d66310508","ios":"levelo://app?vid=a650f10d-9ab2-42e1-a1ec-b23d66310508"},"vehicle_type_id":"4","last_reported":1773769910,"current_range_meters":6800,"station_id":"","pricing_plan_id":"cebpf4jnsgd1na2vs0mg"},{"bike_id":"4e4ba8f7-60dc-4959-9a01-6da668abb084","system_id":"levelo_inurba_marseille","lat":43.21175,"lon":5.35109,"is_reserved":false,"is_disabled":false,"rental_uris":{"android":"levelo://app?vid=4e4ba8f7-60dc-4959-9a01-6da668abb084","ios":"levelo://app?vid=4e4ba8f7-60dc-4959-9a01-6da668abb084"},"vehicle_type_id":"4","last_reported":1773769910,"current_range_meters":6800,"station_id":"st_cvj6sg6p6f1abm77japg","pricing_plan_id":"cebpf4jnsgd1na2vs0mg"},{"bike_id":"34b6bc4b-d28e-4adc-958c-24ac45b0d354","system_id":"levelo_inurba_marseille","lat":43.2861,"lon":5.35115,"is_reserved":false,"is_disabled":false,"rental_uris":{"android":"levelo://app?vid=34b6bc4b-d28e-4adc-958c-24ac45b0d354","ios":"levelo://app?vid=34b6bc4b-d28e-4adc-958c-24ac45b0d354"},"vehicle_type_id":"4","last_reported":1773769910,"current_range_meters":6800,"station_id":"ce4bhch2rcd13ifvqeug","pricing_plan_id":"cebpf4jnsgd1na2vs0mg"},{"bike_id":"e9ac9096-3600-49ff-9775-af2bd2476e63","system_id":"levelo_inurba_marseille","lat":43.30413,"lon":5.41293,"is_reserved":false,"is_disabled":false,"rental_uris":{"android":"levelo://app?vid=e9ac9096-3600-49ff-9775-af2bd2476e63","ios":"levelo://app?vid=e9ac9096-3600-49ff-9775-af2bd2476e63"},"vehicle_type_id":"4","last_reported":1773769910,"current_range_meters":6800,"station_id":"ce4bhop2rcd13ifvqh8g","pricing_plan_id":"cebpf4jnsgd1na2vs0mg"},{"bike_id":"80b42344-1a19-499d-ae09-fe4fc4dc001b","system_id":"levelo_inurba_marseille","lat":43.2808,"lon":5.39654,"is_reserved":false,"is_disabled":false,"rental_uris":{"android":"levelo://app?vid=80b42344-1a19-499d-ae09-fe4fc4dc001b","ios":"levelo://app?vid=80b42344-1a19-499d-ae09-fe4fc4dc001b"},"vehicle_type_id":"4","last_reported":1773769910,"current_range_meters":6800,"station_id":"ce4bho12rcd13ifvqh2g","pricing_plan_id":"cebpf4jnsgd1na2vs0mg"},{"bike_id":"5b7faf29-36cb-44a3-a144-2c945ab9d392","system_id":"levelo_inurba_marseille","lat":43.26682,"lon":5.38271,"is_reserved":false,"is_disabled":false,"rental_uris":{"android":"levelo://app?vid=5b7faf29-36cb-44a3-a144-2c945ab9d392","ios":"levelo://app?vid=5b7faf29-36cb-44a3-a144-2c945ab9d392"},"vehicle_type_id":"4","last_reported":1773769910,"current_range_meters":6800,"station_id":"ce4bhg92rcd13ifvqf90","pricing_plan_id":"cebpf4jnsgd1na2vs0mg"},{"bike_id":"f1020d3e-ade3-42dd-a3c7-bb4d0e0fc17e","system_id":"levelo_inurba_marseille","lat":43.26791,"lon":5.39409,"is_reserved":false,"is_disabled":false,"rental_uris":{"android":"levelo://app?vid=f1020d3e-ade3-42dd-a3c7-bb4d0e0fc17e","ios":"levelo://app?vid=f1020d3e-ade3-42dd-a3c7-bb4d0e0fc17e"},"vehicle_type_id":"4","last_reported":1773769910,"current_range_meters":6800,"station_id":"ce4bhh12rcd13ifvqfg0","pricing_plan_id":"cebpf4jnsgd1na2vs0mg"},{"bike_id":"3ff1583a-465f-487f-bcfc-eb8dfe128196","system_id":"levelo_inurba_marseille","lat":43.2827,"lon":5.35063,"is_reserved":false,"is_disabled":false,"rental_uris":{"android":"levelo://app?vid=3ff1583a-465f-487f-bcfc-eb8dfe128196","ios":"levelo://app?vid=3ff1583a-465f-487f-bcfc-eb8dfe128196"},"vehicle_type_id":"4","last_reported":1773769910,"current_range_meters":6800,"station_id":"ce4bhbp2rcd13ifvqerg","pricing_plan_id":"cebpf4jnsgd1na2vs0mg"},{"bike_id":"aa0ecd1b-8a8f-406f-94fc-b7d404cc8c05","system_id":"levelo_inurba_marseille","lat":43.28464,"lon":5.35877,"is_reserved":false,"is_disabled":false,"rental_uris":{"android":"levelo://app?vid=aa0ecd1b-8a8f-406f-94fc-b7d404cc8c05","ios":"levelo://app?vid=aa0ecd1b-8a8f-406f-94fc-b7d404cc8c05"},"vehicle_type_id":"4","last_reported":1773769910,"current_range_meters":6800,"station_id":"ce4bhah2rcd13ifvqei0","pricing_plan_id":"cebpf4jnsgd1na2vs0mg"},{"bike_id":"5b7e0e94-e466-4db0-96e4-a2f23c4a24dd","system_id":"levelo_inurba_marseille","lat":43.28706,"lon":5.39992,"is_reserved":false,"is_disabled":false,"rental_uris":{"android":"levelo://app?vid=5b7e0e94-e466-4db0-96e4-a2f23c4a24dd","ios":"levelo://app?vid=5b7e0e94-e466-4db0-96e4-a2f23c4a24dd"},"vehicle_type_id":"4","last_reported":1773769910,"current_range_meters":6800,"station_id":"ce4bho92rcd13ifvqh3g","pricing_plan_id":"cebpf4jnsgd1na2vs0mg"},{"bike_id":"abeed13c-c51b-4739-8fd2-4f8ab70d4f2c","system_id":"levelo_inurba_marseille","lat":43.31714,"lon":5.42388,"is_reserved":false,"is_disabled":false,"rental_uris":{"android":"levelo://app?vid=abeed13c-c51b-4739-8fd2-4f8ab70d4f2c","ios":"levelo://app?vid=abeed13c-c51b-4739-8fd2-4f8ab70d4f2c"},"vehicle_type_id":"4","last_reported":1773769910,"current_range_meters":7200,"station_id":"ce4bhp92rcd13ifvqhbg","pricing_plan_id":"cebpf4jnsgd1na2vs0mg"},{"bike_id":"7a73b128-6eb2-47bb-8ea6-432d8e929d53","system_id":"levelo_inurba_marseille","lat":43.29983,"lon":5.4129,"is_reserved":false,"is_disabled":false,"rental_uris":{"android":"levelo://app?vid=7a73b128-6eb2-47bb-8ea6-432d8e929d53","ios":"levelo://app?vid=7a73b128-6eb2-47bb-8ea6-432d8e929d53"},"vehicle_type_id":"4","last_reported":1773769910,"current_range_meters":7200,"station_id":"ce4bhp12rcd13ifvqh9g","pricing_plan_id":"cebpf4jnsgd1na2vs0mg"},{"bike_id":"b5b8b144-cfaf-4287-9933-5469d18ff1ca","system_id":"levelo_inurba_marseille","lat":43.28716,"lon":5.3794,"is_reserved":false,"is_disabled":true,"rental_uris":{"android":"levelo://app?vid=b5b8b144-cfaf-4287-9933-5469d18ff1ca","ios":"levelo://app?vid=b5b8b144-cfaf-4287-9933-5469d18ff1ca"},"vehicle_type_id":"4","last_reported":1773769910,"current_range_meters":7200,"station_id":"ce4bh9p2rcd13ifvqec0","pricing_plan_id":"cebpf4jnsgd1na2vs0mg"},{"bike_id":"32615c50-29e9-42d6-acb9-19bd847574eb","system_id":"levelo_inurba_marseille","lat":43.31706,"lon":5.37732,"is_reserved":false,"is_disabled":false,"rental_uris":{"android":"levelo://app?vid=32615c50-29e9-42d6-acb9-19bd847574eb","ios":"levelo://app?vid=32615c50-29e9-42d6-acb9-19bd847574eb"},"vehicle_type_id":"4","last_reported":1773769910,"current_range_meters":7200,"station_id":"ce4bgth2rcd13ifvqch0","pricing_plan_id":"cebpf4jnsgd1na2vs0mg"},{"bike_id":"3e0f319a-e02b-4b71-90f4-4073ddf42f36","system_id":"levelo_inurba_marseille","lat":43.24664,"lon":5.38146,"is_reserved":false,"is_disabled":false,"rental_uris":{"android":"levelo://app?vid=3e0f319a-e02b-4b71-90f4-4073ddf42f36","ios":"levelo://app?vid=3e0f319a-e02b-4b71-90f4-4073ddf42f36"},"vehicle_type_id":"4","last_reported":1773769910,"current_range_meters":7200,"station_id":"ce4bhih2rcd13ifvqfr0","pricing_plan_id":"cebpf4jnsgd1na2vs0mg"},{"bike_id":"62d503d0-b4c2-474c-bbf9-7a880c81c9f6","system_id":"levelo_inurba_marseille","lat":43.27803,"lon":5.40725,"is_reserved":false,"is_disabled":false,"rental_uris":{"android":"levelo://app?vid=62d503d0-b4c2-474c-bbf9-7a880c81c9f6","ios":"levelo://app?vid=62d503d0-b4c2-474c-bbf9-7a880c81c9f6"},"vehicle_type_id":"4","last_reported":1773769910,"current_range_meters":7200,"station_id":"ce4bhnh2rcd13ifvqgtg","pricing_plan_id":"cebpf4jnsgd1na2vs0mg"},{"bike_id":"ab2125f0-f477-425b-9c9a-e4231f7f002b","system_id":"levelo_inurba_marseille","lat":43.2174,"lon":5.34566,"is_reserved":false,"is_disabled":true,"rental_uris":{"android":"levelo://app?vid=ab2125f0-f477-425b-9c9a-e4231f7f002b","ios":"levelo://app?vid=ab2125f0-f477-425b-9c9a-e4231f7f002b"},"vehicle_type_id":"4","last_reported":1773769910,"current_range_meters":7200,"station_id":"st_cvj6r9ubvosntc0bgbag","pricing_plan_id":"cebpf4jnsgd1na2vs0mg"},{"bike_id":"6c7da26a-6e3c-4915-81a4-435886bc144f","system_id":"levelo_inurba_marseille","lat":43.23186,"lon":5.35569,"is_reserved":false,"is_disabled":false,"rental_uris":{"android":"levelo://app?vid=6c7da26a-6e3c-4915-81a4-435886bc144f","ios":"levelo://app?vid=6c7da26a-6e3c-4915-81a4-435886bc144f"},"vehicle_type_id":"4","last_reported":1773769910,"current_range_meters":7200,"station_id":"ce4bhu92rcd13ifvqi70","pricing_plan_id":"cebpf4jnsgd1na2vs0mg"},{"bike_id":"7f8d128a-820e-44d1-a08d-f6296bcf31da","system_id":"levelo_inurba_marseille","lat":43.30931,"lon":5.40152,"is_reserved":false,"is_disabled":false,"rental_uris":{"android":"levelo://app?vid=7f8d128a-820e-44d1-a08d-f6296bcf31da","ios":"levelo://app?vid=7f8d128a-820e-44d1-a08d-f6296bcf31da"},"vehicle_type_id":"4","last_reported":1773769910,"current_range_meters":7200,"station_id":"ce4bgvp2rcd13ifvqct0","pricing_plan_id":"cebpf4jnsgd1na2vs0mg"},{"bike_id":"0922850f-97f4-4d5f-9c96-79b1b2616092","system_id":"levelo_inurba_marseille","lat":43.29584,"lon":5.37524,"is_reserved":false,"is_disabled":false,"rental_uris":{"android":"levelo://app?vid=0922850f-97f4-4d5f-9c96-79b1b2616092","ios":"levelo://app?vid=0922850f-97f4-4d5f-9c96-79b1b2616092"},"vehicle_type_id":"4","last_reported":1773769910,"current_range_meters":7200,"station_id":"ce4bgh92rcd13ifvqb50","pricing_plan_id":"cebpf4jnsgd1na2vs0mg"},{"bike_id":"600ddbe0-3686-4c99-94a5-57ff1ce9d600","system_id":"levelo_inurba_marseille","lat":43.28108,"lon":5.37835,"is_reserved":false,"is_disabled":false,"rental_uris":{"android":"levelo://app?vid=600ddbe0-3686-4c99-94a5-57ff1ce9d600","ios":"levelo://app?vid=600ddbe0-3686-4c99-94a5-57ff1ce9d600"},"vehicle_type_id":"4","last_reported":1773769910,"current_range_meters":8000,"station_id":"ce4bha12rcd13ifvqee0","pricing_plan_id":"cebpf4jnsgd1na2vs0mg"},{"bike_id":"458f604b-e062-47bf-ac14-a001a31d10d8","system_id":"levelo_inurba_marseille","lat":43.28482,"lon":5.48384,"is_reserved":false,"is_disabled":false,"rental_uris":{"android":"levelo://app?vid=458f604b-e062-47bf-ac14-a001a31d10d8","ios":"levelo://app?vid=458f604b-e062-47bf-ac14-a001a31d10d8"},"vehicle_type_id":"4","last_reported":1773769910,"current_range_meters":8000,"station_id":"","pricing_plan_id":"cebpf4jnsgd1na2vs0mg"},{"bike_id":"2134a193-4b3a-4038-a280-1a0ba6458570","system_id":"levelo_inurba_marseille","lat":43.29808,"lon":5.42129,"is_reserved":false,"is_disabled":false,"rental_uris":{"android":"levelo://app?vid=2134a193-4b3a-4038-a280-1a0ba6458570","ios":"levelo://app?vid=2134a193-4b3a-4038-a280-1a0ba6458570"},"vehicle_type_id":"4","last_reported":1773769910,"current_range_meters":8000,"station_id":"","pricing_plan_id":"cebpf4jnsgd1na2vs0mg"},{"bike_id":"a198b19a-147f-4fb3-822c-608a1d587cb8","system_id":"levelo_inurba_marseille","lat":43.21752,"lon":5.34592,"is_reserved":false,"is_disabled":false,"rental_uris":{"android":"levelo://app?vid=a198b19a-147f-4fb3-822c-608a1d587cb8","ios":"levelo://app?vid=a198b19a-147f-4fb3-822c-608a1d587cb8"},"vehicle_type_id":"4","last_reported":1773769910,"current_range_meters":8000,"station_id":"st_cvj6r9ubvosntc0bgbag","pricing_plan_id":"cebpf4jnsgd1na2vs0mg"},{"bike_id":"256f7956-2797-464b-a029-74b2b3e64209","system_id":"levelo_inurba_marseille","lat":43.30773,"lon":5.37649,"is_reserved":false,"is_disabled":false,"rental_uris":{"android":"levelo://app?vid=256f7956-2797-464b-a029-74b2b3e64209","ios":"levelo://app?vid=256f7956-2797-464b-a029-74b2b3e64209"},"vehicle_type_id":"4","last_reported":1773769910,"current_range_meters":8000,"station_id":"ce4bgv92rcd13ifvqcq0","pricing_plan_id":"cebpf4jnsgd1na2vs0mg"},{"bike_id":"a96c0316-f5ca-4ca5-b6af-fd97a6786995","system_id":"levelo_inurba_marseille","lat":43.31883,"lon":5.40732,"is_reserved":false,"is_disabled":false,"rental_uris":{"android":"levelo://app?vid=a96c0316-f5ca-4ca5-b6af-fd97a6786995","ios":"levelo://app?vid=a96c0316-f5ca-4ca5-b6af-fd97a6786995"},"vehicle_type_id":"4","last_reported":1773769910,"current_range_meters":8000,"station_id":"ce4bhq12rcd13ifvqhig","pricing_plan_id":"cebpf4jnsgd1na2vs0mg"},{"bike_id":"7e372e61-a4a4-4320-b78e-0115edf72ed5","system_id":"levelo_inurba_marseille","lat":43.24167,"lon":5.36411,"is_reserved":false,"is_disabled":true,"rental_uris":{"android":"levelo://app?vid=7e372e61-a4a4-4320-b78e-0115edf72ed5","ios":"levelo://app?vid=7e372e61-a4a4-4320-b78e-0115edf72ed5"},"vehicle_type_id":"4","last_reported":1773769910,"current_range_meters":8000,"station_id":"cpo36qri1sfpv3e86is0","pricing_plan_id":"cebpf4jnsgd1na2vs0mg"},{"bike_id":"8a460624-7f76-4beb-851e-3d2ad8ff9f17","system_id":"levelo_inurba_marseille","lat":43.27816,"lon":5.40716,"is_reserved":false,"is_disabled":false,"rental_uris":{"android":"levelo://app?vid=8a460624-7f76-4beb-851e-3d2ad8ff9f17","ios":"levelo://app?vid=8a460624-7f76-4beb-851e-3d2ad8ff9f17"},"vehicle_type_id":"4","last_reported":1773769910,"current_range_meters":8000,"station_id":"ce4bhnh2rcd13ifvqgtg","pricing_plan_id":"cebpf4jnsgd1na2vs0mg"},{"bike_id":"64e4942c-04ec-475a-8745-de522dcf5faa","system_id":"levelo_inurba_marseille","lat":43.22927,"lon":5.35373,"is_reserved":false,"is_disabled":false,"rental_uris":{"android":"levelo://app?vid=64e4942c-04ec-475a-8745-de522dcf5faa","ios":"levelo://app?vid=64e4942c-04ec-475a-8745-de522dcf5faa"},"vehicle_type_id":"4","last_reported":1773769910,"current_range_meters":8000,"station_id":"cpo3532slgdg3j2ikp40","pricing_plan_id":"cebpf4jnsgd1na2vs0mg"},{"bike_id":"ced659b0-3692-4384-8050-0df20e753f6a","system_id":"levelo_inurba_marseille","lat":43.26206,"lon":5.37432,"is_reserved":false,"is_disabled":false,"rental_uris":{"android":"levelo://app?vid=ced659b0-3692-4384-8050-0df20e753f6a","ios":"levelo://app?vid=ced659b0-3692-4384-8050-0df20e753f6a"},"vehicle_type_id":"4","last_reported":1773769910,"current_range_meters":8000,"station_id":"ce4bhgp2rcd13ifvqfc0","pricing_plan_id":"cebpf4jnsgd1na2vs0mg"},{"bike_id":"d030e03f-081d-4bd2-8917-10cee58512e3","system_id":"levelo_inurba_marseille","lat":43.28626,"lon":5.35119,"is_reserved":false,"is_disabled":false,"rental_uris":{"android":"levelo://app?vid=d030e03f-081d-4bd2-8917-10cee58512e3","ios":"levelo://app?vid=d030e03f-081d-4bd2-8917-10cee58512e3"},"vehicle_type_id":"4","last_reported":1773769910,"current_range_meters":8000,"station_id":"ce4bhch2rcd13ifvqeug","pricing_plan_id":"cebpf4jnsgd1na2vs0mg"},{"bike_id":"5ef3185e-8105-4598-bf6f-a8bb342ec013","system_id":"levelo_inurba_marseille","lat":43.28106,"lon":5.37842,"is_reserved":false,"is_disabled":false,"rental_uris":{"android":"levelo://app?vid=5ef3185e-8105-4598-bf6f-a8bb342ec013","ios":"levelo://app?vid=5ef3185e-8105-4598-bf6f-a8bb342ec013"},"vehicle_type_id":"4","last_reported":1773769910,"current_range_meters":8000,"station_id":"ce4bha12rcd13ifvqee0","pricing_plan_id":"cebpf4jnsgd1na2vs0mg"},{"bike_id":"2a0c70d8-cc17-4849-baf0-956362af22a7","system_id":"levelo_inurba_marseille","lat":43.29782,"lon":5.39342,"is_reserved":false,"is_disabled":false,"rental_uris":{"android":"levelo://app?vid=2a0c70d8-cc17-4849-baf0-956362af22a7","ios":"levelo://app?vid=2a0c70d8-cc17-4849-baf0-956362af22a7"},"vehicle_type_id":"4","last_reported":1773769910,"current_range_meters":8000,"station_id":"chh1huq6cuj3fo74tm60","pricing_plan_id":"cebpf4jnsgd1na2vs0mg"},{"bike_id":"811cb60e-c2e0-4eff-a720-ab1d90d9f80a","system_id":"levelo_inurba_marseille","lat":43.23389,"lon":5.41233,"is_reserved":false,"is_disabled":false,"rental_uris":{"android":"levelo://app?vid=811cb60e-c2e0-4eff-a720-ab1d90d9f80a","ios":"levelo://app?vid=811cb60e-c2e0-4eff-a720-ab1d90d9f80a"},"vehicle_type_id":"4","last_reported":1773769910,"current_range_meters":8000,"station_id":"","pricing_plan_id":"cebpf4jnsgd1na2vs0mg"},{"bike_id":"d4ecde35-e0d2-4987-b05d-aa24386c6d7f","system_id":"levelo_inurba_marseille","lat":43.301801,"lon":5.366026,"is_reserved":false,"is_disabled":false,"rental_uris":{"android":"levelo://app?vid=d4ecde35-e0d2-4987-b05d-aa24386c6d7f","ios":"levelo://app?vid=d4ecde35-e0d2-4987-b05d-aa24386c6d7f"},"vehicle_type_id":"4","last_reported":1773769910,"current_range_meters":8000,"station_id":"ce4bgrh2rcd13ifvqc8g","pricing_plan_id":"cebpf4jnsgd1na2vs0mg"},{"bike_id":"87f91920-65e2-4b63-9a30-e955d3b05156","system_id":"levelo_inurba_marseille","lat":43.28422,"lon":5.34986,"is_reserved":false,"is_disabled":false,"rental_uris":{"android":"levelo://app?vid=87f91920-65e2-4b63-9a30-e955d3b05156","ios":"levelo://app?vid=87f91920-65e2-4b63-9a30-e955d3b05156"},"vehicle_type_id":"4","last_reported":1773769910,"current_range_meters":8000,"station_id":"ce4bhbh2rcd13ifvqepg","pricing_plan_id":"cebpf4jnsgd1na2vs0mg"},{"bike_id":"f894c518-f53d-426d-a252-ac3029b76def","system_id":"levelo_inurba_marseille","lat":43.27565,"lon":5.38403,"is_reserved":false,"is_disabled":false,"rental_uris":{"android":"levelo://app?vid=f894c518-f53d-426d-a252-ac3029b76def","ios":"levelo://app?vid=f894c518-f53d-426d-a252-ac3029b76def"},"vehicle_type_id":"4","last_reported":1773769910,"current_range_meters":8000,"station_id":"ce4bhh92rcd13ifvqfi0","pricing_plan_id":"cebpf4jnsgd1na2vs0mg"},{"bike_id":"adf39b9a-8457-4a82-972f-97d9c75fa4ce","system_id":"levelo_inurba_marseille","lat":43.31872,"lon":5.38406,"is_reserved":false,"is_disabled":false,"rental_uris":{"android":"levelo://app?vid=adf39b9a-8457-4a82-972f-97d9c75fa4ce","ios":"levelo://app?vid=adf39b9a-8457-4a82-972f-97d9c75fa4ce"},"vehicle_type_id":"4","last_reported":1773769910,"current_range_meters":8000,"station_id":"","pricing_plan_id":"cebpf4jnsgd1na2vs0mg"},{"bike_id":"c2c7c530-5d90-493e-bc68-4654d00e1dc7","system_id":"levelo_inurba_marseille","lat":43.25213,"lon":5.40603,"is_reserved":false,"is_disabled":false,"rental_uris":{"android":"levelo://app?vid=c2c7c530-5d90-493e-bc68-4654d00e1dc7","ios":"levelo://app?vid=c2c7c530-5d90-493e-bc68-4654d00e1dc7"},"vehicle_type_id":"4","last_reported":1773769910,"current_range_meters":8000,"station_id":"","pricing_plan_id":"cebpf4jnsgd1na2vs0mg"},{"bike_id":"7d082767-3981-4c82-8ab6-09f6974b7ce1","system_id":"levelo_inurba_marseille","lat":43.31754,"lon":5.39024,"is_reserved":false,"is_disabled":false,"rental_uris":{"android":"levelo://app?vid=7d082767-3981-4c82-8ab6-09f6974b7ce1","ios":"levelo://app?vid=7d082767-3981-4c82-8ab6-09f6974b7ce1"},"vehicle_type_id":"4","last_reported":1773769910,"current_range_meters":8400,"station_id":"ce4bhqp2rcd13ifvqhng","pricing_plan_id":"cebpf4jnsgd1na2vs0mg"},{"bike_id":"7ada2641-316b-4e07-8cf0-f1c79c755356","system_id":"levelo_inurba_marseille","lat":43.24948,"lon":5.4047,"is_reserved":false,"is_disabled":false,"rental_uris":{"android":"levelo://app?vid=7ada2641-316b-4e07-8cf0-f1c79c755356","ios":"levelo://app?vid=7ada2641-316b-4e07-8cf0-f1c79c755356"},"vehicle_type_id":"4","last_reported":1773769910,"current_range_meters":8400,"station_id":"st_d2ngiaodas8pm72gd1h0","pricing_plan_id":"cebpf4jnsgd1na2vs0mg"},{"bike_id":"59bbde46-8f69-4315-8d45-acff8917848c","system_id":"levelo_inurba_marseille","lat":43.28732,"lon":5.35207,"is_reserved":false,"is_disabled":false,"rental_uris":{"android":"levelo://app?vid=59bbde46-8f69-4315-8d45-acff8917848c","ios":"levelo://app?vid=59bbde46-8f69-4315-8d45-acff8917848c"},"vehicle_type_id":"4","last_reported":1773769910,"current_range_meters":8400,"station_id":"","pricing_plan_id":"cebpf4jnsgd1na2vs0mg"},{"bike_id":"3168122d-4708-4175-acea-7ba0c6463a83","system_id":"levelo_inurba_marseille","lat":43.2994,"lon":5.38538,"is_reserved":false,"is_disabled":false,"rental_uris":{"android":"levelo://app?vid=3168122d-4708-4175-acea-7ba0c6463a83","ios":"levelo://app?vid=3168122d-4708-4175-acea-7ba0c6463a83"},"vehicle_type_id":"4","last_reported":1773769910,"current_range_meters":8400,"station_id":"","pricing_plan_id":"cebpf4jnsgd1na2vs0mg"},{"bike_id":"bf6a3964-59b8-4a44-8aea-27ace606ed1b","system_id":"levelo_inurba_marseille","lat":43.27991,"lon":5.40024,"is_reserved":false,"is_disabled":false,"rental_uris":{"android":"levelo://app?vid=bf6a3964-59b8-4a44-8aea-27ace606ed1b","ios":"levelo://app?vid=bf6a3964-59b8-4a44-8aea-27ace606ed1b"},"vehicle_type_id":"4","last_reported":1773769910,"current_range_meters":8400,"station_id":"ce4bho92rcd13ifvqh4g","pricing_plan_id":"cebpf4jnsgd1na2vs0mg"},{"bike_id":"e563383a-8a89-4304-b11f-18268886193e","system_id":"levelo_inurba_marseille","lat":43.25573,"lon":5.3824,"is_reserved":false,"is_disabled":false,"rental_uris":{"android":"levelo://app?vid=e563383a-8a89-4304-b11f-18268886193e","ios":"levelo://app?vid=e563383a-8a89-4304-b11f-18268886193e"},"vehicle_type_id":"4","last_reported":1773769910,"current_range_meters":8400,"station_id":"ce4bhih2rcd13ifvqfs0","pricing_plan_id":"cebpf4jnsgd1na2vs0mg"},{"bike_id":"7d9d7aa8-fbf6-4ec2-9dd9-58e4fbfbf40b","system_id":"levelo_inurba_marseille","lat":43.33732,"lon":5.39182,"is_reserved":false,"is_disabled":false,"rental_uris":{"android":"levelo://app?vid=7d9d7aa8-fbf6-4ec2-9dd9-58e4fbfbf40b","ios":"levelo://app?vid=7d9d7aa8-fbf6-4ec2-9dd9-58e4fbfbf40b"},"vehicle_type_id":"4","last_reported":1773769910,"current_range_meters":8400,"station_id":"ce4bhr92rcd13ifvqhsg","pricing_plan_id":"cebpf4jnsgd1na2vs0mg"},{"bike_id":"145cf909-0a6f-49d8-9ad7-e55b549465ae","system_id":"levelo_inurba_marseille","lat":43.25621,"lon":5.38554,"is_reserved":false,"is_disabled":false,"rental_uris":{"android":"levelo://app?vid=145cf909-0a6f-49d8-9ad7-e55b549465ae","ios":"levelo://app?vid=145cf909-0a6f-49d8-9ad7-e55b549465ae"},"vehicle_type_id":"4","last_reported":1773769910,"current_range_meters":8400,"station_id":"","pricing_plan_id":"cebpf4jnsgd1na2vs0mg"},{"bike_id":"e19bbcec-af9d-483d-ac29-18df3b9c0ab9","system_id":"levelo_inurba_marseille","lat":43.28476,"lon":5.48383,"is_reserved":false,"is_disabled":false,"rental_uris":{"android":"levelo://app?vid=e19bbcec-af9d-483d-ac29-18df3b9c0ab9","ios":"levelo://app?vid=e19bbcec-af9d-483d-ac29-18df3b9c0ab9"},"vehicle_type_id":"4","last_reported":1773769910,"current_range_meters":8400,"station_id":"st_d3svhcjqgbts73a3dn0g","pricing_plan_id":"cebpf4jnsgd1na2vs0mg"},{"bike_id":"f7cad0dd-4929-454b-8848-7575c69435e1","system_id":"levelo_inurba_marseille","lat":43.25833,"lon":5.39972,"is_reserved":false,"is_disabled":true,"rental_uris":{"android":"levelo://app?vid=f7cad0dd-4929-454b-8848-7575c69435e1","ios":"levelo://app?vid=f7cad0dd-4929-454b-8848-7575c69435e1"},"vehicle_type_id":"4","last_reported":1773769910,"current_range_meters":8400,"station_id":"","pricing_plan_id":"cebpf4jnsgd1na2vs0mg"},{"bike_id":"bf249f81-2ef0-45f9-a595-8436dd14fe0c","system_id":"levelo_inurba_marseille","lat":43.32069,"lon":5.36904,"is_reserved":false,"is_disabled":true,"rental_uris":{"android":"levelo://app?vid=bf249f81-2ef0-45f9-a595-8436dd14fe0c","ios":"levelo://app?vid=bf249f81-2ef0-45f9-a595-8436dd14fe0c"},"vehicle_type_id":"4","last_reported":1773769910,"current_range_meters":8400,"station_id":"ce4bhrh2rcd13ifvqhug","pricing_plan_id":"cebpf4jnsgd1na2vs0mg"},{"bike_id":"0de91aa7-85fc-42bc-9d70-ecd803417e08","system_id":"levelo_inurba_marseille","lat":43.2795,"lon":5.41057,"is_reserved":false,"is_disabled":true,"rental_uris":{"android":"levelo://app?vid=0de91aa7-85fc-42bc-9d70-ecd803417e08","ios":"levelo://app?vid=0de91aa7-85fc-42bc-9d70-ecd803417e08"},"vehicle_type_id":"4","last_reported":1773769910,"current_range_meters":8400,"station_id":"ce4bhnp2rcd13ifvqh0g","pricing_plan_id":"cebpf4jnsgd1na2vs0mg"},{"bike_id":"69f9e7d0-9e6e-48d9-8402-311a294217e6","system_id":"levelo_inurba_marseille","lat":43.29371,"lon":5.37854,"is_reserved":false,"is_disabled":true,"rental_uris":{"android":"levelo://app?vid=69f9e7d0-9e6e-48d9-8402-311a294217e6","ios":"levelo://app?vid=69f9e7d0-9e6e-48d9-8402-311a294217e6"},"vehicle_type_id":"4","last_reported":1773769910,"current_range_meters":8400,"station_id":"ce4bgjh2rcd13ifvqbf0","pricing_plan_id":"cebpf4jnsgd1na2vs0mg"},{"bike_id":"0bacd49d-1e82-47d0-b9c4-534513f8cc81","system_id":"levelo_inurba_marseille","lat":43.30947,"lon":5.3905,"is_reserved":false,"is_disabled":true,"rental_uris":{"android":"levelo://app?vid=0bacd49d-1e82-47d0-b9c4-534513f8cc81","ios":"levelo://app?vid=0bacd49d-1e82-47d0-b9c4-534513f8cc81"},"vehicle_type_id":"4","last_reported":1773769910,"current_range_meters":8400,"station_id":"ce4bgup2rcd13ifvqco0","pricing_plan_id":"cebpf4jnsgd1na2vs0mg"},{"bike_id":"7b367197-2c1d-4bf8-bba3-2e7ba22c4a9d","system_id":"levelo_inurba_marseille","lat":43.288601,"lon":5.358611,"is_reserved":false,"is_disabled":false,"rental_uris":{"android":"levelo://app?vid=7b367197-2c1d-4bf8-bba3-2e7ba22c4a9d","ios":"levelo://app?vid=7b367197-2c1d-4bf8-bba3-2e7ba22c4a9d"},"vehicle_type_id":"4","last_reported":1773769910,"current_range_meters":8400,"station_id":"ce4bhb12rcd13ifvqem0","pricing_plan_id":"cebpf4jnsgd1na2vs0mg"},{"bike_id":"0d57a75e-3116-4a60-9321-a39e8ed39aca","system_id":"levelo_inurba_marseille","lat":43.34144,"lon":5.40902,"is_reserved":false,"is_disabled":false,"rental_uris":{"android":"levelo://app?vid=0d57a75e-3116-4a60-9321-a39e8ed39aca","ios":"levelo://app?vid=0d57a75e-3116-4a60-9321-a39e8ed39aca"},"vehicle_type_id":"4","last_reported":1773769910,"current_range_meters":8400,"station_id":"ce4bhqh2rcd13ifvqhlg","pricing_plan_id":"cebpf4jnsgd1na2vs0mg"},{"bike_id":"f8a00c49-c93d-41ce-9f11-d81257ca6394","system_id":"levelo_inurba_marseille","lat":43.22922,"lon":5.35374,"is_reserved":false,"is_disabled":false,"rental_uris":{"android":"levelo://app?vid=f8a00c49-c93d-41ce-9f11-d81257ca6394","ios":"levelo://app?vid=f8a00c49-c93d-41ce-9f11-d81257ca6394"},"vehicle_type_id":"4","last_reported":1773769910,"current_range_meters":8400,"station_id":"cpo3532slgdg3j2ikp40","pricing_plan_id":"cebpf4jnsgd1na2vs0mg"},{"bike_id":"2b6b231e-776f-4984-bc5d-754a797ea476","system_id":"levelo_inurba_marseille","lat":43.23182,"lon":5.39987,"is_reserved":false,"is_disabled":false,"rental_uris":{"android":"levelo://app?vid=2b6b231e-776f-4984-bc5d-754a797ea476","ios":"levelo://app?vid=2b6b231e-776f-4984-bc5d-754a797ea476"},"vehicle_type_id":"4","last_reported":1773769910,"current_range_meters":8400,"station_id":"ce4bhn12rcd13ifvqgqg","pricing_plan_id":"cebpf4jnsgd1na2vs0mg"},{"bike_id":"e00fef88-2abf-45c7-8786-bdc52b793edc","system_id":"levelo_inurba_marseille","lat":43.28424,"lon":5.34988,"is_reserved":false,"is_disabled":false,"rental_uris":{"android":"levelo://app?vid=e00fef88-2abf-45c7-8786-bdc52b793edc","ios":"levelo://app?vid=e00fef88-2abf-45c7-8786-bdc52b793edc"},"vehicle_type_id":"4","last_reported":1773769910,"current_range_meters":8400,"station_id":"ce4bhbh2rcd13ifvqepg","pricing_plan_id":"cebpf4jnsgd1na2vs0mg"},{"bike_id":"b9f2e5d5-d6ac-4c0d-86f2-4fe1a54ef3b3","system_id":"levelo_inurba_marseille","lat":43.32084,"lon":5.3684,"is_reserved":false,"is_disabled":false,"rental_uris":{"android":"levelo://app?vid=b9f2e5d5-d6ac-4c0d-86f2-4fe1a54ef3b3","ios":"levelo://app?vid=b9f2e5d5-d6ac-4c0d-86f2-4fe1a54ef3b3"},"vehicle_type_id":"4","last_reported":1773769910,"current_range_meters":8400,"station_id":"ce4bhrh2rcd13ifvqhug","pricing_plan_id":"cebpf4jnsgd1na2vs0mg"},{"bike_id":"4c1823c1-f75a-4ab1-aa9d-b822b2adc2c5","system_id":"levelo_inurba_marseille","lat":43.3079,"lon":5.38154,"is_reserved":false,"is_disabled":false,"rental_uris":{"android":"levelo://app?vid=4c1823c1-f75a-4ab1-aa9d-b822b2adc2c5","ios":"levelo://app?vid=4c1823c1-f75a-4ab1-aa9d-b822b2adc2c5"},"vehicle_type_id":"4","last_reported":1773769910,"current_range_meters":8400,"station_id":"ce4bgt12rcd13ifvqce0","pricing_plan_id":"cebpf4jnsgd1na2vs0mg"},{"bike_id":"bd306dc7-bd1f-4a1d-8652-3fcb8129a52d","system_id":"levelo_inurba_marseille","lat":43.30794,"lon":5.38173,"is_reserved":false,"is_disabled":false,"rental_uris":{"android":"levelo://app?vid=bd306dc7-bd1f-4a1d-8652-3fcb8129a52d","ios":"levelo://app?vid=bd306dc7-bd1f-4a1d-8652-3fcb8129a52d"},"vehicle_type_id":"4","last_reported":1773769910,"current_range_meters":8800,"station_id":"ce4bgt12rcd13ifvqce0","pricing_plan_id":"cebpf4jnsgd1na2vs0mg"},{"bike_id":"f77d8ba9-0aa6-4584-bbea-10af3fde7148","system_id":"levelo_inurba_marseille","lat":43.24949,"lon":5.40451,"is_reserved":false,"is_disabled":false,"rental_uris":{"android":"levelo://app?vid=f77d8ba9-0aa6-4584-bbea-10af3fde7148","ios":"levelo://app?vid=f77d8ba9-0aa6-4584-bbea-10af3fde7148"},"vehicle_type_id":"4","last_reported":1773769910,"current_range_meters":8800,"station_id":"st_d2ngiaodas8pm72gd1h0","pricing_plan_id":"cebpf4jnsgd1na2vs0mg"},{"bike_id":"97d077a0-074d-4b64-861a-ce3f93eeb328","system_id":"levelo_inurba_marseille","lat":43.2549,"lon":5.37654,"is_reserved":false,"is_disabled":false,"rental_uris":{"android":"levelo://app?vid=97d077a0-074d-4b64-861a-ce3f93eeb328","ios":"levelo://app?vid=97d077a0-074d-4b64-861a-ce3f93eeb328"},"vehicle_type_id":"4","last_reported":1773769910,"current_range_meters":8800,"station_id":"ce4bhh12rcd13ifvqff0","pricing_plan_id":"cebpf4jnsgd1na2vs0mg"},{"bike_id":"0aa81194-5fca-4a70-91c6-3ef30d559635","system_id":"levelo_inurba_marseille","lat":43.2439,"lon":5.3706,"is_reserved":false,"is_disabled":false,"rental_uris":{"android":"levelo://app?vid=0aa81194-5fca-4a70-91c6-3ef30d559635","ios":"levelo://app?vid=0aa81194-5fca-4a70-91c6-3ef30d559635"},"vehicle_type_id":"4","last_reported":1773769910,"current_range_meters":8800,"station_id":"ce4bhhh2rcd13ifvqfk0","pricing_plan_id":"cebpf4jnsgd1na2vs0mg"},{"bike_id":"92026806-dcad-429d-9386-272ef4ddfc7b","system_id":"levelo_inurba_marseille","lat":43.28418,"lon":5.35008,"is_reserved":false,"is_disabled":false,"rental_uris":{"android":"levelo://app?vid=92026806-dcad-429d-9386-272ef4ddfc7b","ios":"levelo://app?vid=92026806-dcad-429d-9386-272ef4ddfc7b"},"vehicle_type_id":"4","last_reported":1773769910,"current_range_meters":8800,"station_id":"ce4bhbh2rcd13ifvqepg","pricing_plan_id":"cebpf4jnsgd1na2vs0mg"},{"bike_id":"901c28db-c015-4313-845b-db71a8b5949f","system_id":"levelo_inurba_marseille","lat":43.24178,"lon":5.39683,"is_reserved":false,"is_disabled":true,"rental_uris":{"android":"levelo://app?vid=901c28db-c015-4313-845b-db71a8b5949f","ios":"levelo://app?vid=901c28db-c015-4313-845b-db71a8b5949f"},"vehicle_type_id":"4","last_reported":1773769910,"current_range_meters":8800,"station_id":"ce4bhn12rcd13ifvqgpg","pricing_plan_id":"cebpf4jnsgd1na2vs0mg"},{"bike_id":"8d300ab6-8728-40c4-878e-acbf37f086a1","system_id":"levelo_inurba_marseille","lat":43.27572,"lon":5.38422,"is_reserved":false,"is_disabled":false,"rental_uris":{"android":"levelo://app?vid=8d300ab6-8728-40c4-878e-acbf37f086a1","ios":"levelo://app?vid=8d300ab6-8728-40c4-878e-acbf37f086a1"},"vehicle_type_id":"4","last_reported":1773769910,"current_range_meters":8800,"station_id":"ce4bhh92rcd13ifvqfi0","pricing_plan_id":"cebpf4jnsgd1na2vs0mg"},{"bike_id":"70f98469-d2c0-43f4-9102-c6ad6fb97bca","system_id":"levelo_inurba_marseille","lat":43.21762,"lon":5.34602,"is_reserved":false,"is_disabled":false,"rental_uris":{"android":"levelo://app?vid=70f98469-d2c0-43f4-9102-c6ad6fb97bca","ios":"levelo://app?vid=70f98469-d2c0-43f4-9102-c6ad6fb97bca"},"vehicle_type_id":"4","last_reported":1773769910,"current_range_meters":8800,"station_id":"st_cvj6r9ubvosntc0bgbag","pricing_plan_id":"cebpf4jnsgd1na2vs0mg"},{"bike_id":"99c37773-1e6c-41f9-9bab-0221676d7bc3","system_id":"levelo_inurba_marseille","lat":43.31328,"lon":5.39704,"is_reserved":false,"is_disabled":false,"rental_uris":{"android":"levelo://app?vid=99c37773-1e6c-41f9-9bab-0221676d7bc3","ios":"levelo://app?vid=99c37773-1e6c-41f9-9bab-0221676d7bc3"},"vehicle_type_id":"4","last_reported":1773769910,"current_range_meters":8800,"station_id":"ce4bgvp2rcd13ifvqcu0","pricing_plan_id":"cebpf4jnsgd1na2vs0mg"},{"bike_id":"ec71f3d8-ca9e-4762-b71a-d827e53109d8","system_id":"levelo_inurba_marseille","lat":43.32069,"lon":5.36854,"is_reserved":false,"is_disabled":false,"rental_uris":{"android":"levelo://app?vid=ec71f3d8-ca9e-4762-b71a-d827e53109d8","ios":"levelo://app?vid=ec71f3d8-ca9e-4762-b71a-d827e53109d8"},"vehicle_type_id":"4","last_reported":1773769910,"current_range_meters":8800,"station_id":"","pricing_plan_id":"cebpf4jnsgd1na2vs0mg"},{"bike_id":"d0501d96-64ea-4b37-ab2b-49862d64980b","system_id":"levelo_inurba_marseille","lat":43.25509,"lon":5.37658,"is_reserved":false,"is_disabled":false,"rental_uris":{"android":"levelo://app?vid=d0501d96-64ea-4b37-ab2b-49862d64980b","ios":"levelo://app?vid=d0501d96-64ea-4b37-ab2b-49862d64980b"},"vehicle_type_id":"4","last_reported":1773769910,"current_range_meters":8800,"station_id":"ce4bhh12rcd13ifvqff0","pricing_plan_id":"cebpf4jnsgd1na2vs0mg"},{"bike_id":"fa904bab-a11e-4df3-b606-b7d7d4276f98","system_id":"levelo_inurba_marseille","lat":43.2975,"lon":5.42765,"is_reserved":false,"is_disabled":false,"rental_uris":{"android":"levelo://app?vid=fa904bab-a11e-4df3-b606-b7d7d4276f98","ios":"levelo://app?vid=fa904bab-a11e-4df3-b606-b7d7d4276f98"},"vehicle_type_id":"4","last_reported":1773769910,"current_range_meters":8800,"station_id":"st_d3md5207bmas73dh9klg","pricing_plan_id":"cebpf4jnsgd1na2vs0mg"},{"bike_id":"988179be-f1f3-4a4f-a448-319d3ea4b27e","system_id":"levelo_inurba_marseille","lat":43.25348,"lon":5.42603,"is_reserved":false,"is_disabled":false,"rental_uris":{"android":"levelo://app?vid=988179be-f1f3-4a4f-a448-319d3ea4b27e","ios":"levelo://app?vid=988179be-f1f3-4a4f-a448-319d3ea4b27e"},"vehicle_type_id":"4","last_reported":1773769910,"current_range_meters":8800,"station_id":"","pricing_plan_id":"cebpf4jnsgd1na2vs0mg"},{"bike_id":"e7bdc220-8a92-4f18-b2a2-95b101509994","system_id":"levelo_inurba_marseille","lat":43.29313,"lon":5.37464,"is_reserved":false,"is_disabled":false,"rental_uris":{"android":"levelo://app?vid=e7bdc220-8a92-4f18-b2a2-95b101509994","ios":"levelo://app?vid=e7bdc220-8a92-4f18-b2a2-95b101509994"},"vehicle_type_id":"4","last_reported":1773769910,"current_range_meters":8800,"station_id":"ce4bgi12rcd13ifvqb70","pricing_plan_id":"cebpf4jnsgd1na2vs0mg"},{"bike_id":"ea3c54d1-5815-4c69-bb20-9e5341681cce","system_id":"levelo_inurba_marseille","lat":43.29744,"lon":5.38038,"is_reserved":false,"is_disabled":true,"rental_uris":{"android":"levelo://app?vid=ea3c54d1-5815-4c69-bb20-9e5341681cce","ios":"levelo://app?vid=ea3c54d1-5815-4c69-bb20-9e5341681cce"},"vehicle_type_id":"4","last_reported":1773769910,"current_range_meters":8800,"station_id":"","pricing_plan_id":"cebpf4jnsgd1na2vs0mg"},{"bike_id":"643281bc-1ddb-4326-b8ee-47c3de73f7fc","system_id":"levelo_inurba_marseille","lat":43.23054,"lon":5.35499,"is_reserved":false,"is_disabled":false,"rental_uris":{"android":"levelo://app?vid=643281bc-1ddb-4326-b8ee-47c3de73f7fc","ios":"levelo://app?vid=643281bc-1ddb-4326-b8ee-47c3de73f7fc"},"vehicle_type_id":"4","last_reported":1773769910,"current_range_meters":8800,"station_id":"cpo3342slgdg3j2ifvpg","pricing_plan_id":"cebpf4jnsgd1na2vs0mg"},