{"last_updated":1731179189,"ttl":60,"version":"2.2","data":{"bikes":[{"bike_id":"dcd8b508-2c18-4839-ab68-7b52cc2d3fb7","system_id":"levelo_inurba_marseille","lat":43.27074,"lon":5.42272,"is_reserved":false,"is_disabled":false,"rental_uris":{"android":"levelo://app?vid=dcd8b508-2c18-4839-ab68-7b52cc2d3fb7","ios":"levelo://app?vid=dcd8b508-2c18-4839-ab68-7b52cc2d3fb7"},"vehicle_type_id":"4","last_reported":1731179189,"current_range_meters":34800,"station_id":"ce4bhk92rcd13ifvqgb0","pricing_plan_id":"cebpf4jnsgd1na2vs0mg"},{"bike_id":"e94e2327-9eaf-4d26-bd7f-903afa708be6","system_id":"levelo_inurba_marseille","lat":43.33788,"lon":5.39184,"is_reserved":false,"is_disabled":false,"rental_uris":{"android":"levelo://app?vid=e94e2327-9eaf-4d26-bd7f-903afa708be6","ios":"levelo://app?vid=e94e2327-9eaf-4d26-bd7f-903afa708be6"},"vehicle_type_id":"4","last_reported":1731179189,"current_range_meters":17600,"station_id":"ce4bhr92rcd13ifvqhsg","pricing_plan_id":"cebpf4jnsgd1na2vs0mg"},{"bike_id":"b0f42332-bc18-4d94-9a5f-fb485178dd42","system_id":"levelo_inurba_marseille","lat":43.31762,"lon":5.39017,"is_reserved":false,"is_disabled":false,"rental_uris":{"android":"levelo://app?vid=b0f42332-bc18-4d94-9a5f-fb485178dd42","ios":"levelo://app?vid=b0f42332-bc18-4d94-9a5f-fb485178dd42"},"vehicle_type_id":"4","last_reported":1731179189,"current_range_meters":16000,"station_id":"ce4bhqp2rcd13ifvqhng","pricing_plan_id":"cebpf4jnsgd1na2vs0mg"},{"bike_id":"ebc2dd38-00f9-4425-8b8d-2f7cbcea7677","system_id":"levelo_inurba_marseille","lat":43.27998,"lon":5.40015,"is_reserved":false,"is_disabled":false,"rental_uris":{"android":"levelo://app?vid=ebc2dd38-00f9-4425-8b8d-2f7cbcea7677","ios":"levelo://app?vid=ebc2dd38-00f9-4425-8b8d-2f7cbcea7677"},"vehicle_type_id":"4","last_reported":1731179189,"current_range_meters":31200,"station_id":"ce4bho92rcd13ifvqh4g","pricing_plan_id":"cebpf4jnsgd1na2vs0mg"},{"bike_id":"8d618ad3-e42f-4b7f-961b-1ad00e2aa17c","system_id":"levelo_inurba_marseille","lat":43.25034,"lon":5.38915,"is_reserved":false,"is_disabled":false,"rental_uris":{"android":"levelo://app?vid=8d618ad3-e42f-4b7f-961b-1ad00e2aa17c","ios":"levelo://app?vid=8d618ad3-e42f-4b7f-961b-1ad00e2aa17c"},"vehicle_type_id":"4","last_reported":1731179189,"current_range_meters":38800,"station_id":"ce4bhgp2rcd13ifvqfd0","pricing_plan_id":"cebpf4jnsgd1na2vs0mg"},{"bike_id":"68bb9078-c705-4e4c-81de-7ae7c7d86c43","system_id":"levelo_inurba_marseille","lat":43.31751,"lon":5.37797,"is_reserved":false,"is_disabled":false,"rental_uris":{"android":"levelo://app?vid=68bb9078-c705-4e4c-81de-7ae7c7d86c43","ios":"levelo://app?vid=68bb9078-c705-4e4c-81de-7ae7c7d86c43"},"vehicle_type_id":"4","last_reported":1731179189,"current_range_meters":27600,"station_id":"ce4bgth2rcd13ifvqch0","pricing_plan_id":"cebpf4jnsgd1na2vs0mg"},{"bike_id":"b1b45304-85de-47be-a140-b98549ece647","system_id":"levelo_inurba_marseille","lat":43.29782,"lon":5.38131,"is_reserved":false,"is_disabled":false,"rental_uris":{"android":"levelo://app?vid=b1b45304-85de-47be-a140-b98549ece647","ios":"levelo://app?vid=b1b45304-85de-47be-a140-b98549ece647"},"vehicle_type_id":"4","last_reported":1731179189,"current_range_meters":32000,"station_id":"ce4bgip2rcd13ifvqbb0","pricing_plan_id":"cebpf4jnsgd1na2vs0mg"},{"bike_id":"db24e85c-0936-4611-aa24-e7280f607250","system_id":"levelo_inurba_marseille","lat":43.2942,"lon":5.38624,"is_reserved":false,"is_disabled":false,"rental_uris":{"android":"levelo://app?vid=db24e85c-0936-4611-aa24-e7280f607250","ios":"levelo://app?vid=db24e85c-0936-4611-aa24-e7280f607250"},"vehicle_type_id":"4","last_reported":1731179189,"current_range_meters":30400,"station_id":"ce4bh2h2rcd13ifvqdh0","pricing_plan_id":"cebpf4jnsgd1na2vs0mg"},{"bike_id":"5daf7e81-adca-4c69-ac49-7439dac41928","system_id":"levelo_inurba_marseille","lat":43.29542,"lon":5.42277,"is_reserved":false,"is_disabled":false,"rental_uris":{"android":"levelo://app?vid=5daf7e81-adca-4c69-ac49-7439dac41928","ios":"levelo://app?vid=5daf7e81-adca-4c69-ac49-7439dac41928"},"vehicle_type_id":"4","last_reported":1731179189,"current_range_meters":39200,"station_id":"ce4bhph2rcd13ifvqhdg","pricing_plan_id":"cebpf4jnsgd1na2vs0mg"},{"bike_id":"fa8f6afd-4b21-451a-993c-cfdf4ba39690","system_id":"levelo_inurba_marseille","lat":43.29054,"lon":5.3717,"is_reserved":false,"is_disabled":false,"rental_uris":{"android":"levelo://app?vid=fa8f6afd-4b21-451a-993c-cfdf4ba39690","ios":"levelo://app?vid=fa8f6afd-4b21-451a-993c-cfdf4ba39690"},"vehicle_type_id":"4","last_reported":1731179189,"current_range_meters":20800,"station_id":"ce4bh5p2rcd13ifvqe4g","pricing_plan_id":"cebpf4jnsgd1na2vs0mg"},{"bike_id":"a1de0c44-354c-4add-9a47-d1cef3fce07c","system_id":"levelo_inurba_marseille","lat":43.29574,"lon":5.39964,"is_reserved":false,"is_disabled":false,"rental_uris":{"android":"levelo://app?vid=a1de0c44-354c-4add-9a47-d1cef3fce07c","ios":"levelo://app?vid=a1de0c44-354c-4add-9a47-d1cef3fce07c"},"vehicle_type_id":"4","last_reported":1731179189,"current_range_meters":19200,"station_id":"ce4bh312rcd13ifvqdj0","pricing_plan_id":"cebpf4jnsgd1na2vs0mg"},{"bike_id":"a7abe6e3-f953-4af0-95a5-fc089acd1e96","system_id":"levelo_inurba_marseille","lat":43.25112,"lon":5.40331,"is_reserved":false,"is_disabled":false,"rental_uris":{"android":"levelo://app?vid=a7abe6e3-f953-4af0-95a5-fc089acd1e96","ios":"levelo://app?vid=a7abe6e3-f953-4af0-95a5-fc089acd1e96"},"vehicle_type_id":"4","last_reported":1731179189,"current_range_meters":38800,"station_id":"ce4bhlh2rcd13ifvqgig","pricing_plan_id":"cebpf4jnsgd1na2vs0mg"},{"bike_id":"ee281710-b833-4ba4-bbb6-f02f639f0345","system_id":"levelo_inurba_marseille","lat":43.287059,"lon":5.373761,"is_reserved":false,"is_disabled":false,"rental_uris":{"android":"levelo://app?vid=ee281710-b833-4ba4-bbb6-f02f639f0345","ios":"levelo://app?vid=ee281710-b833-4ba4-bbb6-f02f639f0345"},"vehicle_type_id":"4","last_reported":1731179189,"current_range_meters":19200,"station_id":"ce4bh3p2rcd13ifvqdq0","pricing_plan_id":"cebpf4jnsgd1na2vs0mg"},{"bike_id":"35aa668a-7e26-4eca-b9e8-a6c609a33e99","system_id":"levelo_inurba_marseille","lat":43.28685,"lon":5.36355,"is_reserved":false,"is_disabled":false,"rental_uris":{"android":"levelo://app?vid=35aa668a-7e26-4eca-b9e8-a6c609a33e99","ios":"levelo://app?vid=35aa668a-7e26-4eca-b9e8-a6c609a33e99"},"vehicle_type_id":"4","last_reported":1731179189,"current_range_meters":38800,"station_id":"ce4bhah2rcd13ifvqej0","pricing_plan_id":"cebpf4jnsgd1na2vs0mg"},{"bike_id":"25a016db-5934-4bcc-b160-867ba2a800ae","system_id":"levelo_inurba_marseille","lat":43.29417,"lon":5.38629,"is_reserved":false,"is_disabled":false,"rental_uris":{"android":"levelo://app?vid=25a016db-5934-4bcc-b160-867ba2a800ae","ios":"levelo://app?vid=25a016db-5934-4bcc-b160-867ba2a800ae"},"vehicle_type_id":"4","last_reported":1731179189,"current_range_meters":26000,"station_id":"ce4bh2h2rcd13ifvqdh0","pricing_plan_id":"cebpf4jnsgd1na2vs0mg"},{"bike_id":"aab8270f-5474-4930-96b3-36dbaf0663ca","system_id":"levelo_inurba_marseille","lat":43.2858,"lon":5.39488,"is_reserved":false,"is_disabled":false,"rental_uris":{"android":"levelo://app?vid=aab8270f-5474-4930-96b3-36dbaf0663ca","ios":"levelo://app?vid=aab8270f-5474-4930-96b3-36dbaf0663ca"},"vehicle_type_id":"4","last_reported":1731179189,"current_range_meters":38800,"station_id":"ce4bh292rcd13ifvqdg0","pricing_plan_id":"cebpf4jnsgd1na2vs0mg"},{"bike_id":"b067ae9b-8f45-4e88-b6f7-faba74e7e1fe","system_id":"levelo_inurba_marseille","lat":43.2501,"lon":5.38927,"is_reserved":false,"is_disabled":false,"rental_uris":{"android":"levelo://app?vid=b067ae9b-8f45-4e88-b6f7-faba74e7e1fe","ios":"levelo://app?vid=b067ae9b-8f45-4e88-b6f7-faba74e7e1fe"},"vehicle_type_id":"4","last_reported":1731179189,"current_range_meters":38800,"station_id":"ce4bhgp2rcd13ifvqfd0","pricing_plan_id":"cebpf4jnsgd1na2vs0mg"},{"bike_id":"9c8602b2-114a-4998-9f43-c023143a7918","system_id":"levelo_inurba_marseille","lat":43.25003,"lon":5.38927,"is_reserved":false,"is_disabled":false,"rental_uris":{"android":"levelo://app?vid=9c8602b2-114a-4998-9f43-c023143a7918","ios":"levelo://app?vid=9c8602b2-114a-4998-9f43-c023143a7918"},"vehicle_type_id":"4","last_reported":1731179189,"current_range_meters":20400,"station_id":"ce4bhgp2rcd13ifvqfd0","pricing_plan_id":"cebpf4jnsgd1na2vs0mg"},{"bike_id":"e4741e83-8d7f-4eba-a939-6b9a195f55bd","system_id":"levelo_inurba_marseille","lat":43.30361,"lon":5.38584,"is_reserved":false,"is_disabled":false,"rental_uris":{"android":"levelo://app?vid=e4741e83-8d7f-4eba-a939-6b9a195f55bd","ios":"levelo://app?vid=e4741e83-8d7f-4eba-a939-6b9a195f55bd"},"vehicle_type_id":"4","last_reported":1731179189,"current_range_meters":25200,"station_id":"","pricing_plan_id":"cebpf4jnsgd1na2vs0mg"},{"bike_id":"3a10c747-fe0a-4d8e-9b92-ec7c1b282c29","system_id":"levelo_inurba_marseille","lat":43.2397,"lon":5.36624,"is_reserved":false,"is_disabled":false,"rental_uris":{"android":"levelo://app?vid=3a10c747-fe0a-4d8e-9b92-ec7c1b282c29","ios":"levelo://app?vid=3a10c747-fe0a-4d8e-9b92-ec7c1b282c29"},"vehicle_type_id":"4","last_reported":1731179189,"current_range_meters":6800,"station_id":"ce4bhi12rcd13ifvqfp0","pricing_plan_id":"cebpf4jnsgd1na2vs0mg"},{"bike_id":"b9dd3f64-d7fc-4baa-82e1-95d09a6c0b85","system_id":"levelo_inurba_marseille","lat":43.30304,"lon":5.39196,"is_reserved":false,"is_disabled":false,"rental_uris":{"android":"levelo://app?vid=b9dd3f64-d7fc-4baa-82e1-95d09a6c0b85","ios":"levelo://app?vid=b9dd3f64-d7fc-4baa-82e1-95d09a6c0b85"},"vehicle_type_id":"4","last_reported":1731179189,"current_range_meters":38800,"station_id":"ce4bgkh2rcd13ifvqbk0","pricing_plan_id":"cebpf4jnsgd1na2vs0mg"},{"bike_id":"c21bbdd4-e4f5-4997-95ba-d9b5aa294fac","system_id":"levelo_inurba_marseille","lat":43.27816,"lon":5.40718,"is_reserved":false,"is_disabled":false,"rental_uris":{"android":"levelo://app?vid=c21bbdd4-e4f5-4997-95ba-d9b5aa294fac","ios":"levelo://app?vid=c21bbdd4-e4f5-4997-95ba-d9b5aa294fac"},"vehicle_type_id":"4","last_reported":1731179189,"current_range_meters":2800,"station_id":"ce4bhnh2rcd13ifvqgtg","pricing_plan_id":"cebpf4jnsgd1na2vs0mg"},{"bike_id":"b9059161-bc2a-4853-8231-de961bd5f1e7","system_id":"levelo_inurba_marseille","lat":43.33742,"lon":5.39179,"is_reserved":false,"is_disabled":false,"rental_uris":{"android":"levelo://app?vid=b9059161-bc2a-4853-8231-de961bd5f1e7","ios":"levelo://app?vid=b9059161-bc2a-4853-8231-de961bd5f1e7"},"vehicle_type_id":"4","last_reported":1731179189,"current_range_meters":21600,"station_id":"ce4bhr92rcd13ifvqhsg","pricing_plan_id":"cebpf4jnsgd1na2vs0mg"},{"bike_id":"7ac36c98-5f7b-4304-a286-ea6f9baa0e94","system_id":"levelo_inurba_marseille","lat":43.24671,"lon":5.38168,"is_reserved":false,"is_disabled":false,"rental_uris":{"android":"levelo://app?vid=7ac36c98-5f7b-4304-a286-ea6f9baa0e94","ios":"levelo://app?vid=7ac36c98-5f7b-4304-a286-ea6f9baa0e94"},"vehicle_type_id":"4","last_reported":1731179189,"current_range_meters":38800,"station_id":"ce4bhih2rcd13ifvqfr0","pricing_plan_id":"cebpf4jnsgd1na2vs0mg"},{"bike_id":"842b65f8-a3af-443b-8d42-37ce5a79ba02","system_id":"levelo_inurba_marseille","lat":43.23969,"lon":5.36623,"is_reserved":false,"is_disabled":false,"rental_uris":{"android":"levelo://app?vid=842b65f8-a3af-443b-8d42-37ce5a79ba02","ios":"levelo://app?vid=842b65f8-a3af-443b-8d42-37ce5a79ba02"},"vehicle_type_id":"4","last_reported":1731179189,"current_range_meters":5600,"station_id":"ce4bhi12rcd13ifvqfp0","pricing_plan_id":"cebpf4jnsgd1na2vs0mg"},{"bike_id":"9e00ae8d-b3a9-4d4b-a691-62debbf0e14c","system_id":"levelo_inurba_marseille","lat":43.23187,"lon":5.39991,"is_reserved":false,"is_disabled":false,"rental_uris":{"android":"levelo://app?vid=9e00ae8d-b3a9-4d4b-a691-62debbf0e14c","ios":"levelo://app?vid=9e00ae8d-b3a9-4d4b-a691-62debbf0e14c"},"vehicle_type_id":"4","last_reported":1731179189,"current_range_meters":38800,"station_id":"ce4bhn12rcd13ifvqgqg","pricing_plan_id":"cebpf4jnsgd1na2vs0mg"},{"bike_id":"3e09356d-842a-4c31-9cc1-46c2d49b70cc","system_id":"levelo_inurba_marseille","lat":43.32363,"lon":5.38883,"is_reserved":false,"is_disabled":false,"rental_uris":{"android":"levelo://app?vid=3e09356d-842a-4c31-9cc1-46c2d49b70cc","ios":"levelo://app?vid=3e09356d-842a-4c31-9cc1-46c2d49b70cc"},"vehicle_type_id":"4","last_reported":1731179189,"current_range_meters":3600,"station_id":"ce4bhqp2rcd13ifvqhog","pricing_plan_id":"cebpf4jnsgd1na2vs0mg"},{"bike_id":"9d060b47-c978-4432-b622-c8056cdba2bd","system_id":"levelo_inurba_marseille","lat":43.27071,"lon":5.42275,"is_reserved":false,"is_disabled":false,"rental_uris":{"android":"levelo://app?vid=9d060b47-c978-4432-b622-c8056cdba2bd","ios":"levelo://app?vid=9d060b47-c978-4432-b622-c8056cdba2bd"},"vehicle_type_id":"4","last_reported":1731179189,"current_range_meters":16000,"station_id":"ce4bhk92rcd13ifvqgb0","pricing_plan_id":"cebpf4jnsgd1na2vs0mg"},{"bike_id":"7f6039b9-3968-4840-8062-3d5a572ce874","system_id":"levelo_inurba_marseille","lat":43.29625,"lon":5.38773,"is_reserved":false,"is_disabled":false,"rental_uris":{"android":"levelo://app?vid=7f6039b9-3968-4840-8062-3d5a572ce874","ios":"levelo://app?vid=7f6039b9-3968-4840-8062-3d5a572ce874"},"vehicle_type_id":"4","last_reported":1731179189,"current_range_meters":36400,"station_id":"","pricing_plan_id":"cebpf4jnsgd1na2vs0mg"},{"bike_id":"6b2fec53-d320-499d-a701-474718b57da0","system_id":"levelo_inurba_marseille","lat":43.24192,"lon":5.3972,"is_reserved":false,"is_disabled":false,"rental_uris":{"android":"levelo://app?vid=6b2fec53-d320-499d-a701-474718b57da0","ios":"levelo://app?vid=6b2fec53-d320-499d-a701-474718b57da0"},"vehicle_type_id":"4","last_reported":1731179189,"current_range_meters":38800,"station_id":"ce4bhn12rcd13ifvqgpg","pricing_plan_id":"cebpf4jnsgd1na2vs0mg"},{"bike_id":"b36dcf13-79e3-4430-9e39-397d9785a2aa","system_id":"levelo_inurba_marseille","lat":43.25116,"lon":5.403259,"is_reserved":false,"is_disabled":false,"rental_uris":{"android":"levelo://app?vid=b36dcf13-79e3-4430-9e39-397d9785a2aa","ios":"levelo://app?vid=b36dcf13-79e3-4430-9e39-397d9785a2aa"},"vehicle_type_id":"4","last_reported":1731179189,"current_range_meters":38400,"station_id":"ce4bhlh2rcd13ifvqgig","pricing_plan_id":"cebpf4jnsgd1na2vs0mg"},{"bike_id":"22c1039a-3f92-4394-9c5d-93bfb30a65e0","system_id":"levelo_inurba_marseille","lat":43.255,"lon":5.37651,"is_reserved":false,"is_disabled":false,"rental_uris":{"android":"levelo://app?vid=22c1039a-3f92-4394-9c5d-93bfb30a65e0","ios":"levelo://app?vid=22c1039a-3f92-4394-9c5d-93bfb30a65e0"},"vehicle_type_id":"4","last_reported":1731179189,"current_range_meters":20000,"station_id":"ce4bhh12rcd13ifvqff0","pricing_plan_id":"cebpf4jnsgd1na2vs0mg"},{"bike_id":"022a6c3f-2c40-4cbf-9753-f6fa44b0f843","system_id":"levelo_inurba_marseille","lat":43.31272,"lon":5.40169,"is_reserved":false,"is_disabled":false,"rental_uris":{"android":"levelo://app?vid=022a6c3f-2c40-4cbf-9753-f6fa44b0f843","ios":"levelo://app?vid=022a6c3f-2c40-4cbf-9753-f6fa44b0f843"},"vehicle_type_id":"4","last_reported":1731179189,"current_range_meters":38000,"station_id":"ce4bh092rcd13ifvqd30","pricing_plan_id":"cebpf4jnsgd1na2vs0mg"},{"bike_id":"f558ea4f-d047-481c-9fbf-d3b1e5bd4e51","system_id":"levelo_inurba_marseille","lat":43.29924,"lon":5.38133,"is_reserved":false,"is_disabled":false,"rental_uris":{"android":"levelo://app?vid=f558ea4f-d047-481c-9fbf-d3b1e5bd4e51","ios":"levelo://app?vid=f558ea4f-d047-481c-9fbf-d3b1e5bd4e51"},"vehicle_type_id":"4","last_reported":1731179189,"current_range_meters":6000,"station_id":"ce4bgj12rcd13ifvqbc0","pricing_plan_id":"cebpf4jnsgd1na2vs0mg"},{"bike_id":"0b1003f5-9f7a-4ce6-832d-c86bfa2fc9d2","system_id":"levelo_inurba_marseille","lat":43.29527,"lon":5.39046,"is_reserved":false,"is_disabled":false,"rental_uris":{"android":"levelo://app?vid=0b1003f5-9f7a-4ce6-832d-c86bfa2fc9d2","ios":"levelo://app?vid=0b1003f5-9f7a-4ce6-832d-c86bfa2fc9d2"},"vehicle_type_id":"4","last_reported":1731179189,"current_range_meters":23200,"station_id":"ce4bh3p2rcd13ifvqdp0","pricing_plan_id":"cebpf4jnsgd1na2vs0mg"},{"bike_id":"7a67f873-1f32-4ab6-9746-623560252c05","system_id":"levelo_inurba_marseille","lat":43.29173,"lon":5.37155,"is_reserved":false,"is_disabled":false,"rental_uris":{"android":"levelo://app?vid=7a67f873-1f32-4ab6-9746-623560252c05","ios":"levelo://app?vid=7a67f873-1f32-4ab6-9746-623560252c05"},"vehicle_type_id":"4","last_reported":1731179189,"current_range_meters":24400,"station_id":"ce4bha92rcd13ifvqeh0","pricing_plan_id":"cebpf4jnsgd1na2vs0mg"},{"bike_id":"f02d1200-952c-40e4-9f6c-736ac33cf164","system_id":"levelo_inurba_marseille","lat":43.24078,"lon":5.3775,"is_reserved":false,"is_disabled":false,"rental_uris":{"android":"levelo://app?vid=f02d1200-952c-40e4-9f6c-736ac33cf164","ios":"levelo://app?vid=f02d1200-952c-40e4-9f6c-736ac33cf164"},"vehicle_type_id":"4","last_reported":1731179189,"current_range_meters":27600,"station_id":"ce4bhnp2rcd13ifvqgvg","pricing_plan_id":"cebpf4jnsgd1na2vs0mg"},{"bike_id":"b1ecee2f-b8b4-4cb1-b1d1-c31d65983a4e","system_id":"levelo_inurba_marseille","lat":43.2961,"lon":5.37716,"is_reserved":false,"is_disabled":false,"rental_uris":{"android":"levelo://app?vid=b1ecee2f-b8b4-4cb1-b1d1-c31d65983a4e","ios":"levelo://app?vid=b1ecee2f-b8b4-4cb1-b1d1-c31d65983a4e"},"vehicle_type_id":"4","last_reported":1731179189,"current_range_meters":33600,"station_id":"ce4bgi92rcd13ifvqb90","pricing_plan_id":"cebpf4jnsgd1na2vs0mg"},{"bike_id":"4e167b6a-95ea-4c5a-b48a-967acf7cdae4","system_id":"levelo_inurba_marseille","lat":43.2942,"lon":5.38624,"is_reserved":false,"is_disabled":false,"rental_uris":{"android":"levelo://app?vid=4e167b6a-95ea-4c5a-b48a-967acf7cdae4","ios":"levelo://app?vid=4e167b6a-95ea-4c5a-b48a-967acf7cdae4"},"vehicle_type_id":"4","last_reported":1731179189,"current_range_meters":38800,"station_id":"ce4bh2h2rcd13ifvqdh0","pricing_plan_id":"cebpf4jnsgd1na2vs0mg"},{"bike_id":"e931dbea-a637-4f2a-b715-63e0aded4802","system_id":"levelo_inurba_marseille","lat":43.31169,"lon":5.38708,"is_reserved":false,"is_disabled":false,"rental_uris":{"android":"levelo://app?vid=e931dbea-a637-4f2a-b715-63e0aded4802","ios":"levelo://app?vid=e931dbea-a637-4f2a-b715-63e0aded4802"},"vehicle_type_id":"4","last_reported":1731179189,"current_range_meters":38800,"station_id":"ce4bgv12rcd13ifvqcp0","pricing_plan_id":"cebpf4jnsgd1na2vs0mg"},{"bike_id":"71bb50a1-6cdb-4a6f-b24c-1cbd7c603ad3","system_id":"levelo_inurba_marseille","lat":43.314336,"lon":5.3741,"is_reserved":false,"is_disabled":false,"rental_uris":{"android":"levelo://app?vid=71bb50a1-6cdb-4a6f-b24c-1cbd7c603ad3","ios":"levelo://app?vid=71bb50a1-6cdb-4a6f-b24c-1cbd7c603ad3"},"vehicle_type_id":"4","last_reported":1731179189,"current_range_meters":26800,"station_id":"","pricing_plan_id":"cebpf4jnsgd1na2vs0mg"},{"bike_id":"c94909dd-e782-4a49-bf66-6d27f36ac2ee","system_id":"levelo_inurba_marseille","lat":43.29658,"lon":5.38087,"is_reserved":false,"is_disabled":false,"rental_uris":{"android":"levelo://app?vid=c94909dd-e782-4a49-bf66-6d27f36ac2ee","ios":"levelo://app?vid=c94909dd-e782-4a49-bf66-6d27f36ac2ee"},"vehicle_type_id":"4","last_reported":1731179189,"current_range_meters":33600,"station_id":"ce4bgl12rcd13ifvqbo0","pricing_plan_id":"cebpf4jnsgd1na2vs0mg"},{"bike_id":"c221efe7-efcb-49b8-a1b0-1dd8d171a453","system_id":"levelo_inurba_marseille","lat":43.337402,"lon":5.392039,"is_reserved":false,"is_disabled":false,"rental_uris":{"android":"levelo://app?vid=c221efe7-efcb-49b8-a1b0-1dd8d171a453","ios":"levelo://app?vid=c221efe7-efcb-49b8-a1b0-1dd8d171a453"},"vehicle_type_id":"4","last_reported":1731179189,"current_range_meters":25200,"station_id":"ce4bhr92rcd13ifvqhsg","pricing_plan_id":"cebpf4jnsgd1na2vs0mg"},{"bike_id":"b8fdd341-0697-41ca-82c9-e4253415f4e6","system_id":"levelo_inurba_marseille","lat":43.23062,"lon":5.35493,"is_reserved":false,"is_disabled":false,"rental_uris":{"android":"levelo://app?vid=b8fdd341-0697-41ca-82c9-e4253415f4e6","ios":"levelo://app?vid=b8fdd341-0697-41ca-82c9-e4253415f4e6"},"vehicle_type_id":"4","last_reported":1731179189,"current_range_meters":30800,"station_id":"cpo3342slgdg3j2ifvpg","pricing_plan_id":"cebpf4jnsgd1na2vs0mg"},{"bike_id":"7753f21c-f445-47ca-a2ff-1eba971742ae","system_id":"levelo_inurba_marseille","lat":43.2909,"lon":5.3814,"is_reserved":false,"is_disabled":false,"rental_uris":{"android":"levelo://app?vid=7753f21c-f445-47ca-a2ff-1eba971742ae","ios":"levelo://app?vid=7753f21c-f445-47ca-a2ff-1eba971742ae"},"vehicle_type_id":"4","last_reported":1731179189,"current_range_meters":8800,"station_id":"ce4bh512rcd13ifvqe2g","pricing_plan_id":"cebpf4jnsgd1na2vs0mg"},{"bike_id":"45222e14-800e-4a81-a088-3aee390adcf8","system_id":"levelo_inurba_marseille","lat":43.31488,"lon":5.37312,"is_reserved":false,"is_disabled":false,"rental_uris":{"android":"levelo://app?vid=45222e14-800e-4a81-a088-3aee390adcf8","ios":"levelo://app?vid=45222e14-800e-4a81-a088-3aee390adcf8"},"vehicle_type_id":"4","last_reported":1731179189,"current_range_meters":12800,"station_id":"ce4bgt12rcd13ifvqcd0","pricing_plan_id":"cebpf4jnsgd1na2vs0mg"},{"bike_id":"293483d6-6326-4561-ab3e-ed615f5625f1","system_id":"levelo_inurba_marseille","lat":43.3044,"lon":5.38887,"is_reserved":false,"is_disabled":false,"rental_uris":{"android":"levelo://app?vid=293483d6-6326-4561-ab3e-ed615f5625f1","ios":"levelo://app?vid=293483d6-6326-4561-ab3e-ed615f5625f1"},"vehicle_type_id":"4","last_reported":1731179189,"current_range_meters":26000,"station_id":"ce4bgk12rcd13ifvqbi0","pricing_plan_id":"cebpf4jnsgd1na2vs0mg"},{"bike_id":"9273fa3f-8051-4693-b481-186e59c04091","system_id":"levelo_inurba_marseille","lat":43.29413,"lon":5.38625,"is_reserved":false,"is_disabled":false,"rental_uris":{"android":"levelo://app?vid=9273fa3f-8051-4693-b481-186e59c04091","ios":"levelo://app?vid=9273fa3f-8051-4693-b481-186e59c04091"},"vehicle_type_id":"4","last_reported":1731179189,"current_range_meters":16800,"station_id":"ce4bh2h2rcd13ifvqdh0","pricing_plan_id":"cebpf4jnsgd1na2vs0mg"},{"bike_id":"b9d0bc02-8b8d-46ee-bb6e-da3b365f1431","system_id":"levelo_inurba_marseille","lat":43.30162,"lon":5.38084,"is_reserved":false,"is_disabled":false,"rental_uris":{"android":"levelo://app?vid=b9d0bc02-8b8d-46ee-bb6e-da3b365f1431","ios":"levelo://app?vid=b9d0bc02-8b8d-46ee-bb6e-da3b365f1431"},"vehicle_type_id":"4","last_reported":1731179189,"current_range_meters":38800,"station_id":"ce4bgjp2rcd13ifvqbh0","pricing_plan_id":"cebpf4jnsgd1na2vs0mg"},{"bike_id":"2c3b7c64-bf43-499e-a0a9-dad9b4ce9c5b","system_id":"levelo_inurba_marseille","lat":43.26503,"lon":5.39546,"is_reserved":false,"is_disabled":false,"rental_uris":{"android":"levelo://app?vid=2c3b7c64-bf43-499e-a0a9-dad9b4ce9c5b","ios":"levelo://app?vid=2c3b7c64-bf43-499e-a0a9-dad9b4ce9c5b"},"vehicle_type_id":"4","last_reported":1731179189,"current_range_meters":38800,"station_id":"ce4bhi12rcd13ifvqfq0","pricing_plan_id":"cebpf4jnsgd1na2vs0mg"},{"bike_id":"17865758-ce74-473a-8a77-e9f2f25c0736","system_id":"levelo_inurba_marseille","lat":43.26585,"lon":5.37272,"is_reserved":false,"is_disabled":false,"rental_uris":{"android":"levelo://app?vid=17865758-ce74-473a-8a77-e9f2f25c0736","ios":"levelo://app?vid=17865758-ce74-473a-8a77-e9f2f25c0736"},"vehicle_type_id":"4","last_reported":1731179189,"current_range_meters":29600,"station_id":"ce4bhg12rcd13ifvqf70","pricing_plan_id":"cebpf4jnsgd1na2vs0mg"},{"bike_id":"45da62df-7f80-44a3-ba8e-1acd781a5f69","system_id":"levelo_inurba_marseille","lat":43.2956,"lon":5.42291,"is_reserved":false,"is_disabled":false,"rental_uris":{"android":"levelo://app?vid=45da62df-7f80-44a3-ba8e-1acd781a5f69","ios":"levelo://app?vid=45da62df-7f80-44a3-ba8e-1acd781a5f69"},"vehicle_type_id":"4","last_reported":1731179189,"current_range_meters":28000,"station_id":"ce4bhph2rcd13ifvqhdg","pricing_plan_id":"cebpf4jnsgd1na2vs0mg"},{"bike_id":"2972f759-c98e-4fe7-9758-85d215895273","system_id":"levelo_inurba_marseille","lat":43.23964,"lon":5.36627,"is_reserved":false,"is_disabled":false,"rental_uris":{"android":"levelo://app?vid=2972f759-c98e-4fe7-9758-85d215895273","ios":"levelo://app?vid=2972f759-c98e-4fe7-9758-85d215895273"},"vehicle_type_id":"4","last_reported":1731179189,"current_range_meters":38800,"station_id":"ce4bhi12rcd13ifvqfp0","pricing_plan_id":"cebpf4jnsgd1na2vs0mg"},{"bike_id":"747e263b-466b-45c4-800a-8b400c68a74d","system_id":"levelo_inurba_marseille","lat":43.27073,"lon":5.42278,"is_reserved":false,"is_disabled":false,"rental_uris":{"android":"levelo://app?vid=747e263b-466b-45c4-800a-8b400c68a74d","ios":"levelo://app?vid=747e263b-466b-45c4-800a-8b400c68a74d"},"vehicle_type_id":"4","last_reported":1731179189,"current_range_meters":2000,"station_id":"ce4bhk92rcd13ifvqgb0","pricing_plan_id":"cebpf4jnsgd1na2vs0mg"},{"bike_id":"010d3bc6-1da9-4e2e-9558-6436a5780c21","system_id":"levelo_inurba_marseille","lat":43.23197,"lon":5.35551,"is_reserved":false,"is_disabled":false,"rental_uris":{"android":"levelo://app?vid=010d3bc6-1da9-4e2e-9558-6436a5780c21","ios":"levelo://app?vid=010d3bc6-1da9-4e2e-9558-6436a5780c21"},"vehicle_type_id":"4","last_reported":1731179189,"current_range_meters":38800,"station_id":"ce4bhu92rcd13ifvqi70","pricing_plan_id":"cebpf4jnsgd1na2vs0mg"},{"bike_id":"28acf4d1-0edc-4a45-92ff-eda81eb156d1","system_id":"levelo_inurba_marseille","lat":43.29281,"lon":5.40125,"is_reserved":false,"is_disabled":false,"rental_uris":{"android":"levelo://app?vid=28acf4d1-0edc-4a45-92ff-eda81eb156d1","ios":"levelo://app?vid=28acf4d1-0edc-4a45-92ff-eda81eb156d1"},"vehicle_type_id":"4","last_reported":1731179189,"current_range_meters":36400,"station_id":"ce4bh312rcd13ifvqdk0","pricing_plan_id":"cebpf4jnsgd1na2vs0mg"},{"bike_id":"7e61b767-2b53-4323-b6fe-a0f8c71399cb","system_id":"levelo_inurba_marseille","lat":43.311181,"lon":5.377726,"is_reserved":false,"is_disabled":false,"rental_uris":{"android":"levelo://app?vid=7e61b767-2b53-4323-b6fe-a0f8c71399cb","ios":"levelo://app?vid=7e61b767-2b53-4323-b6fe-a0f8c71399cb"},"vehicle_type_id":"4","last_reported":1731179189,"current_range_meters":38800,"station_id":"ce4bgt92rcd13ifvqcg0","pricing_plan_id":"cebpf4jnsgd1na2vs0mg"},{"bike_id":"2aa491d1-ca5b-443c-a1f2-c27d6d489eac","system_id":"levelo_inurba_marseille","lat":43.29202,"lon":5.39323,"is_reserved":false,"is_disabled":false,"rental_uris":{"android":"levelo://app?vid=2aa491d1-ca5b-443c-a1f2-c27d6d489eac","ios":"levelo://app?vid=2aa491d1-ca5b-443c-a1f2-c27d6d489eac"},"vehicle_type_id":"4","last_reported":1731179189,"current_range_meters":20000,"station_id":"ce4bh192rcd13ifvqdd0","pricing_plan_id":"cebpf4jnsgd1na2vs0mg"},{"bike_id":"0ed8952c-96d0-44f2-9ffa-695b83dc2352","system_id":"levelo_inurba_marseille","lat":43.24666,"lon":5.38158,"is_reserved":false,"is_disabled":false,"rental_uris":{"android":"levelo://app?vid=0ed8952c-96d0-44f2-9ffa-695b83dc2352","ios":"levelo://app?vid=0ed8952c-96d0-44f2-9ffa-695b83dc2352"},"vehicle_type_id":"4","last_reported":1731179189,"current_range_meters":38000,"station_id":"ce4bhih2rcd13ifvqfr0","pricing_plan_id":"cebpf4jnsgd1na2vs0mg"},{"bike_id":"7412918f-e852-4734-ac8b-c4b5d62b6217","system_id":"levelo_inurba_marseille","lat":43.3137,"lon":5.38503,"is_reserved":false,"is_disabled":false,"rental_uris":{"android":"levelo://app?vid=7412918f-e852-4734-ac8b-c4b5d62b6217","ios":"levelo://app?vid=7412918f-e852-4734-ac8b-c4b5d62b6217"},"vehicle_type_id":"4","last_reported":1731179189,"current_range_meters":19600,"station_id":"ce4bgt92rcd13ifvqcf0","pricing_plan_id":"cebpf4jnsgd1na2vs0mg"},{"bike_id":"2ad361b6-540e-4873-9e5b-6b5de9b52523","system_id":"levelo_inurba_marseille","lat":43.23963,"lon":5.36622,"is_reserved":false,"is_disabled":false,"rental_uris":{"android":"levelo://app?vid=2ad361b6-540e-4873-9e5b-6b5de9b52523","ios":"levelo://app?vid=2ad361b6-540e-4873-9e5b-6b5de9b52523"},"vehicle_type_id":"4","last_reported":1731179189,"current_range_meters":6400,"station_id":"ce4bhi12rcd13ifvqfp0","pricing_plan_id":"cebpf4jnsgd1na2vs0mg"},{"bike_id":"3d8e5253-69c9-43ea-a8be-c8d7dd98a4fe","system_id":"levelo_inurba_marseille","lat":43.29575,"lon":5.39977,"is_reserved":false,"is_disabled":false,"rental_uris":{"android":"levelo://app?vid=3d8e5253-69c9-43ea-a8be-c8d7dd98a4fe","ios":"levelo://app?vid=3d8e5253-69c9-43ea-a8be-c8d7dd98a4fe"},"vehicle_type_id":"4","last_reported":1731179189,"current_range_meters":3200,"station_id":"ce4bh312rcd13ifvqdj0","pricing_plan_id":"cebpf4jnsgd1na2vs0mg"},{"bike_id":"1f8e645f-460b-4bc9-aa03-bda56803cefa","system_id":"levelo_inurba_marseille","lat":43.29278,"lon":5.40142,"is_reserved":false,"is_disabled":false,"rental_uris":{"android":"levelo://app?vid=1f8e645f-460b-4bc9-aa03-bda56803cefa","ios":"levelo://app?vid=1f8e645f-460b-4bc9-aa03-bda56803cefa"},"vehicle_type_id":"4","last_reported":1731179189,"current_range_meters":2800,"station_id":"ce4bh312rcd13ifvqdk0","pricing_plan_id":"cebpf4jnsgd1na2vs0mg"},{"bike_id":"cb9b0141-af3c-4068-925c-38c2867ded80","system_id":"levelo_inurba_marseille","lat":43.27375,"lon":5.36249,"is_reserved":false,"is_disabled":false,"rental_uris":{"android":"levelo://app?vid=cb9b0141-af3c-4068-925c-38c2867ded80","ios":"levelo://app?vid=cb9b0141-af3c-4068-925c-38c2867ded80"},"vehicle_type_id":"4","last_reported":1731179189,"current_range_meters":13600,"station_id":"ce4bhbh2rcd13ifvqeo0","pricing_plan_id":"cebpf4jnsgd1na2vs0mg"},{"bike_id":"3f3b4e34-63c4-4ff0-8df0-289a2e6bd500","system_id":"levelo_inurba_marseille","lat":43.23184,"lon":5.39987,"is_reserved":false,"is_disabled":false,"rental_uris":{"android":"levelo://app?vid=3f3b4e34-63c4-4ff0-8df0-289a2e6bd500","ios":"levelo://app?vid=3f3b4e34-63c4-4ff0-8df0-289a2e6bd500"},"vehicle_type_id":"4","last_reported":1731179189,"current_range_meters":16800,"station_id":"ce4bhn12rcd13ifvqgqg","pricing_plan_id":"cebpf4jnsgd1na2vs0mg"},{"bike_id":"39f17349-ada4-4402-b2d4-f4683db56d2d","system_id":"levelo_inurba_marseille","lat":43.27497,"lon":5.4245,"is_reserved":false,"is_disabled":false,"rental_uris":{"android":"levelo://app?vid=39f17349-ada4-4402-b2d4-f4683db56d2d","ios":"levelo://app?vid=39f17349-ada4-4402-b2d4-f4683db56d2d"},"vehicle_type_id":"4","last_reported":1731179189,"current_range_meters":38400,"station_id":"ce4bhn92rcd13ifvqgrg","pricing_plan_id":"cebpf4jnsgd1na2vs0mg"},{"bike_id":"90960903-6332-423a-a484-6d60489c5254","system_id":"levelo_inurba_marseille","lat":43.29266,"lon":5.38447,"is_reserved":false,"is_disabled":false,"rental_uris":{"android":"levelo://app?vid=90960903-6332-423a-a484-6d60489c5254","ios":"levelo://app?vid=90960903-6332-423a-a484-6d60489c5254"},"vehicle_type_id":"4","last_reported":1731179189,"current_range_meters":23200,"station_id":"ce4bh692rcd13ifvqea0","pricing_plan_id":"cebpf4jnsgd1na2vs0mg"},{"bike_id":"b9478b1d-79e3-44c9-ae60-496dd5151f62","system_id":"levelo_inurba_marseille","lat":43.29172,"lon":5.37143,"is_reserved":false,"is_disabled":false,"rental_uris":{"android":"levelo://app?vid=b9478b1d-79e3-44c9-ae60-496dd5151f62","ios":"levelo://app?vid=b9478b1d-79e3-44c9-ae60-496dd5151f62"},"vehicle_type_id":"4","last_reported":1731179189,"current_range_meters":36000,"station_id":"ce4bha92rcd13ifvqeh0","pricing_plan_id":"cebpf4jnsgd1na2vs0mg"},{"bike_id":"b0ddf9b4-5e10-4df8-a49e-eaf62a5f5034","system_id":"levelo_inurba_marseille","lat":43.30146,"lon":5.38078,"is_reserved":false,"is_disabled":false,"rental_uris":{"android":"levelo://app?vid=b0ddf9b4-5e10-4df8-a49e-eaf62a5f5034","ios":"levelo://app?vid=b0ddf9b4-5e10-4df8-a49e-eaf62a5f5034"},"vehicle_type_id":"4","last_reported":1731179189,"current_range_meters":28400,"station_id":"ce4bgjp2rcd13ifvqbh0","pricing_plan_id":"cebpf4jnsgd1na2vs0mg"},{"bike_id":"4204c697-9142-4d6f-a64b-20f319f8c9a7","system_id":"levelo_inurba_marseille","lat":43.2707,"lon":5.42274,"is_reserved":false,"is_disabled":false,"rental_uris":{"android":"levelo://app?vid=4204c697-9142-4d6f-a64b-20f319f8c9a7","ios":"levelo://app?vid=4204c697-9142-4d6f-a64b-20f319f8c9a7"},"vehicle_type_id":"4","last_reported":1731179189,"current_range_meters":12400,"station_id":"ce4bhk92rcd13ifvqgb0","pricing_plan_id":"cebpf4jnsgd1na2vs0mg"},{"bike_id":"be64923b-9a6b-4619-89ba-5854a132c672","system_id":"levelo_inurba_marseille","lat":43.26809,"lon":5.4027,"is_reserved":false,"is_disabled":false,"rental_uris":{"android":"levelo://app?vid=be64923b-9a6b-4619-89ba-5854a132c672","ios":"levelo://app?vid=be64923b-9a6b-4619-89ba-5854a132c672"},"vehicle_type_id":"4","last_reported":1731179189,"current_range_meters":10800,"station_id":"ce501612rcd8frsf0b60","pricing_plan_id":"cebpf4jnsgd1na2vs0mg"},{"bike_id":"9d71180f-49c8-43b8-bb0b-e7c6d557ce2d","system_id":"levelo_inurba_marseille","lat":43.30207,"lon":5.39465,"is_reserved":false,"is_disabled":false,"rental_uris":{"android":"levelo://app?vid=9d71180f-49c8-43b8-bb0b-e7c6d557ce2d","ios":"levelo://app?vid=9d71180f-49c8-43b8-bb0b-e7c6d557ce2d"},"vehicle_type_id":"4","last_reported":1731179189,"current_range_meters":38800,"station_id":"ce4bh0p2rcd13ifvqd70","pricing_plan_id":"cebpf4jnsgd1na2vs0mg"},{"bike_id":"de15f00a-25b1-4b9b-a102-3b4e4c3a83ba","system_id":"levelo_inurba_marseille","lat":43.3016,"lon":5.38085,"is_reserved":false,"is_disabled":false,"rental_uris":{"android":"levelo://app?vid=de15f00a-25b1-4b9b-a102-3b4e4c3a83ba","ios":"levelo://app?vid=de15f00a-25b1-4b9b-a102-3b4e4c3a83ba"},"vehicle_type_id":"4","last_reported":1731179189,"current_range_meters":28800,"station_id":"ce4bgjp2rcd13ifvqbh0","pricing_plan_id":"cebpf4jnsgd1na2vs0mg"},{"bike_id":"4f8f3d05-77a1-4608-a529-e5ae940296cc","system_id":"levelo_inurba_marseille","lat":43.28938,"lon":5.36634,"is_reserved":false,"is_disabled":false,"rental_uris":{"android":"levelo://app?vid=4f8f3d05-77a1-4608-a529-e5ae940296cc","ios":"levelo://app?vid=4f8f3d05-77a1-4608-a529-e5ae940296cc"},"vehicle_type_id":"4","last_reported":1731179189,"current_range_meters":24400,"station_id":"ce4bhap2rcd13ifvqek0","pricing_plan_id":"cebpf4jnsgd1na2vs0mg"},{"bike_id":"a724b684-f414-44c6-9522-25283fbe63ae","system_id":"levelo_inurba_marseille","lat":43.30893,"lon":5.39632,"is_reserved":false,"is_disabled":false,"rental_uris":{"android":"levelo://app?vid=a724b684-f414-44c6-9522-25283fbe63ae","ios":"levelo://app?vid=a724b684-f414-44c6-9522-25283fbe63ae"},"vehicle_type_id":"4","last_reported":1731179189,"current_range_meters":17200,"station_id":"ce4bh012rcd13ifvqcv0","pricing_plan_id":"cebpf4jnsgd1na2vs0mg"},{"bike_id":"71c19fdb-8f4d-41db-8667-87fe8ca83f13","system_id":"levelo_inurba_marseille","lat":43.28619,"lon":5.35107,"is_reserved":false,"is_disabled":false,"rental_uris":{"android":"levelo://app?vid=71c19fdb-8f4d-41db-8667-87fe8ca83f13","ios":"levelo://app?vid=71c19fdb-8f4d-41db-8667-87fe8ca83f13"},"vehicle_type_id":"4","last_reported":1731179189,"current_range_meters":24400,"station_id":"ce4bhch2rcd13ifvqeug","pricing_plan_id":"cebpf4jnsgd1na2vs0mg"},{"bike_id":"9a23734e-d78f-4570-ac93-276040298589","system_id":"levelo_inurba_marseille","lat":43.25128,"lon":5.40323,"is_reserved":false,"is_disabled":false,"rental_uris":{"android":"levelo://app?vid=9a23734e-d78f-4570-ac93-276040298589","ios":"levelo://app?vid=9a23734e-d78f-4570-ac93-276040298589"},"vehicle_type_id":"4","last_reported":1731179189,"current_range_meters":38800,"station_id":"ce4bhlh2rcd13ifvqgig","pricing_plan_id":"cebpf4jnsgd1na2vs0mg"},{"bike_id":"b4de7b9a-6515-49e3-b4f0-3d8149400129","system_id":"levelo_inurba_marseille","lat":43.30155,"lon":5.38093,"is_reserved":false,"is_disabled":false,"rental_uris":{"android":"levelo://app?vid=b4de7b9a-6515-49e3-b4f0-3d8149400129","ios":"levelo://app?vid=b4de7b9a-6515-49e3-b4f0-3d8149400129"},"vehicle_type_id":"4","last_reported":1731179189,"current_range_meters":35600,"station_id":"ce4bgjp2rcd13ifvqbh0","pricing_plan_id":"cebpf4jnsgd1na2vs0mg"},{"bike_id":"7971be5a-124a-42b5-ace4-f4d39e23f27f","system_id":"levelo_inurba_marseille","lat":43.289948,"lon":5.378349,"is_reserved":false,"is_disabled":false,"rental_uris":{"android":"levelo://app?vid=7971be5a-124a-42b5-ace4-f4d39e23f27f","ios":"levelo://app?vid=7971be5a-124a-42b5-ace4-f4d39e23f27f"},"vehicle_type_id":"4","last_reported":1731179189,"current_range_meters":38800,"station_id":"ce4bh9p2rcd13ifvqed0","pricing_plan_id":"cebpf4jnsgd1na2vs0mg"},{"bike_id":"ef288286-229d-4b9a-a189-8d61840dcffb","system_id":"levelo_inurba_marseille","lat":43.23198,"lon":5.35561,"is_reserved":false,"is_disabled":false,"rental_uris":{"android":"levelo://app?vid=ef288286-229d-4b9a-a189-8d61840dcffb","ios":"levelo://app?vid=ef288286-229d-4b9a-a189-8d61840dcffb"},"vehicle_type_id":"4","last_reported":1731179189,"current_range_meters":32400,"station_id":"ce4bhu92rcd13ifvqi70","pricing_plan_id":"cebpf4jnsgd1na2vs0mg"},{"bike_id":"ade02049-555f-434e-b0cb-c9384ff56253","system_id":"levelo_inurba_marseille","lat":43.23967,"lon":5.36637,"is_reserved":false,"is_disabled":false,"rental_uris":{"android":"levelo://app?vid=ade02049-555f-434e-b0cb-c9384ff56253","ios":"levelo://app?vid=ade02049-555f-434e-b0cb-c9384ff56253"},"vehicle_type_id":"4","last_reported":1731179189,"current_range_meters":26000,"station_id":"ce4bhi12rcd13ifvqfp0","pricing_plan_id":"cebpf4jnsgd1na2vs0mg"},{"bike_id":"3d9b139f-892f-4a65-8af4-ba94c0ead80d","system_id":"levelo_inurba_marseille","lat":43.32659,"lon":5.40994,"is_reserved":false,"is_disabled":false,"rental_uris":{"android":"levelo://app?vid=3d9b139f-892f-4a65-8af4-ba94c0ead80d","ios":"levelo://app?vid=3d9b139f-892f-4a65-8af4-ba94c0ead80d"},"vehicle_type_id":"4","last_reported":1731179189,"current_range_meters":38800,"station_id":"ce4bhpp2rcd13ifvqhgg","pricing_plan_id":"cebpf4jnsgd1na2vs0mg"},{"bike_id":"66996a9f-b0d6-4321-b58b-f77b066950c5","system_id":"levelo_inurba_marseille","lat":43.29525,"lon":5.39049,"is_reserved":false,"is_disabled":false,"rental_uris":{"android":"levelo://app?vid=66996a9f-b0d6-4321-b58b-f77b066950c5","ios":"levelo://app?vid=66996a9f-b0d6-4321-b58b-f77b066950c5"},"vehicle_type_id":"4","last_reported":1731179189,"current_range_meters":38000,"station_id":"ce4bh3p2rcd13ifvqdp0","pricing_plan_id":"cebpf4jnsgd1na2vs0mg"},{"bike_id":"6f76449d-646d-4ed9-8122-d2c90253ec40","system_id":"levelo_inurba_marseille","lat":43.26795,"lon":5.39415,"is_reserved":false,"is_disabled":false,"rental_uris":{"android":"levelo://app?vid=6f76449d-646d-4ed9-8122-d2c90253ec40","ios":"levelo://app?vid=6f76449d-646d-4ed9-8122-d2c90253ec40"},"vehicle_type_id":"4","last_reported":1731179189,"current_range_meters":38800,"station_id":"ce4bhh12rcd13ifvqfg0","pricing_plan_id":"cebpf4jnsgd1na2vs0mg"},{"bike_id":"1b273681-a149-4b44-af0d-27ca962351bc","system_id":"levelo_inurba_marseille","lat":43.29966,"lon":5.4132,"is_reserved":false,"is_disabled":false,"rental_uris":{"android":"levelo://app?vid=1b273681-a149-4b44-af0d-27ca962351bc","ios":"levelo://app?vid=1b273681-a149-4b44-af0d-27ca962351bc"},"vehicle_type_id":"4","last_reported":1731179189,"current_range_meters":35600,"station_id":"ce4bhp12rcd13ifvqh9g","pricing_plan_id":"cebpf4jnsgd1na2vs0mg"},{"bike_id":"c1779ba3-0de3-4613-b643-7a57ac7f31e8","system_id":"levelo_inurba_marseille","lat":43.30624,"lon":5.37223,"is_reserved":false,"is_disabled":false,"rental_uris":{"android":"levelo://app?vid=c1779ba3-0de3-4613-b643-7a57ac7f31e8","ios":"levelo://app?vid=c1779ba3-0de3-4613-b643-7a57ac7f31e8"},"vehicle_type_id":"4","last_reported":1731179189,"current_range_meters":39200,"station_id":"ce4bgqh2rcd13ifvqc4g","pricing_plan_id":"cebpf4jnsgd1na2vs0mg"},{"bike_id":"81d75b94-235f-4d66-95b8-a1c86584fb9a","system_id":"levelo_inurba_marseille","lat":43.29911,"lon":5.38067,"is_reserved":false,"is_disabled":false,"rental_uris":{"android":"levelo://app?vid=81d75b94-235f-4d66-95b8-a1c86584fb9a","ios":"levelo://app?vid=81d75b94-235f-4d66-95b8-a1c86584fb9a"},"vehicle_type_id":"4","last_reported":1731179189,"current_range_meters":8000,"station_id":"","pricing_plan_id":"cebpf4jnsgd1na2vs0mg"},{"bike_id":"5880f0d3-21ed-4b57-bdda-cfe5621a3905","system_id":"levelo_inurba_marseille","lat":43.29042,"lon":5.38117,"is_reserved":false,"is_disabled":false,"rental_uris":{"android":"levelo://app?vid=5880f0d3-21ed-4b57-bdda-cfe5621a3905","ios":"levelo://app?vid=5880f0d3-21ed-4b57-bdda-cfe5621a3905"},"vehicle_type_id":"4","last_reported":1731179189,"current_range_meters":33200,"station_id":"ce4bh4p2rcd13ifvqe1g","pricing_plan_id":"cebpf4jnsgd1na2vs0mg"},{"bike_id":"a4124c3b-1b14-4104-afd4-be5d18d782df","system_id":"levelo_inurba_marseille","lat":43.27997,"lon":5.41661,"is_reserved":false,"is_disabled":false,"rental_uris":{"android":"levelo://app?vid=a4124c3b-1b14-4104-afd4-be5d18d782df","ios":"levelo://app?vid=a4124c3b-1b14-4104-afd4-be5d18d782df"},"vehicle_type_id":"4","last_reported":1731179189,"current_range_meters":20800,"station_id":"ce4bho12rcd13ifvqh1g","pricing_plan_id":"cebpf4jnsgd1na2vs0mg"},{"bike_id":"f0730e13-11c4-4020-956a-ca204d2dd6c0","system_id":"levelo_inurba_marseille","lat":43.2956,"lon":5.42283,"is_reserved":false,"is_disabled":false,"rental_uris":{"android":"levelo://app?vid=f0730e13-11c4-4020-956a-ca204d2dd6c0","ios":"levelo://app?vid=f0730e13-11c4-4020-956a-ca204d2dd6c0"},"vehicle_type_id":"4","last_reported":1731179189,"current_range_meters":7200,"station_id":"ce4bhph2rcd13ifvqhdg","pricing_plan_id":"cebpf4jnsgd1na2vs0mg"},{"bike_id":"5c9c5160-1ab5-413b-98bd-ddb0b845cf5f","system_id":"levelo_inurba_marseille","lat":43.29728,"lon":5.36612,"is_reserved":false,"is_disabled":false,"rental_uris":{"android":"levelo://app?vid=5c9c5160-1ab5-413b-98bd-ddb0b845cf5f","ios":"levelo://app?vid=5c9c5160-1ab5-413b-98bd-ddb0b845cf5f"},"vehicle_type_id":"4","last_reported":1731179189,"current_range_meters":38800,"station_id":"ce4bgn12rcd13ifvqbt0","pricing_plan_id":"cebpf4jnsgd1na2vs0mg"},{"bike_id":"b66b1d6b-71a0-477f-a8e4-5c83ce8687f4","system_id":"levelo_inurba_marseille","lat":43.29539,"lon":5.38549,"is_reserved":false,"is_disabled":false,"rental_uris":{"android":"levelo://app?vid=b66b1d6b-71a0-477f-a8e4-5c83ce8687f4","ios":"levelo://app?vid=b66b1d6b-71a0-477f-a8e4-5c83ce8687f4"},"vehicle_type_id":"4","last_reported":1731179189,"current_range_meters":30000,"station_id":"ce4bgih2rcd13ifvqba0","pricing_plan_id":"cebpf4jnsgd1na2vs0mg"},{"bike_id":"acfc4c88-f0d5-497e-86c1-c566b23c1747","system_id":"levelo_inurba_marseille","lat":43.24811,"lon":5.3746,"is_reserved":false,"is_disabled":false,"rental_uris":{"android":"levelo://app?vid=acfc4c88-f0d5-497e-86c1-c566b23c1747","ios":"levelo://app?vid=acfc4c88-f0d5-497e-86c1-c566b23c1747"},"vehicle_type_id":"4","last_reported":1731179189,"current_range_meters":7200,"station_id":"ce4bhgh2rcd13ifvqfb0","pricing_plan_id":"cebpf4jnsgd1na2vs0mg"},{"bike_id":"d8b069df-29e1-4273-99b0-c9104446d9c3","system_id":"levelo_inurba_marseille","lat":43.232,"lon":5.35556,"is_reserved":false,"is_disabled":false,"rental_uris":{"android":"levelo://app?vid=d8b069df-29e1-4273-99b0-c9104446d9c3","ios":"levelo://app?vid=d8b069df-29e1-4273-99b0-c9104446d9c3"},"vehicle_type_id":"4","last_reported":1731179189,"current_range_meters":8800,"station_id":"ce4bhu92rcd13ifvqi70","pricing_plan_id":"cebpf4jnsgd1na2vs0mg"},{"bike_id":"ed3da3c9-a04b-450f-9720-2e0b465bdf21","system_id":"levelo_inurba_marseille","lat":43.26795,"lon":5.39413,"is_reserved":false,"is_disabled":false,"rental_uris":{"android":"levelo://app?vid=ed3da3c9-a04b-450f-9720-2e0b465bdf21","ios":"levelo://app?vid=ed3da3c9-a04b-450f-9720-2e0b465bdf21"},"vehicle_type_id":"4","last_reported":1731179189,"current_range_meters":38800,"station_id":"ce4bhh12rcd13ifvqfg0","pricing_plan_id":"cebpf4jnsgd1na2vs0mg"},{"bike_id":"8414ced1-720d-4ed1-96e2-e5d102f9130d","system_id":"levelo_inurba_marseille","lat":43.268158,"lon":5.393502,"is_reserved":false,"is_disabled":false,"rental_uris":{"android":"levelo://app?vid=8414ced1-720d-4ed1-96e2-e5d102f9130d","ios":"levelo://app?vid=8414ced1-720d-4ed1-96e2-e5d102f9130d"},"vehicle_type_id":"4","last_reported":1731179189,"current_range_meters":10800,"station_id":"ce4bhdp2rcd13ifvqf20","pricing_plan_id":"cebpf4jnsgd1na2vs0mg"},{"bike_id":"c6d565f0-3fbd-46de-ab36-839d68aff0bf","system_id":"levelo_inurba_marseille","lat":43.302948,"lon":5.392048,"is_reserved":false,"is_disabled":false,"rental_uris":{"android":"levelo://app?vid=c6d565f0-3fbd-46de-ab36-839d68aff0bf","ios":"levelo://app?vid=c6d565f0-3fbd-46de-ab36-839d68aff0bf"},"vehicle_type_id":"4","last_reported":1731179189,"current_range_meters":34800,"station_id":"ce4bgkh2rcd13ifvqbk0","pricing_plan_id":"cebpf4jnsgd1na2vs0mg"},{"bike_id":"13dcd273-950e-4509-8023-d3fce41c1a08","system_id":"levelo_inurba_marseille","lat":43.30628,"lon":5.37231,"is_reserved":false,"is_disabled":false,"rental_uris":{"android":"levelo://app?vid=13dcd273-950e-4509-8023-d3fce41c1a08","ios":"levelo://app?vid=13dcd273-950e-4509-8023-d3fce41c1a08"},"vehicle_type_id":"4","last_reported":1731179189,"current_range_meters":13600,"station_id":"ce4bgqh2rcd13ifvqc4g","pricing_plan_id":"cebpf4jnsgd1na2vs0mg"},{"bike_id":"fbbe362b-7b29-4c8f-b506-484f07761f02","system_id":"levelo_inurba_marseille","lat":43.29915,"lon":5.37461,"is_reserved":false,"is_disabled":false,"rental_uris":{"android":"levelo://app?vid=fbbe362b-7b29-4c8f-b506-484f07761f02","ios":"levelo://app?vid=fbbe362b-7b29-4c8f-b506-484f07761f02"},"vehicle_type_id":"4","last_reported":1731179189,"current_range_meters":37600,"station_id":"ce4bgjh2rcd13ifvqbg0","pricing_plan_id":"cebpf4jnsgd1na2vs0mg"},{"bike_id":"018a5969-48d6-493e-abbb-cd5d32841d3f","system_id":"levelo_inurba_marseille","lat":43.28288,"lon":5.3507,"is_reserved":false,"is_disabled":false,"rental_uris":{"android":"levelo://app?vid=018a5969-48d6-493e-abbb-cd5d32841d3f","ios":"levelo://app?vid=018a5969-48d6-493e-abbb-cd5d32841d3f"},"vehicle_type_id":"4","last_reported":1731179189,"current_range_meters":38800,"station_id":"ce4bhbp2rcd13ifvqerg","pricing_plan_id":"cebpf4jnsgd1na2vs0mg"},{"bike_id":"34b36d8f-f2ca-4f35-8d1a-541cc0e115d7","system_id":"levelo_inurba_marseille","lat":43.2883,"lon":5.380333,"is_reserved":false,"is_disabled":false,"rental_uris":{"android":"levelo://app?vid=34b36d8f-f2ca-4f35-8d1a-541cc0e115d7","ios":"levelo://app?vid=34b36d8f-f2ca-4f35-8d1a-541cc0e115d7"},"vehicle_type_id":"4","last_reported":1731179189,"current_range_meters":17600,"station_id":"","pricing_plan_id":"cebpf4jnsgd1na2vs0mg"},{"bike_id":"f9aeacdd-bf01-432f-bf4e-03e65cef4bbd","system_id":"levelo_inurba_marseille","lat":43.29558,"lon":5.42287,"is_reserved":false,"is_disabled":false,"rental_uris":{"android":"levelo://app?vid=f9aeacdd-bf01-432f-bf4e-03e65cef4bbd","ios":"levelo://app?vid=f9aeacdd-bf01-432f-bf4e-03e65cef4bbd"},"vehicle_type_id":"4","last_reported":1731179189,"current_range_meters":20800,"station_id":"ce4bhph2rcd13ifvqhdg","pricing_plan_id":"cebpf4jnsgd1na2vs0mg"},{"bike_id":"1ffd2086-adf5-43ef-bb6f-2ff5d7421d90","system_id":"levelo_inurba_marseille","lat":43.23979,"lon":5.36638,"is_reserved":false,"is_disabled":false,"rental_uris":{"android":"levelo://app?vid=1ffd2086-adf5-43ef-bb6f-2ff5d7421d90","ios":"levelo://app?vid=1ffd2086-adf5-43ef-bb6f-2ff5d7421d90"},"vehicle_type_id":"4","last_reported":1731179189,"current_range_meters":6800,"station_id":"ce4bhgp2rcd13ifvqfd0","pricing_plan_id":"cebpf4jnsgd1na2vs0mg"},{"bike_id":"f2c90260-39d1-49c1-a47f-744796bacb21","system_id":"levelo_inurba_marseille","lat":43.31177,"lon":5.387227,"is_reserved":false,"is_disabled":false,"rental_uris":{"android":"levelo://app?vid=f2c90260-39d1-49c1-a47f-744796bacb21","ios":"levelo://app?vid=f2c90260-39d1-49c1-a47f-744796bacb21"},"vehicle_type_id":"4","last_reported":1731179189,"current_range_meters":32400,"station_id":"ce4bgup2rcd13ifvqcn0","pricing_plan_id":"cebpf4jnsgd1na2vs0mg"},{"bike_id":"a2af0eca-530d-4954-b538-26140aa97bc7","system_id":"levelo_inurba_marseille","lat":43.27499,"lon":5.42447,"is_reserved":false,"is_disabled":false,"rental_uris":{"android":"levelo://app?vid=a2af0eca-530d-4954-b538-26140aa97bc7","ios":"levelo://app?vid=a2af0eca-530d-4954-b538-26140aa97bc7"},"vehicle_type_id":"4","last_reported":1731179189,"current_range_meters":27600,"station_id":"ce4bhn92rcd13ifvqgrg","pricing_plan_id":"cebpf4jnsgd1na2vs0mg"},{"bike_id":"ba4e9b3f-2a8e-4431-b57f-f6a1ee8edd37","system_id":"levelo_inurba_marseille","lat":43.30155,"lon":5.38089,"is_reserved":false,"is_disabled":false,"rental_uris":{"android":"levelo://app?vid=ba4e9b3f-2a8e-4431-b57f-f6a1ee8edd37","ios":"levelo://app?vid=ba4e9b3f-2a8e-4431-b57f-f6a1ee8edd37"},"vehicle_type_id":"4","last_reported":1731179189,"current_range_meters":19200,"station_id":"ce4bgjp2rcd13ifvqbh0","pricing_plan_id":"cebpf4jnsgd1na2vs0mg"},{"bike_id":"d1e43cd6-5953-4553-bc5e-bf62b3c0865a","system_id":"levelo_inurba_marseille","lat":43.29177,"lon":5.3715,"is_reserved":false,"is_disabled":false,"rental_uris":{"android":"levelo://app?vid=d1e43cd6-5953-4553-bc5e-bf62b3c0865a","ios":"levelo://app?vid=d1e43cd6-5953-4553-bc5e-bf62b3c0865a"},"vehicle_type_id":"4","last_reported":1731179189,"current_range_meters":38800,"station_id":"ce4bha92rcd13ifvqeh0","pricing_plan_id":"cebpf4jnsgd1na2vs0mg"},{"bike_id":"0e0927fd-6870-4f0d-95d2-a322362844a9","system_id":"levelo_inurba_marseille","lat":43.231537,"lon":5.437256,"is_reserved":false,"is_disabled":false,"rental_uris":{"android":"levelo://app?vid=0e0927fd-6870-4f0d-95d2-a322362844a9","ios":"levelo://app?vid=0e0927fd-6870-4f0d-95d2-a322362844a9"},"vehicle_type_id":"4","last_reported":1731179189,"current_range_meters":38800,"station_id":"ce4bhmp2rcd13ifvqgog","pricing_plan_id":"cebpf4jnsgd1na2vs0mg"},{"bike_id":"30a878ff-eb9d-436f-bfff-7d2ca1ce4c25","system_id":"levelo_inurba_marseille","lat":43.30913,"lon":5.36842,"is_reserved":false,"is_disabled":false,"rental_uris":{"android":"levelo://app?vid=30a878ff-eb9d-436f-bfff-7d2ca1ce4c25","ios":"levelo://app?vid=30a878ff-eb9d-436f-bfff-7d2ca1ce4c25"},"vehicle_type_id":"4","last_reported":1731179189,"current_range_meters":38000,"station_id":"ce4bgn92rcd13ifvqbvg","pricing_plan_id":"cebpf4jnsgd1na2vs0mg"},{"bike_id":"ae6ee6df-5779-49bd-a122-e5a8ebd03b7d","system_id":"levelo_inurba_marseille","lat":43.29321,"lon":5.37164,"is_reserved":false,"is_disabled":false,"rental_uris":{"android":"levelo://app?vid=ae6ee6df-5779-49bd-a122-e5a8ebd03b7d","ios":"levelo://app?vid=ae6ee6df-5779-49bd-a122-e5a8ebd03b7d"},"vehicle_type_id":"4","last_reported":1731179189,"current_range_meters":38800,"station_id":"ce4bgh92rcd13ifvqb40","pricing_plan_id":"cebpf4jnsgd1na2vs0mg"},{"bike_id":"aa8ecf5b-0607-490b-b16b-6a1c98eed952","system_id":"levelo_inurba_marseille","lat":43.2972,"lon":5.36613,"is_reserved":false,"is_disabled":false,"rental_uris":{"android":"levelo://app?vid=aa8ecf5b-0607-490b-b16b-6a1c98eed952","ios":"levelo://app?vid=aa8ecf5b-0607-490b-b16b-6a1c98eed952"},"vehicle_type_id":"4","last_reported":1731179189,"current_range_meters":28000,"station_id":"ce4bgn12rcd13ifvqbt0","pricing_plan_id":"cebpf4jnsgd1na2vs0mg"},{"bike_id":"37007f88-d192-4e59-8952-345fdf2fd50a","system_id":"levelo_inurba_marseille","lat":43.24668,"lon":5.3816,"is_reserved":false,"is_disabled":false,"rental_uris":{"android":"levelo://app?vid=37007f88-d192-4e59-8952-345fdf2fd50a","ios":"levelo://app?vid=37007f88-d192-4e59-8952-345fdf2fd50a"},"vehicle_type_id":"4","last_reported":1731179189,"current_range_meters":19200,"station_id":"ce4bhih2rcd13ifvqfr0","pricing_plan_id":"cebpf4jnsgd1na2vs0mg"},{"bike_id":"48a5c018-2c8a-4185-b049-1c96e973e571","system_id":"levelo_inurba_marseille","lat":43.255,"lon":5.37652,"is_reserved":false,"is_disabled":false,"rental_uris":{"android":"levelo://app?vid=48a5c018-2c8a-4185-b049-1c96e973e571","ios":"levelo://app?vid=48a5c018-2c8a-4185-b049-1c96e973e571"},"vehicle_type_id":"4","last_reported":1731179189,"current_range_meters":34800,"station_id":"ce4bhh12rcd13ifvqff0","pricing_plan_id":"cebpf4jnsgd1na2vs0mg"},{"bike_id":"e6ad734b-3114-4387-8542-5313acc06e1f","system_id":"levelo_inurba_marseille","lat":43.24671,"lon":5.3817,"is_reserved":false,"is_disabled":false,"rental_uris":{"android":"levelo://app?vid=e6ad734b-3114-4387-8542-5313acc06e1f","ios":"levelo://app?vid=e6ad734b-3114-4387-8542-5313acc06e1f"},"vehicle_type_id":"4","last_reported":1731179189,"current_range_meters":24000,"station_id":"ce4bhih2rcd13ifvqfr0","pricing_plan_id":"cebpf4jnsgd1na2vs0mg"},{"bike_id":"0e94bf9a-b5c2-4790-b8ad-544ed82febcb","system_id":"levelo_inurba_marseille","lat":43.24808,"lon":5.37454,"is_reserved":false,"is_disabled":false,"rental_uris":{"android":"levelo://app?vid=0e94bf9a-b5c2-4790-b8ad-544ed82febcb","ios":"levelo://app?vid=0e94bf9a-b5c2-4790-b8ad-544ed82febcb"},"vehicle_type_id":"4","last_reported":1731179189,"current_range_meters":8000,"station_id":"ce4bhgh2rcd13ifvqfb0","pricing_plan_id":"cebpf4jnsgd1na2vs0mg"},{"bike_id":"046f574d-c1db-46f8-aa65-1693bf16edf2","system_id":"levelo_inurba_marseille","lat":43.28714,"lon":5.39983,"is_reserved":false,"is_disabled":false,"rental_uris":{"android":"levelo://app?vid=046f574d-c1db-46f8-aa65-1693bf16edf2","ios":"levelo://app?vid=046f574d-c1db-46f8-aa65-1693bf16edf2"},"vehicle_type_id":"4","last_reported":1731179189,"current_range_meters":33200,"station_id":"ce4bho92rcd13ifvqh3g","pricing_plan_id":"cebpf4jnsgd1na2vs0mg"},{"bike_id":"99a89a04-e7de-473e-a01d-582a49ffa666","system_id":"levelo_inurba_marseille","lat":43.29299,"lon":5.37461,"is_reserved":false,"is_disabled":false,"rental_uris":{"android":"levelo://app?vid=99a89a04-e7de-473e-a01d-582a49ffa666","ios":"levelo://app?vid=99a89a04-e7de-473e-a01d-582a49ffa666"},"vehicle_type_id":"4","last_reported":1731179189,"current_range_meters":4000,"station_id":"ce4bgi12rcd13ifvqb70","pricing_plan_id":"cebpf4jnsgd1na2vs0mg"},{"bike_id":"f2448cf2-c872-46d8-8aee-0426615722bd","system_id":"levelo_inurba_marseille","lat":43.26032,"lon":5.37548,"is_reserved":false,"is_disabled":false,"rental_uris":{"android":"levelo://app?vid=f2448cf2-c872-46d8-8aee-0426615722bd","ios":"levelo://app?vid=f2448cf2-c872-46d8-8aee-0426615722bd"},"vehicle_type_id":"4","last_reported":1731179189,"current_range_meters":14800,"station_id":"ce4bhgh2rcd13ifvqfa0","pricing_plan_id":"cebpf4jnsgd1na2vs0mg"},{"bike_id":"e787342f-0fa8-455a-b623-b88fff06960d","system_id":"levelo_inurba_marseille","lat":43.286957,"lon":5.399853,"is_reserved":false,"is_disabled":false,"rental_uris":{"android":"levelo://app?vid=e787342f-0fa8-455a-b623-b88fff06960d","ios":"levelo://app?vid=e787342f-0fa8-455a-b623-b88fff06960d"},"vehicle_type_id":"4","last_reported":1731179189,"current_range_meters":16400,"station_id":"ce501612rcd8frsf0b60","pricing_plan_id":"cebpf4jnsgd1na2vs0mg"},{"bike_id":"0bf30baf-5560-4fd4-a052-4db82ac3d9a7","system_id":"levelo_inurba_marseille","lat":43.29368,"lon":5.37836,"is_reserved":false,"is_disabled":false,"rental_uris":{"android":"levelo://app?vid=0bf30baf-5560-4fd4-a052-4db82ac3d9a7","ios":"levelo://app?vid=0bf30baf-5560-4fd4-a052-4db82ac3d9a7"},"vehicle_type_id":"4","last_reported":1731179189,"current_range_meters":38800,"station_id":"ce4bgjh2rcd13ifvqbf0","pricing_plan_id":"cebpf4jnsgd1na2vs0mg"},{"bike_id":"eabb73cb-e522-4b41-9e16-6ad299194dcb","system_id":"levelo_inurba_marseille","lat":43.2981,"lon":5.38095,"is_reserved":false,"is_disabled":false,"rental_uris":{"android":"levelo://app?vid=eabb73cb-e522-4b41-9e16-6ad299194dcb","ios":"levelo://app?vid=eabb73cb-e522-4b41-9e16-6ad299194dcb"},"vehicle_type_id":"4","last_reported":1731179189,"current_range_meters":16000,"station_id":"ce4bgip2rcd13ifvqbb0","pricing_plan_id":"cebpf4jnsgd1na2vs0mg"},{"bike_id":"96aef8c1-f007-442e-b872-036e6f6c58ad","system_id":"levelo_inurba_marseille","lat":43.31758,"lon":5.39019,"is_reserved":false,"is_disabled":false,"rental_uris":{"android":"levelo://app?vid=96aef8c1-f007-442e-b872-036e6f6c58ad","ios":"levelo://app?vid=96aef8c1-f007-442e-b872-036e6f6c58ad"},"vehicle_type_id":"4","last_reported":1731179189,"current_range_meters":39200,"station_id":"ce4bhqp2rcd13ifvqhng","pricing_plan_id":"cebpf4jnsgd1na2vs0mg"},{"bike_id":"e68d4664-4f4a-4319-865e-2bed64bd7d5b","system_id":"levelo_inurba_marseille","lat":43.30939,"lon":5.40144,"is_reserved":false,"is_disabled":false,"rental_uris":{"android":"levelo://app?vid=e68d4664-4f4a-4319-865e-2bed64bd7d5b","ios":"levelo://app?vid=e68d4664-4f4a-4319-865e-2bed64bd7d5b"},"vehicle_type_id":"4","last_reported":1731179189,"current_range_meters":26800,"station_id":"ce4bgvp2rcd13ifvqct0","pricing_plan_id":"cebpf4jnsgd1na2vs0mg"},{"bike_id":"05117205-ca84-4609-993b-92f765b080b9","system_id":"levelo_inurba_marseille","lat":43.29895,"lon":5.43665,"is_reserved":false,"is_disabled":false,"rental_uris":{"android":"levelo://app?vid=05117205-ca84-4609-993b-92f765b080b9","ios":"levelo://app?vid=05117205-ca84-4609-993b-92f765b080b9"},"vehicle_type_id":"4","last_reported":1731179189,"current_range_meters":6800,"station_id":"ce4bhpp2rcd13ifvqhfg","pricing_plan_id":"cebpf4jnsgd1na2vs0mg"},{"bike_id":"6c988f55-f79e-4981-a9ea-2c322d27ade5","system_id":"levelo_inurba_marseille","lat":43.27915,"lon":5.39579,"is_reserved":false,"is_disabled":false,"rental_uris":{"android":"levelo://app?vid=6c988f55-f79e-4981-a9ea-2c322d27ade5","ios":"levelo://app?vid=6c988f55-f79e-4981-a9ea-2c322d27ade5"},"vehicle_type_id":"4","last_reported":1731179189,"current_range_meters":9200,"station_id":"ce4bhf92rcd13ifvqf40","pricing_plan_id":"cebpf4jnsgd1na2vs0mg"},{"bike_id":"c21768f5-7c25-4d41-ab9d-61489aeb0814","system_id":"levelo_inurba_marseille","lat":43.29514,"lon":5.39045,"is_reserved":false,"is_disabled":false,"rental_uris":{"android":"levelo://app?vid=c21768f5-7c25-4d41-ab9d-61489aeb0814","ios":"levelo://app?vid=c21768f5-7c25-4d41-ab9d-61489aeb0814"},"vehicle_type_id":"4","last_reported":1731179189,"current_range_meters":30400,"station_id":"ce4bh3p2rcd13ifvqdp0","pricing_plan_id":"cebpf4jnsgd1na2vs0mg"},{"bike_id":"a9cbce3d-ccc7-414f-9c0c-b0a19292c45f","system_id":"levelo_inurba_marseille","lat":43.32083,"lon":5.41571,"is_reserved":false,"is_disabled":false,"rental_uris":{"android":"levelo://app?vid=a9cbce3d-ccc7-414f-9c0c-b0a19292c45f","ios":"levelo://app?vid=a9cbce3d-ccc7-414f-9c0c-b0a19292c45f"},"vehicle_type_id":"4","last_reported":1731179189,"current_range_meters":9200,"station_id":"ce4bhq92rcd13ifvqhkg","pricing_plan_id":"cebpf4jnsgd1na2vs0mg"},{"bike_id":"f43eeab5-361f-4d76-bb77-54a1ab6d430f","system_id":"levelo_inurba_marseille","lat":43.33035,"lon":5.39049,"is_reserved":false,"is_disabled":false,"rental_uris":{"android":"levelo://app?vid=f43eeab5-361f-4d76-bb77-54a1ab6d430f","ios":"levelo://app?vid=f43eeab5-361f-4d76-bb77-54a1ab6d430f"},"vehicle_type_id":"4","last_reported":1731179189,"current_range_meters":18800,"station_id":"ce4bhr92rcd13ifvqhrg","pricing_plan_id":"cebpf4jnsgd1na2vs0mg"},{"bike_id":"181fa628-fd06-4339-88f4-5d411c857699","system_id":"levelo_inurba_marseille","lat":43.270673,"lon":5.422835,"is_reserved":false,"is_disabled":false,"rental_uris":{"android":"levelo://app?vid=181fa628-fd06-4339-88f4-5d411c857699","ios":"levelo://app?vid=181fa628-fd06-4339-88f4-5d411c857699"},"vehicle_type_id":"4","last_reported":1731179189,"current_range_meters":12800,"station_id":"ce4bhk92rcd13ifvqgb0","pricing_plan_id":"cebpf4jnsgd1na2vs0mg"},{"bike_id":"f6797815-af74-4740-88bd-bac91aed4205","system_id":"levelo_inurba_marseille","lat":43.30903,"lon":5.37181,"is_reserved":false,"is_disabled":false,"rental_uris":{"android":"levelo://app?vid=f6797815-af74-4740-88bd-bac91aed4205","ios":"levelo://app?vid=f6797815-af74-4740-88bd-bac91aed4205"},"vehicle_type_id":"4","last_reported":1731179189,"current_range_meters":38400,"station_id":"ce4bguh2rcd13ifvqckg","pricing_plan_id":"cebpf4jnsgd1na2vs0mg"},{"bike_id":"fe48f452-9500-41a3-83e9-7c76cb35e219","system_id":"levelo_inurba_marseille","lat":43.3127,"lon":5.40167,"is_reserved":false,"is_disabled":false,"rental_uris":{"android":"levelo://app?vid=fe48f452-9500-41a3-83e9-7c76cb35e219","ios":"levelo://app?vid=fe48f452-9500-41a3-83e9-7c76cb35e219"},"vehicle_type_id":"4","last_reported":1731179189,"current_range_meters":6400,"station_id":"ce4bh092rcd13ifvqd30","pricing_plan_id":"cebpf4jnsgd1na2vs0mg"},{"bike_id":"750f60c0-cbc4-492c-8cec-1b99360aadde","system_id":"levelo_inurba_marseille","lat":43.28005,"lon":5.40013,"is_reserved":false,"is_disabled":false,"rental_uris":{"android":"levelo://app?vid=750f60c0-cbc4-492c-8cec-1b99360aadde","ios":"levelo://app?vid=750f60c0-cbc4-492c-8cec-1b99360aadde"},"vehicle_type_id":"4","last_reported":1731179189,"current_range_meters":34000,"station_id":"ce4bho92rcd13ifvqh4g","pricing_plan_id":"cebpf4jnsgd1na2vs0mg"},{"bike_id":"e662ba77-e6b8-4482-8937-6e11fab5b336","system_id":"levelo_inurba_marseille","lat":43.33042,"lon":5.39049,"is_reserved":false,"is_disabled":false,"rental_uris":{"android":"levelo://app?vid=e662ba77-e6b8-4482-8937-6e11fab5b336","ios":"levelo://app?vid=e662ba77-e6b8-4482-8937-6e11fab5b336"},"vehicle_type_id":"4","last_reported":1731179189,"current_range_meters":9600,"station_id":"ce4bhr92rcd13ifvqhrg","pricing_plan_id":"cebpf4jnsgd1na2vs0mg"},{"bike_id":"27e15419-d9b0-4647-890e-e21a7149b1cd","system_id":"levelo_inurba_marseille","lat":43.2707,"lon":5.42273,"is_reserved":false,"is_disabled":false,"rental_uris":{"android":"levelo://app?vid=27e15419-d9b0-4647-890e-e21a7149b1cd","ios":"levelo://app?vid=27e15419-d9b0-4647-890e-e21a7149b1cd"},"vehicle_type_id":"4","last_reported":1731179189,"current_range_meters":10800,"station_id":"ce4bhk92rcd13ifvqgb0","pricing_plan_id":"cebpf4jnsgd1na2vs0mg"},{"bike_id":"55f47cbb-4cd2-4214-9965-9e0698b16e2e","system_id":"levelo_inurba_marseille","lat":43.32363,"lon":5.36747,"is_reserved":false,"is_disabled":false,"rental_uris":{"android":"levelo://app?vid=55f47cbb-4cd2-4214-9965-9e0698b16e2e","ios":"levelo://app?vid=55f47cbb-4cd2-4214-9965-9e0698b16e2e"},"vehicle_type_id":"4","last_reported":1731179189,"current_range_meters":38800,"station_id":"ce4bhsh2rcd13ifvqi2g","pricing_plan_id":"cebpf4jnsgd1na2vs0mg"},{"bike_id":"1163214d-85a5-4f13-80e2-626059a363a6","system_id":"levelo_inurba_marseille","lat":43.291,"lon":5.38155,"is_reserved":false,"is_disabled":false,"rental_uris":{"android":"levelo://app?vid=1163214d-85a5-4f13-80e2-626059a363a6","ios":"levelo://app?vid=1163214d-85a5-4f13-80e2-626059a363a6"},"vehicle_type_id":"4","last_reported":1731179189,"current_range_meters":36400,"station_id":"ce4bh512rcd13ifvqe2g","pricing_plan_id":"cebpf4jnsgd1na2vs0mg"},{"bike_id":"d4d2039d-7616-4c0c-910c-0f5355caf5da","system_id":"levelo_inurba_marseille","lat":43.30155,"lon":5.38091,"is_reserved":false,"is_disabled":false,"rental_uris":{"android":"levelo://app?vid=d4d2039d-7616-4c0c-910c-0f5355caf5da","ios":"levelo://app?vid=d4d2039d-7616-4c0c-910c-0f5355caf5da"},"vehicle_type_id":"4","last_reported":1731179189,"current_range_meters":38400,"station_id":"ce4bgjp2rcd13ifvqbh0","pricing_plan_id":"cebpf4jnsgd1na2vs0mg"},{"bike_id":"5c3bc9b0-78f2-4b7d-9826-a747a64cb64c","system_id":"levelo_inurba_marseille","lat":43.31266,"lon":5.4016,"is_reserved":false,"is_disabled":false,"rental_uris":{"android":"levelo://app?vid=5c3bc9b0-78f2-4b7d-9826-a747a64cb64c","ios":"levelo://app?vid=5c3bc9b0-78f2-4b7d-9826-a747a64cb64c"},"vehicle_type_id":"4","last_reported":1731179189,"current_range_meters":11600,"station_id":"ce4bh092rcd13ifvqd30","pricing_plan_id":"cebpf4jnsgd1na2vs0mg"},{"bike_id":"0d93b31b-854a-4c31-b287-70df5cbe7d07","system_id":"levelo_inurba_marseille","lat":43.2408,"lon":5.37728,"is_reserved":false,"is_disabled":false,"rental_uris":{"android":"levelo://app?vid=0d93b31b-854a-4c31-b287-70df5cbe7d07","ios":"levelo://app?vid=0d93b31b-854a-4c31-b287-70df5cbe7d07"},"vehicle_type_id":"4","last_reported":1731179189,"current_range_meters":15200,"station_id":"ce4bhnp2rcd13ifvqgvg","pricing_plan_id":"cebpf4jnsgd1na2vs0mg"},{"bike_id":"56372106-f101-4e4e-ad73-a819ecafcccb","system_id":"levelo_inurba_marseille","lat":43.293,"lon":5.37164,"is_reserved":false,"is_disabled":false,"rental_uris":{"android":"levelo://app?vid=56372106-f101-4e4e-ad73-a819ecafcccb","ios":"levelo://app?vid=56372106-f101-4e4e-ad73-a819ecafcccb"},"vehicle_type_id":"4","last_reported":1731179189,"current_range_meters":36400,"station_id":"ce4bgh92rcd13ifvqb40","pricing_plan_id":"cebpf4jnsgd1na2vs0mg"},{"bike_id":"e2abec00-3ef2-41a5-b9f5-46bbbaa02e60","system_id":"levelo_inurba_marseille","lat":43.25497,"lon":5.37654,"is_reserved":false,"is_disabled":false,"rental_uris":{"android":"levelo://app?vid=e2abec00-3ef2-41a5-b9f5-46bbbaa02e60","ios":"levelo://app?vid=e2abec00-3ef2-41a5-b9f5-46bbbaa02e60"},"vehicle_type_id":"4","last_reported":1731179189,"current_range_meters":6000,"station_id":"ce4bhh12rcd13ifvqff0","pricing_plan_id":"cebpf4jnsgd1na2vs0mg"},{"bike_id":"e0b22e56-c2a6-41b3-90dd-b294d7149583","system_id":"levelo_inurba_marseille","lat":43.28362,"lon":5.38099,"is_reserved":false,"is_disabled":false,"rental_uris":{"android":"levelo://app?vid=e0b22e56-c2a6-41b3-90dd-b294d7149583","ios":"levelo://app?vid=e0b22e56-c2a6-41b3-90dd-b294d7149583"},"vehicle_type_id":"4","last_reported":1731179189,"current_range_meters":5600,"station_id":"ce4bh412rcd13ifvqdr0","pricing_plan_id":"cebpf4jnsgd1na2vs0mg"},{"bike_id":"1a2c20b9-026d-4c0f-bab0-bd1ce99dae90","system_id":"levelo_inurba_marseille","lat":43.29492,"lon":5.38757,"is_reserved":false,"is_disabled":false,"rental_uris":{"android":"levelo://app?vid=1a2c20b9-026d-4c0f-bab0-bd1ce99dae90","ios":"levelo://app?vid=1a2c20b9-026d-4c0f-bab0-bd1ce99dae90"},"vehicle_type_id":"4","last_reported":1731179189,"current_range_meters":17200,"station_id":"","pricing_plan_id":"cebpf4jnsgd1na2vs0mg"},{"bike_id":"1dcfdcfe-0565-4f4d-b994-3e33de9d1c81","system_id":"levelo_inurba_marseille","lat":43.29931,"lon":5.36553,"is_reserved":false,"is_disabled":false,"rental_uris":{"android":"levelo://app?vid=1dcfdcfe-0565-4f4d-b994-3e33de9d1c81","ios":"levelo://app?vid=1dcfdcfe-0565-4f4d-b994-3e33de9d1c81"},"vehicle_type_id":"4","last_reported":1731179189,"current_range_meters":6800,"station_id":"ce4bgm92rcd13ifvqbr0","pricing_plan_id":"cebpf4jnsgd1na2vs0mg"},{"bike_id":"90621bbd-90aa-4473-9ffe-cceb8a6e7a9f","system_id":"levelo_inurba_marseille","lat":43.23186,"lon":5.39986,"is_reserved":false,"is_disabled":false,"rental_uris":{"android":"levelo://app?vid=90621bbd-90aa-4473-9ffe-cceb8a6e7a9f","ios":"levelo://app?vid=90621bbd-90aa-4473-9ffe-cceb8a6e7a9f"},"vehicle_type_id":"4","last_reported":1731179189,"current_range_meters":18800,"station_id":"ce4bhn12rcd13ifvqgqg","pricing_plan_id":"cebpf4jnsgd1na2vs0mg"},{"bike_id":"c7057ba6-697b-4814-876e-11ed214bec97","system_id":"levelo_inurba_marseille","lat":43.30289,"lon":5.37674,"is_reserved":false,"is_disabled":false,"rental_uris":{"android":"levelo://app?vid=c7057ba6-697b-4814-876e-11ed214bec97","ios":"levelo://app?vid=c7057ba6-697b-4814-876e-11ed214bec97"},"vehicle_type_id":"4","last_reported":1731179189,"current_range_meters":38800,"station_id":"ce4bguh2rcd13ifvqcj0","pricing_plan_id":"cebpf4jnsgd1na2vs0mg"},{"bike_id":"1e55b6c5-b855-4236-b508-cad4030b3771","system_id":"levelo_inurba_marseille","lat":43.29099,"lon":5.38131,"is_reserved":false,"is_disabled":false,"rental_uris":{"android":"levelo://app?vid=1e55b6c5-b855-4236-b508-cad4030b3771","ios":"levelo://app?vid=1e55b6c5-b855-4236-b508-cad4030b3771"},"vehicle_type_id":"4","last_reported":1731179189,"current_range_meters":29600,"station_id":"ce4bh512rcd13ifvqe2g","pricing_plan_id":"cebpf4jnsgd1na2vs0mg"},{"bike_id":"99ee7c5d-6e65-4a9b-a86a-ad54643ebf7a","system_id":"levelo_inurba_marseille","lat":43.31375,"lon":5.3849,"is_reserved":false,"is_disabled":false,"rental_uris":{"android":"levelo://app?vid=99ee7c5d-6e65-4a9b-a86a-ad54643ebf7a","ios":"levelo://app?vid=99ee7c5d-6e65-4a9b-a86a-ad54643ebf7a"},"vehicle_type_id":"4","last_reported":1731179189,"current_range_meters":38800,"station_id":"ce4bgt92rcd13ifvqcf0","pricing_plan_id":"cebpf4jnsgd1na2vs0mg"},{"bike_id":"cb0207d1-a359-4257-9c1b-bdbf3d283b94","system_id":"levelo_inurba_marseille","lat":43.31269,"lon":5.40175,"is_reserved":false,"is_disabled":false,"rental_uris":{"android":"levelo://app?vid=cb0207d1-a359-4257-9c1b-bdbf3d283b94","ios":"levelo://app?vid=cb0207d1-a359-4257-9c1b-bdbf3d283b94"},"vehicle_type_id":"4","last_reported":1731179189,"current_range_meters":3200,"station_id":"ce4bh092rcd13ifvqd30","pricing_plan_id":"cebpf4jnsgd1na2vs0mg"},{"bike_id":"1b641421-2e55-46f2-aa52-a5bd61345632","system_id":"levelo_inurba_marseille","lat":43.2417,"lon":5.36396,"is_reserved":false,"is_disabled":false,"rental_uris":{"android":"levelo://app?vid=1b641421-2e55-46f2-aa52-a5bd61345632","ios":"levelo://app?vid=1b641421-2e55-46f2-aa52-a5bd61345632"},"vehicle_type_id":"4","last_reported":1731179189,"current_range_meters":16000,"station_id":"cpo36qri1sfpv3e86is0","pricing_plan_id":"cebpf4jnsgd1na2vs0mg"},{"bike_id":"03a26f38-6510-4718-87c1-01c78b1263c1","system_id":"levelo_inurba_marseille","lat":43.31331,"lon":5.39693,"is_reserved":false,"is_disabled":false,"rental_uris":{"android":"levelo://app?vid=03a26f38-6510-4718-87c1-01c78b1263c1","ios":"levelo://app?vid=03a26f38-6510-4718-87c1-01c78b1263c1"},"vehicle_type_id":"4","last_reported":1731179189,"current_range_meters":26000,"station_id":"ce4bgvp2rcd13ifvqcu0","pricing_plan_id":"cebpf4jnsgd1na2vs0mg"},{"bike_id":"0977e77d-e820-44f3-97e9-717906dea1a6","system_id":"levelo_inurba_marseille","lat":43.32377,"lon":5.38877,"is_reserved":false,"is_disabled":false,"rental_uris":{"android":"levelo://app?vid=0977e77d-e820-44f3-97e9-717906dea1a6","ios":"levelo://app?vid=0977e77d-e820-44f3-97e9-717906dea1a6"},"vehicle_type_id":"4","last_reported":1731179189,"current_range_meters":4000,"station_id":"ce4bhqp2rcd13ifvqhog","pricing_plan_id":"cebpf4jnsgd1na2vs0mg"},{"bike_id":"96b8a9fd-1056-4b2f-b864-d49e2d421d75","system_id":"levelo_inurba_marseille","lat":43.32336,"lon":5.40621,"is_reserved":false,"is_disabled":false,"rental_uris":{"android":"levelo://app?vid=96b8a9fd-1056-4b2f-b864-d49e2d421d75","ios":"levelo://app?vid=96b8a9fd-1056-4b2f-b864-d49e2d421d75"},"vehicle_type_id":"4","last_reported":1731179189,"current_range_meters":30400,"station_id":"ce4bhq92rcd13ifvqhjg","pricing_plan_id":"cebpf4jnsgd1na2vs0mg"},{"bike_id":"07704a86-dbed-425a-854d-11b1a4e3d84c","system_id":"levelo_inurba_marseille","lat":43.33761,"lon":5.37438,"is_reserved":false,"is_disabled":false,"rental_uris":{"android":"levelo://app?vid=07704a86-dbed-425a-854d-11b1a4e3d84c","ios":"levelo://app?vid=07704a86-dbed-425a-854d-11b1a4e3d84c"},"vehicle_type_id":"4","last_reported":1731179189,"current_range_meters":36000,"station_id":"","pricing_plan_id":"cebpf4jnsgd1na2vs0mg"},{"bike_id":"79b39923-b687-4420-a58b-1f85feafef16","system_id":"levelo_inurba_marseille","lat":43.29838,"lon":5.3731,"is_reserved":false,"is_disabled":false,"rental_uris":{"android":"levelo://app?vid=79b39923-b687-4420-a58b-1f85feafef16","ios":"levelo://app?vid=79b39923-b687-4420-a58b-1f85feafef16"},"vehicle_type_id":"4","last_reported":1731179189,"current_range_meters":38800,"station_id":"","pricing_plan_id":"cebpf4jnsgd1na2vs0mg"},{"bike_id":"e88ed4b9-c019-43b2-958e-6095c76050de","system_id":"levelo_inurba_marseille","lat":43.29517,"lon":5.37507,"is_reserved":false,"is_disabled":false,"rental_uris":{"android":"levelo://app?vid=e88ed4b9-c019-43b2-958e-6095c76050de","ios":"levelo://app?vid=e88ed4b9-c019-43b2-958e-6095c76050de"},"vehicle_type_id":"4","last_reported":1731179189,"current_range_meters":28400,"station_id":"ce4bgkp2rcd13ifvqbmg","pricing_plan_id":"cebpf4jnsgd1na2vs0mg"},{"bike_id":"81abc5b8-f7c3-49f1-865e-3d42da567318","system_id":"levelo_inurba_marseille","lat":43.29533,"lon":5.38545,"is_reserved":false,"is_disabled":false,"rental_uris":{"android":"levelo://app?vid=81abc5b8-f7c3-49f1-865e-3d42da567318","ios":"levelo://app?vid=81abc5b8-f7c3-49f1-865e-3d42da567318"},"vehicle_type_id":"4","last_reported":1731179189,"current_range_meters":24800,"station_id":"ce4bgih2rcd13ifvqba0","pricing_plan_id":"cebpf4jnsgd1na2vs0mg"},{"bike_id":"2986119e-137d-42e1-873a-4a59578a68f9","system_id":"levelo_inurba_marseille","lat":43.27179,"lon":5.40996,"is_reserved":false,"is_disabled":false,"rental_uris":{"android":"levelo://app?vid=2986119e-137d-42e1-873a-4a59578a68f9","ios":"levelo://app?vid=2986119e-137d-42e1-873a-4a59578a68f9"},"vehicle_type_id":"4","last_reported":1731179189,"current_range_meters":8400,"station_id":"ce4bhl12rcd13ifvqgf0","pricing_plan_id":"cebpf4jnsgd1na2vs0mg"},{"bike_id":"0b74ce83-e6b1-4485-8ca6-3897f29a426e","system_id":"levelo_inurba_marseille","lat":43.23965,"lon":5.36626,"is_reserved":false,"is_disabled":false,"rental_uris":{"android":"levelo://app?vid=0b74ce83-e6b1-4485-8ca6-3897f29a426e","ios":"levelo://app?vid=0b74ce83-e6b1-4485-8ca6-3897f29a426e"},"vehicle_type_id":"4","last_reported":1731179189,"current_range_meters":14400,"station_id":"ce4bhi12rcd13ifvqfp0","pricing_plan_id":"cebpf4jnsgd1na2vs0mg"},{"bike_id":"9da9e159-3651-44ff-8b7a-fa6109d979b5","system_id":"levelo_inurba_marseille","lat":43.29533,"lon":5.38537,"is_reserved":false,"is_disabled":false,"rental_uris":{"android":"levelo://app?vid=9da9e159-3651-44ff-8b7a-fa6109d979b5","ios":"levelo://app?vid=9da9e159-3651-44ff-8b7a-fa6109d979b5"},"vehicle_type_id":"4","last_reported":1731179189,"current_range_meters":35200,"station_id":"ce4bgih2rcd13ifvqba0","pricing_plan_id":"cebpf4jnsgd1na2vs0mg"},{"bike_id":"2c342691-4553-4cce-b007-e89e690aafbe","system_id":"levelo_inurba_marseille","lat":43.282593,"lon":5.3507,"is_reserved":false,"is_disabled":false,"rental_uris":{"android":"levelo://app?vid=2c342691-4553-4cce-b007-e89e690aafbe","ios":"levelo://app?vid=2c342691-4553-4cce-b007-e89e690aafbe"},"vehicle_type_id":"4","last_reported":1731179189,"current_range_meters":19600,"station_id":"ce4bhbp2rcd13ifvqerg","pricing_plan_id":"cebpf4jnsgd1na2vs0mg"},{"bike_id":"fe120cd6-564f-4a90-9c6f-ed2e5f711ac7","system_id":"levelo_inurba_marseille","lat":43.24074,"lon":5.37756,"is_reserved":false,"is_disabled":false,"rental_uris":{"android":"levelo://app?vid=fe120cd6-564f-4a90-9c6f-ed2e5f711ac7","ios":"levelo://app?vid=fe120cd6-564f-4a90-9c6f-ed2e5f711ac7"},"vehicle_type_id":"4","last_reported":1731179189,"current_range_meters":16800,"station_id":"ce4bhnp2rcd13ifvqgvg","pricing_plan_id":"cebpf4jnsgd1na2vs0mg"},{"bike_id":"1cd5a787-6218-4bde-b2fe-09bcd8b43bfb","system_id":"levelo_inurba_marseille","lat":43.31728,"lon":5.42394,"is_reserved":false,"is_disabled":false,"rental_uris":{"android":"levelo://app?vid=1cd5a787-6218-4bde-b2fe-09bcd8b43bfb","ios":"levelo://app?vid=1cd5a787-6218-4bde-b2fe-09bcd8b43bfb"},"vehicle_type_id":"4","last_reported":1731179189,"current_range_meters":2800,"station_id":"ce4bhp92rcd13ifvqhbg","pricing_plan_id":"cebpf4jnsgd1na2vs0mg"},{"bike_id":"737e318d-f108-4c95-991e-c706599395c0","system_id":"levelo_inurba_marseille","lat":43.30157,"lon":5.38085,"is_reserved":false,"is_disabled":false,"rental_uris":{"android":"levelo://app?vid=737e318d-f108-4c95-991e-c706599395c0","ios":"levelo://app?vid=737e318d-f108-4c95-991e-c706599395c0"},"vehicle_type_id":"4","last_reported":1731179189,"current_range_meters":32800,"station_id":"ce4bgjp2rcd13ifvqbh0","pricing_plan_id":"cebpf4jnsgd1na2vs0mg"},{"bike_id":"896a2ba9-5285-4686-975d-79ddd9cd99a3","system_id":"levelo_inurba_marseille","lat":43.2582,"lon":5.39427,"is_reserved":false,"is_disabled":false,"rental_uris":{"android":"levelo://app?vid=896a2ba9-5285-4686-975d-79ddd9cd99a3","ios":"levelo://app?vid=896a2ba9-5285-4686-975d-79ddd9cd99a3"},"vehicle_type_id":"4","last_reported":1731179189,"current_range_meters":36800,"station_id":"ce4bhip2rcd13ifvqft0","pricing_plan_id":"cebpf4jnsgd1na2vs0mg"},{"bike_id":"5b6dea88-f16c-47ef-86fd-96cd6dc272af","system_id":"levelo_inurba_marseille","lat":43.31243,"lon":5.36848,"is_reserved":false,"is_disabled":false,"rental_uris":{"android":"levelo://app?vid=5b6dea88-f16c-47ef-86fd-96cd6dc272af","ios":"levelo://app?vid=5b6dea88-f16c-47ef-86fd-96cd6dc272af"},"vehicle_type_id":"4","last_reported":1731179189,"current_range_meters":14800,"station_id":"ce4bgl92rcd13ifvqbq0","pricing_plan_id":"cebpf4jnsgd1na2vs0mg"},{"bike_id":"c149e98a-7f58-4d4a-8975-84f08edbd80b","system_id":"levelo_inurba_marseille","lat":43.28707,"lon":5.3792,"is_reserved":false,"is_disabled":false,"rental_uris":{"android":"levelo://app?vid=c149e98a-7f58-4d4a-8975-84f08edbd80b","ios":"levelo://app?vid=c149e98a-7f58-4d4a-8975-84f08edbd80b"},"vehicle_type_id":"4","last_reported":1731179189,"current_range_meters":17600,"station_id":"ce4bh9p2rcd13ifvqec0","pricing_plan_id":"cebpf4jnsgd1na2vs0mg"},{"bike_id":"0476efc3-0e5b-48c2-9250-ad290cf0ab29","system_id":"levelo_inurba_marseille","lat":43.23181,"lon":5.39994,"is_reserved":false,"is_disabled":false,"rental_uris":{"android":"levelo://app?vid=0476efc3-0e5b-48c2-9250-ad290cf0ab29","ios":"levelo://app?vid=0476efc3-0e5b-48c2-9250-ad290cf0ab29"},"vehicle_type_id":"4","last_reported":1731179189,"current_range_meters":2800,"station_id":"ce4bhn12rcd13ifvqgqg","pricing_plan_id":"cebpf4jnsgd1na2vs0mg"},{"bike_id":"3de415eb-76b2-4676-9534-256ea9de0fd1","system_id":"levelo_inurba_marseille","lat":43.32667,"lon":5.40996,"is_reserved":false,"is_disabled":false,"rental_uris":{"android":"levelo://app?vid=3de415eb-76b2-4676-9534-256ea9de0fd1","ios":"levelo://app?vid=3de415eb-76b2-4676-9534-256ea9de0fd1"},"vehicle_type_id":"4","last_reported":1731179189,"current_range_meters":31200,"station_id":"ce4bhpp2rcd13ifvqhgg","pricing_plan_id":"cebpf4jnsgd1na2vs0mg"},{"bike_id":"baac3be3-010c-4ab7-b814-2af962c842f8","system_id":"levelo_inurba_marseille","lat":43.28363,"lon":5.37517,"is_reserved":false,"is_disabled":false,"rental_uris":{"android":"levelo://app?vid=baac3be3-010c-4ab7-b814-2af962c842f8","ios":"levelo://app?vid=baac3be3-010c-4ab7-b814-2af962c842f8"},"vehicle_type_id":"4","last_reported":1731179189,"current_range_meters":30000,"station_id":"","pricing_plan_id":"cebpf4jnsgd1na2vs0mg"},{"bike_id":"153b7ff0-4860-49f2-baf2-71c24452214b","system_id":"levelo_inurba_marseille","lat":43.29787,"lon":5.38121,"is_reserved":false,"is_disabled":false,"rental_uris":{"android":"levelo://app?vid=153b7ff0-4860-49f2-baf2-71c24452214b","ios":"levelo://app?vid=153b7ff0-4860-49f2-baf2-71c24452214b"},"vehicle_type_id":"4","last_reported":1731179189,"current_range_meters":18000,"station_id":"ce4bgip2rcd13ifvqbb0","pricing_plan_id":"cebpf4jnsgd1na2vs0mg"},{"bike_id":"4e544314-a052-4d07-9d9d-85b1d0c4a12a","system_id":"levelo_inurba_marseille","lat":43.30641,"lon":5.40088,"is_reserved":false,"is_disabled":false,"rental_uris":{"android":"levelo://app?vid=4e544314-a052-4d07-9d9d-85b1d0c4a12a","ios":"levelo://app?vid=4e544314-a052-4d07-9d9d-85b1d0c4a12a"},"vehicle_type_id":"4","last_reported":1731179189,"current_range_meters":5600,"station_id":"ce4bh112rcd13ifvqda0","pricing_plan_id":"cebpf4jnsgd1na2vs0mg"},{"bike_id":"651525a9-9541-42c5-a26d-932929a74330","system_id":"levelo_inurba_marseille","lat":43.2749,"lon":5.424575,"is_reserved":false,"is_disabled":false,"rental_uris":{"android":"levelo://app?vid=651525a9-9541-42c5-a26d-932929a74330","ios":"levelo://app?vid=651525a9-9541-42c5-a26d-932929a74330"},"vehicle_type_id":"4","last_reported":1731179189,"current_range_meters":27200,"station_id":"ce4bhn92rcd13ifvqgrg","pricing_plan_id":"cebpf4jnsgd1na2vs0mg"},{"bike_id":"c48eca37-84d8-445e-b66f-c452247de6b7","system_id":"levelo_inurba_marseille","lat":43.25501,"lon":5.37655,"is_reserved":false,"is_disabled":false,"rental_uris":{"android":"levelo://app?vid=c48eca37-84d8-445e-b66f-c452247de6b7","ios":"levelo://app?vid=c48eca37-84d8-445e-b66f-c452247de6b7"},"vehicle_type_id":"4","last_reported":1731179189,"current_range_meters":7200,"station_id":"ce4bhh12rcd13ifvqff0","pricing_plan_id":"cebpf4jnsgd1na2vs0mg"},{"bike_id":"40f593b1-c6b4-4056-9082-85c23863896b","system_id":"levelo_inurba_marseille","lat":43.25486,"lon":5.37648,"is_reserved":false,"is_disabled":false,"rental_uris":{"android":"levelo://app?vid=40f593b1-c6b4-4056-9082-85c23863896b","ios":"levelo://app?vid=40f593b1-c6b4-4056-9082-85c23863896b"},"vehicle_type_id":"4","last_reported":1731179189,"current_range_meters":38800,"station_id":"ce4bhh12rcd13ifvqff0","pricing_plan_id":"cebpf4jnsgd1na2vs0mg"},{"bike_id":"5e6225c0-2d39-469c-8147-59151b03250f","system_id":"levelo_inurba_marseille","lat":43.31701,"lon":5.40471,"is_reserved":false,"is_disabled":false,"rental_uris":{"android":"levelo://app?vid=5e6225c0-2d39-469c-8147-59151b03250f","ios":"levelo://app?vid=5e6225c0-2d39-469c-8147-59151b03250f"},"vehicle_type_id":"4","last_reported":1731179189,"current_range_meters":38800,"station_id":"ce4bh012rcd13ifvqd00","pricing_plan_id":"cebpf4jnsgd1na2vs0mg"},{"bike_id":"e0783eda-5409-4eda-b15a-232df256eaff","system_id":"levelo_inurba_marseille","lat":43.30927,"lon":5.40144,"is_reserved":false,"is_disabled":false,"rental_uris":{"android":"levelo://app?vid=e0783eda-5409-4eda-b15a-232df256eaff","ios":"levelo://app?vid=e0783eda-5409-4eda-b15a-232df256eaff"},"vehicle_type_id":"4","last_reported":1731179189,"current_range_meters":2000,"station_id":"ce4bgvp2rcd13ifvqct0","pricing_plan_id":"cebpf4jnsgd1na2vs0mg"},{"bike_id":"31ba1574-58e8-4c23-889d-e3a00b1f4e1c","system_id":"levelo_inurba_marseille","lat":43.29033,"lon":5.3592,"is_reserved":false,"is_disabled":false,"rental_uris":{"android":"levelo://app?vid=31ba1574-58e8-4c23-889d-e3a00b1f4e1c","ios":"levelo://app?vid=31ba1574-58e8-4c23-889d-e3a00b1f4e1c"},"vehicle_type_id":"4","last_reported":1731179189,"current_range_meters":36800,"station_id":"ce4bha92rcd13ifvqeg0","pricing_plan_id":"cebpf4jnsgd1na2vs0mg"},{"bike_id":"0e97c820-dfad-4844-91ef-36ea4bef1714","system_id":"levelo_inurba_marseille","lat":43.29163,"lon":5.37163,"is_reserved":false,"is_disabled":false,"rental_uris":{"android":"levelo://app?vid=0e97c820-dfad-4844-91ef-36ea4bef1714","ios":"levelo://app?vid=0e97c820-dfad-4844-91ef-36ea4bef1714"},"vehicle_type_id":"4","last_reported":1731179189,"current_range_meters":29600,"station_id":"ce4bha92rcd13ifvqeh0","pricing_plan_id":"cebpf4jnsgd1na2vs0mg"},{"bike_id":"25845ab9-1181-480c-b25b-a96b7f2023da","system_id":"levelo_inurba_marseille","lat":43.29915,"lon":5.37453,"is_reserved":false,"is_disabled":false,"rental_uris":{"android":"levelo://app?vid=25845ab9-1181-480c-b25b-a96b7f2023da","ios":"levelo://app?vid=25845ab9-1181-480c-b25b-a96b7f2023da"},"vehicle_type_id":"4","last_reported":1731179189,"current_range_meters":32800,"station_id":"ce4bgjh2rcd13ifvqbg0","pricing_plan_id":"cebpf4jnsgd1na2vs0mg"},{"bike_id":"b4eb30bc-dd09-4cbf-8ece-3b8ada662aaf","system_id":"levelo_inurba_marseille","lat":43.25005,"lon":5.38916,"is_reserved":false,"is_disabled":false,"rental_uris":{"android":"levelo://app?vid=b4eb30bc-dd09-4cbf-8ece-3b8ada662aaf","ios":"levelo://app?vid=b4eb30bc-dd09-4cbf-8ece-3b8ada662aaf"},"vehicle_type_id":"4","last_reported":1731179189,"current_range_meters":18000,"station_id":"ce4bhgp2rcd13ifvqfd0","pricing_plan_id":"cebpf4jnsgd1na2vs0mg"},{"bike_id":"801dc6fd-756b-4a2b-886f-9c75586e96d1","system_id":"levelo_inurba_marseille","lat":43.29805,"lon":5.38087,"is_reserved":false,"is_disabled":false,"rental_uris":{"android":"levelo://app?vid=801dc6fd-756b-4a2b-886f-9c75586e96d1","ios":"levelo://app?vid=801dc6fd-756b-4a2b-886f-9c75586e96d1"},"vehicle_type_id":"4","last_reported":1731179189,"current_range_meters":38800,"station_id":"ce4bgip2rcd13ifvqbb0","pricing_plan_id":"cebpf4jnsgd1na2vs0mg"},{"bike_id":"9955afb2-2c17-4604-b9bb-ce2606601c02","system_id":"levelo_inurba_marseille","lat":43.29264,"lon":5.4091,"is_reserved":false,"is_disabled":false,"rental_uris":{"android":"levelo://app?vid=9955afb2-2c17-4604-b9bb-ce2606601c02","ios":"levelo://app?vid=9955afb2-2c17-4604-b9bb-ce2606601c02"},"vehicle_type_id":"4","last_reported":1731179189,"current_range_meters":9200,"station_id":"ce4bh192rcd13ifvqdc0","pricing_plan_id":"cebpf4jnsgd1na2vs0mg"},{"bike_id":"d19d38e7-34df-44f8-bbe6-4862f8fbaa71","system_id":"levelo_inurba_marseille","lat":43.24076,"lon":5.37761,"is_reserved":false,"is_disabled":false,"rental_uris":{"android":"levelo://app?vid=d19d38e7-34df-44f8-bbe6-4862f8fbaa71","ios":"levelo://app?vid=d19d38e7-34df-44f8-bbe6-4862f8fbaa71"},"vehicle_type_id":"4","last_reported":1731179189,"current_range_meters":26800,"station_id":"ce4bhnp2rcd13ifvqgvg","pricing_plan_id":"cebpf4jnsgd1na2vs0mg"},{"bike_id":"be94c940-c56d-4132-af66-fedb762b3e0f","system_id":"levelo_inurba_marseille","lat":43.23197,"lon":5.35559,"is_reserved":false,"is_disabled":false,"rental_uris":{"android":"levelo://app?vid=be94c940-c56d-4132-af66-fedb762b3e0f","ios":"levelo://app?vid=be94c940-c56d-4132-af66-fedb762b3e0f"},"vehicle_type_id":"4","last_reported":1731179189,"current_range_meters":36400,"station_id":"ce4bhu92rcd13ifvqi70","pricing_plan_id":"cebpf4jnsgd1na2vs0mg"},{"bike_id":"f7e92503-8855-4008-ac2f-46268d913f5e","system_id":"levelo_inurba_marseille","lat":43.31482,"lon":5.37303,"is_reserved":false,"is_disabled":false,"rental_uris":{"android":"levelo://app?vid=f7e92503-8855-4008-ac2f-46268d913f5e","ios":"levelo://app?vid=f7e92503-8855-4008-ac2f-46268d913f5e"},"vehicle_type_id":"4","last_reported":1731179189,"current_range_meters":36800,"station_id":"ce4bgt12rcd13ifvqcd0","pricing_plan_id":"cebpf4jnsgd1na2vs0mg"},{"bike_id":"ea6a925c-a8e3-4f39-83a8-6a01a05308a2","system_id":"levelo_inurba_marseille","lat":43.28661,"lon":5.36343,"is_reserved":false,"is_disabled":false,"rental_uris":{"android":"levelo://app?vid=ea6a925c-a8e3-4f39-83a8-6a01a05308a2","ios":"levelo://app?vid=ea6a925c-a8e3-4f39-83a8-6a01a05308a2"},"vehicle_type_id":"4","last_reported":1731179189,"current_range_meters":6800,"station_id":"ce4bhah2rcd13ifvqej0","pricing_plan_id":"cebpf4jnsgd1na2vs0mg"},{"bike_id":"95549c94-4028-4a8c-bc5b-041bf91768d8","system_id":"levelo_inurba_marseille","lat":43.27065,"lon":5.40262,"is_reserved":false,"is_disabled":false,"rental_uris":{"android":"levelo://app?vid=95549c94-4028-4a8c-bc5b-041bf91768d8","ios":"levelo://app?vid=95549c94-4028-4a8c-bc5b-041bf91768d8"},"vehicle_type_id":"4","last_reported":1731179189,"current_range_meters":9600,"station_id":"ce4bhk92rcd13ifvqgc0","pricing_plan_id":"cebpf4jnsgd1na2vs0mg"},{"bike_id":"799051fd-d983-438d-b1a6-f94aa3428752","system_id":"levelo_inurba_marseille","lat":43.29555,"lon":5.42276,"is_reserved":false,"is_disabled":false,"rental_uris":{"android":"levelo://app?vid=799051fd-d983-438d-b1a6-f94aa3428752","ios":"levelo://app?vid=799051fd-d983-438d-b1a6-f94aa3428752"},"vehicle_type_id":"4","last_reported":1731179189,"current_range_meters":38800,"station_id":"ce4bhph2rcd13ifvqhdg","pricing_plan_id":"cebpf4jnsgd1na2vs0mg"},{"bike_id":"79191bc0-25d6-41c8-85f9-fc8cd5b078b4","system_id":"levelo_inurba_marseille","lat":43.31332,"lon":5.36722,"is_reserved":false,"is_disabled":false,"rental_uris":{"android":"levelo://app?vid=79191bc0-25d6-41c8-85f9-fc8cd5b078b4","ios":"levelo://app?vid=79191bc0-25d6-41c8-85f9-fc8cd5b078b4"},"vehicle_type_id":"4","last_reported":1731179189,"current_range_meters":32000,"station_id":"ce4bgr92rcd13ifvqc6g","pricing_plan_id":"cebpf4jnsgd1na2vs0mg"},{"bike_id":"14108b80-b712-4832-b41c-9a4c9449e560","system_id":"levelo_inurba_marseille","lat":43.297977,"lon":5.381892,"is_reserved":false,"is_disabled":false,"rental_uris":{"android":"levelo://app?vid=14108b80-b712-4832-b41c-9a4c9449e560","ios":"levelo://app?vid=14108b80-b712-4832-b41c-9a4c9449e560"},"vehicle_type_id":"4","last_reported":1731179189,"current_range_meters":14800,"station_id":"ce4bh092rcd13ifvqd20","pricing_plan_id":"cebpf4jnsgd1na2vs0mg"},{"bike_id":"e88390ed-9b8a-46d8-8c93-37fd4498fc79","system_id":"levelo_inurba_marseille","lat":43.30803,"lon":5.4352,"is_reserved":false,"is_disabled":false,"rental_uris":{"android":"levelo://app?vid=e88390ed-9b8a-46d8-8c93-37fd4498fc79","ios":"levelo://app?vid=e88390ed-9b8a-46d8-8c93-37fd4498fc79"},"vehicle_type_id":"4","last_reported":1731179189,"current_range_meters":38800,"station_id":"ce4bhph2rcd13ifvqheg","pricing_plan_id":"cebpf4jnsgd1na2vs0mg"},{"bike_id":"2a2b6bd4-7604-497d-9ca3-0e5e501b0d20","system_id":"levelo_inurba_marseille","lat":43.31181,"lon":5.38711,"is_reserved":false,"is_disabled":false,"rental_uris":{"android":"levelo://app?vid=2a2b6bd4-7604-497d-9ca3-0e5e501b0d20","ios":"levelo://app?vid=2a2b6bd4-7604-497d-9ca3-0e5e501b0d20"},"vehicle_type_id":"4","last_reported":1731179189,"current_range_meters":38800,"station_id":"ce4bgv12rcd13ifvqcp0","pricing_plan_id":"cebpf4jnsgd1na2vs0mg"},{"bike_id":"3ab4b425-5996-4c7a-92d8-b00a0f4ea76b","system_id":"levelo_inurba_marseille","lat":43.29426,"lon":5.38622,"is_reserved":false,"is_disabled":false,"rental_uris":{"android":"levelo://app?vid=3ab4b425-5996-4c7a-92d8-b00a0f4ea76b","ios":"levelo://app?vid=3ab4b425-5996-4c7a-92d8-b00a0f4ea76b"},"vehicle_type_id":"4","last_reported":1731179189,"current_range_meters":38800,"station_id":"ce4bh2h2rcd13ifvqdh0","pricing_plan_id":"cebpf4jnsgd1na2vs0mg"},{"bike_id":"e5f7b80e-1e3d-488f-8aae-d108298bf2b5","system_id":"levelo_inurba_marseille","lat":43.29709,"lon":5.37696,"is_reserved":false,"is_disabled":false,"rental_uris":{"android":"levelo://app?vid=e5f7b80e-1e3d-488f-8aae-d108298bf2b5","ios":"levelo://app?vid=e5f7b80e-1e3d-488f-8aae-d108298bf2b5"},"vehicle_type_id":"4","last_reported":1731179189,"current_range_meters":37600,"station_id":"ce4bgkh2rcd13ifvqbl0","pricing_plan_id":"cebpf4jnsgd1na2vs0mg"},{"bike_id":"8443ae58-8ec5-46e9-8c3e-0cb15f825d1f","system_id":"levelo_inurba_marseille","lat":43.2743,"lon":5.39413,"is_reserved":false,"is_disabled":false,"rental_uris":{"android":"levelo://app?vid=8443ae58-8ec5-46e9-8c3e-0cb15f825d1f","ios":"levelo://app?vid=8443ae58-8ec5-46e9-8c3e-0cb15f825d1f"},"vehicle_type_id":"4","last_reported":1731179189,"current_range_meters":18000,"station_id":"ce4bhdp2rcd13ifvqf20","pricing_plan_id":"cebpf4jnsgd1na2vs0mg"},{"bike_id":"02d7efef-9cf4-49a9-85a1-3b3c3042290c","system_id":"levelo_inurba_marseille","lat":43.29309,"lon":5.37176,"is_reserved":false,"is_disabled":false,"rental_uris":{"android":"levelo://app?vid=02d7efef-9cf4-49a9-85a1-3b3c3042290c","ios":"levelo://app?vid=02d7efef-9cf4-49a9-85a1-3b3c3042290c"},"vehicle_type_id":"4","last_reported":1731179189,"current_range_meters":25600,"station_id":"ce4bgh92rcd13ifvqb40","pricing_plan_id":"cebpf4jnsgd1na2vs0mg"},{"bike_id":"585f98f6-6d49-4bfe-b64a-13e94474ef49","system_id":"levelo_inurba_marseille","lat":43.29254,"lon":5.38422,"is_reserved":false,"is_disabled":false,"rental_uris":{"android":"levelo://app?vid=585f98f6-6d49-4bfe-b64a-13e94474ef49","ios":"levelo://app?vid=585f98f6-6d49-4bfe-b64a-13e94474ef49"},"vehicle_type_id":"4","last_reported":1731179189,"current_range_meters":28000,"station_id":"ce4bh692rcd13ifvqea0","pricing_plan_id":"cebpf4jnsgd1na2vs0mg"},{"bike_id":"c84bdf7d-f195-474d-a873-253302579b9e","system_id":"levelo_inurba_marseille","lat":43.2583,"lon":5.39433,"is_reserved":false,"is_disabled":false,"rental_uris":{"android":"levelo://app?vid=c84bdf7d-f195-474d-a873-253302579b9e","ios":"levelo://app?vid=c84bdf7d-f195-474d-a873-253302579b9e"},"vehicle_type_id":"4","last_reported":1731179189,"current_range_meters":26000,"station_id":"ce4bhip2rcd13ifvqft0","pricing_plan_id":"cebpf4jnsgd1na2vs0mg"},{"bike_id":"1f5ad33c-9dd0-40a0-8d35-5e0e56643fcc","system_id":"levelo_inurba_marseille","lat":43.29516,"lon":5.37507,"is_reserved":false,"is_disabled":false,"rental_uris":{"android":"levelo://app?vid=1f5ad33c-9dd0-40a0-8d35-5e0e56643fcc","ios":"levelo://app?vid=1f5ad33c-9dd0-40a0-8d35-5e0e56643fcc"},"vehicle_type_id":"4","last_reported":1731179189,"current_range_meters":30400,"station_id":"ce4bgkp2rcd13ifvqbmg","pricing_plan_id":"cebpf4jnsgd1na2vs0mg"},{"bike_id":"b6778b5b-579b-419a-8491-6086cf783779","system_id":"levelo_inurba_marseille","lat":43.29803,"lon":5.39344,"is_reserved":false,"is_disabled":false,"rental_uris":{"android":"levelo://app?vid=b6778b5b-579b-419a-8491-6086cf783779","ios":"levelo://app?vid=b6778b5b-579b-419a-8491-6086cf783779"},"vehicle_type_id":"4","last_reported":1731179189,"current_range_meters":38800,"station_id":"chh1huq6cuj3fo74tm60","pricing_plan_id":"cebpf4jnsgd1na2vs0mg"},{"bike_id":"7e7be88e-2387-4ac1-8672-4e3f2accb589","system_id":"levelo_inurba_marseille","lat":43.23203,"lon":5.35557,"is_reserved":false,"is_disabled":false,"rental_uris":{"android":"levelo://app?vid=7e7be88e-2387-4ac1-8672-4e3f2accb589","ios":"levelo://app?vid=7e7be88e-2387-4ac1-8672-4e3f2accb589"},"vehicle_type_id":"4","last_reported":1731179189,"current_range_meters":13600,"station_id":"ce4bhu92rcd13ifvqi70","pricing_plan_id":"cebpf4jnsgd1na2vs0mg"},{"bike_id":"d3ddac6b-acf6-477b-8daf-ad49aba87662","system_id":"levelo_inurba_marseille","lat":43.27063,"lon":5.42279,"is_reserved":false,"is_disabled":false,"rental_uris":{"android":"levelo://app?vid=d3ddac6b-acf6-477b-8daf-ad49aba87662","ios":"levelo://app?vid=d3ddac6b-acf6-477b-8daf-ad49aba87662"},"vehicle_type_id":"4","last_reported":1731179189,"current_range_meters":24800,"station_id":"ce4bhk92rcd13ifvqgb0","pricing_plan_id":"cebpf4jnsgd1na2vs0mg"},{"bike_id":"c60f56cc-94e2-4bd7-a29a-6f589d1931e0","system_id":"levelo_inurba_marseille","lat":43.32488,"lon":5.3658,"is_reserved":false,"is_disabled":false,"rental_uris":{"android":"levelo://app?vid=c60f56cc-94e2-4bd7-a29a-6f589d1931e0","ios":"levelo://app?vid=c60f56cc-94e2-4bd7-a29a-6f589d1931e0"},"vehicle_type_id":"4","last_reported":1731179189,"current_range_meters":25600,"station_id":"","pricing_plan_id":"cebpf4jnsgd1na2vs0mg"},{"bike_id":"c2bf881a-f020-4e0e-819d-ec6a7c5dac04","system_id":"levelo_inurba_marseille","lat":43.3168,"lon":5.3774,"is_reserved":false,"is_disabled":false,"rental_uris":{"android":"levelo://app?vid=c2bf881a-f020-4e0e-819d-ec6a7c5dac04","ios":"levelo://app?vid=c2bf881a-f020-4e0e-819d-ec6a7c5dac04"},"vehicle_type_id":"4","last_reported":1731179189,"current_range_meters":24400,"station_id":"ce4bgth2rcd13ifvqch0","pricing_plan_id":"cebpf4jnsgd1na2vs0mg"},{"bike_id":"122fd426-9780-4842-8c65-c6496e099609","system_id":"levelo_inurba_marseille","lat":43.25496,"lon":5.37647,"is_reserved":false,"is_disabled":false,"rental_uris":{"android":"levelo://app?vid=122fd426-9780-4842-8c65-c6496e099609","ios":"levelo://app?vid=122fd426-9780-4842-8c65-c6496e099609"},"vehicle_type_id":"4","last_reported":1731179189,"current_range_meters":20800,"station_id":"","pricing_plan_id":"cebpf4jnsgd1na2vs0mg"},{"bike_id":"aa9906b6-1607-45b4-ae0e-eae05e3a5145","system_id":"levelo_inurba_marseille","lat":43.29539,"lon":5.38544,"is_reserved":false,"is_disabled":false,"rental_uris":{"android":"levelo://app?vid=aa9906b6-1607-45b4-ae0e-eae05e3a5145","ios":"levelo://app?vid=aa9906b6-1607-45b4-ae0e-eae05e3a5145"},"vehicle_type_id":"4","last_reported":1731179189,"current_range_meters":17600,"station_id":"ce4bgih2rcd13ifvqba0","pricing_plan_id":"cebpf4jnsgd1na2vs0mg"},{"bike_id":"dfb0f439-434a-4592-b0a3-fe0b4f68fa8c","system_id":"levelo_inurba_marseille","lat":43.29665,"lon":5.37205,"is_reserved":false,"is_disabled":false,"rental_uris":{"android":"levelo://app?vid=dfb0f439-434a-4592-b0a3-fe0b4f68fa8c","ios":"levelo://app?vid=dfb0f439-434a-4592-b0a3-fe0b4f68fa8c"},"vehicle_type_id":"4","last_reported":1731179189,"current_range_meters":6000,"station_id":"","pricing_plan_id":"cebpf4jnsgd1na2vs0mg"},{"bike_id":"51961087-84b5-4dbf-8ae9-e99ba45c3276","system_id":"levelo_inurba_marseille","lat":43.29796,"lon":5.37105,"is_reserved":false,"is_disabled":false,"rental_uris":{"android":"levelo://app?vid=51961087-84b5-4dbf-8ae9-e99ba45c3276","ios":"levelo://app?vid=51961087-84b5-4dbf-8ae9-e99ba45c3276"},"vehicle_type_id":"4","last_reported":1731179189,"current_range_meters":34800,"station_id":"ce4bgop2rcd13ifvqc1g","pricing_plan_id":"cebpf4jnsgd1na2vs0mg"},{"bike_id":"14a0a6d6-6325-4f5f-b8d4-faa7246100e8","system_id":"levelo_inurba_marseille","lat":43.29414,"lon":5.3863,"is_reserved":false,"is_disabled":false,"rental_uris":{"android":"levelo://app?vid=14a0a6d6-6325-4f5f-b8d4-faa7246100e8","ios":"levelo://app?vid=14a0a6d6-6325-4f5f-b8d4-faa7246100e8"},"vehicle_type_id":"4","last_reported":1731179189,"current_range_meters":35200,"station_id":"ce4bh2h2rcd13ifvqdh0","pricing_plan_id":"cebpf4jnsgd1na2vs0mg"},{"bike_id":"1d3a890b-9dc0-4ea6-9bf7-e258a43e572c","system_id":"levelo_inurba_marseille","lat":43.29266,"lon":5.38437,"is_reserved":false,"is_disabled":false,"rental_uris":{"android":"levelo://app?vid=1d3a890b-9dc0-4ea6-9bf7-e258a43e572c","ios":"levelo://app?vid=1d3a890b-9dc0-4ea6-9bf7-e258a43e572c"},"vehicle_type_id":"4","last_reported":1731179189,"current_range_meters":31200,"station_id":"ce4bh692rcd13ifvqea0","pricing_plan_id":"cebpf4jnsgd1na2vs0mg"},{"bike_id":"06a7f2f2-17ff-4eff-81b6-341d3896dd7e","system_id":"levelo_inurba_marseille","lat":43.3117,"lon":5.38712,"is_reserved":false,"is_disabled":false,"rental_uris":{"android":"levelo://app?vid=06a7f2f2-17ff-4eff-81b6-341d3896dd7e","ios":"levelo://app?vid=06a7f2f2-17ff-4eff-81b6-341d3896dd7e"},"vehicle_type_id":"4","last_reported":1731179189,"current_range_meters":30000,"station_id":"ce4bgv12rcd13ifvqcp0","pricing_plan_id":"cebpf4jnsgd1na2vs0mg"},{"bike_id":"3cef3b39-7602-421a-a649-32f0c34cfd9d","system_id":"levelo_inurba_marseille","lat":43.28945,"lon":5.36639,"is_reserved":false,"is_disabled":false,"rental_uris":{"android":"levelo://app?vid=3cef3b39-7602-421a-a649-32f0c34cfd9d","ios":"levelo://app?vid=3cef3b39-7602-421a-a649-32f0c34cfd9d"},"vehicle_type_id":"4","last_reported":1731179189,"current_range_meters":24400,"station_id":"ce4bhap2rcd13ifvqek0","pricing_plan_id":"cebpf4jnsgd1na2vs0mg"},{"bike_id":"c83e6567-31aa-4e82-a61c-fd0a2a078a29","system_id":"levelo_inurba_marseille","lat":43.30161,"lon":5.38075,"is_reserved":false,"is_disabled":false,"rental_uris":{"android":"levelo://app?vid=c83e6567-31aa-4e82-a61c-fd0a2a078a29","ios":"levelo://app?vid=c83e6567-31aa-4e82-a61c-fd0a2a078a29"},"vehicle_type_id":"4","last_reported":1731179189,"current_range_meters":16800,"station_id":"ce4bgjp2rcd13ifvqbh0","pricing_plan_id":"cebpf4jnsgd1na2vs0mg"},{"bike_id":"9f888605-c5c6-44f7-ab45-b4f87a38841e","system_id":"levelo_inurba_marseille","lat":43.29573,"lon":5.375232,"is_reserved":false,"is_disabled":false,"rental_uris":{"android":"levelo://app?vid=9f888605-c5c6-44f7-ab45-b4f87a38841e","ios":"levelo://app?vid=9f888605-c5c6-44f7-ab45-b4f87a38841e"},"vehicle_type_id":"4","last_reported":1731179189,"current_range_meters":9200,"station_id":"ce4bhqp2rcd13ifvqhng","pricing_plan_id":"cebpf4jnsgd1na2vs0mg"},{"bike_id":"47d81c50-8a6f-453e-b0b1-d2d35024a1d0","system_id":"levelo_inurba_marseille","lat":43.29039,"lon":5.37556,"is_reserved":false,"is_disabled":false,"rental_uris":{"android":"levelo://app?vid=47d81c50-8a6f-453e-b0b1-d2d35024a1d0","ios":"levelo://app?vid=47d81c50-8a6f-453e-b0b1-d2d35024a1d0"},"vehicle_type_id":"4","last_reported":1731179189,"current_range_meters":38800,"station_id":"ce4bh692rcd13ifvqe90","pricing_plan_id":"cebpf4jnsgd1na2vs0mg"},{"bike_id":"b9d72fb3-628b-4221-8a22-168f934375cb","system_id":"levelo_inurba_marseille","lat":43.29531,"lon":5.38539,"is_reserved":false,"is_disabled":false,"rental_uris":{"android":"levelo://app?vid=b9d72fb3-628b-4221-8a22-168f934375cb","ios":"levelo://app?vid=b9d72fb3-628b-4221-8a22-168f934375cb"},"vehicle_type_id":"4","last_reported":1731179189,"current_range_meters":33600,"station_id":"ce4bgih2rcd13ifvqba0","pricing_plan_id":"cebpf4jnsgd1na2vs0mg"},{"bike_id":"e9c35852-cfbb-4d5d-a501-8ddf6c73275e","system_id":"levelo_inurba_marseille","lat":43.292969,"lon":5.371707,"is_reserved":false,"is_disabled":false,"rental_uris":{"android":"levelo://app?vid=e9c35852-cfbb-4d5d-a501-8ddf6c73275e","ios":"levelo://app?vid=e9c35852-cfbb-4d5d-a501-8ddf6c73275e"},"vehicle_type_id":"4","last_reported":1731179189,"current_range_meters":25600,"station_id":"ce4bgh92rcd13ifvqb40","pricing_plan_id":"cebpf4jnsgd1na2vs0mg"},{"bike_id":"16edd5e5-0497-4831-bb6b-d18eb7e92293","system_id":"levelo_inurba_marseille","lat":43.24814,"lon":5.3746,"is_reserved":false,"is_disabled":false,"rental_uris":{"android":"levelo://app?vid=16edd5e5-0497-4831-bb6b-d18eb7e92293","ios":"levelo://app?vid=16edd5e5-0497-4831-bb6b-d18eb7e92293"},"vehicle_type_id":"4","last_reported":1731179189,"current_range_meters":33600,"station_id":"ce4bhgh2rcd13ifvqfb0","pricing_plan_id":"cebpf4jnsgd1na2vs0mg"},