{"last_updated":1728151826,"ttl":60,"version":"2.2","data":{"bikes":[{"bike_id":"c5df284a-3de6-4dbd-9337-d41a10812c99","system_id":"levelo_inurba_marseille","lat":43.31275,"lon":5.36881,"is_reserved":false,"is_disabled":false,"rental_uris":{"android":"levelo://app?vid=c5df284a-3de6-4dbd-9337-d41a10812c99","ios":"levelo://app?vid=c5df284a-3de6-4dbd-9337-d41a10812c99"},"vehicle_type_id":"4","last_reported":1728151826,"current_range_meters":14000,"station_id":"","pricing_plan_id":"cebpf4jnsgd1na2vs0mg"},{"bike_id":"106cfff3-9700-4424-9685-623cae17d926","system_id":"levelo_inurba_marseille","lat":43.29525,"lon":5.39032,"is_reserved":false,"is_disabled":false,"rental_uris":{"android":"levelo://app?vid=106cfff3-9700-4424-9685-623cae17d926","ios":"levelo://app?vid=106cfff3-9700-4424-9685-623cae17d926"},"vehicle_type_id":"4","last_reported":1728151826,"current_range_meters":32400,"station_id":"ce4bh3p2rcd13ifvqdp0","pricing_plan_id":"cebpf4jnsgd1na2vs0mg"},{"bike_id":"3edccbad-c604-40df-acb2-6e9d91b67298","system_id":"levelo_inurba_marseille","lat":43.33774,"lon":5.37444,"is_reserved":false,"is_disabled":false,"rental_uris":{"android":"levelo://app?vid=3edccbad-c604-40df-acb2-6e9d91b67298","ios":"levelo://app?vid=3edccbad-c604-40df-acb2-6e9d91b67298"},"vehicle_type_id":"4","last_reported":1728151826,"current_range_meters":33600,"station_id":"","pricing_plan_id":"cebpf4jnsgd1na2vs0mg"},{"bike_id":"f42ba909-c6af-4d4c-bcad-ee9c6f8944ff","system_id":"levelo_inurba_marseille","lat":43.31753,"lon":5.39025,"is_reserved":false,"is_disabled":false,"rental_uris":{"android":"levelo://app?vid=f42ba909-c6af-4d4c-bcad-ee9c6f8944ff","ios":"levelo://app?vid=f42ba909-c6af-4d4c-bcad-ee9c6f8944ff"},"vehicle_type_id":"4","last_reported":1728151826,"current_range_meters":22000,"station_id":"ce4bhqp2rcd13ifvqhng","pricing_plan_id":"cebpf4jnsgd1na2vs0mg"},{"bike_id":"c9caa32f-e089-4c24-9112-4902bfda100b","system_id":"levelo_inurba_marseille","lat":43.24658,"lon":5.38176,"is_reserved":false,"is_disabled":false,"rental_uris":{"android":"levelo://app?vid=c9caa32f-e089-4c24-9112-4902bfda100b","ios":"levelo://app?vid=c9caa32f-e089-4c24-9112-4902bfda100b"},"vehicle_type_id":"4","last_reported":1728151826,"current_range_meters":4400,"station_id":"ce4bhih2rcd13ifvqfr0","pricing_plan_id":"cebpf4jnsgd1na2vs0mg"},{"bike_id":"ba0180d4-cf64-48df-8270-0db5fe20d0c7","system_id":"levelo_inurba_marseille","lat":43.29555,"lon":5.42306,"is_reserved":false,"is_disabled":false,"rental_uris":{"android":"levelo://app?vid=ba0180d4-cf64-48df-8270-0db5fe20d0c7","ios":"levelo://app?vid=ba0180d4-cf64-48df-8270-0db5fe20d0c7"},"vehicle_type_id":"4","last_reported":1728151826,"current_range_meters":20400,"station_id":"ce4bhph2rcd13ifvqhdg","pricing_plan_id":"cebpf4jnsgd1na2vs0mg"},{"bike_id":"e0ce1f16-3242-4d59-850f-f72736825b31","system_id":"levelo_inurba_marseille","lat":43.28612,"lon":5.37068,"is_reserved":false,"is_disabled":false,"rental_uris":{"android":"levelo://app?vid=e0ce1f16-3242-4d59-850f-f72736825b31","ios":"levelo://app?vid=e0ce1f16-3242-4d59-850f-f72736825b31"},"vehicle_type_id":"4","last_reported":1728151826,"current_range_meters":10000,"station_id":"ce4bht12rcd13ifvqi60","pricing_plan_id":"cebpf4jnsgd1na2vs0mg"},{"bike_id":"9050db38-a07c-4e0a-b0d6-953e3c9e322f","system_id":"levelo_inurba_marseille","lat":43.30418,"lon":5.38894,"is_reserved":false,"is_disabled":false,"rental_uris":{"android":"levelo://app?vid=9050db38-a07c-4e0a-b0d6-953e3c9e322f","ios":"levelo://app?vid=9050db38-a07c-4e0a-b0d6-953e3c9e322f"},"vehicle_type_id":"4","last_reported":1728151826,"current_range_meters":37600,"station_id":"ce4bgk12rcd13ifvqbi0","pricing_plan_id":"cebpf4jnsgd1na2vs0mg"},{"bike_id":"0f9ca218-1b3a-4d16-88e4-b20c0bc0508b","system_id":"levelo_inurba_marseille","lat":43.28473,"lon":5.3843,"is_reserved":false,"is_disabled":false,"rental_uris":{"android":"levelo://app?vid=0f9ca218-1b3a-4d16-88e4-b20c0bc0508b","ios":"levelo://app?vid=0f9ca218-1b3a-4d16-88e4-b20c0bc0508b"},"vehicle_type_id":"4","last_reported":1728151826,"current_range_meters":38000,"station_id":"ce4bh512rcd13ifvqe3g","pricing_plan_id":"cebpf4jnsgd1na2vs0mg"},{"bike_id":"810bcedb-780b-4b2c-bc03-b760e69dfb8e","system_id":"levelo_inurba_marseille","lat":43.28152,"lon":5.42651,"is_reserved":false,"is_disabled":false,"rental_uris":{"android":"levelo://app?vid=810bcedb-780b-4b2c-bc03-b760e69dfb8e","ios":"levelo://app?vid=810bcedb-780b-4b2c-bc03-b760e69dfb8e"},"vehicle_type_id":"4","last_reported":1728151826,"current_range_meters":38000,"station_id":"ce4bhnh2rcd13ifvqgug","pricing_plan_id":"cebpf4jnsgd1na2vs0mg"},{"bike_id":"235f671e-7437-4123-9c6c-6202519cc63c","system_id":"levelo_inurba_marseille","lat":43.30308,"lon":5.36891,"is_reserved":false,"is_disabled":false,"rental_uris":{"android":"levelo://app?vid=235f671e-7437-4123-9c6c-6202519cc63c","ios":"levelo://app?vid=235f671e-7437-4123-9c6c-6202519cc63c"},"vehicle_type_id":"4","last_reported":1728151826,"current_range_meters":6400,"station_id":"ce4bgqh2rcd13ifvqc5g","pricing_plan_id":"cebpf4jnsgd1na2vs0mg"},{"bike_id":"0926b324-a362-4de8-9060-7beb4a6f6907","system_id":"levelo_inurba_marseille","lat":43.27991,"lon":5.40012,"is_reserved":false,"is_disabled":false,"rental_uris":{"android":"levelo://app?vid=0926b324-a362-4de8-9060-7beb4a6f6907","ios":"levelo://app?vid=0926b324-a362-4de8-9060-7beb4a6f6907"},"vehicle_type_id":"4","last_reported":1728151826,"current_range_meters":11600,"station_id":"ce4bho92rcd13ifvqh4g","pricing_plan_id":"cebpf4jnsgd1na2vs0mg"},{"bike_id":"0e0cd5ba-2f9e-4b23-b2a3-29edc786db7a","system_id":"levelo_inurba_marseille","lat":43.29524,"lon":5.39042,"is_reserved":false,"is_disabled":false,"rental_uris":{"android":"levelo://app?vid=0e0cd5ba-2f9e-4b23-b2a3-29edc786db7a","ios":"levelo://app?vid=0e0cd5ba-2f9e-4b23-b2a3-29edc786db7a"},"vehicle_type_id":"4","last_reported":1728151826,"current_range_meters":9200,"station_id":"ce4bh3p2rcd13ifvqdp0","pricing_plan_id":"cebpf4jnsgd1na2vs0mg"},{"bike_id":"ad250011-1728-47d3-b6e8-ed9b12d766c3","system_id":"levelo_inurba_marseille","lat":43.26487,"lon":5.39551,"is_reserved":false,"is_disabled":false,"rental_uris":{"android":"levelo://app?vid=ad250011-1728-47d3-b6e8-ed9b12d766c3","ios":"levelo://app?vid=ad250011-1728-47d3-b6e8-ed9b12d766c3"},"vehicle_type_id":"4","last_reported":1728151826,"current_range_meters":6800,"station_id":"ce4bhi12rcd13ifvqfq0","pricing_plan_id":"cebpf4jnsgd1na2vs0mg"},{"bike_id":"d55313d9-1b6e-4c09-90f5-efaa2eb93cad","system_id":"levelo_inurba_marseille","lat":43.28978,"lon":5.37838,"is_reserved":false,"is_disabled":false,"rental_uris":{"android":"levelo://app?vid=d55313d9-1b6e-4c09-90f5-efaa2eb93cad","ios":"levelo://app?vid=d55313d9-1b6e-4c09-90f5-efaa2eb93cad"},"vehicle_type_id":"4","last_reported":1728151826,"current_range_meters":36800,"station_id":"ce4bh9p2rcd13ifvqed0","pricing_plan_id":"cebpf4jnsgd1na2vs0mg"},{"bike_id":"315f99b1-9b5c-4653-b665-fe893046e8f0","system_id":"levelo_inurba_marseille","lat":43.33718,"lon":5.39193,"is_reserved":false,"is_disabled":false,"rental_uris":{"android":"levelo://app?vid=315f99b1-9b5c-4653-b665-fe893046e8f0","ios":"levelo://app?vid=315f99b1-9b5c-4653-b665-fe893046e8f0"},"vehicle_type_id":"4","last_reported":1728151826,"current_range_meters":4400,"station_id":"ce4bhr92rcd13ifvqhsg","pricing_plan_id":"cebpf4jnsgd1na2vs0mg"},{"bike_id":"03ebdfef-60b9-4383-b780-f6e10ef5dff9","system_id":"levelo_inurba_marseille","lat":43.3375,"lon":5.37447,"is_reserved":false,"is_disabled":false,"rental_uris":{"android":"levelo://app?vid=03ebdfef-60b9-4383-b780-f6e10ef5dff9","ios":"levelo://app?vid=03ebdfef-60b9-4383-b780-f6e10ef5dff9"},"vehicle_type_id":"4","last_reported":1728151826,"current_range_meters":32000,"station_id":"","pricing_plan_id":"cebpf4jnsgd1na2vs0mg"},{"bike_id":"f33ee0f2-889b-413e-b751-84aaae8a6f0d","system_id":"levelo_inurba_marseille","lat":43.28242,"lon":5.40293,"is_reserved":false,"is_disabled":false,"rental_uris":{"android":"levelo://app?vid=f33ee0f2-889b-413e-b751-84aaae8a6f0d","ios":"levelo://app?vid=f33ee0f2-889b-413e-b751-84aaae8a6f0d"},"vehicle_type_id":"4","last_reported":1728151826,"current_range_meters":38400,"station_id":"","pricing_plan_id":"cebpf4jnsgd1na2vs0mg"},{"bike_id":"5ca8b4f4-4525-4fd8-9588-42fe90f5c172","system_id":"levelo_inurba_marseille","lat":43.281311,"lon":5.395775,"is_reserved":false,"is_disabled":false,"rental_uris":{"android":"levelo://app?vid=5ca8b4f4-4525-4fd8-9588-42fe90f5c172","ios":"levelo://app?vid=5ca8b4f4-4525-4fd8-9588-42fe90f5c172"},"vehicle_type_id":"4","last_reported":1728151826,"current_range_meters":16000,"station_id":"ce4bho12rcd13ifvqh2g","pricing_plan_id":"cebpf4jnsgd1na2vs0mg"},{"bike_id":"02083394-c94e-4a99-b766-2af4ea129e09","system_id":"levelo_inurba_marseille","lat":43.33025,"lon":5.39052,"is_reserved":false,"is_disabled":false,"rental_uris":{"android":"levelo://app?vid=02083394-c94e-4a99-b766-2af4ea129e09","ios":"levelo://app?vid=02083394-c94e-4a99-b766-2af4ea129e09"},"vehicle_type_id":"4","last_reported":1728151826,"current_range_meters":36400,"station_id":"ce4bhr92rcd13ifvqhrg","pricing_plan_id":"cebpf4jnsgd1na2vs0mg"},{"bike_id":"e6b2df58-b4a0-4aec-933d-a62e42f34d34","system_id":"levelo_inurba_marseille","lat":43.33723,"lon":5.39198,"is_reserved":false,"is_disabled":false,"rental_uris":{"android":"levelo://app?vid=e6b2df58-b4a0-4aec-933d-a62e42f34d34","ios":"levelo://app?vid=e6b2df58-b4a0-4aec-933d-a62e42f34d34"},"vehicle_type_id":"4","last_reported":1728151826,"current_range_meters":11200,"station_id":"ce4bhr92rcd13ifvqhsg","pricing_plan_id":"cebpf4jnsgd1na2vs0mg"},{"bike_id":"b3c9bf79-02dc-4571-a145-c9d2b73b5646","system_id":"levelo_inurba_marseille","lat":43.30353,"lon":5.41883,"is_reserved":false,"is_disabled":false,"rental_uris":{"android":"levelo://app?vid=b3c9bf79-02dc-4571-a145-c9d2b73b5646","ios":"levelo://app?vid=b3c9bf79-02dc-4571-a145-c9d2b73b5646"},"vehicle_type_id":"4","last_reported":1728151826,"current_range_meters":20400,"station_id":"ce4bhop2rcd13ifvqh7g","pricing_plan_id":"cebpf4jnsgd1na2vs0mg"},{"bike_id":"852457a1-813f-46b8-bb13-232384e208e9","system_id":"levelo_inurba_marseille","lat":43.33764,"lon":5.3745,"is_reserved":false,"is_disabled":false,"rental_uris":{"android":"levelo://app?vid=852457a1-813f-46b8-bb13-232384e208e9","ios":"levelo://app?vid=852457a1-813f-46b8-bb13-232384e208e9"},"vehicle_type_id":"4","last_reported":1728151826,"current_range_meters":32000,"station_id":"","pricing_plan_id":"cebpf4jnsgd1na2vs0mg"},{"bike_id":"1df9f9f1-24a3-4f6a-98ec-054439774e37","system_id":"levelo_inurba_marseille","lat":43.30192,"lon":5.36633,"is_reserved":false,"is_disabled":false,"rental_uris":{"android":"levelo://app?vid=1df9f9f1-24a3-4f6a-98ec-054439774e37","ios":"levelo://app?vid=1df9f9f1-24a3-4f6a-98ec-054439774e37"},"vehicle_type_id":"4","last_reported":1728151826,"current_range_meters":4800,"station_id":"ce4bgrh2rcd13ifvqc8g","pricing_plan_id":"cebpf4jnsgd1na2vs0mg"},{"bike_id":"c7eb74b8-1035-40e3-83ea-efdb5f00bb82","system_id":"levelo_inurba_marseille","lat":43.29199,"lon":5.39316,"is_reserved":false,"is_disabled":false,"rental_uris":{"android":"levelo://app?vid=c7eb74b8-1035-40e3-83ea-efdb5f00bb82","ios":"levelo://app?vid=c7eb74b8-1035-40e3-83ea-efdb5f00bb82"},"vehicle_type_id":"4","last_reported":1728151826,"current_range_meters":8800,"station_id":"ce4bh192rcd13ifvqdd0","pricing_plan_id":"cebpf4jnsgd1na2vs0mg"},{"bike_id":"ac7477e2-647f-4698-b2f1-05ac6bd7ca79","system_id":"levelo_inurba_marseille","lat":43.27377,"lon":5.3627,"is_reserved":false,"is_disabled":false,"rental_uris":{"android":"levelo://app?vid=ac7477e2-647f-4698-b2f1-05ac6bd7ca79","ios":"levelo://app?vid=ac7477e2-647f-4698-b2f1-05ac6bd7ca79"},"vehicle_type_id":"4","last_reported":1728151826,"current_range_meters":37600,"station_id":"ce4bhbh2rcd13ifvqeo0","pricing_plan_id":"cebpf4jnsgd1na2vs0mg"},{"bike_id":"54d09a39-e79d-434c-8a05-a8f2660c6a94","system_id":"levelo_inurba_marseille","lat":43.29898,"lon":5.43679,"is_reserved":false,"is_disabled":false,"rental_uris":{"android":"levelo://app?vid=54d09a39-e79d-434c-8a05-a8f2660c6a94","ios":"levelo://app?vid=54d09a39-e79d-434c-8a05-a8f2660c6a94"},"vehicle_type_id":"4","last_reported":1728151826,"current_range_meters":9200,"station_id":"ce4bhpp2rcd13ifvqhfg","pricing_plan_id":"cebpf4jnsgd1na2vs0mg"},{"bike_id":"69b330ae-1dc4-4893-985f-b03e6f6b07e8","system_id":"levelo_inurba_marseille","lat":43.31202,"lon":5.36868,"is_reserved":false,"is_disabled":false,"rental_uris":{"android":"levelo://app?vid=69b330ae-1dc4-4893-985f-b03e6f6b07e8","ios":"levelo://app?vid=69b330ae-1dc4-4893-985f-b03e6f6b07e8"},"vehicle_type_id":"4","last_reported":1728151826,"current_range_meters":23200,"station_id":"ce4bgl92rcd13ifvqbq0","pricing_plan_id":"cebpf4jnsgd1na2vs0mg"},{"bike_id":"6b8ea279-3255-4410-be1c-953b0ea75cef","system_id":"levelo_inurba_marseille","lat":43.28563,"lon":5.39495,"is_reserved":false,"is_disabled":false,"rental_uris":{"android":"levelo://app?vid=6b8ea279-3255-4410-be1c-953b0ea75cef","ios":"levelo://app?vid=6b8ea279-3255-4410-be1c-953b0ea75cef"},"vehicle_type_id":"4","last_reported":1728151826,"current_range_meters":24400,"station_id":"ce4bh292rcd13ifvqdg0","pricing_plan_id":"cebpf4jnsgd1na2vs0mg"},{"bike_id":"491813ec-5bcd-4eda-acb2-c01ccb4e9894","system_id":"levelo_inurba_marseille","lat":43.3376,"lon":5.37428,"is_reserved":false,"is_disabled":false,"rental_uris":{"android":"levelo://app?vid=491813ec-5bcd-4eda-acb2-c01ccb4e9894","ios":"levelo://app?vid=491813ec-5bcd-4eda-acb2-c01ccb4e9894"},"vehicle_type_id":"4","last_reported":1728151826,"current_range_meters":34800,"station_id":"","pricing_plan_id":"cebpf4jnsgd1na2vs0mg"},{"bike_id":"baba7691-81ff-4c7d-90d9-c89eba9696cb","system_id":"levelo_inurba_marseille","lat":43.25929,"lon":5.40912,"is_reserved":false,"is_disabled":false,"rental_uris":{"android":"levelo://app?vid=baba7691-81ff-4c7d-90d9-c89eba9696cb","ios":"levelo://app?vid=baba7691-81ff-4c7d-90d9-c89eba9696cb"},"vehicle_type_id":"4","last_reported":1728151826,"current_range_meters":36000,"station_id":"ce4bhm92rcd13ifvqglg","pricing_plan_id":"cebpf4jnsgd1na2vs0mg"},{"bike_id":"5f9a9f3f-19bc-414f-9c14-e5b0f2b35eb5","system_id":"levelo_inurba_marseille","lat":43.25726,"lon":5.41111,"is_reserved":false,"is_disabled":false,"rental_uris":{"android":"levelo://app?vid=5f9a9f3f-19bc-414f-9c14-e5b0f2b35eb5","ios":"levelo://app?vid=5f9a9f3f-19bc-414f-9c14-e5b0f2b35eb5"},"vehicle_type_id":"4","last_reported":1728151826,"current_range_meters":25200,"station_id":"ce4bhkp2rcd13ifvqgd0","pricing_plan_id":"cebpf4jnsgd1na2vs0mg"},{"bike_id":"34e4e849-b0ec-494f-aa17-7d8af076bd4b","system_id":"levelo_inurba_marseille","lat":43.28,"lon":5.41661,"is_reserved":false,"is_disabled":false,"rental_uris":{"android":"levelo://app?vid=34e4e849-b0ec-494f-aa17-7d8af076bd4b","ios":"levelo://app?vid=34e4e849-b0ec-494f-aa17-7d8af076bd4b"},"vehicle_type_id":"4","last_reported":1728151826,"current_range_meters":27200,"station_id":"ce4bho12rcd13ifvqh1g","pricing_plan_id":"cebpf4jnsgd1na2vs0mg"},{"bike_id":"7adbbab3-855f-4099-a687-8a7e87d5ada7","system_id":"levelo_inurba_marseille","lat":43.27173,"lon":5.40995,"is_reserved":false,"is_disabled":false,"rental_uris":{"android":"levelo://app?vid=7adbbab3-855f-4099-a687-8a7e87d5ada7","ios":"levelo://app?vid=7adbbab3-855f-4099-a687-8a7e87d5ada7"},"vehicle_type_id":"4","last_reported":1728151826,"current_range_meters":37600,"station_id":"ce4bhl12rcd13ifvqgf0","pricing_plan_id":"cebpf4jnsgd1na2vs0mg"},{"bike_id":"0f9e4da9-2d5e-4578-ad5d-bb0bff9fab4a","system_id":"levelo_inurba_marseille","lat":43.28945,"lon":5.36637,"is_reserved":false,"is_disabled":false,"rental_uris":{"android":"levelo://app?vid=0f9e4da9-2d5e-4578-ad5d-bb0bff9fab4a","ios":"levelo://app?vid=0f9e4da9-2d5e-4578-ad5d-bb0bff9fab4a"},"vehicle_type_id":"4","last_reported":1728151826,"current_range_meters":32000,"station_id":"ce4bhap2rcd13ifvqek0","pricing_plan_id":"cebpf4jnsgd1na2vs0mg"},{"bike_id":"d23ddbe4-840b-4d6d-8e13-a20922334a77","system_id":"levelo_inurba_marseille","lat":43.32487,"lon":5.36562,"is_reserved":false,"is_disabled":false,"rental_uris":{"android":"levelo://app?vid=d23ddbe4-840b-4d6d-8e13-a20922334a77","ios":"levelo://app?vid=d23ddbe4-840b-4d6d-8e13-a20922334a77"},"vehicle_type_id":"4","last_reported":1728151826,"current_range_meters":16000,"station_id":"ce4bhs12rcd13ifvqhvg","pricing_plan_id":"cebpf4jnsgd1na2vs0mg"},{"bike_id":"4af55307-045f-4c66-a045-a91d88bb4c16","system_id":"levelo_inurba_marseille","lat":43.33763,"lon":5.37432,"is_reserved":false,"is_disabled":false,"rental_uris":{"android":"levelo://app?vid=4af55307-045f-4c66-a045-a91d88bb4c16","ios":"levelo://app?vid=4af55307-045f-4c66-a045-a91d88bb4c16"},"vehicle_type_id":"4","last_reported":1728151826,"current_range_meters":35200,"station_id":"","pricing_plan_id":"cebpf4jnsgd1na2vs0mg"},{"bike_id":"13a35d1a-1c21-4cdd-9282-17040c700716","system_id":"levelo_inurba_marseille","lat":43.32544,"lon":5.41437,"is_reserved":false,"is_disabled":false,"rental_uris":{"android":"levelo://app?vid=13a35d1a-1c21-4cdd-9282-17040c700716","ios":"levelo://app?vid=13a35d1a-1c21-4cdd-9282-17040c700716"},"vehicle_type_id":"4","last_reported":1728151826,"current_range_meters":37600,"station_id":"ce4bhq12rcd13ifvqhhg","pricing_plan_id":"cebpf4jnsgd1na2vs0mg"},{"bike_id":"4ac85f60-87eb-4b16-8481-ece1c31ab68a","system_id":"levelo_inurba_marseille","lat":43.24645,"lon":5.3889,"is_reserved":false,"is_disabled":false,"rental_uris":{"android":"levelo://app?vid=4ac85f60-87eb-4b16-8481-ece1c31ab68a","ios":"levelo://app?vid=4ac85f60-87eb-4b16-8481-ece1c31ab68a"},"vehicle_type_id":"4","last_reported":1728151826,"current_range_meters":35600,"station_id":"ce4bhg12rcd13ifvqf60","pricing_plan_id":"cebpf4jnsgd1na2vs0mg"},{"bike_id":"ec6e251e-99d1-4ac4-a075-545dbd029bdc","system_id":"levelo_inurba_marseille","lat":43.28904,"lon":5.36203,"is_reserved":false,"is_disabled":false,"rental_uris":{"android":"levelo://app?vid=ec6e251e-99d1-4ac4-a075-545dbd029bdc","ios":"levelo://app?vid=ec6e251e-99d1-4ac4-a075-545dbd029bdc"},"vehicle_type_id":"4","last_reported":1728151826,"current_range_meters":33200,"station_id":"","pricing_plan_id":"cebpf4jnsgd1na2vs0mg"},{"bike_id":"32de8690-8902-45d9-9261-1a5a54055b39","system_id":"levelo_inurba_marseille","lat":43.33024,"lon":5.39036,"is_reserved":false,"is_disabled":false,"rental_uris":{"android":"levelo://app?vid=32de8690-8902-45d9-9261-1a5a54055b39","ios":"levelo://app?vid=32de8690-8902-45d9-9261-1a5a54055b39"},"vehicle_type_id":"4","last_reported":1728151826,"current_range_meters":4800,"station_id":"ce4bhr92rcd13ifvqhrg","pricing_plan_id":"cebpf4jnsgd1na2vs0mg"},{"bike_id":"a887ba90-692b-45be-8b2b-7f037ec1bb0a","system_id":"levelo_inurba_marseille","lat":43.31684,"lon":5.37577,"is_reserved":false,"is_disabled":false,"rental_uris":{"android":"levelo://app?vid=a887ba90-692b-45be-8b2b-7f037ec1bb0a","ios":"levelo://app?vid=a887ba90-692b-45be-8b2b-7f037ec1bb0a"},"vehicle_type_id":"4","last_reported":1728151826,"current_range_meters":4000,"station_id":"","pricing_plan_id":"cebpf4jnsgd1na2vs0mg"},{"bike_id":"853a6758-2a1d-43fb-8e15-2d7e24224eeb","system_id":"levelo_inurba_marseille","lat":43.25109,"lon":5.40325,"is_reserved":false,"is_disabled":false,"rental_uris":{"android":"levelo://app?vid=853a6758-2a1d-43fb-8e15-2d7e24224eeb","ios":"levelo://app?vid=853a6758-2a1d-43fb-8e15-2d7e24224eeb"},"vehicle_type_id":"4","last_reported":1728151826,"current_range_meters":8400,"station_id":"ce4bhr12rcd13ifvqhqg","pricing_plan_id":"cebpf4jnsgd1na2vs0mg"},{"bike_id":"e81c9edc-728a-4fbb-8c8a-6df3fd48fd06","system_id":"levelo_inurba_marseille","lat":43.2767,"lon":5.38878,"is_reserved":false,"is_disabled":false,"rental_uris":{"android":"levelo://app?vid=e81c9edc-728a-4fbb-8c8a-6df3fd48fd06","ios":"levelo://app?vid=e81c9edc-728a-4fbb-8c8a-6df3fd48fd06"},"vehicle_type_id":"4","last_reported":1728151826,"current_range_meters":7200,"station_id":"ce4bhi12rcd13ifvqfo0","pricing_plan_id":"cebpf4jnsgd1na2vs0mg"},{"bike_id":"04ce4eef-9551-4986-b613-8bd9d500d1a5","system_id":"levelo_inurba_marseille","lat":43.25086,"lon":5.39523,"is_reserved":false,"is_disabled":false,"rental_uris":{"android":"levelo://app?vid=04ce4eef-9551-4986-b613-8bd9d500d1a5","ios":"levelo://app?vid=04ce4eef-9551-4986-b613-8bd9d500d1a5"},"vehicle_type_id":"4","last_reported":1728151826,"current_range_meters":8400,"station_id":"ce4bhm12rcd13ifvqgkg","pricing_plan_id":"cebpf4jnsgd1na2vs0mg"},{"bike_id":"3693e37e-c443-46d7-9560-9d14c49a75b7","system_id":"levelo_inurba_marseille","lat":43.29517,"lon":5.39058,"is_reserved":false,"is_disabled":false,"rental_uris":{"android":"levelo://app?vid=3693e37e-c443-46d7-9560-9d14c49a75b7","ios":"levelo://app?vid=3693e37e-c443-46d7-9560-9d14c49a75b7"},"vehicle_type_id":"4","last_reported":1728151826,"current_range_meters":11600,"station_id":"ce4bh3p2rcd13ifvqdp0","pricing_plan_id":"cebpf4jnsgd1na2vs0mg"},{"bike_id":"682c8c83-ca16-4ef7-9e5a-cfc439b078e7","system_id":"levelo_inurba_marseille","lat":43.29262,"lon":5.38451,"is_reserved":false,"is_disabled":false,"rental_uris":{"android":"levelo://app?vid=682c8c83-ca16-4ef7-9e5a-cfc439b078e7","ios":"levelo://app?vid=682c8c83-ca16-4ef7-9e5a-cfc439b078e7"},"vehicle_type_id":"4","last_reported":1728151826,"current_range_meters":30800,"station_id":"ce4bh692rcd13ifvqea0","pricing_plan_id":"cebpf4jnsgd1na2vs0mg"},{"bike_id":"637bb181-b4af-47a8-9223-03533257a6d4","system_id":"levelo_inurba_marseille","lat":43.30303,"lon":5.3685,"is_reserved":false,"is_disabled":false,"rental_uris":{"android":"levelo://app?vid=637bb181-b4af-47a8-9223-03533257a6d4","ios":"levelo://app?vid=637bb181-b4af-47a8-9223-03533257a6d4"},"vehicle_type_id":"4","last_reported":1728151826,"current_range_meters":2000,"station_id":"ce4bgqh2rcd13ifvqc5g","pricing_plan_id":"cebpf4jnsgd1na2vs0mg"},{"bike_id":"d5f902bc-dc18-4d49-a58a-b70007506b69","system_id":"levelo_inurba_marseille","lat":43.31366,"lon":5.38493,"is_reserved":false,"is_disabled":false,"rental_uris":{"android":"levelo://app?vid=d5f902bc-dc18-4d49-a58a-b70007506b69","ios":"levelo://app?vid=d5f902bc-dc18-4d49-a58a-b70007506b69"},"vehicle_type_id":"4","last_reported":1728151826,"current_range_meters":24800,"station_id":"ce4bgt92rcd13ifvqcf0","pricing_plan_id":"cebpf4jnsgd1na2vs0mg"},{"bike_id":"d1ee00ec-d528-40d2-bec4-d424d8297a9e","system_id":"levelo_inurba_marseille","lat":43.29781,"lon":5.37093,"is_reserved":false,"is_disabled":false,"rental_uris":{"android":"levelo://app?vid=d1ee00ec-d528-40d2-bec4-d424d8297a9e","ios":"levelo://app?vid=d1ee00ec-d528-40d2-bec4-d424d8297a9e"},"vehicle_type_id":"4","last_reported":1728151826,"current_range_meters":31200,"station_id":"ce4bgop2rcd13ifvqc1g","pricing_plan_id":"cebpf4jnsgd1na2vs0mg"},{"bike_id":"6e723e62-23ca-483f-96ab-3a121205a79b","system_id":"levelo_inurba_marseille","lat":43.34131,"lon":5.40911,"is_reserved":false,"is_disabled":false,"rental_uris":{"android":"levelo://app?vid=6e723e62-23ca-483f-96ab-3a121205a79b","ios":"levelo://app?vid=6e723e62-23ca-483f-96ab-3a121205a79b"},"vehicle_type_id":"4","last_reported":1728151826,"current_range_meters":19200,"station_id":"ce4bhqh2rcd13ifvqhlg","pricing_plan_id":"cebpf4jnsgd1na2vs0mg"},{"bike_id":"12992257-9ed0-4359-a3ba-260f249cabdb","system_id":"levelo_inurba_marseille","lat":43.30939,"lon":5.40147,"is_reserved":false,"is_disabled":false,"rental_uris":{"android":"levelo://app?vid=12992257-9ed0-4359-a3ba-260f249cabdb","ios":"levelo://app?vid=12992257-9ed0-4359-a3ba-260f249cabdb"},"vehicle_type_id":"4","last_reported":1728151826,"current_range_meters":36000,"station_id":"ce4bgvp2rcd13ifvqct0","pricing_plan_id":"cebpf4jnsgd1na2vs0mg"},{"bike_id":"6b9a91ec-91de-48ab-ab57-2edc5d204765","system_id":"levelo_inurba_marseille","lat":43.27495,"lon":5.42459,"is_reserved":false,"is_disabled":false,"rental_uris":{"android":"levelo://app?vid=6b9a91ec-91de-48ab-ab57-2edc5d204765","ios":"levelo://app?vid=6b9a91ec-91de-48ab-ab57-2edc5d204765"},"vehicle_type_id":"4","last_reported":1728151826,"current_range_meters":3600,"station_id":"ce4bhn92rcd13ifvqgrg","pricing_plan_id":"cebpf4jnsgd1na2vs0mg"},{"bike_id":"256fa177-60ee-45a2-a2aa-de47baeac3b4","system_id":"levelo_inurba_marseille","lat":43.32042,"lon":5.41556,"is_reserved":false,"is_disabled":false,"rental_uris":{"android":"levelo://app?vid=256fa177-60ee-45a2-a2aa-de47baeac3b4","ios":"levelo://app?vid=256fa177-60ee-45a2-a2aa-de47baeac3b4"},"vehicle_type_id":"4","last_reported":1728151826,"current_range_meters":38800,"station_id":"ce4bhq92rcd13ifvqhkg","pricing_plan_id":"cebpf4jnsgd1na2vs0mg"},{"bike_id":"b65bfcf5-ea90-4b48-86e3-8c568ec3553a","system_id":"levelo_inurba_marseille","lat":43.308044,"lon":5.381427,"is_reserved":false,"is_disabled":false,"rental_uris":{"android":"levelo://app?vid=b65bfcf5-ea90-4b48-86e3-8c568ec3553a","ios":"levelo://app?vid=b65bfcf5-ea90-4b48-86e3-8c568ec3553a"},"vehicle_type_id":"4","last_reported":1728151826,"current_range_meters":9600,"station_id":"ce4bgt12rcd13ifvqce0","pricing_plan_id":"cebpf4jnsgd1na2vs0mg"},{"bike_id":"df32d2fa-ad6a-4950-b630-47562f1a30bd","system_id":"levelo_inurba_marseille","lat":43.3013,"lon":5.3919,"is_reserved":false,"is_disabled":false,"rental_uris":{"android":"levelo://app?vid=df32d2fa-ad6a-4950-b630-47562f1a30bd","ios":"levelo://app?vid=df32d2fa-ad6a-4950-b630-47562f1a30bd"},"vehicle_type_id":"4","last_reported":1728151826,"current_range_meters":8800,"station_id":"","pricing_plan_id":"cebpf4jnsgd1na2vs0mg"},{"bike_id":"0a557b30-6edf-4207-9a3c-2db2b454fe2a","system_id":"levelo_inurba_marseille","lat":43.30913,"lon":5.36847,"is_reserved":false,"is_disabled":false,"rental_uris":{"android":"levelo://app?vid=0a557b30-6edf-4207-9a3c-2db2b454fe2a","ios":"levelo://app?vid=0a557b30-6edf-4207-9a3c-2db2b454fe2a"},"vehicle_type_id":"4","last_reported":1728151826,"current_range_meters":19600,"station_id":"ce4bgn92rcd13ifvqbvg","pricing_plan_id":"cebpf4jnsgd1na2vs0mg"},{"bike_id":"9b9ad3fd-3f5e-402a-bea1-836b1294403c","system_id":"levelo_inurba_marseille","lat":43.29552,"lon":5.39402,"is_reserved":false,"is_disabled":false,"rental_uris":{"android":"levelo://app?vid=9b9ad3fd-3f5e-402a-bea1-836b1294403c","ios":"levelo://app?vid=9b9ad3fd-3f5e-402a-bea1-836b1294403c"},"vehicle_type_id":"4","last_reported":1728151826,"current_range_meters":38000,"station_id":"ce4bh292rcd13ifvqdf0","pricing_plan_id":"cebpf4jnsgd1na2vs0mg"},{"bike_id":"0f2ee7e1-9420-4a65-b0a0-38000617b8d8","system_id":"levelo_inurba_marseille","lat":43.29806,"lon":5.40413,"is_reserved":false,"is_disabled":false,"rental_uris":{"android":"levelo://app?vid=0f2ee7e1-9420-4a65-b0a0-38000617b8d8","ios":"levelo://app?vid=0f2ee7e1-9420-4a65-b0a0-38000617b8d8"},"vehicle_type_id":"4","last_reported":1728151826,"current_range_meters":38800,"station_id":"ce4bh112rcd13ifvqd90","pricing_plan_id":"cebpf4jnsgd1na2vs0mg"},{"bike_id":"81eb6053-656c-43fe-98da-35e19cb0d476","system_id":"levelo_inurba_marseille","lat":43.25,"lon":5.38927,"is_reserved":false,"is_disabled":false,"rental_uris":{"android":"levelo://app?vid=81eb6053-656c-43fe-98da-35e19cb0d476","ios":"levelo://app?vid=81eb6053-656c-43fe-98da-35e19cb0d476"},"vehicle_type_id":"4","last_reported":1728151826,"current_range_meters":8800,"station_id":"ce4bhgp2rcd13ifvqfd0","pricing_plan_id":"cebpf4jnsgd1na2vs0mg"},{"bike_id":"28067cde-df66-467c-9964-17d700488eb4","system_id":"levelo_inurba_marseille","lat":43.316976,"lon":5.404946,"is_reserved":false,"is_disabled":false,"rental_uris":{"android":"levelo://app?vid=28067cde-df66-467c-9964-17d700488eb4","ios":"levelo://app?vid=28067cde-df66-467c-9964-17d700488eb4"},"vehicle_type_id":"4","last_reported":1728151826,"current_range_meters":10800,"station_id":"ce4bh012rcd13ifvqd00","pricing_plan_id":"cebpf4jnsgd1na2vs0mg"},{"bike_id":"704d9481-6ec3-47be-8efb-df494f367ab6","system_id":"levelo_inurba_marseille","lat":43.29551,"lon":5.423,"is_reserved":false,"is_disabled":false,"rental_uris":{"android":"levelo://app?vid=704d9481-6ec3-47be-8efb-df494f367ab6","ios":"levelo://app?vid=704d9481-6ec3-47be-8efb-df494f367ab6"},"vehicle_type_id":"4","last_reported":1728151826,"current_range_meters":38000,"station_id":"ce4bhph2rcd13ifvqhdg","pricing_plan_id":"cebpf4jnsgd1na2vs0mg"},{"bike_id":"0294589b-df9d-4203-a003-0153a39d48a6","system_id":"levelo_inurba_marseille","lat":43.30311,"lon":5.36894,"is_reserved":false,"is_disabled":false,"rental_uris":{"android":"levelo://app?vid=0294589b-df9d-4203-a003-0153a39d48a6","ios":"levelo://app?vid=0294589b-df9d-4203-a003-0153a39d48a6"},"vehicle_type_id":"4","last_reported":1728151826,"current_range_meters":22000,"station_id":"ce4bgqh2rcd13ifvqc5g","pricing_plan_id":"cebpf4jnsgd1na2vs0mg"},{"bike_id":"3d0b7f49-8858-41cb-8217-309790966cce","system_id":"levelo_inurba_marseille","lat":43.29703,"lon":5.36605,"is_reserved":false,"is_disabled":false,"rental_uris":{"android":"levelo://app?vid=3d0b7f49-8858-41cb-8217-309790966cce","ios":"levelo://app?vid=3d0b7f49-8858-41cb-8217-309790966cce"},"vehicle_type_id":"4","last_reported":1728151826,"current_range_meters":6800,"station_id":"ce4bgn12rcd13ifvqbt0","pricing_plan_id":"cebpf4jnsgd1na2vs0mg"},{"bike_id":"bb5f5452-4b9b-417d-b148-b396a874f3d9","system_id":"levelo_inurba_marseille","lat":43.33763,"lon":5.37435,"is_reserved":false,"is_disabled":false,"rental_uris":{"android":"levelo://app?vid=bb5f5452-4b9b-417d-b148-b396a874f3d9","ios":"levelo://app?vid=bb5f5452-4b9b-417d-b148-b396a874f3d9"},"vehicle_type_id":"4","last_reported":1728151826,"current_range_meters":30400,"station_id":"","pricing_plan_id":"cebpf4jnsgd1na2vs0mg"},{"bike_id":"ec44656c-1ad0-4fc6-8f84-5427c6e573be","system_id":"levelo_inurba_marseille","lat":43.28696,"lon":5.37406,"is_reserved":false,"is_disabled":false,"rental_uris":{"android":"levelo://app?vid=ec44656c-1ad0-4fc6-8f84-5427c6e573be","ios":"levelo://app?vid=ec44656c-1ad0-4fc6-8f84-5427c6e573be"},"vehicle_type_id":"4","last_reported":1728151826,"current_range_meters":38800,"station_id":"ce4bh3p2rcd13ifvqdq0","pricing_plan_id":"cebpf4jnsgd1na2vs0mg"},{"bike_id":"ab83fadf-d068-4c8e-b6a0-a2c4cd43bc9b","system_id":"levelo_inurba_marseille","lat":43.31997,"lon":5.3815,"is_reserved":false,"is_disabled":false,"rental_uris":{"android":"levelo://app?vid=ab83fadf-d068-4c8e-b6a0-a2c4cd43bc9b","ios":"levelo://app?vid=ab83fadf-d068-4c8e-b6a0-a2c4cd43bc9b"},"vehicle_type_id":"4","last_reported":1728151826,"current_range_meters":32400,"station_id":"ce4bhr12rcd13ifvqhpg","pricing_plan_id":"cebpf4jnsgd1na2vs0mg"},{"bike_id":"3f491cba-5f7c-4eea-b041-10d978f630b1","system_id":"levelo_inurba_marseille","lat":43.3035,"lon":5.41884,"is_reserved":false,"is_disabled":false,"rental_uris":{"android":"levelo://app?vid=3f491cba-5f7c-4eea-b041-10d978f630b1","ios":"levelo://app?vid=3f491cba-5f7c-4eea-b041-10d978f630b1"},"vehicle_type_id":"4","last_reported":1728151826,"current_range_meters":29600,"station_id":"ce4bhop2rcd13ifvqh7g","pricing_plan_id":"cebpf4jnsgd1na2vs0mg"},{"bike_id":"ec3866db-454d-4f93-af4f-4a3385f7e998","system_id":"levelo_inurba_marseille","lat":43.26568,"lon":5.39022,"is_reserved":false,"is_disabled":false,"rental_uris":{"android":"levelo://app?vid=ec3866db-454d-4f93-af4f-4a3385f7e998","ios":"levelo://app?vid=ec3866db-454d-4f93-af4f-4a3385f7e998"},"vehicle_type_id":"4","last_reported":1728151826,"current_range_meters":30800,"station_id":"ce4bhe12rcd13ifvqf30","pricing_plan_id":"cebpf4jnsgd1na2vs0mg"},{"bike_id":"b3af9042-5df5-4dad-9fb5-b483261176aa","system_id":"levelo_inurba_marseille","lat":43.31224,"lon":5.36868,"is_reserved":false,"is_disabled":false,"rental_uris":{"android":"levelo://app?vid=b3af9042-5df5-4dad-9fb5-b483261176aa","ios":"levelo://app?vid=b3af9042-5df5-4dad-9fb5-b483261176aa"},"vehicle_type_id":"4","last_reported":1728151826,"current_range_meters":38400,"station_id":"ce4bgl92rcd13ifvqbq0","pricing_plan_id":"cebpf4jnsgd1na2vs0mg"},{"bike_id":"50f3cb5d-66c2-4aa7-a301-6184ad1b493e","system_id":"levelo_inurba_marseille","lat":43.27887,"lon":5.3801,"is_reserved":false,"is_disabled":false,"rental_uris":{"android":"levelo://app?vid=50f3cb5d-66c2-4aa7-a301-6184ad1b493e","ios":"levelo://app?vid=50f3cb5d-66c2-4aa7-a301-6184ad1b493e"},"vehicle_type_id":"4","last_reported":1728151826,"current_range_meters":15200,"station_id":"ce4bhf92rcd13ifvqf50","pricing_plan_id":"cebpf4jnsgd1na2vs0mg"},{"bike_id":"4f3c7d70-d152-4f09-ab55-90ba3d87809a","system_id":"levelo_inurba_marseille","lat":43.28937,"lon":5.36631,"is_reserved":false,"is_disabled":false,"rental_uris":{"android":"levelo://app?vid=4f3c7d70-d152-4f09-ab55-90ba3d87809a","ios":"levelo://app?vid=4f3c7d70-d152-4f09-ab55-90ba3d87809a"},"vehicle_type_id":"4","last_reported":1728151826,"current_range_meters":37600,"station_id":"ce4bhap2rcd13ifvqek0","pricing_plan_id":"cebpf4jnsgd1na2vs0mg"},{"bike_id":"6b8767d7-620a-409a-a298-459fe6756a6b","system_id":"levelo_inurba_marseille","lat":43.2936,"lon":5.37863,"is_reserved":false,"is_disabled":false,"rental_uris":{"android":"levelo://app?vid=6b8767d7-620a-409a-a298-459fe6756a6b","ios":"levelo://app?vid=6b8767d7-620a-409a-a298-459fe6756a6b"},"vehicle_type_id":"4","last_reported":1728151826,"current_range_meters":38800,"station_id":"ce4bgjh2rcd13ifvqbf0","pricing_plan_id":"cebpf4jnsgd1na2vs0mg"},{"bike_id":"d1c22bff-dd8f-4c55-9db0-fa59411a2072","system_id":"levelo_inurba_marseille","lat":43.31359,"lon":5.36719,"is_reserved":false,"is_disabled":false,"rental_uris":{"android":"levelo://app?vid=d1c22bff-dd8f-4c55-9db0-fa59411a2072","ios":"levelo://app?vid=d1c22bff-dd8f-4c55-9db0-fa59411a2072"},"vehicle_type_id":"4","last_reported":1728151826,"current_range_meters":31200,"station_id":"ce4bgr92rcd13ifvqc6g","pricing_plan_id":"cebpf4jnsgd1na2vs0mg"},{"bike_id":"10026331-23db-4c87-a70b-640fe0b84908","system_id":"levelo_inurba_marseille","lat":43.33026,"lon":5.39047,"is_reserved":false,"is_disabled":false,"rental_uris":{"android":"levelo://app?vid=10026331-23db-4c87-a70b-640fe0b84908","ios":"levelo://app?vid=10026331-23db-4c87-a70b-640fe0b84908"},"vehicle_type_id":"4","last_reported":1728151826,"current_range_meters":6800,"station_id":"ce4bhr92rcd13ifvqhrg","pricing_plan_id":"cebpf4jnsgd1na2vs0mg"},{"bike_id":"97caffac-7c8a-4334-b965-8313481ce6d7","system_id":"levelo_inurba_marseille","lat":43.31757,"lon":5.37648,"is_reserved":false,"is_disabled":false,"rental_uris":{"android":"levelo://app?vid=97caffac-7c8a-4334-b965-8313481ce6d7","ios":"levelo://app?vid=97caffac-7c8a-4334-b965-8313481ce6d7"},"vehicle_type_id":"4","last_reported":1728151826,"current_range_meters":37600,"station_id":"","pricing_plan_id":"cebpf4jnsgd1na2vs0mg"},{"bike_id":"d2b0596a-338c-475c-a27f-f53ce416452a","system_id":"levelo_inurba_marseille","lat":43.3111,"lon":5.40135,"is_reserved":false,"is_disabled":false,"rental_uris":{"android":"levelo://app?vid=d2b0596a-338c-475c-a27f-f53ce416452a","ios":"levelo://app?vid=d2b0596a-338c-475c-a27f-f53ce416452a"},"vehicle_type_id":"4","last_reported":1728151826,"current_range_meters":20400,"station_id":"","pricing_plan_id":"cebpf4jnsgd1na2vs0mg"},{"bike_id":"5e9722b9-527e-4896-955a-569ed40eb913","system_id":"levelo_inurba_marseille","lat":43.32104,"lon":5.36786,"is_reserved":false,"is_disabled":false,"rental_uris":{"android":"levelo://app?vid=5e9722b9-527e-4896-955a-569ed40eb913","ios":"levelo://app?vid=5e9722b9-527e-4896-955a-569ed40eb913"},"vehicle_type_id":"4","last_reported":1728151826,"current_range_meters":28800,"station_id":"ce4bhrh2rcd13ifvqhug","pricing_plan_id":"cebpf4jnsgd1na2vs0mg"},{"bike_id":"8f333e64-a742-4f16-9e41-4e5404724006","system_id":"levelo_inurba_marseille","lat":43.31234,"lon":5.36862,"is_reserved":false,"is_disabled":false,"rental_uris":{"android":"levelo://app?vid=8f333e64-a742-4f16-9e41-4e5404724006","ios":"levelo://app?vid=8f333e64-a742-4f16-9e41-4e5404724006"},"vehicle_type_id":"4","last_reported":1728151826,"current_range_meters":27200,"station_id":"ce4bgl92rcd13ifvqbq0","pricing_plan_id":"cebpf4jnsgd1na2vs0mg"},{"bike_id":"78cfcc3c-2061-4c54-8e9a-c4d9b3a845c4","system_id":"levelo_inurba_marseille","lat":43.29553,"lon":5.423,"is_reserved":false,"is_disabled":false,"rental_uris":{"android":"levelo://app?vid=78cfcc3c-2061-4c54-8e9a-c4d9b3a845c4","ios":"levelo://app?vid=78cfcc3c-2061-4c54-8e9a-c4d9b3a845c4"},"vehicle_type_id":"4","last_reported":1728151826,"current_range_meters":14400,"station_id":"ce4bhph2rcd13ifvqhdg","pricing_plan_id":"cebpf4jnsgd1na2vs0mg"},{"bike_id":"155a35a0-00c0-4455-8ee9-76f571964d7f","system_id":"levelo_inurba_marseille","lat":43.29519,"lon":5.38554,"is_reserved":false,"is_disabled":false,"rental_uris":{"android":"levelo://app?vid=155a35a0-00c0-4455-8ee9-76f571964d7f","ios":"levelo://app?vid=155a35a0-00c0-4455-8ee9-76f571964d7f"},"vehicle_type_id":"4","last_reported":1728151826,"current_range_meters":14000,"station_id":"ce4bgih2rcd13ifvqba0","pricing_plan_id":"cebpf4jnsgd1na2vs0mg"},{"bike_id":"c7741dda-522d-4da7-83bc-92f93d33ab57","system_id":"levelo_inurba_marseille","lat":43.31223,"lon":5.36852,"is_reserved":false,"is_disabled":false,"rental_uris":{"android":"levelo://app?vid=c7741dda-522d-4da7-83bc-92f93d33ab57","ios":"levelo://app?vid=c7741dda-522d-4da7-83bc-92f93d33ab57"},"vehicle_type_id":"4","last_reported":1728151826,"current_range_meters":10000,"station_id":"ce4bgl92rcd13ifvqbq0","pricing_plan_id":"cebpf4jnsgd1na2vs0mg"},{"bike_id":"a0867223-e2cf-49a2-bb70-12696eadfb28","system_id":"levelo_inurba_marseille","lat":43.29556,"lon":5.42287,"is_reserved":false,"is_disabled":false,"rental_uris":{"android":"levelo://app?vid=a0867223-e2cf-49a2-bb70-12696eadfb28","ios":"levelo://app?vid=a0867223-e2cf-49a2-bb70-12696eadfb28"},"vehicle_type_id":"4","last_reported":1728151826,"current_range_meters":38800,"station_id":"ce4bhph2rcd13ifvqhdg","pricing_plan_id":"cebpf4jnsgd1na2vs0mg"},{"bike_id":"73ef141a-a5bf-4c87-b5ac-4cdaa68a921a","system_id":"levelo_inurba_marseille","lat":43.3254,"lon":5.41427,"is_reserved":false,"is_disabled":false,"rental_uris":{"android":"levelo://app?vid=73ef141a-a5bf-4c87-b5ac-4cdaa68a921a","ios":"levelo://app?vid=73ef141a-a5bf-4c87-b5ac-4cdaa68a921a"},"vehicle_type_id":"4","last_reported":1728151826,"current_range_meters":11600,"station_id":"ce4bhq12rcd13ifvqhhg","pricing_plan_id":"cebpf4jnsgd1na2vs0mg"},{"bike_id":"4a4fbeae-7246-413e-8123-dcfd095fd984","system_id":"levelo_inurba_marseille","lat":43.29303,"lon":5.37182,"is_reserved":false,"is_disabled":false,"rental_uris":{"android":"levelo://app?vid=4a4fbeae-7246-413e-8123-dcfd095fd984","ios":"levelo://app?vid=4a4fbeae-7246-413e-8123-dcfd095fd984"},"vehicle_type_id":"4","last_reported":1728151826,"current_range_meters":31200,"station_id":"ce4bgh92rcd13ifvqb40","pricing_plan_id":"cebpf4jnsgd1na2vs0mg"},{"bike_id":"a88de313-6a6c-466a-8431-ca561f3e0c73","system_id":"levelo_inurba_marseille","lat":43.32111,"lon":5.36766,"is_reserved":false,"is_disabled":false,"rental_uris":{"android":"levelo://app?vid=a88de313-6a6c-466a-8431-ca561f3e0c73","ios":"levelo://app?vid=a88de313-6a6c-466a-8431-ca561f3e0c73"},"vehicle_type_id":"4","last_reported":1728151826,"current_range_meters":9600,"station_id":"ce4bhrh2rcd13ifvqhug","pricing_plan_id":"cebpf4jnsgd1na2vs0mg"},{"bike_id":"57404f81-9bbf-4801-926b-58431093b8a9","system_id":"levelo_inurba_marseille","lat":43.313489,"lon":5.366979,"is_reserved":false,"is_disabled":false,"rental_uris":{"android":"levelo://app?vid=57404f81-9bbf-4801-926b-58431093b8a9","ios":"levelo://app?vid=57404f81-9bbf-4801-926b-58431093b8a9"},"vehicle_type_id":"4","last_reported":1728151826,"current_range_meters":12800,"station_id":"ce4bgr92rcd13ifvqc6g","pricing_plan_id":"cebpf4jnsgd1na2vs0mg"},{"bike_id":"2d2d7706-cdab-4f66-814d-3843b1cf7019","system_id":"levelo_inurba_marseille","lat":43.2509,"lon":5.39518,"is_reserved":false,"is_disabled":false,"rental_uris":{"android":"levelo://app?vid=2d2d7706-cdab-4f66-814d-3843b1cf7019","ios":"levelo://app?vid=2d2d7706-cdab-4f66-814d-3843b1cf7019"},"vehicle_type_id":"4","last_reported":1728151826,"current_range_meters":6800,"station_id":"ce4bhm12rcd13ifvqgkg","pricing_plan_id":"cebpf4jnsgd1na2vs0mg"},{"bike_id":"009d6d0e-c1a8-4ddc-b330-ebf04e9c45b9","system_id":"levelo_inurba_marseille","lat":43.299,"lon":5.43679,"is_reserved":false,"is_disabled":false,"rental_uris":{"android":"levelo://app?vid=009d6d0e-c1a8-4ddc-b330-ebf04e9c45b9","ios":"levelo://app?vid=009d6d0e-c1a8-4ddc-b330-ebf04e9c45b9"},"vehicle_type_id":"4","last_reported":1728151826,"current_range_meters":19200,"station_id":"ce4bhpp2rcd13ifvqhfg","pricing_plan_id":"cebpf4jnsgd1na2vs0mg"},{"bike_id":"9a0e12dd-8157-43af-95de-4c4aa779fc52","system_id":"levelo_inurba_marseille","lat":43.231912,"lon":5.400105,"is_reserved":false,"is_disabled":false,"rental_uris":{"android":"levelo://app?vid=9a0e12dd-8157-43af-95de-4c4aa779fc52","ios":"levelo://app?vid=9a0e12dd-8157-43af-95de-4c4aa779fc52"},"vehicle_type_id":"4","last_reported":1728151826,"current_range_meters":11600,"station_id":"ce4bhn12rcd13ifvqgqg","pricing_plan_id":"cebpf4jnsgd1na2vs0mg"},{"bike_id":"4e0c83a2-b0c3-4894-8559-e509681998d3","system_id":"levelo_inurba_marseille","lat":43.31133,"lon":5.38331,"is_reserved":false,"is_disabled":false,"rental_uris":{"android":"levelo://app?vid=4e0c83a2-b0c3-4894-8559-e509681998d3","ios":"levelo://app?vid=4e0c83a2-b0c3-4894-8559-e509681998d3"},"vehicle_type_id":"4","last_reported":1728151826,"current_range_meters":14800,"station_id":"","pricing_plan_id":"cebpf4jnsgd1na2vs0mg"},{"bike_id":"ec0f6e18-8dcb-4ba1-9f4d-468854fad27d","system_id":"levelo_inurba_marseille","lat":43.32323,"lon":5.38644,"is_reserved":false,"is_disabled":false,"rental_uris":{"android":"levelo://app?vid=ec0f6e18-8dcb-4ba1-9f4d-468854fad27d","ios":"levelo://app?vid=ec0f6e18-8dcb-4ba1-9f4d-468854fad27d"},"vehicle_type_id":"4","last_reported":1728151826,"current_range_meters":8000,"station_id":"","pricing_plan_id":"cebpf4jnsgd1na2vs0mg"},{"bike_id":"dce3e2c9-4bfd-4f17-b58e-3d5da108bfe2","system_id":"levelo_inurba_marseille","lat":43.29161,"lon":5.37171,"is_reserved":false,"is_disabled":false,"rental_uris":{"android":"levelo://app?vid=dce3e2c9-4bfd-4f17-b58e-3d5da108bfe2","ios":"levelo://app?vid=dce3e2c9-4bfd-4f17-b58e-3d5da108bfe2"},"vehicle_type_id":"4","last_reported":1728151826,"current_range_meters":8000,"station_id":"ce4bha92rcd13ifvqeh0","pricing_plan_id":"cebpf4jnsgd1na2vs0mg"},{"bike_id":"0135621d-8566-489b-99be-c2a66e09c3bd","system_id":"levelo_inurba_marseille","lat":43.30422,"lon":5.41281,"is_reserved":false,"is_disabled":false,"rental_uris":{"android":"levelo://app?vid=0135621d-8566-489b-99be-c2a66e09c3bd","ios":"levelo://app?vid=0135621d-8566-489b-99be-c2a66e09c3bd"},"vehicle_type_id":"4","last_reported":1728151826,"current_range_meters":4800,"station_id":"ce4bhop2rcd13ifvqh8g","pricing_plan_id":"cebpf4jnsgd1na2vs0mg"},{"bike_id":"2df6ce1d-d892-48d0-b874-b3690911a81a","system_id":"levelo_inurba_marseille","lat":43.2997,"lon":5.41317,"is_reserved":false,"is_disabled":false,"rental_uris":{"android":"levelo://app?vid=2df6ce1d-d892-48d0-b874-b3690911a81a","ios":"levelo://app?vid=2df6ce1d-d892-48d0-b874-b3690911a81a"},"vehicle_type_id":"4","last_reported":1728151826,"current_range_meters":8800,"station_id":"ce4bhop2rcd13ifvqh8g","pricing_plan_id":"cebpf4jnsgd1na2vs0mg"},{"bike_id":"342316ae-28ec-4a00-9fef-57766c633440","system_id":"levelo_inurba_marseille","lat":43.31339,"lon":5.36709,"is_reserved":false,"is_disabled":false,"rental_uris":{"android":"levelo://app?vid=342316ae-28ec-4a00-9fef-57766c633440","ios":"levelo://app?vid=342316ae-28ec-4a00-9fef-57766c633440"},"vehicle_type_id":"4","last_reported":1728151826,"current_range_meters":24400,"station_id":"ce4bgr92rcd13ifvqc6g","pricing_plan_id":"cebpf4jnsgd1na2vs0mg"},{"bike_id":"119dc160-3d55-4d7b-b0c2-df9c8c95db76","system_id":"levelo_inurba_marseille","lat":43.29518,"lon":5.39046,"is_reserved":false,"is_disabled":false,"rental_uris":{"android":"levelo://app?vid=119dc160-3d55-4d7b-b0c2-df9c8c95db76","ios":"levelo://app?vid=119dc160-3d55-4d7b-b0c2-df9c8c95db76"},"vehicle_type_id":"4","last_reported":1728151826,"current_range_meters":39200,"station_id":"ce4bh3p2rcd13ifvqdp0","pricing_plan_id":"cebpf4jnsgd1na2vs0mg"},{"bike_id":"af8fcb77-74bb-46ab-a02e-5017cb4760cd","system_id":"levelo_inurba_marseille","lat":43.29295,"lon":5.37462,"is_reserved":false,"is_disabled":false,"rental_uris":{"android":"levelo://app?vid=af8fcb77-74bb-46ab-a02e-5017cb4760cd","ios":"levelo://app?vid=af8fcb77-74bb-46ab-a02e-5017cb4760cd"},"vehicle_type_id":"4","last_reported":1728151826,"current_range_meters":38000,"station_id":"ce4bgi12rcd13ifvqb70","pricing_plan_id":"cebpf4jnsgd1na2vs0mg"},{"bike_id":"bdefae95-7cc5-4880-bfcb-b1af39586be0","system_id":"levelo_inurba_marseille","lat":43.32662,"lon":5.40995,"is_reserved":false,"is_disabled":false,"rental_uris":{"android":"levelo://app?vid=bdefae95-7cc5-4880-bfcb-b1af39586be0","ios":"levelo://app?vid=bdefae95-7cc5-4880-bfcb-b1af39586be0"},"vehicle_type_id":"4","last_reported":1728151826,"current_range_meters":38800,"station_id":"ce4bhpp2rcd13ifvqhgg","pricing_plan_id":"cebpf4jnsgd1na2vs0mg"},{"bike_id":"112ae88d-7ced-419d-a8ad-131d16c4886c","system_id":"levelo_inurba_marseille","lat":43.31223,"lon":5.36862,"is_reserved":false,"is_disabled":false,"rental_uris":{"android":"levelo://app?vid=112ae88d-7ced-419d-a8ad-131d16c4886c","ios":"levelo://app?vid=112ae88d-7ced-419d-a8ad-131d16c4886c"},"vehicle_type_id":"4","last_reported":1728151826,"current_range_meters":6400,"station_id":"ce4bgl92rcd13ifvqbq0","pricing_plan_id":"cebpf4jnsgd1na2vs0mg"},{"bike_id":"56346ede-7d8f-479f-a1ef-f303db6ee9b2","system_id":"levelo_inurba_marseille","lat":43.262,"lon":5.37934,"is_reserved":false,"is_disabled":false,"rental_uris":{"android":"levelo://app?vid=56346ede-7d8f-479f-a1ef-f303db6ee9b2","ios":"levelo://app?vid=56346ede-7d8f-479f-a1ef-f303db6ee9b2"},"vehicle_type_id":"4","last_reported":1728151826,"current_range_meters":38800,"station_id":"ce4bhjp2rcd13ifvqg90","pricing_plan_id":"cebpf4jnsgd1na2vs0mg"},{"bike_id":"7cfddf95-163a-471b-a8a5-602ec645f4d7","system_id":"levelo_inurba_marseille","lat":43.31225,"lon":5.36869,"is_reserved":false,"is_disabled":false,"rental_uris":{"android":"levelo://app?vid=7cfddf95-163a-471b-a8a5-602ec645f4d7","ios":"levelo://app?vid=7cfddf95-163a-471b-a8a5-602ec645f4d7"},"vehicle_type_id":"4","last_reported":1728151826,"current_range_meters":16400,"station_id":"ce4bgl92rcd13ifvqbq0","pricing_plan_id":"cebpf4jnsgd1na2vs0mg"},{"bike_id":"e03c9d0c-17ae-4003-b903-fd8aa9951041","system_id":"levelo_inurba_marseille","lat":43.33743,"lon":5.37458,"is_reserved":false,"is_disabled":false,"rental_uris":{"android":"levelo://app?vid=e03c9d0c-17ae-4003-b903-fd8aa9951041","ios":"levelo://app?vid=e03c9d0c-17ae-4003-b903-fd8aa9951041"},"vehicle_type_id":"4","last_reported":1728151826,"current_range_meters":38000,"station_id":"","pricing_plan_id":"cebpf4jnsgd1na2vs0mg"},{"bike_id":"921d4b62-35bc-47cb-9b7f-6ab469803551","system_id":"levelo_inurba_marseille","lat":43.3079,"lon":5.43527,"is_reserved":false,"is_disabled":false,"rental_uris":{"android":"levelo://app?vid=921d4b62-35bc-47cb-9b7f-6ab469803551","ios":"levelo://app?vid=921d4b62-35bc-47cb-9b7f-6ab469803551"},"vehicle_type_id":"4","last_reported":1728151826,"current_range_meters":18000,"station_id":"ce4bhph2rcd13ifvqheg","pricing_plan_id":"cebpf4jnsgd1na2vs0mg"},{"bike_id":"fd8e9143-3fa6-4c01-9f9c-f3626e6482a3","system_id":"levelo_inurba_marseille","lat":43.2942,"lon":5.38628,"is_reserved":false,"is_disabled":false,"rental_uris":{"android":"levelo://app?vid=fd8e9143-3fa6-4c01-9f9c-f3626e6482a3","ios":"levelo://app?vid=fd8e9143-3fa6-4c01-9f9c-f3626e6482a3"},"vehicle_type_id":"4","last_reported":1728151826,"current_range_meters":16400,"station_id":"ce4bh2h2rcd13ifvqdh0","pricing_plan_id":"cebpf4jnsgd1na2vs0mg"},{"bike_id":"26f6fa4b-3144-447c-8048-789b91c6adaf","system_id":"levelo_inurba_marseille","lat":43.304705,"lon":5.427168,"is_reserved":false,"is_disabled":false,"rental_uris":{"android":"levelo://app?vid=26f6fa4b-3144-447c-8048-789b91c6adaf","ios":"levelo://app?vid=26f6fa4b-3144-447c-8048-789b91c6adaf"},"vehicle_type_id":"4","last_reported":1728151826,"current_range_meters":32400,"station_id":"ce4bhp92rcd13ifvqhag","pricing_plan_id":"cebpf4jnsgd1na2vs0mg"},{"bike_id":"2ee02084-3561-45f7-9622-eb8d9f790c08","system_id":"levelo_inurba_marseille","lat":43.28684,"lon":5.38658,"is_reserved":false,"is_disabled":false,"rental_uris":{"android":"levelo://app?vid=2ee02084-3561-45f7-9622-eb8d9f790c08","ios":"levelo://app?vid=2ee02084-3561-45f7-9622-eb8d9f790c08"},"vehicle_type_id":"4","last_reported":1728151826,"current_range_meters":38800,"station_id":"ce4bh492rcd13ifvqdug","pricing_plan_id":"cebpf4jnsgd1na2vs0mg"},{"bike_id":"f50f2924-60a2-4e82-ba8f-d204194d7f45","system_id":"levelo_inurba_marseille","lat":43.28151,"lon":5.42646,"is_reserved":false,"is_disabled":false,"rental_uris":{"android":"levelo://app?vid=f50f2924-60a2-4e82-ba8f-d204194d7f45","ios":"levelo://app?vid=f50f2924-60a2-4e82-ba8f-d204194d7f45"},"vehicle_type_id":"4","last_reported":1728151826,"current_range_meters":17200,"station_id":"ce4bhnh2rcd13ifvqgug","pricing_plan_id":"cebpf4jnsgd1na2vs0mg"},{"bike_id":"b6a817d8-5787-46a3-898e-0b46c75fc481","system_id":"levelo_inurba_marseille","lat":43.32965,"lon":5.40344,"is_reserved":false,"is_disabled":false,"rental_uris":{"android":"levelo://app?vid=b6a817d8-5787-46a3-898e-0b46c75fc481","ios":"levelo://app?vid=b6a817d8-5787-46a3-898e-0b46c75fc481"},"vehicle_type_id":"4","last_reported":1728151826,"current_range_meters":4800,"station_id":"","pricing_plan_id":"cebpf4jnsgd1na2vs0mg"},{"bike_id":"6856d22e-440d-40d9-809f-3167dacdbdc3","system_id":"levelo_inurba_marseille","lat":43.337444,"lon":5.374475,"is_reserved":false,"is_disabled":false,"rental_uris":{"android":"levelo://app?vid=6856d22e-440d-40d9-809f-3167dacdbdc3","ios":"levelo://app?vid=6856d22e-440d-40d9-809f-3167dacdbdc3"},"vehicle_type_id":"4","last_reported":1728151826,"current_range_meters":18000,"station_id":"","pricing_plan_id":"cebpf4jnsgd1na2vs0mg"},{"bike_id":"64bd957e-b978-44cb-a85c-928d627d24ec","system_id":"levelo_inurba_marseille","lat":43.35424,"lon":5.35869,"is_reserved":false,"is_disabled":false,"rental_uris":{"android":"levelo://app?vid=64bd957e-b978-44cb-a85c-928d627d24ec","ios":"levelo://app?vid=64bd957e-b978-44cb-a85c-928d627d24ec"},"vehicle_type_id":"4","last_reported":1728151826,"current_range_meters":6800,"station_id":"","pricing_plan_id":"cebpf4jnsgd1na2vs0mg"},{"bike_id":"64995d1a-0a95-43c1-8426-b3115325266b","system_id":"levelo_inurba_marseille","lat":43.27914,"lon":5.42321,"is_reserved":false,"is_disabled":false,"rental_uris":{"android":"levelo://app?vid=64995d1a-0a95-43c1-8426-b3115325266b","ios":"levelo://app?vid=64995d1a-0a95-43c1-8426-b3115325266b"},"vehicle_type_id":"4","last_reported":1728151826,"current_range_meters":17600,"station_id":"","pricing_plan_id":"cebpf4jnsgd1na2vs0mg"},{"bike_id":"4edeb624-ebef-4a6c-90f8-a40237ad5ffb","system_id":"levelo_inurba_marseille","lat":43.27993,"lon":5.40033,"is_reserved":false,"is_disabled":false,"rental_uris":{"android":"levelo://app?vid=4edeb624-ebef-4a6c-90f8-a40237ad5ffb","ios":"levelo://app?vid=4edeb624-ebef-4a6c-90f8-a40237ad5ffb"},"vehicle_type_id":"4","last_reported":1728151826,"current_range_meters":28000,"station_id":"ce4bho92rcd13ifvqh4g","pricing_plan_id":"cebpf4jnsgd1na2vs0mg"},{"bike_id":"3087cbb8-89ad-4937-9daf-65c8b2772aa2","system_id":"levelo_inurba_marseille","lat":43.33718,"lon":5.39184,"is_reserved":false,"is_disabled":false,"rental_uris":{"android":"levelo://app?vid=3087cbb8-89ad-4937-9daf-65c8b2772aa2","ios":"levelo://app?vid=3087cbb8-89ad-4937-9daf-65c8b2772aa2"},"vehicle_type_id":"4","last_reported":1728151826,"current_range_meters":17600,"station_id":"ce4bhr92rcd13ifvqhsg","pricing_plan_id":"cebpf4jnsgd1na2vs0mg"},{"bike_id":"832d2eac-0493-46b7-a351-95e5f4ef0943","system_id":"levelo_inurba_marseille","lat":43.27425,"lon":5.39423,"is_reserved":false,"is_disabled":false,"rental_uris":{"android":"levelo://app?vid=832d2eac-0493-46b7-a351-95e5f4ef0943","ios":"levelo://app?vid=832d2eac-0493-46b7-a351-95e5f4ef0943"},"vehicle_type_id":"4","last_reported":1728151826,"current_range_meters":3600,"station_id":"ce4bhdp2rcd13ifvqf20","pricing_plan_id":"cebpf4jnsgd1na2vs0mg"},{"bike_id":"72cdf711-2663-46e4-8d5b-b95ee2f5dde3","system_id":"levelo_inurba_marseille","lat":43.31222,"lon":5.36877,"is_reserved":false,"is_disabled":false,"rental_uris":{"android":"levelo://app?vid=72cdf711-2663-46e4-8d5b-b95ee2f5dde3","ios":"levelo://app?vid=72cdf711-2663-46e4-8d5b-b95ee2f5dde3"},"vehicle_type_id":"4","last_reported":1728151826,"current_range_meters":10800,"station_id":"ce4bgl92rcd13ifvqbq0","pricing_plan_id":"cebpf4jnsgd1na2vs0mg"},{"bike_id":"57e67165-b85c-405b-a732-679f9f1eebc5","system_id":"levelo_inurba_marseille","lat":43.31889,"lon":5.40738,"is_reserved":false,"is_disabled":false,"rental_uris":{"android":"levelo://app?vid=57e67165-b85c-405b-a732-679f9f1eebc5","ios":"levelo://app?vid=57e67165-b85c-405b-a732-679f9f1eebc5"},"vehicle_type_id":"4","last_reported":1728151826,"current_range_meters":36000,"station_id":"ce4bhq12rcd13ifvqhig","pricing_plan_id":"cebpf4jnsgd1na2vs0mg"},{"bike_id":"79d4ce44-dde0-4856-adfb-9d048612b764","system_id":"levelo_inurba_marseille","lat":43.33756,"lon":5.37436,"is_reserved":false,"is_disabled":false,"rental_uris":{"android":"levelo://app?vid=79d4ce44-dde0-4856-adfb-9d048612b764","ios":"levelo://app?vid=79d4ce44-dde0-4856-adfb-9d048612b764"},"vehicle_type_id":"4","last_reported":1728151826,"current_range_meters":37600,"station_id":"","pricing_plan_id":"cebpf4jnsgd1na2vs0mg"},{"bike_id":"5f9951db-ed3f-456c-8450-7e867104325e","system_id":"levelo_inurba_marseille","lat":43.29516,"lon":5.39048,"is_reserved":false,"is_disabled":false,"rental_uris":{"android":"levelo://app?vid=5f9951db-ed3f-456c-8450-7e867104325e","ios":"levelo://app?vid=5f9951db-ed3f-456c-8450-7e867104325e"},"vehicle_type_id":"4","last_reported":1728151826,"current_range_meters":38800,"station_id":"ce4bh3p2rcd13ifvqdp0","pricing_plan_id":"cebpf4jnsgd1na2vs0mg"},{"bike_id":"6362dd7e-711b-4b82-af8e-291ea8f6ea1e","system_id":"levelo_inurba_marseille","lat":43.33765,"lon":5.37438,"is_reserved":false,"is_disabled":false,"rental_uris":{"android":"levelo://app?vid=6362dd7e-711b-4b82-af8e-291ea8f6ea1e","ios":"levelo://app?vid=6362dd7e-711b-4b82-af8e-291ea8f6ea1e"},"vehicle_type_id":"4","last_reported":1728151826,"current_range_meters":36000,"station_id":"","pricing_plan_id":"cebpf4jnsgd1na2vs0mg"},{"bike_id":"c7ec8820-b76c-4b2d-a9fa-ad344f0044c8","system_id":"levelo_inurba_marseille","lat":43.31526,"lon":5.38028,"is_reserved":false,"is_disabled":false,"rental_uris":{"android":"levelo://app?vid=c7ec8820-b76c-4b2d-a9fa-ad344f0044c8","ios":"levelo://app?vid=c7ec8820-b76c-4b2d-a9fa-ad344f0044c8"},"vehicle_type_id":"4","last_reported":1728151826,"current_range_meters":10000,"station_id":"ce4bhsp2rcd13ifvqi50","pricing_plan_id":"cebpf4jnsgd1na2vs0mg"},{"bike_id":"d366c603-0baa-4130-aa14-9de1acc340c3","system_id":"levelo_inurba_marseille","lat":43.31253,"lon":5.36848,"is_reserved":false,"is_disabled":false,"rental_uris":{"android":"levelo://app?vid=d366c603-0baa-4130-aa14-9de1acc340c3","ios":"levelo://app?vid=d366c603-0baa-4130-aa14-9de1acc340c3"},"vehicle_type_id":"4","last_reported":1728151826,"current_range_meters":10800,"station_id":"ce4bgl92rcd13ifvqbq0","pricing_plan_id":"cebpf4jnsgd1na2vs0mg"},{"bike_id":"c8040fb2-ec68-41c5-b443-c73822d8e35d","system_id":"levelo_inurba_marseille","lat":43.29783,"lon":5.39338,"is_reserved":false,"is_disabled":false,"rental_uris":{"android":"levelo://app?vid=c8040fb2-ec68-41c5-b443-c73822d8e35d","ios":"levelo://app?vid=c8040fb2-ec68-41c5-b443-c73822d8e35d"},"vehicle_type_id":"4","last_reported":1728151826,"current_range_meters":32000,"station_id":"chh1huq6cuj3fo74tm60","pricing_plan_id":"cebpf4jnsgd1na2vs0mg"},{"bike_id":"c73e5db1-63bb-4328-aad8-9a9c9be04595","system_id":"levelo_inurba_marseille","lat":43.31714,"lon":5.37743,"is_reserved":false,"is_disabled":false,"rental_uris":{"android":"levelo://app?vid=c73e5db1-63bb-4328-aad8-9a9c9be04595","ios":"levelo://app?vid=c73e5db1-63bb-4328-aad8-9a9c9be04595"},"vehicle_type_id":"4","last_reported":1728151826,"current_range_meters":7200,"station_id":"ce4bgth2rcd13ifvqch0","pricing_plan_id":"cebpf4jnsgd1na2vs0mg"},{"bike_id":"7c84b03f-3891-46b8-9420-06c75b7b7c16","system_id":"levelo_inurba_marseille","lat":43.28938,"lon":5.36639,"is_reserved":false,"is_disabled":false,"rental_uris":{"android":"levelo://app?vid=7c84b03f-3891-46b8-9420-06c75b7b7c16","ios":"levelo://app?vid=7c84b03f-3891-46b8-9420-06c75b7b7c16"},"vehicle_type_id":"4","last_reported":1728151826,"current_range_meters":6800,"station_id":"ce4bhap2rcd13ifvqek0","pricing_plan_id":"cebpf4jnsgd1na2vs0mg"},{"bike_id":"5305316b-eb43-43cb-bedf-3a735be36892","system_id":"levelo_inurba_marseille","lat":43.31715,"lon":5.43706,"is_reserved":false,"is_disabled":false,"rental_uris":{"android":"levelo://app?vid=5305316b-eb43-43cb-bedf-3a735be36892","ios":"levelo://app?vid=5305316b-eb43-43cb-bedf-3a735be36892"},"vehicle_type_id":"4","last_reported":1728151826,"current_range_meters":36800,"station_id":"ce4bhp92rcd13ifvqhcg","pricing_plan_id":"cebpf4jnsgd1na2vs0mg"},{"bike_id":"bcafaa46-0377-495d-9111-eea5474b0c47","system_id":"levelo_inurba_marseille","lat":43.2951,"lon":5.3905,"is_reserved":false,"is_disabled":false,"rental_uris":{"android":"levelo://app?vid=bcafaa46-0377-495d-9111-eea5474b0c47","ios":"levelo://app?vid=bcafaa46-0377-495d-9111-eea5474b0c47"},"vehicle_type_id":"4","last_reported":1728151826,"current_range_meters":39200,"station_id":"ce4bh3p2rcd13ifvqdp0","pricing_plan_id":"cebpf4jnsgd1na2vs0mg"},{"bike_id":"5e8ba319-afb4-4860-ae51-34103a50c373","system_id":"levelo_inurba_marseille","lat":43.30907,"lon":5.3685,"is_reserved":false,"is_disabled":false,"rental_uris":{"android":"levelo://app?vid=5e8ba319-afb4-4860-ae51-34103a50c373","ios":"levelo://app?vid=5e8ba319-afb4-4860-ae51-34103a50c373"},"vehicle_type_id":"4","last_reported":1728151826,"current_range_meters":34800,"station_id":"ce4bgn92rcd13ifvqbvg","pricing_plan_id":"cebpf4jnsgd1na2vs0mg"},{"bike_id":"77ea49c5-d69e-4284-82a5-40b399875f26","system_id":"levelo_inurba_marseille","lat":43.27954,"lon":5.38718,"is_reserved":false,"is_disabled":false,"rental_uris":{"android":"levelo://app?vid=77ea49c5-d69e-4284-82a5-40b399875f26","ios":"levelo://app?vid=77ea49c5-d69e-4284-82a5-40b399875f26"},"vehicle_type_id":"4","last_reported":1728151826,"current_range_meters":17200,"station_id":"ce4bhg12rcd13ifvqf80","pricing_plan_id":"cebpf4jnsgd1na2vs0mg"},{"bike_id":"a7220f76-b178-479a-bdf1-9e7df51174c1","system_id":"levelo_inurba_marseille","lat":43.24655,"lon":5.38179,"is_reserved":false,"is_disabled":false,"rental_uris":{"android":"levelo://app?vid=a7220f76-b178-479a-bdf1-9e7df51174c1","ios":"levelo://app?vid=a7220f76-b178-479a-bdf1-9e7df51174c1"},"vehicle_type_id":"4","last_reported":1728151826,"current_range_meters":6800,"station_id":"ce4bhih2rcd13ifvqfr0","pricing_plan_id":"cebpf4jnsgd1na2vs0mg"},{"bike_id":"9b9d4b0b-b53e-4ad4-9c7e-ead8dd80ba22","system_id":"levelo_inurba_marseille","lat":43.32285,"lon":5.38274,"is_reserved":false,"is_disabled":false,"rental_uris":{"android":"levelo://app?vid=9b9d4b0b-b53e-4ad4-9c7e-ead8dd80ba22","ios":"levelo://app?vid=9b9d4b0b-b53e-4ad4-9c7e-ead8dd80ba22"},"vehicle_type_id":"4","last_reported":1728151826,"current_range_meters":22400,"station_id":"ce4bhr12rcd13ifvqhqg","pricing_plan_id":"cebpf4jnsgd1na2vs0mg"},{"bike_id":"a6e80516-5ecf-469d-885f-cd27ce20e77b","system_id":"levelo_inurba_marseille","lat":43.2417,"lon":5.36408,"is_reserved":false,"is_disabled":false,"rental_uris":{"android":"levelo://app?vid=a6e80516-5ecf-469d-885f-cd27ce20e77b","ios":"levelo://app?vid=a6e80516-5ecf-469d-885f-cd27ce20e77b"},"vehicle_type_id":"4","last_reported":1728151826,"current_range_meters":35600,"station_id":"cpo36qri1sfpv3e86is0","pricing_plan_id":"cebpf4jnsgd1na2vs0mg"},{"bike_id":"6804d4f4-784e-4904-88c2-3452d2654437","system_id":"levelo_inurba_marseille","lat":43.30903,"lon":5.36835,"is_reserved":false,"is_disabled":false,"rental_uris":{"android":"levelo://app?vid=6804d4f4-784e-4904-88c2-3452d2654437","ios":"levelo://app?vid=6804d4f4-784e-4904-88c2-3452d2654437"},"vehicle_type_id":"4","last_reported":1728151826,"current_range_meters":10800,"station_id":"ce4bgn92rcd13ifvqbvg","pricing_plan_id":"cebpf4jnsgd1na2vs0mg"},{"bike_id":"2f9a4dd3-f133-403d-b1b3-b8e7346493ab","system_id":"levelo_inurba_marseille","lat":43.26682,"lon":5.38268,"is_reserved":false,"is_disabled":false,"rental_uris":{"android":"levelo://app?vid=2f9a4dd3-f133-403d-b1b3-b8e7346493ab","ios":"levelo://app?vid=2f9a4dd3-f133-403d-b1b3-b8e7346493ab"},"vehicle_type_id":"4","last_reported":1728151826,"current_range_meters":38000,"station_id":"ce4bhg92rcd13ifvqf90","pricing_plan_id":"cebpf4jnsgd1na2vs0mg"},{"bike_id":"536d8726-ba04-4612-bdb1-d7ae0ee7ee51","system_id":"levelo_inurba_marseille","lat":43.313257,"lon":5.387129,"is_reserved":false,"is_disabled":false,"rental_uris":{"android":"levelo://app?vid=536d8726-ba04-4612-bdb1-d7ae0ee7ee51","ios":"levelo://app?vid=536d8726-ba04-4612-bdb1-d7ae0ee7ee51"},"vehicle_type_id":"4","last_reported":1728151826,"current_range_meters":5600,"station_id":"","pricing_plan_id":"cebpf4jnsgd1na2vs0mg"},{"bike_id":"46b5a673-0ddd-4584-8da9-493b410764f1","system_id":"levelo_inurba_marseille","lat":43.29528,"lon":5.38552,"is_reserved":false,"is_disabled":false,"rental_uris":{"android":"levelo://app?vid=46b5a673-0ddd-4584-8da9-493b410764f1","ios":"levelo://app?vid=46b5a673-0ddd-4584-8da9-493b410764f1"},"vehicle_type_id":"4","last_reported":1728151826,"current_range_meters":8800,"station_id":"ce4bgih2rcd13ifvqba0","pricing_plan_id":"cebpf4jnsgd1na2vs0mg"},{"bike_id":"7af7ceaf-e1f0-421c-b052-2db75c521802","system_id":"levelo_inurba_marseille","lat":43.31886,"lon":5.40738,"is_reserved":false,"is_disabled":false,"rental_uris":{"android":"levelo://app?vid=7af7ceaf-e1f0-421c-b052-2db75c521802","ios":"levelo://app?vid=7af7ceaf-e1f0-421c-b052-2db75c521802"},"vehicle_type_id":"4","last_reported":1728151826,"current_range_meters":27600,"station_id":"ce4bhq12rcd13ifvqhig","pricing_plan_id":"cebpf4jnsgd1na2vs0mg"},{"bike_id":"449a207b-1032-4881-84ae-8f7a18cd833c","system_id":"levelo_inurba_marseille","lat":43.24169,"lon":5.36407,"is_reserved":false,"is_disabled":false,"rental_uris":{"android":"levelo://app?vid=449a207b-1032-4881-84ae-8f7a18cd833c","ios":"levelo://app?vid=449a207b-1032-4881-84ae-8f7a18cd833c"},"vehicle_type_id":"4","last_reported":1728151826,"current_range_meters":35600,"station_id":"cpo36qri1sfpv3e86is0","pricing_plan_id":"cebpf4jnsgd1na2vs0mg"},{"bike_id":"557edaa4-3e22-47b8-9fcb-aca9ed114b97","system_id":"levelo_inurba_marseille","lat":43.24167,"lon":5.36408,"is_reserved":false,"is_disabled":false,"rental_uris":{"android":"levelo://app?vid=557edaa4-3e22-47b8-9fcb-aca9ed114b97","ios":"levelo://app?vid=557edaa4-3e22-47b8-9fcb-aca9ed114b97"},"vehicle_type_id":"4","last_reported":1728151826,"current_range_meters":37600,"station_id":"cpo36qri1sfpv3e86is0","pricing_plan_id":"cebpf4jnsgd1na2vs0mg"},{"bike_id":"5bb0e93d-b0f6-4ffe-8ebc-5d3e20297f49","system_id":"levelo_inurba_marseille","lat":43.31228,"lon":5.36864,"is_reserved":false,"is_disabled":false,"rental_uris":{"android":"levelo://app?vid=5bb0e93d-b0f6-4ffe-8ebc-5d3e20297f49","ios":"levelo://app?vid=5bb0e93d-b0f6-4ffe-8ebc-5d3e20297f49"},"vehicle_type_id":"4","last_reported":1728151826,"current_range_meters":22400,"station_id":"ce4bgl92rcd13ifvqbq0","pricing_plan_id":"cebpf4jnsgd1na2vs0mg"},{"bike_id":"10e2cad8-5b87-4361-a750-816e7c888c91","system_id":"levelo_inurba_marseille","lat":43.3374,"lon":5.37438,"is_reserved":false,"is_disabled":false,"rental_uris":{"android":"levelo://app?vid=10e2cad8-5b87-4361-a750-816e7c888c91","ios":"levelo://app?vid=10e2cad8-5b87-4361-a750-816e7c888c91"},"vehicle_type_id":"4","last_reported":1728151826,"current_range_meters":35600,"station_id":"","pricing_plan_id":"cebpf4jnsgd1na2vs0mg"},{"bike_id":"dbc081ef-c965-4754-a7dd-55bed6ca14e4","system_id":"levelo_inurba_marseille","lat":43.33022,"lon":5.39049,"is_reserved":false,"is_disabled":false,"rental_uris":{"android":"levelo://app?vid=dbc081ef-c965-4754-a7dd-55bed6ca14e4","ios":"levelo://app?vid=dbc081ef-c965-4754-a7dd-55bed6ca14e4"},"vehicle_type_id":"4","last_reported":1728151826,"current_range_meters":16800,"station_id":"ce4bhr92rcd13ifvqhrg","pricing_plan_id":"cebpf4jnsgd1na2vs0mg"},{"bike_id":"66e725ed-87b8-4c6f-bbd8-928db4093091","system_id":"levelo_inurba_marseille","lat":43.27811,"lon":5.40733,"is_reserved":false,"is_disabled":false,"rental_uris":{"android":"levelo://app?vid=66e725ed-87b8-4c6f-bbd8-928db4093091","ios":"levelo://app?vid=66e725ed-87b8-4c6f-bbd8-928db4093091"},"vehicle_type_id":"4","last_reported":1728151826,"current_range_meters":32400,"station_id":"ce4bhnh2rcd13ifvqgtg","pricing_plan_id":"cebpf4jnsgd1na2vs0mg"},{"bike_id":"d3f7f46a-6847-46a5-8cb5-18953cb9d97a","system_id":"levelo_inurba_marseille","lat":43.30317,"lon":5.40449,"is_reserved":false,"is_disabled":false,"rental_uris":{"android":"levelo://app?vid=d3f7f46a-6847-46a5-8cb5-18953cb9d97a","ios":"levelo://app?vid=d3f7f46a-6847-46a5-8cb5-18953cb9d97a"},"vehicle_type_id":"4","last_reported":1728151826,"current_range_meters":38800,"station_id":"ce4bh012rcd13ifvqd10","pricing_plan_id":"cebpf4jnsgd1na2vs0mg"},{"bike_id":"a513ccaa-0c27-439e-bc69-84cf7ff60039","system_id":"levelo_inurba_marseille","lat":43.337444,"lon":5.374475,"is_reserved":false,"is_disabled":false,"rental_uris":{"android":"levelo://app?vid=a513ccaa-0c27-439e-bc69-84cf7ff60039","ios":"levelo://app?vid=a513ccaa-0c27-439e-bc69-84cf7ff60039"},"vehicle_type_id":"4","last_reported":1728151826,"current_range_meters":33200,"station_id":"","pricing_plan_id":"cebpf4jnsgd1na2vs0mg"},{"bike_id":"29a1c4b7-6d9a-4660-8d4e-b0c879e3ca4d","system_id":"levelo_inurba_marseille","lat":43.28379,"lon":5.38628,"is_reserved":false,"is_disabled":false,"rental_uris":{"android":"levelo://app?vid=29a1c4b7-6d9a-4660-8d4e-b0c879e3ca4d","ios":"levelo://app?vid=29a1c4b7-6d9a-4660-8d4e-b0c879e3ca4d"},"vehicle_type_id":"4","last_reported":1728151826,"current_range_meters":29600,"station_id":"ce4bh492rcd13ifvqdvg","pricing_plan_id":"cebpf4jnsgd1na2vs0mg"},{"bike_id":"5c56a3bd-eee6-46f6-9565-18e2d60b4a2a","system_id":"levelo_inurba_marseille","lat":43.33772,"lon":5.37449,"is_reserved":false,"is_disabled":false,"rental_uris":{"android":"levelo://app?vid=5c56a3bd-eee6-46f6-9565-18e2d60b4a2a","ios":"levelo://app?vid=5c56a3bd-eee6-46f6-9565-18e2d60b4a2a"},"vehicle_type_id":"4","last_reported":1728151826,"current_range_meters":38000,"station_id":"","pricing_plan_id":"cebpf4jnsgd1na2vs0mg"},{"bike_id":"e315600c-3ff8-4893-abe5-0c310d48465d","system_id":"levelo_inurba_marseille","lat":43.33762,"lon":5.37439,"is_reserved":false,"is_disabled":false,"rental_uris":{"android":"levelo://app?vid=e315600c-3ff8-4893-abe5-0c310d48465d","ios":"levelo://app?vid=e315600c-3ff8-4893-abe5-0c310d48465d"},"vehicle_type_id":"4","last_reported":1728151826,"current_range_meters":32000,"station_id":"","pricing_plan_id":"cebpf4jnsgd1na2vs0mg"},{"bike_id":"a8c064f0-9324-46d7-9b33-34b400d62d85","system_id":"levelo_inurba_marseille","lat":43.25702,"lon":5.39421,"is_reserved":false,"is_disabled":false,"rental_uris":{"android":"levelo://app?vid=a8c064f0-9324-46d7-9b33-34b400d62d85","ios":"levelo://app?vid=a8c064f0-9324-46d7-9b33-34b400d62d85"},"vehicle_type_id":"4","last_reported":1728151826,"current_range_meters":38000,"station_id":"","pricing_plan_id":"cebpf4jnsgd1na2vs0mg"},{"bike_id":"be148d47-d7f0-4e3b-8308-0b6a3961a66a","system_id":"levelo_inurba_marseille","lat":43.32328,"lon":5.38528,"is_reserved":false,"is_disabled":false,"rental_uris":{"android":"levelo://app?vid=be148d47-d7f0-4e3b-8308-0b6a3961a66a","ios":"levelo://app?vid=be148d47-d7f0-4e3b-8308-0b6a3961a66a"},"vehicle_type_id":"4","last_reported":1728151826,"current_range_meters":6000,"station_id":"ce4bhr12rcd13ifvqhqg","pricing_plan_id":"cebpf4jnsgd1na2vs0mg"},{"bike_id":"2d3fdc9f-4b71-454a-a5da-a5386ac1eff0","system_id":"levelo_inurba_marseille","lat":43.29572,"lon":5.37515,"is_reserved":false,"is_disabled":false,"rental_uris":{"android":"levelo://app?vid=2d3fdc9f-4b71-454a-a5da-a5386ac1eff0","ios":"levelo://app?vid=2d3fdc9f-4b71-454a-a5da-a5386ac1eff0"},"vehicle_type_id":"4","last_reported":1728151826,"current_range_meters":19200,"station_id":"ce4bgh92rcd13ifvqb50","pricing_plan_id":"cebpf4jnsgd1na2vs0mg"},{"bike_id":"c233735c-c979-4943-9443-51948f0336bc","system_id":"levelo_inurba_marseille","lat":43.29245,"lon":5.38455,"is_reserved":false,"is_disabled":false,"rental_uris":{"android":"levelo://app?vid=c233735c-c979-4943-9443-51948f0336bc","ios":"levelo://app?vid=c233735c-c979-4943-9443-51948f0336bc"},"vehicle_type_id":"4","last_reported":1728151826,"current_range_meters":19200,"station_id":"ce4bh692rcd13ifvqea0","pricing_plan_id":"cebpf4jnsgd1na2vs0mg"},{"bike_id":"c7af1db0-da40-4ca5-9be2-ebdeb8948dce","system_id":"levelo_inurba_marseille","lat":43.28675,"lon":5.38667,"is_reserved":false,"is_disabled":false,"rental_uris":{"android":"levelo://app?vid=c7af1db0-da40-4ca5-9be2-ebdeb8948dce","ios":"levelo://app?vid=c7af1db0-da40-4ca5-9be2-ebdeb8948dce"},"vehicle_type_id":"4","last_reported":1728151826,"current_range_meters":38800,"station_id":"ce4bh492rcd13ifvqdug","pricing_plan_id":"cebpf4jnsgd1na2vs0mg"},{"bike_id":"d63c8475-2a22-4d7f-bf9a-541dbff0d0e9","system_id":"levelo_inurba_marseille","lat":43.30533,"lon":5.36712,"is_reserved":false,"is_disabled":false,"rental_uris":{"android":"levelo://app?vid=d63c8475-2a22-4d7f-bf9a-541dbff0d0e9","ios":"levelo://app?vid=d63c8475-2a22-4d7f-bf9a-541dbff0d0e9"},"vehicle_type_id":"4","last_reported":1728151826,"current_range_meters":38400,"station_id":"ce4bgrp2rcd13ifvqc9g","pricing_plan_id":"cebpf4jnsgd1na2vs0mg"},{"bike_id":"40dcb9b5-5c17-48fd-a594-d9141c7edc74","system_id":"levelo_inurba_marseille","lat":43.28941,"lon":5.36642,"is_reserved":false,"is_disabled":false,"rental_uris":{"android":"levelo://app?vid=40dcb9b5-5c17-48fd-a594-d9141c7edc74","ios":"levelo://app?vid=40dcb9b5-5c17-48fd-a594-d9141c7edc74"},"vehicle_type_id":"4","last_reported":1728151826,"current_range_meters":18800,"station_id":"ce4bhap2rcd13ifvqek0","pricing_plan_id":"cebpf4jnsgd1na2vs0mg"},{"bike_id":"740aa9b1-bf7f-495f-b4b6-8c44676bc674","system_id":"levelo_inurba_marseille","lat":43.33749,"lon":5.3746,"is_reserved":false,"is_disabled":false,"rental_uris":{"android":"levelo://app?vid=740aa9b1-bf7f-495f-b4b6-8c44676bc674","ios":"levelo://app?vid=740aa9b1-bf7f-495f-b4b6-8c44676bc674"},"vehicle_type_id":"4","last_reported":1728151826,"current_range_meters":4000,"station_id":"","pricing_plan_id":"cebpf4jnsgd1na2vs0mg"},{"bike_id":"5ca248b0-c413-42f8-9407-c12494c2d1cd","system_id":"levelo_inurba_marseille","lat":43.31693,"lon":5.40479,"is_reserved":false,"is_disabled":false,"rental_uris":{"android":"levelo://app?vid=5ca248b0-c413-42f8-9407-c12494c2d1cd","ios":"levelo://app?vid=5ca248b0-c413-42f8-9407-c12494c2d1cd"},"vehicle_type_id":"4","last_reported":1728151826,"current_range_meters":38800,"station_id":"ce4bh012rcd13ifvqd00","pricing_plan_id":"cebpf4jnsgd1na2vs0mg"},{"bike_id":"77b9203a-0842-4b45-acd8-ada92dfc3441","system_id":"levelo_inurba_marseille","lat":43.29918,"lon":5.381663,"is_reserved":false,"is_disabled":false,"rental_uris":{"android":"levelo://app?vid=77b9203a-0842-4b45-acd8-ada92dfc3441","ios":"levelo://app?vid=77b9203a-0842-4b45-acd8-ada92dfc3441"},"vehicle_type_id":"4","last_reported":1728151826,"current_range_meters":10800,"station_id":"ce4bgj12rcd13ifvqbc0","pricing_plan_id":"cebpf4jnsgd1na2vs0mg"},{"bike_id":"8c61526c-2d67-4b1a-8f32-0018924d753f","system_id":"levelo_inurba_marseille","lat":43.337444,"lon":5.374475,"is_reserved":false,"is_disabled":false,"rental_uris":{"android":"levelo://app?vid=8c61526c-2d67-4b1a-8f32-0018924d753f","ios":"levelo://app?vid=8c61526c-2d67-4b1a-8f32-0018924d753f"},"vehicle_type_id":"4","last_reported":1728151826,"current_range_meters":33600,"station_id":"","pricing_plan_id":"cebpf4jnsgd1na2vs0mg"},{"bike_id":"50cc7fcf-70f9-4bc9-93ed-2c2286730103","system_id":"levelo_inurba_marseille","lat":43.28721,"lon":5.36078,"is_reserved":false,"is_disabled":false,"rental_uris":{"android":"levelo://app?vid=50cc7fcf-70f9-4bc9-93ed-2c2286730103","ios":"levelo://app?vid=50cc7fcf-70f9-4bc9-93ed-2c2286730103"},"vehicle_type_id":"4","last_reported":1728151826,"current_range_meters":8000,"station_id":"cki0cbj6b192h4jlfktg","pricing_plan_id":"cebpf4jnsgd1na2vs0mg"},{"bike_id":"0fce7dd2-7a92-4df5-b4ae-bf080fdd451a","system_id":"levelo_inurba_marseille","lat":43.31342,"lon":5.36713,"is_reserved":false,"is_disabled":false,"rental_uris":{"android":"levelo://app?vid=0fce7dd2-7a92-4df5-b4ae-bf080fdd451a","ios":"levelo://app?vid=0fce7dd2-7a92-4df5-b4ae-bf080fdd451a"},"vehicle_type_id":"4","last_reported":1728151826,"current_range_meters":16800,"station_id":"ce4bgr92rcd13ifvqc6g","pricing_plan_id":"cebpf4jnsgd1na2vs0mg"},{"bike_id":"03f4fb7b-b959-437c-a60e-ec3014b5b9a5","system_id":"levelo_inurba_marseille","lat":43.26196,"lon":5.37452,"is_reserved":false,"is_disabled":false,"rental_uris":{"android":"levelo://app?vid=03f4fb7b-b959-437c-a60e-ec3014b5b9a5","ios":"levelo://app?vid=03f4fb7b-b959-437c-a60e-ec3014b5b9a5"},"vehicle_type_id":"4","last_reported":1728151826,"current_range_meters":3200,"station_id":"ce4bhgp2rcd13ifvqfc0","pricing_plan_id":"cebpf4jnsgd1na2vs0mg"},{"bike_id":"d2942921-5a54-41c4-9778-e717efbcc231","system_id":"levelo_inurba_marseille","lat":43.28558,"lon":5.39495,"is_reserved":false,"is_disabled":false,"rental_uris":{"android":"levelo://app?vid=d2942921-5a54-41c4-9778-e717efbcc231","ios":"levelo://app?vid=d2942921-5a54-41c4-9778-e717efbcc231"},"vehicle_type_id":"4","last_reported":1728151826,"current_range_meters":3200,"station_id":"ce4bh292rcd13ifvqdg0","pricing_plan_id":"cebpf4jnsgd1na2vs0mg"},{"bike_id":"69be0f07-7180-4d2b-af05-c4004b76021e","system_id":"levelo_inurba_marseille","lat":43.31885,"lon":5.40736,"is_reserved":false,"is_disabled":false,"rental_uris":{"android":"levelo://app?vid=69be0f07-7180-4d2b-af05-c4004b76021e","ios":"levelo://app?vid=69be0f07-7180-4d2b-af05-c4004b76021e"},"vehicle_type_id":"4","last_reported":1728151826,"current_range_meters":37600,"station_id":"ce4bhq12rcd13ifvqhig","pricing_plan_id":"cebpf4jnsgd1na2vs0mg"},{"bike_id":"ed3d6c4e-a4e8-4b61-a4d1-c64f2ccdbaad","system_id":"levelo_inurba_marseille","lat":43.30636,"lon":5.40102,"is_reserved":false,"is_disabled":false,"rental_uris":{"android":"levelo://app?vid=ed3d6c4e-a4e8-4b61-a4d1-c64f2ccdbaad","ios":"levelo://app?vid=ed3d6c4e-a4e8-4b61-a4d1-c64f2ccdbaad"},"vehicle_type_id":"4","last_reported":1728151826,"current_range_meters":34800,"station_id":"ce4bh112rcd13ifvqda0","pricing_plan_id":"cebpf4jnsgd1na2vs0mg"},{"bike_id":"939466bd-f9f4-4303-9f60-1390acd52edd","system_id":"levelo_inurba_marseille","lat":43.28473,"lon":5.38436,"is_reserved":false,"is_disabled":false,"rental_uris":{"android":"levelo://app?vid=939466bd-f9f4-4303-9f60-1390acd52edd","ios":"levelo://app?vid=939466bd-f9f4-4303-9f60-1390acd52edd"},"vehicle_type_id":"4","last_reported":1728151826,"current_range_meters":8000,"station_id":"ce4bh512rcd13ifvqe3g","pricing_plan_id":"cebpf4jnsgd1na2vs0mg"},{"bike_id":"aca5fcb2-21db-4e88-a265-074a0a652b5a","system_id":"levelo_inurba_marseille","lat":43.27168,"lon":5.40998,"is_reserved":false,"is_disabled":false,"rental_uris":{"android":"levelo://app?vid=aca5fcb2-21db-4e88-a265-074a0a652b5a","ios":"levelo://app?vid=aca5fcb2-21db-4e88-a265-074a0a652b5a"},"vehicle_type_id":"4","last_reported":1728151826,"current_range_meters":20000,"station_id":"ce4bhl12rcd13ifvqgf0","pricing_plan_id":"cebpf4jnsgd1na2vs0mg"},{"bike_id":"88f1f2fe-6963-412a-a6a0-c9e779dbcded","system_id":"levelo_inurba_marseille","lat":43.31523,"lon":5.38039,"is_reserved":false,"is_disabled":false,"rental_uris":{"android":"levelo://app?vid=88f1f2fe-6963-412a-a6a0-c9e779dbcded","ios":"levelo://app?vid=88f1f2fe-6963-412a-a6a0-c9e779dbcded"},"vehicle_type_id":"4","last_reported":1728151826,"current_range_meters":22800,"station_id":"ce4bhsp2rcd13ifvqi50","pricing_plan_id":"cebpf4jnsgd1na2vs0mg"},{"bike_id":"9eb53b89-7a05-44e2-923b-44f4ecd2f358","system_id":"levelo_inurba_marseille","lat":43.337444,"lon":5.374475,"is_reserved":false,"is_disabled":false,"rental_uris":{"android":"levelo://app?vid=9eb53b89-7a05-44e2-923b-44f4ecd2f358","ios":"levelo://app?vid=9eb53b89-7a05-44e2-923b-44f4ecd2f358"},"vehicle_type_id":"4","last_reported":1728151826,"current_range_meters":30000,"station_id":"","pricing_plan_id":"cebpf4jnsgd1na2vs0mg"},{"bike_id":"a0b5b5bd-99ec-4ad3-895e-f1e72ee8e2de","system_id":"levelo_inurba_marseille","lat":43.29027,"lon":5.38656,"is_reserved":false,"is_disabled":false,"rental_uris":{"android":"levelo://app?vid=a0b5b5bd-99ec-4ad3-895e-f1e72ee8e2de","ios":"levelo://app?vid=a0b5b5bd-99ec-4ad3-895e-f1e72ee8e2de"},"vehicle_type_id":"4","last_reported":1728151826,"current_range_meters":19600,"station_id":"ce4bh4p2rcd13ifvqe0g","pricing_plan_id":"cebpf4jnsgd1na2vs0mg"},{"bike_id":"109b292e-7c32-448e-ac71-de74387bc06c","system_id":"levelo_inurba_marseille","lat":43.28708,"lon":5.37369,"is_reserved":false,"is_disabled":false,"rental_uris":{"android":"levelo://app?vid=109b292e-7c32-448e-ac71-de74387bc06c","ios":"levelo://app?vid=109b292e-7c32-448e-ac71-de74387bc06c"},"vehicle_type_id":"4","last_reported":1728151826,"current_range_meters":38800,"station_id":"ce4bh3p2rcd13ifvqdq0","pricing_plan_id":"cebpf4jnsgd1na2vs0mg"},{"bike_id":"2eb1180c-3c37-45a8-8c05-d2fd624d984f","system_id":"levelo_inurba_marseille","lat":43.3377,"lon":5.37449,"is_reserved":false,"is_disabled":false,"rental_uris":{"android":"levelo://app?vid=2eb1180c-3c37-45a8-8c05-d2fd624d984f","ios":"levelo://app?vid=2eb1180c-3c37-45a8-8c05-d2fd624d984f"},"vehicle_type_id":"4","last_reported":1728151826,"current_range_meters":35600,"station_id":"","pricing_plan_id":"cebpf4jnsgd1na2vs0mg"},{"bike_id":"cff94e8e-e225-4531-aa0a-9dafb2eb0af5","system_id":"levelo_inurba_marseille","lat":43.31717,"lon":5.42408,"is_reserved":false,"is_disabled":false,"rental_uris":{"android":"levelo://app?vid=cff94e8e-e225-4531-aa0a-9dafb2eb0af5","ios":"levelo://app?vid=cff94e8e-e225-4531-aa0a-9dafb2eb0af5"},"vehicle_type_id":"4","last_reported":1728151826,"current_range_meters":37600,"station_id":"ce4bhp92rcd13ifvqhbg","pricing_plan_id":"cebpf4jnsgd1na2vs0mg"},{"bike_id":"f893ef82-247f-4700-b8ff-dcc6c5117532","system_id":"levelo_inurba_marseille","lat":43.28901,"lon":5.42929,"is_reserved":false,"is_disabled":false,"rental_uris":{"android":"levelo://app?vid=f893ef82-247f-4700-b8ff-dcc6c5117532","ios":"levelo://app?vid=f893ef82-247f-4700-b8ff-dcc6c5117532"},"vehicle_type_id":"4","last_reported":1728151826,"current_range_meters":16400,"station_id":"","pricing_plan_id":"cebpf4jnsgd1na2vs0mg"},{"bike_id":"b7fb3dc1-b955-4486-b853-bdec67f0fec5","system_id":"levelo_inurba_marseille","lat":43.334662,"lon":5.410189,"is_reserved":false,"is_disabled":false,"rental_uris":{"android":"levelo://app?vid=b7fb3dc1-b955-4486-b853-bdec67f0fec5","ios":"levelo://app?vid=b7fb3dc1-b955-4486-b853-bdec67f0fec5"},"vehicle_type_id":"4","last_reported":1728151826,"current_range_meters":13600,"station_id":"","pricing_plan_id":"cebpf4jnsgd1na2vs0mg"},{"bike_id":"909d139d-a7a7-40a8-8af4-6f91edee578f","system_id":"levelo_inurba_marseille","lat":43.295807,"lon":5.375582,"is_reserved":false,"is_disabled":false,"rental_uris":{"android":"levelo://app?vid=909d139d-a7a7-40a8-8af4-6f91edee578f","ios":"levelo://app?vid=909d139d-a7a7-40a8-8af4-6f91edee578f"},"vehicle_type_id":"4","last_reported":1728151826,"current_range_meters":8000,"station_id":"ce4bh692rcd13ifvqe90","pricing_plan_id":"cebpf4jnsgd1na2vs0mg"},{"bike_id":"22960a5a-9173-4fd9-b6df-443be0068b0d","system_id":"levelo_inurba_marseille","lat":43.31689,"lon":5.4048,"is_reserved":false,"is_disabled":false,"rental_uris":{"android":"levelo://app?vid=22960a5a-9173-4fd9-b6df-443be0068b0d","ios":"levelo://app?vid=22960a5a-9173-4fd9-b6df-443be0068b0d"},"vehicle_type_id":"4","last_reported":1728151826,"current_range_meters":16800,"station_id":"ce4bh012rcd13ifvqd00","pricing_plan_id":"cebpf4jnsgd1na2vs0mg"},{"bike_id":"e0cb5d52-ae44-4831-9e3f-9f542a4aab03","system_id":"levelo_inurba_marseille","lat":43.30321,"lon":5.40433,"is_reserved":false,"is_disabled":false,"rental_uris":{"android":"levelo://app?vid=e0cb5d52-ae44-4831-9e3f-9f542a4aab03","ios":"levelo://app?vid=e0cb5d52-ae44-4831-9e3f-9f542a4aab03"},"vehicle_type_id":"4","last_reported":1728151826,"current_range_meters":21600,"station_id":"ce4bh012rcd13ifvqd10","pricing_plan_id":"cebpf4jnsgd1na2vs0mg"},{"bike_id":"2216e91c-9227-44a5-a448-fbc17143aed1","system_id":"levelo_inurba_marseille","lat":43.29067,"lon":5.37964,"is_reserved":false,"is_disabled":false,"rental_uris":{"android":"levelo://app?vid=2216e91c-9227-44a5-a448-fbc17143aed1","ios":"levelo://app?vid=2216e91c-9227-44a5-a448-fbc17143aed1"},"vehicle_type_id":"4","last_reported":1728151826,"current_range_meters":31200,"station_id":"","pricing_plan_id":"cebpf4jnsgd1na2vs0mg"},{"bike_id":"10a77dba-2132-4ecb-afdb-d9a11ec5a9a6","system_id":"levelo_inurba_marseille","lat":43.25865,"lon":5.3989,"is_reserved":false,"is_disabled":false,"rental_uris":{"android":"levelo://app?vid=10a77dba-2132-4ecb-afdb-d9a11ec5a9a6","ios":"levelo://app?vid=10a77dba-2132-4ecb-afdb-d9a11ec5a9a6"},"vehicle_type_id":"4","last_reported":1728151826,"current_range_meters":38000,"station_id":"ce4bhl92rcd13ifvqghg","pricing_plan_id":"cebpf4jnsgd1na2vs0mg"},{"bike_id":"045ee71b-00d0-4a60-a8fe-285c2fd72dc9","system_id":"levelo_inurba_marseille","lat":43.30573,"lon":5.3655,"is_reserved":false,"is_disabled":false,"rental_uris":{"android":"levelo://app?vid=045ee71b-00d0-4a60-a8fe-285c2fd72dc9","ios":"levelo://app?vid=045ee71b-00d0-4a60-a8fe-285c2fd72dc9"},"vehicle_type_id":"4","last_reported":1728151826,"current_range_meters":10800,"station_id":"ce4bgs12rcd13ifvqcag","pricing_plan_id":"cebpf4jnsgd1na2vs0mg"},{"bike_id":"846984a2-b212-4bbb-a13a-656e47b7f4d4","system_id":"levelo_inurba_marseille","lat":43.291076,"lon":5.360729,"is_reserved":false,"is_disabled":false,"rental_uris":{"android":"levelo://app?vid=846984a2-b212-4bbb-a13a-656e47b7f4d4","ios":"levelo://app?vid=846984a2-b212-4bbb-a13a-656e47b7f4d4"},"vehicle_type_id":"4","last_reported":1728151826,"current_range_meters":14800,"station_id":"","pricing_plan_id":"cebpf4jnsgd1na2vs0mg"},{"bike_id":"e4feb43f-dc6b-4c0f-810a-241d95f8f8b8","system_id":"levelo_inurba_marseille","lat":43.30791,"lon":5.43532,"is_reserved":false,"is_disabled":false,"rental_uris":{"android":"levelo://app?vid=e4feb43f-dc6b-4c0f-810a-241d95f8f8b8","ios":"levelo://app?vid=e4feb43f-dc6b-4c0f-810a-241d95f8f8b8"},"vehicle_type_id":"4","last_reported":1728151826,"current_range_meters":28000,"station_id":"ce4bhph2rcd13ifvqheg","pricing_plan_id":"cebpf4jnsgd1na2vs0mg"},{"bike_id":"d23a4f03-6ec0-4ece-81ea-75a978d5b687","system_id":"levelo_inurba_marseille","lat":43.33749,"lon":5.37447,"is_reserved":false,"is_disabled":false,"rental_uris":{"android":"levelo://app?vid=d23a4f03-6ec0-4ece-81ea-75a978d5b687","ios":"levelo://app?vid=d23a4f03-6ec0-4ece-81ea-75a978d5b687"},"vehicle_type_id":"4","last_reported":1728151826,"current_range_meters":32000,"station_id":"","pricing_plan_id":"cebpf4jnsgd1na2vs0mg"},{"bike_id":"1f0fbaac-df7f-41be-ac53-1c47d633e4e8","system_id":"levelo_inurba_marseille","lat":43.240895,"lon":5.377598,"is_reserved":false,"is_disabled":false,"rental_uris":{"android":"levelo://app?vid=1f0fbaac-df7f-41be-ac53-1c47d633e4e8","ios":"levelo://app?vid=1f0fbaac-df7f-41be-ac53-1c47d633e4e8"},"vehicle_type_id":"4","last_reported":1728151826,"current_range_meters":16000,"station_id":"ce4bhnp2rcd13ifvqgvg","pricing_plan_id":"cebpf4jnsgd1na2vs0mg"},{"bike_id":"ef21b381-01eb-4a1c-ad20-89a3161a66f4","system_id":"levelo_inurba_marseille","lat":43.23183,"lon":5.39989,"is_reserved":false,"is_disabled":false,"rental_uris":{"android":"levelo://app?vid=ef21b381-01eb-4a1c-ad20-89a3161a66f4","ios":"levelo://app?vid=ef21b381-01eb-4a1c-ad20-89a3161a66f4"},"vehicle_type_id":"4","last_reported":1728151826,"current_range_meters":15200,"station_id":"ce4bhn12rcd13ifvqgqg","pricing_plan_id":"cebpf4jnsgd1na2vs0mg"},{"bike_id":"28c9c7cb-3c2d-4b5e-b52c-b4dd1a4f7aa3","system_id":"levelo_inurba_marseille","lat":43.298,"lon":5.40415,"is_reserved":false,"is_disabled":false,"rental_uris":{"android":"levelo://app?vid=28c9c7cb-3c2d-4b5e-b52c-b4dd1a4f7aa3","ios":"levelo://app?vid=28c9c7cb-3c2d-4b5e-b52c-b4dd1a4f7aa3"},"vehicle_type_id":"4","last_reported":1728151826,"current_range_meters":38800,"station_id":"ce4bh112rcd13ifvqd90","pricing_plan_id":"cebpf4jnsgd1na2vs0mg"},{"bike_id":"72de571e-265a-4fa8-98ad-9deeeac214ba","system_id":"levelo_inurba_marseille","lat":43.26803,"lon":5.4027,"is_reserved":false,"is_disabled":false,"rental_uris":{"android":"levelo://app?vid=72de571e-265a-4fa8-98ad-9deeeac214ba","ios":"levelo://app?vid=72de571e-265a-4fa8-98ad-9deeeac214ba"},"vehicle_type_id":"4","last_reported":1728151826,"current_range_meters":22000,"station_id":"ce501612rcd8frsf0b60","pricing_plan_id":"cebpf4jnsgd1na2vs0mg"},{"bike_id":"98d379f6-1329-4ac0-9161-42141af2474a","system_id":"levelo_inurba_marseille","lat":43.28815,"lon":5.35669,"is_reserved":false,"is_disabled":false,"rental_uris":{"android":"levelo://app?vid=98d379f6-1329-4ac0-9161-42141af2474a","ios":"levelo://app?vid=98d379f6-1329-4ac0-9161-42141af2474a"},"vehicle_type_id":"4","last_reported":1728151826,"current_range_meters":14400,"station_id":"","pricing_plan_id":"cebpf4jnsgd1na2vs0mg"},{"bike_id":"93bf1772-c5c9-4428-9fdf-6312b04a8452","system_id":"levelo_inurba_marseille","lat":43.2847,"lon":5.38434,"is_reserved":false,"is_disabled":false,"rental_uris":{"android":"levelo://app?vid=93bf1772-c5c9-4428-9fdf-6312b04a8452","ios":"levelo://app?vid=93bf1772-c5c9-4428-9fdf-6312b04a8452"},"vehicle_type_id":"4","last_reported":1728151826,"current_range_meters":18000,"station_id":"ce4bh512rcd13ifvqe3g","pricing_plan_id":"cebpf4jnsgd1na2vs0mg"},{"bike_id":"90d63c3c-7227-4cd8-8b04-c61f67f74543","system_id":"levelo_inurba_marseille","lat":43.337444,"lon":5.374475,"is_reserved":false,"is_disabled":false,"rental_uris":{"android":"levelo://app?vid=90d63c3c-7227-4cd8-8b04-c61f67f74543","ios":"levelo://app?vid=90d63c3c-7227-4cd8-8b04-c61f67f74543"},"vehicle_type_id":"4","last_reported":1728151826,"current_range_meters":16800,"station_id":"","pricing_plan_id":"cebpf4jnsgd1na2vs0mg"},{"bike_id":"041ce17b-a03e-49d7-852d-3d9b780a5f87","system_id":"levelo_inurba_marseille","lat":43.29533,"lon":5.39076,"is_reserved":false,"is_disabled":false,"rental_uris":{"android":"levelo://app?vid=041ce17b-a03e-49d7-852d-3d9b780a5f87","ios":"levelo://app?vid=041ce17b-a03e-49d7-852d-3d9b780a5f87"},"vehicle_type_id":"4","last_reported":1728151826,"current_range_meters":38800,"station_id":"","pricing_plan_id":"cebpf4jnsgd1na2vs0mg"},{"bike_id":"5c805b50-0d31-4905-bc76-555fafd3f09c","system_id":"levelo_inurba_marseille","lat":43.31374,"lon":5.36735,"is_reserved":false,"is_disabled":false,"rental_uris":{"android":"levelo://app?vid=5c805b50-0d31-4905-bc76-555fafd3f09c","ios":"levelo://app?vid=5c805b50-0d31-4905-bc76-555fafd3f09c"},"vehicle_type_id":"4","last_reported":1728151826,"current_range_meters":27200,"station_id":"ce4bgr92rcd13ifvqc6g","pricing_plan_id":"cebpf4jnsgd1na2vs0mg"},{"bike_id":"7c81cb38-6c3c-472e-867b-8a70a482e6cd","system_id":"levelo_inurba_marseille","lat":43.28037,"lon":5.36956,"is_reserved":false,"is_disabled":false,"rental_uris":{"android":"levelo://app?vid=7c81cb38-6c3c-472e-867b-8a70a482e6cd","ios":"levelo://app?vid=7c81cb38-6c3c-472e-867b-8a70a482e6cd"},"vehicle_type_id":"4","last_reported":1728151826,"current_range_meters":29600,"station_id":"ce4bha12rcd13ifvqef0","pricing_plan_id":"cebpf4jnsgd1na2vs0mg"},{"bike_id":"54358336-0779-4307-9b1b-637ba624623e","system_id":"levelo_inurba_marseille","lat":43.29028,"lon":5.3865,"is_reserved":false,"is_disabled":false,"rental_uris":{"android":"levelo://app?vid=54358336-0779-4307-9b1b-637ba624623e","ios":"levelo://app?vid=54358336-0779-4307-9b1b-637ba624623e"},"vehicle_type_id":"4","last_reported":1728151826,"current_range_meters":4800,"station_id":"ce4bh4p2rcd13ifvqe0g","pricing_plan_id":"cebpf4jnsgd1na2vs0mg"},{"bike_id":"34058b7d-0030-4838-9701-adc095ee8644","system_id":"levelo_inurba_marseille","lat":43.2991,"lon":5.38149,"is_reserved":false,"is_disabled":false,"rental_uris":{"android":"levelo://app?vid=34058b7d-0030-4838-9701-adc095ee8644","ios":"levelo://app?vid=34058b7d-0030-4838-9701-adc095ee8644"},"vehicle_type_id":"4","last_reported":1728151826,"current_range_meters":30000,"station_id":"ce4bgj12rcd13ifvqbc0","pricing_plan_id":"cebpf4jnsgd1na2vs0mg"},{"bike_id":"dbde8cc5-9ff3-454c-8523-df32eb19d7ab","system_id":"levelo_inurba_marseille","lat":43.30137,"lon":5.38785,"is_reserved":false,"is_disabled":false,"rental_uris":{"android":"levelo://app?vid=dbde8cc5-9ff3-454c-8523-df32eb19d7ab","ios":"levelo://app?vid=dbde8cc5-9ff3-454c-8523-df32eb19d7ab"},"vehicle_type_id":"4","last_reported":1728151826,"current_range_meters":34800,"station_id":"ce4bghh2rcd13ifvqb60","pricing_plan_id":"cebpf4jnsgd1na2vs0mg"},{"bike_id":"297b20ec-7265-41e9-80fc-09a4cafd38e3","system_id":"levelo_inurba_marseille","lat":43.260336,"lon":5.375434,"is_reserved":false,"is_disabled":false,"rental_uris":{"android":"levelo://app?vid=297b20ec-7265-41e9-80fc-09a4cafd38e3","ios":"levelo://app?vid=297b20ec-7265-41e9-80fc-09a4cafd38e3"},"vehicle_type_id":"4","last_reported":1728151826,"current_range_meters":38400,"station_id":"ce4bhgh2rcd13ifvqfa0","pricing_plan_id":"cebpf4jnsgd1na2vs0mg"},{"bike_id":"686969d4-9f44-441d-8784-4356a97adef8","system_id":"levelo_inurba_marseille","lat":43.30913,"lon":5.36848,"is_reserved":false,"is_disabled":false,"rental_uris":{"android":"levelo://app?vid=686969d4-9f44-441d-8784-4356a97adef8","ios":"levelo://app?vid=686969d4-9f44-441d-8784-4356a97adef8"},"vehicle_type_id":"4","last_reported":1728151826,"current_range_meters":24800,"station_id":"ce4bgn92rcd13ifvqbvg","pricing_plan_id":"cebpf4jnsgd1na2vs0mg"},{"bike_id":"5bdc53f9-4b81-4757-b2d9-89c1f5e3387c","system_id":"levelo_inurba_marseille","lat":43.27922,"lon":5.3958,"is_reserved":false,"is_disabled":false,"rental_uris":{"android":"levelo://app?vid=5bdc53f9-4b81-4757-b2d9-89c1f5e3387c","ios":"levelo://app?vid=5bdc53f9-4b81-4757-b2d9-89c1f5e3387c"},"vehicle_type_id":"4","last_reported":1728151826,"current_range_meters":37600,"station_id":"ce4bhf92rcd13ifvqf40","pricing_plan_id":"cebpf4jnsgd1na2vs0mg"},{"bike_id":"134f6f43-8823-4871-a5b5-7901df8a7fb1","system_id":"levelo_inurba_marseille","lat":43.2955,"lon":5.42294,"is_reserved":false,"is_disabled":false,"rental_uris":{"android":"levelo://app?vid=134f6f43-8823-4871-a5b5-7901df8a7fb1","ios":"levelo://app?vid=134f6f43-8823-4871-a5b5-7901df8a7fb1"},"vehicle_type_id":"4","last_reported":1728151826,"current_range_meters":26000,"station_id":"ce4bhph2rcd13ifvqhdg","pricing_plan_id":"cebpf4jnsgd1na2vs0mg"},{"bike_id":"2d26c59d-e273-4a0b-8115-7a1f50b73b52","system_id":"levelo_inurba_marseille","lat":43.30541,"lon":5.36719,"is_reserved":false,"is_disabled":false,"rental_uris":{"android":"levelo://app?vid=2d26c59d-e273-4a0b-8115-7a1f50b73b52","ios":"levelo://app?vid=2d26c59d-e273-4a0b-8115-7a1f50b73b52"},"vehicle_type_id":"4","last_reported":1728151826,"current_range_meters":8000,"station_id":"ce4bgrp2rcd13ifvqc9g","pricing_plan_id":"cebpf4jnsgd1na2vs0mg"},{"bike_id":"d60fc4ba-5b64-48da-ac90-fb570351150a","system_id":"levelo_inurba_marseille","lat":43.29193,"lon":5.3933,"is_reserved":false,"is_disabled":false,"rental_uris":{"android":"levelo://app?vid=d60fc4ba-5b64-48da-ac90-fb570351150a","ios":"levelo://app?vid=d60fc4ba-5b64-48da-ac90-fb570351150a"},"vehicle_type_id":"4","last_reported":1728151826,"current_range_meters":14400,"station_id":"ce4bh192rcd13ifvqdd0","pricing_plan_id":"cebpf4jnsgd1na2vs0mg"},{"bike_id":"5d781235-74a2-43d4-a276-3b8bf4f58de8","system_id":"levelo_inurba_marseille","lat":43.31326,"lon":5.36722,"is_reserved":false,"is_disabled":false,"rental_uris":{"android":"levelo://app?vid=5d781235-74a2-43d4-a276-3b8bf4f58de8","ios":"levelo://app?vid=5d781235-74a2-43d4-a276-3b8bf4f58de8"},"vehicle_type_id":"4","last_reported":1728151826,"current_range_meters":25600,"station_id":"ce4bgr92rcd13ifvqc6g","pricing_plan_id":"cebpf4jnsgd1na2vs0mg"},{"bike_id":"199c18c7-77fd-44f3-95d9-8d7b04ccab44","system_id":"levelo_inurba_marseille","lat":43.33757,"lon":5.37447,"is_reserved":false,"is_disabled":false,"rental_uris":{"android":"levelo://app?vid=199c18c7-77fd-44f3-95d9-8d7b04ccab44","ios":"levelo://app?vid=199c18c7-77fd-44f3-95d9-8d7b04ccab44"},"vehicle_type_id":"4","last_reported":1728151826,"current_range_meters":37600,"station_id":"","pricing_plan_id":"cebpf4jnsgd1na2vs0mg"},{"bike_id":"faa94dcb-7f76-4d39-973c-eed1c645a828","system_id":"levelo_inurba_marseille","lat":43.32484,"lon":5.36572,"is_reserved":false,"is_disabled":false,"rental_uris":{"android":"levelo://app?vid=faa94dcb-7f76-4d39-973c-eed1c645a828","ios":"levelo://app?vid=faa94dcb-7f76-4d39-973c-eed1c645a828"},"vehicle_type_id":"4","last_reported":1728151826,"current_range_meters":9200,"station_id":"ce4bhs12rcd13ifvqhvg","pricing_plan_id":"cebpf4jnsgd1na2vs0mg"},{"bike_id":"3062a2c8-c5de-41df-9205-e820acfb7c4e","system_id":"levelo_inurba_marseille","lat":43.29787,"lon":5.38133,"is_reserved":false,"is_disabled":false,"rental_uris":{"android":"levelo://app?vid=3062a2c8-c5de-41df-9205-e820acfb7c4e","ios":"levelo://app?vid=3062a2c8-c5de-41df-9205-e820acfb7c4e"},"vehicle_type_id":"4","last_reported":1728151826,"current_range_meters":38800,"station_id":"ce4bgip2rcd13ifvqbb0","pricing_plan_id":"cebpf4jnsgd1na2vs0mg"},{"bike_id":"e30713b0-e8c9-44d0-9c5b-bee01c49e01f","system_id":"levelo_inurba_marseille","lat":43.31699,"lon":5.37739,"is_reserved":false,"is_disabled":false,"rental_uris":{"android":"levelo://app?vid=e30713b0-e8c9-44d0-9c5b-bee01c49e01f","ios":"levelo://app?vid=e30713b0-e8c9-44d0-9c5b-bee01c49e01f"},"vehicle_type_id":"4","last_reported":1728151826,"current_range_meters":32000,"station_id":"ce4bgth2rcd13ifvqch0","pricing_plan_id":"cebpf4jnsgd1na2vs0mg"},{"bike_id":"8c990ee9-08f2-4748-9624-469366b51b76","system_id":"levelo_inurba_marseille","lat":43.29865,"lon":5.39736,"is_reserved":false,"is_disabled":false,"rental_uris":{"android":"levelo://app?vid=8c990ee9-08f2-4748-9624-469366b51b76","ios":"levelo://app?vid=8c990ee9-08f2-4748-9624-469366b51b76"},"vehicle_type_id":"4","last_reported":1728151826,"current_range_meters":9200,"station_id":"ce4bh0h2rcd13ifvqd50","pricing_plan_id":"cebpf4jnsgd1na2vs0mg"},{"bike_id":"8f700586-d763-41fd-b17d-2ef3b8c6a140","system_id":"levelo_inurba_marseille","lat":43.309354,"lon":5.401407,"is_reserved":false,"is_disabled":false,"rental_uris":{"android":"levelo://app?vid=8f700586-d763-41fd-b17d-2ef3b8c6a140","ios":"levelo://app?vid=8f700586-d763-41fd-b17d-2ef3b8c6a140"},"vehicle_type_id":"4","last_reported":1728151826,"current_range_meters":30800,"station_id":"ce4bhs12rcd13ifvqhvg","pricing_plan_id":"cebpf4jnsgd1na2vs0mg"},{"bike_id":"240d53ef-b79d-4e21-ac08-9b5e13b9bec3","system_id":"levelo_inurba_marseille","lat":43.23179,"lon":5.39985,"is_reserved":false,"is_disabled":false,"rental_uris":{"android":"levelo://app?vid=240d53ef-b79d-4e21-ac08-9b5e13b9bec3","ios":"levelo://app?vid=240d53ef-b79d-4e21-ac08-9b5e13b9bec3"},"vehicle_type_id":"4","last_reported":1728151826,"current_range_meters":25200,"station_id":"ce4bhn12rcd13ifvqgqg","pricing_plan_id":"cebpf4jnsgd1na2vs0mg"},{"bike_id":"3db29d23-a885-4283-af1e-199bae9ac5d9","system_id":"levelo_inurba_marseille","lat":43.31227,"lon":5.36859,"is_reserved":false,"is_disabled":false,"rental_uris":{"android":"levelo://app?vid=3db29d23-a885-4283-af1e-199bae9ac5d9","ios":"levelo://app?vid=3db29d23-a885-4283-af1e-199bae9ac5d9"},"vehicle_type_id":"4","last_reported":1728151826,"current_range_meters":10800,"station_id":"ce4bgl92rcd13ifvqbq0","pricing_plan_id":"cebpf4jnsgd1na2vs0mg"},{"bike_id":"d713615d-dacd-4fcb-9fda-e73e32bbdf61","system_id":"levelo_inurba_marseille","lat":43.33759,"lon":5.37444,"is_reserved":false,"is_disabled":false,"rental_uris":{"android":"levelo://app?vid=d713615d-dacd-4fcb-9fda-e73e32bbdf61","ios":"levelo://app?vid=d713615d-dacd-4fcb-9fda-e73e32bbdf61"},"vehicle_type_id":"4","last_reported":1728151826,"current_range_meters":35200,"station_id":"","pricing_plan_id":"cebpf4jnsgd1na2vs0mg"},{"bike_id":"65f35519-193a-4173-a48f-9b9bea30e594","system_id":"levelo_inurba_marseille","lat":43.28574,"lon":5.39506,"is_reserved":false,"is_disabled":false,"rental_uris":{"android":"levelo://app?vid=65f35519-193a-4173-a48f-9b9bea30e594","ios":"levelo://app?vid=65f35519-193a-4173-a48f-9b9bea30e594"},"vehicle_type_id":"4","last_reported":1728151826,"current_range_meters":6800,"station_id":"ce4bh292rcd13ifvqdg0","pricing_plan_id":"cebpf4jnsgd1na2vs0mg"},{"bike_id":"2b170e0b-9a6b-41c6-8bc0-30ec0b89ce21","system_id":"levelo_inurba_marseille","lat":43.25119,"lon":5.40325,"is_reserved":false,"is_disabled":false,"rental_uris":{"android":"levelo://app?vid=2b170e0b-9a6b-41c6-8bc0-30ec0b89ce21","ios":"levelo://app?vid=2b170e0b-9a6b-41c6-8bc0-30ec0b89ce21"},"vehicle_type_id":"4","last_reported":1728151826,"current_range_meters":28400,"station_id":"ce4bhlh2rcd13ifvqgig","pricing_plan_id":"cebpf4jnsgd1na2vs0mg"},{"bike_id":"81a1dfa8-7fad-4d7a-b1eb-1c5a93f70207","system_id":"levelo_inurba_marseille","lat":43.32384,"lon":5.38914,"is_reserved":false,"is_disabled":false,"rental_uris":{"android":"levelo://app?vid=81a1dfa8-7fad-4d7a-b1eb-1c5a93f70207","ios":"levelo://app?vid=81a1dfa8-7fad-4d7a-b1eb-1c5a93f70207"},"vehicle_type_id":"4","last_reported":1728151826,"current_range_meters":33200,"station_id":"ce4bhqp2rcd13ifvqhog","pricing_plan_id":"cebpf4jnsgd1na2vs0mg"},{"bike_id":"b87e721f-eb47-4298-a494-8f29f0fac1e4","system_id":"levelo_inurba_marseille","lat":43.30555,"lon":5.38412,"is_reserved":false,"is_disabled":false,"rental_uris":{"android":"levelo://app?vid=b87e721f-eb47-4298-a494-8f29f0fac1e4","ios":"levelo://app?vid=b87e721f-eb47-4298-a494-8f29f0fac1e4"},"vehicle_type_id":"4","last_reported":1728151826,"current_range_meters":27200,"station_id":"ce4bgg92rcd13ifvqb30","pricing_plan_id":"cebpf4jnsgd1na2vs0mg"},{"bike_id":"e2b49154-80b1-4963-81ce-462e529ba5ce","system_id":"levelo_inurba_marseille","lat":43.25166,"lon":5.37822,"is_reserved":false,"is_disabled":false,"rental_uris":{"android":"levelo://app?vid=e2b49154-80b1-4963-81ce-462e529ba5ce","ios":"levelo://app?vid=e2b49154-80b1-4963-81ce-462e529ba5ce"},"vehicle_type_id":"4","last_reported":1728151826,"current_range_meters":9200,"station_id":"","pricing_plan_id":"cebpf4jnsgd1na2vs0mg"},{"bike_id":"0ee76963-72cb-4fc0-b1a8-1467e815e181","system_id":"levelo_inurba_marseille","lat":43.31226,"lon":5.36858,"is_reserved":false,"is_disabled":false,"rental_uris":{"android":"levelo://app?vid=0ee76963-72cb-4fc0-b1a8-1467e815e181","ios":"levelo://app?vid=0ee76963-72cb-4fc0-b1a8-1467e815e181"},"vehicle_type_id":"4","last_reported":1728151826,"current_range_meters":28800,"station_id":"ce4bgl92rcd13ifvqbq0","pricing_plan_id":"cebpf4jnsgd1na2vs0mg"},{"bike_id":"892d6c8a-e4ab-4972-a150-ec9b573b1fb9","system_id":"levelo_inurba_marseille","lat":43.31229,"lon":5.36865,"is_reserved":false,"is_disabled":false,"rental_uris":{"android":"levelo://app?vid=892d6c8a-e4ab-4972-a150-ec9b573b1fb9","ios":"levelo://app?vid=892d6c8a-e4ab-4972-a150-ec9b573b1fb9"},"vehicle_type_id":"4","last_reported":1728151826,"current_range_meters":16400,"station_id":"ce4bgl92rcd13ifvqbq0","pricing_plan_id":"cebpf4jnsgd1na2vs0mg"},{"bike_id":"a5564bd7-3607-4efe-8c77-16cf37a9c16f","system_id":"levelo_inurba_marseille","lat":43.2897,"lon":5.39779,"is_reserved":false,"is_disabled":false,"rental_uris":{"android":"levelo://app?vid=a5564bd7-3607-4efe-8c77-16cf37a9c16f","ios":"levelo://app?vid=a5564bd7-3607-4efe-8c77-16cf37a9c16f"},