{"last_updated":1744207824,"ttl":60,"version":"2.2","data":{"bikes":[{"bike_id":"f3cf7df6-947c-4902-92b1-aa223d48b899","system_id":"levelo_inurba_marseille","lat":43.308827,"lon":5.396543,"is_reserved":false,"is_disabled":false,"rental_uris":{"android":"levelo://app?vid=f3cf7df6-947c-4902-92b1-aa223d48b899","ios":"levelo://app?vid=f3cf7df6-947c-4902-92b1-aa223d48b899"},"vehicle_type_id":"4","last_reported":1744207824,"current_range_meters":2800,"station_id":"ce4bh012rcd13ifvqcv0","pricing_plan_id":"cebpf4jnsgd1na2vs0mg"},{"bike_id":"64a6f853-7e97-46ce-adc1-beb52d17fc07","system_id":"levelo_inurba_marseille","lat":43.263939,"lon":5.378399,"is_reserved":false,"is_disabled":false,"rental_uris":{"android":"levelo://app?vid=64a6f853-7e97-46ce-adc1-beb52d17fc07","ios":"levelo://app?vid=64a6f853-7e97-46ce-adc1-beb52d17fc07"},"vehicle_type_id":"4","last_reported":1744207824,"current_range_meters":2800,"station_id":"ce4bhjp2rcd13ifvqga0","pricing_plan_id":"cebpf4jnsgd1na2vs0mg"},{"bike_id":"04ea21db-9998-4cdc-8b93-e4b23b0ed540","system_id":"levelo_inurba_marseille","lat":43.26123,"lon":5.39587,"is_reserved":false,"is_disabled":false,"rental_uris":{"android":"levelo://app?vid=04ea21db-9998-4cdc-8b93-e4b23b0ed540","ios":"levelo://app?vid=04ea21db-9998-4cdc-8b93-e4b23b0ed540"},"vehicle_type_id":"4","last_reported":1744207824,"current_range_meters":3200,"station_id":"","pricing_plan_id":"cebpf4jnsgd1na2vs0mg"},{"bike_id":"a6e48bec-9857-4933-a25c-9192ee48cc84","system_id":"levelo_inurba_marseille","lat":43.29303,"lon":5.37177,"is_reserved":false,"is_disabled":false,"rental_uris":{"android":"levelo://app?vid=a6e48bec-9857-4933-a25c-9192ee48cc84","ios":"levelo://app?vid=a6e48bec-9857-4933-a25c-9192ee48cc84"},"vehicle_type_id":"4","last_reported":1744207824,"current_range_meters":3600,"station_id":"ce4bgh92rcd13ifvqb40","pricing_plan_id":"cebpf4jnsgd1na2vs0mg"},{"bike_id":"f39be6f5-2f69-4c37-b021-559d20b299a4","system_id":"levelo_inurba_marseille","lat":43.30038,"lon":5.3764,"is_reserved":false,"is_disabled":false,"rental_uris":{"android":"levelo://app?vid=f39be6f5-2f69-4c37-b021-559d20b299a4","ios":"levelo://app?vid=f39be6f5-2f69-4c37-b021-559d20b299a4"},"vehicle_type_id":"4","last_reported":1744207824,"current_range_meters":3600,"station_id":"","pricing_plan_id":"cebpf4jnsgd1na2vs0mg"},{"bike_id":"5a08e80e-7d07-4827-9519-a7faa9ef04b0","system_id":"levelo_inurba_marseille","lat":43.27368,"lon":5.36257,"is_reserved":false,"is_disabled":false,"rental_uris":{"android":"levelo://app?vid=5a08e80e-7d07-4827-9519-a7faa9ef04b0","ios":"levelo://app?vid=5a08e80e-7d07-4827-9519-a7faa9ef04b0"},"vehicle_type_id":"4","last_reported":1744207824,"current_range_meters":4000,"station_id":"ce4bhbh2rcd13ifvqeo0","pricing_plan_id":"cebpf4jnsgd1na2vs0mg"},{"bike_id":"9ccd98b7-f215-42f0-944a-3e3b31a383ef","system_id":"levelo_inurba_marseille","lat":43.26564,"lon":5.39012,"is_reserved":false,"is_disabled":false,"rental_uris":{"android":"levelo://app?vid=9ccd98b7-f215-42f0-944a-3e3b31a383ef","ios":"levelo://app?vid=9ccd98b7-f215-42f0-944a-3e3b31a383ef"},"vehicle_type_id":"4","last_reported":1744207824,"current_range_meters":4000,"station_id":"ce4bhe12rcd13ifvqf30","pricing_plan_id":"cebpf4jnsgd1na2vs0mg"},{"bike_id":"3576b946-70b3-456f-a60a-d98e227f015c","system_id":"levelo_inurba_marseille","lat":43.30082,"lon":5.38208,"is_reserved":false,"is_disabled":false,"rental_uris":{"android":"levelo://app?vid=3576b946-70b3-456f-a60a-d98e227f015c","ios":"levelo://app?vid=3576b946-70b3-456f-a60a-d98e227f015c"},"vehicle_type_id":"4","last_reported":1744207824,"current_range_meters":4000,"station_id":"","pricing_plan_id":"cebpf4jnsgd1na2vs0mg"},{"bike_id":"f1400516-f3e9-4a89-b0a4-876cb8e08004","system_id":"levelo_inurba_marseille","lat":43.3199,"lon":5.3815,"is_reserved":false,"is_disabled":false,"rental_uris":{"android":"levelo://app?vid=f1400516-f3e9-4a89-b0a4-876cb8e08004","ios":"levelo://app?vid=f1400516-f3e9-4a89-b0a4-876cb8e08004"},"vehicle_type_id":"4","last_reported":1744207824,"current_range_meters":4000,"station_id":"ce4bhr12rcd13ifvqhpg","pricing_plan_id":"cebpf4jnsgd1na2vs0mg"},{"bike_id":"f879c724-22b3-4ff3-9ca0-777d3e766c3b","system_id":"levelo_inurba_marseille","lat":43.29563,"lon":5.37522,"is_reserved":false,"is_disabled":false,"rental_uris":{"android":"levelo://app?vid=f879c724-22b3-4ff3-9ca0-777d3e766c3b","ios":"levelo://app?vid=f879c724-22b3-4ff3-9ca0-777d3e766c3b"},"vehicle_type_id":"4","last_reported":1744207824,"current_range_meters":4400,"station_id":"ce4bgh92rcd13ifvqb50","pricing_plan_id":"cebpf4jnsgd1na2vs0mg"},{"bike_id":"3cb42cf0-6a1d-4b57-adf5-538d6c6bddbb","system_id":"levelo_inurba_marseille","lat":43.31089,"lon":5.42431,"is_reserved":false,"is_disabled":false,"rental_uris":{"android":"levelo://app?vid=3cb42cf0-6a1d-4b57-adf5-538d6c6bddbb","ios":"levelo://app?vid=3cb42cf0-6a1d-4b57-adf5-538d6c6bddbb"},"vehicle_type_id":"4","last_reported":1744207824,"current_range_meters":4400,"station_id":"ce4bhp92rcd13ifvqhag","pricing_plan_id":"cebpf4jnsgd1na2vs0mg"},{"bike_id":"5270110f-7ee5-4f45-ad65-3c46c99e4e73","system_id":"levelo_inurba_marseille","lat":43.27916,"lon":5.39578,"is_reserved":false,"is_disabled":false,"rental_uris":{"android":"levelo://app?vid=5270110f-7ee5-4f45-ad65-3c46c99e4e73","ios":"levelo://app?vid=5270110f-7ee5-4f45-ad65-3c46c99e4e73"},"vehicle_type_id":"4","last_reported":1744207824,"current_range_meters":4400,"station_id":"ce4bhf92rcd13ifvqf40","pricing_plan_id":"cebpf4jnsgd1na2vs0mg"},{"bike_id":"24afeb47-ed0f-4beb-8cd0-c2315e6e9190","system_id":"levelo_inurba_marseille","lat":43.26225,"lon":5.40452,"is_reserved":false,"is_disabled":false,"rental_uris":{"android":"levelo://app?vid=24afeb47-ed0f-4beb-8cd0-c2315e6e9190","ios":"levelo://app?vid=24afeb47-ed0f-4beb-8cd0-c2315e6e9190"},"vehicle_type_id":"4","last_reported":1744207824,"current_range_meters":4400,"station_id":"ce4bhmh2rcd13ifvqgmg","pricing_plan_id":"cebpf4jnsgd1na2vs0mg"},{"bike_id":"61faeab7-d3b1-42ea-8185-a6bb834269b2","system_id":"levelo_inurba_marseille","lat":43.27132,"lon":5.41484,"is_reserved":false,"is_disabled":false,"rental_uris":{"android":"levelo://app?vid=61faeab7-d3b1-42ea-8185-a6bb834269b2","ios":"levelo://app?vid=61faeab7-d3b1-42ea-8185-a6bb834269b2"},"vehicle_type_id":"4","last_reported":1744207824,"current_range_meters":4400,"station_id":"","pricing_plan_id":"cebpf4jnsgd1na2vs0mg"},{"bike_id":"3dacb78c-23e8-43c0-b367-cfdc8b13b4d5","system_id":"levelo_inurba_marseille","lat":43.25929,"lon":5.40829,"is_reserved":false,"is_disabled":false,"rental_uris":{"android":"levelo://app?vid=3dacb78c-23e8-43c0-b367-cfdc8b13b4d5","ios":"levelo://app?vid=3dacb78c-23e8-43c0-b367-cfdc8b13b4d5"},"vehicle_type_id":"4","last_reported":1744207824,"current_range_meters":4400,"station_id":"ce4bhm92rcd13ifvqglg","pricing_plan_id":"cebpf4jnsgd1na2vs0mg"},{"bike_id":"923ba46d-39df-4e3e-aad5-a520a79e3ef9","system_id":"levelo_inurba_marseille","lat":43.27492,"lon":5.42454,"is_reserved":false,"is_disabled":false,"rental_uris":{"android":"levelo://app?vid=923ba46d-39df-4e3e-aad5-a520a79e3ef9","ios":"levelo://app?vid=923ba46d-39df-4e3e-aad5-a520a79e3ef9"},"vehicle_type_id":"4","last_reported":1744207824,"current_range_meters":4800,"station_id":"ce4bhn92rcd13ifvqgrg","pricing_plan_id":"cebpf4jnsgd1na2vs0mg"},{"bike_id":"b0e70e48-f0ae-4e70-acf1-d92ac7d0b960","system_id":"levelo_inurba_marseille","lat":43.23156,"lon":5.43701,"is_reserved":false,"is_disabled":false,"rental_uris":{"android":"levelo://app?vid=b0e70e48-f0ae-4e70-acf1-d92ac7d0b960","ios":"levelo://app?vid=b0e70e48-f0ae-4e70-acf1-d92ac7d0b960"},"vehicle_type_id":"4","last_reported":1744207824,"current_range_meters":4800,"station_id":"ce4bhmp2rcd13ifvqgog","pricing_plan_id":"cebpf4jnsgd1na2vs0mg"},{"bike_id":"18c60ff0-bcab-4e3f-8a27-d0b261f00e6c","system_id":"levelo_inurba_marseille","lat":43.26071,"lon":5.37476,"is_reserved":false,"is_disabled":false,"rental_uris":{"android":"levelo://app?vid=18c60ff0-bcab-4e3f-8a27-d0b261f00e6c","ios":"levelo://app?vid=18c60ff0-bcab-4e3f-8a27-d0b261f00e6c"},"vehicle_type_id":"4","last_reported":1744207824,"current_range_meters":4800,"station_id":"","pricing_plan_id":"cebpf4jnsgd1na2vs0mg"},{"bike_id":"689457b6-f24b-4512-9bc5-0a12f61b210b","system_id":"levelo_inurba_marseille","lat":43.30155,"lon":5.38103,"is_reserved":false,"is_disabled":false,"rental_uris":{"android":"levelo://app?vid=689457b6-f24b-4512-9bc5-0a12f61b210b","ios":"levelo://app?vid=689457b6-f24b-4512-9bc5-0a12f61b210b"},"vehicle_type_id":"4","last_reported":1744207824,"current_range_meters":4800,"station_id":"ce4bgjp2rcd13ifvqbh0","pricing_plan_id":"cebpf4jnsgd1na2vs0mg"},{"bike_id":"936d8d06-1674-4e17-96e5-e1a5ddb889c2","system_id":"levelo_inurba_marseille","lat":43.2857,"lon":5.39496,"is_reserved":false,"is_disabled":false,"rental_uris":{"android":"levelo://app?vid=936d8d06-1674-4e17-96e5-e1a5ddb889c2","ios":"levelo://app?vid=936d8d06-1674-4e17-96e5-e1a5ddb889c2"},"vehicle_type_id":"4","last_reported":1744207824,"current_range_meters":4800,"station_id":"ce4bh292rcd13ifvqdg0","pricing_plan_id":"cebpf4jnsgd1na2vs0mg"},{"bike_id":"15f88fd8-483e-4adf-81a9-41eaafc223f4","system_id":"levelo_inurba_marseille","lat":43.29277,"lon":5.37614,"is_reserved":false,"is_disabled":false,"rental_uris":{"android":"levelo://app?vid=15f88fd8-483e-4adf-81a9-41eaafc223f4","ios":"levelo://app?vid=15f88fd8-483e-4adf-81a9-41eaafc223f4"},"vehicle_type_id":"4","last_reported":1744207824,"current_range_meters":5600,"station_id":"ce4bgi12rcd13ifvqb80","pricing_plan_id":"cebpf4jnsgd1na2vs0mg"},{"bike_id":"cad3c9a1-f7bb-4402-926d-c0ef687e9b6f","system_id":"levelo_inurba_marseille","lat":43.2928,"lon":5.40115,"is_reserved":false,"is_disabled":false,"rental_uris":{"android":"levelo://app?vid=cad3c9a1-f7bb-4402-926d-c0ef687e9b6f","ios":"levelo://app?vid=cad3c9a1-f7bb-4402-926d-c0ef687e9b6f"},"vehicle_type_id":"4","last_reported":1744207824,"current_range_meters":5600,"station_id":"ce4bh312rcd13ifvqdk0","pricing_plan_id":"cebpf4jnsgd1na2vs0mg"},{"bike_id":"46c21e63-da81-4e0b-8ed7-18f9612ee19c","system_id":"levelo_inurba_marseille","lat":43.24181,"lon":5.39736,"is_reserved":false,"is_disabled":false,"rental_uris":{"android":"levelo://app?vid=46c21e63-da81-4e0b-8ed7-18f9612ee19c","ios":"levelo://app?vid=46c21e63-da81-4e0b-8ed7-18f9612ee19c"},"vehicle_type_id":"4","last_reported":1744207824,"current_range_meters":6400,"station_id":"ce4bhn12rcd13ifvqgpg","pricing_plan_id":"cebpf4jnsgd1na2vs0mg"},{"bike_id":"65a052ad-6850-479e-938e-8a418bc40e63","system_id":"levelo_inurba_marseille","lat":43.286165,"lon":5.351039,"is_reserved":false,"is_disabled":false,"rental_uris":{"android":"levelo://app?vid=65a052ad-6850-479e-938e-8a418bc40e63","ios":"levelo://app?vid=65a052ad-6850-479e-938e-8a418bc40e63"},"vehicle_type_id":"4","last_reported":1744207824,"current_range_meters":6400,"station_id":"ce4bhch2rcd13ifvqeug","pricing_plan_id":"cebpf4jnsgd1na2vs0mg"},{"bike_id":"70810d3e-9936-4863-b211-84f880613e88","system_id":"levelo_inurba_marseille","lat":43.31306,"lon":5.37366,"is_reserved":false,"is_disabled":false,"rental_uris":{"android":"levelo://app?vid=70810d3e-9936-4863-b211-84f880613e88","ios":"levelo://app?vid=70810d3e-9936-4863-b211-84f880613e88"},"vehicle_type_id":"4","last_reported":1744207824,"current_range_meters":6400,"station_id":"","pricing_plan_id":"cebpf4jnsgd1na2vs0mg"},{"bike_id":"ec41b842-c84f-4ab1-894c-fc6101e00efb","system_id":"levelo_inurba_marseille","lat":43.31709,"lon":5.40288,"is_reserved":false,"is_disabled":false,"rental_uris":{"android":"levelo://app?vid=ec41b842-c84f-4ab1-894c-fc6101e00efb","ios":"levelo://app?vid=ec41b842-c84f-4ab1-894c-fc6101e00efb"},"vehicle_type_id":"4","last_reported":1744207824,"current_range_meters":6400,"station_id":"","pricing_plan_id":"cebpf4jnsgd1na2vs0mg"},{"bike_id":"0e7051ad-00f7-4897-9995-929c1987289a","system_id":"levelo_inurba_marseille","lat":43.33021,"lon":5.39025,"is_reserved":false,"is_disabled":false,"rental_uris":{"android":"levelo://app?vid=0e7051ad-00f7-4897-9995-929c1987289a","ios":"levelo://app?vid=0e7051ad-00f7-4897-9995-929c1987289a"},"vehicle_type_id":"4","last_reported":1744207824,"current_range_meters":6400,"station_id":"ce4bhr92rcd13ifvqhrg","pricing_plan_id":"cebpf4jnsgd1na2vs0mg"},{"bike_id":"f65d1653-6bf8-48db-ade0-424748213407","system_id":"levelo_inurba_marseille","lat":43.30952,"lon":5.39041,"is_reserved":false,"is_disabled":false,"rental_uris":{"android":"levelo://app?vid=f65d1653-6bf8-48db-ade0-424748213407","ios":"levelo://app?vid=f65d1653-6bf8-48db-ade0-424748213407"},"vehicle_type_id":"4","last_reported":1744207824,"current_range_meters":7200,"station_id":"ce4bgup2rcd13ifvqco0","pricing_plan_id":"cebpf4jnsgd1na2vs0mg"},{"bike_id":"f1c3c7a3-2ef0-44bd-957b-187627fe65e9","system_id":"levelo_inurba_marseille","lat":43.23144,"lon":5.43739,"is_reserved":false,"is_disabled":false,"rental_uris":{"android":"levelo://app?vid=f1c3c7a3-2ef0-44bd-957b-187627fe65e9","ios":"levelo://app?vid=f1c3c7a3-2ef0-44bd-957b-187627fe65e9"},"vehicle_type_id":"4","last_reported":1744207824,"current_range_meters":7200,"station_id":"ce4bhmp2rcd13ifvqgog","pricing_plan_id":"cebpf4jnsgd1na2vs0mg"},{"bike_id":"7789bd8b-8aa5-464d-bbb9-d57e8bb1a4a7","system_id":"levelo_inurba_marseille","lat":43.278137,"lon":5.407019,"is_reserved":false,"is_disabled":false,"rental_uris":{"android":"levelo://app?vid=7789bd8b-8aa5-464d-bbb9-d57e8bb1a4a7","ios":"levelo://app?vid=7789bd8b-8aa5-464d-bbb9-d57e8bb1a4a7"},"vehicle_type_id":"4","last_reported":1744207824,"current_range_meters":7200,"station_id":"ce4bhnh2rcd13ifvqgtg","pricing_plan_id":"cebpf4jnsgd1na2vs0mg"},{"bike_id":"3d0cae43-5b75-4aac-b7cb-471ce1151dd5","system_id":"levelo_inurba_marseille","lat":43.33044,"lon":5.39526,"is_reserved":false,"is_disabled":false,"rental_uris":{"android":"levelo://app?vid=3d0cae43-5b75-4aac-b7cb-471ce1151dd5","ios":"levelo://app?vid=3d0cae43-5b75-4aac-b7cb-471ce1151dd5"},"vehicle_type_id":"4","last_reported":1744207824,"current_range_meters":7200,"station_id":"","pricing_plan_id":"cebpf4jnsgd1na2vs0mg"},{"bike_id":"5e6ad826-38da-4531-b4ba-2eda8622ede3","system_id":"levelo_inurba_marseille","lat":43.31096,"lon":5.4045,"is_reserved":false,"is_disabled":false,"rental_uris":{"android":"levelo://app?vid=5e6ad826-38da-4531-b4ba-2eda8622ede3","ios":"levelo://app?vid=5e6ad826-38da-4531-b4ba-2eda8622ede3"},"vehicle_type_id":"4","last_reported":1744207824,"current_range_meters":7200,"station_id":"","pricing_plan_id":"cebpf4jnsgd1na2vs0mg"},{"bike_id":"2e0680bd-1fba-451b-a03b-00f3d5325e65","system_id":"levelo_inurba_marseille","lat":43.26779,"lon":5.39423,"is_reserved":false,"is_disabled":false,"rental_uris":{"android":"levelo://app?vid=2e0680bd-1fba-451b-a03b-00f3d5325e65","ios":"levelo://app?vid=2e0680bd-1fba-451b-a03b-00f3d5325e65"},"vehicle_type_id":"4","last_reported":1744207824,"current_range_meters":7200,"station_id":"ce4bhh12rcd13ifvqfg0","pricing_plan_id":"cebpf4jnsgd1na2vs0mg"},{"bike_id":"91df6290-db50-4b6f-b488-f1db3f93be8e","system_id":"levelo_inurba_marseille","lat":43.28723,"lon":5.36099,"is_reserved":false,"is_disabled":false,"rental_uris":{"android":"levelo://app?vid=91df6290-db50-4b6f-b488-f1db3f93be8e","ios":"levelo://app?vid=91df6290-db50-4b6f-b488-f1db3f93be8e"},"vehicle_type_id":"4","last_reported":1744207824,"current_range_meters":8400,"station_id":"cki0cbj6b192h4jlfktg","pricing_plan_id":"cebpf4jnsgd1na2vs0mg"},{"bike_id":"8b533236-6020-47c8-ba0f-4279a1120ca5","system_id":"levelo_inurba_marseille","lat":43.28615,"lon":5.35109,"is_reserved":false,"is_disabled":false,"rental_uris":{"android":"levelo://app?vid=8b533236-6020-47c8-ba0f-4279a1120ca5","ios":"levelo://app?vid=8b533236-6020-47c8-ba0f-4279a1120ca5"},"vehicle_type_id":"4","last_reported":1744207824,"current_range_meters":8000,"station_id":"ce4bhch2rcd13ifvqeug","pricing_plan_id":"cebpf4jnsgd1na2vs0mg"},{"bike_id":"77e20d6c-a38d-4e9d-9ad9-b1ee30d126e9","system_id":"levelo_inurba_marseille","lat":43.29672,"lon":5.37346,"is_reserved":false,"is_disabled":false,"rental_uris":{"android":"levelo://app?vid=77e20d6c-a38d-4e9d-9ad9-b1ee30d126e9","ios":"levelo://app?vid=77e20d6c-a38d-4e9d-9ad9-b1ee30d126e9"},"vehicle_type_id":"4","last_reported":1744207824,"current_range_meters":8000,"station_id":"","pricing_plan_id":"cebpf4jnsgd1na2vs0mg"},{"bike_id":"34b09d4c-95f5-4a4d-bcf9-94281dcae659","system_id":"levelo_inurba_marseille","lat":43.30546,"lon":5.36547,"is_reserved":false,"is_disabled":false,"rental_uris":{"android":"levelo://app?vid=34b09d4c-95f5-4a4d-bcf9-94281dcae659","ios":"levelo://app?vid=34b09d4c-95f5-4a4d-bcf9-94281dcae659"},"vehicle_type_id":"4","last_reported":1744207824,"current_range_meters":8000,"station_id":"ce4bgs12rcd13ifvqcag","pricing_plan_id":"cebpf4jnsgd1na2vs0mg"},{"bike_id":"68d1cc33-0218-451e-8e10-d32225c21263","system_id":"levelo_inurba_marseille","lat":43.23155,"lon":5.43696,"is_reserved":false,"is_disabled":true,"rental_uris":{"android":"levelo://app?vid=68d1cc33-0218-451e-8e10-d32225c21263","ios":"levelo://app?vid=68d1cc33-0218-451e-8e10-d32225c21263"},"vehicle_type_id":"4","last_reported":1744207824,"current_range_meters":8000,"station_id":"ce4bhmp2rcd13ifvqgog","pricing_plan_id":"cebpf4jnsgd1na2vs0mg"},{"bike_id":"0bf45f94-24a3-4fe7-96c8-f535a66d6ec0","system_id":"levelo_inurba_marseille","lat":43.30531,"lon":5.36538,"is_reserved":false,"is_disabled":false,"rental_uris":{"android":"levelo://app?vid=0bf45f94-24a3-4fe7-96c8-f535a66d6ec0","ios":"levelo://app?vid=0bf45f94-24a3-4fe7-96c8-f535a66d6ec0"},"vehicle_type_id":"4","last_reported":1744207824,"current_range_meters":8000,"station_id":"ce4bgs12rcd13ifvqcag","pricing_plan_id":"cebpf4jnsgd1na2vs0mg"},{"bike_id":"884be694-bb61-479b-97c3-f2518d3c7f2b","system_id":"levelo_inurba_marseille","lat":43.29191,"lon":5.39313,"is_reserved":false,"is_disabled":false,"rental_uris":{"android":"levelo://app?vid=884be694-bb61-479b-97c3-f2518d3c7f2b","ios":"levelo://app?vid=884be694-bb61-479b-97c3-f2518d3c7f2b"},"vehicle_type_id":"4","last_reported":1744207824,"current_range_meters":8400,"station_id":"ce4bh192rcd13ifvqdd0","pricing_plan_id":"cebpf4jnsgd1na2vs0mg"},{"bike_id":"2740625b-8f77-4132-853e-89b913c61566","system_id":"levelo_inurba_marseille","lat":43.31081,"lon":5.42432,"is_reserved":false,"is_disabled":false,"rental_uris":{"android":"levelo://app?vid=2740625b-8f77-4132-853e-89b913c61566","ios":"levelo://app?vid=2740625b-8f77-4132-853e-89b913c61566"},"vehicle_type_id":"4","last_reported":1744207824,"current_range_meters":8400,"station_id":"ce4bhp92rcd13ifvqhag","pricing_plan_id":"cebpf4jnsgd1na2vs0mg"},{"bike_id":"80663e12-6b64-446d-88c9-20255bde1a8a","system_id":"levelo_inurba_marseille","lat":43.3086,"lon":5.39639,"is_reserved":false,"is_disabled":true,"rental_uris":{"android":"levelo://app?vid=80663e12-6b64-446d-88c9-20255bde1a8a","ios":"levelo://app?vid=80663e12-6b64-446d-88c9-20255bde1a8a"},"vehicle_type_id":"4","last_reported":1744207824,"current_range_meters":8800,"station_id":"ce4bh012rcd13ifvqcv0","pricing_plan_id":"cebpf4jnsgd1na2vs0mg"},{"bike_id":"a566336b-6133-47a6-ad7f-74f32862e29a","system_id":"levelo_inurba_marseille","lat":43.30385,"lon":5.425082,"is_reserved":false,"is_disabled":false,"rental_uris":{"android":"levelo://app?vid=a566336b-6133-47a6-ad7f-74f32862e29a","ios":"levelo://app?vid=a566336b-6133-47a6-ad7f-74f32862e29a"},"vehicle_type_id":"4","last_reported":1744207824,"current_range_meters":8800,"station_id":"ce4bhoh2rcd13ifvqh6g","pricing_plan_id":"cebpf4jnsgd1na2vs0mg"},{"bike_id":"08f9c0c8-8b33-4578-8a03-20f44d582241","system_id":"levelo_inurba_marseille","lat":43.306113,"lon":5.371535,"is_reserved":false,"is_disabled":false,"rental_uris":{"android":"levelo://app?vid=08f9c0c8-8b33-4578-8a03-20f44d582241","ios":"levelo://app?vid=08f9c0c8-8b33-4578-8a03-20f44d582241"},"vehicle_type_id":"4","last_reported":1744207824,"current_range_meters":8800,"station_id":"","pricing_plan_id":"cebpf4jnsgd1na2vs0mg"},{"bike_id":"6035fb68-b179-4ee6-814f-c928985b1437","system_id":"levelo_inurba_marseille","lat":43.27317,"lon":5.39092,"is_reserved":false,"is_disabled":false,"rental_uris":{"android":"levelo://app?vid=6035fb68-b179-4ee6-814f-c928985b1437","ios":"levelo://app?vid=6035fb68-b179-4ee6-814f-c928985b1437"},"vehicle_type_id":"4","last_reported":1744207824,"current_range_meters":8800,"station_id":"ce4bhgp2rcd13ifvqfe0","pricing_plan_id":"cebpf4jnsgd1na2vs0mg"},{"bike_id":"feca3d9e-12e9-4a3a-8f8a-211aa953b3fa","system_id":"levelo_inurba_marseille","lat":43.29337,"lon":5.41148,"is_reserved":false,"is_disabled":false,"rental_uris":{"android":"levelo://app?vid=feca3d9e-12e9-4a3a-8f8a-211aa953b3fa","ios":"levelo://app?vid=feca3d9e-12e9-4a3a-8f8a-211aa953b3fa"},"vehicle_type_id":"4","last_reported":1744207824,"current_range_meters":8800,"station_id":"","pricing_plan_id":"cebpf4jnsgd1na2vs0mg"},{"bike_id":"b397701f-0d3d-44bf-ab3e-3ccc7e74fb2e","system_id":"levelo_inurba_marseille","lat":43.26466,"lon":5.42255,"is_reserved":false,"is_disabled":false,"rental_uris":{"android":"levelo://app?vid=b397701f-0d3d-44bf-ab3e-3ccc7e74fb2e","ios":"levelo://app?vid=b397701f-0d3d-44bf-ab3e-3ccc7e74fb2e"},"vehicle_type_id":"4","last_reported":1744207824,"current_range_meters":8800,"station_id":"","pricing_plan_id":"cebpf4jnsgd1na2vs0mg"},{"bike_id":"ad212075-aa88-4f52-8b77-40fff53ff563","system_id":"levelo_inurba_marseille","lat":43.30354,"lon":5.42516,"is_reserved":false,"is_disabled":false,"rental_uris":{"android":"levelo://app?vid=ad212075-aa88-4f52-8b77-40fff53ff563","ios":"levelo://app?vid=ad212075-aa88-4f52-8b77-40fff53ff563"},"vehicle_type_id":"4","last_reported":1744207824,"current_range_meters":8800,"station_id":"","pricing_plan_id":"cebpf4jnsgd1na2vs0mg"},{"bike_id":"1d355f92-8832-4e68-ba9e-3cad501179a1","system_id":"levelo_inurba_marseille","lat":43.295939,"lon":5.372854,"is_reserved":false,"is_disabled":false,"rental_uris":{"android":"levelo://app?vid=1d355f92-8832-4e68-ba9e-3cad501179a1","ios":"levelo://app?vid=1d355f92-8832-4e68-ba9e-3cad501179a1"},"vehicle_type_id":"4","last_reported":1744207824,"current_range_meters":9200,"station_id":"ce4bgnh2rcd13ifvqc0g","pricing_plan_id":"cebpf4jnsgd1na2vs0mg"},{"bike_id":"8386773b-06c3-4390-9da3-18aa2d27d571","system_id":"levelo_inurba_marseille","lat":43.21194,"lon":5.35065,"is_reserved":false,"is_disabled":false,"rental_uris":{"android":"levelo://app?vid=8386773b-06c3-4390-9da3-18aa2d27d571","ios":"levelo://app?vid=8386773b-06c3-4390-9da3-18aa2d27d571"},"vehicle_type_id":"4","last_reported":1744207824,"current_range_meters":9200,"station_id":"st_cvj6sg6p6f1abm77japg","pricing_plan_id":"cebpf4jnsgd1na2vs0mg"},{"bike_id":"827fb1cd-bee7-476f-849f-93c89efa115f","system_id":"levelo_inurba_marseille","lat":43.27939,"lon":5.4105,"is_reserved":false,"is_disabled":false,"rental_uris":{"android":"levelo://app?vid=827fb1cd-bee7-476f-849f-93c89efa115f","ios":"levelo://app?vid=827fb1cd-bee7-476f-849f-93c89efa115f"},"vehicle_type_id":"4","last_reported":1744207824,"current_range_meters":9200,"station_id":"ce4bhnp2rcd13ifvqh0g","pricing_plan_id":"cebpf4jnsgd1na2vs0mg"},{"bike_id":"605ff71f-1094-481e-a9cd-c32fa012a829","system_id":"levelo_inurba_marseille","lat":43.26056,"lon":5.39396,"is_reserved":false,"is_disabled":false,"rental_uris":{"android":"levelo://app?vid=605ff71f-1094-481e-a9cd-c32fa012a829","ios":"levelo://app?vid=605ff71f-1094-481e-a9cd-c32fa012a829"},"vehicle_type_id":"4","last_reported":1744207824,"current_range_meters":9200,"station_id":"ce4bhh92rcd13ifvqfj0","pricing_plan_id":"cebpf4jnsgd1na2vs0mg"},{"bike_id":"57965f83-5085-46a6-a177-1744be026756","system_id":"levelo_inurba_marseille","lat":43.28847,"lon":5.3583,"is_reserved":false,"is_disabled":false,"rental_uris":{"android":"levelo://app?vid=57965f83-5085-46a6-a177-1744be026756","ios":"levelo://app?vid=57965f83-5085-46a6-a177-1744be026756"},"vehicle_type_id":"4","last_reported":1744207824,"current_range_meters":9200,"station_id":"ce4bhb12rcd13ifvqem0","pricing_plan_id":"cebpf4jnsgd1na2vs0mg"},{"bike_id":"21505f3f-3ba0-41a4-a440-c61a6c5113a1","system_id":"levelo_inurba_marseille","lat":43.29283,"lon":5.40124,"is_reserved":false,"is_disabled":false,"rental_uris":{"android":"levelo://app?vid=21505f3f-3ba0-41a4-a440-c61a6c5113a1","ios":"levelo://app?vid=21505f3f-3ba0-41a4-a440-c61a6c5113a1"},"vehicle_type_id":"4","last_reported":1744207824,"current_range_meters":9600,"station_id":"ce4bh312rcd13ifvqdk0","pricing_plan_id":"cebpf4jnsgd1na2vs0mg"},{"bike_id":"1a8c3bfa-7658-4f5e-93b8-93807ec24b6f","system_id":"levelo_inurba_marseille","lat":43.26561,"lon":5.39015,"is_reserved":false,"is_disabled":true,"rental_uris":{"android":"levelo://app?vid=1a8c3bfa-7658-4f5e-93b8-93807ec24b6f","ios":"levelo://app?vid=1a8c3bfa-7658-4f5e-93b8-93807ec24b6f"},"vehicle_type_id":"4","last_reported":1744207824,"current_range_meters":9600,"station_id":"ce4bhe12rcd13ifvqf30","pricing_plan_id":"cebpf4jnsgd1na2vs0mg"},{"bike_id":"38d43532-99ee-4da9-a7e0-2ec33bbd0cfe","system_id":"levelo_inurba_marseille","lat":43.27812,"lon":5.40708,"is_reserved":false,"is_disabled":false,"rental_uris":{"android":"levelo://app?vid=38d43532-99ee-4da9-a7e0-2ec33bbd0cfe","ios":"levelo://app?vid=38d43532-99ee-4da9-a7e0-2ec33bbd0cfe"},"vehicle_type_id":"4","last_reported":1744207824,"current_range_meters":9600,"station_id":"ce4bhnh2rcd13ifvqgtg","pricing_plan_id":"cebpf4jnsgd1na2vs0mg"},{"bike_id":"ce0fd5b8-478f-4f08-869c-935a7a4c659f","system_id":"levelo_inurba_marseille","lat":43.33268,"lon":5.37974,"is_reserved":false,"is_disabled":false,"rental_uris":{"android":"levelo://app?vid=ce0fd5b8-478f-4f08-869c-935a7a4c659f","ios":"levelo://app?vid=ce0fd5b8-478f-4f08-869c-935a7a4c659f"},"vehicle_type_id":"4","last_reported":1744207824,"current_range_meters":9600,"station_id":"","pricing_plan_id":"cebpf4jnsgd1na2vs0mg"},{"bike_id":"c05235a7-ac17-4b6a-ace7-0228932d5633","system_id":"levelo_inurba_marseille","lat":43.30292,"lon":5.36865,"is_reserved":false,"is_disabled":false,"rental_uris":{"android":"levelo://app?vid=c05235a7-ac17-4b6a-ace7-0228932d5633","ios":"levelo://app?vid=c05235a7-ac17-4b6a-ace7-0228932d5633"},"vehicle_type_id":"4","last_reported":1744207824,"current_range_meters":9600,"station_id":"ce4bgqh2rcd13ifvqc5g","pricing_plan_id":"cebpf4jnsgd1na2vs0mg"},{"bike_id":"9e06eb9e-6294-43df-b8a3-17186ee086c3","system_id":"levelo_inurba_marseille","lat":43.24388,"lon":5.37055,"is_reserved":false,"is_disabled":false,"rental_uris":{"android":"levelo://app?vid=9e06eb9e-6294-43df-b8a3-17186ee086c3","ios":"levelo://app?vid=9e06eb9e-6294-43df-b8a3-17186ee086c3"},"vehicle_type_id":"4","last_reported":1744207824,"current_range_meters":9600,"station_id":"ce4bhhh2rcd13ifvqfk0","pricing_plan_id":"cebpf4jnsgd1na2vs0mg"},{"bike_id":"a26c8be7-2380-4aab-8ce4-a3f8c74820d9","system_id":"levelo_inurba_marseille","lat":43.30801,"lon":5.38144,"is_reserved":false,"is_disabled":false,"rental_uris":{"android":"levelo://app?vid=a26c8be7-2380-4aab-8ce4-a3f8c74820d9","ios":"levelo://app?vid=a26c8be7-2380-4aab-8ce4-a3f8c74820d9"},"vehicle_type_id":"4","last_reported":1744207824,"current_range_meters":9600,"station_id":"ce4bgt12rcd13ifvqce0","pricing_plan_id":"cebpf4jnsgd1na2vs0mg"},{"bike_id":"279b9b63-022b-4fde-b5e6-fd8542800f02","system_id":"levelo_inurba_marseille","lat":43.28041,"lon":5.36946,"is_reserved":false,"is_disabled":false,"rental_uris":{"android":"levelo://app?vid=279b9b63-022b-4fde-b5e6-fd8542800f02","ios":"levelo://app?vid=279b9b63-022b-4fde-b5e6-fd8542800f02"},"vehicle_type_id":"4","last_reported":1744207824,"current_range_meters":9600,"station_id":"ce4bha12rcd13ifvqef0","pricing_plan_id":"cebpf4jnsgd1na2vs0mg"},{"bike_id":"fe7ebf86-a819-47f0-be42-897352f279b1","system_id":"levelo_inurba_marseille","lat":43.30887,"lon":5.37202,"is_reserved":false,"is_disabled":false,"rental_uris":{"android":"levelo://app?vid=fe7ebf86-a819-47f0-be42-897352f279b1","ios":"levelo://app?vid=fe7ebf86-a819-47f0-be42-897352f279b1"},"vehicle_type_id":"4","last_reported":1744207824,"current_range_meters":9600,"station_id":"ce4bguh2rcd13ifvqckg","pricing_plan_id":"cebpf4jnsgd1na2vs0mg"},{"bike_id":"58e8190f-cded-4bd0-8488-a02552cd7e3b","system_id":"levelo_inurba_marseille","lat":43.305379,"lon":5.365286,"is_reserved":false,"is_disabled":false,"rental_uris":{"android":"levelo://app?vid=58e8190f-cded-4bd0-8488-a02552cd7e3b","ios":"levelo://app?vid=58e8190f-cded-4bd0-8488-a02552cd7e3b"},"vehicle_type_id":"4","last_reported":1744207824,"current_range_meters":9600,"station_id":"ce4bgs12rcd13ifvqcag","pricing_plan_id":"cebpf4jnsgd1na2vs0mg"},{"bike_id":"1180a7b1-52e4-45a6-a35d-3a6133d07906","system_id":"levelo_inurba_marseille","lat":43.30152,"lon":5.37425,"is_reserved":false,"is_disabled":false,"rental_uris":{"android":"levelo://app?vid=1180a7b1-52e4-45a6-a35d-3a6133d07906","ios":"levelo://app?vid=1180a7b1-52e4-45a6-a35d-3a6133d07906"},"vehicle_type_id":"4","last_reported":1744207824,"current_range_meters":10000,"station_id":"ce4bgs92rcd13ifvqcc0","pricing_plan_id":"cebpf4jnsgd1na2vs0mg"},{"bike_id":"e27fe6b0-b4ba-4e25-be9b-87a17b5f26f9","system_id":"levelo_inurba_marseille","lat":43.34142,"lon":5.40889,"is_reserved":false,"is_disabled":false,"rental_uris":{"android":"levelo://app?vid=e27fe6b0-b4ba-4e25-be9b-87a17b5f26f9","ios":"levelo://app?vid=e27fe6b0-b4ba-4e25-be9b-87a17b5f26f9"},"vehicle_type_id":"4","last_reported":1744207824,"current_range_meters":9600,"station_id":"ce4bhqh2rcd13ifvqhlg","pricing_plan_id":"cebpf4jnsgd1na2vs0mg"},{"bike_id":"357b33c0-d273-481c-8a4b-99ae442dc8de","system_id":"levelo_inurba_marseille","lat":43.31528,"lon":5.38041,"is_reserved":false,"is_disabled":false,"rental_uris":{"android":"levelo://app?vid=357b33c0-d273-481c-8a4b-99ae442dc8de","ios":"levelo://app?vid=357b33c0-d273-481c-8a4b-99ae442dc8de"},"vehicle_type_id":"4","last_reported":1744207824,"current_range_meters":10000,"station_id":"ce4bhsp2rcd13ifvqi50","pricing_plan_id":"cebpf4jnsgd1na2vs0mg"},{"bike_id":"2040e1bb-10e4-4dcc-a03a-322e38788a89","system_id":"levelo_inurba_marseille","lat":43.29883,"lon":5.38898,"is_reserved":false,"is_disabled":false,"rental_uris":{"android":"levelo://app?vid=2040e1bb-10e4-4dcc-a03a-322e38788a89","ios":"levelo://app?vid=2040e1bb-10e4-4dcc-a03a-322e38788a89"},"vehicle_type_id":"4","last_reported":1744207824,"current_range_meters":10000,"station_id":"ce4bh392rcd13ifvqdl0","pricing_plan_id":"cebpf4jnsgd1na2vs0mg"},{"bike_id":"7be4694d-651f-4795-900f-82f3df3e9b34","system_id":"levelo_inurba_marseille","lat":43.29195,"lon":5.39316,"is_reserved":false,"is_disabled":false,"rental_uris":{"android":"levelo://app?vid=7be4694d-651f-4795-900f-82f3df3e9b34","ios":"levelo://app?vid=7be4694d-651f-4795-900f-82f3df3e9b34"},"vehicle_type_id":"4","last_reported":1744207824,"current_range_meters":10000,"station_id":"ce4bh192rcd13ifvqdd0","pricing_plan_id":"cebpf4jnsgd1na2vs0mg"},{"bike_id":"38c43302-d0f3-42c8-89fb-a9374ff631e5","system_id":"levelo_inurba_marseille","lat":43.305397,"lon":5.365289,"is_reserved":false,"is_disabled":false,"rental_uris":{"android":"levelo://app?vid=38c43302-d0f3-42c8-89fb-a9374ff631e5","ios":"levelo://app?vid=38c43302-d0f3-42c8-89fb-a9374ff631e5"},"vehicle_type_id":"4","last_reported":1744207824,"current_range_meters":10000,"station_id":"ce4bgs12rcd13ifvqcag","pricing_plan_id":"cebpf4jnsgd1na2vs0mg"},{"bike_id":"dad855de-93e4-4284-9b13-db07d91df72a","system_id":"levelo_inurba_marseille","lat":43.21749,"lon":5.3461,"is_reserved":false,"is_disabled":false,"rental_uris":{"android":"levelo://app?vid=dad855de-93e4-4284-9b13-db07d91df72a","ios":"levelo://app?vid=dad855de-93e4-4284-9b13-db07d91df72a"},"vehicle_type_id":"4","last_reported":1744207824,"current_range_meters":10000,"station_id":"st_cvj6r9ubvosntc0bgbag","pricing_plan_id":"cebpf4jnsgd1na2vs0mg"},{"bike_id":"c602ac29-c6be-4d30-91e5-e37dd276b28d","system_id":"levelo_inurba_marseille","lat":43.25577,"lon":5.38259,"is_reserved":false,"is_disabled":false,"rental_uris":{"android":"levelo://app?vid=c602ac29-c6be-4d30-91e5-e37dd276b28d","ios":"levelo://app?vid=c602ac29-c6be-4d30-91e5-e37dd276b28d"},"vehicle_type_id":"4","last_reported":1744207824,"current_range_meters":10000,"station_id":"ce4bhih2rcd13ifvqfs0","pricing_plan_id":"cebpf4jnsgd1na2vs0mg"},{"bike_id":"76743fa4-74d7-42d2-97be-1bbc2afc1cb4","system_id":"levelo_inurba_marseille","lat":43.29602,"lon":5.36723,"is_reserved":false,"is_disabled":false,"rental_uris":{"android":"levelo://app?vid=76743fa4-74d7-42d2-97be-1bbc2afc1cb4","ios":"levelo://app?vid=76743fa4-74d7-42d2-97be-1bbc2afc1cb4"},"vehicle_type_id":"4","last_reported":1744207824,"current_range_meters":9600,"station_id":"ce4bgph2rcd13ifvqc2g","pricing_plan_id":"cebpf4jnsgd1na2vs0mg"},{"bike_id":"46687e7c-84b8-4f93-be29-c4b87e918af2","system_id":"levelo_inurba_marseille","lat":43.32464,"lon":5.36571,"is_reserved":false,"is_disabled":false,"rental_uris":{"android":"levelo://app?vid=46687e7c-84b8-4f93-be29-c4b87e918af2","ios":"levelo://app?vid=46687e7c-84b8-4f93-be29-c4b87e918af2"},"vehicle_type_id":"4","last_reported":1744207824,"current_range_meters":10000,"station_id":"ce4bhs12rcd13ifvqhvg","pricing_plan_id":"cebpf4jnsgd1na2vs0mg"},{"bike_id":"83e54741-9a43-49e2-98e8-2f5ea879baf6","system_id":"levelo_inurba_marseille","lat":43.27663,"lon":5.3889,"is_reserved":false,"is_disabled":false,"rental_uris":{"android":"levelo://app?vid=83e54741-9a43-49e2-98e8-2f5ea879baf6","ios":"levelo://app?vid=83e54741-9a43-49e2-98e8-2f5ea879baf6"},"vehicle_type_id":"4","last_reported":1744207824,"current_range_meters":10000,"station_id":"ce4bhi12rcd13ifvqfo0","pricing_plan_id":"cebpf4jnsgd1na2vs0mg"},{"bike_id":"b47960c6-0205-4b83-a76d-013331f6c916","system_id":"levelo_inurba_marseille","lat":43.2439,"lon":5.37072,"is_reserved":false,"is_disabled":false,"rental_uris":{"android":"levelo://app?vid=b47960c6-0205-4b83-a76d-013331f6c916","ios":"levelo://app?vid=b47960c6-0205-4b83-a76d-013331f6c916"},"vehicle_type_id":"4","last_reported":1744207824,"current_range_meters":10800,"station_id":"ce4bhhh2rcd13ifvqfk0","pricing_plan_id":"cebpf4jnsgd1na2vs0mg"},{"bike_id":"d65d8b4b-35b5-49bf-98eb-7a34324cca74","system_id":"levelo_inurba_marseille","lat":43.2957,"lon":5.3997,"is_reserved":false,"is_disabled":false,"rental_uris":{"android":"levelo://app?vid=d65d8b4b-35b5-49bf-98eb-7a34324cca74","ios":"levelo://app?vid=d65d8b4b-35b5-49bf-98eb-7a34324cca74"},"vehicle_type_id":"4","last_reported":1744207824,"current_range_meters":10800,"station_id":"ce4bh312rcd13ifvqdj0","pricing_plan_id":"cebpf4jnsgd1na2vs0mg"},{"bike_id":"f1d887c6-f336-4c26-b179-cc4ac98ce1a6","system_id":"levelo_inurba_marseille","lat":43.3054,"lon":5.36554,"is_reserved":false,"is_disabled":false,"rental_uris":{"android":"levelo://app?vid=f1d887c6-f336-4c26-b179-cc4ac98ce1a6","ios":"levelo://app?vid=f1d887c6-f336-4c26-b179-cc4ac98ce1a6"},"vehicle_type_id":"4","last_reported":1744207824,"current_range_meters":11200,"station_id":"ce4bgs12rcd13ifvqcag","pricing_plan_id":"cebpf4jnsgd1na2vs0mg"},{"bike_id":"39a67b6c-1ca2-4d16-8659-ca63af349a86","system_id":"levelo_inurba_marseille","lat":43.27204,"lon":5.391991,"is_reserved":false,"is_disabled":false,"rental_uris":{"android":"levelo://app?vid=39a67b6c-1ca2-4d16-8659-ca63af349a86","ios":"levelo://app?vid=39a67b6c-1ca2-4d16-8659-ca63af349a86"},"vehicle_type_id":"4","last_reported":1744207824,"current_range_meters":11200,"station_id":"ce4bhhp2rcd13ifvqfm0","pricing_plan_id":"cebpf4jnsgd1na2vs0mg"},{"bike_id":"b109ce60-cfd3-4e62-97f9-787193fd29f3","system_id":"levelo_inurba_marseille","lat":43.24075,"lon":5.37762,"is_reserved":false,"is_disabled":false,"rental_uris":{"android":"levelo://app?vid=b109ce60-cfd3-4e62-97f9-787193fd29f3","ios":"levelo://app?vid=b109ce60-cfd3-4e62-97f9-787193fd29f3"},"vehicle_type_id":"4","last_reported":1744207824,"current_range_meters":11200,"station_id":"ce4bhnp2rcd13ifvqgvg","pricing_plan_id":"cebpf4jnsgd1na2vs0mg"},{"bike_id":"af2ce993-c35c-4fa5-ad76-46decf8a8ed3","system_id":"levelo_inurba_marseille","lat":43.28858,"lon":5.35845,"is_reserved":false,"is_disabled":false,"rental_uris":{"android":"levelo://app?vid=af2ce993-c35c-4fa5-ad76-46decf8a8ed3","ios":"levelo://app?vid=af2ce993-c35c-4fa5-ad76-46decf8a8ed3"},"vehicle_type_id":"4","last_reported":1744207824,"current_range_meters":11600,"station_id":"ce4bhb12rcd13ifvqem0","pricing_plan_id":"cebpf4jnsgd1na2vs0mg"},{"bike_id":"e928b71c-b3eb-42b5-ad6c-eaecbb58e874","system_id":"levelo_inurba_marseille","lat":43.21193,"lon":5.35072,"is_reserved":false,"is_disabled":false,"rental_uris":{"android":"levelo://app?vid=e928b71c-b3eb-42b5-ad6c-eaecbb58e874","ios":"levelo://app?vid=e928b71c-b3eb-42b5-ad6c-eaecbb58e874"},"vehicle_type_id":"4","last_reported":1744207824,"current_range_meters":12000,"station_id":"st_cvj6sg6p6f1abm77japg","pricing_plan_id":"cebpf4jnsgd1na2vs0mg"},{"bike_id":"0a0b7bdc-6801-4ec5-be92-c97041aa9e07","system_id":"levelo_inurba_marseille","lat":43.27317,"lon":5.39089,"is_reserved":false,"is_disabled":false,"rental_uris":{"android":"levelo://app?vid=0a0b7bdc-6801-4ec5-be92-c97041aa9e07","ios":"levelo://app?vid=0a0b7bdc-6801-4ec5-be92-c97041aa9e07"},"vehicle_type_id":"4","last_reported":1744207824,"current_range_meters":12000,"station_id":"ce4bhgp2rcd13ifvqfe0","pricing_plan_id":"cebpf4jnsgd1na2vs0mg"},{"bike_id":"e82d3cbf-6990-4eca-9743-6a7db542c284","system_id":"levelo_inurba_marseille","lat":43.32336,"lon":5.40622,"is_reserved":false,"is_disabled":false,"rental_uris":{"android":"levelo://app?vid=e82d3cbf-6990-4eca-9743-6a7db542c284","ios":"levelo://app?vid=e82d3cbf-6990-4eca-9743-6a7db542c284"},"vehicle_type_id":"4","last_reported":1744207824,"current_range_meters":12000,"station_id":"ce4bhq92rcd13ifvqhjg","pricing_plan_id":"cebpf4jnsgd1na2vs0mg"},{"bike_id":"c8471b4c-536a-46b1-8de7-70a821db2d9e","system_id":"levelo_inurba_marseille","lat":43.27418,"lon":5.39409,"is_reserved":false,"is_disabled":false,"rental_uris":{"android":"levelo://app?vid=c8471b4c-536a-46b1-8de7-70a821db2d9e","ios":"levelo://app?vid=c8471b4c-536a-46b1-8de7-70a821db2d9e"},"vehicle_type_id":"4","last_reported":1744207824,"current_range_meters":12000,"station_id":"ce4bhdp2rcd13ifvqf20","pricing_plan_id":"cebpf4jnsgd1na2vs0mg"},{"bike_id":"e018f97c-b9e9-47c3-9805-b9e29dd71e1d","system_id":"levelo_inurba_marseille","lat":43.309418,"lon":5.390484,"is_reserved":false,"is_disabled":false,"rental_uris":{"android":"levelo://app?vid=e018f97c-b9e9-47c3-9805-b9e29dd71e1d","ios":"levelo://app?vid=e018f97c-b9e9-47c3-9805-b9e29dd71e1d"},"vehicle_type_id":"4","last_reported":1744207824,"current_range_meters":12000,"station_id":"ce4bh8p2rcd13ifvqeb0","pricing_plan_id":"cebpf4jnsgd1na2vs0mg"},{"bike_id":"622aed83-162c-45ed-af90-8668ff7674c5","system_id":"levelo_inurba_marseille","lat":43.29554,"lon":5.42293,"is_reserved":false,"is_disabled":false,"rental_uris":{"android":"levelo://app?vid=622aed83-162c-45ed-af90-8668ff7674c5","ios":"levelo://app?vid=622aed83-162c-45ed-af90-8668ff7674c5"},"vehicle_type_id":"4","last_reported":1744207824,"current_range_meters":12400,"station_id":"ce4bhph2rcd13ifvqhdg","pricing_plan_id":"cebpf4jnsgd1na2vs0mg"},{"bike_id":"1c98d87f-7412-4091-bf9a-5fdf4799f905","system_id":"levelo_inurba_marseille","lat":43.2306,"lon":5.35498,"is_reserved":false,"is_disabled":false,"rental_uris":{"android":"levelo://app?vid=1c98d87f-7412-4091-bf9a-5fdf4799f905","ios":"levelo://app?vid=1c98d87f-7412-4091-bf9a-5fdf4799f905"},"vehicle_type_id":"4","last_reported":1744207824,"current_range_meters":12400,"station_id":"cpo3342slgdg3j2ifvpg","pricing_plan_id":"cebpf4jnsgd1na2vs0mg"},{"bike_id":"91c85598-0c0b-42bf-9388-e5e9b7c7702f","system_id":"levelo_inurba_marseille","lat":43.31354,"lon":5.36705,"is_reserved":false,"is_disabled":false,"rental_uris":{"android":"levelo://app?vid=91c85598-0c0b-42bf-9388-e5e9b7c7702f","ios":"levelo://app?vid=91c85598-0c0b-42bf-9388-e5e9b7c7702f"},"vehicle_type_id":"4","last_reported":1744207824,"current_range_meters":12400,"station_id":"ce4bgr92rcd13ifvqc6g","pricing_plan_id":"cebpf4jnsgd1na2vs0mg"},{"bike_id":"24468822-6d20-42c0-b5e8-2691953ea9cf","system_id":"levelo_inurba_marseille","lat":43.25577,"lon":5.38245,"is_reserved":false,"is_disabled":false,"rental_uris":{"android":"levelo://app?vid=24468822-6d20-42c0-b5e8-2691953ea9cf","ios":"levelo://app?vid=24468822-6d20-42c0-b5e8-2691953ea9cf"},"vehicle_type_id":"4","last_reported":1744207824,"current_range_meters":12400,"station_id":"ce4bhih2rcd13ifvqfs0","pricing_plan_id":"cebpf4jnsgd1na2vs0mg"},{"bike_id":"51220fd5-275f-44db-a81e-280c0ca810af","system_id":"levelo_inurba_marseille","lat":43.32327,"lon":5.38533,"is_reserved":false,"is_disabled":false,"rental_uris":{"android":"levelo://app?vid=51220fd5-275f-44db-a81e-280c0ca810af","ios":"levelo://app?vid=51220fd5-275f-44db-a81e-280c0ca810af"},"vehicle_type_id":"4","last_reported":1744207824,"current_range_meters":12400,"station_id":"","pricing_plan_id":"cebpf4jnsgd1na2vs0mg"},{"bike_id":"019386d9-a831-46fe-be1a-860da52b4d87","system_id":"levelo_inurba_marseille","lat":43.269597,"lon":5.386298,"is_reserved":false,"is_disabled":false,"rental_uris":{"android":"levelo://app?vid=019386d9-a831-46fe-be1a-860da52b4d87","ios":"levelo://app?vid=019386d9-a831-46fe-be1a-860da52b4d87"},"vehicle_type_id":"4","last_reported":1744207824,"current_range_meters":13600,"station_id":"ce4bgi92rcd13ifvqb90","pricing_plan_id":"cebpf4jnsgd1na2vs0mg"},{"bike_id":"5f30a5a4-de9f-499e-b151-b811ebb3b43a","system_id":"levelo_inurba_marseille","lat":43.3107,"lon":5.38341,"is_reserved":false,"is_disabled":true,"rental_uris":{"android":"levelo://app?vid=5f30a5a4-de9f-499e-b151-b811ebb3b43a","ios":"levelo://app?vid=5f30a5a4-de9f-499e-b151-b811ebb3b43a"},"vehicle_type_id":"4","last_reported":1744207824,"current_range_meters":12400,"station_id":"ce4bgv92rcd13ifvqcr0","pricing_plan_id":"cebpf4jnsgd1na2vs0mg"},{"bike_id":"df9bd667-b38a-4b68-adec-fd6077bbc5b9","system_id":"levelo_inurba_marseille","lat":43.21742,"lon":5.34615,"is_reserved":false,"is_disabled":false,"rental_uris":{"android":"levelo://app?vid=df9bd667-b38a-4b68-adec-fd6077bbc5b9","ios":"levelo://app?vid=df9bd667-b38a-4b68-adec-fd6077bbc5b9"},"vehicle_type_id":"4","last_reported":1744207824,"current_range_meters":12400,"station_id":"st_cvj6r9ubvosntc0bgbag","pricing_plan_id":"cebpf4jnsgd1na2vs0mg"},{"bike_id":"f0f56cd4-0094-45e0-aa45-ef5da5ab7d11","system_id":"levelo_inurba_marseille","lat":43.26199,"lon":5.37448,"is_reserved":false,"is_disabled":false,"rental_uris":{"android":"levelo://app?vid=f0f56cd4-0094-45e0-aa45-ef5da5ab7d11","ios":"levelo://app?vid=f0f56cd4-0094-45e0-aa45-ef5da5ab7d11"},"vehicle_type_id":"4","last_reported":1744207824,"current_range_meters":12400,"station_id":"ce4bhgp2rcd13ifvqfc0","pricing_plan_id":"cebpf4jnsgd1na2vs0mg"},{"bike_id":"21ad85cb-fd01-4f4b-a5e7-06320eee0f8b","system_id":"levelo_inurba_marseille","lat":43.24648,"lon":5.38905,"is_reserved":false,"is_disabled":false,"rental_uris":{"android":"levelo://app?vid=21ad85cb-fd01-4f4b-a5e7-06320eee0f8b","ios":"levelo://app?vid=21ad85cb-fd01-4f4b-a5e7-06320eee0f8b"},"vehicle_type_id":"4","last_reported":1744207824,"current_range_meters":12400,"station_id":"ce4bhg12rcd13ifvqf60","pricing_plan_id":"cebpf4jnsgd1na2vs0mg"},{"bike_id":"90102a2d-d1c0-46aa-bdb0-703da43bfbbc","system_id":"levelo_inurba_marseille","lat":43.287702,"lon":5.366014,"is_reserved":false,"is_disabled":false,"rental_uris":{"android":"levelo://app?vid=90102a2d-d1c0-46aa-bdb0-703da43bfbbc","ios":"levelo://app?vid=90102a2d-d1c0-46aa-bdb0-703da43bfbbc"},"vehicle_type_id":"4","last_reported":1744207824,"current_range_meters":12400,"station_id":"ce4bhah2rcd13ifvqei0","pricing_plan_id":"cebpf4jnsgd1na2vs0mg"},{"bike_id":"9a105fbd-587c-4f14-bb9d-f8ee90d8ec62","system_id":"levelo_inurba_marseille","lat":43.26679,"lon":5.38267,"is_reserved":false,"is_disabled":false,"rental_uris":{"android":"levelo://app?vid=9a105fbd-587c-4f14-bb9d-f8ee90d8ec62","ios":"levelo://app?vid=9a105fbd-587c-4f14-bb9d-f8ee90d8ec62"},"vehicle_type_id":"4","last_reported":1744207824,"current_range_meters":12400,"station_id":"ce4bhg92rcd13ifvqf90","pricing_plan_id":"cebpf4jnsgd1na2vs0mg"},{"bike_id":"a104c2fc-1cd7-4ce3-9f1c-680843ae8353","system_id":"levelo_inurba_marseille","lat":43.29535,"lon":5.37502,"is_reserved":false,"is_disabled":false,"rental_uris":{"android":"levelo://app?vid=a104c2fc-1cd7-4ce3-9f1c-680843ae8353","ios":"levelo://app?vid=a104c2fc-1cd7-4ce3-9f1c-680843ae8353"},"vehicle_type_id":"4","last_reported":1744207824,"current_range_meters":12400,"station_id":"ce4bgkp2rcd13ifvqbmg","pricing_plan_id":"cebpf4jnsgd1na2vs0mg"},{"bike_id":"8c4143e2-8229-440a-b1d5-a03e5ba114ed","system_id":"levelo_inurba_marseille","lat":43.25007,"lon":5.38934,"is_reserved":false,"is_disabled":false,"rental_uris":{"android":"levelo://app?vid=8c4143e2-8229-440a-b1d5-a03e5ba114ed","ios":"levelo://app?vid=8c4143e2-8229-440a-b1d5-a03e5ba114ed"},"vehicle_type_id":"4","last_reported":1744207824,"current_range_meters":12800,"station_id":"ce4bhgp2rcd13ifvqfd0","pricing_plan_id":"cebpf4jnsgd1na2vs0mg"},{"bike_id":"0db75687-3b23-4208-8e53-a21c2efdd735","system_id":"levelo_inurba_marseille","lat":43.28602,"lon":5.37073,"is_reserved":false,"is_disabled":false,"rental_uris":{"android":"levelo://app?vid=0db75687-3b23-4208-8e53-a21c2efdd735","ios":"levelo://app?vid=0db75687-3b23-4208-8e53-a21c2efdd735"},"vehicle_type_id":"4","last_reported":1744207824,"current_range_meters":12800,"station_id":"ce4bht12rcd13ifvqi60","pricing_plan_id":"cebpf4jnsgd1na2vs0mg"},{"bike_id":"8aca47b8-dcba-4e10-a490-7acd73bde0df","system_id":"levelo_inurba_marseille","lat":43.30546,"lon":5.36536,"is_reserved":false,"is_disabled":false,"rental_uris":{"android":"levelo://app?vid=8aca47b8-dcba-4e10-a490-7acd73bde0df","ios":"levelo://app?vid=8aca47b8-dcba-4e10-a490-7acd73bde0df"},"vehicle_type_id":"4","last_reported":1744207824,"current_range_meters":12800,"station_id":"ce4bgs12rcd13ifvqcag","pricing_plan_id":"cebpf4jnsgd1na2vs0mg"},{"bike_id":"62a40d8f-52da-44f5-b070-f79d640542db","system_id":"levelo_inurba_marseille","lat":43.28701,"lon":5.39999,"is_reserved":false,"is_disabled":false,"rental_uris":{"android":"levelo://app?vid=62a40d8f-52da-44f5-b070-f79d640542db","ios":"levelo://app?vid=62a40d8f-52da-44f5-b070-f79d640542db"},"vehicle_type_id":"4","last_reported":1744207824,"current_range_meters":12800,"station_id":"ce4bho92rcd13ifvqh3g","pricing_plan_id":"cebpf4jnsgd1na2vs0mg"},{"bike_id":"b96be04a-adcd-4816-8c18-ee76dccce0e8","system_id":"levelo_inurba_marseille","lat":43.24153,"lon":5.36425,"is_reserved":false,"is_disabled":false,"rental_uris":{"android":"levelo://app?vid=b96be04a-adcd-4816-8c18-ee76dccce0e8","ios":"levelo://app?vid=b96be04a-adcd-4816-8c18-ee76dccce0e8"},"vehicle_type_id":"4","last_reported":1744207824,"current_range_meters":12800,"station_id":"cpo36qri1sfpv3e86is0","pricing_plan_id":"cebpf4jnsgd1na2vs0mg"},{"bike_id":"2e89380e-df41-4a5a-bd89-e8e1962c23b8","system_id":"levelo_inurba_marseille","lat":43.30537,"lon":5.38422,"is_reserved":false,"is_disabled":false,"rental_uris":{"android":"levelo://app?vid=2e89380e-df41-4a5a-bd89-e8e1962c23b8","ios":"levelo://app?vid=2e89380e-df41-4a5a-bd89-e8e1962c23b8"},"vehicle_type_id":"4","last_reported":1744207824,"current_range_meters":12800,"station_id":"ce4bgg92rcd13ifvqb30","pricing_plan_id":"cebpf4jnsgd1na2vs0mg"},{"bike_id":"61ad2f19-d511-44f0-944e-9576e28f5f14","system_id":"levelo_inurba_marseille","lat":43.306003,"lon":5.393533,"is_reserved":false,"is_disabled":false,"rental_uris":{"android":"levelo://app?vid=61ad2f19-d511-44f0-944e-9576e28f5f14","ios":"levelo://app?vid=61ad2f19-d511-44f0-944e-9576e28f5f14"},"vehicle_type_id":"4","last_reported":1744207824,"current_range_meters":13600,"station_id":"ce4bh0p2rcd13ifvqd80","pricing_plan_id":"cebpf4jnsgd1na2vs0mg"},{"bike_id":"b336900a-56d9-404d-9747-da025e975154","system_id":"levelo_inurba_marseille","lat":43.29268,"lon":5.38444,"is_reserved":false,"is_disabled":false,"rental_uris":{"android":"levelo://app?vid=b336900a-56d9-404d-9747-da025e975154","ios":"levelo://app?vid=b336900a-56d9-404d-9747-da025e975154"},"vehicle_type_id":"4","last_reported":1744207824,"current_range_meters":13600,"station_id":"ce4bh692rcd13ifvqea0","pricing_plan_id":"cebpf4jnsgd1na2vs0mg"},{"bike_id":"0b8f68c6-e7d2-4cdc-9307-05b2cdd9d9a7","system_id":"levelo_inurba_marseille","lat":43.28355,"lon":5.381,"is_reserved":false,"is_disabled":false,"rental_uris":{"android":"levelo://app?vid=0b8f68c6-e7d2-4cdc-9307-05b2cdd9d9a7","ios":"levelo://app?vid=0b8f68c6-e7d2-4cdc-9307-05b2cdd9d9a7"},"vehicle_type_id":"4","last_reported":1744207824,"current_range_meters":13600,"station_id":"ce4bh412rcd13ifvqdr0","pricing_plan_id":"cebpf4jnsgd1na2vs0mg"},{"bike_id":"72802c3b-ef11-4dff-bed4-5111e7ef59cd","system_id":"levelo_inurba_marseille","lat":43.23182,"lon":5.39991,"is_reserved":false,"is_disabled":false,"rental_uris":{"android":"levelo://app?vid=72802c3b-ef11-4dff-bed4-5111e7ef59cd","ios":"levelo://app?vid=72802c3b-ef11-4dff-bed4-5111e7ef59cd"},"vehicle_type_id":"4","last_reported":1744207824,"current_range_meters":13600,"station_id":"ce4bhn12rcd13ifvqgqg","pricing_plan_id":"cebpf4jnsgd1na2vs0mg"},{"bike_id":"f147c6df-27ae-4e7a-90c0-6893ba89129c","system_id":"levelo_inurba_marseille","lat":43.30551,"lon":5.36544,"is_reserved":false,"is_disabled":false,"rental_uris":{"android":"levelo://app?vid=f147c6df-27ae-4e7a-90c0-6893ba89129c","ios":"levelo://app?vid=f147c6df-27ae-4e7a-90c0-6893ba89129c"},"vehicle_type_id":"4","last_reported":1744207824,"current_range_meters":13600,"station_id":"ce4bgs12rcd13ifvqcag","pricing_plan_id":"cebpf4jnsgd1na2vs0mg"},{"bike_id":"0f1226c8-7af2-45b7-a904-e2dbd4d41c85","system_id":"levelo_inurba_marseille","lat":43.30463,"lon":5.37911,"is_reserved":false,"is_disabled":false,"rental_uris":{"android":"levelo://app?vid=0f1226c8-7af2-45b7-a904-e2dbd4d41c85","ios":"levelo://app?vid=0f1226c8-7af2-45b7-a904-e2dbd4d41c85"},"vehicle_type_id":"4","last_reported":1744207824,"current_range_meters":13600,"station_id":"ce4bgup2rcd13ifvqcn0","pricing_plan_id":"cebpf4jnsgd1na2vs0mg"},{"bike_id":"54b37fe0-db64-4bbf-9361-6667d874bdb5","system_id":"levelo_inurba_marseille","lat":43.27214,"lon":5.39201,"is_reserved":false,"is_disabled":false,"rental_uris":{"android":"levelo://app?vid=54b37fe0-db64-4bbf-9361-6667d874bdb5","ios":"levelo://app?vid=54b37fe0-db64-4bbf-9361-6667d874bdb5"},"vehicle_type_id":"4","last_reported":1744207824,"current_range_meters":13600,"station_id":"ce4bhhp2rcd13ifvqfm0","pricing_plan_id":"cebpf4jnsgd1na2vs0mg"},{"bike_id":"2ef5a01f-4da6-4038-a9da-7ee7db6cbd18","system_id":"levelo_inurba_marseille","lat":43.25566,"lon":5.3824,"is_reserved":false,"is_disabled":false,"rental_uris":{"android":"levelo://app?vid=2ef5a01f-4da6-4038-a9da-7ee7db6cbd18","ios":"levelo://app?vid=2ef5a01f-4da6-4038-a9da-7ee7db6cbd18"},"vehicle_type_id":"4","last_reported":1744207824,"current_range_meters":13600,"station_id":"ce4bhih2rcd13ifvqfs0","pricing_plan_id":"cebpf4jnsgd1na2vs0mg"},{"bike_id":"caff42ed-b230-4813-8beb-baaf4257327d","system_id":"levelo_inurba_marseille","lat":43.28289,"lon":5.35096,"is_reserved":false,"is_disabled":false,"rental_uris":{"android":"levelo://app?vid=caff42ed-b230-4813-8beb-baaf4257327d","ios":"levelo://app?vid=caff42ed-b230-4813-8beb-baaf4257327d"},"vehicle_type_id":"4","last_reported":1744207824,"current_range_meters":13600,"station_id":"ce4bhbp2rcd13ifvqerg","pricing_plan_id":"cebpf4jnsgd1na2vs0mg"},{"bike_id":"53fb0077-3a65-43ca-a501-d7c36dc0627d","system_id":"levelo_inurba_marseille","lat":43.31768,"lon":5.38818,"is_reserved":false,"is_disabled":false,"rental_uris":{"android":"levelo://app?vid=53fb0077-3a65-43ca-a501-d7c36dc0627d","ios":"levelo://app?vid=53fb0077-3a65-43ca-a501-d7c36dc0627d"},"vehicle_type_id":"4","last_reported":1744207824,"current_range_meters":14000,"station_id":"","pricing_plan_id":"cebpf4jnsgd1na2vs0mg"},{"bike_id":"9fce7fb9-26b6-4832-9f96-ea1b75c489f0","system_id":"levelo_inurba_marseille","lat":43.21204,"lon":5.35055,"is_reserved":false,"is_disabled":false,"rental_uris":{"android":"levelo://app?vid=9fce7fb9-26b6-4832-9f96-ea1b75c489f0","ios":"levelo://app?vid=9fce7fb9-26b6-4832-9f96-ea1b75c489f0"},"vehicle_type_id":"4","last_reported":1744207824,"current_range_meters":14000,"station_id":"st_cvj6sg6p6f1abm77japg","pricing_plan_id":"cebpf4jnsgd1na2vs0mg"},{"bike_id":"3d8477bd-05b6-4a0e-a3dd-44f34e2e153c","system_id":"levelo_inurba_marseille","lat":43.28459,"lon":5.3589,"is_reserved":false,"is_disabled":false,"rental_uris":{"android":"levelo://app?vid=3d8477bd-05b6-4a0e-a3dd-44f34e2e153c","ios":"levelo://app?vid=3d8477bd-05b6-4a0e-a3dd-44f34e2e153c"},"vehicle_type_id":"4","last_reported":1744207824,"current_range_meters":14000,"station_id":"ce4bhah2rcd13ifvqei0","pricing_plan_id":"cebpf4jnsgd1na2vs0mg"},{"bike_id":"6853751b-8a30-4b27-afca-47275cd1d85e","system_id":"levelo_inurba_marseille","lat":43.29441,"lon":5.39743,"is_reserved":false,"is_disabled":false,"rental_uris":{"android":"levelo://app?vid=6853751b-8a30-4b27-afca-47275cd1d85e","ios":"levelo://app?vid=6853751b-8a30-4b27-afca-47275cd1d85e"},"vehicle_type_id":"4","last_reported":1744207824,"current_range_meters":13600,"station_id":"ce4bh3h2rcd13ifvqdo0","pricing_plan_id":"cebpf4jnsgd1na2vs0mg"},{"bike_id":"2316a27d-e8bc-4c82-90fe-4120ccb0ef4b","system_id":"levelo_inurba_marseille","lat":43.23147,"lon":5.43732,"is_reserved":false,"is_disabled":false,"rental_uris":{"android":"levelo://app?vid=2316a27d-e8bc-4c82-90fe-4120ccb0ef4b","ios":"levelo://app?vid=2316a27d-e8bc-4c82-90fe-4120ccb0ef4b"},"vehicle_type_id":"4","last_reported":1744207824,"current_range_meters":14000,"station_id":"ce4bhmp2rcd13ifvqgog","pricing_plan_id":"cebpf4jnsgd1na2vs0mg"},{"bike_id":"8a22d7e7-8404-4c63-9491-9ae73f43d7ab","system_id":"levelo_inurba_marseille","lat":43.26648,"lon":5.39062,"is_reserved":false,"is_disabled":false,"rental_uris":{"android":"levelo://app?vid=8a22d7e7-8404-4c63-9491-9ae73f43d7ab","ios":"levelo://app?vid=8a22d7e7-8404-4c63-9491-9ae73f43d7ab"},"vehicle_type_id":"4","last_reported":1744207824,"current_range_meters":14000,"station_id":"ce4bhe12rcd13ifvqf30","pricing_plan_id":"cebpf4jnsgd1na2vs0mg"},{"bike_id":"b4b93a64-d083-4ab2-bbd0-53609c602fb5","system_id":"levelo_inurba_marseille","lat":43.30927,"lon":5.40158,"is_reserved":false,"is_disabled":true,"rental_uris":{"android":"levelo://app?vid=b4b93a64-d083-4ab2-bbd0-53609c602fb5","ios":"levelo://app?vid=b4b93a64-d083-4ab2-bbd0-53609c602fb5"},"vehicle_type_id":"4","last_reported":1744207824,"current_range_meters":14400,"station_id":"ce4bgvp2rcd13ifvqct0","pricing_plan_id":"cebpf4jnsgd1na2vs0mg"},{"bike_id":"c369bf23-f24d-4fbc-a2a6-9db5e7f2adca","system_id":"levelo_inurba_marseille","lat":43.276195,"lon":5.361047,"is_reserved":false,"is_disabled":false,"rental_uris":{"android":"levelo://app?vid=c369bf23-f24d-4fbc-a2a6-9db5e7f2adca","ios":"levelo://app?vid=c369bf23-f24d-4fbc-a2a6-9db5e7f2adca"},"vehicle_type_id":"4","last_reported":1744207824,"current_range_meters":14400,"station_id":"ce4bgj92rcd13ifvqbe0","pricing_plan_id":"cebpf4jnsgd1na2vs0mg"},{"bike_id":"204bb715-6933-4050-a3cf-aa8254673e32","system_id":"levelo_inurba_marseille","lat":43.287082,"lon":5.379307,"is_reserved":false,"is_disabled":false,"rental_uris":{"android":"levelo://app?vid=204bb715-6933-4050-a3cf-aa8254673e32","ios":"levelo://app?vid=204bb715-6933-4050-a3cf-aa8254673e32"},"vehicle_type_id":"4","last_reported":1744207824,"current_range_meters":14400,"station_id":"ce4bh9p2rcd13ifvqec0","pricing_plan_id":"cebpf4jnsgd1na2vs0mg"},{"bike_id":"d44ff2b9-417e-4368-bebb-1fc974db3122","system_id":"levelo_inurba_marseille","lat":43.3364,"lon":5.39737,"is_reserved":false,"is_disabled":false,"rental_uris":{"android":"levelo://app?vid=d44ff2b9-417e-4368-bebb-1fc974db3122","ios":"levelo://app?vid=d44ff2b9-417e-4368-bebb-1fc974db3122"},"vehicle_type_id":"4","last_reported":1744207824,"current_range_meters":14400,"station_id":"","pricing_plan_id":"cebpf4jnsgd1na2vs0mg"},{"bike_id":"8854a7e0-75ab-4cbe-b3ed-671619ffe228","system_id":"levelo_inurba_marseille","lat":43.22512,"lon":5.34784,"is_reserved":false,"is_disabled":true,"rental_uris":{"android":"levelo://app?vid=8854a7e0-75ab-4cbe-b3ed-671619ffe228","ios":"levelo://app?vid=8854a7e0-75ab-4cbe-b3ed-671619ffe228"},"vehicle_type_id":"4","last_reported":1744207824,"current_range_meters":14400,"station_id":"st_cvj5dfep6f1abm77gieg","pricing_plan_id":"cebpf4jnsgd1na2vs0mg"},{"bike_id":"33f3e8ce-7d8b-47b2-bcf3-c908436e6b92","system_id":"levelo_inurba_marseille","lat":43.30238,"lon":5.40057,"is_reserved":false,"is_disabled":false,"rental_uris":{"android":"levelo://app?vid=33f3e8ce-7d8b-47b2-bcf3-c908436e6b92","ios":"levelo://app?vid=33f3e8ce-7d8b-47b2-bcf3-c908436e6b92"},"vehicle_type_id":"4","last_reported":1744207824,"current_range_meters":14400,"station_id":"ce4bgvh2rcd13ifvqcs0","pricing_plan_id":"cebpf4jnsgd1na2vs0mg"},{"bike_id":"247d5a9c-d116-4083-b4f9-2b397ff7553d","system_id":"levelo_inurba_marseille","lat":43.30145,"lon":5.3742,"is_reserved":false,"is_disabled":false,"rental_uris":{"android":"levelo://app?vid=247d5a9c-d116-4083-b4f9-2b397ff7553d","ios":"levelo://app?vid=247d5a9c-d116-4083-b4f9-2b397ff7553d"},"vehicle_type_id":"4","last_reported":1744207824,"current_range_meters":14800,"station_id":"ce4bgs92rcd13ifvqcc0","pricing_plan_id":"cebpf4jnsgd1na2vs0mg"},{"bike_id":"7aa9d0af-2058-4fa9-9214-be5c5e5c5fe8","system_id":"levelo_inurba_marseille","lat":43.28405,"lon":5.37519,"is_reserved":false,"is_disabled":false,"rental_uris":{"android":"levelo://app?vid=7aa9d0af-2058-4fa9-9214-be5c5e5c5fe8","ios":"levelo://app?vid=7aa9d0af-2058-4fa9-9214-be5c5e5c5fe8"},"vehicle_type_id":"4","last_reported":1744207824,"current_range_meters":15200,"station_id":"ce4bh412rcd13ifvqds0","pricing_plan_id":"cebpf4jnsgd1na2vs0mg"},{"bike_id":"92a7db0e-78d8-4644-87c9-23be55a2a2b9","system_id":"levelo_inurba_marseille","lat":43.30156,"lon":5.38093,"is_reserved":false,"is_disabled":false,"rental_uris":{"android":"levelo://app?vid=92a7db0e-78d8-4644-87c9-23be55a2a2b9","ios":"levelo://app?vid=92a7db0e-78d8-4644-87c9-23be55a2a2b9"},"vehicle_type_id":"4","last_reported":1744207824,"current_range_meters":15200,"station_id":"ce4bgjp2rcd13ifvqbh0","pricing_plan_id":"cebpf4jnsgd1na2vs0mg"},{"bike_id":"67cd0f7e-e180-465f-ae4a-82a57b0162b8","system_id":"levelo_inurba_marseille","lat":43.28075,"lon":5.39659,"is_reserved":false,"is_disabled":false,"rental_uris":{"android":"levelo://app?vid=67cd0f7e-e180-465f-ae4a-82a57b0162b8","ios":"levelo://app?vid=67cd0f7e-e180-465f-ae4a-82a57b0162b8"},"vehicle_type_id":"4","last_reported":1744207824,"current_range_meters":15200,"station_id":"ce4bho12rcd13ifvqh2g","pricing_plan_id":"cebpf4jnsgd1na2vs0mg"},{"bike_id":"cc23f386-e027-4abe-bbdd-5e252c76d169","system_id":"levelo_inurba_marseille","lat":43.23143,"lon":5.43736,"is_reserved":false,"is_disabled":false,"rental_uris":{"android":"levelo://app?vid=cc23f386-e027-4abe-bbdd-5e252c76d169","ios":"levelo://app?vid=cc23f386-e027-4abe-bbdd-5e252c76d169"},"vehicle_type_id":"4","last_reported":1744207824,"current_range_meters":15200,"station_id":"ce4bhmp2rcd13ifvqgog","pricing_plan_id":"cebpf4jnsgd1na2vs0mg"},{"bike_id":"97b5dac1-1132-4648-8526-90a724574183","system_id":"levelo_inurba_marseille","lat":43.28699,"lon":5.39971,"is_reserved":false,"is_disabled":false,"rental_uris":{"android":"levelo://app?vid=97b5dac1-1132-4648-8526-90a724574183","ios":"levelo://app?vid=97b5dac1-1132-4648-8526-90a724574183"},"vehicle_type_id":"4","last_reported":1744207824,"current_range_meters":16000,"station_id":"ce4bho92rcd13ifvqh3g","pricing_plan_id":"cebpf4jnsgd1na2vs0mg"},{"bike_id":"4032e7b6-86b5-4f2e-b95d-59f1430294af","system_id":"levelo_inurba_marseille","lat":43.2679,"lon":5.39423,"is_reserved":false,"is_disabled":false,"rental_uris":{"android":"levelo://app?vid=4032e7b6-86b5-4f2e-b95d-59f1430294af","ios":"levelo://app?vid=4032e7b6-86b5-4f2e-b95d-59f1430294af"},"vehicle_type_id":"4","last_reported":1744207824,"current_range_meters":16000,"station_id":"ce4bhh12rcd13ifvqfg0","pricing_plan_id":"cebpf4jnsgd1na2vs0mg"},{"bike_id":"b84b1d45-729e-47db-8c7e-e88abe2948fb","system_id":"levelo_inurba_marseille","lat":43.31718,"lon":5.42405,"is_reserved":false,"is_disabled":false,"rental_uris":{"android":"levelo://app?vid=b84b1d45-729e-47db-8c7e-e88abe2948fb","ios":"levelo://app?vid=b84b1d45-729e-47db-8c7e-e88abe2948fb"},"vehicle_type_id":"4","last_reported":1744207824,"current_range_meters":16000,"station_id":"ce4bhp92rcd13ifvqhbg","pricing_plan_id":"cebpf4jnsgd1na2vs0mg"},{"bike_id":"71a3919b-8525-4f47-a6df-5e0d6eec871b","system_id":"levelo_inurba_marseille","lat":43.32341,"lon":5.4063,"is_reserved":false,"is_disabled":false,"rental_uris":{"android":"levelo://app?vid=71a3919b-8525-4f47-a6df-5e0d6eec871b","ios":"levelo://app?vid=71a3919b-8525-4f47-a6df-5e0d6eec871b"},"vehicle_type_id":"4","last_reported":1744207824,"current_range_meters":16000,"station_id":"ce4bhq92rcd13ifvqhjg","pricing_plan_id":"cebpf4jnsgd1na2vs0mg"},{"bike_id":"e665b8ad-65fe-4785-a2e6-0f99e819b5c8","system_id":"levelo_inurba_marseille","lat":43.2707,"lon":5.42279,"is_reserved":false,"is_disabled":false,"rental_uris":{"android":"levelo://app?vid=e665b8ad-65fe-4785-a2e6-0f99e819b5c8","ios":"levelo://app?vid=e665b8ad-65fe-4785-a2e6-0f99e819b5c8"},"vehicle_type_id":"4","last_reported":1744207824,"current_range_meters":16000,"station_id":"ce4bhk92rcd13ifvqgb0","pricing_plan_id":"cebpf4jnsgd1na2vs0mg"},{"bike_id":"d12e54af-8b7b-401c-ac4c-2e68b73f5456","system_id":"levelo_inurba_marseille","lat":43.28704,"lon":5.37386,"is_reserved":false,"is_disabled":false,"rental_uris":{"android":"levelo://app?vid=d12e54af-8b7b-401c-ac4c-2e68b73f5456","ios":"levelo://app?vid=d12e54af-8b7b-401c-ac4c-2e68b73f5456"},"vehicle_type_id":"4","last_reported":1744207824,"current_range_meters":16000,"station_id":"ce4bh3p2rcd13ifvqdq0","pricing_plan_id":"cebpf4jnsgd1na2vs0mg"},{"bike_id":"bf8b78b8-a028-4330-87cf-a06e6e3e81af","system_id":"levelo_inurba_marseille","lat":43.28926,"lon":5.36642,"is_reserved":false,"is_disabled":false,"rental_uris":{"android":"levelo://app?vid=bf8b78b8-a028-4330-87cf-a06e6e3e81af","ios":"levelo://app?vid=bf8b78b8-a028-4330-87cf-a06e6e3e81af"},"vehicle_type_id":"4","last_reported":1744207824,"current_range_meters":16400,"station_id":"ce4bhap2rcd13ifvqek0","pricing_plan_id":"cebpf4jnsgd1na2vs0mg"},{"bike_id":"cef98494-47e7-4a86-a3a7-20388ed6a6a1","system_id":"levelo_inurba_marseille","lat":43.29258,"lon":5.37622,"is_reserved":false,"is_disabled":false,"rental_uris":{"android":"levelo://app?vid=cef98494-47e7-4a86-a3a7-20388ed6a6a1","ios":"levelo://app?vid=cef98494-47e7-4a86-a3a7-20388ed6a6a1"},"vehicle_type_id":"4","last_reported":1744207824,"current_range_meters":16400,"station_id":"ce4bgi12rcd13ifvqb80","pricing_plan_id":"cebpf4jnsgd1na2vs0mg"},{"bike_id":"e38108b1-7f9c-4483-9d3e-f50742dccee7","system_id":"levelo_inurba_marseille","lat":43.295625,"lon":5.396424,"is_reserved":false,"is_disabled":false,"rental_uris":{"android":"levelo://app?vid=e38108b1-7f9c-4483-9d3e-f50742dccee7","ios":"levelo://app?vid=e38108b1-7f9c-4483-9d3e-f50742dccee7"},"vehicle_type_id":"4","last_reported":1744207824,"current_range_meters":16400,"station_id":"chh1huq6cuj3fo74tm60","pricing_plan_id":"cebpf4jnsgd1na2vs0mg"},{"bike_id":"d3a30278-1fc8-438b-a6b9-b6523acb13c6","system_id":"levelo_inurba_marseille","lat":43.31215,"lon":5.36851,"is_reserved":false,"is_disabled":false,"rental_uris":{"android":"levelo://app?vid=d3a30278-1fc8-438b-a6b9-b6523acb13c6","ios":"levelo://app?vid=d3a30278-1fc8-438b-a6b9-b6523acb13c6"},"vehicle_type_id":"4","last_reported":1744207824,"current_range_meters":16400,"station_id":"ce4bgl92rcd13ifvqbq0","pricing_plan_id":"cebpf4jnsgd1na2vs0mg"},{"bike_id":"9b707f39-8a91-47a1-afe5-0c6d90ae57f5","system_id":"levelo_inurba_marseille","lat":43.30529,"lon":5.36534,"is_reserved":false,"is_disabled":false,"rental_uris":{"android":"levelo://app?vid=9b707f39-8a91-47a1-afe5-0c6d90ae57f5","ios":"levelo://app?vid=9b707f39-8a91-47a1-afe5-0c6d90ae57f5"},"vehicle_type_id":"4","last_reported":1744207824,"current_range_meters":16400,"station_id":"ce4bgs12rcd13ifvqcag","pricing_plan_id":"cebpf4jnsgd1na2vs0mg"},{"bike_id":"09bddc24-4c9d-460f-8967-e90ee5c88b43","system_id":"levelo_inurba_marseille","lat":43.31338,"lon":5.3967,"is_reserved":false,"is_disabled":true,"rental_uris":{"android":"levelo://app?vid=09bddc24-4c9d-460f-8967-e90ee5c88b43","ios":"levelo://app?vid=09bddc24-4c9d-460f-8967-e90ee5c88b43"},"vehicle_type_id":"4","last_reported":1744207824,"current_range_meters":16400,"station_id":"ce4bgvp2rcd13ifvqcu0","pricing_plan_id":"cebpf4jnsgd1na2vs0mg"},{"bike_id":"ae1da61d-8e46-47ae-a2cb-a15454a019d1","system_id":"levelo_inurba_marseille","lat":43.294398,"lon":5.385832,"is_reserved":false,"is_disabled":false,"rental_uris":{"android":"levelo://app?vid=ae1da61d-8e46-47ae-a2cb-a15454a019d1","ios":"levelo://app?vid=ae1da61d-8e46-47ae-a2cb-a15454a019d1"},"vehicle_type_id":"4","last_reported":1744207824,"current_range_meters":16400,"station_id":"ce4bghh2rcd13ifvqb60","pricing_plan_id":"cebpf4jnsgd1na2vs0mg"},{"bike_id":"875883da-a830-4c1a-8530-93fae3774448","system_id":"levelo_inurba_marseille","lat":43.30538,"lon":5.36539,"is_reserved":false,"is_disabled":false,"rental_uris":{"android":"levelo://app?vid=875883da-a830-4c1a-8530-93fae3774448","ios":"levelo://app?vid=875883da-a830-4c1a-8530-93fae3774448"},"vehicle_type_id":"4","last_reported":1744207824,"current_range_meters":16800,"station_id":"ce4bgs12rcd13ifvqcag","pricing_plan_id":"cebpf4jnsgd1na2vs0mg"},{"bike_id":"a9a1a4e2-6c28-47a4-b7bb-f9f3b3144184","system_id":"levelo_inurba_marseille","lat":43.31237,"lon":5.36857,"is_reserved":false,"is_disabled":false,"rental_uris":{"android":"levelo://app?vid=a9a1a4e2-6c28-47a4-b7bb-f9f3b3144184","ios":"levelo://app?vid=a9a1a4e2-6c28-47a4-b7bb-f9f3b3144184"},"vehicle_type_id":"4","last_reported":1744207824,"current_range_meters":16800,"station_id":"ce4bgl92rcd13ifvqbq0","pricing_plan_id":"cebpf4jnsgd1na2vs0mg"},{"bike_id":"42c1fdc6-38af-4ea1-a910-702e15d5a9b4","system_id":"levelo_inurba_marseille","lat":43.309215,"lon":5.40165,"is_reserved":false,"is_disabled":true,"rental_uris":{"android":"levelo://app?vid=42c1fdc6-38af-4ea1-a910-702e15d5a9b4","ios":"levelo://app?vid=42c1fdc6-38af-4ea1-a910-702e15d5a9b4"},"vehicle_type_id":"4","last_reported":1744207824,"current_range_meters":16800,"station_id":"ce4bgvp2rcd13ifvqct0","pricing_plan_id":"cebpf4jnsgd1na2vs0mg"},{"bike_id":"c55184d3-fbbd-4f0a-a6fc-c4d88e36e900","system_id":"levelo_inurba_marseille","lat":43.30534,"lon":5.36558,"is_reserved":false,"is_disabled":false,"rental_uris":{"android":"levelo://app?vid=c55184d3-fbbd-4f0a-a6fc-c4d88e36e900","ios":"levelo://app?vid=c55184d3-fbbd-4f0a-a6fc-c4d88e36e900"},"vehicle_type_id":"4","last_reported":1744207824,"current_range_meters":16800,"station_id":"ce4bgs12rcd13ifvqcag","pricing_plan_id":"cebpf4jnsgd1na2vs0mg"},{"bike_id":"90809d3c-201c-4d00-8699-3efd1207f37b","system_id":"levelo_inurba_marseille","lat":43.301541,"lon":5.374193,"is_reserved":false,"is_disabled":false,"rental_uris":{"android":"levelo://app?vid=90809d3c-201c-4d00-8699-3efd1207f37b","ios":"levelo://app?vid=90809d3c-201c-4d00-8699-3efd1207f37b"},"vehicle_type_id":"4","last_reported":1744207824,"current_range_meters":17200,"station_id":"","pricing_plan_id":"cebpf4jnsgd1na2vs0mg"},{"bike_id":"114fd050-3196-45b6-a1e7-ad74794dc8cd","system_id":"levelo_inurba_marseille","lat":43.30319,"lon":5.3689,"is_reserved":false,"is_disabled":false,"rental_uris":{"android":"levelo://app?vid=114fd050-3196-45b6-a1e7-ad74794dc8cd","ios":"levelo://app?vid=114fd050-3196-45b6-a1e7-ad74794dc8cd"},"vehicle_type_id":"4","last_reported":1744207824,"current_range_meters":17200,"station_id":"ce4bgqh2rcd13ifvqc5g","pricing_plan_id":"cebpf4jnsgd1na2vs0mg"},{"bike_id":"c8ff71e2-9d14-4653-9002-bc9fb1bfd36b","system_id":"levelo_inurba_marseille","lat":43.29598,"lon":5.38109,"is_reserved":false,"is_disabled":false,"rental_uris":{"android":"levelo://app?vid=c8ff71e2-9d14-4653-9002-bc9fb1bfd36b","ios":"levelo://app?vid=c8ff71e2-9d14-4653-9002-bc9fb1bfd36b"},"vehicle_type_id":"4","last_reported":1744207824,"current_range_meters":17200,"station_id":"ce4bgl12rcd13ifvqbo0","pricing_plan_id":"cebpf4jnsgd1na2vs0mg"},{"bike_id":"ac0a1725-aee7-4a39-9dc5-8c7d05433e65","system_id":"levelo_inurba_marseille","lat":43.24397,"lon":5.37051,"is_reserved":false,"is_disabled":false,"rental_uris":{"android":"levelo://app?vid=ac0a1725-aee7-4a39-9dc5-8c7d05433e65","ios":"levelo://app?vid=ac0a1725-aee7-4a39-9dc5-8c7d05433e65"},"vehicle_type_id":"4","last_reported":1744207824,"current_range_meters":17200,"station_id":"ce4bhhh2rcd13ifvqfk0","pricing_plan_id":"cebpf4jnsgd1na2vs0mg"},{"bike_id":"1a3cd0ab-ec77-41b3-982c-74e5093499a8","system_id":"levelo_inurba_marseille","lat":43.30428,"lon":5.38903,"is_reserved":false,"is_disabled":true,"rental_uris":{"android":"levelo://app?vid=1a3cd0ab-ec77-41b3-982c-74e5093499a8","ios":"levelo://app?vid=1a3cd0ab-ec77-41b3-982c-74e5093499a8"},"vehicle_type_id":"4","last_reported":1744207824,"current_range_meters":17200,"station_id":"ce4bgk12rcd13ifvqbi0","pricing_plan_id":"cebpf4jnsgd1na2vs0mg"},{"bike_id":"0a698d41-ade8-4db1-9f07-c82da1b9f441","system_id":"levelo_inurba_marseille","lat":43.31227,"lon":5.3685,"is_reserved":false,"is_disabled":false,"rental_uris":{"android":"levelo://app?vid=0a698d41-ade8-4db1-9f07-c82da1b9f441","ios":"levelo://app?vid=0a698d41-ade8-4db1-9f07-c82da1b9f441"},"vehicle_type_id":"4","last_reported":1744207824,"current_range_meters":17600,"station_id":"ce4bgl92rcd13ifvqbq0","pricing_plan_id":"cebpf4jnsgd1na2vs0mg"},{"bike_id":"b0e7c080-9b32-4fb1-ae6b-91b2f1cae096","system_id":"levelo_inurba_marseille","lat":43.305597,"lon":5.365569,"is_reserved":false,"is_disabled":false,"rental_uris":{"android":"levelo://app?vid=b0e7c080-9b32-4fb1-ae6b-91b2f1cae096","ios":"levelo://app?vid=b0e7c080-9b32-4fb1-ae6b-91b2f1cae096"},"vehicle_type_id":"4","last_reported":1744207824,"current_range_meters":17600,"station_id":"ce4bgs12rcd13ifvqcag","pricing_plan_id":"cebpf4jnsgd1na2vs0mg"},{"bike_id":"e4d6045a-5cbf-4b55-9475-2ad718edc765","system_id":"levelo_inurba_marseille","lat":43.27497,"lon":5.42451,"is_reserved":false,"is_disabled":false,"rental_uris":{"android":"levelo://app?vid=e4d6045a-5cbf-4b55-9475-2ad718edc765","ios":"levelo://app?vid=e4d6045a-5cbf-4b55-9475-2ad718edc765"},"vehicle_type_id":"4","last_reported":1744207824,"current_range_meters":17600,"station_id":"ce4bhn92rcd13ifvqgrg","pricing_plan_id":"cebpf4jnsgd1na2vs0mg"},{"bike_id":"9c91055e-3463-45e3-b31a-61719ab1389d","system_id":"levelo_inurba_marseille","lat":43.28839,"lon":5.35851,"is_reserved":false,"is_disabled":false,"rental_uris":{"android":"levelo://app?vid=9c91055e-3463-45e3-b31a-61719ab1389d","ios":"levelo://app?vid=9c91055e-3463-45e3-b31a-61719ab1389d"},"vehicle_type_id":"4","last_reported":1744207824,"current_range_meters":17200,"station_id":"ce4bgi92rcd13ifvqb90","pricing_plan_id":"cebpf4jnsgd1na2vs0mg"},{"bike_id":"ceb42bda-17b0-473f-a990-ea6bbdd336ff","system_id":"levelo_inurba_marseille","lat":43.21761,"lon":5.34628,"is_reserved":false,"is_disabled":false,"rental_uris":{"android":"levelo://app?vid=ceb42bda-17b0-473f-a990-ea6bbdd336ff","ios":"levelo://app?vid=ceb42bda-17b0-473f-a990-ea6bbdd336ff"},"vehicle_type_id":"4","last_reported":1744207824,"current_range_meters":17600,"station_id":"st_cvj6r9ubvosntc0bgbag","pricing_plan_id":"cebpf4jnsgd1na2vs0mg"},{"bike_id":"d6eb163c-f97f-4a4b-9705-006836a3ef53","system_id":"levelo_inurba_marseille","lat":43.30799,"lon":5.37659,"is_reserved":false,"is_disabled":false,"rental_uris":{"android":"levelo://app?vid=d6eb163c-f97f-4a4b-9705-006836a3ef53","ios":"levelo://app?vid=d6eb163c-f97f-4a4b-9705-006836a3ef53"},"vehicle_type_id":"4","last_reported":1744207824,"current_range_meters":17200,"station_id":"ce4bgv92rcd13ifvqcq0","pricing_plan_id":"cebpf4jnsgd1na2vs0mg"},{"bike_id":"491b14d5-539f-4d1b-9622-fb7897ba4d0e","system_id":"levelo_inurba_marseille","lat":43.33033,"lon":5.39049,"is_reserved":false,"is_disabled":false,"rental_uris":{"android":"levelo://app?vid=491b14d5-539f-4d1b-9622-fb7897ba4d0e","ios":"levelo://app?vid=491b14d5-539f-4d1b-9622-fb7897ba4d0e"},"vehicle_type_id":"4","last_reported":1744207824,"current_range_meters":17600,"station_id":"ce4bhr92rcd13ifvqhrg","pricing_plan_id":"cebpf4jnsgd1na2vs0mg"},{"bike_id":"e84b8cf3-23a0-41ed-a7da-d8ee52f95923","system_id":"levelo_inurba_marseille","lat":43.27621,"lon":5.36111,"is_reserved":false,"is_disabled":false,"rental_uris":{"android":"levelo://app?vid=e84b8cf3-23a0-41ed-a7da-d8ee52f95923","ios":"levelo://app?vid=e84b8cf3-23a0-41ed-a7da-d8ee52f95923"},"vehicle_type_id":"4","last_reported":1744207824,"current_range_meters":17600,"station_id":"ce4bgj92rcd13ifvqbe0","pricing_plan_id":"cebpf4jnsgd1na2vs0mg"},{"bike_id":"e3c3a051-8134-4ed3-913b-374aa217874c","system_id":"levelo_inurba_marseille","lat":43.2559,"lon":5.40455,"is_reserved":false,"is_disabled":false,"rental_uris":{"android":"levelo://app?vid=e3c3a051-8134-4ed3-913b-374aa217874c","ios":"levelo://app?vid=e3c3a051-8134-4ed3-913b-374aa217874c"},"vehicle_type_id":"4","last_reported":1744207824,"current_range_meters":18000,"station_id":"","pricing_plan_id":"cebpf4jnsgd1na2vs0mg"},{"bike_id":"2ab54020-df93-4f6b-8cd1-9b0e84795bda","system_id":"levelo_inurba_marseille","lat":43.30529,"lon":5.3653,"is_reserved":false,"is_disabled":false,"rental_uris":{"android":"levelo://app?vid=2ab54020-df93-4f6b-8cd1-9b0e84795bda","ios":"levelo://app?vid=2ab54020-df93-4f6b-8cd1-9b0e84795bda"},"vehicle_type_id":"4","last_reported":1744207824,"current_range_meters":18000,"station_id":"ce4bgs12rcd13ifvqcag","pricing_plan_id":"cebpf4jnsgd1na2vs0mg"},{"bike_id":"96aac43d-4c4e-4d3a-b896-afa22ca08ab2","system_id":"levelo_inurba_marseille","lat":43.23152,"lon":5.43718,"is_reserved":false,"is_disabled":false,"rental_uris":{"android":"levelo://app?vid=96aac43d-4c4e-4d3a-b896-afa22ca08ab2","ios":"levelo://app?vid=96aac43d-4c4e-4d3a-b896-afa22ca08ab2"},"vehicle_type_id":"4","last_reported":1744207824,"current_range_meters":18000,"station_id":"ce4bhmp2rcd13ifvqgog","pricing_plan_id":"cebpf4jnsgd1na2vs0mg"},{"bike_id":"3353e334-96f1-43e5-9158-49fcb5af13c7","system_id":"levelo_inurba_marseille","lat":43.30299,"lon":5.39202,"is_reserved":false,"is_disabled":false,"rental_uris":{"android":"levelo://app?vid=3353e334-96f1-43e5-9158-49fcb5af13c7","ios":"levelo://app?vid=3353e334-96f1-43e5-9158-49fcb5af13c7"},"vehicle_type_id":"4","last_reported":1744207824,"current_range_meters":18000,"station_id":"ce4bgkh2rcd13ifvqbk0","pricing_plan_id":"cebpf4jnsgd1na2vs0mg"},{"bike_id":"98e21a82-7861-4e46-aad5-5507d243fba6","system_id":"levelo_inurba_marseille","lat":43.2558,"lon":5.38236,"is_reserved":false,"is_disabled":false,"rental_uris":{"android":"levelo://app?vid=98e21a82-7861-4e46-aad5-5507d243fba6","ios":"levelo://app?vid=98e21a82-7861-4e46-aad5-5507d243fba6"},"vehicle_type_id":"4","last_reported":1744207824,"current_range_meters":18000,"station_id":"ce4bhih2rcd13ifvqfs0","pricing_plan_id":"cebpf4jnsgd1na2vs0mg"},{"bike_id":"5a735fa3-ab7b-4367-ae7e-20ca155a5f05","system_id":"levelo_inurba_marseille","lat":43.26179,"lon":5.37436,"is_reserved":false,"is_disabled":false,"rental_uris":{"android":"levelo://app?vid=5a735fa3-ab7b-4367-ae7e-20ca155a5f05","ios":"levelo://app?vid=5a735fa3-ab7b-4367-ae7e-20ca155a5f05"},"vehicle_type_id":"4","last_reported":1744207824,"current_range_meters":18800,"station_id":"ce4bhgp2rcd13ifvqfc0","pricing_plan_id":"cebpf4jnsgd1na2vs0mg"},{"bike_id":"ed32de37-66e8-4fe8-b613-74f9e5810cd6","system_id":"levelo_inurba_marseille","lat":43.31164,"lon":5.37502,"is_reserved":false,"is_disabled":false,"rental_uris":{"android":"levelo://app?vid=ed32de37-66e8-4fe8-b613-74f9e5810cd6","ios":"levelo://app?vid=ed32de37-66e8-4fe8-b613-74f9e5810cd6"},"vehicle_type_id":"4","last_reported":1744207824,"current_range_meters":18800,"station_id":"","pricing_plan_id":"cebpf4jnsgd1na2vs0mg"},{"bike_id":"7759660f-9053-4941-a6a8-3a1efcb10bb3","system_id":"levelo_inurba_marseille","lat":43.30811,"lon":5.38157,"is_reserved":false,"is_disabled":false,"rental_uris":{"android":"levelo://app?vid=7759660f-9053-4941-a6a8-3a1efcb10bb3","ios":"levelo://app?vid=7759660f-9053-4941-a6a8-3a1efcb10bb3"},"vehicle_type_id":"4","last_reported":1744207824,"current_range_meters":18800,"station_id":"ce4bgt12rcd13ifvqce0","pricing_plan_id":"cebpf4jnsgd1na2vs0mg"},{"bike_id":"bc15a257-3c7a-42f6-a94e-1755d433b4ea","system_id":"levelo_inurba_marseille","lat":43.30543,"lon":5.36531,"is_reserved":false,"is_disabled":false,"rental_uris":{"android":"levelo://app?vid=bc15a257-3c7a-42f6-a94e-1755d433b4ea","ios":"levelo://app?vid=bc15a257-3c7a-42f6-a94e-1755d433b4ea"},"vehicle_type_id":"4","last_reported":1744207824,"current_range_meters":18800,"station_id":"ce4bgs12rcd13ifvqcag","pricing_plan_id":"cebpf4jnsgd1na2vs0mg"},{"bike_id":"d1f92f28-9609-4256-bd4a-880c7b09d4e8","system_id":"levelo_inurba_marseille","lat":43.2933,"lon":5.41146,"is_reserved":false,"is_disabled":false,"rental_uris":{"android":"levelo://app?vid=d1f92f28-9609-4256-bd4a-880c7b09d4e8","ios":"levelo://app?vid=d1f92f28-9609-4256-bd4a-880c7b09d4e8"},"vehicle_type_id":"4","last_reported":1744207824,"current_range_meters":18800,"station_id":"","pricing_plan_id":"cebpf4jnsgd1na2vs0mg"},{"bike_id":"42e9026a-fbf4-47a2-9551-c5037ee4c6ae","system_id":"levelo_inurba_marseille","lat":43.31721,"lon":5.43713,"is_reserved":false,"is_disabled":false,"rental_uris":{"android":"levelo://app?vid=42e9026a-fbf4-47a2-9551-c5037ee4c6ae","ios":"levelo://app?vid=42e9026a-fbf4-47a2-9551-c5037ee4c6ae"},"vehicle_type_id":"4","last_reported":1744207824,"current_range_meters":18800,"station_id":"ce4bhp92rcd13ifvqhcg","pricing_plan_id":"cebpf4jnsgd1na2vs0mg"},{"bike_id":"9604e77d-ccf5-4185-8fa2-b4412051e050","system_id":"levelo_inurba_marseille","lat":43.30459,"lon":5.37908,"is_reserved":false,"is_disabled":false,"rental_uris":{"android":"levelo://app?vid=9604e77d-ccf5-4185-8fa2-b4412051e050","ios":"levelo://app?vid=9604e77d-ccf5-4185-8fa2-b4412051e050"},"vehicle_type_id":"4","last_reported":1744207824,"current_range_meters":19200,"station_id":"ce4bgup2rcd13ifvqcn0","pricing_plan_id":"cebpf4jnsgd1na2vs0mg"},{"bike_id":"addd2c8b-821d-4000-b961-46eb9600ca39","system_id":"levelo_inurba_marseille","lat":43.29264,"lon":5.38438,"is_reserved":false,"is_disabled":false,"rental_uris":{"android":"levelo://app?vid=addd2c8b-821d-4000-b961-46eb9600ca39","ios":"levelo://app?vid=addd2c8b-821d-4000-b961-46eb9600ca39"},"vehicle_type_id":"4","last_reported":1744207824,"current_range_meters":19200,"station_id":"ce4bh692rcd13ifvqea0","pricing_plan_id":"cebpf4jnsgd1na2vs0mg"},{"bike_id":"a71f2a5a-68cc-4ba4-ba37-497c0c906866","system_id":"levelo_inurba_marseille","lat":43.26237,"lon":5.40467,"is_reserved":false,"is_disabled":false,"rental_uris":{"android":"levelo://app?vid=a71f2a5a-68cc-4ba4-ba37-497c0c906866","ios":"levelo://app?vid=a71f2a5a-68cc-4ba4-ba37-497c0c906866"},"vehicle_type_id":"4","last_reported":1744207824,"current_range_meters":19200,"station_id":"ce4bhmh2rcd13ifvqgmg","pricing_plan_id":"cebpf4jnsgd1na2vs0mg"},{"bike_id":"4c68d434-0fe3-40a6-a4c1-62dab10973ff","system_id":"levelo_inurba_marseille","lat":43.28266,"lon":5.35066,"is_reserved":false,"is_disabled":false,"rental_uris":{"android":"levelo://app?vid=4c68d434-0fe3-40a6-a4c1-62dab10973ff","ios":"levelo://app?vid=4c68d434-0fe3-40a6-a4c1-62dab10973ff"},"vehicle_type_id":"4","last_reported":1744207824,"current_range_meters":19200,"station_id":"ce4bhbp2rcd13ifvqerg","pricing_plan_id":"cebpf4jnsgd1na2vs0mg"},{"bike_id":"ef291804-1477-432e-b153-82ea15725418","system_id":"levelo_inurba_marseille","lat":43.33762,"lon":5.37469,"is_reserved":false,"is_disabled":false,"rental_uris":{"android":"levelo://app?vid=ef291804-1477-432e-b153-82ea15725418","ios":"levelo://app?vid=ef291804-1477-432e-b153-82ea15725418"},"vehicle_type_id":"4","last_reported":1744207824,"current_range_meters":19200,"station_id":"","pricing_plan_id":"cebpf4jnsgd1na2vs0mg"},{"bike_id":"5bbe05f9-56ef-4551-9c27-b4dfafd89121","system_id":"levelo_inurba_marseille","lat":43.28998,"lon":5.35597,"is_reserved":false,"is_disabled":false,"rental_uris":{"android":"levelo://app?vid=5bbe05f9-56ef-4551-9c27-b4dfafd89121","ios":"levelo://app?vid=5bbe05f9-56ef-4551-9c27-b4dfafd89121"},"vehicle_type_id":"4","last_reported":1744207824,"current_range_meters":19200,"station_id":"ce4bhb92rcd13ifvqen0","pricing_plan_id":"cebpf4jnsgd1na2vs0mg"},{"bike_id":"a05aa4c3-d88e-43ec-806a-f90131c2363b","system_id":"levelo_inurba_marseille","lat":43.24551,"lon":5.39524,"is_reserved":false,"is_disabled":false,"rental_uris":{"android":"levelo://app?vid=a05aa4c3-d88e-43ec-806a-f90131c2363b","ios":"levelo://app?vid=a05aa4c3-d88e-43ec-806a-f90131c2363b"},"vehicle_type_id":"4","last_reported":1744207824,"current_range_meters":19200,"station_id":"ce4bhlp2rcd13ifvqgjg","pricing_plan_id":"cebpf4jnsgd1na2vs0mg"},{"bike_id":"39d569f2-804d-4c1f-93cb-ffdd8bba0563","system_id":"levelo_inurba_marseille","lat":43.30547,"lon":5.38436,"is_reserved":false,"is_disabled":true,"rental_uris":{"android":"levelo://app?vid=39d569f2-804d-4c1f-93cb-ffdd8bba0563","ios":"levelo://app?vid=39d569f2-804d-4c1f-93cb-ffdd8bba0563"},"vehicle_type_id":"4","last_reported":1744207824,"current_range_meters":19600,"station_id":"ce4bgg92rcd13ifvqb30","pricing_plan_id":"cebpf4jnsgd1na2vs0mg"},{"bike_id":"235b58d6-2d65-4303-b7eb-9d245b6da72a","system_id":"levelo_inurba_marseille","lat":43.30247,"lon":5.40064,"is_reserved":false,"is_disabled":false,"rental_uris":{"android":"levelo://app?vid=235b58d6-2d65-4303-b7eb-9d245b6da72a","ios":"levelo://app?vid=235b58d6-2d65-4303-b7eb-9d245b6da72a"},"vehicle_type_id":"4","last_reported":1744207824,"current_range_meters":19600,"station_id":"ce4bgvh2rcd13ifvqcs0","pricing_plan_id":"cebpf4jnsgd1na2vs0mg"},{"bike_id":"3031e850-2acc-49f9-998a-3f0e5864d046","system_id":"levelo_inurba_marseille","lat":43.29002,"lon":5.35606,"is_reserved":false,"is_disabled":false,"rental_uris":{"android":"levelo://app?vid=3031e850-2acc-49f9-998a-3f0e5864d046","ios":"levelo://app?vid=3031e850-2acc-49f9-998a-3f0e5864d046"},"vehicle_type_id":"4","last_reported":1744207824,"current_range_meters":19600,"station_id":"ce4bhb92rcd13ifvqen0","pricing_plan_id":"cebpf4jnsgd1na2vs0mg"},{"bike_id":"231aaa88-1e79-4a74-a543-651d8fd5a027","system_id":"levelo_inurba_marseille","lat":43.33076,"lon":5.40503,"is_reserved":false,"is_disabled":false,"rental_uris":{"android":"levelo://app?vid=231aaa88-1e79-4a74-a543-651d8fd5a027","ios":"levelo://app?vid=231aaa88-1e79-4a74-a543-651d8fd5a027"},"vehicle_type_id":"4","last_reported":1744207824,"current_range_meters":19600,"station_id":"","pricing_plan_id":"cebpf4jnsgd1na2vs0mg"},{"bike_id":"2b54a496-5bb2-42c4-bb01-6f1e5c2215a7","system_id":"levelo_inurba_marseille","lat":43.30809,"lon":5.3767,"is_reserved":false,"is_disabled":true,"rental_uris":{"android":"levelo://app?vid=2b54a496-5bb2-42c4-bb01-6f1e5c2215a7","ios":"levelo://app?vid=2b54a496-5bb2-42c4-bb01-6f1e5c2215a7"},"vehicle_type_id":"4","last_reported":1744207824,"current_range_meters":19600,"station_id":"ce4bgv92rcd13ifvqcq0","pricing_plan_id":"cebpf4jnsgd1na2vs0mg"},{"bike_id":"01e8afc9-b963-4a9d-8f00-0de96c1dfc93","system_id":"levelo_inurba_marseille","lat":43.24176,"lon":5.36393,"is_reserved":false,"is_disabled":false,"rental_uris":{"android":"levelo://app?vid=01e8afc9-b963-4a9d-8f00-0de96c1dfc93","ios":"levelo://app?vid=01e8afc9-b963-4a9d-8f00-0de96c1dfc93"},"vehicle_type_id":"4","last_reported":1744207824,"current_range_meters":19600,"station_id":"cpo36qri1sfpv3e86is0","pricing_plan_id":"cebpf4jnsgd1na2vs0mg"},{"bike_id":"17afa5d6-bbb4-44c3-ab58-653427c8e78c","system_id":"levelo_inurba_marseille","lat":43.30261,"lon":5.40116,"is_reserved":false,"is_disabled":false,"rental_uris":{"android":"levelo://app?vid=17afa5d6-bbb4-44c3-ab58-653427c8e78c","ios":"levelo://app?vid=17afa5d6-bbb4-44c3-ab58-653427c8e78c"},"vehicle_type_id":"4","last_reported":1744207824,"current_range_meters":19600,"station_id":"ce4bgvh2rcd13ifvqcs0","pricing_plan_id":"cebpf4jnsgd1na2vs0mg"},{"bike_id":"b0935832-4dc1-4f9b-b9b1-58aeaae4bc50","system_id":"levelo_inurba_marseille","lat":43.25934,"lon":5.4092,"is_reserved":false,"is_disabled":false,"rental_uris":{"android":"levelo://app?vid=b0935832-4dc1-4f9b-b9b1-58aeaae4bc50","ios":"levelo://app?vid=b0935832-4dc1-4f9b-b9b1-58aeaae4bc50"},"vehicle_type_id":"4","last_reported":1744207824,"current_range_meters":20000,"station_id":"ce4bhm92rcd13ifvqglg","pricing_plan_id":"cebpf4jnsgd1na2vs0mg"},{"bike_id":"8cb7c887-0908-4131-bd3b-928c0c2169bd","system_id":"levelo_inurba_marseille","lat":43.29608,"lon":5.38108,"is_reserved":false,"is_disabled":false,"rental_uris":{"android":"levelo://app?vid=8cb7c887-0908-4131-bd3b-928c0c2169bd","ios":"levelo://app?vid=8cb7c887-0908-4131-bd3b-928c0c2169bd"},"vehicle_type_id":"4","last_reported":1744207824,"current_range_meters":20000,"station_id":"ce4bgl12rcd13ifvqbo0","pricing_plan_id":"cebpf4jnsgd1na2vs0mg"},{"bike_id":"7a8425a2-77b9-415b-8ca0-968976ceb490","system_id":"levelo_inurba_marseille","lat":43.28841,"lon":5.35852,"is_reserved":false,"is_disabled":false,"rental_uris":{"android":"levelo://app?vid=7a8425a2-77b9-415b-8ca0-968976ceb490","ios":"levelo://app?vid=7a8425a2-77b9-415b-8ca0-968976ceb490"},"vehicle_type_id":"4","last_reported":1744207824,"current_range_meters":20000,"station_id":"ce4bhb12rcd13ifvqem0","pricing_plan_id":"cebpf4jnsgd1na2vs0mg"},{"bike_id":"6037c51f-0ddf-4e65-b005-827372e72710","system_id":"levelo_inurba_marseille","lat":43.31498,"lon":5.3726,"is_reserved":false,"is_disabled":false,"rental_uris":{"android":"levelo://app?vid=6037c51f-0ddf-4e65-b005-827372e72710","ios":"levelo://app?vid=6037c51f-0ddf-4e65-b005-827372e72710"},"vehicle_type_id":"4","last_reported":1744207824,"current_range_meters":20000,"station_id":"ce4bgt12rcd13ifvqcd0","pricing_plan_id":"cebpf4jnsgd1na2vs0mg"},{"bike_id":"b3f2b676-51f9-4016-be12-5dda814e5e28","system_id":"levelo_inurba_marseille","lat":43.29576,"lon":5.36733,"is_reserved":false,"is_disabled":false,"rental_uris":{"android":"levelo://app?vid=b3f2b676-51f9-4016-be12-5dda814e5e28","ios":"levelo://app?vid=b3f2b676-51f9-4016-be12-5dda814e5e28"},"vehicle_type_id":"4","last_reported":1744207824,"current_range_meters":18800,"station_id":"ce4bgph2rcd13ifvqc2g","pricing_plan_id":"cebpf4jnsgd1na2vs0mg"},{"bike_id":"ec71824f-66d8-4c73-9328-262c264b4051","system_id":"levelo_inurba_marseille","lat":43.32816,"lon":5.38083,"is_reserved":false,"is_disabled":false,"rental_uris":{"android":"levelo://app?vid=ec71824f-66d8-4c73-9328-262c264b4051","ios":"levelo://app?vid=ec71824f-66d8-4c73-9328-262c264b4051"},"vehicle_type_id":"4","last_reported":1744207824,"current_range_meters":20000,"station_id":"","pricing_plan_id":"cebpf4jnsgd1na2vs0mg"},{"bike_id":"dcf2b0fd-e733-460c-90f0-8a7f9526959a","system_id":"levelo_inurba_marseille","lat":43.29603,"lon":5.37054,"is_reserved":false,"is_disabled":false,"rental_uris":{"android":"levelo://app?vid=dcf2b0fd-e733-460c-90f0-8a7f9526959a","ios":"levelo://app?vid=dcf2b0fd-e733-460c-90f0-8a7f9526959a"},"vehicle_type_id":"4","last_reported":1744207824,"current_range_meters":20000,"station_id":"","pricing_plan_id":"cebpf4jnsgd1na2vs0mg"},{"bike_id":"1a4de3ab-9a0e-4a44-9cde-ccab52bb5e0f","system_id":"levelo_inurba_marseille","lat":43.28466,"lon":5.35888,"is_reserved":false,"is_disabled":false,"rental_uris":{"android":"levelo://app?vid=1a4de3ab-9a0e-4a44-9cde-ccab52bb5e0f","ios":"levelo://app?vid=1a4de3ab-9a0e-4a44-9cde-ccab52bb5e0f"},"vehicle_type_id":"4","last_reported":1744207824,"current_range_meters":23200,"station_id":"ce4bhah2rcd13ifvqei0","pricing_plan_id":"cebpf4jnsgd1na2vs0mg"},{"bike_id":"9cf65c3b-f1a2-432c-b40f-26f465e6d52c","system_id":"levelo_inurba_marseille","lat":43.29593,"lon":5.38103,"is_reserved":false,"is_disabled":false,"rental_uris":{"android":"levelo://app?vid=9cf65c3b-f1a2-432c-b40f-26f465e6d52c","ios":"levelo://app?vid=9cf65c3b-f1a2-432c-b40f-26f465e6d52c"},"vehicle_type_id":"4","last_reported":1744207824,"current_range_meters":20400,"station_id":"ce4bgl12rcd13ifvqbo0","pricing_plan_id":"cebpf4jnsgd1na2vs0mg"},{"bike_id":"6332f5e4-a04c-426b-a561-1763fcb073a8","system_id":"levelo_inurba_marseille","lat":43.26496,"lon":5.39549,"is_reserved":false,"is_disabled":false,"rental_uris":{"android":"levelo://app?vid=6332f5e4-a04c-426b-a561-1763fcb073a8","ios":"levelo://app?vid=6332f5e4-a04c-426b-a561-1763fcb073a8"},"vehicle_type_id":"4","last_reported":1744207824,"current_range_meters":20400,"station_id":"ce4bhi12rcd13ifvqfq0","pricing_plan_id":"cebpf4jnsgd1na2vs0mg"},{"bike_id":"f9fde33d-3e05-4f24-9670-2ad2d1cacdc1","system_id":"levelo_inurba_marseille","lat":43.28822,"lon":5.37255,"is_reserved":false,"is_disabled":false,"rental_uris":{"android":"levelo://app?vid=f9fde33d-3e05-4f24-9670-2ad2d1cacdc1","ios":"levelo://app?vid=f9fde33d-3e05-4f24-9670-2ad2d1cacdc1"},"vehicle_type_id":"4","last_reported":1744207824,"current_range_meters":20400,"station_id":"","pricing_plan_id":"cebpf4jnsgd1na2vs0mg"},{"bike_id":"6d0afb17-39ad-4e32-b029-64c345a20149","system_id":"levelo_inurba_marseille","lat":43.31531,"lon":5.37178,"is_reserved":false,"is_disabled":false,"rental_uris":{"android":"levelo://app?vid=6d0afb17-39ad-4e32-b029-64c345a20149","ios":"levelo://app?vid=6d0afb17-39ad-4e32-b029-64c345a20149"},"vehicle_type_id":"4","last_reported":1744207824,"current_range_meters":20800,"station_id":"ce4bgt12rcd13ifvqcd0","pricing_plan_id":"cebpf4jnsgd1na2vs0mg"},{"bike_id":"a4d5e0c2-e074-4a8d-a831-414a917ce45d","system_id":"levelo_inurba_marseille","lat":43.2621,"lon":5.3744,"is_reserved":false,"is_disabled":false,"rental_uris":{"android":"levelo://app?vid=a4d5e0c2-e074-4a8d-a831-414a917ce45d","ios":"levelo://app?vid=a4d5e0c2-e074-4a8d-a831-414a917ce45d"},"vehicle_type_id":"4","last_reported":1744207824,"current_range_meters":21600,"station_id":"ce4bhgp2rcd13ifvqfc0","pricing_plan_id":"cebpf4jnsgd1na2vs0mg"},{"bike_id":"77647ccb-aa6d-48b9-82d6-e4d0dd4c140d","system_id":"levelo_inurba_marseille","lat":43.27312,"lon":5.39102,"is_reserved":false,"is_disabled":false,"rental_uris":{"android":"levelo://app?vid=77647ccb-aa6d-48b9-82d6-e4d0dd4c140d","ios":"levelo://app?vid=77647ccb-aa6d-48b9-82d6-e4d0dd4c140d"},"vehicle_type_id":"4","last_reported":1744207824,"current_range_meters":21600,"station_id":"ce4bhgp2rcd13ifvqfe0","pricing_plan_id":"cebpf4jnsgd1na2vs0mg"},{"bike_id":"6010cc87-0999-48e1-9286-9dc2c6563674","system_id":"levelo_inurba_marseille","lat":43.305664,"lon":5.373421,"is_reserved":false,"is_disabled":false,"rental_uris":{"android":"levelo://app?vid=6010cc87-0999-48e1-9286-9dc2c6563674","ios":"levelo://app?vid=6010cc87-0999-48e1-9286-9dc2c6563674"},"vehicle_type_id":"4","last_reported":1744207824,"current_range_meters":21600,"station_id":"ce4bgqh2rcd13ifvqc4g","pricing_plan_id":"cebpf4jnsgd1na2vs0mg"},{"bike_id":"ffce77da-945b-4916-b7bc-1a6f08a0e6ae","system_id":"levelo_inurba_marseille","lat":43.32368,"lon":5.38887,"is_reserved":false,"is_disabled":false,"rental_uris":{"android":"levelo://app?vid=ffce77da-945b-4916-b7bc-1a6f08a0e6ae","ios":"levelo://app?vid=ffce77da-945b-4916-b7bc-1a6f08a0e6ae"},"vehicle_type_id":"4","last_reported":1744207824,"current_range_meters":21600,"station_id":"ce4bhqp2rcd13ifvqhog","pricing_plan_id":"cebpf4jnsgd1na2vs0mg"},{"bike_id":"0922821c-4e1d-4817-9469-860e55f8f0d1","system_id":"levelo_inurba_marseille","lat":43.22512,"lon":5.34759,"is_reserved":false,"is_disabled":false,"rental_uris":{"android":"levelo://app?vid=0922821c-4e1d-4817-9469-860e55f8f0d1","ios":"levelo://app?vid=0922821c-4e1d-4817-9469-860e55f8f0d1"},"vehicle_type_id":"4","last_reported":1744207824,"current_range_meters":21600,"station_id":"st_cvj5dfep6f1abm77gieg","pricing_plan_id":"cebpf4jnsgd1na2vs0mg"},{"bike_id":"593cc697-220e-4df3-9f2b-b1793070fa32","system_id":"levelo_inurba_marseille","lat":43.30547,"lon":5.36537,"is_reserved":false,"is_disabled":true,"rental_uris":{"android":"levelo://app?vid=593cc697-220e-4df3-9f2b-b1793070fa32","ios":"levelo://app?vid=593cc697-220e-4df3-9f2b-b1793070fa32"},"vehicle_type_id":"4","last_reported":1744207824,"current_range_meters":22000,"station_id":"ce4bgs12rcd13ifvqcag","pricing_plan_id":"cebpf4jnsgd1na2vs0mg"},{"bike_id":"248e6f2f-2e1e-4e0a-bdb3-badd9dc01398","system_id":"levelo_inurba_marseille","lat":43.280332,"lon":5.408769,"is_reserved":false,"is_disabled":false,"rental_uris":{"android":"levelo://app?vid=248e6f2f-2e1e-4e0a-bdb3-badd9dc01398","ios":"levelo://app?vid=248e6f2f-2e1e-4e0a-bdb3-badd9dc01398"},"vehicle_type_id":"4","last_reported":1744207824,"current_range_meters":22000,"station_id":"","pricing_plan_id":"cebpf4jnsgd1na2vs0mg"},{"bike_id":"a5a648bf-d969-426c-8380-c1632072ce70","system_id":"levelo_inurba_marseille","lat":43.26911,"lon":5.40271,"is_reserved":false,"is_disabled":false,"rental_uris":{"android":"levelo://app?vid=a5a648bf-d969-426c-8380-c1632072ce70","ios":"levelo://app?vid=a5a648bf-d969-426c-8380-c1632072ce70"},"vehicle_type_id":"4","last_reported":1744207824,"current_range_meters":22000,"station_id":"","pricing_plan_id":"cebpf4jnsgd1na2vs0mg"},{"bike_id":"eab6cbfa-cb8e-47d7-b0d6-226ab7facec7","system_id":"levelo_inurba_marseille","lat":43.31724,"lon":5.42429,"is_reserved":false,"is_disabled":true,"rental_uris":{"android":"levelo://app?vid=eab6cbfa-cb8e-47d7-b0d6-226ab7facec7","ios":"levelo://app?vid=eab6cbfa-cb8e-47d7-b0d6-226ab7facec7"},"vehicle_type_id":"4","last_reported":1744207824,"current_range_meters":22000,"station_id":"ce4bhp92rcd13ifvqhbg","pricing_plan_id":"cebpf4jnsgd1na2vs0mg"},{"bike_id":"50deb72e-5960-4e77-b6ad-907fdfa7b57d","system_id":"levelo_inurba_marseille","lat":43.29574,"lon":5.37499,"is_reserved":false,"is_disabled":true,"rental_uris":{"android":"levelo://app?vid=50deb72e-5960-4e77-b6ad-907fdfa7b57d","ios":"levelo://app?vid=50deb72e-5960-4e77-b6ad-907fdfa7b57d"},"vehicle_type_id":"4","last_reported":1744207824,"current_range_meters":22000,"station_id":"ce4bgh92rcd13ifvqb50","pricing_plan_id":"cebpf4jnsgd1na2vs0mg"},{"bike_id":"3a29a51b-42b8-4b9e-86a5-f3a68027659f","system_id":"levelo_inurba_marseille","lat":43.26556,"lon":5.37301,"is_reserved":false,"is_disabled":false,"rental_uris":{"android":"levelo://app?vid=3a29a51b-42b8-4b9e-86a5-f3a68027659f","ios":"levelo://app?vid=3a29a51b-42b8-4b9e-86a5-f3a68027659f"},"vehicle_type_id":"4","last_reported":1744207824,"current_range_meters":22000,"station_id":"ce4bhg12rcd13ifvqf70","pricing_plan_id":"cebpf4jnsgd1na2vs0mg"},{"bike_id":"1f96790d-9c80-414b-8543-ad735c3c628a","system_id":"levelo_inurba_marseille","lat":43.27495,"lon":5.42452,"is_reserved":false,"is_disabled":false,"rental_uris":{"android":"levelo://app?vid=1f96790d-9c80-414b-8543-ad735c3c628a","ios":"levelo://app?vid=1f96790d-9c80-414b-8543-ad735c3c628a"},"vehicle_type_id":"4","last_reported":1744207824,"current_range_meters":22400,"station_id":"ce4bhn92rcd13ifvqgrg","pricing_plan_id":"cebpf4jnsgd1na2vs0mg"},{"bike_id":"94590b05-1f78-4e0c-a0ef-8831514a32e3","system_id":"levelo_inurba_marseille","lat":43.30543,"lon":5.36523,"is_reserved":false,"is_disabled":false,"rental_uris":{"android":"levelo://app?vid=94590b05-1f78-4e0c-a0ef-8831514a32e3","ios":"levelo://app?vid=94590b05-1f78-4e0c-a0ef-8831514a32e3"},"vehicle_type_id":"4","last_reported":1744207824,"current_range_meters":22400,"station_id":"ce4bgs12rcd13ifvqcag","pricing_plan_id":"cebpf4jnsgd1na2vs0mg"},{"bike_id":"509b175b-3c7c-49aa-9e2c-ce922a8006af","system_id":"levelo_inurba_marseille","lat":43.23148,"lon":5.43723,"is_reserved":false,"is_disabled":false,"rental_uris":{"android":"levelo://app?vid=509b175b-3c7c-49aa-9e2c-ce922a8006af","ios":"levelo://app?vid=509b175b-3c7c-49aa-9e2c-ce922a8006af"},"vehicle_type_id":"4","last_reported":1744207824,"current_range_meters":22400,"station_id":"ce4bhmp2rcd13ifvqgog","pricing_plan_id":"cebpf4jnsgd1na2vs0mg"},{"bike_id":"e3a37a8f-75f1-42ff-9a14-2260097403ad","system_id":"levelo_inurba_marseille","lat":43.24547,"lon":5.39531,"is_reserved":false,"is_disabled":false,"rental_uris":{"android":"levelo://app?vid=e3a37a8f-75f1-42ff-9a14-2260097403ad","ios":"levelo://app?vid=e3a37a8f-75f1-42ff-9a14-2260097403ad"},"vehicle_type_id":"4","last_reported":1744207824,"current_range_meters":22400,"station_id":"ce4bhlp2rcd13ifvqgjg","pricing_plan_id":"cebpf4jnsgd1na2vs0mg"},{"bike_id":"97250fd2-cf14-4c0e-8a60-f6047357eef1","system_id":"levelo_inurba_marseille","lat":43.29897,"lon":5.43668,"is_reserved":false,"is_disabled":false,"rental_uris":{"android":"levelo://app?vid=97250fd2-cf14-4c0e-8a60-f6047357eef1","ios":"levelo://app?vid=97250fd2-cf14-4c0e-8a60-f6047357eef1"},"vehicle_type_id":"4","last_reported":1744207824,"current_range_meters":22400,"station_id":"ce4bhpp2rcd13ifvqhfg","pricing_plan_id":"cebpf4jnsgd1na2vs0mg"},{"bike_id":"7f2bb863-9cb5-4ee1-bb56-707d3def9649","system_id":"levelo_inurba_marseille","lat":43.301465,"lon":5.374155,"is_reserved":false,"is_disabled":false,"rental_uris":{"android":"levelo://app?vid=7f2bb863-9cb5-4ee1-bb56-707d3def9649","ios":"levelo://app?vid=7f2bb863-9cb5-4ee1-bb56-707d3def9649"},"vehicle_type_id":"4","last_reported":1744207824,"current_range_meters":22400,"station_id":"ce4bgs92rcd13ifvqcc0","pricing_plan_id":"cebpf4jnsgd1na2vs0mg"},{"bike_id":"32347e01-e11f-4a07-8ccd-ff406087a28f","system_id":"levelo_inurba_marseille","lat":43.31241,"lon":5.36875,"is_reserved":false,"is_disabled":false,"rental_uris":{"android":"levelo://app?vid=32347e01-e11f-4a07-8ccd-ff406087a28f","ios":"levelo://app?vid=32347e01-e11f-4a07-8ccd-ff406087a28f"},"vehicle_type_id":"4","last_reported":1744207824,"current_range_meters":22800,"station_id":"ce4bgl92rcd13ifvqbq0","pricing_plan_id":"cebpf4jnsgd1na2vs0mg"},{"bike_id":"23718e9a-5ce7-4d28-99a5-8f754f56e13c","system_id":"levelo_inurba_marseille","lat":43.22503,"lon":5.34783,"is_reserved":false,"is_disabled":false,"rental_uris":{"android":"levelo://app?vid=23718e9a-5ce7-4d28-99a5-8f754f56e13c","ios":"levelo://app?vid=23718e9a-5ce7-4d28-99a5-8f754f56e13c"},"vehicle_type_id":"4","last_reported":1744207824,"current_range_meters":22800,"station_id":"","pricing_plan_id":"cebpf4jnsgd1na2vs0mg"},{"bike_id":"097f271b-5530-40bc-b12d-1c5c092fa245","system_id":"levelo_inurba_marseille","lat":43.32468,"lon":5.36563,"is_reserved":false,"is_disabled":false,"rental_uris":{"android":"levelo://app?vid=097f271b-5530-40bc-b12d-1c5c092fa245","ios":"levelo://app?vid=097f271b-5530-40bc-b12d-1c5c092fa245"},"vehicle_type_id":"4","last_reported":1744207824,"current_range_meters":22800,"station_id":"ce4bhs12rcd13ifvqhvg","pricing_plan_id":"cebpf4jnsgd1na2vs0mg"},{"bike_id":"14f9a79f-29f7-4eb3-8128-173a9963d241","system_id":"levelo_inurba_marseille","lat":43.284948,"lon":5.384168,"is_reserved":false,"is_disabled":false,"rental_uris":{"android":"levelo://app?vid=14f9a79f-29f7-4eb3-8128-173a9963d241","ios":"levelo://app?vid=14f9a79f-29f7-4eb3-8128-173a9963d241"},"vehicle_type_id":"4","last_reported":1744207824,"current_range_meters":22800,"station_id":"ce4bh692rcd13ifvqea0","pricing_plan_id":"cebpf4jnsgd1na2vs0mg"},{"bike_id":"506b68a7-307d-4899-bf5a-039c915cf596","system_id":"levelo_inurba_marseille","lat":43.30486,"lon":5.37921,"is_reserved":false,"is_disabled":false,"rental_uris":{"android":"levelo://app?vid=506b68a7-307d-4899-bf5a-039c915cf596","ios":"levelo://app?vid=506b68a7-307d-4899-bf5a-039c915cf596"},"vehicle_type_id":"4","last_reported":1744207824,"current_range_meters":22800,"station_id":"ce4bgup2rcd13ifvqcn0","pricing_plan_id":"cebpf4jnsgd1na2vs0mg"},{"bike_id":"6125ddfd-95ef-4a70-a9b9-c5500f0917b8","system_id":"levelo_inurba_marseille","lat":43.312673,"lon":5.386923,"is_reserved":false,"is_disabled":false,"rental_uris":{"android":"levelo://app?vid=6125ddfd-95ef-4a70-a9b9-c5500f0917b8","ios":"levelo://app?vid=6125ddfd-95ef-4a70-a9b9-c5500f0917b8"},"vehicle_type_id":"4","last_reported":1744207824,"current_range_meters":22800,"station_id":"","pricing_plan_id":"cebpf4jnsgd1na2vs0mg"},