{"last_updated":1680447937,"ttl":30,"version":"2.2","data":{"bikes":[{"bike_id":"602ce6ab-8a73-488d-8e18-94934930496f","system_id":"levelo_inurba_marseille","lat":43.314811,"lon":5.373104,"is_reserved":false,"is_disabled":false,"rental_uris":{"android":"levelo://app?vid=602ce6ab-8a73-488d-8e18-94934930496f","ios":"levelo://app?vid=602ce6ab-8a73-488d-8e18-94934930496f"},"vehicle_type_id":"4","last_reported":1680447938,"current_range_meters":0,"station_id":"ce4bgt12rcd13ifvqcd0","pricing_plan_id":"free"},{"bike_id":"3b56093b-3caa-4e44-ac6f-5c02255a7c99","system_id":"levelo_inurba_marseille","lat":43.305989,"lon":5.37225,"is_reserved":false,"is_disabled":false,"rental_uris":{"android":"levelo://app?vid=3b56093b-3caa-4e44-ac6f-5c02255a7c99","ios":"levelo://app?vid=3b56093b-3caa-4e44-ac6f-5c02255a7c99"},"vehicle_type_id":"4","last_reported":1680447938,"current_range_meters":4000,"station_id":"ce4bgqh2rcd13ifvqc4g","pricing_plan_id":"free"},{"bike_id":"d1b4a2f9-29d3-48f5-8eb3-727e33a0a88a","system_id":"levelo_inurba_marseille","lat":43.3049,"lon":5.36711,"is_reserved":false,"is_disabled":false,"rental_uris":{"android":"levelo://app?vid=d1b4a2f9-29d3-48f5-8eb3-727e33a0a88a","ios":"levelo://app?vid=d1b4a2f9-29d3-48f5-8eb3-727e33a0a88a"},"vehicle_type_id":"4","last_reported":1680447938,"current_range_meters":0,"station_id":"ce4bgh92rcd13ifvqb50","pricing_plan_id":"free"},{"bike_id":"cd51c82c-a857-4fd3-9b09-99a1fb0aa78c","system_id":"levelo_inurba_marseille","lat":43.3086,"lon":5.3764,"is_reserved":false,"is_disabled":false,"rental_uris":{"android":"levelo://app?vid=cd51c82c-a857-4fd3-9b09-99a1fb0aa78c","ios":"levelo://app?vid=cd51c82c-a857-4fd3-9b09-99a1fb0aa78c"},"vehicle_type_id":"4","last_reported":1680447938,"current_range_meters":21600,"station_id":"","pricing_plan_id":"free"},{"bike_id":"68e31e29-4f99-47c2-b48a-95d4ebc6b338","system_id":"levelo_inurba_marseille","lat":43.317075,"lon":5.377367,"is_reserved":false,"is_disabled":false,"rental_uris":{"android":"levelo://app?vid=68e31e29-4f99-47c2-b48a-95d4ebc6b338","ios":"levelo://app?vid=68e31e29-4f99-47c2-b48a-95d4ebc6b338"},"vehicle_type_id":"4","last_reported":1680447938,"current_range_meters":0,"station_id":"ce4bgth2rcd13ifvqch0","pricing_plan_id":"free"},{"bike_id":"86eb772e-e46d-457b-b30e-520dc010b589","system_id":"levelo_inurba_marseille","lat":43.31013,"lon":5.37917,"is_reserved":false,"is_disabled":false,"rental_uris":{"android":"levelo://app?vid=86eb772e-e46d-457b-b30e-520dc010b589","ios":"levelo://app?vid=86eb772e-e46d-457b-b30e-520dc010b589"},"vehicle_type_id":"4","last_reported":1680447938,"current_range_meters":0,"station_id":"ce4bh0p2rcd13ifvqd70","pricing_plan_id":"free"},{"bike_id":"aede14b7-5746-43b6-87c2-d8829548effc","system_id":"levelo_inurba_marseille","lat":43.30318,"lon":5.36907,"is_reserved":false,"is_disabled":false,"rental_uris":{"android":"levelo://app?vid=aede14b7-5746-43b6-87c2-d8829548effc","ios":"levelo://app?vid=aede14b7-5746-43b6-87c2-d8829548effc"},"vehicle_type_id":"4","last_reported":1680447938,"current_range_meters":4000,"station_id":"ce4bgqh2rcd13ifvqc5g","pricing_plan_id":"free"},{"bike_id":"03381bd2-b6e1-4ee7-9ccc-8725da409008","system_id":"levelo_inurba_marseille","lat":43.31363,"lon":5.38348,"is_reserved":false,"is_disabled":false,"rental_uris":{"android":"levelo://app?vid=03381bd2-b6e1-4ee7-9ccc-8725da409008","ios":"levelo://app?vid=03381bd2-b6e1-4ee7-9ccc-8725da409008"},"vehicle_type_id":"4","last_reported":1680447938,"current_range_meters":28000,"station_id":"","pricing_plan_id":"free"},{"bike_id":"3c866470-85fc-4d8f-9de3-8c3c922c4aec","system_id":"levelo_inurba_marseille","lat":43.313571,"lon":5.384829,"is_reserved":false,"is_disabled":false,"rental_uris":{"android":"levelo://app?vid=3c866470-85fc-4d8f-9de3-8c3c922c4aec","ios":"levelo://app?vid=3c866470-85fc-4d8f-9de3-8c3c922c4aec"},"vehicle_type_id":"4","last_reported":1680447938,"current_range_meters":0,"station_id":"ce4bgt92rcd13ifvqcf0","pricing_plan_id":"free"},{"bike_id":"10522ede-4665-4a94-9f4a-ab49ede69c16","system_id":"levelo_inurba_marseille","lat":43.299094,"lon":5.365415,"is_reserved":false,"is_disabled":false,"rental_uris":{"android":"levelo://app?vid=10522ede-4665-4a94-9f4a-ab49ede69c16","ios":"levelo://app?vid=10522ede-4665-4a94-9f4a-ab49ede69c16"},"vehicle_type_id":"4","last_reported":1680447938,"current_range_meters":27200,"station_id":"ce4bgm92rcd13ifvqbr0","pricing_plan_id":"free"},{"bike_id":"81119752-cf3a-46a9-bde4-41134022fd0b","system_id":"levelo_inurba_marseille","lat":43.299094,"lon":5.365415,"is_reserved":false,"is_disabled":false,"rental_uris":{"android":"levelo://app?vid=81119752-cf3a-46a9-bde4-41134022fd0b","ios":"levelo://app?vid=81119752-cf3a-46a9-bde4-41134022fd0b"},"vehicle_type_id":"4","last_reported":1680447938,"current_range_meters":0,"station_id":"ce4bgm92rcd13ifvqbr0","pricing_plan_id":"free"},{"bike_id":"2bd01f32-2cef-4e9e-a897-43dd9d7dda44","system_id":"levelo_inurba_marseille","lat":43.298339,"lon":5.362567,"is_reserved":false,"is_disabled":false,"rental_uris":{"android":"levelo://app?vid=2bd01f32-2cef-4e9e-a897-43dd9d7dda44","ios":"levelo://app?vid=2bd01f32-2cef-4e9e-a897-43dd9d7dda44"},"vehicle_type_id":"4","last_reported":1680447938,"current_range_meters":4400,"station_id":"ce4bgpp2rcd13ifvqc3g","pricing_plan_id":"free"},{"bike_id":"9565c156-08c1-4e2c-8201-90b052f63462","system_id":"levelo_inurba_marseille","lat":43.32763,"lon":5.36676,"is_reserved":false,"is_disabled":false,"rental_uris":{"android":"levelo://app?vid=9565c156-08c1-4e2c-8201-90b052f63462","ios":"levelo://app?vid=9565c156-08c1-4e2c-8201-90b052f63462"},"vehicle_type_id":"4","last_reported":1680447938,"current_range_meters":15600,"station_id":"","pricing_plan_id":"free"},{"bike_id":"86fc285b-e9c6-412f-84e8-d945d1f1e81f","system_id":"levelo_inurba_marseille","lat":43.301377,"lon":5.380281,"is_reserved":false,"is_disabled":false,"rental_uris":{"android":"levelo://app?vid=86fc285b-e9c6-412f-84e8-d945d1f1e81f","ios":"levelo://app?vid=86fc285b-e9c6-412f-84e8-d945d1f1e81f"},"vehicle_type_id":"4","last_reported":1680447938,"current_range_meters":29200,"station_id":"ce4bgup2rcd13ifvqcn0","pricing_plan_id":"free"},{"bike_id":"c4f02618-b090-44e5-b38c-2900d87a64e1","system_id":"levelo_inurba_marseille","lat":43.29668,"lon":5.37578,"is_reserved":false,"is_disabled":false,"rental_uris":{"android":"levelo://app?vid=c4f02618-b090-44e5-b38c-2900d87a64e1","ios":"levelo://app?vid=c4f02618-b090-44e5-b38c-2900d87a64e1"},"vehicle_type_id":"4","last_reported":1680447938,"current_range_meters":2000,"station_id":"","pricing_plan_id":"free"},{"bike_id":"73791fe2-49b7-42ea-8793-9d5ba63f8b8a","system_id":"levelo_inurba_marseille","lat":43.29668,"lon":5.37582,"is_reserved":false,"is_disabled":false,"rental_uris":{"android":"levelo://app?vid=73791fe2-49b7-42ea-8793-9d5ba63f8b8a","ios":"levelo://app?vid=73791fe2-49b7-42ea-8793-9d5ba63f8b8a"},"vehicle_type_id":"4","last_reported":1680447938,"current_range_meters":6800,"station_id":"","pricing_plan_id":"free"},{"bike_id":"757906fc-4940-4a7e-ab93-001e8d54f1d1","system_id":"levelo_inurba_marseille","lat":43.30964,"lon":5.39049,"is_reserved":false,"is_disabled":false,"rental_uris":{"android":"levelo://app?vid=757906fc-4940-4a7e-ab93-001e8d54f1d1","ios":"levelo://app?vid=757906fc-4940-4a7e-ab93-001e8d54f1d1"},"vehicle_type_id":"4","last_reported":1680447938,"current_range_meters":18400,"station_id":"ce4bgup2rcd13ifvqco0","pricing_plan_id":"free"},{"bike_id":"40a31fc2-c2e4-43ae-9959-3c7b413c5198","system_id":"levelo_inurba_marseille","lat":43.29568,"lon":5.37517,"is_reserved":false,"is_disabled":false,"rental_uris":{"android":"levelo://app?vid=40a31fc2-c2e4-43ae-9959-3c7b413c5198","ios":"levelo://app?vid=40a31fc2-c2e4-43ae-9959-3c7b413c5198"},"vehicle_type_id":"4","last_reported":1680447938,"current_range_meters":12000,"station_id":"ce4bgh92rcd13ifvqb50","pricing_plan_id":"free"},{"bike_id":"ff0d89bf-6696-4463-82e1-6491f3eda4c2","system_id":"levelo_inurba_marseille","lat":43.292311,"lon":5.360731,"is_reserved":false,"is_disabled":false,"rental_uris":{"android":"levelo://app?vid=ff0d89bf-6696-4463-82e1-6491f3eda4c2","ios":"levelo://app?vid=ff0d89bf-6696-4463-82e1-6491f3eda4c2"},"vehicle_type_id":"4","last_reported":1680447938,"current_range_meters":0,"station_id":"ce4bhbh2rcd13ifvqeqg","pricing_plan_id":"free"},{"bike_id":"f280419e-1b1c-4602-858c-cd10bba64edb","system_id":"levelo_inurba_marseille","lat":43.313291,"lon":5.396838,"is_reserved":false,"is_disabled":false,"rental_uris":{"android":"levelo://app?vid=f280419e-1b1c-4602-858c-cd10bba64edb","ios":"levelo://app?vid=f280419e-1b1c-4602-858c-cd10bba64edb"},"vehicle_type_id":"4","last_reported":1680447938,"current_range_meters":8800,"station_id":"ce4bgvp2rcd13ifvqcu0","pricing_plan_id":"free"},{"bike_id":"6d844fd8-81fb-42af-bc5c-a91a246f9b28","system_id":"levelo_inurba_marseille","lat":43.29529,"lon":5.385581,"is_reserved":false,"is_disabled":false,"rental_uris":{"android":"levelo://app?vid=6d844fd8-81fb-42af-bc5c-a91a246f9b28","ios":"levelo://app?vid=6d844fd8-81fb-42af-bc5c-a91a246f9b28"},"vehicle_type_id":"4","last_reported":1680447938,"current_range_meters":20400,"station_id":"ce4bgih2rcd13ifvqba0","pricing_plan_id":"free"},{"bike_id":"90a6cad2-3f76-4519-b558-4504cad5c339","system_id":"levelo_inurba_marseille","lat":43.290624,"lon":5.359245,"is_reserved":false,"is_disabled":false,"rental_uris":{"android":"levelo://app?vid=90a6cad2-3f76-4519-b558-4504cad5c339","ios":"levelo://app?vid=90a6cad2-3f76-4519-b558-4504cad5c339"},"vehicle_type_id":"4","last_reported":1680447938,"current_range_meters":0,"station_id":"ce4bha92rcd13ifvqeg0","pricing_plan_id":"free"},{"bike_id":"498d48a3-acb5-4c2f-a6b0-2d8dfbc505c4","system_id":"levelo_inurba_marseille","lat":43.29416,"lon":5.38624,"is_reserved":false,"is_disabled":false,"rental_uris":{"android":"levelo://app?vid=498d48a3-acb5-4c2f-a6b0-2d8dfbc505c4","ios":"levelo://app?vid=498d48a3-acb5-4c2f-a6b0-2d8dfbc505c4"},"vehicle_type_id":"4","last_reported":1680447938,"current_range_meters":0,"station_id":"","pricing_plan_id":"free"},{"bike_id":"f2d0b497-acbb-405a-b038-e61457286465","system_id":"levelo_inurba_marseille","lat":43.330414,"lon":5.389256,"is_reserved":false,"is_disabled":false,"rental_uris":{"android":"levelo://app?vid=f2d0b497-acbb-405a-b038-e61457286465","ios":"levelo://app?vid=f2d0b497-acbb-405a-b038-e61457286465"},"vehicle_type_id":"4","last_reported":1680447938,"current_range_meters":22400,"station_id":"ce4bhr92rcd13ifvqhrg","pricing_plan_id":"free"},{"bike_id":"464b93e2-3fe5-452e-a851-1863c8b6a69e","system_id":"levelo_inurba_marseille","lat":43.33045,"lon":5.38921,"is_reserved":false,"is_disabled":false,"rental_uris":{"android":"levelo://app?vid=464b93e2-3fe5-452e-a851-1863c8b6a69e","ios":"levelo://app?vid=464b93e2-3fe5-452e-a851-1863c8b6a69e"},"vehicle_type_id":"4","last_reported":1680447938,"current_range_meters":15200,"station_id":"ce4bhr92rcd13ifvqhrg","pricing_plan_id":"free"},{"bike_id":"a030f24c-c429-4240-b991-8ad569e01a2c","system_id":"levelo_inurba_marseille","lat":43.33043,"lon":5.38925,"is_reserved":false,"is_disabled":false,"rental_uris":{"android":"levelo://app?vid=a030f24c-c429-4240-b991-8ad569e01a2c","ios":"levelo://app?vid=a030f24c-c429-4240-b991-8ad569e01a2c"},"vehicle_type_id":"4","last_reported":1680447938,"current_range_meters":0,"station_id":"ce4bhr92rcd13ifvqhrg","pricing_plan_id":"free"},{"bike_id":"18224f97-905a-4084-817e-f4e6b1f18d7b","system_id":"levelo_inurba_marseille","lat":43.28877,"lon":5.3608,"is_reserved":false,"is_disabled":false,"rental_uris":{"android":"levelo://app?vid=18224f97-905a-4084-817e-f4e6b1f18d7b","ios":"levelo://app?vid=18224f97-905a-4084-817e-f4e6b1f18d7b"},"vehicle_type_id":"4","last_reported":1680447938,"current_range_meters":0,"station_id":"","pricing_plan_id":"free"},{"bike_id":"6aba9530-5484-4e67-b047-71bd43a8b603","system_id":"levelo_inurba_marseille","lat":43.289743,"lon":5.378304,"is_reserved":false,"is_disabled":false,"rental_uris":{"android":"levelo://app?vid=6aba9530-5484-4e67-b047-71bd43a8b603","ios":"levelo://app?vid=6aba9530-5484-4e67-b047-71bd43a8b603"},"vehicle_type_id":"4","last_reported":1680447938,"current_range_meters":400,"station_id":"ce4bh9p2rcd13ifvqed0","pricing_plan_id":"free"},{"bike_id":"6274e74e-e4b8-494c-9625-add9298072c0","system_id":"levelo_inurba_marseille","lat":43.30739,"lon":5.40103,"is_reserved":false,"is_disabled":false,"rental_uris":{"android":"levelo://app?vid=6274e74e-e4b8-494c-9625-add9298072c0","ios":"levelo://app?vid=6274e74e-e4b8-494c-9625-add9298072c0"},"vehicle_type_id":"4","last_reported":1680447938,"current_range_meters":3600,"station_id":"","pricing_plan_id":"free"},{"bike_id":"8da554b7-a47d-4580-b62d-82b554803b69","system_id":"levelo_inurba_marseille","lat":43.3375,"lon":5.37471,"is_reserved":false,"is_disabled":false,"rental_uris":{"android":"levelo://app?vid=8da554b7-a47d-4580-b62d-82b554803b69","ios":"levelo://app?vid=8da554b7-a47d-4580-b62d-82b554803b69"},"vehicle_type_id":"4","last_reported":1680447938,"current_range_meters":23600,"station_id":"","pricing_plan_id":"free"},{"bike_id":"23d0c9c1-f862-4639-a69c-c3bdb8c8af33","system_id":"levelo_inurba_marseille","lat":43.286593,"lon":5.363346,"is_reserved":false,"is_disabled":false,"rental_uris":{"android":"levelo://app?vid=23d0c9c1-f862-4639-a69c-c3bdb8c8af33","ios":"levelo://app?vid=23d0c9c1-f862-4639-a69c-c3bdb8c8af33"},"vehicle_type_id":"4","last_reported":1680447938,"current_range_meters":7600,"station_id":"ce4bhah2rcd13ifvqej0","pricing_plan_id":"free"},{"bike_id":"54ab1bda-534a-4ffd-a1bd-1021822218a1","system_id":"levelo_inurba_marseille","lat":43.33502,"lon":5.38972,"is_reserved":false,"is_disabled":false,"rental_uris":{"android":"levelo://app?vid=54ab1bda-534a-4ffd-a1bd-1021822218a1","ios":"levelo://app?vid=54ab1bda-534a-4ffd-a1bd-1021822218a1"},"vehicle_type_id":"4","last_reported":1680447938,"current_range_meters":6000,"station_id":"","pricing_plan_id":"free"},{"bike_id":"aef4cc30-0a41-44af-8fcb-721711d5627a","system_id":"levelo_inurba_marseille","lat":43.33215,"lon":5.39827,"is_reserved":false,"is_disabled":false,"rental_uris":{"android":"levelo://app?vid=aef4cc30-0a41-44af-8fcb-721711d5627a","ios":"levelo://app?vid=aef4cc30-0a41-44af-8fcb-721711d5627a"},"vehicle_type_id":"4","last_reported":1680447938,"current_range_meters":12800,"station_id":"","pricing_plan_id":"free"},{"bike_id":"6e3d9184-baa0-498f-a259-0bf645231c8b","system_id":"levelo_inurba_marseille","lat":43.288501,"lon":5.393087,"is_reserved":false,"is_disabled":false,"rental_uris":{"android":"levelo://app?vid=6e3d9184-baa0-498f-a259-0bf645231c8b","ios":"levelo://app?vid=6e3d9184-baa0-498f-a259-0bf645231c8b"},"vehicle_type_id":"4","last_reported":1680447938,"current_range_meters":0,"station_id":"ce4bh2p2rcd13ifvqdi0","pricing_plan_id":"free"},{"bike_id":"715ff534-3624-4a0c-a6ed-46c27e6975c6","system_id":"levelo_inurba_marseille","lat":43.28421,"lon":5.34981,"is_reserved":false,"is_disabled":false,"rental_uris":{"android":"levelo://app?vid=715ff534-3624-4a0c-a6ed-46c27e6975c6","ios":"levelo://app?vid=715ff534-3624-4a0c-a6ed-46c27e6975c6"},"vehicle_type_id":"4","last_reported":1680447938,"current_range_meters":13200,"station_id":"ce4bhbh2rcd13ifvqepg","pricing_plan_id":"free"},{"bike_id":"bf50faef-cb46-4d10-948d-0c61168441d8","system_id":"levelo_inurba_marseille","lat":43.21617,"lon":5.34443,"is_reserved":false,"is_disabled":false,"rental_uris":{"android":"levelo://app?vid=bf50faef-cb46-4d10-948d-0c61168441d8","ios":"levelo://app?vid=bf50faef-cb46-4d10-948d-0c61168441d8"},"vehicle_type_id":"4","last_reported":1680447938,"current_range_meters":15200,"station_id":"ce4bhu92rcd13ifvqi70","pricing_plan_id":"free"},{"bike_id":"bf2098d9-fc59-49c7-8564-7136bd2c5700","system_id":"levelo_inurba_marseille","lat":43.29628,"lon":5.406,"is_reserved":false,"is_disabled":false,"rental_uris":{"android":"levelo://app?vid=bf2098d9-fc59-49c7-8564-7136bd2c5700","ios":"levelo://app?vid=bf2098d9-fc59-49c7-8564-7136bd2c5700"},"vehicle_type_id":"4","last_reported":1680447938,"current_range_meters":0,"station_id":"ce4bh0h2rcd13ifvqd60","pricing_plan_id":"free"},{"bike_id":"3a4875ad-93b4-40ee-9475-d21a41a72a01","system_id":"levelo_inurba_marseille","lat":43.28705,"lon":5.39989,"is_reserved":false,"is_disabled":false,"rental_uris":{"android":"levelo://app?vid=3a4875ad-93b4-40ee-9475-d21a41a72a01","ios":"levelo://app?vid=3a4875ad-93b4-40ee-9475-d21a41a72a01"},"vehicle_type_id":"4","last_reported":1680447938,"current_range_meters":0,"station_id":"","pricing_plan_id":"free"},{"bike_id":"a515111c-98d7-4fb8-9c8f-451daf1bba73","system_id":"levelo_inurba_marseille","lat":43.299579,"lon":5.413255,"is_reserved":false,"is_disabled":false,"rental_uris":{"android":"levelo://app?vid=a515111c-98d7-4fb8-9c8f-451daf1bba73","ios":"levelo://app?vid=a515111c-98d7-4fb8-9c8f-451daf1bba73"},"vehicle_type_id":"4","last_reported":1680447938,"current_range_meters":12800,"station_id":"ce4bhp12rcd13ifvqh9g","pricing_plan_id":"free"},{"bike_id":"e785e878-7fc0-4399-8db4-49705ca23c91","system_id":"levelo_inurba_marseille","lat":43.29957,"lon":5.41325,"is_reserved":false,"is_disabled":false,"rental_uris":{"android":"levelo://app?vid=e785e878-7fc0-4399-8db4-49705ca23c91","ios":"levelo://app?vid=e785e878-7fc0-4399-8db4-49705ca23c91"},"vehicle_type_id":"4","last_reported":1680447938,"current_range_meters":11200,"station_id":"ce4bhp12rcd13ifvqh9g","pricing_plan_id":"free"},{"bike_id":"76c7ae72-c9d9-4bd5-ae0b-d237b5358c69","system_id":"levelo_inurba_marseille","lat":43.27828,"lon":5.38774,"is_reserved":false,"is_disabled":false,"rental_uris":{"android":"levelo://app?vid=76c7ae72-c9d9-4bd5-ae0b-d237b5358c69","ios":"levelo://app?vid=76c7ae72-c9d9-4bd5-ae0b-d237b5358c69"},"vehicle_type_id":"4","last_reported":1680447938,"current_range_meters":0,"station_id":"","pricing_plan_id":"free"},{"bike_id":"67c8f808-f8ce-4eb1-a2d9-27e43fa0da53","system_id":"levelo_inurba_marseille","lat":43.280784,"lon":5.396622,"is_reserved":false,"is_disabled":false,"rental_uris":{"android":"levelo://app?vid=67c8f808-f8ce-4eb1-a2d9-27e43fa0da53","ios":"levelo://app?vid=67c8f808-f8ce-4eb1-a2d9-27e43fa0da53"},"vehicle_type_id":"4","last_reported":1680447938,"current_range_meters":18000,"station_id":"ce4bho12rcd13ifvqh2g","pricing_plan_id":"free"},{"bike_id":"4fda7444-17e4-4128-aa46-25159d1ab172","system_id":"levelo_inurba_marseille","lat":43.27458,"lon":5.36065,"is_reserved":false,"is_disabled":false,"rental_uris":{"android":"levelo://app?vid=4fda7444-17e4-4128-aa46-25159d1ab172","ios":"levelo://app?vid=4fda7444-17e4-4128-aa46-25159d1ab172"},"vehicle_type_id":"4","last_reported":1680447938,"current_range_meters":5600,"station_id":"ce4bhg12rcd13ifvqf70","pricing_plan_id":"free"},{"bike_id":"aa0a319c-45d9-47d9-8150-410d4236b87e","system_id":"levelo_inurba_marseille","lat":43.273613,"lon":5.362705,"is_reserved":false,"is_disabled":false,"rental_uris":{"android":"levelo://app?vid=aa0a319c-45d9-47d9-8150-410d4236b87e","ios":"levelo://app?vid=aa0a319c-45d9-47d9-8150-410d4236b87e"},"vehicle_type_id":"4","last_reported":1680447938,"current_range_meters":18800,"station_id":"ce4bhbh2rcd13ifvqeo0","pricing_plan_id":"free"},{"bike_id":"20b1ae17-9e05-4542-8ffd-cd3b51c6d7e5","system_id":"levelo_inurba_marseille","lat":43.27378,"lon":5.36253,"is_reserved":false,"is_disabled":false,"rental_uris":{"android":"levelo://app?vid=20b1ae17-9e05-4542-8ffd-cd3b51c6d7e5","ios":"levelo://app?vid=20b1ae17-9e05-4542-8ffd-cd3b51c6d7e5"},"vehicle_type_id":"4","last_reported":1680447938,"current_range_meters":26400,"station_id":"ce4bhbh2rcd13ifvqeo0","pricing_plan_id":"free"},{"bike_id":"615825fd-deba-471d-aeec-6b1fdc98008c","system_id":"levelo_inurba_marseille","lat":43.273613,"lon":5.362705,"is_reserved":false,"is_disabled":false,"rental_uris":{"android":"levelo://app?vid=615825fd-deba-471d-aeec-6b1fdc98008c","ios":"levelo://app?vid=615825fd-deba-471d-aeec-6b1fdc98008c"},"vehicle_type_id":"4","last_reported":1680447938,"current_range_meters":10800,"station_id":"ce4bhbh2rcd13ifvqeo0","pricing_plan_id":"free"},{"bike_id":"501ef73d-4c91-4f73-9a72-aa45c3f61a46","system_id":"levelo_inurba_marseille","lat":43.273609,"lon":5.362708,"is_reserved":false,"is_disabled":false,"rental_uris":{"android":"levelo://app?vid=501ef73d-4c91-4f73-9a72-aa45c3f61a46","ios":"levelo://app?vid=501ef73d-4c91-4f73-9a72-aa45c3f61a46"},"vehicle_type_id":"4","last_reported":1680447938,"current_range_meters":2400,"station_id":"ce4bhbh2rcd13ifvqeo0","pricing_plan_id":"free"},{"bike_id":"5311b7e4-a8ed-4211-8e80-4971f8ce00e1","system_id":"levelo_inurba_marseille","lat":43.276771,"lon":5.388799,"is_reserved":false,"is_disabled":false,"rental_uris":{"android":"levelo://app?vid=5311b7e4-a8ed-4211-8e80-4971f8ce00e1","ios":"levelo://app?vid=5311b7e4-a8ed-4211-8e80-4971f8ce00e1"},"vehicle_type_id":"4","last_reported":1680447938,"current_range_meters":800,"station_id":"ce4bhi12rcd13ifvqfo0","pricing_plan_id":"free"},{"bike_id":"ec5da66e-9735-4053-a117-66912aec7e54","system_id":"levelo_inurba_marseille","lat":43.27379,"lon":5.39337,"is_reserved":false,"is_disabled":false,"rental_uris":{"android":"levelo://app?vid=ec5da66e-9735-4053-a117-66912aec7e54","ios":"levelo://app?vid=ec5da66e-9735-4053-a117-66912aec7e54"},"vehicle_type_id":"4","last_reported":1680447938,"current_range_meters":16400,"station_id":"","pricing_plan_id":"free"},{"bike_id":"6ca7be10-1358-4cbd-9b1a-0bedc275fb0a","system_id":"levelo_inurba_marseille","lat":43.295523,"lon":5.422926,"is_reserved":false,"is_disabled":false,"rental_uris":{"android":"levelo://app?vid=6ca7be10-1358-4cbd-9b1a-0bedc275fb0a","ios":"levelo://app?vid=6ca7be10-1358-4cbd-9b1a-0bedc275fb0a"},"vehicle_type_id":"4","last_reported":1680447938,"current_range_meters":0,"station_id":"ce4bhph2rcd13ifvqhdg","pricing_plan_id":"free"},{"bike_id":"1a0c6be5-99a3-4a9f-b407-7df72aa0b6a6","system_id":"levelo_inurba_marseille","lat":43.29184,"lon":5.42259,"is_reserved":false,"is_disabled":false,"rental_uris":{"android":"levelo://app?vid=1a0c6be5-99a3-4a9f-b407-7df72aa0b6a6","ios":"levelo://app?vid=1a0c6be5-99a3-4a9f-b407-7df72aa0b6a6"},"vehicle_type_id":"4","last_reported":1680447938,"current_range_meters":16400,"station_id":"","pricing_plan_id":"free"},{"bike_id":"dbba356f-8dfa-4829-bbba-ef51b80b1fd9","system_id":"levelo_inurba_marseille","lat":43.265714,"lon":5.372891,"is_reserved":false,"is_disabled":false,"rental_uris":{"android":"levelo://app?vid=dbba356f-8dfa-4829-bbba-ef51b80b1fd9","ios":"levelo://app?vid=dbba356f-8dfa-4829-bbba-ef51b80b1fd9"},"vehicle_type_id":"4","last_reported":1680447938,"current_range_meters":19600,"station_id":"ce4bhg12rcd13ifvqf70","pricing_plan_id":"free"},{"bike_id":"a205c41e-e3e7-42fe-b62a-e79ca78747ec","system_id":"levelo_inurba_marseille","lat":43.26557,"lon":5.37285,"is_reserved":false,"is_disabled":false,"rental_uris":{"android":"levelo://app?vid=a205c41e-e3e7-42fe-b62a-e79ca78747ec","ios":"levelo://app?vid=a205c41e-e3e7-42fe-b62a-e79ca78747ec"},"vehicle_type_id":"4","last_reported":1680447938,"current_range_meters":17200,"station_id":"ce4bhg12rcd13ifvqf70","pricing_plan_id":"free"},{"bike_id":"f7afa14e-3bfc-4fa5-a1c2-58b8e46e2c2e","system_id":"levelo_inurba_marseille","lat":43.265714,"lon":5.372891,"is_reserved":false,"is_disabled":false,"rental_uris":{"android":"levelo://app?vid=f7afa14e-3bfc-4fa5-a1c2-58b8e46e2c2e","ios":"levelo://app?vid=f7afa14e-3bfc-4fa5-a1c2-58b8e46e2c2e"},"vehicle_type_id":"4","last_reported":1680447938,"current_range_meters":22800,"station_id":"ce4bhg12rcd13ifvqf70","pricing_plan_id":"free"},{"bike_id":"6f873ab1-686a-4aac-b66e-8897b8b70135","system_id":"levelo_inurba_marseille","lat":43.29304,"lon":5.42822,"is_reserved":false,"is_disabled":false,"rental_uris":{"android":"levelo://app?vid=6f873ab1-686a-4aac-b66e-8897b8b70135","ios":"levelo://app?vid=6f873ab1-686a-4aac-b66e-8897b8b70135"},"vehicle_type_id":"4","last_reported":1680447938,"current_range_meters":3600,"station_id":"","pricing_plan_id":"free"},{"bike_id":"ced7c677-569c-44ea-8371-3e52cf23a682","system_id":"levelo_inurba_marseille","lat":43.27996,"lon":5.416624,"is_reserved":false,"is_disabled":false,"rental_uris":{"android":"levelo://app?vid=ced7c677-569c-44ea-8371-3e52cf23a682","ios":"levelo://app?vid=ced7c677-569c-44ea-8371-3e52cf23a682"},"vehicle_type_id":"4","last_reported":1680447938,"current_range_meters":28800,"station_id":"ce4bho12rcd13ifvqh1g","pricing_plan_id":"free"},{"bike_id":"fe3b1bfe-088d-4ece-8612-2f6a81a3f82e","system_id":"levelo_inurba_marseille","lat":43.27996,"lon":5.416624,"is_reserved":false,"is_disabled":false,"rental_uris":{"android":"levelo://app?vid=fe3b1bfe-088d-4ece-8612-2f6a81a3f82e","ios":"levelo://app?vid=fe3b1bfe-088d-4ece-8612-2f6a81a3f82e"},"vehicle_type_id":"4","last_reported":1680447938,"current_range_meters":14000,"station_id":"ce4bho12rcd13ifvqh1g","pricing_plan_id":"free"},{"bike_id":"d4ae602f-a1c9-43ce-83c2-3b69c8408907","system_id":"levelo_inurba_marseille","lat":43.26787,"lon":5.39417,"is_reserved":false,"is_disabled":false,"rental_uris":{"android":"levelo://app?vid=d4ae602f-a1c9-43ce-83c2-3b69c8408907","ios":"levelo://app?vid=d4ae602f-a1c9-43ce-83c2-3b69c8408907"},"vehicle_type_id":"4","last_reported":1680447938,"current_range_meters":1600,"station_id":"ce4bhh12rcd13ifvqfg0","pricing_plan_id":"free"},{"bike_id":"004c868c-3359-4a04-8b7f-fa8500e2bd51","system_id":"levelo_inurba_marseille","lat":43.265569,"lon":5.390047,"is_reserved":false,"is_disabled":false,"rental_uris":{"android":"levelo://app?vid=004c868c-3359-4a04-8b7f-fa8500e2bd51","ios":"levelo://app?vid=004c868c-3359-4a04-8b7f-fa8500e2bd51"},"vehicle_type_id":"4","last_reported":1680447938,"current_range_meters":14400,"station_id":"ce4bhe12rcd13ifvqf30","pricing_plan_id":"free"},{"bike_id":"267ccb37-1ea3-4917-9fb4-1c9e847353da","system_id":"levelo_inurba_marseille","lat":43.30798,"lon":5.43527,"is_reserved":false,"is_disabled":false,"rental_uris":{"android":"levelo://app?vid=267ccb37-1ea3-4917-9fb4-1c9e847353da","ios":"levelo://app?vid=267ccb37-1ea3-4917-9fb4-1c9e847353da"},"vehicle_type_id":"4","last_reported":1680447938,"current_range_meters":800,"station_id":"ce4bhph2rcd13ifvqheg","pricing_plan_id":"free"},{"bike_id":"1563f8ee-c14c-4be1-8fed-e1194ae3bdaf","system_id":"levelo_inurba_marseille","lat":43.28971,"lon":5.42893,"is_reserved":false,"is_disabled":false,"rental_uris":{"android":"levelo://app?vid=1563f8ee-c14c-4be1-8fed-e1194ae3bdaf","ios":"levelo://app?vid=1563f8ee-c14c-4be1-8fed-e1194ae3bdaf"},"vehicle_type_id":"4","last_reported":1680447938,"current_range_meters":16800,"station_id":"","pricing_plan_id":"free"},{"bike_id":"366c58f3-a14c-486b-b717-3f1179458ebf","system_id":"levelo_inurba_marseille","lat":43.261782,"lon":5.374515,"is_reserved":false,"is_disabled":false,"rental_uris":{"android":"levelo://app?vid=366c58f3-a14c-486b-b717-3f1179458ebf","ios":"levelo://app?vid=366c58f3-a14c-486b-b717-3f1179458ebf"},"vehicle_type_id":"4","last_reported":1680447938,"current_range_meters":23200,"station_id":"ce4bhgp2rcd13ifvqfc0","pricing_plan_id":"free"},{"bike_id":"cc917da0-c484-4180-b3b3-2c472d048c40","system_id":"levelo_inurba_marseille","lat":43.26186,"lon":5.37446,"is_reserved":false,"is_disabled":false,"rental_uris":{"android":"levelo://app?vid=cc917da0-c484-4180-b3b3-2c472d048c40","ios":"levelo://app?vid=cc917da0-c484-4180-b3b3-2c472d048c40"},"vehicle_type_id":"4","last_reported":1680447938,"current_range_meters":11600,"station_id":"","pricing_plan_id":"free"},{"bike_id":"49b2ffd5-37d0-4bd1-b6e1-50df706259ce","system_id":"levelo_inurba_marseille","lat":43.261782,"lon":5.374515,"is_reserved":false,"is_disabled":false,"rental_uris":{"android":"levelo://app?vid=49b2ffd5-37d0-4bd1-b6e1-50df706259ce","ios":"levelo://app?vid=49b2ffd5-37d0-4bd1-b6e1-50df706259ce"},"vehicle_type_id":"4","last_reported":1680447938,"current_range_meters":18800,"station_id":"ce4bhgp2rcd13ifvqfc0","pricing_plan_id":"free"},{"bike_id":"9d6b674e-eee8-429b-967a-683eb8f6debd","system_id":"levelo_inurba_marseille","lat":43.26184,"lon":5.37444,"is_reserved":false,"is_disabled":false,"rental_uris":{"android":"levelo://app?vid=9d6b674e-eee8-429b-967a-683eb8f6debd","ios":"levelo://app?vid=9d6b674e-eee8-429b-967a-683eb8f6debd"},"vehicle_type_id":"4","last_reported":1680447938,"current_range_meters":20400,"station_id":"ce4bhgp2rcd13ifvqfc0","pricing_plan_id":"free"},{"bike_id":"893403c9-5106-444f-915d-a7443f136970","system_id":"levelo_inurba_marseille","lat":43.26184,"lon":5.37444,"is_reserved":false,"is_disabled":false,"rental_uris":{"android":"levelo://app?vid=893403c9-5106-444f-915d-a7443f136970","ios":"levelo://app?vid=893403c9-5106-444f-915d-a7443f136970"},"vehicle_type_id":"4","last_reported":1680447938,"current_range_meters":20000,"station_id":"ce4bhgp2rcd13ifvqfc0","pricing_plan_id":"free"},{"bike_id":"45e0f7cb-d6db-4acf-9222-744bba7e4e96","system_id":"levelo_inurba_marseille","lat":43.26184,"lon":5.37452,"is_reserved":false,"is_disabled":false,"rental_uris":{"android":"levelo://app?vid=45e0f7cb-d6db-4acf-9222-744bba7e4e96","ios":"levelo://app?vid=45e0f7cb-d6db-4acf-9222-744bba7e4e96"},"vehicle_type_id":"4","last_reported":1680447938,"current_range_meters":30000,"station_id":"ce4bhgp2rcd13ifvqfc0","pricing_plan_id":"free"},{"bike_id":"e75ecb68-3a81-429e-b1f1-c67460220ce3","system_id":"levelo_inurba_marseille","lat":43.317104,"lon":5.436818,"is_reserved":false,"is_disabled":false,"rental_uris":{"android":"levelo://app?vid=e75ecb68-3a81-429e-b1f1-c67460220ce3","ios":"levelo://app?vid=e75ecb68-3a81-429e-b1f1-c67460220ce3"},"vehicle_type_id":"4","last_reported":1680447938,"current_range_meters":2400,"station_id":"ce4bhp92rcd13ifvqhcg","pricing_plan_id":"free"},{"bike_id":"9da21d86-b78a-40c5-b66a-24fc6b9dfbad","system_id":"levelo_inurba_marseille","lat":43.317104,"lon":5.436818,"is_reserved":false,"is_disabled":false,"rental_uris":{"android":"levelo://app?vid=9da21d86-b78a-40c5-b66a-24fc6b9dfbad","ios":"levelo://app?vid=9da21d86-b78a-40c5-b66a-24fc6b9dfbad"},"vehicle_type_id":"4","last_reported":1680447938,"current_range_meters":7600,"station_id":"ce4bhp92rcd13ifvqhcg","pricing_plan_id":"free"},{"bike_id":"140f6e44-2763-4fd7-85ec-962cbb635dad","system_id":"levelo_inurba_marseille","lat":43.317104,"lon":5.436818,"is_reserved":false,"is_disabled":false,"rental_uris":{"android":"levelo://app?vid=140f6e44-2763-4fd7-85ec-962cbb635dad","ios":"levelo://app?vid=140f6e44-2763-4fd7-85ec-962cbb635dad"},"vehicle_type_id":"4","last_reported":1680447938,"current_range_meters":8800,"station_id":"ce4bhp92rcd13ifvqhcg","pricing_plan_id":"free"},{"bike_id":"3622a8d1-7975-40c5-b7df-bea4860c524a","system_id":"levelo_inurba_marseille","lat":43.317104,"lon":5.436818,"is_reserved":false,"is_disabled":false,"rental_uris":{"android":"levelo://app?vid=3622a8d1-7975-40c5-b7df-bea4860c524a","ios":"levelo://app?vid=3622a8d1-7975-40c5-b7df-bea4860c524a"},"vehicle_type_id":"4","last_reported":1680447938,"current_range_meters":19600,"station_id":"ce4bhp92rcd13ifvqhcg","pricing_plan_id":"free"},{"bike_id":"8b8736ed-e427-4e70-a47a-32438cfd1ec3","system_id":"levelo_inurba_marseille","lat":43.265569,"lon":5.390047,"is_reserved":false,"is_disabled":false,"rental_uris":{"android":"levelo://app?vid=8b8736ed-e427-4e70-a47a-32438cfd1ec3","ios":"levelo://app?vid=8b8736ed-e427-4e70-a47a-32438cfd1ec3"},"vehicle_type_id":"4","last_reported":1680447938,"current_range_meters":0,"station_id":"ce4bhe12rcd13ifvqf30","pricing_plan_id":"free"},{"bike_id":"82bc9f48-538b-4477-8070-842ce4c6f5d6","system_id":"levelo_inurba_marseille","lat":43.298768,"lon":5.43643,"is_reserved":false,"is_disabled":false,"rental_uris":{"android":"levelo://app?vid=82bc9f48-538b-4477-8070-842ce4c6f5d6","ios":"levelo://app?vid=82bc9f48-538b-4477-8070-842ce4c6f5d6"},"vehicle_type_id":"4","last_reported":1680447938,"current_range_meters":17600,"station_id":"ce4bhpp2rcd13ifvqhfg","pricing_plan_id":"free"},{"bike_id":"89d7287f-0076-43fd-ac1b-a31059c725bd","system_id":"levelo_inurba_marseille","lat":43.29897,"lon":5.43677,"is_reserved":false,"is_disabled":false,"rental_uris":{"android":"levelo://app?vid=89d7287f-0076-43fd-ac1b-a31059c725bd","ios":"levelo://app?vid=89d7287f-0076-43fd-ac1b-a31059c725bd"},"vehicle_type_id":"4","last_reported":1680447938,"current_range_meters":6000,"station_id":"","pricing_plan_id":"free"},{"bike_id":"db56da30-3cb9-4c8f-984e-29a9860e40a2","system_id":"levelo_inurba_marseille","lat":43.260225,"lon":5.375455,"is_reserved":false,"is_disabled":false,"rental_uris":{"android":"levelo://app?vid=db56da30-3cb9-4c8f-984e-29a9860e40a2","ios":"levelo://app?vid=db56da30-3cb9-4c8f-984e-29a9860e40a2"},"vehicle_type_id":"4","last_reported":1680447938,"current_range_meters":8400,"station_id":"ce4bhgh2rcd13ifvqfa0","pricing_plan_id":"free"},{"bike_id":"ce6f51c8-5fed-49ef-aad2-fcaa6ece29a4","system_id":"levelo_inurba_marseille","lat":43.2607,"lon":5.393983,"is_reserved":false,"is_disabled":false,"rental_uris":{"android":"levelo://app?vid=ce6f51c8-5fed-49ef-aad2-fcaa6ece29a4","ios":"levelo://app?vid=ce6f51c8-5fed-49ef-aad2-fcaa6ece29a4"},"vehicle_type_id":"4","last_reported":1680447938,"current_range_meters":8000,"station_id":"ce4bhh92rcd13ifvqfj0","pricing_plan_id":"free"},{"bike_id":"a2c06ebc-31cd-49aa-a82f-e1c4a906615f","system_id":"levelo_inurba_marseille","lat":43.260909,"lon":5.397591,"is_reserved":false,"is_disabled":false,"rental_uris":{"android":"levelo://app?vid=a2c06ebc-31cd-49aa-a82f-e1c4a906615f","ios":"levelo://app?vid=a2c06ebc-31cd-49aa-a82f-e1c4a906615f"},"vehicle_type_id":"4","last_reported":1680447938,"current_range_meters":3200,"station_id":"ce4bhi12rcd13ifvqfq0","pricing_plan_id":"free"},{"bike_id":"c95c9246-3437-4de1-b323-167c1cc0b770","system_id":"levelo_inurba_marseille","lat":43.255756,"lon":5.382303,"is_reserved":false,"is_disabled":false,"rental_uris":{"android":"levelo://app?vid=c95c9246-3437-4de1-b323-167c1cc0b770","ios":"levelo://app?vid=c95c9246-3437-4de1-b323-167c1cc0b770"},"vehicle_type_id":"4","last_reported":1680447938,"current_range_meters":28800,"station_id":"ce4bhih2rcd13ifvqfs0","pricing_plan_id":"free"},{"bike_id":"2227d431-decd-48e0-9175-67c0ccd8ecf3","system_id":"levelo_inurba_marseille","lat":43.2558,"lon":5.38225,"is_reserved":false,"is_disabled":false,"rental_uris":{"android":"levelo://app?vid=2227d431-decd-48e0-9175-67c0ccd8ecf3","ios":"levelo://app?vid=2227d431-decd-48e0-9175-67c0ccd8ecf3"},"vehicle_type_id":"4","last_reported":1680447938,"current_range_meters":0,"station_id":"ce4bhih2rcd13ifvqfs0","pricing_plan_id":"free"},{"bike_id":"b00847d8-19d6-462c-b70c-79f7824d84f7","system_id":"levelo_inurba_marseille","lat":43.25578,"lon":5.38238,"is_reserved":false,"is_disabled":false,"rental_uris":{"android":"levelo://app?vid=b00847d8-19d6-462c-b70c-79f7824d84f7","ios":"levelo://app?vid=b00847d8-19d6-462c-b70c-79f7824d84f7"},"vehicle_type_id":"4","last_reported":1680447938,"current_range_meters":26000,"station_id":"ce4bhih2rcd13ifvqfs0","pricing_plan_id":"free"},{"bike_id":"e7fb159e-0151-464d-b204-d69df00f65d6","system_id":"levelo_inurba_marseille","lat":43.25576,"lon":5.38237,"is_reserved":false,"is_disabled":false,"rental_uris":{"android":"levelo://app?vid=e7fb159e-0151-464d-b204-d69df00f65d6","ios":"levelo://app?vid=e7fb159e-0151-464d-b204-d69df00f65d6"},"vehicle_type_id":"4","last_reported":1680447938,"current_range_meters":27200,"station_id":"ce4bhih2rcd13ifvqfs0","pricing_plan_id":"free"},{"bike_id":"ffb12047-83bf-4a29-a02b-128cf15003c7","system_id":"levelo_inurba_marseille","lat":43.25575,"lon":5.38236,"is_reserved":false,"is_disabled":false,"rental_uris":{"android":"levelo://app?vid=ffb12047-83bf-4a29-a02b-128cf15003c7","ios":"levelo://app?vid=ffb12047-83bf-4a29-a02b-128cf15003c7"},"vehicle_type_id":"4","last_reported":1680447938,"current_range_meters":14000,"station_id":"ce4bhih2rcd13ifvqfs0","pricing_plan_id":"free"},{"bike_id":"d2817ed0-7d6f-41dc-8167-67a3f545d2e3","system_id":"levelo_inurba_marseille","lat":43.254947,"lon":5.376454,"is_reserved":false,"is_disabled":false,"rental_uris":{"android":"levelo://app?vid=d2817ed0-7d6f-41dc-8167-67a3f545d2e3","ios":"levelo://app?vid=d2817ed0-7d6f-41dc-8167-67a3f545d2e3"},"vehicle_type_id":"4","last_reported":1680447938,"current_range_meters":31200,"station_id":"ce4bhh12rcd13ifvqff0","pricing_plan_id":"free"},{"bike_id":"f27fd293-3850-45b0-9e71-5c7b2d1b9e3a","system_id":"levelo_inurba_marseille","lat":43.254945,"lon":5.376454,"is_reserved":false,"is_disabled":false,"rental_uris":{"android":"levelo://app?vid=f27fd293-3850-45b0-9e71-5c7b2d1b9e3a","ios":"levelo://app?vid=f27fd293-3850-45b0-9e71-5c7b2d1b9e3a"},"vehicle_type_id":"4","last_reported":1680447938,"current_range_meters":26000,"station_id":"ce4bhh12rcd13ifvqff0","pricing_plan_id":"free"},{"bike_id":"279c5113-5d6a-485f-ad90-99ec0bfdf7ca","system_id":"levelo_inurba_marseille","lat":43.254945,"lon":5.376454,"is_reserved":false,"is_disabled":false,"rental_uris":{"android":"levelo://app?vid=279c5113-5d6a-485f-ad90-99ec0bfdf7ca","ios":"levelo://app?vid=279c5113-5d6a-485f-ad90-99ec0bfdf7ca"},"vehicle_type_id":"4","last_reported":1680447938,"current_range_meters":1600,"station_id":"ce4bhh12rcd13ifvqff0","pricing_plan_id":"free"},{"bike_id":"b9d13cf5-8b99-4cf6-9a34-932b2c7b739a","system_id":"levelo_inurba_marseille","lat":43.254947,"lon":5.376454,"is_reserved":false,"is_disabled":false,"rental_uris":{"android":"levelo://app?vid=b9d13cf5-8b99-4cf6-9a34-932b2c7b739a","ios":"levelo://app?vid=b9d13cf5-8b99-4cf6-9a34-932b2c7b739a"},"vehicle_type_id":"4","last_reported":1680447938,"current_range_meters":16800,"station_id":"ce4bhh12rcd13ifvqff0","pricing_plan_id":"free"},{"bike_id":"040d929f-8db8-4a32-8516-cdbd1f6be4e4","system_id":"levelo_inurba_marseille","lat":43.254953,"lon":5.37644,"is_reserved":false,"is_disabled":false,"rental_uris":{"android":"levelo://app?vid=040d929f-8db8-4a32-8516-cdbd1f6be4e4","ios":"levelo://app?vid=040d929f-8db8-4a32-8516-cdbd1f6be4e4"},"vehicle_type_id":"4","last_reported":1680447938,"current_range_meters":6400,"station_id":"","pricing_plan_id":"free"},{"bike_id":"c9af4fcb-f770-4c84-957a-a1f0b65a53e4","system_id":"levelo_inurba_marseille","lat":43.254947,"lon":5.376454,"is_reserved":false,"is_disabled":false,"rental_uris":{"android":"levelo://app?vid=c9af4fcb-f770-4c84-957a-a1f0b65a53e4","ios":"levelo://app?vid=c9af4fcb-f770-4c84-957a-a1f0b65a53e4"},"vehicle_type_id":"4","last_reported":1680447938,"current_range_meters":4000,"station_id":"ce4bhh12rcd13ifvqff0","pricing_plan_id":"free"},{"bike_id":"c78123a7-9bf4-40ab-93d0-cfd6344295c1","system_id":"levelo_inurba_marseille","lat":43.254927,"lon":5.37648,"is_reserved":false,"is_disabled":false,"rental_uris":{"android":"levelo://app?vid=c78123a7-9bf4-40ab-93d0-cfd6344295c1","ios":"levelo://app?vid=c78123a7-9bf4-40ab-93d0-cfd6344295c1"},"vehicle_type_id":"4","last_reported":1680447938,"current_range_meters":28400,"station_id":"ce4bho12rcd13ifvqh2g","pricing_plan_id":"free"},{"bike_id":"4de55e2f-49d0-4ba6-b495-dd3c4cf3eb8f","system_id":"levelo_inurba_marseille","lat":43.254945,"lon":5.376454,"is_reserved":false,"is_disabled":false,"rental_uris":{"android":"levelo://app?vid=4de55e2f-49d0-4ba6-b495-dd3c4cf3eb8f","ios":"levelo://app?vid=4de55e2f-49d0-4ba6-b495-dd3c4cf3eb8f"},"vehicle_type_id":"4","last_reported":1680447938,"current_range_meters":19200,"station_id":"ce4bhh12rcd13ifvqff0","pricing_plan_id":"free"},{"bike_id":"952773ef-117a-4bd6-b07c-0123ca6f86df","system_id":"levelo_inurba_marseille","lat":43.254945,"lon":5.376454,"is_reserved":false,"is_disabled":false,"rental_uris":{"android":"levelo://app?vid=952773ef-117a-4bd6-b07c-0123ca6f86df","ios":"levelo://app?vid=952773ef-117a-4bd6-b07c-0123ca6f86df"},"vehicle_type_id":"4","last_reported":1680447938,"current_range_meters":26400,"station_id":"ce4bhh12rcd13ifvqff0","pricing_plan_id":"free"},{"bike_id":"d6c87121-ae31-41cf-b7e6-f4486148c9b5","system_id":"levelo_inurba_marseille","lat":43.25444,"lon":5.38086,"is_reserved":false,"is_disabled":false,"rental_uris":{"android":"levelo://app?vid=d6c87121-ae31-41cf-b7e6-f4486148c9b5","ios":"levelo://app?vid=d6c87121-ae31-41cf-b7e6-f4486148c9b5"},"vehicle_type_id":"4","last_reported":1680447938,"current_range_meters":10400,"station_id":"ce4bhgp2rcd13ifvqfc0","pricing_plan_id":"free"},{"bike_id":"2a9fbed7-8c36-4551-bc3e-c09a23551b4f","system_id":"levelo_inurba_marseille","lat":43.25424,"lon":5.38149,"is_reserved":false,"is_disabled":false,"rental_uris":{"android":"levelo://app?vid=2a9fbed7-8c36-4551-bc3e-c09a23551b4f","ios":"levelo://app?vid=2a9fbed7-8c36-4551-bc3e-c09a23551b4f"},"vehicle_type_id":"4","last_reported":1680447938,"current_range_meters":16400,"station_id":"","pricing_plan_id":"free"},{"bike_id":"bfc18991-8eea-4d11-99f8-9237e01ed306","system_id":"levelo_inurba_marseille","lat":43.35289,"lon":5.43667,"is_reserved":false,"is_disabled":false,"rental_uris":{"android":"levelo://app?vid=bfc18991-8eea-4d11-99f8-9237e01ed306","ios":"levelo://app?vid=bfc18991-8eea-4d11-99f8-9237e01ed306"},"vehicle_type_id":"4","last_reported":1680447938,"current_range_meters":16400,"station_id":"","pricing_plan_id":"free"},{"bike_id":"5305dedd-75b2-429e-93f9-56a9eb2ad7b8","system_id":"levelo_inurba_marseille","lat":43.250023,"lon":5.38919,"is_reserved":false,"is_disabled":false,"rental_uris":{"android":"levelo://app?vid=5305dedd-75b2-429e-93f9-56a9eb2ad7b8","ios":"levelo://app?vid=5305dedd-75b2-429e-93f9-56a9eb2ad7b8"},"vehicle_type_id":"4","last_reported":1680447938,"current_range_meters":31200,"station_id":"ce4bhgp2rcd13ifvqfd0","pricing_plan_id":"free"},{"bike_id":"38767ada-a37a-4b85-9344-1ae00d1cdd18","system_id":"levelo_inurba_marseille","lat":43.24693,"lon":5.382096,"is_reserved":false,"is_disabled":false,"rental_uris":{"android":"levelo://app?vid=38767ada-a37a-4b85-9344-1ae00d1cdd18","ios":"levelo://app?vid=38767ada-a37a-4b85-9344-1ae00d1cdd18"},"vehicle_type_id":"4","last_reported":1680447938,"current_range_meters":26800,"station_id":"ce4bhih2rcd13ifvqfr0","pricing_plan_id":"free"},{"bike_id":"aee57630-b6ec-4312-be2c-53011df34ca2","system_id":"levelo_inurba_marseille","lat":43.24693,"lon":5.382096,"is_reserved":false,"is_disabled":false,"rental_uris":{"android":"levelo://app?vid=aee57630-b6ec-4312-be2c-53011df34ca2","ios":"levelo://app?vid=aee57630-b6ec-4312-be2c-53011df34ca2"},"vehicle_type_id":"4","last_reported":1680447938,"current_range_meters":24000,"station_id":"ce4bhih2rcd13ifvqfr0","pricing_plan_id":"free"},{"bike_id":"8ee1274a-61f3-4ec5-b6e5-d071259da2af","system_id":"levelo_inurba_marseille","lat":43.24693,"lon":5.382096,"is_reserved":false,"is_disabled":false,"rental_uris":{"android":"levelo://app?vid=8ee1274a-61f3-4ec5-b6e5-d071259da2af","ios":"levelo://app?vid=8ee1274a-61f3-4ec5-b6e5-d071259da2af"},"vehicle_type_id":"4","last_reported":1680447938,"current_range_meters":10000,"station_id":"ce4bhih2rcd13ifvqfr0","pricing_plan_id":"free"},{"bike_id":"d1c1fb34-04d3-4bd6-ada6-0bb4f2a2f2e3","system_id":"levelo_inurba_marseille","lat":43.25102,"lon":5.403214,"is_reserved":false,"is_disabled":false,"rental_uris":{"android":"levelo://app?vid=d1c1fb34-04d3-4bd6-ada6-0bb4f2a2f2e3","ios":"levelo://app?vid=d1c1fb34-04d3-4bd6-ada6-0bb4f2a2f2e3"},"vehicle_type_id":"4","last_reported":1680447938,"current_range_meters":6800,"station_id":"ce4bhlh2rcd13ifvqgig","pricing_plan_id":"free"},{"bike_id":"e1765cf4-a907-4bdf-8b11-e2c8b11d89c6","system_id":"levelo_inurba_marseille","lat":43.246461,"lon":5.389014,"is_reserved":false,"is_disabled":false,"rental_uris":{"android":"levelo://app?vid=e1765cf4-a907-4bdf-8b11-e2c8b11d89c6","ios":"levelo://app?vid=e1765cf4-a907-4bdf-8b11-e2c8b11d89c6"},"vehicle_type_id":"4","last_reported":1680447938,"current_range_meters":24400,"station_id":"ce4bhg12rcd13ifvqf60","pricing_plan_id":"free"},{"bike_id":"45ceb6c6-32d1-40b8-87b2-271ea5e2aae7","system_id":"levelo_inurba_marseille","lat":43.24391,"lon":5.3707,"is_reserved":false,"is_disabled":false,"rental_uris":{"android":"levelo://app?vid=45ceb6c6-32d1-40b8-87b2-271ea5e2aae7","ios":"levelo://app?vid=45ceb6c6-32d1-40b8-87b2-271ea5e2aae7"},"vehicle_type_id":"4","last_reported":1680447938,"current_range_meters":14000,"station_id":"ce4bhhh2rcd13ifvqfk0","pricing_plan_id":"free"},{"bike_id":"93370887-f3d1-46e5-a260-735719fb5ba6","system_id":"levelo_inurba_marseille","lat":43.243884,"lon":5.370736,"is_reserved":false,"is_disabled":false,"rental_uris":{"android":"levelo://app?vid=93370887-f3d1-46e5-a260-735719fb5ba6","ios":"levelo://app?vid=93370887-f3d1-46e5-a260-735719fb5ba6"},"vehicle_type_id":"4","last_reported":1680447938,"current_range_meters":12400,"station_id":"ce4bhhh2rcd13ifvqfk0","pricing_plan_id":"free"},{"bike_id":"e2034c26-ac4f-4b04-91e6-87555800df46","system_id":"levelo_inurba_marseille","lat":43.240623,"lon":5.377642,"is_reserved":false,"is_disabled":false,"rental_uris":{"android":"levelo://app?vid=e2034c26-ac4f-4b04-91e6-87555800df46","ios":"levelo://app?vid=e2034c26-ac4f-4b04-91e6-87555800df46"},"vehicle_type_id":"4","last_reported":1680447938,"current_range_meters":7200,"station_id":"ce4bhnp2rcd13ifvqgvg","pricing_plan_id":"free"},{"bike_id":"4a49ae46-e88d-479a-8213-c442df56e1ea","system_id":"levelo_inurba_marseille","lat":43.239588,"lon":5.366238,"is_reserved":false,"is_disabled":false,"rental_uris":{"android":"levelo://app?vid=4a49ae46-e88d-479a-8213-c442df56e1ea","ios":"levelo://app?vid=4a49ae46-e88d-479a-8213-c442df56e1ea"},"vehicle_type_id":"4","last_reported":1680447938,"current_range_meters":11200,"station_id":"ce4bhi12rcd13ifvqfp0","pricing_plan_id":"free"},{"bike_id":"f8a6ea7c-b74a-4271-bab3-4d23870e6420","system_id":"levelo_inurba_marseille","lat":43.23965,"lon":5.36625,"is_reserved":false,"is_disabled":false,"rental_uris":{"android":"levelo://app?vid=f8a6ea7c-b74a-4271-bab3-4d23870e6420","ios":"levelo://app?vid=f8a6ea7c-b74a-4271-bab3-4d23870e6420"},"vehicle_type_id":"4","last_reported":1680447938,"current_range_meters":1200,"station_id":"","pricing_plan_id":"free"},{"bike_id":"ee082997-0ed1-4a94-90ff-0fdb45e5d4ed","system_id":"levelo_inurba_marseille","lat":43.239588,"lon":5.366238,"is_reserved":false,"is_disabled":false,"rental_uris":{"android":"levelo://app?vid=ee082997-0ed1-4a94-90ff-0fdb45e5d4ed","ios":"levelo://app?vid=ee082997-0ed1-4a94-90ff-0fdb45e5d4ed"},"vehicle_type_id":"4","last_reported":1680447938,"current_range_meters":22400,"station_id":"ce4bhi12rcd13ifvqfp0","pricing_plan_id":"free"},{"bike_id":"4cc4f563-bb4c-4f0b-8612-794f66a48bd3","system_id":"levelo_inurba_marseille","lat":43.23961,"lon":5.36626,"is_reserved":false,"is_disabled":false,"rental_uris":{"android":"levelo://app?vid=4cc4f563-bb4c-4f0b-8612-794f66a48bd3","ios":"levelo://app?vid=4cc4f563-bb4c-4f0b-8612-794f66a48bd3"},"vehicle_type_id":"4","last_reported":1680447938,"current_range_meters":20000,"station_id":"ce4bhi12rcd13ifvqfp0","pricing_plan_id":"free"},{"bike_id":"bc1ac224-7cc9-4ba4-a16b-5ce215f5b4d4","system_id":"levelo_inurba_marseille","lat":43.241782,"lon":5.397264,"is_reserved":false,"is_disabled":false,"rental_uris":{"android":"levelo://app?vid=bc1ac224-7cc9-4ba4-a16b-5ce215f5b4d4","ios":"levelo://app?vid=bc1ac224-7cc9-4ba4-a16b-5ce215f5b4d4"},"vehicle_type_id":"4","last_reported":1680447938,"current_range_meters":21200,"station_id":"ce4bhn12rcd13ifvqgpg","pricing_plan_id":"free"},{"bike_id":"1b7a694d-affe-4ef7-acb0-0f309f13ef24","system_id":"levelo_inurba_marseille","lat":43.231919,"lon":5.355532,"is_reserved":false,"is_disabled":false,"rental_uris":{"android":"levelo://app?vid=1b7a694d-affe-4ef7-acb0-0f309f13ef24","ios":"levelo://app?vid=1b7a694d-affe-4ef7-acb0-0f309f13ef24"},"vehicle_type_id":"4","last_reported":1680447938,"current_range_meters":9200,"station_id":"ce4bhu92rcd13ifvqi70","pricing_plan_id":"free"},{"bike_id":"bb14a97f-fc10-4642-9298-1002c8dae5e3","system_id":"levelo_inurba_marseille","lat":43.231919,"lon":5.355532,"is_reserved":false,"is_disabled":false,"rental_uris":{"android":"levelo://app?vid=bb14a97f-fc10-4642-9298-1002c8dae5e3","ios":"levelo://app?vid=bb14a97f-fc10-4642-9298-1002c8dae5e3"},"vehicle_type_id":"4","last_reported":1680447938,"current_range_meters":3200,"station_id":"ce4bhu92rcd13ifvqi70","pricing_plan_id":"free"},{"bike_id":"b84ae717-92dc-4abd-83b6-bb5fc440a142","system_id":"levelo_inurba_marseille","lat":43.231919,"lon":5.355532,"is_reserved":false,"is_disabled":false,"rental_uris":{"android":"levelo://app?vid=b84ae717-92dc-4abd-83b6-bb5fc440a142","ios":"levelo://app?vid=b84ae717-92dc-4abd-83b6-bb5fc440a142"},"vehicle_type_id":"4","last_reported":1680447938,"current_range_meters":31600,"station_id":"ce4bhu92rcd13ifvqi70","pricing_plan_id":"free"},{"bike_id":"59be7924-3176-4a5c-ad6f-8688591db6d8","system_id":"levelo_inurba_marseille","lat":43.2319,"lon":5.35555,"is_reserved":false,"is_disabled":false,"rental_uris":{"android":"levelo://app?vid=59be7924-3176-4a5c-ad6f-8688591db6d8","ios":"levelo://app?vid=59be7924-3176-4a5c-ad6f-8688591db6d8"},"vehicle_type_id":"4","last_reported":1680447938,"current_range_meters":2400,"station_id":"ce4bhn12rcd13ifvqgpg","pricing_plan_id":"free"}]}}