{"last_updated":1727122260,"ttl":30,"version":"2.2","data":{"bikes":[{"bike_id":"34e49e59-195f-4e3e-907c-4e46993b2f20","system_id":"levelo_inurba_marseille","lat":43.25079,"lon":5.3952,"is_reserved":false,"is_disabled":false,"rental_uris":{"android":"levelo://app?vid=34e49e59-195f-4e3e-907c-4e46993b2f20","ios":"levelo://app?vid=34e49e59-195f-4e3e-907c-4e46993b2f20"},"vehicle_type_id":"4","last_reported":1727122260,"current_range_meters":37600,"station_id":"ce4bhm12rcd13ifvqgkg","pricing_plan_id":"cebpf4jnsgd1na2vs0mg"},{"bike_id":"3089f3a9-2fac-4bc2-96ac-4303e036ace2","system_id":"levelo_inurba_marseille","lat":43.30308,"lon":5.39209,"is_reserved":false,"is_disabled":false,"rental_uris":{"android":"levelo://app?vid=3089f3a9-2fac-4bc2-96ac-4303e036ace2","ios":"levelo://app?vid=3089f3a9-2fac-4bc2-96ac-4303e036ace2"},"vehicle_type_id":"4","last_reported":1727122260,"current_range_meters":30800,"station_id":"ce4bgkh2rcd13ifvqbk0","pricing_plan_id":"cebpf4jnsgd1na2vs0mg"},{"bike_id":"9218faa6-bed0-49a5-93f8-e77c777d8c04","system_id":"levelo_inurba_marseille","lat":43.32554,"lon":5.41438,"is_reserved":false,"is_disabled":false,"rental_uris":{"android":"levelo://app?vid=9218faa6-bed0-49a5-93f8-e77c777d8c04","ios":"levelo://app?vid=9218faa6-bed0-49a5-93f8-e77c777d8c04"},"vehicle_type_id":"4","last_reported":1727122260,"current_range_meters":26000,"station_id":"ce4bhq12rcd13ifvqhhg","pricing_plan_id":"cebpf4jnsgd1na2vs0mg"},{"bike_id":"82577459-7502-4b90-bdc3-5297bdcfcd2b","system_id":"levelo_inurba_marseille","lat":43.32664,"lon":5.40994,"is_reserved":false,"is_disabled":false,"rental_uris":{"android":"levelo://app?vid=82577459-7502-4b90-bdc3-5297bdcfcd2b","ios":"levelo://app?vid=82577459-7502-4b90-bdc3-5297bdcfcd2b"},"vehicle_type_id":"4","last_reported":1727122260,"current_range_meters":38800,"station_id":"ce4bhpp2rcd13ifvqhgg","pricing_plan_id":"cebpf4jnsgd1na2vs0mg"},{"bike_id":"0b867cf0-0a3a-446c-b669-b298f9278571","system_id":"levelo_inurba_marseille","lat":43.26549,"lon":5.37296,"is_reserved":false,"is_disabled":false,"rental_uris":{"android":"levelo://app?vid=0b867cf0-0a3a-446c-b669-b298f9278571","ios":"levelo://app?vid=0b867cf0-0a3a-446c-b669-b298f9278571"},"vehicle_type_id":"4","last_reported":1727122260,"current_range_meters":38800,"station_id":"ce4bhg12rcd13ifvqf70","pricing_plan_id":"cebpf4jnsgd1na2vs0mg"},{"bike_id":"5f0b1244-d634-4717-ab1d-dd6db718fb6d","system_id":"levelo_inurba_marseille","lat":43.30815,"lon":5.43574,"is_reserved":false,"is_disabled":false,"rental_uris":{"android":"levelo://app?vid=5f0b1244-d634-4717-ab1d-dd6db718fb6d","ios":"levelo://app?vid=5f0b1244-d634-4717-ab1d-dd6db718fb6d"},"vehicle_type_id":"4","last_reported":1727122260,"current_range_meters":38000,"station_id":"ce4bhph2rcd13ifvqheg","pricing_plan_id":"cebpf4jnsgd1na2vs0mg"},{"bike_id":"195f0389-8525-419d-b9b7-07f958b4f1d0","system_id":"levelo_inurba_marseille","lat":43.30881,"lon":5.39646,"is_reserved":false,"is_disabled":false,"rental_uris":{"android":"levelo://app?vid=195f0389-8525-419d-b9b7-07f958b4f1d0","ios":"levelo://app?vid=195f0389-8525-419d-b9b7-07f958b4f1d0"},"vehicle_type_id":"4","last_reported":1727122260,"current_range_meters":27600,"station_id":"ce4bh012rcd13ifvqcv0","pricing_plan_id":"cebpf4jnsgd1na2vs0mg"},{"bike_id":"00d406b3-546b-4aa8-95c0-ccb16c4c312c","system_id":"levelo_inurba_marseille","lat":43.29961,"lon":5.3717,"is_reserved":false,"is_disabled":false,"rental_uris":{"android":"levelo://app?vid=00d406b3-546b-4aa8-95c0-ccb16c4c312c","ios":"levelo://app?vid=00d406b3-546b-4aa8-95c0-ccb16c4c312c"},"vehicle_type_id":"4","last_reported":1727122260,"current_range_meters":12800,"station_id":"ce4bgr92rcd13ifvqc7g","pricing_plan_id":"cebpf4jnsgd1na2vs0mg"},{"bike_id":"499c0ced-b967-420d-8de7-21ec3fc392a9","system_id":"levelo_inurba_marseille","lat":43.31313,"lon":5.39677,"is_reserved":false,"is_disabled":false,"rental_uris":{"android":"levelo://app?vid=499c0ced-b967-420d-8de7-21ec3fc392a9","ios":"levelo://app?vid=499c0ced-b967-420d-8de7-21ec3fc392a9"},"vehicle_type_id":"4","last_reported":1727122260,"current_range_meters":25200,"station_id":"ce4bgvp2rcd13ifvqcu0","pricing_plan_id":"cebpf4jnsgd1na2vs0mg"},{"bike_id":"c8640b59-7eca-4e49-a736-4505b92487e7","system_id":"levelo_inurba_marseille","lat":43.28035,"lon":5.36964,"is_reserved":false,"is_disabled":false,"rental_uris":{"android":"levelo://app?vid=c8640b59-7eca-4e49-a736-4505b92487e7","ios":"levelo://app?vid=c8640b59-7eca-4e49-a736-4505b92487e7"},"vehicle_type_id":"4","last_reported":1727122260,"current_range_meters":32800,"station_id":"ce4bha12rcd13ifvqef0","pricing_plan_id":"cebpf4jnsgd1na2vs0mg"},{"bike_id":"8a36b205-5d39-425b-9431-3cbfd0b04638","system_id":"levelo_inurba_marseille","lat":43.31708,"lon":5.43709,"is_reserved":false,"is_disabled":false,"rental_uris":{"android":"levelo://app?vid=8a36b205-5d39-425b-9431-3cbfd0b04638","ios":"levelo://app?vid=8a36b205-5d39-425b-9431-3cbfd0b04638"},"vehicle_type_id":"4","last_reported":1727122260,"current_range_meters":12400,"station_id":"ce4bhp92rcd13ifvqhcg","pricing_plan_id":"cebpf4jnsgd1na2vs0mg"},{"bike_id":"f2e686c9-cdca-41ad-b343-e88af811b23d","system_id":"levelo_inurba_marseille","lat":43.30321,"lon":5.39495,"is_reserved":false,"is_disabled":false,"rental_uris":{"android":"levelo://app?vid=f2e686c9-cdca-41ad-b343-e88af811b23d","ios":"levelo://app?vid=f2e686c9-cdca-41ad-b343-e88af811b23d"},"vehicle_type_id":"4","last_reported":1727122260,"current_range_meters":19600,"station_id":"ce4bh0p2rcd13ifvqd70","pricing_plan_id":"cebpf4jnsgd1na2vs0mg"},{"bike_id":"c44a2d1f-0e1f-4194-afa0-989e14768908","system_id":"levelo_inurba_marseille","lat":43.31714,"lon":5.37741,"is_reserved":false,"is_disabled":false,"rental_uris":{"android":"levelo://app?vid=c44a2d1f-0e1f-4194-afa0-989e14768908","ios":"levelo://app?vid=c44a2d1f-0e1f-4194-afa0-989e14768908"},"vehicle_type_id":"4","last_reported":1727122260,"current_range_meters":38800,"station_id":"ce4bgth2rcd13ifvqch0","pricing_plan_id":"cebpf4jnsgd1na2vs0mg"},{"bike_id":"107c306b-c550-43fe-bd56-3f7464a6de7d","system_id":"levelo_inurba_marseille","lat":43.304321,"lon":5.397388,"is_reserved":false,"is_disabled":false,"rental_uris":{"android":"levelo://app?vid=107c306b-c550-43fe-bd56-3f7464a6de7d","ios":"levelo://app?vid=107c306b-c550-43fe-bd56-3f7464a6de7d"},"vehicle_type_id":"4","last_reported":1727122260,"current_range_meters":14400,"station_id":"ce4bh092rcd13ifvqd20","pricing_plan_id":"cebpf4jnsgd1na2vs0mg"},{"bike_id":"20a042f1-81aa-4cde-8548-4f002e395336","system_id":"levelo_inurba_marseille","lat":43.3106,"lon":5.4009,"is_reserved":false,"is_disabled":false,"rental_uris":{"android":"levelo://app?vid=20a042f1-81aa-4cde-8548-4f002e395336","ios":"levelo://app?vid=20a042f1-81aa-4cde-8548-4f002e395336"},"vehicle_type_id":"4","last_reported":1727122260,"current_range_meters":27600,"station_id":"ce4bgvp2rcd13ifvqct0","pricing_plan_id":"cebpf4jnsgd1na2vs0mg"},{"bike_id":"9597d525-0781-478f-b129-3a57a63e5893","system_id":"levelo_inurba_marseille","lat":43.32369,"lon":5.38885,"is_reserved":false,"is_disabled":false,"rental_uris":{"android":"levelo://app?vid=9597d525-0781-478f-b129-3a57a63e5893","ios":"levelo://app?vid=9597d525-0781-478f-b129-3a57a63e5893"},"vehicle_type_id":"4","last_reported":1727122260,"current_range_meters":8400,"station_id":"ce4bhqp2rcd13ifvqhog","pricing_plan_id":"cebpf4jnsgd1na2vs0mg"},{"bike_id":"0155a995-db13-4df1-a076-dc5ac787861a","system_id":"levelo_inurba_marseille","lat":43.2903,"lon":5.38645,"is_reserved":false,"is_disabled":false,"rental_uris":{"android":"levelo://app?vid=0155a995-db13-4df1-a076-dc5ac787861a","ios":"levelo://app?vid=0155a995-db13-4df1-a076-dc5ac787861a"},"vehicle_type_id":"4","last_reported":1727122260,"current_range_meters":38400,"station_id":"ce4bh4p2rcd13ifvqe0g","pricing_plan_id":"cebpf4jnsgd1na2vs0mg"},{"bike_id":"8422990e-8823-4d96-af43-839cc39d19a0","system_id":"levelo_inurba_marseille","lat":43.27074,"lon":5.42285,"is_reserved":false,"is_disabled":false,"rental_uris":{"android":"levelo://app?vid=8422990e-8823-4d96-af43-839cc39d19a0","ios":"levelo://app?vid=8422990e-8823-4d96-af43-839cc39d19a0"},"vehicle_type_id":"4","last_reported":1727122260,"current_range_meters":38800,"station_id":"ce4bhk92rcd13ifvqgb0","pricing_plan_id":"cebpf4jnsgd1na2vs0mg"},{"bike_id":"55f2a712-941e-4f18-8bbc-b9d9754a641f","system_id":"levelo_inurba_marseille","lat":43.32306,"lon":5.38535,"is_reserved":false,"is_disabled":false,"rental_uris":{"android":"levelo://app?vid=55f2a712-941e-4f18-8bbc-b9d9754a641f","ios":"levelo://app?vid=55f2a712-941e-4f18-8bbc-b9d9754a641f"},"vehicle_type_id":"4","last_reported":1727122260,"current_range_meters":21600,"station_id":"","pricing_plan_id":"cebpf4jnsgd1na2vs0mg"},{"bike_id":"af2d724c-ab4c-44e5-8455-2fb06117fdc5","system_id":"levelo_inurba_marseille","lat":43.303811,"lon":5.366833,"is_reserved":false,"is_disabled":false,"rental_uris":{"android":"levelo://app?vid=af2d724c-ab4c-44e5-8455-2fb06117fdc5","ios":"levelo://app?vid=af2d724c-ab4c-44e5-8455-2fb06117fdc5"},"vehicle_type_id":"4","last_reported":1727122260,"current_range_meters":17600,"station_id":"","pricing_plan_id":"cebpf4jnsgd1na2vs0mg"},{"bike_id":"2da6bb34-e6b8-4740-b6ca-62eda5452aec","system_id":"levelo_inurba_marseille","lat":43.25574,"lon":5.38229,"is_reserved":false,"is_disabled":false,"rental_uris":{"android":"levelo://app?vid=2da6bb34-e6b8-4740-b6ca-62eda5452aec","ios":"levelo://app?vid=2da6bb34-e6b8-4740-b6ca-62eda5452aec"},"vehicle_type_id":"4","last_reported":1727122260,"current_range_meters":38800,"station_id":"ce4bhih2rcd13ifvqfs0","pricing_plan_id":"cebpf4jnsgd1na2vs0mg"},{"bike_id":"8ea06fdf-0829-4de0-ad97-8a4d58343f95","system_id":"levelo_inurba_marseille","lat":43.2952,"lon":5.39413,"is_reserved":false,"is_disabled":false,"rental_uris":{"android":"levelo://app?vid=8ea06fdf-0829-4de0-ad97-8a4d58343f95","ios":"levelo://app?vid=8ea06fdf-0829-4de0-ad97-8a4d58343f95"},"vehicle_type_id":"4","last_reported":1727122260,"current_range_meters":25200,"station_id":"ce4bh292rcd13ifvqdf0","pricing_plan_id":"cebpf4jnsgd1na2vs0mg"},{"bike_id":"884b9ac5-c550-4149-bcc3-754920aca7c8","system_id":"levelo_inurba_marseille","lat":43.2836,"lon":5.38645,"is_reserved":false,"is_disabled":false,"rental_uris":{"android":"levelo://app?vid=884b9ac5-c550-4149-bcc3-754920aca7c8","ios":"levelo://app?vid=884b9ac5-c550-4149-bcc3-754920aca7c8"},"vehicle_type_id":"4","last_reported":1727122260,"current_range_meters":38800,"station_id":"ce4bh492rcd13ifvqdvg","pricing_plan_id":"cebpf4jnsgd1na2vs0mg"},{"bike_id":"edd9f561-5010-424f-b5df-12ce2bb400d0","system_id":"levelo_inurba_marseille","lat":43.245361,"lon":5.395248,"is_reserved":false,"is_disabled":false,"rental_uris":{"android":"levelo://app?vid=edd9f561-5010-424f-b5df-12ce2bb400d0","ios":"levelo://app?vid=edd9f561-5010-424f-b5df-12ce2bb400d0"},"vehicle_type_id":"4","last_reported":1727122260,"current_range_meters":3200,"station_id":"ce4bhlp2rcd13ifvqgjg","pricing_plan_id":"cebpf4jnsgd1na2vs0mg"},{"bike_id":"ba398423-104c-4d17-851a-2a8001635d21","system_id":"levelo_inurba_marseille","lat":43.31171,"lon":5.38721,"is_reserved":false,"is_disabled":false,"rental_uris":{"android":"levelo://app?vid=ba398423-104c-4d17-851a-2a8001635d21","ios":"levelo://app?vid=ba398423-104c-4d17-851a-2a8001635d21"},"vehicle_type_id":"4","last_reported":1727122260,"current_range_meters":38800,"station_id":"ce4bgv12rcd13ifvqcp0","pricing_plan_id":"cebpf4jnsgd1na2vs0mg"},{"bike_id":"ff089e92-e1d8-46cc-9121-c5b0576ff68e","system_id":"levelo_inurba_marseille","lat":43.292,"lon":5.39335,"is_reserved":false,"is_disabled":false,"rental_uris":{"android":"levelo://app?vid=ff089e92-e1d8-46cc-9121-c5b0576ff68e","ios":"levelo://app?vid=ff089e92-e1d8-46cc-9121-c5b0576ff68e"},"vehicle_type_id":"4","last_reported":1727122260,"current_range_meters":29600,"station_id":"ce4bh192rcd13ifvqdd0","pricing_plan_id":"cebpf4jnsgd1na2vs0mg"},{"bike_id":"4117225d-fbf7-489f-a9f9-a7903758f15d","system_id":"levelo_inurba_marseille","lat":43.337444,"lon":5.374475,"is_reserved":false,"is_disabled":false,"rental_uris":{"android":"levelo://app?vid=4117225d-fbf7-489f-a9f9-a7903758f15d","ios":"levelo://app?vid=4117225d-fbf7-489f-a9f9-a7903758f15d"},"vehicle_type_id":"4","last_reported":1727122260,"current_range_meters":24800,"station_id":"","pricing_plan_id":"cebpf4jnsgd1na2vs0mg"},{"bike_id":"d0ec4f7a-ac0d-44fa-83b4-aeda2498d0bb","system_id":"levelo_inurba_marseille","lat":43.27918,"lon":5.39581,"is_reserved":false,"is_disabled":false,"rental_uris":{"android":"levelo://app?vid=d0ec4f7a-ac0d-44fa-83b4-aeda2498d0bb","ios":"levelo://app?vid=d0ec4f7a-ac0d-44fa-83b4-aeda2498d0bb"},"vehicle_type_id":"4","last_reported":1727122260,"current_range_meters":36800,"station_id":"ce4bhf92rcd13ifvqf40","pricing_plan_id":"cebpf4jnsgd1na2vs0mg"},{"bike_id":"d3d95288-22a3-477a-8b82-3d450f6a1bbc","system_id":"levelo_inurba_marseille","lat":43.28716,"lon":5.36105,"is_reserved":false,"is_disabled":false,"rental_uris":{"android":"levelo://app?vid=d3d95288-22a3-477a-8b82-3d450f6a1bbc","ios":"levelo://app?vid=d3d95288-22a3-477a-8b82-3d450f6a1bbc"},"vehicle_type_id":"4","last_reported":1727122260,"current_range_meters":7200,"station_id":"cki0cbj6b192h4jlfktg","pricing_plan_id":"cebpf4jnsgd1na2vs0mg"},{"bike_id":"a1e6c73d-635c-4d18-aa26-00d9d8e42282","system_id":"levelo_inurba_marseille","lat":43.31229,"lon":5.36869,"is_reserved":false,"is_disabled":false,"rental_uris":{"android":"levelo://app?vid=a1e6c73d-635c-4d18-aa26-00d9d8e42282","ios":"levelo://app?vid=a1e6c73d-635c-4d18-aa26-00d9d8e42282"},"vehicle_type_id":"4","last_reported":1727122260,"current_range_meters":27200,"station_id":"ce4bgl92rcd13ifvqbq0","pricing_plan_id":"cebpf4jnsgd1na2vs0mg"},{"bike_id":"bc237068-ae3f-442c-859d-d94198177623","system_id":"levelo_inurba_marseille","lat":43.29308,"lon":5.37461,"is_reserved":false,"is_disabled":false,"rental_uris":{"android":"levelo://app?vid=bc237068-ae3f-442c-859d-d94198177623","ios":"levelo://app?vid=bc237068-ae3f-442c-859d-d94198177623"},"vehicle_type_id":"4","last_reported":1727122260,"current_range_meters":38400,"station_id":"ce4bgi12rcd13ifvqb70","pricing_plan_id":"cebpf4jnsgd1na2vs0mg"},{"bike_id":"a697c666-c7db-4dd0-93e0-cd3cdc25783c","system_id":"levelo_inurba_marseille","lat":43.32655,"lon":5.40999,"is_reserved":false,"is_disabled":false,"rental_uris":{"android":"levelo://app?vid=a697c666-c7db-4dd0-93e0-cd3cdc25783c","ios":"levelo://app?vid=a697c666-c7db-4dd0-93e0-cd3cdc25783c"},"vehicle_type_id":"4","last_reported":1727122260,"current_range_meters":38800,"station_id":"ce4bhpp2rcd13ifvqhgg","pricing_plan_id":"cebpf4jnsgd1na2vs0mg"},{"bike_id":"8cf8eddb-e442-47b0-9c45-6088c76a1438","system_id":"levelo_inurba_marseille","lat":43.31756,"lon":5.39015,"is_reserved":false,"is_disabled":false,"rental_uris":{"android":"levelo://app?vid=8cf8eddb-e442-47b0-9c45-6088c76a1438","ios":"levelo://app?vid=8cf8eddb-e442-47b0-9c45-6088c76a1438"},"vehicle_type_id":"4","last_reported":1727122260,"current_range_meters":38400,"station_id":"ce4bhqp2rcd13ifvqhng","pricing_plan_id":"cebpf4jnsgd1na2vs0mg"},{"bike_id":"96a83bfe-c6b5-4256-89b6-ec36bdfaf970","system_id":"levelo_inurba_marseille","lat":43.26938,"lon":5.40256,"is_reserved":false,"is_disabled":false,"rental_uris":{"android":"levelo://app?vid=96a83bfe-c6b5-4256-89b6-ec36bdfaf970","ios":"levelo://app?vid=96a83bfe-c6b5-4256-89b6-ec36bdfaf970"},"vehicle_type_id":"4","last_reported":1727122260,"current_range_meters":24000,"station_id":"cjm6bp8fraef2m0cb0m0","pricing_plan_id":"cebpf4jnsgd1na2vs0mg"},{"bike_id":"8468b284-e894-48a8-aff7-8e3fc3e578b4","system_id":"levelo_inurba_marseille","lat":43.289978,"lon":5.386995,"is_reserved":false,"is_disabled":false,"rental_uris":{"android":"levelo://app?vid=8468b284-e894-48a8-aff7-8e3fc3e578b4","ios":"levelo://app?vid=8468b284-e894-48a8-aff7-8e3fc3e578b4"},"vehicle_type_id":"4","last_reported":1727122260,"current_range_meters":16400,"station_id":"","pricing_plan_id":"cebpf4jnsgd1na2vs0mg"},{"bike_id":"037cd850-4dca-473a-8242-3948fa9c8e2c","system_id":"levelo_inurba_marseille","lat":43.31109,"lon":5.37772,"is_reserved":false,"is_disabled":false,"rental_uris":{"android":"levelo://app?vid=037cd850-4dca-473a-8242-3948fa9c8e2c","ios":"levelo://app?vid=037cd850-4dca-473a-8242-3948fa9c8e2c"},"vehicle_type_id":"4","last_reported":1727122260,"current_range_meters":38800,"station_id":"ce4bgt92rcd13ifvqcg0","pricing_plan_id":"cebpf4jnsgd1na2vs0mg"},{"bike_id":"67f25e71-d398-4629-b141-dc877cec4c4c","system_id":"levelo_inurba_marseille","lat":43.26017,"lon":5.37588,"is_reserved":false,"is_disabled":false,"rental_uris":{"android":"levelo://app?vid=67f25e71-d398-4629-b141-dc877cec4c4c","ios":"levelo://app?vid=67f25e71-d398-4629-b141-dc877cec4c4c"},"vehicle_type_id":"4","last_reported":1727122260,"current_range_meters":7200,"station_id":"ce4bhgh2rcd13ifvqfa0","pricing_plan_id":"cebpf4jnsgd1na2vs0mg"},{"bike_id":"9f6c6812-05fc-41b5-8f41-e80c597dd715","system_id":"levelo_inurba_marseille","lat":43.25575,"lon":5.38238,"is_reserved":false,"is_disabled":false,"rental_uris":{"android":"levelo://app?vid=9f6c6812-05fc-41b5-8f41-e80c597dd715","ios":"levelo://app?vid=9f6c6812-05fc-41b5-8f41-e80c597dd715"},"vehicle_type_id":"4","last_reported":1727122260,"current_range_meters":38000,"station_id":"ce4bhih2rcd13ifvqfs0","pricing_plan_id":"cebpf4jnsgd1na2vs0mg"},{"bike_id":"a41f78ca-c56e-4015-a153-aa8c5ee44fd7","system_id":"levelo_inurba_marseille","lat":43.31072,"lon":5.38348,"is_reserved":false,"is_disabled":false,"rental_uris":{"android":"levelo://app?vid=a41f78ca-c56e-4015-a153-aa8c5ee44fd7","ios":"levelo://app?vid=a41f78ca-c56e-4015-a153-aa8c5ee44fd7"},"vehicle_type_id":"4","last_reported":1727122260,"current_range_meters":38800,"station_id":"ce4bgv92rcd13ifvqcr0","pricing_plan_id":"cebpf4jnsgd1na2vs0mg"},{"bike_id":"d171a2b3-6372-4af1-8a11-5061d298d43a","system_id":"levelo_inurba_marseille","lat":43.31118,"lon":5.37764,"is_reserved":false,"is_disabled":false,"rental_uris":{"android":"levelo://app?vid=d171a2b3-6372-4af1-8a11-5061d298d43a","ios":"levelo://app?vid=d171a2b3-6372-4af1-8a11-5061d298d43a"},"vehicle_type_id":"4","last_reported":1727122260,"current_range_meters":38800,"station_id":"ce4bgt92rcd13ifvqcg0","pricing_plan_id":"cebpf4jnsgd1na2vs0mg"},{"bike_id":"5a1521a8-5072-4ef0-818c-b1a7c293acca","system_id":"levelo_inurba_marseille","lat":43.26549,"lon":5.37287,"is_reserved":false,"is_disabled":false,"rental_uris":{"android":"levelo://app?vid=5a1521a8-5072-4ef0-818c-b1a7c293acca","ios":"levelo://app?vid=5a1521a8-5072-4ef0-818c-b1a7c293acca"},"vehicle_type_id":"4","last_reported":1727122260,"current_range_meters":39200,"station_id":"ce4bhg12rcd13ifvqf70","pricing_plan_id":"cebpf4jnsgd1na2vs0mg"},{"bike_id":"1a108c67-bfd6-4ec1-bbd7-f904000be4ea","system_id":"levelo_inurba_marseille","lat":43.28722,"lon":5.36084,"is_reserved":false,"is_disabled":false,"rental_uris":{"android":"levelo://app?vid=1a108c67-bfd6-4ec1-bbd7-f904000be4ea","ios":"levelo://app?vid=1a108c67-bfd6-4ec1-bbd7-f904000be4ea"},"vehicle_type_id":"4","last_reported":1727122260,"current_range_meters":18800,"station_id":"cki0cbj6b192h4jlfktg","pricing_plan_id":"cebpf4jnsgd1na2vs0mg"},{"bike_id":"2d47d9ef-ddfa-41da-88c1-6cc4349377d1","system_id":"levelo_inurba_marseille","lat":43.33025,"lon":5.39046,"is_reserved":false,"is_disabled":false,"rental_uris":{"android":"levelo://app?vid=2d47d9ef-ddfa-41da-88c1-6cc4349377d1","ios":"levelo://app?vid=2d47d9ef-ddfa-41da-88c1-6cc4349377d1"},"vehicle_type_id":"4","last_reported":1727122260,"current_range_meters":22800,"station_id":"ce4bhr92rcd13ifvqhrg","pricing_plan_id":"cebpf4jnsgd1na2vs0mg"},{"bike_id":"3ebaaaec-15d2-494c-ab9e-13e8bcbe1874","system_id":"levelo_inurba_marseille","lat":43.29276,"lon":5.3686,"is_reserved":false,"is_disabled":false,"rental_uris":{"android":"levelo://app?vid=3ebaaaec-15d2-494c-ab9e-13e8bcbe1874","ios":"levelo://app?vid=3ebaaaec-15d2-494c-ab9e-13e8bcbe1874"},"vehicle_type_id":"4","last_reported":1727122260,"current_range_meters":28800,"station_id":"ce4bhbp2rcd13ifvqesg","pricing_plan_id":"cebpf4jnsgd1na2vs0mg"},{"bike_id":"0acb8fda-8c8b-45d6-a605-e76d40778e66","system_id":"levelo_inurba_marseille","lat":43.28458,"lon":5.35895,"is_reserved":false,"is_disabled":false,"rental_uris":{"android":"levelo://app?vid=0acb8fda-8c8b-45d6-a605-e76d40778e66","ios":"levelo://app?vid=0acb8fda-8c8b-45d6-a605-e76d40778e66"},"vehicle_type_id":"4","last_reported":1727122260,"current_range_meters":36000,"station_id":"ce4bhah2rcd13ifvqei0","pricing_plan_id":"cebpf4jnsgd1na2vs0mg"},{"bike_id":"84bfa327-5931-4fe5-98dd-b4cee613801e","system_id":"levelo_inurba_marseille","lat":43.28677,"lon":5.38654,"is_reserved":false,"is_disabled":false,"rental_uris":{"android":"levelo://app?vid=84bfa327-5931-4fe5-98dd-b4cee613801e","ios":"levelo://app?vid=84bfa327-5931-4fe5-98dd-b4cee613801e"},"vehicle_type_id":"4","last_reported":1727122260,"current_range_meters":38800,"station_id":"ce4bh492rcd13ifvqdug","pricing_plan_id":"cebpf4jnsgd1na2vs0mg"},{"bike_id":"57be9e58-b1b2-43d9-9f58-d16597d1070b","system_id":"levelo_inurba_marseille","lat":43.28692,"lon":5.37386,"is_reserved":false,"is_disabled":false,"rental_uris":{"android":"levelo://app?vid=57be9e58-b1b2-43d9-9f58-d16597d1070b","ios":"levelo://app?vid=57be9e58-b1b2-43d9-9f58-d16597d1070b"},"vehicle_type_id":"4","last_reported":1727122260,"current_range_meters":36400,"station_id":"ce4bh3p2rcd13ifvqdq0","pricing_plan_id":"cebpf4jnsgd1na2vs0mg"},{"bike_id":"243acbb2-b7c1-4cd9-af3a-99bdf9b601de","system_id":"levelo_inurba_marseille","lat":43.30639,"lon":5.40085,"is_reserved":false,"is_disabled":false,"rental_uris":{"android":"levelo://app?vid=243acbb2-b7c1-4cd9-af3a-99bdf9b601de","ios":"levelo://app?vid=243acbb2-b7c1-4cd9-af3a-99bdf9b601de"},"vehicle_type_id":"4","last_reported":1727122260,"current_range_meters":12800,"station_id":"ce4bh112rcd13ifvqda0","pricing_plan_id":"cebpf4jnsgd1na2vs0mg"},{"bike_id":"61bd236a-fb12-4a4b-98e9-490ae0b82a81","system_id":"levelo_inurba_marseille","lat":43.27911,"lon":5.39585,"is_reserved":false,"is_disabled":false,"rental_uris":{"android":"levelo://app?vid=61bd236a-fb12-4a4b-98e9-490ae0b82a81","ios":"levelo://app?vid=61bd236a-fb12-4a4b-98e9-490ae0b82a81"},"vehicle_type_id":"4","last_reported":1727122260,"current_range_meters":24400,"station_id":"ce4bhf92rcd13ifvqf40","pricing_plan_id":"cebpf4jnsgd1na2vs0mg"},{"bike_id":"42ab4af4-d339-4d57-8a34-8534ea0f5417","system_id":"levelo_inurba_marseille","lat":43.27953,"lon":5.41046,"is_reserved":false,"is_disabled":false,"rental_uris":{"android":"levelo://app?vid=42ab4af4-d339-4d57-8a34-8534ea0f5417","ios":"levelo://app?vid=42ab4af4-d339-4d57-8a34-8534ea0f5417"},"vehicle_type_id":"4","last_reported":1727122260,"current_range_meters":20400,"station_id":"ce4bhnp2rcd13ifvqh0g","pricing_plan_id":"cebpf4jnsgd1na2vs0mg"},{"bike_id":"666624a4-1ff9-40c1-90cd-a2413de224c1","system_id":"levelo_inurba_marseille","lat":43.27918,"lon":5.39583,"is_reserved":false,"is_disabled":false,"rental_uris":{"android":"levelo://app?vid=666624a4-1ff9-40c1-90cd-a2413de224c1","ios":"levelo://app?vid=666624a4-1ff9-40c1-90cd-a2413de224c1"},"vehicle_type_id":"4","last_reported":1727122260,"current_range_meters":8400,"station_id":"ce4bhf92rcd13ifvqf40","pricing_plan_id":"cebpf4jnsgd1na2vs0mg"},{"bike_id":"0cb8c4b0-1273-4f3e-aab6-5eb1884f16bc","system_id":"levelo_inurba_marseille","lat":43.299652,"lon":5.37485,"is_reserved":false,"is_disabled":false,"rental_uris":{"android":"levelo://app?vid=0cb8c4b0-1273-4f3e-aab6-5eb1884f16bc","ios":"levelo://app?vid=0cb8c4b0-1273-4f3e-aab6-5eb1884f16bc"},"vehicle_type_id":"4","last_reported":1727122260,"current_range_meters":15200,"station_id":"ce4bh2h2rcd13ifvqdh0","pricing_plan_id":"cebpf4jnsgd1na2vs0mg"},{"bike_id":"e9bb7b88-fe51-4545-b375-83c4c96ce4c6","system_id":"levelo_inurba_marseille","lat":43.30144,"lon":5.39855,"is_reserved":false,"is_disabled":false,"rental_uris":{"android":"levelo://app?vid=e9bb7b88-fe51-4545-b375-83c4c96ce4c6","ios":"levelo://app?vid=e9bb7b88-fe51-4545-b375-83c4c96ce4c6"},"vehicle_type_id":"4","last_reported":1727122260,"current_range_meters":11200,"station_id":"ce4bh0h2rcd13ifvqd40","pricing_plan_id":"cebpf4jnsgd1na2vs0mg"},{"bike_id":"695aad5b-d024-4f0e-ae46-a715fe638d1f","system_id":"levelo_inurba_marseille","lat":43.30884,"lon":5.39655,"is_reserved":false,"is_disabled":false,"rental_uris":{"android":"levelo://app?vid=695aad5b-d024-4f0e-ae46-a715fe638d1f","ios":"levelo://app?vid=695aad5b-d024-4f0e-ae46-a715fe638d1f"},"vehicle_type_id":"4","last_reported":1727122260,"current_range_meters":30400,"station_id":"ce4bh012rcd13ifvqcv0","pricing_plan_id":"cebpf4jnsgd1na2vs0mg"},{"bike_id":"36c416da-9158-44af-aa3a-06b103bea7bf","system_id":"levelo_inurba_marseille","lat":43.337444,"lon":5.374475,"is_reserved":false,"is_disabled":false,"rental_uris":{"android":"levelo://app?vid=36c416da-9158-44af-aa3a-06b103bea7bf","ios":"levelo://app?vid=36c416da-9158-44af-aa3a-06b103bea7bf"},"vehicle_type_id":"4","last_reported":1727122260,"current_range_meters":22400,"station_id":"","pricing_plan_id":"cebpf4jnsgd1na2vs0mg"},{"bike_id":"68febfdd-1c39-499a-9a15-645963772bb9","system_id":"levelo_inurba_marseille","lat":43.29781,"lon":5.37296,"is_reserved":false,"is_disabled":false,"rental_uris":{"android":"levelo://app?vid=68febfdd-1c39-499a-9a15-645963772bb9","ios":"levelo://app?vid=68febfdd-1c39-499a-9a15-645963772bb9"},"vehicle_type_id":"4","last_reported":1727122260,"current_range_meters":17200,"station_id":"","pricing_plan_id":"cebpf4jnsgd1na2vs0mg"},{"bike_id":"705754a9-8db5-4905-a726-ce16bab725f2","system_id":"levelo_inurba_marseille","lat":43.28728,"lon":5.3608,"is_reserved":false,"is_disabled":false,"rental_uris":{"android":"levelo://app?vid=705754a9-8db5-4905-a726-ce16bab725f2","ios":"levelo://app?vid=705754a9-8db5-4905-a726-ce16bab725f2"},"vehicle_type_id":"4","last_reported":1727122260,"current_range_meters":4000,"station_id":"cki0cbj6b192h4jlfktg","pricing_plan_id":"cebpf4jnsgd1na2vs0mg"},{"bike_id":"d514fc91-4438-4236-8770-7a84af21cbab","system_id":"levelo_inurba_marseille","lat":43.26555,"lon":5.37286,"is_reserved":false,"is_disabled":false,"rental_uris":{"android":"levelo://app?vid=d514fc91-4438-4236-8770-7a84af21cbab","ios":"levelo://app?vid=d514fc91-4438-4236-8770-7a84af21cbab"},"vehicle_type_id":"4","last_reported":1727122260,"current_range_meters":37600,"station_id":"ce4bhg12rcd13ifvqf70","pricing_plan_id":"cebpf4jnsgd1na2vs0mg"},{"bike_id":"8b71f704-7b9a-430f-bacd-8e6c45ee02b1","system_id":"levelo_inurba_marseille","lat":43.29898,"lon":5.43679,"is_reserved":false,"is_disabled":false,"rental_uris":{"android":"levelo://app?vid=8b71f704-7b9a-430f-bacd-8e6c45ee02b1","ios":"levelo://app?vid=8b71f704-7b9a-430f-bacd-8e6c45ee02b1"},"vehicle_type_id":"4","last_reported":1727122260,"current_range_meters":28400,"station_id":"ce4bhpp2rcd13ifvqhfg","pricing_plan_id":"cebpf4jnsgd1na2vs0mg"},{"bike_id":"ae2cb518-dc3d-4204-839c-ebf3a10a9627","system_id":"levelo_inurba_marseille","lat":43.299,"lon":5.43689,"is_reserved":false,"is_disabled":false,"rental_uris":{"android":"levelo://app?vid=ae2cb518-dc3d-4204-839c-ebf3a10a9627","ios":"levelo://app?vid=ae2cb518-dc3d-4204-839c-ebf3a10a9627"},"vehicle_type_id":"4","last_reported":1727122260,"current_range_meters":8400,"station_id":"ce4bhpp2rcd13ifvqhfg","pricing_plan_id":"cebpf4jnsgd1na2vs0mg"},{"bike_id":"149b26ed-a813-4c7b-873e-974f4887237c","system_id":"levelo_inurba_marseille","lat":43.28669,"lon":5.3635,"is_reserved":false,"is_disabled":false,"rental_uris":{"android":"levelo://app?vid=149b26ed-a813-4c7b-873e-974f4887237c","ios":"levelo://app?vid=149b26ed-a813-4c7b-873e-974f4887237c"},"vehicle_type_id":"4","last_reported":1727122260,"current_range_meters":25200,"station_id":"ce4bhah2rcd13ifvqej0","pricing_plan_id":"cebpf4jnsgd1na2vs0mg"},{"bike_id":"d5f5db2f-2c3d-4046-a044-391b3f72b76d","system_id":"levelo_inurba_marseille","lat":43.32358,"lon":5.38885,"is_reserved":false,"is_disabled":false,"rental_uris":{"android":"levelo://app?vid=d5f5db2f-2c3d-4046-a044-391b3f72b76d","ios":"levelo://app?vid=d5f5db2f-2c3d-4046-a044-391b3f72b76d"},"vehicle_type_id":"4","last_reported":1727122260,"current_range_meters":20000,"station_id":"ce4bhqp2rcd13ifvqhog","pricing_plan_id":"cebpf4jnsgd1na2vs0mg"},{"bike_id":"94576bef-1880-4696-97ad-1a3c62b80871","system_id":"levelo_inurba_marseille","lat":43.31273,"lon":5.40175,"is_reserved":false,"is_disabled":false,"rental_uris":{"android":"levelo://app?vid=94576bef-1880-4696-97ad-1a3c62b80871","ios":"levelo://app?vid=94576bef-1880-4696-97ad-1a3c62b80871"},"vehicle_type_id":"4","last_reported":1727122260,"current_range_meters":19200,"station_id":"ce4bh092rcd13ifvqd30","pricing_plan_id":"cebpf4jnsgd1na2vs0mg"},{"bike_id":"5abf3738-3056-45d0-ad36-b5f63eb6c7bd","system_id":"levelo_inurba_marseille","lat":43.31712,"lon":5.43707,"is_reserved":false,"is_disabled":false,"rental_uris":{"android":"levelo://app?vid=5abf3738-3056-45d0-ad36-b5f63eb6c7bd","ios":"levelo://app?vid=5abf3738-3056-45d0-ad36-b5f63eb6c7bd"},"vehicle_type_id":"4","last_reported":1727122260,"current_range_meters":19600,"station_id":"ce4bhp92rcd13ifvqhcg","pricing_plan_id":"cebpf4jnsgd1na2vs0mg"},{"bike_id":"6e942756-6f8b-4979-89fc-ce9bf3b8c787","system_id":"levelo_inurba_marseille","lat":43.28152,"lon":5.42642,"is_reserved":false,"is_disabled":false,"rental_uris":{"android":"levelo://app?vid=6e942756-6f8b-4979-89fc-ce9bf3b8c787","ios":"levelo://app?vid=6e942756-6f8b-4979-89fc-ce9bf3b8c787"},"vehicle_type_id":"4","last_reported":1727122260,"current_range_meters":9200,"station_id":"ce4bhnh2rcd13ifvqgug","pricing_plan_id":"cebpf4jnsgd1na2vs0mg"},{"bike_id":"ad6dcd37-dd45-4aed-b7e0-83a69504887f","system_id":"levelo_inurba_marseille","lat":43.3111,"lon":5.37775,"is_reserved":false,"is_disabled":false,"rental_uris":{"android":"levelo://app?vid=ad6dcd37-dd45-4aed-b7e0-83a69504887f","ios":"levelo://app?vid=ad6dcd37-dd45-4aed-b7e0-83a69504887f"},"vehicle_type_id":"4","last_reported":1727122260,"current_range_meters":38800,"station_id":"ce4bgt92rcd13ifvqcg0","pricing_plan_id":"cebpf4jnsgd1na2vs0mg"},{"bike_id":"db1de5a4-3e82-4159-b084-9011fd5c09b6","system_id":"levelo_inurba_marseille","lat":43.31233,"lon":5.36871,"is_reserved":false,"is_disabled":false,"rental_uris":{"android":"levelo://app?vid=db1de5a4-3e82-4159-b084-9011fd5c09b6","ios":"levelo://app?vid=db1de5a4-3e82-4159-b084-9011fd5c09b6"},"vehicle_type_id":"4","last_reported":1727122260,"current_range_meters":17600,"station_id":"ce4bgl92rcd13ifvqbq0","pricing_plan_id":"cebpf4jnsgd1na2vs0mg"},{"bike_id":"e1a52084-ba2b-41f8-95d8-e96b0b7f999b","system_id":"levelo_inurba_marseille","lat":43.32655,"lon":5.40999,"is_reserved":false,"is_disabled":false,"rental_uris":{"android":"levelo://app?vid=e1a52084-ba2b-41f8-95d8-e96b0b7f999b","ios":"levelo://app?vid=e1a52084-ba2b-41f8-95d8-e96b0b7f999b"},"vehicle_type_id":"4","last_reported":1727122260,"current_range_meters":17200,"station_id":"ce4bhpp2rcd13ifvqhgg","pricing_plan_id":"cebpf4jnsgd1na2vs0mg"},{"bike_id":"e95a6d02-000e-4fca-b863-939e2223ce5a","system_id":"levelo_inurba_marseille","lat":43.25834,"lon":5.39437,"is_reserved":false,"is_disabled":false,"rental_uris":{"android":"levelo://app?vid=e95a6d02-000e-4fca-b863-939e2223ce5a","ios":"levelo://app?vid=e95a6d02-000e-4fca-b863-939e2223ce5a"},"vehicle_type_id":"4","last_reported":1727122260,"current_range_meters":13600,"station_id":"ce4bhip2rcd13ifvqft0","pricing_plan_id":"cebpf4jnsgd1na2vs0mg"},{"bike_id":"dacf1e9b-3f58-4e12-a92d-b75a6bfe0ec8","system_id":"levelo_inurba_marseille","lat":43.29197,"lon":5.39331,"is_reserved":false,"is_disabled":false,"rental_uris":{"android":"levelo://app?vid=dacf1e9b-3f58-4e12-a92d-b75a6bfe0ec8","ios":"levelo://app?vid=dacf1e9b-3f58-4e12-a92d-b75a6bfe0ec8"},"vehicle_type_id":"4","last_reported":1727122260,"current_range_meters":38400,"station_id":"ce4bh192rcd13ifvqdd0","pricing_plan_id":"cebpf4jnsgd1na2vs0mg"},{"bike_id":"b07123d7-1377-4433-ad21-459392a56837","system_id":"levelo_inurba_marseille","lat":43.29204,"lon":5.39336,"is_reserved":false,"is_disabled":false,"rental_uris":{"android":"levelo://app?vid=b07123d7-1377-4433-ad21-459392a56837","ios":"levelo://app?vid=b07123d7-1377-4433-ad21-459392a56837"},"vehicle_type_id":"4","last_reported":1727122260,"current_range_meters":32400,"station_id":"ce4bh192rcd13ifvqdd0","pricing_plan_id":"cebpf4jnsgd1na2vs0mg"},{"bike_id":"97b7a43b-cedc-4ed1-903e-6243f72dea61","system_id":"levelo_inurba_marseille","lat":43.28456,"lon":5.35889,"is_reserved":false,"is_disabled":false,"rental_uris":{"android":"levelo://app?vid=97b7a43b-cedc-4ed1-903e-6243f72dea61","ios":"levelo://app?vid=97b7a43b-cedc-4ed1-903e-6243f72dea61"},"vehicle_type_id":"4","last_reported":1727122260,"current_range_meters":11600,"station_id":"ce4bhah2rcd13ifvqei0","pricing_plan_id":"cebpf4jnsgd1na2vs0mg"},{"bike_id":"4311ad07-fe17-44e4-8154-398daa141b11","system_id":"levelo_inurba_marseille","lat":43.31176,"lon":5.3872,"is_reserved":false,"is_disabled":false,"rental_uris":{"android":"levelo://app?vid=4311ad07-fe17-44e4-8154-398daa141b11","ios":"levelo://app?vid=4311ad07-fe17-44e4-8154-398daa141b11"},"vehicle_type_id":"4","last_reported":1727122260,"current_range_meters":24400,"station_id":"ce4bgv12rcd13ifvqcp0","pricing_plan_id":"cebpf4jnsgd1na2vs0mg"},{"bike_id":"75b39d17-1227-435a-a40a-c634ce79e184","system_id":"levelo_inurba_marseille","lat":43.28377,"lon":5.38638,"is_reserved":false,"is_disabled":false,"rental_uris":{"android":"levelo://app?vid=75b39d17-1227-435a-a40a-c634ce79e184","ios":"levelo://app?vid=75b39d17-1227-435a-a40a-c634ce79e184"},"vehicle_type_id":"4","last_reported":1727122260,"current_range_meters":26000,"station_id":"ce4bh492rcd13ifvqdvg","pricing_plan_id":"cebpf4jnsgd1na2vs0mg"},{"bike_id":"118c6c57-3f6b-4df6-a589-d569a7829f38","system_id":"levelo_inurba_marseille","lat":43.32543,"lon":5.4144,"is_reserved":false,"is_disabled":false,"rental_uris":{"android":"levelo://app?vid=118c6c57-3f6b-4df6-a589-d569a7829f38","ios":"levelo://app?vid=118c6c57-3f6b-4df6-a589-d569a7829f38"},"vehicle_type_id":"4","last_reported":1727122260,"current_range_meters":22800,"station_id":"ce4bhq12rcd13ifvqhhg","pricing_plan_id":"cebpf4jnsgd1na2vs0mg"},{"bike_id":"80e593fc-7480-466c-a9ef-6d5ddec9f9c5","system_id":"levelo_inurba_marseille","lat":43.3059,"lon":5.37455,"is_reserved":false,"is_disabled":false,"rental_uris":{"android":"levelo://app?vid=80e593fc-7480-466c-a9ef-6d5ddec9f9c5","ios":"levelo://app?vid=80e593fc-7480-466c-a9ef-6d5ddec9f9c5"},"vehicle_type_id":"4","last_reported":1727122260,"current_range_meters":10000,"station_id":"","pricing_plan_id":"cebpf4jnsgd1na2vs0mg"},{"bike_id":"e5746f04-9596-403b-aec0-62ed7fd19d68","system_id":"levelo_inurba_marseille","lat":43.30953,"lon":5.39041,"is_reserved":false,"is_disabled":false,"rental_uris":{"android":"levelo://app?vid=e5746f04-9596-403b-aec0-62ed7fd19d68","ios":"levelo://app?vid=e5746f04-9596-403b-aec0-62ed7fd19d68"},"vehicle_type_id":"4","last_reported":1727122260,"current_range_meters":8800,"station_id":"ce4bgup2rcd13ifvqco0","pricing_plan_id":"cebpf4jnsgd1na2vs0mg"},{"bike_id":"0ad6e46d-684e-4c37-9ca1-54c016170830","system_id":"levelo_inurba_marseille","lat":43.270313,"lon":5.364008,"is_reserved":false,"is_disabled":false,"rental_uris":{"android":"levelo://app?vid=0ad6e46d-684e-4c37-9ca1-54c016170830","ios":"levelo://app?vid=0ad6e46d-684e-4c37-9ca1-54c016170830"},"vehicle_type_id":"4","last_reported":1727122260,"current_range_meters":4800,"station_id":"","pricing_plan_id":"cebpf4jnsgd1na2vs0mg"},{"bike_id":"5233d860-f58e-4e7f-9139-8faba3081bec","system_id":"levelo_inurba_marseille","lat":43.26042,"lon":5.38705,"is_reserved":false,"is_disabled":false,"rental_uris":{"android":"levelo://app?vid=5233d860-f58e-4e7f-9139-8faba3081bec","ios":"levelo://app?vid=5233d860-f58e-4e7f-9139-8faba3081bec"},"vehicle_type_id":"4","last_reported":1727122260,"current_range_meters":8800,"station_id":"","pricing_plan_id":"cebpf4jnsgd1na2vs0mg"},{"bike_id":"58303e57-93a3-4fdc-991c-679ff5c0befe","system_id":"levelo_inurba_marseille","lat":43.28036,"lon":5.36955,"is_reserved":false,"is_disabled":false,"rental_uris":{"android":"levelo://app?vid=58303e57-93a3-4fdc-991c-679ff5c0befe","ios":"levelo://app?vid=58303e57-93a3-4fdc-991c-679ff5c0befe"},"vehicle_type_id":"4","last_reported":1727122260,"current_range_meters":20400,"station_id":"ce4bha12rcd13ifvqef0","pricing_plan_id":"cebpf4jnsgd1na2vs0mg"},{"bike_id":"2ece3bb3-5776-42d8-a3ec-7c3c120df5c0","system_id":"levelo_inurba_marseille","lat":43.29516,"lon":5.3941,"is_reserved":false,"is_disabled":false,"rental_uris":{"android":"levelo://app?vid=2ece3bb3-5776-42d8-a3ec-7c3c120df5c0","ios":"levelo://app?vid=2ece3bb3-5776-42d8-a3ec-7c3c120df5c0"},"vehicle_type_id":"4","last_reported":1727122260,"current_range_meters":38800,"station_id":"ce4bh292rcd13ifvqdf0","pricing_plan_id":"cebpf4jnsgd1na2vs0mg"},{"bike_id":"c0bf08f8-39b8-43bf-8302-ac2a4dd5ad58","system_id":"levelo_inurba_marseille","lat":43.2955,"lon":5.42275,"is_reserved":false,"is_disabled":false,"rental_uris":{"android":"levelo://app?vid=c0bf08f8-39b8-43bf-8302-ac2a4dd5ad58","ios":"levelo://app?vid=c0bf08f8-39b8-43bf-8302-ac2a4dd5ad58"},"vehicle_type_id":"4","last_reported":1727122260,"current_range_meters":26000,"station_id":"ce4bhph2rcd13ifvqhdg","pricing_plan_id":"cebpf4jnsgd1na2vs0mg"},{"bike_id":"ae0da4f4-9468-47e1-b7f3-a229c5724675","system_id":"levelo_inurba_marseille","lat":43.29714,"lon":5.36618,"is_reserved":false,"is_disabled":false,"rental_uris":{"android":"levelo://app?vid=ae0da4f4-9468-47e1-b7f3-a229c5724675","ios":"levelo://app?vid=ae0da4f4-9468-47e1-b7f3-a229c5724675"},"vehicle_type_id":"4","last_reported":1727122260,"current_range_meters":14000,"station_id":"ce4bgn12rcd13ifvqbt0","pricing_plan_id":"cebpf4jnsgd1na2vs0mg"},{"bike_id":"0bbd42ca-5d6a-4f37-905e-48992a9cd523","system_id":"levelo_inurba_marseille","lat":43.26946,"lon":5.38632,"is_reserved":false,"is_disabled":false,"rental_uris":{"android":"levelo://app?vid=0bbd42ca-5d6a-4f37-905e-48992a9cd523","ios":"levelo://app?vid=0bbd42ca-5d6a-4f37-905e-48992a9cd523"},"vehicle_type_id":"4","last_reported":1727122260,"current_range_meters":38800,"station_id":"ce4bhh92rcd13ifvqfh0","pricing_plan_id":"cebpf4jnsgd1na2vs0mg"},{"bike_id":"a263889c-8095-4eb6-8022-728868db3ba6","system_id":"levelo_inurba_marseille","lat":43.24552,"lon":5.39523,"is_reserved":false,"is_disabled":false,"rental_uris":{"android":"levelo://app?vid=a263889c-8095-4eb6-8022-728868db3ba6","ios":"levelo://app?vid=a263889c-8095-4eb6-8022-728868db3ba6"},"vehicle_type_id":"4","last_reported":1727122260,"current_range_meters":13600,"station_id":"ce4bhlp2rcd13ifvqgjg","pricing_plan_id":"cebpf4jnsgd1na2vs0mg"},{"bike_id":"6947ea8f-d2b9-49ee-8857-6f83c40c5438","system_id":"levelo_inurba_marseille","lat":43.29316,"lon":5.37185,"is_reserved":false,"is_disabled":false,"rental_uris":{"android":"levelo://app?vid=6947ea8f-d2b9-49ee-8857-6f83c40c5438","ios":"levelo://app?vid=6947ea8f-d2b9-49ee-8857-6f83c40c5438"},"vehicle_type_id":"4","last_reported":1727122260,"current_range_meters":8800,"station_id":"ce4bgh92rcd13ifvqb40","pricing_plan_id":"cebpf4jnsgd1na2vs0mg"},{"bike_id":"07c14650-ae6a-4e16-ab1f-44817d12d49f","system_id":"levelo_inurba_marseille","lat":43.33021,"lon":5.39041,"is_reserved":false,"is_disabled":false,"rental_uris":{"android":"levelo://app?vid=07c14650-ae6a-4e16-ab1f-44817d12d49f","ios":"levelo://app?vid=07c14650-ae6a-4e16-ab1f-44817d12d49f"},"vehicle_type_id":"4","last_reported":1727122260,"current_range_meters":38800,"station_id":"ce4bhr92rcd13ifvqhrg","pricing_plan_id":"cebpf4jnsgd1na2vs0mg"},{"bike_id":"31b21eee-9ced-4000-91b2-ae4ed366066c","system_id":"levelo_inurba_marseille","lat":43.31328,"lon":5.39687,"is_reserved":false,"is_disabled":false,"rental_uris":{"android":"levelo://app?vid=31b21eee-9ced-4000-91b2-ae4ed366066c","ios":"levelo://app?vid=31b21eee-9ced-4000-91b2-ae4ed366066c"},"vehicle_type_id":"4","last_reported":1727122260,"current_range_meters":28800,"station_id":"ce4bgvp2rcd13ifvqcu0","pricing_plan_id":"cebpf4jnsgd1na2vs0mg"},{"bike_id":"905cbc60-a60c-4721-9845-1765bd2211c4","system_id":"levelo_inurba_marseille","lat":43.28703,"lon":5.37382,"is_reserved":false,"is_disabled":false,"rental_uris":{"android":"levelo://app?vid=905cbc60-a60c-4721-9845-1765bd2211c4","ios":"levelo://app?vid=905cbc60-a60c-4721-9845-1765bd2211c4"},"vehicle_type_id":"4","last_reported":1727122260,"current_range_meters":38400,"station_id":"ce4bh3p2rcd13ifvqdq0","pricing_plan_id":"cebpf4jnsgd1na2vs0mg"},{"bike_id":"f1acd506-a9a7-40b8-9bc9-b7e9133b6497","system_id":"levelo_inurba_marseille","lat":43.27374,"lon":5.36261,"is_reserved":false,"is_disabled":false,"rental_uris":{"android":"levelo://app?vid=f1acd506-a9a7-40b8-9bc9-b7e9133b6497","ios":"levelo://app?vid=f1acd506-a9a7-40b8-9bc9-b7e9133b6497"},"vehicle_type_id":"4","last_reported":1727122260,"current_range_meters":16000,"station_id":"ce4bhbh2rcd13ifvqeo0","pricing_plan_id":"cebpf4jnsgd1na2vs0mg"},{"bike_id":"b465dd82-7321-44d9-8506-f280661f2fc1","system_id":"levelo_inurba_marseille","lat":43.30324,"lon":5.40451,"is_reserved":false,"is_disabled":false,"rental_uris":{"android":"levelo://app?vid=b465dd82-7321-44d9-8506-f280661f2fc1","ios":"levelo://app?vid=b465dd82-7321-44d9-8506-f280661f2fc1"},"vehicle_type_id":"4","last_reported":1727122260,"current_range_meters":7200,"station_id":"ce4bh012rcd13ifvqd10","pricing_plan_id":"cebpf4jnsgd1na2vs0mg"},{"bike_id":"729a7eee-bcf8-4897-b93a-b2ea3ca3b6d1","system_id":"levelo_inurba_marseille","lat":43.23959,"lon":5.36637,"is_reserved":false,"is_disabled":false,"rental_uris":{"android":"levelo://app?vid=729a7eee-bcf8-4897-b93a-b2ea3ca3b6d1","ios":"levelo://app?vid=729a7eee-bcf8-4897-b93a-b2ea3ca3b6d1"},"vehicle_type_id":"4","last_reported":1727122260,"current_range_meters":35200,"station_id":"ce4bhi12rcd13ifvqfp0","pricing_plan_id":"cebpf4jnsgd1na2vs0mg"},{"bike_id":"dfeb7f77-0fb5-479f-a343-1e9d55a24982","system_id":"levelo_inurba_marseille","lat":43.29531,"lon":5.38546,"is_reserved":false,"is_disabled":false,"rental_uris":{"android":"levelo://app?vid=dfeb7f77-0fb5-479f-a343-1e9d55a24982","ios":"levelo://app?vid=dfeb7f77-0fb5-479f-a343-1e9d55a24982"},"vehicle_type_id":"4","last_reported":1727122260,"current_range_meters":17600,"station_id":"ce4bgih2rcd13ifvqba0","pricing_plan_id":"cebpf4jnsgd1na2vs0mg"},{"bike_id":"f746166f-78db-4a12-82d0-ede18a412051","system_id":"levelo_inurba_marseille","lat":43.2656,"lon":5.3901,"is_reserved":false,"is_disabled":false,"rental_uris":{"android":"levelo://app?vid=f746166f-78db-4a12-82d0-ede18a412051","ios":"levelo://app?vid=f746166f-78db-4a12-82d0-ede18a412051"},"vehicle_type_id":"4","last_reported":1727122260,"current_range_meters":38800,"station_id":"ce4bhe12rcd13ifvqf30","pricing_plan_id":"cebpf4jnsgd1na2vs0mg"},{"bike_id":"83a69aeb-9c7d-430d-83ff-1718635f6560","system_id":"levelo_inurba_marseille","lat":43.27697,"lon":5.3889,"is_reserved":false,"is_disabled":false,"rental_uris":{"android":"levelo://app?vid=83a69aeb-9c7d-430d-83ff-1718635f6560","ios":"levelo://app?vid=83a69aeb-9c7d-430d-83ff-1718635f6560"},"vehicle_type_id":"4","last_reported":1727122260,"current_range_meters":35200,"station_id":"ce4bhi12rcd13ifvqfo0","pricing_plan_id":"cebpf4jnsgd1na2vs0mg"},{"bike_id":"02507c8a-f7ec-4e88-86d6-987f221b2f49","system_id":"levelo_inurba_marseille","lat":43.287,"lon":5.37393,"is_reserved":false,"is_disabled":false,"rental_uris":{"android":"levelo://app?vid=02507c8a-f7ec-4e88-86d6-987f221b2f49","ios":"levelo://app?vid=02507c8a-f7ec-4e88-86d6-987f221b2f49"},"vehicle_type_id":"4","last_reported":1727122260,"current_range_meters":7200,"station_id":"ce4bh3p2rcd13ifvqdq0","pricing_plan_id":"cebpf4jnsgd1na2vs0mg"},{"bike_id":"6572dbda-96ab-4bb9-b9ab-197b62214cc8","system_id":"levelo_inurba_marseille","lat":43.28693,"lon":5.39981,"is_reserved":false,"is_disabled":false,"rental_uris":{"android":"levelo://app?vid=6572dbda-96ab-4bb9-b9ab-197b62214cc8","ios":"levelo://app?vid=6572dbda-96ab-4bb9-b9ab-197b62214cc8"},"vehicle_type_id":"4","last_reported":1727122260,"current_range_meters":31200,"station_id":"ce4bho92rcd13ifvqh3g","pricing_plan_id":"cebpf4jnsgd1na2vs0mg"},{"bike_id":"85c19224-407f-4734-a505-b44290a574da","system_id":"levelo_inurba_marseille","lat":43.29516,"lon":5.39042,"is_reserved":false,"is_disabled":false,"rental_uris":{"android":"levelo://app?vid=85c19224-407f-4734-a505-b44290a574da","ios":"levelo://app?vid=85c19224-407f-4734-a505-b44290a574da"},"vehicle_type_id":"4","last_reported":1727122260,"current_range_meters":35200,"station_id":"ce4bh3p2rcd13ifvqdp0","pricing_plan_id":"cebpf4jnsgd1na2vs0mg"},{"bike_id":"715c4804-6a86-4398-98ec-b57358573177","system_id":"levelo_inurba_marseille","lat":43.22929,"lon":5.35374,"is_reserved":false,"is_disabled":false,"rental_uris":{"android":"levelo://app?vid=715c4804-6a86-4398-98ec-b57358573177","ios":"levelo://app?vid=715c4804-6a86-4398-98ec-b57358573177"},"vehicle_type_id":"4","last_reported":1727122260,"current_range_meters":34000,"station_id":"cpo3532slgdg3j2ikp40","pricing_plan_id":"cebpf4jnsgd1na2vs0mg"},{"bike_id":"7ee68eb0-c4b3-4c61-8c9e-5a9ce1d7ca82","system_id":"levelo_inurba_marseille","lat":43.29441,"lon":5.39767,"is_reserved":false,"is_disabled":false,"rental_uris":{"android":"levelo://app?vid=7ee68eb0-c4b3-4c61-8c9e-5a9ce1d7ca82","ios":"levelo://app?vid=7ee68eb0-c4b3-4c61-8c9e-5a9ce1d7ca82"},"vehicle_type_id":"4","last_reported":1727122260,"current_range_meters":36800,"station_id":"ce4bh3h2rcd13ifvqdo0","pricing_plan_id":"cebpf4jnsgd1na2vs0mg"},{"bike_id":"ba2542eb-4a30-47aa-b57a-68ac954d789a","system_id":"levelo_inurba_marseille","lat":43.23185,"lon":5.3556,"is_reserved":false,"is_disabled":false,"rental_uris":{"android":"levelo://app?vid=ba2542eb-4a30-47aa-b57a-68ac954d789a","ios":"levelo://app?vid=ba2542eb-4a30-47aa-b57a-68ac954d789a"},"vehicle_type_id":"4","last_reported":1727122260,"current_range_meters":16800,"station_id":"ce4bhu92rcd13ifvqi70","pricing_plan_id":"cebpf4jnsgd1na2vs0mg"},{"bike_id":"584dd145-0d80-45ef-8a86-7cd87f987213","system_id":"levelo_inurba_marseille","lat":43.292755,"lon":5.368406,"is_reserved":false,"is_disabled":false,"rental_uris":{"android":"levelo://app?vid=584dd145-0d80-45ef-8a86-7cd87f987213","ios":"levelo://app?vid=584dd145-0d80-45ef-8a86-7cd87f987213"},"vehicle_type_id":"4","last_reported":1727122260,"current_range_meters":39200,"station_id":"ce4bh0h2rcd13ifvqd60","pricing_plan_id":"cebpf4jnsgd1na2vs0mg"},{"bike_id":"659b91b7-6dd8-4ec1-9f23-c9ffa2a71178","system_id":"levelo_inurba_marseille","lat":43.31501,"lon":5.37311,"is_reserved":false,"is_disabled":false,"rental_uris":{"android":"levelo://app?vid=659b91b7-6dd8-4ec1-9f23-c9ffa2a71178","ios":"levelo://app?vid=659b91b7-6dd8-4ec1-9f23-c9ffa2a71178"},"vehicle_type_id":"4","last_reported":1727122260,"current_range_meters":38800,"station_id":"ce4bgt12rcd13ifvqcd0","pricing_plan_id":"cebpf4jnsgd1na2vs0mg"},{"bike_id":"76bab56a-8a47-4c2c-a864-d6bb2a624ab4","system_id":"levelo_inurba_marseille","lat":43.312775,"lon":5.401823,"is_reserved":false,"is_disabled":false,"rental_uris":{"android":"levelo://app?vid=76bab56a-8a47-4c2c-a864-d6bb2a624ab4","ios":"levelo://app?vid=76bab56a-8a47-4c2c-a864-d6bb2a624ab4"},"vehicle_type_id":"4","last_reported":1727122260,"current_range_meters":8800,"station_id":"ce4bh092rcd13ifvqd30","pricing_plan_id":"cebpf4jnsgd1na2vs0mg"},{"bike_id":"485ab3db-b9b7-4a12-bfa2-bd41193048e1","system_id":"levelo_inurba_marseille","lat":43.30933,"lon":5.40149,"is_reserved":false,"is_disabled":false,"rental_uris":{"android":"levelo://app?vid=485ab3db-b9b7-4a12-bfa2-bd41193048e1","ios":"levelo://app?vid=485ab3db-b9b7-4a12-bfa2-bd41193048e1"},"vehicle_type_id":"4","last_reported":1727122260,"current_range_meters":12800,"station_id":"ce4bgvp2rcd13ifvqct0","pricing_plan_id":"cebpf4jnsgd1na2vs0mg"},{"bike_id":"2c5228b9-8b0f-4a80-9c17-02dbe75bf871","system_id":"levelo_inurba_marseille","lat":43.30416,"lon":5.41286,"is_reserved":false,"is_disabled":false,"rental_uris":{"android":"levelo://app?vid=2c5228b9-8b0f-4a80-9c17-02dbe75bf871","ios":"levelo://app?vid=2c5228b9-8b0f-4a80-9c17-02dbe75bf871"},"vehicle_type_id":"4","last_reported":1727122260,"current_range_meters":12000,"station_id":"ce4bhop2rcd13ifvqh8g","pricing_plan_id":"cebpf4jnsgd1na2vs0mg"},{"bike_id":"abea49fb-03f3-4625-9895-c62e823120c4","system_id":"levelo_inurba_marseille","lat":43.29274,"lon":5.401353,"is_reserved":false,"is_disabled":false,"rental_uris":{"android":"levelo://app?vid=abea49fb-03f3-4625-9895-c62e823120c4","ios":"levelo://app?vid=abea49fb-03f3-4625-9895-c62e823120c4"},"vehicle_type_id":"4","last_reported":1727122260,"current_range_meters":38400,"station_id":"ce4bh312rcd13ifvqdk0","pricing_plan_id":"cebpf4jnsgd1na2vs0mg"},{"bike_id":"c36d2101-1c2f-45e8-80f6-91513a5424ed","system_id":"levelo_inurba_marseille","lat":43.28374,"lon":5.37856,"is_reserved":false,"is_disabled":false,"rental_uris":{"android":"levelo://app?vid=c36d2101-1c2f-45e8-80f6-91513a5424ed","ios":"levelo://app?vid=c36d2101-1c2f-45e8-80f6-91513a5424ed"},"vehicle_type_id":"4","last_reported":1727122260,"current_range_meters":12800,"station_id":"ce4bha12rcd13ifvqee0","pricing_plan_id":"cebpf4jnsgd1na2vs0mg"},{"bike_id":"ffb8ed44-7cec-4920-9417-92c1838573b4","system_id":"levelo_inurba_marseille","lat":43.31762,"lon":5.37785,"is_reserved":false,"is_disabled":false,"rental_uris":{"android":"levelo://app?vid=ffb8ed44-7cec-4920-9417-92c1838573b4","ios":"levelo://app?vid=ffb8ed44-7cec-4920-9417-92c1838573b4"},"vehicle_type_id":"4","last_reported":1727122260,"current_range_meters":36800,"station_id":"","pricing_plan_id":"cebpf4jnsgd1na2vs0mg"},{"bike_id":"98913b7e-c49f-44af-aecd-0f4ee8a6bf7e","system_id":"levelo_inurba_marseille","lat":43.24807,"lon":5.37463,"is_reserved":false,"is_disabled":false,"rental_uris":{"android":"levelo://app?vid=98913b7e-c49f-44af-aecd-0f4ee8a6bf7e","ios":"levelo://app?vid=98913b7e-c49f-44af-aecd-0f4ee8a6bf7e"},"vehicle_type_id":"4","last_reported":1727122260,"current_range_meters":29600,"station_id":"ce4bhgh2rcd13ifvqfb0","pricing_plan_id":"cebpf4jnsgd1na2vs0mg"},{"bike_id":"5fb540ac-8f91-4336-a127-da844b6c90f9","system_id":"levelo_inurba_marseille","lat":43.23191,"lon":5.35556,"is_reserved":false,"is_disabled":false,"rental_uris":{"android":"levelo://app?vid=5fb540ac-8f91-4336-a127-da844b6c90f9","ios":"levelo://app?vid=5fb540ac-8f91-4336-a127-da844b6c90f9"},"vehicle_type_id":"4","last_reported":1727122260,"current_range_meters":24000,"station_id":"ce4bhu92rcd13ifvqi70","pricing_plan_id":"cebpf4jnsgd1na2vs0mg"},{"bike_id":"145cbcd5-fc67-4b82-b57e-a55874aa762d","system_id":"levelo_inurba_marseille","lat":43.23186,"lon":5.39983,"is_reserved":false,"is_disabled":false,"rental_uris":{"android":"levelo://app?vid=145cbcd5-fc67-4b82-b57e-a55874aa762d","ios":"levelo://app?vid=145cbcd5-fc67-4b82-b57e-a55874aa762d"},"vehicle_type_id":"4","last_reported":1727122260,"current_range_meters":12800,"station_id":"ce4bhn12rcd13ifvqgqg","pricing_plan_id":"cebpf4jnsgd1na2vs0mg"},{"bike_id":"b6de6f0f-81d2-4df7-9878-2a6c01adde46","system_id":"levelo_inurba_marseille","lat":43.30313,"lon":5.40437,"is_reserved":false,"is_disabled":false,"rental_uris":{"android":"levelo://app?vid=b6de6f0f-81d2-4df7-9878-2a6c01adde46","ios":"levelo://app?vid=b6de6f0f-81d2-4df7-9878-2a6c01adde46"},"vehicle_type_id":"4","last_reported":1727122260,"current_range_meters":38800,"station_id":"ce4bh012rcd13ifvqd10","pricing_plan_id":"cebpf4jnsgd1na2vs0mg"},{"bike_id":"1ec9d979-31c8-444b-aabe-92b02e1cfc1d","system_id":"levelo_inurba_marseille","lat":43.34147,"lon":5.40907,"is_reserved":false,"is_disabled":false,"rental_uris":{"android":"levelo://app?vid=1ec9d979-31c8-444b-aabe-92b02e1cfc1d","ios":"levelo://app?vid=1ec9d979-31c8-444b-aabe-92b02e1cfc1d"},"vehicle_type_id":"4","last_reported":1727122260,"current_range_meters":38800,"station_id":"ce4bhqh2rcd13ifvqhlg","pricing_plan_id":"cebpf4jnsgd1na2vs0mg"},{"bike_id":"83fd9215-1a40-4fc5-8044-5c6f52b66032","system_id":"levelo_inurba_marseille","lat":43.29188,"lon":5.35798,"is_reserved":false,"is_disabled":false,"rental_uris":{"android":"levelo://app?vid=83fd9215-1a40-4fc5-8044-5c6f52b66032","ios":"levelo://app?vid=83fd9215-1a40-4fc5-8044-5c6f52b66032"},"vehicle_type_id":"4","last_reported":1727122260,"current_range_meters":38800,"station_id":"ce4bhb12rcd13ifvqel0","pricing_plan_id":"cebpf4jnsgd1na2vs0mg"},{"bike_id":"1d54d1cf-ccaf-4db8-97ac-c3f04a314783","system_id":"levelo_inurba_marseille","lat":43.29538,"lon":5.37502,"is_reserved":false,"is_disabled":false,"rental_uris":{"android":"levelo://app?vid=1d54d1cf-ccaf-4db8-97ac-c3f04a314783","ios":"levelo://app?vid=1d54d1cf-ccaf-4db8-97ac-c3f04a314783"},"vehicle_type_id":"4","last_reported":1727122260,"current_range_meters":32400,"station_id":"ce4bgkp2rcd13ifvqbmg","pricing_plan_id":"cebpf4jnsgd1na2vs0mg"},{"bike_id":"dc176719-f62d-4e09-8c86-94f014388a44","system_id":"levelo_inurba_marseille","lat":43.28374,"lon":5.38643,"is_reserved":false,"is_disabled":false,"rental_uris":{"android":"levelo://app?vid=dc176719-f62d-4e09-8c86-94f014388a44","ios":"levelo://app?vid=dc176719-f62d-4e09-8c86-94f014388a44"},"vehicle_type_id":"4","last_reported":1727122260,"current_range_meters":38800,"station_id":"ce4bh492rcd13ifvqdvg","pricing_plan_id":"cebpf4jnsgd1na2vs0mg"},{"bike_id":"952ef04a-8db9-4927-a99b-652ded863c36","system_id":"levelo_inurba_marseille","lat":43.33599,"lon":5.41037,"is_reserved":false,"is_disabled":false,"rental_uris":{"android":"levelo://app?vid=952ef04a-8db9-4927-a99b-652ded863c36","ios":"levelo://app?vid=952ef04a-8db9-4927-a99b-652ded863c36"},"vehicle_type_id":"4","last_reported":1727122260,"current_range_meters":36400,"station_id":"ce4bhqh2rcd13ifvqhmg","pricing_plan_id":"cebpf4jnsgd1na2vs0mg"},{"bike_id":"b0cc51f5-ea81-4b3f-89c4-2c1e965788ac","system_id":"levelo_inurba_marseille","lat":43.30635,"lon":5.40094,"is_reserved":false,"is_disabled":false,"rental_uris":{"android":"levelo://app?vid=b0cc51f5-ea81-4b3f-89c4-2c1e965788ac","ios":"levelo://app?vid=b0cc51f5-ea81-4b3f-89c4-2c1e965788ac"},"vehicle_type_id":"4","last_reported":1727122260,"current_range_meters":32000,"station_id":"ce4bh112rcd13ifvqda0","pricing_plan_id":"cebpf4jnsgd1na2vs0mg"},{"bike_id":"d57284ff-6c76-4ec6-af75-46933dc94b7e","system_id":"levelo_inurba_marseille","lat":43.3128,"lon":5.40166,"is_reserved":false,"is_disabled":false,"rental_uris":{"android":"levelo://app?vid=d57284ff-6c76-4ec6-af75-46933dc94b7e","ios":"levelo://app?vid=d57284ff-6c76-4ec6-af75-46933dc94b7e"},"vehicle_type_id":"4","last_reported":1727122260,"current_range_meters":38800,"station_id":"ce4bh092rcd13ifvqd30","pricing_plan_id":"cebpf4jnsgd1na2vs0mg"},{"bike_id":"3985d11c-af0a-4e76-820b-ef3ed63957fe","system_id":"levelo_inurba_marseille","lat":43.32364,"lon":5.38888,"is_reserved":false,"is_disabled":false,"rental_uris":{"android":"levelo://app?vid=3985d11c-af0a-4e76-820b-ef3ed63957fe","ios":"levelo://app?vid=3985d11c-af0a-4e76-820b-ef3ed63957fe"},"vehicle_type_id":"4","last_reported":1727122260,"current_range_meters":28000,"station_id":"ce4bhqp2rcd13ifvqhog","pricing_plan_id":"cebpf4jnsgd1na2vs0mg"},{"bike_id":"f0cce526-e2de-4da6-b09d-68979bda1c97","system_id":"levelo_inurba_marseille","lat":43.2869,"lon":5.37389,"is_reserved":false,"is_disabled":false,"rental_uris":{"android":"levelo://app?vid=f0cce526-e2de-4da6-b09d-68979bda1c97","ios":"levelo://app?vid=f0cce526-e2de-4da6-b09d-68979bda1c97"},"vehicle_type_id":"4","last_reported":1727122260,"current_range_meters":9600,"station_id":"ce4bh3p2rcd13ifvqdq0","pricing_plan_id":"cebpf4jnsgd1na2vs0mg"},{"bike_id":"a82e4976-1e63-477f-bd6f-e3c5c04888d6","system_id":"levelo_inurba_marseille","lat":43.29436,"lon":5.39753,"is_reserved":false,"is_disabled":false,"rental_uris":{"android":"levelo://app?vid=a82e4976-1e63-477f-bd6f-e3c5c04888d6","ios":"levelo://app?vid=a82e4976-1e63-477f-bd6f-e3c5c04888d6"},"vehicle_type_id":"4","last_reported":1727122260,"current_range_meters":36800,"station_id":"ce4bh3h2rcd13ifvqdo0","pricing_plan_id":"cebpf4jnsgd1na2vs0mg"},{"bike_id":"37f37a11-85dc-438a-ada9-be88b71deb6a","system_id":"levelo_inurba_marseille","lat":43.29899,"lon":5.43671,"is_reserved":false,"is_disabled":false,"rental_uris":{"android":"levelo://app?vid=37f37a11-85dc-438a-ada9-be88b71deb6a","ios":"levelo://app?vid=37f37a11-85dc-438a-ada9-be88b71deb6a"},"vehicle_type_id":"4","last_reported":1727122260,"current_range_meters":6000,"station_id":"ce4bhpp2rcd13ifvqhfg","pricing_plan_id":"cebpf4jnsgd1na2vs0mg"},{"bike_id":"0170004f-38ad-4ba9-adbd-3ce6dd2ba893","system_id":"levelo_inurba_marseille","lat":43.30933,"lon":5.40149,"is_reserved":false,"is_disabled":false,"rental_uris":{"android":"levelo://app?vid=0170004f-38ad-4ba9-adbd-3ce6dd2ba893","ios":"levelo://app?vid=0170004f-38ad-4ba9-adbd-3ce6dd2ba893"},"vehicle_type_id":"4","last_reported":1727122260,"current_range_meters":38800,"station_id":"ce4bgvp2rcd13ifvqct0","pricing_plan_id":"cebpf4jnsgd1na2vs0mg"},{"bike_id":"1a6dc438-b378-4226-a2cf-11e3018ca659","system_id":"levelo_inurba_marseille","lat":43.31368,"lon":5.38497,"is_reserved":false,"is_disabled":false,"rental_uris":{"android":"levelo://app?vid=1a6dc438-b378-4226-a2cf-11e3018ca659","ios":"levelo://app?vid=1a6dc438-b378-4226-a2cf-11e3018ca659"},"vehicle_type_id":"4","last_reported":1727122260,"current_range_meters":13600,"station_id":"ce4bgt92rcd13ifvqcf0","pricing_plan_id":"cebpf4jnsgd1na2vs0mg"},{"bike_id":"e469d018-5191-43cd-8b2d-586ded2c0a9b","system_id":"levelo_inurba_marseille","lat":43.26192,"lon":5.37455,"is_reserved":false,"is_disabled":false,"rental_uris":{"android":"levelo://app?vid=e469d018-5191-43cd-8b2d-586ded2c0a9b","ios":"levelo://app?vid=e469d018-5191-43cd-8b2d-586ded2c0a9b"},"vehicle_type_id":"4","last_reported":1727122260,"current_range_meters":38800,"station_id":"ce4bhgp2rcd13ifvqfc0","pricing_plan_id":"cebpf4jnsgd1na2vs0mg"},{"bike_id":"3cda9349-2e12-4344-aa0d-37eb925476b4","system_id":"levelo_inurba_marseille","lat":43.30422,"lon":5.41288,"is_reserved":false,"is_disabled":false,"rental_uris":{"android":"levelo://app?vid=3cda9349-2e12-4344-aa0d-37eb925476b4","ios":"levelo://app?vid=3cda9349-2e12-4344-aa0d-37eb925476b4"},"vehicle_type_id":"4","last_reported":1727122260,"current_range_meters":20400,"station_id":"ce4bhop2rcd13ifvqh8g","pricing_plan_id":"cebpf4jnsgd1na2vs0mg"},{"bike_id":"c32c9f99-2785-472b-a64b-1235b0b8e4b2","system_id":"levelo_inurba_marseille","lat":43.23962,"lon":5.36638,"is_reserved":false,"is_disabled":false,"rental_uris":{"android":"levelo://app?vid=c32c9f99-2785-472b-a64b-1235b0b8e4b2","ios":"levelo://app?vid=c32c9f99-2785-472b-a64b-1235b0b8e4b2"},"vehicle_type_id":"4","last_reported":1727122260,"current_range_meters":29600,"station_id":"ce4bhi12rcd13ifvqfp0","pricing_plan_id":"cebpf4jnsgd1na2vs0mg"},{"bike_id":"bd77a9c8-eafb-42c7-8280-250ccfa9c948","system_id":"levelo_inurba_marseille","lat":43.31172,"lon":5.3872,"is_reserved":false,"is_disabled":false,"rental_uris":{"android":"levelo://app?vid=bd77a9c8-eafb-42c7-8280-250ccfa9c948","ios":"levelo://app?vid=bd77a9c8-eafb-42c7-8280-250ccfa9c948"},"vehicle_type_id":"4","last_reported":1727122260,"current_range_meters":36000,"station_id":"ce4bgv12rcd13ifvqcp0","pricing_plan_id":"cebpf4jnsgd1na2vs0mg"},{"bike_id":"7e4c7599-5af1-41ab-83d0-48c77f2e12ad","system_id":"levelo_inurba_marseille","lat":43.29794,"lon":5.40407,"is_reserved":false,"is_disabled":false,"rental_uris":{"android":"levelo://app?vid=7e4c7599-5af1-41ab-83d0-48c77f2e12ad","ios":"levelo://app?vid=7e4c7599-5af1-41ab-83d0-48c77f2e12ad"},"vehicle_type_id":"4","last_reported":1727122260,"current_range_meters":8400,"station_id":"ce4bh112rcd13ifvqd90","pricing_plan_id":"cebpf4jnsgd1na2vs0mg"},{"bike_id":"35bcf497-12d0-4f9c-b235-d44c25f8d07f","system_id":"levelo_inurba_marseille","lat":43.27378,"lon":5.3626,"is_reserved":false,"is_disabled":false,"rental_uris":{"android":"levelo://app?vid=35bcf497-12d0-4f9c-b235-d44c25f8d07f","ios":"levelo://app?vid=35bcf497-12d0-4f9c-b235-d44c25f8d07f"},"vehicle_type_id":"4","last_reported":1727122260,"current_range_meters":8400,"station_id":"ce4bhbh2rcd13ifvqeo0","pricing_plan_id":"cebpf4jnsgd1na2vs0mg"},{"bike_id":"ab63bd3a-f93b-4370-9200-d22b0dc4222c","system_id":"levelo_inurba_marseille","lat":43.30638,"lon":5.4009,"is_reserved":false,"is_disabled":false,"rental_uris":{"android":"levelo://app?vid=ab63bd3a-f93b-4370-9200-d22b0dc4222c","ios":"levelo://app?vid=ab63bd3a-f93b-4370-9200-d22b0dc4222c"},"vehicle_type_id":"4","last_reported":1727122260,"current_range_meters":37600,"station_id":"ce4bh112rcd13ifvqda0","pricing_plan_id":"cebpf4jnsgd1na2vs0mg"},{"bike_id":"550ae83c-55a3-4d0d-9129-612883c2c4c4","system_id":"levelo_inurba_marseille","lat":43.2979,"lon":5.39339,"is_reserved":false,"is_disabled":false,"rental_uris":{"android":"levelo://app?vid=550ae83c-55a3-4d0d-9129-612883c2c4c4","ios":"levelo://app?vid=550ae83c-55a3-4d0d-9129-612883c2c4c4"},"vehicle_type_id":"4","last_reported":1727122260,"current_range_meters":38800,"station_id":"chh1huq6cuj3fo74tm60","pricing_plan_id":"cebpf4jnsgd1na2vs0mg"},{"bike_id":"153de1ca-b9df-43a0-bc78-2db937840ca4","system_id":"levelo_inurba_marseille","lat":43.29168,"lon":5.37162,"is_reserved":false,"is_disabled":false,"rental_uris":{"android":"levelo://app?vid=153de1ca-b9df-43a0-bc78-2db937840ca4","ios":"levelo://app?vid=153de1ca-b9df-43a0-bc78-2db937840ca4"},"vehicle_type_id":"4","last_reported":1727122260,"current_range_meters":28800,"station_id":"ce4bha92rcd13ifvqeh0","pricing_plan_id":"cebpf4jnsgd1na2vs0mg"},{"bike_id":"882e6ed1-e6d5-4c42-bb25-46ec58548160","system_id":"levelo_inurba_marseille","lat":43.29025,"lon":5.38644,"is_reserved":false,"is_disabled":false,"rental_uris":{"android":"levelo://app?vid=882e6ed1-e6d5-4c42-bb25-46ec58548160","ios":"levelo://app?vid=882e6ed1-e6d5-4c42-bb25-46ec58548160"},"vehicle_type_id":"4","last_reported":1727122260,"current_range_meters":37600,"station_id":"ce4bh4p2rcd13ifvqe0g","pricing_plan_id":"cebpf4jnsgd1na2vs0mg"},{"bike_id":"574f3f4c-6625-416f-b3b2-df1671bff5c4","system_id":"levelo_inurba_marseille","lat":43.30926,"lon":5.40144,"is_reserved":false,"is_disabled":false,"rental_uris":{"android":"levelo://app?vid=574f3f4c-6625-416f-b3b2-df1671bff5c4","ios":"levelo://app?vid=574f3f4c-6625-416f-b3b2-df1671bff5c4"},"vehicle_type_id":"4","last_reported":1727122260,"current_range_meters":38800,"station_id":"ce4bgvp2rcd13ifvqct0","pricing_plan_id":"cebpf4jnsgd1na2vs0mg"},{"bike_id":"c33ac870-cb94-44c7-8f5e-5243712930b4","system_id":"levelo_inurba_marseille","lat":43.31174,"lon":5.38717,"is_reserved":false,"is_disabled":false,"rental_uris":{"android":"levelo://app?vid=c33ac870-cb94-44c7-8f5e-5243712930b4","ios":"levelo://app?vid=c33ac870-cb94-44c7-8f5e-5243712930b4"},"vehicle_type_id":"4","last_reported":1727122260,"current_range_meters":38800,"station_id":"ce4bgv12rcd13ifvqcp0","pricing_plan_id":"cebpf4jnsgd1na2vs0mg"},{"bike_id":"0ff024f1-7c46-4b20-9f97-c0ff2e3a1d63","system_id":"levelo_inurba_marseille","lat":43.29523,"lon":5.38541,"is_reserved":false,"is_disabled":false,"rental_uris":{"android":"levelo://app?vid=0ff024f1-7c46-4b20-9f97-c0ff2e3a1d63","ios":"levelo://app?vid=0ff024f1-7c46-4b20-9f97-c0ff2e3a1d63"},"vehicle_type_id":"4","last_reported":1727122260,"current_range_meters":16800,"station_id":"ce4bgih2rcd13ifvqba0","pricing_plan_id":"cebpf4jnsgd1na2vs0mg"},{"bike_id":"c959ca8d-ba53-4b69-b028-aa3156c88619","system_id":"levelo_inurba_marseille","lat":43.28384,"lon":5.38626,"is_reserved":false,"is_disabled":false,"rental_uris":{"android":"levelo://app?vid=c959ca8d-ba53-4b69-b028-aa3156c88619","ios":"levelo://app?vid=c959ca8d-ba53-4b69-b028-aa3156c88619"},"vehicle_type_id":"4","last_reported":1727122260,"current_range_meters":34800,"station_id":"","pricing_plan_id":"cebpf4jnsgd1na2vs0mg"},{"bike_id":"b2b960b2-1096-4df0-90ec-e8e8d3ec1b45","system_id":"levelo_inurba_marseille","lat":43.29199,"lon":5.3933,"is_reserved":false,"is_disabled":false,"rental_uris":{"android":"levelo://app?vid=b2b960b2-1096-4df0-90ec-e8e8d3ec1b45","ios":"levelo://app?vid=b2b960b2-1096-4df0-90ec-e8e8d3ec1b45"},"vehicle_type_id":"4","last_reported":1727122260,"current_range_meters":38400,"station_id":"ce4bh192rcd13ifvqdd0","pricing_plan_id":"cebpf4jnsgd1na2vs0mg"},{"bike_id":"99b23c29-19c3-45f6-a684-fed021e776d5","system_id":"levelo_inurba_marseille","lat":43.31753,"lon":5.39019,"is_reserved":false,"is_disabled":false,"rental_uris":{"android":"levelo://app?vid=99b23c29-19c3-45f6-a684-fed021e776d5","ios":"levelo://app?vid=99b23c29-19c3-45f6-a684-fed021e776d5"},"vehicle_type_id":"4","last_reported":1727122260,"current_range_meters":23200,"station_id":"ce4bhqp2rcd13ifvqhng","pricing_plan_id":"cebpf4jnsgd1na2vs0mg"},{"bike_id":"3785dde0-2c0e-4db7-9928-e64d1a6fa5f8","system_id":"levelo_inurba_marseille","lat":43.31068,"lon":5.38352,"is_reserved":false,"is_disabled":false,"rental_uris":{"android":"levelo://app?vid=3785dde0-2c0e-4db7-9928-e64d1a6fa5f8","ios":"levelo://app?vid=3785dde0-2c0e-4db7-9928-e64d1a6fa5f8"},"vehicle_type_id":"4","last_reported":1727122260,"current_range_meters":38800,"station_id":"ce4bgv92rcd13ifvqcr0","pricing_plan_id":"cebpf4jnsgd1na2vs0mg"},{"bike_id":"a2c8ed06-94c0-4417-862a-16507ef42481","system_id":"levelo_inurba_marseille","lat":43.33725,"lon":5.39187,"is_reserved":false,"is_disabled":false,"rental_uris":{"android":"levelo://app?vid=a2c8ed06-94c0-4417-862a-16507ef42481","ios":"levelo://app?vid=a2c8ed06-94c0-4417-862a-16507ef42481"},"vehicle_type_id":"4","last_reported":1727122260,"current_range_meters":37600,"station_id":"ce4bhr92rcd13ifvqhsg","pricing_plan_id":"cebpf4jnsgd1na2vs0mg"},{"bike_id":"04b980a8-d35e-4fcc-a9e3-8a08587031b6","system_id":"levelo_inurba_marseille","lat":43.26216,"lon":5.37444,"is_reserved":false,"is_disabled":false,"rental_uris":{"android":"levelo://app?vid=04b980a8-d35e-4fcc-a9e3-8a08587031b6","ios":"levelo://app?vid=04b980a8-d35e-4fcc-a9e3-8a08587031b6"},"vehicle_type_id":"4","last_reported":1727122260,"current_range_meters":38800,"station_id":"ce4bhgp2rcd13ifvqfc0","pricing_plan_id":"cebpf4jnsgd1na2vs0mg"},{"bike_id":"71e3eaf6-911a-4212-97d8-c6c24063f9ba","system_id":"levelo_inurba_marseille","lat":43.2509,"lon":5.39514,"is_reserved":false,"is_disabled":false,"rental_uris":{"android":"levelo://app?vid=71e3eaf6-911a-4212-97d8-c6c24063f9ba","ios":"levelo://app?vid=71e3eaf6-911a-4212-97d8-c6c24063f9ba"},"vehicle_type_id":"4","last_reported":1727122260,"current_range_meters":10800,"station_id":"ce4bhm12rcd13ifvqgkg","pricing_plan_id":"cebpf4jnsgd1na2vs0mg"},{"bike_id":"888486cd-995d-4552-a726-cc7f3e1081c1","system_id":"levelo_inurba_marseille","lat":43.31235,"lon":5.36874,"is_reserved":false,"is_disabled":false,"rental_uris":{"android":"levelo://app?vid=888486cd-995d-4552-a726-cc7f3e1081c1","ios":"levelo://app?vid=888486cd-995d-4552-a726-cc7f3e1081c1"},"vehicle_type_id":"4","last_reported":1727122260,"current_range_meters":14400,"station_id":"ce4bgl92rcd13ifvqbq0","pricing_plan_id":"cebpf4jnsgd1na2vs0mg"},{"bike_id":"fa690805-233a-4a70-a9f3-33f1b67cdb1f","system_id":"levelo_inurba_marseille","lat":43.32291,"lon":5.38257,"is_reserved":false,"is_disabled":false,"rental_uris":{"android":"levelo://app?vid=fa690805-233a-4a70-a9f3-33f1b67cdb1f","ios":"levelo://app?vid=fa690805-233a-4a70-a9f3-33f1b67cdb1f"},"vehicle_type_id":"4","last_reported":1727122260,"current_range_meters":36800,"station_id":"ce4bhr12rcd13ifvqhqg","pricing_plan_id":"cebpf4jnsgd1na2vs0mg"},{"bike_id":"3c33410a-08d2-4408-bcfa-fa218f26da5f","system_id":"levelo_inurba_marseille","lat":43.30794,"lon":5.37656,"is_reserved":false,"is_disabled":false,"rental_uris":{"android":"levelo://app?vid=3c33410a-08d2-4408-bcfa-fa218f26da5f","ios":"levelo://app?vid=3c33410a-08d2-4408-bcfa-fa218f26da5f"},"vehicle_type_id":"4","last_reported":1727122260,"current_range_meters":35200,"station_id":"ce4bgv92rcd13ifvqcq0","pricing_plan_id":"cebpf4jnsgd1na2vs0mg"},{"bike_id":"e86bb56b-8257-4a34-a96d-205fd2a4397b","system_id":"levelo_inurba_marseille","lat":43.27493,"lon":5.42451,"is_reserved":false,"is_disabled":false,"rental_uris":{"android":"levelo://app?vid=e86bb56b-8257-4a34-a96d-205fd2a4397b","ios":"levelo://app?vid=e86bb56b-8257-4a34-a96d-205fd2a4397b"},"vehicle_type_id":"4","last_reported":1727122260,"current_range_meters":38400,"station_id":"ce4bhn92rcd13ifvqgrg","pricing_plan_id":"cebpf4jnsgd1na2vs0mg"},{"bike_id":"a9b8bd2e-0211-4ab7-8e43-9b1810cd1d96","system_id":"levelo_inurba_marseille","lat":43.26559,"lon":5.37286,"is_reserved":false,"is_disabled":false,"rental_uris":{"android":"levelo://app?vid=a9b8bd2e-0211-4ab7-8e43-9b1810cd1d96","ios":"levelo://app?vid=a9b8bd2e-0211-4ab7-8e43-9b1810cd1d96"},"vehicle_type_id":"4","last_reported":1727122260,"current_range_meters":8400,"station_id":"ce4bhg12rcd13ifvqf70","pricing_plan_id":"cebpf4jnsgd1na2vs0mg"},{"bike_id":"ee461ca6-23df-45a9-889a-5ef6cdcf61e1","system_id":"levelo_inurba_marseille","lat":43.29793,"lon":5.39342,"is_reserved":false,"is_disabled":false,"rental_uris":{"android":"levelo://app?vid=ee461ca6-23df-45a9-889a-5ef6cdcf61e1","ios":"levelo://app?vid=ee461ca6-23df-45a9-889a-5ef6cdcf61e1"},"vehicle_type_id":"4","last_reported":1727122260,"current_range_meters":28400,"station_id":"chh1huq6cuj3fo74tm60","pricing_plan_id":"cebpf4jnsgd1na2vs0mg"},{"bike_id":"282ba42d-f489-4888-914e-9756f4e46c85","system_id":"levelo_inurba_marseille","lat":43.32483,"lon":5.36567,"is_reserved":false,"is_disabled":false,"rental_uris":{"android":"levelo://app?vid=282ba42d-f489-4888-914e-9756f4e46c85","ios":"levelo://app?vid=282ba42d-f489-4888-914e-9756f4e46c85"},"vehicle_type_id":"4","last_reported":1727122260,"current_range_meters":14800,"station_id":"ce4bhs12rcd13ifvqhvg","pricing_plan_id":"cebpf4jnsgd1na2vs0mg"},{"bike_id":"31184b5d-3cf1-4ce0-9d27-e2331f3bdbb3","system_id":"levelo_inurba_marseille","lat":43.2893,"lon":5.38407,"is_reserved":false,"is_disabled":false,"rental_uris":{"android":"levelo://app?vid=31184b5d-3cf1-4ce0-9d27-e2331f3bdbb3","ios":"levelo://app?vid=31184b5d-3cf1-4ce0-9d27-e2331f3bdbb3"},"vehicle_type_id":"4","last_reported":1727122260,"current_range_meters":8000,"station_id":"ce4bh612rcd13ifvqe6g","pricing_plan_id":"cebpf4jnsgd1na2vs0mg"},{"bike_id":"7eacd0ae-7015-4504-8187-36e3b5fe6fb0","system_id":"levelo_inurba_marseille","lat":43.27069,"lon":5.42284,"is_reserved":false,"is_disabled":false,"rental_uris":{"android":"levelo://app?vid=7eacd0ae-7015-4504-8187-36e3b5fe6fb0","ios":"levelo://app?vid=7eacd0ae-7015-4504-8187-36e3b5fe6fb0"},"vehicle_type_id":"4","last_reported":1727122260,"current_range_meters":27600,"station_id":"ce4bhk92rcd13ifvqgb0","pricing_plan_id":"cebpf4jnsgd1na2vs0mg"},{"bike_id":"267207ba-0c3a-4988-9032-1d6e2233c0b8","system_id":"levelo_inurba_marseille","lat":43.29195,"lon":5.39329,"is_reserved":false,"is_disabled":false,"rental_uris":{"android":"levelo://app?vid=267207ba-0c3a-4988-9032-1d6e2233c0b8","ios":"levelo://app?vid=267207ba-0c3a-4988-9032-1d6e2233c0b8"},"vehicle_type_id":"4","last_reported":1727122260,"current_range_meters":6800,"station_id":"ce4bh192rcd13ifvqdd0","pricing_plan_id":"cebpf4jnsgd1na2vs0mg"},{"bike_id":"8f292934-62db-4e45-8525-d903798075c3","system_id":"levelo_inurba_marseille","lat":43.32656,"lon":5.40999,"is_reserved":false,"is_disabled":false,"rental_uris":{"android":"levelo://app?vid=8f292934-62db-4e45-8525-d903798075c3","ios":"levelo://app?vid=8f292934-62db-4e45-8525-d903798075c3"},"vehicle_type_id":"4","last_reported":1727122260,"current_range_meters":39200,"station_id":"ce4bhpp2rcd13ifvqhgg","pricing_plan_id":"cebpf4jnsgd1na2vs0mg"},{"bike_id":"92538727-8770-4a78-adcf-165b4009e758","system_id":"levelo_inurba_marseille","lat":43.28695,"lon":5.37389,"is_reserved":false,"is_disabled":false,"rental_uris":{"android":"levelo://app?vid=92538727-8770-4a78-adcf-165b4009e758","ios":"levelo://app?vid=92538727-8770-4a78-adcf-165b4009e758"},"vehicle_type_id":"4","last_reported":1727122260,"current_range_meters":37600,"station_id":"ce4bh3p2rcd13ifvqdq0","pricing_plan_id":"cebpf4jnsgd1na2vs0mg"},{"bike_id":"fc2877fe-6b6a-4d27-921a-68d4f2b8e619","system_id":"levelo_inurba_marseille","lat":43.27497,"lon":5.42449,"is_reserved":false,"is_disabled":false,"rental_uris":{"android":"levelo://app?vid=fc2877fe-6b6a-4d27-921a-68d4f2b8e619","ios":"levelo://app?vid=fc2877fe-6b6a-4d27-921a-68d4f2b8e619"},"vehicle_type_id":"4","last_reported":1727122260,"current_range_meters":22000,"station_id":"ce4bhn92rcd13ifvqgrg","pricing_plan_id":"cebpf4jnsgd1na2vs0mg"},{"bike_id":"b4342c72-7dd9-44ad-80e5-9026dbeb5c17","system_id":"levelo_inurba_marseille","lat":43.27818,"lon":5.40714,"is_reserved":false,"is_disabled":false,"rental_uris":{"android":"levelo://app?vid=b4342c72-7dd9-44ad-80e5-9026dbeb5c17","ios":"levelo://app?vid=b4342c72-7dd9-44ad-80e5-9026dbeb5c17"},"vehicle_type_id":"4","last_reported":1727122260,"current_range_meters":2000,"station_id":"ce4bhnh2rcd13ifvqgtg","pricing_plan_id":"cebpf4jnsgd1na2vs0mg"},{"bike_id":"40ec77eb-6257-4910-b338-910ef8290bad","system_id":"levelo_inurba_marseille","lat":43.28113,"lon":5.40638,"is_reserved":false,"is_disabled":false,"rental_uris":{"android":"levelo://app?vid=40ec77eb-6257-4910-b338-910ef8290bad","ios":"levelo://app?vid=40ec77eb-6257-4910-b338-910ef8290bad"},"vehicle_type_id":"4","last_reported":1727122260,"current_range_meters":8400,"station_id":"","pricing_plan_id":"cebpf4jnsgd1na2vs0mg"},{"bike_id":"b0f4d08d-9574-447c-9f76-6a11e8a82ce4","system_id":"levelo_inurba_marseille","lat":43.31326,"lon":5.39701,"is_reserved":false,"is_disabled":false,"rental_uris":{"android":"levelo://app?vid=b0f4d08d-9574-447c-9f76-6a11e8a82ce4","ios":"levelo://app?vid=b0f4d08d-9574-447c-9f76-6a11e8a82ce4"},"vehicle_type_id":"4","last_reported":1727122260,"current_range_meters":38800,"station_id":"ce4bgvp2rcd13ifvqcu0","pricing_plan_id":"cebpf4jnsgd1na2vs0mg"},{"bike_id":"ed1f0c4b-c2ec-4633-9b10-9782357e4a7c","system_id":"levelo_inurba_marseille","lat":43.308,"lon":5.43529,"is_reserved":false,"is_disabled":false,"rental_uris":{"android":"levelo://app?vid=ed1f0c4b-c2ec-4633-9b10-9782357e4a7c","ios":"levelo://app?vid=ed1f0c4b-c2ec-4633-9b10-9782357e4a7c"},"vehicle_type_id":"4","last_reported":1727122260,"current_range_meters":12000,"station_id":"ce4bhph2rcd13ifvqheg","pricing_plan_id":"cebpf4jnsgd1na2vs0mg"},{"bike_id":"0074696f-e649-4639-9210-689b92842bdc","system_id":"levelo_inurba_marseille","lat":43.30798,"lon":5.43523,"is_reserved":false,"is_disabled":false,"rental_uris":{"android":"levelo://app?vid=0074696f-e649-4639-9210-689b92842bdc","ios":"levelo://app?vid=0074696f-e649-4639-9210-689b92842bdc"},"vehicle_type_id":"4","last_reported":1727122260,"current_range_meters":38800,"station_id":"ce4bhph2rcd13ifvqheg","pricing_plan_id":"cebpf4jnsgd1na2vs0mg"},{"bike_id":"2e6ed305-9804-4c19-8d38-29ea058bb145","system_id":"levelo_inurba_marseille","lat":43.29028,"lon":5.3864,"is_reserved":false,"is_disabled":false,"rental_uris":{"android":"levelo://app?vid=2e6ed305-9804-4c19-8d38-29ea058bb145","ios":"levelo://app?vid=2e6ed305-9804-4c19-8d38-29ea058bb145"},"vehicle_type_id":"4","last_reported":1727122260,"current_range_meters":16400,"station_id":"ce4bh4p2rcd13ifvqe0g","pricing_plan_id":"cebpf4jnsgd1na2vs0mg"},{"bike_id":"877753fc-658d-4c7a-bbb8-46de59f59494","system_id":"levelo_inurba_marseille","lat":43.33024,"lon":5.39057,"is_reserved":false,"is_disabled":false,"rental_uris":{"android":"levelo://app?vid=877753fc-658d-4c7a-bbb8-46de59f59494","ios":"levelo://app?vid=877753fc-658d-4c7a-bbb8-46de59f59494"},"vehicle_type_id":"4","last_reported":1727122260,"current_range_meters":36400,"station_id":"ce4bhr92rcd13ifvqhrg","pricing_plan_id":"cebpf4jnsgd1na2vs0mg"},{"bike_id":"0f89e848-c353-46ac-88cf-0c1eae8d4825","system_id":"levelo_inurba_marseille","lat":43.29526,"lon":5.39413,"is_reserved":false,"is_disabled":false,"rental_uris":{"android":"levelo://app?vid=0f89e848-c353-46ac-88cf-0c1eae8d4825","ios":"levelo://app?vid=0f89e848-c353-46ac-88cf-0c1eae8d4825"},"vehicle_type_id":"4","last_reported":1727122260,"current_range_meters":11200,"station_id":"ce4bh292rcd13ifvqdf0","pricing_plan_id":"cebpf4jnsgd1na2vs0mg"},{"bike_id":"d6204cf5-d44d-4d8f-9e53-0236e2b8c25d","system_id":"levelo_inurba_marseille","lat":43.28731,"lon":5.37941,"is_reserved":false,"is_disabled":false,"rental_uris":{"android":"levelo://app?vid=d6204cf5-d44d-4d8f-9e53-0236e2b8c25d","ios":"levelo://app?vid=d6204cf5-d44d-4d8f-9e53-0236e2b8c25d"},"vehicle_type_id":"4","last_reported":1727122260,"current_range_meters":38400,"station_id":"ce4bh9p2rcd13ifvqec0","pricing_plan_id":"cebpf4jnsgd1na2vs0mg"},{"bike_id":"6ada8610-ba35-4ad7-b07c-1f94bcb5d5e4","system_id":"levelo_inurba_marseille","lat":43.29527,"lon":5.39038,"is_reserved":false,"is_disabled":false,"rental_uris":{"android":"levelo://app?vid=6ada8610-ba35-4ad7-b07c-1f94bcb5d5e4","ios":"levelo://app?vid=6ada8610-ba35-4ad7-b07c-1f94bcb5d5e4"},"vehicle_type_id":"4","last_reported":1727122260,"current_range_meters":19200,"station_id":"ce4bh3p2rcd13ifvqdp0","pricing_plan_id":"cebpf4jnsgd1na2vs0mg"},{"bike_id":"d46cb383-a530-43a6-8682-34e5b62f70cd","system_id":"levelo_inurba_marseille","lat":43.27494,"lon":5.42457,"is_reserved":false,"is_disabled":false,"rental_uris":{"android":"levelo://app?vid=d46cb383-a530-43a6-8682-34e5b62f70cd","ios":"levelo://app?vid=d46cb383-a530-43a6-8682-34e5b62f70cd"},"vehicle_type_id":"4","last_reported":1727122260,"current_range_meters":27600,"station_id":"ce4bhn92rcd13ifvqgrg","pricing_plan_id":"cebpf4jnsgd1na2vs0mg"},{"bike_id":"1d651bbb-ef4f-4fb3-a149-4f3df095ed4d","system_id":"levelo_inurba_marseille","lat":43.3234,"lon":5.40621,"is_reserved":false,"is_disabled":false,"rental_uris":{"android":"levelo://app?vid=1d651bbb-ef4f-4fb3-a149-4f3df095ed4d","ios":"levelo://app?vid=1d651bbb-ef4f-4fb3-a149-4f3df095ed4d"},"vehicle_type_id":"4","last_reported":1727122260,"current_range_meters":19600,"station_id":"ce4bhq92rcd13ifvqhjg","pricing_plan_id":"cebpf4jnsgd1na2vs0mg"},{"bike_id":"fa389a28-fbc0-443d-ae17-61deeb7eddc4","system_id":"levelo_inurba_marseille","lat":43.29783,"lon":5.39358,"is_reserved":false,"is_disabled":false,"rental_uris":{"android":"levelo://app?vid=fa389a28-fbc0-443d-ae17-61deeb7eddc4","ios":"levelo://app?vid=fa389a28-fbc0-443d-ae17-61deeb7eddc4"},"vehicle_type_id":"4","last_reported":1727122260,"current_range_meters":36000,"station_id":"chh1huq6cuj3fo74tm60","pricing_plan_id":"cebpf4jnsgd1na2vs0mg"},{"bike_id":"d1a98891-14a0-4c1e-b564-b0d7508e5f2b","system_id":"levelo_inurba_marseille","lat":43.31189,"lon":5.38716,"is_reserved":false,"is_disabled":false,"rental_uris":{"android":"levelo://app?vid=d1a98891-14a0-4c1e-b564-b0d7508e5f2b","ios":"levelo://app?vid=d1a98891-14a0-4c1e-b564-b0d7508e5f2b"},"vehicle_type_id":"4","last_reported":1727122260,"current_range_meters":38800,"station_id":"ce4bgv12rcd13ifvqcp0","pricing_plan_id":"cebpf4jnsgd1na2vs0mg"},{"bike_id":"69c20e57-c96b-4712-b3c4-c22934ffa276","system_id":"levelo_inurba_marseille","lat":43.30883,"lon":5.39652,"is_reserved":false,"is_disabled":false,"rental_uris":{"android":"levelo://app?vid=69c20e57-c96b-4712-b3c4-c22934ffa276","ios":"levelo://app?vid=69c20e57-c96b-4712-b3c4-c22934ffa276"},"vehicle_type_id":"4","last_reported":1727122260,"current_range_meters":14800,"station_id":"ce4bh012rcd13ifvqcv0","pricing_plan_id":"cebpf4jnsgd1na2vs0mg"},{"bike_id":"c40e829a-7fc0-4f32-9222-7edbf9d51fc2","system_id":"levelo_inurba_marseille","lat":43.28409,"lon":5.37519,"is_reserved":false,"is_disabled":false,"rental_uris":{"android":"levelo://app?vid=c40e829a-7fc0-4f32-9222-7edbf9d51fc2","ios":"levelo://app?vid=c40e829a-7fc0-4f32-9222-7edbf9d51fc2"},"vehicle_type_id":"4","last_reported":1727122260,"current_range_meters":38800,"station_id":"ce4bh412rcd13ifvqds0","pricing_plan_id":"cebpf4jnsgd1na2vs0mg"},{"bike_id":"d1b89f89-61e8-4970-818c-3ad4ea50b7dc","system_id":"levelo_inurba_marseille","lat":43.31272,"lon":5.40174,"is_reserved":false,"is_disabled":false,"rental_uris":{"android":"levelo://app?vid=d1b89f89-61e8-4970-818c-3ad4ea50b7dc","ios":"levelo://app?vid=d1b89f89-61e8-4970-818c-3ad4ea50b7dc"},"vehicle_type_id":"4","last_reported":1727122260,"current_range_meters":39200,"station_id":"ce4bh092rcd13ifvqd30","pricing_plan_id":"cebpf4jnsgd1na2vs0mg"},{"bike_id":"c1d01610-a197-4c4e-949d-0fb0577fa190","system_id":"levelo_inurba_marseille","lat":43.23191,"lon":5.35546,"is_reserved":false,"is_disabled":false,"rental_uris":{"android":"levelo://app?vid=c1d01610-a197-4c4e-949d-0fb0577fa190","ios":"levelo://app?vid=c1d01610-a197-4c4e-949d-0fb0577fa190"},"vehicle_type_id":"4","last_reported":1727122260,"current_range_meters":11600,"station_id":"ce4bhu92rcd13ifvqi70","pricing_plan_id":"cebpf4jnsgd1na2vs0mg"},{"bike_id":"f5dc9a2b-bd3d-4fc5-bfa7-5d793ea7df14","system_id":"levelo_inurba_marseille","lat":43.292818,"lon":5.368432,"is_reserved":false,"is_disabled":false,"rental_uris":{"android":"levelo://app?vid=f5dc9a2b-bd3d-4fc5-bfa7-5d793ea7df14","ios":"levelo://app?vid=f5dc9a2b-bd3d-4fc5-bfa7-5d793ea7df14"},"vehicle_type_id":"4","last_reported":1727122260,"current_range_meters":3200,"station_id":"ce4bhbp2rcd13ifvqesg","pricing_plan_id":"cebpf4jnsgd1na2vs0mg"},{"bike_id":"437b2009-cf5a-4a29-a62e-844fd6ef5fa7","system_id":"levelo_inurba_marseille","lat":43.29782,"lon":5.39354,"is_reserved":false,"is_disabled":false,"rental_uris":{"android":"levelo://app?vid=437b2009-cf5a-4a29-a62e-844fd6ef5fa7","ios":"levelo://app?vid=437b2009-cf5a-4a29-a62e-844fd6ef5fa7"},"vehicle_type_id":"4","last_reported":1727122260,"current_range_meters":24400,"station_id":"chh1huq6cuj3fo74tm60","pricing_plan_id":"cebpf4jnsgd1na2vs0mg"},{"bike_id":"33859afa-2cab-462c-956e-3d5fbd0bd538","system_id":"levelo_inurba_marseille","lat":43.24068,"lon":5.37767,"is_reserved":false,"is_disabled":false,"rental_uris":{"android":"levelo://app?vid=33859afa-2cab-462c-956e-3d5fbd0bd538","ios":"levelo://app?vid=33859afa-2cab-462c-956e-3d5fbd0bd538"},"vehicle_type_id":"4","last_reported":1727122260,"current_range_meters":35600,"station_id":"ce4bhnp2rcd13ifvqgvg","pricing_plan_id":"cebpf4jnsgd1na2vs0mg"},{"bike_id":"c177910f-a70c-4cf4-86b6-882df5171316","system_id":"levelo_inurba_marseille","lat":43.29529,"lon":5.38551,"is_reserved":false,"is_disabled":false,"rental_uris":{"android":"levelo://app?vid=c177910f-a70c-4cf4-86b6-882df5171316","ios":"levelo://app?vid=c177910f-a70c-4cf4-86b6-882df5171316"},"vehicle_type_id":"4","last_reported":1727122260,"current_range_meters":5600,"station_id":"ce4bgih2rcd13ifvqba0","pricing_plan_id":"cebpf4jnsgd1na2vs0mg"},{"bike_id":"86b6f4d5-cdd0-4774-babf-05125286aa83","system_id":"levelo_inurba_marseille","lat":43.29203,"lon":5.3932,"is_reserved":false,"is_disabled":false,"rental_uris":{"android":"levelo://app?vid=86b6f4d5-cdd0-4774-babf-05125286aa83","ios":"levelo://app?vid=86b6f4d5-cdd0-4774-babf-05125286aa83"},"vehicle_type_id":"4","last_reported":1727122260,"current_range_meters":9600,"station_id":"ce4bh192rcd13ifvqdd0","pricing_plan_id":"cebpf4jnsgd1na2vs0mg"},{"bike_id":"8ad4c4ed-ff72-47b0-9d07-b1aca2c4911d","system_id":"levelo_inurba_marseille","lat":43.283398,"lon":5.381086,"is_reserved":false,"is_disabled":false,"rental_uris":{"android":"levelo://app?vid=8ad4c4ed-ff72-47b0-9d07-b1aca2c4911d","ios":"levelo://app?vid=8ad4c4ed-ff72-47b0-9d07-b1aca2c4911d"},"vehicle_type_id":"4","last_reported":1727122260,"current_range_meters":24400,"station_id":"ce4bh412rcd13ifvqdr0","pricing_plan_id":"cebpf4jnsgd1na2vs0mg"},{"bike_id":"9293bf76-669c-44b1-ab3c-e5210753b52f","system_id":"levelo_inurba_marseille","lat":43.30415,"lon":5.41288,"is_reserved":false,"is_disabled":false,"rental_uris":{"android":"levelo://app?vid=9293bf76-669c-44b1-ab3c-e5210753b52f","ios":"levelo://app?vid=9293bf76-669c-44b1-ab3c-e5210753b52f"},"vehicle_type_id":"4","last_reported":1727122260,"current_range_meters":19200,"station_id":"ce4bhop2rcd13ifvqh8g","pricing_plan_id":"cebpf4jnsgd1na2vs0mg"},{"bike_id":"73bef093-054b-4215-9134-78ac28337827","system_id":"levelo_inurba_marseille","lat":43.24548,"lon":5.39524,"is_reserved":false,"is_disabled":false,"rental_uris":{"android":"levelo://app?vid=73bef093-054b-4215-9134-78ac28337827","ios":"levelo://app?vid=73bef093-054b-4215-9134-78ac28337827"},"vehicle_type_id":"4","last_reported":1727122260,"current_range_meters":23200,"station_id":"ce4bhlp2rcd13ifvqgjg","pricing_plan_id":"cebpf4jnsgd1na2vs0mg"},{"bike_id":"7e3920a9-97d9-483d-b7ba-9d14c34ba84c","system_id":"levelo_inurba_marseille","lat":43.28456,"lon":5.35898,"is_reserved":false,"is_disabled":false,"rental_uris":{"android":"levelo://app?vid=7e3920a9-97d9-483d-b7ba-9d14c34ba84c","ios":"levelo://app?vid=7e3920a9-97d9-483d-b7ba-9d14c34ba84c"},"vehicle_type_id":"4","last_reported":1727122260,"current_range_meters":38400,"station_id":"ce4bhah2rcd13ifvqei0","pricing_plan_id":"cebpf4jnsgd1na2vs0mg"},{"bike_id":"ee8a5fb1-b149-4dcf-97dc-917649395c3e","system_id":"levelo_inurba_marseille","lat":43.24809,"lon":5.37462,"is_reserved":false,"is_disabled":false,"rental_uris":{"android":"levelo://app?vid=ee8a5fb1-b149-4dcf-97dc-917649395c3e","ios":"levelo://app?vid=ee8a5fb1-b149-4dcf-97dc-917649395c3e"},"vehicle_type_id":"4","last_reported":1727122260,"current_range_meters":28000,"station_id":"ce4bhgh2rcd13ifvqfb0","pricing_plan_id":"cebpf4jnsgd1na2vs0mg"},{"bike_id":"9337a9bc-bbc8-485e-99e9-300685e07206","system_id":"levelo_inurba_marseille","lat":43.29028,"lon":5.38639,"is_reserved":false,"is_disabled":false,"rental_uris":{"android":"levelo://app?vid=9337a9bc-bbc8-485e-99e9-300685e07206","ios":"levelo://app?vid=9337a9bc-bbc8-485e-99e9-300685e07206"},"vehicle_type_id":"4","last_reported":1727122260,"current_range_meters":38800,"station_id":"ce4bh4p2rcd13ifvqe0g","pricing_plan_id":"cebpf4jnsgd1na2vs0mg"},{"bike_id":"16ae6180-f6e5-47e0-8f4b-70a0144490cf","system_id":"levelo_inurba_marseille","lat":43.30417,"lon":5.41281,"is_reserved":false,"is_disabled":false,"rental_uris":{"android":"levelo://app?vid=16ae6180-f6e5-47e0-8f4b-70a0144490cf","ios":"levelo://app?vid=16ae6180-f6e5-47e0-8f4b-70a0144490cf"},"vehicle_type_id":"4","last_reported":1727122260,"current_range_meters":14800,"station_id":"ce4bhop2rcd13ifvqh8g","pricing_plan_id":"cebpf4jnsgd1na2vs0mg"},{"bike_id":"c63d074d-cfd7-4f7d-8dd9-8137e6ce9a40","system_id":"levelo_inurba_marseille","lat":43.26202,"lon":5.37931,"is_reserved":false,"is_disabled":false,"rental_uris":{"android":"levelo://app?vid=c63d074d-cfd7-4f7d-8dd9-8137e6ce9a40","ios":"levelo://app?vid=c63d074d-cfd7-4f7d-8dd9-8137e6ce9a40"},"vehicle_type_id":"4","last_reported":1727122260,"current_range_meters":8000,"station_id":"ce4bhjp2rcd13ifvqg90","pricing_plan_id":"cebpf4jnsgd1na2vs0mg"},{"bike_id":"fc02db77-c09b-4602-8c37-7b964e46f357","system_id":"levelo_inurba_marseille","lat":43.29905,"lon":5.37479,"is_reserved":false,"is_disabled":false,"rental_uris":{"android":"levelo://app?vid=fc02db77-c09b-4602-8c37-7b964e46f357","ios":"levelo://app?vid=fc02db77-c09b-4602-8c37-7b964e46f357"},"vehicle_type_id":"4","last_reported":1727122260,"current_range_meters":30000,"station_id":"ce4bgjh2rcd13ifvqbg0","pricing_plan_id":"cebpf4jnsgd1na2vs0mg"},{"bike_id":"6e78d59c-5154-4d11-b194-a0bd97a6c225","system_id":"levelo_inurba_marseille","lat":43.2619,"lon":5.37453,"is_reserved":false,"is_disabled":false,"rental_uris":{"android":"levelo://app?vid=6e78d59c-5154-4d11-b194-a0bd97a6c225","ios":"levelo://app?vid=6e78d59c-5154-4d11-b194-a0bd97a6c225"},"vehicle_type_id":"4","last_reported":1727122260,"current_range_meters":38800,"station_id":"ce4bhgp2rcd13ifvqfc0","pricing_plan_id":"cebpf4jnsgd1na2vs0mg"},{"bike_id":"7a4e9a5c-ae3b-40ea-90ad-b7780f4ee8d3","system_id":"levelo_inurba_marseille","lat":43.29571,"lon":5.39987,"is_reserved":false,"is_disabled":false,"rental_uris":{"android":"levelo://app?vid=7a4e9a5c-ae3b-40ea-90ad-b7780f4ee8d3","ios":"levelo://app?vid=7a4e9a5c-ae3b-40ea-90ad-b7780f4ee8d3"},"vehicle_type_id":"4","last_reported":1727122260,"current_range_meters":39200,"station_id":"ce4bh312rcd13ifvqdj0","pricing_plan_id":"cebpf4jnsgd1na2vs0mg"},{"bike_id":"e3af0b57-a7cc-491d-8bfb-4853073ba6a0","system_id":"levelo_inurba_marseille","lat":43.30425,"lon":5.39776,"is_reserved":false,"is_disabled":false,"rental_uris":{"android":"levelo://app?vid=e3af0b57-a7cc-491d-8bfb-4853073ba6a0","ios":"levelo://app?vid=e3af0b57-a7cc-491d-8bfb-4853073ba6a0"},"vehicle_type_id":"4","last_reported":1727122260,"current_range_meters":10800,"station_id":"ce4bh092rcd13ifvqd20","pricing_plan_id":"cebpf4jnsgd1na2vs0mg"},{"bike_id":"466f50e8-3e58-4eb0-9f9a-cbb9a8e69bfe","system_id":"levelo_inurba_marseille","lat":43.26787,"lon":5.39422,"is_reserved":false,"is_disabled":false,"rental_uris":{"android":"levelo://app?vid=466f50e8-3e58-4eb0-9f9a-cbb9a8e69bfe","ios":"levelo://app?vid=466f50e8-3e58-4eb0-9f9a-cbb9a8e69bfe"},"vehicle_type_id":"4","last_reported":1727122260,"current_range_meters":29600,"station_id":"ce4bhh12rcd13ifvqfg0","pricing_plan_id":"cebpf4jnsgd1na2vs0mg"},{"bike_id":"8441d46d-f60a-423e-8e2b-68c3b6ab0a11","system_id":"levelo_inurba_marseille","lat":43.25566,"lon":5.38233,"is_reserved":false,"is_disabled":false,"rental_uris":{"android":"levelo://app?vid=8441d46d-f60a-423e-8e2b-68c3b6ab0a11","ios":"levelo://app?vid=8441d46d-f60a-423e-8e2b-68c3b6ab0a11"},"vehicle_type_id":"4","last_reported":1727122260,"current_range_meters":36800,"station_id":"ce4bhlp2rcd13ifvqgjg","pricing_plan_id":"cebpf4jnsgd1na2vs0mg"},{"bike_id":"7ebf96b0-c80d-4ab4-be04-d9c28b8b8d2a","system_id":"levelo_inurba_marseille","lat":43.298645,"lon":5.397373,"is_reserved":false,"is_disabled":false,"rental_uris":{"android":"levelo://app?vid=7ebf96b0-c80d-4ab4-be04-d9c28b8b8d2a","ios":"levelo://app?vid=7ebf96b0-c80d-4ab4-be04-d9c28b8b8d2a"},"vehicle_type_id":"4","last_reported":1727122260,"current_range_meters":38800,"station_id":"ce4bh0h2rcd13ifvqd50","pricing_plan_id":"cebpf4jnsgd1na2vs0mg"},{"bike_id":"da12dab4-cf6f-4205-97d4-2c964fa537b5","system_id":"levelo_inurba_marseille","lat":43.32086,"lon":5.38116,"is_reserved":false,"is_disabled":false,"rental_uris":{"android":"levelo://app?vid=da12dab4-cf6f-4205-97d4-2c964fa537b5","ios":"levelo://app?vid=da12dab4-cf6f-4205-97d4-2c964fa537b5"},"vehicle_type_id":"4","last_reported":1727122260,"current_range_meters":17200,"station_id":"","pricing_plan_id":"cebpf4jnsgd1na2vs0mg"},{"bike_id":"f7661a74-a28d-4945-be76-0e7c1fec6148","system_id":"levelo_inurba_marseille","lat":43.28658,"lon":5.36357,"is_reserved":false,"is_disabled":false,"rental_uris":{"android":"levelo://app?vid=f7661a74-a28d-4945-be76-0e7c1fec6148","ios":"levelo://app?vid=f7661a74-a28d-4945-be76-0e7c1fec6148"},"vehicle_type_id":"4","last_reported":1727122260,"current_range_meters":38000,"station_id":"ce4bhah2rcd13ifvqej0","pricing_plan_id":"cebpf4jnsgd1na2vs0mg"},{"bike_id":"e4b7fea7-a7c5-4e7f-a578-962fc9d9dd5b","system_id":"levelo_inurba_marseille","lat":43.31488,"lon":5.3731,"is_reserved":false,"is_disabled":false,"rental_uris":{"android":"levelo://app?vid=e4b7fea7-a7c5-4e7f-a578-962fc9d9dd5b","ios":"levelo://app?vid=e4b7fea7-a7c5-4e7f-a578-962fc9d9dd5b"},"vehicle_type_id":"4","last_reported":1727122260,"current_range_meters":38800,"station_id":"ce4bgt12rcd13ifvqcd0","pricing_plan_id":"cebpf4jnsgd1na2vs0mg"},{"bike_id":"aa4d2be4-106c-413b-8a83-d6a8bb91a237","system_id":"levelo_inurba_marseille","lat":43.24822,"lon":5.3745,"is_reserved":false,"is_disabled":false,"rental_uris":{"android":"levelo://app?vid=aa4d2be4-106c-413b-8a83-d6a8bb91a237","ios":"levelo://app?vid=aa4d2be4-106c-413b-8a83-d6a8bb91a237"},"vehicle_type_id":"4","last_reported":1727122260,"current_range_meters":38800,"station_id":"ce4bhgh2rcd13ifvqfb0","pricing_plan_id":"cebpf4jnsgd1na2vs0mg"},{"bike_id":"f478baa5-5410-4943-b95a-6f626438e139","system_id":"levelo_inurba_marseille","lat":43.25587,"lon":5.38237,"is_reserved":false,"is_disabled":false,"rental_uris":{"android":"levelo://app?vid=f478baa5-5410-4943-b95a-6f626438e139","ios":"levelo://app?vid=f478baa5-5410-4943-b95a-6f626438e139"},"vehicle_type_id":"4","last_reported":1727122260,"current_range_meters":28400,"station_id":"ce4bhlp2rcd13ifvqgjg","pricing_plan_id":"cebpf4jnsgd1na2vs0mg"},{"bike_id":"a499698b-36d9-4244-b1e8-6da06f9e8ef3","system_id":"levelo_inurba_marseille","lat":43.32041,"lon":5.41565,"is_reserved":false,"is_disabled":false,"rental_uris":{"android":"levelo://app?vid=a499698b-36d9-4244-b1e8-6da06f9e8ef3","ios":"levelo://app?vid=a499698b-36d9-4244-b1e8-6da06f9e8ef3"},"vehicle_type_id":"4","last_reported":1727122260,"current_range_meters":8800,"station_id":"ce4bhq92rcd13ifvqhkg","pricing_plan_id":"cebpf4jnsgd1na2vs0mg"},{"bike_id":"1e7dfdf3-0096-4104-b5f5-16a645ad208c","system_id":"levelo_inurba_marseille","lat":43.28347,"lon":5.38108,"is_reserved":false,"is_disabled":false,"rental_uris":{"android":"levelo://app?vid=1e7dfdf3-0096-4104-b5f5-16a645ad208c","ios":"levelo://app?vid=1e7dfdf3-0096-4104-b5f5-16a645ad208c"},"vehicle_type_id":"4","last_reported":1727122260,"current_range_meters":33600,"station_id":"ce4bh412rcd13ifvqdr0","pricing_plan_id":"cebpf4jnsgd1na2vs0mg"},{"bike_id":"36dc71fe-bfc9-4a4d-b2ef-39ebb067c458","system_id":"levelo_inurba_marseille","lat":43.29553,"lon":5.42281,"is_reserved":false,"is_disabled":false,"rental_uris":{"android":"levelo://app?vid=36dc71fe-bfc9-4a4d-b2ef-39ebb067c458","ios":"levelo://app?vid=36dc71fe-bfc9-4a4d-b2ef-39ebb067c458"},"vehicle_type_id":"4","last_reported":1727122260,"current_range_meters":38800,"station_id":"ce4bhph2rcd13ifvqhdg","pricing_plan_id":"cebpf4jnsgd1na2vs0mg"},{"bike_id":"4e442a34-1c41-4d3c-9b65-5b0b3be50276","system_id":"levelo_inurba_marseille","lat":43.33727,"lon":5.39192,"is_reserved":false,"is_disabled":false,"rental_uris":{"android":"levelo://app?vid=4e442a34-1c41-4d3c-9b65-5b0b3be50276","ios":"levelo://app?vid=4e442a34-1c41-4d3c-9b65-5b0b3be50276"},"vehicle_type_id":"4","last_reported":1727122260,"current_range_meters":36400,"station_id":"ce4bhr92rcd13ifvqhsg","pricing_plan_id":"cebpf4jnsgd1na2vs0mg"},{"bike_id":"825506b1-24dd-4090-949a-c20cdfe1c10e","system_id":"levelo_inurba_marseille","lat":43.26547,"lon":5.37291,"is_reserved":false,"is_disabled":false,"rental_uris":{"android":"levelo://app?vid=825506b1-24dd-4090-949a-c20cdfe1c10e","ios":"levelo://app?vid=825506b1-24dd-4090-949a-c20cdfe1c10e"},"vehicle_type_id":"4","last_reported":1727122260,"current_range_meters":6400,"station_id":"ce4bhg12rcd13ifvqf70","pricing_plan_id":"cebpf4jnsgd1na2vs0mg"},{"bike_id":"b02031c3-1af7-4ceb-b456-58c5dd56dcaf","system_id":"levelo_inurba_marseille","lat":43.28661,"lon":5.36357,"is_reserved":false,"is_disabled":false,"rental_uris":{"android":"levelo://app?vid=b02031c3-1af7-4ceb-b456-58c5dd56dcaf","ios":"levelo://app?vid=b02031c3-1af7-4ceb-b456-58c5dd56dcaf"},"vehicle_type_id":"4","last_reported":1727122260,"current_range_meters":28400,"station_id":"ce4bhah2rcd13ifvqej0","pricing_plan_id":"cebpf4jnsgd1na2vs0mg"},{"bike_id":"e7ab3e7c-5c2b-4482-a8c1-a42b96f7143d","system_id":"levelo_inurba_marseille","lat":43.25569,"lon":5.38245,"is_reserved":false,"is_disabled":false,"rental_uris":{"android":"levelo://app?vid=e7ab3e7c-5c2b-4482-a8c1-a42b96f7143d","ios":"levelo://app?vid=e7ab3e7c-5c2b-4482-a8c1-a42b96f7143d"},"vehicle_type_id":"4","last_reported":1727122260,"current_range_meters":38800,"station_id":"ce4bhih2rcd13ifvqfs0","pricing_plan_id":"cebpf4jnsgd1na2vs0mg"},{"bike_id":"cd75adc7-6ab2-4383-9b8c-2f570a60f004","system_id":"levelo_inurba_marseille","lat":43.29171,"lon":5.37163,"is_reserved":false,"is_disabled":false,"rental_uris":{"android":"levelo://app?vid=cd75adc7-6ab2-4383-9b8c-2f570a60f004","ios":"levelo://app?vid=cd75adc7-6ab2-4383-9b8c-2f570a60f004"},"vehicle_type_id":"4","last_reported":1727122260,"current_range_meters":32800,"station_id":"ce4bha92rcd13ifvqeh0","pricing_plan_id":"cebpf4jnsgd1na2vs0mg"},{"bike_id":"413adb04-2263-4526-a84b-7f131b9e8561","system_id":"levelo_inurba_marseille","lat":43.32383,"lon":5.38928,"is_reserved":false,"is_disabled":false,"rental_uris":{"android":"levelo://app?vid=413adb04-2263-4526-a84b-7f131b9e8561","ios":"levelo://app?vid=413adb04-2263-4526-a84b-7f131b9e8561"},"vehicle_type_id":"4","last_reported":1727122260,"current_range_meters":38800,"station_id":"ce4bhqp2rcd13ifvqhog","pricing_plan_id":"cebpf4jnsgd1na2vs0mg"},{"bike_id":"47e1b004-8da4-4d74-98a2-ac98ce7101ee","system_id":"levelo_inurba_marseille","lat":43.26191,"lon":5.37451,"is_reserved":false,"is_disabled":false,"rental_uris":{"android":"levelo://app?vid=47e1b004-8da4-4d74-98a2-ac98ce7101ee","ios":"levelo://app?vid=47e1b004-8da4-4d74-98a2-ac98ce7101ee"},"vehicle_type_id":"4","last_reported":1727122260,"current_range_meters":38800,"station_id":"ce4bhgp2rcd13ifvqfc0","pricing_plan_id":"cebpf4jnsgd1na2vs0mg"},{"bike_id":"3f6cf548-9b97-4975-918b-6d9edcb4ee69","system_id":"levelo_inurba_marseille","lat":43.31083,"lon":5.42435,"is_reserved":false,"is_disabled":false,"rental_uris":{"android":"levelo://app?vid=3f6cf548-9b97-4975-918b-6d9edcb4ee69","ios":"levelo://app?vid=3f6cf548-9b97-4975-918b-6d9edcb4ee69"},"vehicle_type_id":"4","last_reported":1727122260,"current_range_meters":23200,"station_id":"ce4bhp92rcd13ifvqhag","pricing_plan_id":"cebpf4jnsgd1na2vs0mg"},{"bike_id":"4c3d29a6-94ef-4f05-b120-1051863a57ee","system_id":"levelo_inurba_marseille","lat":43.30878,"lon":5.39646,"is_reserved":false,"is_disabled":false,"rental_uris":{"android":"levelo://app?vid=4c3d29a6-94ef-4f05-b120-1051863a57ee","ios":"levelo://app?vid=4c3d29a6-94ef-4f05-b120-1051863a57ee"},"vehicle_type_id":"4","last_reported":1727122260,"current_range_meters":7200,"station_id":"ce4bh012rcd13ifvqcv0","pricing_plan_id":"cebpf4jnsgd1na2vs0mg"},{"bike_id":"c5f9714c-664d-4289-bc83-98ac604eb9e6","system_id":"levelo_inurba_marseille","lat":43.29548,"lon":5.42292,"is_reserved":false,"is_disabled":false,"rental_uris":{"android":"levelo://app?vid=c5f9714c-664d-4289-bc83-98ac604eb9e6","ios":"levelo://app?vid=c5f9714c-664d-4289-bc83-98ac604eb9e6"},"vehicle_type_id":"4","last_reported":1727122260,"current_range_meters":38800,"station_id":"ce4bhph2rcd13ifvqhdg","pricing_plan_id":"cebpf4jnsgd1na2vs0mg"},{"bike_id":"aaf5c426-7a93-43ff-8bc8-b50ec0be2861","system_id":"levelo_inurba_marseille","lat":43.24651,"lon":5.38895,"is_reserved":false,"is_disabled":false,"rental_uris":{"android":"levelo://app?vid=aaf5c426-7a93-43ff-8bc8-b50ec0be2861","ios":"levelo://app?vid=aaf5c426-7a93-43ff-8bc8-b50ec0be2861"},"vehicle_type_id":"4","last_reported":1727122260,"current_range_meters":23200,"station_id":"ce4bhg12rcd13ifvqf60","pricing_plan_id":"cebpf4jnsgd1na2vs0mg"},{"bike_id":"582becdd-da4c-4d50-8a33-ffb0a3c6efc3","system_id":"levelo_inurba_marseille","lat":43.29192,"lon":5.39319,"is_reserved":false,"is_disabled":false,"rental_uris":{"android":"levelo://app?vid=582becdd-da4c-4d50-8a33-ffb0a3c6efc3","ios":"levelo://app?vid=582becdd-da4c-4d50-8a33-ffb0a3c6efc3"},"vehicle_type_id":"4","last_reported":1727122260,"current_range_meters":12000,"station_id":"ce4bh192rcd13ifvqdd0","pricing_plan_id":"cebpf4jnsgd1na2vs0mg"},{"bike_id":"4d4ca231-55b8-428a-9b37-0b6d6e798703","system_id":"levelo_inurba_marseille","lat":43.31183,"lon":5.3872,"is_reserved":false,"is_disabled":false,"rental_uris":{"android":"levelo://app?vid=4d4ca231-55b8-428a-9b37-0b6d6e798703","ios":"levelo://app?vid=4d4ca231-55b8-428a-9b37-0b6d6e798703"},"vehicle_type_id":"4","last_reported":1727122260,"current_range_meters":16800,"station_id":"ce4bgv12rcd13ifvqcp0","pricing_plan_id":"cebpf4jnsgd1na2vs0mg"},{"bike_id":"b49e8aa4-b4d7-4f9d-a437-8d1bbdfe618a","system_id":"levelo_inurba_marseille","lat":43.29558,"lon":5.4229,"is_reserved":false,"is_disabled":false,"rental_uris":{"android":"levelo://app?vid=b49e8aa4-b4d7-4f9d-a437-8d1bbdfe618a","ios":"levelo://app?vid=b49e8aa4-b4d7-4f9d-a437-8d1bbdfe618a"},"vehicle_type_id":"4","last_reported":1727122260,"current_range_meters":38800,"station_id":"ce4bhph2rcd13ifvqhdg","pricing_plan_id":"cebpf4jnsgd1na2vs0mg"},