{"last_updated":1738066618,"ttl":60,"version":"2.2","data":{"bikes":[{"bike_id":"c98c10ad-2c59-465b-9626-e2f31164a824","system_id":"levelo_inurba_marseille","lat":43.23248,"lon":5.35547,"is_reserved":false,"is_disabled":false,"rental_uris":{"android":"levelo://app?vid=c98c10ad-2c59-465b-9626-e2f31164a824","ios":"levelo://app?vid=c98c10ad-2c59-465b-9626-e2f31164a824"},"vehicle_type_id":"4","last_reported":1738066618,"current_range_meters":29600,"station_id":"","pricing_plan_id":"cebpf4jnsgd1na2vs0mg"},{"bike_id":"d88a3b00-b2b8-47e7-8eaf-c81c3100e74c","system_id":"levelo_inurba_marseille","lat":43.26552,"lon":5.37284,"is_reserved":false,"is_disabled":false,"rental_uris":{"android":"levelo://app?vid=d88a3b00-b2b8-47e7-8eaf-c81c3100e74c","ios":"levelo://app?vid=d88a3b00-b2b8-47e7-8eaf-c81c3100e74c"},"vehicle_type_id":"4","last_reported":1738066618,"current_range_meters":28400,"station_id":"ce4bhg12rcd13ifvqf70","pricing_plan_id":"cebpf4jnsgd1na2vs0mg"},{"bike_id":"53ed38e8-c380-447f-974e-8db6ab186013","system_id":"levelo_inurba_marseille","lat":43.26222,"lon":5.40449,"is_reserved":false,"is_disabled":false,"rental_uris":{"android":"levelo://app?vid=53ed38e8-c380-447f-974e-8db6ab186013","ios":"levelo://app?vid=53ed38e8-c380-447f-974e-8db6ab186013"},"vehicle_type_id":"4","last_reported":1738066618,"current_range_meters":33200,"station_id":"ce4bhmh2rcd13ifvqgmg","pricing_plan_id":"cebpf4jnsgd1na2vs0mg"},{"bike_id":"5a7e23a1-fa7e-4deb-b706-4e26dabe72e4","system_id":"levelo_inurba_marseille","lat":43.257153,"lon":5.418057,"is_reserved":false,"is_disabled":false,"rental_uris":{"android":"levelo://app?vid=5a7e23a1-fa7e-4deb-b706-4e26dabe72e4","ios":"levelo://app?vid=5a7e23a1-fa7e-4deb-b706-4e26dabe72e4"},"vehicle_type_id":"4","last_reported":1738066618,"current_range_meters":28000,"station_id":"","pricing_plan_id":"cebpf4jnsgd1na2vs0mg"},{"bike_id":"f6340173-9207-4d88-91c4-7859b3322cb3","system_id":"levelo_inurba_marseille","lat":43.29554,"lon":5.42291,"is_reserved":false,"is_disabled":false,"rental_uris":{"android":"levelo://app?vid=f6340173-9207-4d88-91c4-7859b3322cb3","ios":"levelo://app?vid=f6340173-9207-4d88-91c4-7859b3322cb3"},"vehicle_type_id":"4","last_reported":1738066618,"current_range_meters":38800,"station_id":"ce4bhph2rcd13ifvqhdg","pricing_plan_id":"cebpf4jnsgd1na2vs0mg"},{"bike_id":"f1a90fc8-ccbe-403f-bf9e-a94dfb3f8805","system_id":"levelo_inurba_marseille","lat":43.29222,"lon":5.36069,"is_reserved":false,"is_disabled":false,"rental_uris":{"android":"levelo://app?vid=f1a90fc8-ccbe-403f-bf9e-a94dfb3f8805","ios":"levelo://app?vid=f1a90fc8-ccbe-403f-bf9e-a94dfb3f8805"},"vehicle_type_id":"4","last_reported":1738066618,"current_range_meters":38400,"station_id":"ce4bhbh2rcd13ifvqeqg","pricing_plan_id":"cebpf4jnsgd1na2vs0mg"},{"bike_id":"0e5577eb-e782-4733-a49d-962e327ff8c3","system_id":"levelo_inurba_marseille","lat":43.33588,"lon":5.40997,"is_reserved":false,"is_disabled":false,"rental_uris":{"android":"levelo://app?vid=0e5577eb-e782-4733-a49d-962e327ff8c3","ios":"levelo://app?vid=0e5577eb-e782-4733-a49d-962e327ff8c3"},"vehicle_type_id":"4","last_reported":1738066618,"current_range_meters":38800,"station_id":"ce4bhqh2rcd13ifvqhmg","pricing_plan_id":"cebpf4jnsgd1na2vs0mg"},{"bike_id":"4dcddd28-ada1-4c40-824d-38858fdbfc1d","system_id":"levelo_inurba_marseille","lat":43.26041,"lon":5.37546,"is_reserved":false,"is_disabled":false,"rental_uris":{"android":"levelo://app?vid=4dcddd28-ada1-4c40-824d-38858fdbfc1d","ios":"levelo://app?vid=4dcddd28-ada1-4c40-824d-38858fdbfc1d"},"vehicle_type_id":"4","last_reported":1738066618,"current_range_meters":8800,"station_id":"ce4bhgh2rcd13ifvqfa0","pricing_plan_id":"cebpf4jnsgd1na2vs0mg"},{"bike_id":"96c6d005-88bb-4fd6-98f4-0a014c553eb8","system_id":"levelo_inurba_marseille","lat":43.3302,"lon":5.39049,"is_reserved":false,"is_disabled":false,"rental_uris":{"android":"levelo://app?vid=96c6d005-88bb-4fd6-98f4-0a014c553eb8","ios":"levelo://app?vid=96c6d005-88bb-4fd6-98f4-0a014c553eb8"},"vehicle_type_id":"4","last_reported":1738066618,"current_range_meters":38400,"station_id":"ce4bhr92rcd13ifvqhrg","pricing_plan_id":"cebpf4jnsgd1na2vs0mg"},{"bike_id":"a4d2bad1-6969-4206-a602-c31095db1a61","system_id":"levelo_inurba_marseille","lat":43.29915,"lon":5.37467,"is_reserved":false,"is_disabled":false,"rental_uris":{"android":"levelo://app?vid=a4d2bad1-6969-4206-a602-c31095db1a61","ios":"levelo://app?vid=a4d2bad1-6969-4206-a602-c31095db1a61"},"vehicle_type_id":"4","last_reported":1738066618,"current_range_meters":38800,"station_id":"ce4bgjh2rcd13ifvqbg0","pricing_plan_id":"cebpf4jnsgd1na2vs0mg"},{"bike_id":"5c388708-e3f2-4bbd-88d9-c199a31e81f9","system_id":"levelo_inurba_marseille","lat":43.28756,"lon":5.4,"is_reserved":false,"is_disabled":true,"rental_uris":{"android":"levelo://app?vid=5c388708-e3f2-4bbd-88d9-c199a31e81f9","ios":"levelo://app?vid=5c388708-e3f2-4bbd-88d9-c199a31e81f9"},"vehicle_type_id":"4","last_reported":1738066618,"current_range_meters":36800,"station_id":"ce4bho92rcd13ifvqh3g","pricing_plan_id":"cebpf4jnsgd1na2vs0mg"},{"bike_id":"db8c8f41-5783-4b49-88a2-a795213bf1f3","system_id":"levelo_inurba_marseille","lat":43.299885,"lon":5.371794,"is_reserved":false,"is_disabled":false,"rental_uris":{"android":"levelo://app?vid=db8c8f41-5783-4b49-88a2-a795213bf1f3","ios":"levelo://app?vid=db8c8f41-5783-4b49-88a2-a795213bf1f3"},"vehicle_type_id":"4","last_reported":1738066618,"current_range_meters":24400,"station_id":"ce4bgr92rcd13ifvqc7g","pricing_plan_id":"cebpf4jnsgd1na2vs0mg"},{"bike_id":"7b2f5f64-8d5b-4c7d-a864-3b434ad17a80","system_id":"levelo_inurba_marseille","lat":43.29725,"lon":5.37694,"is_reserved":false,"is_disabled":false,"rental_uris":{"android":"levelo://app?vid=7b2f5f64-8d5b-4c7d-a864-3b434ad17a80","ios":"levelo://app?vid=7b2f5f64-8d5b-4c7d-a864-3b434ad17a80"},"vehicle_type_id":"4","last_reported":1738066618,"current_range_meters":18000,"station_id":"ce4bgkh2rcd13ifvqbl0","pricing_plan_id":"cebpf4jnsgd1na2vs0mg"},{"bike_id":"65d01f74-0ed5-436b-ba97-a8eccb8dc1f7","system_id":"levelo_inurba_marseille","lat":43.30253,"lon":5.40077,"is_reserved":false,"is_disabled":false,"rental_uris":{"android":"levelo://app?vid=65d01f74-0ed5-436b-ba97-a8eccb8dc1f7","ios":"levelo://app?vid=65d01f74-0ed5-436b-ba97-a8eccb8dc1f7"},"vehicle_type_id":"4","last_reported":1738066618,"current_range_meters":28000,"station_id":"ce4bgvh2rcd13ifvqcs0","pricing_plan_id":"cebpf4jnsgd1na2vs0mg"},{"bike_id":"d6e771bb-f496-4392-8f11-9a8517e12dd2","system_id":"levelo_inurba_marseille","lat":43.29091,"lon":5.38143,"is_reserved":false,"is_disabled":false,"rental_uris":{"android":"levelo://app?vid=d6e771bb-f496-4392-8f11-9a8517e12dd2","ios":"levelo://app?vid=d6e771bb-f496-4392-8f11-9a8517e12dd2"},"vehicle_type_id":"4","last_reported":1738066618,"current_range_meters":31200,"station_id":"ce4bh512rcd13ifvqe2g","pricing_plan_id":"cebpf4jnsgd1na2vs0mg"},{"bike_id":"d302b16d-f581-4992-9151-b0c15c078cdc","system_id":"levelo_inurba_marseille","lat":43.268048,"lon":5.402644,"is_reserved":false,"is_disabled":false,"rental_uris":{"android":"levelo://app?vid=d302b16d-f581-4992-9151-b0c15c078cdc","ios":"levelo://app?vid=d302b16d-f581-4992-9151-b0c15c078cdc"},"vehicle_type_id":"4","last_reported":1738066618,"current_range_meters":38800,"station_id":"ce501612rcd8frsf0b60","pricing_plan_id":"cebpf4jnsgd1na2vs0mg"},{"bike_id":"7fdce8e7-f4f3-4cc9-a881-56ece1ecdb22","system_id":"levelo_inurba_marseille","lat":43.27964,"lon":5.38695,"is_reserved":false,"is_disabled":true,"rental_uris":{"android":"levelo://app?vid=7fdce8e7-f4f3-4cc9-a881-56ece1ecdb22","ios":"levelo://app?vid=7fdce8e7-f4f3-4cc9-a881-56ece1ecdb22"},"vehicle_type_id":"4","last_reported":1738066618,"current_range_meters":400,"station_id":"ce4bhg12rcd13ifvqf80","pricing_plan_id":"cebpf4jnsgd1na2vs0mg"},{"bike_id":"b25d1ea8-9930-4511-a6bd-1f386fd0ee6a","system_id":"levelo_inurba_marseille","lat":43.26026,"lon":5.37554,"is_reserved":false,"is_disabled":false,"rental_uris":{"android":"levelo://app?vid=b25d1ea8-9930-4511-a6bd-1f386fd0ee6a","ios":"levelo://app?vid=b25d1ea8-9930-4511-a6bd-1f386fd0ee6a"},"vehicle_type_id":"4","last_reported":1738066618,"current_range_meters":38800,"station_id":"ce4bhgh2rcd13ifvqfa0","pricing_plan_id":"cebpf4jnsgd1na2vs0mg"},{"bike_id":"26b11614-6415-40a3-bed2-5926abfaad8a","system_id":"levelo_inurba_marseille","lat":43.2669,"lon":5.38266,"is_reserved":false,"is_disabled":true,"rental_uris":{"android":"levelo://app?vid=26b11614-6415-40a3-bed2-5926abfaad8a","ios":"levelo://app?vid=26b11614-6415-40a3-bed2-5926abfaad8a"},"vehicle_type_id":"4","last_reported":1738066618,"current_range_meters":32000,"station_id":"ce4bhg92rcd13ifvqf90","pricing_plan_id":"cebpf4jnsgd1na2vs0mg"},{"bike_id":"05842d9c-388f-43e0-bc27-d826bd7ff1ce","system_id":"levelo_inurba_marseille","lat":43.30536,"lon":5.36704,"is_reserved":false,"is_disabled":false,"rental_uris":{"android":"levelo://app?vid=05842d9c-388f-43e0-bc27-d826bd7ff1ce","ios":"levelo://app?vid=05842d9c-388f-43e0-bc27-d826bd7ff1ce"},"vehicle_type_id":"4","last_reported":1738066618,"current_range_meters":25200,"station_id":"ce4bgrp2rcd13ifvqc9g","pricing_plan_id":"cebpf4jnsgd1na2vs0mg"},{"bike_id":"12f85043-32ca-49b8-bd75-39b0a52fbb53","system_id":"levelo_inurba_marseille","lat":43.27499,"lon":5.42457,"is_reserved":false,"is_disabled":false,"rental_uris":{"android":"levelo://app?vid=12f85043-32ca-49b8-bd75-39b0a52fbb53","ios":"levelo://app?vid=12f85043-32ca-49b8-bd75-39b0a52fbb53"},"vehicle_type_id":"4","last_reported":1738066618,"current_range_meters":32000,"station_id":"ce4bhn92rcd13ifvqgrg","pricing_plan_id":"cebpf4jnsgd1na2vs0mg"},{"bike_id":"4cd885e7-07fa-42ad-a294-3a57579ff57e","system_id":"levelo_inurba_marseille","lat":43.27498,"lon":5.42454,"is_reserved":false,"is_disabled":false,"rental_uris":{"android":"levelo://app?vid=4cd885e7-07fa-42ad-a294-3a57579ff57e","ios":"levelo://app?vid=4cd885e7-07fa-42ad-a294-3a57579ff57e"},"vehicle_type_id":"4","last_reported":1738066618,"current_range_meters":12800,"station_id":"ce4bhn92rcd13ifvqgrg","pricing_plan_id":"cebpf4jnsgd1na2vs0mg"},{"bike_id":"bfc74747-9204-47e7-88ee-007d18aacd46","system_id":"levelo_inurba_marseille","lat":43.29854,"lon":5.36285,"is_reserved":false,"is_disabled":false,"rental_uris":{"android":"levelo://app?vid=bfc74747-9204-47e7-88ee-007d18aacd46","ios":"levelo://app?vid=bfc74747-9204-47e7-88ee-007d18aacd46"},"vehicle_type_id":"4","last_reported":1738066618,"current_range_meters":16800,"station_id":"ce4bgpp2rcd13ifvqc3g","pricing_plan_id":"cebpf4jnsgd1na2vs0mg"},{"bike_id":"d390c7b7-2919-4494-ada1-b28fda53aa0f","system_id":"levelo_inurba_marseille","lat":43.25103,"lon":5.40325,"is_reserved":false,"is_disabled":false,"rental_uris":{"android":"levelo://app?vid=d390c7b7-2919-4494-ada1-b28fda53aa0f","ios":"levelo://app?vid=d390c7b7-2919-4494-ada1-b28fda53aa0f"},"vehicle_type_id":"4","last_reported":1738066618,"current_range_meters":11200,"station_id":"ce4bhlh2rcd13ifvqgig","pricing_plan_id":"cebpf4jnsgd1na2vs0mg"},{"bike_id":"75f78423-7bb1-46bc-9291-8f61438106b2","system_id":"levelo_inurba_marseille","lat":43.33001,"lon":5.39054,"is_reserved":false,"is_disabled":false,"rental_uris":{"android":"levelo://app?vid=75f78423-7bb1-46bc-9291-8f61438106b2","ios":"levelo://app?vid=75f78423-7bb1-46bc-9291-8f61438106b2"},"vehicle_type_id":"4","last_reported":1738066618,"current_range_meters":30000,"station_id":"ce4bhr92rcd13ifvqhrg","pricing_plan_id":"cebpf4jnsgd1na2vs0mg"},{"bike_id":"6b58c0d3-b393-43a6-b788-79693e31f83f","system_id":"levelo_inurba_marseille","lat":43.2706,"lon":5.42298,"is_reserved":false,"is_disabled":false,"rental_uris":{"android":"levelo://app?vid=6b58c0d3-b393-43a6-b788-79693e31f83f","ios":"levelo://app?vid=6b58c0d3-b393-43a6-b788-79693e31f83f"},"vehicle_type_id":"4","last_reported":1738066618,"current_range_meters":39200,"station_id":"ce4bhk92rcd13ifvqgb0","pricing_plan_id":"cebpf4jnsgd1na2vs0mg"},{"bike_id":"5b093e90-300a-4b0a-a15d-ae22ef06f7a6","system_id":"levelo_inurba_marseille","lat":43.30524,"lon":5.36557,"is_reserved":false,"is_disabled":false,"rental_uris":{"android":"levelo://app?vid=5b093e90-300a-4b0a-a15d-ae22ef06f7a6","ios":"levelo://app?vid=5b093e90-300a-4b0a-a15d-ae22ef06f7a6"},"vehicle_type_id":"4","last_reported":1738066618,"current_range_meters":32400,"station_id":"ce4bgs12rcd13ifvqcag","pricing_plan_id":"cebpf4jnsgd1na2vs0mg"},{"bike_id":"8906b01c-c546-42d8-8a71-d3e4c23c32f6","system_id":"levelo_inurba_marseille","lat":43.2438,"lon":5.37065,"is_reserved":false,"is_disabled":false,"rental_uris":{"android":"levelo://app?vid=8906b01c-c546-42d8-8a71-d3e4c23c32f6","ios":"levelo://app?vid=8906b01c-c546-42d8-8a71-d3e4c23c32f6"},"vehicle_type_id":"4","last_reported":1738066618,"current_range_meters":38800,"station_id":"ce4bhhh2rcd13ifvqfk0","pricing_plan_id":"cebpf4jnsgd1na2vs0mg"},{"bike_id":"5a345101-40d7-408a-87d7-d5d4a6572658","system_id":"levelo_inurba_marseille","lat":43.30202,"lon":5.38972,"is_reserved":false,"is_disabled":false,"rental_uris":{"android":"levelo://app?vid=5a345101-40d7-408a-87d7-d5d4a6572658","ios":"levelo://app?vid=5a345101-40d7-408a-87d7-d5d4a6572658"},"vehicle_type_id":"4","last_reported":1738066618,"current_range_meters":7200,"station_id":"ce4bh0h2rcd13ifvqd50","pricing_plan_id":"cebpf4jnsgd1na2vs0mg"},{"bike_id":"b8c29f2b-1f86-4f45-adfd-ec02ee537576","system_id":"levelo_inurba_marseille","lat":43.29266,"lon":5.40129,"is_reserved":false,"is_disabled":false,"rental_uris":{"android":"levelo://app?vid=b8c29f2b-1f86-4f45-adfd-ec02ee537576","ios":"levelo://app?vid=b8c29f2b-1f86-4f45-adfd-ec02ee537576"},"vehicle_type_id":"4","last_reported":1738066618,"current_range_meters":26000,"station_id":"ce4bh312rcd13ifvqdk0","pricing_plan_id":"cebpf4jnsgd1na2vs0mg"},{"bike_id":"6629ea50-bbe0-48da-bc0b-667611788b58","system_id":"levelo_inurba_marseille","lat":43.2997,"lon":5.3849,"is_reserved":false,"is_disabled":true,"rental_uris":{"android":"levelo://app?vid=6629ea50-bbe0-48da-bc0b-667611788b58","ios":"levelo://app?vid=6629ea50-bbe0-48da-bc0b-667611788b58"},"vehicle_type_id":"4","last_reported":1738066618,"current_range_meters":38800,"station_id":"ce4bgj92rcd13ifvqbd0","pricing_plan_id":"cebpf4jnsgd1na2vs0mg"},{"bike_id":"9850fffe-c13a-4cb6-8dea-9bd975704721","system_id":"levelo_inurba_marseille","lat":43.29305,"lon":5.37456,"is_reserved":false,"is_disabled":false,"rental_uris":{"android":"levelo://app?vid=9850fffe-c13a-4cb6-8dea-9bd975704721","ios":"levelo://app?vid=9850fffe-c13a-4cb6-8dea-9bd975704721"},"vehicle_type_id":"4","last_reported":1738066618,"current_range_meters":26000,"station_id":"ce4bgi12rcd13ifvqb70","pricing_plan_id":"cebpf4jnsgd1na2vs0mg"},{"bike_id":"006c734c-161c-4988-a371-93795cddab9e","system_id":"levelo_inurba_marseille","lat":43.25107,"lon":5.40326,"is_reserved":false,"is_disabled":false,"rental_uris":{"android":"levelo://app?vid=006c734c-161c-4988-a371-93795cddab9e","ios":"levelo://app?vid=006c734c-161c-4988-a371-93795cddab9e"},"vehicle_type_id":"4","last_reported":1738066618,"current_range_meters":37600,"station_id":"ce4bhlh2rcd13ifvqgig","pricing_plan_id":"cebpf4jnsgd1na2vs0mg"},{"bike_id":"74f5b4fb-c983-4859-8997-cbdd1d625684","system_id":"levelo_inurba_marseille","lat":43.25932,"lon":5.40892,"is_reserved":false,"is_disabled":false,"rental_uris":{"android":"levelo://app?vid=74f5b4fb-c983-4859-8997-cbdd1d625684","ios":"levelo://app?vid=74f5b4fb-c983-4859-8997-cbdd1d625684"},"vehicle_type_id":"4","last_reported":1738066618,"current_range_meters":33200,"station_id":"ce4bhm92rcd13ifvqglg","pricing_plan_id":"cebpf4jnsgd1na2vs0mg"},{"bike_id":"79c90c8a-816b-46b4-9c46-d33ce70db34a","system_id":"levelo_inurba_marseille","lat":43.32103,"lon":5.36803,"is_reserved":false,"is_disabled":false,"rental_uris":{"android":"levelo://app?vid=79c90c8a-816b-46b4-9c46-d33ce70db34a","ios":"levelo://app?vid=79c90c8a-816b-46b4-9c46-d33ce70db34a"},"vehicle_type_id":"4","last_reported":1738066618,"current_range_meters":32800,"station_id":"ce4bhrh2rcd13ifvqhug","pricing_plan_id":"cebpf4jnsgd1na2vs0mg"},{"bike_id":"528dd257-e231-44f4-876b-6552ff415f71","system_id":"levelo_inurba_marseille","lat":43.229293,"lon":5.353789,"is_reserved":false,"is_disabled":false,"rental_uris":{"android":"levelo://app?vid=528dd257-e231-44f4-876b-6552ff415f71","ios":"levelo://app?vid=528dd257-e231-44f4-876b-6552ff415f71"},"vehicle_type_id":"4","last_reported":1738066618,"current_range_meters":38000,"station_id":"cpo3532slgdg3j2ikp40","pricing_plan_id":"cebpf4jnsgd1na2vs0mg"},{"bike_id":"c8a3a0ed-dff2-4f3c-87dc-2e6b47b1ad28","system_id":"levelo_inurba_marseille","lat":43.337444,"lon":5.374475,"is_reserved":false,"is_disabled":true,"rental_uris":{"android":"levelo://app?vid=c8a3a0ed-dff2-4f3c-87dc-2e6b47b1ad28","ios":"levelo://app?vid=c8a3a0ed-dff2-4f3c-87dc-2e6b47b1ad28"},"vehicle_type_id":"4","last_reported":1738066618,"current_range_meters":5600,"station_id":"","pricing_plan_id":"cebpf4jnsgd1na2vs0mg"},{"bike_id":"f649570c-5587-473b-a0b1-17620187169c","system_id":"levelo_inurba_marseille","lat":43.2827,"lon":5.35076,"is_reserved":false,"is_disabled":true,"rental_uris":{"android":"levelo://app?vid=f649570c-5587-473b-a0b1-17620187169c","ios":"levelo://app?vid=f649570c-5587-473b-a0b1-17620187169c"},"vehicle_type_id":"4","last_reported":1738066618,"current_range_meters":38800,"station_id":"ce4bhbp2rcd13ifvqerg","pricing_plan_id":"cebpf4jnsgd1na2vs0mg"},{"bike_id":"061a807c-1db8-46c7-beec-da6308b151ea","system_id":"levelo_inurba_marseille","lat":43.29617,"lon":5.38105,"is_reserved":false,"is_disabled":true,"rental_uris":{"android":"levelo://app?vid=061a807c-1db8-46c7-beec-da6308b151ea","ios":"levelo://app?vid=061a807c-1db8-46c7-beec-da6308b151ea"},"vehicle_type_id":"4","last_reported":1738066618,"current_range_meters":32800,"station_id":"ce4bgl12rcd13ifvqbo0","pricing_plan_id":"cebpf4jnsgd1na2vs0mg"},{"bike_id":"38540e81-16ab-49ee-bc5b-9723b654df44","system_id":"levelo_inurba_marseille","lat":43.27809,"lon":5.40694,"is_reserved":false,"is_disabled":false,"rental_uris":{"android":"levelo://app?vid=38540e81-16ab-49ee-bc5b-9723b654df44","ios":"levelo://app?vid=38540e81-16ab-49ee-bc5b-9723b654df44"},"vehicle_type_id":"4","last_reported":1738066618,"current_range_meters":10000,"station_id":"ce4bhnh2rcd13ifvqgtg","pricing_plan_id":"cebpf4jnsgd1na2vs0mg"},{"bike_id":"c56189c5-04b6-46c3-862e-b1fd4715143e","system_id":"levelo_inurba_marseille","lat":43.23145,"lon":5.43726,"is_reserved":false,"is_disabled":false,"rental_uris":{"android":"levelo://app?vid=c56189c5-04b6-46c3-862e-b1fd4715143e","ios":"levelo://app?vid=c56189c5-04b6-46c3-862e-b1fd4715143e"},"vehicle_type_id":"4","last_reported":1738066618,"current_range_meters":24400,"station_id":"ce4bhmp2rcd13ifvqgog","pricing_plan_id":"cebpf4jnsgd1na2vs0mg"},{"bike_id":"7125fabb-d4fe-450e-b9a8-9b858c3dc86d","system_id":"levelo_inurba_marseille","lat":43.32474,"lon":5.36598,"is_reserved":false,"is_disabled":false,"rental_uris":{"android":"levelo://app?vid=7125fabb-d4fe-450e-b9a8-9b858c3dc86d","ios":"levelo://app?vid=7125fabb-d4fe-450e-b9a8-9b858c3dc86d"},"vehicle_type_id":"4","last_reported":1738066618,"current_range_meters":28800,"station_id":"ce4bhs12rcd13ifvqhvg","pricing_plan_id":"cebpf4jnsgd1na2vs0mg"},{"bike_id":"450d489c-1fee-4f3e-86b7-b3ca0326d0a4","system_id":"levelo_inurba_marseille","lat":43.29443,"lon":5.39739,"is_reserved":false,"is_disabled":false,"rental_uris":{"android":"levelo://app?vid=450d489c-1fee-4f3e-86b7-b3ca0326d0a4","ios":"levelo://app?vid=450d489c-1fee-4f3e-86b7-b3ca0326d0a4"},"vehicle_type_id":"4","last_reported":1738066618,"current_range_meters":12400,"station_id":"ce4bh3h2rcd13ifvqdo0","pricing_plan_id":"cebpf4jnsgd1na2vs0mg"},{"bike_id":"7f901d0c-1850-40ab-afa1-77b86dfe3373","system_id":"levelo_inurba_marseille","lat":43.29576,"lon":5.36739,"is_reserved":false,"is_disabled":false,"rental_uris":{"android":"levelo://app?vid=7f901d0c-1850-40ab-afa1-77b86dfe3373","ios":"levelo://app?vid=7f901d0c-1850-40ab-afa1-77b86dfe3373"},"vehicle_type_id":"4","last_reported":1738066618,"current_range_meters":38000,"station_id":"ce4bgph2rcd13ifvqc2g","pricing_plan_id":"cebpf4jnsgd1na2vs0mg"},{"bike_id":"cd82f50f-1e86-40da-9758-123ed9f78048","system_id":"levelo_inurba_marseille","lat":43.27416,"lon":5.39418,"is_reserved":false,"is_disabled":false,"rental_uris":{"android":"levelo://app?vid=cd82f50f-1e86-40da-9758-123ed9f78048","ios":"levelo://app?vid=cd82f50f-1e86-40da-9758-123ed9f78048"},"vehicle_type_id":"4","last_reported":1738066618,"current_range_meters":34800,"station_id":"ce4bhdp2rcd13ifvqf20","pricing_plan_id":"cebpf4jnsgd1na2vs0mg"},{"bike_id":"ac87515a-8bb4-48b1-b85c-2c3a2a77a9ff","system_id":"levelo_inurba_marseille","lat":43.29733,"lon":5.37683,"is_reserved":false,"is_disabled":false,"rental_uris":{"android":"levelo://app?vid=ac87515a-8bb4-48b1-b85c-2c3a2a77a9ff","ios":"levelo://app?vid=ac87515a-8bb4-48b1-b85c-2c3a2a77a9ff"},"vehicle_type_id":"4","last_reported":1738066618,"current_range_meters":36400,"station_id":"ce4bgkh2rcd13ifvqbl0","pricing_plan_id":"cebpf4jnsgd1na2vs0mg"},{"bike_id":"9838cc78-2b53-49d3-ae13-82df62c4fd64","system_id":"levelo_inurba_marseille","lat":43.28412,"lon":5.40934,"is_reserved":false,"is_disabled":true,"rental_uris":{"android":"levelo://app?vid=9838cc78-2b53-49d3-ae13-82df62c4fd64","ios":"levelo://app?vid=9838cc78-2b53-49d3-ae13-82df62c4fd64"},"vehicle_type_id":"4","last_reported":1738066618,"current_range_meters":0,"station_id":"","pricing_plan_id":"cebpf4jnsgd1na2vs0mg"},{"bike_id":"f3a886a3-500d-4d32-a120-4a7101c0f911","system_id":"levelo_inurba_marseille","lat":43.26942,"lon":5.4026,"is_reserved":false,"is_disabled":false,"rental_uris":{"android":"levelo://app?vid=f3a886a3-500d-4d32-a120-4a7101c0f911","ios":"levelo://app?vid=f3a886a3-500d-4d32-a120-4a7101c0f911"},"vehicle_type_id":"4","last_reported":1738066618,"current_range_meters":38800,"station_id":"cjm6bp8fraef2m0cb0m0","pricing_plan_id":"cebpf4jnsgd1na2vs0mg"},{"bike_id":"e3bcb103-3261-4bf8-9948-80edaada4459","system_id":"levelo_inurba_marseille","lat":43.295643,"lon":5.375268,"is_reserved":false,"is_disabled":false,"rental_uris":{"android":"levelo://app?vid=e3bcb103-3261-4bf8-9948-80edaada4459","ios":"levelo://app?vid=e3bcb103-3261-4bf8-9948-80edaada4459"},"vehicle_type_id":"4","last_reported":1738066618,"current_range_meters":38800,"station_id":"ce4bgh92rcd13ifvqb50","pricing_plan_id":"cebpf4jnsgd1na2vs0mg"},{"bike_id":"08f4db7c-088d-4d66-9ae3-751c57486c2e","system_id":"levelo_inurba_marseille","lat":43.30901,"lon":5.36852,"is_reserved":false,"is_disabled":false,"rental_uris":{"android":"levelo://app?vid=08f4db7c-088d-4d66-9ae3-751c57486c2e","ios":"levelo://app?vid=08f4db7c-088d-4d66-9ae3-751c57486c2e"},"vehicle_type_id":"4","last_reported":1738066618,"current_range_meters":10800,"station_id":"ce4bgn92rcd13ifvqbvg","pricing_plan_id":"cebpf4jnsgd1na2vs0mg"},{"bike_id":"1c756a91-157c-4d1a-b52a-f5d48998978e","system_id":"levelo_inurba_marseille","lat":43.27421,"lon":5.39428,"is_reserved":false,"is_disabled":false,"rental_uris":{"android":"levelo://app?vid=1c756a91-157c-4d1a-b52a-f5d48998978e","ios":"levelo://app?vid=1c756a91-157c-4d1a-b52a-f5d48998978e"},"vehicle_type_id":"4","last_reported":1738066618,"current_range_meters":33600,"station_id":"ce4bhdp2rcd13ifvqf20","pricing_plan_id":"cebpf4jnsgd1na2vs0mg"},{"bike_id":"b9cf0654-cce0-4bf0-95ec-3711a08058e2","system_id":"levelo_inurba_marseille","lat":43.30536,"lon":5.36727,"is_reserved":false,"is_disabled":false,"rental_uris":{"android":"levelo://app?vid=b9cf0654-cce0-4bf0-95ec-3711a08058e2","ios":"levelo://app?vid=b9cf0654-cce0-4bf0-95ec-3711a08058e2"},"vehicle_type_id":"4","last_reported":1738066618,"current_range_meters":8800,"station_id":"ce4bgrp2rcd13ifvqc9g","pricing_plan_id":"cebpf4jnsgd1na2vs0mg"},{"bike_id":"ce14b370-7137-4ac2-9921-a8e095dfbc96","system_id":"levelo_inurba_marseille","lat":43.2958,"lon":5.39981,"is_reserved":false,"is_disabled":false,"rental_uris":{"android":"levelo://app?vid=ce14b370-7137-4ac2-9921-a8e095dfbc96","ios":"levelo://app?vid=ce14b370-7137-4ac2-9921-a8e095dfbc96"},"vehicle_type_id":"4","last_reported":1738066618,"current_range_meters":27200,"station_id":"ce4bh312rcd13ifvqdj0","pricing_plan_id":"cebpf4jnsgd1na2vs0mg"},{"bike_id":"8d198b1c-d183-4e75-867d-bee140abe05c","system_id":"levelo_inurba_marseille","lat":43.307777,"lon":5.429816,"is_reserved":false,"is_disabled":false,"rental_uris":{"android":"levelo://app?vid=8d198b1c-d183-4e75-867d-bee140abe05c","ios":"levelo://app?vid=8d198b1c-d183-4e75-867d-bee140abe05c"},"vehicle_type_id":"4","last_reported":1738066618,"current_range_meters":17600,"station_id":"ce4bhph2rcd13ifvqheg","pricing_plan_id":"cebpf4jnsgd1na2vs0mg"},{"bike_id":"d2f97514-f07f-4a0b-8e03-aa116950ece7","system_id":"levelo_inurba_marseille","lat":43.29068,"lon":5.37162,"is_reserved":false,"is_disabled":false,"rental_uris":{"android":"levelo://app?vid=d2f97514-f07f-4a0b-8e03-aa116950ece7","ios":"levelo://app?vid=d2f97514-f07f-4a0b-8e03-aa116950ece7"},"vehicle_type_id":"4","last_reported":1738066618,"current_range_meters":9200,"station_id":"ce4bh5p2rcd13ifvqe4g","pricing_plan_id":"cebpf4jnsgd1na2vs0mg"},{"bike_id":"c67178bf-69ce-4013-9555-6d5bb986feb7","system_id":"levelo_inurba_marseille","lat":43.25091,"lon":5.39523,"is_reserved":false,"is_disabled":false,"rental_uris":{"android":"levelo://app?vid=c67178bf-69ce-4013-9555-6d5bb986feb7","ios":"levelo://app?vid=c67178bf-69ce-4013-9555-6d5bb986feb7"},"vehicle_type_id":"4","last_reported":1738066618,"current_range_meters":37600,"station_id":"ce4bhm12rcd13ifvqgkg","pricing_plan_id":"cebpf4jnsgd1na2vs0mg"},{"bike_id":"2e0a8b86-b457-48a0-8577-213b01080398","system_id":"levelo_inurba_marseille","lat":43.23188,"lon":5.35548,"is_reserved":false,"is_disabled":false,"rental_uris":{"android":"levelo://app?vid=2e0a8b86-b457-48a0-8577-213b01080398","ios":"levelo://app?vid=2e0a8b86-b457-48a0-8577-213b01080398"},"vehicle_type_id":"4","last_reported":1738066618,"current_range_meters":38800,"station_id":"ce4bhu92rcd13ifvqi70","pricing_plan_id":"cebpf4jnsgd1na2vs0mg"},{"bike_id":"ad1b1fcc-4b97-4384-8c00-42b188f65aeb","system_id":"levelo_inurba_marseille","lat":43.303177,"lon":5.36902,"is_reserved":false,"is_disabled":false,"rental_uris":{"android":"levelo://app?vid=ad1b1fcc-4b97-4384-8c00-42b188f65aeb","ios":"levelo://app?vid=ad1b1fcc-4b97-4384-8c00-42b188f65aeb"},"vehicle_type_id":"4","last_reported":1738066618,"current_range_meters":18000,"station_id":"ce4bgqh2rcd13ifvqc5g","pricing_plan_id":"cebpf4jnsgd1na2vs0mg"},{"bike_id":"5e223a13-d9d6-4104-a061-2e2e2022fe21","system_id":"levelo_inurba_marseille","lat":43.23111,"lon":5.43701,"is_reserved":false,"is_disabled":false,"rental_uris":{"android":"levelo://app?vid=5e223a13-d9d6-4104-a061-2e2e2022fe21","ios":"levelo://app?vid=5e223a13-d9d6-4104-a061-2e2e2022fe21"},"vehicle_type_id":"4","last_reported":1738066618,"current_range_meters":20000,"station_id":"ce4bhmp2rcd13ifvqgog","pricing_plan_id":"cebpf4jnsgd1na2vs0mg"},{"bike_id":"d979d8d2-ec65-47af-9229-e4270aab279a","system_id":"levelo_inurba_marseille","lat":43.23061,"lon":5.35493,"is_reserved":false,"is_disabled":false,"rental_uris":{"android":"levelo://app?vid=d979d8d2-ec65-47af-9229-e4270aab279a","ios":"levelo://app?vid=d979d8d2-ec65-47af-9229-e4270aab279a"},"vehicle_type_id":"4","last_reported":1738066618,"current_range_meters":24400,"station_id":"cpo3342slgdg3j2ifvpg","pricing_plan_id":"cebpf4jnsgd1na2vs0mg"},{"bike_id":"beec82ff-6bac-4064-befa-4bdf4421761b","system_id":"levelo_inurba_marseille","lat":43.31722,"lon":5.42407,"is_reserved":false,"is_disabled":false,"rental_uris":{"android":"levelo://app?vid=beec82ff-6bac-4064-befa-4bdf4421761b","ios":"levelo://app?vid=beec82ff-6bac-4064-befa-4bdf4421761b"},"vehicle_type_id":"4","last_reported":1738066618,"current_range_meters":8000,"station_id":"ce4bhp92rcd13ifvqhbg","pricing_plan_id":"cebpf4jnsgd1na2vs0mg"},{"bike_id":"af190cbd-d008-43f0-ada0-6e9d26903b20","system_id":"levelo_inurba_marseille","lat":43.32483,"lon":5.36572,"is_reserved":false,"is_disabled":false,"rental_uris":{"android":"levelo://app?vid=af190cbd-d008-43f0-ada0-6e9d26903b20","ios":"levelo://app?vid=af190cbd-d008-43f0-ada0-6e9d26903b20"},"vehicle_type_id":"4","last_reported":1738066618,"current_range_meters":29600,"station_id":"ce4bhs12rcd13ifvqhvg","pricing_plan_id":"cebpf4jnsgd1na2vs0mg"},{"bike_id":"ce52dead-abdd-4763-810d-553c5e482c8c","system_id":"levelo_inurba_marseille","lat":43.2895,"lon":5.39634,"is_reserved":false,"is_disabled":false,"rental_uris":{"android":"levelo://app?vid=ce52dead-abdd-4763-810d-553c5e482c8c","ios":"levelo://app?vid=ce52dead-abdd-4763-810d-553c5e482c8c"},"vehicle_type_id":"4","last_reported":1738066618,"current_range_meters":38000,"station_id":"ce4bh3h2rcd13ifvqdn0","pricing_plan_id":"cebpf4jnsgd1na2vs0mg"},{"bike_id":"6664f5d0-d4fd-4cc2-bf4f-e873b1144bc5","system_id":"levelo_inurba_marseille","lat":43.26682,"lon":5.38274,"is_reserved":false,"is_disabled":false,"rental_uris":{"android":"levelo://app?vid=6664f5d0-d4fd-4cc2-bf4f-e873b1144bc5","ios":"levelo://app?vid=6664f5d0-d4fd-4cc2-bf4f-e873b1144bc5"},"vehicle_type_id":"4","last_reported":1738066618,"current_range_meters":24400,"station_id":"ce4bhg92rcd13ifvqf90","pricing_plan_id":"cebpf4jnsgd1na2vs0mg"},{"bike_id":"79a5c75c-38fd-406b-9561-f12a45139d4a","system_id":"levelo_inurba_marseille","lat":43.28733,"lon":5.37929,"is_reserved":false,"is_disabled":false,"rental_uris":{"android":"levelo://app?vid=79a5c75c-38fd-406b-9561-f12a45139d4a","ios":"levelo://app?vid=79a5c75c-38fd-406b-9561-f12a45139d4a"},"vehicle_type_id":"4","last_reported":1738066618,"current_range_meters":33600,"station_id":"ce4bh9p2rcd13ifvqec0","pricing_plan_id":"cebpf4jnsgd1na2vs0mg"},{"bike_id":"c92f3ed1-1832-45b1-95ae-e066a3c304bb","system_id":"levelo_inurba_marseille","lat":43.3304,"lon":5.39042,"is_reserved":false,"is_disabled":false,"rental_uris":{"android":"levelo://app?vid=c92f3ed1-1832-45b1-95ae-e066a3c304bb","ios":"levelo://app?vid=c92f3ed1-1832-45b1-95ae-e066a3c304bb"},"vehicle_type_id":"4","last_reported":1738066618,"current_range_meters":38400,"station_id":"ce4bhr92rcd13ifvqhrg","pricing_plan_id":"cebpf4jnsgd1na2vs0mg"},{"bike_id":"87c7ae5c-dc00-4f36-9e18-2b2b95fc9c03","system_id":"levelo_inurba_marseille","lat":43.30298,"lon":5.3686,"is_reserved":false,"is_disabled":false,"rental_uris":{"android":"levelo://app?vid=87c7ae5c-dc00-4f36-9e18-2b2b95fc9c03","ios":"levelo://app?vid=87c7ae5c-dc00-4f36-9e18-2b2b95fc9c03"},"vehicle_type_id":"4","last_reported":1738066618,"current_range_meters":18000,"station_id":"ce4bgqh2rcd13ifvqc5g","pricing_plan_id":"cebpf4jnsgd1na2vs0mg"},{"bike_id":"60881969-2b21-4328-b823-e3e5062d06ef","system_id":"levelo_inurba_marseille","lat":43.27523,"lon":5.42452,"is_reserved":false,"is_disabled":false,"rental_uris":{"android":"levelo://app?vid=60881969-2b21-4328-b823-e3e5062d06ef","ios":"levelo://app?vid=60881969-2b21-4328-b823-e3e5062d06ef"},"vehicle_type_id":"4","last_reported":1738066618,"current_range_meters":38800,"station_id":"ce4bhn92rcd13ifvqgrg","pricing_plan_id":"cebpf4jnsgd1na2vs0mg"},{"bike_id":"65e5d743-4939-4264-b58d-d07fa3ba4595","system_id":"levelo_inurba_marseille","lat":43.248057,"lon":5.374599,"is_reserved":false,"is_disabled":false,"rental_uris":{"android":"levelo://app?vid=65e5d743-4939-4264-b58d-d07fa3ba4595","ios":"levelo://app?vid=65e5d743-4939-4264-b58d-d07fa3ba4595"},"vehicle_type_id":"4","last_reported":1738066618,"current_range_meters":38800,"station_id":"ce4bhgh2rcd13ifvqfb0","pricing_plan_id":"cebpf4jnsgd1na2vs0mg"},{"bike_id":"75214a19-3086-4aab-8ba6-a177978da634","system_id":"levelo_inurba_marseille","lat":43.29906,"lon":5.43658,"is_reserved":false,"is_disabled":false,"rental_uris":{"android":"levelo://app?vid=75214a19-3086-4aab-8ba6-a177978da634","ios":"levelo://app?vid=75214a19-3086-4aab-8ba6-a177978da634"},"vehicle_type_id":"4","last_reported":1738066618,"current_range_meters":36400,"station_id":"ce4bhpp2rcd13ifvqhfg","pricing_plan_id":"cebpf4jnsgd1na2vs0mg"},{"bike_id":"30bbb00e-1612-4a25-b2e9-c8ad656fb58a","system_id":"levelo_inurba_marseille","lat":43.3372,"lon":5.39183,"is_reserved":false,"is_disabled":false,"rental_uris":{"android":"levelo://app?vid=30bbb00e-1612-4a25-b2e9-c8ad656fb58a","ios":"levelo://app?vid=30bbb00e-1612-4a25-b2e9-c8ad656fb58a"},"vehicle_type_id":"4","last_reported":1738066618,"current_range_meters":38800,"station_id":"ce4bhr92rcd13ifvqhsg","pricing_plan_id":"cebpf4jnsgd1na2vs0mg"},{"bike_id":"a69f1f6e-725f-4b6a-82ee-11a77350737e","system_id":"levelo_inurba_marseille","lat":43.29521,"lon":5.39049,"is_reserved":false,"is_disabled":false,"rental_uris":{"android":"levelo://app?vid=a69f1f6e-725f-4b6a-82ee-11a77350737e","ios":"levelo://app?vid=a69f1f6e-725f-4b6a-82ee-11a77350737e"},"vehicle_type_id":"4","last_reported":1738066618,"current_range_meters":38800,"station_id":"ce4bh3p2rcd13ifvqdp0","pricing_plan_id":"cebpf4jnsgd1na2vs0mg"},{"bike_id":"61d32efa-d610-4ca6-bf5d-670df8bed511","system_id":"levelo_inurba_marseille","lat":43.30154,"lon":5.39845,"is_reserved":false,"is_disabled":false,"rental_uris":{"android":"levelo://app?vid=61d32efa-d610-4ca6-bf5d-670df8bed511","ios":"levelo://app?vid=61d32efa-d610-4ca6-bf5d-670df8bed511"},"vehicle_type_id":"4","last_reported":1738066618,"current_range_meters":30000,"station_id":"ce4bh0h2rcd13ifvqd40","pricing_plan_id":"cebpf4jnsgd1na2vs0mg"},{"bike_id":"ddeeb021-3aa5-4692-ac65-d696b9db8d28","system_id":"levelo_inurba_marseille","lat":43.33022,"lon":5.39033,"is_reserved":false,"is_disabled":false,"rental_uris":{"android":"levelo://app?vid=ddeeb021-3aa5-4692-ac65-d696b9db8d28","ios":"levelo://app?vid=ddeeb021-3aa5-4692-ac65-d696b9db8d28"},"vehicle_type_id":"4","last_reported":1738066618,"current_range_meters":38800,"station_id":"ce4bhr92rcd13ifvqhrg","pricing_plan_id":"cebpf4jnsgd1na2vs0mg"},{"bike_id":"af721f4e-7a43-4ca7-b439-ce7407c250b4","system_id":"levelo_inurba_marseille","lat":43.30776,"lon":5.37652,"is_reserved":false,"is_disabled":false,"rental_uris":{"android":"levelo://app?vid=af721f4e-7a43-4ca7-b439-ce7407c250b4","ios":"levelo://app?vid=af721f4e-7a43-4ca7-b439-ce7407c250b4"},"vehicle_type_id":"4","last_reported":1738066618,"current_range_meters":33200,"station_id":"ce4bgv92rcd13ifvqcq0","pricing_plan_id":"cebpf4jnsgd1na2vs0mg"},{"bike_id":"994e8563-66b2-468c-ad58-ff2a83d1cad9","system_id":"levelo_inurba_marseille","lat":43.28667,"lon":5.38668,"is_reserved":false,"is_disabled":false,"rental_uris":{"android":"levelo://app?vid=994e8563-66b2-468c-ad58-ff2a83d1cad9","ios":"levelo://app?vid=994e8563-66b2-468c-ad58-ff2a83d1cad9"},"vehicle_type_id":"4","last_reported":1738066618,"current_range_meters":8800,"station_id":"ce4bh492rcd13ifvqdug","pricing_plan_id":"cebpf4jnsgd1na2vs0mg"},{"bike_id":"3c9c9088-9c27-4609-bc62-8218c0dc2be8","system_id":"levelo_inurba_marseille","lat":43.23197,"lon":5.35564,"is_reserved":false,"is_disabled":false,"rental_uris":{"android":"levelo://app?vid=3c9c9088-9c27-4609-bc62-8218c0dc2be8","ios":"levelo://app?vid=3c9c9088-9c27-4609-bc62-8218c0dc2be8"},"vehicle_type_id":"4","last_reported":1738066618,"current_range_meters":33200,"station_id":"ce4bhu92rcd13ifvqi70","pricing_plan_id":"cebpf4jnsgd1na2vs0mg"},{"bike_id":"f04f841c-b52f-408d-848c-787fbaebd160","system_id":"levelo_inurba_marseille","lat":43.24073,"lon":5.37763,"is_reserved":false,"is_disabled":false,"rental_uris":{"android":"levelo://app?vid=f04f841c-b52f-408d-848c-787fbaebd160","ios":"levelo://app?vid=f04f841c-b52f-408d-848c-787fbaebd160"},"vehicle_type_id":"4","last_reported":1738066618,"current_range_meters":20000,"station_id":"ce4bhnp2rcd13ifvqgvg","pricing_plan_id":"cebpf4jnsgd1na2vs0mg"},{"bike_id":"4c6e6037-c2de-4c78-8ebc-763221a61613","system_id":"levelo_inurba_marseille","lat":43.2293,"lon":5.35369,"is_reserved":false,"is_disabled":false,"rental_uris":{"android":"levelo://app?vid=4c6e6037-c2de-4c78-8ebc-763221a61613","ios":"levelo://app?vid=4c6e6037-c2de-4c78-8ebc-763221a61613"},"vehicle_type_id":"4","last_reported":1738066618,"current_range_meters":38800,"station_id":"cpo3532slgdg3j2ikp40","pricing_plan_id":"cebpf4jnsgd1na2vs0mg"},{"bike_id":"15af56a0-50cc-4287-938a-57061c15f0c6","system_id":"levelo_inurba_marseille","lat":43.33018,"lon":5.39028,"is_reserved":false,"is_disabled":false,"rental_uris":{"android":"levelo://app?vid=15af56a0-50cc-4287-938a-57061c15f0c6","ios":"levelo://app?vid=15af56a0-50cc-4287-938a-57061c15f0c6"},"vehicle_type_id":"4","last_reported":1738066618,"current_range_meters":32400,"station_id":"ce4bhr92rcd13ifvqhrg","pricing_plan_id":"cebpf4jnsgd1na2vs0mg"},{"bike_id":"c5b4b0de-be85-4e58-bc32-b96b8050a2a3","system_id":"levelo_inurba_marseille","lat":43.292816,"lon":5.374441,"is_reserved":false,"is_disabled":false,"rental_uris":{"android":"levelo://app?vid=c5b4b0de-be85-4e58-bc32-b96b8050a2a3","ios":"levelo://app?vid=c5b4b0de-be85-4e58-bc32-b96b8050a2a3"},"vehicle_type_id":"4","last_reported":1738066618,"current_range_meters":36400,"station_id":"ce4bgi12rcd13ifvqb70","pricing_plan_id":"cebpf4jnsgd1na2vs0mg"},{"bike_id":"20d02884-80ec-444a-83cc-d27cfff48a39","system_id":"levelo_inurba_marseille","lat":43.2963,"lon":5.37176,"is_reserved":false,"is_disabled":false,"rental_uris":{"android":"levelo://app?vid=20d02884-80ec-444a-83cc-d27cfff48a39","ios":"levelo://app?vid=20d02884-80ec-444a-83cc-d27cfff48a39"},"vehicle_type_id":"4","last_reported":1738066618,"current_range_meters":28800,"station_id":"ce4bgnh2rcd13ifvqc0g","pricing_plan_id":"cebpf4jnsgd1na2vs0mg"},{"bike_id":"7742eb01-57a2-4158-84d2-ebddbaf256fd","system_id":"levelo_inurba_marseille","lat":43.24073,"lon":5.37764,"is_reserved":false,"is_disabled":false,"rental_uris":{"android":"levelo://app?vid=7742eb01-57a2-4158-84d2-ebddbaf256fd","ios":"levelo://app?vid=7742eb01-57a2-4158-84d2-ebddbaf256fd"},"vehicle_type_id":"4","last_reported":1738066618,"current_range_meters":25200,"station_id":"ce4bhnp2rcd13ifvqgvg","pricing_plan_id":"cebpf4jnsgd1na2vs0mg"},{"bike_id":"102673e2-2833-4304-a308-fd7fe81259fe","system_id":"levelo_inurba_marseille","lat":43.28453,"lon":5.3589,"is_reserved":false,"is_disabled":false,"rental_uris":{"android":"levelo://app?vid=102673e2-2833-4304-a308-fd7fe81259fe","ios":"levelo://app?vid=102673e2-2833-4304-a308-fd7fe81259fe"},"vehicle_type_id":"4","last_reported":1738066618,"current_range_meters":24800,"station_id":"ce4bhah2rcd13ifvqei0","pricing_plan_id":"cebpf4jnsgd1na2vs0mg"},{"bike_id":"b58e9c2c-f4fa-4e4d-a3e6-d964f639b0fc","system_id":"levelo_inurba_marseille","lat":43.31371,"lon":5.36678,"is_reserved":false,"is_disabled":false,"rental_uris":{"android":"levelo://app?vid=b58e9c2c-f4fa-4e4d-a3e6-d964f639b0fc","ios":"levelo://app?vid=b58e9c2c-f4fa-4e4d-a3e6-d964f639b0fc"},"vehicle_type_id":"4","last_reported":1738066618,"current_range_meters":38800,"station_id":"ce4bgr92rcd13ifvqc6g","pricing_plan_id":"cebpf4jnsgd1na2vs0mg"},{"bike_id":"8707dca8-5fb6-4e35-a1ec-1f30a01fea05","system_id":"levelo_inurba_marseille","lat":43.29553,"lon":5.42303,"is_reserved":false,"is_disabled":false,"rental_uris":{"android":"levelo://app?vid=8707dca8-5fb6-4e35-a1ec-1f30a01fea05","ios":"levelo://app?vid=8707dca8-5fb6-4e35-a1ec-1f30a01fea05"},"vehicle_type_id":"4","last_reported":1738066618,"current_range_meters":36800,"station_id":"ce4bhph2rcd13ifvqhdg","pricing_plan_id":"cebpf4jnsgd1na2vs0mg"},{"bike_id":"7b526fa8-bf1f-4df9-a6bd-a5593c4cb753","system_id":"levelo_inurba_marseille","lat":43.24647,"lon":5.38896,"is_reserved":false,"is_disabled":false,"rental_uris":{"android":"levelo://app?vid=7b526fa8-bf1f-4df9-a6bd-a5593c4cb753","ios":"levelo://app?vid=7b526fa8-bf1f-4df9-a6bd-a5593c4cb753"},"vehicle_type_id":"4","last_reported":1738066618,"current_range_meters":20000,"station_id":"ce4bhg12rcd13ifvqf60","pricing_plan_id":"cebpf4jnsgd1na2vs0mg"},{"bike_id":"b3f0c39b-7f92-4681-9665-648473977d15","system_id":"levelo_inurba_marseille","lat":43.29189,"lon":5.35809,"is_reserved":false,"is_disabled":false,"rental_uris":{"android":"levelo://app?vid=b3f0c39b-7f92-4681-9665-648473977d15","ios":"levelo://app?vid=b3f0c39b-7f92-4681-9665-648473977d15"},"vehicle_type_id":"4","last_reported":1738066618,"current_range_meters":38400,"station_id":"ce4bhb12rcd13ifvqel0","pricing_plan_id":"cebpf4jnsgd1na2vs0mg"},{"bike_id":"2fc49016-f38b-4279-8e08-2c3799bd54db","system_id":"levelo_inurba_marseille","lat":43.29257,"lon":5.40902,"is_reserved":false,"is_disabled":false,"rental_uris":{"android":"levelo://app?vid=2fc49016-f38b-4279-8e08-2c3799bd54db","ios":"levelo://app?vid=2fc49016-f38b-4279-8e08-2c3799bd54db"},"vehicle_type_id":"4","last_reported":1738066618,"current_range_meters":30000,"station_id":"ce4bh192rcd13ifvqdc0","pricing_plan_id":"cebpf4jnsgd1na2vs0mg"},{"bike_id":"2256710f-428a-4b6c-afaf-f485da875c48","system_id":"levelo_inurba_marseille","lat":43.28637,"lon":5.35116,"is_reserved":false,"is_disabled":false,"rental_uris":{"android":"levelo://app?vid=2256710f-428a-4b6c-afaf-f485da875c48","ios":"levelo://app?vid=2256710f-428a-4b6c-afaf-f485da875c48"},"vehicle_type_id":"4","last_reported":1738066618,"current_range_meters":16000,"station_id":"ce4bhch2rcd13ifvqeug","pricing_plan_id":"cebpf4jnsgd1na2vs0mg"},{"bike_id":"ab2c796a-c23b-4a3a-9534-777b873d6a05","system_id":"levelo_inurba_marseille","lat":43.2416,"lon":5.36414,"is_reserved":false,"is_disabled":false,"rental_uris":{"android":"levelo://app?vid=ab2c796a-c23b-4a3a-9534-777b873d6a05","ios":"levelo://app?vid=ab2c796a-c23b-4a3a-9534-777b873d6a05"},"vehicle_type_id":"4","last_reported":1738066618,"current_range_meters":21600,"station_id":"cpo36qri1sfpv3e86is0","pricing_plan_id":"cebpf4jnsgd1na2vs0mg"},{"bike_id":"55a4c1b8-78eb-402e-8ef1-0c0d310bb865","system_id":"levelo_inurba_marseille","lat":43.32363,"lon":5.38881,"is_reserved":false,"is_disabled":false,"rental_uris":{"android":"levelo://app?vid=55a4c1b8-78eb-402e-8ef1-0c0d310bb865","ios":"levelo://app?vid=55a4c1b8-78eb-402e-8ef1-0c0d310bb865"},"vehicle_type_id":"4","last_reported":1738066618,"current_range_meters":30800,"station_id":"ce4bhqp2rcd13ifvqhog","pricing_plan_id":"cebpf4jnsgd1na2vs0mg"},{"bike_id":"e8686b77-ef1d-4a18-bc6e-3315c1c4c98b","system_id":"levelo_inurba_marseille","lat":43.30596,"lon":5.37235,"is_reserved":false,"is_disabled":false,"rental_uris":{"android":"levelo://app?vid=e8686b77-ef1d-4a18-bc6e-3315c1c4c98b","ios":"levelo://app?vid=e8686b77-ef1d-4a18-bc6e-3315c1c4c98b"},"vehicle_type_id":"4","last_reported":1738066618,"current_range_meters":14400,"station_id":"ce4bgqh2rcd13ifvqc4g","pricing_plan_id":"cebpf4jnsgd1na2vs0mg"},{"bike_id":"529f1ab7-390e-41c3-9180-30692697770e","system_id":"levelo_inurba_marseille","lat":43.28625,"lon":5.35105,"is_reserved":false,"is_disabled":true,"rental_uris":{"android":"levelo://app?vid=529f1ab7-390e-41c3-9180-30692697770e","ios":"levelo://app?vid=529f1ab7-390e-41c3-9180-30692697770e"},"vehicle_type_id":"4","last_reported":1738066618,"current_range_meters":14400,"station_id":"ce4bhch2rcd13ifvqeug","pricing_plan_id":"cebpf4jnsgd1na2vs0mg"},{"bike_id":"3fedd55f-b98e-4b45-b8cf-64db44be4cfc","system_id":"levelo_inurba_marseille","lat":43.30941,"lon":5.39044,"is_reserved":false,"is_disabled":false,"rental_uris":{"android":"levelo://app?vid=3fedd55f-b98e-4b45-b8cf-64db44be4cfc","ios":"levelo://app?vid=3fedd55f-b98e-4b45-b8cf-64db44be4cfc"},"vehicle_type_id":"4","last_reported":1738066618,"current_range_meters":26800,"station_id":"ce4bgup2rcd13ifvqco0","pricing_plan_id":"cebpf4jnsgd1na2vs0mg"},{"bike_id":"b8c29651-d1bf-41b0-9feb-4b9e7b4cf810","system_id":"levelo_inurba_marseille","lat":43.24065,"lon":5.37769,"is_reserved":false,"is_disabled":false,"rental_uris":{"android":"levelo://app?vid=b8c29651-d1bf-41b0-9feb-4b9e7b4cf810","ios":"levelo://app?vid=b8c29651-d1bf-41b0-9feb-4b9e7b4cf810"},"vehicle_type_id":"4","last_reported":1738066618,"current_range_meters":38800,"station_id":"ce4bhnp2rcd13ifvqgvg","pricing_plan_id":"cebpf4jnsgd1na2vs0mg"},{"bike_id":"47b7bf9e-8708-47cd-851f-e2a4fed2fb3f","system_id":"levelo_inurba_marseille","lat":43.27495,"lon":5.42455,"is_reserved":false,"is_disabled":false,"rental_uris":{"android":"levelo://app?vid=47b7bf9e-8708-47cd-851f-e2a4fed2fb3f","ios":"levelo://app?vid=47b7bf9e-8708-47cd-851f-e2a4fed2fb3f"},"vehicle_type_id":"4","last_reported":1738066618,"current_range_meters":28000,"station_id":"ce4bhn92rcd13ifvqgrg","pricing_plan_id":"cebpf4jnsgd1na2vs0mg"},{"bike_id":"6b544164-ad64-4907-9140-df7ab85fac74","system_id":"levelo_inurba_marseille","lat":43.32363,"lon":5.36763,"is_reserved":false,"is_disabled":false,"rental_uris":{"android":"levelo://app?vid=6b544164-ad64-4907-9140-df7ab85fac74","ios":"levelo://app?vid=6b544164-ad64-4907-9140-df7ab85fac74"},"vehicle_type_id":"4","last_reported":1738066618,"current_range_meters":24800,"station_id":"ce4bhsh2rcd13ifvqi2g","pricing_plan_id":"cebpf4jnsgd1na2vs0mg"},{"bike_id":"eea5a0be-f050-4c1c-898c-49d8503e58ff","system_id":"levelo_inurba_marseille","lat":43.25705,"lon":5.41119,"is_reserved":false,"is_disabled":false,"rental_uris":{"android":"levelo://app?vid=eea5a0be-f050-4c1c-898c-49d8503e58ff","ios":"levelo://app?vid=eea5a0be-f050-4c1c-898c-49d8503e58ff"},"vehicle_type_id":"4","last_reported":1738066618,"current_range_meters":38800,"station_id":"ce4bhkp2rcd13ifvqgd0","pricing_plan_id":"cebpf4jnsgd1na2vs0mg"},{"bike_id":"c4bf839a-829f-44d5-8342-404b69c0ecd7","system_id":"levelo_inurba_marseille","lat":43.30781,"lon":5.37648,"is_reserved":false,"is_disabled":false,"rental_uris":{"android":"levelo://app?vid=c4bf839a-829f-44d5-8342-404b69c0ecd7","ios":"levelo://app?vid=c4bf839a-829f-44d5-8342-404b69c0ecd7"},"vehicle_type_id":"4","last_reported":1738066618,"current_range_meters":33200,"station_id":"ce4bgv92rcd13ifvqcq0","pricing_plan_id":"cebpf4jnsgd1na2vs0mg"},{"bike_id":"3afe2907-14fe-40b0-8ce8-247215ed16c8","system_id":"levelo_inurba_marseille","lat":43.26933,"lon":5.38937,"is_reserved":false,"is_disabled":true,"rental_uris":{"android":"levelo://app?vid=3afe2907-14fe-40b0-8ce8-247215ed16c8","ios":"levelo://app?vid=3afe2907-14fe-40b0-8ce8-247215ed16c8"},"vehicle_type_id":"4","last_reported":1738066618,"current_range_meters":7200,"station_id":"ce4bhhh2rcd13ifvqfl0","pricing_plan_id":"cebpf4jnsgd1na2vs0mg"},{"bike_id":"d7df9aae-8afa-410a-8e96-8982fadc1abb","system_id":"levelo_inurba_marseille","lat":43.24649,"lon":5.38161,"is_reserved":false,"is_disabled":false,"rental_uris":{"android":"levelo://app?vid=d7df9aae-8afa-410a-8e96-8982fadc1abb","ios":"levelo://app?vid=d7df9aae-8afa-410a-8e96-8982fadc1abb"},"vehicle_type_id":"4","last_reported":1738066618,"current_range_meters":30400,"station_id":"ce4bhih2rcd13ifvqfr0","pricing_plan_id":"cebpf4jnsgd1na2vs0mg"},{"bike_id":"4e352727-98a4-4b9a-8b7b-428b71c90683","system_id":"levelo_inurba_marseille","lat":43.28072,"lon":5.39663,"is_reserved":false,"is_disabled":false,"rental_uris":{"android":"levelo://app?vid=4e352727-98a4-4b9a-8b7b-428b71c90683","ios":"levelo://app?vid=4e352727-98a4-4b9a-8b7b-428b71c90683"},"vehicle_type_id":"4","last_reported":1738066618,"current_range_meters":22400,"station_id":"ce4bho12rcd13ifvqh2g","pricing_plan_id":"cebpf4jnsgd1na2vs0mg"},{"bike_id":"631c6d7f-0a07-4944-b4e5-ab7a6e90fccd","system_id":"levelo_inurba_marseille","lat":43.2748,"lon":5.42439,"is_reserved":false,"is_disabled":false,"rental_uris":{"android":"levelo://app?vid=631c6d7f-0a07-4944-b4e5-ab7a6e90fccd","ios":"levelo://app?vid=631c6d7f-0a07-4944-b4e5-ab7a6e90fccd"},"vehicle_type_id":"4","last_reported":1738066618,"current_range_meters":38800,"station_id":"ce4bhn92rcd13ifvqgrg","pricing_plan_id":"cebpf4jnsgd1na2vs0mg"},{"bike_id":"c2ce106e-7657-48c2-9565-e524e9f41abb","system_id":"levelo_inurba_marseille","lat":43.26925,"lon":5.38916,"is_reserved":false,"is_disabled":false,"rental_uris":{"android":"levelo://app?vid=c2ce106e-7657-48c2-9565-e524e9f41abb","ios":"levelo://app?vid=c2ce106e-7657-48c2-9565-e524e9f41abb"},"vehicle_type_id":"4","last_reported":1738066618,"current_range_meters":20000,"station_id":"ce4bhhh2rcd13ifvqfl0","pricing_plan_id":"cebpf4jnsgd1na2vs0mg"},{"bike_id":"6914daed-3bb1-4aba-9f0f-f0734c8e9a20","system_id":"levelo_inurba_marseille","lat":43.30154,"lon":5.38076,"is_reserved":false,"is_disabled":true,"rental_uris":{"android":"levelo://app?vid=6914daed-3bb1-4aba-9f0f-f0734c8e9a20","ios":"levelo://app?vid=6914daed-3bb1-4aba-9f0f-f0734c8e9a20"},"vehicle_type_id":"4","last_reported":1738066618,"current_range_meters":0,"station_id":"ce4bgjp2rcd13ifvqbh0","pricing_plan_id":"cebpf4jnsgd1na2vs0mg"},{"bike_id":"dd195832-ff3f-4763-a260-74003ef7ff4c","system_id":"levelo_inurba_marseille","lat":43.29227,"lon":5.36078,"is_reserved":false,"is_disabled":false,"rental_uris":{"android":"levelo://app?vid=dd195832-ff3f-4763-a260-74003ef7ff4c","ios":"levelo://app?vid=dd195832-ff3f-4763-a260-74003ef7ff4c"},"vehicle_type_id":"4","last_reported":1738066618,"current_range_meters":38000,"station_id":"ce4bhbh2rcd13ifvqeqg","pricing_plan_id":"cebpf4jnsgd1na2vs0mg"},{"bike_id":"cca3bf4e-c45f-468d-8cdd-3f87d7ee10cd","system_id":"levelo_inurba_marseille","lat":43.29297,"lon":5.37456,"is_reserved":false,"is_disabled":false,"rental_uris":{"android":"levelo://app?vid=cca3bf4e-c45f-468d-8cdd-3f87d7ee10cd","ios":"levelo://app?vid=cca3bf4e-c45f-468d-8cdd-3f87d7ee10cd"},"vehicle_type_id":"4","last_reported":1738066618,"current_range_meters":37600,"station_id":"ce4bgi12rcd13ifvqb70","pricing_plan_id":"cebpf4jnsgd1na2vs0mg"},{"bike_id":"f8239b01-3b23-4214-aeee-b03ebaf1b50d","system_id":"levelo_inurba_marseille","lat":43.30531,"lon":5.36705,"is_reserved":false,"is_disabled":false,"rental_uris":{"android":"levelo://app?vid=f8239b01-3b23-4214-aeee-b03ebaf1b50d","ios":"levelo://app?vid=f8239b01-3b23-4214-aeee-b03ebaf1b50d"},"vehicle_type_id":"4","last_reported":1738066618,"current_range_meters":34800,"station_id":"ce4bgrp2rcd13ifvqc9g","pricing_plan_id":"cebpf4jnsgd1na2vs0mg"},{"bike_id":"bf34c92a-ae05-45af-b62b-1587cdc516a0","system_id":"levelo_inurba_marseille","lat":43.28924,"lon":5.36625,"is_reserved":false,"is_disabled":false,"rental_uris":{"android":"levelo://app?vid=bf34c92a-ae05-45af-b62b-1587cdc516a0","ios":"levelo://app?vid=bf34c92a-ae05-45af-b62b-1587cdc516a0"},"vehicle_type_id":"4","last_reported":1738066618,"current_range_meters":32400,"station_id":"ce4bhap2rcd13ifvqek0","pricing_plan_id":"cebpf4jnsgd1na2vs0mg"},{"bike_id":"39114634-f3bd-4c9f-816d-9355221ca99f","system_id":"levelo_inurba_marseille","lat":43.28938,"lon":5.36629,"is_reserved":false,"is_disabled":true,"rental_uris":{"android":"levelo://app?vid=39114634-f3bd-4c9f-816d-9355221ca99f","ios":"levelo://app?vid=39114634-f3bd-4c9f-816d-9355221ca99f"},"vehicle_type_id":"4","last_reported":1738066618,"current_range_meters":38800,"station_id":"ce4bhap2rcd13ifvqek0","pricing_plan_id":"cebpf4jnsgd1na2vs0mg"},{"bike_id":"1aadf412-34ba-4d80-bd51-1b9b40f1724a","system_id":"levelo_inurba_marseille","lat":43.240667,"lon":5.377581,"is_reserved":false,"is_disabled":false,"rental_uris":{"android":"levelo://app?vid=1aadf412-34ba-4d80-bd51-1b9b40f1724a","ios":"levelo://app?vid=1aadf412-34ba-4d80-bd51-1b9b40f1724a"},"vehicle_type_id":"4","last_reported":1738066618,"current_range_meters":14400,"station_id":"ce4bhnp2rcd13ifvqgvg","pricing_plan_id":"cebpf4jnsgd1na2vs0mg"},{"bike_id":"1d7b9602-4d85-4297-ad77-d6b02e9149dc","system_id":"levelo_inurba_marseille","lat":43.25492,"lon":5.37659,"is_reserved":false,"is_disabled":false,"rental_uris":{"android":"levelo://app?vid=1d7b9602-4d85-4297-ad77-d6b02e9149dc","ios":"levelo://app?vid=1d7b9602-4d85-4297-ad77-d6b02e9149dc"},"vehicle_type_id":"4","last_reported":1738066618,"current_range_meters":39200,"station_id":"ce4bhh12rcd13ifvqff0","pricing_plan_id":"cebpf4jnsgd1na2vs0mg"},{"bike_id":"b1b71e4d-f7f1-4639-9836-d82bceddafdd","system_id":"levelo_inurba_marseille","lat":43.30162,"lon":5.38098,"is_reserved":false,"is_disabled":false,"rental_uris":{"android":"levelo://app?vid=b1b71e4d-f7f1-4639-9836-d82bceddafdd","ios":"levelo://app?vid=b1b71e4d-f7f1-4639-9836-d82bceddafdd"},"vehicle_type_id":"4","last_reported":1738066618,"current_range_meters":38800,"station_id":"ce4bgjp2rcd13ifvqbh0","pricing_plan_id":"cebpf4jnsgd1na2vs0mg"},{"bike_id":"cd48da39-a655-4dcb-97c2-bcb8d3d8c55b","system_id":"levelo_inurba_marseille","lat":43.23155,"lon":5.43735,"is_reserved":false,"is_disabled":true,"rental_uris":{"android":"levelo://app?vid=cd48da39-a655-4dcb-97c2-bcb8d3d8c55b","ios":"levelo://app?vid=cd48da39-a655-4dcb-97c2-bcb8d3d8c55b"},"vehicle_type_id":"4","last_reported":1738066618,"current_range_meters":0,"station_id":"ce4bhmp2rcd13ifvqgog","pricing_plan_id":"cebpf4jnsgd1na2vs0mg"},{"bike_id":"380db4f1-f717-47f9-90c2-eaffe33861d5","system_id":"levelo_inurba_marseille","lat":43.31211,"lon":5.36872,"is_reserved":false,"is_disabled":false,"rental_uris":{"android":"levelo://app?vid=380db4f1-f717-47f9-90c2-eaffe33861d5","ios":"levelo://app?vid=380db4f1-f717-47f9-90c2-eaffe33861d5"},"vehicle_type_id":"4","last_reported":1738066618,"current_range_meters":39200,"station_id":"ce4bgl92rcd13ifvqbq0","pricing_plan_id":"cebpf4jnsgd1na2vs0mg"},{"bike_id":"5150727e-ff2a-4458-9f76-4ace4d7861d4","system_id":"levelo_inurba_marseille","lat":43.24997,"lon":5.38925,"is_reserved":false,"is_disabled":false,"rental_uris":{"android":"levelo://app?vid=5150727e-ff2a-4458-9f76-4ace4d7861d4","ios":"levelo://app?vid=5150727e-ff2a-4458-9f76-4ace4d7861d4"},"vehicle_type_id":"4","last_reported":1738066618,"current_range_meters":10800,"station_id":"ce4bhgp2rcd13ifvqfd0","pricing_plan_id":"cebpf4jnsgd1na2vs0mg"},{"bike_id":"200e47e3-fe75-4cb4-be16-d2ca215e79e7","system_id":"levelo_inurba_marseille","lat":43.28846,"lon":5.35839,"is_reserved":false,"is_disabled":false,"rental_uris":{"android":"levelo://app?vid=200e47e3-fe75-4cb4-be16-d2ca215e79e7","ios":"levelo://app?vid=200e47e3-fe75-4cb4-be16-d2ca215e79e7"},"vehicle_type_id":"4","last_reported":1738066618,"current_range_meters":38800,"station_id":"ce4bhb12rcd13ifvqem0","pricing_plan_id":"cebpf4jnsgd1na2vs0mg"},{"bike_id":"822d0c81-aadf-42c0-a949-a73417b2af62","system_id":"levelo_inurba_marseille","lat":43.32484,"lon":5.36571,"is_reserved":false,"is_disabled":true,"rental_uris":{"android":"levelo://app?vid=822d0c81-aadf-42c0-a949-a73417b2af62","ios":"levelo://app?vid=822d0c81-aadf-42c0-a949-a73417b2af62"},"vehicle_type_id":"4","last_reported":1738066618,"current_range_meters":9200,"station_id":"ce4bhs12rcd13ifvqhvg","pricing_plan_id":"cebpf4jnsgd1na2vs0mg"},{"bike_id":"f8df36be-0873-4cca-9cdd-5edeb5f9c97d","system_id":"levelo_inurba_marseille","lat":43.29705,"lon":5.37704,"is_reserved":false,"is_disabled":false,"rental_uris":{"android":"levelo://app?vid=f8df36be-0873-4cca-9cdd-5edeb5f9c97d","ios":"levelo://app?vid=f8df36be-0873-4cca-9cdd-5edeb5f9c97d"},"vehicle_type_id":"4","last_reported":1738066618,"current_range_meters":37600,"station_id":"ce4bgkh2rcd13ifvqbl0","pricing_plan_id":"cebpf4jnsgd1na2vs0mg"},{"bike_id":"3fb74e29-7f1d-4c67-8af5-0bb8332df870","system_id":"levelo_inurba_marseille","lat":43.244,"lon":5.37063,"is_reserved":false,"is_disabled":false,"rental_uris":{"android":"levelo://app?vid=3fb74e29-7f1d-4c67-8af5-0bb8332df870","ios":"levelo://app?vid=3fb74e29-7f1d-4c67-8af5-0bb8332df870"},"vehicle_type_id":"4","last_reported":1738066618,"current_range_meters":26000,"station_id":"ce4bhhh2rcd13ifvqfk0","pricing_plan_id":"cebpf4jnsgd1na2vs0mg"},{"bike_id":"bd529232-3085-455a-983d-835f0f64dd59","system_id":"levelo_inurba_marseille","lat":43.27974,"lon":5.38697,"is_reserved":false,"is_disabled":false,"rental_uris":{"android":"levelo://app?vid=bd529232-3085-455a-983d-835f0f64dd59","ios":"levelo://app?vid=bd529232-3085-455a-983d-835f0f64dd59"},"vehicle_type_id":"4","last_reported":1738066618,"current_range_meters":8000,"station_id":"ce4bhg12rcd13ifvqf80","pricing_plan_id":"cebpf4jnsgd1na2vs0mg"},{"bike_id":"611fad2e-6d45-44eb-a5e7-b3ab022b1b90","system_id":"levelo_inurba_marseille","lat":43.30578,"lon":5.36536,"is_reserved":false,"is_disabled":false,"rental_uris":{"android":"levelo://app?vid=611fad2e-6d45-44eb-a5e7-b3ab022b1b90","ios":"levelo://app?vid=611fad2e-6d45-44eb-a5e7-b3ab022b1b90"},"vehicle_type_id":"4","last_reported":1738066618,"current_range_meters":38800,"station_id":"ce4bgs12rcd13ifvqcag","pricing_plan_id":"cebpf4jnsgd1na2vs0mg"},{"bike_id":"a1f25abd-5197-4524-ac53-ad8743bef105","system_id":"levelo_inurba_marseille","lat":43.298949,"lon":5.436704,"is_reserved":false,"is_disabled":true,"rental_uris":{"android":"levelo://app?vid=a1f25abd-5197-4524-ac53-ad8743bef105","ios":"levelo://app?vid=a1f25abd-5197-4524-ac53-ad8743bef105"},"vehicle_type_id":"4","last_reported":1738066618,"current_range_meters":38000,"station_id":"ce4bhpp2rcd13ifvqhfg","pricing_plan_id":"cebpf4jnsgd1na2vs0mg"},{"bike_id":"076810f3-e37e-4a24-a2bf-ae6df07f807b","system_id":"levelo_inurba_marseille","lat":43.29285,"lon":5.3745,"is_reserved":false,"is_disabled":false,"rental_uris":{"android":"levelo://app?vid=076810f3-e37e-4a24-a2bf-ae6df07f807b","ios":"levelo://app?vid=076810f3-e37e-4a24-a2bf-ae6df07f807b"},"vehicle_type_id":"4","last_reported":1738066618,"current_range_meters":22400,"station_id":"ce4bgi12rcd13ifvqb70","pricing_plan_id":"cebpf4jnsgd1na2vs0mg"},{"bike_id":"8a42d715-0ce9-4c6b-96f4-06031b5e80a7","system_id":"levelo_inurba_marseille","lat":43.2587,"lon":5.39898,"is_reserved":false,"is_disabled":false,"rental_uris":{"android":"levelo://app?vid=8a42d715-0ce9-4c6b-96f4-06031b5e80a7","ios":"levelo://app?vid=8a42d715-0ce9-4c6b-96f4-06031b5e80a7"},"vehicle_type_id":"4","last_reported":1738066618,"current_range_meters":28800,"station_id":"ce4bhl92rcd13ifvqghg","pricing_plan_id":"cebpf4jnsgd1na2vs0mg"},{"bike_id":"ff68af14-5554-4f8d-a3de-4549d987f602","system_id":"levelo_inurba_marseille","lat":43.29898,"lon":5.43651,"is_reserved":false,"is_disabled":false,"rental_uris":{"android":"levelo://app?vid=ff68af14-5554-4f8d-a3de-4549d987f602","ios":"levelo://app?vid=ff68af14-5554-4f8d-a3de-4549d987f602"},"vehicle_type_id":"4","last_reported":1738066618,"current_range_meters":36400,"station_id":"ce4bhpp2rcd13ifvqhfg","pricing_plan_id":"cebpf4jnsgd1na2vs0mg"},{"bike_id":"296acca2-a355-4830-bc97-a6939a85f573","system_id":"levelo_inurba_marseille","lat":43.25572,"lon":5.382297,"is_reserved":false,"is_disabled":false,"rental_uris":{"android":"levelo://app?vid=296acca2-a355-4830-bc97-a6939a85f573","ios":"levelo://app?vid=296acca2-a355-4830-bc97-a6939a85f573"},"vehicle_type_id":"4","last_reported":1738066618,"current_range_meters":28000,"station_id":"ce4bhih2rcd13ifvqfs0","pricing_plan_id":"cebpf4jnsgd1na2vs0mg"},{"bike_id":"46d69e1c-33f8-4323-92ae-63826d13506d","system_id":"levelo_inurba_marseille","lat":43.26944,"lon":5.40247,"is_reserved":false,"is_disabled":false,"rental_uris":{"android":"levelo://app?vid=46d69e1c-33f8-4323-92ae-63826d13506d","ios":"levelo://app?vid=46d69e1c-33f8-4323-92ae-63826d13506d"},"vehicle_type_id":"4","last_reported":1738066618,"current_range_meters":30000,"station_id":"cjm6bp8fraef2m0cb0m0","pricing_plan_id":"cebpf4jnsgd1na2vs0mg"},{"bike_id":"ebb205c2-a624-4ba3-b146-456d74ca16ee","system_id":"levelo_inurba_marseille","lat":43.25002,"lon":5.38919,"is_reserved":false,"is_disabled":false,"rental_uris":{"android":"levelo://app?vid=ebb205c2-a624-4ba3-b146-456d74ca16ee","ios":"levelo://app?vid=ebb205c2-a624-4ba3-b146-456d74ca16ee"},"vehicle_type_id":"4","last_reported":1738066618,"current_range_meters":38000,"station_id":"ce4bhgp2rcd13ifvqfd0","pricing_plan_id":"cebpf4jnsgd1na2vs0mg"},{"bike_id":"3c5cbf2e-5914-44e5-adf1-7229185be9cb","system_id":"levelo_inurba_marseille","lat":43.32479,"lon":5.36574,"is_reserved":false,"is_disabled":false,"rental_uris":{"android":"levelo://app?vid=3c5cbf2e-5914-44e5-adf1-7229185be9cb","ios":"levelo://app?vid=3c5cbf2e-5914-44e5-adf1-7229185be9cb"},"vehicle_type_id":"4","last_reported":1738066618,"current_range_meters":12800,"station_id":"ce4bhs12rcd13ifvqhvg","pricing_plan_id":"cebpf4jnsgd1na2vs0mg"},{"bike_id":"b1d260c0-acdb-4241-b1fa-29a58e464bb9","system_id":"levelo_inurba_marseille","lat":43.24378,"lon":5.37071,"is_reserved":false,"is_disabled":false,"rental_uris":{"android":"levelo://app?vid=b1d260c0-acdb-4241-b1fa-29a58e464bb9","ios":"levelo://app?vid=b1d260c0-acdb-4241-b1fa-29a58e464bb9"},"vehicle_type_id":"4","last_reported":1738066618,"current_range_meters":37600,"station_id":"ce4bhhh2rcd13ifvqfk0","pricing_plan_id":"cebpf4jnsgd1na2vs0mg"},{"bike_id":"e406b37f-e444-4bb4-9ab2-33091cf154bd","system_id":"levelo_inurba_marseille","lat":43.29274,"lon":5.37451,"is_reserved":false,"is_disabled":false,"rental_uris":{"android":"levelo://app?vid=e406b37f-e444-4bb4-9ab2-33091cf154bd","ios":"levelo://app?vid=e406b37f-e444-4bb4-9ab2-33091cf154bd"},"vehicle_type_id":"4","last_reported":1738066618,"current_range_meters":32800,"station_id":"ce4bgi12rcd13ifvqb70","pricing_plan_id":"cebpf4jnsgd1na2vs0mg"},{"bike_id":"de2a708e-0ca1-45e5-91fd-3a5a4f1b9eba","system_id":"levelo_inurba_marseille","lat":43.29569,"lon":5.37508,"is_reserved":false,"is_disabled":false,"rental_uris":{"android":"levelo://app?vid=de2a708e-0ca1-45e5-91fd-3a5a4f1b9eba","ios":"levelo://app?vid=de2a708e-0ca1-45e5-91fd-3a5a4f1b9eba"},"vehicle_type_id":"4","last_reported":1738066618,"current_range_meters":34000,"station_id":"ce4bgh92rcd13ifvqb50","pricing_plan_id":"cebpf4jnsgd1na2vs0mg"},{"bike_id":"b5cc55f2-2a30-479b-8fa6-5ff8568d3372","system_id":"levelo_inurba_marseille","lat":43.26677,"lon":5.38274,"is_reserved":false,"is_disabled":true,"rental_uris":{"android":"levelo://app?vid=b5cc55f2-2a30-479b-8fa6-5ff8568d3372","ios":"levelo://app?vid=b5cc55f2-2a30-479b-8fa6-5ff8568d3372"},"vehicle_type_id":"4","last_reported":1738066618,"current_range_meters":38800,"station_id":"ce4bhg92rcd13ifvqf90","pricing_plan_id":"cebpf4jnsgd1na2vs0mg"},{"bike_id":"5189cd3c-0a23-42b8-b01f-5e19849cef00","system_id":"levelo_inurba_marseille","lat":43.29909,"lon":5.37489,"is_reserved":false,"is_disabled":false,"rental_uris":{"android":"levelo://app?vid=5189cd3c-0a23-42b8-b01f-5e19849cef00","ios":"levelo://app?vid=5189cd3c-0a23-42b8-b01f-5e19849cef00"},"vehicle_type_id":"4","last_reported":1738066618,"current_range_meters":30000,"station_id":"ce4bgjh2rcd13ifvqbg0","pricing_plan_id":"cebpf4jnsgd1na2vs0mg"},{"bike_id":"16e377ed-0b1f-4464-b29d-b7d1caa6fca1","system_id":"levelo_inurba_marseille","lat":43.25941,"lon":5.40902,"is_reserved":false,"is_disabled":false,"rental_uris":{"android":"levelo://app?vid=16e377ed-0b1f-4464-b29d-b7d1caa6fca1","ios":"levelo://app?vid=16e377ed-0b1f-4464-b29d-b7d1caa6fca1"},"vehicle_type_id":"4","last_reported":1738066618,"current_range_meters":10800,"station_id":"ce4bhm92rcd13ifvqglg","pricing_plan_id":"cebpf4jnsgd1na2vs0mg"},{"bike_id":"e3c5a10e-948d-477c-91ce-8c835a7fe362","system_id":"levelo_inurba_marseille","lat":43.28104,"lon":5.39668,"is_reserved":false,"is_disabled":true,"rental_uris":{"android":"levelo://app?vid=e3c5a10e-948d-477c-91ce-8c835a7fe362","ios":"levelo://app?vid=e3c5a10e-948d-477c-91ce-8c835a7fe362"},"vehicle_type_id":"4","last_reported":1738066618,"current_range_meters":0,"station_id":"ce4bho12rcd13ifvqh2g","pricing_plan_id":"cebpf4jnsgd1na2vs0mg"},{"bike_id":"36bbd353-3ed9-490f-be6f-367f9b62f624","system_id":"levelo_inurba_marseille","lat":43.29795,"lon":5.40408,"is_reserved":false,"is_disabled":false,"rental_uris":{"android":"levelo://app?vid=36bbd353-3ed9-490f-be6f-367f9b62f624","ios":"levelo://app?vid=36bbd353-3ed9-490f-be6f-367f9b62f624"},"vehicle_type_id":"4","last_reported":1738066618,"current_range_meters":38000,"station_id":"ce4bh112rcd13ifvqd90","pricing_plan_id":"cebpf4jnsgd1na2vs0mg"},{"bike_id":"702c6309-374d-43d9-a64c-e900bb46ccb9","system_id":"levelo_inurba_marseille","lat":43.30349,"lon":5.40428,"is_reserved":false,"is_disabled":false,"rental_uris":{"android":"levelo://app?vid=702c6309-374d-43d9-a64c-e900bb46ccb9","ios":"levelo://app?vid=702c6309-374d-43d9-a64c-e900bb46ccb9"},"vehicle_type_id":"4","last_reported":1738066618,"current_range_meters":23200,"station_id":"ce4bh012rcd13ifvqd10","pricing_plan_id":"cebpf4jnsgd1na2vs0mg"},{"bike_id":"83f5f65c-87b5-4259-963c-546685113822","system_id":"levelo_inurba_marseille","lat":43.29627,"lon":5.37166,"is_reserved":false,"is_disabled":false,"rental_uris":{"android":"levelo://app?vid=83f5f65c-87b5-4259-963c-546685113822","ios":"levelo://app?vid=83f5f65c-87b5-4259-963c-546685113822"},"vehicle_type_id":"4","last_reported":1738066618,"current_range_meters":38000,"station_id":"ce4bgnh2rcd13ifvqc0g","pricing_plan_id":"cebpf4jnsgd1na2vs0mg"},{"bike_id":"26f88feb-e8e8-46e5-bef2-c1cf95ddc1c2","system_id":"levelo_inurba_marseille","lat":43.29307,"lon":5.37171,"is_reserved":false,"is_disabled":false,"rental_uris":{"android":"levelo://app?vid=26f88feb-e8e8-46e5-bef2-c1cf95ddc1c2","ios":"levelo://app?vid=26f88feb-e8e8-46e5-bef2-c1cf95ddc1c2"},"vehicle_type_id":"4","last_reported":1738066618,"current_range_meters":36400,"station_id":"ce4bgh92rcd13ifvqb40","pricing_plan_id":"cebpf4jnsgd1na2vs0mg"},{"bike_id":"f846d495-effa-4e8f-ae39-f2d7b1fc0ba3","system_id":"levelo_inurba_marseille","lat":43.26795,"lon":5.40268,"is_reserved":false,"is_disabled":false,"rental_uris":{"android":"levelo://app?vid=f846d495-effa-4e8f-ae39-f2d7b1fc0ba3","ios":"levelo://app?vid=f846d495-effa-4e8f-ae39-f2d7b1fc0ba3"},"vehicle_type_id":"4","last_reported":1738066618,"current_range_meters":38800,"station_id":"ce501612rcd8frsf0b60","pricing_plan_id":"cebpf4jnsgd1na2vs0mg"},{"bike_id":"a4be99d0-9f57-4d65-9197-81844e4eb908","system_id":"levelo_inurba_marseille","lat":43.3247,"lon":5.36561,"is_reserved":false,"is_disabled":false,"rental_uris":{"android":"levelo://app?vid=a4be99d0-9f57-4d65-9197-81844e4eb908","ios":"levelo://app?vid=a4be99d0-9f57-4d65-9197-81844e4eb908"},"vehicle_type_id":"4","last_reported":1738066618,"current_range_meters":28400,"station_id":"ce4bhs12rcd13ifvqhvg","pricing_plan_id":"cebpf4jnsgd1na2vs0mg"},{"bike_id":"599f7c6f-97e9-4903-9bdd-508f24c2e000","system_id":"levelo_inurba_marseille","lat":43.29019,"lon":5.38139,"is_reserved":false,"is_disabled":false,"rental_uris":{"android":"levelo://app?vid=599f7c6f-97e9-4903-9bdd-508f24c2e000","ios":"levelo://app?vid=599f7c6f-97e9-4903-9bdd-508f24c2e000"},"vehicle_type_id":"4","last_reported":1738066618,"current_range_meters":25600,"station_id":"ce4bh4p2rcd13ifvqe1g","pricing_plan_id":"cebpf4jnsgd1na2vs0mg"},{"bike_id":"f9173de2-2fa5-436f-a76b-3c96bd571284","system_id":"levelo_inurba_marseille","lat":43.29815,"lon":5.40439,"is_reserved":false,"is_disabled":true,"rental_uris":{"android":"levelo://app?vid=f9173de2-2fa5-436f-a76b-3c96bd571284","ios":"levelo://app?vid=f9173de2-2fa5-436f-a76b-3c96bd571284"},"vehicle_type_id":"4","last_reported":1738066618,"current_range_meters":36800,"station_id":"ce4bh112rcd13ifvqd90","pricing_plan_id":"cebpf4jnsgd1na2vs0mg"},{"bike_id":"54a3b066-8322-48b3-9a4e-9afae5461793","system_id":"levelo_inurba_marseille","lat":43.30353,"lon":5.41873,"is_reserved":false,"is_disabled":true,"rental_uris":{"android":"levelo://app?vid=54a3b066-8322-48b3-9a4e-9afae5461793","ios":"levelo://app?vid=54a3b066-8322-48b3-9a4e-9afae5461793"},"vehicle_type_id":"4","last_reported":1738066618,"current_range_meters":38800,"station_id":"ce4bhop2rcd13ifvqh7g","pricing_plan_id":"cebpf4jnsgd1na2vs0mg"},{"bike_id":"1932502a-a386-4bd4-8041-b68d3b661876","system_id":"levelo_inurba_marseille","lat":43.23193,"lon":5.35555,"is_reserved":false,"is_disabled":false,"rental_uris":{"android":"levelo://app?vid=1932502a-a386-4bd4-8041-b68d3b661876","ios":"levelo://app?vid=1932502a-a386-4bd4-8041-b68d3b661876"},"vehicle_type_id":"4","last_reported":1738066618,"current_range_meters":25600,"station_id":"ce4bhu92rcd13ifvqi70","pricing_plan_id":"cebpf4jnsgd1na2vs0mg"},{"bike_id":"66faba8a-1b3d-4620-82b9-7a3ac4f08820","system_id":"levelo_inurba_marseille","lat":43.30471,"lon":5.37928,"is_reserved":false,"is_disabled":false,"rental_uris":{"android":"levelo://app?vid=66faba8a-1b3d-4620-82b9-7a3ac4f08820","ios":"levelo://app?vid=66faba8a-1b3d-4620-82b9-7a3ac4f08820"},"vehicle_type_id":"4","last_reported":1738066618,"current_range_meters":38800,"station_id":"ce4bgup2rcd13ifvqcn0","pricing_plan_id":"cebpf4jnsgd1na2vs0mg"},{"bike_id":"8cc6a59e-3f3f-4790-a830-2f3487f9a7a9","system_id":"levelo_inurba_marseille","lat":43.301541,"lon":5.380853,"is_reserved":false,"is_disabled":false,"rental_uris":{"android":"levelo://app?vid=8cc6a59e-3f3f-4790-a830-2f3487f9a7a9","ios":"levelo://app?vid=8cc6a59e-3f3f-4790-a830-2f3487f9a7a9"},"vehicle_type_id":"4","last_reported":1738066618,"current_range_meters":28400,"station_id":"ce4bgjp2rcd13ifvqbh0","pricing_plan_id":"cebpf4jnsgd1na2vs0mg"},{"bike_id":"7f85e01e-223e-4bfd-9fa8-5a4d9009b1ef","system_id":"levelo_inurba_marseille","lat":43.27424,"lon":5.39416,"is_reserved":false,"is_disabled":false,"rental_uris":{"android":"levelo://app?vid=7f85e01e-223e-4bfd-9fa8-5a4d9009b1ef","ios":"levelo://app?vid=7f85e01e-223e-4bfd-9fa8-5a4d9009b1ef"},"vehicle_type_id":"4","last_reported":1738066618,"current_range_meters":10000,"station_id":"ce4bhdp2rcd13ifvqf20","pricing_plan_id":"cebpf4jnsgd1na2vs0mg"},{"bike_id":"48fdff01-9c11-4e42-87fc-cff3a2a7ed95","system_id":"levelo_inurba_marseille","lat":43.24079,"lon":5.37757,"is_reserved":false,"is_disabled":false,"rental_uris":{"android":"levelo://app?vid=48fdff01-9c11-4e42-87fc-cff3a2a7ed95","ios":"levelo://app?vid=48fdff01-9c11-4e42-87fc-cff3a2a7ed95"},"vehicle_type_id":"4","last_reported":1738066618,"current_range_meters":8800,"station_id":"ce4bhnp2rcd13ifvqgvg","pricing_plan_id":"cebpf4jnsgd1na2vs0mg"},{"bike_id":"ee77105d-fb85-4ff3-b170-8616151c7d95","system_id":"levelo_inurba_marseille","lat":43.33607,"lon":5.41016,"is_reserved":false,"is_disabled":false,"rental_uris":{"android":"levelo://app?vid=ee77105d-fb85-4ff3-b170-8616151c7d95","ios":"levelo://app?vid=ee77105d-fb85-4ff3-b170-8616151c7d95"},"vehicle_type_id":"4","last_reported":1738066618,"current_range_meters":39200,"station_id":"ce4bhqh2rcd13ifvqhmg","pricing_plan_id":"cebpf4jnsgd1na2vs0mg"},{"bike_id":"930e80b9-31b1-4794-a031-336d148aef30","system_id":"levelo_inurba_marseille","lat":43.30157,"lon":5.38099,"is_reserved":false,"is_disabled":false,"rental_uris":{"android":"levelo://app?vid=930e80b9-31b1-4794-a031-336d148aef30","ios":"levelo://app?vid=930e80b9-31b1-4794-a031-336d148aef30"},"vehicle_type_id":"4","last_reported":1738066618,"current_range_meters":36400,"station_id":"ce4bgjp2rcd13ifvqbh0","pricing_plan_id":"cebpf4jnsgd1na2vs0mg"},{"bike_id":"a24b5257-42d7-42e3-8071-da65fc257fbb","system_id":"levelo_inurba_marseille","lat":43.27205,"lon":5.39197,"is_reserved":false,"is_disabled":false,"rental_uris":{"android":"levelo://app?vid=a24b5257-42d7-42e3-8071-da65fc257fbb","ios":"levelo://app?vid=a24b5257-42d7-42e3-8071-da65fc257fbb"},"vehicle_type_id":"4","last_reported":1738066618,"current_range_meters":16400,"station_id":"ce4bhhp2rcd13ifvqfm0","pricing_plan_id":"cebpf4jnsgd1na2vs0mg"},{"bike_id":"926ad500-ac85-43cc-93f2-6bfe3329d6af","system_id":"levelo_inurba_marseille","lat":43.32293,"lon":5.38252,"is_reserved":false,"is_disabled":false,"rental_uris":{"android":"levelo://app?vid=926ad500-ac85-43cc-93f2-6bfe3329d6af","ios":"levelo://app?vid=926ad500-ac85-43cc-93f2-6bfe3329d6af"},"vehicle_type_id":"4","last_reported":1738066618,"current_range_meters":39200,"station_id":"ce4bhr12rcd13ifvqhqg","pricing_plan_id":"cebpf4jnsgd1na2vs0mg"},{"bike_id":"aeb52962-1fe5-4ed8-99b7-f0690979f4d3","system_id":"levelo_inurba_marseille","lat":43.28538,"lon":5.38616,"is_reserved":false,"is_disabled":false,"rental_uris":{"android":"levelo://app?vid=aeb52962-1fe5-4ed8-99b7-f0690979f4d3","ios":"levelo://app?vid=aeb52962-1fe5-4ed8-99b7-f0690979f4d3"},"vehicle_type_id":"4","last_reported":1738066618,"current_range_meters":24400,"station_id":"","pricing_plan_id":"cebpf4jnsgd1na2vs0mg"},{"bike_id":"4076a400-fa53-4525-8644-da0b2a17efb9","system_id":"levelo_inurba_marseille","lat":43.29517,"lon":5.38553,"is_reserved":false,"is_disabled":true,"rental_uris":{"android":"levelo://app?vid=4076a400-fa53-4525-8644-da0b2a17efb9","ios":"levelo://app?vid=4076a400-fa53-4525-8644-da0b2a17efb9"},"vehicle_type_id":"4","last_reported":1738066618,"current_range_meters":25200,"station_id":"ce4bgih2rcd13ifvqba0","pricing_plan_id":"cebpf4jnsgd1na2vs0mg"},{"bike_id":"283c25d8-9fc5-495b-9825-5a72a68442bd","system_id":"levelo_inurba_marseille","lat":43.29245,"lon":5.40921,"is_reserved":false,"is_disabled":true,"rental_uris":{"android":"levelo://app?vid=283c25d8-9fc5-495b-9825-5a72a68442bd","ios":"levelo://app?vid=283c25d8-9fc5-495b-9825-5a72a68442bd"},"vehicle_type_id":"4","last_reported":1738066618,"current_range_meters":0,"station_id":"ce4bh192rcd13ifvqdc0","pricing_plan_id":"cebpf4jnsgd1na2vs0mg"},{"bike_id":"a3d00b76-e3d3-48a4-a596-66088ecb8491","system_id":"levelo_inurba_marseille","lat":43.33616,"lon":5.41044,"is_reserved":false,"is_disabled":false,"rental_uris":{"android":"levelo://app?vid=a3d00b76-e3d3-48a4-a596-66088ecb8491","ios":"levelo://app?vid=a3d00b76-e3d3-48a4-a596-66088ecb8491"},"vehicle_type_id":"4","last_reported":1738066618,"current_range_meters":38800,"station_id":"ce4bhqh2rcd13ifvqhmg","pricing_plan_id":"cebpf4jnsgd1na2vs0mg"},{"bike_id":"e3e26aee-15e1-425c-a48f-db58aa520742","system_id":"levelo_inurba_marseille","lat":43.23067,"lon":5.355,"is_reserved":false,"is_disabled":false,"rental_uris":{"android":"levelo://app?vid=e3e26aee-15e1-425c-a48f-db58aa520742","ios":"levelo://app?vid=e3e26aee-15e1-425c-a48f-db58aa520742"},"vehicle_type_id":"4","last_reported":1738066618,"current_range_meters":37600,"station_id":"cpo3342slgdg3j2ifvpg","pricing_plan_id":"cebpf4jnsgd1na2vs0mg"},{"bike_id":"9fb813cb-e992-4585-8f3d-d25d13081f3b","system_id":"levelo_inurba_marseille","lat":43.232077,"lon":5.355565,"is_reserved":false,"is_disabled":false,"rental_uris":{"android":"levelo://app?vid=9fb813cb-e992-4585-8f3d-d25d13081f3b","ios":"levelo://app?vid=9fb813cb-e992-4585-8f3d-d25d13081f3b"},"vehicle_type_id":"4","last_reported":1738066618,"current_range_meters":38800,"station_id":"ce4bhu92rcd13ifvqi70","pricing_plan_id":"cebpf4jnsgd1na2vs0mg"},{"bike_id":"7c2c04a0-5c2d-4f19-b8a8-ceb0916ec7df","system_id":"levelo_inurba_marseille","lat":43.27438,"lon":5.39411,"is_reserved":false,"is_disabled":false,"rental_uris":{"android":"levelo://app?vid=7c2c04a0-5c2d-4f19-b8a8-ceb0916ec7df","ios":"levelo://app?vid=7c2c04a0-5c2d-4f19-b8a8-ceb0916ec7df"},"vehicle_type_id":"4","last_reported":1738066618,"current_range_meters":38400,"station_id":"ce4bhdp2rcd13ifvqf20","pricing_plan_id":"cebpf4jnsgd1na2vs0mg"},{"bike_id":"22ece8d6-ae08-4007-9d95-4ab4df0dfa49","system_id":"levelo_inurba_marseille","lat":43.32363,"lon":5.38881,"is_reserved":false,"is_disabled":false,"rental_uris":{"android":"levelo://app?vid=22ece8d6-ae08-4007-9d95-4ab4df0dfa49","ios":"levelo://app?vid=22ece8d6-ae08-4007-9d95-4ab4df0dfa49"},"vehicle_type_id":"4","last_reported":1738066618,"current_range_meters":9600,"station_id":"ce4bhqp2rcd13ifvqhog","pricing_plan_id":"cebpf4jnsgd1na2vs0mg"},{"bike_id":"31f30e6b-2967-4fc6-8e44-35cae93b8805","system_id":"levelo_inurba_marseille","lat":43.32459,"lon":5.36596,"is_reserved":false,"is_disabled":false,"rental_uris":{"android":"levelo://app?vid=31f30e6b-2967-4fc6-8e44-35cae93b8805","ios":"levelo://app?vid=31f30e6b-2967-4fc6-8e44-35cae93b8805"},"vehicle_type_id":"4","last_reported":1738066618,"current_range_meters":14000,"station_id":"ce4bhs12rcd13ifvqhvg","pricing_plan_id":"cebpf4jnsgd1na2vs0mg"},{"bike_id":"7c78a755-c7f5-4f07-a96b-621451d47948","system_id":"levelo_inurba_marseille","lat":43.29907,"lon":5.43673,"is_reserved":false,"is_disabled":false,"rental_uris":{"android":"levelo://app?vid=7c78a755-c7f5-4f07-a96b-621451d47948","ios":"levelo://app?vid=7c78a755-c7f5-4f07-a96b-621451d47948"},"vehicle_type_id":"4","last_reported":1738066618,"current_range_meters":24000,"station_id":"ce4bhpp2rcd13ifvqhfg","pricing_plan_id":"cebpf4jnsgd1na2vs0mg"},{"bike_id":"6472f8b5-67bf-4242-ad4f-df7399ea177b","system_id":"levelo_inurba_marseille","lat":43.27989,"lon":5.41652,"is_reserved":false,"is_disabled":false,"rental_uris":{"android":"levelo://app?vid=6472f8b5-67bf-4242-ad4f-df7399ea177b","ios":"levelo://app?vid=6472f8b5-67bf-4242-ad4f-df7399ea177b"},"vehicle_type_id":"4","last_reported":1738066618,"current_range_meters":9600,"station_id":"ce4bho12rcd13ifvqh1g","pricing_plan_id":"cebpf4jnsgd1na2vs0mg"},{"bike_id":"803e03d8-7d2e-4feb-ac46-774902d16dee","system_id":"levelo_inurba_marseille","lat":43.33757,"lon":5.37448,"is_reserved":false,"is_disabled":true,"rental_uris":{"android":"levelo://app?vid=803e03d8-7d2e-4feb-ac46-774902d16dee","ios":"levelo://app?vid=803e03d8-7d2e-4feb-ac46-774902d16dee"},"vehicle_type_id":"4","last_reported":1738066618,"current_range_meters":38400,"station_id":"","pricing_plan_id":"cebpf4jnsgd1na2vs0mg"},{"bike_id":"30d38fca-e00b-4fb2-a568-f91dab54d5c5","system_id":"levelo_inurba_marseille","lat":43.31224,"lon":5.36847,"is_reserved":false,"is_disabled":false,"rental_uris":{"android":"levelo://app?vid=30d38fca-e00b-4fb2-a568-f91dab54d5c5","ios":"levelo://app?vid=30d38fca-e00b-4fb2-a568-f91dab54d5c5"},"vehicle_type_id":"4","last_reported":1738066618,"current_range_meters":19200,"station_id":"ce4bgl92rcd13ifvqbq0","pricing_plan_id":"cebpf4jnsgd1na2vs0mg"},{"bike_id":"a48a4fa8-387b-4ecc-bc7a-c3f07822bf47","system_id":"levelo_inurba_marseille","lat":43.270726,"lon":5.392326,"is_reserved":false,"is_disabled":true,"rental_uris":{"android":"levelo://app?vid=a48a4fa8-387b-4ecc-bc7a-c3f07822bf47","ios":"levelo://app?vid=a48a4fa8-387b-4ecc-bc7a-c3f07822bf47"},"vehicle_type_id":"4","last_reported":1738066618,"current_range_meters":0,"station_id":"","pricing_plan_id":"cebpf4jnsgd1na2vs0mg"},{"bike_id":"d8e3e652-bcf6-43e0-be03-ff712527ceec","system_id":"levelo_inurba_marseille","lat":43.27505,"lon":5.42476,"is_reserved":false,"is_disabled":false,"rental_uris":{"android":"levelo://app?vid=d8e3e652-bcf6-43e0-be03-ff712527ceec","ios":"levelo://app?vid=d8e3e652-bcf6-43e0-be03-ff712527ceec"},"vehicle_type_id":"4","last_reported":1738066618,"current_range_meters":38800,"station_id":"ce4bhn92rcd13ifvqgrg","pricing_plan_id":"cebpf4jnsgd1na2vs0mg"},{"bike_id":"50ca10e9-8502-48f8-b050-48b1e4567280","system_id":"levelo_inurba_marseille","lat":43.32534,"lon":5.4143,"is_reserved":false,"is_disabled":false,"rental_uris":{"android":"levelo://app?vid=50ca10e9-8502-48f8-b050-48b1e4567280","ios":"levelo://app?vid=50ca10e9-8502-48f8-b050-48b1e4567280"},"vehicle_type_id":"4","last_reported":1738066618,"current_range_meters":34800,"station_id":"ce4bhq12rcd13ifvqhhg","pricing_plan_id":"cebpf4jnsgd1na2vs0mg"},{"bike_id":"7f762cad-14d3-4378-9c59-c304651b7679","system_id":"levelo_inurba_marseille","lat":43.29562,"lon":5.39962,"is_reserved":false,"is_disabled":true,"rental_uris":{"android":"levelo://app?vid=7f762cad-14d3-4378-9c59-c304651b7679","ios":"levelo://app?vid=7f762cad-14d3-4378-9c59-c304651b7679"},"vehicle_type_id":"4","last_reported":1738066618,"current_range_meters":30000,"station_id":"ce4bh312rcd13ifvqdj0","pricing_plan_id":"cebpf4jnsgd1na2vs0mg"},{"bike_id":"688eea87-7c36-4baa-b6b9-0ba0449d07a2","system_id":"levelo_inurba_marseille","lat":43.280843,"lon":5.396623,"is_reserved":false,"is_disabled":false,"rental_uris":{"android":"levelo://app?vid=688eea87-7c36-4baa-b6b9-0ba0449d07a2","ios":"levelo://app?vid=688eea87-7c36-4baa-b6b9-0ba0449d07a2"},"vehicle_type_id":"4","last_reported":1738066618,"current_range_meters":3600,"station_id":"ce4bho12rcd13ifvqh2g","pricing_plan_id":"cebpf4jnsgd1na2vs0mg"},{"bike_id":"3e2f9ce8-0964-4e87-8e48-0e14c74e1266","system_id":"levelo_inurba_marseille","lat":43.29,"lon":5.35609,"is_reserved":false,"is_disabled":false,"rental_uris":{"android":"levelo://app?vid=3e2f9ce8-0964-4e87-8e48-0e14c74e1266","ios":"levelo://app?vid=3e2f9ce8-0964-4e87-8e48-0e14c74e1266"},"vehicle_type_id":"4","last_reported":1738066618,"current_range_meters":39200,"station_id":"ce4bhb92rcd13ifvqen0","pricing_plan_id":"cebpf4jnsgd1na2vs0mg"},{"bike_id":"f8c0abdb-a7a7-4a65-9929-112fb09afa5a","system_id":"levelo_inurba_marseille","lat":43.31487,"lon":5.37334,"is_reserved":false,"is_disabled":false,"rental_uris":{"android":"levelo://app?vid=f8c0abdb-a7a7-4a65-9929-112fb09afa5a","ios":"levelo://app?vid=f8c0abdb-a7a7-4a65-9929-112fb09afa5a"},"vehicle_type_id":"4","last_reported":1738066618,"current_range_meters":24000,"station_id":"ce4bgt12rcd13ifvqcd0","pricing_plan_id":"cebpf4jnsgd1na2vs0mg"},{"bike_id":"5528fa7a-50df-4a53-8b84-b1434344fa48","system_id":"levelo_inurba_marseille","lat":43.29821,"lon":5.38091,"is_reserved":false,"is_disabled":false,"rental_uris":{"android":"levelo://app?vid=5528fa7a-50df-4a53-8b84-b1434344fa48","ios":"levelo://app?vid=5528fa7a-50df-4a53-8b84-b1434344fa48"},"vehicle_type_id":"4","last_reported":1738066618,"current_range_meters":19600,"station_id":"ce4bgip2rcd13ifvqbb0","pricing_plan_id":"cebpf4jnsgd1na2vs0mg"},{"bike_id":"c0199c43-6ad3-4c6c-a838-a256a1dd9983","system_id":"levelo_inurba_marseille","lat":43.29287,"lon":5.37432,"is_reserved":false,"is_disabled":false,"rental_uris":{"android":"levelo://app?vid=c0199c43-6ad3-4c6c-a838-a256a1dd9983","ios":"levelo://app?vid=c0199c43-6ad3-4c6c-a838-a256a1dd9983"},"vehicle_type_id":"4","last_reported":1738066618,"current_range_meters":32400,"station_id":"ce4bgi12rcd13ifvqb70","pricing_plan_id":"cebpf4jnsgd1na2vs0mg"},{"bike_id":"2a65106d-f603-451e-b01c-df1c16a061bf","system_id":"levelo_inurba_marseille","lat":43.28466,"lon":5.35878,"is_reserved":false,"is_disabled":false,"rental_uris":{"android":"levelo://app?vid=2a65106d-f603-451e-b01c-df1c16a061bf","ios":"levelo://app?vid=2a65106d-f603-451e-b01c-df1c16a061bf"},"vehicle_type_id":"4","last_reported":1738066618,"current_range_meters":17600,"station_id":"ce4bhah2rcd13ifvqei0","pricing_plan_id":"cebpf4jnsgd1na2vs0mg"},{"bike_id":"8f123f58-2803-4f70-aa06-7d428b4ad0fc","system_id":"levelo_inurba_marseille","lat":43.28618,"lon":5.35111,"is_reserved":false,"is_disabled":false,"rental_uris":{"android":"levelo://app?vid=8f123f58-2803-4f70-aa06-7d428b4ad0fc","ios":"levelo://app?vid=8f123f58-2803-4f70-aa06-7d428b4ad0fc"},"vehicle_type_id":"4","last_reported":1738066618,"current_range_meters":9600,"station_id":"ce4bhch2rcd13ifvqeug","pricing_plan_id":"cebpf4jnsgd1na2vs0mg"},{"bike_id":"619625fb-a578-444b-a12f-2166bfe4ba42","system_id":"levelo_inurba_marseille","lat":43.29778,"lon":5.37092,"is_reserved":false,"is_disabled":false,"rental_uris":{"android":"levelo://app?vid=619625fb-a578-444b-a12f-2166bfe4ba42","ios":"levelo://app?vid=619625fb-a578-444b-a12f-2166bfe4ba42"},"vehicle_type_id":"4","last_reported":1738066618,"current_range_meters":32400,"station_id":"ce4bgop2rcd13ifvqc1g","pricing_plan_id":"cebpf4jnsgd1na2vs0mg"},{"bike_id":"e2ceb3c9-3b0c-4634-b0f2-e09ecc9b5fb7","system_id":"levelo_inurba_marseille","lat":43.27908,"lon":5.38006,"is_reserved":false,"is_disabled":false,"rental_uris":{"android":"levelo://app?vid=e2ceb3c9-3b0c-4634-b0f2-e09ecc9b5fb7","ios":"levelo://app?vid=e2ceb3c9-3b0c-4634-b0f2-e09ecc9b5fb7"},"vehicle_type_id":"4","last_reported":1738066618,"current_range_meters":28800,"station_id":"ce4bhf92rcd13ifvqf50","pricing_plan_id":"cebpf4jnsgd1na2vs0mg"},{"bike_id":"c438c788-2c8f-4eda-8233-a8485c23c4af","system_id":"levelo_inurba_marseille","lat":43.30416,"lon":5.41272,"is_reserved":false,"is_disabled":true,"rental_uris":{"android":"levelo://app?vid=c438c788-2c8f-4eda-8233-a8485c23c4af","ios":"levelo://app?vid=c438c788-2c8f-4eda-8233-a8485c23c4af"},"vehicle_type_id":"4","last_reported":1738066618,"current_range_meters":0,"station_id":"ce4bhop2rcd13ifvqh8g","pricing_plan_id":"cebpf4jnsgd1na2vs0mg"},{"bike_id":"85af6c92-372c-4cd2-84da-c4ec61fa470d","system_id":"levelo_inurba_marseille","lat":43.25719,"lon":5.41113,"is_reserved":false,"is_disabled":true,"rental_uris":{"android":"levelo://app?vid=85af6c92-372c-4cd2-84da-c4ec61fa470d","ios":"levelo://app?vid=85af6c92-372c-4cd2-84da-c4ec61fa470d"},"vehicle_type_id":"4","last_reported":1738066618,"current_range_meters":38800,"station_id":"ce4bhkp2rcd13ifvqgd0","pricing_plan_id":"cebpf4jnsgd1na2vs0mg"},{"bike_id":"9c8682a0-e665-42ca-9e8b-8233d9f42b52","system_id":"levelo_inurba_marseille","lat":43.26946,"lon":5.40247,"is_reserved":false,"is_disabled":false,"rental_uris":{"android":"levelo://app?vid=9c8682a0-e665-42ca-9e8b-8233d9f42b52","ios":"levelo://app?vid=9c8682a0-e665-42ca-9e8b-8233d9f42b52"},"vehicle_type_id":"4","last_reported":1738066618,"current_range_meters":7200,"station_id":"cjm6bp8fraef2m0cb0m0","pricing_plan_id":"cebpf4jnsgd1na2vs0mg"},{"bike_id":"2e02df94-9b0d-4dde-ace7-107552e26bd2","system_id":"levelo_inurba_marseille","lat":43.26797,"lon":5.4028,"is_reserved":false,"is_disabled":false,"rental_uris":{"android":"levelo://app?vid=2e02df94-9b0d-4dde-ace7-107552e26bd2","ios":"levelo://app?vid=2e02df94-9b0d-4dde-ace7-107552e26bd2"},"vehicle_type_id":"4","last_reported":1738066618,"current_range_meters":39200,"station_id":"ce501612rcd8frsf0b60","pricing_plan_id":"cebpf4jnsgd1na2vs0mg"},{"bike_id":"5cf2daf4-98e7-4431-9d2f-0da0360b7949","system_id":"levelo_inurba_marseille","lat":43.29281,"lon":5.3744,"is_reserved":false,"is_disabled":false,"rental_uris":{"android":"levelo://app?vid=5cf2daf4-98e7-4431-9d2f-0da0360b7949","ios":"levelo://app?vid=5cf2daf4-98e7-4431-9d2f-0da0360b7949"},"vehicle_type_id":"4","last_reported":1738066618,"current_range_meters":18000,"station_id":"ce4bgi12rcd13ifvqb70","pricing_plan_id":"cebpf4jnsgd1na2vs0mg"},{"bike_id":"955cd75f-8530-4c31-b52f-66c097c2538a","system_id":"levelo_inurba_marseille","lat":43.25857,"lon":5.39904,"is_reserved":false,"is_disabled":false,"rental_uris":{"android":"levelo://app?vid=955cd75f-8530-4c31-b52f-66c097c2538a","ios":"levelo://app?vid=955cd75f-8530-4c31-b52f-66c097c2538a"},"vehicle_type_id":"4","last_reported":1738066618,"current_range_meters":32400,"station_id":"ce4bhl92rcd13ifvqghg","pricing_plan_id":"cebpf4jnsgd1na2vs0mg"},{"bike_id":"0a0ae71f-4f56-4994-bc72-73253d32ead8","system_id":"levelo_inurba_marseille","lat":43.274278,"lon":5.394224,"is_reserved":false,"is_disabled":false,"rental_uris":{"android":"levelo://app?vid=0a0ae71f-4f56-4994-bc72-73253d32ead8","ios":"levelo://app?vid=0a0ae71f-4f56-4994-bc72-73253d32ead8"},"vehicle_type_id":"4","last_reported":1738066618,"current_range_meters":39200,"station_id":"ce4bhdp2rcd13ifvqf20","pricing_plan_id":"cebpf4jnsgd1na2vs0mg"},{"bike_id":"079c1be2-2466-41bb-87eb-0b14ef034329","system_id":"levelo_inurba_marseille","lat":43.3053,"lon":5.36701,"is_reserved":false,"is_disabled":false,"rental_uris":{"android":"levelo://app?vid=079c1be2-2466-41bb-87eb-0b14ef034329","ios":"levelo://app?vid=079c1be2-2466-41bb-87eb-0b14ef034329"},"vehicle_type_id":"4","last_reported":1738066618,"current_range_meters":19200,"station_id":"ce4bgrp2rcd13ifvqc9g","pricing_plan_id":"cebpf4jnsgd1na2vs0mg"},{"bike_id":"3d98c6ce-e80d-46e8-b577-648cd8c28632","system_id":"levelo_inurba_marseille","lat":43.34699,"lon":5.34741,"is_reserved":false,"is_disabled":true,"rental_uris":{"android":"levelo://app?vid=3d98c6ce-e80d-46e8-b577-648cd8c28632","ios":"levelo://app?vid=3d98c6ce-e80d-46e8-b577-648cd8c28632"},"vehicle_type_id":"4","last_reported":1738066618,"current_range_meters":0,"station_id":"","pricing_plan_id":"cebpf4jnsgd1na2vs0mg"},{"bike_id":"f45e92fa-0e85-41e7-bd5d-428e50cde5ed","system_id":"levelo_inurba_marseille","lat":43.27438,"lon":5.39413,"is_reserved":false,"is_disabled":false,"rental_uris":{"android":"levelo://app?vid=f45e92fa-0e85-41e7-bd5d-428e50cde5ed","ios":"levelo://app?vid=f45e92fa-0e85-41e7-bd5d-428e50cde5ed"},"vehicle_type_id":"4","last_reported":1738066618,"current_range_meters":8800,"station_id":"ce4bhdp2rcd13ifvqf20","pricing_plan_id":"cebpf4jnsgd1na2vs0mg"},{"bike_id":"9c6c808c-2344-4484-b654-8a68fb115aa6","system_id":"levelo_inurba_marseille","lat":43.31477,"lon":5.37405,"is_reserved":false,"is_disabled":false,"rental_uris":{"android":"levelo://app?vid=9c6c808c-2344-4484-b654-8a68fb115aa6","ios":"levelo://app?vid=9c6c808c-2344-4484-b654-8a68fb115aa6"},"vehicle_type_id":"4","last_reported":1738066618,"current_range_meters":34000,"station_id":"","pricing_plan_id":"cebpf4jnsgd1na2vs0mg"},{"bike_id":"59c7a2b1-800c-4111-9a93-2f3b4351ba06","system_id":"levelo_inurba_marseille","lat":43.29543,"lon":5.37491,"is_reserved":false,"is_disabled":false,"rental_uris":{"android":"levelo://app?vid=59c7a2b1-800c-4111-9a93-2f3b4351ba06","ios":"levelo://app?vid=59c7a2b1-800c-4111-9a93-2f3b4351ba06"},"vehicle_type_id":"4","last_reported":1738066618,"current_range_meters":38800,"station_id":"ce4bgkp2rcd13ifvqbmg","pricing_plan_id":"cebpf4jnsgd1na2vs0mg"},{"bike_id":"3b20c0ef-5eb5-4103-b846-b97b1fa087ed","system_id":"levelo_inurba_marseille","lat":43.30536,"lon":5.36547,"is_reserved":false,"is_disabled":false,"rental_uris":{"android":"levelo://app?vid=3b20c0ef-5eb5-4103-b846-b97b1fa087ed","ios":"levelo://app?vid=3b20c0ef-5eb5-4103-b846-b97b1fa087ed"},"vehicle_type_id":"4","last_reported":1738066618,"current_range_meters":33200,"station_id":"ce4bgs12rcd13ifvqcag","pricing_plan_id":"cebpf4jnsgd1na2vs0mg"},{"bike_id":"b333cd80-7d33-4792-994c-327541464ea0","system_id":"levelo_inurba_marseille","lat":43.26194,"lon":5.37454,"is_reserved":false,"is_disabled":true,"rental_uris":{"android":"levelo://app?vid=b333cd80-7d33-4792-994c-327541464ea0","ios":"levelo://app?vid=b333cd80-7d33-4792-994c-327541464ea0"},"vehicle_type_id":"4","last_reported":1738066618,"current_range_meters":38800,"station_id":"ce4bhgp2rcd13ifvqfc0","pricing_plan_id":"cebpf4jnsgd1na2vs0mg"},{"bike_id":"0d0df9f1-edbf-4e8c-9522-12f0475ac324","system_id":"levelo_inurba_marseille","lat":43.29732,"lon":5.37693,"is_reserved":false,"is_disabled":false,"rental_uris":{"android":"levelo://app?vid=0d0df9f1-edbf-4e8c-9522-12f0475ac324","ios":"levelo://app?vid=0d0df9f1-edbf-4e8c-9522-12f0475ac324"},"vehicle_type_id":"4","last_reported":1738066618,"current_range_meters":37600,"station_id":"ce4bgkh2rcd13ifvqbl0","pricing_plan_id":"cebpf4jnsgd1na2vs0mg"},{"bike_id":"b5fde457-e9f6-4b57-b15d-b07d4dd9d2d3","system_id":"levelo_inurba_marseille","lat":43.31173,"lon":5.36852,"is_reserved":false,"is_disabled":false,"rental_uris":{"android":"levelo://app?vid=b5fde457-e9f6-4b57-b15d-b07d4dd9d2d3","ios":"levelo://app?vid=b5fde457-e9f6-4b57-b15d-b07d4dd9d2d3"},"vehicle_type_id":"4","last_reported":1738066618,"current_range_meters":38800,"station_id":"ce4bgl92rcd13ifvqbq0","pricing_plan_id":"cebpf4jnsgd1na2vs0mg"},{"bike_id":"0c69db19-2745-4f4d-bfef-389fd2b8d447","system_id":"levelo_inurba_marseille","lat":43.29581,"lon":5.3753,"is_reserved":false,"is_disabled":false,"rental_uris":{"android":"levelo://app?vid=0c69db19-2745-4f4d-bfef-389fd2b8d447","ios":"levelo://app?vid=0c69db19-2745-4f4d-bfef-389fd2b8d447"},"vehicle_type_id":"4","last_reported":1738066618,"current_range_meters":38800,"station_id":"ce4bgh92rcd13ifvqb50","pricing_plan_id":"cebpf4jnsgd1na2vs0mg"},{"bike_id":"7f7afb57-da36-436e-88c2-51d682aad0d5","system_id":"levelo_inurba_marseille","lat":43.30183,"lon":5.36632,"is_reserved":false,"is_disabled":false,"rental_uris":{"android":"levelo://app?vid=7f7afb57-da36-436e-88c2-51d682aad0d5","ios":"levelo://app?vid=7f7afb57-da36-436e-88c2-51d682aad0d5"},"vehicle_type_id":"4","last_reported":1738066618,"current_range_meters":25600,"station_id":"ce4bgrh2rcd13ifvqc8g","pricing_plan_id":"cebpf4jnsgd1na2vs0mg"},{"bike_id":"f82899ee-5ac0-47f2-bd09-c49d409330c7","system_id":"levelo_inurba_marseille","lat":43.30301,"lon":5.3921,"is_reserved":false,"is_disabled":false,"rental_uris":{"android":"levelo://app?vid=f82899ee-5ac0-47f2-bd09-c49d409330c7","ios":"levelo://app?vid=f82899ee-5ac0-47f2-bd09-c49d409330c7"},"vehicle_type_id":"4","last_reported":1738066618,"current_range_meters":23200,"station_id":"ce4bgkh2rcd13ifvqbk0","pricing_plan_id":"cebpf4jnsgd1na2vs0mg"},{"bike_id":"a68fe737-6073-47b8-96c6-860baf44b13b","system_id":"levelo_inurba_marseille","lat":43.30616,"lon":5.37225,"is_reserved":false,"is_disabled":false,"rental_uris":{"android":"levelo://app?vid=a68fe737-6073-47b8-96c6-860baf44b13b","ios":"levelo://app?vid=a68fe737-6073-47b8-96c6-860baf44b13b"},"vehicle_type_id":"4","last_reported":1738066618,"current_range_meters":24800,"station_id":"ce4bgqh2rcd13ifvqc4g","pricing_plan_id":"cebpf4jnsgd1na2vs0mg"},{"bike_id":"6044c25e-13c1-4835-a237-fe4dc2784e3d","system_id":"levelo_inurba_marseille","lat":43.26959,"lon":5.38633,"is_reserved":false,"is_disabled":true,"rental_uris":{"android":"levelo://app?vid=6044c25e-13c1-4835-a237-fe4dc2784e3d","ios":"levelo://app?vid=6044c25e-13c1-4835-a237-fe4dc2784e3d"},"vehicle_type_id":"4","last_reported":1738066618,"current_range_meters":28800,"station_id":"ce4bhh92rcd13ifvqfh0","pricing_plan_id":"cebpf4jnsgd1na2vs0mg"},{"bike_id":"19080389-7a11-445b-b07c-425543ec84d3","system_id":"levelo_inurba_marseille","lat":43.23949,"lon":5.36652,"is_reserved":false,"is_disabled":false,"rental_uris":{"android":"levelo://app?vid=19080389-7a11-445b-b07c-425543ec84d3","ios":"levelo://app?vid=19080389-7a11-445b-b07c-425543ec84d3"},"vehicle_type_id":"4","last_reported":1738066618,"current_range_meters":38400,"station_id":"ce4bhi12rcd13ifvqfp0","pricing_plan_id":"cebpf4jnsgd1na2vs0mg"},{"bike_id":"1a9ec841-a319-462e-971d-720bca0e4753","system_id":"levelo_inurba_marseille","lat":43.298,"lon":5.38096,"is_reserved":false,"is_disabled":false,"rental_uris":{"android":"levelo://app?vid=1a9ec841-a319-462e-971d-720bca0e4753","ios":"levelo://app?vid=1a9ec841-a319-462e-971d-720bca0e4753"},"vehicle_type_id":"4","last_reported":1738066618,"current_range_meters":28800,"station_id":"ce4bgip2rcd13ifvqbb0","pricing_plan_id":"cebpf4jnsgd1na2vs0mg"},{"bike_id":"0eff7160-c74a-440b-b762-656f9d7c5f23","system_id":"levelo_inurba_marseille","lat":43.28259,"lon":5.35074,"is_reserved":false,"is_disabled":false,"rental_uris":{"android":"levelo://app?vid=0eff7160-c74a-440b-b762-656f9d7c5f23","ios":"levelo://app?vid=0eff7160-c74a-440b-b762-656f9d7c5f23"},"vehicle_type_id":"4","last_reported":1738066618,"current_range_meters":20000,"station_id":"ce4bhbp2rcd13ifvqerg","pricing_plan_id":"cebpf4jnsgd1na2vs0mg"},{"bike_id":"facf84a6-0b06-4f9a-a567-95bd8ae0d45e","system_id":"levelo_inurba_marseille","lat":43.28723,"lon":5.3739,"is_reserved":false,"is_disabled":false,"rental_uris":{"android":"levelo://app?vid=facf84a6-0b06-4f9a-a567-95bd8ae0d45e","ios":"levelo://app?vid=facf84a6-0b06-4f9a-a567-95bd8ae0d45e"},"vehicle_type_id":"4","last_reported":1738066618,"current_range_meters":36800,"station_id":"ce4bh3p2rcd13ifvqdq0","pricing_plan_id":"cebpf4jnsgd1na2vs0mg"},{"bike_id":"73d96806-72e0-41eb-b67b-67c16806fc5e","system_id":"levelo_inurba_marseille","lat":43.296243,"lon":5.371685,"is_reserved":false,"is_disabled":false,"rental_uris":{"android":"levelo://app?vid=73d96806-72e0-41eb-b67b-67c16806fc5e","ios":"levelo://app?vid=73d96806-72e0-41eb-b67b-67c16806fc5e"},"vehicle_type_id":"4","last_reported":1738066618,"current_range_meters":17200,"station_id":"ce4bgnh2rcd13ifvqc0g","pricing_plan_id":"cebpf4jnsgd1na2vs0mg"},{"bike_id":"4008c5d4-accb-4981-8933-9e85f4cde128","system_id":"levelo_inurba_marseille","lat":43.2322,"lon":5.35546,"is_reserved":false,"is_disabled":false,"rental_uris":{"android":"levelo://app?vid=4008c5d4-accb-4981-8933-9e85f4cde128","ios":"levelo://app?vid=4008c5d4-accb-4981-8933-9e85f4cde128"},"vehicle_type_id":"4","last_reported":1738066618,"current_range_meters":12000,"station_id":"ce4bhu92rcd13ifvqi70","pricing_plan_id":"cebpf4jnsgd1na2vs0mg"},{"bike_id":"6afb52b2-e5bf-49f2-9498-d83f28980357","system_id":"levelo_inurba_marseille","lat":43.28447,"lon":5.39208,"is_reserved":false,"is_disabled":false,"rental_uris":{"android":"levelo://app?vid=6afb52b2-e5bf-49f2-9498-d83f28980357","ios":"levelo://app?vid=6afb52b2-e5bf-49f2-9498-d83f28980357"},"vehicle_type_id":"4","last_reported":1738066618,"current_range_meters":26000,"station_id":"ce4bhoh2rcd13ifvqh5g","pricing_plan_id":"cebpf4jnsgd1na2vs0mg"},{"bike_id":"580816cb-26d2-4de3-91ea-3da5e4cef220","system_id":"levelo_inurba_marseille","lat":43.29264,"lon":5.40916,"is_reserved":false,"is_disabled":false,"rental_uris":{"android":"levelo://app?vid=580816cb-26d2-4de3-91ea-3da5e4cef220","ios":"levelo://app?vid=580816cb-26d2-4de3-91ea-3da5e4cef220"},"vehicle_type_id":"4","last_reported":1738066618,"current_range_meters":26800,"station_id":"ce4bh192rcd13ifvqdc0","pricing_plan_id":"cebpf4jnsgd1na2vs0mg"},{"bike_id":"9b57e3d6-5ad4-4a27-b41a-12e4a5c48c00","system_id":"levelo_inurba_marseille","lat":43.30947,"lon":5.39043,"is_reserved":false,"is_disabled":false,"rental_uris":{"android":"levelo://app?vid=9b57e3d6-5ad4-4a27-b41a-12e4a5c48c00","ios":"levelo://app?vid=9b57e3d6-5ad4-4a27-b41a-12e4a5c48c00"},"vehicle_type_id":"4","last_reported":1738066618,"current_range_meters":28000,"station_id":"ce4bgup2rcd13ifvqco0","pricing_plan_id":"cebpf4jnsgd1na2vs0mg"},{"bike_id":"63dfe3f5-2650-47cd-997e-d56e988bda19","system_id":"levelo_inurba_marseille","lat":43.31686,"lon":5.40472,"is_reserved":false,"is_disabled":false,"rental_uris":{"android":"levelo://app?vid=63dfe3f5-2650-47cd-997e-d56e988bda19","ios":"levelo://app?vid=63dfe3f5-2650-47cd-997e-d56e988bda19"},"vehicle_type_id":"4","last_reported":1738066618,"current_range_meters":25600,"station_id":"ce4bh012rcd13ifvqd00","pricing_plan_id":"cebpf4jnsgd1na2vs0mg"},{"bike_id":"dde0b023-0524-495c-b601-59e86c915b58","system_id":"levelo_inurba_marseille","lat":43.29554,"lon":5.42288,"is_reserved":false,"is_disabled":true,"rental_uris":{"android":"levelo://app?vid=dde0b023-0524-495c-b601-59e86c915b58","ios":"levelo://app?vid=dde0b023-0524-495c-b601-59e86c915b58"},"vehicle_type_id":"4","last_reported":1738066618,"current_range_meters":22400,"station_id":"ce4bhph2rcd13ifvqhdg","pricing_plan_id":"cebpf4jnsgd1na2vs0mg"},{"bike_id":"af27571c-dbd9-4da4-85f4-96f3d0a1f3af","system_id":"levelo_inurba_marseille","lat":43.25005,"lon":5.38918,"is_reserved":false,"is_disabled":false,"rental_uris":{"android":"levelo://app?vid=af27571c-dbd9-4da4-85f4-96f3d0a1f3af","ios":"levelo://app?vid=af27571c-dbd9-4da4-85f4-96f3d0a1f3af"},"vehicle_type_id":"4","last_reported":1738066618,"current_range_meters":37600,"station_id":"ce4bhgp2rcd13ifvqfd0","pricing_plan_id":"cebpf4jnsgd1na2vs0mg"},{"bike_id":"b54ee670-b06a-4d07-9341-21ec3828ca7f","system_id":"levelo_inurba_marseille","lat":43.30905,"lon":5.36844,"is_reserved":false,"is_disabled":false,"rental_uris":{"android":"levelo://app?vid=b54ee670-b06a-4d07-9341-21ec3828ca7f","ios":"levelo://app?vid=b54ee670-b06a-4d07-9341-21ec3828ca7f"},"vehicle_type_id":"4","last_reported":1738066618,"current_range_meters":38800,"station_id":"ce4bgn92rcd13ifvqbvg","pricing_plan_id":"cebpf4jnsgd1na2vs0mg"},{"bike_id":"327a83b6-f622-4d47-9673-718820982f85","system_id":"levelo_inurba_marseille","lat":43.26193,"lon":5.37449,"is_reserved":false,"is_disabled":false,"rental_uris":{"android":"levelo://app?vid=327a83b6-f622-4d47-9673-718820982f85","ios":"levelo://app?vid=327a83b6-f622-4d47-9673-718820982f85"},"vehicle_type_id":"4","last_reported":1738066618,"current_range_meters":18000,"station_id":"ce4bhgp2rcd13ifvqfc0","pricing_plan_id":"cebpf4jnsgd1na2vs0mg"},{"bike_id":"fc32bf72-df56-4ed1-82c8-dfeefb399306","system_id":"levelo_inurba_marseille","lat":43.30871,"lon":5.37203,"is_reserved":false,"is_disabled":false,"rental_uris":{"android":"levelo://app?vid=fc32bf72-df56-4ed1-82c8-dfeefb399306","ios":"levelo://app?vid=fc32bf72-df56-4ed1-82c8-dfeefb399306"},"vehicle_type_id":"4","last_reported":1738066618,"current_range_meters":21600,"station_id":"ce4bguh2rcd13ifvqckg","pricing_plan_id":"cebpf4jnsgd1na2vs0mg"},{"bike_id":"b0e9c243-e2ae-442a-824e-fa6a89f726bc","system_id":"levelo_inurba_marseille","lat":43.28848,"lon":5.35833,"is_reserved":false,"is_disabled":false,"rental_uris":{"android":"levelo://app?vid=b0e9c243-e2ae-442a-824e-fa6a89f726bc","ios":"levelo://app?vid=b0e9c243-e2ae-442a-824e-fa6a89f726bc"},"vehicle_type_id":"4","last_reported":1738066618,"current_range_meters":24000,"station_id":"ce4bhb12rcd13ifvqem0","pricing_plan_id":"cebpf4jnsgd1na2vs0mg"},