{"last_updated":1752336739,"ttl":60,"version":"2.2","data":{"bikes":[{"bike_id":"944fbdfb-0210-4ae2-b118-d73e2bf67af6","system_id":"levelo_inurba_marseille","lat":43.25581,"lon":5.38224,"is_reserved":false,"is_disabled":false,"rental_uris":{"android":"levelo://app?vid=944fbdfb-0210-4ae2-b118-d73e2bf67af6","ios":"levelo://app?vid=944fbdfb-0210-4ae2-b118-d73e2bf67af6"},"vehicle_type_id":"4","last_reported":1752336739,"current_range_meters":2800,"station_id":"ce4bhih2rcd13ifvqfs0","pricing_plan_id":"cebpf4jnsgd1na2vs0mg"},{"bike_id":"bb62413e-bc19-4433-863b-1f41632c0b8f","system_id":"levelo_inurba_marseille","lat":43.29202,"lon":5.39326,"is_reserved":false,"is_disabled":false,"rental_uris":{"android":"levelo://app?vid=bb62413e-bc19-4433-863b-1f41632c0b8f","ios":"levelo://app?vid=bb62413e-bc19-4433-863b-1f41632c0b8f"},"vehicle_type_id":"4","last_reported":1752336739,"current_range_meters":2800,"station_id":"ce4bh192rcd13ifvqdd0","pricing_plan_id":"cebpf4jnsgd1na2vs0mg"},{"bike_id":"7b104484-ae7b-4050-bd2a-ff3300aa92e7","system_id":"levelo_inurba_marseille","lat":43.30545,"lon":5.365609,"is_reserved":false,"is_disabled":true,"rental_uris":{"android":"levelo://app?vid=7b104484-ae7b-4050-bd2a-ff3300aa92e7","ios":"levelo://app?vid=7b104484-ae7b-4050-bd2a-ff3300aa92e7"},"vehicle_type_id":"4","last_reported":1752336739,"current_range_meters":3600,"station_id":"ce4bgs12rcd13ifvqcag","pricing_plan_id":"cebpf4jnsgd1na2vs0mg"},{"bike_id":"04b2a229-efc6-415d-a43b-70e21bc23ed2","system_id":"levelo_inurba_marseille","lat":43.26503,"lon":5.39533,"is_reserved":false,"is_disabled":false,"rental_uris":{"android":"levelo://app?vid=04b2a229-efc6-415d-a43b-70e21bc23ed2","ios":"levelo://app?vid=04b2a229-efc6-415d-a43b-70e21bc23ed2"},"vehicle_type_id":"4","last_reported":1752336739,"current_range_meters":3600,"station_id":"ce4bhi12rcd13ifvqfq0","pricing_plan_id":"cebpf4jnsgd1na2vs0mg"},{"bike_id":"0608d800-097b-4f70-a518-7bebbd73d51f","system_id":"levelo_inurba_marseille","lat":43.31344,"lon":5.38502,"is_reserved":false,"is_disabled":true,"rental_uris":{"android":"levelo://app?vid=0608d800-097b-4f70-a518-7bebbd73d51f","ios":"levelo://app?vid=0608d800-097b-4f70-a518-7bebbd73d51f"},"vehicle_type_id":"4","last_reported":1752336739,"current_range_meters":3600,"station_id":"ce4bgt92rcd13ifvqcf0","pricing_plan_id":"cebpf4jnsgd1na2vs0mg"},{"bike_id":"04b76da2-0648-451b-acc1-7eba418485e1","system_id":"levelo_inurba_marseille","lat":43.31489,"lon":5.37311,"is_reserved":false,"is_disabled":false,"rental_uris":{"android":"levelo://app?vid=04b76da2-0648-451b-acc1-7eba418485e1","ios":"levelo://app?vid=04b76da2-0648-451b-acc1-7eba418485e1"},"vehicle_type_id":"4","last_reported":1752336739,"current_range_meters":3600,"station_id":"ce4bgt12rcd13ifvqcd0","pricing_plan_id":"cebpf4jnsgd1na2vs0mg"},{"bike_id":"091ec708-7476-4293-939d-e8210d1515c9","system_id":"levelo_inurba_marseille","lat":43.29012,"lon":5.35605,"is_reserved":false,"is_disabled":false,"rental_uris":{"android":"levelo://app?vid=091ec708-7476-4293-939d-e8210d1515c9","ios":"levelo://app?vid=091ec708-7476-4293-939d-e8210d1515c9"},"vehicle_type_id":"4","last_reported":1752336739,"current_range_meters":4400,"station_id":"ce4bhb92rcd13ifvqen0","pricing_plan_id":"cebpf4jnsgd1na2vs0mg"},{"bike_id":"fe06ba6a-e6b7-4ace-a8f0-7959a0a6522d","system_id":"levelo_inurba_marseille","lat":43.28615,"lon":5.35109,"is_reserved":false,"is_disabled":false,"rental_uris":{"android":"levelo://app?vid=fe06ba6a-e6b7-4ace-a8f0-7959a0a6522d","ios":"levelo://app?vid=fe06ba6a-e6b7-4ace-a8f0-7959a0a6522d"},"vehicle_type_id":"4","last_reported":1752336739,"current_range_meters":4400,"station_id":"ce4bhch2rcd13ifvqeug","pricing_plan_id":"cebpf4jnsgd1na2vs0mg"},{"bike_id":"9dcf9fdc-74e3-4170-b1d5-73f9a01855d4","system_id":"levelo_inurba_marseille","lat":43.307775,"lon":5.376362,"is_reserved":false,"is_disabled":false,"rental_uris":{"android":"levelo://app?vid=9dcf9fdc-74e3-4170-b1d5-73f9a01855d4","ios":"levelo://app?vid=9dcf9fdc-74e3-4170-b1d5-73f9a01855d4"},"vehicle_type_id":"4","last_reported":1752336739,"current_range_meters":5600,"station_id":"ce4bgv92rcd13ifvqcq0","pricing_plan_id":"cebpf4jnsgd1na2vs0mg"},{"bike_id":"8ce90714-9db7-4ed0-82d7-2427814eb92d","system_id":"levelo_inurba_marseille","lat":43.28932,"lon":5.38414,"is_reserved":false,"is_disabled":false,"rental_uris":{"android":"levelo://app?vid=8ce90714-9db7-4ed0-82d7-2427814eb92d","ios":"levelo://app?vid=8ce90714-9db7-4ed0-82d7-2427814eb92d"},"vehicle_type_id":"4","last_reported":1752336739,"current_range_meters":6000,"station_id":"ce4bh612rcd13ifvqe6g","pricing_plan_id":"cebpf4jnsgd1na2vs0mg"},{"bike_id":"3409beee-b46e-4683-90b9-76d33f33a4f7","system_id":"levelo_inurba_marseille","lat":43.28407,"lon":5.34984,"is_reserved":false,"is_disabled":false,"rental_uris":{"android":"levelo://app?vid=3409beee-b46e-4683-90b9-76d33f33a4f7","ios":"levelo://app?vid=3409beee-b46e-4683-90b9-76d33f33a4f7"},"vehicle_type_id":"4","last_reported":1752336739,"current_range_meters":6400,"station_id":"ce4bhbh2rcd13ifvqepg","pricing_plan_id":"cebpf4jnsgd1na2vs0mg"},{"bike_id":"c4cb91f3-21de-4fc5-9c62-bcf13ddf8388","system_id":"levelo_inurba_marseille","lat":43.26565,"lon":5.39024,"is_reserved":false,"is_disabled":true,"rental_uris":{"android":"levelo://app?vid=c4cb91f3-21de-4fc5-9c62-bcf13ddf8388","ios":"levelo://app?vid=c4cb91f3-21de-4fc5-9c62-bcf13ddf8388"},"vehicle_type_id":"4","last_reported":1752336739,"current_range_meters":6800,"station_id":"ce4bhe12rcd13ifvqf30","pricing_plan_id":"cebpf4jnsgd1na2vs0mg"},{"bike_id":"3224130f-33c2-4ad4-a39f-b0af8d0b79f1","system_id":"levelo_inurba_marseille","lat":43.296173,"lon":5.371666,"is_reserved":false,"is_disabled":false,"rental_uris":{"android":"levelo://app?vid=3224130f-33c2-4ad4-a39f-b0af8d0b79f1","ios":"levelo://app?vid=3224130f-33c2-4ad4-a39f-b0af8d0b79f1"},"vehicle_type_id":"4","last_reported":1752336739,"current_range_meters":2800,"station_id":"","pricing_plan_id":"cebpf4jnsgd1na2vs0mg"},{"bike_id":"7309f3d6-921f-406c-9997-5cde01b0f029","system_id":"levelo_inurba_marseille","lat":43.27943,"lon":5.41052,"is_reserved":false,"is_disabled":false,"rental_uris":{"android":"levelo://app?vid=7309f3d6-921f-406c-9997-5cde01b0f029","ios":"levelo://app?vid=7309f3d6-921f-406c-9997-5cde01b0f029"},"vehicle_type_id":"4","last_reported":1752336739,"current_range_meters":8000,"station_id":"ce4bhnp2rcd13ifvqh0g","pricing_plan_id":"cebpf4jnsgd1na2vs0mg"},{"bike_id":"68bd7752-8236-4dd1-9e4e-7837c3324c98","system_id":"levelo_inurba_marseille","lat":43.2928,"lon":5.40118,"is_reserved":false,"is_disabled":false,"rental_uris":{"android":"levelo://app?vid=68bd7752-8236-4dd1-9e4e-7837c3324c98","ios":"levelo://app?vid=68bd7752-8236-4dd1-9e4e-7837c3324c98"},"vehicle_type_id":"4","last_reported":1752336739,"current_range_meters":7200,"station_id":"ce4bh312rcd13ifvqdk0","pricing_plan_id":"cebpf4jnsgd1na2vs0mg"},{"bike_id":"cb9282c9-0a04-426f-af4a-9dc494a82650","system_id":"levelo_inurba_marseille","lat":43.225037,"lon":5.347922,"is_reserved":false,"is_disabled":false,"rental_uris":{"android":"levelo://app?vid=cb9282c9-0a04-426f-af4a-9dc494a82650","ios":"levelo://app?vid=cb9282c9-0a04-426f-af4a-9dc494a82650"},"vehicle_type_id":"4","last_reported":1752336739,"current_range_meters":7200,"station_id":"","pricing_plan_id":"cebpf4jnsgd1na2vs0mg"},{"bike_id":"534ed68d-5ceb-43a8-968b-be30f01dfa74","system_id":"levelo_inurba_marseille","lat":43.28225,"lon":5.39054,"is_reserved":false,"is_disabled":false,"rental_uris":{"android":"levelo://app?vid=534ed68d-5ceb-43a8-968b-be30f01dfa74","ios":"levelo://app?vid=534ed68d-5ceb-43a8-968b-be30f01dfa74"},"vehicle_type_id":"4","last_reported":1752336739,"current_range_meters":8000,"station_id":"","pricing_plan_id":"cebpf4jnsgd1na2vs0mg"},{"bike_id":"235d433e-b1e7-4a08-9e1b-fe63a813e51c","system_id":"levelo_inurba_marseille","lat":43.28571,"lon":5.3949,"is_reserved":false,"is_disabled":false,"rental_uris":{"android":"levelo://app?vid=235d433e-b1e7-4a08-9e1b-fe63a813e51c","ios":"levelo://app?vid=235d433e-b1e7-4a08-9e1b-fe63a813e51c"},"vehicle_type_id":"4","last_reported":1752336739,"current_range_meters":8400,"station_id":"ce4bh292rcd13ifvqdg0","pricing_plan_id":"cebpf4jnsgd1na2vs0mg"},{"bike_id":"ef5c3732-9003-447a-b5c0-aebadb30e97c","system_id":"levelo_inurba_marseille","lat":43.30901,"lon":5.39649,"is_reserved":false,"is_disabled":false,"rental_uris":{"android":"levelo://app?vid=ef5c3732-9003-447a-b5c0-aebadb30e97c","ios":"levelo://app?vid=ef5c3732-9003-447a-b5c0-aebadb30e97c"},"vehicle_type_id":"4","last_reported":1752336739,"current_range_meters":8800,"station_id":"ce4bh012rcd13ifvqcv0","pricing_plan_id":"cebpf4jnsgd1na2vs0mg"},{"bike_id":"2f0ba75c-aff3-43f4-857b-fc7c66f4e426","system_id":"levelo_inurba_marseille","lat":43.30958,"lon":5.39021,"is_reserved":false,"is_disabled":true,"rental_uris":{"android":"levelo://app?vid=2f0ba75c-aff3-43f4-857b-fc7c66f4e426","ios":"levelo://app?vid=2f0ba75c-aff3-43f4-857b-fc7c66f4e426"},"vehicle_type_id":"4","last_reported":1752336739,"current_range_meters":8800,"station_id":"ce4bgup2rcd13ifvqco0","pricing_plan_id":"cebpf4jnsgd1na2vs0mg"},{"bike_id":"9a721a67-800d-41fb-b2c2-3309f63164c3","system_id":"levelo_inurba_marseille","lat":43.21196,"lon":5.35072,"is_reserved":false,"is_disabled":false,"rental_uris":{"android":"levelo://app?vid=9a721a67-800d-41fb-b2c2-3309f63164c3","ios":"levelo://app?vid=9a721a67-800d-41fb-b2c2-3309f63164c3"},"vehicle_type_id":"4","last_reported":1752336739,"current_range_meters":8800,"station_id":"st_cvj6sg6p6f1abm77japg","pricing_plan_id":"cebpf4jnsgd1na2vs0mg"},{"bike_id":"595e9351-a7ce-45de-8995-771f7d9fe86e","system_id":"levelo_inurba_marseille","lat":43.309243,"lon":5.378088,"is_reserved":false,"is_disabled":false,"rental_uris":{"android":"levelo://app?vid=595e9351-a7ce-45de-8995-771f7d9fe86e","ios":"levelo://app?vid=595e9351-a7ce-45de-8995-771f7d9fe86e"},"vehicle_type_id":"4","last_reported":1752336739,"current_range_meters":9200,"station_id":"","pricing_plan_id":"cebpf4jnsgd1na2vs0mg"},{"bike_id":"55e06dd5-70cc-4475-9fd4-462ebaf52bde","system_id":"levelo_inurba_marseille","lat":43.28652,"lon":5.35123,"is_reserved":false,"is_disabled":false,"rental_uris":{"android":"levelo://app?vid=55e06dd5-70cc-4475-9fd4-462ebaf52bde","ios":"levelo://app?vid=55e06dd5-70cc-4475-9fd4-462ebaf52bde"},"vehicle_type_id":"4","last_reported":1752336739,"current_range_meters":9600,"station_id":"ce4bhch2rcd13ifvqeug","pricing_plan_id":"cebpf4jnsgd1na2vs0mg"},{"bike_id":"097106d7-0dc8-4152-8540-cae0e1de8dea","system_id":"levelo_inurba_marseille","lat":43.2119,"lon":5.35068,"is_reserved":false,"is_disabled":false,"rental_uris":{"android":"levelo://app?vid=097106d7-0dc8-4152-8540-cae0e1de8dea","ios":"levelo://app?vid=097106d7-0dc8-4152-8540-cae0e1de8dea"},"vehicle_type_id":"4","last_reported":1752336739,"current_range_meters":9600,"station_id":"st_cvj6sg6p6f1abm77japg","pricing_plan_id":"cebpf4jnsgd1na2vs0mg"},{"bike_id":"abc23d80-5cf6-4618-827f-84c831446039","system_id":"levelo_inurba_marseille","lat":43.21191,"lon":5.3507,"is_reserved":false,"is_disabled":false,"rental_uris":{"android":"levelo://app?vid=abc23d80-5cf6-4618-827f-84c831446039","ios":"levelo://app?vid=abc23d80-5cf6-4618-827f-84c831446039"},"vehicle_type_id":"4","last_reported":1752336739,"current_range_meters":9600,"station_id":"st_cvj6sg6p6f1abm77japg","pricing_plan_id":"cebpf4jnsgd1na2vs0mg"},{"bike_id":"9ed7dde2-e628-4060-8d9b-b56d1236fa57","system_id":"levelo_inurba_marseille","lat":43.29371,"lon":5.37832,"is_reserved":false,"is_disabled":false,"rental_uris":{"android":"levelo://app?vid=9ed7dde2-e628-4060-8d9b-b56d1236fa57","ios":"levelo://app?vid=9ed7dde2-e628-4060-8d9b-b56d1236fa57"},"vehicle_type_id":"4","last_reported":1752336739,"current_range_meters":9600,"station_id":"ce4bgjh2rcd13ifvqbf0","pricing_plan_id":"cebpf4jnsgd1na2vs0mg"},{"bike_id":"2711aaaf-3805-4804-9329-3207cf061148","system_id":"levelo_inurba_marseille","lat":43.28416,"lon":5.34994,"is_reserved":false,"is_disabled":false,"rental_uris":{"android":"levelo://app?vid=2711aaaf-3805-4804-9329-3207cf061148","ios":"levelo://app?vid=2711aaaf-3805-4804-9329-3207cf061148"},"vehicle_type_id":"4","last_reported":1752336739,"current_range_meters":9600,"station_id":"ce4bhbh2rcd13ifvqepg","pricing_plan_id":"cebpf4jnsgd1na2vs0mg"},{"bike_id":"8874886d-77b9-4d55-979f-076542d860bf","system_id":"levelo_inurba_marseille","lat":43.231759,"lon":5.399869,"is_reserved":false,"is_disabled":false,"rental_uris":{"android":"levelo://app?vid=8874886d-77b9-4d55-979f-076542d860bf","ios":"levelo://app?vid=8874886d-77b9-4d55-979f-076542d860bf"},"vehicle_type_id":"4","last_reported":1752336739,"current_range_meters":9600,"station_id":"ce4bhn12rcd13ifvqgqg","pricing_plan_id":"cebpf4jnsgd1na2vs0mg"},{"bike_id":"e3a75ee9-c614-467b-8cc2-f813bcef2ab1","system_id":"levelo_inurba_marseille","lat":43.33743,"lon":5.3919,"is_reserved":false,"is_disabled":false,"rental_uris":{"android":"levelo://app?vid=e3a75ee9-c614-467b-8cc2-f813bcef2ab1","ios":"levelo://app?vid=e3a75ee9-c614-467b-8cc2-f813bcef2ab1"},"vehicle_type_id":"4","last_reported":1752336739,"current_range_meters":9600,"station_id":"ce4bhr92rcd13ifvqhsg","pricing_plan_id":"cebpf4jnsgd1na2vs0mg"},{"bike_id":"d0f855a9-7799-4068-a8b6-3d926847a858","system_id":"levelo_inurba_marseille","lat":43.30905,"lon":5.36838,"is_reserved":false,"is_disabled":false,"rental_uris":{"android":"levelo://app?vid=d0f855a9-7799-4068-a8b6-3d926847a858","ios":"levelo://app?vid=d0f855a9-7799-4068-a8b6-3d926847a858"},"vehicle_type_id":"4","last_reported":1752336739,"current_range_meters":9200,"station_id":"ce4bgn92rcd13ifvqbvg","pricing_plan_id":"cebpf4jnsgd1na2vs0mg"},{"bike_id":"46cacac0-84b7-4c70-a453-a1cb8250fb4d","system_id":"levelo_inurba_marseille","lat":43.33763,"lon":5.37422,"is_reserved":false,"is_disabled":false,"rental_uris":{"android":"levelo://app?vid=46cacac0-84b7-4c70-a453-a1cb8250fb4d","ios":"levelo://app?vid=46cacac0-84b7-4c70-a453-a1cb8250fb4d"},"vehicle_type_id":"4","last_reported":1752336739,"current_range_meters":10000,"station_id":"","pricing_plan_id":"cebpf4jnsgd1na2vs0mg"},{"bike_id":"aab98c4b-ec08-4f1b-b06b-b81b97f81d2b","system_id":"levelo_inurba_marseille","lat":43.2706,"lon":5.42244,"is_reserved":false,"is_disabled":false,"rental_uris":{"android":"levelo://app?vid=aab98c4b-ec08-4f1b-b06b-b81b97f81d2b","ios":"levelo://app?vid=aab98c4b-ec08-4f1b-b06b-b81b97f81d2b"},"vehicle_type_id":"4","last_reported":1752336739,"current_range_meters":10000,"station_id":"ce4bhk92rcd13ifvqgb0","pricing_plan_id":"cebpf4jnsgd1na2vs0mg"},{"bike_id":"75bb1dd6-50a7-47a9-9e4b-6b29bd46237a","system_id":"levelo_inurba_marseille","lat":43.21216,"lon":5.35047,"is_reserved":false,"is_disabled":false,"rental_uris":{"android":"levelo://app?vid=75bb1dd6-50a7-47a9-9e4b-6b29bd46237a","ios":"levelo://app?vid=75bb1dd6-50a7-47a9-9e4b-6b29bd46237a"},"vehicle_type_id":"4","last_reported":1752336739,"current_range_meters":10000,"station_id":"","pricing_plan_id":"cebpf4jnsgd1na2vs0mg"},{"bike_id":"9dbd7bad-ca30-43ae-8d8f-a597179d5b51","system_id":"levelo_inurba_marseille","lat":43.28045,"lon":5.36952,"is_reserved":false,"is_disabled":true,"rental_uris":{"android":"levelo://app?vid=9dbd7bad-ca30-43ae-8d8f-a597179d5b51","ios":"levelo://app?vid=9dbd7bad-ca30-43ae-8d8f-a597179d5b51"},"vehicle_type_id":"4","last_reported":1752336739,"current_range_meters":10000,"station_id":"ce4bha12rcd13ifvqef0","pricing_plan_id":"cebpf4jnsgd1na2vs0mg"},{"bike_id":"34e7f93c-c892-4b6d-b726-78e8129cf585","system_id":"levelo_inurba_marseille","lat":43.28429,"lon":5.34967,"is_reserved":false,"is_disabled":false,"rental_uris":{"android":"levelo://app?vid=34e7f93c-c892-4b6d-b726-78e8129cf585","ios":"levelo://app?vid=34e7f93c-c892-4b6d-b726-78e8129cf585"},"vehicle_type_id":"4","last_reported":1752336739,"current_range_meters":10800,"station_id":"ce4bhbh2rcd13ifvqepg","pricing_plan_id":"cebpf4jnsgd1na2vs0mg"},{"bike_id":"8929c1bf-fd4d-44e4-aa66-b3eb6538c998","system_id":"levelo_inurba_marseille","lat":43.28592,"lon":5.42972,"is_reserved":false,"is_disabled":false,"rental_uris":{"android":"levelo://app?vid=8929c1bf-fd4d-44e4-aa66-b3eb6538c998","ios":"levelo://app?vid=8929c1bf-fd4d-44e4-aa66-b3eb6538c998"},"vehicle_type_id":"4","last_reported":1752336739,"current_range_meters":10800,"station_id":"","pricing_plan_id":"cebpf4jnsgd1na2vs0mg"},{"bike_id":"d862aa6a-475a-4bdd-b12f-bb3d0c448cbb","system_id":"levelo_inurba_marseille","lat":43.30462,"lon":5.37899,"is_reserved":false,"is_disabled":false,"rental_uris":{"android":"levelo://app?vid=d862aa6a-475a-4bdd-b12f-bb3d0c448cbb","ios":"levelo://app?vid=d862aa6a-475a-4bdd-b12f-bb3d0c448cbb"},"vehicle_type_id":"4","last_reported":1752336739,"current_range_meters":10800,"station_id":"ce4bgup2rcd13ifvqcn0","pricing_plan_id":"cebpf4jnsgd1na2vs0mg"},{"bike_id":"df61839a-7a72-4634-9960-e8ea0d9a8d35","system_id":"levelo_inurba_marseille","lat":43.239474,"lon":5.366089,"is_reserved":false,"is_disabled":true,"rental_uris":{"android":"levelo://app?vid=df61839a-7a72-4634-9960-e8ea0d9a8d35","ios":"levelo://app?vid=df61839a-7a72-4634-9960-e8ea0d9a8d35"},"vehicle_type_id":"4","last_reported":1752336739,"current_range_meters":10800,"station_id":"","pricing_plan_id":"cebpf4jnsgd1na2vs0mg"},{"bike_id":"21f51f77-8b78-488b-a42e-44d2a504cf11","system_id":"levelo_inurba_marseille","lat":43.2417,"lon":5.36394,"is_reserved":false,"is_disabled":true,"rental_uris":{"android":"levelo://app?vid=21f51f77-8b78-488b-a42e-44d2a504cf11","ios":"levelo://app?vid=21f51f77-8b78-488b-a42e-44d2a504cf11"},"vehicle_type_id":"4","last_reported":1752336739,"current_range_meters":11200,"station_id":"cpo36qri1sfpv3e86is0","pricing_plan_id":"cebpf4jnsgd1na2vs0mg"},{"bike_id":"89bff35c-c856-44b1-9a72-ffdd0e22a34d","system_id":"levelo_inurba_marseille","lat":43.30366,"lon":5.36818,"is_reserved":false,"is_disabled":false,"rental_uris":{"android":"levelo://app?vid=89bff35c-c856-44b1-9a72-ffdd0e22a34d","ios":"levelo://app?vid=89bff35c-c856-44b1-9a72-ffdd0e22a34d"},"vehicle_type_id":"4","last_reported":1752336739,"current_range_meters":11200,"station_id":"","pricing_plan_id":"cebpf4jnsgd1na2vs0mg"},{"bike_id":"cc6dbcee-6bea-403a-acf4-7cc960fd8080","system_id":"levelo_inurba_marseille","lat":43.23066,"lon":5.35494,"is_reserved":false,"is_disabled":false,"rental_uris":{"android":"levelo://app?vid=cc6dbcee-6bea-403a-acf4-7cc960fd8080","ios":"levelo://app?vid=cc6dbcee-6bea-403a-acf4-7cc960fd8080"},"vehicle_type_id":"4","last_reported":1752336739,"current_range_meters":11600,"station_id":"cpo3342slgdg3j2ifvpg","pricing_plan_id":"cebpf4jnsgd1na2vs0mg"},{"bike_id":"e89405ca-c07b-4ee5-9569-213bca18e404","system_id":"levelo_inurba_marseille","lat":43.25583,"lon":5.38229,"is_reserved":false,"is_disabled":false,"rental_uris":{"android":"levelo://app?vid=e89405ca-c07b-4ee5-9569-213bca18e404","ios":"levelo://app?vid=e89405ca-c07b-4ee5-9569-213bca18e404"},"vehicle_type_id":"4","last_reported":1752336739,"current_range_meters":11600,"station_id":"ce4bhih2rcd13ifvqfs0","pricing_plan_id":"cebpf4jnsgd1na2vs0mg"},{"bike_id":"b0acdd29-d79f-412d-8f93-5f6abb4004e6","system_id":"levelo_inurba_marseille","lat":43.2961,"lon":5.37713,"is_reserved":false,"is_disabled":false,"rental_uris":{"android":"levelo://app?vid=b0acdd29-d79f-412d-8f93-5f6abb4004e6","ios":"levelo://app?vid=b0acdd29-d79f-412d-8f93-5f6abb4004e6"},"vehicle_type_id":"4","last_reported":1752336739,"current_range_meters":11600,"station_id":"ce4bgi92rcd13ifvqb90","pricing_plan_id":"cebpf4jnsgd1na2vs0mg"},{"bike_id":"0fa87533-4b98-400d-90c1-f4b8d1c62da0","system_id":"levelo_inurba_marseille","lat":43.29908,"lon":5.38138,"is_reserved":false,"is_disabled":false,"rental_uris":{"android":"levelo://app?vid=0fa87533-4b98-400d-90c1-f4b8d1c62da0","ios":"levelo://app?vid=0fa87533-4b98-400d-90c1-f4b8d1c62da0"},"vehicle_type_id":"4","last_reported":1752336739,"current_range_meters":11600,"station_id":"ce4bgj12rcd13ifvqbc0","pricing_plan_id":"cebpf4jnsgd1na2vs0mg"},{"bike_id":"61198919-e72c-4fce-bc96-126627987dc0","system_id":"levelo_inurba_marseille","lat":43.29597,"lon":5.3786,"is_reserved":false,"is_disabled":false,"rental_uris":{"android":"levelo://app?vid=61198919-e72c-4fce-bc96-126627987dc0","ios":"levelo://app?vid=61198919-e72c-4fce-bc96-126627987dc0"},"vehicle_type_id":"4","last_reported":1752336739,"current_range_meters":11600,"station_id":"","pricing_plan_id":"cebpf4jnsgd1na2vs0mg"},{"bike_id":"c453155a-5220-48fc-922b-600ca54f8ab5","system_id":"levelo_inurba_marseille","lat":43.28655,"lon":5.3635,"is_reserved":false,"is_disabled":true,"rental_uris":{"android":"levelo://app?vid=c453155a-5220-48fc-922b-600ca54f8ab5","ios":"levelo://app?vid=c453155a-5220-48fc-922b-600ca54f8ab5"},"vehicle_type_id":"4","last_reported":1752336739,"current_range_meters":11600,"station_id":"ce4bhah2rcd13ifvqej0","pricing_plan_id":"cebpf4jnsgd1na2vs0mg"},{"bike_id":"5827a8f4-7f42-4503-815b-1125b9c1e84f","system_id":"levelo_inurba_marseille","lat":43.26933,"lon":5.38918,"is_reserved":false,"is_disabled":false,"rental_uris":{"android":"levelo://app?vid=5827a8f4-7f42-4503-815b-1125b9c1e84f","ios":"levelo://app?vid=5827a8f4-7f42-4503-815b-1125b9c1e84f"},"vehicle_type_id":"4","last_reported":1752336739,"current_range_meters":12000,"station_id":"ce4bhhh2rcd13ifvqfl0","pricing_plan_id":"cebpf4jnsgd1na2vs0mg"},{"bike_id":"dccb729c-7196-413f-8f03-84585c4fbe16","system_id":"levelo_inurba_marseille","lat":43.29261,"lon":5.38454,"is_reserved":false,"is_disabled":false,"rental_uris":{"android":"levelo://app?vid=dccb729c-7196-413f-8f03-84585c4fbe16","ios":"levelo://app?vid=dccb729c-7196-413f-8f03-84585c4fbe16"},"vehicle_type_id":"4","last_reported":1752336739,"current_range_meters":12000,"station_id":"ce4bh692rcd13ifvqea0","pricing_plan_id":"cebpf4jnsgd1na2vs0mg"},{"bike_id":"bd4f3c6e-01db-4415-be3e-8b3c3c201a1c","system_id":"levelo_inurba_marseille","lat":43.27209,"lon":5.39177,"is_reserved":false,"is_disabled":false,"rental_uris":{"android":"levelo://app?vid=bd4f3c6e-01db-4415-be3e-8b3c3c201a1c","ios":"levelo://app?vid=bd4f3c6e-01db-4415-be3e-8b3c3c201a1c"},"vehicle_type_id":"4","last_reported":1752336739,"current_range_meters":12000,"station_id":"ce4bhhp2rcd13ifvqfm0","pricing_plan_id":"cebpf4jnsgd1na2vs0mg"},{"bike_id":"ae6b362d-076f-4a96-9c50-061e301077aa","system_id":"levelo_inurba_marseille","lat":43.27918,"lon":5.39577,"is_reserved":false,"is_disabled":false,"rental_uris":{"android":"levelo://app?vid=ae6b362d-076f-4a96-9c50-061e301077aa","ios":"levelo://app?vid=ae6b362d-076f-4a96-9c50-061e301077aa"},"vehicle_type_id":"4","last_reported":1752336739,"current_range_meters":12000,"station_id":"ce4bhf92rcd13ifvqf40","pricing_plan_id":"cebpf4jnsgd1na2vs0mg"},{"bike_id":"dbba3321-20c7-4989-a7b5-ea9ab2c4b3e8","system_id":"levelo_inurba_marseille","lat":43.261935,"lon":5.374477,"is_reserved":false,"is_disabled":false,"rental_uris":{"android":"levelo://app?vid=dbba3321-20c7-4989-a7b5-ea9ab2c4b3e8","ios":"levelo://app?vid=dbba3321-20c7-4989-a7b5-ea9ab2c4b3e8"},"vehicle_type_id":"4","last_reported":1752336739,"current_range_meters":12000,"station_id":"ce4bhgp2rcd13ifvqfc0","pricing_plan_id":"cebpf4jnsgd1na2vs0mg"},{"bike_id":"036f5b4d-0498-41f3-92cb-f26dd868847e","system_id":"levelo_inurba_marseille","lat":43.30172,"lon":5.38078,"is_reserved":false,"is_disabled":false,"rental_uris":{"android":"levelo://app?vid=036f5b4d-0498-41f3-92cb-f26dd868847e","ios":"levelo://app?vid=036f5b4d-0498-41f3-92cb-f26dd868847e"},"vehicle_type_id":"4","last_reported":1752336739,"current_range_meters":12400,"station_id":"ce4bgjp2rcd13ifvqbh0","pricing_plan_id":"cebpf4jnsgd1na2vs0mg"},{"bike_id":"ffe907d6-7ed9-401c-9d9c-e32dcd8dda6d","system_id":"levelo_inurba_marseille","lat":43.29266,"lon":5.38443,"is_reserved":false,"is_disabled":false,"rental_uris":{"android":"levelo://app?vid=ffe907d6-7ed9-401c-9d9c-e32dcd8dda6d","ios":"levelo://app?vid=ffe907d6-7ed9-401c-9d9c-e32dcd8dda6d"},"vehicle_type_id":"4","last_reported":1752336739,"current_range_meters":12400,"station_id":"ce4bh692rcd13ifvqea0","pricing_plan_id":"cebpf4jnsgd1na2vs0mg"},{"bike_id":"ab6cb234-c8d6-4ce4-ab4f-b14b364484d3","system_id":"levelo_inurba_marseille","lat":43.30178,"lon":5.38097,"is_reserved":false,"is_disabled":false,"rental_uris":{"android":"levelo://app?vid=ab6cb234-c8d6-4ce4-ab4f-b14b364484d3","ios":"levelo://app?vid=ab6cb234-c8d6-4ce4-ab4f-b14b364484d3"},"vehicle_type_id":"4","last_reported":1752336739,"current_range_meters":12400,"station_id":"ce4bgjp2rcd13ifvqbh0","pricing_plan_id":"cebpf4jnsgd1na2vs0mg"},{"bike_id":"35940318-161c-41b3-a083-9d6c8ec32d6a","system_id":"levelo_inurba_marseille","lat":43.29529,"lon":5.38547,"is_reserved":false,"is_disabled":false,"rental_uris":{"android":"levelo://app?vid=35940318-161c-41b3-a083-9d6c8ec32d6a","ios":"levelo://app?vid=35940318-161c-41b3-a083-9d6c8ec32d6a"},"vehicle_type_id":"4","last_reported":1752336739,"current_range_meters":12400,"station_id":"ce4bgih2rcd13ifvqba0","pricing_plan_id":"cebpf4jnsgd1na2vs0mg"},{"bike_id":"849e6770-7b75-4b24-ada7-adeb62a527aa","system_id":"levelo_inurba_marseille","lat":43.26894,"lon":5.36804,"is_reserved":false,"is_disabled":false,"rental_uris":{"android":"levelo://app?vid=849e6770-7b75-4b24-ada7-adeb62a527aa","ios":"levelo://app?vid=849e6770-7b75-4b24-ada7-adeb62a527aa"},"vehicle_type_id":"4","last_reported":1752336739,"current_range_meters":12400,"station_id":"","pricing_plan_id":"cebpf4jnsgd1na2vs0mg"},{"bike_id":"e646e481-a4d6-4b85-b84d-3edc06745025","system_id":"levelo_inurba_marseille","lat":43.30603,"lon":5.39357,"is_reserved":false,"is_disabled":true,"rental_uris":{"android":"levelo://app?vid=e646e481-a4d6-4b85-b84d-3edc06745025","ios":"levelo://app?vid=e646e481-a4d6-4b85-b84d-3edc06745025"},"vehicle_type_id":"4","last_reported":1752336739,"current_range_meters":12400,"station_id":"ce4bh0p2rcd13ifvqd80","pricing_plan_id":"cebpf4jnsgd1na2vs0mg"},{"bike_id":"f814ed79-f1e3-440c-b156-f7a409e5edab","system_id":"levelo_inurba_marseille","lat":43.311,"lon":5.42412,"is_reserved":false,"is_disabled":false,"rental_uris":{"android":"levelo://app?vid=f814ed79-f1e3-440c-b156-f7a409e5edab","ios":"levelo://app?vid=f814ed79-f1e3-440c-b156-f7a409e5edab"},"vehicle_type_id":"4","last_reported":1752336739,"current_range_meters":12800,"station_id":"ce4bhp92rcd13ifvqhag","pricing_plan_id":"cebpf4jnsgd1na2vs0mg"},{"bike_id":"c816310d-8ff0-4290-b10a-aad431dd902c","system_id":"levelo_inurba_marseille","lat":43.2177,"lon":5.34591,"is_reserved":false,"is_disabled":true,"rental_uris":{"android":"levelo://app?vid=c816310d-8ff0-4290-b10a-aad431dd902c","ios":"levelo://app?vid=c816310d-8ff0-4290-b10a-aad431dd902c"},"vehicle_type_id":"4","last_reported":1752336739,"current_range_meters":13600,"station_id":"","pricing_plan_id":"cebpf4jnsgd1na2vs0mg"},{"bike_id":"ce101f9f-c444-423f-a47f-393e397aa580","system_id":"levelo_inurba_marseille","lat":43.30543,"lon":5.36559,"is_reserved":false,"is_disabled":false,"rental_uris":{"android":"levelo://app?vid=ce101f9f-c444-423f-a47f-393e397aa580","ios":"levelo://app?vid=ce101f9f-c444-423f-a47f-393e397aa580"},"vehicle_type_id":"4","last_reported":1752336739,"current_range_meters":13600,"station_id":"ce4bgs12rcd13ifvqcag","pricing_plan_id":"cebpf4jnsgd1na2vs0mg"},{"bike_id":"ad3a92a9-aac6-4694-a2f3-20c935fef2b6","system_id":"levelo_inurba_marseille","lat":43.292986,"lon":5.374656,"is_reserved":false,"is_disabled":false,"rental_uris":{"android":"levelo://app?vid=ad3a92a9-aac6-4694-a2f3-20c935fef2b6","ios":"levelo://app?vid=ad3a92a9-aac6-4694-a2f3-20c935fef2b6"},"vehicle_type_id":"4","last_reported":1752336739,"current_range_meters":13600,"station_id":"","pricing_plan_id":"cebpf4jnsgd1na2vs0mg"},{"bike_id":"ebcffcdb-82a3-4921-b2e0-ab5255762aa4","system_id":"levelo_inurba_marseille","lat":43.265566,"lon":5.372857,"is_reserved":false,"is_disabled":false,"rental_uris":{"android":"levelo://app?vid=ebcffcdb-82a3-4921-b2e0-ab5255762aa4","ios":"levelo://app?vid=ebcffcdb-82a3-4921-b2e0-ab5255762aa4"},"vehicle_type_id":"4","last_reported":1752336739,"current_range_meters":13600,"station_id":"ce4bhg12rcd13ifvqf70","pricing_plan_id":"cebpf4jnsgd1na2vs0mg"},{"bike_id":"552e2078-2b67-47a3-85fe-bc1f037082c2","system_id":"levelo_inurba_marseille","lat":43.21746,"lon":5.34592,"is_reserved":false,"is_disabled":false,"rental_uris":{"android":"levelo://app?vid=552e2078-2b67-47a3-85fe-bc1f037082c2","ios":"levelo://app?vid=552e2078-2b67-47a3-85fe-bc1f037082c2"},"vehicle_type_id":"4","last_reported":1752336739,"current_range_meters":13600,"station_id":"st_cvj6r9ubvosntc0bgbag","pricing_plan_id":"cebpf4jnsgd1na2vs0mg"},{"bike_id":"697ce118-3e56-42fd-9c5e-b0abf4193b33","system_id":"levelo_inurba_marseille","lat":43.30438,"lon":5.38882,"is_reserved":false,"is_disabled":false,"rental_uris":{"android":"levelo://app?vid=697ce118-3e56-42fd-9c5e-b0abf4193b33","ios":"levelo://app?vid=697ce118-3e56-42fd-9c5e-b0abf4193b33"},"vehicle_type_id":"4","last_reported":1752336739,"current_range_meters":14000,"station_id":"ce4bgk12rcd13ifvqbi0","pricing_plan_id":"cebpf4jnsgd1na2vs0mg"},{"bike_id":"470d1e9d-8c05-40b8-a6b2-039f183b9f6a","system_id":"levelo_inurba_marseille","lat":43.23199,"lon":5.3555,"is_reserved":false,"is_disabled":true,"rental_uris":{"android":"levelo://app?vid=470d1e9d-8c05-40b8-a6b2-039f183b9f6a","ios":"levelo://app?vid=470d1e9d-8c05-40b8-a6b2-039f183b9f6a"},"vehicle_type_id":"4","last_reported":1752336739,"current_range_meters":14000,"station_id":"ce4bhu92rcd13ifvqi70","pricing_plan_id":"cebpf4jnsgd1na2vs0mg"},{"bike_id":"7f02047d-a6cd-43f4-a617-996f2b9a8bc8","system_id":"levelo_inurba_marseille","lat":43.32365,"lon":5.36755,"is_reserved":false,"is_disabled":false,"rental_uris":{"android":"levelo://app?vid=7f02047d-a6cd-43f4-a617-996f2b9a8bc8","ios":"levelo://app?vid=7f02047d-a6cd-43f4-a617-996f2b9a8bc8"},"vehicle_type_id":"4","last_reported":1752336739,"current_range_meters":14400,"station_id":"ce4bhsh2rcd13ifvqi2g","pricing_plan_id":"cebpf4jnsgd1na2vs0mg"},{"bike_id":"ce3b7c35-fd06-4c6c-af57-25b5524398ea","system_id":"levelo_inurba_marseille","lat":43.28276,"lon":5.35083,"is_reserved":false,"is_disabled":false,"rental_uris":{"android":"levelo://app?vid=ce3b7c35-fd06-4c6c-af57-25b5524398ea","ios":"levelo://app?vid=ce3b7c35-fd06-4c6c-af57-25b5524398ea"},"vehicle_type_id":"4","last_reported":1752336739,"current_range_meters":14400,"station_id":"ce4bhbp2rcd13ifvqerg","pricing_plan_id":"cebpf4jnsgd1na2vs0mg"},{"bike_id":"5a1aa169-e8de-4c42-8232-f9cf794c57f1","system_id":"levelo_inurba_marseille","lat":43.21197,"lon":5.35078,"is_reserved":false,"is_disabled":false,"rental_uris":{"android":"levelo://app?vid=5a1aa169-e8de-4c42-8232-f9cf794c57f1","ios":"levelo://app?vid=5a1aa169-e8de-4c42-8232-f9cf794c57f1"},"vehicle_type_id":"4","last_reported":1752336739,"current_range_meters":14400,"station_id":"st_cvj6sg6p6f1abm77japg","pricing_plan_id":"cebpf4jnsgd1na2vs0mg"},{"bike_id":"6eb8e244-32e4-4310-9d5c-c90bcd7d8a76","system_id":"levelo_inurba_marseille","lat":43.27374,"lon":5.36247,"is_reserved":false,"is_disabled":false,"rental_uris":{"android":"levelo://app?vid=6eb8e244-32e4-4310-9d5c-c90bcd7d8a76","ios":"levelo://app?vid=6eb8e244-32e4-4310-9d5c-c90bcd7d8a76"},"vehicle_type_id":"4","last_reported":1752336739,"current_range_meters":14400,"station_id":"ce4bhbh2rcd13ifvqeo0","pricing_plan_id":"cebpf4jnsgd1na2vs0mg"},{"bike_id":"d3a85cc2-c378-4dea-a81a-a2dd59806e1f","system_id":"levelo_inurba_marseille","lat":43.28668,"lon":5.38665,"is_reserved":false,"is_disabled":false,"rental_uris":{"android":"levelo://app?vid=d3a85cc2-c378-4dea-a81a-a2dd59806e1f","ios":"levelo://app?vid=d3a85cc2-c378-4dea-a81a-a2dd59806e1f"},"vehicle_type_id":"4","last_reported":1752336739,"current_range_meters":14800,"station_id":"ce4bh492rcd13ifvqdug","pricing_plan_id":"cebpf4jnsgd1na2vs0mg"},{"bike_id":"a7d3d782-0978-448e-8437-5c8965b5c06d","system_id":"levelo_inurba_marseille","lat":43.27379,"lon":5.36264,"is_reserved":false,"is_disabled":false,"rental_uris":{"android":"levelo://app?vid=a7d3d782-0978-448e-8437-5c8965b5c06d","ios":"levelo://app?vid=a7d3d782-0978-448e-8437-5c8965b5c06d"},"vehicle_type_id":"4","last_reported":1752336739,"current_range_meters":14800,"station_id":"ce4bhbh2rcd13ifvqeo0","pricing_plan_id":"cebpf4jnsgd1na2vs0mg"},{"bike_id":"0d05e84d-10fa-41da-b241-9cfd8aee4666","system_id":"levelo_inurba_marseille","lat":43.28266,"lon":5.3509,"is_reserved":false,"is_disabled":false,"rental_uris":{"android":"levelo://app?vid=0d05e84d-10fa-41da-b241-9cfd8aee4666","ios":"levelo://app?vid=0d05e84d-10fa-41da-b241-9cfd8aee4666"},"vehicle_type_id":"4","last_reported":1752336739,"current_range_meters":14800,"station_id":"ce4bhbp2rcd13ifvqerg","pricing_plan_id":"cebpf4jnsgd1na2vs0mg"},{"bike_id":"31931c46-7289-4661-bfc3-1357ef45649c","system_id":"levelo_inurba_marseille","lat":43.28159,"lon":5.42645,"is_reserved":false,"is_disabled":false,"rental_uris":{"android":"levelo://app?vid=31931c46-7289-4661-bfc3-1357ef45649c","ios":"levelo://app?vid=31931c46-7289-4661-bfc3-1357ef45649c"},"vehicle_type_id":"4","last_reported":1752336739,"current_range_meters":14400,"station_id":"ce4bhnh2rcd13ifvqgug","pricing_plan_id":"cebpf4jnsgd1na2vs0mg"},{"bike_id":"e775eecc-ed58-4874-a730-93c3aa14b2f8","system_id":"levelo_inurba_marseille","lat":43.21191,"lon":5.35071,"is_reserved":false,"is_disabled":false,"rental_uris":{"android":"levelo://app?vid=e775eecc-ed58-4874-a730-93c3aa14b2f8","ios":"levelo://app?vid=e775eecc-ed58-4874-a730-93c3aa14b2f8"},"vehicle_type_id":"4","last_reported":1752336739,"current_range_meters":14800,"station_id":"st_cvj6sg6p6f1abm77japg","pricing_plan_id":"cebpf4jnsgd1na2vs0mg"},{"bike_id":"adb2a833-6288-41c6-a812-fb173e11fdba","system_id":"levelo_inurba_marseille","lat":43.29006,"lon":5.35613,"is_reserved":false,"is_disabled":false,"rental_uris":{"android":"levelo://app?vid=adb2a833-6288-41c6-a812-fb173e11fdba","ios":"levelo://app?vid=adb2a833-6288-41c6-a812-fb173e11fdba"},"vehicle_type_id":"4","last_reported":1752336739,"current_range_meters":14800,"station_id":"ce4bhb92rcd13ifvqen0","pricing_plan_id":"cebpf4jnsgd1na2vs0mg"},{"bike_id":"ee5338dd-18a1-4b48-a5b0-f8c72f7b1319","system_id":"levelo_inurba_marseille","lat":43.3194,"lon":5.36965,"is_reserved":false,"is_disabled":false,"rental_uris":{"android":"levelo://app?vid=ee5338dd-18a1-4b48-a5b0-f8c72f7b1319","ios":"levelo://app?vid=ee5338dd-18a1-4b48-a5b0-f8c72f7b1319"},"vehicle_type_id":"4","last_reported":1752336739,"current_range_meters":15200,"station_id":"","pricing_plan_id":"cebpf4jnsgd1na2vs0mg"},{"bike_id":"d7d851de-d966-47dc-9bd8-1a9ae0c433a4","system_id":"levelo_inurba_marseille","lat":43.225055,"lon":5.347843,"is_reserved":false,"is_disabled":false,"rental_uris":{"android":"levelo://app?vid=d7d851de-d966-47dc-9bd8-1a9ae0c433a4","ios":"levelo://app?vid=d7d851de-d966-47dc-9bd8-1a9ae0c433a4"},"vehicle_type_id":"4","last_reported":1752336739,"current_range_meters":15200,"station_id":"","pricing_plan_id":"cebpf4jnsgd1na2vs0mg"},{"bike_id":"e14edf14-7c12-4406-b04f-6884d6d23c9c","system_id":"levelo_inurba_marseille","lat":43.30593,"lon":5.39358,"is_reserved":false,"is_disabled":false,"rental_uris":{"android":"levelo://app?vid=e14edf14-7c12-4406-b04f-6884d6d23c9c","ios":"levelo://app?vid=e14edf14-7c12-4406-b04f-6884d6d23c9c"},"vehicle_type_id":"4","last_reported":1752336739,"current_range_meters":15200,"station_id":"ce4bh0p2rcd13ifvqd80","pricing_plan_id":"cebpf4jnsgd1na2vs0mg"},{"bike_id":"737ead6f-e608-42f1-8a55-8949c954e8e3","system_id":"levelo_inurba_marseille","lat":43.21212,"lon":5.35065,"is_reserved":false,"is_disabled":false,"rental_uris":{"android":"levelo://app?vid=737ead6f-e608-42f1-8a55-8949c954e8e3","ios":"levelo://app?vid=737ead6f-e608-42f1-8a55-8949c954e8e3"},"vehicle_type_id":"4","last_reported":1752336739,"current_range_meters":15200,"station_id":"st_cvj6sg6p6f1abm77japg","pricing_plan_id":"cebpf4jnsgd1na2vs0mg"},{"bike_id":"ee7999b2-527d-4eb9-88da-6ef9e157f4a3","system_id":"levelo_inurba_marseille","lat":43.29539,"lon":5.38537,"is_reserved":false,"is_disabled":false,"rental_uris":{"android":"levelo://app?vid=ee7999b2-527d-4eb9-88da-6ef9e157f4a3","ios":"levelo://app?vid=ee7999b2-527d-4eb9-88da-6ef9e157f4a3"},"vehicle_type_id":"4","last_reported":1752336739,"current_range_meters":16000,"station_id":"ce4bgih2rcd13ifvqba0","pricing_plan_id":"cebpf4jnsgd1na2vs0mg"},{"bike_id":"13ae5651-78b6-42f2-867b-703c439fab55","system_id":"levelo_inurba_marseille","lat":43.27376,"lon":5.36253,"is_reserved":false,"is_disabled":false,"rental_uris":{"android":"levelo://app?vid=13ae5651-78b6-42f2-867b-703c439fab55","ios":"levelo://app?vid=13ae5651-78b6-42f2-867b-703c439fab55"},"vehicle_type_id":"4","last_reported":1752336739,"current_range_meters":16000,"station_id":"ce4bhbh2rcd13ifvqeo0","pricing_plan_id":"cebpf4jnsgd1na2vs0mg"},{"bike_id":"b92c9a21-c243-47e3-bfc3-75008affc5b5","system_id":"levelo_inurba_marseille","lat":43.29968,"lon":5.38494,"is_reserved":false,"is_disabled":false,"rental_uris":{"android":"levelo://app?vid=b92c9a21-c243-47e3-bfc3-75008affc5b5","ios":"levelo://app?vid=b92c9a21-c243-47e3-bfc3-75008affc5b5"},"vehicle_type_id":"4","last_reported":1752336739,"current_range_meters":16000,"station_id":"ce4bgj92rcd13ifvqbd0","pricing_plan_id":"cebpf4jnsgd1na2vs0mg"},{"bike_id":"b59abc13-3ce4-4852-b64e-5c578ce71136","system_id":"levelo_inurba_marseille","lat":43.23191,"lon":5.35557,"is_reserved":false,"is_disabled":false,"rental_uris":{"android":"levelo://app?vid=b59abc13-3ce4-4852-b64e-5c578ce71136","ios":"levelo://app?vid=b59abc13-3ce4-4852-b64e-5c578ce71136"},"vehicle_type_id":"4","last_reported":1752336739,"current_range_meters":16000,"station_id":"ce4bhu92rcd13ifvqi70","pricing_plan_id":"cebpf4jnsgd1na2vs0mg"},{"bike_id":"51890362-46b0-4ee7-9f02-afbf036d064e","system_id":"levelo_inurba_marseille","lat":43.212,"lon":5.35075,"is_reserved":false,"is_disabled":false,"rental_uris":{"android":"levelo://app?vid=51890362-46b0-4ee7-9f02-afbf036d064e","ios":"levelo://app?vid=51890362-46b0-4ee7-9f02-afbf036d064e"},"vehicle_type_id":"4","last_reported":1752336739,"current_range_meters":16000,"station_id":"st_cvj6sg6p6f1abm77japg","pricing_plan_id":"cebpf4jnsgd1na2vs0mg"},{"bike_id":"49801dc2-618a-44b8-84ae-416cd87fdbe9","system_id":"levelo_inurba_marseille","lat":43.33767,"lon":5.37471,"is_reserved":false,"is_disabled":false,"rental_uris":{"android":"levelo://app?vid=49801dc2-618a-44b8-84ae-416cd87fdbe9","ios":"levelo://app?vid=49801dc2-618a-44b8-84ae-416cd87fdbe9"},"vehicle_type_id":"4","last_reported":1752336739,"current_range_meters":16000,"station_id":"","pricing_plan_id":"cebpf4jnsgd1na2vs0mg"},{"bike_id":"a0137104-c9f4-434a-a5e3-80725cd5a2b4","system_id":"levelo_inurba_marseille","lat":43.21192,"lon":5.35077,"is_reserved":false,"is_disabled":false,"rental_uris":{"android":"levelo://app?vid=a0137104-c9f4-434a-a5e3-80725cd5a2b4","ios":"levelo://app?vid=a0137104-c9f4-434a-a5e3-80725cd5a2b4"},"vehicle_type_id":"4","last_reported":1752336739,"current_range_meters":16000,"station_id":"st_cvj6sg6p6f1abm77japg","pricing_plan_id":"cebpf4jnsgd1na2vs0mg"},{"bike_id":"00bc0b3b-e317-4a17-a011-a3a9a29d816a","system_id":"levelo_inurba_marseille","lat":43.211979,"lon":5.350691,"is_reserved":false,"is_disabled":false,"rental_uris":{"android":"levelo://app?vid=00bc0b3b-e317-4a17-a011-a3a9a29d816a","ios":"levelo://app?vid=00bc0b3b-e317-4a17-a011-a3a9a29d816a"},"vehicle_type_id":"4","last_reported":1752336739,"current_range_meters":16400,"station_id":"st_cvj6sg6p6f1abm77japg","pricing_plan_id":"cebpf4jnsgd1na2vs0mg"},{"bike_id":"a01eae1a-d845-4cc4-9cee-b5deb2267b5c","system_id":"levelo_inurba_marseille","lat":43.298323,"lon":5.376044,"is_reserved":false,"is_disabled":false,"rental_uris":{"android":"levelo://app?vid=a01eae1a-d845-4cc4-9cee-b5deb2267b5c","ios":"levelo://app?vid=a01eae1a-d845-4cc4-9cee-b5deb2267b5c"},"vehicle_type_id":"4","last_reported":1752336739,"current_range_meters":16400,"station_id":"ce4bhb12rcd13ifvqel0","pricing_plan_id":"cebpf4jnsgd1na2vs0mg"},{"bike_id":"f46a2d62-8a11-46d0-96a8-65f79cb6dce9","system_id":"levelo_inurba_marseille","lat":43.29219,"lon":5.36048,"is_reserved":false,"is_disabled":false,"rental_uris":{"android":"levelo://app?vid=f46a2d62-8a11-46d0-96a8-65f79cb6dce9","ios":"levelo://app?vid=f46a2d62-8a11-46d0-96a8-65f79cb6dce9"},"vehicle_type_id":"4","last_reported":1752336739,"current_range_meters":16400,"station_id":"ce4bhbh2rcd13ifvqeqg","pricing_plan_id":"cebpf4jnsgd1na2vs0mg"},{"bike_id":"dd63fb38-3bb9-46c9-871f-5eeaf1e325bc","system_id":"levelo_inurba_marseille","lat":43.29265,"lon":5.38438,"is_reserved":false,"is_disabled":false,"rental_uris":{"android":"levelo://app?vid=dd63fb38-3bb9-46c9-871f-5eeaf1e325bc","ios":"levelo://app?vid=dd63fb38-3bb9-46c9-871f-5eeaf1e325bc"},"vehicle_type_id":"4","last_reported":1752336739,"current_range_meters":16400,"station_id":"ce4bh692rcd13ifvqea0","pricing_plan_id":"cebpf4jnsgd1na2vs0mg"},{"bike_id":"353b3d94-d878-469f-9a9d-0ce9964df18e","system_id":"levelo_inurba_marseille","lat":43.23189,"lon":5.39983,"is_reserved":false,"is_disabled":false,"rental_uris":{"android":"levelo://app?vid=353b3d94-d878-469f-9a9d-0ce9964df18e","ios":"levelo://app?vid=353b3d94-d878-469f-9a9d-0ce9964df18e"},"vehicle_type_id":"4","last_reported":1752336739,"current_range_meters":16400,"station_id":"ce4bhn12rcd13ifvqgqg","pricing_plan_id":"cebpf4jnsgd1na2vs0mg"},{"bike_id":"23884536-5695-475a-ae31-33433608e6a7","system_id":"levelo_inurba_marseille","lat":43.23175,"lon":5.35527,"is_reserved":false,"is_disabled":false,"rental_uris":{"android":"levelo://app?vid=23884536-5695-475a-ae31-33433608e6a7","ios":"levelo://app?vid=23884536-5695-475a-ae31-33433608e6a7"},"vehicle_type_id":"4","last_reported":1752336739,"current_range_meters":16400,"station_id":"ce4bhu92rcd13ifvqi70","pricing_plan_id":"cebpf4jnsgd1na2vs0mg"},{"bike_id":"8b37f03f-f226-4bbc-8648-b109da7ba145","system_id":"levelo_inurba_marseille","lat":43.30536,"lon":5.366999,"is_reserved":false,"is_disabled":false,"rental_uris":{"android":"levelo://app?vid=8b37f03f-f226-4bbc-8648-b109da7ba145","ios":"levelo://app?vid=8b37f03f-f226-4bbc-8648-b109da7ba145"},"vehicle_type_id":"4","last_reported":1752336739,"current_range_meters":16400,"station_id":"","pricing_plan_id":"cebpf4jnsgd1na2vs0mg"},{"bike_id":"c57a1577-2dec-4b51-9629-2d13d641466f","system_id":"levelo_inurba_marseille","lat":43.26941,"lon":5.40249,"is_reserved":false,"is_disabled":false,"rental_uris":{"android":"levelo://app?vid=c57a1577-2dec-4b51-9629-2d13d641466f","ios":"levelo://app?vid=c57a1577-2dec-4b51-9629-2d13d641466f"},"vehicle_type_id":"4","last_reported":1752336739,"current_range_meters":16400,"station_id":"cjm6bp8fraef2m0cb0m0","pricing_plan_id":"cebpf4jnsgd1na2vs0mg"},{"bike_id":"d277fdb5-aa42-4b76-b471-348c08370b06","system_id":"levelo_inurba_marseille","lat":43.23193,"lon":5.35552,"is_reserved":false,"is_disabled":false,"rental_uris":{"android":"levelo://app?vid=d277fdb5-aa42-4b76-b471-348c08370b06","ios":"levelo://app?vid=d277fdb5-aa42-4b76-b471-348c08370b06"},"vehicle_type_id":"4","last_reported":1752336739,"current_range_meters":16800,"station_id":"ce4bhu92rcd13ifvqi70","pricing_plan_id":"cebpf4jnsgd1na2vs0mg"},{"bike_id":"57692aae-9841-41ad-bc01-254866eaf8b0","system_id":"levelo_inurba_marseille","lat":43.32344,"lon":5.40616,"is_reserved":false,"is_disabled":false,"rental_uris":{"android":"levelo://app?vid=57692aae-9841-41ad-bc01-254866eaf8b0","ios":"levelo://app?vid=57692aae-9841-41ad-bc01-254866eaf8b0"},"vehicle_type_id":"4","last_reported":1752336739,"current_range_meters":16800,"station_id":"ce4bhq92rcd13ifvqhjg","pricing_plan_id":"cebpf4jnsgd1na2vs0mg"},{"bike_id":"048ff3af-bbe4-4bd7-a5fe-050e7898f264","system_id":"levelo_inurba_marseille","lat":43.28402,"lon":5.37531,"is_reserved":false,"is_disabled":false,"rental_uris":{"android":"levelo://app?vid=048ff3af-bbe4-4bd7-a5fe-050e7898f264","ios":"levelo://app?vid=048ff3af-bbe4-4bd7-a5fe-050e7898f264"},"vehicle_type_id":"4","last_reported":1752336739,"current_range_meters":16800,"station_id":"ce4bh412rcd13ifvqds0","pricing_plan_id":"cebpf4jnsgd1na2vs0mg"},{"bike_id":"54c42649-7aa4-4934-92f3-a23a386f7d15","system_id":"levelo_inurba_marseille","lat":43.24175,"lon":5.36406,"is_reserved":false,"is_disabled":false,"rental_uris":{"android":"levelo://app?vid=54c42649-7aa4-4934-92f3-a23a386f7d15","ios":"levelo://app?vid=54c42649-7aa4-4934-92f3-a23a386f7d15"},"vehicle_type_id":"4","last_reported":1752336739,"current_range_meters":16800,"station_id":"cpo36qri1sfpv3e86is0","pricing_plan_id":"cebpf4jnsgd1na2vs0mg"},{"bike_id":"f23760ff-ab61-4853-aa67-28aac93822c1","system_id":"levelo_inurba_marseille","lat":43.337444,"lon":5.374475,"is_reserved":false,"is_disabled":false,"rental_uris":{"android":"levelo://app?vid=f23760ff-ab61-4853-aa67-28aac93822c1","ios":"levelo://app?vid=f23760ff-ab61-4853-aa67-28aac93822c1"},"vehicle_type_id":"4","last_reported":1752336739,"current_range_meters":16800,"station_id":"","pricing_plan_id":"cebpf4jnsgd1na2vs0mg"},{"bike_id":"3e4c52d1-eb4a-4e19-980e-2fda0d32d440","system_id":"levelo_inurba_marseille","lat":43.30155,"lon":5.38086,"is_reserved":false,"is_disabled":false,"rental_uris":{"android":"levelo://app?vid=3e4c52d1-eb4a-4e19-980e-2fda0d32d440","ios":"levelo://app?vid=3e4c52d1-eb4a-4e19-980e-2fda0d32d440"},"vehicle_type_id":"4","last_reported":1752336739,"current_range_meters":16800,"station_id":"ce4bgjp2rcd13ifvqbh0","pricing_plan_id":"cebpf4jnsgd1na2vs0mg"},{"bike_id":"706d60ae-881c-498e-a8b6-3c25e1220a26","system_id":"levelo_inurba_marseille","lat":43.30145,"lon":5.38072,"is_reserved":false,"is_disabled":false,"rental_uris":{"android":"levelo://app?vid=706d60ae-881c-498e-a8b6-3c25e1220a26","ios":"levelo://app?vid=706d60ae-881c-498e-a8b6-3c25e1220a26"},"vehicle_type_id":"4","last_reported":1752336739,"current_range_meters":16800,"station_id":"ce4bgjp2rcd13ifvqbh0","pricing_plan_id":"cebpf4jnsgd1na2vs0mg"},{"bike_id":"b74832bb-6449-48c5-8077-0bfb2b852778","system_id":"levelo_inurba_marseille","lat":43.284,"lon":5.3501,"is_reserved":false,"is_disabled":false,"rental_uris":{"android":"levelo://app?vid=b74832bb-6449-48c5-8077-0bfb2b852778","ios":"levelo://app?vid=b74832bb-6449-48c5-8077-0bfb2b852778"},"vehicle_type_id":"4","last_reported":1752336739,"current_range_meters":17200,"station_id":"ce4bhbh2rcd13ifvqepg","pricing_plan_id":"cebpf4jnsgd1na2vs0mg"},{"bike_id":"6d3f299a-d341-49bc-a1f9-7534528d9b67","system_id":"levelo_inurba_marseille","lat":43.23184,"lon":5.35571,"is_reserved":false,"is_disabled":false,"rental_uris":{"android":"levelo://app?vid=6d3f299a-d341-49bc-a1f9-7534528d9b67","ios":"levelo://app?vid=6d3f299a-d341-49bc-a1f9-7534528d9b67"},"vehicle_type_id":"4","last_reported":1752336739,"current_range_meters":17200,"station_id":"ce4bhu92rcd13ifvqi70","pricing_plan_id":"cebpf4jnsgd1na2vs0mg"},{"bike_id":"4ee5bb10-b533-4f74-8cc9-2540f690c48d","system_id":"levelo_inurba_marseille","lat":43.28609,"lon":5.35112,"is_reserved":false,"is_disabled":false,"rental_uris":{"android":"levelo://app?vid=4ee5bb10-b533-4f74-8cc9-2540f690c48d","ios":"levelo://app?vid=4ee5bb10-b533-4f74-8cc9-2540f690c48d"},"vehicle_type_id":"4","last_reported":1752336739,"current_range_meters":17200,"station_id":"ce4bhch2rcd13ifvqeug","pricing_plan_id":"cebpf4jnsgd1na2vs0mg"},{"bike_id":"844b44b6-4e33-4917-878d-a3c647561239","system_id":"levelo_inurba_marseille","lat":43.30774,"lon":5.42443,"is_reserved":false,"is_disabled":false,"rental_uris":{"android":"levelo://app?vid=844b44b6-4e33-4917-878d-a3c647561239","ios":"levelo://app?vid=844b44b6-4e33-4917-878d-a3c647561239"},"vehicle_type_id":"4","last_reported":1752336739,"current_range_meters":17200,"station_id":"","pricing_plan_id":"cebpf4jnsgd1na2vs0mg"},{"bike_id":"4b8da722-ee9e-48a4-a5e5-3a8a10364708","system_id":"levelo_inurba_marseille","lat":43.31226,"lon":5.37805,"is_reserved":false,"is_disabled":false,"rental_uris":{"android":"levelo://app?vid=4b8da722-ee9e-48a4-a5e5-3a8a10364708","ios":"levelo://app?vid=4b8da722-ee9e-48a4-a5e5-3a8a10364708"},"vehicle_type_id":"4","last_reported":1752336739,"current_range_meters":17200,"station_id":"","pricing_plan_id":"cebpf4jnsgd1na2vs0mg"},{"bike_id":"6e41bc9b-d721-4d0e-a930-a8546720d456","system_id":"levelo_inurba_marseille","lat":43.26559,"lon":5.37289,"is_reserved":false,"is_disabled":false,"rental_uris":{"android":"levelo://app?vid=6e41bc9b-d721-4d0e-a930-a8546720d456","ios":"levelo://app?vid=6e41bc9b-d721-4d0e-a930-a8546720d456"},"vehicle_type_id":"4","last_reported":1752336739,"current_range_meters":17200,"station_id":"ce4bhg12rcd13ifvqf70","pricing_plan_id":"cebpf4jnsgd1na2vs0mg"},{"bike_id":"d192eb85-30c6-4e26-a441-a2601c0d72ec","system_id":"levelo_inurba_marseille","lat":43.2119,"lon":5.35068,"is_reserved":false,"is_disabled":false,"rental_uris":{"android":"levelo://app?vid=d192eb85-30c6-4e26-a441-a2601c0d72ec","ios":"levelo://app?vid=d192eb85-30c6-4e26-a441-a2601c0d72ec"},"vehicle_type_id":"4","last_reported":1752336739,"current_range_meters":17200,"station_id":"st_cvj6sg6p6f1abm77japg","pricing_plan_id":"cebpf4jnsgd1na2vs0mg"},{"bike_id":"dcd3e5b5-8066-44d9-b0b9-bd4b30c4d6f3","system_id":"levelo_inurba_marseille","lat":43.29271,"lon":5.38437,"is_reserved":false,"is_disabled":false,"rental_uris":{"android":"levelo://app?vid=dcd3e5b5-8066-44d9-b0b9-bd4b30c4d6f3","ios":"levelo://app?vid=dcd3e5b5-8066-44d9-b0b9-bd4b30c4d6f3"},"vehicle_type_id":"4","last_reported":1752336739,"current_range_meters":17600,"station_id":"ce4bh692rcd13ifvqea0","pricing_plan_id":"cebpf4jnsgd1na2vs0mg"},{"bike_id":"f36bad63-c225-4f59-878f-028d7059b783","system_id":"levelo_inurba_marseille","lat":43.28272,"lon":5.35071,"is_reserved":false,"is_disabled":false,"rental_uris":{"android":"levelo://app?vid=f36bad63-c225-4f59-878f-028d7059b783","ios":"levelo://app?vid=f36bad63-c225-4f59-878f-028d7059b783"},"vehicle_type_id":"4","last_reported":1752336739,"current_range_meters":17600,"station_id":"ce4bhbp2rcd13ifvqerg","pricing_plan_id":"cebpf4jnsgd1na2vs0mg"},{"bike_id":"a258dc86-7c84-4445-ad0e-265b9f56cb91","system_id":"levelo_inurba_marseille","lat":43.295515,"lon":5.422925,"is_reserved":false,"is_disabled":false,"rental_uris":{"android":"levelo://app?vid=a258dc86-7c84-4445-ad0e-265b9f56cb91","ios":"levelo://app?vid=a258dc86-7c84-4445-ad0e-265b9f56cb91"},"vehicle_type_id":"4","last_reported":1752336739,"current_range_meters":17600,"station_id":"ce4bhph2rcd13ifvqhdg","pricing_plan_id":"cebpf4jnsgd1na2vs0mg"},{"bike_id":"95f98176-4a32-45c2-9cfd-b6e788a0b954","system_id":"levelo_inurba_marseille","lat":43.26567,"lon":5.3901,"is_reserved":false,"is_disabled":false,"rental_uris":{"android":"levelo://app?vid=95f98176-4a32-45c2-9cfd-b6e788a0b954","ios":"levelo://app?vid=95f98176-4a32-45c2-9cfd-b6e788a0b954"},"vehicle_type_id":"4","last_reported":1752336739,"current_range_meters":17600,"station_id":"ce4bhe12rcd13ifvqf30","pricing_plan_id":"cebpf4jnsgd1na2vs0mg"},{"bike_id":"ba2e8794-5e12-47ad-a5c9-6cac8096d0ae","system_id":"levelo_inurba_marseille","lat":43.27177,"lon":5.40994,"is_reserved":false,"is_disabled":false,"rental_uris":{"android":"levelo://app?vid=ba2e8794-5e12-47ad-a5c9-6cac8096d0ae","ios":"levelo://app?vid=ba2e8794-5e12-47ad-a5c9-6cac8096d0ae"},"vehicle_type_id":"4","last_reported":1752336739,"current_range_meters":18000,"station_id":"ce4bhl12rcd13ifvqgf0","pricing_plan_id":"cebpf4jnsgd1na2vs0mg"},{"bike_id":"6929fb00-76b7-4628-94e6-66764dec48b6","system_id":"levelo_inurba_marseille","lat":43.2842,"lon":5.34978,"is_reserved":false,"is_disabled":false,"rental_uris":{"android":"levelo://app?vid=6929fb00-76b7-4628-94e6-66764dec48b6","ios":"levelo://app?vid=6929fb00-76b7-4628-94e6-66764dec48b6"},"vehicle_type_id":"4","last_reported":1752336739,"current_range_meters":18000,"station_id":"ce4bhbh2rcd13ifvqepg","pricing_plan_id":"cebpf4jnsgd1na2vs0mg"},{"bike_id":"ffb17eca-a564-4f76-a480-4e7dc2a8d3d9","system_id":"levelo_inurba_marseille","lat":43.30134,"lon":5.39858,"is_reserved":false,"is_disabled":false,"rental_uris":{"android":"levelo://app?vid=ffb17eca-a564-4f76-a480-4e7dc2a8d3d9","ios":"levelo://app?vid=ffb17eca-a564-4f76-a480-4e7dc2a8d3d9"},"vehicle_type_id":"4","last_reported":1752336739,"current_range_meters":18000,"station_id":"ce4bh0h2rcd13ifvqd40","pricing_plan_id":"cebpf4jnsgd1na2vs0mg"},{"bike_id":"66bc7fe6-c3da-43c0-afe1-a6bdaf2c5a79","system_id":"levelo_inurba_marseille","lat":43.21196,"lon":5.35073,"is_reserved":false,"is_disabled":false,"rental_uris":{"android":"levelo://app?vid=66bc7fe6-c3da-43c0-afe1-a6bdaf2c5a79","ios":"levelo://app?vid=66bc7fe6-c3da-43c0-afe1-a6bdaf2c5a79"},"vehicle_type_id":"4","last_reported":1752336739,"current_range_meters":18000,"station_id":"st_cvj6sg6p6f1abm77japg","pricing_plan_id":"cebpf4jnsgd1na2vs0mg"},{"bike_id":"6b24281b-8627-4cc6-8164-9baa9ceda8d0","system_id":"levelo_inurba_marseille","lat":43.28413,"lon":5.34975,"is_reserved":false,"is_disabled":false,"rental_uris":{"android":"levelo://app?vid=6b24281b-8627-4cc6-8164-9baa9ceda8d0","ios":"levelo://app?vid=6b24281b-8627-4cc6-8164-9baa9ceda8d0"},"vehicle_type_id":"4","last_reported":1752336739,"current_range_meters":18000,"station_id":"ce4bhbh2rcd13ifvqepg","pricing_plan_id":"cebpf4jnsgd1na2vs0mg"},{"bike_id":"a28ba14b-9f0f-4b7b-a06c-d43e48d08039","system_id":"levelo_inurba_marseille","lat":43.28404,"lon":5.37515,"is_reserved":false,"is_disabled":false,"rental_uris":{"android":"levelo://app?vid=a28ba14b-9f0f-4b7b-a06c-d43e48d08039","ios":"levelo://app?vid=a28ba14b-9f0f-4b7b-a06c-d43e48d08039"},"vehicle_type_id":"4","last_reported":1752336739,"current_range_meters":18000,"station_id":"ce4bh412rcd13ifvqds0","pricing_plan_id":"cebpf4jnsgd1na2vs0mg"},{"bike_id":"4f5359f6-3cec-40ab-b0e8-cede4b7de2bc","system_id":"levelo_inurba_marseille","lat":43.27973,"lon":5.38746,"is_reserved":false,"is_disabled":false,"rental_uris":{"android":"levelo://app?vid=4f5359f6-3cec-40ab-b0e8-cede4b7de2bc","ios":"levelo://app?vid=4f5359f6-3cec-40ab-b0e8-cede4b7de2bc"},"vehicle_type_id":"4","last_reported":1752336739,"current_range_meters":18000,"station_id":"ce4bhg12rcd13ifvqf80","pricing_plan_id":"cebpf4jnsgd1na2vs0mg"},{"bike_id":"8bc65b40-0f7a-4db0-bab7-834d249697b6","system_id":"levelo_inurba_marseille","lat":43.28413,"lon":5.3498,"is_reserved":false,"is_disabled":false,"rental_uris":{"android":"levelo://app?vid=8bc65b40-0f7a-4db0-bab7-834d249697b6","ios":"levelo://app?vid=8bc65b40-0f7a-4db0-bab7-834d249697b6"},"vehicle_type_id":"4","last_reported":1752336739,"current_range_meters":18800,"station_id":"ce4bhbh2rcd13ifvqepg","pricing_plan_id":"cebpf4jnsgd1na2vs0mg"},{"bike_id":"96eab653-fff1-41cd-bcbd-417d9feda892","system_id":"levelo_inurba_marseille","lat":43.24182,"lon":5.39723,"is_reserved":false,"is_disabled":false,"rental_uris":{"android":"levelo://app?vid=96eab653-fff1-41cd-bcbd-417d9feda892","ios":"levelo://app?vid=96eab653-fff1-41cd-bcbd-417d9feda892"},"vehicle_type_id":"4","last_reported":1752336739,"current_range_meters":18800,"station_id":"ce4bhn12rcd13ifvqgpg","pricing_plan_id":"cebpf4jnsgd1na2vs0mg"},{"bike_id":"b371972f-930a-4edc-a2a2-6868be2f7a46","system_id":"levelo_inurba_marseille","lat":43.21218,"lon":5.35033,"is_reserved":false,"is_disabled":false,"rental_uris":{"android":"levelo://app?vid=b371972f-930a-4edc-a2a2-6868be2f7a46","ios":"levelo://app?vid=b371972f-930a-4edc-a2a2-6868be2f7a46"},"vehicle_type_id":"4","last_reported":1752336739,"current_range_meters":18800,"station_id":"","pricing_plan_id":"cebpf4jnsgd1na2vs0mg"},{"bike_id":"2789363d-6c32-4f54-a6f0-e032059a9c8e","system_id":"levelo_inurba_marseille","lat":43.24405,"lon":5.37057,"is_reserved":false,"is_disabled":false,"rental_uris":{"android":"levelo://app?vid=2789363d-6c32-4f54-a6f0-e032059a9c8e","ios":"levelo://app?vid=2789363d-6c32-4f54-a6f0-e032059a9c8e"},"vehicle_type_id":"4","last_reported":1752336739,"current_range_meters":18800,"station_id":"ce4bhhh2rcd13ifvqfk0","pricing_plan_id":"cebpf4jnsgd1na2vs0mg"},{"bike_id":"f14a7374-847b-4cad-aa16-a0ee35449972","system_id":"levelo_inurba_marseille","lat":43.23196,"lon":5.35548,"is_reserved":false,"is_disabled":false,"rental_uris":{"android":"levelo://app?vid=f14a7374-847b-4cad-aa16-a0ee35449972","ios":"levelo://app?vid=f14a7374-847b-4cad-aa16-a0ee35449972"},"vehicle_type_id":"4","last_reported":1752336739,"current_range_meters":18800,"station_id":"ce4bhu92rcd13ifvqi70","pricing_plan_id":"cebpf4jnsgd1na2vs0mg"},{"bike_id":"6cbf2495-c4ea-41f3-96c4-8450b672a548","system_id":"levelo_inurba_marseille","lat":43.30789,"lon":5.43537,"is_reserved":false,"is_disabled":false,"rental_uris":{"android":"levelo://app?vid=6cbf2495-c4ea-41f3-96c4-8450b672a548","ios":"levelo://app?vid=6cbf2495-c4ea-41f3-96c4-8450b672a548"},"vehicle_type_id":"4","last_reported":1752336739,"current_range_meters":18800,"station_id":"ce4bhph2rcd13ifvqheg","pricing_plan_id":"cebpf4jnsgd1na2vs0mg"},{"bike_id":"88b6e1d7-b14a-4eea-86e2-d83a976a5dcf","system_id":"levelo_inurba_marseille","lat":43.28703,"lon":5.3999,"is_reserved":false,"is_disabled":false,"rental_uris":{"android":"levelo://app?vid=88b6e1d7-b14a-4eea-86e2-d83a976a5dcf","ios":"levelo://app?vid=88b6e1d7-b14a-4eea-86e2-d83a976a5dcf"},"vehicle_type_id":"4","last_reported":1752336739,"current_range_meters":18800,"station_id":"ce4bho92rcd13ifvqh3g","pricing_plan_id":"cebpf4jnsgd1na2vs0mg"},{"bike_id":"f9924005-c8ac-4086-8e25-9a21391f65ea","system_id":"levelo_inurba_marseille","lat":43.211901,"lon":5.350807,"is_reserved":false,"is_disabled":false,"rental_uris":{"android":"levelo://app?vid=f9924005-c8ac-4086-8e25-9a21391f65ea","ios":"levelo://app?vid=f9924005-c8ac-4086-8e25-9a21391f65ea"},"vehicle_type_id":"4","last_reported":1752336739,"current_range_meters":18800,"station_id":"st_cvj6sg6p6f1abm77japg","pricing_plan_id":"cebpf4jnsgd1na2vs0mg"},{"bike_id":"5af35bc3-c835-45dc-8089-0d78e9c38b02","system_id":"levelo_inurba_marseille","lat":43.27901,"lon":5.38006,"is_reserved":false,"is_disabled":false,"rental_uris":{"android":"levelo://app?vid=5af35bc3-c835-45dc-8089-0d78e9c38b02","ios":"levelo://app?vid=5af35bc3-c835-45dc-8089-0d78e9c38b02"},"vehicle_type_id":"4","last_reported":1752336739,"current_range_meters":18800,"station_id":"ce4bhf92rcd13ifvqf50","pricing_plan_id":"cebpf4jnsgd1na2vs0mg"},{"bike_id":"18530e59-6a86-4f2b-8228-4105493be3ef","system_id":"levelo_inurba_marseille","lat":43.24154,"lon":5.36408,"is_reserved":false,"is_disabled":false,"rental_uris":{"android":"levelo://app?vid=18530e59-6a86-4f2b-8228-4105493be3ef","ios":"levelo://app?vid=18530e59-6a86-4f2b-8228-4105493be3ef"},"vehicle_type_id":"4","last_reported":1752336739,"current_range_meters":18800,"station_id":"cpo36qri1sfpv3e86is0","pricing_plan_id":"cebpf4jnsgd1na2vs0mg"},{"bike_id":"2afd10ce-5f23-4122-9c7a-a3416be941b2","system_id":"levelo_inurba_marseille","lat":43.26042,"lon":5.37545,"is_reserved":false,"is_disabled":true,"rental_uris":{"android":"levelo://app?vid=2afd10ce-5f23-4122-9c7a-a3416be941b2","ios":"levelo://app?vid=2afd10ce-5f23-4122-9c7a-a3416be941b2"},"vehicle_type_id":"4","last_reported":1752336739,"current_range_meters":18800,"station_id":"ce4bhgh2rcd13ifvqfa0","pricing_plan_id":"cebpf4jnsgd1na2vs0mg"},{"bike_id":"1439409e-fcaa-42de-8e6b-6f5d9ec4abcb","system_id":"levelo_inurba_marseille","lat":43.27371,"lon":5.36244,"is_reserved":false,"is_disabled":false,"rental_uris":{"android":"levelo://app?vid=1439409e-fcaa-42de-8e6b-6f5d9ec4abcb","ios":"levelo://app?vid=1439409e-fcaa-42de-8e6b-6f5d9ec4abcb"},"vehicle_type_id":"4","last_reported":1752336739,"current_range_meters":18800,"station_id":"ce4bhbh2rcd13ifvqeo0","pricing_plan_id":"cebpf4jnsgd1na2vs0mg"},{"bike_id":"7048b274-bb73-4f78-bd84-2dffe4927289","system_id":"levelo_inurba_marseille","lat":43.29795,"lon":5.39344,"is_reserved":false,"is_disabled":true,"rental_uris":{"android":"levelo://app?vid=7048b274-bb73-4f78-bd84-2dffe4927289","ios":"levelo://app?vid=7048b274-bb73-4f78-bd84-2dffe4927289"},"vehicle_type_id":"4","last_reported":1752336739,"current_range_meters":18800,"station_id":"chh1huq6cuj3fo74tm60","pricing_plan_id":"cebpf4jnsgd1na2vs0mg"},{"bike_id":"1c7281d8-1661-4f68-b91a-5d8c6ef01bc3","system_id":"levelo_inurba_marseille","lat":43.2742,"lon":5.39416,"is_reserved":false,"is_disabled":false,"rental_uris":{"android":"levelo://app?vid=1c7281d8-1661-4f68-b91a-5d8c6ef01bc3","ios":"levelo://app?vid=1c7281d8-1661-4f68-b91a-5d8c6ef01bc3"},"vehicle_type_id":"4","last_reported":1752336739,"current_range_meters":18800,"station_id":"ce4bhdp2rcd13ifvqf20","pricing_plan_id":"cebpf4jnsgd1na2vs0mg"},{"bike_id":"7aba66d5-779a-4e30-b504-8ac9307c9ee8","system_id":"levelo_inurba_marseille","lat":43.24167,"lon":5.36392,"is_reserved":false,"is_disabled":false,"rental_uris":{"android":"levelo://app?vid=7aba66d5-779a-4e30-b504-8ac9307c9ee8","ios":"levelo://app?vid=7aba66d5-779a-4e30-b504-8ac9307c9ee8"},"vehicle_type_id":"4","last_reported":1752336739,"current_range_meters":18800,"station_id":"cpo36qri1sfpv3e86is0","pricing_plan_id":"cebpf4jnsgd1na2vs0mg"},{"bike_id":"c1d0629c-eaee-41e7-8c10-68b0ec1b077d","system_id":"levelo_inurba_marseille","lat":43.32972,"lon":5.388882,"is_reserved":false,"is_disabled":false,"rental_uris":{"android":"levelo://app?vid=c1d0629c-eaee-41e7-8c10-68b0ec1b077d","ios":"levelo://app?vid=c1d0629c-eaee-41e7-8c10-68b0ec1b077d"},"vehicle_type_id":"4","last_reported":1752336739,"current_range_meters":18800,"station_id":"ce4bhr92rcd13ifvqhrg","pricing_plan_id":"cebpf4jnsgd1na2vs0mg"},{"bike_id":"fd122fae-cf45-42c3-bd6c-b9b5837357b0","system_id":"levelo_inurba_marseille","lat":43.30953,"lon":5.39047,"is_reserved":false,"is_disabled":false,"rental_uris":{"android":"levelo://app?vid=fd122fae-cf45-42c3-bd6c-b9b5837357b0","ios":"levelo://app?vid=fd122fae-cf45-42c3-bd6c-b9b5837357b0"},"vehicle_type_id":"4","last_reported":1752336739,"current_range_meters":19200,"station_id":"ce4bgup2rcd13ifvqco0","pricing_plan_id":"cebpf4jnsgd1na2vs0mg"},{"bike_id":"9b40dc73-509b-4d2f-8a27-44696719b175","system_id":"levelo_inurba_marseille","lat":43.27084,"lon":5.42276,"is_reserved":false,"is_disabled":false,"rental_uris":{"android":"levelo://app?vid=9b40dc73-509b-4d2f-8a27-44696719b175","ios":"levelo://app?vid=9b40dc73-509b-4d2f-8a27-44696719b175"},"vehicle_type_id":"4","last_reported":1752336739,"current_range_meters":19200,"station_id":"ce4bhk92rcd13ifvqgb0","pricing_plan_id":"cebpf4jnsgd1na2vs0mg"},{"bike_id":"6db2d44d-c7ca-41ac-b814-ccca58d47fae","system_id":"levelo_inurba_marseille","lat":43.26245,"lon":5.37436,"is_reserved":false,"is_disabled":false,"rental_uris":{"android":"levelo://app?vid=6db2d44d-c7ca-41ac-b814-ccca58d47fae","ios":"levelo://app?vid=6db2d44d-c7ca-41ac-b814-ccca58d47fae"},"vehicle_type_id":"4","last_reported":1752336739,"current_range_meters":19200,"station_id":"","pricing_plan_id":"cebpf4jnsgd1na2vs0mg"},{"bike_id":"26c0bd09-ea1b-45b8-8dd7-11ce78e12a74","system_id":"levelo_inurba_marseille","lat":43.30547,"lon":5.36555,"is_reserved":false,"is_disabled":false,"rental_uris":{"android":"levelo://app?vid=26c0bd09-ea1b-45b8-8dd7-11ce78e12a74","ios":"levelo://app?vid=26c0bd09-ea1b-45b8-8dd7-11ce78e12a74"},"vehicle_type_id":"4","last_reported":1752336739,"current_range_meters":19200,"station_id":"ce4bgs12rcd13ifvqcag","pricing_plan_id":"cebpf4jnsgd1na2vs0mg"},{"bike_id":"7e53bf79-7475-435f-b1c4-c37c3f8bab45","system_id":"levelo_inurba_marseille","lat":43.291972,"lon":5.357603,"is_reserved":false,"is_disabled":false,"rental_uris":{"android":"levelo://app?vid=7e53bf79-7475-435f-b1c4-c37c3f8bab45","ios":"levelo://app?vid=7e53bf79-7475-435f-b1c4-c37c3f8bab45"},"vehicle_type_id":"4","last_reported":1752336739,"current_range_meters":19200,"station_id":"ce4bhb12rcd13ifvqel0","pricing_plan_id":"cebpf4jnsgd1na2vs0mg"},{"bike_id":"291d3410-13b4-4e3f-a2b2-7531824aadfb","system_id":"levelo_inurba_marseille","lat":43.23055,"lon":5.35501,"is_reserved":false,"is_disabled":false,"rental_uris":{"android":"levelo://app?vid=291d3410-13b4-4e3f-a2b2-7531824aadfb","ios":"levelo://app?vid=291d3410-13b4-4e3f-a2b2-7531824aadfb"},"vehicle_type_id":"4","last_reported":1752336739,"current_range_meters":19200,"station_id":"cpo3342slgdg3j2ifvpg","pricing_plan_id":"cebpf4jnsgd1na2vs0mg"},{"bike_id":"e09248dc-f3f8-437b-9870-7d2e6336703c","system_id":"levelo_inurba_marseille","lat":43.26555,"lon":5.37281,"is_reserved":false,"is_disabled":false,"rental_uris":{"android":"levelo://app?vid=e09248dc-f3f8-437b-9870-7d2e6336703c","ios":"levelo://app?vid=e09248dc-f3f8-437b-9870-7d2e6336703c"},"vehicle_type_id":"4","last_reported":1752336739,"current_range_meters":19200,"station_id":"ce4bhg12rcd13ifvqf70","pricing_plan_id":"cebpf4jnsgd1na2vs0mg"},{"bike_id":"c0e1cefb-0cdc-4b15-903d-f653930b62e8","system_id":"levelo_inurba_marseille","lat":43.28422,"lon":5.34989,"is_reserved":false,"is_disabled":false,"rental_uris":{"android":"levelo://app?vid=c0e1cefb-0cdc-4b15-903d-f653930b62e8","ios":"levelo://app?vid=c0e1cefb-0cdc-4b15-903d-f653930b62e8"},"vehicle_type_id":"4","last_reported":1752336739,"current_range_meters":19200,"station_id":"ce4bhbh2rcd13ifvqepg","pricing_plan_id":"cebpf4jnsgd1na2vs0mg"},{"bike_id":"d6500c8d-6a67-424b-809a-2e1b6bd3abd6","system_id":"levelo_inurba_marseille","lat":43.276601,"lon":5.388823,"is_reserved":false,"is_disabled":false,"rental_uris":{"android":"levelo://app?vid=d6500c8d-6a67-424b-809a-2e1b6bd3abd6","ios":"levelo://app?vid=d6500c8d-6a67-424b-809a-2e1b6bd3abd6"},"vehicle_type_id":"4","last_reported":1752336739,"current_range_meters":19200,"station_id":"ce4bhi12rcd13ifvqfo0","pricing_plan_id":"cebpf4jnsgd1na2vs0mg"},{"bike_id":"52e6cfc0-648a-443b-b0a6-e3048a92d3ef","system_id":"levelo_inurba_marseille","lat":43.28399,"lon":5.34994,"is_reserved":false,"is_disabled":false,"rental_uris":{"android":"levelo://app?vid=52e6cfc0-648a-443b-b0a6-e3048a92d3ef","ios":"levelo://app?vid=52e6cfc0-648a-443b-b0a6-e3048a92d3ef"},"vehicle_type_id":"4","last_reported":1752336739,"current_range_meters":19200,"station_id":"ce4bhbh2rcd13ifvqepg","pricing_plan_id":"cebpf4jnsgd1na2vs0mg"},{"bike_id":"036d27b8-9b13-4c43-b735-66f87182ead9","system_id":"levelo_inurba_marseille","lat":43.24182,"lon":5.39731,"is_reserved":false,"is_disabled":false,"rental_uris":{"android":"levelo://app?vid=036d27b8-9b13-4c43-b735-66f87182ead9","ios":"levelo://app?vid=036d27b8-9b13-4c43-b735-66f87182ead9"},"vehicle_type_id":"4","last_reported":1752336739,"current_range_meters":19200,"station_id":"ce4bhn12rcd13ifvqgpg","pricing_plan_id":"cebpf4jnsgd1na2vs0mg"},{"bike_id":"518f5c69-322a-4f62-b118-012e465ae28a","system_id":"levelo_inurba_marseille","lat":43.25728,"lon":5.41107,"is_reserved":false,"is_disabled":false,"rental_uris":{"android":"levelo://app?vid=518f5c69-322a-4f62-b118-012e465ae28a","ios":"levelo://app?vid=518f5c69-322a-4f62-b118-012e465ae28a"},"vehicle_type_id":"4","last_reported":1752336739,"current_range_meters":19600,"station_id":"ce4bhkp2rcd13ifvqgd0","pricing_plan_id":"cebpf4jnsgd1na2vs0mg"},{"bike_id":"d04c8719-c1af-4aa1-a6a3-f979bbbb31b6","system_id":"levelo_inurba_marseille","lat":43.29199,"lon":5.358,"is_reserved":false,"is_disabled":false,"rental_uris":{"android":"levelo://app?vid=d04c8719-c1af-4aa1-a6a3-f979bbbb31b6","ios":"levelo://app?vid=d04c8719-c1af-4aa1-a6a3-f979bbbb31b6"},"vehicle_type_id":"4","last_reported":1752336739,"current_range_meters":19600,"station_id":"ce4bhb12rcd13ifvqel0","pricing_plan_id":"cebpf4jnsgd1na2vs0mg"},{"bike_id":"b616e4b7-e050-4f98-8899-b2ef8c982518","system_id":"levelo_inurba_marseille","lat":43.29215,"lon":5.36083,"is_reserved":false,"is_disabled":false,"rental_uris":{"android":"levelo://app?vid=b616e4b7-e050-4f98-8899-b2ef8c982518","ios":"levelo://app?vid=b616e4b7-e050-4f98-8899-b2ef8c982518"},"vehicle_type_id":"4","last_reported":1752336739,"current_range_meters":19600,"station_id":"ce4bhbh2rcd13ifvqeqg","pricing_plan_id":"cebpf4jnsgd1na2vs0mg"},{"bike_id":"20747e02-772d-46c3-930c-e6741d4f0cb4","system_id":"levelo_inurba_marseille","lat":43.29726,"lon":5.37691,"is_reserved":false,"is_disabled":false,"rental_uris":{"android":"levelo://app?vid=20747e02-772d-46c3-930c-e6741d4f0cb4","ios":"levelo://app?vid=20747e02-772d-46c3-930c-e6741d4f0cb4"},"vehicle_type_id":"4","last_reported":1752336739,"current_range_meters":19600,"station_id":"ce4bgkh2rcd13ifvqbl0","pricing_plan_id":"cebpf4jnsgd1na2vs0mg"},{"bike_id":"e6a13a5a-5da2-46f9-9066-ad2166b809dc","system_id":"levelo_inurba_marseille","lat":43.25685,"lon":5.41135,"is_reserved":false,"is_disabled":false,"rental_uris":{"android":"levelo://app?vid=e6a13a5a-5da2-46f9-9066-ad2166b809dc","ios":"levelo://app?vid=e6a13a5a-5da2-46f9-9066-ad2166b809dc"},"vehicle_type_id":"4","last_reported":1752336739,"current_range_meters":19600,"station_id":"ce4bhkp2rcd13ifvqgd0","pricing_plan_id":"cebpf4jnsgd1na2vs0mg"},{"bike_id":"3d640471-8203-4b9e-8c16-d2a98a33816d","system_id":"levelo_inurba_marseille","lat":43.26028,"lon":5.37548,"is_reserved":false,"is_disabled":false,"rental_uris":{"android":"levelo://app?vid=3d640471-8203-4b9e-8c16-d2a98a33816d","ios":"levelo://app?vid=3d640471-8203-4b9e-8c16-d2a98a33816d"},"vehicle_type_id":"4","last_reported":1752336739,"current_range_meters":19600,"station_id":"","pricing_plan_id":"cebpf4jnsgd1na2vs0mg"},{"bike_id":"14809ac0-ef1f-47e7-a25d-559e948d124c","system_id":"levelo_inurba_marseille","lat":43.26795,"lon":5.39407,"is_reserved":false,"is_disabled":false,"rental_uris":{"android":"levelo://app?vid=14809ac0-ef1f-47e7-a25d-559e948d124c","ios":"levelo://app?vid=14809ac0-ef1f-47e7-a25d-559e948d124c"},"vehicle_type_id":"4","last_reported":1752336739,"current_range_meters":19600,"station_id":"ce4bhh12rcd13ifvqfg0","pricing_plan_id":"cebpf4jnsgd1na2vs0mg"},{"bike_id":"41c1b6e6-e987-4c9f-87a4-60fbf89e2260","system_id":"levelo_inurba_marseille","lat":43.2917,"lon":5.37159,"is_reserved":false,"is_disabled":false,"rental_uris":{"android":"levelo://app?vid=41c1b6e6-e987-4c9f-87a4-60fbf89e2260","ios":"levelo://app?vid=41c1b6e6-e987-4c9f-87a4-60fbf89e2260"},"vehicle_type_id":"4","last_reported":1752336739,"current_range_meters":19600,"station_id":"ce4bha92rcd13ifvqeh0","pricing_plan_id":"cebpf4jnsgd1na2vs0mg"},{"bike_id":"97da34aa-565c-4c7a-93c5-33e6e1f7aef5","system_id":"levelo_inurba_marseille","lat":43.26931,"lon":5.3891,"is_reserved":false,"is_disabled":false,"rental_uris":{"android":"levelo://app?vid=97da34aa-565c-4c7a-93c5-33e6e1f7aef5","ios":"levelo://app?vid=97da34aa-565c-4c7a-93c5-33e6e1f7aef5"},"vehicle_type_id":"4","last_reported":1752336739,"current_range_meters":19600,"station_id":"ce4bhhh2rcd13ifvqfl0","pricing_plan_id":"cebpf4jnsgd1na2vs0mg"},{"bike_id":"1ae14a01-8ff6-4064-ab1f-f41b1f20ddc9","system_id":"levelo_inurba_marseille","lat":43.28657,"lon":5.3635,"is_reserved":false,"is_disabled":false,"rental_uris":{"android":"levelo://app?vid=1ae14a01-8ff6-4064-ab1f-f41b1f20ddc9","ios":"levelo://app?vid=1ae14a01-8ff6-4064-ab1f-f41b1f20ddc9"},"vehicle_type_id":"4","last_reported":1752336739,"current_range_meters":19600,"station_id":"ce4bhah2rcd13ifvqej0","pricing_plan_id":"cebpf4jnsgd1na2vs0mg"},{"bike_id":"78054087-4c67-4482-8f76-879b9b47bc23","system_id":"levelo_inurba_marseille","lat":43.255,"lon":5.37647,"is_reserved":false,"is_disabled":false,"rental_uris":{"android":"levelo://app?vid=78054087-4c67-4482-8f76-879b9b47bc23","ios":"levelo://app?vid=78054087-4c67-4482-8f76-879b9b47bc23"},"vehicle_type_id":"4","last_reported":1752336739,"current_range_meters":20000,"station_id":"ce4bhh12rcd13ifvqff0","pricing_plan_id":"cebpf4jnsgd1na2vs0mg"},{"bike_id":"3ddb6d3f-6e11-4a20-95ed-3b1d52ce7226","system_id":"levelo_inurba_marseille","lat":43.2842,"lon":5.34991,"is_reserved":false,"is_disabled":false,"rental_uris":{"android":"levelo://app?vid=3ddb6d3f-6e11-4a20-95ed-3b1d52ce7226","ios":"levelo://app?vid=3ddb6d3f-6e11-4a20-95ed-3b1d52ce7226"},"vehicle_type_id":"4","last_reported":1752336739,"current_range_meters":20000,"station_id":"ce4bhbh2rcd13ifvqepg","pricing_plan_id":"cebpf4jnsgd1na2vs0mg"},{"bike_id":"13fbef60-ac1a-442f-94d2-2f7f088bbb1a","system_id":"levelo_inurba_marseille","lat":43.280451,"lon":5.369255,"is_reserved":false,"is_disabled":false,"rental_uris":{"android":"levelo://app?vid=13fbef60-ac1a-442f-94d2-2f7f088bbb1a","ios":"levelo://app?vid=13fbef60-ac1a-442f-94d2-2f7f088bbb1a"},"vehicle_type_id":"4","last_reported":1752336739,"current_range_meters":20000,"station_id":"ce4bha12rcd13ifvqef0","pricing_plan_id":"cebpf4jnsgd1na2vs0mg"},{"bike_id":"048d7c93-f989-4e7b-a30c-364c3e03f878","system_id":"levelo_inurba_marseille","lat":43.27677,"lon":5.38883,"is_reserved":false,"is_disabled":false,"rental_uris":{"android":"levelo://app?vid=048d7c93-f989-4e7b-a30c-364c3e03f878","ios":"levelo://app?vid=048d7c93-f989-4e7b-a30c-364c3e03f878"},"vehicle_type_id":"4","last_reported":1752336739,"current_range_meters":20000,"station_id":"ce4bhi12rcd13ifvqfo0","pricing_plan_id":"cebpf4jnsgd1na2vs0mg"},{"bike_id":"f1a4823a-7d2b-4565-8bf0-4460c8e635d2","system_id":"levelo_inurba_marseille","lat":43.29794,"lon":5.38113,"is_reserved":false,"is_disabled":false,"rental_uris":{"android":"levelo://app?vid=f1a4823a-7d2b-4565-8bf0-4460c8e635d2","ios":"levelo://app?vid=f1a4823a-7d2b-4565-8bf0-4460c8e635d2"},"vehicle_type_id":"4","last_reported":1752336739,"current_range_meters":20000,"station_id":"ce4bgip2rcd13ifvqbb0","pricing_plan_id":"cebpf4jnsgd1na2vs0mg"},{"bike_id":"f895d8d6-5719-4123-b6c2-ed6b1bf015e1","system_id":"levelo_inurba_marseille","lat":43.28414,"lon":5.34985,"is_reserved":false,"is_disabled":false,"rental_uris":{"android":"levelo://app?vid=f895d8d6-5719-4123-b6c2-ed6b1bf015e1","ios":"levelo://app?vid=f895d8d6-5719-4123-b6c2-ed6b1bf015e1"},"vehicle_type_id":"4","last_reported":1752336739,"current_range_meters":20000,"station_id":"ce4bhbh2rcd13ifvqepg","pricing_plan_id":"cebpf4jnsgd1na2vs0mg"},{"bike_id":"e1b53900-c592-46fc-9e72-c51f38e41c34","system_id":"levelo_inurba_marseille","lat":43.27382,"lon":5.36254,"is_reserved":false,"is_disabled":false,"rental_uris":{"android":"levelo://app?vid=e1b53900-c592-46fc-9e72-c51f38e41c34","ios":"levelo://app?vid=e1b53900-c592-46fc-9e72-c51f38e41c34"},"vehicle_type_id":"4","last_reported":1752336739,"current_range_meters":20400,"station_id":"ce4bhbh2rcd13ifvqeo0","pricing_plan_id":"cebpf4jnsgd1na2vs0mg"},{"bike_id":"8da3250c-29e8-42c7-beb5-1b1630bbd519","system_id":"levelo_inurba_marseille","lat":43.28934,"lon":5.38382,"is_reserved":false,"is_disabled":false,"rental_uris":{"android":"levelo://app?vid=8da3250c-29e8-42c7-beb5-1b1630bbd519","ios":"levelo://app?vid=8da3250c-29e8-42c7-beb5-1b1630bbd519"},"vehicle_type_id":"4","last_reported":1752336739,"current_range_meters":20400,"station_id":"ce4bh612rcd13ifvqe6g","pricing_plan_id":"cebpf4jnsgd1na2vs0mg"},{"bike_id":"4fa92263-ed32-4a9c-bf13-b2dcb285db3f","system_id":"levelo_inurba_marseille","lat":43.28158,"lon":5.42639,"is_reserved":false,"is_disabled":false,"rental_uris":{"android":"levelo://app?vid=4fa92263-ed32-4a9c-bf13-b2dcb285db3f","ios":"levelo://app?vid=4fa92263-ed32-4a9c-bf13-b2dcb285db3f"},"vehicle_type_id":"4","last_reported":1752336739,"current_range_meters":20400,"station_id":"ce4bhnh2rcd13ifvqgug","pricing_plan_id":"cebpf4jnsgd1na2vs0mg"},{"bike_id":"f5a47db5-6fb2-46bd-a2de-efa4ad13bf60","system_id":"levelo_inurba_marseille","lat":43.211973,"lon":5.350887,"is_reserved":false,"is_disabled":false,"rental_uris":{"android":"levelo://app?vid=f5a47db5-6fb2-46bd-a2de-efa4ad13bf60","ios":"levelo://app?vid=f5a47db5-6fb2-46bd-a2de-efa4ad13bf60"},"vehicle_type_id":"4","last_reported":1752336739,"current_range_meters":20400,"station_id":"st_cvj6sg6p6f1abm77japg","pricing_plan_id":"cebpf4jnsgd1na2vs0mg"},{"bike_id":"536c6997-0dbb-4f37-a3e1-516881c22090","system_id":"levelo_inurba_marseille","lat":43.28663,"lon":5.35119,"is_reserved":false,"is_disabled":false,"rental_uris":{"android":"levelo://app?vid=536c6997-0dbb-4f37-a3e1-516881c22090","ios":"levelo://app?vid=536c6997-0dbb-4f37-a3e1-516881c22090"},"vehicle_type_id":"4","last_reported":1752336739,"current_range_meters":20400,"station_id":"ce4bhch2rcd13ifvqeug","pricing_plan_id":"cebpf4jnsgd1na2vs0mg"},{"bike_id":"cdc1c712-c69b-4dab-89f6-55c35a1f5019","system_id":"levelo_inurba_marseille","lat":43.26793,"lon":5.39406,"is_reserved":false,"is_disabled":false,"rental_uris":{"android":"levelo://app?vid=cdc1c712-c69b-4dab-89f6-55c35a1f5019","ios":"levelo://app?vid=cdc1c712-c69b-4dab-89f6-55c35a1f5019"},"vehicle_type_id":"4","last_reported":1752336739,"current_range_meters":20400,"station_id":"ce4bhh12rcd13ifvqfg0","pricing_plan_id":"cebpf4jnsgd1na2vs0mg"},{"bike_id":"13b8dd18-a218-4969-826e-70755775daad","system_id":"levelo_inurba_marseille","lat":43.299446,"lon":5.377474,"is_reserved":false,"is_disabled":false,"rental_uris":{"android":"levelo://app?vid=13b8dd18-a218-4969-826e-70755775daad","ios":"levelo://app?vid=13b8dd18-a218-4969-826e-70755775daad"},"vehicle_type_id":"4","last_reported":1752336739,"current_range_meters":20400,"station_id":"ce4bgjp2rcd13ifvqbh0","pricing_plan_id":"cebpf4jnsgd1na2vs0mg"},{"bike_id":"58375fde-ca97-4dab-be52-59caf98323d3","system_id":"levelo_inurba_marseille","lat":43.26568,"lon":5.37277,"is_reserved":false,"is_disabled":true,"rental_uris":{"android":"levelo://app?vid=58375fde-ca97-4dab-be52-59caf98323d3","ios":"levelo://app?vid=58375fde-ca97-4dab-be52-59caf98323d3"},"vehicle_type_id":"4","last_reported":1752336739,"current_range_meters":20400,"station_id":"ce4bhg12rcd13ifvqf70","pricing_plan_id":"cebpf4jnsgd1na2vs0mg"},{"bike_id":"f2e4a57e-09a1-4884-80ed-2534052572be","system_id":"levelo_inurba_marseille","lat":43.29906,"lon":5.38137,"is_reserved":false,"is_disabled":false,"rental_uris":{"android":"levelo://app?vid=f2e4a57e-09a1-4884-80ed-2534052572be","ios":"levelo://app?vid=f2e4a57e-09a1-4884-80ed-2534052572be"},"vehicle_type_id":"4","last_reported":1752336739,"current_range_meters":20400,"station_id":"ce4bgj12rcd13ifvqbc0","pricing_plan_id":"cebpf4jnsgd1na2vs0mg"},{"bike_id":"cc6260c7-e588-42d7-afef-96c409802ccc","system_id":"levelo_inurba_marseille","lat":43.21188,"lon":5.35074,"is_reserved":false,"is_disabled":false,"rental_uris":{"android":"levelo://app?vid=cc6260c7-e588-42d7-afef-96c409802ccc","ios":"levelo://app?vid=cc6260c7-e588-42d7-afef-96c409802ccc"},"vehicle_type_id":"4","last_reported":1752336739,"current_range_meters":20400,"station_id":"st_cvj6sg6p6f1abm77japg","pricing_plan_id":"cebpf4jnsgd1na2vs0mg"},{"bike_id":"ea8ed8ed-0d57-4978-94f8-862e0b9542fb","system_id":"levelo_inurba_marseille","lat":43.291992,"lon":5.3774,"is_reserved":false,"is_disabled":false,"rental_uris":{"android":"levelo://app?vid=ea8ed8ed-0d57-4978-94f8-862e0b9542fb","ios":"levelo://app?vid=ea8ed8ed-0d57-4978-94f8-862e0b9542fb"},"vehicle_type_id":"4","last_reported":1752336739,"current_range_meters":20400,"station_id":"","pricing_plan_id":"cebpf4jnsgd1na2vs0mg"},{"bike_id":"9bfc7d3d-4e60-4f8a-9c32-ef3d0e77ec5b","system_id":"levelo_inurba_marseille","lat":43.2119,"lon":5.35065,"is_reserved":false,"is_disabled":false,"rental_uris":{"android":"levelo://app?vid=9bfc7d3d-4e60-4f8a-9c32-ef3d0e77ec5b","ios":"levelo://app?vid=9bfc7d3d-4e60-4f8a-9c32-ef3d0e77ec5b"},"vehicle_type_id":"4","last_reported":1752336739,"current_range_meters":20400,"station_id":"st_cvj6sg6p6f1abm77japg","pricing_plan_id":"cebpf4jnsgd1na2vs0mg"},{"bike_id":"b8eb3130-c203-4842-b5ea-03fa9e487ff4","system_id":"levelo_inurba_marseille","lat":43.24172,"lon":5.36388,"is_reserved":false,"is_disabled":false,"rental_uris":{"android":"levelo://app?vid=b8eb3130-c203-4842-b5ea-03fa9e487ff4","ios":"levelo://app?vid=b8eb3130-c203-4842-b5ea-03fa9e487ff4"},"vehicle_type_id":"4","last_reported":1752336739,"current_range_meters":20400,"station_id":"cpo36qri1sfpv3e86is0","pricing_plan_id":"cebpf4jnsgd1na2vs0mg"},{"bike_id":"5d94e65b-95fa-4ee7-bdff-a7cc769a3bde","system_id":"levelo_inurba_marseille","lat":43.24803,"lon":5.37452,"is_reserved":false,"is_disabled":false,"rental_uris":{"android":"levelo://app?vid=5d94e65b-95fa-4ee7-bdff-a7cc769a3bde","ios":"levelo://app?vid=5d94e65b-95fa-4ee7-bdff-a7cc769a3bde"},"vehicle_type_id":"4","last_reported":1752336739,"current_range_meters":20800,"station_id":"ce4bhgh2rcd13ifvqfb0","pricing_plan_id":"cebpf4jnsgd1na2vs0mg"},{"bike_id":"5a333840-de16-4358-be83-832232c5b450","system_id":"levelo_inurba_marseille","lat":43.30891,"lon":5.39656,"is_reserved":false,"is_disabled":false,"rental_uris":{"android":"levelo://app?vid=5a333840-de16-4358-be83-832232c5b450","ios":"levelo://app?vid=5a333840-de16-4358-be83-832232c5b450"},"vehicle_type_id":"4","last_reported":1752336739,"current_range_meters":20800,"station_id":"ce4bh012rcd13ifvqcv0","pricing_plan_id":"cebpf4jnsgd1na2vs0mg"},{"bike_id":"602b4abd-3cab-4cb4-adff-add09ae118b3","system_id":"levelo_inurba_marseille","lat":43.28271,"lon":5.35058,"is_reserved":false,"is_disabled":false,"rental_uris":{"android":"levelo://app?vid=602b4abd-3cab-4cb4-adff-add09ae118b3","ios":"levelo://app?vid=602b4abd-3cab-4cb4-adff-add09ae118b3"},"vehicle_type_id":"4","last_reported":1752336739,"current_range_meters":20800,"station_id":"ce4bhbp2rcd13ifvqerg","pricing_plan_id":"cebpf4jnsgd1na2vs0mg"},{"bike_id":"e0df13f3-1542-433d-a502-cf1a4ebd8d3c","system_id":"levelo_inurba_marseille","lat":43.2841,"lon":5.3498,"is_reserved":false,"is_disabled":false,"rental_uris":{"android":"levelo://app?vid=e0df13f3-1542-433d-a502-cf1a4ebd8d3c","ios":"levelo://app?vid=e0df13f3-1542-433d-a502-cf1a4ebd8d3c"},"vehicle_type_id":"4","last_reported":1752336739,"current_range_meters":20800,"station_id":"ce4bhbh2rcd13ifvqepg","pricing_plan_id":"cebpf4jnsgd1na2vs0mg"},{"bike_id":"a75001ec-fa35-4df8-97e1-30c27c09a398","system_id":"levelo_inurba_marseille","lat":43.27372,"lon":5.36248,"is_reserved":false,"is_disabled":false,"rental_uris":{"android":"levelo://app?vid=a75001ec-fa35-4df8-97e1-30c27c09a398","ios":"levelo://app?vid=a75001ec-fa35-4df8-97e1-30c27c09a398"},"vehicle_type_id":"4","last_reported":1752336739,"current_range_meters":20800,"station_id":"ce4bhbh2rcd13ifvqeo0","pricing_plan_id":"cebpf4jnsgd1na2vs0mg"},{"bike_id":"169db442-4824-4c6d-b6ee-c435e8bdd68e","system_id":"levelo_inurba_marseille","lat":43.26785,"lon":5.39411,"is_reserved":false,"is_disabled":false,"rental_uris":{"android":"levelo://app?vid=169db442-4824-4c6d-b6ee-c435e8bdd68e","ios":"levelo://app?vid=169db442-4824-4c6d-b6ee-c435e8bdd68e"},"vehicle_type_id":"4","last_reported":1752336739,"current_range_meters":20800,"station_id":"ce4bhh12rcd13ifvqfg0","pricing_plan_id":"cebpf4jnsgd1na2vs0mg"},{"bike_id":"9821eec6-1fc9-478a-8e41-0029ac25f8fe","system_id":"levelo_inurba_marseille","lat":43.30898,"lon":5.39652,"is_reserved":false,"is_disabled":false,"rental_uris":{"android":"levelo://app?vid=9821eec6-1fc9-478a-8e41-0029ac25f8fe","ios":"levelo://app?vid=9821eec6-1fc9-478a-8e41-0029ac25f8fe"},"vehicle_type_id":"4","last_reported":1752336739,"current_range_meters":21600,"station_id":"ce4bh012rcd13ifvqcv0","pricing_plan_id":"cebpf4jnsgd1na2vs0mg"},{"bike_id":"4ab59cdc-8b57-4e43-ab39-09949ea9fe4e","system_id":"levelo_inurba_marseille","lat":43.28268,"lon":5.35069,"is_reserved":false,"is_disabled":false,"rental_uris":{"android":"levelo://app?vid=4ab59cdc-8b57-4e43-ab39-09949ea9fe4e","ios":"levelo://app?vid=4ab59cdc-8b57-4e43-ab39-09949ea9fe4e"},"vehicle_type_id":"4","last_reported":1752336739,"current_range_meters":21600,"station_id":"","pricing_plan_id":"cebpf4jnsgd1na2vs0mg"},{"bike_id":"a625795d-8f06-444e-8760-e6b3011c4d38","system_id":"levelo_inurba_marseille","lat":43.23057,"lon":5.35489,"is_reserved":false,"is_disabled":false,"rental_uris":{"android":"levelo://app?vid=a625795d-8f06-444e-8760-e6b3011c4d38","ios":"levelo://app?vid=a625795d-8f06-444e-8760-e6b3011c4d38"},"vehicle_type_id":"4","last_reported":1752336739,"current_range_meters":21600,"station_id":"cpo3342slgdg3j2ifvpg","pricing_plan_id":"cebpf4jnsgd1na2vs0mg"},{"bike_id":"7b24d22c-7607-4d99-a30c-c524d01a3c3f","system_id":"levelo_inurba_marseille","lat":43.28619,"lon":5.351014,"is_reserved":false,"is_disabled":false,"rental_uris":{"android":"levelo://app?vid=7b24d22c-7607-4d99-a30c-c524d01a3c3f","ios":"levelo://app?vid=7b24d22c-7607-4d99-a30c-c524d01a3c3f"},"vehicle_type_id":"4","last_reported":1752336739,"current_range_meters":21600,"station_id":"ce4bhch2rcd13ifvqeug","pricing_plan_id":"cebpf4jnsgd1na2vs0mg"},{"bike_id":"1b107bed-6e22-4d33-96a6-724964eeb246","system_id":"levelo_inurba_marseille","lat":43.29166,"lon":5.37162,"is_reserved":false,"is_disabled":false,"rental_uris":{"android":"levelo://app?vid=1b107bed-6e22-4d33-96a6-724964eeb246","ios":"levelo://app?vid=1b107bed-6e22-4d33-96a6-724964eeb246"},"vehicle_type_id":"4","last_reported":1752336739,"current_range_meters":21600,"station_id":"ce4bha92rcd13ifvqeh0","pricing_plan_id":"cebpf4jnsgd1na2vs0mg"},{"bike_id":"437b5d72-659a-4bb9-a06f-e8506864a5a2","system_id":"levelo_inurba_marseille","lat":43.30305,"lon":5.36881,"is_reserved":false,"is_disabled":false,"rental_uris":{"android":"levelo://app?vid=437b5d72-659a-4bb9-a06f-e8506864a5a2","ios":"levelo://app?vid=437b5d72-659a-4bb9-a06f-e8506864a5a2"},"vehicle_type_id":"4","last_reported":1752336739,"current_range_meters":20800,"station_id":"ce4bgqh2rcd13ifvqc5g","pricing_plan_id":"cebpf4jnsgd1na2vs0mg"},{"bike_id":"22c911ed-dd2d-4fec-9f9b-e84a1af74b8f","system_id":"levelo_inurba_marseille","lat":43.27373,"lon":5.36258,"is_reserved":false,"is_disabled":false,"rental_uris":{"android":"levelo://app?vid=22c911ed-dd2d-4fec-9f9b-e84a1af74b8f","ios":"levelo://app?vid=22c911ed-dd2d-4fec-9f9b-e84a1af74b8f"},"vehicle_type_id":"4","last_reported":1752336739,"current_range_meters":21600,"station_id":"ce4bhbh2rcd13ifvqeo0","pricing_plan_id":"cebpf4jnsgd1na2vs0mg"},{"bike_id":"ec40ee9f-a970-411a-9e91-8ca817032fa2","system_id":"levelo_inurba_marseille","lat":43.32344,"lon":5.40619,"is_reserved":false,"is_disabled":false,"rental_uris":{"android":"levelo://app?vid=ec40ee9f-a970-411a-9e91-8ca817032fa2","ios":"levelo://app?vid=ec40ee9f-a970-411a-9e91-8ca817032fa2"},"vehicle_type_id":"4","last_reported":1752336739,"current_range_meters":21600,"station_id":"ce4bhq92rcd13ifvqhjg","pricing_plan_id":"cebpf4jnsgd1na2vs0mg"},{"bike_id":"c8c4de1a-846f-4f5b-aace-9fb14bf7ad52","system_id":"levelo_inurba_marseille","lat":43.21192,"lon":5.35071,"is_reserved":false,"is_disabled":false,"rental_uris":{"android":"levelo://app?vid=c8c4de1a-846f-4f5b-aace-9fb14bf7ad52","ios":"levelo://app?vid=c8c4de1a-846f-4f5b-aace-9fb14bf7ad52"},"vehicle_type_id":"4","last_reported":1752336739,"current_range_meters":21600,"station_id":"st_cvj6sg6p6f1abm77japg","pricing_plan_id":"cebpf4jnsgd1na2vs0mg"},{"bike_id":"91e36618-f857-45af-ac89-91d909da2db3","system_id":"levelo_inurba_marseille","lat":43.2941,"lon":5.38614,"is_reserved":false,"is_disabled":true,"rental_uris":{"android":"levelo://app?vid=91e36618-f857-45af-ac89-91d909da2db3","ios":"levelo://app?vid=91e36618-f857-45af-ac89-91d909da2db3"},"vehicle_type_id":"4","last_reported":1752336739,"current_range_meters":22000,"station_id":"ce4bh2h2rcd13ifvqdh0","pricing_plan_id":"cebpf4jnsgd1na2vs0mg"},{"bike_id":"f7cf9aab-0ed3-4931-a48c-8d0743d0c0b9","system_id":"levelo_inurba_marseille","lat":43.22924,"lon":5.35379,"is_reserved":false,"is_disabled":true,"rental_uris":{"android":"levelo://app?vid=f7cf9aab-0ed3-4931-a48c-8d0743d0c0b9","ios":"levelo://app?vid=f7cf9aab-0ed3-4931-a48c-8d0743d0c0b9"},"vehicle_type_id":"4","last_reported":1752336739,"current_range_meters":22000,"station_id":"cpo3532slgdg3j2ikp40","pricing_plan_id":"cebpf4jnsgd1na2vs0mg"},{"bike_id":"7dbffe12-0802-4e11-af2a-12ec8778353b","system_id":"levelo_inurba_marseille","lat":43.31716,"lon":5.43703,"is_reserved":false,"is_disabled":false,"rental_uris":{"android":"levelo://app?vid=7dbffe12-0802-4e11-af2a-12ec8778353b","ios":"levelo://app?vid=7dbffe12-0802-4e11-af2a-12ec8778353b"},"vehicle_type_id":"4","last_reported":1752336739,"current_range_meters":22000,"station_id":"ce4bhp92rcd13ifvqhcg","pricing_plan_id":"cebpf4jnsgd1na2vs0mg"},{"bike_id":"99ae43ef-9981-41ec-907c-f94f73cc9ad2","system_id":"levelo_inurba_marseille","lat":43.29985,"lon":5.38484,"is_reserved":false,"is_disabled":false,"rental_uris":{"android":"levelo://app?vid=99ae43ef-9981-41ec-907c-f94f73cc9ad2","ios":"levelo://app?vid=99ae43ef-9981-41ec-907c-f94f73cc9ad2"},"vehicle_type_id":"4","last_reported":1752336739,"current_range_meters":22000,"station_id":"ce4bgj92rcd13ifvqbd0","pricing_plan_id":"cebpf4jnsgd1na2vs0mg"},{"bike_id":"590291f2-b42c-400f-8659-44f1aa1098f2","system_id":"levelo_inurba_marseille","lat":43.30141,"lon":5.37421,"is_reserved":false,"is_disabled":false,"rental_uris":{"android":"levelo://app?vid=590291f2-b42c-400f-8659-44f1aa1098f2","ios":"levelo://app?vid=590291f2-b42c-400f-8659-44f1aa1098f2"},"vehicle_type_id":"4","last_reported":1752336739,"current_range_meters":22000,"station_id":"ce4bgs92rcd13ifvqcc0","pricing_plan_id":"cebpf4jnsgd1na2vs0mg"},{"bike_id":"2ec427da-b403-4a7e-86be-3f48ba535d18","system_id":"levelo_inurba_marseille","lat":43.21215,"lon":5.35078,"is_reserved":false,"is_disabled":false,"rental_uris":{"android":"levelo://app?vid=2ec427da-b403-4a7e-86be-3f48ba535d18","ios":"levelo://app?vid=2ec427da-b403-4a7e-86be-3f48ba535d18"},"vehicle_type_id":"4","last_reported":1752336739,"current_range_meters":22400,"station_id":"st_cvj6sg6p6f1abm77japg","pricing_plan_id":"cebpf4jnsgd1na2vs0mg"},{"bike_id":"4ef84d27-0000-43f2-baba-f7660d61fafb","system_id":"levelo_inurba_marseille","lat":43.28621,"lon":5.35102,"is_reserved":false,"is_disabled":false,"rental_uris":{"android":"levelo://app?vid=4ef84d27-0000-43f2-baba-f7660d61fafb","ios":"levelo://app?vid=4ef84d27-0000-43f2-baba-f7660d61fafb"},"vehicle_type_id":"4","last_reported":1752336739,"current_range_meters":22400,"station_id":"ce4bhch2rcd13ifvqeug","pricing_plan_id":"cebpf4jnsgd1na2vs0mg"},{"bike_id":"0ade8314-6a29-4c19-bda6-4717b8a27a7f","system_id":"levelo_inurba_marseille","lat":43.23962,"lon":5.36627,"is_reserved":false,"is_disabled":false,"rental_uris":{"android":"levelo://app?vid=0ade8314-6a29-4c19-bda6-4717b8a27a7f","ios":"levelo://app?vid=0ade8314-6a29-4c19-bda6-4717b8a27a7f"},"vehicle_type_id":"4","last_reported":1752336739,"current_range_meters":22400,"station_id":"ce4bhi12rcd13ifvqfp0","pricing_plan_id":"cebpf4jnsgd1na2vs0mg"},{"bike_id":"b098d1cb-5120-4865-b41f-a915ba3d2063","system_id":"levelo_inurba_marseille","lat":43.28468,"lon":5.38403,"is_reserved":false,"is_disabled":false,"rental_uris":{"android":"levelo://app?vid=b098d1cb-5120-4865-b41f-a915ba3d2063","ios":"levelo://app?vid=b098d1cb-5120-4865-b41f-a915ba3d2063"},"vehicle_type_id":"4","last_reported":1752336739,"current_range_meters":22000,"station_id":"ce4bh512rcd13ifvqe3g","pricing_plan_id":"cebpf4jnsgd1na2vs0mg"},{"bike_id":"e2379c9f-17a8-4b29-8d7b-f208e66d3385","system_id":"levelo_inurba_marseille","lat":43.27941,"lon":5.41045,"is_reserved":false,"is_disabled":false,"rental_uris":{"android":"levelo://app?vid=e2379c9f-17a8-4b29-8d7b-f208e66d3385","ios":"levelo://app?vid=e2379c9f-17a8-4b29-8d7b-f208e66d3385"},"vehicle_type_id":"4","last_reported":1752336739,"current_range_meters":22400,"station_id":"ce4bhnp2rcd13ifvqh0g","pricing_plan_id":"cebpf4jnsgd1na2vs0mg"},{"bike_id":"1bfa168e-7ab3-4f09-87bf-de0698a16a33","system_id":"levelo_inurba_marseille","lat":43.29042,"lon":5.35913,"is_reserved":false,"is_disabled":false,"rental_uris":{"android":"levelo://app?vid=1bfa168e-7ab3-4f09-87bf-de0698a16a33","ios":"levelo://app?vid=1bfa168e-7ab3-4f09-87bf-de0698a16a33"},"vehicle_type_id":"4","last_reported":1752336739,"current_range_meters":22400,"station_id":"ce4bha92rcd13ifvqeg0","pricing_plan_id":"cebpf4jnsgd1na2vs0mg"},{"bike_id":"9a486965-38ea-4323-bc45-d2a29a11ba04","system_id":"levelo_inurba_marseille","lat":43.30951,"lon":5.39031,"is_reserved":false,"is_disabled":false,"rental_uris":{"android":"levelo://app?vid=9a486965-38ea-4323-bc45-d2a29a11ba04","ios":"levelo://app?vid=9a486965-38ea-4323-bc45-d2a29a11ba04"},"vehicle_type_id":"4","last_reported":1752336739,"current_range_meters":22400,"station_id":"ce4bgup2rcd13ifvqco0","pricing_plan_id":"cebpf4jnsgd1na2vs0mg"},{"bike_id":"fdec3e7e-d085-4a13-8970-b1d817a7e356","system_id":"levelo_inurba_marseille","lat":43.27374,"lon":5.36261,"is_reserved":false,"is_disabled":false,"rental_uris":{"android":"levelo://app?vid=fdec3e7e-d085-4a13-8970-b1d817a7e356","ios":"levelo://app?vid=fdec3e7e-d085-4a13-8970-b1d817a7e356"},"vehicle_type_id":"4","last_reported":1752336739,"current_range_meters":22400,"station_id":"ce4bhbh2rcd13ifvqeo0","pricing_plan_id":"cebpf4jnsgd1na2vs0mg"},{"bike_id":"6f1f6682-b964-418f-ae94-27c168ea1b13","system_id":"levelo_inurba_marseille","lat":43.26934,"lon":5.40244,"is_reserved":false,"is_disabled":false,"rental_uris":{"android":"levelo://app?vid=6f1f6682-b964-418f-ae94-27c168ea1b13","ios":"levelo://app?vid=6f1f6682-b964-418f-ae94-27c168ea1b13"},"vehicle_type_id":"4","last_reported":1752336739,"current_range_meters":22400,"station_id":"cjm6bp8fraef2m0cb0m0","pricing_plan_id":"cebpf4jnsgd1na2vs0mg"},{"bike_id":"7a888645-4b0c-4379-98d8-380a5347b74c","system_id":"levelo_inurba_marseille","lat":43.27392,"lon":5.36276,"is_reserved":false,"is_disabled":true,"rental_uris":{"android":"levelo://app?vid=7a888645-4b0c-4379-98d8-380a5347b74c","ios":"levelo://app?vid=7a888645-4b0c-4379-98d8-380a5347b74c"},"vehicle_type_id":"4","last_reported":1752336739,"current_range_meters":22800,"station_id":"ce4bhbh2rcd13ifvqeo0","pricing_plan_id":"cebpf4jnsgd1na2vs0mg"},{"bike_id":"717f238c-5e2e-466d-960b-5b21e181d0eb","system_id":"levelo_inurba_marseille","lat":43.28439,"lon":5.35009,"is_reserved":false,"is_disabled":false,"rental_uris":{"android":"levelo://app?vid=717f238c-5e2e-466d-960b-5b21e181d0eb","ios":"levelo://app?vid=717f238c-5e2e-466d-960b-5b21e181d0eb"},"vehicle_type_id":"4","last_reported":1752336739,"current_range_meters":22800,"station_id":"ce4bhbh2rcd13ifvqepg","pricing_plan_id":"cebpf4jnsgd1na2vs0mg"},{"bike_id":"32f1c2b5-522a-4242-bab4-abd002128b88","system_id":"levelo_inurba_marseille","lat":43.30927,"lon":5.3683,"is_reserved":false,"is_disabled":false,"rental_uris":{"android":"levelo://app?vid=32f1c2b5-522a-4242-bab4-abd002128b88","ios":"levelo://app?vid=32f1c2b5-522a-4242-bab4-abd002128b88"},"vehicle_type_id":"4","last_reported":1752336739,"current_range_meters":22800,"station_id":"ce4bgn92rcd13ifvqbvg","pricing_plan_id":"cebpf4jnsgd1na2vs0mg"},{"bike_id":"a37a38a4-e572-4069-a09d-aa77439fb873","system_id":"levelo_inurba_marseille","lat":43.28271,"lon":5.35044,"is_reserved":false,"is_disabled":false,"rental_uris":{"android":"levelo://app?vid=a37a38a4-e572-4069-a09d-aa77439fb873","ios":"levelo://app?vid=a37a38a4-e572-4069-a09d-aa77439fb873"},"vehicle_type_id":"4","last_reported":1752336739,"current_range_meters":22800,"station_id":"ce4bhbp2rcd13ifvqerg","pricing_plan_id":"cebpf4jnsgd1na2vs0mg"},{"bike_id":"6e68e630-5e44-4355-baf7-dafc6ad0fa8d","system_id":"levelo_inurba_marseille","lat":43.30158,"lon":5.3809,"is_reserved":false,"is_disabled":false,"rental_uris":{"android":"levelo://app?vid=6e68e630-5e44-4355-baf7-dafc6ad0fa8d","ios":"levelo://app?vid=6e68e630-5e44-4355-baf7-dafc6ad0fa8d"},"vehicle_type_id":"4","last_reported":1752336739,"current_range_meters":22800,"station_id":"ce4bgjp2rcd13ifvqbh0","pricing_plan_id":"cebpf4jnsgd1na2vs0mg"},{"bike_id":"0a8e50f8-6f08-47b1-9355-1dc1af22568d","system_id":"levelo_inurba_marseille","lat":43.28267,"lon":5.35062,"is_reserved":false,"is_disabled":false,"rental_uris":{"android":"levelo://app?vid=0a8e50f8-6f08-47b1-9355-1dc1af22568d","ios":"levelo://app?vid=0a8e50f8-6f08-47b1-9355-1dc1af22568d"},"vehicle_type_id":"4","last_reported":1752336739,"current_range_meters":22800,"station_id":"ce4bhbp2rcd13ifvqerg","pricing_plan_id":"cebpf4jnsgd1na2vs0mg"},{"bike_id":"48379af6-aafb-4c14-b1cf-515e0b2f865e","system_id":"levelo_inurba_marseille","lat":43.2842,"lon":5.34992,"is_reserved":false,"is_disabled":false,"rental_uris":{"android":"levelo://app?vid=48379af6-aafb-4c14-b1cf-515e0b2f865e","ios":"levelo://app?vid=48379af6-aafb-4c14-b1cf-515e0b2f865e"},"vehicle_type_id":"4","last_reported":1752336739,"current_range_meters":22800,"station_id":"ce4bhbh2rcd13ifvqepg","pricing_plan_id":"cebpf4jnsgd1na2vs0mg"},{"bike_id":"84354819-8236-4362-9c3b-c8ac10037362","system_id":"levelo_inurba_marseille","lat":43.28267,"lon":5.35061,"is_reserved":false,"is_disabled":false,"rental_uris":{"android":"levelo://app?vid=84354819-8236-4362-9c3b-c8ac10037362","ios":"levelo://app?vid=84354819-8236-4362-9c3b-c8ac10037362"},"vehicle_type_id":"4","last_reported":1752336739,"current_range_meters":22800,"station_id":"","pricing_plan_id":"cebpf4jnsgd1na2vs0mg"},{"bike_id":"fc5b4626-cf66-4a7f-ae6e-f2f640f70dc8","system_id":"levelo_inurba_marseille","lat":43.32358,"lon":5.36742,"is_reserved":false,"is_disabled":false,"rental_uris":{"android":"levelo://app?vid=fc5b4626-cf66-4a7f-ae6e-f2f640f70dc8","ios":"levelo://app?vid=fc5b4626-cf66-4a7f-ae6e-f2f640f70dc8"},"vehicle_type_id":"4","last_reported":1752336739,"current_range_meters":22800,"station_id":"ce4bhsh2rcd13ifvqi2g","pricing_plan_id":"cebpf4jnsgd1na2vs0mg"},{"bike_id":"4243963b-0a80-4067-8c7a-2aff5cd4c669","system_id":"levelo_inurba_marseille","lat":43.30019,"lon":5.37097,"is_reserved":false,"is_disabled":false,"rental_uris":{"android":"levelo://app?vid=4243963b-0a80-4067-8c7a-2aff5cd4c669","ios":"levelo://app?vid=4243963b-0a80-4067-8c7a-2aff5cd4c669"},"vehicle_type_id":"4","last_reported":1752336739,"current_range_meters":23200,"station_id":"","pricing_plan_id":"cebpf4jnsgd1na2vs0mg"},{"bike_id":"697d5fc4-b988-4a4e-8323-c1ce5ed61a61","system_id":"levelo_inurba_marseille","lat":43.211939,"lon":5.350734,"is_reserved":false,"is_disabled":false,"rental_uris":{"android":"levelo://app?vid=697d5fc4-b988-4a4e-8323-c1ce5ed61a61","ios":"levelo://app?vid=697d5fc4-b988-4a4e-8323-c1ce5ed61a61"},"vehicle_type_id":"4","last_reported":1752336739,"current_range_meters":23200,"station_id":"st_cvj6sg6p6f1abm77japg","pricing_plan_id":"cebpf4jnsgd1na2vs0mg"},{"bike_id":"87f30526-25f9-457c-9898-84b43f2e4fc0","system_id":"levelo_inurba_marseille","lat":43.29259,"lon":5.38436,"is_reserved":false,"is_disabled":false,"rental_uris":{"android":"levelo://app?vid=87f30526-25f9-457c-9898-84b43f2e4fc0","ios":"levelo://app?vid=87f30526-25f9-457c-9898-84b43f2e4fc0"},"vehicle_type_id":"4","last_reported":1752336739,"current_range_meters":23200,"station_id":"ce4bh692rcd13ifvqea0","pricing_plan_id":"cebpf4jnsgd1na2vs0mg"},{"bike_id":"da983724-2189-4fc3-8aaf-a6ee9bbfd66a","system_id":"levelo_inurba_marseille","lat":43.26944,"lon":5.40265,"is_reserved":false,"is_disabled":false,"rental_uris":{"android":"levelo://app?vid=da983724-2189-4fc3-8aaf-a6ee9bbfd66a","ios":"levelo://app?vid=da983724-2189-4fc3-8aaf-a6ee9bbfd66a"},"vehicle_type_id":"4","last_reported":1752336739,"current_range_meters":23200,"station_id":"cjm6bp8fraef2m0cb0m0","pricing_plan_id":"cebpf4jnsgd1na2vs0mg"},{"bike_id":"b29c635f-9f64-466c-a57c-b8a3bc4058b4","system_id":"levelo_inurba_marseille","lat":43.3085,"lon":5.40042,"is_reserved":false,"is_disabled":false,"rental_uris":{"android":"levelo://app?vid=b29c635f-9f64-466c-a57c-b8a3bc4058b4","ios":"levelo://app?vid=b29c635f-9f64-466c-a57c-b8a3bc4058b4"},"vehicle_type_id":"4","last_reported":1752336739,"current_range_meters":23200,"station_id":"","pricing_plan_id":"cebpf4jnsgd1na2vs0mg"},{"bike_id":"80955d0f-8669-4c02-b90f-c6fe20790c37","system_id":"levelo_inurba_marseille","lat":43.23201,"lon":5.35053,"is_reserved":false,"is_disabled":false,"rental_uris":{"android":"levelo://app?vid=80955d0f-8669-4c02-b90f-c6fe20790c37","ios":"levelo://app?vid=80955d0f-8669-4c02-b90f-c6fe20790c37"},"vehicle_type_id":"4","last_reported":1752336739,"current_range_meters":23200,"station_id":"","pricing_plan_id":"cebpf4jnsgd1na2vs0mg"},{"bike_id":"24291c8a-55e8-4bb0-b403-3f1cd1fea58f","system_id":"levelo_inurba_marseille","lat":43.28407,"lon":5.35001,"is_reserved":false,"is_disabled":false,"rental_uris":{"android":"levelo://app?vid=24291c8a-55e8-4bb0-b403-3f1cd1fea58f","ios":"levelo://app?vid=24291c8a-55e8-4bb0-b403-3f1cd1fea58f"},