{"last_updated":1747465761,"ttl":60,"version":"2.2","data":{"bikes":[{"bike_id":"aec5af64-5758-4d49-b2f9-eff089336aac","system_id":"levelo_inurba_marseille","lat":43.2809,"lon":5.39656,"is_reserved":false,"is_disabled":false,"rental_uris":{"android":"levelo://app?vid=aec5af64-5758-4d49-b2f9-eff089336aac","ios":"levelo://app?vid=aec5af64-5758-4d49-b2f9-eff089336aac"},"vehicle_type_id":"4","last_reported":1747465761,"current_range_meters":2800,"station_id":"ce4bho12rcd13ifvqh2g","pricing_plan_id":"cebpf4jnsgd1na2vs0mg"},{"bike_id":"7eb7be2d-3eec-4648-b495-0d532492ed4d","system_id":"levelo_inurba_marseille","lat":43.23177,"lon":5.35598,"is_reserved":false,"is_disabled":false,"rental_uris":{"android":"levelo://app?vid=7eb7be2d-3eec-4648-b495-0d532492ed4d","ios":"levelo://app?vid=7eb7be2d-3eec-4648-b495-0d532492ed4d"},"vehicle_type_id":"4","last_reported":1747465761,"current_range_meters":2800,"station_id":"ce4bhu92rcd13ifvqi70","pricing_plan_id":"cebpf4jnsgd1na2vs0mg"},{"bike_id":"f3e8f26f-834b-477c-9c43-3c0faff351b3","system_id":"levelo_inurba_marseille","lat":43.30649,"lon":5.40086,"is_reserved":false,"is_disabled":true,"rental_uris":{"android":"levelo://app?vid=f3e8f26f-834b-477c-9c43-3c0faff351b3","ios":"levelo://app?vid=f3e8f26f-834b-477c-9c43-3c0faff351b3"},"vehicle_type_id":"4","last_reported":1747465761,"current_range_meters":2800,"station_id":"ce4bh112rcd13ifvqda0","pricing_plan_id":"cebpf4jnsgd1na2vs0mg"},{"bike_id":"a305f51b-d417-4072-aba6-a17e3631d338","system_id":"levelo_inurba_marseille","lat":43.22931,"lon":5.35388,"is_reserved":false,"is_disabled":false,"rental_uris":{"android":"levelo://app?vid=a305f51b-d417-4072-aba6-a17e3631d338","ios":"levelo://app?vid=a305f51b-d417-4072-aba6-a17e3631d338"},"vehicle_type_id":"4","last_reported":1747465761,"current_range_meters":3200,"station_id":"cpo3532slgdg3j2ikp40","pricing_plan_id":"cebpf4jnsgd1na2vs0mg"},{"bike_id":"ef79e362-92b1-4a03-a294-4f0fb964dbc4","system_id":"levelo_inurba_marseille","lat":43.28612,"lon":5.35099,"is_reserved":false,"is_disabled":false,"rental_uris":{"android":"levelo://app?vid=ef79e362-92b1-4a03-a294-4f0fb964dbc4","ios":"levelo://app?vid=ef79e362-92b1-4a03-a294-4f0fb964dbc4"},"vehicle_type_id":"4","last_reported":1747465761,"current_range_meters":3600,"station_id":"","pricing_plan_id":"cebpf4jnsgd1na2vs0mg"},{"bike_id":"c395aea5-4c2d-41cc-b839-9a9c86f56d36","system_id":"levelo_inurba_marseille","lat":43.232073,"lon":5.400053,"is_reserved":false,"is_disabled":false,"rental_uris":{"android":"levelo://app?vid=c395aea5-4c2d-41cc-b839-9a9c86f56d36","ios":"levelo://app?vid=c395aea5-4c2d-41cc-b839-9a9c86f56d36"},"vehicle_type_id":"4","last_reported":1747465761,"current_range_meters":3600,"station_id":"ce4bhn12rcd13ifvqgqg","pricing_plan_id":"cebpf4jnsgd1na2vs0mg"},{"bike_id":"d93d0c6d-be90-4a1f-bc81-4d02d1453c4b","system_id":"levelo_inurba_marseille","lat":43.22498,"lon":5.34788,"is_reserved":false,"is_disabled":false,"rental_uris":{"android":"levelo://app?vid=d93d0c6d-be90-4a1f-bc81-4d02d1453c4b","ios":"levelo://app?vid=d93d0c6d-be90-4a1f-bc81-4d02d1453c4b"},"vehicle_type_id":"4","last_reported":1747465761,"current_range_meters":4000,"station_id":"st_cvj5dfep6f1abm77gieg","pricing_plan_id":"cebpf4jnsgd1na2vs0mg"},{"bike_id":"8e67f6d6-5f08-43a6-916b-04de74ab2485","system_id":"levelo_inurba_marseille","lat":43.31066,"lon":5.38349,"is_reserved":false,"is_disabled":false,"rental_uris":{"android":"levelo://app?vid=8e67f6d6-5f08-43a6-916b-04de74ab2485","ios":"levelo://app?vid=8e67f6d6-5f08-43a6-916b-04de74ab2485"},"vehicle_type_id":"4","last_reported":1747465761,"current_range_meters":4000,"station_id":"ce4bgv92rcd13ifvqcr0","pricing_plan_id":"cebpf4jnsgd1na2vs0mg"},{"bike_id":"0a519a3e-95e2-4039-88c7-dd045a5d2f9f","system_id":"levelo_inurba_marseille","lat":43.27915,"lon":5.39574,"is_reserved":false,"is_disabled":false,"rental_uris":{"android":"levelo://app?vid=0a519a3e-95e2-4039-88c7-dd045a5d2f9f","ios":"levelo://app?vid=0a519a3e-95e2-4039-88c7-dd045a5d2f9f"},"vehicle_type_id":"4","last_reported":1747465761,"current_range_meters":4000,"station_id":"ce4bhf92rcd13ifvqf40","pricing_plan_id":"cebpf4jnsgd1na2vs0mg"},{"bike_id":"ec2cf44a-d2ce-40ed-aaeb-ddb24e07b8b0","system_id":"levelo_inurba_marseille","lat":43.231849,"lon":5.399834,"is_reserved":false,"is_disabled":false,"rental_uris":{"android":"levelo://app?vid=ec2cf44a-d2ce-40ed-aaeb-ddb24e07b8b0","ios":"levelo://app?vid=ec2cf44a-d2ce-40ed-aaeb-ddb24e07b8b0"},"vehicle_type_id":"4","last_reported":1747465761,"current_range_meters":4000,"station_id":"ce4bhn12rcd13ifvqgqg","pricing_plan_id":"cebpf4jnsgd1na2vs0mg"},{"bike_id":"1ad8f804-9120-48a6-9b71-d831ec66afa1","system_id":"levelo_inurba_marseille","lat":43.301415,"lon":5.374223,"is_reserved":false,"is_disabled":false,"rental_uris":{"android":"levelo://app?vid=1ad8f804-9120-48a6-9b71-d831ec66afa1","ios":"levelo://app?vid=1ad8f804-9120-48a6-9b71-d831ec66afa1"},"vehicle_type_id":"4","last_reported":1747465761,"current_range_meters":4000,"station_id":"ce4bgs92rcd13ifvqcc0","pricing_plan_id":"cebpf4jnsgd1na2vs0mg"},{"bike_id":"a4254f33-dfdc-4beb-9ee4-21271a8a3aac","system_id":"levelo_inurba_marseille","lat":43.30419,"lon":5.41277,"is_reserved":false,"is_disabled":true,"rental_uris":{"android":"levelo://app?vid=a4254f33-dfdc-4beb-9ee4-21271a8a3aac","ios":"levelo://app?vid=a4254f33-dfdc-4beb-9ee4-21271a8a3aac"},"vehicle_type_id":"4","last_reported":1747465761,"current_range_meters":4000,"station_id":"ce4bhop2rcd13ifvqh8g","pricing_plan_id":"cebpf4jnsgd1na2vs0mg"},{"bike_id":"60314231-0f09-4c54-bd05-d7ba937eaedb","system_id":"levelo_inurba_marseille","lat":43.2791,"lon":5.3958,"is_reserved":false,"is_disabled":false,"rental_uris":{"android":"levelo://app?vid=60314231-0f09-4c54-bd05-d7ba937eaedb","ios":"levelo://app?vid=60314231-0f09-4c54-bd05-d7ba937eaedb"},"vehicle_type_id":"4","last_reported":1747465761,"current_range_meters":4400,"station_id":"ce4bhf92rcd13ifvqf40","pricing_plan_id":"cebpf4jnsgd1na2vs0mg"},{"bike_id":"5098123d-b36f-482a-a74d-7b81fd65e534","system_id":"levelo_inurba_marseille","lat":43.23963,"lon":5.3663,"is_reserved":false,"is_disabled":false,"rental_uris":{"android":"levelo://app?vid=5098123d-b36f-482a-a74d-7b81fd65e534","ios":"levelo://app?vid=5098123d-b36f-482a-a74d-7b81fd65e534"},"vehicle_type_id":"4","last_reported":1747465761,"current_range_meters":4400,"station_id":"ce4bhi12rcd13ifvqfp0","pricing_plan_id":"cebpf4jnsgd1na2vs0mg"},{"bike_id":"c43a58fc-765e-406d-b0e8-87f6c11c793d","system_id":"levelo_inurba_marseille","lat":43.287055,"lon":5.399888,"is_reserved":false,"is_disabled":false,"rental_uris":{"android":"levelo://app?vid=c43a58fc-765e-406d-b0e8-87f6c11c793d","ios":"levelo://app?vid=c43a58fc-765e-406d-b0e8-87f6c11c793d"},"vehicle_type_id":"4","last_reported":1747465761,"current_range_meters":4400,"station_id":"ce4bho92rcd13ifvqh3g","pricing_plan_id":"cebpf4jnsgd1na2vs0mg"},{"bike_id":"7786eff1-4b33-41f4-ad74-a0685c7b3640","system_id":"levelo_inurba_marseille","lat":43.29655,"lon":5.393702,"is_reserved":false,"is_disabled":false,"rental_uris":{"android":"levelo://app?vid=7786eff1-4b33-41f4-ad74-a0685c7b3640","ios":"levelo://app?vid=7786eff1-4b33-41f4-ad74-a0685c7b3640"},"vehicle_type_id":"4","last_reported":1747465761,"current_range_meters":4400,"station_id":"","pricing_plan_id":"cebpf4jnsgd1na2vs0mg"},{"bike_id":"76059a9d-5a1d-4ab5-8938-0d75f0f01bbb","system_id":"levelo_inurba_marseille","lat":43.29082,"lon":5.37158,"is_reserved":false,"is_disabled":false,"rental_uris":{"android":"levelo://app?vid=76059a9d-5a1d-4ab5-8938-0d75f0f01bbb","ios":"levelo://app?vid=76059a9d-5a1d-4ab5-8938-0d75f0f01bbb"},"vehicle_type_id":"4","last_reported":1747465761,"current_range_meters":4800,"station_id":"ce4bh5p2rcd13ifvqe4g","pricing_plan_id":"cebpf4jnsgd1na2vs0mg"},{"bike_id":"360640c1-bed8-49a0-96d7-f19089c8c22d","system_id":"levelo_inurba_marseille","lat":43.28465,"lon":5.35892,"is_reserved":false,"is_disabled":false,"rental_uris":{"android":"levelo://app?vid=360640c1-bed8-49a0-96d7-f19089c8c22d","ios":"levelo://app?vid=360640c1-bed8-49a0-96d7-f19089c8c22d"},"vehicle_type_id":"4","last_reported":1747465761,"current_range_meters":4800,"station_id":"ce4bhah2rcd13ifvqei0","pricing_plan_id":"cebpf4jnsgd1na2vs0mg"},{"bike_id":"b8915dc3-7c9d-4ef5-a46f-679bfa0b8479","system_id":"levelo_inurba_marseille","lat":43.3065,"lon":5.40085,"is_reserved":false,"is_disabled":false,"rental_uris":{"android":"levelo://app?vid=b8915dc3-7c9d-4ef5-a46f-679bfa0b8479","ios":"levelo://app?vid=b8915dc3-7c9d-4ef5-a46f-679bfa0b8479"},"vehicle_type_id":"4","last_reported":1747465761,"current_range_meters":4800,"station_id":"ce4bh112rcd13ifvqda0","pricing_plan_id":"cebpf4jnsgd1na2vs0mg"},{"bike_id":"c479e17f-8e98-4e09-8bb6-ceee382c7527","system_id":"levelo_inurba_marseille","lat":43.26554,"lon":5.37284,"is_reserved":false,"is_disabled":false,"rental_uris":{"android":"levelo://app?vid=c479e17f-8e98-4e09-8bb6-ceee382c7527","ios":"levelo://app?vid=c479e17f-8e98-4e09-8bb6-ceee382c7527"},"vehicle_type_id":"4","last_reported":1747465761,"current_range_meters":4800,"station_id":"ce4bhg12rcd13ifvqf70","pricing_plan_id":"cebpf4jnsgd1na2vs0mg"},{"bike_id":"a1bafcb9-a5a5-4e01-904c-8052a059f529","system_id":"levelo_inurba_marseille","lat":43.23156,"lon":5.43706,"is_reserved":false,"is_disabled":false,"rental_uris":{"android":"levelo://app?vid=a1bafcb9-a5a5-4e01-904c-8052a059f529","ios":"levelo://app?vid=a1bafcb9-a5a5-4e01-904c-8052a059f529"},"vehicle_type_id":"4","last_reported":1747465761,"current_range_meters":4800,"station_id":"ce4bhmp2rcd13ifvqgog","pricing_plan_id":"cebpf4jnsgd1na2vs0mg"},{"bike_id":"a030eabf-a6d2-4350-bcc4-b00985ea9216","system_id":"levelo_inurba_marseille","lat":43.31724,"lon":5.40426,"is_reserved":false,"is_disabled":true,"rental_uris":{"android":"levelo://app?vid=a030eabf-a6d2-4350-bcc4-b00985ea9216","ios":"levelo://app?vid=a030eabf-a6d2-4350-bcc4-b00985ea9216"},"vehicle_type_id":"4","last_reported":1747465761,"current_range_meters":5600,"station_id":"","pricing_plan_id":"cebpf4jnsgd1na2vs0mg"},{"bike_id":"06e20113-a5f1-4fe5-b188-f647ff408cc7","system_id":"levelo_inurba_marseille","lat":43.27695,"lon":5.4196,"is_reserved":false,"is_disabled":false,"rental_uris":{"android":"levelo://app?vid=06e20113-a5f1-4fe5-b188-f647ff408cc7","ios":"levelo://app?vid=06e20113-a5f1-4fe5-b188-f647ff408cc7"},"vehicle_type_id":"4","last_reported":1747465761,"current_range_meters":6000,"station_id":"","pricing_plan_id":"cebpf4jnsgd1na2vs0mg"},{"bike_id":"3370fae6-4399-4402-b942-3b5175177338","system_id":"levelo_inurba_marseille","lat":43.29241,"lon":5.441434,"is_reserved":false,"is_disabled":false,"rental_uris":{"android":"levelo://app?vid=3370fae6-4399-4402-b942-3b5175177338","ios":"levelo://app?vid=3370fae6-4399-4402-b942-3b5175177338"},"vehicle_type_id":"4","last_reported":1747465761,"current_range_meters":6000,"station_id":"","pricing_plan_id":"cebpf4jnsgd1na2vs0mg"},{"bike_id":"b297b32b-72f1-47a4-9e2e-44162528f5e1","system_id":"levelo_inurba_marseille","lat":43.22939,"lon":5.35392,"is_reserved":false,"is_disabled":false,"rental_uris":{"android":"levelo://app?vid=b297b32b-72f1-47a4-9e2e-44162528f5e1","ios":"levelo://app?vid=b297b32b-72f1-47a4-9e2e-44162528f5e1"},"vehicle_type_id":"4","last_reported":1747465761,"current_range_meters":6000,"station_id":"cpo3532slgdg3j2ikp40","pricing_plan_id":"cebpf4jnsgd1na2vs0mg"},{"bike_id":"ec12742a-6e05-4cdd-b969-14bccca73071","system_id":"levelo_inurba_marseille","lat":43.245487,"lon":5.395333,"is_reserved":false,"is_disabled":false,"rental_uris":{"android":"levelo://app?vid=ec12742a-6e05-4cdd-b969-14bccca73071","ios":"levelo://app?vid=ec12742a-6e05-4cdd-b969-14bccca73071"},"vehicle_type_id":"4","last_reported":1747465761,"current_range_meters":6000,"station_id":"ce4bhlp2rcd13ifvqgjg","pricing_plan_id":"cebpf4jnsgd1na2vs0mg"},{"bike_id":"f223be11-41a1-44c2-91df-17e24c32c326","system_id":"levelo_inurba_marseille","lat":43.27965,"lon":5.38748,"is_reserved":false,"is_disabled":true,"rental_uris":{"android":"levelo://app?vid=f223be11-41a1-44c2-91df-17e24c32c326","ios":"levelo://app?vid=f223be11-41a1-44c2-91df-17e24c32c326"},"vehicle_type_id":"4","last_reported":1747465761,"current_range_meters":6400,"station_id":"ce4bhg12rcd13ifvqf80","pricing_plan_id":"cebpf4jnsgd1na2vs0mg"},{"bike_id":"aa9a1660-e891-43ec-a01a-e727d3eb1341","system_id":"levelo_inurba_marseille","lat":43.30608,"lon":5.37216,"is_reserved":false,"is_disabled":false,"rental_uris":{"android":"levelo://app?vid=aa9a1660-e891-43ec-a01a-e727d3eb1341","ios":"levelo://app?vid=aa9a1660-e891-43ec-a01a-e727d3eb1341"},"vehicle_type_id":"4","last_reported":1747465761,"current_range_meters":6400,"station_id":"ce4bgqh2rcd13ifvqc4g","pricing_plan_id":"cebpf4jnsgd1na2vs0mg"},{"bike_id":"d06a81f7-6bbe-4687-bfbe-932949dc466c","system_id":"levelo_inurba_marseille","lat":43.261223,"lon":5.387537,"is_reserved":false,"is_disabled":false,"rental_uris":{"android":"levelo://app?vid=d06a81f7-6bbe-4687-bfbe-932949dc466c","ios":"levelo://app?vid=d06a81f7-6bbe-4687-bfbe-932949dc466c"},"vehicle_type_id":"4","last_reported":1747465761,"current_range_meters":6400,"station_id":"","pricing_plan_id":"cebpf4jnsgd1na2vs0mg"},{"bike_id":"2e74be5f-20f2-44a2-bc00-047bfe1be06d","system_id":"levelo_inurba_marseille","lat":43.278111,"lon":5.407453,"is_reserved":false,"is_disabled":true,"rental_uris":{"android":"levelo://app?vid=2e74be5f-20f2-44a2-bc00-047bfe1be06d","ios":"levelo://app?vid=2e74be5f-20f2-44a2-bc00-047bfe1be06d"},"vehicle_type_id":"4","last_reported":1747465761,"current_range_meters":6400,"station_id":"ce4bhnh2rcd13ifvqgtg","pricing_plan_id":"cebpf4jnsgd1na2vs0mg"},{"bike_id":"c0b9fd4f-e181-46ce-b0bf-f5119973334f","system_id":"levelo_inurba_marseille","lat":43.33771,"lon":5.37424,"is_reserved":false,"is_disabled":false,"rental_uris":{"android":"levelo://app?vid=c0b9fd4f-e181-46ce-b0bf-f5119973334f","ios":"levelo://app?vid=c0b9fd4f-e181-46ce-b0bf-f5119973334f"},"vehicle_type_id":"4","last_reported":1747465761,"current_range_meters":6400,"station_id":"","pricing_plan_id":"cebpf4jnsgd1na2vs0mg"},{"bike_id":"a7fd0861-fa86-48c1-a42f-40fb1b26955e","system_id":"levelo_inurba_marseille","lat":43.279864,"lon":5.416673,"is_reserved":false,"is_disabled":false,"rental_uris":{"android":"levelo://app?vid=a7fd0861-fa86-48c1-a42f-40fb1b26955e","ios":"levelo://app?vid=a7fd0861-fa86-48c1-a42f-40fb1b26955e"},"vehicle_type_id":"4","last_reported":1747465761,"current_range_meters":6800,"station_id":"ce4bho12rcd13ifvqh1g","pricing_plan_id":"cebpf4jnsgd1na2vs0mg"},{"bike_id":"2e4b953c-c5c4-4da2-8508-c26511f17bdc","system_id":"levelo_inurba_marseille","lat":43.30594,"lon":5.39353,"is_reserved":false,"is_disabled":false,"rental_uris":{"android":"levelo://app?vid=2e4b953c-c5c4-4da2-8508-c26511f17bdc","ios":"levelo://app?vid=2e4b953c-c5c4-4da2-8508-c26511f17bdc"},"vehicle_type_id":"4","last_reported":1747465761,"current_range_meters":6800,"station_id":"ce4bh0p2rcd13ifvqd80","pricing_plan_id":"cebpf4jnsgd1na2vs0mg"},{"bike_id":"77f65eb3-394f-46d8-943d-f920ee3ea5dc","system_id":"levelo_inurba_marseille","lat":43.3015,"lon":5.38054,"is_reserved":false,"is_disabled":false,"rental_uris":{"android":"levelo://app?vid=77f65eb3-394f-46d8-943d-f920ee3ea5dc","ios":"levelo://app?vid=77f65eb3-394f-46d8-943d-f920ee3ea5dc"},"vehicle_type_id":"4","last_reported":1747465761,"current_range_meters":6800,"station_id":"ce4bgjp2rcd13ifvqbh0","pricing_plan_id":"cebpf4jnsgd1na2vs0mg"},{"bike_id":"02288632-79f4-483c-92bd-91cd61a950da","system_id":"levelo_inurba_marseille","lat":43.296417,"lon":5.36215,"is_reserved":false,"is_disabled":false,"rental_uris":{"android":"levelo://app?vid=02288632-79f4-483c-92bd-91cd61a950da","ios":"levelo://app?vid=02288632-79f4-483c-92bd-91cd61a950da"},"vehicle_type_id":"4","last_reported":1747465761,"current_range_meters":6800,"station_id":"","pricing_plan_id":"cebpf4jnsgd1na2vs0mg"},{"bike_id":"345cffa0-29b1-4e14-91c8-8f581afe5ee4","system_id":"levelo_inurba_marseille","lat":43.291892,"lon":5.393209,"is_reserved":false,"is_disabled":true,"rental_uris":{"android":"levelo://app?vid=345cffa0-29b1-4e14-91c8-8f581afe5ee4","ios":"levelo://app?vid=345cffa0-29b1-4e14-91c8-8f581afe5ee4"},"vehicle_type_id":"4","last_reported":1747465761,"current_range_meters":6800,"station_id":"ce4bh192rcd13ifvqdd0","pricing_plan_id":"cebpf4jnsgd1na2vs0mg"},{"bike_id":"2a568bc0-5fd2-4e0d-94a5-b29ffed9da04","system_id":"levelo_inurba_marseille","lat":43.2417,"lon":5.36396,"is_reserved":false,"is_disabled":false,"rental_uris":{"android":"levelo://app?vid=2a568bc0-5fd2-4e0d-94a5-b29ffed9da04","ios":"levelo://app?vid=2a568bc0-5fd2-4e0d-94a5-b29ffed9da04"},"vehicle_type_id":"4","last_reported":1747465761,"current_range_meters":6800,"station_id":"cpo36qri1sfpv3e86is0","pricing_plan_id":"cebpf4jnsgd1na2vs0mg"},{"bike_id":"662c704c-262b-45ad-934a-11f31825a2ce","system_id":"levelo_inurba_marseille","lat":43.2937,"lon":5.37838,"is_reserved":false,"is_disabled":false,"rental_uris":{"android":"levelo://app?vid=662c704c-262b-45ad-934a-11f31825a2ce","ios":"levelo://app?vid=662c704c-262b-45ad-934a-11f31825a2ce"},"vehicle_type_id":"4","last_reported":1747465761,"current_range_meters":6800,"station_id":"","pricing_plan_id":"cebpf4jnsgd1na2vs0mg"},{"bike_id":"3f079fc7-ecaa-4d73-a2c6-c82db3a059f1","system_id":"levelo_inurba_marseille","lat":43.319067,"lon":5.407943,"is_reserved":false,"is_disabled":false,"rental_uris":{"android":"levelo://app?vid=3f079fc7-ecaa-4d73-a2c6-c82db3a059f1","ios":"levelo://app?vid=3f079fc7-ecaa-4d73-a2c6-c82db3a059f1"},"vehicle_type_id":"4","last_reported":1747465761,"current_range_meters":7200,"station_id":"ce4bhq12rcd13ifvqhig","pricing_plan_id":"cebpf4jnsgd1na2vs0mg"},{"bike_id":"5472ecea-0624-4fd8-a912-e7b488153f81","system_id":"levelo_inurba_marseille","lat":43.2439,"lon":5.37058,"is_reserved":false,"is_disabled":false,"rental_uris":{"android":"levelo://app?vid=5472ecea-0624-4fd8-a912-e7b488153f81","ios":"levelo://app?vid=5472ecea-0624-4fd8-a912-e7b488153f81"},"vehicle_type_id":"4","last_reported":1747465761,"current_range_meters":7200,"station_id":"ce4bhhh2rcd13ifvqfk0","pricing_plan_id":"cebpf4jnsgd1na2vs0mg"},{"bike_id":"3f32939c-16d7-411d-a347-787601b943a3","system_id":"levelo_inurba_marseille","lat":43.30592,"lon":5.3935,"is_reserved":false,"is_disabled":false,"rental_uris":{"android":"levelo://app?vid=3f32939c-16d7-411d-a347-787601b943a3","ios":"levelo://app?vid=3f32939c-16d7-411d-a347-787601b943a3"},"vehicle_type_id":"4","last_reported":1747465761,"current_range_meters":7200,"station_id":"ce4bh0p2rcd13ifvqd80","pricing_plan_id":"cebpf4jnsgd1na2vs0mg"},{"bike_id":"108a7c7c-26f2-4a38-ad85-3fea870e173d","system_id":"levelo_inurba_marseille","lat":43.251039,"lon":5.403306,"is_reserved":false,"is_disabled":false,"rental_uris":{"android":"levelo://app?vid=108a7c7c-26f2-4a38-ad85-3fea870e173d","ios":"levelo://app?vid=108a7c7c-26f2-4a38-ad85-3fea870e173d"},"vehicle_type_id":"4","last_reported":1747465761,"current_range_meters":7200,"station_id":"ce4bhlh2rcd13ifvqgig","pricing_plan_id":"cebpf4jnsgd1na2vs0mg"},{"bike_id":"1b515eb5-f42d-4825-abba-489a6df3bcaa","system_id":"levelo_inurba_marseille","lat":43.27952,"lon":5.38717,"is_reserved":false,"is_disabled":true,"rental_uris":{"android":"levelo://app?vid=1b515eb5-f42d-4825-abba-489a6df3bcaa","ios":"levelo://app?vid=1b515eb5-f42d-4825-abba-489a6df3bcaa"},"vehicle_type_id":"4","last_reported":1747465761,"current_range_meters":7200,"station_id":"ce4bhg12rcd13ifvqf80","pricing_plan_id":"cebpf4jnsgd1na2vs0mg"},{"bike_id":"a866e083-b3d9-4a72-a457-f99f34c46039","system_id":"levelo_inurba_marseille","lat":43.23189,"lon":5.40003,"is_reserved":false,"is_disabled":false,"rental_uris":{"android":"levelo://app?vid=a866e083-b3d9-4a72-a457-f99f34c46039","ios":"levelo://app?vid=a866e083-b3d9-4a72-a457-f99f34c46039"},"vehicle_type_id":"4","last_reported":1747465761,"current_range_meters":7200,"station_id":"ce4bhn12rcd13ifvqgqg","pricing_plan_id":"cebpf4jnsgd1na2vs0mg"},{"bike_id":"6d36ce03-b344-4b5e-9465-9800cf819cb5","system_id":"levelo_inurba_marseille","lat":43.21205,"lon":5.35102,"is_reserved":false,"is_disabled":false,"rental_uris":{"android":"levelo://app?vid=6d36ce03-b344-4b5e-9465-9800cf819cb5","ios":"levelo://app?vid=6d36ce03-b344-4b5e-9465-9800cf819cb5"},"vehicle_type_id":"4","last_reported":1747465761,"current_range_meters":7200,"station_id":"st_cvj6sg6p6f1abm77japg","pricing_plan_id":"cebpf4jnsgd1na2vs0mg"},{"bike_id":"7438a3dc-7e35-453e-ba33-c11c46a43ab5","system_id":"levelo_inurba_marseille","lat":43.33729,"lon":5.39185,"is_reserved":false,"is_disabled":true,"rental_uris":{"android":"levelo://app?vid=7438a3dc-7e35-453e-ba33-c11c46a43ab5","ios":"levelo://app?vid=7438a3dc-7e35-453e-ba33-c11c46a43ab5"},"vehicle_type_id":"4","last_reported":1747465761,"current_range_meters":8000,"station_id":"ce4bhr92rcd13ifvqhsg","pricing_plan_id":"cebpf4jnsgd1na2vs0mg"},{"bike_id":"f0f7ca87-7ffb-46bd-ab65-ff44d1578193","system_id":"levelo_inurba_marseille","lat":43.323331,"lon":5.406328,"is_reserved":false,"is_disabled":false,"rental_uris":{"android":"levelo://app?vid=f0f7ca87-7ffb-46bd-ab65-ff44d1578193","ios":"levelo://app?vid=f0f7ca87-7ffb-46bd-ab65-ff44d1578193"},"vehicle_type_id":"4","last_reported":1747465761,"current_range_meters":8000,"station_id":"ce4bhq92rcd13ifvqhjg","pricing_plan_id":"cebpf4jnsgd1na2vs0mg"},{"bike_id":"14840cde-cb2f-425a-a53d-0e3063d2ef0b","system_id":"levelo_inurba_marseille","lat":43.30151,"lon":5.381,"is_reserved":false,"is_disabled":false,"rental_uris":{"android":"levelo://app?vid=14840cde-cb2f-425a-a53d-0e3063d2ef0b","ios":"levelo://app?vid=14840cde-cb2f-425a-a53d-0e3063d2ef0b"},"vehicle_type_id":"4","last_reported":1747465761,"current_range_meters":8000,"station_id":"ce4bgjp2rcd13ifvqbh0","pricing_plan_id":"cebpf4jnsgd1na2vs0mg"},{"bike_id":"9d29eb8a-633f-4a3f-bd84-0754a56c14c4","system_id":"levelo_inurba_marseille","lat":43.3246,"lon":5.36593,"is_reserved":false,"is_disabled":false,"rental_uris":{"android":"levelo://app?vid=9d29eb8a-633f-4a3f-bd84-0754a56c14c4","ios":"levelo://app?vid=9d29eb8a-633f-4a3f-bd84-0754a56c14c4"},"vehicle_type_id":"4","last_reported":1747465761,"current_range_meters":8000,"station_id":"ce4bhs12rcd13ifvqhvg","pricing_plan_id":"cebpf4jnsgd1na2vs0mg"},{"bike_id":"28a358fb-048a-4086-811f-95d871ad4f62","system_id":"levelo_inurba_marseille","lat":43.31265,"lon":5.41209,"is_reserved":false,"is_disabled":false,"rental_uris":{"android":"levelo://app?vid=28a358fb-048a-4086-811f-95d871ad4f62","ios":"levelo://app?vid=28a358fb-048a-4086-811f-95d871ad4f62"},"vehicle_type_id":"4","last_reported":1747465761,"current_range_meters":8000,"station_id":"","pricing_plan_id":"cebpf4jnsgd1na2vs0mg"},{"bike_id":"b17002df-4092-41c0-81f6-11460db0716f","system_id":"levelo_inurba_marseille","lat":43.26211,"lon":5.37441,"is_reserved":false,"is_disabled":false,"rental_uris":{"android":"levelo://app?vid=b17002df-4092-41c0-81f6-11460db0716f","ios":"levelo://app?vid=b17002df-4092-41c0-81f6-11460db0716f"},"vehicle_type_id":"4","last_reported":1747465761,"current_range_meters":8000,"station_id":"ce4bhgp2rcd13ifvqfc0","pricing_plan_id":"cebpf4jnsgd1na2vs0mg"},{"bike_id":"73e66585-2d40-4724-85dd-f499837d0a17","system_id":"levelo_inurba_marseille","lat":43.29611,"lon":5.3772,"is_reserved":false,"is_disabled":false,"rental_uris":{"android":"levelo://app?vid=73e66585-2d40-4724-85dd-f499837d0a17","ios":"levelo://app?vid=73e66585-2d40-4724-85dd-f499837d0a17"},"vehicle_type_id":"4","last_reported":1747465761,"current_range_meters":8000,"station_id":"ce4bgi92rcd13ifvqb90","pricing_plan_id":"cebpf4jnsgd1na2vs0mg"},{"bike_id":"5bd7c68d-bffc-45e6-bca1-d02bf7a1c1bb","system_id":"levelo_inurba_marseille","lat":43.258703,"lon":5.398976,"is_reserved":false,"is_disabled":false,"rental_uris":{"android":"levelo://app?vid=5bd7c68d-bffc-45e6-bca1-d02bf7a1c1bb","ios":"levelo://app?vid=5bd7c68d-bffc-45e6-bca1-d02bf7a1c1bb"},"vehicle_type_id":"4","last_reported":1747465761,"current_range_meters":8400,"station_id":"ce4bhl92rcd13ifvqghg","pricing_plan_id":"cebpf4jnsgd1na2vs0mg"},{"bike_id":"f3eb34bc-6bcb-4fd9-b39a-9c6c8ad071b5","system_id":"levelo_inurba_marseille","lat":43.26933,"lon":5.38913,"is_reserved":false,"is_disabled":false,"rental_uris":{"android":"levelo://app?vid=f3eb34bc-6bcb-4fd9-b39a-9c6c8ad071b5","ios":"levelo://app?vid=f3eb34bc-6bcb-4fd9-b39a-9c6c8ad071b5"},"vehicle_type_id":"4","last_reported":1747465761,"current_range_meters":8000,"station_id":"ce4bhhh2rcd13ifvqfl0","pricing_plan_id":"cebpf4jnsgd1na2vs0mg"},{"bike_id":"7a82acff-6b22-4ef7-a791-a420705624f3","system_id":"levelo_inurba_marseille","lat":43.23182,"lon":5.39989,"is_reserved":false,"is_disabled":false,"rental_uris":{"android":"levelo://app?vid=7a82acff-6b22-4ef7-a791-a420705624f3","ios":"levelo://app?vid=7a82acff-6b22-4ef7-a791-a420705624f3"},"vehicle_type_id":"4","last_reported":1747465761,"current_range_meters":8400,"station_id":"ce4bhn12rcd13ifvqgqg","pricing_plan_id":"cebpf4jnsgd1na2vs0mg"},{"bike_id":"3d6b5b36-a314-45fa-8bc0-68e5f98a5dde","system_id":"levelo_inurba_marseille","lat":43.229324,"lon":5.353904,"is_reserved":false,"is_disabled":false,"rental_uris":{"android":"levelo://app?vid=3d6b5b36-a314-45fa-8bc0-68e5f98a5dde","ios":"levelo://app?vid=3d6b5b36-a314-45fa-8bc0-68e5f98a5dde"},"vehicle_type_id":"4","last_reported":1747465761,"current_range_meters":8400,"station_id":"cpo3532slgdg3j2ikp40","pricing_plan_id":"cebpf4jnsgd1na2vs0mg"},{"bike_id":"4ff41869-c328-4063-b4fa-60ab379c05e8","system_id":"levelo_inurba_marseille","lat":43.30601,"lon":5.372312,"is_reserved":false,"is_disabled":false,"rental_uris":{"android":"levelo://app?vid=4ff41869-c328-4063-b4fa-60ab379c05e8","ios":"levelo://app?vid=4ff41869-c328-4063-b4fa-60ab379c05e8"},"vehicle_type_id":"4","last_reported":1747465761,"current_range_meters":8000,"station_id":"ce4bgqh2rcd13ifvqc4g","pricing_plan_id":"cebpf4jnsgd1na2vs0mg"},{"bike_id":"5cf74a5b-3237-4306-8708-835ce896cf40","system_id":"levelo_inurba_marseille","lat":43.31997,"lon":5.38137,"is_reserved":false,"is_disabled":false,"rental_uris":{"android":"levelo://app?vid=5cf74a5b-3237-4306-8708-835ce896cf40","ios":"levelo://app?vid=5cf74a5b-3237-4306-8708-835ce896cf40"},"vehicle_type_id":"4","last_reported":1747465761,"current_range_meters":8400,"station_id":"ce4bhr12rcd13ifvqhpg","pricing_plan_id":"cebpf4jnsgd1na2vs0mg"},{"bike_id":"f3b1a435-7ed8-43ea-bf76-4f3e5880364b","system_id":"levelo_inurba_marseille","lat":43.24231,"lon":5.3968,"is_reserved":false,"is_disabled":false,"rental_uris":{"android":"levelo://app?vid=f3b1a435-7ed8-43ea-bf76-4f3e5880364b","ios":"levelo://app?vid=f3b1a435-7ed8-43ea-bf76-4f3e5880364b"},"vehicle_type_id":"4","last_reported":1747465761,"current_range_meters":8400,"station_id":"ce4bhn12rcd13ifvqgpg","pricing_plan_id":"cebpf4jnsgd1na2vs0mg"},{"bike_id":"8cf75296-6b59-4787-bf18-cfee7fac28e0","system_id":"levelo_inurba_marseille","lat":43.2417,"lon":5.39717,"is_reserved":false,"is_disabled":false,"rental_uris":{"android":"levelo://app?vid=8cf75296-6b59-4787-bf18-cfee7fac28e0","ios":"levelo://app?vid=8cf75296-6b59-4787-bf18-cfee7fac28e0"},"vehicle_type_id":"4","last_reported":1747465761,"current_range_meters":8400,"station_id":"ce4bhn12rcd13ifvqgpg","pricing_plan_id":"cebpf4jnsgd1na2vs0mg"},{"bike_id":"38134588-529f-480a-b8d3-95e70d6e6fb9","system_id":"levelo_inurba_marseille","lat":43.21745,"lon":5.34603,"is_reserved":false,"is_disabled":true,"rental_uris":{"android":"levelo://app?vid=38134588-529f-480a-b8d3-95e70d6e6fb9","ios":"levelo://app?vid=38134588-529f-480a-b8d3-95e70d6e6fb9"},"vehicle_type_id":"4","last_reported":1747465761,"current_range_meters":8400,"station_id":"st_cvj6r9ubvosntc0bgbag","pricing_plan_id":"cebpf4jnsgd1na2vs0mg"},{"bike_id":"6772dc45-e1bf-4406-b09b-2bb90f8aadd1","system_id":"levelo_inurba_marseille","lat":43.25113,"lon":5.4033,"is_reserved":false,"is_disabled":false,"rental_uris":{"android":"levelo://app?vid=6772dc45-e1bf-4406-b09b-2bb90f8aadd1","ios":"levelo://app?vid=6772dc45-e1bf-4406-b09b-2bb90f8aadd1"},"vehicle_type_id":"4","last_reported":1747465761,"current_range_meters":8400,"station_id":"ce4bhlh2rcd13ifvqgig","pricing_plan_id":"cebpf4jnsgd1na2vs0mg"},{"bike_id":"b83840fc-e8b5-4516-afbe-00694cb37051","system_id":"levelo_inurba_marseille","lat":43.24388,"lon":5.37049,"is_reserved":false,"is_disabled":false,"rental_uris":{"android":"levelo://app?vid=b83840fc-e8b5-4516-afbe-00694cb37051","ios":"levelo://app?vid=b83840fc-e8b5-4516-afbe-00694cb37051"},"vehicle_type_id":"4","last_reported":1747465761,"current_range_meters":8400,"station_id":"ce4bhhh2rcd13ifvqfk0","pricing_plan_id":"cebpf4jnsgd1na2vs0mg"},{"bike_id":"7700771a-e395-4f95-bf70-80e30abd5318","system_id":"levelo_inurba_marseille","lat":43.295307,"lon":5.385434,"is_reserved":false,"is_disabled":false,"rental_uris":{"android":"levelo://app?vid=7700771a-e395-4f95-bf70-80e30abd5318","ios":"levelo://app?vid=7700771a-e395-4f95-bf70-80e30abd5318"},"vehicle_type_id":"4","last_reported":1747465761,"current_range_meters":8400,"station_id":"ce4bgih2rcd13ifvqba0","pricing_plan_id":"cebpf4jnsgd1na2vs0mg"},{"bike_id":"42f24b6e-57f2-4c79-b7b8-25261923df82","system_id":"levelo_inurba_marseille","lat":43.30947,"lon":5.39033,"is_reserved":false,"is_disabled":false,"rental_uris":{"android":"levelo://app?vid=42f24b6e-57f2-4c79-b7b8-25261923df82","ios":"levelo://app?vid=42f24b6e-57f2-4c79-b7b8-25261923df82"},"vehicle_type_id":"4","last_reported":1747465761,"current_range_meters":8800,"station_id":"ce4bgup2rcd13ifvqco0","pricing_plan_id":"cebpf4jnsgd1na2vs0mg"},{"bike_id":"cc997091-761a-4004-b43e-d05e1c15efff","system_id":"levelo_inurba_marseille","lat":43.23188,"lon":5.39991,"is_reserved":false,"is_disabled":false,"rental_uris":{"android":"levelo://app?vid=cc997091-761a-4004-b43e-d05e1c15efff","ios":"levelo://app?vid=cc997091-761a-4004-b43e-d05e1c15efff"},"vehicle_type_id":"4","last_reported":1747465761,"current_range_meters":8800,"station_id":"ce4bhn12rcd13ifvqgqg","pricing_plan_id":"cebpf4jnsgd1na2vs0mg"},{"bike_id":"44b99538-fb26-4f4c-9469-128b12406ff3","system_id":"levelo_inurba_marseille","lat":43.2866,"lon":5.36365,"is_reserved":false,"is_disabled":false,"rental_uris":{"android":"levelo://app?vid=44b99538-fb26-4f4c-9469-128b12406ff3","ios":"levelo://app?vid=44b99538-fb26-4f4c-9469-128b12406ff3"},"vehicle_type_id":"4","last_reported":1747465761,"current_range_meters":8800,"station_id":"ce4bhah2rcd13ifvqej0","pricing_plan_id":"cebpf4jnsgd1na2vs0mg"},{"bike_id":"6cd5c425-f8ac-4068-b8ea-a8bfbef29ee5","system_id":"levelo_inurba_marseille","lat":43.2499,"lon":5.37943,"is_reserved":false,"is_disabled":false,"rental_uris":{"android":"levelo://app?vid=6cd5c425-f8ac-4068-b8ea-a8bfbef29ee5","ios":"levelo://app?vid=6cd5c425-f8ac-4068-b8ea-a8bfbef29ee5"},"vehicle_type_id":"4","last_reported":1747465761,"current_range_meters":8800,"station_id":"","pricing_plan_id":"cebpf4jnsgd1na2vs0mg"},{"bike_id":"c42eb6c9-abfc-48f4-912e-2ed38fd920d9","system_id":"levelo_inurba_marseille","lat":43.28463,"lon":5.35902,"is_reserved":false,"is_disabled":false,"rental_uris":{"android":"levelo://app?vid=c42eb6c9-abfc-48f4-912e-2ed38fd920d9","ios":"levelo://app?vid=c42eb6c9-abfc-48f4-912e-2ed38fd920d9"},"vehicle_type_id":"4","last_reported":1747465761,"current_range_meters":8800,"station_id":"ce4bhah2rcd13ifvqei0","pricing_plan_id":"cebpf4jnsgd1na2vs0mg"},{"bike_id":"3e480d2f-8011-45e8-bab5-26452b394142","system_id":"levelo_inurba_marseille","lat":43.28669,"lon":5.36344,"is_reserved":false,"is_disabled":false,"rental_uris":{"android":"levelo://app?vid=3e480d2f-8011-45e8-bab5-26452b394142","ios":"levelo://app?vid=3e480d2f-8011-45e8-bab5-26452b394142"},"vehicle_type_id":"4","last_reported":1747465761,"current_range_meters":8800,"station_id":"ce4bhah2rcd13ifvqej0","pricing_plan_id":"cebpf4jnsgd1na2vs0mg"},{"bike_id":"71abf16d-0037-4503-8336-9084f9a4a4ec","system_id":"levelo_inurba_marseille","lat":43.30937,"lon":5.40159,"is_reserved":false,"is_disabled":false,"rental_uris":{"android":"levelo://app?vid=71abf16d-0037-4503-8336-9084f9a4a4ec","ios":"levelo://app?vid=71abf16d-0037-4503-8336-9084f9a4a4ec"},"vehicle_type_id":"4","last_reported":1747465761,"current_range_meters":8800,"station_id":"ce4bgvp2rcd13ifvqct0","pricing_plan_id":"cebpf4jnsgd1na2vs0mg"},{"bike_id":"79b0f212-a412-4d78-9698-18a7ce0ce6cd","system_id":"levelo_inurba_marseille","lat":43.23368,"lon":5.36057,"is_reserved":false,"is_disabled":false,"rental_uris":{"android":"levelo://app?vid=79b0f212-a412-4d78-9698-18a7ce0ce6cd","ios":"levelo://app?vid=79b0f212-a412-4d78-9698-18a7ce0ce6cd"},"vehicle_type_id":"4","last_reported":1747465761,"current_range_meters":9200,"station_id":"","pricing_plan_id":"cebpf4jnsgd1na2vs0mg"},{"bike_id":"ad5f9cf6-9c88-49f6-b4d6-7ea60bde5bb4","system_id":"levelo_inurba_marseille","lat":43.30899,"lon":5.39639,"is_reserved":false,"is_disabled":false,"rental_uris":{"android":"levelo://app?vid=ad5f9cf6-9c88-49f6-b4d6-7ea60bde5bb4","ios":"levelo://app?vid=ad5f9cf6-9c88-49f6-b4d6-7ea60bde5bb4"},"vehicle_type_id":"4","last_reported":1747465761,"current_range_meters":9200,"station_id":"ce4bh012rcd13ifvqcv0","pricing_plan_id":"cebpf4jnsgd1na2vs0mg"},{"bike_id":"3ffcec4a-cc56-47e3-8ab2-b32fcdc71194","system_id":"levelo_inurba_marseille","lat":43.30931,"lon":5.40148,"is_reserved":false,"is_disabled":false,"rental_uris":{"android":"levelo://app?vid=3ffcec4a-cc56-47e3-8ab2-b32fcdc71194","ios":"levelo://app?vid=3ffcec4a-cc56-47e3-8ab2-b32fcdc71194"},"vehicle_type_id":"4","last_reported":1747465761,"current_range_meters":9200,"station_id":"ce4bgvp2rcd13ifvqct0","pricing_plan_id":"cebpf4jnsgd1na2vs0mg"},{"bike_id":"4627f3d1-17fd-49b2-9a60-3f90cc9b16e5","system_id":"levelo_inurba_marseille","lat":43.317173,"lon":5.43687,"is_reserved":false,"is_disabled":false,"rental_uris":{"android":"levelo://app?vid=4627f3d1-17fd-49b2-9a60-3f90cc9b16e5","ios":"levelo://app?vid=4627f3d1-17fd-49b2-9a60-3f90cc9b16e5"},"vehicle_type_id":"4","last_reported":1747465761,"current_range_meters":9200,"station_id":"ce4bhp92rcd13ifvqhcg","pricing_plan_id":"cebpf4jnsgd1na2vs0mg"},{"bike_id":"0a0babc2-26c5-42ba-a79e-338dfe361b88","system_id":"levelo_inurba_marseille","lat":43.240509,"lon":5.377712,"is_reserved":false,"is_disabled":false,"rental_uris":{"android":"levelo://app?vid=0a0babc2-26c5-42ba-a79e-338dfe361b88","ios":"levelo://app?vid=0a0babc2-26c5-42ba-a79e-338dfe361b88"},"vehicle_type_id":"4","last_reported":1747465761,"current_range_meters":9200,"station_id":"ce4bhnp2rcd13ifvqgvg","pricing_plan_id":"cebpf4jnsgd1na2vs0mg"},{"bike_id":"af4d8ae5-b5e3-4ba4-bb1f-49c4a5ed79fd","system_id":"levelo_inurba_marseille","lat":43.294118,"lon":5.430056,"is_reserved":false,"is_disabled":false,"rental_uris":{"android":"levelo://app?vid=af4d8ae5-b5e3-4ba4-bb1f-49c4a5ed79fd","ios":"levelo://app?vid=af4d8ae5-b5e3-4ba4-bb1f-49c4a5ed79fd"},"vehicle_type_id":"4","last_reported":1747465761,"current_range_meters":9200,"station_id":"","pricing_plan_id":"cebpf4jnsgd1na2vs0mg"},{"bike_id":"27e33b16-e32e-4fc5-9e3a-725b4b529a66","system_id":"levelo_inurba_marseille","lat":43.27975,"lon":5.38707,"is_reserved":false,"is_disabled":false,"rental_uris":{"android":"levelo://app?vid=27e33b16-e32e-4fc5-9e3a-725b4b529a66","ios":"levelo://app?vid=27e33b16-e32e-4fc5-9e3a-725b4b529a66"},"vehicle_type_id":"4","last_reported":1747465761,"current_range_meters":9200,"station_id":"ce4bhg12rcd13ifvqf80","pricing_plan_id":"cebpf4jnsgd1na2vs0mg"},{"bike_id":"a0e9d505-cf02-46ac-8830-1ac6326a531c","system_id":"levelo_inurba_marseille","lat":43.286979,"lon":5.399852,"is_reserved":false,"is_disabled":false,"rental_uris":{"android":"levelo://app?vid=a0e9d505-cf02-46ac-8830-1ac6326a531c","ios":"levelo://app?vid=a0e9d505-cf02-46ac-8830-1ac6326a531c"},"vehicle_type_id":"4","last_reported":1747465761,"current_range_meters":9200,"station_id":"ce4bho92rcd13ifvqh3g","pricing_plan_id":"cebpf4jnsgd1na2vs0mg"},{"bike_id":"bd444cd5-f32e-4a92-b2cb-b72f6429bc23","system_id":"levelo_inurba_marseille","lat":43.31704,"lon":5.37809,"is_reserved":false,"is_disabled":true,"rental_uris":{"android":"levelo://app?vid=bd444cd5-f32e-4a92-b2cb-b72f6429bc23","ios":"levelo://app?vid=bd444cd5-f32e-4a92-b2cb-b72f6429bc23"},"vehicle_type_id":"4","last_reported":1747465761,"current_range_meters":9600,"station_id":"","pricing_plan_id":"cebpf4jnsgd1na2vs0mg"},{"bike_id":"4bb33cf8-ba2b-4943-9e07-00506ea3cdca","system_id":"levelo_inurba_marseille","lat":43.248101,"lon":5.374595,"is_reserved":false,"is_disabled":false,"rental_uris":{"android":"levelo://app?vid=4bb33cf8-ba2b-4943-9e07-00506ea3cdca","ios":"levelo://app?vid=4bb33cf8-ba2b-4943-9e07-00506ea3cdca"},"vehicle_type_id":"4","last_reported":1747465761,"current_range_meters":9600,"station_id":"ce4bhgh2rcd13ifvqfb0","pricing_plan_id":"cebpf4jnsgd1na2vs0mg"},{"bike_id":"23de4f24-001e-4fd1-971b-148888710371","system_id":"levelo_inurba_marseille","lat":43.32366,"lon":5.38881,"is_reserved":false,"is_disabled":false,"rental_uris":{"android":"levelo://app?vid=23de4f24-001e-4fd1-971b-148888710371","ios":"levelo://app?vid=23de4f24-001e-4fd1-971b-148888710371"},"vehicle_type_id":"4","last_reported":1747465761,"current_range_meters":9600,"station_id":"ce4bhqp2rcd13ifvqhog","pricing_plan_id":"cebpf4jnsgd1na2vs0mg"},{"bike_id":"fd36f2b2-ab3f-4773-a649-0c532c529c78","system_id":"levelo_inurba_marseille","lat":43.26563,"lon":5.37274,"is_reserved":false,"is_disabled":false,"rental_uris":{"android":"levelo://app?vid=fd36f2b2-ab3f-4773-a649-0c532c529c78","ios":"levelo://app?vid=fd36f2b2-ab3f-4773-a649-0c532c529c78"},"vehicle_type_id":"4","last_reported":1747465761,"current_range_meters":9600,"station_id":"ce4bhg12rcd13ifvqf70","pricing_plan_id":"cebpf4jnsgd1na2vs0mg"},{"bike_id":"09672746-a858-4b2b-a2b6-6bb3133618d3","system_id":"levelo_inurba_marseille","lat":43.28626,"lon":5.35133,"is_reserved":false,"is_disabled":true,"rental_uris":{"android":"levelo://app?vid=09672746-a858-4b2b-a2b6-6bb3133618d3","ios":"levelo://app?vid=09672746-a858-4b2b-a2b6-6bb3133618d3"},"vehicle_type_id":"4","last_reported":1747465761,"current_range_meters":9600,"station_id":"ce4bhch2rcd13ifvqeug","pricing_plan_id":"cebpf4jnsgd1na2vs0mg"},{"bike_id":"cad9fb0f-bb16-4010-b224-573db27f6693","system_id":"levelo_inurba_marseille","lat":43.30592,"lon":5.37246,"is_reserved":false,"is_disabled":false,"rental_uris":{"android":"levelo://app?vid=cad9fb0f-bb16-4010-b224-573db27f6693","ios":"levelo://app?vid=cad9fb0f-bb16-4010-b224-573db27f6693"},"vehicle_type_id":"4","last_reported":1747465761,"current_range_meters":9600,"station_id":"ce4bgqh2rcd13ifvqc4g","pricing_plan_id":"cebpf4jnsgd1na2vs0mg"},{"bike_id":"ea6556fe-f5d9-4747-88c3-53fb3077109f","system_id":"levelo_inurba_marseille","lat":43.29228,"lon":5.36836,"is_reserved":false,"is_disabled":false,"rental_uris":{"android":"levelo://app?vid=ea6556fe-f5d9-4747-88c3-53fb3077109f","ios":"levelo://app?vid=ea6556fe-f5d9-4747-88c3-53fb3077109f"},"vehicle_type_id":"4","last_reported":1747465761,"current_range_meters":10000,"station_id":"ce4bhbp2rcd13ifvqesg","pricing_plan_id":"cebpf4jnsgd1na2vs0mg"},{"bike_id":"04a399ff-d171-455a-9dfd-cc7951e5353a","system_id":"levelo_inurba_marseille","lat":43.28727,"lon":5.36083,"is_reserved":false,"is_disabled":false,"rental_uris":{"android":"levelo://app?vid=04a399ff-d171-455a-9dfd-cc7951e5353a","ios":"levelo://app?vid=04a399ff-d171-455a-9dfd-cc7951e5353a"},"vehicle_type_id":"4","last_reported":1747465761,"current_range_meters":10000,"station_id":"cki0cbj6b192h4jlfktg","pricing_plan_id":"cebpf4jnsgd1na2vs0mg"},{"bike_id":"f29a82b1-b1c6-469a-ad31-486669e75362","system_id":"levelo_inurba_marseille","lat":43.28209,"lon":5.390668,"is_reserved":false,"is_disabled":false,"rental_uris":{"android":"levelo://app?vid=f29a82b1-b1c6-469a-ad31-486669e75362","ios":"levelo://app?vid=f29a82b1-b1c6-469a-ad31-486669e75362"},"vehicle_type_id":"4","last_reported":1747465761,"current_range_meters":10000,"station_id":"","pricing_plan_id":"cebpf4jnsgd1na2vs0mg"},{"bike_id":"af44d4a3-d6a4-4f2a-9ee4-ed38f31a9dc5","system_id":"levelo_inurba_marseille","lat":43.248,"lon":5.3745,"is_reserved":false,"is_disabled":false,"rental_uris":{"android":"levelo://app?vid=af44d4a3-d6a4-4f2a-9ee4-ed38f31a9dc5","ios":"levelo://app?vid=af44d4a3-d6a4-4f2a-9ee4-ed38f31a9dc5"},"vehicle_type_id":"4","last_reported":1747465761,"current_range_meters":10800,"station_id":"ce4bhgh2rcd13ifvqfb0","pricing_plan_id":"cebpf4jnsgd1na2vs0mg"},{"bike_id":"248354d9-319a-4fda-a327-9b1e5e28cf99","system_id":"levelo_inurba_marseille","lat":43.29517,"lon":5.37487,"is_reserved":false,"is_disabled":true,"rental_uris":{"android":"levelo://app?vid=248354d9-319a-4fda-a327-9b1e5e28cf99","ios":"levelo://app?vid=248354d9-319a-4fda-a327-9b1e5e28cf99"},"vehicle_type_id":"4","last_reported":1747465761,"current_range_meters":10800,"station_id":"ce4bgkp2rcd13ifvqbmg","pricing_plan_id":"cebpf4jnsgd1na2vs0mg"},{"bike_id":"b6722871-ecb9-4532-8e24-3cb5e6fa1809","system_id":"levelo_inurba_marseille","lat":43.27219,"lon":5.39192,"is_reserved":false,"is_disabled":false,"rental_uris":{"android":"levelo://app?vid=b6722871-ecb9-4532-8e24-3cb5e6fa1809","ios":"levelo://app?vid=b6722871-ecb9-4532-8e24-3cb5e6fa1809"},"vehicle_type_id":"4","last_reported":1747465761,"current_range_meters":10800,"station_id":"ce4bhhp2rcd13ifvqfm0","pricing_plan_id":"cebpf4jnsgd1na2vs0mg"},{"bike_id":"7cbdc971-01b0-4484-b100-9c9e371e07d6","system_id":"levelo_inurba_marseille","lat":43.3031,"lon":5.39195,"is_reserved":false,"is_disabled":false,"rental_uris":{"android":"levelo://app?vid=7cbdc971-01b0-4484-b100-9c9e371e07d6","ios":"levelo://app?vid=7cbdc971-01b0-4484-b100-9c9e371e07d6"},"vehicle_type_id":"4","last_reported":1747465761,"current_range_meters":10800,"station_id":"ce4bgkh2rcd13ifvqbk0","pricing_plan_id":"cebpf4jnsgd1na2vs0mg"},{"bike_id":"6b22d085-5486-4c2f-8819-3b8733106875","system_id":"levelo_inurba_marseille","lat":43.292758,"lon":5.401504,"is_reserved":false,"is_disabled":false,"rental_uris":{"android":"levelo://app?vid=6b22d085-5486-4c2f-8819-3b8733106875","ios":"levelo://app?vid=6b22d085-5486-4c2f-8819-3b8733106875"},"vehicle_type_id":"4","last_reported":1747465761,"current_range_meters":10800,"station_id":"ce4bh312rcd13ifvqdk0","pricing_plan_id":"cebpf4jnsgd1na2vs0mg"},{"bike_id":"b172ece0-93c6-494c-a97d-ea053cc8e9b6","system_id":"levelo_inurba_marseille","lat":43.26225,"lon":5.40456,"is_reserved":false,"is_disabled":false,"rental_uris":{"android":"levelo://app?vid=b172ece0-93c6-494c-a97d-ea053cc8e9b6","ios":"levelo://app?vid=b172ece0-93c6-494c-a97d-ea053cc8e9b6"},"vehicle_type_id":"4","last_reported":1747465761,"current_range_meters":11200,"station_id":"ce4bhmh2rcd13ifvqgmg","pricing_plan_id":"cebpf4jnsgd1na2vs0mg"},{"bike_id":"e5a2b069-efb7-48e5-8628-944f65ddff23","system_id":"levelo_inurba_marseille","lat":43.28423,"lon":5.37547,"is_reserved":false,"is_disabled":false,"rental_uris":{"android":"levelo://app?vid=e5a2b069-efb7-48e5-8628-944f65ddff23","ios":"levelo://app?vid=e5a2b069-efb7-48e5-8628-944f65ddff23"},"vehicle_type_id":"4","last_reported":1747465761,"current_range_meters":11200,"station_id":"ce4bh412rcd13ifvqds0","pricing_plan_id":"cebpf4jnsgd1na2vs0mg"},{"bike_id":"9ab80c09-a66e-490c-af4e-4ca4b7dc42ea","system_id":"levelo_inurba_marseille","lat":43.29119,"lon":5.37977,"is_reserved":false,"is_disabled":false,"rental_uris":{"android":"levelo://app?vid=9ab80c09-a66e-490c-af4e-4ca4b7dc42ea","ios":"levelo://app?vid=9ab80c09-a66e-490c-af4e-4ca4b7dc42ea"},"vehicle_type_id":"4","last_reported":1747465761,"current_range_meters":11200,"station_id":"","pricing_plan_id":"cebpf4jnsgd1na2vs0mg"},{"bike_id":"c462edac-629f-47ae-91a1-fc91820cc32c","system_id":"levelo_inurba_marseille","lat":43.2929,"lon":5.37149,"is_reserved":false,"is_disabled":true,"rental_uris":{"android":"levelo://app?vid=c462edac-629f-47ae-91a1-fc91820cc32c","ios":"levelo://app?vid=c462edac-629f-47ae-91a1-fc91820cc32c"},"vehicle_type_id":"4","last_reported":1747465761,"current_range_meters":11600,"station_id":"ce4bgh92rcd13ifvqb40","pricing_plan_id":"cebpf4jnsgd1na2vs0mg"},{"bike_id":"ab6ea088-36b9-4853-9cb2-123cb287e172","system_id":"levelo_inurba_marseille","lat":43.265664,"lon":5.390213,"is_reserved":false,"is_disabled":false,"rental_uris":{"android":"levelo://app?vid=ab6ea088-36b9-4853-9cb2-123cb287e172","ios":"levelo://app?vid=ab6ea088-36b9-4853-9cb2-123cb287e172"},"vehicle_type_id":"4","last_reported":1747465761,"current_range_meters":11600,"station_id":"ce4bhe12rcd13ifvqf30","pricing_plan_id":"cebpf4jnsgd1na2vs0mg"},{"bike_id":"502c8013-59fe-4314-a741-365f546e970a","system_id":"levelo_inurba_marseille","lat":43.26205,"lon":5.37933,"is_reserved":false,"is_disabled":false,"rental_uris":{"android":"levelo://app?vid=502c8013-59fe-4314-a741-365f546e970a","ios":"levelo://app?vid=502c8013-59fe-4314-a741-365f546e970a"},"vehicle_type_id":"4","last_reported":1747465761,"current_range_meters":11600,"station_id":"ce4bhjp2rcd13ifvqg90","pricing_plan_id":"cebpf4jnsgd1na2vs0mg"},{"bike_id":"ca0494d9-e930-4044-af09-5b78819ea4cc","system_id":"levelo_inurba_marseille","lat":43.29825,"lon":5.381359,"is_reserved":false,"is_disabled":false,"rental_uris":{"android":"levelo://app?vid=ca0494d9-e930-4044-af09-5b78819ea4cc","ios":"levelo://app?vid=ca0494d9-e930-4044-af09-5b78819ea4cc"},"vehicle_type_id":"4","last_reported":1747465761,"current_range_meters":11600,"station_id":"ce4bgip2rcd13ifvqbb0","pricing_plan_id":"cebpf4jnsgd1na2vs0mg"},{"bike_id":"91751125-f428-4b24-8704-b467624820c5","system_id":"levelo_inurba_marseille","lat":43.29976,"lon":5.38491,"is_reserved":false,"is_disabled":false,"rental_uris":{"android":"levelo://app?vid=91751125-f428-4b24-8704-b467624820c5","ios":"levelo://app?vid=91751125-f428-4b24-8704-b467624820c5"},"vehicle_type_id":"4","last_reported":1747465761,"current_range_meters":11600,"station_id":"ce4bgj92rcd13ifvqbd0","pricing_plan_id":"cebpf4jnsgd1na2vs0mg"},{"bike_id":"1d8f1730-ea4d-43b7-a771-8131fcd039a0","system_id":"levelo_inurba_marseille","lat":43.30897,"lon":5.37202,"is_reserved":false,"is_disabled":false,"rental_uris":{"android":"levelo://app?vid=1d8f1730-ea4d-43b7-a771-8131fcd039a0","ios":"levelo://app?vid=1d8f1730-ea4d-43b7-a771-8131fcd039a0"},"vehicle_type_id":"4","last_reported":1747465761,"current_range_meters":11600,"station_id":"ce4bguh2rcd13ifvqckg","pricing_plan_id":"cebpf4jnsgd1na2vs0mg"},{"bike_id":"b04bd58d-ab68-46b4-9085-1ddf540e912e","system_id":"levelo_inurba_marseille","lat":43.24078,"lon":5.3775,"is_reserved":false,"is_disabled":true,"rental_uris":{"android":"levelo://app?vid=b04bd58d-ab68-46b4-9085-1ddf540e912e","ios":"levelo://app?vid=b04bd58d-ab68-46b4-9085-1ddf540e912e"},"vehicle_type_id":"4","last_reported":1747465761,"current_range_meters":11600,"station_id":"ce4bhnp2rcd13ifvqgvg","pricing_plan_id":"cebpf4jnsgd1na2vs0mg"},{"bike_id":"31b89f00-75f1-4490-aeef-60fc737d9aba","system_id":"levelo_inurba_marseille","lat":43.28666,"lon":5.36352,"is_reserved":false,"is_disabled":false,"rental_uris":{"android":"levelo://app?vid=31b89f00-75f1-4490-aeef-60fc737d9aba","ios":"levelo://app?vid=31b89f00-75f1-4490-aeef-60fc737d9aba"},"vehicle_type_id":"4","last_reported":1747465761,"current_range_meters":12400,"station_id":"ce4bhah2rcd13ifvqej0","pricing_plan_id":"cebpf4jnsgd1na2vs0mg"},{"bike_id":"6da655b8-0421-4e8a-ae32-6637af746f6a","system_id":"levelo_inurba_marseille","lat":43.268167,"lon":5.41102,"is_reserved":false,"is_disabled":false,"rental_uris":{"android":"levelo://app?vid=6da655b8-0421-4e8a-ae32-6637af746f6a","ios":"levelo://app?vid=6da655b8-0421-4e8a-ae32-6637af746f6a"},"vehicle_type_id":"4","last_reported":1747465761,"current_range_meters":12000,"station_id":"","pricing_plan_id":"cebpf4jnsgd1na2vs0mg"},{"bike_id":"19c521fa-a5d0-4231-9162-abbe8238300e","system_id":"levelo_inurba_marseille","lat":43.29795,"lon":5.381477,"is_reserved":false,"is_disabled":false,"rental_uris":{"android":"levelo://app?vid=19c521fa-a5d0-4231-9162-abbe8238300e","ios":"levelo://app?vid=19c521fa-a5d0-4231-9162-abbe8238300e"},"vehicle_type_id":"4","last_reported":1747465761,"current_range_meters":12000,"station_id":"ce4bgip2rcd13ifvqbb0","pricing_plan_id":"cebpf4jnsgd1na2vs0mg"},{"bike_id":"7b2a2320-083d-4628-967a-f7875e15f7a9","system_id":"levelo_inurba_marseille","lat":43.29175,"lon":5.37153,"is_reserved":false,"is_disabled":false,"rental_uris":{"android":"levelo://app?vid=7b2a2320-083d-4628-967a-f7875e15f7a9","ios":"levelo://app?vid=7b2a2320-083d-4628-967a-f7875e15f7a9"},"vehicle_type_id":"4","last_reported":1747465761,"current_range_meters":12400,"station_id":"ce4bha92rcd13ifvqeh0","pricing_plan_id":"cebpf4jnsgd1na2vs0mg"},{"bike_id":"ac89654e-1dc8-4920-855e-0dc7fab895c7","system_id":"levelo_inurba_marseille","lat":43.28271,"lon":5.35059,"is_reserved":false,"is_disabled":false,"rental_uris":{"android":"levelo://app?vid=ac89654e-1dc8-4920-855e-0dc7fab895c7","ios":"levelo://app?vid=ac89654e-1dc8-4920-855e-0dc7fab895c7"},"vehicle_type_id":"4","last_reported":1747465761,"current_range_meters":12400,"station_id":"ce4bhbp2rcd13ifvqerg","pricing_plan_id":"cebpf4jnsgd1na2vs0mg"},{"bike_id":"b8e6468b-87db-4ff6-8122-ef13bf5b7c8c","system_id":"levelo_inurba_marseille","lat":43.31379,"lon":5.37916,"is_reserved":false,"is_disabled":false,"rental_uris":{"android":"levelo://app?vid=b8e6468b-87db-4ff6-8122-ef13bf5b7c8c","ios":"levelo://app?vid=b8e6468b-87db-4ff6-8122-ef13bf5b7c8c"},"vehicle_type_id":"4","last_reported":1747465761,"current_range_meters":12400,"station_id":"","pricing_plan_id":"cebpf4jnsgd1na2vs0mg"},{"bike_id":"c38e9466-53e5-4619-b153-3ec5538e6124","system_id":"levelo_inurba_marseille","lat":43.23152,"lon":5.4371,"is_reserved":false,"is_disabled":false,"rental_uris":{"android":"levelo://app?vid=c38e9466-53e5-4619-b153-3ec5538e6124","ios":"levelo://app?vid=c38e9466-53e5-4619-b153-3ec5538e6124"},"vehicle_type_id":"4","last_reported":1747465761,"current_range_meters":12000,"station_id":"ce4bhmp2rcd13ifvqgog","pricing_plan_id":"cebpf4jnsgd1na2vs0mg"},{"bike_id":"755e2a9b-d57b-44d4-a01d-9d083097cd79","system_id":"levelo_inurba_marseille","lat":43.29895,"lon":5.43632,"is_reserved":false,"is_disabled":false,"rental_uris":{"android":"levelo://app?vid=755e2a9b-d57b-44d4-a01d-9d083097cd79","ios":"levelo://app?vid=755e2a9b-d57b-44d4-a01d-9d083097cd79"},"vehicle_type_id":"4","last_reported":1747465761,"current_range_meters":12400,"station_id":"ce4bhpp2rcd13ifvqhfg","pricing_plan_id":"cebpf4jnsgd1na2vs0mg"},{"bike_id":"2177b1d7-f686-4001-a2d5-99d12ff0980c","system_id":"levelo_inurba_marseille","lat":43.32484,"lon":5.36572,"is_reserved":false,"is_disabled":false,"rental_uris":{"android":"levelo://app?vid=2177b1d7-f686-4001-a2d5-99d12ff0980c","ios":"levelo://app?vid=2177b1d7-f686-4001-a2d5-99d12ff0980c"},"vehicle_type_id":"4","last_reported":1747465761,"current_range_meters":12400,"station_id":"ce4bhs12rcd13ifvqhvg","pricing_plan_id":"cebpf4jnsgd1na2vs0mg"},{"bike_id":"cb7af211-9e1d-4c6c-b126-9025015ce58b","system_id":"levelo_inurba_marseille","lat":43.30806,"lon":5.38158,"is_reserved":false,"is_disabled":false,"rental_uris":{"android":"levelo://app?vid=cb7af211-9e1d-4c6c-b126-9025015ce58b","ios":"levelo://app?vid=cb7af211-9e1d-4c6c-b126-9025015ce58b"},"vehicle_type_id":"4","last_reported":1747465761,"current_range_meters":12800,"station_id":"ce4bgt12rcd13ifvqce0","pricing_plan_id":"cebpf4jnsgd1na2vs0mg"},{"bike_id":"a0af3bfb-b2d7-4a69-ba04-7a6d5675a899","system_id":"levelo_inurba_marseille","lat":43.32553,"lon":5.41454,"is_reserved":false,"is_disabled":false,"rental_uris":{"android":"levelo://app?vid=a0af3bfb-b2d7-4a69-ba04-7a6d5675a899","ios":"levelo://app?vid=a0af3bfb-b2d7-4a69-ba04-7a6d5675a899"},"vehicle_type_id":"4","last_reported":1747465761,"current_range_meters":13600,"station_id":"ce4bhq12rcd13ifvqhhg","pricing_plan_id":"cebpf4jnsgd1na2vs0mg"},{"bike_id":"c96873c1-07ae-4fa5-9d39-77223fea8e8c","system_id":"levelo_inurba_marseille","lat":43.240621,"lon":5.377622,"is_reserved":false,"is_disabled":false,"rental_uris":{"android":"levelo://app?vid=c96873c1-07ae-4fa5-9d39-77223fea8e8c","ios":"levelo://app?vid=c96873c1-07ae-4fa5-9d39-77223fea8e8c"},"vehicle_type_id":"4","last_reported":1747465761,"current_range_meters":13600,"station_id":"ce4bhnp2rcd13ifvqgvg","pricing_plan_id":"cebpf4jnsgd1na2vs0mg"},{"bike_id":"fbb1d5d9-ba46-4d07-a8c6-39850e62c990","system_id":"levelo_inurba_marseille","lat":43.30464,"lon":5.37904,"is_reserved":false,"is_disabled":false,"rental_uris":{"android":"levelo://app?vid=fbb1d5d9-ba46-4d07-a8c6-39850e62c990","ios":"levelo://app?vid=fbb1d5d9-ba46-4d07-a8c6-39850e62c990"},"vehicle_type_id":"4","last_reported":1747465761,"current_range_meters":12800,"station_id":"ce4bgup2rcd13ifvqcn0","pricing_plan_id":"cebpf4jnsgd1na2vs0mg"},{"bike_id":"6e1bd625-3ec1-43df-9657-36d71ae09f8d","system_id":"levelo_inurba_marseille","lat":43.33739,"lon":5.37458,"is_reserved":false,"is_disabled":true,"rental_uris":{"android":"levelo://app?vid=6e1bd625-3ec1-43df-9657-36d71ae09f8d","ios":"levelo://app?vid=6e1bd625-3ec1-43df-9657-36d71ae09f8d"},"vehicle_type_id":"4","last_reported":1747465761,"current_range_meters":13600,"station_id":"","pricing_plan_id":"cebpf4jnsgd1na2vs0mg"},{"bike_id":"a4d7457e-a382-4ab7-9876-e9ba20692ec9","system_id":"levelo_inurba_marseille","lat":43.320273,"lon":5.38214,"is_reserved":false,"is_disabled":false,"rental_uris":{"android":"levelo://app?vid=a4d7457e-a382-4ab7-9876-e9ba20692ec9","ios":"levelo://app?vid=a4d7457e-a382-4ab7-9876-e9ba20692ec9"},"vehicle_type_id":"4","last_reported":1747465761,"current_range_meters":13600,"station_id":"","pricing_plan_id":"cebpf4jnsgd1na2vs0mg"},{"bike_id":"71c4dabc-fa3b-4076-bfa8-12e5aefbbb92","system_id":"levelo_inurba_marseille","lat":43.29271,"lon":5.40179,"is_reserved":false,"is_disabled":false,"rental_uris":{"android":"levelo://app?vid=71c4dabc-fa3b-4076-bfa8-12e5aefbbb92","ios":"levelo://app?vid=71c4dabc-fa3b-4076-bfa8-12e5aefbbb92"},"vehicle_type_id":"4","last_reported":1747465761,"current_range_meters":14000,"station_id":"","pricing_plan_id":"cebpf4jnsgd1na2vs0mg"},{"bike_id":"ff73f50f-d4f6-452f-b8c5-c3e016c11039","system_id":"levelo_inurba_marseille","lat":43.265763,"lon":5.390091,"is_reserved":false,"is_disabled":false,"rental_uris":{"android":"levelo://app?vid=ff73f50f-d4f6-452f-b8c5-c3e016c11039","ios":"levelo://app?vid=ff73f50f-d4f6-452f-b8c5-c3e016c11039"},"vehicle_type_id":"4","last_reported":1747465761,"current_range_meters":14000,"station_id":"ce4bhe12rcd13ifvqf30","pricing_plan_id":"cebpf4jnsgd1na2vs0mg"},{"bike_id":"844e0845-2667-404b-9f3a-f80940d0cad3","system_id":"levelo_inurba_marseille","lat":43.24827,"lon":5.37445,"is_reserved":false,"is_disabled":false,"rental_uris":{"android":"levelo://app?vid=844e0845-2667-404b-9f3a-f80940d0cad3","ios":"levelo://app?vid=844e0845-2667-404b-9f3a-f80940d0cad3"},"vehicle_type_id":"4","last_reported":1747465761,"current_range_meters":14400,"station_id":"ce4bhgh2rcd13ifvqfb0","pricing_plan_id":"cebpf4jnsgd1na2vs0mg"},{"bike_id":"97407636-a01c-42f8-acdd-061fc1778041","system_id":"levelo_inurba_marseille","lat":43.30446,"lon":5.38888,"is_reserved":false,"is_disabled":false,"rental_uris":{"android":"levelo://app?vid=97407636-a01c-42f8-acdd-061fc1778041","ios":"levelo://app?vid=97407636-a01c-42f8-acdd-061fc1778041"},"vehicle_type_id":"4","last_reported":1747465761,"current_range_meters":14400,"station_id":"ce4bgk12rcd13ifvqbi0","pricing_plan_id":"cebpf4jnsgd1na2vs0mg"},{"bike_id":"0c4898f8-23a1-4833-9367-ff04ac788076","system_id":"levelo_inurba_marseille","lat":43.2657,"lon":5.38998,"is_reserved":false,"is_disabled":false,"rental_uris":{"android":"levelo://app?vid=0c4898f8-23a1-4833-9367-ff04ac788076","ios":"levelo://app?vid=0c4898f8-23a1-4833-9367-ff04ac788076"},"vehicle_type_id":"4","last_reported":1747465761,"current_range_meters":14400,"station_id":"ce4bhe12rcd13ifvqf30","pricing_plan_id":"cebpf4jnsgd1na2vs0mg"},{"bike_id":"fe4c54f7-24a2-4fe5-95d5-3af432396c0c","system_id":"levelo_inurba_marseille","lat":43.31507,"lon":5.37322,"is_reserved":false,"is_disabled":false,"rental_uris":{"android":"levelo://app?vid=fe4c54f7-24a2-4fe5-95d5-3af432396c0c","ios":"levelo://app?vid=fe4c54f7-24a2-4fe5-95d5-3af432396c0c"},"vehicle_type_id":"4","last_reported":1747465761,"current_range_meters":14400,"station_id":"ce4bgt12rcd13ifvqcd0","pricing_plan_id":"cebpf4jnsgd1na2vs0mg"},{"bike_id":"da4dcaf1-514d-4835-829d-abd8e5229eab","system_id":"levelo_inurba_marseille","lat":43.24163,"lon":5.39714,"is_reserved":false,"is_disabled":true,"rental_uris":{"android":"levelo://app?vid=da4dcaf1-514d-4835-829d-abd8e5229eab","ios":"levelo://app?vid=da4dcaf1-514d-4835-829d-abd8e5229eab"},"vehicle_type_id":"4","last_reported":1747465761,"current_range_meters":14800,"station_id":"ce4bhn12rcd13ifvqgpg","pricing_plan_id":"cebpf4jnsgd1na2vs0mg"},{"bike_id":"42eac522-2e20-4d8d-b587-077295089741","system_id":"levelo_inurba_marseille","lat":43.31484,"lon":5.37263,"is_reserved":false,"is_disabled":false,"rental_uris":{"android":"levelo://app?vid=42eac522-2e20-4d8d-b587-077295089741","ios":"levelo://app?vid=42eac522-2e20-4d8d-b587-077295089741"},"vehicle_type_id":"4","last_reported":1747465761,"current_range_meters":14800,"station_id":"ce4bgt12rcd13ifvqcd0","pricing_plan_id":"cebpf4jnsgd1na2vs0mg"},{"bike_id":"7138af59-1380-475f-9add-da10355761e2","system_id":"levelo_inurba_marseille","lat":43.269348,"lon":5.402834,"is_reserved":false,"is_disabled":true,"rental_uris":{"android":"levelo://app?vid=7138af59-1380-475f-9add-da10355761e2","ios":"levelo://app?vid=7138af59-1380-475f-9add-da10355761e2"},"vehicle_type_id":"4","last_reported":1747465761,"current_range_meters":14800,"station_id":"cjm6bp8fraef2m0cb0m0","pricing_plan_id":"cebpf4jnsgd1na2vs0mg"},{"bike_id":"bca2b894-5f02-46c9-a49b-e0c4d6d30e19","system_id":"levelo_inurba_marseille","lat":43.30934,"lon":5.40154,"is_reserved":false,"is_disabled":false,"rental_uris":{"android":"levelo://app?vid=bca2b894-5f02-46c9-a49b-e0c4d6d30e19","ios":"levelo://app?vid=bca2b894-5f02-46c9-a49b-e0c4d6d30e19"},"vehicle_type_id":"4","last_reported":1747465761,"current_range_meters":14800,"station_id":"ce4bgvp2rcd13ifvqct0","pricing_plan_id":"cebpf4jnsgd1na2vs0mg"},{"bike_id":"d9b504ee-8007-4760-a4a1-f54f52b040ce","system_id":"levelo_inurba_marseille","lat":43.3029,"lon":5.37266,"is_reserved":false,"is_disabled":false,"rental_uris":{"android":"levelo://app?vid=d9b504ee-8007-4760-a4a1-f54f52b040ce","ios":"levelo://app?vid=d9b504ee-8007-4760-a4a1-f54f52b040ce"},"vehicle_type_id":"4","last_reported":1747465761,"current_range_meters":14800,"station_id":"","pricing_plan_id":"cebpf4jnsgd1na2vs0mg"},{"bike_id":"3f1f80f2-74b8-4b50-8e33-883290c5e268","system_id":"levelo_inurba_marseille","lat":43.2319,"lon":5.4001,"is_reserved":false,"is_disabled":false,"rental_uris":{"android":"levelo://app?vid=3f1f80f2-74b8-4b50-8e33-883290c5e268","ios":"levelo://app?vid=3f1f80f2-74b8-4b50-8e33-883290c5e268"},"vehicle_type_id":"4","last_reported":1747465761,"current_range_meters":15200,"station_id":"ce4bhn12rcd13ifvqgqg","pricing_plan_id":"cebpf4jnsgd1na2vs0mg"},{"bike_id":"838936c3-57df-4d22-8fd7-ed39b0a3f5c2","system_id":"levelo_inurba_marseille","lat":43.302441,"lon":5.400549,"is_reserved":false,"is_disabled":false,"rental_uris":{"android":"levelo://app?vid=838936c3-57df-4d22-8fd7-ed39b0a3f5c2","ios":"levelo://app?vid=838936c3-57df-4d22-8fd7-ed39b0a3f5c2"},"vehicle_type_id":"4","last_reported":1747465761,"current_range_meters":15200,"station_id":"ce4bgvh2rcd13ifvqcs0","pricing_plan_id":"cebpf4jnsgd1na2vs0mg"},{"bike_id":"5859aa69-92a8-4d08-a554-05f544a7c60e","system_id":"levelo_inurba_marseille","lat":43.244,"lon":5.37061,"is_reserved":false,"is_disabled":false,"rental_uris":{"android":"levelo://app?vid=5859aa69-92a8-4d08-a554-05f544a7c60e","ios":"levelo://app?vid=5859aa69-92a8-4d08-a554-05f544a7c60e"},"vehicle_type_id":"4","last_reported":1747465761,"current_range_meters":15200,"station_id":"ce4bhhh2rcd13ifvqfk0","pricing_plan_id":"cebpf4jnsgd1na2vs0mg"},{"bike_id":"aafe78a6-692c-4e55-8bb8-4da8ee7b3518","system_id":"levelo_inurba_marseille","lat":43.2871,"lon":5.3998,"is_reserved":false,"is_disabled":false,"rental_uris":{"android":"levelo://app?vid=aafe78a6-692c-4e55-8bb8-4da8ee7b3518","ios":"levelo://app?vid=aafe78a6-692c-4e55-8bb8-4da8ee7b3518"},"vehicle_type_id":"4","last_reported":1747465761,"current_range_meters":16000,"station_id":"ce4bho92rcd13ifvqh3g","pricing_plan_id":"cebpf4jnsgd1na2vs0mg"},{"bike_id":"58a14723-15ba-45e7-a296-b53c7d889aff","system_id":"levelo_inurba_marseille","lat":43.29579,"lon":5.37522,"is_reserved":false,"is_disabled":false,"rental_uris":{"android":"levelo://app?vid=58a14723-15ba-45e7-a296-b53c7d889aff","ios":"levelo://app?vid=58a14723-15ba-45e7-a296-b53c7d889aff"},"vehicle_type_id":"4","last_reported":1747465761,"current_range_meters":16000,"station_id":"ce4bgh92rcd13ifvqb50","pricing_plan_id":"cebpf4jnsgd1na2vs0mg"},{"bike_id":"c82efa10-416e-400e-bd08-171f6a1b30ae","system_id":"levelo_inurba_marseille","lat":43.25004,"lon":5.38966,"is_reserved":false,"is_disabled":false,"rental_uris":{"android":"levelo://app?vid=c82efa10-416e-400e-bd08-171f6a1b30ae","ios":"levelo://app?vid=c82efa10-416e-400e-bd08-171f6a1b30ae"},"vehicle_type_id":"4","last_reported":1747465761,"current_range_meters":16000,"station_id":"ce4bhgp2rcd13ifvqfd0","pricing_plan_id":"cebpf4jnsgd1na2vs0mg"},{"bike_id":"4780a3b7-4f2f-4d1d-bb55-8c575bef1fd3","system_id":"levelo_inurba_marseille","lat":43.32329,"lon":5.40614,"is_reserved":false,"is_disabled":false,"rental_uris":{"android":"levelo://app?vid=4780a3b7-4f2f-4d1d-bb55-8c575bef1fd3","ios":"levelo://app?vid=4780a3b7-4f2f-4d1d-bb55-8c575bef1fd3"},"vehicle_type_id":"4","last_reported":1747465761,"current_range_meters":16000,"station_id":"ce4bhq92rcd13ifvqhjg","pricing_plan_id":"cebpf4jnsgd1na2vs0mg"},{"bike_id":"86c832c5-9a03-4a84-82ff-03a412f37003","system_id":"levelo_inurba_marseille","lat":43.30315,"lon":5.40432,"is_reserved":false,"is_disabled":false,"rental_uris":{"android":"levelo://app?vid=86c832c5-9a03-4a84-82ff-03a412f37003","ios":"levelo://app?vid=86c832c5-9a03-4a84-82ff-03a412f37003"},"vehicle_type_id":"4","last_reported":1747465761,"current_range_meters":16000,"station_id":"ce4bh012rcd13ifvqd10","pricing_plan_id":"cebpf4jnsgd1na2vs0mg"},{"bike_id":"3e5c22a3-91d8-46a8-86e4-a25e03630382","system_id":"levelo_inurba_marseille","lat":43.287251,"lon":5.364854,"is_reserved":false,"is_disabled":false,"rental_uris":{"android":"levelo://app?vid=3e5c22a3-91d8-46a8-86e4-a25e03630382","ios":"levelo://app?vid=3e5c22a3-91d8-46a8-86e4-a25e03630382"},"vehicle_type_id":"4","last_reported":1747465761,"current_range_meters":16400,"station_id":"ce4bhap2rcd13ifvqek0","pricing_plan_id":"cebpf4jnsgd1na2vs0mg"},{"bike_id":"712f1c4d-f153-4002-ad59-f4eda49ba117","system_id":"levelo_inurba_marseille","lat":43.23204,"lon":5.39946,"is_reserved":false,"is_disabled":false,"rental_uris":{"android":"levelo://app?vid=712f1c4d-f153-4002-ad59-f4eda49ba117","ios":"levelo://app?vid=712f1c4d-f153-4002-ad59-f4eda49ba117"},"vehicle_type_id":"4","last_reported":1747465761,"current_range_meters":16400,"station_id":"","pricing_plan_id":"cebpf4jnsgd1na2vs0mg"},{"bike_id":"78338216-0a2b-4e99-8b78-cff8b95a208b","system_id":"levelo_inurba_marseille","lat":43.23554,"lon":5.403123,"is_reserved":false,"is_disabled":false,"rental_uris":{"android":"levelo://app?vid=78338216-0a2b-4e99-8b78-cff8b95a208b","ios":"levelo://app?vid=78338216-0a2b-4e99-8b78-cff8b95a208b"},"vehicle_type_id":"4","last_reported":1747465761,"current_range_meters":16400,"station_id":"","pricing_plan_id":"cebpf4jnsgd1na2vs0mg"},{"bike_id":"080da10f-73c7-4342-93c6-97e1aeac391e","system_id":"levelo_inurba_marseille","lat":43.239568,"lon":5.366286,"is_reserved":false,"is_disabled":true,"rental_uris":{"android":"levelo://app?vid=080da10f-73c7-4342-93c6-97e1aeac391e","ios":"levelo://app?vid=080da10f-73c7-4342-93c6-97e1aeac391e"},"vehicle_type_id":"4","last_reported":1747465761,"current_range_meters":16400,"station_id":"ce4bhi12rcd13ifvqfp0","pricing_plan_id":"cebpf4jnsgd1na2vs0mg"},{"bike_id":"70fee472-8240-4097-ba7f-33fe96fcac86","system_id":"levelo_inurba_marseille","lat":43.2417,"lon":5.39682,"is_reserved":false,"is_disabled":true,"rental_uris":{"android":"levelo://app?vid=70fee472-8240-4097-ba7f-33fe96fcac86","ios":"levelo://app?vid=70fee472-8240-4097-ba7f-33fe96fcac86"},"vehicle_type_id":"4","last_reported":1747465761,"current_range_meters":16400,"station_id":"ce4bhn12rcd13ifvqgpg","pricing_plan_id":"cebpf4jnsgd1na2vs0mg"},{"bike_id":"32ec5a9f-ba0d-4d6d-ba18-8446403a4522","system_id":"levelo_inurba_marseille","lat":43.28284,"lon":5.35063,"is_reserved":false,"is_disabled":true,"rental_uris":{"android":"levelo://app?vid=32ec5a9f-ba0d-4d6d-ba18-8446403a4522","ios":"levelo://app?vid=32ec5a9f-ba0d-4d6d-ba18-8446403a4522"},"vehicle_type_id":"4","last_reported":1747465761,"current_range_meters":16400,"station_id":"ce4bhbp2rcd13ifvqerg","pricing_plan_id":"cebpf4jnsgd1na2vs0mg"},{"bike_id":"9a8144c8-2ce0-46ec-bc0c-c787fdee052a","system_id":"levelo_inurba_marseille","lat":43.265733,"lon":5.390013,"is_reserved":false,"is_disabled":false,"rental_uris":{"android":"levelo://app?vid=9a8144c8-2ce0-46ec-bc0c-c787fdee052a","ios":"levelo://app?vid=9a8144c8-2ce0-46ec-bc0c-c787fdee052a"},"vehicle_type_id":"4","last_reported":1747465761,"current_range_meters":16400,"station_id":"ce4bhe12rcd13ifvqf30","pricing_plan_id":"cebpf4jnsgd1na2vs0mg"},{"bike_id":"465ca380-6a0b-4a53-aac8-6d66ff8ad361","system_id":"levelo_inurba_marseille","lat":43.279158,"lon":5.395844,"is_reserved":false,"is_disabled":false,"rental_uris":{"android":"levelo://app?vid=465ca380-6a0b-4a53-aac8-6d66ff8ad361","ios":"levelo://app?vid=465ca380-6a0b-4a53-aac8-6d66ff8ad361"},"vehicle_type_id":"4","last_reported":1747465761,"current_range_meters":16400,"station_id":"ce4bhf92rcd13ifvqf40","pricing_plan_id":"cebpf4jnsgd1na2vs0mg"},{"bike_id":"194f17c8-93f0-4ff7-9d7b-60238225a3ec","system_id":"levelo_inurba_marseille","lat":43.261606,"lon":5.420783,"is_reserved":false,"is_disabled":false,"rental_uris":{"android":"levelo://app?vid=194f17c8-93f0-4ff7-9d7b-60238225a3ec","ios":"levelo://app?vid=194f17c8-93f0-4ff7-9d7b-60238225a3ec"},"vehicle_type_id":"4","last_reported":1747465761,"current_range_meters":16400,"station_id":"","pricing_plan_id":"cebpf4jnsgd1na2vs0mg"},{"bike_id":"393f548b-a2d0-409f-9cc4-11b62c3ec33d","system_id":"levelo_inurba_marseille","lat":43.30421,"lon":5.41289,"is_reserved":false,"is_disabled":false,"rental_uris":{"android":"levelo://app?vid=393f548b-a2d0-409f-9cc4-11b62c3ec33d","ios":"levelo://app?vid=393f548b-a2d0-409f-9cc4-11b62c3ec33d"},"vehicle_type_id":"4","last_reported":1747465761,"current_range_meters":16800,"station_id":"ce4bhop2rcd13ifvqh8g","pricing_plan_id":"cebpf4jnsgd1na2vs0mg"},{"bike_id":"79f89832-f9a8-4a23-a4f7-88a9cbc43f00","system_id":"levelo_inurba_marseille","lat":43.30236,"lon":5.40245,"is_reserved":false,"is_disabled":false,"rental_uris":{"android":"levelo://app?vid=79f89832-f9a8-4a23-a4f7-88a9cbc43f00","ios":"levelo://app?vid=79f89832-f9a8-4a23-a4f7-88a9cbc43f00"},"vehicle_type_id":"4","last_reported":1747465761,"current_range_meters":16800,"station_id":"ce4bgvh2rcd13ifvqcs0","pricing_plan_id":"cebpf4jnsgd1na2vs0mg"},{"bike_id":"3a013c3e-487c-4aab-9e6c-4677eddb1be3","system_id":"levelo_inurba_marseille","lat":43.24551,"lon":5.39514,"is_reserved":false,"is_disabled":false,"rental_uris":{"android":"levelo://app?vid=3a013c3e-487c-4aab-9e6c-4677eddb1be3","ios":"levelo://app?vid=3a013c3e-487c-4aab-9e6c-4677eddb1be3"},"vehicle_type_id":"4","last_reported":1747465761,"current_range_meters":16800,"station_id":"ce4bhlp2rcd13ifvqgjg","pricing_plan_id":"cebpf4jnsgd1na2vs0mg"},{"bike_id":"f14ff356-705b-4c10-9776-0a9fbf94763f","system_id":"levelo_inurba_marseille","lat":43.282114,"lon":5.390558,"is_reserved":false,"is_disabled":false,"rental_uris":{"android":"levelo://app?vid=f14ff356-705b-4c10-9776-0a9fbf94763f","ios":"levelo://app?vid=f14ff356-705b-4c10-9776-0a9fbf94763f"},"vehicle_type_id":"4","last_reported":1747465761,"current_range_meters":16800,"station_id":"","pricing_plan_id":"cebpf4jnsgd1na2vs0mg"},{"bike_id":"eeba79b8-1813-484e-b68c-4c7a8dea3f27","system_id":"levelo_inurba_marseille","lat":43.300144,"lon":5.372261,"is_reserved":false,"is_disabled":false,"rental_uris":{"android":"levelo://app?vid=eeba79b8-1813-484e-b68c-4c7a8dea3f27","ios":"levelo://app?vid=eeba79b8-1813-484e-b68c-4c7a8dea3f27"},"vehicle_type_id":"4","last_reported":1747465761,"current_range_meters":16800,"station_id":"","pricing_plan_id":"cebpf4jnsgd1na2vs0mg"},{"bike_id":"ffacb92f-e7c4-4fb2-af44-92ebc0f906c1","system_id":"levelo_inurba_marseille","lat":43.30888,"lon":5.39636,"is_reserved":false,"is_disabled":false,"rental_uris":{"android":"levelo://app?vid=ffacb92f-e7c4-4fb2-af44-92ebc0f906c1","ios":"levelo://app?vid=ffacb92f-e7c4-4fb2-af44-92ebc0f906c1"},"vehicle_type_id":"4","last_reported":1747465761,"current_range_meters":16800,"station_id":"ce4bh012rcd13ifvqcv0","pricing_plan_id":"cebpf4jnsgd1na2vs0mg"},{"bike_id":"efd0c986-76dc-485b-8a83-afbcec4f2a16","system_id":"levelo_inurba_marseille","lat":43.238294,"lon":5.373463,"is_reserved":false,"is_disabled":false,"rental_uris":{"android":"levelo://app?vid=efd0c986-76dc-485b-8a83-afbcec4f2a16","ios":"levelo://app?vid=efd0c986-76dc-485b-8a83-afbcec4f2a16"},"vehicle_type_id":"4","last_reported":1747465761,"current_range_meters":16800,"station_id":"","pricing_plan_id":"cebpf4jnsgd1na2vs0mg"},{"bike_id":"68ee3009-64a1-448f-9ea4-b92afbdf610e","system_id":"levelo_inurba_marseille","lat":43.278279,"lon":5.39209,"is_reserved":false,"is_disabled":true,"rental_uris":{"android":"levelo://app?vid=68ee3009-64a1-448f-9ea4-b92afbdf610e","ios":"levelo://app?vid=68ee3009-64a1-448f-9ea4-b92afbdf610e"},"vehicle_type_id":"4","last_reported":1747465761,"current_range_meters":16800,"station_id":"ce4bhjp2rcd13ifvqga0","pricing_plan_id":"cebpf4jnsgd1na2vs0mg"},{"bike_id":"6959522a-bd59-4233-a378-b798da685450","system_id":"levelo_inurba_marseille","lat":43.24166,"lon":5.36392,"is_reserved":false,"is_disabled":false,"rental_uris":{"android":"levelo://app?vid=6959522a-bd59-4233-a378-b798da685450","ios":"levelo://app?vid=6959522a-bd59-4233-a378-b798da685450"},"vehicle_type_id":"4","last_reported":1747465761,"current_range_meters":16800,"station_id":"cpo36qri1sfpv3e86is0","pricing_plan_id":"cebpf4jnsgd1na2vs0mg"},{"bike_id":"edd12218-8475-4e8d-b63e-0814f4946c70","system_id":"levelo_inurba_marseille","lat":43.3234,"lon":5.40611,"is_reserved":false,"is_disabled":false,"rental_uris":{"android":"levelo://app?vid=edd12218-8475-4e8d-b63e-0814f4946c70","ios":"levelo://app?vid=edd12218-8475-4e8d-b63e-0814f4946c70"},"vehicle_type_id":"4","last_reported":1747465761,"current_range_meters":17200,"station_id":"ce4bhq92rcd13ifvqhjg","pricing_plan_id":"cebpf4jnsgd1na2vs0mg"},{"bike_id":"bc16784e-e682-48b8-8f11-be1ba93e0f92","system_id":"levelo_inurba_marseille","lat":43.27965,"lon":5.38743,"is_reserved":false,"is_disabled":false,"rental_uris":{"android":"levelo://app?vid=bc16784e-e682-48b8-8f11-be1ba93e0f92","ios":"levelo://app?vid=bc16784e-e682-48b8-8f11-be1ba93e0f92"},"vehicle_type_id":"4","last_reported":1747465761,"current_range_meters":17200,"station_id":"ce4bhg12rcd13ifvqf80","pricing_plan_id":"cebpf4jnsgd1na2vs0mg"},{"bike_id":"a60091fb-67be-4143-adba-b952efda2e80","system_id":"levelo_inurba_marseille","lat":43.23182,"lon":5.399938,"is_reserved":false,"is_disabled":false,"rental_uris":{"android":"levelo://app?vid=a60091fb-67be-4143-adba-b952efda2e80","ios":"levelo://app?vid=a60091fb-67be-4143-adba-b952efda2e80"},"vehicle_type_id":"4","last_reported":1747465761,"current_range_meters":17200,"station_id":"ce4bhn12rcd13ifvqgqg","pricing_plan_id":"cebpf4jnsgd1na2vs0mg"},{"bike_id":"c734f66f-5037-47ce-b476-1761c5a56348","system_id":"levelo_inurba_marseille","lat":43.305627,"lon":5.367579,"is_reserved":false,"is_disabled":false,"rental_uris":{"android":"levelo://app?vid=c734f66f-5037-47ce-b476-1761c5a56348","ios":"levelo://app?vid=c734f66f-5037-47ce-b476-1761c5a56348"},"vehicle_type_id":"4","last_reported":1747465761,"current_range_meters":17200,"station_id":"ce4bgrp2rcd13ifvqc9g","pricing_plan_id":"cebpf4jnsgd1na2vs0mg"},{"bike_id":"ea85b944-994c-4259-bb8a-f30ee3f8e132","system_id":"levelo_inurba_marseille","lat":43.30343,"lon":5.39231,"is_reserved":false,"is_disabled":false,"rental_uris":{"android":"levelo://app?vid=ea85b944-994c-4259-bb8a-f30ee3f8e132","ios":"levelo://app?vid=ea85b944-994c-4259-bb8a-f30ee3f8e132"},"vehicle_type_id":"4","last_reported":1747465761,"current_range_meters":17200,"station_id":"","pricing_plan_id":"cebpf4jnsgd1na2vs0mg"},{"bike_id":"e335c809-d011-47c6-9bb0-783ebe71968b","system_id":"levelo_inurba_marseille","lat":43.3255,"lon":5.4149,"is_reserved":false,"is_disabled":false,"rental_uris":{"android":"levelo://app?vid=e335c809-d011-47c6-9bb0-783ebe71968b","ios":"levelo://app?vid=e335c809-d011-47c6-9bb0-783ebe71968b"},"vehicle_type_id":"4","last_reported":1747465761,"current_range_meters":17200,"station_id":"ce4bhq12rcd13ifvqhhg","pricing_plan_id":"cebpf4jnsgd1na2vs0mg"},{"bike_id":"d55f9225-e6ff-4e45-92e4-2cc2ba495a7c","system_id":"levelo_inurba_marseille","lat":43.308624,"lon":5.382707,"is_reserved":false,"is_disabled":false,"rental_uris":{"android":"levelo://app?vid=d55f9225-e6ff-4e45-92e4-2cc2ba495a7c","ios":"levelo://app?vid=d55f9225-e6ff-4e45-92e4-2cc2ba495a7c"},"vehicle_type_id":"4","last_reported":1747465761,"current_range_meters":17200,"station_id":"","pricing_plan_id":"cebpf4jnsgd1na2vs0mg"},{"bike_id":"36dead29-0941-4f3a-afb9-d632c09fcce8","system_id":"levelo_inurba_marseille","lat":43.299275,"lon":5.36514,"is_reserved":false,"is_disabled":false,"rental_uris":{"android":"levelo://app?vid=36dead29-0941-4f3a-afb9-d632c09fcce8","ios":"levelo://app?vid=36dead29-0941-4f3a-afb9-d632c09fcce8"},"vehicle_type_id":"4","last_reported":1747465761,"current_range_meters":17200,"station_id":"ce4bgm92rcd13ifvqbr0","pricing_plan_id":"cebpf4jnsgd1na2vs0mg"},{"bike_id":"a88ec2a1-463f-4ac0-96eb-b2d23da6925e","system_id":"levelo_inurba_marseille","lat":43.24546,"lon":5.39521,"is_reserved":false,"is_disabled":false,"rental_uris":{"android":"levelo://app?vid=a88ec2a1-463f-4ac0-96eb-b2d23da6925e","ios":"levelo://app?vid=a88ec2a1-463f-4ac0-96eb-b2d23da6925e"},"vehicle_type_id":"4","last_reported":1747465761,"current_range_meters":17200,"station_id":"ce4bhlp2rcd13ifvqgjg","pricing_plan_id":"cebpf4jnsgd1na2vs0mg"},{"bike_id":"9315f604-716b-4436-b0b5-2ae10fff26c6","system_id":"levelo_inurba_marseille","lat":43.290252,"lon":5.386421,"is_reserved":false,"is_disabled":false,"rental_uris":{"android":"levelo://app?vid=9315f604-716b-4436-b0b5-2ae10fff26c6","ios":"levelo://app?vid=9315f604-716b-4436-b0b5-2ae10fff26c6"},"vehicle_type_id":"4","last_reported":1747465761,"current_range_meters":17200,"station_id":"ce4bh4p2rcd13ifvqe0g","pricing_plan_id":"cebpf4jnsgd1na2vs0mg"},{"bike_id":"b26a0dd7-cbdc-4ab7-8def-31c4b88b224a","system_id":"levelo_inurba_marseille","lat":43.31214,"lon":5.3925,"is_reserved":false,"is_disabled":false,"rental_uris":{"android":"levelo://app?vid=b26a0dd7-cbdc-4ab7-8def-31c4b88b224a","ios":"levelo://app?vid=b26a0dd7-cbdc-4ab7-8def-31c4b88b224a"},"vehicle_type_id":"4","last_reported":1747465761,"current_range_meters":17600,"station_id":"","pricing_plan_id":"cebpf4jnsgd1na2vs0mg"},{"bike_id":"cbf5a926-a14e-49e1-ac53-9e81acb40398","system_id":"levelo_inurba_marseille","lat":43.24806,"lon":5.3745,"is_reserved":false,"is_disabled":false,"rental_uris":{"android":"levelo://app?vid=cbf5a926-a14e-49e1-ac53-9e81acb40398","ios":"levelo://app?vid=cbf5a926-a14e-49e1-ac53-9e81acb40398"},"vehicle_type_id":"4","last_reported":1747465761,"current_range_meters":17600,"station_id":"ce4bhgh2rcd13ifvqfb0","pricing_plan_id":"cebpf4jnsgd1na2vs0mg"},{"bike_id":"2df91c1e-bae9-4f77-8ed6-a464e92c0f2d","system_id":"levelo_inurba_marseille","lat":43.28436,"lon":5.39186,"is_reserved":false,"is_disabled":false,"rental_uris":{"android":"levelo://app?vid=2df91c1e-bae9-4f77-8ed6-a464e92c0f2d","ios":"levelo://app?vid=2df91c1e-bae9-4f77-8ed6-a464e92c0f2d"},"vehicle_type_id":"4","last_reported":1747465761,"current_range_meters":17600,"station_id":"ce4bhoh2rcd13ifvqh5g","pricing_plan_id":"cebpf4jnsgd1na2vs0mg"},{"bike_id":"ac8fa14e-3a95-4bde-9599-933a69463f71","system_id":"levelo_inurba_marseille","lat":43.2971,"lon":5.37701,"is_reserved":false,"is_disabled":false,"rental_uris":{"android":"levelo://app?vid=ac8fa14e-3a95-4bde-9599-933a69463f71","ios":"levelo://app?vid=ac8fa14e-3a95-4bde-9599-933a69463f71"},"vehicle_type_id":"4","last_reported":1747465761,"current_range_meters":17600,"station_id":"ce4bgkh2rcd13ifvqbl0","pricing_plan_id":"cebpf4jnsgd1na2vs0mg"},{"bike_id":"b071020f-c99f-46ed-97ba-db34ed9f69b9","system_id":"levelo_inurba_marseille","lat":43.329978,"lon":5.438812,"is_reserved":false,"is_disabled":false,"rental_uris":{"android":"levelo://app?vid=b071020f-c99f-46ed-97ba-db34ed9f69b9","ios":"levelo://app?vid=b071020f-c99f-46ed-97ba-db34ed9f69b9"},"vehicle_type_id":"4","last_reported":1747465761,"current_range_meters":18000,"station_id":"","pricing_plan_id":"cebpf4jnsgd1na2vs0mg"},{"bike_id":"6fcfd778-53a8-4a73-9e9b-098ea75e4fbe","system_id":"levelo_inurba_marseille","lat":43.270663,"lon":5.42276,"is_reserved":false,"is_disabled":true,"rental_uris":{"android":"levelo://app?vid=6fcfd778-53a8-4a73-9e9b-098ea75e4fbe","ios":"levelo://app?vid=6fcfd778-53a8-4a73-9e9b-098ea75e4fbe"},"vehicle_type_id":"4","last_reported":1747465761,"current_range_meters":18000,"station_id":"ce4bhk92rcd13ifvqgb0","pricing_plan_id":"cebpf4jnsgd1na2vs0mg"},{"bike_id":"6ccfee9b-95d9-4d50-a485-40713109e31a","system_id":"levelo_inurba_marseille","lat":43.23186,"lon":5.39977,"is_reserved":false,"is_disabled":false,"rental_uris":{"android":"levelo://app?vid=6ccfee9b-95d9-4d50-a485-40713109e31a","ios":"levelo://app?vid=6ccfee9b-95d9-4d50-a485-40713109e31a"},"vehicle_type_id":"4","last_reported":1747465761,"current_range_meters":18000,"station_id":"ce4bhn12rcd13ifvqgqg","pricing_plan_id":"cebpf4jnsgd1na2vs0mg"},{"bike_id":"5593c7f2-36a3-497f-99da-64fa53a52ee8","system_id":"levelo_inurba_marseille","lat":43.28101,"lon":5.37817,"is_reserved":false,"is_disabled":false,"rental_uris":{"android":"levelo://app?vid=5593c7f2-36a3-497f-99da-64fa53a52ee8","ios":"levelo://app?vid=5593c7f2-36a3-497f-99da-64fa53a52ee8"},"vehicle_type_id":"4","last_reported":1747465761,"current_range_meters":18000,"station_id":"ce4bha12rcd13ifvqee0","pricing_plan_id":"cebpf4jnsgd1na2vs0mg"},{"bike_id":"ceebb5bb-d535-4349-8755-ff60333400c0","system_id":"levelo_inurba_marseille","lat":43.298,"lon":5.38097,"is_reserved":false,"is_disabled":false,"rental_uris":{"android":"levelo://app?vid=ceebb5bb-d535-4349-8755-ff60333400c0","ios":"levelo://app?vid=ceebb5bb-d535-4349-8755-ff60333400c0"},"vehicle_type_id":"4","last_reported":1747465761,"current_range_meters":18000,"station_id":"ce4bgip2rcd13ifvqbb0","pricing_plan_id":"cebpf4jnsgd1na2vs0mg"},{"bike_id":"35f1b18a-0f4e-4f79-ba34-d4c721cac9b9","system_id":"levelo_inurba_marseille","lat":43.31534,"lon":5.38028,"is_reserved":false,"is_disabled":false,"rental_uris":{"android":"levelo://app?vid=35f1b18a-0f4e-4f79-ba34-d4c721cac9b9","ios":"levelo://app?vid=35f1b18a-0f4e-4f79-ba34-d4c721cac9b9"},"vehicle_type_id":"4","last_reported":1747465761,"current_range_meters":17600,"station_id":"ce4bhsp2rcd13ifvqi50","pricing_plan_id":"cebpf4jnsgd1na2vs0mg"},{"bike_id":"392869e9-ed4a-4455-841c-24d69bd07e03","system_id":"levelo_inurba_marseille","lat":43.250843,"lon":5.395228,"is_reserved":false,"is_disabled":false,"rental_uris":{"android":"levelo://app?vid=392869e9-ed4a-4455-841c-24d69bd07e03","ios":"levelo://app?vid=392869e9-ed4a-4455-841c-24d69bd07e03"},"vehicle_type_id":"4","last_reported":1747465761,"current_range_meters":18000,"station_id":"ce4bhm12rcd13ifvqgkg","pricing_plan_id":"cebpf4jnsgd1na2vs0mg"},{"bike_id":"cabd019c-cb2b-473a-8649-041e5b90387f","system_id":"levelo_inurba_marseille","lat":43.255713,"lon":5.382441,"is_reserved":false,"is_disabled":true,"rental_uris":{"android":"levelo://app?vid=cabd019c-cb2b-473a-8649-041e5b90387f","ios":"levelo://app?vid=cabd019c-cb2b-473a-8649-041e5b90387f"},"vehicle_type_id":"4","last_reported":1747465761,"current_range_meters":18000,"station_id":"ce4bhih2rcd13ifvqfs0","pricing_plan_id":"cebpf4jnsgd1na2vs0mg"},{"bike_id":"5e6b40b8-d296-4bf0-afc5-64afa04a82e7","system_id":"levelo_inurba_marseille","lat":43.3097,"lon":5.40539,"is_reserved":false,"is_disabled":false,"rental_uris":{"android":"levelo://app?vid=5e6b40b8-d296-4bf0-afc5-64afa04a82e7","ios":"levelo://app?vid=5e6b40b8-d296-4bf0-afc5-64afa04a82e7"},"vehicle_type_id":"4","last_reported":1747465761,"current_range_meters":18000,"station_id":"","pricing_plan_id":"cebpf4jnsgd1na2vs0mg"},{"bike_id":"699d068d-8fbb-40ec-9df0-b007af55d5b2","system_id":"levelo_inurba_marseille","lat":43.323383,"lon":5.40627,"is_reserved":false,"is_disabled":false,"rental_uris":{"android":"levelo://app?vid=699d068d-8fbb-40ec-9df0-b007af55d5b2","ios":"levelo://app?vid=699d068d-8fbb-40ec-9df0-b007af55d5b2"},"vehicle_type_id":"4","last_reported":1747465761,"current_range_meters":18000,"station_id":"ce4bhq92rcd13ifvqhjg","pricing_plan_id":"cebpf4jnsgd1na2vs0mg"},{"bike_id":"a89ef3f0-3fcc-4f75-a1fa-dffb133acf8f","system_id":"levelo_inurba_marseille","lat":43.30342,"lon":5.40479,"is_reserved":false,"is_disabled":false,"rental_uris":{"android":"levelo://app?vid=a89ef3f0-3fcc-4f75-a1fa-dffb133acf8f","ios":"levelo://app?vid=a89ef3f0-3fcc-4f75-a1fa-dffb133acf8f"},"vehicle_type_id":"4","last_reported":1747465761,"current_range_meters":18000,"station_id":"ce4bh012rcd13ifvqd10","pricing_plan_id":"cebpf4jnsgd1na2vs0mg"},{"bike_id":"ff1141e7-cdb0-42ec-97a5-f5df38cffa9d","system_id":"levelo_inurba_marseille","lat":43.279631,"lon":5.387411,"is_reserved":false,"is_disabled":true,"rental_uris":{"android":"levelo://app?vid=ff1141e7-cdb0-42ec-97a5-f5df38cffa9d","ios":"levelo://app?vid=ff1141e7-cdb0-42ec-97a5-f5df38cffa9d"},"vehicle_type_id":"4","last_reported":1747465761,"current_range_meters":18000,"station_id":"ce4bhg12rcd13ifvqf80","pricing_plan_id":"cebpf4jnsgd1na2vs0mg"},{"bike_id":"a1f09a6b-c76d-40be-a80b-5daa17192cda","system_id":"levelo_inurba_marseille","lat":43.30159,"lon":5.38074,"is_reserved":false,"is_disabled":false,"rental_uris":{"android":"levelo://app?vid=a1f09a6b-c76d-40be-a80b-5daa17192cda","ios":"levelo://app?vid=a1f09a6b-c76d-40be-a80b-5daa17192cda"},"vehicle_type_id":"4","last_reported":1747465761,"current_range_meters":18000,"station_id":"ce4bgjp2rcd13ifvqbh0","pricing_plan_id":"cebpf4jnsgd1na2vs0mg"},{"bike_id":"8268a799-2bb7-4ed9-81d2-101dc9206646","system_id":"levelo_inurba_marseille","lat":43.251169,"lon":5.4033,"is_reserved":false,"is_disabled":false,"rental_uris":{"android":"levelo://app?vid=8268a799-2bb7-4ed9-81d2-101dc9206646","ios":"levelo://app?vid=8268a799-2bb7-4ed9-81d2-101dc9206646"},"vehicle_type_id":"4","last_reported":1747465761,"current_range_meters":18800,"station_id":"ce4bhlh2rcd13ifvqgig","pricing_plan_id":"cebpf4jnsgd1na2vs0mg"},{"bike_id":"3eb6b8ed-6f3e-4cd0-be44-7414bacfa2f9","system_id":"levelo_inurba_marseille","lat":43.3033,"lon":5.38599,"is_reserved":false,"is_disabled":false,"rental_uris":{"android":"levelo://app?vid=3eb6b8ed-6f3e-4cd0-be44-7414bacfa2f9","ios":"levelo://app?vid=3eb6b8ed-6f3e-4cd0-be44-7414bacfa2f9"},"vehicle_type_id":"4","last_reported":1747465761,"current_range_meters":18800,"station_id":"","pricing_plan_id":"cebpf4jnsgd1na2vs0mg"},{"bike_id":"ae379463-bd7d-46a1-9335-5d1bd7e44759","system_id":"levelo_inurba_marseille","lat":43.30736,"lon":5.42452,"is_reserved":false,"is_disabled":true,"rental_uris":{"android":"levelo://app?vid=ae379463-bd7d-46a1-9335-5d1bd7e44759","ios":"levelo://app?vid=ae379463-bd7d-46a1-9335-5d1bd7e44759"},"vehicle_type_id":"4","last_reported":1747465761,"current_range_meters":18800,"station_id":"st_cvj6ca6bvosntc0bfgr0","pricing_plan_id":"cebpf4jnsgd1na2vs0mg"},{"bike_id":"6d4856a2-270a-456c-acd2-ce98be99da41","system_id":"levelo_inurba_marseille","lat":43.28466,"lon":5.38428,"is_reserved":false,"is_disabled":true,"rental_uris":{"android":"levelo://app?vid=6d4856a2-270a-456c-acd2-ce98be99da41","ios":"levelo://app?vid=6d4856a2-270a-456c-acd2-ce98be99da41"},"vehicle_type_id":"4","last_reported":1747465761,"current_range_meters":18800,"station_id":"ce4bh512rcd13ifvqe3g","pricing_plan_id":"cebpf4jnsgd1na2vs0mg"},{"bike_id":"3eacf02e-f6f6-4d58-9549-81b9dd836990","system_id":"levelo_inurba_marseille","lat":43.30885,"lon":5.39655,"is_reserved":false,"is_disabled":false,"rental_uris":{"android":"levelo://app?vid=3eacf02e-f6f6-4d58-9549-81b9dd836990","ios":"levelo://app?vid=3eacf02e-f6f6-4d58-9549-81b9dd836990"},"vehicle_type_id":"4","last_reported":1747465761,"current_range_meters":18800,"station_id":"ce4bh012rcd13ifvqcv0","pricing_plan_id":"cebpf4jnsgd1na2vs0mg"},{"bike_id":"fcaeefda-0dda-417a-bcc1-0a4dbdcf45c9","system_id":"levelo_inurba_marseille","lat":43.27068,"lon":5.42275,"is_reserved":false,"is_disabled":false,"rental_uris":{"android":"levelo://app?vid=fcaeefda-0dda-417a-bcc1-0a4dbdcf45c9","ios":"levelo://app?vid=fcaeefda-0dda-417a-bcc1-0a4dbdcf45c9"},"vehicle_type_id":"4","last_reported":1747465761,"current_range_meters":18800,"station_id":"ce4bhk92rcd13ifvqgb0","pricing_plan_id":"cebpf4jnsgd1na2vs0mg"},{"bike_id":"dce1af5d-fb8c-4304-93a9-ad9088a3ce86","system_id":"levelo_inurba_marseille","lat":43.2549,"lon":5.3765,"is_reserved":false,"is_disabled":false,"rental_uris":{"android":"levelo://app?vid=dce1af5d-fb8c-4304-93a9-ad9088a3ce86","ios":"levelo://app?vid=dce1af5d-fb8c-4304-93a9-ad9088a3ce86"},"vehicle_type_id":"4","last_reported":1747465761,"current_range_meters":18800,"station_id":"ce4bhh12rcd13ifvqff0","pricing_plan_id":"cebpf4jnsgd1na2vs0mg"},{"bike_id":"5b22c96d-1b61-436e-a53c-3fef0e6c3965","system_id":"levelo_inurba_marseille","lat":43.30947,"lon":5.40161,"is_reserved":false,"is_disabled":false,"rental_uris":{"android":"levelo://app?vid=5b22c96d-1b61-436e-a53c-3fef0e6c3965","ios":"levelo://app?vid=5b22c96d-1b61-436e-a53c-3fef0e6c3965"},"vehicle_type_id":"4","last_reported":1747465761,"current_range_meters":18800,"station_id":"ce4bgvp2rcd13ifvqct0","pricing_plan_id":"cebpf4jnsgd1na2vs0mg"},{"bike_id":"e9d27314-f537-4354-9ac1-8eaaf73d98ea","system_id":"levelo_inurba_marseille","lat":43.28937,"lon":5.39615,"is_reserved":false,"is_disabled":false,"rental_uris":{"android":"levelo://app?vid=e9d27314-f537-4354-9ac1-8eaaf73d98ea","ios":"levelo://app?vid=e9d27314-f537-4354-9ac1-8eaaf73d98ea"},"vehicle_type_id":"4","last_reported":1747465761,"current_range_meters":18800,"station_id":"ce4bh3h2rcd13ifvqdn0","pricing_plan_id":"cebpf4jnsgd1na2vs0mg"},{"bike_id":"ac3a6b97-28cb-4734-a639-37b53d79dfc2","system_id":"levelo_inurba_marseille","lat":43.33775,"lon":5.37429,"is_reserved":false,"is_disabled":false,"rental_uris":{"android":"levelo://app?vid=ac3a6b97-28cb-4734-a639-37b53d79dfc2","ios":"levelo://app?vid=ac3a6b97-28cb-4734-a639-37b53d79dfc2"},"vehicle_type_id":"4","last_reported":1747465761,"current_range_meters":19200,"station_id":"","pricing_plan_id":"cebpf4jnsgd1na2vs0mg"},{"bike_id":"e1291dda-99b5-4759-85d1-03c344292341","system_id":"levelo_inurba_marseille","lat":43.31776,"lon":5.39,"is_reserved":false,"is_disabled":false,"rental_uris":{"android":"levelo://app?vid=e1291dda-99b5-4759-85d1-03c344292341","ios":"levelo://app?vid=e1291dda-99b5-4759-85d1-03c344292341"},"vehicle_type_id":"4","last_reported":1747465761,"current_range_meters":19200,"station_id":"ce4bhqp2rcd13ifvqhng","pricing_plan_id":"cebpf4jnsgd1na2vs0mg"},{"bike_id":"f30a9611-cada-44fd-b78d-eb49cd053e3f","system_id":"levelo_inurba_marseille","lat":43.31707,"lon":5.40446,"is_reserved":false,"is_disabled":false,"rental_uris":{"android":"levelo://app?vid=f30a9611-cada-44fd-b78d-eb49cd053e3f","ios":"levelo://app?vid=f30a9611-cada-44fd-b78d-eb49cd053e3f"},"vehicle_type_id":"4","last_reported":1747465761,"current_range_meters":19200,"station_id":"ce4bh012rcd13ifvqd00","pricing_plan_id":"cebpf4jnsgd1na2vs0mg"},{"bike_id":"e6402e90-0a35-49fd-b163-0b98b7917f4c","system_id":"levelo_inurba_marseille","lat":43.239891,"lon":5.366342,"is_reserved":false,"is_disabled":false,"rental_uris":{"android":"levelo://app?vid=e6402e90-0a35-49fd-b163-0b98b7917f4c","ios":"levelo://app?vid=e6402e90-0a35-49fd-b163-0b98b7917f4c"},"vehicle_type_id":"4","last_reported":1747465761,"current_range_meters":19200,"station_id":"ce4bhi12rcd13ifvqfp0","pricing_plan_id":"cebpf4jnsgd1na2vs0mg"},{"bike_id":"56897df8-bf67-489a-b146-24860c15e342","system_id":"levelo_inurba_marseille","lat":43.32092,"lon":5.44109,"is_reserved":false,"is_disabled":false,"rental_uris":{"android":"levelo://app?vid=56897df8-bf67-489a-b146-24860c15e342","ios":"levelo://app?vid=56897df8-bf67-489a-b146-24860c15e342"},"vehicle_type_id":"4","last_reported":1747465761,"current_range_meters":19200,"station_id":"","pricing_plan_id":"cebpf4jnsgd1na2vs0mg"},{"bike_id":"5cdb52db-4af8-4434-9945-fabc20d3d152","system_id":"levelo_inurba_marseille","lat":43.28707,"lon":5.39981,"is_reserved":false,"is_disabled":false,"rental_uris":{"android":"levelo://app?vid=5cdb52db-4af8-4434-9945-fabc20d3d152","ios":"levelo://app?vid=5cdb52db-4af8-4434-9945-fabc20d3d152"},"vehicle_type_id":"4","last_reported":1747465761,"current_range_meters":19200,"station_id":"ce4bho92rcd13ifvqh3g","pricing_plan_id":"cebpf4jnsgd1na2vs0mg"},{"bike_id":"30fb0418-2587-40f6-8bd7-c829579e7d5a","system_id":"levelo_inurba_marseille","lat":43.30436,"lon":5.38886,"is_reserved":false,"is_disabled":false,"rental_uris":{"android":"levelo://app?vid=30fb0418-2587-40f6-8bd7-c829579e7d5a","ios":"levelo://app?vid=30fb0418-2587-40f6-8bd7-c829579e7d5a"},"vehicle_type_id":"4","last_reported":1747465761,"current_range_meters":19600,"station_id":"ce4bgk12rcd13ifvqbi0","pricing_plan_id":"cebpf4jnsgd1na2vs0mg"},{"bike_id":"0fbef17b-22f8-43a4-af88-6925b30e74c4","system_id":"levelo_inurba_marseille","lat":43.291955,"lon":5.357935,"is_reserved":false,"is_disabled":true,"rental_uris":{"android":"levelo://app?vid=0fbef17b-22f8-43a4-af88-6925b30e74c4","ios":"levelo://app?vid=0fbef17b-22f8-43a4-af88-6925b30e74c4"},"vehicle_type_id":"4","last_reported":1747465761,"current_range_meters":19600,"station_id":"ce4bhb12rcd13ifvqel0","pricing_plan_id":"cebpf4jnsgd1na2vs0mg"},{"bike_id":"ebefafa4-e016-4a1e-933a-e10874df5a61","system_id":"levelo_inurba_marseille","lat":43.292241,"lon":5.360582,"is_reserved":false,"is_disabled":false,"rental_uris":{"android":"levelo://app?vid=ebefafa4-e016-4a1e-933a-e10874df5a61","ios":"levelo://app?vid=ebefafa4-e016-4a1e-933a-e10874df5a61"},"vehicle_type_id":"4","last_reported":1747465761,"current_range_meters":19600,"station_id":"","pricing_plan_id":"cebpf4jnsgd1na2vs0mg"},{"bike_id":"f95f6b13-fb6b-4918-aa29-c70dce4e737e","system_id":"levelo_inurba_marseille","lat":43.32344,"lon":5.40638,"is_reserved":false,"is_disabled":false,"rental_uris":{"android":"levelo://app?vid=f95f6b13-fb6b-4918-aa29-c70dce4e737e","ios":"levelo://app?vid=f95f6b13-fb6b-4918-aa29-c70dce4e737e"},"vehicle_type_id":"4","last_reported":1747465761,"current_range_meters":20000,"station_id":"ce4bhq92rcd13ifvqhjg","pricing_plan_id":"cebpf4jnsgd1na2vs0mg"},{"bike_id":"60e10184-07e6-46a8-8bce-9d9eee66374d","system_id":"levelo_inurba_marseille","lat":43.21744,"lon":5.34602,"is_reserved":false,"is_disabled":false,"rental_uris":{"android":"levelo://app?vid=60e10184-07e6-46a8-8bce-9d9eee66374d","ios":"levelo://app?vid=60e10184-07e6-46a8-8bce-9d9eee66374d"},"vehicle_type_id":"4","last_reported":1747465761,"current_range_meters":20000,"station_id":"st_cvj6r9ubvosntc0bgbag","pricing_plan_id":"cebpf4jnsgd1na2vs0mg"},{"bike_id":"68e6df83-7816-4ef5-a379-dd949cbe77d2","system_id":"levelo_inurba_marseille","lat":43.23187,"lon":5.39992,"is_reserved":false,"is_disabled":false,"rental_uris":{"android":"levelo://app?vid=68e6df83-7816-4ef5-a379-dd949cbe77d2","ios":"levelo://app?vid=68e6df83-7816-4ef5-a379-dd949cbe77d2"},"vehicle_type_id":"4","last_reported":1747465761,"current_range_meters":20000,"station_id":"ce4bhn12rcd13ifvqgqg","pricing_plan_id":"cebpf4jnsgd1na2vs0mg"},{"bike_id":"53f2f235-9fc1-4337-9315-cd5a3910fa60","system_id":"levelo_inurba_marseille","lat":43.31332,"lon":5.39707,"is_reserved":false,"is_disabled":false,"rental_uris":{"android":"levelo://app?vid=53f2f235-9fc1-4337-9315-cd5a3910fa60","ios":"levelo://app?vid=53f2f235-9fc1-4337-9315-cd5a3910fa60"},"vehicle_type_id":"4","last_reported":1747465761,"current_range_meters":20000,"station_id":"ce4bgvp2rcd13ifvqcu0","pricing_plan_id":"cebpf4jnsgd1na2vs0mg"},{"bike_id":"2cc004ad-3e7a-40e0-9bcf-8bc715405563","system_id":"levelo_inurba_marseille","lat":43.28615,"lon":5.35103,"is_reserved":false,"is_disabled":false,"rental_uris":{"android":"levelo://app?vid=2cc004ad-3e7a-40e0-9bcf-8bc715405563","ios":"levelo://app?vid=2cc004ad-3e7a-40e0-9bcf-8bc715405563"},"vehicle_type_id":"4","last_reported":1747465761,"current_range_meters":20000,"station_id":"ce4bhch2rcd13ifvqeug","pricing_plan_id":"cebpf4jnsgd1na2vs0mg"},{"bike_id":"90014d97-06db-4bc1-ab3f-97e958703dbb","system_id":"levelo_inurba_marseille","lat":43.31688,"lon":5.40447,"is_reserved":false,"is_disabled":false,"rental_uris":{"android":"levelo://app?vid=90014d97-06db-4bc1-ab3f-97e958703dbb","ios":"levelo://app?vid=90014d97-06db-4bc1-ab3f-97e958703dbb"},"vehicle_type_id":"4","last_reported":1747465761,"current_range_meters":20000,"station_id":"ce4bh012rcd13ifvqd00","pricing_plan_id":"cebpf4jnsgd1na2vs0mg"},{"bike_id":"1fddf378-6322-4ccb-b5e2-e15a5c6e70ba","system_id":"levelo_inurba_marseille","lat":43.32352,"lon":5.3888,"is_reserved":false,"is_disabled":false,"rental_uris":{"android":"levelo://app?vid=1fddf378-6322-4ccb-b5e2-e15a5c6e70ba","ios":"levelo://app?vid=1fddf378-6322-4ccb-b5e2-e15a5c6e70ba"},"vehicle_type_id":"4","last_reported":1747465761,"current_range_meters":20000,"station_id":"ce4bhqp2rcd13ifvqhog","pricing_plan_id":"cebpf4jnsgd1na2vs0mg"},{"bike_id":"a6091ded-8be2-464c-8061-55616f793242","system_id":"levelo_inurba_marseille","lat":43.309063,"lon":5.371798,"is_reserved":false,"is_disabled":false,"rental_uris":{"android":"levelo://app?vid=a6091ded-8be2-464c-8061-55616f793242","ios":"levelo://app?vid=a6091ded-8be2-464c-8061-55616f793242"},"vehicle_type_id":"4","last_reported":1747465761,"current_range_meters":20000,"station_id":"ce4bguh2rcd13ifvqckg","pricing_plan_id":"cebpf4jnsgd1na2vs0mg"},{"bike_id":"ea2d3dd8-83ee-4dd0-b709-3f2a8dd2f74d","system_id":"levelo_inurba_marseille","lat":43.21754,"lon":5.34623,"is_reserved":false,"is_disabled":false,"rental_uris":{"android":"levelo://app?vid=ea2d3dd8-83ee-4dd0-b709-3f2a8dd2f74d","ios":"levelo://app?vid=ea2d3dd8-83ee-4dd0-b709-3f2a8dd2f74d"},"vehicle_type_id":"4","last_reported":1747465761,"current_range_meters":20400,"station_id":"st_cvj6r9ubvosntc0bgbag","pricing_plan_id":"cebpf4jnsgd1na2vs0mg"},{"bike_id":"2afaca15-0485-427d-8585-df19badd207b","system_id":"levelo_inurba_marseille","lat":43.22502,"lon":5.34767,"is_reserved":false,"is_disabled":false,"rental_uris":{"android":"levelo://app?vid=2afaca15-0485-427d-8585-df19badd207b","ios":"levelo://app?vid=2afaca15-0485-427d-8585-df19badd207b"},"vehicle_type_id":"4","last_reported":1747465761,"current_range_meters":20800,"station_id":"st_cvj5dfep6f1abm77gieg","pricing_plan_id":"cebpf4jnsgd1na2vs0mg"},{"bike_id":"5192b7b2-293a-46b1-9fa3-9acbd4a19c0c","system_id":"levelo_inurba_marseille","lat":43.31717,"lon":5.37764,"is_reserved":false,"is_disabled":true,"rental_uris":{"android":"levelo://app?vid=5192b7b2-293a-46b1-9fa3-9acbd4a19c0c","ios":"levelo://app?vid=5192b7b2-293a-46b1-9fa3-9acbd4a19c0c"},"vehicle_type_id":"4","last_reported":1747465761,"current_range_meters":20800,"station_id":"ce4bgth2rcd13ifvqch0","pricing_plan_id":"cebpf4jnsgd1na2vs0mg"},{"bike_id":"76df6283-872b-4dbe-86bb-00091fbdc439","system_id":"levelo_inurba_marseille","lat":43.30166,"lon":5.381,"is_reserved":false,"is_disabled":false,"rental_uris":{"android":"levelo://app?vid=76df6283-872b-4dbe-86bb-00091fbdc439","ios":"levelo://app?vid=76df6283-872b-4dbe-86bb-00091fbdc439"},"vehicle_type_id":"4","last_reported":1747465761,"current_range_meters":20800,"station_id":"ce4bgjp2rcd13ifvqbh0","pricing_plan_id":"cebpf4jnsgd1na2vs0mg"},{"bike_id":"0bbae27d-252b-4ebb-871e-0cea87aa3c08","system_id":"levelo_inurba_marseille","lat":43.30797,"lon":5.43507,"is_reserved":false,"is_disabled":false,"rental_uris":{"android":"levelo://app?vid=0bbae27d-252b-4ebb-871e-0cea87aa3c08","ios":"levelo://app?vid=0bbae27d-252b-4ebb-871e-0cea87aa3c08"},"vehicle_type_id":"4","last_reported":1747465761,"current_range_meters":20800,"station_id":"ce4bhph2rcd13ifvqheg","pricing_plan_id":"cebpf4jnsgd1na2vs0mg"},{"bike_id":"02645179-1b12-4f43-b7c8-1eb50828c7d0","system_id":"levelo_inurba_marseille","lat":43.29165,"lon":5.37122,"is_reserved":false,"is_disabled":true,"rental_uris":{"android":"levelo://app?vid=02645179-1b12-4f43-b7c8-1eb50828c7d0","ios":"levelo://app?vid=02645179-1b12-4f43-b7c8-1eb50828c7d0"},"vehicle_type_id":"4","last_reported":1747465761,"current_range_meters":20800,"station_id":"ce4bha92rcd13ifvqeh0","pricing_plan_id":"cebpf4jnsgd1na2vs0mg"},{"bike_id":"21eda633-88af-4b0e-a31a-3cc02cecde91","system_id":"levelo_inurba_marseille","lat":43.24387,"lon":5.37062,"is_reserved":false,"is_disabled":false,"rental_uris":{"android":"levelo://app?vid=21eda633-88af-4b0e-a31a-3cc02cecde91","ios":"levelo://app?vid=21eda633-88af-4b0e-a31a-3cc02cecde91"},"vehicle_type_id":"4","last_reported":1747465761,"current_range_meters":20800,"station_id":"ce4bhhh2rcd13ifvqfk0","pricing_plan_id":"cebpf4jnsgd1na2vs0mg"},{"bike_id":"86603db7-b462-4e72-8622-a2dee8bb2920","system_id":"levelo_inurba_marseille","lat":43.337444,"lon":5.374475,"is_reserved":false,"is_disabled":false,"rental_uris":{"android":"levelo://app?vid=86603db7-b462-4e72-8622-a2dee8bb2920","ios":"levelo://app?vid=86603db7-b462-4e72-8622-a2dee8bb2920"},"vehicle_type_id":"4","last_reported":1747465761,"current_range_meters":20800,"station_id":"","pricing_plan_id":"cebpf4jnsgd1na2vs0mg"},{"bike_id":"de395387-3719-4338-8762-150bf424eba2","system_id":"levelo_inurba_marseille","lat":43.310441,"lon":5.393571,"is_reserved":false,"is_disabled":false,"rental_uris":{"android":"levelo://app?vid=de395387-3719-4338-8762-150bf424eba2","ios":"levelo://app?vid=de395387-3719-4338-8762-150bf424eba2"},"vehicle_type_id":"4","last_reported":1747465761,"current_range_meters":20800,"station_id":"","pricing_plan_id":"cebpf4jnsgd1na2vs0mg"},{"bike_id":"853ed374-60d5-4054-9312-5a029e078d6f","system_id":"levelo_inurba_marseille","lat":43.243923,"lon":5.370644,"is_reserved":false,"is_disabled":false,"rental_uris":{"android":"levelo://app?vid=853ed374-60d5-4054-9312-5a029e078d6f","ios":"levelo://app?vid=853ed374-60d5-4054-9312-5a029e078d6f"},"vehicle_type_id":"4","last_reported":1747465761,"current_range_meters":20800,"station_id":"ce4bhhh2rcd13ifvqfk0","pricing_plan_id":"cebpf4jnsgd1na2vs0mg"},{"bike_id":"205f7523-6d66-444d-a89b-0dee64699a21","system_id":"levelo_inurba_marseille","lat":43.231794,"lon":5.399759,"is_reserved":false,"is_disabled":false,"rental_uris":{"android":"levelo://app?vid=205f7523-6d66-444d-a89b-0dee64699a21","ios":"levelo://app?vid=205f7523-6d66-444d-a89b-0dee64699a21"},"vehicle_type_id":"4","last_reported":1747465761,"current_range_meters":20800,"station_id":"ce4bhn12rcd13ifvqgqg","pricing_plan_id":"cebpf4jnsgd1na2vs0mg"},{"bike_id":"19456222-7d38-48cf-a950-06daadd07927","system_id":"levelo_inurba_marseille","lat":43.25019,"lon":5.37545,"is_reserved":false,"is_disabled":false,"rental_uris":{"android":"levelo://app?vid=19456222-7d38-48cf-a950-06daadd07927","ios":"levelo://app?vid=19456222-7d38-48cf-a950-06daadd07927"},"vehicle_type_id":"4","last_reported":1747465761,"current_range_meters":21600,"station_id":"","pricing_plan_id":"cebpf4jnsgd1na2vs0mg"},