{"last_updated":1778516560,"ttl":60,"version":"2.2","data":{"bikes":[{"bike_id":"24369ec0-63a7-4d07-bda9-c5a793dddaa3","system_id":"levelo_inurba_marseille","lat":43.3017,"lon":5.3664,"is_reserved":false,"is_disabled":false,"rental_uris":{"android":"levelo://app?vid=24369ec0-63a7-4d07-bda9-c5a793dddaa3","ios":"levelo://app?vid=24369ec0-63a7-4d07-bda9-c5a793dddaa3"},"vehicle_type_id":"4","last_reported":1778516560,"current_range_meters":2800,"station_id":"ce4bgrh2rcd13ifvqc8g","pricing_plan_id":"cebpf4jnsgd1na2vs0mg"},{"bike_id":"18ce8587-878a-4858-b601-9d7adf009359","system_id":"levelo_inurba_marseille","lat":43.27172,"lon":5.39156,"is_reserved":false,"is_disabled":true,"rental_uris":{"android":"levelo://app?vid=18ce8587-878a-4858-b601-9d7adf009359","ios":"levelo://app?vid=18ce8587-878a-4858-b601-9d7adf009359"},"vehicle_type_id":"4","last_reported":1778516560,"current_range_meters":2800,"station_id":"ce4bhhp2rcd13ifvqfm0","pricing_plan_id":"cebpf4jnsgd1na2vs0mg"},{"bike_id":"00a1d98c-0a0e-420a-bb25-aa2497f6b62e","system_id":"levelo_inurba_marseille","lat":43.24808,"lon":5.37451,"is_reserved":false,"is_disabled":false,"rental_uris":{"android":"levelo://app?vid=00a1d98c-0a0e-420a-bb25-aa2497f6b62e","ios":"levelo://app?vid=00a1d98c-0a0e-420a-bb25-aa2497f6b62e"},"vehicle_type_id":"4","last_reported":1778516560,"current_range_meters":2800,"station_id":"ce4bhgh2rcd13ifvqfb0","pricing_plan_id":"cebpf4jnsgd1na2vs0mg"},{"bike_id":"04318cd3-98ea-450b-b5f3-4a7277c0604c","system_id":"levelo_inurba_marseille","lat":43.24625,"lon":5.43137,"is_reserved":false,"is_disabled":false,"rental_uris":{"android":"levelo://app?vid=04318cd3-98ea-450b-b5f3-4a7277c0604c","ios":"levelo://app?vid=04318cd3-98ea-450b-b5f3-4a7277c0604c"},"vehicle_type_id":"4","last_reported":1778516560,"current_range_meters":2800,"station_id":"st_d2m6c4gdas8pm72e190g","pricing_plan_id":"cebpf4jnsgd1na2vs0mg"},{"bike_id":"dc3c1ae4-2e4d-4477-83ea-a0ef256ed5b7","system_id":"levelo_inurba_marseille","lat":43.29568,"lon":5.37504,"is_reserved":false,"is_disabled":true,"rental_uris":{"android":"levelo://app?vid=dc3c1ae4-2e4d-4477-83ea-a0ef256ed5b7","ios":"levelo://app?vid=dc3c1ae4-2e4d-4477-83ea-a0ef256ed5b7"},"vehicle_type_id":"4","last_reported":1778516560,"current_range_meters":2800,"station_id":"ce4bgh92rcd13ifvqb50","pricing_plan_id":"cebpf4jnsgd1na2vs0mg"},{"bike_id":"e0eefd17-c8b1-423c-99e3-8d1031e22cb0","system_id":"levelo_inurba_marseille","lat":43.26373,"lon":5.41077,"is_reserved":false,"is_disabled":true,"rental_uris":{"android":"levelo://app?vid=e0eefd17-c8b1-423c-99e3-8d1031e22cb0","ios":"levelo://app?vid=e0eefd17-c8b1-423c-99e3-8d1031e22cb0"},"vehicle_type_id":"4","last_reported":1778516560,"current_range_meters":2800,"station_id":"st_d4e5ca6na9uc73bfl5fg","pricing_plan_id":"cebpf4jnsgd1na2vs0mg"},{"bike_id":"89bdea9c-d861-4eda-8128-66d6f942d629","system_id":"levelo_inurba_marseille","lat":43.25346,"lon":5.42174,"is_reserved":false,"is_disabled":true,"rental_uris":{"android":"levelo://app?vid=89bdea9c-d861-4eda-8128-66d6f942d629","ios":"levelo://app?vid=89bdea9c-d861-4eda-8128-66d6f942d629"},"vehicle_type_id":"4","last_reported":1778516560,"current_range_meters":2800,"station_id":"st_d2m65c5bi1j21697t3ng","pricing_plan_id":"cebpf4jnsgd1na2vs0mg"},{"bike_id":"8722c7b2-a812-4187-b6b4-a5f0e0201864","system_id":"levelo_inurba_marseille","lat":43.28705,"lon":5.39977,"is_reserved":false,"is_disabled":false,"rental_uris":{"android":"levelo://app?vid=8722c7b2-a812-4187-b6b4-a5f0e0201864","ios":"levelo://app?vid=8722c7b2-a812-4187-b6b4-a5f0e0201864"},"vehicle_type_id":"4","last_reported":1778516560,"current_range_meters":2800,"station_id":"ce4bho92rcd13ifvqh3g","pricing_plan_id":"cebpf4jnsgd1na2vs0mg"},{"bike_id":"9c3b2cbf-5cfd-47dd-880d-ef99eef5ea91","system_id":"levelo_inurba_marseille","lat":43.27997,"lon":5.40016,"is_reserved":false,"is_disabled":false,"rental_uris":{"android":"levelo://app?vid=9c3b2cbf-5cfd-47dd-880d-ef99eef5ea91","ios":"levelo://app?vid=9c3b2cbf-5cfd-47dd-880d-ef99eef5ea91"},"vehicle_type_id":"4","last_reported":1778516560,"current_range_meters":2800,"station_id":"ce4bho92rcd13ifvqh4g","pricing_plan_id":"cebpf4jnsgd1na2vs0mg"},{"bike_id":"35f01d91-7cde-4a35-8dc4-715697d6d7b2","system_id":"levelo_inurba_marseille","lat":43.27204,"lon":5.39149,"is_reserved":false,"is_disabled":false,"rental_uris":{"android":"levelo://app?vid=35f01d91-7cde-4a35-8dc4-715697d6d7b2","ios":"levelo://app?vid=35f01d91-7cde-4a35-8dc4-715697d6d7b2"},"vehicle_type_id":"4","last_reported":1778516560,"current_range_meters":2800,"station_id":"ce4bhhp2rcd13ifvqfm0","pricing_plan_id":"cebpf4jnsgd1na2vs0mg"},{"bike_id":"88340f67-8d61-488b-9acf-1d9e3bea93f5","system_id":"levelo_inurba_marseille","lat":43.26499,"lon":5.39525,"is_reserved":false,"is_disabled":false,"rental_uris":{"android":"levelo://app?vid=88340f67-8d61-488b-9acf-1d9e3bea93f5","ios":"levelo://app?vid=88340f67-8d61-488b-9acf-1d9e3bea93f5"},"vehicle_type_id":"4","last_reported":1778516560,"current_range_meters":2800,"station_id":"ce4bhi12rcd13ifvqfq0","pricing_plan_id":"cebpf4jnsgd1na2vs0mg"},{"bike_id":"b5f29cd1-9b76-4e43-a4e7-d260fbddd313","system_id":"levelo_inurba_marseille","lat":43.32201,"lon":5.37484,"is_reserved":false,"is_disabled":false,"rental_uris":{"android":"levelo://app?vid=b5f29cd1-9b76-4e43-a4e7-d260fbddd313","ios":"levelo://app?vid=b5f29cd1-9b76-4e43-a4e7-d260fbddd313"},"vehicle_type_id":"4","last_reported":1778516560,"current_range_meters":3200,"station_id":"","pricing_plan_id":"cebpf4jnsgd1na2vs0mg"},{"bike_id":"3da2fb52-61bb-4052-b8e4-2f0dba17569b","system_id":"levelo_inurba_marseille","lat":43.31979,"lon":5.43967,"is_reserved":false,"is_disabled":false,"rental_uris":{"android":"levelo://app?vid=3da2fb52-61bb-4052-b8e4-2f0dba17569b","ios":"levelo://app?vid=3da2fb52-61bb-4052-b8e4-2f0dba17569b"},"vehicle_type_id":"4","last_reported":1778516560,"current_range_meters":3200,"station_id":"","pricing_plan_id":"cebpf4jnsgd1na2vs0mg"},{"bike_id":"507be34d-72bf-45c5-957c-3bfa43203607","system_id":"levelo_inurba_marseille","lat":43.31976,"lon":5.38161,"is_reserved":false,"is_disabled":true,"rental_uris":{"android":"levelo://app?vid=507be34d-72bf-45c5-957c-3bfa43203607","ios":"levelo://app?vid=507be34d-72bf-45c5-957c-3bfa43203607"},"vehicle_type_id":"4","last_reported":1778516560,"current_range_meters":3200,"station_id":"ce4bhr12rcd13ifvqhpg","pricing_plan_id":"cebpf4jnsgd1na2vs0mg"},{"bike_id":"fbf82a50-9291-4f94-b3d1-477e112df9dd","system_id":"levelo_inurba_marseille","lat":43.29704,"lon":5.36614,"is_reserved":false,"is_disabled":false,"rental_uris":{"android":"levelo://app?vid=fbf82a50-9291-4f94-b3d1-477e112df9dd","ios":"levelo://app?vid=fbf82a50-9291-4f94-b3d1-477e112df9dd"},"vehicle_type_id":"4","last_reported":1778516560,"current_range_meters":3200,"station_id":"ce4bgn12rcd13ifvqbt0","pricing_plan_id":"cebpf4jnsgd1na2vs0mg"},{"bike_id":"d01eff7a-fee5-4241-916e-ed7ada25bd1c","system_id":"levelo_inurba_marseille","lat":43.248026,"lon":5.374556,"is_reserved":false,"is_disabled":false,"rental_uris":{"android":"levelo://app?vid=d01eff7a-fee5-4241-916e-ed7ada25bd1c","ios":"levelo://app?vid=d01eff7a-fee5-4241-916e-ed7ada25bd1c"},"vehicle_type_id":"4","last_reported":1778516560,"current_range_meters":3200,"station_id":"ce4bhgh2rcd13ifvqfb0","pricing_plan_id":"cebpf4jnsgd1na2vs0mg"},{"bike_id":"fd2aabb0-69b1-4e19-8f89-0b64d5239b99","system_id":"levelo_inurba_marseille","lat":43.24893,"lon":5.4049,"is_reserved":false,"is_disabled":false,"rental_uris":{"android":"levelo://app?vid=fd2aabb0-69b1-4e19-8f89-0b64d5239b99","ios":"levelo://app?vid=fd2aabb0-69b1-4e19-8f89-0b64d5239b99"},"vehicle_type_id":"4","last_reported":1778516560,"current_range_meters":3200,"station_id":"st_d2ngiaodas8pm72gd1h0","pricing_plan_id":"cebpf4jnsgd1na2vs0mg"},{"bike_id":"1bb5e473-433a-4f5c-bcbd-0c85212090bf","system_id":"levelo_inurba_marseille","lat":43.29579,"lon":5.38246,"is_reserved":false,"is_disabled":true,"rental_uris":{"android":"levelo://app?vid=1bb5e473-433a-4f5c-bcbd-0c85212090bf","ios":"levelo://app?vid=1bb5e473-433a-4f5c-bcbd-0c85212090bf"},"vehicle_type_id":"4","last_reported":1778516560,"current_range_meters":3200,"station_id":"","pricing_plan_id":"cebpf4jnsgd1na2vs0mg"},{"bike_id":"c63bb691-f4d9-4eeb-af54-7459a777f197","system_id":"levelo_inurba_marseille","lat":43.25113,"lon":5.40312,"is_reserved":false,"is_disabled":false,"rental_uris":{"android":"levelo://app?vid=c63bb691-f4d9-4eeb-af54-7459a777f197","ios":"levelo://app?vid=c63bb691-f4d9-4eeb-af54-7459a777f197"},"vehicle_type_id":"4","last_reported":1778516560,"current_range_meters":3200,"station_id":"ce4bhlh2rcd13ifvqgig","pricing_plan_id":"cebpf4jnsgd1na2vs0mg"},{"bike_id":"7a55cea0-fb18-4ae3-8d05-e6520bed9b73","system_id":"levelo_inurba_marseille","lat":43.32115,"lon":5.36773,"is_reserved":false,"is_disabled":false,"rental_uris":{"android":"levelo://app?vid=7a55cea0-fb18-4ae3-8d05-e6520bed9b73","ios":"levelo://app?vid=7a55cea0-fb18-4ae3-8d05-e6520bed9b73"},"vehicle_type_id":"4","last_reported":1778516560,"current_range_meters":3200,"station_id":"ce4bhrh2rcd13ifvqhug","pricing_plan_id":"cebpf4jnsgd1na2vs0mg"},{"bike_id":"094afe51-b864-4ecb-ba17-557a922b9b54","system_id":"levelo_inurba_marseille","lat":43.28428,"lon":5.34996,"is_reserved":false,"is_disabled":false,"rental_uris":{"android":"levelo://app?vid=094afe51-b864-4ecb-ba17-557a922b9b54","ios":"levelo://app?vid=094afe51-b864-4ecb-ba17-557a922b9b54"},"vehicle_type_id":"4","last_reported":1778516560,"current_range_meters":3200,"station_id":"ce4bhbh2rcd13ifvqepg","pricing_plan_id":"cebpf4jnsgd1na2vs0mg"},{"bike_id":"44ee2362-fe04-4866-ae78-314487a1c926","system_id":"levelo_inurba_marseille","lat":43.26058,"lon":5.38636,"is_reserved":false,"is_disabled":false,"rental_uris":{"android":"levelo://app?vid=44ee2362-fe04-4866-ae78-314487a1c926","ios":"levelo://app?vid=44ee2362-fe04-4866-ae78-314487a1c926"},"vehicle_type_id":"4","last_reported":1778516560,"current_range_meters":3200,"station_id":"","pricing_plan_id":"cebpf4jnsgd1na2vs0mg"},{"bike_id":"fa2d404a-d5be-4827-862c-e25025d65719","system_id":"levelo_inurba_marseille","lat":43.29051,"lon":5.37148,"is_reserved":false,"is_disabled":true,"rental_uris":{"android":"levelo://app?vid=fa2d404a-d5be-4827-862c-e25025d65719","ios":"levelo://app?vid=fa2d404a-d5be-4827-862c-e25025d65719"},"vehicle_type_id":"4","last_reported":1778516560,"current_range_meters":3600,"station_id":"ce4bh5p2rcd13ifvqe4g","pricing_plan_id":"cebpf4jnsgd1na2vs0mg"},{"bike_id":"04d7c7eb-e6a2-4889-9a4e-1bbcb42c7b75","system_id":"levelo_inurba_marseille","lat":43.28266,"lon":5.3506,"is_reserved":false,"is_disabled":false,"rental_uris":{"android":"levelo://app?vid=04d7c7eb-e6a2-4889-9a4e-1bbcb42c7b75","ios":"levelo://app?vid=04d7c7eb-e6a2-4889-9a4e-1bbcb42c7b75"},"vehicle_type_id":"4","last_reported":1778516560,"current_range_meters":3600,"station_id":"ce4bhbp2rcd13ifvqerg","pricing_plan_id":"cebpf4jnsgd1na2vs0mg"},{"bike_id":"464b3603-175c-4358-af55-7ce081d97cff","system_id":"levelo_inurba_marseille","lat":43.24809,"lon":5.37446,"is_reserved":false,"is_disabled":false,"rental_uris":{"android":"levelo://app?vid=464b3603-175c-4358-af55-7ce081d97cff","ios":"levelo://app?vid=464b3603-175c-4358-af55-7ce081d97cff"},"vehicle_type_id":"4","last_reported":1778516560,"current_range_meters":3600,"station_id":"ce4bhgh2rcd13ifvqfb0","pricing_plan_id":"cebpf4jnsgd1na2vs0mg"},{"bike_id":"b7dbf14e-65a6-46c9-8537-7747bbd11e08","system_id":"levelo_inurba_marseille","lat":43.25107,"lon":5.4032,"is_reserved":false,"is_disabled":false,"rental_uris":{"android":"levelo://app?vid=b7dbf14e-65a6-46c9-8537-7747bbd11e08","ios":"levelo://app?vid=b7dbf14e-65a6-46c9-8537-7747bbd11e08"},"vehicle_type_id":"4","last_reported":1778516560,"current_range_meters":3600,"station_id":"ce4bhlh2rcd13ifvqgig","pricing_plan_id":"cebpf4jnsgd1na2vs0mg"},{"bike_id":"75ea7aea-3538-4429-b5e3-353af5447364","system_id":"levelo_inurba_marseille","lat":43.26217,"lon":5.40459,"is_reserved":false,"is_disabled":false,"rental_uris":{"android":"levelo://app?vid=75ea7aea-3538-4429-b5e3-353af5447364","ios":"levelo://app?vid=75ea7aea-3538-4429-b5e3-353af5447364"},"vehicle_type_id":"4","last_reported":1778516560,"current_range_meters":3600,"station_id":"ce4bhmh2rcd13ifvqgmg","pricing_plan_id":"cebpf4jnsgd1na2vs0mg"},{"bike_id":"5a0a5d3d-76f9-4b81-bea6-beb44ef5cfd4","system_id":"levelo_inurba_marseille","lat":43.32663,"lon":5.40988,"is_reserved":false,"is_disabled":false,"rental_uris":{"android":"levelo://app?vid=5a0a5d3d-76f9-4b81-bea6-beb44ef5cfd4","ios":"levelo://app?vid=5a0a5d3d-76f9-4b81-bea6-beb44ef5cfd4"},"vehicle_type_id":"4","last_reported":1778516560,"current_range_meters":3600,"station_id":"ce4bhpp2rcd13ifvqhgg","pricing_plan_id":"cebpf4jnsgd1na2vs0mg"},{"bike_id":"328fc79b-6804-4d01-af71-228a208e5176","system_id":"levelo_inurba_marseille","lat":43.23303,"lon":5.35794,"is_reserved":false,"is_disabled":false,"rental_uris":{"android":"levelo://app?vid=328fc79b-6804-4d01-af71-228a208e5176","ios":"levelo://app?vid=328fc79b-6804-4d01-af71-228a208e5176"},"vehicle_type_id":"4","last_reported":1778516560,"current_range_meters":3600,"station_id":"","pricing_plan_id":"cebpf4jnsgd1na2vs0mg"},{"bike_id":"e12c8b47-5e4e-40ad-8a99-fb6391376bb2","system_id":"levelo_inurba_marseille","lat":43.25933,"lon":5.40908,"is_reserved":false,"is_disabled":false,"rental_uris":{"android":"levelo://app?vid=e12c8b47-5e4e-40ad-8a99-fb6391376bb2","ios":"levelo://app?vid=e12c8b47-5e4e-40ad-8a99-fb6391376bb2"},"vehicle_type_id":"4","last_reported":1778516560,"current_range_meters":3600,"station_id":"ce4bhm92rcd13ifvqglg","pricing_plan_id":"cebpf4jnsgd1na2vs0mg"},{"bike_id":"2ab52f5c-7158-41c0-b01e-fcbfd6a57133","system_id":"levelo_inurba_marseille","lat":43.29449,"lon":5.39753,"is_reserved":false,"is_disabled":false,"rental_uris":{"android":"levelo://app?vid=2ab52f5c-7158-41c0-b01e-fcbfd6a57133","ios":"levelo://app?vid=2ab52f5c-7158-41c0-b01e-fcbfd6a57133"},"vehicle_type_id":"4","last_reported":1778516560,"current_range_meters":4000,"station_id":"ce4bh3h2rcd13ifvqdo0","pricing_plan_id":"cebpf4jnsgd1na2vs0mg"},{"bike_id":"50b9163b-20cf-4836-b9a5-535132894940","system_id":"levelo_inurba_marseille","lat":43.28874,"lon":5.42525,"is_reserved":false,"is_disabled":false,"rental_uris":{"android":"levelo://app?vid=50b9163b-20cf-4836-b9a5-535132894940","ios":"levelo://app?vid=50b9163b-20cf-4836-b9a5-535132894940"},"vehicle_type_id":"4","last_reported":1778516560,"current_range_meters":4000,"station_id":"st_d3b462108ojc7389ooeg","pricing_plan_id":"cebpf4jnsgd1na2vs0mg"},{"bike_id":"f6f40374-43fa-47de-b3a0-6f7526ff03b2","system_id":"levelo_inurba_marseille","lat":43.24949,"lon":5.40483,"is_reserved":false,"is_disabled":false,"rental_uris":{"android":"levelo://app?vid=f6f40374-43fa-47de-b3a0-6f7526ff03b2","ios":"levelo://app?vid=f6f40374-43fa-47de-b3a0-6f7526ff03b2"},"vehicle_type_id":"4","last_reported":1778516560,"current_range_meters":4000,"station_id":"st_d2ngiaodas8pm72gd1h0","pricing_plan_id":"cebpf4jnsgd1na2vs0mg"},{"bike_id":"2c7e31a1-41f3-4438-a62b-0bc3ec8f85da","system_id":"levelo_inurba_marseille","lat":43.28484,"lon":5.38414,"is_reserved":false,"is_disabled":false,"rental_uris":{"android":"levelo://app?vid=2c7e31a1-41f3-4438-a62b-0bc3ec8f85da","ios":"levelo://app?vid=2c7e31a1-41f3-4438-a62b-0bc3ec8f85da"},"vehicle_type_id":"4","last_reported":1778516560,"current_range_meters":4000,"station_id":"ce4bh512rcd13ifvqe3g","pricing_plan_id":"cebpf4jnsgd1na2vs0mg"},{"bike_id":"d5a0d24e-159b-4d3a-9f88-77e0162bb597","system_id":"levelo_inurba_marseille","lat":43.28487,"lon":5.38445,"is_reserved":false,"is_disabled":false,"rental_uris":{"android":"levelo://app?vid=d5a0d24e-159b-4d3a-9f88-77e0162bb597","ios":"levelo://app?vid=d5a0d24e-159b-4d3a-9f88-77e0162bb597"},"vehicle_type_id":"4","last_reported":1778516560,"current_range_meters":4000,"station_id":"ce4bh512rcd13ifvqe3g","pricing_plan_id":"cebpf4jnsgd1na2vs0mg"},{"bike_id":"bfdb93c2-712b-4db7-b9fc-61bbe20edd00","system_id":"levelo_inurba_marseille","lat":43.24399,"lon":5.37042,"is_reserved":false,"is_disabled":true,"rental_uris":{"android":"levelo://app?vid=bfdb93c2-712b-4db7-b9fc-61bbe20edd00","ios":"levelo://app?vid=bfdb93c2-712b-4db7-b9fc-61bbe20edd00"},"vehicle_type_id":"4","last_reported":1778516560,"current_range_meters":4000,"station_id":"ce4bhhh2rcd13ifvqfk0","pricing_plan_id":"cebpf4jnsgd1na2vs0mg"},{"bike_id":"f7325664-231f-4d91-adea-08851f268f90","system_id":"levelo_inurba_marseille","lat":43.33157,"lon":5.37685,"is_reserved":false,"is_disabled":false,"rental_uris":{"android":"levelo://app?vid=f7325664-231f-4d91-adea-08851f268f90","ios":"levelo://app?vid=f7325664-231f-4d91-adea-08851f268f90"},"vehicle_type_id":"4","last_reported":1778516560,"current_range_meters":4000,"station_id":"st_d46cu089ee8s73dldbu0","pricing_plan_id":"cebpf4jnsgd1na2vs0mg"},{"bike_id":"103ccc8b-89ea-4672-baa1-7ed7fb06f1e1","system_id":"levelo_inurba_marseille","lat":43.30806,"lon":5.40015,"is_reserved":false,"is_disabled":false,"rental_uris":{"android":"levelo://app?vid=103ccc8b-89ea-4672-baa1-7ed7fb06f1e1","ios":"levelo://app?vid=103ccc8b-89ea-4672-baa1-7ed7fb06f1e1"},"vehicle_type_id":"4","last_reported":1778516560,"current_range_meters":4000,"station_id":"","pricing_plan_id":"cebpf4jnsgd1na2vs0mg"},{"bike_id":"2f8e6716-ffd4-472e-ac52-c0250733d66f","system_id":"levelo_inurba_marseille","lat":43.265598,"lon":5.372835,"is_reserved":false,"is_disabled":false,"rental_uris":{"android":"levelo://app?vid=2f8e6716-ffd4-472e-ac52-c0250733d66f","ios":"levelo://app?vid=2f8e6716-ffd4-472e-ac52-c0250733d66f"},"vehicle_type_id":"4","last_reported":1778516560,"current_range_meters":4000,"station_id":"ce4bhg12rcd13ifvqf70","pricing_plan_id":"cebpf4jnsgd1na2vs0mg"},{"bike_id":"482c34a3-6714-4c2a-b3d0-4c0dab85dfc1","system_id":"levelo_inurba_marseille","lat":43.28487,"lon":5.38549,"is_reserved":false,"is_disabled":false,"rental_uris":{"android":"levelo://app?vid=482c34a3-6714-4c2a-b3d0-4c0dab85dfc1","ios":"levelo://app?vid=482c34a3-6714-4c2a-b3d0-4c0dab85dfc1"},"vehicle_type_id":"4","last_reported":1778516560,"current_range_meters":4000,"station_id":"ce4bh8p2rcd13ifvqeb0","pricing_plan_id":"cebpf4jnsgd1na2vs0mg"},{"bike_id":"c451fbfe-d470-467d-9809-58f73ac905ca","system_id":"levelo_inurba_marseille","lat":43.24646,"lon":5.38886,"is_reserved":false,"is_disabled":false,"rental_uris":{"android":"levelo://app?vid=c451fbfe-d470-467d-9809-58f73ac905ca","ios":"levelo://app?vid=c451fbfe-d470-467d-9809-58f73ac905ca"},"vehicle_type_id":"4","last_reported":1778516560,"current_range_meters":4000,"station_id":"ce4bhg12rcd13ifvqf60","pricing_plan_id":"cebpf4jnsgd1na2vs0mg"},{"bike_id":"c1775866-e028-474b-ad8d-5f809a1ea766","system_id":"levelo_inurba_marseille","lat":43.3107,"lon":5.36873,"is_reserved":false,"is_disabled":false,"rental_uris":{"android":"levelo://app?vid=c1775866-e028-474b-ad8d-5f809a1ea766","ios":"levelo://app?vid=c1775866-e028-474b-ad8d-5f809a1ea766"},"vehicle_type_id":"4","last_reported":1778516560,"current_range_meters":4400,"station_id":"","pricing_plan_id":"cebpf4jnsgd1na2vs0mg"},{"bike_id":"98ab0ff5-8aff-4a49-b025-b2967ef87973","system_id":"levelo_inurba_marseille","lat":43.29554,"lon":5.38254,"is_reserved":false,"is_disabled":false,"rental_uris":{"android":"levelo://app?vid=98ab0ff5-8aff-4a49-b025-b2967ef87973","ios":"levelo://app?vid=98ab0ff5-8aff-4a49-b025-b2967ef87973"},"vehicle_type_id":"4","last_reported":1778516560,"current_range_meters":4400,"station_id":"","pricing_plan_id":"cebpf4jnsgd1na2vs0mg"},{"bike_id":"f9181292-5577-42b6-9b79-c9f2f895363a","system_id":"levelo_inurba_marseille","lat":43.28466,"lon":5.38408,"is_reserved":false,"is_disabled":false,"rental_uris":{"android":"levelo://app?vid=f9181292-5577-42b6-9b79-c9f2f895363a","ios":"levelo://app?vid=f9181292-5577-42b6-9b79-c9f2f895363a"},"vehicle_type_id":"4","last_reported":1778516560,"current_range_meters":4400,"station_id":"ce4bh512rcd13ifvqe3g","pricing_plan_id":"cebpf4jnsgd1na2vs0mg"},{"bike_id":"d86c976e-985d-4096-9cd2-cb6f2b6432a6","system_id":"levelo_inurba_marseille","lat":43.27919,"lon":5.39577,"is_reserved":false,"is_disabled":false,"rental_uris":{"android":"levelo://app?vid=d86c976e-985d-4096-9cd2-cb6f2b6432a6","ios":"levelo://app?vid=d86c976e-985d-4096-9cd2-cb6f2b6432a6"},"vehicle_type_id":"4","last_reported":1778516560,"current_range_meters":4400,"station_id":"ce4bhf92rcd13ifvqf40","pricing_plan_id":"cebpf4jnsgd1na2vs0mg"},{"bike_id":"37b581d4-a78c-4db1-8701-3ab33cd83c8a","system_id":"levelo_inurba_marseille","lat":43.30134,"lon":5.43121,"is_reserved":false,"is_disabled":true,"rental_uris":{"android":"levelo://app?vid=37b581d4-a78c-4db1-8701-3ab33cd83c8a","ios":"levelo://app?vid=37b581d4-a78c-4db1-8701-3ab33cd83c8a"},"vehicle_type_id":"4","last_reported":1778516560,"current_range_meters":4400,"station_id":"st_d3js3co5814s73ftftug","pricing_plan_id":"cebpf4jnsgd1na2vs0mg"},{"bike_id":"c2734294-b560-4241-b9fc-d8f8b9f7c307","system_id":"levelo_inurba_marseille","lat":43.2585,"lon":5.39279,"is_reserved":false,"is_disabled":false,"rental_uris":{"android":"levelo://app?vid=c2734294-b560-4241-b9fc-d8f8b9f7c307","ios":"levelo://app?vid=c2734294-b560-4241-b9fc-d8f8b9f7c307"},"vehicle_type_id":"4","last_reported":1778516560,"current_range_meters":4400,"station_id":"","pricing_plan_id":"cebpf4jnsgd1na2vs0mg"},{"bike_id":"d389400a-34d2-4f0c-9fcf-083b6d7aeb86","system_id":"levelo_inurba_marseille","lat":43.27624,"lon":5.36087,"is_reserved":false,"is_disabled":false,"rental_uris":{"android":"levelo://app?vid=d389400a-34d2-4f0c-9fcf-083b6d7aeb86","ios":"levelo://app?vid=d389400a-34d2-4f0c-9fcf-083b6d7aeb86"},"vehicle_type_id":"4","last_reported":1778516560,"current_range_meters":4400,"station_id":"ce4bgj92rcd13ifvqbe0","pricing_plan_id":"cebpf4jnsgd1na2vs0mg"},{"bike_id":"50c7ab28-1404-4f23-840f-acef30bf4474","system_id":"levelo_inurba_marseille","lat":43.29713,"lon":5.36622,"is_reserved":false,"is_disabled":false,"rental_uris":{"android":"levelo://app?vid=50c7ab28-1404-4f23-840f-acef30bf4474","ios":"levelo://app?vid=50c7ab28-1404-4f23-840f-acef30bf4474"},"vehicle_type_id":"4","last_reported":1778516560,"current_range_meters":4800,"station_id":"ce4bgn12rcd13ifvqbt0","pricing_plan_id":"cebpf4jnsgd1na2vs0mg"},{"bike_id":"db56fd89-6a44-464e-b53b-8d3c5e87a5ef","system_id":"levelo_inurba_marseille","lat":43.30692,"lon":5.40093,"is_reserved":false,"is_disabled":false,"rental_uris":{"android":"levelo://app?vid=db56fd89-6a44-464e-b53b-8d3c5e87a5ef","ios":"levelo://app?vid=db56fd89-6a44-464e-b53b-8d3c5e87a5ef"},"vehicle_type_id":"4","last_reported":1778516560,"current_range_meters":4800,"station_id":"","pricing_plan_id":"cebpf4jnsgd1na2vs0mg"},{"bike_id":"40326dfc-c43c-49b9-91fd-f253b800ccf8","system_id":"levelo_inurba_marseille","lat":43.2872,"lon":5.37975,"is_reserved":false,"is_disabled":true,"rental_uris":{"android":"levelo://app?vid=40326dfc-c43c-49b9-91fd-f253b800ccf8","ios":"levelo://app?vid=40326dfc-c43c-49b9-91fd-f253b800ccf8"},"vehicle_type_id":"4","last_reported":1778516560,"current_range_meters":4800,"station_id":"ce4bh9p2rcd13ifvqec0","pricing_plan_id":"cebpf4jnsgd1na2vs0mg"},{"bike_id":"05c3c5da-2362-4466-9e96-af7b3010e0d7","system_id":"levelo_inurba_marseille","lat":43.2694,"lon":5.40251,"is_reserved":false,"is_disabled":false,"rental_uris":{"android":"levelo://app?vid=05c3c5da-2362-4466-9e96-af7b3010e0d7","ios":"levelo://app?vid=05c3c5da-2362-4466-9e96-af7b3010e0d7"},"vehicle_type_id":"4","last_reported":1778516560,"current_range_meters":4800,"station_id":"cjm6bp8fraef2m0cb0m0","pricing_plan_id":"cebpf4jnsgd1na2vs0mg"},{"bike_id":"494e2604-c73a-4477-ab6a-ce4633f5627c","system_id":"levelo_inurba_marseille","lat":43.25584,"lon":5.38232,"is_reserved":false,"is_disabled":false,"rental_uris":{"android":"levelo://app?vid=494e2604-c73a-4477-ab6a-ce4633f5627c","ios":"levelo://app?vid=494e2604-c73a-4477-ab6a-ce4633f5627c"},"vehicle_type_id":"4","last_reported":1778516560,"current_range_meters":4800,"station_id":"ce4bhih2rcd13ifvqfs0","pricing_plan_id":"cebpf4jnsgd1na2vs0mg"},{"bike_id":"b8528c49-e778-4cdd-b6ce-2710cf1c80f4","system_id":"levelo_inurba_marseille","lat":43.28705,"lon":5.42682,"is_reserved":false,"is_disabled":false,"rental_uris":{"android":"levelo://app?vid=b8528c49-e778-4cdd-b6ce-2710cf1c80f4","ios":"levelo://app?vid=b8528c49-e778-4cdd-b6ce-2710cf1c80f4"},"vehicle_type_id":"4","last_reported":1778516560,"current_range_meters":4800,"station_id":"","pricing_plan_id":"cebpf4jnsgd1na2vs0mg"},{"bike_id":"cbc8527b-a827-4f6c-ab58-e2563e13d3a5","system_id":"levelo_inurba_marseille","lat":43.30292,"lon":5.39217,"is_reserved":false,"is_disabled":false,"rental_uris":{"android":"levelo://app?vid=cbc8527b-a827-4f6c-ab58-e2563e13d3a5","ios":"levelo://app?vid=cbc8527b-a827-4f6c-ab58-e2563e13d3a5"},"vehicle_type_id":"4","last_reported":1778516560,"current_range_meters":4800,"station_id":"ce4bgkh2rcd13ifvqbk0","pricing_plan_id":"cebpf4jnsgd1na2vs0mg"},{"bike_id":"9ca7382d-1745-469b-aa96-0aee3b2273d6","system_id":"levelo_inurba_marseille","lat":43.29644,"lon":5.36239,"is_reserved":false,"is_disabled":false,"rental_uris":{"android":"levelo://app?vid=9ca7382d-1745-469b-aa96-0aee3b2273d6","ios":"levelo://app?vid=9ca7382d-1745-469b-aa96-0aee3b2273d6"},"vehicle_type_id":"4","last_reported":1778516560,"current_range_meters":4800,"station_id":"","pricing_plan_id":"cebpf4jnsgd1na2vs0mg"},{"bike_id":"de87ae11-b92f-495e-9280-09248bb31ed0","system_id":"levelo_inurba_marseille","lat":43.29446,"lon":5.39736,"is_reserved":false,"is_disabled":false,"rental_uris":{"android":"levelo://app?vid=de87ae11-b92f-495e-9280-09248bb31ed0","ios":"levelo://app?vid=de87ae11-b92f-495e-9280-09248bb31ed0"},"vehicle_type_id":"4","last_reported":1778516560,"current_range_meters":4800,"station_id":"ce4bh3h2rcd13ifvqdo0","pricing_plan_id":"cebpf4jnsgd1na2vs0mg"},{"bike_id":"17a0bb96-7cb2-402a-be1f-36cfbf38750b","system_id":"levelo_inurba_marseille","lat":43.28847,"lon":5.39302,"is_reserved":false,"is_disabled":false,"rental_uris":{"android":"levelo://app?vid=17a0bb96-7cb2-402a-be1f-36cfbf38750b","ios":"levelo://app?vid=17a0bb96-7cb2-402a-be1f-36cfbf38750b"},"vehicle_type_id":"4","last_reported":1778516560,"current_range_meters":4800,"station_id":"ce4bh2p2rcd13ifvqdi0","pricing_plan_id":"cebpf4jnsgd1na2vs0mg"},{"bike_id":"dc3d872f-b541-4dd3-a578-2855f0ad8694","system_id":"levelo_inurba_marseille","lat":43.33154,"lon":5.37701,"is_reserved":false,"is_disabled":false,"rental_uris":{"android":"levelo://app?vid=dc3d872f-b541-4dd3-a578-2855f0ad8694","ios":"levelo://app?vid=dc3d872f-b541-4dd3-a578-2855f0ad8694"},"vehicle_type_id":"4","last_reported":1778516560,"current_range_meters":4800,"station_id":"st_d46cu089ee8s73dldbu0","pricing_plan_id":"cebpf4jnsgd1na2vs0mg"},{"bike_id":"28dff6bb-afd2-4d4f-a533-73c109347c3d","system_id":"levelo_inurba_marseille","lat":43.3119,"lon":5.36894,"is_reserved":false,"is_disabled":false,"rental_uris":{"android":"levelo://app?vid=28dff6bb-afd2-4d4f-a533-73c109347c3d","ios":"levelo://app?vid=28dff6bb-afd2-4d4f-a533-73c109347c3d"},"vehicle_type_id":"4","last_reported":1778516560,"current_range_meters":4800,"station_id":"ce4bgl92rcd13ifvqbq0","pricing_plan_id":"cebpf4jnsgd1na2vs0mg"},{"bike_id":"dbbfd8c5-5eb0-410a-b94a-7a9ee4ee5d50","system_id":"levelo_inurba_marseille","lat":43.29969,"lon":5.38496,"is_reserved":false,"is_disabled":false,"rental_uris":{"android":"levelo://app?vid=dbbfd8c5-5eb0-410a-b94a-7a9ee4ee5d50","ios":"levelo://app?vid=dbbfd8c5-5eb0-410a-b94a-7a9ee4ee5d50"},"vehicle_type_id":"4","last_reported":1778516560,"current_range_meters":4800,"station_id":"ce4bgj92rcd13ifvqbd0","pricing_plan_id":"cebpf4jnsgd1na2vs0mg"},{"bike_id":"885ecd0e-a7f4-423b-8ee8-cc8e1170f87f","system_id":"levelo_inurba_marseille","lat":43.25829,"lon":5.39432,"is_reserved":false,"is_disabled":false,"rental_uris":{"android":"levelo://app?vid=885ecd0e-a7f4-423b-8ee8-cc8e1170f87f","ios":"levelo://app?vid=885ecd0e-a7f4-423b-8ee8-cc8e1170f87f"},"vehicle_type_id":"4","last_reported":1778516560,"current_range_meters":4800,"station_id":"ce4bhip2rcd13ifvqft0","pricing_plan_id":"cebpf4jnsgd1na2vs0mg"},{"bike_id":"6ed004a5-8489-49b9-83b6-f09efcb76f62","system_id":"levelo_inurba_marseille","lat":43.248092,"lon":5.374632,"is_reserved":false,"is_disabled":false,"rental_uris":{"android":"levelo://app?vid=6ed004a5-8489-49b9-83b6-f09efcb76f62","ios":"levelo://app?vid=6ed004a5-8489-49b9-83b6-f09efcb76f62"},"vehicle_type_id":"4","last_reported":1778516560,"current_range_meters":5600,"station_id":"ce4bhgh2rcd13ifvqfb0","pricing_plan_id":"cebpf4jnsgd1na2vs0mg"},{"bike_id":"47559409-0fc5-4332-af63-6d2351c0a07b","system_id":"levelo_inurba_marseille","lat":43.2856,"lon":5.38307,"is_reserved":false,"is_disabled":false,"rental_uris":{"android":"levelo://app?vid=47559409-0fc5-4332-af63-6d2351c0a07b","ios":"levelo://app?vid=47559409-0fc5-4332-af63-6d2351c0a07b"},"vehicle_type_id":"4","last_reported":1778516560,"current_range_meters":5600,"station_id":"","pricing_plan_id":"cebpf4jnsgd1na2vs0mg"},{"bike_id":"30556c87-ff3c-4660-b8b1-da977798e9b2","system_id":"levelo_inurba_marseille","lat":43.24574,"lon":5.42079,"is_reserved":false,"is_disabled":false,"rental_uris":{"android":"levelo://app?vid=30556c87-ff3c-4660-b8b1-da977798e9b2","ios":"levelo://app?vid=30556c87-ff3c-4660-b8b1-da977798e9b2"},"vehicle_type_id":"4","last_reported":1778516560,"current_range_meters":5600,"station_id":"","pricing_plan_id":"cebpf4jnsgd1na2vs0mg"},{"bike_id":"1e9517be-f044-4179-89c1-f236df0a7f30","system_id":"levelo_inurba_marseille","lat":43.24632,"lon":5.43148,"is_reserved":false,"is_disabled":false,"rental_uris":{"android":"levelo://app?vid=1e9517be-f044-4179-89c1-f236df0a7f30","ios":"levelo://app?vid=1e9517be-f044-4179-89c1-f236df0a7f30"},"vehicle_type_id":"4","last_reported":1778516560,"current_range_meters":5600,"station_id":"st_d2m6c4gdas8pm72e190g","pricing_plan_id":"cebpf4jnsgd1na2vs0mg"},{"bike_id":"d4aff205-73f1-42ee-8e1f-95ea17a0f3d5","system_id":"levelo_inurba_marseille","lat":43.28847,"lon":5.37812,"is_reserved":false,"is_disabled":false,"rental_uris":{"android":"levelo://app?vid=d4aff205-73f1-42ee-8e1f-95ea17a0f3d5","ios":"levelo://app?vid=d4aff205-73f1-42ee-8e1f-95ea17a0f3d5"},"vehicle_type_id":"4","last_reported":1778516560,"current_range_meters":5600,"station_id":"","pricing_plan_id":"cebpf4jnsgd1na2vs0mg"},{"bike_id":"3164b5fd-c523-4975-aae3-f2662211d036","system_id":"levelo_inurba_marseille","lat":43.30428,"lon":5.3887,"is_reserved":false,"is_disabled":false,"rental_uris":{"android":"levelo://app?vid=3164b5fd-c523-4975-aae3-f2662211d036","ios":"levelo://app?vid=3164b5fd-c523-4975-aae3-f2662211d036"},"vehicle_type_id":"4","last_reported":1778516560,"current_range_meters":5600,"station_id":"ce4bgk12rcd13ifvqbi0","pricing_plan_id":"cebpf4jnsgd1na2vs0mg"},{"bike_id":"bc8ed7c9-6fd5-4d94-80f9-94b559aa7956","system_id":"levelo_inurba_marseille","lat":43.28628,"lon":5.35087,"is_reserved":false,"is_disabled":false,"rental_uris":{"android":"levelo://app?vid=bc8ed7c9-6fd5-4d94-80f9-94b559aa7956","ios":"levelo://app?vid=bc8ed7c9-6fd5-4d94-80f9-94b559aa7956"},"vehicle_type_id":"4","last_reported":1778516560,"current_range_meters":5600,"station_id":"ce4bhch2rcd13ifvqeug","pricing_plan_id":"cebpf4jnsgd1na2vs0mg"},{"bike_id":"85b91fc3-5e4b-4ab8-871e-244077c4ec75","system_id":"levelo_inurba_marseille","lat":43.24631,"lon":5.43136,"is_reserved":false,"is_disabled":false,"rental_uris":{"android":"levelo://app?vid=85b91fc3-5e4b-4ab8-871e-244077c4ec75","ios":"levelo://app?vid=85b91fc3-5e4b-4ab8-871e-244077c4ec75"},"vehicle_type_id":"4","last_reported":1778516560,"current_range_meters":5600,"station_id":"st_d2m6c4gdas8pm72e190g","pricing_plan_id":"cebpf4jnsgd1na2vs0mg"},{"bike_id":"dec258b3-c130-43be-aabb-2d11497a2264","system_id":"levelo_inurba_marseille","lat":43.2463,"lon":5.43232,"is_reserved":false,"is_disabled":false,"rental_uris":{"android":"levelo://app?vid=dec258b3-c130-43be-aabb-2d11497a2264","ios":"levelo://app?vid=dec258b3-c130-43be-aabb-2d11497a2264"},"vehicle_type_id":"4","last_reported":1778516560,"current_range_meters":5600,"station_id":"st_d2m6c4gdas8pm72e190g","pricing_plan_id":"cebpf4jnsgd1na2vs0mg"},{"bike_id":"6afb9433-2e1d-4da9-8e6b-1dc1209e36d4","system_id":"levelo_inurba_marseille","lat":43.245467,"lon":5.395218,"is_reserved":false,"is_disabled":false,"rental_uris":{"android":"levelo://app?vid=6afb9433-2e1d-4da9-8e6b-1dc1209e36d4","ios":"levelo://app?vid=6afb9433-2e1d-4da9-8e6b-1dc1209e36d4"},"vehicle_type_id":"4","last_reported":1778516560,"current_range_meters":5600,"station_id":"ce4bhlp2rcd13ifvqgjg","pricing_plan_id":"cebpf4jnsgd1na2vs0mg"},{"bike_id":"85b737c7-7961-4aae-b250-76deb5319e18","system_id":"levelo_inurba_marseille","lat":43.28268,"lon":5.35069,"is_reserved":false,"is_disabled":false,"rental_uris":{"android":"levelo://app?vid=85b737c7-7961-4aae-b250-76deb5319e18","ios":"levelo://app?vid=85b737c7-7961-4aae-b250-76deb5319e18"},"vehicle_type_id":"4","last_reported":1778516560,"current_range_meters":5600,"station_id":"ce4bhbp2rcd13ifvqerg","pricing_plan_id":"cebpf4jnsgd1na2vs0mg"},{"bike_id":"52f73afa-1ec9-4fdb-8e87-230424d4f161","system_id":"levelo_inurba_marseille","lat":43.292671,"lon":5.401074,"is_reserved":false,"is_disabled":false,"rental_uris":{"android":"levelo://app?vid=52f73afa-1ec9-4fdb-8e87-230424d4f161","ios":"levelo://app?vid=52f73afa-1ec9-4fdb-8e87-230424d4f161"},"vehicle_type_id":"4","last_reported":1778516560,"current_range_meters":5600,"station_id":"ce4bh312rcd13ifvqdk0","pricing_plan_id":"cebpf4jnsgd1na2vs0mg"},{"bike_id":"30a7a2e9-95ad-4ec7-bcb6-ecabf260aa95","system_id":"levelo_inurba_marseille","lat":43.30601,"lon":5.37222,"is_reserved":false,"is_disabled":false,"rental_uris":{"android":"levelo://app?vid=30a7a2e9-95ad-4ec7-bcb6-ecabf260aa95","ios":"levelo://app?vid=30a7a2e9-95ad-4ec7-bcb6-ecabf260aa95"},"vehicle_type_id":"4","last_reported":1778516560,"current_range_meters":5600,"station_id":"ce4bgqh2rcd13ifvqc4g","pricing_plan_id":"cebpf4jnsgd1na2vs0mg"},{"bike_id":"33d64683-b815-4049-81a9-60b3378c0a36","system_id":"levelo_inurba_marseille","lat":43.29788,"lon":5.39349,"is_reserved":false,"is_disabled":false,"rental_uris":{"android":"levelo://app?vid=33d64683-b815-4049-81a9-60b3378c0a36","ios":"levelo://app?vid=33d64683-b815-4049-81a9-60b3378c0a36"},"vehicle_type_id":"4","last_reported":1778516560,"current_range_meters":6000,"station_id":"chh1huq6cuj3fo74tm60","pricing_plan_id":"cebpf4jnsgd1na2vs0mg"},{"bike_id":"735acf5a-4df3-4724-bfab-8be70eff296f","system_id":"levelo_inurba_marseille","lat":43.27796,"lon":5.40706,"is_reserved":false,"is_disabled":false,"rental_uris":{"android":"levelo://app?vid=735acf5a-4df3-4724-bfab-8be70eff296f","ios":"levelo://app?vid=735acf5a-4df3-4724-bfab-8be70eff296f"},"vehicle_type_id":"4","last_reported":1778516560,"current_range_meters":6000,"station_id":"ce4bhnh2rcd13ifvqgtg","pricing_plan_id":"cebpf4jnsgd1na2vs0mg"},{"bike_id":"bc649d23-f128-4ce1-830b-2f22adb2a174","system_id":"levelo_inurba_marseille","lat":43.30114,"lon":5.39857,"is_reserved":false,"is_disabled":false,"rental_uris":{"android":"levelo://app?vid=bc649d23-f128-4ce1-830b-2f22adb2a174","ios":"levelo://app?vid=bc649d23-f128-4ce1-830b-2f22adb2a174"},"vehicle_type_id":"4","last_reported":1778516560,"current_range_meters":6000,"station_id":"ce4bh0h2rcd13ifvqd40","pricing_plan_id":"cebpf4jnsgd1na2vs0mg"},{"bike_id":"2a88c8d6-901a-46de-936e-8ca8169700e0","system_id":"levelo_inurba_marseille","lat":43.24649,"lon":5.38889,"is_reserved":false,"is_disabled":false,"rental_uris":{"android":"levelo://app?vid=2a88c8d6-901a-46de-936e-8ca8169700e0","ios":"levelo://app?vid=2a88c8d6-901a-46de-936e-8ca8169700e0"},"vehicle_type_id":"4","last_reported":1778516560,"current_range_meters":6000,"station_id":"ce4bhg12rcd13ifvqf60","pricing_plan_id":"cebpf4jnsgd1na2vs0mg"},{"bike_id":"51c33c4f-93e3-4914-8b70-f8494a43df13","system_id":"levelo_inurba_marseille","lat":43.28421,"lon":5.3751,"is_reserved":false,"is_disabled":true,"rental_uris":{"android":"levelo://app?vid=51c33c4f-93e3-4914-8b70-f8494a43df13","ios":"levelo://app?vid=51c33c4f-93e3-4914-8b70-f8494a43df13"},"vehicle_type_id":"4","last_reported":1778516560,"current_range_meters":6000,"station_id":"ce4bh412rcd13ifvqds0","pricing_plan_id":"cebpf4jnsgd1na2vs0mg"},{"bike_id":"44b82dc4-674a-446b-8c81-727d389f2177","system_id":"levelo_inurba_marseille","lat":43.28696,"lon":5.46682,"is_reserved":false,"is_disabled":false,"rental_uris":{"android":"levelo://app?vid=44b82dc4-674a-446b-8c81-727d389f2177","ios":"levelo://app?vid=44b82dc4-674a-446b-8c81-727d389f2177"},"vehicle_type_id":"4","last_reported":1778516560,"current_range_meters":6000,"station_id":"st_d6tc3vkotcvc738tfjhg","pricing_plan_id":"cebpf4jnsgd1na2vs0mg"},{"bike_id":"0dabfbc0-4a0f-4f2b-89ae-d1cc3f1139a9","system_id":"levelo_inurba_marseille","lat":43.26553,"lon":5.37303,"is_reserved":false,"is_disabled":false,"rental_uris":{"android":"levelo://app?vid=0dabfbc0-4a0f-4f2b-89ae-d1cc3f1139a9","ios":"levelo://app?vid=0dabfbc0-4a0f-4f2b-89ae-d1cc3f1139a9"},"vehicle_type_id":"4","last_reported":1778516560,"current_range_meters":6000,"station_id":"ce4bhg12rcd13ifvqf70","pricing_plan_id":"cebpf4jnsgd1na2vs0mg"},{"bike_id":"c7147716-ee66-4812-b673-dc9858244dae","system_id":"levelo_inurba_marseille","lat":43.28363,"lon":5.38644,"is_reserved":false,"is_disabled":false,"rental_uris":{"android":"levelo://app?vid=c7147716-ee66-4812-b673-dc9858244dae","ios":"levelo://app?vid=c7147716-ee66-4812-b673-dc9858244dae"},"vehicle_type_id":"4","last_reported":1778516560,"current_range_meters":6000,"station_id":"ce4bh492rcd13ifvqdvg","pricing_plan_id":"cebpf4jnsgd1na2vs0mg"},{"bike_id":"1e3ccad9-8081-4fe1-92b6-c428982110fe","system_id":"levelo_inurba_marseille","lat":43.30303,"lon":5.36886,"is_reserved":false,"is_disabled":false,"rental_uris":{"android":"levelo://app?vid=1e3ccad9-8081-4fe1-92b6-c428982110fe","ios":"levelo://app?vid=1e3ccad9-8081-4fe1-92b6-c428982110fe"},"vehicle_type_id":"4","last_reported":1778516560,"current_range_meters":6000,"station_id":"ce4bgqh2rcd13ifvqc5g","pricing_plan_id":"cebpf4jnsgd1na2vs0mg"},{"bike_id":"1f27ee2e-4f03-41b1-85f1-d7000540667e","system_id":"levelo_inurba_marseille","lat":43.27373,"lon":5.36253,"is_reserved":false,"is_disabled":false,"rental_uris":{"android":"levelo://app?vid=1f27ee2e-4f03-41b1-85f1-d7000540667e","ios":"levelo://app?vid=1f27ee2e-4f03-41b1-85f1-d7000540667e"},"vehicle_type_id":"4","last_reported":1778516560,"current_range_meters":6000,"station_id":"ce4bhbh2rcd13ifvqeo0","pricing_plan_id":"cebpf4jnsgd1na2vs0mg"},{"bike_id":"fc9ce9e9-4ab3-4e4e-a643-6504d8365e0b","system_id":"levelo_inurba_marseille","lat":43.2953,"lon":5.38544,"is_reserved":false,"is_disabled":false,"rental_uris":{"android":"levelo://app?vid=fc9ce9e9-4ab3-4e4e-a643-6504d8365e0b","ios":"levelo://app?vid=fc9ce9e9-4ab3-4e4e-a643-6504d8365e0b"},"vehicle_type_id":"4","last_reported":1778516560,"current_range_meters":6000,"station_id":"ce4bgih2rcd13ifvqba0","pricing_plan_id":"cebpf4jnsgd1na2vs0mg"},{"bike_id":"5023820e-6ab2-4190-bc65-a9909e1c8641","system_id":"levelo_inurba_marseille","lat":43.30983,"lon":5.37157,"is_reserved":false,"is_disabled":false,"rental_uris":{"android":"levelo://app?vid=5023820e-6ab2-4190-bc65-a9909e1c8641","ios":"levelo://app?vid=5023820e-6ab2-4190-bc65-a9909e1c8641"},"vehicle_type_id":"4","last_reported":1778516560,"current_range_meters":6000,"station_id":"","pricing_plan_id":"cebpf4jnsgd1na2vs0mg"},{"bike_id":"62b10931-e87f-4825-833d-f97fa5322a1f","system_id":"levelo_inurba_marseille","lat":43.2557,"lon":5.38217,"is_reserved":false,"is_disabled":false,"rental_uris":{"android":"levelo://app?vid=62b10931-e87f-4825-833d-f97fa5322a1f","ios":"levelo://app?vid=62b10931-e87f-4825-833d-f97fa5322a1f"},"vehicle_type_id":"4","last_reported":1778516560,"current_range_meters":6000,"station_id":"ce4bhih2rcd13ifvqfs0","pricing_plan_id":"cebpf4jnsgd1na2vs0mg"},{"bike_id":"6e9d5796-aa95-4906-8baf-7bbaf4c9ce76","system_id":"levelo_inurba_marseille","lat":43.31475,"lon":5.37306,"is_reserved":false,"is_disabled":false,"rental_uris":{"android":"levelo://app?vid=6e9d5796-aa95-4906-8baf-7bbaf4c9ce76","ios":"levelo://app?vid=6e9d5796-aa95-4906-8baf-7bbaf4c9ce76"},"vehicle_type_id":"4","last_reported":1778516560,"current_range_meters":6000,"station_id":"ce4bgt12rcd13ifvqcd0","pricing_plan_id":"cebpf4jnsgd1na2vs0mg"},{"bike_id":"390b0db0-9531-4ed5-8ee2-c5021109ceb1","system_id":"levelo_inurba_marseille","lat":43.26594,"lon":5.37268,"is_reserved":false,"is_disabled":false,"rental_uris":{"android":"levelo://app?vid=390b0db0-9531-4ed5-8ee2-c5021109ceb1","ios":"levelo://app?vid=390b0db0-9531-4ed5-8ee2-c5021109ceb1"},"vehicle_type_id":"4","last_reported":1778516560,"current_range_meters":6000,"station_id":"ce4bhg12rcd13ifvqf70","pricing_plan_id":"cebpf4jnsgd1na2vs0mg"},{"bike_id":"0c9c0717-28f3-4ec1-9894-093541529a02","system_id":"levelo_inurba_marseille","lat":43.26544,"lon":5.39057,"is_reserved":false,"is_disabled":false,"rental_uris":{"android":"levelo://app?vid=0c9c0717-28f3-4ec1-9894-093541529a02","ios":"levelo://app?vid=0c9c0717-28f3-4ec1-9894-093541529a02"},"vehicle_type_id":"4","last_reported":1778516560,"current_range_meters":6000,"station_id":"ce4bhe12rcd13ifvqf30","pricing_plan_id":"cebpf4jnsgd1na2vs0mg"},{"bike_id":"88049ccf-a823-49be-a699-eb2ad440588f","system_id":"levelo_inurba_marseille","lat":43.25855,"lon":5.39942,"is_reserved":false,"is_disabled":true,"rental_uris":{"android":"levelo://app?vid=88049ccf-a823-49be-a699-eb2ad440588f","ios":"levelo://app?vid=88049ccf-a823-49be-a699-eb2ad440588f"},"vehicle_type_id":"4","last_reported":1778516560,"current_range_meters":6000,"station_id":"ce4bhl92rcd13ifvqghg","pricing_plan_id":"cebpf4jnsgd1na2vs0mg"},{"bike_id":"95539f27-799f-4473-a4af-f3ef088fa05a","system_id":"levelo_inurba_marseille","lat":43.288562,"lon":5.358432,"is_reserved":false,"is_disabled":false,"rental_uris":{"android":"levelo://app?vid=95539f27-799f-4473-a4af-f3ef088fa05a","ios":"levelo://app?vid=95539f27-799f-4473-a4af-f3ef088fa05a"},"vehicle_type_id":"4","last_reported":1778516560,"current_range_meters":6000,"station_id":"ce4bhb12rcd13ifvqem0","pricing_plan_id":"cebpf4jnsgd1na2vs0mg"},{"bike_id":"7cc8015f-9ff6-4d05-8002-2e4d01dcc809","system_id":"levelo_inurba_marseille","lat":43.3046,"lon":5.37904,"is_reserved":false,"is_disabled":false,"rental_uris":{"android":"levelo://app?vid=7cc8015f-9ff6-4d05-8002-2e4d01dcc809","ios":"levelo://app?vid=7cc8015f-9ff6-4d05-8002-2e4d01dcc809"},"vehicle_type_id":"4","last_reported":1778516560,"current_range_meters":6000,"station_id":"ce4bgup2rcd13ifvqcn0","pricing_plan_id":"cebpf4jnsgd1na2vs0mg"},{"bike_id":"84a8e5ac-2c7a-425e-93be-2d5800dc35d5","system_id":"levelo_inurba_marseille","lat":43.275635,"lon":5.384252,"is_reserved":false,"is_disabled":false,"rental_uris":{"android":"levelo://app?vid=84a8e5ac-2c7a-425e-93be-2d5800dc35d5","ios":"levelo://app?vid=84a8e5ac-2c7a-425e-93be-2d5800dc35d5"},"vehicle_type_id":"4","last_reported":1778516560,"current_range_meters":6000,"station_id":"ce4bhh92rcd13ifvqfi0","pricing_plan_id":"cebpf4jnsgd1na2vs0mg"},{"bike_id":"fbb6dc7e-e888-4d1d-a59f-1946d9e2dbd6","system_id":"levelo_inurba_marseille","lat":43.27374,"lon":5.36272,"is_reserved":false,"is_disabled":false,"rental_uris":{"android":"levelo://app?vid=fbb6dc7e-e888-4d1d-a59f-1946d9e2dbd6","ios":"levelo://app?vid=fbb6dc7e-e888-4d1d-a59f-1946d9e2dbd6"},"vehicle_type_id":"4","last_reported":1778516560,"current_range_meters":6400,"station_id":"ce4bhbh2rcd13ifvqeo0","pricing_plan_id":"cebpf4jnsgd1na2vs0mg"},{"bike_id":"85848f87-2086-4bcc-99c6-54082387897b","system_id":"levelo_inurba_marseille","lat":43.24626,"lon":5.43155,"is_reserved":false,"is_disabled":false,"rental_uris":{"android":"levelo://app?vid=85848f87-2086-4bcc-99c6-54082387897b","ios":"levelo://app?vid=85848f87-2086-4bcc-99c6-54082387897b"},"vehicle_type_id":"4","last_reported":1778516560,"current_range_meters":6400,"station_id":"st_d2m6c4gdas8pm72e190g","pricing_plan_id":"cebpf4jnsgd1na2vs0mg"},{"bike_id":"791c74b2-cd78-47b0-86de-d73597579821","system_id":"levelo_inurba_marseille","lat":43.305964,"lon":5.393521,"is_reserved":false,"is_disabled":true,"rental_uris":{"android":"levelo://app?vid=791c74b2-cd78-47b0-86de-d73597579821","ios":"levelo://app?vid=791c74b2-cd78-47b0-86de-d73597579821"},"vehicle_type_id":"4","last_reported":1778516560,"current_range_meters":6400,"station_id":"ce4bgh92rcd13ifvqb40","pricing_plan_id":"cebpf4jnsgd1na2vs0mg"},{"bike_id":"73e6f80a-b54a-4863-a594-a6fb1a5f606e","system_id":"levelo_inurba_marseille","lat":43.24955,"lon":5.40497,"is_reserved":false,"is_disabled":false,"rental_uris":{"android":"levelo://app?vid=73e6f80a-b54a-4863-a594-a6fb1a5f606e","ios":"levelo://app?vid=73e6f80a-b54a-4863-a594-a6fb1a5f606e"},"vehicle_type_id":"4","last_reported":1778516560,"current_range_meters":6400,"station_id":"st_d2ngiaodas8pm72gd1h0","pricing_plan_id":"cebpf4jnsgd1na2vs0mg"},{"bike_id":"8687cba6-f65a-4897-91d1-5464783e1ac7","system_id":"levelo_inurba_marseille","lat":43.27504,"lon":5.41577,"is_reserved":false,"is_disabled":false,"rental_uris":{"android":"levelo://app?vid=8687cba6-f65a-4897-91d1-5464783e1ac7","ios":"levelo://app?vid=8687cba6-f65a-4897-91d1-5464783e1ac7"},"vehicle_type_id":"4","last_reported":1778516560,"current_range_meters":6400,"station_id":"st_d6im8g6chgec73a5pndg","pricing_plan_id":"cebpf4jnsgd1na2vs0mg"},{"bike_id":"ce31024b-cffc-4dea-8554-556a271c4733","system_id":"levelo_inurba_marseille","lat":43.24478,"lon":5.42572,"is_reserved":false,"is_disabled":false,"rental_uris":{"android":"levelo://app?vid=ce31024b-cffc-4dea-8554-556a271c4733","ios":"levelo://app?vid=ce31024b-cffc-4dea-8554-556a271c4733"},"vehicle_type_id":"4","last_reported":1778516560,"current_range_meters":6400,"station_id":"st_d4a3vfp97mjs738cd8kg","pricing_plan_id":"cebpf4jnsgd1na2vs0mg"},{"bike_id":"ad7f14fe-e8a2-424d-b709-8f617e37256e","system_id":"levelo_inurba_marseille","lat":43.29003,"lon":5.35612,"is_reserved":false,"is_disabled":false,"rental_uris":{"android":"levelo://app?vid=ad7f14fe-e8a2-424d-b709-8f617e37256e","ios":"levelo://app?vid=ad7f14fe-e8a2-424d-b709-8f617e37256e"},"vehicle_type_id":"4","last_reported":1778516560,"current_range_meters":6400,"station_id":"ce4bhb92rcd13ifvqen0","pricing_plan_id":"cebpf4jnsgd1na2vs0mg"},{"bike_id":"49b81d77-d494-42f4-8419-8fd1713e2c78","system_id":"levelo_inurba_marseille","lat":43.2621,"lon":5.37438,"is_reserved":false,"is_disabled":false,"rental_uris":{"android":"levelo://app?vid=49b81d77-d494-42f4-8419-8fd1713e2c78","ios":"levelo://app?vid=49b81d77-d494-42f4-8419-8fd1713e2c78"},"vehicle_type_id":"4","last_reported":1778516560,"current_range_meters":6400,"station_id":"ce4bhgp2rcd13ifvqfc0","pricing_plan_id":"cebpf4jnsgd1na2vs0mg"},{"bike_id":"f15d5df6-7ab6-48e7-af66-dab0794f7384","system_id":"levelo_inurba_marseille","lat":43.21195,"lon":5.35076,"is_reserved":false,"is_disabled":false,"rental_uris":{"android":"levelo://app?vid=f15d5df6-7ab6-48e7-af66-dab0794f7384","ios":"levelo://app?vid=f15d5df6-7ab6-48e7-af66-dab0794f7384"},"vehicle_type_id":"4","last_reported":1778516560,"current_range_meters":6400,"station_id":"st_cvj6sg6p6f1abm77japg","pricing_plan_id":"cebpf4jnsgd1na2vs0mg"},{"bike_id":"0aa0f504-94fe-42c5-a1d6-d8ddfb182735","system_id":"levelo_inurba_marseille","lat":43.24351,"lon":5.38795,"is_reserved":false,"is_disabled":false,"rental_uris":{"android":"levelo://app?vid=0aa0f504-94fe-42c5-a1d6-d8ddfb182735","ios":"levelo://app?vid=0aa0f504-94fe-42c5-a1d6-d8ddfb182735"},"vehicle_type_id":"4","last_reported":1778516560,"current_range_meters":6400,"station_id":"","pricing_plan_id":"cebpf4jnsgd1na2vs0mg"},{"bike_id":"eb1c057e-e140-42d0-aee5-bd6e1cccb573","system_id":"levelo_inurba_marseille","lat":43.31891,"lon":5.40982,"is_reserved":false,"is_disabled":false,"rental_uris":{"android":"levelo://app?vid=eb1c057e-e140-42d0-aee5-bd6e1cccb573","ios":"levelo://app?vid=eb1c057e-e140-42d0-aee5-bd6e1cccb573"},"vehicle_type_id":"4","last_reported":1778516560,"current_range_meters":6400,"station_id":"","pricing_plan_id":"cebpf4jnsgd1na2vs0mg"},{"bike_id":"f853f7e2-e101-49d5-95e4-241f21b2ddb0","system_id":"levelo_inurba_marseille","lat":43.250921,"lon":5.39523,"is_reserved":false,"is_disabled":false,"rental_uris":{"android":"levelo://app?vid=f853f7e2-e101-49d5-95e4-241f21b2ddb0","ios":"levelo://app?vid=f853f7e2-e101-49d5-95e4-241f21b2ddb0"},"vehicle_type_id":"4","last_reported":1778516560,"current_range_meters":6400,"station_id":"ce4bhm12rcd13ifvqgkg","pricing_plan_id":"cebpf4jnsgd1na2vs0mg"},{"bike_id":"0c64acdb-e8c1-4c41-abc8-f3040a106904","system_id":"levelo_inurba_marseille","lat":43.23954,"lon":5.36684,"is_reserved":false,"is_disabled":false,"rental_uris":{"android":"levelo://app?vid=0c64acdb-e8c1-4c41-abc8-f3040a106904","ios":"levelo://app?vid=0c64acdb-e8c1-4c41-abc8-f3040a106904"},"vehicle_type_id":"4","last_reported":1778516560,"current_range_meters":6400,"station_id":"ce4bhi12rcd13ifvqfp0","pricing_plan_id":"cebpf4jnsgd1na2vs0mg"},{"bike_id":"d27b2a85-077a-4e08-ad9e-15f4c1cc7026","system_id":"levelo_inurba_marseille","lat":43.298431,"lon":5.362745,"is_reserved":false,"is_disabled":false,"rental_uris":{"android":"levelo://app?vid=d27b2a85-077a-4e08-ad9e-15f4c1cc7026","ios":"levelo://app?vid=d27b2a85-077a-4e08-ad9e-15f4c1cc7026"},"vehicle_type_id":"4","last_reported":1778516560,"current_range_meters":6800,"station_id":"ce4bgpp2rcd13ifvqc3g","pricing_plan_id":"cebpf4jnsgd1na2vs0mg"},{"bike_id":"d0fed97e-7816-4cd2-a186-968e18b9b397","system_id":"levelo_inurba_marseille","lat":43.24685,"lon":5.38146,"is_reserved":false,"is_disabled":false,"rental_uris":{"android":"levelo://app?vid=d0fed97e-7816-4cd2-a186-968e18b9b397","ios":"levelo://app?vid=d0fed97e-7816-4cd2-a186-968e18b9b397"},"vehicle_type_id":"4","last_reported":1778516560,"current_range_meters":6800,"station_id":"ce4bhih2rcd13ifvqfr0","pricing_plan_id":"cebpf4jnsgd1na2vs0mg"},{"bike_id":"cf7ae309-d891-460e-ab87-bc46e8324309","system_id":"levelo_inurba_marseille","lat":43.33541,"lon":5.37461,"is_reserved":false,"is_disabled":false,"rental_uris":{"android":"levelo://app?vid=cf7ae309-d891-460e-ab87-bc46e8324309","ios":"levelo://app?vid=cf7ae309-d891-460e-ab87-bc46e8324309"},"vehicle_type_id":"4","last_reported":1778516560,"current_range_meters":6800,"station_id":"st_d46tts09ee8s73dlu43g","pricing_plan_id":"cebpf4jnsgd1na2vs0mg"},{"bike_id":"e5db4234-9910-4bde-9c85-c1b189d796d9","system_id":"levelo_inurba_marseille","lat":43.29554,"lon":5.38531,"is_reserved":false,"is_disabled":false,"rental_uris":{"android":"levelo://app?vid=e5db4234-9910-4bde-9c85-c1b189d796d9","ios":"levelo://app?vid=e5db4234-9910-4bde-9c85-c1b189d796d9"},"vehicle_type_id":"4","last_reported":1778516560,"current_range_meters":6800,"station_id":"ce4bgih2rcd13ifvqba0","pricing_plan_id":"cebpf4jnsgd1na2vs0mg"},{"bike_id":"3476530f-c2e4-43c4-97d0-7b60ad96eae6","system_id":"levelo_inurba_marseille","lat":43.29228,"lon":5.36058,"is_reserved":false,"is_disabled":false,"rental_uris":{"android":"levelo://app?vid=3476530f-c2e4-43c4-97d0-7b60ad96eae6","ios":"levelo://app?vid=3476530f-c2e4-43c4-97d0-7b60ad96eae6"},"vehicle_type_id":"4","last_reported":1778516560,"current_range_meters":6800,"station_id":"ce4bhbh2rcd13ifvqeqg","pricing_plan_id":"cebpf4jnsgd1na2vs0mg"},{"bike_id":"ac3d0288-806c-484d-a53f-2698f9156917","system_id":"levelo_inurba_marseille","lat":43.26055,"lon":5.39375,"is_reserved":false,"is_disabled":false,"rental_uris":{"android":"levelo://app?vid=ac3d0288-806c-484d-a53f-2698f9156917","ios":"levelo://app?vid=ac3d0288-806c-484d-a53f-2698f9156917"},"vehicle_type_id":"4","last_reported":1778516560,"current_range_meters":6800,"station_id":"ce4bhh92rcd13ifvqfj0","pricing_plan_id":"cebpf4jnsgd1na2vs0mg"},{"bike_id":"662c8520-bfe6-4791-897f-ed06d541dc6e","system_id":"levelo_inurba_marseille","lat":43.27064,"lon":5.3831,"is_reserved":false,"is_disabled":false,"rental_uris":{"android":"levelo://app?vid=662c8520-bfe6-4791-897f-ed06d541dc6e","ios":"levelo://app?vid=662c8520-bfe6-4791-897f-ed06d541dc6e"},"vehicle_type_id":"4","last_reported":1778516560,"current_range_meters":6800,"station_id":"st_d3n2fo6cfp8s73cte1j0","pricing_plan_id":"cebpf4jnsgd1na2vs0mg"},{"bike_id":"2045449d-114f-47cf-8791-7d12be9f5d63","system_id":"levelo_inurba_marseille","lat":43.29814,"lon":5.44076,"is_reserved":false,"is_disabled":false,"rental_uris":{"android":"levelo://app?vid=2045449d-114f-47cf-8791-7d12be9f5d63","ios":"levelo://app?vid=2045449d-114f-47cf-8791-7d12be9f5d63"},"vehicle_type_id":"4","last_reported":1778516560,"current_range_meters":6800,"station_id":"st_d3jp68qikq2c7381ktn0","pricing_plan_id":"cebpf4jnsgd1na2vs0mg"},{"bike_id":"369803e0-cf2f-4230-a91a-a5b633dc7de3","system_id":"levelo_inurba_marseille","lat":43.3316,"lon":5.37677,"is_reserved":false,"is_disabled":false,"rental_uris":{"android":"levelo://app?vid=369803e0-cf2f-4230-a91a-a5b633dc7de3","ios":"levelo://app?vid=369803e0-cf2f-4230-a91a-a5b633dc7de3"},"vehicle_type_id":"4","last_reported":1778516560,"current_range_meters":6800,"station_id":"st_d46cu089ee8s73dldbu0","pricing_plan_id":"cebpf4jnsgd1na2vs0mg"},{"bike_id":"1fd806bf-7e5d-4330-8e58-23cecd566fe2","system_id":"levelo_inurba_marseille","lat":43.29277,"lon":5.36841,"is_reserved":false,"is_disabled":false,"rental_uris":{"android":"levelo://app?vid=1fd806bf-7e5d-4330-8e58-23cecd566fe2","ios":"levelo://app?vid=1fd806bf-7e5d-4330-8e58-23cecd566fe2"},"vehicle_type_id":"4","last_reported":1778516560,"current_range_meters":6800,"station_id":"ce4bhbp2rcd13ifvqesg","pricing_plan_id":"cebpf4jnsgd1na2vs0mg"},{"bike_id":"8aa5b6fe-8d4e-4f93-9a0a-0b58264ad05b","system_id":"levelo_inurba_marseille","lat":43.24793,"lon":5.37451,"is_reserved":false,"is_disabled":false,"rental_uris":{"android":"levelo://app?vid=8aa5b6fe-8d4e-4f93-9a0a-0b58264ad05b","ios":"levelo://app?vid=8aa5b6fe-8d4e-4f93-9a0a-0b58264ad05b"},"vehicle_type_id":"4","last_reported":1778516560,"current_range_meters":6800,"station_id":"ce4bhgh2rcd13ifvqfb0","pricing_plan_id":"cebpf4jnsgd1na2vs0mg"},{"bike_id":"df03985d-b79e-4b0d-b83b-7b12528d12e9","system_id":"levelo_inurba_marseille","lat":43.30321,"lon":5.40431,"is_reserved":false,"is_disabled":false,"rental_uris":{"android":"levelo://app?vid=df03985d-b79e-4b0d-b83b-7b12528d12e9","ios":"levelo://app?vid=df03985d-b79e-4b0d-b83b-7b12528d12e9"},"vehicle_type_id":"4","last_reported":1778516560,"current_range_meters":6800,"station_id":"ce4bh012rcd13ifvqd10","pricing_plan_id":"cebpf4jnsgd1na2vs0mg"},{"bike_id":"1fa4b452-9d0c-43b3-a29a-3d70cafac9f2","system_id":"levelo_inurba_marseille","lat":43.32238,"lon":5.36884,"is_reserved":false,"is_disabled":false,"rental_uris":{"android":"levelo://app?vid=1fa4b452-9d0c-43b3-a29a-3d70cafac9f2","ios":"levelo://app?vid=1fa4b452-9d0c-43b3-a29a-3d70cafac9f2"},"vehicle_type_id":"4","last_reported":1778516560,"current_range_meters":6800,"station_id":"","pricing_plan_id":"cebpf4jnsgd1na2vs0mg"},{"bike_id":"eb77a4c1-971a-4242-88f3-b2ec5c06ea79","system_id":"levelo_inurba_marseille","lat":43.33159,"lon":5.37683,"is_reserved":false,"is_disabled":false,"rental_uris":{"android":"levelo://app?vid=eb77a4c1-971a-4242-88f3-b2ec5c06ea79","ios":"levelo://app?vid=eb77a4c1-971a-4242-88f3-b2ec5c06ea79"},"vehicle_type_id":"4","last_reported":1778516560,"current_range_meters":6800,"station_id":"st_d46cu089ee8s73dldbu0","pricing_plan_id":"cebpf4jnsgd1na2vs0mg"},{"bike_id":"e6f97e5e-858e-416a-abde-cea17b95debe","system_id":"levelo_inurba_marseille","lat":43.2873,"lon":5.46673,"is_reserved":false,"is_disabled":false,"rental_uris":{"android":"levelo://app?vid=e6f97e5e-858e-416a-abde-cea17b95debe","ios":"levelo://app?vid=e6f97e5e-858e-416a-abde-cea17b95debe"},"vehicle_type_id":"4","last_reported":1778516560,"current_range_meters":6800,"station_id":"","pricing_plan_id":"cebpf4jnsgd1na2vs0mg"},{"bike_id":"9d4784b8-10a9-4863-8ff2-38cf427d852c","system_id":"levelo_inurba_marseille","lat":43.23919,"lon":5.37494,"is_reserved":false,"is_disabled":false,"rental_uris":{"android":"levelo://app?vid=9d4784b8-10a9-4863-8ff2-38cf427d852c","ios":"levelo://app?vid=9d4784b8-10a9-4863-8ff2-38cf427d852c"},"vehicle_type_id":"4","last_reported":1778516560,"current_range_meters":6800,"station_id":"st_d6sm7csbq4hs73f8fpjg","pricing_plan_id":"cebpf4jnsgd1na2vs0mg"},{"bike_id":"9aad11a4-9a52-4fec-9725-ef5ceb82088c","system_id":"levelo_inurba_marseille","lat":43.24629,"lon":5.43162,"is_reserved":false,"is_disabled":true,"rental_uris":{"android":"levelo://app?vid=9aad11a4-9a52-4fec-9725-ef5ceb82088c","ios":"levelo://app?vid=9aad11a4-9a52-4fec-9725-ef5ceb82088c"},"vehicle_type_id":"4","last_reported":1778516560,"current_range_meters":6800,"station_id":"st_d2m6c4gdas8pm72e190g","pricing_plan_id":"cebpf4jnsgd1na2vs0mg"},{"bike_id":"7897bf11-3abf-4b9f-a453-168516cc30c6","system_id":"levelo_inurba_marseille","lat":43.29264,"lon":5.38435,"is_reserved":false,"is_disabled":false,"rental_uris":{"android":"levelo://app?vid=7897bf11-3abf-4b9f-a453-168516cc30c6","ios":"levelo://app?vid=7897bf11-3abf-4b9f-a453-168516cc30c6"},"vehicle_type_id":"4","last_reported":1778516560,"current_range_meters":6800,"station_id":"ce4bh692rcd13ifvqea0","pricing_plan_id":"cebpf4jnsgd1na2vs0mg"},{"bike_id":"8d2f40c3-ef52-4fb6-95c0-94e9d9bbb1ed","system_id":"levelo_inurba_marseille","lat":43.30134,"lon":5.37422,"is_reserved":false,"is_disabled":false,"rental_uris":{"android":"levelo://app?vid=8d2f40c3-ef52-4fb6-95c0-94e9d9bbb1ed","ios":"levelo://app?vid=8d2f40c3-ef52-4fb6-95c0-94e9d9bbb1ed"},"vehicle_type_id":"4","last_reported":1778516560,"current_range_meters":6800,"station_id":"ce4bgs92rcd13ifvqcc0","pricing_plan_id":"cebpf4jnsgd1na2vs0mg"},{"bike_id":"d41dd175-5bfe-48c4-8352-4a80d32b168e","system_id":"levelo_inurba_marseille","lat":43.25006,"lon":5.38916,"is_reserved":false,"is_disabled":false,"rental_uris":{"android":"levelo://app?vid=d41dd175-5bfe-48c4-8352-4a80d32b168e","ios":"levelo://app?vid=d41dd175-5bfe-48c4-8352-4a80d32b168e"},"vehicle_type_id":"4","last_reported":1778516560,"current_range_meters":6800,"station_id":"ce4bhgp2rcd13ifvqfd0","pricing_plan_id":"cebpf4jnsgd1na2vs0mg"},{"bike_id":"a687de40-285a-4965-b64b-ee2f6457bc7f","system_id":"levelo_inurba_marseille","lat":43.337444,"lon":5.374475,"is_reserved":false,"is_disabled":false,"rental_uris":{"android":"levelo://app?vid=a687de40-285a-4965-b64b-ee2f6457bc7f","ios":"levelo://app?vid=a687de40-285a-4965-b64b-ee2f6457bc7f"},"vehicle_type_id":"4","last_reported":1778516560,"current_range_meters":7200,"station_id":"ce4bgjh2rcd13ifvqbf0","pricing_plan_id":"cebpf4jnsgd1na2vs0mg"},{"bike_id":"9385a7db-a696-47a2-8c9b-9a34adad8836","system_id":"levelo_inurba_marseille","lat":43.30573,"lon":5.36529,"is_reserved":false,"is_disabled":false,"rental_uris":{"android":"levelo://app?vid=9385a7db-a696-47a2-8c9b-9a34adad8836","ios":"levelo://app?vid=9385a7db-a696-47a2-8c9b-9a34adad8836"},"vehicle_type_id":"4","last_reported":1778516560,"current_range_meters":7200,"station_id":"ce4bgs12rcd13ifvqcag","pricing_plan_id":"cebpf4jnsgd1na2vs0mg"},{"bike_id":"e0dcdb7c-f6c9-48b1-9d51-9065196df587","system_id":"levelo_inurba_marseille","lat":43.2815,"lon":5.4264,"is_reserved":false,"is_disabled":true,"rental_uris":{"android":"levelo://app?vid=e0dcdb7c-f6c9-48b1-9d51-9065196df587","ios":"levelo://app?vid=e0dcdb7c-f6c9-48b1-9d51-9065196df587"},"vehicle_type_id":"4","last_reported":1778516560,"current_range_meters":7200,"station_id":"ce4bhnh2rcd13ifvqgug","pricing_plan_id":"cebpf4jnsgd1na2vs0mg"},{"bike_id":"3f548fa3-aa24-4628-8da4-99af516773b2","system_id":"levelo_inurba_marseille","lat":43.27966,"lon":5.41054,"is_reserved":false,"is_disabled":false,"rental_uris":{"android":"levelo://app?vid=3f548fa3-aa24-4628-8da4-99af516773b2","ios":"levelo://app?vid=3f548fa3-aa24-4628-8da4-99af516773b2"},"vehicle_type_id":"4","last_reported":1778516560,"current_range_meters":7200,"station_id":"ce4bhnp2rcd13ifvqh0g","pricing_plan_id":"cebpf4jnsgd1na2vs0mg"},{"bike_id":"2f5c7f86-49ca-4c26-8239-f2b3bbf51fda","system_id":"levelo_inurba_marseille","lat":43.265,"lon":5.39535,"is_reserved":false,"is_disabled":false,"rental_uris":{"android":"levelo://app?vid=2f5c7f86-49ca-4c26-8239-f2b3bbf51fda","ios":"levelo://app?vid=2f5c7f86-49ca-4c26-8239-f2b3bbf51fda"},"vehicle_type_id":"4","last_reported":1778516560,"current_range_meters":7200,"station_id":"ce4bhi12rcd13ifvqfq0","pricing_plan_id":"cebpf4jnsgd1na2vs0mg"},{"bike_id":"ffb34908-81f0-450d-91ec-59fc53e9ad76","system_id":"levelo_inurba_marseille","lat":43.33956,"lon":5.41684,"is_reserved":false,"is_disabled":false,"rental_uris":{"android":"levelo://app?vid=ffb34908-81f0-450d-91ec-59fc53e9ad76","ios":"levelo://app?vid=ffb34908-81f0-450d-91ec-59fc53e9ad76"},"vehicle_type_id":"4","last_reported":1778516560,"current_range_meters":7200,"station_id":"","pricing_plan_id":"cebpf4jnsgd1na2vs0mg"},{"bike_id":"dbc30a86-cb82-4b41-bc40-321ccad8be9f","system_id":"levelo_inurba_marseille","lat":43.29612,"lon":5.37707,"is_reserved":false,"is_disabled":true,"rental_uris":{"android":"levelo://app?vid=dbc30a86-cb82-4b41-bc40-321ccad8be9f","ios":"levelo://app?vid=dbc30a86-cb82-4b41-bc40-321ccad8be9f"},"vehicle_type_id":"4","last_reported":1778516560,"current_range_meters":7200,"station_id":"ce4bgi92rcd13ifvqb90","pricing_plan_id":"cebpf4jnsgd1na2vs0mg"},{"bike_id":"8ca63be4-57b3-4179-8d1f-c116772701a0","system_id":"levelo_inurba_marseille","lat":43.2648,"lon":5.37249,"is_reserved":false,"is_disabled":false,"rental_uris":{"android":"levelo://app?vid=8ca63be4-57b3-4179-8d1f-c116772701a0","ios":"levelo://app?vid=8ca63be4-57b3-4179-8d1f-c116772701a0"},"vehicle_type_id":"4","last_reported":1778516560,"current_range_meters":7200,"station_id":"","pricing_plan_id":"cebpf4jnsgd1na2vs0mg"},{"bike_id":"704ef1b4-c37f-42f2-856b-86a2d338b4e1","system_id":"levelo_inurba_marseille","lat":43.21195,"lon":5.35076,"is_reserved":false,"is_disabled":false,"rental_uris":{"android":"levelo://app?vid=704ef1b4-c37f-42f2-856b-86a2d338b4e1","ios":"levelo://app?vid=704ef1b4-c37f-42f2-856b-86a2d338b4e1"},"vehicle_type_id":"4","last_reported":1778516560,"current_range_meters":7200,"station_id":"st_cvj6sg6p6f1abm77japg","pricing_plan_id":"cebpf4jnsgd1na2vs0mg"},{"bike_id":"8167d3ae-08a8-4e06-bdfa-4ef4437718c3","system_id":"levelo_inurba_marseille","lat":43.26573,"lon":5.39051,"is_reserved":false,"is_disabled":false,"rental_uris":{"android":"levelo://app?vid=8167d3ae-08a8-4e06-bdfa-4ef4437718c3","ios":"levelo://app?vid=8167d3ae-08a8-4e06-bdfa-4ef4437718c3"},"vehicle_type_id":"4","last_reported":1778516560,"current_range_meters":7200,"station_id":"ce4bhe12rcd13ifvqf30","pricing_plan_id":"cebpf4jnsgd1na2vs0mg"},{"bike_id":"1b1c72c9-3be4-43c0-b7b2-dbd5ba8023b5","system_id":"levelo_inurba_marseille","lat":43.28426,"lon":5.34987,"is_reserved":false,"is_disabled":false,"rental_uris":{"android":"levelo://app?vid=1b1c72c9-3be4-43c0-b7b2-dbd5ba8023b5","ios":"levelo://app?vid=1b1c72c9-3be4-43c0-b7b2-dbd5ba8023b5"},"vehicle_type_id":"4","last_reported":1778516560,"current_range_meters":7200,"station_id":"ce4bhbh2rcd13ifvqepg","pricing_plan_id":"cebpf4jnsgd1na2vs0mg"},{"bike_id":"f727966a-f675-4b55-a0c1-5be7d0d58eff","system_id":"levelo_inurba_marseille","lat":43.24542,"lon":5.39535,"is_reserved":false,"is_disabled":false,"rental_uris":{"android":"levelo://app?vid=f727966a-f675-4b55-a0c1-5be7d0d58eff","ios":"levelo://app?vid=f727966a-f675-4b55-a0c1-5be7d0d58eff"},"vehicle_type_id":"4","last_reported":1778516560,"current_range_meters":7200,"station_id":"ce4bhlp2rcd13ifvqgjg","pricing_plan_id":"cebpf4jnsgd1na2vs0mg"},{"bike_id":"d474f905-88a9-4e95-a255-f466da4b256f","system_id":"levelo_inurba_marseille","lat":43.29529,"lon":5.39403,"is_reserved":false,"is_disabled":false,"rental_uris":{"android":"levelo://app?vid=d474f905-88a9-4e95-a255-f466da4b256f","ios":"levelo://app?vid=d474f905-88a9-4e95-a255-f466da4b256f"},"vehicle_type_id":"4","last_reported":1778516560,"current_range_meters":7200,"station_id":"ce4bh292rcd13ifvqdf0","pricing_plan_id":"cebpf4jnsgd1na2vs0mg"},{"bike_id":"72a3ca4b-8cec-44ea-8f88-673ca1bed81e","system_id":"levelo_inurba_marseille","lat":43.25735,"lon":5.41102,"is_reserved":false,"is_disabled":false,"rental_uris":{"android":"levelo://app?vid=72a3ca4b-8cec-44ea-8f88-673ca1bed81e","ios":"levelo://app?vid=72a3ca4b-8cec-44ea-8f88-673ca1bed81e"},"vehicle_type_id":"4","last_reported":1778516560,"current_range_meters":7200,"station_id":"ce4bhkp2rcd13ifvqgd0","pricing_plan_id":"cebpf4jnsgd1na2vs0mg"},{"bike_id":"0034e0d5-efa8-4050-ae35-323708811a0d","system_id":"levelo_inurba_marseille","lat":43.253406,"lon":5.421762,"is_reserved":false,"is_disabled":false,"rental_uris":{"android":"levelo://app?vid=0034e0d5-efa8-4050-ae35-323708811a0d","ios":"levelo://app?vid=0034e0d5-efa8-4050-ae35-323708811a0d"},"vehicle_type_id":"4","last_reported":1778516560,"current_range_meters":8000,"station_id":"st_d2m65c5bi1j21697t3ng","pricing_plan_id":"cebpf4jnsgd1na2vs0mg"},{"bike_id":"ca9dbd37-08d6-4605-b97a-99167d1a227f","system_id":"levelo_inurba_marseille","lat":43.28407,"lon":5.34995,"is_reserved":false,"is_disabled":false,"rental_uris":{"android":"levelo://app?vid=ca9dbd37-08d6-4605-b97a-99167d1a227f","ios":"levelo://app?vid=ca9dbd37-08d6-4605-b97a-99167d1a227f"},"vehicle_type_id":"4","last_reported":1778516560,"current_range_meters":8000,"station_id":"ce4bhbh2rcd13ifvqepg","pricing_plan_id":"cebpf4jnsgd1na2vs0mg"},{"bike_id":"5d48cb34-3d27-40c3-ae7a-d28e1bc5be03","system_id":"levelo_inurba_marseille","lat":43.29533,"lon":5.38535,"is_reserved":false,"is_disabled":false,"rental_uris":{"android":"levelo://app?vid=5d48cb34-3d27-40c3-ae7a-d28e1bc5be03","ios":"levelo://app?vid=5d48cb34-3d27-40c3-ae7a-d28e1bc5be03"},"vehicle_type_id":"4","last_reported":1778516560,"current_range_meters":8000,"station_id":"ce4bgih2rcd13ifvqba0","pricing_plan_id":"cebpf4jnsgd1na2vs0mg"},{"bike_id":"a2acb5eb-5952-4d68-b6f0-4028a992c7c4","system_id":"levelo_inurba_marseille","lat":43.24166,"lon":5.36404,"is_reserved":false,"is_disabled":false,"rental_uris":{"android":"levelo://app?vid=a2acb5eb-5952-4d68-b6f0-4028a992c7c4","ios":"levelo://app?vid=a2acb5eb-5952-4d68-b6f0-4028a992c7c4"},"vehicle_type_id":"4","last_reported":1778516560,"current_range_meters":8000,"station_id":"cpo36qri1sfpv3e86is0","pricing_plan_id":"cebpf4jnsgd1na2vs0mg"},{"bike_id":"a9fbe116-6108-4e98-b45c-aa81f4db2759","system_id":"levelo_inurba_marseille","lat":43.27944,"lon":5.41044,"is_reserved":false,"is_disabled":false,"rental_uris":{"android":"levelo://app?vid=a9fbe116-6108-4e98-b45c-aa81f4db2759","ios":"levelo://app?vid=a9fbe116-6108-4e98-b45c-aa81f4db2759"},"vehicle_type_id":"4","last_reported":1778516560,"current_range_meters":8000,"station_id":"ce4bhnp2rcd13ifvqh0g","pricing_plan_id":"cebpf4jnsgd1na2vs0mg"},{"bike_id":"c23db2f7-d6e7-43e3-971f-1e86ecc5c1c6","system_id":"levelo_inurba_marseille","lat":43.26944,"lon":5.40254,"is_reserved":false,"is_disabled":false,"rental_uris":{"android":"levelo://app?vid=c23db2f7-d6e7-43e3-971f-1e86ecc5c1c6","ios":"levelo://app?vid=c23db2f7-d6e7-43e3-971f-1e86ecc5c1c6"},"vehicle_type_id":"4","last_reported":1778516560,"current_range_meters":8000,"station_id":"cjm6bp8fraef2m0cb0m0","pricing_plan_id":"cebpf4jnsgd1na2vs0mg"},{"bike_id":"b8033c2c-9df9-449a-b9a9-83b803e8eec4","system_id":"levelo_inurba_marseille","lat":43.27822,"lon":5.40702,"is_reserved":false,"is_disabled":false,"rental_uris":{"android":"levelo://app?vid=b8033c2c-9df9-449a-b9a9-83b803e8eec4","ios":"levelo://app?vid=b8033c2c-9df9-449a-b9a9-83b803e8eec4"},"vehicle_type_id":"4","last_reported":1778516560,"current_range_meters":8000,"station_id":"ce4bhnh2rcd13ifvqgtg","pricing_plan_id":"cebpf4jnsgd1na2vs0mg"},{"bike_id":"36db56de-6337-4067-891e-544b901c358c","system_id":"levelo_inurba_marseille","lat":43.25337,"lon":5.42187,"is_reserved":false,"is_disabled":false,"rental_uris":{"android":"levelo://app?vid=36db56de-6337-4067-891e-544b901c358c","ios":"levelo://app?vid=36db56de-6337-4067-891e-544b901c358c"},"vehicle_type_id":"4","last_reported":1778516560,"current_range_meters":8000,"station_id":"st_d2m65c5bi1j21697t3ng","pricing_plan_id":"cebpf4jnsgd1na2vs0mg"},{"bike_id":"c52d581c-8b9b-4669-8691-7250ed966bda","system_id":"levelo_inurba_marseille","lat":43.28475,"lon":5.38415,"is_reserved":false,"is_disabled":false,"rental_uris":{"android":"levelo://app?vid=c52d581c-8b9b-4669-8691-7250ed966bda","ios":"levelo://app?vid=c52d581c-8b9b-4669-8691-7250ed966bda"},"vehicle_type_id":"4","last_reported":1778516560,"current_range_meters":8000,"station_id":"ce4bh512rcd13ifvqe3g","pricing_plan_id":"cebpf4jnsgd1na2vs0mg"},{"bike_id":"62f340df-b6bf-4a20-961b-e9c7c48dd845","system_id":"levelo_inurba_marseille","lat":43.26558,"lon":5.39056,"is_reserved":false,"is_disabled":false,"rental_uris":{"android":"levelo://app?vid=62f340df-b6bf-4a20-961b-e9c7c48dd845","ios":"levelo://app?vid=62f340df-b6bf-4a20-961b-e9c7c48dd845"},"vehicle_type_id":"4","last_reported":1778516560,"current_range_meters":8000,"station_id":"ce4bhe12rcd13ifvqf30","pricing_plan_id":"cebpf4jnsgd1na2vs0mg"},{"bike_id":"8ca3139c-bef7-4bce-b802-173bbba39128","system_id":"levelo_inurba_marseille","lat":43.29702,"lon":5.36608,"is_reserved":false,"is_disabled":false,"rental_uris":{"android":"levelo://app?vid=8ca3139c-bef7-4bce-b802-173bbba39128","ios":"levelo://app?vid=8ca3139c-bef7-4bce-b802-173bbba39128"},"vehicle_type_id":"4","last_reported":1778516560,"current_range_meters":8000,"station_id":"ce4bgn12rcd13ifvqbt0","pricing_plan_id":"cebpf4jnsgd1na2vs0mg"},{"bike_id":"dbbac0bb-321b-4c1e-ae1c-9b1236c0b97b","system_id":"levelo_inurba_marseille","lat":43.28483,"lon":5.38577,"is_reserved":false,"is_disabled":false,"rental_uris":{"android":"levelo://app?vid=dbbac0bb-321b-4c1e-ae1c-9b1236c0b97b","ios":"levelo://app?vid=dbbac0bb-321b-4c1e-ae1c-9b1236c0b97b"},"vehicle_type_id":"4","last_reported":1778516560,"current_range_meters":8000,"station_id":"ce4bh8p2rcd13ifvqeb0","pricing_plan_id":"cebpf4jnsgd1na2vs0mg"},{"bike_id":"f300a674-6057-4960-b245-ebb8a2a82161","system_id":"levelo_inurba_marseille","lat":43.28426,"lon":5.35011,"is_reserved":false,"is_disabled":false,"rental_uris":{"android":"levelo://app?vid=f300a674-6057-4960-b245-ebb8a2a82161","ios":"levelo://app?vid=f300a674-6057-4960-b245-ebb8a2a82161"},"vehicle_type_id":"4","last_reported":1778516560,"current_range_meters":8000,"station_id":"ce4bhbh2rcd13ifvqepg","pricing_plan_id":"cebpf4jnsgd1na2vs0mg"},{"bike_id":"c300b24d-578c-4534-b551-a731de8afa41","system_id":"levelo_inurba_marseille","lat":43.31996,"lon":5.38153,"is_reserved":false,"is_disabled":false,"rental_uris":{"android":"levelo://app?vid=c300b24d-578c-4534-b551-a731de8afa41","ios":"levelo://app?vid=c300b24d-578c-4534-b551-a731de8afa41"},"vehicle_type_id":"4","last_reported":1778516560,"current_range_meters":8000,"station_id":"ce4bhr12rcd13ifvqhpg","pricing_plan_id":"cebpf4jnsgd1na2vs0mg"},{"bike_id":"9b25da60-cebe-4dc7-8c8c-768de856a24b","system_id":"levelo_inurba_marseille","lat":43.31356,"lon":5.38526,"is_reserved":false,"is_disabled":false,"rental_uris":{"android":"levelo://app?vid=9b25da60-cebe-4dc7-8c8c-768de856a24b","ios":"levelo://app?vid=9b25da60-cebe-4dc7-8c8c-768de856a24b"},"vehicle_type_id":"4","last_reported":1778516560,"current_range_meters":8000,"station_id":"ce4bgt92rcd13ifvqcf0","pricing_plan_id":"cebpf4jnsgd1na2vs0mg"},{"bike_id":"62dd36f9-7948-49d5-bb93-96136e0310b6","system_id":"levelo_inurba_marseille","lat":43.29621,"lon":5.37701,"is_reserved":false,"is_disabled":false,"rental_uris":{"android":"levelo://app?vid=62dd36f9-7948-49d5-bb93-96136e0310b6","ios":"levelo://app?vid=62dd36f9-7948-49d5-bb93-96136e0310b6"},"vehicle_type_id":"4","last_reported":1778516560,"current_range_meters":8000,"station_id":"ce4bgi92rcd13ifvqb90","pricing_plan_id":"cebpf4jnsgd1na2vs0mg"},{"bike_id":"f99e5b30-6adf-4af6-9228-9ab20336512c","system_id":"levelo_inurba_marseille","lat":43.21756,"lon":5.34607,"is_reserved":false,"is_disabled":true,"rental_uris":{"android":"levelo://app?vid=f99e5b30-6adf-4af6-9228-9ab20336512c","ios":"levelo://app?vid=f99e5b30-6adf-4af6-9228-9ab20336512c"},"vehicle_type_id":"4","last_reported":1778516560,"current_range_meters":8000,"station_id":"st_cvj6r9ubvosntc0bgbag","pricing_plan_id":"cebpf4jnsgd1na2vs0mg"},{"bike_id":"9dd55db5-1f42-4e36-a1d2-5509c7fc320c","system_id":"levelo_inurba_marseille","lat":43.31221,"lon":5.36844,"is_reserved":false,"is_disabled":false,"rental_uris":{"android":"levelo://app?vid=9dd55db5-1f42-4e36-a1d2-5509c7fc320c","ios":"levelo://app?vid=9dd55db5-1f42-4e36-a1d2-5509c7fc320c"},"vehicle_type_id":"4","last_reported":1778516560,"current_range_meters":8000,"station_id":"ce4bgl92rcd13ifvqbq0","pricing_plan_id":"cebpf4jnsgd1na2vs0mg"},{"bike_id":"e3b32efc-f569-4792-8761-60c097854bfa","system_id":"levelo_inurba_marseille","lat":43.29205,"lon":5.42691,"is_reserved":false,"is_disabled":false,"rental_uris":{"android":"levelo://app?vid=e3b32efc-f569-4792-8761-60c097854bfa","ios":"levelo://app?vid=e3b32efc-f569-4792-8761-60c097854bfa"},"vehicle_type_id":"4","last_reported":1778516560,"current_range_meters":8000,"station_id":"","pricing_plan_id":"cebpf4jnsgd1na2vs0mg"},{"bike_id":"656ce605-eec4-4fed-bd74-bb1430423092","system_id":"levelo_inurba_marseille","lat":43.2694,"lon":5.40267,"is_reserved":false,"is_disabled":false,"rental_uris":{"android":"levelo://app?vid=656ce605-eec4-4fed-bd74-bb1430423092","ios":"levelo://app?vid=656ce605-eec4-4fed-bd74-bb1430423092"},"vehicle_type_id":"4","last_reported":1778516560,"current_range_meters":8400,"station_id":"cjm6bp8fraef2m0cb0m0","pricing_plan_id":"cebpf4jnsgd1na2vs0mg"},{"bike_id":"ff750a6d-4eb9-4369-a446-03b9f1f21b2f","system_id":"levelo_inurba_marseille","lat":43.31271,"lon":5.36809,"is_reserved":false,"is_disabled":false,"rental_uris":{"android":"levelo://app?vid=ff750a6d-4eb9-4369-a446-03b9f1f21b2f","ios":"levelo://app?vid=ff750a6d-4eb9-4369-a446-03b9f1f21b2f"},"vehicle_type_id":"4","last_reported":1778516560,"current_range_meters":8400,"station_id":"","pricing_plan_id":"cebpf4jnsgd1na2vs0mg"},{"bike_id":"002d1676-a704-4135-b245-6c297a5aed56","system_id":"levelo_inurba_marseille","lat":43.2417,"lon":5.36403,"is_reserved":false,"is_disabled":false,"rental_uris":{"android":"levelo://app?vid=002d1676-a704-4135-b245-6c297a5aed56","ios":"levelo://app?vid=002d1676-a704-4135-b245-6c297a5aed56"},"vehicle_type_id":"4","last_reported":1778516560,"current_range_meters":8400,"station_id":"cpo36qri1sfpv3e86is0","pricing_plan_id":"cebpf4jnsgd1na2vs0mg"},{"bike_id":"bc8b4f62-757f-4f86-badb-a2ea4e2c51d1","system_id":"levelo_inurba_marseille","lat":43.31352,"lon":5.38494,"is_reserved":false,"is_disabled":false,"rental_uris":{"android":"levelo://app?vid=bc8b4f62-757f-4f86-badb-a2ea4e2c51d1","ios":"levelo://app?vid=bc8b4f62-757f-4f86-badb-a2ea4e2c51d1"},"vehicle_type_id":"4","last_reported":1778516560,"current_range_meters":8400,"station_id":"ce4bgt92rcd13ifvqcf0","pricing_plan_id":"cebpf4jnsgd1na2vs0mg"},{"bike_id":"f686b01a-c70f-439e-97a0-39cc13ce32f3","system_id":"levelo_inurba_marseille","lat":43.24055,"lon":5.37705,"is_reserved":false,"is_disabled":true,"rental_uris":{"android":"levelo://app?vid=f686b01a-c70f-439e-97a0-39cc13ce32f3","ios":"levelo://app?vid=f686b01a-c70f-439e-97a0-39cc13ce32f3"},"vehicle_type_id":"4","last_reported":1778516560,"current_range_meters":8400,"station_id":"ce4bhnp2rcd13ifvqgvg","pricing_plan_id":"cebpf4jnsgd1na2vs0mg"},{"bike_id":"f08fd671-6039-42d3-9555-565586ddb900","system_id":"levelo_inurba_marseille","lat":43.23189,"lon":5.35556,"is_reserved":false,"is_disabled":false,"rental_uris":{"android":"levelo://app?vid=f08fd671-6039-42d3-9555-565586ddb900","ios":"levelo://app?vid=f08fd671-6039-42d3-9555-565586ddb900"},"vehicle_type_id":"4","last_reported":1778516560,"current_range_meters":8400,"station_id":"ce4bhu92rcd13ifvqi70","pricing_plan_id":"cebpf4jnsgd1na2vs0mg"},{"bike_id":"c54af5dc-7299-45b5-b934-5ad453e3fe61","system_id":"levelo_inurba_marseille","lat":43.29566,"lon":5.3754,"is_reserved":false,"is_disabled":true,"rental_uris":{"android":"levelo://app?vid=c54af5dc-7299-45b5-b934-5ad453e3fe61","ios":"levelo://app?vid=c54af5dc-7299-45b5-b934-5ad453e3fe61"},"vehicle_type_id":"4","last_reported":1778516560,"current_range_meters":8400,"station_id":"ce4bgh92rcd13ifvqb50","pricing_plan_id":"cebpf4jnsgd1na2vs0mg"},{"bike_id":"b06dc624-9d1b-44bd-b8d1-2da3c164f736","system_id":"levelo_inurba_marseille","lat":43.30496,"lon":5.45978,"is_reserved":false,"is_disabled":false,"rental_uris":{"android":"levelo://app?vid=b06dc624-9d1b-44bd-b8d1-2da3c164f736","ios":"levelo://app?vid=b06dc624-9d1b-44bd-b8d1-2da3c164f736"},"vehicle_type_id":"4","last_reported":1778516560,"current_range_meters":8400,"station_id":"","pricing_plan_id":"cebpf4jnsgd1na2vs0mg"},{"bike_id":"a477a1a3-f071-4e56-a635-b34d7283b460","system_id":"levelo_inurba_marseille","lat":43.33553,"lon":5.37486,"is_reserved":false,"is_disabled":false,"rental_uris":{"android":"levelo://app?vid=a477a1a3-f071-4e56-a635-b34d7283b460","ios":"levelo://app?vid=a477a1a3-f071-4e56-a635-b34d7283b460"},"vehicle_type_id":"4","last_reported":1778516560,"current_range_meters":8400,"station_id":"st_d46tts09ee8s73dlu43g","pricing_plan_id":"cebpf4jnsgd1na2vs0mg"},{"bike_id":"1c437994-0bf2-4d88-9bfd-90b4583422c4","system_id":"levelo_inurba_marseille","lat":43.26212,"lon":5.37449,"is_reserved":false,"is_disabled":false,"rental_uris":{"android":"levelo://app?vid=1c437994-0bf2-4d88-9bfd-90b4583422c4","ios":"levelo://app?vid=1c437994-0bf2-4d88-9bfd-90b4583422c4"},"vehicle_type_id":"4","last_reported":1778516560,"current_range_meters":8400,"station_id":"ce4bhgp2rcd13ifvqfc0","pricing_plan_id":"cebpf4jnsgd1na2vs0mg"},{"bike_id":"d0823b7c-018c-49ab-9f02-6e77743233c6","system_id":"levelo_inurba_marseille","lat":43.24989,"lon":5.38951,"is_reserved":false,"is_disabled":false,"rental_uris":{"android":"levelo://app?vid=d0823b7c-018c-49ab-9f02-6e77743233c6","ios":"levelo://app?vid=d0823b7c-018c-49ab-9f02-6e77743233c6"},"vehicle_type_id":"4","last_reported":1778516560,"current_range_meters":8400,"station_id":"ce4bhgp2rcd13ifvqfd0","pricing_plan_id":"cebpf4jnsgd1na2vs0mg"},{"bike_id":"0cd47256-0720-4759-bfd6-176875a52e3c","system_id":"levelo_inurba_marseille","lat":43.24687,"lon":5.38139,"is_reserved":false,"is_disabled":false,"rental_uris":{"android":"levelo://app?vid=0cd47256-0720-4759-bfd6-176875a52e3c","ios":"levelo://app?vid=0cd47256-0720-4759-bfd6-176875a52e3c"},"vehicle_type_id":"4","last_reported":1778516560,"current_range_meters":8400,"station_id":"ce4bhih2rcd13ifvqfr0","pricing_plan_id":"cebpf4jnsgd1na2vs0mg"},{"bike_id":"ec52d4cf-f8c9-43d9-9271-a432f86aa150","system_id":"levelo_inurba_marseille","lat":43.23157,"lon":5.43703,"is_reserved":false,"is_disabled":false,"rental_uris":{"android":"levelo://app?vid=ec52d4cf-f8c9-43d9-9271-a432f86aa150","ios":"levelo://app?vid=ec52d4cf-f8c9-43d9-9271-a432f86aa150"},"vehicle_type_id":"4","last_reported":1778516560,"current_range_meters":8400,"station_id":"ce4bhmp2rcd13ifvqgog","pricing_plan_id":"cebpf4jnsgd1na2vs0mg"},{"bike_id":"e84df05f-3c70-4270-a201-0e25a9be4dce","system_id":"levelo_inurba_marseille","lat":43.28976,"lon":5.37832,"is_reserved":false,"is_disabled":false,"rental_uris":{"android":"levelo://app?vid=e84df05f-3c70-4270-a201-0e25a9be4dce","ios":"levelo://app?vid=e84df05f-3c70-4270-a201-0e25a9be4dce"},"vehicle_type_id":"4","last_reported":1778516560,"current_range_meters":8400,"station_id":"ce4bh9p2rcd13ifvqed0","pricing_plan_id":"cebpf4jnsgd1na2vs0mg"},{"bike_id":"a0130f1b-ce31-44b6-bbce-189c0edcff68","system_id":"levelo_inurba_marseille","lat":43.30469,"lon":5.37892,"is_reserved":false,"is_disabled":true,"rental_uris":{"android":"levelo://app?vid=a0130f1b-ce31-44b6-bbce-189c0edcff68","ios":"levelo://app?vid=a0130f1b-ce31-44b6-bbce-189c0edcff68"},"vehicle_type_id":"4","last_reported":1778516560,"current_range_meters":8400,"station_id":"ce4bgup2rcd13ifvqcn0","pricing_plan_id":"cebpf4jnsgd1na2vs0mg"},{"bike_id":"4cce7a10-8156-4bd7-a083-ce268d0074e0","system_id":"levelo_inurba_marseille","lat":43.28484,"lon":5.38418,"is_reserved":false,"is_disabled":false,"rental_uris":{"android":"levelo://app?vid=4cce7a10-8156-4bd7-a083-ce268d0074e0","ios":"levelo://app?vid=4cce7a10-8156-4bd7-a083-ce268d0074e0"},"vehicle_type_id":"4","last_reported":1778516560,"current_range_meters":8400,"station_id":"ce4bh512rcd13ifvqe3g","pricing_plan_id":"cebpf4jnsgd1na2vs0mg"},{"bike_id":"8a782c56-d699-443e-a31a-09c56a51968e","system_id":"levelo_inurba_marseille","lat":43.24185,"lon":5.39739,"is_reserved":false,"is_disabled":false,"rental_uris":{"android":"levelo://app?vid=8a782c56-d699-443e-a31a-09c56a51968e","ios":"levelo://app?vid=8a782c56-d699-443e-a31a-09c56a51968e"},"vehicle_type_id":"4","last_reported":1778516560,"current_range_meters":8400,"station_id":"ce4bhn12rcd13ifvqgpg","pricing_plan_id":"cebpf4jnsgd1na2vs0mg"},{"bike_id":"bfe6c24e-833c-4712-8151-c98cf5a1db99","system_id":"levelo_inurba_marseille","lat":43.295977,"lon":5.380969,"is_reserved":false,"is_disabled":false,"rental_uris":{"android":"levelo://app?vid=bfe6c24e-833c-4712-8151-c98cf5a1db99","ios":"levelo://app?vid=bfe6c24e-833c-4712-8151-c98cf5a1db99"},"vehicle_type_id":"4","last_reported":1778516560,"current_range_meters":8400,"station_id":"ce4bgl12rcd13ifvqbo0","pricing_plan_id":"cebpf4jnsgd1na2vs0mg"},{"bike_id":"ee4ae8ad-baac-4ca4-b488-3ec551753c66","system_id":"levelo_inurba_marseille","lat":43.21178,"lon":5.35127,"is_reserved":false,"is_disabled":false,"rental_uris":{"android":"levelo://app?vid=ee4ae8ad-baac-4ca4-b488-3ec551753c66","ios":"levelo://app?vid=ee4ae8ad-baac-4ca4-b488-3ec551753c66"},"vehicle_type_id":"4","last_reported":1778516560,"current_range_meters":8400,"station_id":"st_cvj6sg6p6f1abm77japg","pricing_plan_id":"cebpf4jnsgd1na2vs0mg"},{"bike_id":"de15025b-6ccd-4c02-a679-94e68edc9c98","system_id":"levelo_inurba_marseille","lat":43.28789,"lon":5.42422,"is_reserved":false,"is_disabled":false,"rental_uris":{"android":"levelo://app?vid=de15025b-6ccd-4c02-a679-94e68edc9c98","ios":"levelo://app?vid=de15025b-6ccd-4c02-a679-94e68edc9c98"},"vehicle_type_id":"4","last_reported":1778516560,"current_range_meters":8400,"station_id":"","pricing_plan_id":"cebpf4jnsgd1na2vs0mg"},{"bike_id":"8e4b050e-78bc-4587-a179-01ce687f4825","system_id":"levelo_inurba_marseille","lat":43.24635,"lon":5.38957,"is_reserved":false,"is_disabled":false,"rental_uris":{"android":"levelo://app?vid=8e4b050e-78bc-4587-a179-01ce687f4825","ios":"levelo://app?vid=8e4b050e-78bc-4587-a179-01ce687f4825"},"vehicle_type_id":"4","last_reported":1778516560,"current_range_meters":8400,"station_id":"ce4bhg12rcd13ifvqf60","pricing_plan_id":"cebpf4jnsgd1na2vs0mg"},{"bike_id":"127c59d7-6eef-47c4-91e1-68411c50e54a","system_id":"levelo_inurba_marseille","lat":43.262011,"lon":5.40386,"is_reserved":false,"is_disabled":false,"rental_uris":{"android":"levelo://app?vid=127c59d7-6eef-47c4-91e1-68411c50e54a","ios":"levelo://app?vid=127c59d7-6eef-47c4-91e1-68411c50e54a"},"vehicle_type_id":"4","last_reported":1778516560,"current_range_meters":8400,"station_id":"ce4bhmh2rcd13ifvqgmg","pricing_plan_id":"cebpf4jnsgd1na2vs0mg"},{"bike_id":"914b94a4-bf59-4af5-993a-5a5d7a6154fb","system_id":"levelo_inurba_marseille","lat":43.31755,"lon":5.39021,"is_reserved":false,"is_disabled":false,"rental_uris":{"android":"levelo://app?vid=914b94a4-bf59-4af5-993a-5a5d7a6154fb","ios":"levelo://app?vid=914b94a4-bf59-4af5-993a-5a5d7a6154fb"},"vehicle_type_id":"4","last_reported":1778516560,"current_range_meters":8400,"station_id":"ce4bhqp2rcd13ifvqhng","pricing_plan_id":"cebpf4jnsgd1na2vs0mg"},{"bike_id":"77d76d01-8672-43b4-b4b5-486ec9c6633a","system_id":"levelo_inurba_marseille","lat":43.26577,"lon":5.39025,"is_reserved":false,"is_disabled":false,"rental_uris":{"android":"levelo://app?vid=77d76d01-8672-43b4-b4b5-486ec9c6633a","ios":"levelo://app?vid=77d76d01-8672-43b4-b4b5-486ec9c6633a"},"vehicle_type_id":"4","last_reported":1778516560,"current_range_meters":8800,"station_id":"ce4bhe12rcd13ifvqf30","pricing_plan_id":"cebpf4jnsgd1na2vs0mg"},{"bike_id":"6687113e-3a7a-46e3-867b-b9b5b727b9e3","system_id":"levelo_inurba_marseille","lat":43.29642,"lon":5.36604,"is_reserved":false,"is_disabled":true,"rental_uris":{"android":"levelo://app?vid=6687113e-3a7a-46e3-867b-b9b5b727b9e3","ios":"levelo://app?vid=6687113e-3a7a-46e3-867b-b9b5b727b9e3"},"vehicle_type_id":"4","last_reported":1778516560,"current_range_meters":8800,"station_id":"","pricing_plan_id":"cebpf4jnsgd1na2vs0mg"},{"bike_id":"ce8907b4-95ae-4cb1-8ed0-698c7f370c57","system_id":"levelo_inurba_marseille","lat":43.2813,"lon":5.42641,"is_reserved":false,"is_disabled":false,"rental_uris":{"android":"levelo://app?vid=ce8907b4-95ae-4cb1-8ed0-698c7f370c57","ios":"levelo://app?vid=ce8907b4-95ae-4cb1-8ed0-698c7f370c57"},"vehicle_type_id":"4","last_reported":1778516560,"current_range_meters":8800,"station_id":"ce4bhnh2rcd13ifvqgug","pricing_plan_id":"cebpf4jnsgd1na2vs0mg"},{"bike_id":"6404d429-d7aa-4fe1-9b5b-cee756c89926","system_id":"levelo_inurba_marseille","lat":43.24675,"lon":5.38167,"is_reserved":false,"is_disabled":false,"rental_uris":{"android":"levelo://app?vid=6404d429-d7aa-4fe1-9b5b-cee756c89926","ios":"levelo://app?vid=6404d429-d7aa-4fe1-9b5b-cee756c89926"},"vehicle_type_id":"4","last_reported":1778516560,"current_range_meters":8800,"station_id":"ce4bhih2rcd13ifvqfr0","pricing_plan_id":"cebpf4jnsgd1na2vs0mg"},{"bike_id":"1f9561d8-586e-48b6-8f59-b32daf0821a8","system_id":"levelo_inurba_marseille","lat":43.28703,"lon":5.46686,"is_reserved":false,"is_disabled":false,"rental_uris":{"android":"levelo://app?vid=1f9561d8-586e-48b6-8f59-b32daf0821a8","ios":"levelo://app?vid=1f9561d8-586e-48b6-8f59-b32daf0821a8"},"vehicle_type_id":"4","last_reported":1778516560,"current_range_meters":8800,"station_id":"st_d6tc3vkotcvc738tfjhg","pricing_plan_id":"cebpf4jnsgd1na2vs0mg"},{"bike_id":"d865f9a0-14b6-46bd-bba4-d835d1328292","system_id":"levelo_inurba_marseille","lat":43.31194,"lon":5.38733,"is_reserved":false,"is_disabled":true,"rental_uris":{"android":"levelo://app?vid=d865f9a0-14b6-46bd-bba4-d835d1328292","ios":"levelo://app?vid=d865f9a0-14b6-46bd-bba4-d835d1328292"},"vehicle_type_id":"4","last_reported":1778516560,"current_range_meters":8800,"station_id":"ce4bgv12rcd13ifvqcp0","pricing_plan_id":"cebpf4jnsgd1na2vs0mg"},{"bike_id":"71a33395-519e-4307-a4fd-d537d1762317","system_id":"levelo_inurba_marseille","lat":43.23193,"lon":5.35546,"is_reserved":false,"is_disabled":false,"rental_uris":{"android":"levelo://app?vid=71a33395-519e-4307-a4fd-d537d1762317","ios":"levelo://app?vid=71a33395-519e-4307-a4fd-d537d1762317"},"vehicle_type_id":"4","last_reported":1778516560,"current_range_meters":8800,"station_id":"ce4bhu92rcd13ifvqi70","pricing_plan_id":"cebpf4jnsgd1na2vs0mg"},{"bike_id":"2e9e95a9-c02c-41fe-b78c-00db027d1d26","system_id":"levelo_inurba_marseille","lat":43.29568,"lon":5.3761,"is_reserved":false,"is_disabled":true,"rental_uris":{"android":"levelo://app?vid=2e9e95a9-c02c-41fe-b78c-00db027d1d26","ios":"levelo://app?vid=2e9e95a9-c02c-41fe-b78c-00db027d1d26"},"vehicle_type_id":"4","last_reported":1778516560,"current_range_meters":8800,"station_id":"","pricing_plan_id":"cebpf4jnsgd1na2vs0mg"},{"bike_id":"b75bc027-97cc-4e5f-a5aa-cc74cd820ae5","system_id":"levelo_inurba_marseille","lat":43.24474,"lon":5.42538,"is_reserved":false,"is_disabled":false,"rental_uris":{"android":"levelo://app?vid=b75bc027-97cc-4e5f-a5aa-cc74cd820ae5","ios":"levelo://app?vid=b75bc027-97cc-4e5f-a5aa-cc74cd820ae5"},"vehicle_type_id":"4","last_reported":1778516560,"current_range_meters":8800,"station_id":"st_d4a3vfp97mjs738cd8kg","pricing_plan_id":"cebpf4jnsgd1na2vs0mg"},{"bike_id":"8c3059b3-e942-4aca-af7c-6b132cf6aad3","system_id":"levelo_inurba_marseille","lat":43.30601,"lon":5.37224,"is_reserved":false,"is_disabled":false,"rental_uris":{"android":"levelo://app?vid=8c3059b3-e942-4aca-af7c-6b132cf6aad3","ios":"levelo://app?vid=8c3059b3-e942-4aca-af7c-6b132cf6aad3"},"vehicle_type_id":"4","last_reported":1778516560,"current_range_meters":8800,"station_id":"ce4bgqh2rcd13ifvqc4g","pricing_plan_id":"cebpf4jnsgd1na2vs0mg"},{"bike_id":"58777786-c703-4ef2-9fa7-27ced87cf326","system_id":"levelo_inurba_marseille","lat":43.29199,"lon":5.35795,"is_reserved":false,"is_disabled":false,"rental_uris":{"android":"levelo://app?vid=58777786-c703-4ef2-9fa7-27ced87cf326","ios":"levelo://app?vid=58777786-c703-4ef2-9fa7-27ced87cf326"},"vehicle_type_id":"4","last_reported":1778516560,"current_range_meters":8800,"station_id":"ce4bhb12rcd13ifvqel0","pricing_plan_id":"cebpf4jnsgd1na2vs0mg"},{"bike_id":"3ba83b48-1d42-4a86-bc26-b35cdac413f5","system_id":"levelo_inurba_marseille","lat":43.3316,"lon":5.37686,"is_reserved":false,"is_disabled":false,"rental_uris":{"android":"levelo://app?vid=3ba83b48-1d42-4a86-bc26-b35cdac413f5","ios":"levelo://app?vid=3ba83b48-1d42-4a86-bc26-b35cdac413f5"},"vehicle_type_id":"4","last_reported":1778516560,"current_range_meters":8800,"station_id":"st_d46cu089ee8s73dldbu0","pricing_plan_id":"cebpf4jnsgd1na2vs0mg"},{"bike_id":"b5e8237e-fbd1-4481-8dd8-2b32ebd8910c","system_id":"levelo_inurba_marseille","lat":43.29326,"lon":5.3716,"is_reserved":false,"is_disabled":true,"rental_uris":{"android":"levelo://app?vid=b5e8237e-fbd1-4481-8dd8-2b32ebd8910c","ios":"levelo://app?vid=b5e8237e-fbd1-4481-8dd8-2b32ebd8910c"},"vehicle_type_id":"4","last_reported":1778516560,"current_range_meters":8800,"station_id":"ce4bgh92rcd13ifvqb40","pricing_plan_id":"cebpf4jnsgd1na2vs0mg"},{"bike_id":"89057c05-c72e-4f5a-a0db-f5b7c4f54905","system_id":"levelo_inurba_marseille","lat":43.27954,"lon":5.41046,"is_reserved":false,"is_disabled":true,"rental_uris":{"android":"levelo://app?vid=89057c05-c72e-4f5a-a0db-f5b7c4f54905","ios":"levelo://app?vid=89057c05-c72e-4f5a-a0db-f5b7c4f54905"},"vehicle_type_id":"4","last_reported":1778516560,"current_range_meters":8800,"station_id":"ce4bhnp2rcd13ifvqh0g","pricing_plan_id":"cebpf4jnsgd1na2vs0mg"},{"bike_id":"9c151540-5818-4eac-866d-f21c93c2c4d0","system_id":"levelo_inurba_marseille","lat":43.28026,"lon":5.35348,"is_reserved":false,"is_disabled":false,"rental_uris":{"android":"levelo://app?vid=9c151540-5818-4eac-866d-f21c93c2c4d0","ios":"levelo://app?vid=9c151540-5818-4eac-866d-f21c93c2c4d0"},"vehicle_type_id":"4","last_reported":1778516560,"current_range_meters":8800,"station_id":"","pricing_plan_id":"cebpf4jnsgd1na2vs0mg"},{"bike_id":"712b6481-0414-4e83-8c0d-322086583ab8","system_id":"levelo_inurba_marseille","lat":43.21763,"lon":5.34604,"is_reserved":false,"is_disabled":false,"rental_uris":{"android":"levelo://app?vid=712b6481-0414-4e83-8c0d-322086583ab8","ios":"levelo://app?vid=712b6481-0414-4e83-8c0d-322086583ab8"},"vehicle_type_id":"4","last_reported":1778516560,"current_range_meters":8800,"station_id":"st_cvj6r9ubvosntc0bgbag","pricing_plan_id":"cebpf4jnsgd1na2vs0mg"},{"bike_id":"8673eca3-8676-4675-8699-2fd983e8eddf","system_id":"levelo_inurba_marseille","lat":43.28625,"lon":5.35092,"is_reserved":false,"is_disabled":false,"rental_uris":{"android":"levelo://app?vid=8673eca3-8676-4675-8699-2fd983e8eddf","ios":"levelo://app?vid=8673eca3-8676-4675-8699-2fd983e8eddf"},"vehicle_type_id":"4","last_reported":1778516560,"current_range_meters":8800,"station_id":"ce4bhch2rcd13ifvqeug","pricing_plan_id":"cebpf4jnsgd1na2vs0mg"},{"bike_id":"ce4e6d3d-4673-43cd-8ecc-c61d227e3357","system_id":"levelo_inurba_marseille","lat":43.31216,"lon":5.36806,"is_reserved":false,"is_disabled":false,"rental_uris":{"android":"levelo://app?vid=ce4e6d3d-4673-43cd-8ecc-c61d227e3357","ios":"levelo://app?vid=ce4e6d3d-4673-43cd-8ecc-c61d227e3357"},"vehicle_type_id":"4","last_reported":1778516560,"current_range_meters":8800,"station_id":"ce4bgl92rcd13ifvqbq0","pricing_plan_id":"cebpf4jnsgd1na2vs0mg"},{"bike_id":"e843d170-c1dc-4865-9e9f-41bdb472d2a2","system_id":"levelo_inurba_marseille","lat":43.30116,"lon":5.39948,"is_reserved":false,"is_disabled":false,"rental_uris":{"android":"levelo://app?vid=e843d170-c1dc-4865-9e9f-41bdb472d2a2","ios":"levelo://app?vid=e843d170-c1dc-4865-9e9f-41bdb472d2a2"},"vehicle_type_id":"4","last_reported":1778516560,"current_range_meters":8800,"station_id":"","pricing_plan_id":"cebpf4jnsgd1na2vs0mg"},{"bike_id":"449a7ec8-3b8c-48af-8eeb-ef3e955542ee","system_id":"levelo_inurba_marseille","lat":43.29031,"lon":5.42846,"is_reserved":false,"is_disabled":false,"rental_uris":{"android":"levelo://app?vid=449a7ec8-3b8c-48af-8eeb-ef3e955542ee","ios":"levelo://app?vid=449a7ec8-3b8c-48af-8eeb-ef3e955542ee"},"vehicle_type_id":"4","last_reported":1778516560,"current_range_meters":8800,"station_id":"","pricing_plan_id":"cebpf4jnsgd1na2vs0mg"},{"bike_id":"fa6ecc6e-df25-471a-9b43-79f31ccf0e9b","system_id":"levelo_inurba_marseille","lat":43.29054,"lon":5.37144,"is_reserved":false,"is_disabled":false,"rental_uris":{"android":"levelo://app?vid=fa6ecc6e-df25-471a-9b43-79f31ccf0e9b","ios":"levelo://app?vid=fa6ecc6e-df25-471a-9b43-79f31ccf0e9b"},"vehicle_type_id":"4","last_reported":1778516560,"current_range_meters":9200,"station_id":"ce4bh5p2rcd13ifvqe4g","pricing_plan_id":"cebpf4jnsgd1na2vs0mg"},{"bike_id":"30bdf832-dffc-4ef3-b600-5ed4784561dd","system_id":"levelo_inurba_marseille","lat":43.29596,"lon":5.36727,"is_reserved":false,"is_disabled":false,"rental_uris":{"android":"levelo://app?vid=30bdf832-dffc-4ef3-b600-5ed4784561dd","ios":"levelo://app?vid=30bdf832-dffc-4ef3-b600-5ed4784561dd"},"vehicle_type_id":"4","last_reported":1778516560,"current_range_meters":9200,"station_id":"ce4bgph2rcd13ifvqc2g","pricing_plan_id":"cebpf4jnsgd1na2vs0mg"},{"bike_id":"8c346002-d709-446e-8be6-9a7bf036b8a0","system_id":"levelo_inurba_marseille","lat":43.31711,"lon":5.37761,"is_reserved":false,"is_disabled":false,"rental_uris":{"android":"levelo://app?vid=8c346002-d709-446e-8be6-9a7bf036b8a0","ios":"levelo://app?vid=8c346002-d709-446e-8be6-9a7bf036b8a0"},"vehicle_type_id":"4","last_reported":1778516560,"current_range_meters":9200,"station_id":"ce4bgth2rcd13ifvqch0","pricing_plan_id":"cebpf4jnsgd1na2vs0mg"},{"bike_id":"03243661-1970-4f28-b56e-9db07bbc888f","system_id":"levelo_inurba_marseille","lat":43.24679,"lon":5.38153,"is_reserved":false,"is_disabled":false,"rental_uris":{"android":"levelo://app?vid=03243661-1970-4f28-b56e-9db07bbc888f","ios":"levelo://app?vid=03243661-1970-4f28-b56e-9db07bbc888f"},"vehicle_type_id":"4","last_reported":1778516560,"current_range_meters":9200,"station_id":"ce4bhih2rcd13ifvqfr0","pricing_plan_id":"cebpf4jnsgd1na2vs0mg"},{"bike_id":"78a9a63d-bfc5-417b-ba0a-b36a92d8cc91","system_id":"levelo_inurba_marseille","lat":43.24809,"lon":5.37457,"is_reserved":false,"is_disabled":false,"rental_uris":{"android":"levelo://app?vid=78a9a63d-bfc5-417b-ba0a-b36a92d8cc91","ios":"levelo://app?vid=78a9a63d-bfc5-417b-ba0a-b36a92d8cc91"},"vehicle_type_id":"4","last_reported":1778516560,"current_range_meters":9200,"station_id":"ce4bhgh2rcd13ifvqfb0","pricing_plan_id":"cebpf4jnsgd1na2vs0mg"},{"bike_id":"6763b0b4-a7d8-410f-aaf8-3fadc4644b7c","system_id":"levelo_inurba_marseille","lat":43.29234,"lon":5.39964,"is_reserved":false,"is_disabled":false,"rental_uris":{"android":"levelo://app?vid=6763b0b4-a7d8-410f-aaf8-3fadc4644b7c","ios":"levelo://app?vid=6763b0b4-a7d8-410f-aaf8-3fadc4644b7c"},"vehicle_type_id":"4","last_reported":1778516560,"current_range_meters":9200,"station_id":"ce4bh312rcd13ifvqdk0","pricing_plan_id":"cebpf4jnsgd1na2vs0mg"},{"bike_id":"d9c00e07-0ccb-44d3-98b5-661f91cd1af0","system_id":"levelo_inurba_marseille","lat":43.248,"lon":5.37455,"is_reserved":false,"is_disabled":false,"rental_uris":{"android":"levelo://app?vid=d9c00e07-0ccb-44d3-98b5-661f91cd1af0","ios":"levelo://app?vid=d9c00e07-0ccb-44d3-98b5-661f91cd1af0"},"vehicle_type_id":"4","last_reported":1778516560,"current_range_meters":9200,"station_id":"ce4bhgh2rcd13ifvqfb0","pricing_plan_id":"cebpf4jnsgd1na2vs0mg"},{"bike_id":"29bfbd1c-5438-4fe1-8f5e-21c75f0f87df","system_id":"levelo_inurba_marseille","lat":43.31187,"lon":5.36894,"is_reserved":false,"is_disabled":true,"rental_uris":{"android":"levelo://app?vid=29bfbd1c-5438-4fe1-8f5e-21c75f0f87df","ios":"levelo://app?vid=29bfbd1c-5438-4fe1-8f5e-21c75f0f87df"},"vehicle_type_id":"4","last_reported":1778516560,"current_range_meters":9200,"station_id":"ce4bgl92rcd13ifvqbq0","pricing_plan_id":"cebpf4jnsgd1na2vs0mg"},{"bike_id":"ff15752c-3476-4ca1-a11f-41df3e661909","system_id":"levelo_inurba_marseille","lat":43.27057,"lon":5.40262,"is_reserved":false,"is_disabled":false,"rental_uris":{"android":"levelo://app?vid=ff15752c-3476-4ca1-a11f-41df3e661909","ios":"levelo://app?vid=ff15752c-3476-4ca1-a11f-41df3e661909"},"vehicle_type_id":"4","last_reported":1778516560,"current_range_meters":9200,"station_id":"ce4bhk92rcd13ifvqgc0","pricing_plan_id":"cebpf4jnsgd1na2vs0mg"},{"bike_id":"2d8ca6ca-8eea-42bd-8a5c-fd8036c2dc80","system_id":"levelo_inurba_marseille","lat":43.31215,"lon":5.36836,"is_reserved":false,"is_disabled":false,"rental_uris":{"android":"levelo://app?vid=2d8ca6ca-8eea-42bd-8a5c-fd8036c2dc80","ios":"levelo://app?vid=2d8ca6ca-8eea-42bd-8a5c-fd8036c2dc80"},"vehicle_type_id":"4","last_reported":1778516560,"current_range_meters":9200,"station_id":"ce4bgl92rcd13ifvqbq0","pricing_plan_id":"cebpf4jnsgd1na2vs0mg"},{"bike_id":"295fbbaf-5199-4006-92fa-147dae04cb4a","system_id":"levelo_inurba_marseille","lat":43.27809,"lon":5.40719,"is_reserved":false,"is_disabled":false,"rental_uris":{"android":"levelo://app?vid=295fbbaf-5199-4006-92fa-147dae04cb4a","ios":"levelo://app?vid=295fbbaf-5199-4006-92fa-147dae04cb4a"},"vehicle_type_id":"4","last_reported":1778516560,"current_range_meters":9200,"station_id":"ce4bhnh2rcd13ifvqgtg","pricing_plan_id":"cebpf4jnsgd1na2vs0mg"},{"bike_id":"d8f37acd-07c9-492a-869d-e2c04d7908e4","system_id":"levelo_inurba_marseille","lat":43.24319,"lon":5.38437,"is_reserved":false,"is_disabled":false,"rental_uris":{"android":"levelo://app?vid=d8f37acd-07c9-492a-869d-e2c04d7908e4","ios":"levelo://app?vid=d8f37acd-07c9-492a-869d-e2c04d7908e4"},"vehicle_type_id":"4","last_reported":1778516560,"current_range_meters":9200,"station_id":"","pricing_plan_id":"cebpf4jnsgd1na2vs0mg"},{"bike_id":"bd9656b8-7766-41eb-af9e-169942fe8ee6","system_id":"levelo_inurba_marseille","lat":43.29276,"lon":5.40114,"is_reserved":false,"is_disabled":false,"rental_uris":{"android":"levelo://app?vid=bd9656b8-7766-41eb-af9e-169942fe8ee6","ios":"levelo://app?vid=bd9656b8-7766-41eb-af9e-169942fe8ee6"},"vehicle_type_id":"4","last_reported":1778516560,"current_range_meters":9200,"station_id":"ce4bh312rcd13ifvqdk0","pricing_plan_id":"cebpf4jnsgd1na2vs0mg"},{"bike_id":"c20bc33e-f3df-48e9-ab2d-a3935e25ca49","system_id":"levelo_inurba_marseille","lat":43.28697,"lon":5.37381,"is_reserved":false,"is_disabled":false,"rental_uris":{"android":"levelo://app?vid=c20bc33e-f3df-48e9-ab2d-a3935e25ca49","ios":"levelo://app?vid=c20bc33e-f3df-48e9-ab2d-a3935e25ca49"},"vehicle_type_id":"4","last_reported":1778516560,"current_range_meters":9200,"station_id":"ce4bh3p2rcd13ifvqdq0","pricing_plan_id":"cebpf4jnsgd1na2vs0mg"},{"bike_id":"b8243076-42b6-47f8-9396-d4c9ea6120e5","system_id":"levelo_inurba_marseille","lat":43.25574,"lon":5.38244,"is_reserved":false,"is_disabled":false,"rental_uris":{"android":"levelo://app?vid=b8243076-42b6-47f8-9396-d4c9ea6120e5","ios":"levelo://app?vid=b8243076-42b6-47f8-9396-d4c9ea6120e5"},"vehicle_type_id":"4","last_reported":1778516560,"current_range_meters":9600,"station_id":"ce4bhih2rcd13ifvqfs0","pricing_plan_id":"cebpf4jnsgd1na2vs0mg"},{"bike_id":"f7db01ea-5121-4cc6-9444-8b173fafba48","system_id":"levelo_inurba_marseille","lat":43.30594,"lon":5.37218,"is_reserved":false,"is_disabled":false,"rental_uris":{"android":"levelo://app?vid=f7db01ea-5121-4cc6-9444-8b173fafba48","ios":"levelo://app?vid=f7db01ea-5121-4cc6-9444-8b173fafba48"},"vehicle_type_id":"4","last_reported":1778516560,"current_range_meters":9600,"station_id":"ce4bgqh2rcd13ifvqc4g","pricing_plan_id":"cebpf4jnsgd1na2vs0mg"},