{"last_updated":1685862356,"ttl":30,"version":"2.2","data":{"bikes":[{"bike_id":"8a58e242-e155-4ffa-98b2-7669d9ae87e1","system_id":"levelo_inurba_marseille","lat":43.312239,"lon":5.368562,"is_reserved":false,"is_disabled":false,"rental_uris":{"android":"levelo://app?vid=8a58e242-e155-4ffa-98b2-7669d9ae87e1","ios":"levelo://app?vid=8a58e242-e155-4ffa-98b2-7669d9ae87e1"},"vehicle_type_id":"4","last_reported":1685862357,"current_range_meters":27200,"station_id":"ce4bgl92rcd13ifvqbq0","pricing_plan_id":"free"},{"bike_id":"548ba8f9-230d-4c58-926b-3ca2f350957e","system_id":"levelo_inurba_marseille","lat":43.312239,"lon":5.368562,"is_reserved":false,"is_disabled":false,"rental_uris":{"android":"levelo://app?vid=548ba8f9-230d-4c58-926b-3ca2f350957e","ios":"levelo://app?vid=548ba8f9-230d-4c58-926b-3ca2f350957e"},"vehicle_type_id":"4","last_reported":1685862357,"current_range_meters":5600,"station_id":"ce4bgl92rcd13ifvqbq0","pricing_plan_id":"free"},{"bike_id":"6d633af9-b883-42dc-86dd-44e95352383d","system_id":"levelo_inurba_marseille","lat":43.31361,"lon":5.37088,"is_reserved":false,"is_disabled":false,"rental_uris":{"android":"levelo://app?vid=6d633af9-b883-42dc-86dd-44e95352383d","ios":"levelo://app?vid=6d633af9-b883-42dc-86dd-44e95352383d"},"vehicle_type_id":"4","last_reported":1685862357,"current_range_meters":23200,"station_id":"","pricing_plan_id":"free"},{"bike_id":"4d43e892-ec90-4fce-8475-f727fed3851f","system_id":"levelo_inurba_marseille","lat":43.31928,"lon":5.3668,"is_reserved":false,"is_disabled":false,"rental_uris":{"android":"levelo://app?vid=4d43e892-ec90-4fce-8475-f727fed3851f","ios":"levelo://app?vid=4d43e892-ec90-4fce-8475-f727fed3851f"},"vehicle_type_id":"4","last_reported":1685862357,"current_range_meters":2000,"station_id":"","pricing_plan_id":"free"},{"bike_id":"cd6ad8cf-eb66-4297-bf6b-6df26dc162bc","system_id":"levelo_inurba_marseille","lat":43.30552,"lon":5.36709,"is_reserved":false,"is_disabled":false,"rental_uris":{"android":"levelo://app?vid=cd6ad8cf-eb66-4297-bf6b-6df26dc162bc","ios":"levelo://app?vid=cd6ad8cf-eb66-4297-bf6b-6df26dc162bc"},"vehicle_type_id":"4","last_reported":1685862357,"current_range_meters":31200,"station_id":"ce4bgrp2rcd13ifvqc9g","pricing_plan_id":"free"},{"bike_id":"7073c67a-19ef-44ee-af06-777ebeb54002","system_id":"levelo_inurba_marseille","lat":43.305368,"lon":5.367343,"is_reserved":false,"is_disabled":false,"rental_uris":{"android":"levelo://app?vid=7073c67a-19ef-44ee-af06-777ebeb54002","ios":"levelo://app?vid=7073c67a-19ef-44ee-af06-777ebeb54002"},"vehicle_type_id":"4","last_reported":1685862357,"current_range_meters":20800,"station_id":"ce4bgrp2rcd13ifvqc9g","pricing_plan_id":"free"},{"bike_id":"87459ae2-bc7e-401b-b3fc-f39455a900d1","system_id":"levelo_inurba_marseille","lat":43.305368,"lon":5.367343,"is_reserved":false,"is_disabled":false,"rental_uris":{"android":"levelo://app?vid=87459ae2-bc7e-401b-b3fc-f39455a900d1","ios":"levelo://app?vid=87459ae2-bc7e-401b-b3fc-f39455a900d1"},"vehicle_type_id":"4","last_reported":1685862357,"current_range_meters":24800,"station_id":"ce4bgrp2rcd13ifvqc9g","pricing_plan_id":"free"},{"bike_id":"815fe796-a738-4120-a2a4-3d94eefedad7","system_id":"levelo_inurba_marseille","lat":43.30547,"lon":5.36535,"is_reserved":false,"is_disabled":false,"rental_uris":{"android":"levelo://app?vid=815fe796-a738-4120-a2a4-3d94eefedad7","ios":"levelo://app?vid=815fe796-a738-4120-a2a4-3d94eefedad7"},"vehicle_type_id":"4","last_reported":1685862357,"current_range_meters":20800,"station_id":"","pricing_plan_id":"free"},{"bike_id":"492c7e23-1a3e-4fcd-8aa0-6d512bef3e64","system_id":"levelo_inurba_marseille","lat":43.30544,"lon":5.36534,"is_reserved":false,"is_disabled":false,"rental_uris":{"android":"levelo://app?vid=492c7e23-1a3e-4fcd-8aa0-6d512bef3e64","ios":"levelo://app?vid=492c7e23-1a3e-4fcd-8aa0-6d512bef3e64"},"vehicle_type_id":"4","last_reported":1685862357,"current_range_meters":28800,"station_id":"","pricing_plan_id":"free"},{"bike_id":"d5101a64-ef9d-4bc2-ab44-2a51f9770a13","system_id":"levelo_inurba_marseille","lat":43.30534,"lon":5.36529,"is_reserved":false,"is_disabled":false,"rental_uris":{"android":"levelo://app?vid=d5101a64-ef9d-4bc2-ab44-2a51f9770a13","ios":"levelo://app?vid=d5101a64-ef9d-4bc2-ab44-2a51f9770a13"},"vehicle_type_id":"4","last_reported":1685862357,"current_range_meters":0,"station_id":"","pricing_plan_id":"free"},{"bike_id":"7fc19482-10d0-4856-b291-9638ff6398bc","system_id":"levelo_inurba_marseille","lat":43.305989,"lon":5.37225,"is_reserved":false,"is_disabled":false,"rental_uris":{"android":"levelo://app?vid=7fc19482-10d0-4856-b291-9638ff6398bc","ios":"levelo://app?vid=7fc19482-10d0-4856-b291-9638ff6398bc"},"vehicle_type_id":"4","last_reported":1685862357,"current_range_meters":28000,"station_id":"ce4bgqh2rcd13ifvqc4g","pricing_plan_id":"free"},{"bike_id":"2a0eb1b6-86a6-450e-8e39-6b5c7b0b40c4","system_id":"levelo_inurba_marseille","lat":43.30603,"lon":5.37233,"is_reserved":false,"is_disabled":false,"rental_uris":{"android":"levelo://app?vid=2a0eb1b6-86a6-450e-8e39-6b5c7b0b40c4","ios":"levelo://app?vid=2a0eb1b6-86a6-450e-8e39-6b5c7b0b40c4"},"vehicle_type_id":"4","last_reported":1685862357,"current_range_meters":4800,"station_id":"ce4bgqh2rcd13ifvqc4g","pricing_plan_id":"free"},{"bike_id":"bac6b812-609c-4f8d-9303-b337ed1a594a","system_id":"levelo_inurba_marseille","lat":43.30596,"lon":5.37236,"is_reserved":false,"is_disabled":false,"rental_uris":{"android":"levelo://app?vid=bac6b812-609c-4f8d-9303-b337ed1a594a","ios":"levelo://app?vid=bac6b812-609c-4f8d-9303-b337ed1a594a"},"vehicle_type_id":"4","last_reported":1685862357,"current_range_meters":31600,"station_id":"ce4bgqh2rcd13ifvqc4g","pricing_plan_id":"free"},{"bike_id":"36c2d9a3-32d0-4b44-a52f-bdee222c9e49","system_id":"levelo_inurba_marseille","lat":43.31115,"lon":5.37769,"is_reserved":false,"is_disabled":false,"rental_uris":{"android":"levelo://app?vid=36c2d9a3-32d0-4b44-a52f-bdee222c9e49","ios":"levelo://app?vid=36c2d9a3-32d0-4b44-a52f-bdee222c9e49"},"vehicle_type_id":"4","last_reported":1685862357,"current_range_meters":21200,"station_id":"ce4bgt92rcd13ifvqcg0","pricing_plan_id":"free"},{"bike_id":"5d0f6516-7997-429e-8cf0-75eb6c7727de","system_id":"levelo_inurba_marseille","lat":43.317075,"lon":5.377367,"is_reserved":false,"is_disabled":false,"rental_uris":{"android":"levelo://app?vid=5d0f6516-7997-429e-8cf0-75eb6c7727de","ios":"levelo://app?vid=5d0f6516-7997-429e-8cf0-75eb6c7727de"},"vehicle_type_id":"4","last_reported":1685862357,"current_range_meters":21200,"station_id":"ce4bgth2rcd13ifvqch0","pricing_plan_id":"free"},{"bike_id":"289260dd-fb4a-4fb8-9ff8-5eac3abdceb8","system_id":"levelo_inurba_marseille","lat":43.317075,"lon":5.377367,"is_reserved":false,"is_disabled":false,"rental_uris":{"android":"levelo://app?vid=289260dd-fb4a-4fb8-9ff8-5eac3abdceb8","ios":"levelo://app?vid=289260dd-fb4a-4fb8-9ff8-5eac3abdceb8"},"vehicle_type_id":"4","last_reported":1685862357,"current_range_meters":30800,"station_id":"ce4bgth2rcd13ifvqch0","pricing_plan_id":"free"},{"bike_id":"8eae6492-38f7-4030-adc5-08b1841b3242","system_id":"levelo_inurba_marseille","lat":43.303271,"lon":5.368883,"is_reserved":false,"is_disabled":false,"rental_uris":{"android":"levelo://app?vid=8eae6492-38f7-4030-adc5-08b1841b3242","ios":"levelo://app?vid=8eae6492-38f7-4030-adc5-08b1841b3242"},"vehicle_type_id":"4","last_reported":1685862357,"current_range_meters":16400,"station_id":"","pricing_plan_id":"free"},{"bike_id":"9f556b68-0f87-4cd8-a596-e3a58eb4bd2c","system_id":"levelo_inurba_marseille","lat":43.30303,"lon":5.36877,"is_reserved":false,"is_disabled":false,"rental_uris":{"android":"levelo://app?vid=9f556b68-0f87-4cd8-a596-e3a58eb4bd2c","ios":"levelo://app?vid=9f556b68-0f87-4cd8-a596-e3a58eb4bd2c"},"vehicle_type_id":"4","last_reported":1685862357,"current_range_meters":27200,"station_id":"ce4bgqh2rcd13ifvqc5g","pricing_plan_id":"free"},{"bike_id":"15f7bfa4-1544-4cf5-9e64-53077f061091","system_id":"levelo_inurba_marseille","lat":43.315289,"lon":5.380349,"is_reserved":false,"is_disabled":false,"rental_uris":{"android":"levelo://app?vid=15f7bfa4-1544-4cf5-9e64-53077f061091","ios":"levelo://app?vid=15f7bfa4-1544-4cf5-9e64-53077f061091"},"vehicle_type_id":"4","last_reported":1685862357,"current_range_meters":28800,"station_id":"ce4bhsp2rcd13ifvqi50","pricing_plan_id":"free"},{"bike_id":"319aa276-a539-47ca-8fbc-58acef512454","system_id":"levelo_inurba_marseille","lat":43.308012,"lon":5.381511,"is_reserved":false,"is_disabled":false,"rental_uris":{"android":"levelo://app?vid=319aa276-a539-47ca-8fbc-58acef512454","ios":"levelo://app?vid=319aa276-a539-47ca-8fbc-58acef512454"},"vehicle_type_id":"4","last_reported":1685862357,"current_range_meters":17600,"station_id":"ce4bgt12rcd13ifvqce0","pricing_plan_id":"free"},{"bike_id":"bd88d90a-a370-4574-be71-b7c39a1ddf48","system_id":"levelo_inurba_marseille","lat":43.304606,"lon":5.379026,"is_reserved":false,"is_disabled":false,"rental_uris":{"android":"levelo://app?vid=bd88d90a-a370-4574-be71-b7c39a1ddf48","ios":"levelo://app?vid=bd88d90a-a370-4574-be71-b7c39a1ddf48"},"vehicle_type_id":"4","last_reported":1685862357,"current_range_meters":18800,"station_id":"ce4bgup2rcd13ifvqcn0","pricing_plan_id":"free"},{"bike_id":"048be98a-d3e1-4397-bf58-9e37d125046f","system_id":"levelo_inurba_marseille","lat":43.31638,"lon":5.38353,"is_reserved":false,"is_disabled":false,"rental_uris":{"android":"levelo://app?vid=048be98a-d3e1-4397-bf58-9e37d125046f","ios":"levelo://app?vid=048be98a-d3e1-4397-bf58-9e37d125046f"},"vehicle_type_id":"4","last_reported":1685862357,"current_range_meters":12800,"station_id":"","pricing_plan_id":"free"},{"bike_id":"e83b9514-b6a7-4d8e-b424-41cbc171d544","system_id":"levelo_inurba_marseille","lat":43.31997,"lon":5.38141,"is_reserved":false,"is_disabled":false,"rental_uris":{"android":"levelo://app?vid=e83b9514-b6a7-4d8e-b424-41cbc171d544","ios":"levelo://app?vid=e83b9514-b6a7-4d8e-b424-41cbc171d544"},"vehicle_type_id":"4","last_reported":1685862357,"current_range_meters":20000,"station_id":"ce4bhr12rcd13ifvqhpg","pricing_plan_id":"free"},{"bike_id":"994fd81e-6db6-4408-acc8-bec511d624f9","system_id":"levelo_inurba_marseille","lat":43.319935,"lon":5.381699,"is_reserved":false,"is_disabled":false,"rental_uris":{"android":"levelo://app?vid=994fd81e-6db6-4408-acc8-bec511d624f9","ios":"levelo://app?vid=994fd81e-6db6-4408-acc8-bec511d624f9"},"vehicle_type_id":"4","last_reported":1685862357,"current_range_meters":17600,"station_id":"ce4bhr12rcd13ifvqhpg","pricing_plan_id":"free"},{"bike_id":"1f1dc83b-8ccb-4689-a2db-9ce7e1fda49c","system_id":"levelo_inurba_marseille","lat":43.319935,"lon":5.381699,"is_reserved":false,"is_disabled":false,"rental_uris":{"android":"levelo://app?vid=1f1dc83b-8ccb-4689-a2db-9ce7e1fda49c","ios":"levelo://app?vid=1f1dc83b-8ccb-4689-a2db-9ce7e1fda49c"},"vehicle_type_id":"4","last_reported":1685862357,"current_range_meters":4400,"station_id":"ce4bhr12rcd13ifvqhpg","pricing_plan_id":"free"},{"bike_id":"580c91f6-6c87-4823-b79b-d87cf2e683c9","system_id":"levelo_inurba_marseille","lat":43.319935,"lon":5.381699,"is_reserved":false,"is_disabled":false,"rental_uris":{"android":"levelo://app?vid=580c91f6-6c87-4823-b79b-d87cf2e683c9","ios":"levelo://app?vid=580c91f6-6c87-4823-b79b-d87cf2e683c9"},"vehicle_type_id":"4","last_reported":1685862357,"current_range_meters":0,"station_id":"ce4bhr12rcd13ifvqhpg","pricing_plan_id":"free"},{"bike_id":"ce0eafea-7a28-40e5-b49f-bbdc4e411c48","system_id":"levelo_inurba_marseille","lat":43.319935,"lon":5.381699,"is_reserved":false,"is_disabled":false,"rental_uris":{"android":"levelo://app?vid=ce0eafea-7a28-40e5-b49f-bbdc4e411c48","ios":"levelo://app?vid=ce0eafea-7a28-40e5-b49f-bbdc4e411c48"},"vehicle_type_id":"4","last_reported":1685862357,"current_range_meters":11200,"station_id":"ce4bhr12rcd13ifvqhpg","pricing_plan_id":"free"},{"bike_id":"c9f9a767-ed3d-4168-a34b-a264f68a74d4","system_id":"levelo_inurba_marseille","lat":43.313571,"lon":5.384829,"is_reserved":false,"is_disabled":false,"rental_uris":{"android":"levelo://app?vid=c9f9a767-ed3d-4168-a34b-a264f68a74d4","ios":"levelo://app?vid=c9f9a767-ed3d-4168-a34b-a264f68a74d4"},"vehicle_type_id":"4","last_reported":1685862357,"current_range_meters":24800,"station_id":"ce4bgt92rcd13ifvqcf0","pricing_plan_id":"free"},{"bike_id":"36136d78-2be3-4b19-a90a-7711a04c3c3a","system_id":"levelo_inurba_marseille","lat":43.31373,"lon":5.38513,"is_reserved":false,"is_disabled":false,"rental_uris":{"android":"levelo://app?vid=36136d78-2be3-4b19-a90a-7711a04c3c3a","ios":"levelo://app?vid=36136d78-2be3-4b19-a90a-7711a04c3c3a"},"vehicle_type_id":"4","last_reported":1685862357,"current_range_meters":16800,"station_id":"","pricing_plan_id":"free"},{"bike_id":"a8b4d3be-be1f-4149-bc71-7ae4e753d884","system_id":"levelo_inurba_marseille","lat":43.298433,"lon":5.362774,"is_reserved":false,"is_disabled":false,"rental_uris":{"android":"levelo://app?vid=a8b4d3be-be1f-4149-bc71-7ae4e753d884","ios":"levelo://app?vid=a8b4d3be-be1f-4149-bc71-7ae4e753d884"},"vehicle_type_id":"4","last_reported":1685862357,"current_range_meters":21200,"station_id":"ce4bgpp2rcd13ifvqc3g","pricing_plan_id":"free"},{"bike_id":"98a6e9d0-577c-4b8a-bd19-a4cad857f951","system_id":"levelo_inurba_marseille","lat":43.29849,"lon":5.36289,"is_reserved":false,"is_disabled":false,"rental_uris":{"android":"levelo://app?vid=98a6e9d0-577c-4b8a-bd19-a4cad857f951","ios":"levelo://app?vid=98a6e9d0-577c-4b8a-bd19-a4cad857f951"},"vehicle_type_id":"4","last_reported":1685862357,"current_range_meters":24800,"station_id":"ce4bgpp2rcd13ifvqc3g","pricing_plan_id":"free"},{"bike_id":"53da5e97-e22f-498b-8c69-13cb45f70edd","system_id":"levelo_inurba_marseille","lat":43.298433,"lon":5.362774,"is_reserved":false,"is_disabled":false,"rental_uris":{"android":"levelo://app?vid=53da5e97-e22f-498b-8c69-13cb45f70edd","ios":"levelo://app?vid=53da5e97-e22f-498b-8c69-13cb45f70edd"},"vehicle_type_id":"4","last_reported":1685862357,"current_range_meters":30400,"station_id":"ce4bgpp2rcd13ifvqc3g","pricing_plan_id":"free"},{"bike_id":"c178d42d-c878-4ca4-bb1f-e2d45aab5715","system_id":"levelo_inurba_marseille","lat":43.298433,"lon":5.362774,"is_reserved":false,"is_disabled":false,"rental_uris":{"android":"levelo://app?vid=c178d42d-c878-4ca4-bb1f-e2d45aab5715","ios":"levelo://app?vid=c178d42d-c878-4ca4-bb1f-e2d45aab5715"},"vehicle_type_id":"4","last_reported":1685862357,"current_range_meters":12800,"station_id":"ce4bgpp2rcd13ifvqc3g","pricing_plan_id":"free"},{"bike_id":"1a95f679-7d3a-4032-adb7-862e41572194","system_id":"levelo_inurba_marseille","lat":43.298433,"lon":5.362774,"is_reserved":false,"is_disabled":false,"rental_uris":{"android":"levelo://app?vid=1a95f679-7d3a-4032-adb7-862e41572194","ios":"levelo://app?vid=1a95f679-7d3a-4032-adb7-862e41572194"},"vehicle_type_id":"4","last_reported":1685862357,"current_range_meters":31600,"station_id":"ce4bgpp2rcd13ifvqc3g","pricing_plan_id":"free"},{"bike_id":"0eaa3d21-ea0d-4d74-a206-37773dbd69f6","system_id":"levelo_inurba_marseille","lat":43.298433,"lon":5.362774,"is_reserved":false,"is_disabled":false,"rental_uris":{"android":"levelo://app?vid=0eaa3d21-ea0d-4d74-a206-37773dbd69f6","ios":"levelo://app?vid=0eaa3d21-ea0d-4d74-a206-37773dbd69f6"},"vehicle_type_id":"4","last_reported":1685862357,"current_range_meters":31200,"station_id":"ce4bgpp2rcd13ifvqc3g","pricing_plan_id":"free"},{"bike_id":"73561192-3d3a-4c1e-8198-16bb41021519","system_id":"levelo_inurba_marseille","lat":43.298433,"lon":5.362774,"is_reserved":false,"is_disabled":false,"rental_uris":{"android":"levelo://app?vid=73561192-3d3a-4c1e-8198-16bb41021519","ios":"levelo://app?vid=73561192-3d3a-4c1e-8198-16bb41021519"},"vehicle_type_id":"4","last_reported":1685862357,"current_range_meters":31200,"station_id":"ce4bgpp2rcd13ifvqc3g","pricing_plan_id":"free"},{"bike_id":"74eadea3-4cb9-4f98-b9e6-07226615fcfe","system_id":"levelo_inurba_marseille","lat":43.298433,"lon":5.362774,"is_reserved":false,"is_disabled":false,"rental_uris":{"android":"levelo://app?vid=74eadea3-4cb9-4f98-b9e6-07226615fcfe","ios":"levelo://app?vid=74eadea3-4cb9-4f98-b9e6-07226615fcfe"},"vehicle_type_id":"4","last_reported":1685862357,"current_range_meters":15600,"station_id":"ce4bgpp2rcd13ifvqc3g","pricing_plan_id":"free"},{"bike_id":"bbc2566e-2334-4516-af45-57061580de35","system_id":"levelo_inurba_marseille","lat":43.30534,"lon":5.38425,"is_reserved":false,"is_disabled":false,"rental_uris":{"android":"levelo://app?vid=bbc2566e-2334-4516-af45-57061580de35","ios":"levelo://app?vid=bbc2566e-2334-4516-af45-57061580de35"},"vehicle_type_id":"4","last_reported":1685862357,"current_range_meters":21600,"station_id":"ce4bgg92rcd13ifvqb30","pricing_plan_id":"free"},{"bike_id":"7f4c1f3f-7ba8-4655-9663-55e05147e0ed","system_id":"levelo_inurba_marseille","lat":43.298433,"lon":5.362774,"is_reserved":false,"is_disabled":false,"rental_uris":{"android":"levelo://app?vid=7f4c1f3f-7ba8-4655-9663-55e05147e0ed","ios":"levelo://app?vid=7f4c1f3f-7ba8-4655-9663-55e05147e0ed"},"vehicle_type_id":"4","last_reported":1685862357,"current_range_meters":31200,"station_id":"ce4bgpp2rcd13ifvqc3g","pricing_plan_id":"free"},{"bike_id":"fa0a0931-a373-44c0-b428-ba38a79234ea","system_id":"levelo_inurba_marseille","lat":43.298433,"lon":5.362774,"is_reserved":false,"is_disabled":false,"rental_uris":{"android":"levelo://app?vid=fa0a0931-a373-44c0-b428-ba38a79234ea","ios":"levelo://app?vid=fa0a0931-a373-44c0-b428-ba38a79234ea"},"vehicle_type_id":"4","last_reported":1685862357,"current_range_meters":25200,"station_id":"ce4bgpp2rcd13ifvqc3g","pricing_plan_id":"free"},{"bike_id":"b5c8a318-5a95-493c-826a-fd3976755f28","system_id":"levelo_inurba_marseille","lat":43.29914,"lon":5.37645,"is_reserved":false,"is_disabled":false,"rental_uris":{"android":"levelo://app?vid=b5c8a318-5a95-493c-826a-fd3976755f28","ios":"levelo://app?vid=b5c8a318-5a95-493c-826a-fd3976755f28"},"vehicle_type_id":"4","last_reported":1685862357,"current_range_meters":30800,"station_id":"","pricing_plan_id":"free"},{"bike_id":"36221b7a-54d5-4eca-be9b-b3361ae2222f","system_id":"levelo_inurba_marseille","lat":43.29775,"lon":5.37119,"is_reserved":false,"is_disabled":false,"rental_uris":{"android":"levelo://app?vid=36221b7a-54d5-4eca-be9b-b3361ae2222f","ios":"levelo://app?vid=36221b7a-54d5-4eca-be9b-b3361ae2222f"},"vehicle_type_id":"4","last_reported":1685862357,"current_range_meters":24400,"station_id":"ce4bgop2rcd13ifvqc1g","pricing_plan_id":"free"},{"bike_id":"588caf28-7c90-4716-a25f-dcbad4b0655d","system_id":"levelo_inurba_marseille","lat":43.297774,"lon":5.370875,"is_reserved":false,"is_disabled":false,"rental_uris":{"android":"levelo://app?vid=588caf28-7c90-4716-a25f-dcbad4b0655d","ios":"levelo://app?vid=588caf28-7c90-4716-a25f-dcbad4b0655d"},"vehicle_type_id":"4","last_reported":1685862357,"current_range_meters":28800,"station_id":"ce4bgop2rcd13ifvqc1g","pricing_plan_id":"free"},{"bike_id":"93fe580d-71c0-4856-a27e-71bfe60b8232","system_id":"levelo_inurba_marseille","lat":43.328371,"lon":5.366912,"is_reserved":false,"is_disabled":false,"rental_uris":{"android":"levelo://app?vid=93fe580d-71c0-4856-a27e-71bfe60b8232","ios":"levelo://app?vid=93fe580d-71c0-4856-a27e-71bfe60b8232"},"vehicle_type_id":"4","last_reported":1685862357,"current_range_meters":22000,"station_id":"ce4bhs92rcd13ifvqi0g","pricing_plan_id":"free"},{"bike_id":"cb0f0ec2-75c0-44dc-80f7-2b87cd212352","system_id":"levelo_inurba_marseille","lat":43.328371,"lon":5.366912,"is_reserved":false,"is_disabled":false,"rental_uris":{"android":"levelo://app?vid=cb0f0ec2-75c0-44dc-80f7-2b87cd212352","ios":"levelo://app?vid=cb0f0ec2-75c0-44dc-80f7-2b87cd212352"},"vehicle_type_id":"4","last_reported":1685862357,"current_range_meters":12800,"station_id":"ce4bhs92rcd13ifvqi0g","pricing_plan_id":"free"},{"bike_id":"c02c03d9-6482-4fb0-b3f9-b71bfdb30108","system_id":"levelo_inurba_marseille","lat":43.328371,"lon":5.366912,"is_reserved":false,"is_disabled":false,"rental_uris":{"android":"levelo://app?vid=c02c03d9-6482-4fb0-b3f9-b71bfdb30108","ios":"levelo://app?vid=c02c03d9-6482-4fb0-b3f9-b71bfdb30108"},"vehicle_type_id":"4","last_reported":1685862357,"current_range_meters":27600,"station_id":"ce4bhs92rcd13ifvqi0g","pricing_plan_id":"free"},{"bike_id":"b9cf6557-2db2-4828-97f1-13a369745ef6","system_id":"levelo_inurba_marseille","lat":43.32757,"lon":5.37488,"is_reserved":false,"is_disabled":false,"rental_uris":{"android":"levelo://app?vid=b9cf6557-2db2-4828-97f1-13a369745ef6","ios":"levelo://app?vid=b9cf6557-2db2-4828-97f1-13a369745ef6"},"vehicle_type_id":"4","last_reported":1685862357,"current_range_meters":5600,"station_id":"","pricing_plan_id":"free"},{"bike_id":"2a3a0b6a-821d-49e5-8034-c87f659a50a1","system_id":"levelo_inurba_marseille","lat":43.29573,"lon":5.367355,"is_reserved":false,"is_disabled":false,"rental_uris":{"android":"levelo://app?vid=2a3a0b6a-821d-49e5-8034-c87f659a50a1","ios":"levelo://app?vid=2a3a0b6a-821d-49e5-8034-c87f659a50a1"},"vehicle_type_id":"4","last_reported":1685862357,"current_range_meters":31200,"station_id":"ce4bgph2rcd13ifvqc2g","pricing_plan_id":"free"},{"bike_id":"2937b51b-f651-4816-81a4-953bd031adf8","system_id":"levelo_inurba_marseille","lat":43.296129,"lon":5.370777,"is_reserved":false,"is_disabled":false,"rental_uris":{"android":"levelo://app?vid=2937b51b-f651-4816-81a4-953bd031adf8","ios":"levelo://app?vid=2937b51b-f651-4816-81a4-953bd031adf8"},"vehicle_type_id":"4","last_reported":1685862357,"current_range_meters":29600,"station_id":"ce4bgnh2rcd13ifvqc0g","pricing_plan_id":"free"},{"bike_id":"4099c583-b286-4d7e-ba20-196fbf286891","system_id":"levelo_inurba_marseille","lat":43.296131,"lon":5.370773,"is_reserved":false,"is_disabled":false,"rental_uris":{"android":"levelo://app?vid=4099c583-b286-4d7e-ba20-196fbf286891","ios":"levelo://app?vid=4099c583-b286-4d7e-ba20-196fbf286891"},"vehicle_type_id":"4","last_reported":1685862357,"current_range_meters":30400,"station_id":"ce4bgnh2rcd13ifvqc0g","pricing_plan_id":"free"},{"bike_id":"7bb642b2-14ea-42b2-a667-c155b6070029","system_id":"levelo_inurba_marseille","lat":43.29573,"lon":5.367355,"is_reserved":false,"is_disabled":false,"rental_uris":{"android":"levelo://app?vid=7bb642b2-14ea-42b2-a667-c155b6070029","ios":"levelo://app?vid=7bb642b2-14ea-42b2-a667-c155b6070029"},"vehicle_type_id":"4","last_reported":1685862357,"current_range_meters":30400,"station_id":"ce4bgph2rcd13ifvqc2g","pricing_plan_id":"free"},{"bike_id":"c91b4237-b88f-4dce-a9a2-74419808e63e","system_id":"levelo_inurba_marseille","lat":43.29573,"lon":5.367355,"is_reserved":false,"is_disabled":false,"rental_uris":{"android":"levelo://app?vid=c91b4237-b88f-4dce-a9a2-74419808e63e","ios":"levelo://app?vid=c91b4237-b88f-4dce-a9a2-74419808e63e"},"vehicle_type_id":"4","last_reported":1685862357,"current_range_meters":26400,"station_id":"ce4bgph2rcd13ifvqc2g","pricing_plan_id":"free"},{"bike_id":"1a1fc5c6-a6e0-496c-9707-20e872f28c06","system_id":"levelo_inurba_marseille","lat":43.29573,"lon":5.367355,"is_reserved":false,"is_disabled":false,"rental_uris":{"android":"levelo://app?vid=1a1fc5c6-a6e0-496c-9707-20e872f28c06","ios":"levelo://app?vid=1a1fc5c6-a6e0-496c-9707-20e872f28c06"},"vehicle_type_id":"4","last_reported":1685862357,"current_range_meters":16800,"station_id":"ce4bgph2rcd13ifvqc2g","pricing_plan_id":"free"},{"bike_id":"5fd95d00-58e2-4c06-840b-248ae0359ecf","system_id":"levelo_inurba_marseille","lat":43.29573,"lon":5.367355,"is_reserved":false,"is_disabled":false,"rental_uris":{"android":"levelo://app?vid=5fd95d00-58e2-4c06-840b-248ae0359ecf","ios":"levelo://app?vid=5fd95d00-58e2-4c06-840b-248ae0359ecf"},"vehicle_type_id":"4","last_reported":1685862357,"current_range_meters":29600,"station_id":"ce4bgph2rcd13ifvqc2g","pricing_plan_id":"free"},{"bike_id":"956532de-6d58-4c1d-9e85-8375d9163315","system_id":"levelo_inurba_marseille","lat":43.29573,"lon":5.367355,"is_reserved":false,"is_disabled":false,"rental_uris":{"android":"levelo://app?vid=956532de-6d58-4c1d-9e85-8375d9163315","ios":"levelo://app?vid=956532de-6d58-4c1d-9e85-8375d9163315"},"vehicle_type_id":"4","last_reported":1685862357,"current_range_meters":24000,"station_id":"ce4bgph2rcd13ifvqc2g","pricing_plan_id":"free"},{"bike_id":"f36b184d-85aa-4df6-b1f3-63e1b38057a3","system_id":"levelo_inurba_marseille","lat":43.29573,"lon":5.367355,"is_reserved":false,"is_disabled":false,"rental_uris":{"android":"levelo://app?vid=f36b184d-85aa-4df6-b1f3-63e1b38057a3","ios":"levelo://app?vid=f36b184d-85aa-4df6-b1f3-63e1b38057a3"},"vehicle_type_id":"4","last_reported":1685862357,"current_range_meters":27200,"station_id":"ce4bgph2rcd13ifvqc2g","pricing_plan_id":"free"},{"bike_id":"fb86edbc-1d54-4a25-b630-7df2c06134c0","system_id":"levelo_inurba_marseille","lat":43.296935,"lon":5.376544,"is_reserved":false,"is_disabled":false,"rental_uris":{"android":"levelo://app?vid=fb86edbc-1d54-4a25-b630-7df2c06134c0","ios":"levelo://app?vid=fb86edbc-1d54-4a25-b630-7df2c06134c0"},"vehicle_type_id":"4","last_reported":1685862357,"current_range_meters":24000,"station_id":"ce4bgkh2rcd13ifvqbl0","pricing_plan_id":"free"},{"bike_id":"a54ee882-212e-4145-a83f-d43d1ac352bf","system_id":"levelo_inurba_marseille","lat":43.299028,"lon":5.381509,"is_reserved":false,"is_disabled":false,"rental_uris":{"android":"levelo://app?vid=a54ee882-212e-4145-a83f-d43d1ac352bf","ios":"levelo://app?vid=a54ee882-212e-4145-a83f-d43d1ac352bf"},"vehicle_type_id":"4","last_reported":1685862357,"current_range_meters":18800,"station_id":"ce4bgj12rcd13ifvqbc0","pricing_plan_id":"free"},{"bike_id":"fea4a5bd-65d2-4b65-bceb-ded28ee883eb","system_id":"levelo_inurba_marseille","lat":43.30959,"lon":5.39035,"is_reserved":false,"is_disabled":false,"rental_uris":{"android":"levelo://app?vid=fea4a5bd-65d2-4b65-bceb-ded28ee883eb","ios":"levelo://app?vid=fea4a5bd-65d2-4b65-bceb-ded28ee883eb"},"vehicle_type_id":"4","last_reported":1685862357,"current_range_meters":29600,"station_id":"ce4bgup2rcd13ifvqco0","pricing_plan_id":"free"},{"bike_id":"1c1b803d-46a6-498d-9d94-cf1b278e43a1","system_id":"levelo_inurba_marseille","lat":43.309589,"lon":5.390258,"is_reserved":false,"is_disabled":false,"rental_uris":{"android":"levelo://app?vid=1c1b803d-46a6-498d-9d94-cf1b278e43a1","ios":"levelo://app?vid=1c1b803d-46a6-498d-9d94-cf1b278e43a1"},"vehicle_type_id":"4","last_reported":1685862357,"current_range_meters":31200,"station_id":"ce4bgup2rcd13ifvqco0","pricing_plan_id":"free"},{"bike_id":"fa63cdbf-11bc-4be4-a80b-83877a077be3","system_id":"levelo_inurba_marseille","lat":43.309589,"lon":5.390258,"is_reserved":false,"is_disabled":false,"rental_uris":{"android":"levelo://app?vid=fa63cdbf-11bc-4be4-a80b-83877a077be3","ios":"levelo://app?vid=fa63cdbf-11bc-4be4-a80b-83877a077be3"},"vehicle_type_id":"4","last_reported":1685862357,"current_range_meters":28400,"station_id":"ce4bgup2rcd13ifvqco0","pricing_plan_id":"free"},{"bike_id":"bf6b649e-aa6e-4181-97dc-9617163d1855","system_id":"levelo_inurba_marseille","lat":43.309589,"lon":5.390258,"is_reserved":false,"is_disabled":false,"rental_uris":{"android":"levelo://app?vid=bf6b649e-aa6e-4181-97dc-9617163d1855","ios":"levelo://app?vid=bf6b649e-aa6e-4181-97dc-9617163d1855"},"vehicle_type_id":"4","last_reported":1685862357,"current_range_meters":29200,"station_id":"ce4bgup2rcd13ifvqco0","pricing_plan_id":"free"},{"bike_id":"8b5c7f3e-3a9b-4704-b403-535bd5bd2314","system_id":"levelo_inurba_marseille","lat":43.309589,"lon":5.390258,"is_reserved":false,"is_disabled":false,"rental_uris":{"android":"levelo://app?vid=8b5c7f3e-3a9b-4704-b403-535bd5bd2314","ios":"levelo://app?vid=8b5c7f3e-3a9b-4704-b403-535bd5bd2314"},"vehicle_type_id":"4","last_reported":1685862357,"current_range_meters":31200,"station_id":"ce4bgup2rcd13ifvqco0","pricing_plan_id":"free"},{"bike_id":"4879a260-9f1b-402b-bd89-3bac325db973","system_id":"levelo_inurba_marseille","lat":43.317557,"lon":5.390173,"is_reserved":false,"is_disabled":false,"rental_uris":{"android":"levelo://app?vid=4879a260-9f1b-402b-bd89-3bac325db973","ios":"levelo://app?vid=4879a260-9f1b-402b-bd89-3bac325db973"},"vehicle_type_id":"4","last_reported":1685862357,"current_range_meters":2400,"station_id":"ce4bhqp2rcd13ifvqhng","pricing_plan_id":"free"},{"bike_id":"0470a2ca-c854-4b58-921b-758b79edcf9e","system_id":"levelo_inurba_marseille","lat":43.2977,"lon":5.38071,"is_reserved":false,"is_disabled":false,"rental_uris":{"android":"levelo://app?vid=0470a2ca-c854-4b58-921b-758b79edcf9e","ios":"levelo://app?vid=0470a2ca-c854-4b58-921b-758b79edcf9e"},"vehicle_type_id":"4","last_reported":1685862357,"current_range_meters":0,"station_id":"ce4bgip2rcd13ifvqbb0","pricing_plan_id":"free"},{"bike_id":"331c3421-9c80-489b-be8f-11c31e1b63a8","system_id":"levelo_inurba_marseille","lat":43.30436,"lon":5.38894,"is_reserved":false,"is_disabled":false,"rental_uris":{"android":"levelo://app?vid=331c3421-9c80-489b-be8f-11c31e1b63a8","ios":"levelo://app?vid=331c3421-9c80-489b-be8f-11c31e1b63a8"},"vehicle_type_id":"4","last_reported":1685862357,"current_range_meters":26800,"station_id":"ce4bgk12rcd13ifvqbi0","pricing_plan_id":"free"},{"bike_id":"2b63a58b-2176-49eb-87a6-c9e08361d882","system_id":"levelo_inurba_marseille","lat":43.30439,"lon":5.389,"is_reserved":false,"is_disabled":false,"rental_uris":{"android":"levelo://app?vid=2b63a58b-2176-49eb-87a6-c9e08361d882","ios":"levelo://app?vid=2b63a58b-2176-49eb-87a6-c9e08361d882"},"vehicle_type_id":"4","last_reported":1685862357,"current_range_meters":19200,"station_id":"ce4bgk12rcd13ifvqbi0","pricing_plan_id":"free"},{"bike_id":"46e61a5d-4011-40d6-afb5-27208405d23e","system_id":"levelo_inurba_marseille","lat":43.32367,"lon":5.388836,"is_reserved":false,"is_disabled":false,"rental_uris":{"android":"levelo://app?vid=46e61a5d-4011-40d6-afb5-27208405d23e","ios":"levelo://app?vid=46e61a5d-4011-40d6-afb5-27208405d23e"},"vehicle_type_id":"4","last_reported":1685862357,"current_range_meters":14000,"station_id":"ce4bhqp2rcd13ifvqhog","pricing_plan_id":"free"},{"bike_id":"a5aaf8a8-b676-497f-92d4-c454aa45c212","system_id":"levelo_inurba_marseille","lat":43.32367,"lon":5.388836,"is_reserved":false,"is_disabled":false,"rental_uris":{"android":"levelo://app?vid=a5aaf8a8-b676-497f-92d4-c454aa45c212","ios":"levelo://app?vid=a5aaf8a8-b676-497f-92d4-c454aa45c212"},"vehicle_type_id":"4","last_reported":1685862357,"current_range_meters":0,"station_id":"ce4bhqp2rcd13ifvqhog","pricing_plan_id":"free"},{"bike_id":"ce28f952-0366-40af-af5d-12fd1e486cbf","system_id":"levelo_inurba_marseille","lat":43.32367,"lon":5.388836,"is_reserved":false,"is_disabled":false,"rental_uris":{"android":"levelo://app?vid=ce28f952-0366-40af-af5d-12fd1e486cbf","ios":"levelo://app?vid=ce28f952-0366-40af-af5d-12fd1e486cbf"},"vehicle_type_id":"4","last_reported":1685862357,"current_range_meters":27600,"station_id":"ce4bhqp2rcd13ifvqhog","pricing_plan_id":"free"},{"bike_id":"1619b961-36bd-4a7d-a354-b4d8cf39a904","system_id":"levelo_inurba_marseille","lat":43.32367,"lon":5.388836,"is_reserved":false,"is_disabled":false,"rental_uris":{"android":"levelo://app?vid=1619b961-36bd-4a7d-a354-b4d8cf39a904","ios":"levelo://app?vid=1619b961-36bd-4a7d-a354-b4d8cf39a904"},"vehicle_type_id":"4","last_reported":1685862357,"current_range_meters":9200,"station_id":"ce4bhqp2rcd13ifvqhog","pricing_plan_id":"free"},{"bike_id":"fa2adcbf-5d0b-4d63-a823-fd2a82fca475","system_id":"levelo_inurba_marseille","lat":43.30365,"lon":5.39049,"is_reserved":false,"is_disabled":false,"rental_uris":{"android":"levelo://app?vid=fa2adcbf-5d0b-4d63-a823-fd2a82fca475","ios":"levelo://app?vid=fa2adcbf-5d0b-4d63-a823-fd2a82fca475"},"vehicle_type_id":"4","last_reported":1685862357,"current_range_meters":30400,"station_id":"","pricing_plan_id":"free"},{"bike_id":"c1b78d42-2c63-4372-9291-d33d2da31c66","system_id":"levelo_inurba_marseille","lat":43.29316,"lon":5.37183,"is_reserved":false,"is_disabled":false,"rental_uris":{"android":"levelo://app?vid=c1b78d42-2c63-4372-9291-d33d2da31c66","ios":"levelo://app?vid=c1b78d42-2c63-4372-9291-d33d2da31c66"},"vehicle_type_id":"4","last_reported":1685862357,"current_range_meters":5200,"station_id":"","pricing_plan_id":"free"},{"bike_id":"3468d211-1b11-4efb-b38a-0c5eeeaca364","system_id":"levelo_inurba_marseille","lat":43.292749,"lon":5.368398,"is_reserved":false,"is_disabled":false,"rental_uris":{"android":"levelo://app?vid=3468d211-1b11-4efb-b38a-0c5eeeaca364","ios":"levelo://app?vid=3468d211-1b11-4efb-b38a-0c5eeeaca364"},"vehicle_type_id":"4","last_reported":1685862357,"current_range_meters":22000,"station_id":"ce4bhbp2rcd13ifvqesg","pricing_plan_id":"free"},{"bike_id":"821ffd4b-8d4d-4328-b0c7-771b2a906b9d","system_id":"levelo_inurba_marseille","lat":43.30282,"lon":5.39191,"is_reserved":false,"is_disabled":false,"rental_uris":{"android":"levelo://app?vid=821ffd4b-8d4d-4328-b0c7-771b2a906b9d","ios":"levelo://app?vid=821ffd4b-8d4d-4328-b0c7-771b2a906b9d"},"vehicle_type_id":"4","last_reported":1685862357,"current_range_meters":26000,"station_id":"ce4bgkh2rcd13ifvqbk0","pricing_plan_id":"free"},{"bike_id":"54b6b121-ed7f-4892-a7c4-ab976d2f6f33","system_id":"levelo_inurba_marseille","lat":43.30301,"lon":5.39209,"is_reserved":false,"is_disabled":false,"rental_uris":{"android":"levelo://app?vid=54b6b121-ed7f-4892-a7c4-ab976d2f6f33","ios":"levelo://app?vid=54b6b121-ed7f-4892-a7c4-ab976d2f6f33"},"vehicle_type_id":"4","last_reported":1685862357,"current_range_meters":28800,"station_id":"ce4bgkh2rcd13ifvqbk0","pricing_plan_id":"free"},{"bike_id":"69e9e1bc-17ca-4941-aa8c-d45e53e8eaca","system_id":"levelo_inurba_marseille","lat":43.303002,"lon":5.392142,"is_reserved":false,"is_disabled":false,"rental_uris":{"android":"levelo://app?vid=69e9e1bc-17ca-4941-aa8c-d45e53e8eaca","ios":"levelo://app?vid=69e9e1bc-17ca-4941-aa8c-d45e53e8eaca"},"vehicle_type_id":"4","last_reported":1685862357,"current_range_meters":30000,"station_id":"ce4bgkh2rcd13ifvqbk0","pricing_plan_id":"free"},{"bike_id":"82be9fb7-3a3b-4ee9-8e48-06a49f1d1254","system_id":"levelo_inurba_marseille","lat":43.292311,"lon":5.360731,"is_reserved":false,"is_disabled":false,"rental_uris":{"android":"levelo://app?vid=82be9fb7-3a3b-4ee9-8e48-06a49f1d1254","ios":"levelo://app?vid=82be9fb7-3a3b-4ee9-8e48-06a49f1d1254"},"vehicle_type_id":"4","last_reported":1685862357,"current_range_meters":28000,"station_id":"ce4bhbh2rcd13ifvqeqg","pricing_plan_id":"free"},{"bike_id":"4b8414c9-1831-43fc-b8f1-60f664482b80","system_id":"levelo_inurba_marseille","lat":43.292311,"lon":5.360731,"is_reserved":false,"is_disabled":false,"rental_uris":{"android":"levelo://app?vid=4b8414c9-1831-43fc-b8f1-60f664482b80","ios":"levelo://app?vid=4b8414c9-1831-43fc-b8f1-60f664482b80"},"vehicle_type_id":"4","last_reported":1685862357,"current_range_meters":26800,"station_id":"ce4bhbh2rcd13ifvqeqg","pricing_plan_id":"free"},{"bike_id":"bd13bdbe-c0d3-4148-8f22-07a346d865d6","system_id":"levelo_inurba_marseille","lat":43.29159,"lon":5.37154,"is_reserved":false,"is_disabled":false,"rental_uris":{"android":"levelo://app?vid=bd13bdbe-c0d3-4148-8f22-07a346d865d6","ios":"levelo://app?vid=bd13bdbe-c0d3-4148-8f22-07a346d865d6"},"vehicle_type_id":"4","last_reported":1685862357,"current_range_meters":21600,"station_id":"ce4bha92rcd13ifvqeh0","pricing_plan_id":"free"},{"bike_id":"f7b0ac49-d244-4a20-8422-f1b1ee41e2fa","system_id":"levelo_inurba_marseille","lat":43.291671,"lon":5.371575,"is_reserved":false,"is_disabled":false,"rental_uris":{"android":"levelo://app?vid=f7b0ac49-d244-4a20-8422-f1b1ee41e2fa","ios":"levelo://app?vid=f7b0ac49-d244-4a20-8422-f1b1ee41e2fa"},"vehicle_type_id":"4","last_reported":1685862357,"current_range_meters":0,"station_id":"ce4bha92rcd13ifvqeh0","pricing_plan_id":"free"},{"bike_id":"d5ed3444-4d02-4a66-82d1-9b905c136dc0","system_id":"levelo_inurba_marseille","lat":43.309038,"lon":5.396546,"is_reserved":false,"is_disabled":false,"rental_uris":{"android":"levelo://app?vid=d5ed3444-4d02-4a66-82d1-9b905c136dc0","ios":"levelo://app?vid=d5ed3444-4d02-4a66-82d1-9b905c136dc0"},"vehicle_type_id":"4","last_reported":1685862357,"current_range_meters":8000,"station_id":"ce4bh012rcd13ifvqcv0","pricing_plan_id":"free"},{"bike_id":"9cbabaa0-1e90-4ca2-bfb8-3b456442e307","system_id":"levelo_inurba_marseille","lat":43.309038,"lon":5.396546,"is_reserved":false,"is_disabled":false,"rental_uris":{"android":"levelo://app?vid=9cbabaa0-1e90-4ca2-bfb8-3b456442e307","ios":"levelo://app?vid=9cbabaa0-1e90-4ca2-bfb8-3b456442e307"},"vehicle_type_id":"4","last_reported":1685862357,"current_range_meters":20800,"station_id":"ce4bh012rcd13ifvqcv0","pricing_plan_id":"free"},{"bike_id":"3adebb58-2bdc-4c37-903c-d41ecfe061b0","system_id":"levelo_inurba_marseille","lat":43.29203,"lon":5.358,"is_reserved":false,"is_disabled":false,"rental_uris":{"android":"levelo://app?vid=3adebb58-2bdc-4c37-903c-d41ecfe061b0","ios":"levelo://app?vid=3adebb58-2bdc-4c37-903c-d41ecfe061b0"},"vehicle_type_id":"4","last_reported":1685862357,"current_range_meters":22800,"station_id":"ce4bhb12rcd13ifvqel0","pricing_plan_id":"free"},{"bike_id":"05126599-8505-49a4-8be1-3e949e5a7365","system_id":"levelo_inurba_marseille","lat":43.309038,"lon":5.396546,"is_reserved":false,"is_disabled":false,"rental_uris":{"android":"levelo://app?vid=05126599-8505-49a4-8be1-3e949e5a7365","ios":"levelo://app?vid=05126599-8505-49a4-8be1-3e949e5a7365"},"vehicle_type_id":"4","last_reported":1685862357,"current_range_meters":25200,"station_id":"ce4bh012rcd13ifvqcv0","pricing_plan_id":"free"},{"bike_id":"586ebb6d-a940-4c87-8ea1-45873376ee62","system_id":"levelo_inurba_marseille","lat":43.309038,"lon":5.396546,"is_reserved":false,"is_disabled":false,"rental_uris":{"android":"levelo://app?vid=586ebb6d-a940-4c87-8ea1-45873376ee62","ios":"levelo://app?vid=586ebb6d-a940-4c87-8ea1-45873376ee62"},"vehicle_type_id":"4","last_reported":1685862357,"current_range_meters":16800,"station_id":"ce4bh012rcd13ifvqcv0","pricing_plan_id":"free"},{"bike_id":"380e71fa-f9b2-4478-8286-e40b5377f361","system_id":"levelo_inurba_marseille","lat":43.29191,"lon":5.35815,"is_reserved":false,"is_disabled":false,"rental_uris":{"android":"levelo://app?vid=380e71fa-f9b2-4478-8286-e40b5377f361","ios":"levelo://app?vid=380e71fa-f9b2-4478-8286-e40b5377f361"},"vehicle_type_id":"4","last_reported":1685862357,"current_range_meters":22800,"station_id":"ce4bhb12rcd13ifvqel0","pricing_plan_id":"free"},{"bike_id":"631b54e8-91c7-4062-9a6e-afc3f696880e","system_id":"levelo_inurba_marseille","lat":43.291939,"lon":5.358015,"is_reserved":false,"is_disabled":false,"rental_uris":{"android":"levelo://app?vid=631b54e8-91c7-4062-9a6e-afc3f696880e","ios":"levelo://app?vid=631b54e8-91c7-4062-9a6e-afc3f696880e"},"vehicle_type_id":"4","last_reported":1685862357,"current_range_meters":26000,"station_id":"ce4bhb12rcd13ifvqel0","pricing_plan_id":"free"},{"bike_id":"457c7eaf-d042-4c29-8f4d-e9234736eff3","system_id":"levelo_inurba_marseille","lat":43.309038,"lon":5.396546,"is_reserved":false,"is_disabled":false,"rental_uris":{"android":"levelo://app?vid=457c7eaf-d042-4c29-8f4d-e9234736eff3","ios":"levelo://app?vid=457c7eaf-d042-4c29-8f4d-e9234736eff3"},"vehicle_type_id":"4","last_reported":1685862357,"current_range_meters":20800,"station_id":"ce4bh012rcd13ifvqcv0","pricing_plan_id":"free"},{"bike_id":"291a178c-f7ac-4b5b-8b20-fbd6ae82a33c","system_id":"levelo_inurba_marseille","lat":43.309038,"lon":5.396546,"is_reserved":false,"is_disabled":false,"rental_uris":{"android":"levelo://app?vid=291a178c-f7ac-4b5b-8b20-fbd6ae82a33c","ios":"levelo://app?vid=291a178c-f7ac-4b5b-8b20-fbd6ae82a33c"},"vehicle_type_id":"4","last_reported":1685862357,"current_range_meters":20000,"station_id":"ce4bh012rcd13ifvqcv0","pricing_plan_id":"free"},{"bike_id":"62d9b064-8005-4ca2-8f78-8c25ff6aa328","system_id":"levelo_inurba_marseille","lat":43.29187,"lon":5.358,"is_reserved":false,"is_disabled":false,"rental_uris":{"android":"levelo://app?vid=62d9b064-8005-4ca2-8f78-8c25ff6aa328","ios":"levelo://app?vid=62d9b064-8005-4ca2-8f78-8c25ff6aa328"},"vehicle_type_id":"4","last_reported":1685862357,"current_range_meters":0,"station_id":"ce4bhb12rcd13ifvqel0","pricing_plan_id":"free"},{"bike_id":"112cfa43-5e07-404d-b921-8fae7f148bef","system_id":"levelo_inurba_marseille","lat":43.29186,"lon":5.35799,"is_reserved":false,"is_disabled":false,"rental_uris":{"android":"levelo://app?vid=112cfa43-5e07-404d-b921-8fae7f148bef","ios":"levelo://app?vid=112cfa43-5e07-404d-b921-8fae7f148bef"},"vehicle_type_id":"4","last_reported":1685862357,"current_range_meters":27200,"station_id":"ce4bhb12rcd13ifvqel0","pricing_plan_id":"free"},{"bike_id":"97f3d7f2-4d1d-4bc2-b148-0684e510cc3d","system_id":"levelo_inurba_marseille","lat":43.29185,"lon":5.35799,"is_reserved":false,"is_disabled":false,"rental_uris":{"android":"levelo://app?vid=97f3d7f2-4d1d-4bc2-b148-0684e510cc3d","ios":"levelo://app?vid=97f3d7f2-4d1d-4bc2-b148-0684e510cc3d"},"vehicle_type_id":"4","last_reported":1685862357,"current_range_meters":20000,"station_id":"ce4bhb12rcd13ifvqel0","pricing_plan_id":"free"},{"bike_id":"e590b2fb-237f-4659-9ceb-a32ea7e48e92","system_id":"levelo_inurba_marseille","lat":43.29184,"lon":5.35803,"is_reserved":false,"is_disabled":false,"rental_uris":{"android":"levelo://app?vid=e590b2fb-237f-4659-9ceb-a32ea7e48e92","ios":"levelo://app?vid=e590b2fb-237f-4659-9ceb-a32ea7e48e92"},"vehicle_type_id":"4","last_reported":1685862357,"current_range_meters":0,"station_id":"ce4bhb12rcd13ifvqel0","pricing_plan_id":"free"},{"bike_id":"7806a929-cb76-4456-ac3e-d4997401842c","system_id":"levelo_inurba_marseille","lat":43.309038,"lon":5.396546,"is_reserved":false,"is_disabled":false,"rental_uris":{"android":"levelo://app?vid=7806a929-cb76-4456-ac3e-d4997401842c","ios":"levelo://app?vid=7806a929-cb76-4456-ac3e-d4997401842c"},"vehicle_type_id":"4","last_reported":1685862357,"current_range_meters":29200,"station_id":"ce4bh012rcd13ifvqcv0","pricing_plan_id":"free"},{"bike_id":"a1d588f9-8125-4a8f-9f59-c1cf1bdc5430","system_id":"levelo_inurba_marseille","lat":43.32814,"lon":5.38922,"is_reserved":false,"is_disabled":false,"rental_uris":{"android":"levelo://app?vid=a1d588f9-8125-4a8f-9f59-c1cf1bdc5430","ios":"levelo://app?vid=a1d588f9-8125-4a8f-9f59-c1cf1bdc5430"},"vehicle_type_id":"4","last_reported":1685862357,"current_range_meters":13600,"station_id":"","pricing_plan_id":"free"},{"bike_id":"c2a8c962-7ff3-4eba-b749-e2f2d0444ed1","system_id":"levelo_inurba_marseille","lat":43.29032,"lon":5.35917,"is_reserved":false,"is_disabled":false,"rental_uris":{"android":"levelo://app?vid=c2a8c962-7ff3-4eba-b749-e2f2d0444ed1","ios":"levelo://app?vid=c2a8c962-7ff3-4eba-b749-e2f2d0444ed1"},"vehicle_type_id":"4","last_reported":1685862357,"current_range_meters":20800,"station_id":"","pricing_plan_id":"free"},{"bike_id":"6000d197-5db6-4452-81ad-efe22ea789c6","system_id":"levelo_inurba_marseille","lat":43.294153,"lon":5.386305,"is_reserved":false,"is_disabled":false,"rental_uris":{"android":"levelo://app?vid=6000d197-5db6-4452-81ad-efe22ea789c6","ios":"levelo://app?vid=6000d197-5db6-4452-81ad-efe22ea789c6"},"vehicle_type_id":"4","last_reported":1685862357,"current_range_meters":29200,"station_id":"ce4bh2h2rcd13ifvqdh0","pricing_plan_id":"free"},{"bike_id":"eb8e4412-a3fa-4a69-9d75-1a8b980ed125","system_id":"levelo_inurba_marseille","lat":43.29158,"lon":5.38033,"is_reserved":false,"is_disabled":false,"rental_uris":{"android":"levelo://app?vid=eb8e4412-a3fa-4a69-9d75-1a8b980ed125","ios":"levelo://app?vid=eb8e4412-a3fa-4a69-9d75-1a8b980ed125"},"vehicle_type_id":"4","last_reported":1685862357,"current_range_meters":27600,"station_id":"","pricing_plan_id":"free"},{"bike_id":"0a8aba60-b51b-427d-be66-8709066b23d1","system_id":"levelo_inurba_marseille","lat":43.33212,"lon":5.38554,"is_reserved":false,"is_disabled":false,"rental_uris":{"android":"levelo://app?vid=0a8aba60-b51b-427d-be66-8709066b23d1","ios":"levelo://app?vid=0a8aba60-b51b-427d-be66-8709066b23d1"},"vehicle_type_id":"4","last_reported":1685862357,"current_range_meters":26800,"station_id":"","pricing_plan_id":"free"},{"bike_id":"d0284bb1-91b3-4792-b6be-91e80922c9e3","system_id":"levelo_inurba_marseille","lat":43.30422,"lon":5.39734,"is_reserved":false,"is_disabled":false,"rental_uris":{"android":"levelo://app?vid=d0284bb1-91b3-4792-b6be-91e80922c9e3","ios":"levelo://app?vid=d0284bb1-91b3-4792-b6be-91e80922c9e3"},"vehicle_type_id":"4","last_reported":1685862357,"current_range_meters":10000,"station_id":"ce4bh092rcd13ifvqd20","pricing_plan_id":"free"},{"bike_id":"cffbd7f1-4b74-4084-867e-6e65ab686627","system_id":"levelo_inurba_marseille","lat":43.304274,"lon":5.397513,"is_reserved":false,"is_disabled":false,"rental_uris":{"android":"levelo://app?vid=cffbd7f1-4b74-4084-867e-6e65ab686627","ios":"levelo://app?vid=cffbd7f1-4b74-4084-867e-6e65ab686627"},"vehicle_type_id":"4","last_reported":1685862357,"current_range_meters":20800,"station_id":"ce4bh092rcd13ifvqd20","pricing_plan_id":"free"},{"bike_id":"8538cee1-d533-45e8-9d24-022fcfb98e2a","system_id":"levelo_inurba_marseille","lat":43.292644,"lon":5.384257,"is_reserved":false,"is_disabled":false,"rental_uris":{"android":"levelo://app?vid=8538cee1-d533-45e8-9d24-022fcfb98e2a","ios":"levelo://app?vid=8538cee1-d533-45e8-9d24-022fcfb98e2a"},"vehicle_type_id":"4","last_reported":1685862357,"current_range_meters":20800,"station_id":"ce4bh692rcd13ifvqea0","pricing_plan_id":"free"},{"bike_id":"2b8e867b-b83a-430a-9261-d49d6819e29d","system_id":"levelo_inurba_marseille","lat":43.304274,"lon":5.397513,"is_reserved":false,"is_disabled":false,"rental_uris":{"android":"levelo://app?vid=2b8e867b-b83a-430a-9261-d49d6819e29d","ios":"levelo://app?vid=2b8e867b-b83a-430a-9261-d49d6819e29d"},"vehicle_type_id":"4","last_reported":1685862357,"current_range_meters":28000,"station_id":"ce4bh092rcd13ifvqd20","pricing_plan_id":"free"},{"bike_id":"0456b2c1-8a4f-4e94-ae33-a548e7711bcf","system_id":"levelo_inurba_marseille","lat":43.33039,"lon":5.38918,"is_reserved":false,"is_disabled":false,"rental_uris":{"android":"levelo://app?vid=0456b2c1-8a4f-4e94-ae33-a548e7711bcf","ios":"levelo://app?vid=0456b2c1-8a4f-4e94-ae33-a548e7711bcf"},"vehicle_type_id":"4","last_reported":1685862357,"current_range_meters":13600,"station_id":"ce4bhr92rcd13ifvqhrg","pricing_plan_id":"free"},{"bike_id":"5cbcf543-d288-404c-bac6-328ef38ba2d8","system_id":"levelo_inurba_marseille","lat":43.33039,"lon":5.38921,"is_reserved":false,"is_disabled":false,"rental_uris":{"android":"levelo://app?vid=5cbcf543-d288-404c-bac6-328ef38ba2d8","ios":"levelo://app?vid=5cbcf543-d288-404c-bac6-328ef38ba2d8"},"vehicle_type_id":"4","last_reported":1685862357,"current_range_meters":20800,"station_id":"ce4bhr92rcd13ifvqhrg","pricing_plan_id":"free"},{"bike_id":"05f1a2c7-d830-495c-86b8-292585194459","system_id":"levelo_inurba_marseille","lat":43.3304,"lon":5.38922,"is_reserved":false,"is_disabled":false,"rental_uris":{"android":"levelo://app?vid=05f1a2c7-d830-495c-86b8-292585194459","ios":"levelo://app?vid=05f1a2c7-d830-495c-86b8-292585194459"},"vehicle_type_id":"4","last_reported":1685862357,"current_range_meters":20400,"station_id":"ce4bhr92rcd13ifvqhrg","pricing_plan_id":"free"},{"bike_id":"e2b942e0-3901-4124-a71d-a8535684af38","system_id":"levelo_inurba_marseille","lat":43.33044,"lon":5.38916,"is_reserved":false,"is_disabled":false,"rental_uris":{"android":"levelo://app?vid=e2b942e0-3901-4124-a71d-a8535684af38","ios":"levelo://app?vid=e2b942e0-3901-4124-a71d-a8535684af38"},"vehicle_type_id":"4","last_reported":1685862357,"current_range_meters":27200,"station_id":"ce4bhr92rcd13ifvqhrg","pricing_plan_id":"free"},{"bike_id":"dcb00244-aef9-4eec-91cd-42ea75ebd82c","system_id":"levelo_inurba_marseille","lat":43.3305,"lon":5.3891,"is_reserved":false,"is_disabled":false,"rental_uris":{"android":"levelo://app?vid=dcb00244-aef9-4eec-91cd-42ea75ebd82c","ios":"levelo://app?vid=dcb00244-aef9-4eec-91cd-42ea75ebd82c"},"vehicle_type_id":"4","last_reported":1685862357,"current_range_meters":4800,"station_id":"ce4bhr92rcd13ifvqhrg","pricing_plan_id":"free"},{"bike_id":"56b265e4-5ccc-4fe7-964c-96c32262f4a2","system_id":"levelo_inurba_marseille","lat":43.290104,"lon":5.356111,"is_reserved":false,"is_disabled":false,"rental_uris":{"android":"levelo://app?vid=56b265e4-5ccc-4fe7-964c-96c32262f4a2","ios":"levelo://app?vid=56b265e4-5ccc-4fe7-964c-96c32262f4a2"},"vehicle_type_id":"4","last_reported":1685862357,"current_range_meters":28400,"station_id":"ce4bhb92rcd13ifvqen0","pricing_plan_id":"free"},{"bike_id":"e10de1b5-22e7-458c-8e84-b01d9582f9b1","system_id":"levelo_inurba_marseille","lat":43.28999,"lon":5.35607,"is_reserved":false,"is_disabled":false,"rental_uris":{"android":"levelo://app?vid=e10de1b5-22e7-458c-8e84-b01d9582f9b1","ios":"levelo://app?vid=e10de1b5-22e7-458c-8e84-b01d9582f9b1"},"vehicle_type_id":"4","last_reported":1685862357,"current_range_meters":19200,"station_id":"ce4bhb92rcd13ifvqen0","pricing_plan_id":"free"},{"bike_id":"54c68f2a-00df-4c19-88b2-09a399e53df4","system_id":"levelo_inurba_marseille","lat":43.290104,"lon":5.356111,"is_reserved":false,"is_disabled":false,"rental_uris":{"android":"levelo://app?vid=54c68f2a-00df-4c19-88b2-09a399e53df4","ios":"levelo://app?vid=54c68f2a-00df-4c19-88b2-09a399e53df4"},"vehicle_type_id":"4","last_reported":1685862357,"current_range_meters":13200,"station_id":"ce4bhb92rcd13ifvqen0","pricing_plan_id":"free"},{"bike_id":"e0055163-0f10-42cf-bf08-f16db5c4a4f0","system_id":"levelo_inurba_marseille","lat":43.29101,"lon":5.38143,"is_reserved":false,"is_disabled":false,"rental_uris":{"android":"levelo://app?vid=e0055163-0f10-42cf-bf08-f16db5c4a4f0","ios":"levelo://app?vid=e0055163-0f10-42cf-bf08-f16db5c4a4f0"},"vehicle_type_id":"4","last_reported":1685862357,"current_range_meters":24000,"station_id":"ce4bh512rcd13ifvqe2g","pricing_plan_id":"free"},{"bike_id":"a129fad1-a24b-4921-9b24-ab050bbbca18","system_id":"levelo_inurba_marseille","lat":43.290995,"lon":5.381361,"is_reserved":false,"is_disabled":false,"rental_uris":{"android":"levelo://app?vid=a129fad1-a24b-4921-9b24-ab050bbbca18","ios":"levelo://app?vid=a129fad1-a24b-4921-9b24-ab050bbbca18"},"vehicle_type_id":"4","last_reported":1685862357,"current_range_meters":28400,"station_id":"ce4bh512rcd13ifvqe2g","pricing_plan_id":"free"},{"bike_id":"906c92d3-e27e-493a-a6d4-6f465d8a62b6","system_id":"levelo_inurba_marseille","lat":43.29025,"lon":5.38137,"is_reserved":false,"is_disabled":false,"rental_uris":{"android":"levelo://app?vid=906c92d3-e27e-493a-a6d4-6f465d8a62b6","ios":"levelo://app?vid=906c92d3-e27e-493a-a6d4-6f465d8a62b6"},"vehicle_type_id":"4","last_reported":1685862357,"current_range_meters":0,"station_id":"ce4bh4p2rcd13ifvqe1g","pricing_plan_id":"free"},{"bike_id":"6a4245ab-9847-48a1-8468-0a85dc2e6cf0","system_id":"levelo_inurba_marseille","lat":43.28856,"lon":5.358371,"is_reserved":false,"is_disabled":false,"rental_uris":{"android":"levelo://app?vid=6a4245ab-9847-48a1-8468-0a85dc2e6cf0","ios":"levelo://app?vid=6a4245ab-9847-48a1-8468-0a85dc2e6cf0"},"vehicle_type_id":"4","last_reported":1685862357,"current_range_meters":31200,"station_id":"ce4bhb12rcd13ifvqem0","pricing_plan_id":"free"},{"bike_id":"01eee6e3-6a17-4687-8b31-16c1db0e5cbf","system_id":"levelo_inurba_marseille","lat":43.28856,"lon":5.358371,"is_reserved":false,"is_disabled":false,"rental_uris":{"android":"levelo://app?vid=01eee6e3-6a17-4687-8b31-16c1db0e5cbf","ios":"levelo://app?vid=01eee6e3-6a17-4687-8b31-16c1db0e5cbf"},"vehicle_type_id":"4","last_reported":1685862357,"current_range_meters":30400,"station_id":"ce4bhb12rcd13ifvqem0","pricing_plan_id":"free"},{"bike_id":"1dc2cc99-6997-4e64-abe8-10878865daff","system_id":"levelo_inurba_marseille","lat":43.30931,"lon":5.40142,"is_reserved":false,"is_disabled":false,"rental_uris":{"android":"levelo://app?vid=1dc2cc99-6997-4e64-abe8-10878865daff","ios":"levelo://app?vid=1dc2cc99-6997-4e64-abe8-10878865daff"},"vehicle_type_id":"4","last_reported":1685862357,"current_range_meters":14400,"station_id":"","pricing_plan_id":"free"},{"bike_id":"d6238031-a3ae-4459-8d83-34438c8680d4","system_id":"levelo_inurba_marseille","lat":43.3093,"lon":5.40147,"is_reserved":false,"is_disabled":false,"rental_uris":{"android":"levelo://app?vid=d6238031-a3ae-4459-8d83-34438c8680d4","ios":"levelo://app?vid=d6238031-a3ae-4459-8d83-34438c8680d4"},"vehicle_type_id":"4","last_reported":1685862357,"current_range_meters":14000,"station_id":"","pricing_plan_id":"free"},{"bike_id":"675927e0-ab95-41a0-80be-7ee111a218f5","system_id":"levelo_inurba_marseille","lat":43.3375,"lon":5.37472,"is_reserved":false,"is_disabled":false,"rental_uris":{"android":"levelo://app?vid=675927e0-ab95-41a0-80be-7ee111a218f5","ios":"levelo://app?vid=675927e0-ab95-41a0-80be-7ee111a218f5"},"vehicle_type_id":"4","last_reported":1685862357,"current_range_meters":28800,"station_id":"","pricing_plan_id":"free"},{"bike_id":"adfdcda1-62e2-43d8-a7f4-bc72286c02f1","system_id":"levelo_inurba_marseille","lat":43.33757,"lon":5.37431,"is_reserved":false,"is_disabled":false,"rental_uris":{"android":"levelo://app?vid=adfdcda1-62e2-43d8-a7f4-bc72286c02f1","ios":"levelo://app?vid=adfdcda1-62e2-43d8-a7f4-bc72286c02f1"},"vehicle_type_id":"4","last_reported":1685862357,"current_range_meters":0,"station_id":"ce4bgqh2rcd13ifvqc4g","pricing_plan_id":"free"},{"bike_id":"cf0caa37-cec8-408b-98f7-37211a80813c","system_id":"levelo_inurba_marseille","lat":43.33761,"lon":5.37409,"is_reserved":false,"is_disabled":false,"rental_uris":{"android":"levelo://app?vid=cf0caa37-cec8-408b-98f7-37211a80813c","ios":"levelo://app?vid=cf0caa37-cec8-408b-98f7-37211a80813c"},"vehicle_type_id":"4","last_reported":1685862357,"current_range_meters":30000,"station_id":"","pricing_plan_id":"free"},{"bike_id":"9fc69c19-d01f-4557-a8ae-c4df9b10a1e2","system_id":"levelo_inurba_marseille","lat":43.3065,"lon":5.40078,"is_reserved":false,"is_disabled":false,"rental_uris":{"android":"levelo://app?vid=9fc69c19-d01f-4557-a8ae-c4df9b10a1e2","ios":"levelo://app?vid=9fc69c19-d01f-4557-a8ae-c4df9b10a1e2"},"vehicle_type_id":"4","last_reported":1685862357,"current_range_meters":31200,"station_id":"ce4bh112rcd13ifvqda0","pricing_plan_id":"free"},{"bike_id":"9d1cf487-e813-4c2b-93be-4b65476a6134","system_id":"levelo_inurba_marseille","lat":43.306412,"lon":5.401035,"is_reserved":false,"is_disabled":false,"rental_uris":{"android":"levelo://app?vid=9d1cf487-e813-4c2b-93be-4b65476a6134","ios":"levelo://app?vid=9d1cf487-e813-4c2b-93be-4b65476a6134"},"vehicle_type_id":"4","last_reported":1685862357,"current_range_meters":29600,"station_id":"ce4bh112rcd13ifvqda0","pricing_plan_id":"free"},{"bike_id":"b0f8ef82-4bd8-470a-a9e8-8f439599439a","system_id":"levelo_inurba_marseille","lat":43.30642,"lon":5.401031,"is_reserved":false,"is_disabled":false,"rental_uris":{"android":"levelo://app?vid=b0f8ef82-4bd8-470a-a9e8-8f439599439a","ios":"levelo://app?vid=b0f8ef82-4bd8-470a-a9e8-8f439599439a"},"vehicle_type_id":"4","last_reported":1685862357,"current_range_meters":16000,"station_id":"ce4bh112rcd13ifvqda0","pricing_plan_id":"free"},{"bike_id":"34ec6f56-41fe-4bde-81cb-8160e6b4a91a","system_id":"levelo_inurba_marseille","lat":43.30653,"lon":5.40093,"is_reserved":false,"is_disabled":false,"rental_uris":{"android":"levelo://app?vid=34ec6f56-41fe-4bde-81cb-8160e6b4a91a","ios":"levelo://app?vid=34ec6f56-41fe-4bde-81cb-8160e6b4a91a"},"vehicle_type_id":"4","last_reported":1685862357,"current_range_meters":26800,"station_id":"ce4bh112rcd13ifvqda0","pricing_plan_id":"free"},{"bike_id":"2aa238c8-6488-4f0f-a21b-439633f995f7","system_id":"levelo_inurba_marseille","lat":43.298681,"lon":5.397225,"is_reserved":false,"is_disabled":false,"rental_uris":{"android":"levelo://app?vid=2aa238c8-6488-4f0f-a21b-439633f995f7","ios":"levelo://app?vid=2aa238c8-6488-4f0f-a21b-439633f995f7"},"vehicle_type_id":"4","last_reported":1685862357,"current_range_meters":31200,"station_id":"ce4bh0h2rcd13ifvqd50","pricing_plan_id":"free"},{"bike_id":"5a6c3182-7bb3-4e89-8402-9b30e6379ee8","system_id":"levelo_inurba_marseille","lat":43.298681,"lon":5.397225,"is_reserved":false,"is_disabled":false,"rental_uris":{"android":"levelo://app?vid=5a6c3182-7bb3-4e89-8402-9b30e6379ee8","ios":"levelo://app?vid=5a6c3182-7bb3-4e89-8402-9b30e6379ee8"},"vehicle_type_id":"4","last_reported":1685862357,"current_range_meters":31200,"station_id":"ce4bh0h2rcd13ifvqd50","pricing_plan_id":"free"},{"bike_id":"60a089c7-bed5-40a8-8c85-47bec2f131a2","system_id":"levelo_inurba_marseille","lat":43.286593,"lon":5.363346,"is_reserved":false,"is_disabled":false,"rental_uris":{"android":"levelo://app?vid=60a089c7-bed5-40a8-8c85-47bec2f131a2","ios":"levelo://app?vid=60a089c7-bed5-40a8-8c85-47bec2f131a2"},"vehicle_type_id":"4","last_reported":1685862357,"current_range_meters":26800,"station_id":"ce4bhah2rcd13ifvqej0","pricing_plan_id":"free"},{"bike_id":"7b24c789-4723-43e0-b2cd-4415acee9287","system_id":"levelo_inurba_marseille","lat":43.295194,"lon":5.39397,"is_reserved":false,"is_disabled":false,"rental_uris":{"android":"levelo://app?vid=7b24c789-4723-43e0-b2cd-4415acee9287","ios":"levelo://app?vid=7b24c789-4723-43e0-b2cd-4415acee9287"},"vehicle_type_id":"4","last_reported":1685862357,"current_range_meters":28000,"station_id":"ce4bh292rcd13ifvqdf0","pricing_plan_id":"free"},{"bike_id":"1ad2bede-308b-4525-bcf1-588c269a4c8f","system_id":"levelo_inurba_marseille","lat":43.302759,"lon":5.400793,"is_reserved":false,"is_disabled":false,"rental_uris":{"android":"levelo://app?vid=1ad2bede-308b-4525-bcf1-588c269a4c8f","ios":"levelo://app?vid=1ad2bede-308b-4525-bcf1-588c269a4c8f"},"vehicle_type_id":"4","last_reported":1685862357,"current_range_meters":29600,"station_id":"ce4bgvh2rcd13ifvqcs0","pricing_plan_id":"free"},{"bike_id":"fc04bcd3-591b-463f-a6a6-7be4a0687cdf","system_id":"levelo_inurba_marseille","lat":43.302759,"lon":5.400793,"is_reserved":false,"is_disabled":false,"rental_uris":{"android":"levelo://app?vid=fc04bcd3-591b-463f-a6a6-7be4a0687cdf","ios":"levelo://app?vid=fc04bcd3-591b-463f-a6a6-7be4a0687cdf"},"vehicle_type_id":"4","last_reported":1685862357,"current_range_meters":31200,"station_id":"ce4bgvh2rcd13ifvqcs0","pricing_plan_id":"free"},{"bike_id":"054eaa10-36f4-4119-a359-b1e8d49a8ba1","system_id":"levelo_inurba_marseille","lat":43.302759,"lon":5.400793,"is_reserved":false,"is_disabled":false,"rental_uris":{"android":"levelo://app?vid=054eaa10-36f4-4119-a359-b1e8d49a8ba1","ios":"levelo://app?vid=054eaa10-36f4-4119-a359-b1e8d49a8ba1"},"vehicle_type_id":"4","last_reported":1685862357,"current_range_meters":29600,"station_id":"ce4bgvh2rcd13ifvqcs0","pricing_plan_id":"free"},{"bike_id":"d2842b0a-56dc-42c9-809a-bcce207da016","system_id":"levelo_inurba_marseille","lat":43.302759,"lon":5.400793,"is_reserved":false,"is_disabled":false,"rental_uris":{"android":"levelo://app?vid=d2842b0a-56dc-42c9-809a-bcce207da016","ios":"levelo://app?vid=d2842b0a-56dc-42c9-809a-bcce207da016"},"vehicle_type_id":"4","last_reported":1685862357,"current_range_meters":30000,"station_id":"ce4bgvh2rcd13ifvqcs0","pricing_plan_id":"free"},{"bike_id":"fceba16d-ac64-416a-9b80-4b5430e4011d","system_id":"levelo_inurba_marseille","lat":43.302759,"lon":5.400793,"is_reserved":false,"is_disabled":false,"rental_uris":{"android":"levelo://app?vid=fceba16d-ac64-416a-9b80-4b5430e4011d","ios":"levelo://app?vid=fceba16d-ac64-416a-9b80-4b5430e4011d"},"vehicle_type_id":"4","last_reported":1685862357,"current_range_meters":31200,"station_id":"ce4bgvh2rcd13ifvqcs0","pricing_plan_id":"free"},{"bike_id":"8b86f859-a6f4-4528-add1-cc4e3f1fe04f","system_id":"levelo_inurba_marseille","lat":43.302759,"lon":5.400793,"is_reserved":false,"is_disabled":false,"rental_uris":{"android":"levelo://app?vid=8b86f859-a6f4-4528-add1-cc4e3f1fe04f","ios":"levelo://app?vid=8b86f859-a6f4-4528-add1-cc4e3f1fe04f"},"vehicle_type_id":"4","last_reported":1685862357,"current_range_meters":23200,"station_id":"ce4bgvh2rcd13ifvqcs0","pricing_plan_id":"free"},{"bike_id":"fd4f84cf-60e1-4ae5-8247-25cf70b0c354","system_id":"levelo_inurba_marseille","lat":43.302759,"lon":5.400793,"is_reserved":false,"is_disabled":false,"rental_uris":{"android":"levelo://app?vid=fd4f84cf-60e1-4ae5-8247-25cf70b0c354","ios":"levelo://app?vid=fd4f84cf-60e1-4ae5-8247-25cf70b0c354"},"vehicle_type_id":"4","last_reported":1685862357,"current_range_meters":31200,"station_id":"ce4bgvh2rcd13ifvqcs0","pricing_plan_id":"free"},{"bike_id":"84bd552d-488e-4428-a177-8011bc1fd208","system_id":"levelo_inurba_marseille","lat":43.30241,"lon":5.40076,"is_reserved":false,"is_disabled":false,"rental_uris":{"android":"levelo://app?vid=84bd552d-488e-4428-a177-8011bc1fd208","ios":"levelo://app?vid=84bd552d-488e-4428-a177-8011bc1fd208"},"vehicle_type_id":"4","last_reported":1685862357,"current_range_meters":30000,"station_id":"ce4bgvh2rcd13ifvqcs0","pricing_plan_id":"free"},{"bike_id":"0821f129-b906-457c-83f3-5797ea868343","system_id":"levelo_inurba_marseille","lat":43.287184,"lon":5.37937,"is_reserved":false,"is_disabled":false,"rental_uris":{"android":"levelo://app?vid=0821f129-b906-457c-83f3-5797ea868343","ios":"levelo://app?vid=0821f129-b906-457c-83f3-5797ea868343"},"vehicle_type_id":"4","last_reported":1685862357,"current_range_meters":23600,"station_id":"ce4bh9p2rcd13ifvqec0","pricing_plan_id":"free"},{"bike_id":"f200b9e7-9cb3-4154-84a4-a10fc617c864","system_id":"levelo_inurba_marseille","lat":43.30244,"lon":5.40155,"is_reserved":false,"is_disabled":false,"rental_uris":{"android":"levelo://app?vid=f200b9e7-9cb3-4154-84a4-a10fc617c864","ios":"levelo://app?vid=f200b9e7-9cb3-4154-84a4-a10fc617c864"},"vehicle_type_id":"4","last_reported":1685862357,"current_range_meters":0,"station_id":"","pricing_plan_id":"free"},{"bike_id":"9acddb4c-2bbf-42d6-b784-b9179183d89d","system_id":"levelo_inurba_marseille","lat":43.316517,"lon":5.404375,"is_reserved":false,"is_disabled":false,"rental_uris":{"android":"levelo://app?vid=9acddb4c-2bbf-42d6-b784-b9179183d89d","ios":"levelo://app?vid=9acddb4c-2bbf-42d6-b784-b9179183d89d"},"vehicle_type_id":"4","last_reported":1685862357,"current_range_meters":16400,"station_id":"ce4bh012rcd13ifvqd00","pricing_plan_id":"free"},{"bike_id":"7cf0c8f2-6032-4a5a-954c-9f906e055823","system_id":"levelo_inurba_marseille","lat":43.316517,"lon":5.404375,"is_reserved":false,"is_disabled":false,"rental_uris":{"android":"levelo://app?vid=7cf0c8f2-6032-4a5a-954c-9f906e055823","ios":"levelo://app?vid=7cf0c8f2-6032-4a5a-954c-9f906e055823"},"vehicle_type_id":"4","last_reported":1685862357,"current_range_meters":31200,"station_id":"ce4bh012rcd13ifvqd00","pricing_plan_id":"free"},{"bike_id":"c3019c84-f303-4165-9fee-f6ea208b66cc","system_id":"levelo_inurba_marseille","lat":43.30038,"lon":5.40171,"is_reserved":false,"is_disabled":false,"rental_uris":{"android":"levelo://app?vid=c3019c84-f303-4165-9fee-f6ea208b66cc","ios":"levelo://app?vid=c3019c84-f303-4165-9fee-f6ea208b66cc"},"vehicle_type_id":"4","last_reported":1685862357,"current_range_meters":0,"station_id":"","pricing_plan_id":"free"},{"bike_id":"7fd71ec8-46a8-403a-867d-ec83f85fec3a","system_id":"levelo_inurba_marseille","lat":43.291994,"lon":5.392907,"is_reserved":false,"is_disabled":false,"rental_uris":{"android":"levelo://app?vid=7fd71ec8-46a8-403a-867d-ec83f85fec3a","ios":"levelo://app?vid=7fd71ec8-46a8-403a-867d-ec83f85fec3a"},"vehicle_type_id":"4","last_reported":1685862357,"current_range_meters":21600,"station_id":"ce4bh192rcd13ifvqdd0","pricing_plan_id":"free"},{"bike_id":"c030ed44-1097-48a9-8354-bbbbde62a048","system_id":"levelo_inurba_marseille","lat":43.2862,"lon":5.35106,"is_reserved":false,"is_disabled":false,"rental_uris":{"android":"levelo://app?vid=c030ed44-1097-48a9-8354-bbbbde62a048","ios":"levelo://app?vid=c030ed44-1097-48a9-8354-bbbbde62a048"},"vehicle_type_id":"4","last_reported":1685862357,"current_range_meters":29200,"station_id":"","pricing_plan_id":"free"},{"bike_id":"810b2257-cd2e-4601-b06b-605319169af8","system_id":"levelo_inurba_marseille","lat":43.285848,"lon":5.350787,"is_reserved":false,"is_disabled":false,"rental_uris":{"android":"levelo://app?vid=810b2257-cd2e-4601-b06b-605319169af8","ios":"levelo://app?vid=810b2257-cd2e-4601-b06b-605319169af8"},"vehicle_type_id":"4","last_reported":1685862357,"current_range_meters":31200,"station_id":"ce4bhch2rcd13ifvqeug","pricing_plan_id":"free"},{"bike_id":"3e09b0fa-dd8c-4079-8346-e8dd3caf896d","system_id":"levelo_inurba_marseille","lat":43.28618,"lon":5.35097,"is_reserved":false,"is_disabled":false,"rental_uris":{"android":"levelo://app?vid=3e09b0fa-dd8c-4079-8346-e8dd3caf896d","ios":"levelo://app?vid=3e09b0fa-dd8c-4079-8346-e8dd3caf896d"},"vehicle_type_id":"4","last_reported":1685862357,"current_range_meters":30800,"station_id":"","pricing_plan_id":"free"},{"bike_id":"0a5e25f5-e34a-4905-8427-38a3f4f7cb23","system_id":"levelo_inurba_marseille","lat":43.28613,"lon":5.35105,"is_reserved":false,"is_disabled":false,"rental_uris":{"android":"levelo://app?vid=0a5e25f5-e34a-4905-8427-38a3f4f7cb23","ios":"levelo://app?vid=0a5e25f5-e34a-4905-8427-38a3f4f7cb23"},"vehicle_type_id":"4","last_reported":1685862357,"current_range_meters":24400,"station_id":"","pricing_plan_id":"free"},{"bike_id":"dae057cb-dfa4-43d3-8cfc-b2d3ca24eca1","system_id":"levelo_inurba_marseille","lat":43.285848,"lon":5.350787,"is_reserved":false,"is_disabled":false,"rental_uris":{"android":"levelo://app?vid=dae057cb-dfa4-43d3-8cfc-b2d3ca24eca1","ios":"levelo://app?vid=dae057cb-dfa4-43d3-8cfc-b2d3ca24eca1"},"vehicle_type_id":"4","last_reported":1685862357,"current_range_meters":26800,"station_id":"ce4bhch2rcd13ifvqeug","pricing_plan_id":"free"},{"bike_id":"3da26eb0-84a1-45ab-a4ac-47a6b648b84d","system_id":"levelo_inurba_marseille","lat":43.311131,"lon":5.377651,"is_reserved":false,"is_disabled":false,"rental_uris":{"android":"levelo://app?vid=3da26eb0-84a1-45ab-a4ac-47a6b648b84d","ios":"levelo://app?vid=3da26eb0-84a1-45ab-a4ac-47a6b648b84d"},"vehicle_type_id":"4","last_reported":1685862357,"current_range_meters":22800,"station_id":"ce4bgt92rcd13ifvqcg0","pricing_plan_id":"free"},{"bike_id":"b205e703-9cc6-479d-b47b-dcec15459f4d","system_id":"levelo_inurba_marseille","lat":43.32647,"lon":5.40396,"is_reserved":false,"is_disabled":false,"rental_uris":{"android":"levelo://app?vid=b205e703-9cc6-479d-b47b-dcec15459f4d","ios":"levelo://app?vid=b205e703-9cc6-479d-b47b-dcec15459f4d"},"vehicle_type_id":"4","last_reported":1685862357,"current_range_meters":14400,"station_id":"","pricing_plan_id":"free"},{"bike_id":"50907e2b-978d-4878-87d9-05ccc3a86a19","system_id":"levelo_inurba_marseille","lat":43.323464,"lon":5.406297,"is_reserved":false,"is_disabled":false,"rental_uris":{"android":"levelo://app?vid=50907e2b-978d-4878-87d9-05ccc3a86a19","ios":"levelo://app?vid=50907e2b-978d-4878-87d9-05ccc3a86a19"},"vehicle_type_id":"4","last_reported":1685862357,"current_range_meters":29200,"station_id":"ce4bhq92rcd13ifvqhjg","pricing_plan_id":"free"},{"bike_id":"8ae272e4-034d-4aab-a16e-49fb149a7d3d","system_id":"levelo_inurba_marseille","lat":43.284219,"lon":5.3497,"is_reserved":false,"is_disabled":false,"rental_uris":{"android":"levelo://app?vid=8ae272e4-034d-4aab-a16e-49fb149a7d3d","ios":"levelo://app?vid=8ae272e4-034d-4aab-a16e-49fb149a7d3d"},"vehicle_type_id":"4","last_reported":1685862357,"current_range_meters":8400,"station_id":"ce4bhbh2rcd13ifvqepg","pricing_plan_id":"free"},{"bike_id":"296d66df-756c-49ab-85e7-13b11ee7a8c2","system_id":"levelo_inurba_marseille","lat":43.28413,"lon":5.34969,"is_reserved":false,"is_disabled":false,"rental_uris":{"android":"levelo://app?vid=296d66df-756c-49ab-85e7-13b11ee7a8c2","ios":"levelo://app?vid=296d66df-756c-49ab-85e7-13b11ee7a8c2"},"vehicle_type_id":"4","last_reported":1685862357,"current_range_meters":8400,"station_id":"ce4bhbh2rcd13ifvqepg","pricing_plan_id":"free"},{"bike_id":"35b49528-1c5c-464b-886c-aafe89ae84a8","system_id":"levelo_inurba_marseille","lat":43.28935,"lon":5.39624,"is_reserved":false,"is_disabled":false,"rental_uris":{"android":"levelo://app?vid=35b49528-1c5c-464b-886c-aafe89ae84a8","ios":"levelo://app?vid=35b49528-1c5c-464b-886c-aafe89ae84a8"},"vehicle_type_id":"4","last_reported":1685862357,"current_range_meters":27200,"station_id":"ce4bh3h2rcd13ifvqdn0","pricing_plan_id":"free"},{"bike_id":"ab26c9ca-c370-4977-9d67-8cfd6d71a023","system_id":"levelo_inurba_marseille","lat":43.289363,"lon":5.396322,"is_reserved":false,"is_disabled":false,"rental_uris":{"android":"levelo://app?vid=ab26c9ca-c370-4977-9d67-8cfd6d71a023","ios":"levelo://app?vid=ab26c9ca-c370-4977-9d67-8cfd6d71a023"},"vehicle_type_id":"4","last_reported":1685862357,"current_range_meters":28800,"station_id":"ce4bh3h2rcd13ifvqdn0","pricing_plan_id":"free"},{"bike_id":"e36a80e1-5b24-4948-aaf7-90d5c4140707","system_id":"levelo_inurba_marseille","lat":43.292724,"lon":5.401131,"is_reserved":false,"is_disabled":false,"rental_uris":{"android":"levelo://app?vid=e36a80e1-5b24-4948-aaf7-90d5c4140707","ios":"levelo://app?vid=e36a80e1-5b24-4948-aaf7-90d5c4140707"},"vehicle_type_id":"4","last_reported":1685862357,"current_range_meters":31200,"station_id":"ce4bh312rcd13ifvqdk0","pricing_plan_id":"free"},{"bike_id":"3a084724-0b39-4c9f-aa5c-bc4928aa386a","system_id":"levelo_inurba_marseille","lat":43.292724,"lon":5.401131,"is_reserved":false,"is_disabled":false,"rental_uris":{"android":"levelo://app?vid=3a084724-0b39-4c9f-aa5c-bc4928aa386a","ios":"levelo://app?vid=3a084724-0b39-4c9f-aa5c-bc4928aa386a"},"vehicle_type_id":"4","last_reported":1685862357,"current_range_meters":32000,"station_id":"ce4bh312rcd13ifvqdk0","pricing_plan_id":"free"},{"bike_id":"ff6d7090-652f-4a28-b274-a69ff53bfe7d","system_id":"levelo_inurba_marseille","lat":43.292724,"lon":5.401131,"is_reserved":false,"is_disabled":false,"rental_uris":{"android":"levelo://app?vid=ff6d7090-652f-4a28-b274-a69ff53bfe7d","ios":"levelo://app?vid=ff6d7090-652f-4a28-b274-a69ff53bfe7d"},"vehicle_type_id":"4","last_reported":1685862357,"current_range_meters":28000,"station_id":"ce4bh312rcd13ifvqdk0","pricing_plan_id":"free"},{"bike_id":"dbca3e51-0eac-4adf-8392-98163497f0d9","system_id":"levelo_inurba_marseille","lat":43.292724,"lon":5.401131,"is_reserved":false,"is_disabled":false,"rental_uris":{"android":"levelo://app?vid=dbca3e51-0eac-4adf-8392-98163497f0d9","ios":"levelo://app?vid=dbca3e51-0eac-4adf-8392-98163497f0d9"},"vehicle_type_id":"4","last_reported":1685862357,"current_range_meters":29600,"station_id":"ce4bh312rcd13ifvqdk0","pricing_plan_id":"free"},{"bike_id":"cb4794a8-7724-4b2a-8220-0b604430a5eb","system_id":"levelo_inurba_marseille","lat":43.292724,"lon":5.401131,"is_reserved":false,"is_disabled":false,"rental_uris":{"android":"levelo://app?vid=cb4794a8-7724-4b2a-8220-0b604430a5eb","ios":"levelo://app?vid=cb4794a8-7724-4b2a-8220-0b604430a5eb"},"vehicle_type_id":"4","last_reported":1685862357,"current_range_meters":24000,"station_id":"ce4bh312rcd13ifvqdk0","pricing_plan_id":"free"},{"bike_id":"5b44c40a-125a-43a8-b243-01462e939154","system_id":"levelo_inurba_marseille","lat":43.292724,"lon":5.401131,"is_reserved":false,"is_disabled":false,"rental_uris":{"android":"levelo://app?vid=5b44c40a-125a-43a8-b243-01462e939154","ios":"levelo://app?vid=5b44c40a-125a-43a8-b243-01462e939154"},"vehicle_type_id":"4","last_reported":1685862357,"current_range_meters":26800,"station_id":"ce4bh312rcd13ifvqdk0","pricing_plan_id":"free"},{"bike_id":"d7e33cf0-3c68-4af7-b5d1-36a28124c62f","system_id":"levelo_inurba_marseille","lat":43.292724,"lon":5.401131,"is_reserved":false,"is_disabled":false,"rental_uris":{"android":"levelo://app?vid=d7e33cf0-3c68-4af7-b5d1-36a28124c62f","ios":"levelo://app?vid=d7e33cf0-3c68-4af7-b5d1-36a28124c62f"},"vehicle_type_id":"4","last_reported":1685862357,"current_range_meters":31200,"station_id":"ce4bh312rcd13ifvqdk0","pricing_plan_id":"free"},{"bike_id":"89da4138-be74-4141-aa42-547be980dc7a","system_id":"levelo_inurba_marseille","lat":43.282754,"lon":5.350519,"is_reserved":false,"is_disabled":false,"rental_uris":{"android":"levelo://app?vid=89da4138-be74-4141-aa42-547be980dc7a","ios":"levelo://app?vid=89da4138-be74-4141-aa42-547be980dc7a"},"vehicle_type_id":"4","last_reported":1685862357,"current_range_meters":30400,"station_id":"ce4bhbp2rcd13ifvqerg","pricing_plan_id":"free"},{"bike_id":"6cb83801-4918-4eef-b6b6-efd8ebf48498","system_id":"levelo_inurba_marseille","lat":43.29039,"lon":5.39949,"is_reserved":false,"is_disabled":false,"rental_uris":{"android":"levelo://app?vid=6cb83801-4918-4eef-b6b6-efd8ebf48498","ios":"levelo://app?vid=6cb83801-4918-4eef-b6b6-efd8ebf48498"},"vehicle_type_id":"4","last_reported":1685862357,"current_range_meters":28000,"station_id":"ce4bh392rcd13ifvqdm0","pricing_plan_id":"free"},{"bike_id":"3202c91a-e1d5-47a0-b065-70ebbc9e922a","system_id":"levelo_inurba_marseille","lat":43.29041,"lon":5.399634,"is_reserved":false,"is_disabled":false,"rental_uris":{"android":"levelo://app?vid=3202c91a-e1d5-47a0-b065-70ebbc9e922a","ios":"levelo://app?vid=3202c91a-e1d5-47a0-b065-70ebbc9e922a"},"vehicle_type_id":"4","last_reported":1685862357,"current_range_meters":30000,"station_id":"ce4bh392rcd13ifvqdm0","pricing_plan_id":"free"},{"bike_id":"9ffc9d11-868d-47c0-8b99-b7bcdcc90abc","system_id":"levelo_inurba_marseille","lat":43.29037,"lon":5.39956,"is_reserved":false,"is_disabled":false,"rental_uris":{"android":"levelo://app?vid=9ffc9d11-868d-47c0-8b99-b7bcdcc90abc","ios":"levelo://app?vid=9ffc9d11-868d-47c0-8b99-b7bcdcc90abc"},"vehicle_type_id":"4","last_reported":1685862357,"current_range_meters":29600,"station_id":"ce4bh392rcd13ifvqdm0","pricing_plan_id":"free"},{"bike_id":"03f01192-d1c6-41a1-9ff2-a9229aeb5253","system_id":"levelo_inurba_marseille","lat":43.29041,"lon":5.399634,"is_reserved":false,"is_disabled":false,"rental_uris":{"android":"levelo://app?vid=03f01192-d1c6-41a1-9ff2-a9229aeb5253","ios":"levelo://app?vid=03f01192-d1c6-41a1-9ff2-a9229aeb5253"},"vehicle_type_id":"4","last_reported":1685862357,"current_range_meters":27200,"station_id":"ce4bh392rcd13ifvqdm0","pricing_plan_id":"free"},{"bike_id":"3c8a0f30-df2b-4cb0-aad2-2d6eda7b9821","system_id":"levelo_inurba_marseille","lat":43.29041,"lon":5.399634,"is_reserved":false,"is_disabled":false,"rental_uris":{"android":"levelo://app?vid=3c8a0f30-df2b-4cb0-aad2-2d6eda7b9821","ios":"levelo://app?vid=3c8a0f30-df2b-4cb0-aad2-2d6eda7b9821"},"vehicle_type_id":"4","last_reported":1685862357,"current_range_meters":28400,"station_id":"ce4bh392rcd13ifvqdm0","pricing_plan_id":"free"},{"bike_id":"bfe8755e-03bc-41a3-91a1-f7bc725c7297","system_id":"levelo_inurba_marseille","lat":43.29041,"lon":5.399634,"is_reserved":false,"is_disabled":false,"rental_uris":{"android":"levelo://app?vid=bfe8755e-03bc-41a3-91a1-f7bc725c7297","ios":"levelo://app?vid=bfe8755e-03bc-41a3-91a1-f7bc725c7297"},"vehicle_type_id":"4","last_reported":1685862357,"current_range_meters":31200,"station_id":"ce4bh392rcd13ifvqdm0","pricing_plan_id":"free"},{"bike_id":"bbef7675-2ee2-4f1e-bef9-9ea0724e5858","system_id":"levelo_inurba_marseille","lat":43.296263,"lon":5.40601,"is_reserved":false,"is_disabled":false,"rental_uris":{"android":"levelo://app?vid=bbef7675-2ee2-4f1e-bef9-9ea0724e5858","ios":"levelo://app?vid=bbef7675-2ee2-4f1e-bef9-9ea0724e5858"},"vehicle_type_id":"4","last_reported":1685862357,"current_range_meters":31200,"station_id":"ce4bh0h2rcd13ifvqd60","pricing_plan_id":"free"},{"bike_id":"97811eb8-34ad-4020-8e8a-94fe5fea4a6f","system_id":"levelo_inurba_marseille","lat":43.296263,"lon":5.40601,"is_reserved":false,"is_disabled":false,"rental_uris":{"android":"levelo://app?vid=97811eb8-34ad-4020-8e8a-94fe5fea4a6f","ios":"levelo://app?vid=97811eb8-34ad-4020-8e8a-94fe5fea4a6f"},"vehicle_type_id":"4","last_reported":1685862357,"current_range_meters":31200,"station_id":"ce4bh0h2rcd13ifvqd60","pricing_plan_id":"free"},{"bike_id":"882ef9f2-94e0-49ff-831e-c8e3b3ba2c71","system_id":"levelo_inurba_marseille","lat":43.304188,"lon":5.412904,"is_reserved":false,"is_disabled":false,"rental_uris":{"android":"levelo://app?vid=882ef9f2-94e0-49ff-831e-c8e3b3ba2c71","ios":"levelo://app?vid=882ef9f2-94e0-49ff-831e-c8e3b3ba2c71"},"vehicle_type_id":"4","last_reported":1685862357,"current_range_meters":31200,"station_id":"ce4bhop2rcd13ifvqh8g","pricing_plan_id":"free"},{"bike_id":"07dbf425-121d-403b-8811-2110fbda64c4","system_id":"levelo_inurba_marseille","lat":43.304188,"lon":5.412904,"is_reserved":false,"is_disabled":false,"rental_uris":{"android":"levelo://app?vid=07dbf425-121d-403b-8811-2110fbda64c4","ios":"levelo://app?vid=07dbf425-121d-403b-8811-2110fbda64c4"},"vehicle_type_id":"4","last_reported":1685862357,"current_range_meters":16000,"station_id":"ce4bhop2rcd13ifvqh8g","pricing_plan_id":"free"},{"bike_id":"7002f1f3-2123-4ea9-a7ea-5f9ae9808872","system_id":"levelo_inurba_marseille","lat":43.304188,"lon":5.412904,"is_reserved":false,"is_disabled":false,"rental_uris":{"android":"levelo://app?vid=7002f1f3-2123-4ea9-a7ea-5f9ae9808872","ios":"levelo://app?vid=7002f1f3-2123-4ea9-a7ea-5f9ae9808872"},"vehicle_type_id":"4","last_reported":1685862357,"current_range_meters":24000,"station_id":"ce4bhop2rcd13ifvqh8g","pricing_plan_id":"free"},{"bike_id":"d7861dd7-926b-4d57-b0ec-0898e516baa7","system_id":"levelo_inurba_marseille","lat":43.27898,"lon":5.38004,"is_reserved":false,"is_disabled":false,"rental_uris":{"android":"levelo://app?vid=d7861dd7-926b-4d57-b0ec-0898e516baa7","ios":"levelo://app?vid=d7861dd7-926b-4d57-b0ec-0898e516baa7"},"vehicle_type_id":"4","last_reported":1685862357,"current_range_meters":30400,"station_id":"","pricing_plan_id":"free"},{"bike_id":"f42ef067-e1a9-4118-8220-5a1654293118","system_id":"levelo_inurba_marseille","lat":43.287154,"lon":5.399979,"is_reserved":false,"is_disabled":false,"rental_uris":{"android":"levelo://app?vid=f42ef067-e1a9-4118-8220-5a1654293118","ios":"levelo://app?vid=f42ef067-e1a9-4118-8220-5a1654293118"},"vehicle_type_id":"4","last_reported":1685862357,"current_range_meters":31200,"station_id":"ce4bho92rcd13ifvqh3g","pricing_plan_id":"free"},{"bike_id":"ee9f15df-b539-4104-986c-529b53a593df","system_id":"levelo_inurba_marseille","lat":43.287154,"lon":5.399979,"is_reserved":false,"is_disabled":false,"rental_uris":{"android":"levelo://app?vid=ee9f15df-b539-4104-986c-529b53a593df","ios":"levelo://app?vid=ee9f15df-b539-4104-986c-529b53a593df"},"vehicle_type_id":"4","last_reported":1685862357,"current_range_meters":14800,"station_id":"ce4bho92rcd13ifvqh3g","pricing_plan_id":"free"},{"bike_id":"72f0651e-72ea-4ea0-ad28-055e789623a0","system_id":"levelo_inurba_marseille","lat":43.287154,"lon":5.399979,"is_reserved":false,"is_disabled":false,"rental_uris":{"android":"levelo://app?vid=72f0651e-72ea-4ea0-ad28-055e789623a0","ios":"levelo://app?vid=72f0651e-72ea-4ea0-ad28-055e789623a0"},"vehicle_type_id":"4","last_reported":1685862357,"current_range_meters":23600,"station_id":"ce4bho92rcd13ifvqh3g","pricing_plan_id":"free"},{"bike_id":"7ac0d1b5-c3db-47a5-980b-21fe9abd8ace","system_id":"levelo_inurba_marseille","lat":43.287154,"lon":5.399979,"is_reserved":false,"is_disabled":false,"rental_uris":{"android":"levelo://app?vid=7ac0d1b5-c3db-47a5-980b-21fe9abd8ace","ios":"levelo://app?vid=7ac0d1b5-c3db-47a5-980b-21fe9abd8ace"},"vehicle_type_id":"4","last_reported":1685862357,"current_range_meters":16800,"station_id":"ce4bho92rcd13ifvqh3g","pricing_plan_id":"free"},{"bike_id":"2da5e5a4-1a01-40ae-b6c2-2260b059d0ef","system_id":"levelo_inurba_marseille","lat":43.320045,"lon":5.415046,"is_reserved":false,"is_disabled":false,"rental_uris":{"android":"levelo://app?vid=2da5e5a4-1a01-40ae-b6c2-2260b059d0ef","ios":"levelo://app?vid=2da5e5a4-1a01-40ae-b6c2-2260b059d0ef"},"vehicle_type_id":"4","last_reported":1685862357,"current_range_meters":27200,"station_id":"ce4bhq92rcd13ifvqhkg","pricing_plan_id":"free"},{"bike_id":"d0af90bf-a9d6-4e0a-bb03-ec3a7c4a21ff","system_id":"levelo_inurba_marseille","lat":43.320045,"lon":5.415046,"is_reserved":false,"is_disabled":false,"rental_uris":{"android":"levelo://app?vid=d0af90bf-a9d6-4e0a-bb03-ec3a7c4a21ff","ios":"levelo://app?vid=d0af90bf-a9d6-4e0a-bb03-ec3a7c4a21ff"},"vehicle_type_id":"4","last_reported":1685862357,"current_range_meters":31600,"station_id":"ce4bhq92rcd13ifvqhkg","pricing_plan_id":"free"},{"bike_id":"a706ea2a-2f80-4ba9-894d-a21b3201e0bc","system_id":"levelo_inurba_marseille","lat":43.320045,"lon":5.415046,"is_reserved":false,"is_disabled":false,"rental_uris":{"android":"levelo://app?vid=a706ea2a-2f80-4ba9-894d-a21b3201e0bc","ios":"levelo://app?vid=a706ea2a-2f80-4ba9-894d-a21b3201e0bc"},"vehicle_type_id":"4","last_reported":1685862357,"current_range_meters":31200,"station_id":"ce4bhq92rcd13ifvqhkg","pricing_plan_id":"free"},{"bike_id":"bc4dc0e7-b26e-44c4-b47d-2893123703b2","system_id":"levelo_inurba_marseille","lat":43.320045,"lon":5.415046,"is_reserved":false,"is_disabled":false,"rental_uris":{"android":"levelo://app?vid=bc4dc0e7-b26e-44c4-b47d-2893123703b2","ios":"levelo://app?vid=bc4dc0e7-b26e-44c4-b47d-2893123703b2"},"vehicle_type_id":"4","last_reported":1685862357,"current_range_meters":31600,"station_id":"ce4bhq92rcd13ifvqhkg","pricing_plan_id":"free"},{"bike_id":"dbacac72-3164-461c-9fb5-822a7ac9d791","system_id":"levelo_inurba_marseille","lat":43.29951,"lon":5.41315,"is_reserved":false,"is_disabled":false,"rental_uris":{"android":"levelo://app?vid=dbacac72-3164-461c-9fb5-822a7ac9d791","ios":"levelo://app?vid=dbacac72-3164-461c-9fb5-822a7ac9d791"},"vehicle_type_id":"4","last_reported":1685862357,"current_range_meters":12800,"station_id":"ce4bhp12rcd13ifvqh9g","pricing_plan_id":"free"},{"bike_id":"6a393bd7-90bb-4794-9445-d37322c69d35","system_id":"levelo_inurba_marseille","lat":43.29959,"lon":5.4132,"is_reserved":false,"is_disabled":false,"rental_uris":{"android":"levelo://app?vid=6a393bd7-90bb-4794-9445-d37322c69d35","ios":"levelo://app?vid=6a393bd7-90bb-4794-9445-d37322c69d35"},"vehicle_type_id":"4","last_reported":1685862357,"current_range_meters":31200,"station_id":"ce4bhp12rcd13ifvqh9g","pricing_plan_id":"free"},{"bike_id":"9f71bba6-5e8e-464a-8aa2-e911c7e5198b","system_id":"levelo_inurba_marseille","lat":43.27967,"lon":5.38702,"is_reserved":false,"is_disabled":false,"rental_uris":{"android":"levelo://app?vid=9f71bba6-5e8e-464a-8aa2-e911c7e5198b","ios":"levelo://app?vid=9f71bba6-5e8e-464a-8aa2-e911c7e5198b"},"vehicle_type_id":"4","last_reported":1685862357,"current_range_meters":29200,"station_id":"","pricing_plan_id":"free"},{"bike_id":"69e386d1-7433-4cdc-b124-41af3fb6143d","system_id":"levelo_inurba_marseille","lat":43.320045,"lon":5.415048,"is_reserved":false,"is_disabled":false,"rental_uris":{"android":"levelo://app?vid=69e386d1-7433-4cdc-b124-41af3fb6143d","ios":"levelo://app?vid=69e386d1-7433-4cdc-b124-41af3fb6143d"},"vehicle_type_id":"4","last_reported":1685862357,"current_range_meters":30400,"station_id":"ce4bhq92rcd13ifvqhkg","pricing_plan_id":"free"},{"bike_id":"3c811563-1140-4095-9fa7-28db9ea729d8","system_id":"levelo_inurba_marseille","lat":43.320045,"lon":5.415048,"is_reserved":false,"is_disabled":false,"rental_uris":{"android":"levelo://app?vid=3c811563-1140-4095-9fa7-28db9ea729d8","ios":"levelo://app?vid=3c811563-1140-4095-9fa7-28db9ea729d8"},"vehicle_type_id":"4","last_reported":1685862357,"current_range_meters":31200,"station_id":"ce4bhq92rcd13ifvqhkg","pricing_plan_id":"free"},{"bike_id":"02560a42-31f2-4789-a41a-b558db893788","system_id":"levelo_inurba_marseille","lat":43.320045,"lon":5.415048,"is_reserved":false,"is_disabled":false,"rental_uris":{"android":"levelo://app?vid=02560a42-31f2-4789-a41a-b558db893788","ios":"levelo://app?vid=02560a42-31f2-4789-a41a-b558db893788"},"vehicle_type_id":"4","last_reported":1685862357,"current_range_meters":30400,"station_id":"ce4bhq92rcd13ifvqhkg","pricing_plan_id":"free"},{"bike_id":"162f783d-5834-4465-97fd-ba71b3182bf5","system_id":"levelo_inurba_marseille","lat":43.320045,"lon":5.415046,"is_reserved":false,"is_disabled":false,"rental_uris":{"android":"levelo://app?vid=162f783d-5834-4465-97fd-ba71b3182bf5","ios":"levelo://app?vid=162f783d-5834-4465-97fd-ba71b3182bf5"},"vehicle_type_id":"4","last_reported":1685862357,"current_range_meters":31200,"station_id":"ce4bhq92rcd13ifvqhkg","pricing_plan_id":"free"},{"bike_id":"df6c1fb7-7b02-4d5c-aa4e-fe08d3de6b95","system_id":"levelo_inurba_marseille","lat":43.320045,"lon":5.415048,"is_reserved":false,"is_disabled":false,"rental_uris":{"android":"levelo://app?vid=df6c1fb7-7b02-4d5c-aa4e-fe08d3de6b95","ios":"levelo://app?vid=df6c1fb7-7b02-4d5c-aa4e-fe08d3de6b95"},"vehicle_type_id":"4","last_reported":1685862357,"current_range_meters":31200,"station_id":"ce4bhq92rcd13ifvqhkg","pricing_plan_id":"free"},{"bike_id":"02b1a7ea-7b44-40cd-ba44-b50ec278a767","system_id":"levelo_inurba_marseille","lat":43.320197,"lon":5.415666,"is_reserved":false,"is_disabled":false,"rental_uris":{"android":"levelo://app?vid=02b1a7ea-7b44-40cd-ba44-b50ec278a767","ios":"levelo://app?vid=02b1a7ea-7b44-40cd-ba44-b50ec278a767"},"vehicle_type_id":"4","last_reported":1685862357,"current_range_meters":13600,"station_id":"","pricing_plan_id":"free"},{"bike_id":"8f583682-bb3f-4a61-94d0-accd616865d0","system_id":"levelo_inurba_marseille","lat":43.320045,"lon":5.415048,"is_reserved":false,"is_disabled":false,"rental_uris":{"android":"levelo://app?vid=8f583682-bb3f-4a61-94d0-accd616865d0","ios":"levelo://app?vid=8f583682-bb3f-4a61-94d0-accd616865d0"},"vehicle_type_id":"4","last_reported":1685862357,"current_range_meters":18800,"station_id":"ce4bhq92rcd13ifvqhkg","pricing_plan_id":"free"},{"bike_id":"01ddb327-7ab8-4a25-a405-5a734a4252ac","system_id":"levelo_inurba_marseille","lat":43.320269,"lon":5.415689,"is_reserved":false,"is_disabled":false,"rental_uris":{"android":"levelo://app?vid=01ddb327-7ab8-4a25-a405-5a734a4252ac","ios":"levelo://app?vid=01ddb327-7ab8-4a25-a405-5a734a4252ac"},"vehicle_type_id":"4","last_reported":1685862357,"current_range_meters":21600,"station_id":"","pricing_plan_id":"free"},{"bike_id":"15292a35-debd-4d55-ab66-e14fe147b2b9","system_id":"levelo_inurba_marseille","lat":43.320045,"lon":5.415046,"is_reserved":false,"is_disabled":false,"rental_uris":{"android":"levelo://app?vid=15292a35-debd-4d55-ab66-e14fe147b2b9","ios":"levelo://app?vid=15292a35-debd-4d55-ab66-e14fe147b2b9"},"vehicle_type_id":"4","last_reported":1685862357,"current_range_meters":21200,"station_id":"ce4bhq92rcd13ifvqhkg","pricing_plan_id":"free"},{"bike_id":"781b2f7b-81ba-4c34-9163-b045dafe359c","system_id":"levelo_inurba_marseille","lat":43.320045,"lon":5.415046,"is_reserved":false,"is_disabled":false,"rental_uris":{"android":"levelo://app?vid=781b2f7b-81ba-4c34-9163-b045dafe359c","ios":"levelo://app?vid=781b2f7b-81ba-4c34-9163-b045dafe359c"},"vehicle_type_id":"4","last_reported":1685862357,"current_range_meters":31200,"station_id":"ce4bhq92rcd13ifvqhkg","pricing_plan_id":"free"},{"bike_id":"0c739346-4d08-4d79-a607-c879a11b59ec","system_id":"levelo_inurba_marseille","lat":43.320045,"lon":5.415046,"is_reserved":false,"is_disabled":false,"rental_uris":{"android":"levelo://app?vid=0c739346-4d08-4d79-a607-c879a11b59ec","ios":"levelo://app?vid=0c739346-4d08-4d79-a607-c879a11b59ec"},"vehicle_type_id":"4","last_reported":1685862357,"current_range_meters":30000,"station_id":"ce4bhq92rcd13ifvqhkg","pricing_plan_id":"free"},{"bike_id":"9dd45f8e-779e-4940-a82e-7005357ecb61","system_id":"levelo_inurba_marseille","lat":43.320045,"lon":5.415046,"is_reserved":false,"is_disabled":false,"rental_uris":{"android":"levelo://app?vid=9dd45f8e-779e-4940-a82e-7005357ecb61","ios":"levelo://app?vid=9dd45f8e-779e-4940-a82e-7005357ecb61"},"vehicle_type_id":"4","last_reported":1685862357,"current_range_meters":29600,"station_id":"ce4bhq92rcd13ifvqhkg","pricing_plan_id":"free"},{"bike_id":"e4a923eb-6368-4d0a-af8f-31689f042450","system_id":"levelo_inurba_marseille","lat":43.320045,"lon":5.415048,"is_reserved":false,"is_disabled":false,"rental_uris":{"android":"levelo://app?vid=e4a923eb-6368-4d0a-af8f-31689f042450","ios":"levelo://app?vid=e4a923eb-6368-4d0a-af8f-31689f042450"},"vehicle_type_id":"4","last_reported":1685862357,"current_range_meters":28000,"station_id":"ce4bhq92rcd13ifvqhkg","pricing_plan_id":"free"},{"bike_id":"85080033-a16e-4ce2-a186-35d0563746cb","system_id":"levelo_inurba_marseille","lat":43.320045,"lon":5.415046,"is_reserved":false,"is_disabled":false,"rental_uris":{"android":"levelo://app?vid=85080033-a16e-4ce2-a186-35d0563746cb","ios":"levelo://app?vid=85080033-a16e-4ce2-a186-35d0563746cb"},"vehicle_type_id":"4","last_reported":1685862357,"current_range_meters":19200,"station_id":"ce4bhq92rcd13ifvqhkg","pricing_plan_id":"free"},{"bike_id":"89f41c9a-9f75-4bfa-b9e8-88fc24034e55","system_id":"levelo_inurba_marseille","lat":43.320045,"lon":5.415048,"is_reserved":false,"is_disabled":false,"rental_uris":{"android":"levelo://app?vid=89f41c9a-9f75-4bfa-b9e8-88fc24034e55","ios":"levelo://app?vid=89f41c9a-9f75-4bfa-b9e8-88fc24034e55"},"vehicle_type_id":"4","last_reported":1685862357,"current_range_meters":31200,"station_id":"ce4bhq92rcd13ifvqhkg","pricing_plan_id":"free"},{"bike_id":"b0bcb630-0a3c-4554-b554-5884b388256d","system_id":"levelo_inurba_marseille","lat":43.292569,"lon":5.409107,"is_reserved":false,"is_disabled":false,"rental_uris":{"android":"levelo://app?vid=b0bcb630-0a3c-4554-b554-5884b388256d","ios":"levelo://app?vid=b0bcb630-0a3c-4554-b554-5884b388256d"},"vehicle_type_id":"4","last_reported":1685862357,"current_range_meters":27600,"station_id":"ce4bh192rcd13ifvqdc0","pricing_plan_id":"free"},{"bike_id":"6639646f-666d-497b-a274-ccdac3054a5f","system_id":"levelo_inurba_marseille","lat":43.29418,"lon":5.41325,"is_reserved":false,"is_disabled":false,"rental_uris":{"android":"levelo://app?vid=6639646f-666d-497b-a274-ccdac3054a5f","ios":"levelo://app?vid=6639646f-666d-497b-a274-ccdac3054a5f"},"vehicle_type_id":"4","last_reported":1685862357,"current_range_meters":0,"station_id":"","pricing_plan_id":"free"},{"bike_id":"d36d0c61-5596-4974-9371-37c105292ad9","system_id":"levelo_inurba_marseille","lat":43.280784,"lon":5.396622,"is_reserved":false,"is_disabled":false,"rental_uris":{"android":"levelo://app?vid=d36d0c61-5596-4974-9371-37c105292ad9","ios":"levelo://app?vid=d36d0c61-5596-4974-9371-37c105292ad9"},"vehicle_type_id":"4","last_reported":1685862357,"current_range_meters":30800,"station_id":"ce4bho12rcd13ifvqh2g","pricing_plan_id":"free"},{"bike_id":"cdac8147-8bad-4b24-8fae-40c2881697a4","system_id":"levelo_inurba_marseille","lat":43.303837,"lon":5.418724,"is_reserved":false,"is_disabled":false,"rental_uris":{"android":"levelo://app?vid=cdac8147-8bad-4b24-8fae-40c2881697a4","ios":"levelo://app?vid=cdac8147-8bad-4b24-8fae-40c2881697a4"},"vehicle_type_id":"4","last_reported":1685862357,"current_range_meters":26800,"station_id":"ce4bhop2rcd13ifvqh7g","pricing_plan_id":"free"},{"bike_id":"660d6d14-23ec-4cc0-895f-2e83e4b46c94","system_id":"levelo_inurba_marseille","lat":43.30359,"lon":5.41892,"is_reserved":false,"is_disabled":false,"rental_uris":{"android":"levelo://app?vid=660d6d14-23ec-4cc0-895f-2e83e4b46c94","ios":"levelo://app?vid=660d6d14-23ec-4cc0-895f-2e83e4b46c94"},"vehicle_type_id":"4","last_reported":1685862357,"current_range_meters":0,"station_id":"","pricing_plan_id":"free"},{"bike_id":"bcc4deb6-83cc-4852-8aee-3ddf0d42c06d","system_id":"levelo_inurba_marseille","lat":43.278401,"lon":5.392152,"is_reserved":false,"is_disabled":false,"rental_uris":{"android":"levelo://app?vid=bcc4deb6-83cc-4852-8aee-3ddf0d42c06d","ios":"levelo://app?vid=bcc4deb6-83cc-4852-8aee-3ddf0d42c06d"},"vehicle_type_id":"4","last_reported":1685862357,"current_range_meters":30800,"station_id":"ce4bhjp2rcd13ifvqga0","pricing_plan_id":"free"},{"bike_id":"eb383b48-1300-442c-a2d0-7fba66dd5800","system_id":"levelo_inurba_marseille","lat":43.278401,"lon":5.392152,"is_reserved":false,"is_disabled":false,"rental_uris":{"android":"levelo://app?vid=eb383b48-1300-442c-a2d0-7fba66dd5800","ios":"levelo://app?vid=eb383b48-1300-442c-a2d0-7fba66dd5800"},"vehicle_type_id":"4","last_reported":1685862357,"current_range_meters":23600,"station_id":"ce4bhjp2rcd13ifvqga0","pricing_plan_id":"free"},{"bike_id":"88d4d8ce-94db-4e04-947f-9be38bb7b3c4","system_id":"levelo_inurba_marseille","lat":43.33612,"lon":5.410321,"is_reserved":false,"is_disabled":false,"rental_uris":{"android":"levelo://app?vid=88d4d8ce-94db-4e04-947f-9be38bb7b3c4","ios":"levelo://app?vid=88d4d8ce-94db-4e04-947f-9be38bb7b3c4"},"vehicle_type_id":"4","last_reported":1685862357,"current_range_meters":31200,"station_id":"ce4bhqh2rcd13ifvqhmg","pricing_plan_id":"free"},{"bike_id":"e1d3d640-d733-4874-817f-e9df379d0109","system_id":"levelo_inurba_marseille","lat":43.27564,"lon":5.3842,"is_reserved":false,"is_disabled":false,"rental_uris":{"android":"levelo://app?vid=e1d3d640-d733-4874-817f-e9df379d0109","ios":"levelo://app?vid=e1d3d640-d733-4874-817f-e9df379d0109"},"vehicle_type_id":"4","last_reported":1685862357,"current_range_meters":30000,"station_id":"","pricing_plan_id":"free"},{"bike_id":"449eeb59-bd7e-4175-860b-36c5840ef090","system_id":"levelo_inurba_marseille","lat":43.336134,"lon":5.410341,"is_reserved":false,"is_disabled":false,"rental_uris":{"android":"levelo://app?vid=449eeb59-bd7e-4175-860b-36c5840ef090","ios":"levelo://app?vid=449eeb59-bd7e-4175-860b-36c5840ef090"},"vehicle_type_id":"4","last_reported":1685862357,"current_range_meters":31600,"station_id":"ce4bhqh2rcd13ifvqhmg","pricing_plan_id":"free"},{"bike_id":"aece11da-abe5-4650-ba29-dfec19e336af","system_id":"levelo_inurba_marseille","lat":43.33612,"lon":5.410321,"is_reserved":false,"is_disabled":false,"rental_uris":{"android":"levelo://app?vid=aece11da-abe5-4650-ba29-dfec19e336af","ios":"levelo://app?vid=aece11da-abe5-4650-ba29-dfec19e336af"},"vehicle_type_id":"4","last_reported":1685862357,"current_range_meters":31200,"station_id":"ce4bhqh2rcd13ifvqhmg","pricing_plan_id":"free"},{"bike_id":"c7ab7fee-1071-448e-84a2-89013f46e67c","system_id":"levelo_inurba_marseille","lat":43.2756,"lon":5.38414,"is_reserved":false,"is_disabled":false,"rental_uris":{"android":"levelo://app?vid=c7ab7fee-1071-448e-84a2-89013f46e67c","ios":"levelo://app?vid=c7ab7fee-1071-448e-84a2-89013f46e67c"},"vehicle_type_id":"4","last_reported":1685862357,"current_range_meters":0,"station_id":"","pricing_plan_id":"free"},{"bike_id":"8608971e-0a5b-45d4-bea0-6cd6e58cd09f","system_id":"levelo_inurba_marseille","lat":43.33612,"lon":5.410321,"is_reserved":false,"is_disabled":false,"rental_uris":{"android":"levelo://app?vid=8608971e-0a5b-45d4-bea0-6cd6e58cd09f","ios":"levelo://app?vid=8608971e-0a5b-45d4-bea0-6cd6e58cd09f"},"vehicle_type_id":"4","last_reported":1685862357,"current_range_meters":30800,"station_id":"ce4bhqh2rcd13ifvqhmg","pricing_plan_id":"free"},{"bike_id":"67c87f88-3c36-4e5c-9646-0b903b7e2304","system_id":"levelo_inurba_marseille","lat":43.33612,"lon":5.410321,"is_reserved":false,"is_disabled":false,"rental_uris":{"android":"levelo://app?vid=67c87f88-3c36-4e5c-9646-0b903b7e2304","ios":"levelo://app?vid=67c87f88-3c36-4e5c-9646-0b903b7e2304"},"vehicle_type_id":"4","last_reported":1685862357,"current_range_meters":16800,"station_id":"ce4bhqh2rcd13ifvqhmg","pricing_plan_id":"free"},{"bike_id":"993b8824-d263-40a5-b80e-1c5c5f2a118a","system_id":"levelo_inurba_marseille","lat":43.336134,"lon":5.410341,"is_reserved":false,"is_disabled":false,"rental_uris":{"android":"levelo://app?vid=993b8824-d263-40a5-b80e-1c5c5f2a118a","ios":"levelo://app?vid=993b8824-d263-40a5-b80e-1c5c5f2a118a"},"vehicle_type_id":"4","last_reported":1685862357,"current_range_meters":29200,"station_id":"ce4bhqh2rcd13ifvqhmg","pricing_plan_id":"free"},{"bike_id":"9e3e9364-2c59-49d2-ad66-90ae6c254e2b","system_id":"levelo_inurba_marseille","lat":43.336134,"lon":5.410341,"is_reserved":false,"is_disabled":false,"rental_uris":{"android":"levelo://app?vid=9e3e9364-2c59-49d2-ad66-90ae6c254e2b","ios":"levelo://app?vid=9e3e9364-2c59-49d2-ad66-90ae6c254e2b"},"vehicle_type_id":"4","last_reported":1685862357,"current_range_meters":31200,"station_id":"ce4bhqh2rcd13ifvqhmg","pricing_plan_id":"free"},{"bike_id":"1047baed-e4e4-44e1-a721-8cb09706769a","system_id":"levelo_inurba_marseille","lat":43.336134,"lon":5.410341,"is_reserved":false,"is_disabled":false,"rental_uris":{"android":"levelo://app?vid=1047baed-e4e4-44e1-a721-8cb09706769a","ios":"levelo://app?vid=1047baed-e4e4-44e1-a721-8cb09706769a"},"vehicle_type_id":"4","last_reported":1685862357,"current_range_meters":31600,"station_id":"ce4bhqh2rcd13ifvqhmg","pricing_plan_id":"free"},{"bike_id":"3b14e52f-7df5-46e4-b2ce-369ea39314a9","system_id":"levelo_inurba_marseille","lat":43.336134,"lon":5.410341,"is_reserved":false,"is_disabled":false,"rental_uris":{"android":"levelo://app?vid=3b14e52f-7df5-46e4-b2ce-369ea39314a9","ios":"levelo://app?vid=3b14e52f-7df5-46e4-b2ce-369ea39314a9"},"vehicle_type_id":"4","last_reported":1685862357,"current_range_meters":8000,"station_id":"ce4bhqh2rcd13ifvqhmg","pricing_plan_id":"free"},{"bike_id":"72d6e606-7619-40a7-b7b3-8f993fd696e6","system_id":"levelo_inurba_marseille","lat":43.27664,"lon":5.38897,"is_reserved":false,"is_disabled":false,"rental_uris":{"android":"levelo://app?vid=72d6e606-7619-40a7-b7b3-8f993fd696e6","ios":"levelo://app?vid=72d6e606-7619-40a7-b7b3-8f993fd696e6"},"vehicle_type_id":"4","last_reported":1685862357,"current_range_meters":0,"station_id":"ce4bhi12rcd13ifvqfo0","pricing_plan_id":"free"},{"bike_id":"9908a2eb-cceb-4359-b2f6-31b6ef3dee84","system_id":"levelo_inurba_marseille","lat":43.275243,"lon":5.384237,"is_reserved":false,"is_disabled":false,"rental_uris":{"android":"levelo://app?vid=9908a2eb-cceb-4359-b2f6-31b6ef3dee84","ios":"levelo://app?vid=9908a2eb-cceb-4359-b2f6-31b6ef3dee84"},"vehicle_type_id":"4","last_reported":1685862357,"current_range_meters":23200,"station_id":"ce4bhe12rcd13ifvqf30","pricing_plan_id":"free"},{"bike_id":"75f0d486-53fc-42cb-b503-b7d057083f35","system_id":"levelo_inurba_marseille","lat":43.29819,"lon":5.4209,"is_reserved":false,"is_disabled":false,"rental_uris":{"android":"levelo://app?vid=75f0d486-53fc-42cb-b503-b7d057083f35","ios":"levelo://app?vid=75f0d486-53fc-42cb-b503-b7d057083f35"},"vehicle_type_id":"4","last_reported":1685862357,"current_range_meters":0,"station_id":"","pricing_plan_id":"free"},{"bike_id":"9db9545d-f63d-42be-a674-9c25625f916b","system_id":"levelo_inurba_marseille","lat":43.29397,"lon":5.41915,"is_reserved":false,"is_disabled":false,"rental_uris":{"android":"levelo://app?vid=9db9545d-f63d-42be-a674-9c25625f916b","ios":"levelo://app?vid=9db9545d-f63d-42be-a674-9c25625f916b"},"vehicle_type_id":"4","last_reported":1685862357,"current_range_meters":8800,"station_id":"","pricing_plan_id":"free"},{"bike_id":"4d80717c-1ab1-4ff1-8e16-4b8981f90281","system_id":"levelo_inurba_marseille","lat":43.32826,"lon":5.42152,"is_reserved":false,"is_disabled":false,"rental_uris":{"android":"levelo://app?vid=4d80717c-1ab1-4ff1-8e16-4b8981f90281","ios":"levelo://app?vid=4d80717c-1ab1-4ff1-8e16-4b8981f90281"},"vehicle_type_id":"4","last_reported":1685862357,"current_range_meters":27200,"station_id":"","pricing_plan_id":"free"},{"bike_id":"4cec600c-9ec5-4de7-b9e3-85463f9d0871","system_id":"levelo_inurba_marseille","lat":43.304096,"lon":5.425385,"is_reserved":false,"is_disabled":false,"rental_uris":{"android":"levelo://app?vid=4cec600c-9ec5-4de7-b9e3-85463f9d0871","ios":"levelo://app?vid=4cec600c-9ec5-4de7-b9e3-85463f9d0871"},"vehicle_type_id":"4","last_reported":1685862357,"current_range_meters":24800,"station_id":"ce4bhoh2rcd13ifvqh6g","pricing_plan_id":"free"},{"bike_id":"1bc14cac-e247-48f9-9ae9-5042e29ad519","system_id":"levelo_inurba_marseille","lat":43.272124,"lon":5.391768,"is_reserved":false,"is_disabled":false,"rental_uris":{"android":"levelo://app?vid=1bc14cac-e247-48f9-9ae9-5042e29ad519","ios":"levelo://app?vid=1bc14cac-e247-48f9-9ae9-5042e29ad519"},"vehicle_type_id":"4","last_reported":1685862357,"current_range_meters":27600,"station_id":"ce4bhhp2rcd13ifvqfm0","pricing_plan_id":"free"},{"bike_id":"7aea470c-b3bb-4acd-8dd8-651a6b686f9e","system_id":"levelo_inurba_marseille","lat":43.272116,"lon":5.391763,"is_reserved":false,"is_disabled":false,"rental_uris":{"android":"levelo://app?vid=7aea470c-b3bb-4acd-8dd8-651a6b686f9e","ios":"levelo://app?vid=7aea470c-b3bb-4acd-8dd8-651a6b686f9e"},