{"last_updated":1741999673,"ttl":60,"version":"2.2","data":{"bikes":[{"bike_id":"7cf0d743-f2dd-4554-ad88-f4ffd24540e7","system_id":"levelo_inurba_marseille","lat":43.30621,"lon":5.39956,"is_reserved":false,"is_disabled":false,"rental_uris":{"android":"levelo://app?vid=7cf0d743-f2dd-4554-ad88-f4ffd24540e7","ios":"levelo://app?vid=7cf0d743-f2dd-4554-ad88-f4ffd24540e7"},"vehicle_type_id":"4","last_reported":1741999673,"current_range_meters":3200,"station_id":"ce4bh112rcd13ifvqda0","pricing_plan_id":"cebpf4jnsgd1na2vs0mg"},{"bike_id":"1ee51659-2a76-4471-9f01-e328f155d763","system_id":"levelo_inurba_marseille","lat":43.29274,"lon":5.38418,"is_reserved":false,"is_disabled":false,"rental_uris":{"android":"levelo://app?vid=1ee51659-2a76-4471-9f01-e328f155d763","ios":"levelo://app?vid=1ee51659-2a76-4471-9f01-e328f155d763"},"vehicle_type_id":"4","last_reported":1741999673,"current_range_meters":3600,"station_id":"ce4bh692rcd13ifvqea0","pricing_plan_id":"cebpf4jnsgd1na2vs0mg"},{"bike_id":"060ed79c-3c84-450d-ae3c-18b9fe9cad35","system_id":"levelo_inurba_marseille","lat":43.26557,"lon":5.37272,"is_reserved":false,"is_disabled":true,"rental_uris":{"android":"levelo://app?vid=060ed79c-3c84-450d-ae3c-18b9fe9cad35","ios":"levelo://app?vid=060ed79c-3c84-450d-ae3c-18b9fe9cad35"},"vehicle_type_id":"4","last_reported":1741999673,"current_range_meters":3600,"station_id":"ce4bhg12rcd13ifvqf70","pricing_plan_id":"cebpf4jnsgd1na2vs0mg"},{"bike_id":"68a2d667-1fdb-41d5-8177-5ee0cf7fa382","system_id":"levelo_inurba_marseille","lat":43.29797,"lon":5.39347,"is_reserved":false,"is_disabled":true,"rental_uris":{"android":"levelo://app?vid=68a2d667-1fdb-41d5-8177-5ee0cf7fa382","ios":"levelo://app?vid=68a2d667-1fdb-41d5-8177-5ee0cf7fa382"},"vehicle_type_id":"4","last_reported":1741999673,"current_range_meters":3600,"station_id":"chh1huq6cuj3fo74tm60","pricing_plan_id":"cebpf4jnsgd1na2vs0mg"},{"bike_id":"785e6d32-8653-481d-a5d7-0fa08247da0e","system_id":"levelo_inurba_marseille","lat":43.28356,"lon":5.38106,"is_reserved":false,"is_disabled":false,"rental_uris":{"android":"levelo://app?vid=785e6d32-8653-481d-a5d7-0fa08247da0e","ios":"levelo://app?vid=785e6d32-8653-481d-a5d7-0fa08247da0e"},"vehicle_type_id":"4","last_reported":1741999673,"current_range_meters":3600,"station_id":"ce4bh412rcd13ifvqdr0","pricing_plan_id":"cebpf4jnsgd1na2vs0mg"},{"bike_id":"b01f14b3-9367-4769-b896-45dc4f82ebc1","system_id":"levelo_inurba_marseille","lat":43.2315,"lon":5.43717,"is_reserved":false,"is_disabled":false,"rental_uris":{"android":"levelo://app?vid=b01f14b3-9367-4769-b896-45dc4f82ebc1","ios":"levelo://app?vid=b01f14b3-9367-4769-b896-45dc4f82ebc1"},"vehicle_type_id":"4","last_reported":1741999673,"current_range_meters":3600,"station_id":"ce4bhmp2rcd13ifvqgog","pricing_plan_id":"cebpf4jnsgd1na2vs0mg"},{"bike_id":"707e2c42-ecf4-45a8-91ad-04662f06fbb8","system_id":"levelo_inurba_marseille","lat":43.29767,"lon":5.36204,"is_reserved":false,"is_disabled":false,"rental_uris":{"android":"levelo://app?vid=707e2c42-ecf4-45a8-91ad-04662f06fbb8","ios":"levelo://app?vid=707e2c42-ecf4-45a8-91ad-04662f06fbb8"},"vehicle_type_id":"4","last_reported":1741999673,"current_range_meters":3600,"station_id":"","pricing_plan_id":"cebpf4jnsgd1na2vs0mg"},{"bike_id":"613ae66a-7c12-4d1e-a97e-5b9a1dbd97a8","system_id":"levelo_inurba_marseille","lat":43.29715,"lon":5.366054,"is_reserved":false,"is_disabled":false,"rental_uris":{"android":"levelo://app?vid=613ae66a-7c12-4d1e-a97e-5b9a1dbd97a8","ios":"levelo://app?vid=613ae66a-7c12-4d1e-a97e-5b9a1dbd97a8"},"vehicle_type_id":"4","last_reported":1741999673,"current_range_meters":4000,"station_id":"ce4bhb12rcd13ifvqel0","pricing_plan_id":"cebpf4jnsgd1na2vs0mg"},{"bike_id":"459d89e6-018f-4609-b29b-1bc5ad9d93da","system_id":"levelo_inurba_marseille","lat":43.321183,"lon":5.36757,"is_reserved":false,"is_disabled":false,"rental_uris":{"android":"levelo://app?vid=459d89e6-018f-4609-b29b-1bc5ad9d93da","ios":"levelo://app?vid=459d89e6-018f-4609-b29b-1bc5ad9d93da"},"vehicle_type_id":"4","last_reported":1741999673,"current_range_meters":4000,"station_id":"ce4bhrh2rcd13ifvqhug","pricing_plan_id":"cebpf4jnsgd1na2vs0mg"},{"bike_id":"45dce5d6-fdd9-43b7-8cb1-c7832923b7a4","system_id":"levelo_inurba_marseille","lat":43.2706,"lon":5.40282,"is_reserved":false,"is_disabled":true,"rental_uris":{"android":"levelo://app?vid=45dce5d6-fdd9-43b7-8cb1-c7832923b7a4","ios":"levelo://app?vid=45dce5d6-fdd9-43b7-8cb1-c7832923b7a4"},"vehicle_type_id":"4","last_reported":1741999673,"current_range_meters":4400,"station_id":"ce4bhk92rcd13ifvqgc0","pricing_plan_id":"cebpf4jnsgd1na2vs0mg"},{"bike_id":"34419613-555b-4a7e-89c4-cf8a91ec83b7","system_id":"levelo_inurba_marseille","lat":43.27053,"lon":5.40261,"is_reserved":false,"is_disabled":true,"rental_uris":{"android":"levelo://app?vid=34419613-555b-4a7e-89c4-cf8a91ec83b7","ios":"levelo://app?vid=34419613-555b-4a7e-89c4-cf8a91ec83b7"},"vehicle_type_id":"4","last_reported":1741999673,"current_range_meters":6000,"station_id":"ce4bhk92rcd13ifvqgc0","pricing_plan_id":"cebpf4jnsgd1na2vs0mg"},{"bike_id":"15eab6fd-1da9-4e0a-8635-451e6ec5c47d","system_id":"levelo_inurba_marseille","lat":43.31246,"lon":5.36931,"is_reserved":false,"is_disabled":false,"rental_uris":{"android":"levelo://app?vid=15eab6fd-1da9-4e0a-8635-451e6ec5c47d","ios":"levelo://app?vid=15eab6fd-1da9-4e0a-8635-451e6ec5c47d"},"vehicle_type_id":"4","last_reported":1741999673,"current_range_meters":6000,"station_id":"","pricing_plan_id":"cebpf4jnsgd1na2vs0mg"},{"bike_id":"cf341705-6331-4a08-a367-b5475225b892","system_id":"levelo_inurba_marseille","lat":43.265625,"lon":5.39008,"is_reserved":false,"is_disabled":false,"rental_uris":{"android":"levelo://app?vid=cf341705-6331-4a08-a367-b5475225b892","ios":"levelo://app?vid=cf341705-6331-4a08-a367-b5475225b892"},"vehicle_type_id":"4","last_reported":1741999673,"current_range_meters":6400,"station_id":"","pricing_plan_id":"cebpf4jnsgd1na2vs0mg"},{"bike_id":"aa3c5349-766e-4992-8e95-c670f1f543fb","system_id":"levelo_inurba_marseille","lat":43.22903,"lon":5.40151,"is_reserved":false,"is_disabled":false,"rental_uris":{"android":"levelo://app?vid=aa3c5349-766e-4992-8e95-c670f1f543fb","ios":"levelo://app?vid=aa3c5349-766e-4992-8e95-c670f1f543fb"},"vehicle_type_id":"4","last_reported":1741999673,"current_range_meters":6400,"station_id":"","pricing_plan_id":"cebpf4jnsgd1na2vs0mg"},{"bike_id":"fb25c0f6-5882-4734-a76a-2aeb0b117f9b","system_id":"levelo_inurba_marseille","lat":43.3176,"lon":5.39034,"is_reserved":false,"is_disabled":true,"rental_uris":{"android":"levelo://app?vid=fb25c0f6-5882-4734-a76a-2aeb0b117f9b","ios":"levelo://app?vid=fb25c0f6-5882-4734-a76a-2aeb0b117f9b"},"vehicle_type_id":"4","last_reported":1741999673,"current_range_meters":6800,"station_id":"ce4bhqp2rcd13ifvqhng","pricing_plan_id":"cebpf4jnsgd1na2vs0mg"},{"bike_id":"8600e973-6bae-49e6-a541-074b0686e3d2","system_id":"levelo_inurba_marseille","lat":43.323556,"lon":5.388871,"is_reserved":false,"is_disabled":false,"rental_uris":{"android":"levelo://app?vid=8600e973-6bae-49e6-a541-074b0686e3d2","ios":"levelo://app?vid=8600e973-6bae-49e6-a541-074b0686e3d2"},"vehicle_type_id":"4","last_reported":1741999673,"current_range_meters":6800,"station_id":"ce4bhqp2rcd13ifvqhog","pricing_plan_id":"cebpf4jnsgd1na2vs0mg"},{"bike_id":"cfbfae81-2b5a-4512-adc5-3545d5eb48ff","system_id":"levelo_inurba_marseille","lat":43.32357,"lon":5.38897,"is_reserved":false,"is_disabled":false,"rental_uris":{"android":"levelo://app?vid=cfbfae81-2b5a-4512-adc5-3545d5eb48ff","ios":"levelo://app?vid=cfbfae81-2b5a-4512-adc5-3545d5eb48ff"},"vehicle_type_id":"4","last_reported":1741999673,"current_range_meters":6800,"station_id":"ce4bhqp2rcd13ifvqhog","pricing_plan_id":"cebpf4jnsgd1na2vs0mg"},{"bike_id":"36ec5a15-215b-4367-a3ca-336aadd9a251","system_id":"levelo_inurba_marseille","lat":43.33746,"lon":5.3745,"is_reserved":false,"is_disabled":false,"rental_uris":{"android":"levelo://app?vid=36ec5a15-215b-4367-a3ca-336aadd9a251","ios":"levelo://app?vid=36ec5a15-215b-4367-a3ca-336aadd9a251"},"vehicle_type_id":"4","last_reported":1741999673,"current_range_meters":6800,"station_id":"","pricing_plan_id":"cebpf4jnsgd1na2vs0mg"},{"bike_id":"436bf6fd-98f0-4c70-968c-7fcac8f398a5","system_id":"levelo_inurba_marseille","lat":43.2509,"lon":5.41061,"is_reserved":false,"is_disabled":false,"rental_uris":{"android":"levelo://app?vid=436bf6fd-98f0-4c70-968c-7fcac8f398a5","ios":"levelo://app?vid=436bf6fd-98f0-4c70-968c-7fcac8f398a5"},"vehicle_type_id":"4","last_reported":1741999673,"current_range_meters":7200,"station_id":"","pricing_plan_id":"cebpf4jnsgd1na2vs0mg"},{"bike_id":"9f6408a5-e307-4171-88d0-2b8c1add1add","system_id":"levelo_inurba_marseille","lat":43.29857,"lon":5.3628,"is_reserved":false,"is_disabled":false,"rental_uris":{"android":"levelo://app?vid=9f6408a5-e307-4171-88d0-2b8c1add1add","ios":"levelo://app?vid=9f6408a5-e307-4171-88d0-2b8c1add1add"},"vehicle_type_id":"4","last_reported":1741999673,"current_range_meters":7200,"station_id":"ce4bgpp2rcd13ifvqc3g","pricing_plan_id":"cebpf4jnsgd1na2vs0mg"},{"bike_id":"e680d681-5451-4e79-9861-5f89e81b6e1f","system_id":"levelo_inurba_marseille","lat":43.29018,"lon":5.38139,"is_reserved":false,"is_disabled":true,"rental_uris":{"android":"levelo://app?vid=e680d681-5451-4e79-9861-5f89e81b6e1f","ios":"levelo://app?vid=e680d681-5451-4e79-9861-5f89e81b6e1f"},"vehicle_type_id":"4","last_reported":1741999673,"current_range_meters":7200,"station_id":"ce4bh4p2rcd13ifvqe1g","pricing_plan_id":"cebpf4jnsgd1na2vs0mg"},{"bike_id":"e48b5189-9d09-49fd-bc00-62268902f308","system_id":"levelo_inurba_marseille","lat":43.25014,"lon":5.38914,"is_reserved":false,"is_disabled":true,"rental_uris":{"android":"levelo://app?vid=e48b5189-9d09-49fd-bc00-62268902f308","ios":"levelo://app?vid=e48b5189-9d09-49fd-bc00-62268902f308"},"vehicle_type_id":"4","last_reported":1741999673,"current_range_meters":7200,"station_id":"ce4bhgp2rcd13ifvqfd0","pricing_plan_id":"cebpf4jnsgd1na2vs0mg"},{"bike_id":"703a27ab-78c1-4da2-9977-9c24f54834c8","system_id":"levelo_inurba_marseille","lat":43.32493,"lon":5.36556,"is_reserved":false,"is_disabled":false,"rental_uris":{"android":"levelo://app?vid=703a27ab-78c1-4da2-9977-9c24f54834c8","ios":"levelo://app?vid=703a27ab-78c1-4da2-9977-9c24f54834c8"},"vehicle_type_id":"4","last_reported":1741999673,"current_range_meters":7200,"station_id":"ce4bhs12rcd13ifvqhvg","pricing_plan_id":"cebpf4jnsgd1na2vs0mg"},{"bike_id":"de27148c-9139-4b87-b73a-06e43af57146","system_id":"levelo_inurba_marseille","lat":43.30897,"lon":5.36865,"is_reserved":false,"is_disabled":false,"rental_uris":{"android":"levelo://app?vid=de27148c-9139-4b87-b73a-06e43af57146","ios":"levelo://app?vid=de27148c-9139-4b87-b73a-06e43af57146"},"vehicle_type_id":"4","last_reported":1741999673,"current_range_meters":7200,"station_id":"ce4bgn92rcd13ifvqbvg","pricing_plan_id":"cebpf4jnsgd1na2vs0mg"},{"bike_id":"f2ee8bc0-312d-4388-b78b-2fe33c2c7cb8","system_id":"levelo_inurba_marseille","lat":43.24535,"lon":5.39529,"is_reserved":false,"is_disabled":false,"rental_uris":{"android":"levelo://app?vid=f2ee8bc0-312d-4388-b78b-2fe33c2c7cb8","ios":"levelo://app?vid=f2ee8bc0-312d-4388-b78b-2fe33c2c7cb8"},"vehicle_type_id":"4","last_reported":1741999673,"current_range_meters":7200,"station_id":"ce4bhlp2rcd13ifvqgjg","pricing_plan_id":"cebpf4jnsgd1na2vs0mg"},{"bike_id":"7ae7b069-5937-401d-8084-f4c9d553767b","system_id":"levelo_inurba_marseille","lat":43.27946,"lon":5.41037,"is_reserved":false,"is_disabled":false,"rental_uris":{"android":"levelo://app?vid=7ae7b069-5937-401d-8084-f4c9d553767b","ios":"levelo://app?vid=7ae7b069-5937-401d-8084-f4c9d553767b"},"vehicle_type_id":"4","last_reported":1741999673,"current_range_meters":8000,"station_id":"ce4bhnp2rcd13ifvqh0g","pricing_plan_id":"cebpf4jnsgd1na2vs0mg"},{"bike_id":"f2d00548-a5af-43a5-9ad4-5205ddc617dc","system_id":"levelo_inurba_marseille","lat":43.3097,"lon":5.41723,"is_reserved":false,"is_disabled":false,"rental_uris":{"android":"levelo://app?vid=f2d00548-a5af-43a5-9ad4-5205ddc617dc","ios":"levelo://app?vid=f2d00548-a5af-43a5-9ad4-5205ddc617dc"},"vehicle_type_id":"4","last_reported":1741999673,"current_range_meters":8000,"station_id":"","pricing_plan_id":"cebpf4jnsgd1na2vs0mg"},{"bike_id":"3363e5ed-aafd-4c83-9f97-12270e6ffcf4","system_id":"levelo_inurba_marseille","lat":43.2486,"lon":5.40638,"is_reserved":false,"is_disabled":false,"rental_uris":{"android":"levelo://app?vid=3363e5ed-aafd-4c83-9f97-12270e6ffcf4","ios":"levelo://app?vid=3363e5ed-aafd-4c83-9f97-12270e6ffcf4"},"vehicle_type_id":"4","last_reported":1741999673,"current_range_meters":8000,"station_id":"","pricing_plan_id":"cebpf4jnsgd1na2vs0mg"},{"bike_id":"594a33ea-5c85-49b0-893b-48b1f5e1011a","system_id":"levelo_inurba_marseille","lat":43.3093,"lon":5.40144,"is_reserved":false,"is_disabled":true,"rental_uris":{"android":"levelo://app?vid=594a33ea-5c85-49b0-893b-48b1f5e1011a","ios":"levelo://app?vid=594a33ea-5c85-49b0-893b-48b1f5e1011a"},"vehicle_type_id":"4","last_reported":1741999673,"current_range_meters":8000,"station_id":"ce4bgvp2rcd13ifvqct0","pricing_plan_id":"cebpf4jnsgd1na2vs0mg"},{"bike_id":"5a1aa495-9425-415b-807c-46fc9fcf7d4f","system_id":"levelo_inurba_marseille","lat":43.279423,"lon":5.410433,"is_reserved":false,"is_disabled":false,"rental_uris":{"android":"levelo://app?vid=5a1aa495-9425-415b-807c-46fc9fcf7d4f","ios":"levelo://app?vid=5a1aa495-9425-415b-807c-46fc9fcf7d4f"},"vehicle_type_id":"4","last_reported":1741999673,"current_range_meters":8000,"station_id":"ce4bhnp2rcd13ifvqh0g","pricing_plan_id":"cebpf4jnsgd1na2vs0mg"},{"bike_id":"77f0430f-3350-4963-ac6b-e35c49a943e2","system_id":"levelo_inurba_marseille","lat":43.3166,"lon":5.39594,"is_reserved":false,"is_disabled":false,"rental_uris":{"android":"levelo://app?vid=77f0430f-3350-4963-ac6b-e35c49a943e2","ios":"levelo://app?vid=77f0430f-3350-4963-ac6b-e35c49a943e2"},"vehicle_type_id":"4","last_reported":1741999673,"current_range_meters":8000,"station_id":"","pricing_plan_id":"cebpf4jnsgd1na2vs0mg"},{"bike_id":"22eef8e9-28d0-4055-9740-16ced5bd43fc","system_id":"levelo_inurba_marseille","lat":43.24662,"lon":5.38167,"is_reserved":false,"is_disabled":false,"rental_uris":{"android":"levelo://app?vid=22eef8e9-28d0-4055-9740-16ced5bd43fc","ios":"levelo://app?vid=22eef8e9-28d0-4055-9740-16ced5bd43fc"},"vehicle_type_id":"4","last_reported":1741999673,"current_range_meters":8000,"station_id":"ce4bhih2rcd13ifvqfr0","pricing_plan_id":"cebpf4jnsgd1na2vs0mg"},{"bike_id":"4640ed7b-2ef1-41cf-afe9-4f5c3eed86d3","system_id":"levelo_inurba_marseille","lat":43.30873,"lon":5.39602,"is_reserved":false,"is_disabled":false,"rental_uris":{"android":"levelo://app?vid=4640ed7b-2ef1-41cf-afe9-4f5c3eed86d3","ios":"levelo://app?vid=4640ed7b-2ef1-41cf-afe9-4f5c3eed86d3"},"vehicle_type_id":"4","last_reported":1741999673,"current_range_meters":8000,"station_id":"ce4bh012rcd13ifvqcv0","pricing_plan_id":"cebpf4jnsgd1na2vs0mg"},{"bike_id":"faf4c27a-d7eb-4435-bbca-3d07a59b2d3c","system_id":"levelo_inurba_marseille","lat":43.31281,"lon":5.4017,"is_reserved":false,"is_disabled":false,"rental_uris":{"android":"levelo://app?vid=faf4c27a-d7eb-4435-bbca-3d07a59b2d3c","ios":"levelo://app?vid=faf4c27a-d7eb-4435-bbca-3d07a59b2d3c"},"vehicle_type_id":"4","last_reported":1741999673,"current_range_meters":8000,"station_id":"ce4bh092rcd13ifvqd30","pricing_plan_id":"cebpf4jnsgd1na2vs0mg"},{"bike_id":"91b12a37-f477-4c10-ad1a-c6fc1ad2db69","system_id":"levelo_inurba_marseille","lat":43.27972,"lon":5.42472,"is_reserved":false,"is_disabled":false,"rental_uris":{"android":"levelo://app?vid=91b12a37-f477-4c10-ad1a-c6fc1ad2db69","ios":"levelo://app?vid=91b12a37-f477-4c10-ad1a-c6fc1ad2db69"},"vehicle_type_id":"4","last_reported":1741999673,"current_range_meters":8400,"station_id":"","pricing_plan_id":"cebpf4jnsgd1na2vs0mg"},{"bike_id":"99e3497e-d5bc-4f7b-9b94-f6046a8fd0c6","system_id":"levelo_inurba_marseille","lat":43.307832,"lon":5.376443,"is_reserved":false,"is_disabled":false,"rental_uris":{"android":"levelo://app?vid=99e3497e-d5bc-4f7b-9b94-f6046a8fd0c6","ios":"levelo://app?vid=99e3497e-d5bc-4f7b-9b94-f6046a8fd0c6"},"vehicle_type_id":"4","last_reported":1741999673,"current_range_meters":8400,"station_id":"ce4bgv92rcd13ifvqcq0","pricing_plan_id":"cebpf4jnsgd1na2vs0mg"},{"bike_id":"6f412945-af8d-49d8-abe9-68f07450aec2","system_id":"levelo_inurba_marseille","lat":43.30099,"lon":5.3908,"is_reserved":false,"is_disabled":false,"rental_uris":{"android":"levelo://app?vid=6f412945-af8d-49d8-abe9-68f07450aec2","ios":"levelo://app?vid=6f412945-af8d-49d8-abe9-68f07450aec2"},"vehicle_type_id":"4","last_reported":1741999673,"current_range_meters":8400,"station_id":"ce4bh192rcd13ifvqdb0","pricing_plan_id":"cebpf4jnsgd1na2vs0mg"},{"bike_id":"db190b95-0646-4f5f-8d9b-e02586ad4713","system_id":"levelo_inurba_marseille","lat":43.29985,"lon":5.384796,"is_reserved":false,"is_disabled":false,"rental_uris":{"android":"levelo://app?vid=db190b95-0646-4f5f-8d9b-e02586ad4713","ios":"levelo://app?vid=db190b95-0646-4f5f-8d9b-e02586ad4713"},"vehicle_type_id":"4","last_reported":1741999673,"current_range_meters":8400,"station_id":"ce4bgj92rcd13ifvqbd0","pricing_plan_id":"cebpf4jnsgd1na2vs0mg"},{"bike_id":"eb25877b-c0fa-424b-b883-3d3066d3f23b","system_id":"levelo_inurba_marseille","lat":43.30951,"lon":5.39039,"is_reserved":false,"is_disabled":false,"rental_uris":{"android":"levelo://app?vid=eb25877b-c0fa-424b-b883-3d3066d3f23b","ios":"levelo://app?vid=eb25877b-c0fa-424b-b883-3d3066d3f23b"},"vehicle_type_id":"4","last_reported":1741999673,"current_range_meters":8400,"station_id":"ce4bgup2rcd13ifvqco0","pricing_plan_id":"cebpf4jnsgd1na2vs0mg"},{"bike_id":"f656b2ac-e6fa-4dab-be9e-81d8f99ae755","system_id":"levelo_inurba_marseille","lat":43.29641,"lon":5.37156,"is_reserved":false,"is_disabled":false,"rental_uris":{"android":"levelo://app?vid=f656b2ac-e6fa-4dab-be9e-81d8f99ae755","ios":"levelo://app?vid=f656b2ac-e6fa-4dab-be9e-81d8f99ae755"},"vehicle_type_id":"4","last_reported":1741999673,"current_range_meters":8400,"station_id":"ce4bgnh2rcd13ifvqc0g","pricing_plan_id":"cebpf4jnsgd1na2vs0mg"},{"bike_id":"a8b75b51-f301-4a87-a935-16bee0cec824","system_id":"levelo_inurba_marseille","lat":43.28409,"lon":5.37527,"is_reserved":false,"is_disabled":false,"rental_uris":{"android":"levelo://app?vid=a8b75b51-f301-4a87-a935-16bee0cec824","ios":"levelo://app?vid=a8b75b51-f301-4a87-a935-16bee0cec824"},"vehicle_type_id":"4","last_reported":1741999673,"current_range_meters":8400,"station_id":"ce4bh412rcd13ifvqds0","pricing_plan_id":"cebpf4jnsgd1na2vs0mg"},{"bike_id":"48f968e9-2670-450c-9a50-b12a7ac1907f","system_id":"levelo_inurba_marseille","lat":43.25732,"lon":5.41041,"is_reserved":false,"is_disabled":false,"rental_uris":{"android":"levelo://app?vid=48f968e9-2670-450c-9a50-b12a7ac1907f","ios":"levelo://app?vid=48f968e9-2670-450c-9a50-b12a7ac1907f"},"vehicle_type_id":"4","last_reported":1741999673,"current_range_meters":8800,"station_id":"ce4bhkp2rcd13ifvqgd0","pricing_plan_id":"cebpf4jnsgd1na2vs0mg"},{"bike_id":"d38ec561-2826-4710-8b79-38af7b6460aa","system_id":"levelo_inurba_marseille","lat":43.24666,"lon":5.3816,"is_reserved":false,"is_disabled":false,"rental_uris":{"android":"levelo://app?vid=d38ec561-2826-4710-8b79-38af7b6460aa","ios":"levelo://app?vid=d38ec561-2826-4710-8b79-38af7b6460aa"},"vehicle_type_id":"4","last_reported":1741999673,"current_range_meters":8800,"station_id":"ce4bhih2rcd13ifvqfr0","pricing_plan_id":"cebpf4jnsgd1na2vs0mg"},{"bike_id":"2a767443-3c93-49d2-97d6-52ed82bb8d6a","system_id":"levelo_inurba_marseille","lat":43.29581,"lon":5.3674,"is_reserved":false,"is_disabled":false,"rental_uris":{"android":"levelo://app?vid=2a767443-3c93-49d2-97d6-52ed82bb8d6a","ios":"levelo://app?vid=2a767443-3c93-49d2-97d6-52ed82bb8d6a"},"vehicle_type_id":"4","last_reported":1741999673,"current_range_meters":8800,"station_id":"ce4bgph2rcd13ifvqc2g","pricing_plan_id":"cebpf4jnsgd1na2vs0mg"},{"bike_id":"a8e67676-89ba-43e0-82dc-5ef4b0a5e328","system_id":"levelo_inurba_marseille","lat":43.31378,"lon":5.39187,"is_reserved":false,"is_disabled":false,"rental_uris":{"android":"levelo://app?vid=a8e67676-89ba-43e0-82dc-5ef4b0a5e328","ios":"levelo://app?vid=a8e67676-89ba-43e0-82dc-5ef4b0a5e328"},"vehicle_type_id":"4","last_reported":1741999673,"current_range_meters":8800,"station_id":"","pricing_plan_id":"cebpf4jnsgd1na2vs0mg"},{"bike_id":"e6710280-bd86-46cd-80e3-b715c7f5659b","system_id":"levelo_inurba_marseille","lat":43.24387,"lon":5.37059,"is_reserved":false,"is_disabled":false,"rental_uris":{"android":"levelo://app?vid=e6710280-bd86-46cd-80e3-b715c7f5659b","ios":"levelo://app?vid=e6710280-bd86-46cd-80e3-b715c7f5659b"},"vehicle_type_id":"4","last_reported":1741999673,"current_range_meters":8800,"station_id":"ce4bhhh2rcd13ifvqfk0","pricing_plan_id":"cebpf4jnsgd1na2vs0mg"},{"bike_id":"92a4b2de-1a40-47de-8941-8583c8b587d4","system_id":"levelo_inurba_marseille","lat":43.27668,"lon":5.38912,"is_reserved":false,"is_disabled":true,"rental_uris":{"android":"levelo://app?vid=92a4b2de-1a40-47de-8941-8583c8b587d4","ios":"levelo://app?vid=92a4b2de-1a40-47de-8941-8583c8b587d4"},"vehicle_type_id":"4","last_reported":1741999673,"current_range_meters":8800,"station_id":"ce4bhi12rcd13ifvqfo0","pricing_plan_id":"cebpf4jnsgd1na2vs0mg"},{"bike_id":"9d2d752e-416c-49e5-a687-1caacbda7dcb","system_id":"levelo_inurba_marseille","lat":43.28057,"lon":5.39678,"is_reserved":false,"is_disabled":true,"rental_uris":{"android":"levelo://app?vid=9d2d752e-416c-49e5-a687-1caacbda7dcb","ios":"levelo://app?vid=9d2d752e-416c-49e5-a687-1caacbda7dcb"},"vehicle_type_id":"4","last_reported":1741999673,"current_range_meters":8800,"station_id":"ce4bho12rcd13ifvqh2g","pricing_plan_id":"cebpf4jnsgd1na2vs0mg"},{"bike_id":"9be7091d-8dbc-4ba8-8d3d-ed716c93433c","system_id":"levelo_inurba_marseille","lat":43.29845,"lon":5.36273,"is_reserved":false,"is_disabled":false,"rental_uris":{"android":"levelo://app?vid=9be7091d-8dbc-4ba8-8d3d-ed716c93433c","ios":"levelo://app?vid=9be7091d-8dbc-4ba8-8d3d-ed716c93433c"},"vehicle_type_id":"4","last_reported":1741999673,"current_range_meters":8800,"station_id":"ce4bgpp2rcd13ifvqc3g","pricing_plan_id":"cebpf4jnsgd1na2vs0mg"},{"bike_id":"2ec0f046-4e68-4150-a618-5c892d6b2cb5","system_id":"levelo_inurba_marseille","lat":43.26245,"lon":5.40443,"is_reserved":false,"is_disabled":false,"rental_uris":{"android":"levelo://app?vid=2ec0f046-4e68-4150-a618-5c892d6b2cb5","ios":"levelo://app?vid=2ec0f046-4e68-4150-a618-5c892d6b2cb5"},"vehicle_type_id":"4","last_reported":1741999673,"current_range_meters":8800,"station_id":"ce4bhmh2rcd13ifvqgmg","pricing_plan_id":"cebpf4jnsgd1na2vs0mg"},{"bike_id":"7f720f01-f8b9-4d21-91a7-22faa351b6a5","system_id":"levelo_inurba_marseille","lat":43.28943,"lon":5.36412,"is_reserved":false,"is_disabled":false,"rental_uris":{"android":"levelo://app?vid=7f720f01-f8b9-4d21-91a7-22faa351b6a5","ios":"levelo://app?vid=7f720f01-f8b9-4d21-91a7-22faa351b6a5"},"vehicle_type_id":"4","last_reported":1741999673,"current_range_meters":8800,"station_id":"ce4bhc92rcd13ifvqetg","pricing_plan_id":"cebpf4jnsgd1na2vs0mg"},{"bike_id":"0f71c17f-e153-4330-8bed-2c82c0b6284a","system_id":"levelo_inurba_marseille","lat":43.28856,"lon":5.35842,"is_reserved":false,"is_disabled":false,"rental_uris":{"android":"levelo://app?vid=0f71c17f-e153-4330-8bed-2c82c0b6284a","ios":"levelo://app?vid=0f71c17f-e153-4330-8bed-2c82c0b6284a"},"vehicle_type_id":"4","last_reported":1741999673,"current_range_meters":9200,"station_id":"ce4bhb12rcd13ifvqem0","pricing_plan_id":"cebpf4jnsgd1na2vs0mg"},{"bike_id":"dd6b897c-d192-45a9-a1ff-4be331bbeb6a","system_id":"levelo_inurba_marseille","lat":43.28665,"lon":5.36348,"is_reserved":false,"is_disabled":false,"rental_uris":{"android":"levelo://app?vid=dd6b897c-d192-45a9-a1ff-4be331bbeb6a","ios":"levelo://app?vid=dd6b897c-d192-45a9-a1ff-4be331bbeb6a"},"vehicle_type_id":"4","last_reported":1741999673,"current_range_meters":9200,"station_id":"ce4bhah2rcd13ifvqej0","pricing_plan_id":"cebpf4jnsgd1na2vs0mg"},{"bike_id":"48f3a40e-658c-443b-8908-cf181e5627b0","system_id":"levelo_inurba_marseille","lat":43.3014,"lon":5.37399,"is_reserved":false,"is_disabled":false,"rental_uris":{"android":"levelo://app?vid=48f3a40e-658c-443b-8908-cf181e5627b0","ios":"levelo://app?vid=48f3a40e-658c-443b-8908-cf181e5627b0"},"vehicle_type_id":"4","last_reported":1741999673,"current_range_meters":9200,"station_id":"ce4bgs92rcd13ifvqcc0","pricing_plan_id":"cebpf4jnsgd1na2vs0mg"},{"bike_id":"d9d112ab-bb0c-48a8-b7d7-88dde0b5d086","system_id":"levelo_inurba_marseille","lat":43.32286,"lon":5.38283,"is_reserved":false,"is_disabled":false,"rental_uris":{"android":"levelo://app?vid=d9d112ab-bb0c-48a8-b7d7-88dde0b5d086","ios":"levelo://app?vid=d9d112ab-bb0c-48a8-b7d7-88dde0b5d086"},"vehicle_type_id":"4","last_reported":1741999673,"current_range_meters":9600,"station_id":"ce4bhr12rcd13ifvqhqg","pricing_plan_id":"cebpf4jnsgd1na2vs0mg"},{"bike_id":"dc2dc920-7061-4611-9ad3-02d4898aaa15","system_id":"levelo_inurba_marseille","lat":43.23173,"lon":5.39991,"is_reserved":false,"is_disabled":false,"rental_uris":{"android":"levelo://app?vid=dc2dc920-7061-4611-9ad3-02d4898aaa15","ios":"levelo://app?vid=dc2dc920-7061-4611-9ad3-02d4898aaa15"},"vehicle_type_id":"4","last_reported":1741999673,"current_range_meters":9600,"station_id":"ce4bhn12rcd13ifvqgqg","pricing_plan_id":"cebpf4jnsgd1na2vs0mg"},{"bike_id":"441146ec-c2e7-45f1-b6bc-e65405bbf9fd","system_id":"levelo_inurba_marseille","lat":43.27626,"lon":5.36098,"is_reserved":false,"is_disabled":false,"rental_uris":{"android":"levelo://app?vid=441146ec-c2e7-45f1-b6bc-e65405bbf9fd","ios":"levelo://app?vid=441146ec-c2e7-45f1-b6bc-e65405bbf9fd"},"vehicle_type_id":"4","last_reported":1741999673,"current_range_meters":9600,"station_id":"ce4bgj92rcd13ifvqbe0","pricing_plan_id":"cebpf4jnsgd1na2vs0mg"},{"bike_id":"bd7fb638-a561-41df-90ca-f32685780427","system_id":"levelo_inurba_marseille","lat":43.22923,"lon":5.35374,"is_reserved":false,"is_disabled":false,"rental_uris":{"android":"levelo://app?vid=bd7fb638-a561-41df-90ca-f32685780427","ios":"levelo://app?vid=bd7fb638-a561-41df-90ca-f32685780427"},"vehicle_type_id":"4","last_reported":1741999673,"current_range_meters":9600,"station_id":"cpo3532slgdg3j2ikp40","pricing_plan_id":"cebpf4jnsgd1na2vs0mg"},{"bike_id":"dc0a2dab-6977-4311-9c84-6f4743af4a27","system_id":"levelo_inurba_marseille","lat":43.2886,"lon":5.35838,"is_reserved":false,"is_disabled":false,"rental_uris":{"android":"levelo://app?vid=dc0a2dab-6977-4311-9c84-6f4743af4a27","ios":"levelo://app?vid=dc0a2dab-6977-4311-9c84-6f4743af4a27"},"vehicle_type_id":"4","last_reported":1741999673,"current_range_meters":9600,"station_id":"ce4bhb12rcd13ifvqem0","pricing_plan_id":"cebpf4jnsgd1na2vs0mg"},{"bike_id":"8a5bd971-61c1-4475-933b-dffdb284dd01","system_id":"levelo_inurba_marseille","lat":43.25016,"lon":5.38909,"is_reserved":false,"is_disabled":false,"rental_uris":{"android":"levelo://app?vid=8a5bd971-61c1-4475-933b-dffdb284dd01","ios":"levelo://app?vid=8a5bd971-61c1-4475-933b-dffdb284dd01"},"vehicle_type_id":"4","last_reported":1741999673,"current_range_meters":10000,"station_id":"ce4bhgp2rcd13ifvqfd0","pricing_plan_id":"cebpf4jnsgd1na2vs0mg"},{"bike_id":"3e855fc9-7985-40b2-8b41-f65298beab70","system_id":"levelo_inurba_marseille","lat":43.28042,"lon":5.36945,"is_reserved":false,"is_disabled":false,"rental_uris":{"android":"levelo://app?vid=3e855fc9-7985-40b2-8b41-f65298beab70","ios":"levelo://app?vid=3e855fc9-7985-40b2-8b41-f65298beab70"},"vehicle_type_id":"4","last_reported":1741999673,"current_range_meters":10000,"station_id":"ce4bha12rcd13ifvqef0","pricing_plan_id":"cebpf4jnsgd1na2vs0mg"},{"bike_id":"e4776f2e-5cba-4203-b125-2cacf4791022","system_id":"levelo_inurba_marseille","lat":43.31332,"lon":5.39672,"is_reserved":false,"is_disabled":false,"rental_uris":{"android":"levelo://app?vid=e4776f2e-5cba-4203-b125-2cacf4791022","ios":"levelo://app?vid=e4776f2e-5cba-4203-b125-2cacf4791022"},"vehicle_type_id":"4","last_reported":1741999673,"current_range_meters":10000,"station_id":"ce4bgvp2rcd13ifvqcu0","pricing_plan_id":"cebpf4jnsgd1na2vs0mg"},{"bike_id":"ccd31dea-9090-4259-b977-143b30ebefa0","system_id":"levelo_inurba_marseille","lat":43.26194,"lon":5.37448,"is_reserved":false,"is_disabled":false,"rental_uris":{"android":"levelo://app?vid=ccd31dea-9090-4259-b977-143b30ebefa0","ios":"levelo://app?vid=ccd31dea-9090-4259-b977-143b30ebefa0"},"vehicle_type_id":"4","last_reported":1741999673,"current_range_meters":10000,"station_id":"ce4bhgp2rcd13ifvqfc0","pricing_plan_id":"cebpf4jnsgd1na2vs0mg"},{"bike_id":"9fd8a695-1141-48a7-a275-ae03aade4f9e","system_id":"levelo_inurba_marseille","lat":43.245438,"lon":5.39519,"is_reserved":false,"is_disabled":false,"rental_uris":{"android":"levelo://app?vid=9fd8a695-1141-48a7-a275-ae03aade4f9e","ios":"levelo://app?vid=9fd8a695-1141-48a7-a275-ae03aade4f9e"},"vehicle_type_id":"4","last_reported":1741999673,"current_range_meters":10800,"station_id":"ce4bhlp2rcd13ifvqgjg","pricing_plan_id":"cebpf4jnsgd1na2vs0mg"},{"bike_id":"5aba52df-8a3f-4b29-82a1-604be3c638f6","system_id":"levelo_inurba_marseille","lat":43.28852,"lon":5.35837,"is_reserved":false,"is_disabled":false,"rental_uris":{"android":"levelo://app?vid=5aba52df-8a3f-4b29-82a1-604be3c638f6","ios":"levelo://app?vid=5aba52df-8a3f-4b29-82a1-604be3c638f6"},"vehicle_type_id":"4","last_reported":1741999673,"current_range_meters":10800,"station_id":"ce4bhb12rcd13ifvqem0","pricing_plan_id":"cebpf4jnsgd1na2vs0mg"},{"bike_id":"4053e09d-f30f-4ed5-a08b-b11ac2cc763b","system_id":"levelo_inurba_marseille","lat":43.28422,"lon":5.37504,"is_reserved":false,"is_disabled":false,"rental_uris":{"android":"levelo://app?vid=4053e09d-f30f-4ed5-a08b-b11ac2cc763b","ios":"levelo://app?vid=4053e09d-f30f-4ed5-a08b-b11ac2cc763b"},"vehicle_type_id":"4","last_reported":1741999673,"current_range_meters":10800,"station_id":"ce4bh412rcd13ifvqds0","pricing_plan_id":"cebpf4jnsgd1na2vs0mg"},{"bike_id":"184492ce-9f5c-47e4-a3e5-d0eccfcef42b","system_id":"levelo_inurba_marseille","lat":43.27618,"lon":5.36106,"is_reserved":false,"is_disabled":false,"rental_uris":{"android":"levelo://app?vid=184492ce-9f5c-47e4-a3e5-d0eccfcef42b","ios":"levelo://app?vid=184492ce-9f5c-47e4-a3e5-d0eccfcef42b"},"vehicle_type_id":"4","last_reported":1741999673,"current_range_meters":10800,"station_id":"ce4bgj92rcd13ifvqbe0","pricing_plan_id":"cebpf4jnsgd1na2vs0mg"},{"bike_id":"2833c42b-d64a-4e72-93ee-d21fe40ff679","system_id":"levelo_inurba_marseille","lat":43.31171,"lon":5.38729,"is_reserved":false,"is_disabled":false,"rental_uris":{"android":"levelo://app?vid=2833c42b-d64a-4e72-93ee-d21fe40ff679","ios":"levelo://app?vid=2833c42b-d64a-4e72-93ee-d21fe40ff679"},"vehicle_type_id":"4","last_reported":1741999673,"current_range_meters":10800,"station_id":"ce4bgv12rcd13ifvqcp0","pricing_plan_id":"cebpf4jnsgd1na2vs0mg"},{"bike_id":"a212850b-d961-4e6c-83d5-c03c146a618f","system_id":"levelo_inurba_marseille","lat":43.30244,"lon":5.40064,"is_reserved":false,"is_disabled":false,"rental_uris":{"android":"levelo://app?vid=a212850b-d961-4e6c-83d5-c03c146a618f","ios":"levelo://app?vid=a212850b-d961-4e6c-83d5-c03c146a618f"},"vehicle_type_id":"4","last_reported":1741999673,"current_range_meters":10800,"station_id":"ce4bgvh2rcd13ifvqcs0","pricing_plan_id":"cebpf4jnsgd1na2vs0mg"},{"bike_id":"01b777d1-1e0d-40a2-a34b-643aa7713bce","system_id":"levelo_inurba_marseille","lat":43.30473,"lon":5.37904,"is_reserved":false,"is_disabled":false,"rental_uris":{"android":"levelo://app?vid=01b777d1-1e0d-40a2-a34b-643aa7713bce","ios":"levelo://app?vid=01b777d1-1e0d-40a2-a34b-643aa7713bce"},"vehicle_type_id":"4","last_reported":1741999673,"current_range_meters":10800,"station_id":"ce4bgup2rcd13ifvqcn0","pricing_plan_id":"cebpf4jnsgd1na2vs0mg"},{"bike_id":"04f149c6-a120-4218-b435-a952d9eb67d0","system_id":"levelo_inurba_marseille","lat":43.24858,"lon":5.40647,"is_reserved":false,"is_disabled":false,"rental_uris":{"android":"levelo://app?vid=04f149c6-a120-4218-b435-a952d9eb67d0","ios":"levelo://app?vid=04f149c6-a120-4218-b435-a952d9eb67d0"},"vehicle_type_id":"4","last_reported":1741999673,"current_range_meters":10800,"station_id":"","pricing_plan_id":"cebpf4jnsgd1na2vs0mg"},{"bike_id":"9916307e-073a-427d-94d7-7f23fc4d666d","system_id":"levelo_inurba_marseille","lat":43.2869,"lon":5.39985,"is_reserved":false,"is_disabled":false,"rental_uris":{"android":"levelo://app?vid=9916307e-073a-427d-94d7-7f23fc4d666d","ios":"levelo://app?vid=9916307e-073a-427d-94d7-7f23fc4d666d"},"vehicle_type_id":"4","last_reported":1741999673,"current_range_meters":10800,"station_id":"ce4bho92rcd13ifvqh3g","pricing_plan_id":"cebpf4jnsgd1na2vs0mg"},{"bike_id":"808cc0fe-9e53-473c-8551-1dc9670c8b2f","system_id":"levelo_inurba_marseille","lat":43.30781,"lon":5.37628,"is_reserved":false,"is_disabled":false,"rental_uris":{"android":"levelo://app?vid=808cc0fe-9e53-473c-8551-1dc9670c8b2f","ios":"levelo://app?vid=808cc0fe-9e53-473c-8551-1dc9670c8b2f"},"vehicle_type_id":"4","last_reported":1741999673,"current_range_meters":10800,"station_id":"ce4bgv92rcd13ifvqcq0","pricing_plan_id":"cebpf4jnsgd1na2vs0mg"},{"bike_id":"65bea2c5-78a7-4fbf-92b5-f338edebb748","system_id":"levelo_inurba_marseille","lat":43.26111,"lon":5.41463,"is_reserved":false,"is_disabled":false,"rental_uris":{"android":"levelo://app?vid=65bea2c5-78a7-4fbf-92b5-f338edebb748","ios":"levelo://app?vid=65bea2c5-78a7-4fbf-92b5-f338edebb748"},"vehicle_type_id":"4","last_reported":1741999673,"current_range_meters":11200,"station_id":"","pricing_plan_id":"cebpf4jnsgd1na2vs0mg"},{"bike_id":"85e84d04-a2bc-4db6-81df-42a78f2366a3","system_id":"levelo_inurba_marseille","lat":43.29715,"lon":5.36611,"is_reserved":false,"is_disabled":false,"rental_uris":{"android":"levelo://app?vid=85e84d04-a2bc-4db6-81df-42a78f2366a3","ios":"levelo://app?vid=85e84d04-a2bc-4db6-81df-42a78f2366a3"},"vehicle_type_id":"4","last_reported":1741999673,"current_range_meters":12400,"station_id":"ce4bgn12rcd13ifvqbt0","pricing_plan_id":"cebpf4jnsgd1na2vs0mg"},{"bike_id":"5c09fa10-66af-4d08-984a-1d41e4e2c41b","system_id":"levelo_inurba_marseille","lat":43.23191,"lon":5.39973,"is_reserved":false,"is_disabled":false,"rental_uris":{"android":"levelo://app?vid=5c09fa10-66af-4d08-984a-1d41e4e2c41b","ios":"levelo://app?vid=5c09fa10-66af-4d08-984a-1d41e4e2c41b"},"vehicle_type_id":"4","last_reported":1741999673,"current_range_meters":11200,"station_id":"ce4bhn12rcd13ifvqgqg","pricing_plan_id":"cebpf4jnsgd1na2vs0mg"},{"bike_id":"385ae15c-2c3c-4490-a507-5eb20fb883a5","system_id":"levelo_inurba_marseille","lat":43.25937,"lon":5.4088,"is_reserved":false,"is_disabled":false,"rental_uris":{"android":"levelo://app?vid=385ae15c-2c3c-4490-a507-5eb20fb883a5","ios":"levelo://app?vid=385ae15c-2c3c-4490-a507-5eb20fb883a5"},"vehicle_type_id":"4","last_reported":1741999673,"current_range_meters":11200,"station_id":"ce4bhm92rcd13ifvqglg","pricing_plan_id":"cebpf4jnsgd1na2vs0mg"},{"bike_id":"3467e1fd-f097-4239-9227-10aa85bb4e8b","system_id":"levelo_inurba_marseille","lat":43.30886,"lon":5.39628,"is_reserved":false,"is_disabled":false,"rental_uris":{"android":"levelo://app?vid=3467e1fd-f097-4239-9227-10aa85bb4e8b","ios":"levelo://app?vid=3467e1fd-f097-4239-9227-10aa85bb4e8b"},"vehicle_type_id":"4","last_reported":1741999673,"current_range_meters":11200,"station_id":"ce4bh012rcd13ifvqcv0","pricing_plan_id":"cebpf4jnsgd1na2vs0mg"},{"bike_id":"4c31218c-2010-49f2-a304-0501d5f8c799","system_id":"levelo_inurba_marseille","lat":43.28339,"lon":5.38101,"is_reserved":false,"is_disabled":false,"rental_uris":{"android":"levelo://app?vid=4c31218c-2010-49f2-a304-0501d5f8c799","ios":"levelo://app?vid=4c31218c-2010-49f2-a304-0501d5f8c799"},"vehicle_type_id":"4","last_reported":1741999673,"current_range_meters":11200,"station_id":"ce4bh412rcd13ifvqdr0","pricing_plan_id":"cebpf4jnsgd1na2vs0mg"},{"bike_id":"676e66c6-8e50-404c-b512-5f94c7d6a8fc","system_id":"levelo_inurba_marseille","lat":43.24165,"lon":5.36411,"is_reserved":false,"is_disabled":false,"rental_uris":{"android":"levelo://app?vid=676e66c6-8e50-404c-b512-5f94c7d6a8fc","ios":"levelo://app?vid=676e66c6-8e50-404c-b512-5f94c7d6a8fc"},"vehicle_type_id":"4","last_reported":1741999673,"current_range_meters":11600,"station_id":"cpo36qri1sfpv3e86is0","pricing_plan_id":"cebpf4jnsgd1na2vs0mg"},{"bike_id":"f118ad7c-2db2-426e-8831-342c067385ab","system_id":"levelo_inurba_marseille","lat":43.27946,"lon":5.41027,"is_reserved":false,"is_disabled":false,"rental_uris":{"android":"levelo://app?vid=f118ad7c-2db2-426e-8831-342c067385ab","ios":"levelo://app?vid=f118ad7c-2db2-426e-8831-342c067385ab"},"vehicle_type_id":"4","last_reported":1741999673,"current_range_meters":11600,"station_id":"ce4bhnp2rcd13ifvqh0g","pricing_plan_id":"cebpf4jnsgd1na2vs0mg"},{"bike_id":"9dc34fee-30ab-4eb0-b012-6e336e203cdb","system_id":"levelo_inurba_marseille","lat":43.31705,"lon":5.43699,"is_reserved":false,"is_disabled":false,"rental_uris":{"android":"levelo://app?vid=9dc34fee-30ab-4eb0-b012-6e336e203cdb","ios":"levelo://app?vid=9dc34fee-30ab-4eb0-b012-6e336e203cdb"},"vehicle_type_id":"4","last_reported":1741999673,"current_range_meters":12000,"station_id":"ce4bhp92rcd13ifvqhcg","pricing_plan_id":"cebpf4jnsgd1na2vs0mg"},{"bike_id":"cabd3d2d-330e-43b2-8d0b-3e86699f79e1","system_id":"levelo_inurba_marseille","lat":43.24164,"lon":5.36397,"is_reserved":false,"is_disabled":false,"rental_uris":{"android":"levelo://app?vid=cabd3d2d-330e-43b2-8d0b-3e86699f79e1","ios":"levelo://app?vid=cabd3d2d-330e-43b2-8d0b-3e86699f79e1"},"vehicle_type_id":"4","last_reported":1741999673,"current_range_meters":12000,"station_id":"cpo36qri1sfpv3e86is0","pricing_plan_id":"cebpf4jnsgd1na2vs0mg"},{"bike_id":"0665d59a-7583-48f5-95a3-603a5eec5e3f","system_id":"levelo_inurba_marseille","lat":43.28034,"lon":5.36938,"is_reserved":false,"is_disabled":false,"rental_uris":{"android":"levelo://app?vid=0665d59a-7583-48f5-95a3-603a5eec5e3f","ios":"levelo://app?vid=0665d59a-7583-48f5-95a3-603a5eec5e3f"},"vehicle_type_id":"4","last_reported":1741999673,"current_range_meters":12000,"station_id":"ce4bha12rcd13ifvqef0","pricing_plan_id":"cebpf4jnsgd1na2vs0mg"},{"bike_id":"b37db8b9-d0d9-421b-85af-469fa613b348","system_id":"levelo_inurba_marseille","lat":43.31275,"lon":5.40168,"is_reserved":false,"is_disabled":false,"rental_uris":{"android":"levelo://app?vid=b37db8b9-d0d9-421b-85af-469fa613b348","ios":"levelo://app?vid=b37db8b9-d0d9-421b-85af-469fa613b348"},"vehicle_type_id":"4","last_reported":1741999673,"current_range_meters":12000,"station_id":"ce4bh092rcd13ifvqd30","pricing_plan_id":"cebpf4jnsgd1na2vs0mg"},{"bike_id":"e0f00ea1-5190-455d-8f01-943045ce62ae","system_id":"levelo_inurba_marseille","lat":43.31197,"lon":5.37777,"is_reserved":false,"is_disabled":false,"rental_uris":{"android":"levelo://app?vid=e0f00ea1-5190-455d-8f01-943045ce62ae","ios":"levelo://app?vid=e0f00ea1-5190-455d-8f01-943045ce62ae"},"vehicle_type_id":"4","last_reported":1741999673,"current_range_meters":12000,"station_id":"","pricing_plan_id":"cebpf4jnsgd1na2vs0mg"},{"bike_id":"62750819-90ea-49db-b059-da19472d9390","system_id":"levelo_inurba_marseille","lat":43.31564,"lon":5.42272,"is_reserved":false,"is_disabled":false,"rental_uris":{"android":"levelo://app?vid=62750819-90ea-49db-b059-da19472d9390","ios":"levelo://app?vid=62750819-90ea-49db-b059-da19472d9390"},"vehicle_type_id":"4","last_reported":1741999673,"current_range_meters":12000,"station_id":"","pricing_plan_id":"cebpf4jnsgd1na2vs0mg"},{"bike_id":"64986549-2c9e-4b9f-8464-f74cc2571bf2","system_id":"levelo_inurba_marseille","lat":43.2409,"lon":5.37729,"is_reserved":false,"is_disabled":false,"rental_uris":{"android":"levelo://app?vid=64986549-2c9e-4b9f-8464-f74cc2571bf2","ios":"levelo://app?vid=64986549-2c9e-4b9f-8464-f74cc2571bf2"},"vehicle_type_id":"4","last_reported":1741999673,"current_range_meters":12000,"station_id":"ce4bhnp2rcd13ifvqgvg","pricing_plan_id":"cebpf4jnsgd1na2vs0mg"},{"bike_id":"b492a5ac-e999-4d99-a121-1c1983e57e8f","system_id":"levelo_inurba_marseille","lat":43.28831,"lon":5.35853,"is_reserved":false,"is_disabled":false,"rental_uris":{"android":"levelo://app?vid=b492a5ac-e999-4d99-a121-1c1983e57e8f","ios":"levelo://app?vid=b492a5ac-e999-4d99-a121-1c1983e57e8f"},"vehicle_type_id":"4","last_reported":1741999673,"current_range_meters":12000,"station_id":"ce4bhb12rcd13ifvqem0","pricing_plan_id":"cebpf4jnsgd1na2vs0mg"},{"bike_id":"cb18c41c-e472-4ca0-a233-6e3349aacd22","system_id":"levelo_inurba_marseille","lat":43.28945,"lon":5.36397,"is_reserved":false,"is_disabled":false,"rental_uris":{"android":"levelo://app?vid=cb18c41c-e472-4ca0-a233-6e3349aacd22","ios":"levelo://app?vid=cb18c41c-e472-4ca0-a233-6e3349aacd22"},"vehicle_type_id":"4","last_reported":1741999673,"current_range_meters":12000,"station_id":"ce4bhc92rcd13ifvqetg","pricing_plan_id":"cebpf4jnsgd1na2vs0mg"},{"bike_id":"aa125934-36f2-4778-9cc6-aaa97af72a9a","system_id":"levelo_inurba_marseille","lat":43.31195,"lon":5.38714,"is_reserved":false,"is_disabled":false,"rental_uris":{"android":"levelo://app?vid=aa125934-36f2-4778-9cc6-aaa97af72a9a","ios":"levelo://app?vid=aa125934-36f2-4778-9cc6-aaa97af72a9a"},"vehicle_type_id":"4","last_reported":1741999673,"current_range_meters":12400,"station_id":"ce4bgv12rcd13ifvqcp0","pricing_plan_id":"cebpf4jnsgd1na2vs0mg"},{"bike_id":"4a7756d7-96b4-4244-8589-0d6472a05729","system_id":"levelo_inurba_marseille","lat":43.27826,"lon":5.39208,"is_reserved":false,"is_disabled":false,"rental_uris":{"android":"levelo://app?vid=4a7756d7-96b4-4244-8589-0d6472a05729","ios":"levelo://app?vid=4a7756d7-96b4-4244-8589-0d6472a05729"},"vehicle_type_id":"4","last_reported":1741999673,"current_range_meters":12400,"station_id":"ce4bhjp2rcd13ifvqga0","pricing_plan_id":"cebpf4jnsgd1na2vs0mg"},{"bike_id":"03d5c30f-9b67-4c42-b496-00580617f460","system_id":"levelo_inurba_marseille","lat":43.310746,"lon":5.383525,"is_reserved":false,"is_disabled":false,"rental_uris":{"android":"levelo://app?vid=03d5c30f-9b67-4c42-b496-00580617f460","ios":"levelo://app?vid=03d5c30f-9b67-4c42-b496-00580617f460"},"vehicle_type_id":"4","last_reported":1741999673,"current_range_meters":12400,"station_id":"ce4bgv92rcd13ifvqcr0","pricing_plan_id":"cebpf4jnsgd1na2vs0mg"},{"bike_id":"269491db-b98a-49e3-a3b5-e04159ff8cbf","system_id":"levelo_inurba_marseille","lat":43.26939,"lon":5.4025,"is_reserved":false,"is_disabled":false,"rental_uris":{"android":"levelo://app?vid=269491db-b98a-49e3-a3b5-e04159ff8cbf","ios":"levelo://app?vid=269491db-b98a-49e3-a3b5-e04159ff8cbf"},"vehicle_type_id":"4","last_reported":1741999673,"current_range_meters":12400,"station_id":"cjm6bp8fraef2m0cb0m0","pricing_plan_id":"cebpf4jnsgd1na2vs0mg"},{"bike_id":"4ef323ec-55a6-4673-9998-ca7fe4a3fb37","system_id":"levelo_inurba_marseille","lat":43.33024,"lon":5.39028,"is_reserved":false,"is_disabled":false,"rental_uris":{"android":"levelo://app?vid=4ef323ec-55a6-4673-9998-ca7fe4a3fb37","ios":"levelo://app?vid=4ef323ec-55a6-4673-9998-ca7fe4a3fb37"},"vehicle_type_id":"4","last_reported":1741999673,"current_range_meters":12400,"station_id":"ce4bhr92rcd13ifvqhrg","pricing_plan_id":"cebpf4jnsgd1na2vs0mg"},{"bike_id":"08d7ad39-29b9-4d1d-ab44-5a56dd13dd34","system_id":"levelo_inurba_marseille","lat":43.24093,"lon":5.37707,"is_reserved":false,"is_disabled":false,"rental_uris":{"android":"levelo://app?vid=08d7ad39-29b9-4d1d-ab44-5a56dd13dd34","ios":"levelo://app?vid=08d7ad39-29b9-4d1d-ab44-5a56dd13dd34"},"vehicle_type_id":"4","last_reported":1741999673,"current_range_meters":12800,"station_id":"","pricing_plan_id":"cebpf4jnsgd1na2vs0mg"},{"bike_id":"0b7bfdb8-fd03-4687-9225-8085184f929c","system_id":"levelo_inurba_marseille","lat":43.32362,"lon":5.36775,"is_reserved":false,"is_disabled":false,"rental_uris":{"android":"levelo://app?vid=0b7bfdb8-fd03-4687-9225-8085184f929c","ios":"levelo://app?vid=0b7bfdb8-fd03-4687-9225-8085184f929c"},"vehicle_type_id":"4","last_reported":1741999673,"current_range_meters":12800,"station_id":"ce4bhsh2rcd13ifvqi2g","pricing_plan_id":"cebpf4jnsgd1na2vs0mg"},{"bike_id":"83783ead-721f-4d82-86e9-a8ac641b2edd","system_id":"levelo_inurba_marseille","lat":43.262308,"lon":5.404555,"is_reserved":false,"is_disabled":false,"rental_uris":{"android":"levelo://app?vid=83783ead-721f-4d82-86e9-a8ac641b2edd","ios":"levelo://app?vid=83783ead-721f-4d82-86e9-a8ac641b2edd"},"vehicle_type_id":"4","last_reported":1741999673,"current_range_meters":12800,"station_id":"ce4bhmh2rcd13ifvqgmg","pricing_plan_id":"cebpf4jnsgd1na2vs0mg"},{"bike_id":"c6b824bb-649b-4740-832b-8ce2932b8909","system_id":"levelo_inurba_marseille","lat":43.28718,"lon":5.36078,"is_reserved":false,"is_disabled":false,"rental_uris":{"android":"levelo://app?vid=c6b824bb-649b-4740-832b-8ce2932b8909","ios":"levelo://app?vid=c6b824bb-649b-4740-832b-8ce2932b8909"},"vehicle_type_id":"4","last_reported":1741999673,"current_range_meters":12800,"station_id":"cki0cbj6b192h4jlfktg","pricing_plan_id":"cebpf4jnsgd1na2vs0mg"},{"bike_id":"9d9bd579-ca4a-49a8-84d8-e0a9c1600b5e","system_id":"levelo_inurba_marseille","lat":43.25082,"lon":5.39521,"is_reserved":false,"is_disabled":false,"rental_uris":{"android":"levelo://app?vid=9d9bd579-ca4a-49a8-84d8-e0a9c1600b5e","ios":"levelo://app?vid=9d9bd579-ca4a-49a8-84d8-e0a9c1600b5e"},"vehicle_type_id":"4","last_reported":1741999673,"current_range_meters":13600,"station_id":"ce4bhm12rcd13ifvqgkg","pricing_plan_id":"cebpf4jnsgd1na2vs0mg"},{"bike_id":"009b8a38-7c9c-4a99-95e2-7297e8eb538c","system_id":"levelo_inurba_marseille","lat":43.32351,"lon":5.4061,"is_reserved":false,"is_disabled":false,"rental_uris":{"android":"levelo://app?vid=009b8a38-7c9c-4a99-95e2-7297e8eb538c","ios":"levelo://app?vid=009b8a38-7c9c-4a99-95e2-7297e8eb538c"},"vehicle_type_id":"4","last_reported":1741999673,"current_range_meters":13600,"station_id":"ce4bhq92rcd13ifvqhjg","pricing_plan_id":"cebpf4jnsgd1na2vs0mg"},{"bike_id":"25228edc-ae2b-41d4-9e7e-87f35203c830","system_id":"levelo_inurba_marseille","lat":43.26674,"lon":5.38254,"is_reserved":false,"is_disabled":false,"rental_uris":{"android":"levelo://app?vid=25228edc-ae2b-41d4-9e7e-87f35203c830","ios":"levelo://app?vid=25228edc-ae2b-41d4-9e7e-87f35203c830"},"vehicle_type_id":"4","last_reported":1741999673,"current_range_meters":13600,"station_id":"ce4bhg92rcd13ifvqf90","pricing_plan_id":"cebpf4jnsgd1na2vs0mg"},{"bike_id":"6ceff3a7-2089-4452-a80c-797e513bd928","system_id":"levelo_inurba_marseille","lat":43.281036,"lon":5.378358,"is_reserved":false,"is_disabled":false,"rental_uris":{"android":"levelo://app?vid=6ceff3a7-2089-4452-a80c-797e513bd928","ios":"levelo://app?vid=6ceff3a7-2089-4452-a80c-797e513bd928"},"vehicle_type_id":"4","last_reported":1741999673,"current_range_meters":13600,"station_id":"ce4bha12rcd13ifvqee0","pricing_plan_id":"cebpf4jnsgd1na2vs0mg"},{"bike_id":"7275ac19-f926-4d23-9e9d-7142ec2c130c","system_id":"levelo_inurba_marseille","lat":43.31371,"lon":5.38486,"is_reserved":false,"is_disabled":false,"rental_uris":{"android":"levelo://app?vid=7275ac19-f926-4d23-9e9d-7142ec2c130c","ios":"levelo://app?vid=7275ac19-f926-4d23-9e9d-7142ec2c130c"},"vehicle_type_id":"4","last_reported":1741999673,"current_range_meters":13600,"station_id":"ce4bgt92rcd13ifvqcf0","pricing_plan_id":"cebpf4jnsgd1na2vs0mg"},{"bike_id":"3fbdbed3-81eb-4ebd-99e8-fe7ae5272906","system_id":"levelo_inurba_marseille","lat":43.25837,"lon":5.39441,"is_reserved":false,"is_disabled":false,"rental_uris":{"android":"levelo://app?vid=3fbdbed3-81eb-4ebd-99e8-fe7ae5272906","ios":"levelo://app?vid=3fbdbed3-81eb-4ebd-99e8-fe7ae5272906"},"vehicle_type_id":"4","last_reported":1741999673,"current_range_meters":13600,"station_id":"ce4bhip2rcd13ifvqft0","pricing_plan_id":"cebpf4jnsgd1na2vs0mg"},{"bike_id":"9cbd5a1b-3c50-4ced-99cb-4fe0752fda4b","system_id":"levelo_inurba_marseille","lat":43.29906,"lon":5.3815,"is_reserved":false,"is_disabled":false,"rental_uris":{"android":"levelo://app?vid=9cbd5a1b-3c50-4ced-99cb-4fe0752fda4b","ios":"levelo://app?vid=9cbd5a1b-3c50-4ced-99cb-4fe0752fda4b"},"vehicle_type_id":"4","last_reported":1741999673,"current_range_meters":14000,"station_id":"ce4bgj12rcd13ifvqbc0","pricing_plan_id":"cebpf4jnsgd1na2vs0mg"},{"bike_id":"76b5d343-6624-4366-8e6e-f702d50ae492","system_id":"levelo_inurba_marseille","lat":43.231945,"lon":5.35553,"is_reserved":false,"is_disabled":false,"rental_uris":{"android":"levelo://app?vid=76b5d343-6624-4366-8e6e-f702d50ae492","ios":"levelo://app?vid=76b5d343-6624-4366-8e6e-f702d50ae492"},"vehicle_type_id":"4","last_reported":1741999673,"current_range_meters":14000,"station_id":"ce4bhu92rcd13ifvqi70","pricing_plan_id":"cebpf4jnsgd1na2vs0mg"},{"bike_id":"e52b41b5-52df-4c67-a85c-3cebb3bf7504","system_id":"levelo_inurba_marseille","lat":43.32367,"lon":5.36776,"is_reserved":false,"is_disabled":false,"rental_uris":{"android":"levelo://app?vid=e52b41b5-52df-4c67-a85c-3cebb3bf7504","ios":"levelo://app?vid=e52b41b5-52df-4c67-a85c-3cebb3bf7504"},"vehicle_type_id":"4","last_reported":1741999673,"current_range_meters":14000,"station_id":"ce4bhsh2rcd13ifvqi2g","pricing_plan_id":"cebpf4jnsgd1na2vs0mg"},{"bike_id":"ed4d790a-9854-49a9-827f-20bd3cffa2d7","system_id":"levelo_inurba_marseille","lat":43.31174,"lon":5.38715,"is_reserved":false,"is_disabled":false,"rental_uris":{"android":"levelo://app?vid=ed4d790a-9854-49a9-827f-20bd3cffa2d7","ios":"levelo://app?vid=ed4d790a-9854-49a9-827f-20bd3cffa2d7"},"vehicle_type_id":"4","last_reported":1741999673,"current_range_meters":14000,"station_id":"ce4bgv12rcd13ifvqcp0","pricing_plan_id":"cebpf4jnsgd1na2vs0mg"},{"bike_id":"24f6de54-6d38-4630-8ce3-65ec2d5b5bc6","system_id":"levelo_inurba_marseille","lat":43.30939,"lon":5.39052,"is_reserved":false,"is_disabled":false,"rental_uris":{"android":"levelo://app?vid=24f6de54-6d38-4630-8ce3-65ec2d5b5bc6","ios":"levelo://app?vid=24f6de54-6d38-4630-8ce3-65ec2d5b5bc6"},"vehicle_type_id":"4","last_reported":1741999673,"current_range_meters":14000,"station_id":"ce4bgup2rcd13ifvqco0","pricing_plan_id":"cebpf4jnsgd1na2vs0mg"},{"bike_id":"73e5a0f7-990d-4cd5-a507-5015e5e3d79f","system_id":"levelo_inurba_marseille","lat":43.33085,"lon":5.37678,"is_reserved":false,"is_disabled":false,"rental_uris":{"android":"levelo://app?vid=73e5a0f7-990d-4cd5-a507-5015e5e3d79f","ios":"levelo://app?vid=73e5a0f7-990d-4cd5-a507-5015e5e3d79f"},"vehicle_type_id":"4","last_reported":1741999673,"current_range_meters":14400,"station_id":"","pricing_plan_id":"cebpf4jnsgd1na2vs0mg"},{"bike_id":"9985ae74-2125-49fa-891b-15370436909b","system_id":"levelo_inurba_marseille","lat":43.27848,"lon":5.39209,"is_reserved":false,"is_disabled":false,"rental_uris":{"android":"levelo://app?vid=9985ae74-2125-49fa-891b-15370436909b","ios":"levelo://app?vid=9985ae74-2125-49fa-891b-15370436909b"},"vehicle_type_id":"4","last_reported":1741999673,"current_range_meters":14400,"station_id":"ce4bhjp2rcd13ifvqga0","pricing_plan_id":"cebpf4jnsgd1na2vs0mg"},{"bike_id":"d9a1cca8-ee8b-47f2-9d56-964a9b7f03bf","system_id":"levelo_inurba_marseille","lat":43.3131,"lon":5.39676,"is_reserved":false,"is_disabled":true,"rental_uris":{"android":"levelo://app?vid=d9a1cca8-ee8b-47f2-9d56-964a9b7f03bf","ios":"levelo://app?vid=d9a1cca8-ee8b-47f2-9d56-964a9b7f03bf"},"vehicle_type_id":"4","last_reported":1741999673,"current_range_meters":14400,"station_id":"ce4bgvp2rcd13ifvqcu0","pricing_plan_id":"cebpf4jnsgd1na2vs0mg"},{"bike_id":"2137ac00-06ea-473d-8468-6c10bc75c344","system_id":"levelo_inurba_marseille","lat":43.29207,"lon":5.39342,"is_reserved":false,"is_disabled":false,"rental_uris":{"android":"levelo://app?vid=2137ac00-06ea-473d-8468-6c10bc75c344","ios":"levelo://app?vid=2137ac00-06ea-473d-8468-6c10bc75c344"},"vehicle_type_id":"4","last_reported":1741999673,"current_range_meters":14400,"station_id":"ce4bh192rcd13ifvqdd0","pricing_plan_id":"cebpf4jnsgd1na2vs0mg"},{"bike_id":"0f7429f7-2340-4e18-b0a7-8c3dc4d76cc4","system_id":"levelo_inurba_marseille","lat":43.30543,"lon":5.38422,"is_reserved":false,"is_disabled":false,"rental_uris":{"android":"levelo://app?vid=0f7429f7-2340-4e18-b0a7-8c3dc4d76cc4","ios":"levelo://app?vid=0f7429f7-2340-4e18-b0a7-8c3dc4d76cc4"},"vehicle_type_id":"4","last_reported":1741999673,"current_range_meters":14400,"station_id":"ce4bgg92rcd13ifvqb30","pricing_plan_id":"cebpf4jnsgd1na2vs0mg"},{"bike_id":"f26d210c-1aad-4b17-a8bd-462fc165f9a4","system_id":"levelo_inurba_marseille","lat":43.284384,"lon":5.392002,"is_reserved":false,"is_disabled":false,"rental_uris":{"android":"levelo://app?vid=f26d210c-1aad-4b17-a8bd-462fc165f9a4","ios":"levelo://app?vid=f26d210c-1aad-4b17-a8bd-462fc165f9a4"},"vehicle_type_id":"4","last_reported":1741999673,"current_range_meters":14400,"station_id":"ce4bhoh2rcd13ifvqh5g","pricing_plan_id":"cebpf4jnsgd1na2vs0mg"},{"bike_id":"b300e8f2-86b8-4052-8c3d-eb059ef18ccd","system_id":"levelo_inurba_marseille","lat":43.279867,"lon":5.41653,"is_reserved":false,"is_disabled":false,"rental_uris":{"android":"levelo://app?vid=b300e8f2-86b8-4052-8c3d-eb059ef18ccd","ios":"levelo://app?vid=b300e8f2-86b8-4052-8c3d-eb059ef18ccd"},"vehicle_type_id":"4","last_reported":1741999673,"current_range_meters":14400,"station_id":"ce4bho12rcd13ifvqh1g","pricing_plan_id":"cebpf4jnsgd1na2vs0mg"},{"bike_id":"b2cbd0d1-2f9b-48eb-b981-19e649f9780d","system_id":"levelo_inurba_marseille","lat":43.30896,"lon":5.37201,"is_reserved":false,"is_disabled":false,"rental_uris":{"android":"levelo://app?vid=b2cbd0d1-2f9b-48eb-b981-19e649f9780d","ios":"levelo://app?vid=b2cbd0d1-2f9b-48eb-b981-19e649f9780d"},"vehicle_type_id":"4","last_reported":1741999673,"current_range_meters":14400,"station_id":"ce4bguh2rcd13ifvqckg","pricing_plan_id":"cebpf4jnsgd1na2vs0mg"},{"bike_id":"e49b04cf-caf3-4396-a42f-d09ff370ef2a","system_id":"levelo_inurba_marseille","lat":43.3117,"lon":5.38725,"is_reserved":false,"is_disabled":false,"rental_uris":{"android":"levelo://app?vid=e49b04cf-caf3-4396-a42f-d09ff370ef2a","ios":"levelo://app?vid=e49b04cf-caf3-4396-a42f-d09ff370ef2a"},"vehicle_type_id":"4","last_reported":1741999673,"current_range_meters":14800,"station_id":"ce4bgv12rcd13ifvqcp0","pricing_plan_id":"cebpf4jnsgd1na2vs0mg"},{"bike_id":"1742665e-3cf5-4d91-9f4d-8afacbb37c97","system_id":"levelo_inurba_marseille","lat":43.30308,"lon":5.39253,"is_reserved":false,"is_disabled":false,"rental_uris":{"android":"levelo://app?vid=1742665e-3cf5-4d91-9f4d-8afacbb37c97","ios":"levelo://app?vid=1742665e-3cf5-4d91-9f4d-8afacbb37c97"},"vehicle_type_id":"4","last_reported":1741999673,"current_range_meters":14800,"station_id":"ce4bgkh2rcd13ifvqbk0","pricing_plan_id":"cebpf4jnsgd1na2vs0mg"},{"bike_id":"c120a913-9ca3-48bb-b13e-b172e8ff9583","system_id":"levelo_inurba_marseille","lat":43.24682,"lon":5.38136,"is_reserved":false,"is_disabled":false,"rental_uris":{"android":"levelo://app?vid=c120a913-9ca3-48bb-b13e-b172e8ff9583","ios":"levelo://app?vid=c120a913-9ca3-48bb-b13e-b172e8ff9583"},"vehicle_type_id":"4","last_reported":1741999673,"current_range_meters":14800,"station_id":"ce4bhih2rcd13ifvqfr0","pricing_plan_id":"cebpf4jnsgd1na2vs0mg"},{"bike_id":"d186dcb0-0024-40f4-a78f-fc94ed9a4a15","system_id":"levelo_inurba_marseille","lat":43.30802,"lon":5.38162,"is_reserved":false,"is_disabled":false,"rental_uris":{"android":"levelo://app?vid=d186dcb0-0024-40f4-a78f-fc94ed9a4a15","ios":"levelo://app?vid=d186dcb0-0024-40f4-a78f-fc94ed9a4a15"},"vehicle_type_id":"4","last_reported":1741999673,"current_range_meters":14800,"station_id":"ce4bgt12rcd13ifvqce0","pricing_plan_id":"cebpf4jnsgd1na2vs0mg"},{"bike_id":"7d24174d-d10b-414c-be10-a866c2e24646","system_id":"levelo_inurba_marseille","lat":43.30524,"lon":5.36698,"is_reserved":false,"is_disabled":false,"rental_uris":{"android":"levelo://app?vid=7d24174d-d10b-414c-be10-a866c2e24646","ios":"levelo://app?vid=7d24174d-d10b-414c-be10-a866c2e24646"},"vehicle_type_id":"4","last_reported":1741999673,"current_range_meters":14800,"station_id":"ce4bgrp2rcd13ifvqc9g","pricing_plan_id":"cebpf4jnsgd1na2vs0mg"},{"bike_id":"70a9dae6-0751-44a7-a466-b90e3d6b1ff5","system_id":"levelo_inurba_marseille","lat":43.31719,"lon":5.42391,"is_reserved":false,"is_disabled":false,"rental_uris":{"android":"levelo://app?vid=70a9dae6-0751-44a7-a466-b90e3d6b1ff5","ios":"levelo://app?vid=70a9dae6-0751-44a7-a466-b90e3d6b1ff5"},"vehicle_type_id":"4","last_reported":1741999673,"current_range_meters":15200,"station_id":"ce4bhp92rcd13ifvqhbg","pricing_plan_id":"cebpf4jnsgd1na2vs0mg"},{"bike_id":"782eb9b5-ef5a-4a8d-aefb-e596ead395e2","system_id":"levelo_inurba_marseille","lat":43.31073,"lon":5.38342,"is_reserved":false,"is_disabled":false,"rental_uris":{"android":"levelo://app?vid=782eb9b5-ef5a-4a8d-aefb-e596ead395e2","ios":"levelo://app?vid=782eb9b5-ef5a-4a8d-aefb-e596ead395e2"},"vehicle_type_id":"4","last_reported":1741999673,"current_range_meters":15200,"station_id":"ce4bgv92rcd13ifvqcr0","pricing_plan_id":"cebpf4jnsgd1na2vs0mg"},{"bike_id":"499ff7ab-d11c-4262-8d57-15b3a0da69b5","system_id":"levelo_inurba_marseille","lat":43.31378,"lon":5.38493,"is_reserved":false,"is_disabled":false,"rental_uris":{"android":"levelo://app?vid=499ff7ab-d11c-4262-8d57-15b3a0da69b5","ios":"levelo://app?vid=499ff7ab-d11c-4262-8d57-15b3a0da69b5"},"vehicle_type_id":"4","last_reported":1741999673,"current_range_meters":15200,"station_id":"ce4bgt92rcd13ifvqcf0","pricing_plan_id":"cebpf4jnsgd1na2vs0mg"},{"bike_id":"bc325179-8381-47ee-9310-5416cdb795e2","system_id":"levelo_inurba_marseille","lat":43.28256,"lon":5.35058,"is_reserved":false,"is_disabled":false,"rental_uris":{"android":"levelo://app?vid=bc325179-8381-47ee-9310-5416cdb795e2","ios":"levelo://app?vid=bc325179-8381-47ee-9310-5416cdb795e2"},"vehicle_type_id":"4","last_reported":1741999673,"current_range_meters":15200,"station_id":"ce4bhbp2rcd13ifvqerg","pricing_plan_id":"cebpf4jnsgd1na2vs0mg"},{"bike_id":"52d5c875-3609-4039-a86e-3e5108b5309e","system_id":"levelo_inurba_marseille","lat":43.29211,"lon":5.36061,"is_reserved":false,"is_disabled":false,"rental_uris":{"android":"levelo://app?vid=52d5c875-3609-4039-a86e-3e5108b5309e","ios":"levelo://app?vid=52d5c875-3609-4039-a86e-3e5108b5309e"},"vehicle_type_id":"4","last_reported":1741999673,"current_range_meters":15200,"station_id":"ce4bhbh2rcd13ifvqeqg","pricing_plan_id":"cebpf4jnsgd1na2vs0mg"},{"bike_id":"ecda60d8-e769-4fb2-a5bc-5ac96d22c9ed","system_id":"levelo_inurba_marseille","lat":43.28461,"lon":5.35884,"is_reserved":false,"is_disabled":false,"rental_uris":{"android":"levelo://app?vid=ecda60d8-e769-4fb2-a5bc-5ac96d22c9ed","ios":"levelo://app?vid=ecda60d8-e769-4fb2-a5bc-5ac96d22c9ed"},"vehicle_type_id":"4","last_reported":1741999673,"current_range_meters":15200,"station_id":"ce4bhah2rcd13ifvqei0","pricing_plan_id":"cebpf4jnsgd1na2vs0mg"},{"bike_id":"87b7f147-0ac2-4b35-8bcc-3f02f503bd7c","system_id":"levelo_inurba_marseille","lat":43.262048,"lon":5.37922,"is_reserved":false,"is_disabled":false,"rental_uris":{"android":"levelo://app?vid=87b7f147-0ac2-4b35-8bcc-3f02f503bd7c","ios":"levelo://app?vid=87b7f147-0ac2-4b35-8bcc-3f02f503bd7c"},"vehicle_type_id":"4","last_reported":1741999673,"current_range_meters":15200,"station_id":"ce4bhjp2rcd13ifvqg90","pricing_plan_id":"cebpf4jnsgd1na2vs0mg"},{"bike_id":"72fe4211-136e-488e-9061-f6d73fb7ebbf","system_id":"levelo_inurba_marseille","lat":43.27954,"lon":5.41027,"is_reserved":false,"is_disabled":false,"rental_uris":{"android":"levelo://app?vid=72fe4211-136e-488e-9061-f6d73fb7ebbf","ios":"levelo://app?vid=72fe4211-136e-488e-9061-f6d73fb7ebbf"},"vehicle_type_id":"4","last_reported":1741999673,"current_range_meters":16000,"station_id":"ce4bhnp2rcd13ifvqh0g","pricing_plan_id":"cebpf4jnsgd1na2vs0mg"},{"bike_id":"e4707e5a-e110-4ffd-9df1-9231b2a68740","system_id":"levelo_inurba_marseille","lat":43.27995,"lon":5.40017,"is_reserved":false,"is_disabled":false,"rental_uris":{"android":"levelo://app?vid=e4707e5a-e110-4ffd-9df1-9231b2a68740","ios":"levelo://app?vid=e4707e5a-e110-4ffd-9df1-9231b2a68740"},"vehicle_type_id":"4","last_reported":1741999673,"current_range_meters":16000,"station_id":"ce4bho92rcd13ifvqh4g","pricing_plan_id":"cebpf4jnsgd1na2vs0mg"},{"bike_id":"74f2950d-f639-4809-bff2-7e52cd116e06","system_id":"levelo_inurba_marseille","lat":43.23154,"lon":5.43714,"is_reserved":false,"is_disabled":false,"rental_uris":{"android":"levelo://app?vid=74f2950d-f639-4809-bff2-7e52cd116e06","ios":"levelo://app?vid=74f2950d-f639-4809-bff2-7e52cd116e06"},"vehicle_type_id":"4","last_reported":1741999673,"current_range_meters":16000,"station_id":"ce4bhmp2rcd13ifvqgog","pricing_plan_id":"cebpf4jnsgd1na2vs0mg"},{"bike_id":"412b9149-277a-4815-8fa9-3e7a792a0332","system_id":"levelo_inurba_marseille","lat":43.28071,"lon":5.39619,"is_reserved":false,"is_disabled":false,"rental_uris":{"android":"levelo://app?vid=412b9149-277a-4815-8fa9-3e7a792a0332","ios":"levelo://app?vid=412b9149-277a-4815-8fa9-3e7a792a0332"},"vehicle_type_id":"4","last_reported":1741999673,"current_range_meters":16000,"station_id":"ce4bho12rcd13ifvqh2g","pricing_plan_id":"cebpf4jnsgd1na2vs0mg"},{"bike_id":"608f0462-484e-441f-9837-82475dce48ee","system_id":"levelo_inurba_marseille","lat":43.29908,"lon":5.4364,"is_reserved":false,"is_disabled":false,"rental_uris":{"android":"levelo://app?vid=608f0462-484e-441f-9837-82475dce48ee","ios":"levelo://app?vid=608f0462-484e-441f-9837-82475dce48ee"},"vehicle_type_id":"4","last_reported":1741999673,"current_range_meters":16000,"station_id":"ce4bhpp2rcd13ifvqhfg","pricing_plan_id":"cebpf4jnsgd1na2vs0mg"},{"bike_id":"67ba5532-a4de-45d0-bd2d-aa06a7264fb6","system_id":"levelo_inurba_marseille","lat":43.30902,"lon":5.37206,"is_reserved":false,"is_disabled":false,"rental_uris":{"android":"levelo://app?vid=67ba5532-a4de-45d0-bd2d-aa06a7264fb6","ios":"levelo://app?vid=67ba5532-a4de-45d0-bd2d-aa06a7264fb6"},"vehicle_type_id":"4","last_reported":1741999673,"current_range_meters":16000,"station_id":"ce4bguh2rcd13ifvqckg","pricing_plan_id":"cebpf4jnsgd1na2vs0mg"},{"bike_id":"f0d3291f-33ff-4a36-afc1-5ee1dcf854db","system_id":"levelo_inurba_marseille","lat":43.27067,"lon":5.40247,"is_reserved":false,"is_disabled":false,"rental_uris":{"android":"levelo://app?vid=f0d3291f-33ff-4a36-afc1-5ee1dcf854db","ios":"levelo://app?vid=f0d3291f-33ff-4a36-afc1-5ee1dcf854db"},"vehicle_type_id":"4","last_reported":1741999673,"current_range_meters":16000,"station_id":"ce4bhk92rcd13ifvqgc0","pricing_plan_id":"cebpf4jnsgd1na2vs0mg"},{"bike_id":"dbd2bb0e-ea3e-4793-94a9-4f22a304dc71","system_id":"levelo_inurba_marseille","lat":43.28438,"lon":5.39192,"is_reserved":false,"is_disabled":false,"rental_uris":{"android":"levelo://app?vid=dbd2bb0e-ea3e-4793-94a9-4f22a304dc71","ios":"levelo://app?vid=dbd2bb0e-ea3e-4793-94a9-4f22a304dc71"},"vehicle_type_id":"4","last_reported":1741999673,"current_range_meters":16000,"station_id":"ce4bhoh2rcd13ifvqh5g","pricing_plan_id":"cebpf4jnsgd1na2vs0mg"},{"bike_id":"11e69b77-91b1-40db-80d5-d5392d177271","system_id":"levelo_inurba_marseille","lat":43.30648,"lon":5.40089,"is_reserved":false,"is_disabled":false,"rental_uris":{"android":"levelo://app?vid=11e69b77-91b1-40db-80d5-d5392d177271","ios":"levelo://app?vid=11e69b77-91b1-40db-80d5-d5392d177271"},"vehicle_type_id":"4","last_reported":1741999673,"current_range_meters":16000,"station_id":"ce4bh112rcd13ifvqda0","pricing_plan_id":"cebpf4jnsgd1na2vs0mg"},{"bike_id":"35170032-9fbd-466b-b080-21388ed7720a","system_id":"levelo_inurba_marseille","lat":43.25088,"lon":5.39508,"is_reserved":false,"is_disabled":false,"rental_uris":{"android":"levelo://app?vid=35170032-9fbd-466b-b080-21388ed7720a","ios":"levelo://app?vid=35170032-9fbd-466b-b080-21388ed7720a"},"vehicle_type_id":"4","last_reported":1741999673,"current_range_meters":16400,"station_id":"ce4bhm12rcd13ifvqgkg","pricing_plan_id":"cebpf4jnsgd1na2vs0mg"},{"bike_id":"0bc6a9f6-d6d4-4730-b2c6-af1e33f07c18","system_id":"levelo_inurba_marseille","lat":43.29879,"lon":5.37632,"is_reserved":false,"is_disabled":false,"rental_uris":{"android":"levelo://app?vid=0bc6a9f6-d6d4-4730-b2c6-af1e33f07c18","ios":"levelo://app?vid=0bc6a9f6-d6d4-4730-b2c6-af1e33f07c18"},"vehicle_type_id":"4","last_reported":1741999673,"current_range_meters":16400,"station_id":"","pricing_plan_id":"cebpf4jnsgd1na2vs0mg"},{"bike_id":"fc071de1-2cc0-488a-a43e-f8037a5a9a49","system_id":"levelo_inurba_marseille","lat":43.230708,"lon":5.35503,"is_reserved":false,"is_disabled":false,"rental_uris":{"android":"levelo://app?vid=fc071de1-2cc0-488a-a43e-f8037a5a9a49","ios":"levelo://app?vid=fc071de1-2cc0-488a-a43e-f8037a5a9a49"},"vehicle_type_id":"4","last_reported":1741999673,"current_range_meters":16400,"station_id":"cpo3342slgdg3j2ifvpg","pricing_plan_id":"cebpf4jnsgd1na2vs0mg"},{"bike_id":"d751a31e-a518-44cc-8641-315d036d1e06","system_id":"levelo_inurba_marseille","lat":43.29878,"lon":5.39748,"is_reserved":false,"is_disabled":true,"rental_uris":{"android":"levelo://app?vid=d751a31e-a518-44cc-8641-315d036d1e06","ios":"levelo://app?vid=d751a31e-a518-44cc-8641-315d036d1e06"},"vehicle_type_id":"4","last_reported":1741999673,"current_range_meters":16400,"station_id":"ce4bh0h2rcd13ifvqd50","pricing_plan_id":"cebpf4jnsgd1na2vs0mg"},{"bike_id":"9bedb5e4-4d9a-4082-9f39-f9e9277ed09c","system_id":"levelo_inurba_marseille","lat":43.29231,"lon":5.42836,"is_reserved":false,"is_disabled":false,"rental_uris":{"android":"levelo://app?vid=9bedb5e4-4d9a-4082-9f39-f9e9277ed09c","ios":"levelo://app?vid=9bedb5e4-4d9a-4082-9f39-f9e9277ed09c"},"vehicle_type_id":"4","last_reported":1741999673,"current_range_meters":16400,"station_id":"","pricing_plan_id":"cebpf4jnsgd1na2vs0mg"},{"bike_id":"accfdc4b-4238-44f1-a8ab-24de8afec399","system_id":"levelo_inurba_marseille","lat":43.29197,"lon":5.39328,"is_reserved":false,"is_disabled":false,"rental_uris":{"android":"levelo://app?vid=accfdc4b-4238-44f1-a8ab-24de8afec399","ios":"levelo://app?vid=accfdc4b-4238-44f1-a8ab-24de8afec399"},"vehicle_type_id":"4","last_reported":1741999673,"current_range_meters":16800,"station_id":"ce4bh192rcd13ifvqdd0","pricing_plan_id":"cebpf4jnsgd1na2vs0mg"},{"bike_id":"f313e511-70a9-4d28-9105-f80f9ce3e50c","system_id":"levelo_inurba_marseille","lat":43.23969,"lon":5.36618,"is_reserved":false,"is_disabled":false,"rental_uris":{"android":"levelo://app?vid=f313e511-70a9-4d28-9105-f80f9ce3e50c","ios":"levelo://app?vid=f313e511-70a9-4d28-9105-f80f9ce3e50c"},"vehicle_type_id":"4","last_reported":1741999673,"current_range_meters":16400,"station_id":"ce4bhi12rcd13ifvqfp0","pricing_plan_id":"cebpf4jnsgd1na2vs0mg"},{"bike_id":"a7bf43f3-dbf8-47c3-97b2-b3dfd7ac0119","system_id":"levelo_inurba_marseille","lat":43.30546,"lon":5.36528,"is_reserved":false,"is_disabled":false,"rental_uris":{"android":"levelo://app?vid=a7bf43f3-dbf8-47c3-97b2-b3dfd7ac0119","ios":"levelo://app?vid=a7bf43f3-dbf8-47c3-97b2-b3dfd7ac0119"},"vehicle_type_id":"4","last_reported":1741999673,"current_range_meters":16400,"station_id":"ce4bgs12rcd13ifvqcag","pricing_plan_id":"cebpf4jnsgd1na2vs0mg"},{"bike_id":"78df367a-4264-4241-a94f-f890135b7404","system_id":"levelo_inurba_marseille","lat":43.33611,"lon":5.41023,"is_reserved":false,"is_disabled":false,"rental_uris":{"android":"levelo://app?vid=78df367a-4264-4241-a94f-f890135b7404","ios":"levelo://app?vid=78df367a-4264-4241-a94f-f890135b7404"},"vehicle_type_id":"4","last_reported":1741999673,"current_range_meters":16400,"station_id":"ce4bhqh2rcd13ifvqhmg","pricing_plan_id":"cebpf4jnsgd1na2vs0mg"},{"bike_id":"be34e346-6cd0-49dc-bc60-f4bbfdaefa50","system_id":"levelo_inurba_marseille","lat":43.27908,"lon":5.39569,"is_reserved":false,"is_disabled":false,"rental_uris":{"android":"levelo://app?vid=be34e346-6cd0-49dc-bc60-f4bbfdaefa50","ios":"levelo://app?vid=be34e346-6cd0-49dc-bc60-f4bbfdaefa50"},"vehicle_type_id":"4","last_reported":1741999673,"current_range_meters":16400,"station_id":"ce4bhf92rcd13ifvqf40","pricing_plan_id":"cebpf4jnsgd1na2vs0mg"},{"bike_id":"27bac330-d155-49e8-82e6-eb8b69d07d77","system_id":"levelo_inurba_marseille","lat":43.30191,"lon":5.36603,"is_reserved":false,"is_disabled":false,"rental_uris":{"android":"levelo://app?vid=27bac330-d155-49e8-82e6-eb8b69d07d77","ios":"levelo://app?vid=27bac330-d155-49e8-82e6-eb8b69d07d77"},"vehicle_type_id":"4","last_reported":1741999673,"current_range_meters":16400,"station_id":"ce4bgrh2rcd13ifvqc8g","pricing_plan_id":"cebpf4jnsgd1na2vs0mg"},{"bike_id":"c91f2968-ce52-454b-80cc-634963da4390","system_id":"levelo_inurba_marseille","lat":43.32338,"lon":5.40625,"is_reserved":false,"is_disabled":false,"rental_uris":{"android":"levelo://app?vid=c91f2968-ce52-454b-80cc-634963da4390","ios":"levelo://app?vid=c91f2968-ce52-454b-80cc-634963da4390"},"vehicle_type_id":"4","last_reported":1741999673,"current_range_meters":16400,"station_id":"ce4bhq92rcd13ifvqhjg","pricing_plan_id":"cebpf4jnsgd1na2vs0mg"},{"bike_id":"3a89315b-62de-4a2c-a0ba-c40dd86a913d","system_id":"levelo_inurba_marseille","lat":43.27064,"lon":5.40259,"is_reserved":false,"is_disabled":false,"rental_uris":{"android":"levelo://app?vid=3a89315b-62de-4a2c-a0ba-c40dd86a913d","ios":"levelo://app?vid=3a89315b-62de-4a2c-a0ba-c40dd86a913d"},"vehicle_type_id":"4","last_reported":1741999673,"current_range_meters":16400,"station_id":"ce4bhk92rcd13ifvqgc0","pricing_plan_id":"cebpf4jnsgd1na2vs0mg"},{"bike_id":"71b342b8-694b-40d5-99e8-310baf77a970","system_id":"levelo_inurba_marseille","lat":43.23069,"lon":5.35495,"is_reserved":false,"is_disabled":false,"rental_uris":{"android":"levelo://app?vid=71b342b8-694b-40d5-99e8-310baf77a970","ios":"levelo://app?vid=71b342b8-694b-40d5-99e8-310baf77a970"},"vehicle_type_id":"4","last_reported":1741999673,"current_range_meters":16800,"station_id":"cpo3342slgdg3j2ifvpg","pricing_plan_id":"cebpf4jnsgd1na2vs0mg"},{"bike_id":"db40d3df-6d0c-41e5-9e37-8dff130688aa","system_id":"levelo_inurba_marseille","lat":43.30809,"lon":5.38147,"is_reserved":false,"is_disabled":false,"rental_uris":{"android":"levelo://app?vid=db40d3df-6d0c-41e5-9e37-8dff130688aa","ios":"levelo://app?vid=db40d3df-6d0c-41e5-9e37-8dff130688aa"},"vehicle_type_id":"4","last_reported":1741999673,"current_range_meters":16800,"station_id":"ce4bgt12rcd13ifvqce0","pricing_plan_id":"cebpf4jnsgd1na2vs0mg"},{"bike_id":"90c707aa-0edc-4e94-a911-252e6bd4d4c2","system_id":"levelo_inurba_marseille","lat":43.28648,"lon":5.35091,"is_reserved":false,"is_disabled":false,"rental_uris":{"android":"levelo://app?vid=90c707aa-0edc-4e94-a911-252e6bd4d4c2","ios":"levelo://app?vid=90c707aa-0edc-4e94-a911-252e6bd4d4c2"},"vehicle_type_id":"4","last_reported":1741999673,"current_range_meters":16800,"station_id":"ce4bhch2rcd13ifvqeug","pricing_plan_id":"cebpf4jnsgd1na2vs0mg"},{"bike_id":"d6c1e643-2051-4138-a9f8-7f38af5902dd","system_id":"levelo_inurba_marseille","lat":43.30667,"lon":5.40092,"is_reserved":false,"is_disabled":false,"rental_uris":{"android":"levelo://app?vid=d6c1e643-2051-4138-a9f8-7f38af5902dd","ios":"levelo://app?vid=d6c1e643-2051-4138-a9f8-7f38af5902dd"},"vehicle_type_id":"4","last_reported":1741999673,"current_range_meters":16800,"station_id":"ce4bh112rcd13ifvqda0","pricing_plan_id":"cebpf4jnsgd1na2vs0mg"},{"bike_id":"c69a0189-c69b-46b7-bf01-ed8fa65f4cbc","system_id":"levelo_inurba_marseille","lat":43.29009,"lon":5.35605,"is_reserved":false,"is_disabled":false,"rental_uris":{"android":"levelo://app?vid=c69a0189-c69b-46b7-bf01-ed8fa65f4cbc","ios":"levelo://app?vid=c69a0189-c69b-46b7-bf01-ed8fa65f4cbc"},"vehicle_type_id":"4","last_reported":1741999673,"current_range_meters":16800,"station_id":"ce4bhb92rcd13ifvqen0","pricing_plan_id":"cebpf4jnsgd1na2vs0mg"},{"bike_id":"cf074f65-a36e-4f38-b1b9-78bc16980a0d","system_id":"levelo_inurba_marseille","lat":43.2794,"lon":5.41036,"is_reserved":false,"is_disabled":false,"rental_uris":{"android":"levelo://app?vid=cf074f65-a36e-4f38-b1b9-78bc16980a0d","ios":"levelo://app?vid=cf074f65-a36e-4f38-b1b9-78bc16980a0d"},"vehicle_type_id":"4","last_reported":1741999673,"current_range_meters":16800,"station_id":"ce4bhnp2rcd13ifvqh0g","pricing_plan_id":"cebpf4jnsgd1na2vs0mg"},{"bike_id":"8dee89b1-f251-449e-a212-f0a0e46943ef","system_id":"levelo_inurba_marseille","lat":43.27619,"lon":5.36114,"is_reserved":false,"is_disabled":false,"rental_uris":{"android":"levelo://app?vid=8dee89b1-f251-449e-a212-f0a0e46943ef","ios":"levelo://app?vid=8dee89b1-f251-449e-a212-f0a0e46943ef"},"vehicle_type_id":"4","last_reported":1741999673,"current_range_meters":16800,"station_id":"ce4bgj92rcd13ifvqbe0","pricing_plan_id":"cebpf4jnsgd1na2vs0mg"},{"bike_id":"e1bc5517-89cc-4fbd-afdb-e8d3c61b8e55","system_id":"levelo_inurba_marseille","lat":43.32367,"lon":5.36756,"is_reserved":false,"is_disabled":false,"rental_uris":{"android":"levelo://app?vid=e1bc5517-89cc-4fbd-afdb-e8d3c61b8e55","ios":"levelo://app?vid=e1bc5517-89cc-4fbd-afdb-e8d3c61b8e55"},"vehicle_type_id":"4","last_reported":1741999673,"current_range_meters":16800,"station_id":"ce4bhsh2rcd13ifvqi2g","pricing_plan_id":"cebpf4jnsgd1na2vs0mg"},{"bike_id":"df2bd365-182b-4a07-b573-1593f98b410a","system_id":"levelo_inurba_marseille","lat":43.28738,"lon":5.361,"is_reserved":false,"is_disabled":true,"rental_uris":{"android":"levelo://app?vid=df2bd365-182b-4a07-b573-1593f98b410a","ios":"levelo://app?vid=df2bd365-182b-4a07-b573-1593f98b410a"},"vehicle_type_id":"4","last_reported":1741999673,"current_range_meters":16800,"station_id":"cki0cbj6b192h4jlfktg","pricing_plan_id":"cebpf4jnsgd1na2vs0mg"},{"bike_id":"530dcf3f-baa5-4f42-b9c7-b4b5afe3c2c8","system_id":"levelo_inurba_marseille","lat":43.30336,"lon":5.40434,"is_reserved":false,"is_disabled":false,"rental_uris":{"android":"levelo://app?vid=530dcf3f-baa5-4f42-b9c7-b4b5afe3c2c8","ios":"levelo://app?vid=530dcf3f-baa5-4f42-b9c7-b4b5afe3c2c8"},"vehicle_type_id":"4","last_reported":1741999673,"current_range_meters":16800,"station_id":"ce4bh012rcd13ifvqd10","pricing_plan_id":"cebpf4jnsgd1na2vs0mg"},{"bike_id":"d0d0f588-98ee-4052-bfb2-da2b67165807","system_id":"levelo_inurba_marseille","lat":43.29276,"lon":5.40129,"is_reserved":false,"is_disabled":false,"rental_uris":{"android":"levelo://app?vid=d0d0f588-98ee-4052-bfb2-da2b67165807","ios":"levelo://app?vid=d0d0f588-98ee-4052-bfb2-da2b67165807"},"vehicle_type_id":"4","last_reported":1741999673,"current_range_meters":16800,"station_id":"ce4bh312rcd13ifvqdk0","pricing_plan_id":"cebpf4jnsgd1na2vs0mg"},{"bike_id":"013ced06-6d05-49d1-9ddf-da80dc2a951b","system_id":"levelo_inurba_marseille","lat":43.26685,"lon":5.38273,"is_reserved":false,"is_disabled":false,"rental_uris":{"android":"levelo://app?vid=013ced06-6d05-49d1-9ddf-da80dc2a951b","ios":"levelo://app?vid=013ced06-6d05-49d1-9ddf-da80dc2a951b"},"vehicle_type_id":"4","last_reported":1741999673,"current_range_meters":17200,"station_id":"ce4bhg92rcd13ifvqf90","pricing_plan_id":"cebpf4jnsgd1na2vs0mg"},{"bike_id":"76dc6b54-d734-46aa-a193-49b39ec79b75","system_id":"levelo_inurba_marseille","lat":43.33735,"lon":5.39191,"is_reserved":false,"is_disabled":false,"rental_uris":{"android":"levelo://app?vid=76dc6b54-d734-46aa-a193-49b39ec79b75","ios":"levelo://app?vid=76dc6b54-d734-46aa-a193-49b39ec79b75"},"vehicle_type_id":"4","last_reported":1741999673,"current_range_meters":17200,"station_id":"ce4bhr92rcd13ifvqhsg","pricing_plan_id":"cebpf4jnsgd1na2vs0mg"},{"bike_id":"f238c0df-d3c9-4577-a186-a5d3f05e229a","system_id":"levelo_inurba_marseille","lat":43.25827,"lon":5.3943,"is_reserved":false,"is_disabled":false,"rental_uris":{"android":"levelo://app?vid=f238c0df-d3c9-4577-a186-a5d3f05e229a","ios":"levelo://app?vid=f238c0df-d3c9-4577-a186-a5d3f05e229a"},"vehicle_type_id":"4","last_reported":1741999673,"current_range_meters":17200,"station_id":"ce4bhip2rcd13ifvqft0","pricing_plan_id":"cebpf4jnsgd1na2vs0mg"},{"bike_id":"75ebe34f-5d4b-460d-b499-ed580d805b1d","system_id":"levelo_inurba_marseille","lat":43.2938,"lon":5.37833,"is_reserved":false,"is_disabled":false,"rental_uris":{"android":"levelo://app?vid=75ebe34f-5d4b-460d-b499-ed580d805b1d","ios":"levelo://app?vid=75ebe34f-5d4b-460d-b499-ed580d805b1d"},"vehicle_type_id":"4","last_reported":1741999673,"current_range_meters":17200,"station_id":"ce4bgjh2rcd13ifvqbf0","pricing_plan_id":"cebpf4jnsgd1na2vs0mg"},{"bike_id":"72977fa7-7343-4cff-8728-965991106263","system_id":"levelo_inurba_marseille","lat":43.29634,"lon":5.37151,"is_reserved":false,"is_disabled":false,"rental_uris":{"android":"levelo://app?vid=72977fa7-7343-4cff-8728-965991106263","ios":"levelo://app?vid=72977fa7-7343-4cff-8728-965991106263"},"vehicle_type_id":"4","last_reported":1741999673,"current_range_meters":17200,"station_id":"ce4bgnh2rcd13ifvqc0g","pricing_plan_id":"cebpf4jnsgd1na2vs0mg"},{"bike_id":"e056e6b6-6680-4fc7-b2ee-2dca251ca582","system_id":"levelo_inurba_marseille","lat":43.26579,"lon":5.39032,"is_reserved":false,"is_disabled":false,"rental_uris":{"android":"levelo://app?vid=e056e6b6-6680-4fc7-b2ee-2dca251ca582","ios":"levelo://app?vid=e056e6b6-6680-4fc7-b2ee-2dca251ca582"},"vehicle_type_id":"4","last_reported":1741999673,"current_range_meters":17200,"station_id":"ce4bhe12rcd13ifvqf30","pricing_plan_id":"cebpf4jnsgd1na2vs0mg"},{"bike_id":"f3d5cf73-fed0-4a2f-88af-fa0601be96dd","system_id":"levelo_inurba_marseille","lat":43.27173,"lon":5.40984,"is_reserved":false,"is_disabled":false,"rental_uris":{"android":"levelo://app?vid=f3d5cf73-fed0-4a2f-88af-fa0601be96dd","ios":"levelo://app?vid=f3d5cf73-fed0-4a2f-88af-fa0601be96dd"},"vehicle_type_id":"4","last_reported":1741999673,"current_range_meters":17200,"station_id":"ce4bhl12rcd13ifvqgf0","pricing_plan_id":"cebpf4jnsgd1na2vs0mg"},{"bike_id":"d20b1ea1-68d8-4d84-b2b2-7af425a1c02d","system_id":"levelo_inurba_marseille","lat":43.269419,"lon":5.402479,"is_reserved":false,"is_disabled":false,"rental_uris":{"android":"levelo://app?vid=d20b1ea1-68d8-4d84-b2b2-7af425a1c02d","ios":"levelo://app?vid=d20b1ea1-68d8-4d84-b2b2-7af425a1c02d"},"vehicle_type_id":"4","last_reported":1741999673,"current_range_meters":17200,"station_id":"cjm6bp8fraef2m0cb0m0","pricing_plan_id":"cebpf4jnsgd1na2vs0mg"},{"bike_id":"efa182c5-e8bb-4316-9ac4-4d06270b10d4","system_id":"levelo_inurba_marseille","lat":43.323648,"lon":5.388885,"is_reserved":false,"is_disabled":false,"rental_uris":{"android":"levelo://app?vid=efa182c5-e8bb-4316-9ac4-4d06270b10d4","ios":"levelo://app?vid=efa182c5-e8bb-4316-9ac4-4d06270b10d4"},"vehicle_type_id":"4","last_reported":1741999673,"current_range_meters":17200,"station_id":"ce4bhqp2rcd13ifvqhog","pricing_plan_id":"cebpf4jnsgd1na2vs0mg"},{"bike_id":"f0bca22f-e209-4fd9-b311-4c3b7896a530","system_id":"levelo_inurba_marseille","lat":43.29802,"lon":5.40394,"is_reserved":false,"is_disabled":false,"rental_uris":{"android":"levelo://app?vid=f0bca22f-e209-4fd9-b311-4c3b7896a530","ios":"levelo://app?vid=f0bca22f-e209-4fd9-b311-4c3b7896a530"},"vehicle_type_id":"4","last_reported":1741999673,"current_range_meters":17200,"station_id":"ce4bh112rcd13ifvqd90","pricing_plan_id":"cebpf4jnsgd1na2vs0mg"},{"bike_id":"9dd6cc25-dfe0-469f-88d2-6f805756b4c9","system_id":"levelo_inurba_marseille","lat":43.28664,"lon":5.3635,"is_reserved":false,"is_disabled":false,"rental_uris":{"android":"levelo://app?vid=9dd6cc25-dfe0-469f-88d2-6f805756b4c9","ios":"levelo://app?vid=9dd6cc25-dfe0-469f-88d2-6f805756b4c9"},"vehicle_type_id":"4","last_reported":1741999673,"current_range_meters":17600,"station_id":"ce4bhah2rcd13ifvqej0","pricing_plan_id":"cebpf4jnsgd1na2vs0mg"},{"bike_id":"6850f114-f664-4675-ae66-935c99a0db8e","system_id":"levelo_inurba_marseille","lat":43.27049,"lon":5.40264,"is_reserved":false,"is_disabled":false,"rental_uris":{"android":"levelo://app?vid=6850f114-f664-4675-ae66-935c99a0db8e","ios":"levelo://app?vid=6850f114-f664-4675-ae66-935c99a0db8e"},"vehicle_type_id":"4","last_reported":1741999673,"current_range_meters":17600,"station_id":"ce4bhk92rcd13ifvqgc0","pricing_plan_id":"cebpf4jnsgd1na2vs0mg"},{"bike_id":"ed968fdb-84da-4c7e-9e7e-2ee0ac6d6123","system_id":"levelo_inurba_marseille","lat":43.2808,"lon":5.3964,"is_reserved":false,"is_disabled":false,"rental_uris":{"android":"levelo://app?vid=ed968fdb-84da-4c7e-9e7e-2ee0ac6d6123","ios":"levelo://app?vid=ed968fdb-84da-4c7e-9e7e-2ee0ac6d6123"},"vehicle_type_id":"4","last_reported":1741999673,"current_range_meters":17600,"station_id":"ce4bho12rcd13ifvqh2g","pricing_plan_id":"cebpf4jnsgd1na2vs0mg"},{"bike_id":"2e11829c-c539-4249-a99d-d72cb2a8e369","system_id":"levelo_inurba_marseille","lat":43.28868,"lon":5.3584,"is_reserved":false,"is_disabled":false,"rental_uris":{"android":"levelo://app?vid=2e11829c-c539-4249-a99d-d72cb2a8e369","ios":"levelo://app?vid=2e11829c-c539-4249-a99d-d72cb2a8e369"},"vehicle_type_id":"4","last_reported":1741999673,"current_range_meters":17600,"station_id":"ce4bhb12rcd13ifvqem0","pricing_plan_id":"cebpf4jnsgd1na2vs0mg"},{"bike_id":"3211dbf9-b186-4905-8464-44c5efcdf2b4","system_id":"levelo_inurba_marseille","lat":43.30182,"lon":5.3662,"is_reserved":false,"is_disabled":false,"rental_uris":{"android":"levelo://app?vid=3211dbf9-b186-4905-8464-44c5efcdf2b4","ios":"levelo://app?vid=3211dbf9-b186-4905-8464-44c5efcdf2b4"},"vehicle_type_id":"4","last_reported":1741999673,"current_range_meters":17600,"station_id":"ce4bgrh2rcd13ifvqc8g","pricing_plan_id":"cebpf4jnsgd1na2vs0mg"},{"bike_id":"4d20b878-6603-4328-ab6e-4a7ae0b08224","system_id":"levelo_inurba_marseille","lat":43.259375,"lon":5.408955,"is_reserved":false,"is_disabled":false,"rental_uris":{"android":"levelo://app?vid=4d20b878-6603-4328-ab6e-4a7ae0b08224","ios":"levelo://app?vid=4d20b878-6603-4328-ab6e-4a7ae0b08224"},"vehicle_type_id":"4","last_reported":1741999673,"current_range_meters":17600,"station_id":"ce4bhm92rcd13ifvqglg","pricing_plan_id":"cebpf4jnsgd1na2vs0mg"},{"bike_id":"97c16333-56a4-4776-b7c1-d9dd492a2e54","system_id":"levelo_inurba_marseille","lat":43.29281,"lon":5.40111,"is_reserved":false,"is_disabled":false,"rental_uris":{"android":"levelo://app?vid=97c16333-56a4-4776-b7c1-d9dd492a2e54","ios":"levelo://app?vid=97c16333-56a4-4776-b7c1-d9dd492a2e54"},"vehicle_type_id":"4","last_reported":1741999673,"current_range_meters":17600,"station_id":"ce4bh312rcd13ifvqdk0","pricing_plan_id":"cebpf4jnsgd1na2vs0mg"},{"bike_id":"f709cb7e-4bd4-4503-ab85-447b0bd380b5","system_id":"levelo_inurba_marseille","lat":43.32341,"lon":5.3889,"is_reserved":false,"is_disabled":false,"rental_uris":{"android":"levelo://app?vid=f709cb7e-4bd4-4503-ab85-447b0bd380b5","ios":"levelo://app?vid=f709cb7e-4bd4-4503-ab85-447b0bd380b5"},"vehicle_type_id":"4","last_reported":1741999673,"current_range_meters":17600,"station_id":"ce4bhqp2rcd13ifvqhog","pricing_plan_id":"cebpf4jnsgd1na2vs0mg"},{"bike_id":"ece2352d-d6b5-45d3-b559-b4ee2c355f56","system_id":"levelo_inurba_marseille","lat":43.258,"lon":5.39434,"is_reserved":false,"is_disabled":false,"rental_uris":{"android":"levelo://app?vid=ece2352d-d6b5-45d3-b559-b4ee2c355f56","ios":"levelo://app?vid=ece2352d-d6b5-45d3-b559-b4ee2c355f56"},"vehicle_type_id":"4","last_reported":1741999673,"current_range_meters":17600,"station_id":"ce4bhip2rcd13ifvqft0","pricing_plan_id":"cebpf4jnsgd1na2vs0mg"},{"bike_id":"f8a4fd1f-8768-49cb-a929-fdc4f5463ccd","system_id":"levelo_inurba_marseille","lat":43.30155,"lon":5.3741,"is_reserved":false,"is_disabled":false,"rental_uris":{"android":"levelo://app?vid=f8a4fd1f-8768-49cb-a929-fdc4f5463ccd","ios":"levelo://app?vid=f8a4fd1f-8768-49cb-a929-fdc4f5463ccd"},"vehicle_type_id":"4","last_reported":1741999673,"current_range_meters":17600,"station_id":"ce4bgs92rcd13ifvqcc0","pricing_plan_id":"cebpf4jnsgd1na2vs0mg"},{"bike_id":"0fe4f308-8db0-40a3-8e56-44b5cee54b31","system_id":"levelo_inurba_marseille","lat":43.28703,"lon":5.39969,"is_reserved":false,"is_disabled":false,"rental_uris":{"android":"levelo://app?vid=0fe4f308-8db0-40a3-8e56-44b5cee54b31","ios":"levelo://app?vid=0fe4f308-8db0-40a3-8e56-44b5cee54b31"},"vehicle_type_id":"4","last_reported":1741999673,"current_range_meters":17600,"station_id":"ce4bho92rcd13ifvqh3g","pricing_plan_id":"cebpf4jnsgd1na2vs0mg"},{"bike_id":"d60d57fc-1fb2-4fe1-a1a3-7107d28e8c63","system_id":"levelo_inurba_marseille","lat":43.32639,"lon":5.40998,"is_reserved":false,"is_disabled":false,"rental_uris":{"android":"levelo://app?vid=d60d57fc-1fb2-4fe1-a1a3-7107d28e8c63","ios":"levelo://app?vid=d60d57fc-1fb2-4fe1-a1a3-7107d28e8c63"},"vehicle_type_id":"4","last_reported":1741999673,"current_range_meters":17600,"station_id":"ce4bhpp2rcd13ifvqhgg","pricing_plan_id":"cebpf4jnsgd1na2vs0mg"},{"bike_id":"642d5ba0-f707-4aa5-abbf-944400c409b6","system_id":"levelo_inurba_marseille","lat":43.27641,"lon":5.36104,"is_reserved":false,"is_disabled":false,"rental_uris":{"android":"levelo://app?vid=642d5ba0-f707-4aa5-abbf-944400c409b6","ios":"levelo://app?vid=642d5ba0-f707-4aa5-abbf-944400c409b6"},"vehicle_type_id":"4","last_reported":1741999673,"current_range_meters":18000,"station_id":"ce4bgj92rcd13ifvqbe0","pricing_plan_id":"cebpf4jnsgd1na2vs0mg"},{"bike_id":"3126630e-c757-48ca-b660-c4e8cefae3d5","system_id":"levelo_inurba_marseille","lat":43.3137,"lon":5.385,"is_reserved":false,"is_disabled":false,"rental_uris":{"android":"levelo://app?vid=3126630e-c757-48ca-b660-c4e8cefae3d5","ios":"levelo://app?vid=3126630e-c757-48ca-b660-c4e8cefae3d5"},"vehicle_type_id":"4","last_reported":1741999673,"current_range_meters":18000,"station_id":"ce4bgt92rcd13ifvqcf0","pricing_plan_id":"cebpf4jnsgd1na2vs0mg"},{"bike_id":"96744a18-3316-43e0-9153-7a6032ab1b09","system_id":"levelo_inurba_marseille","lat":43.25023,"lon":5.38901,"is_reserved":false,"is_disabled":false,"rental_uris":{"android":"levelo://app?vid=96744a18-3316-43e0-9153-7a6032ab1b09","ios":"levelo://app?vid=96744a18-3316-43e0-9153-7a6032ab1b09"},"vehicle_type_id":"4","last_reported":1741999673,"current_range_meters":18000,"station_id":"ce4bhgp2rcd13ifvqfd0","pricing_plan_id":"cebpf4jnsgd1na2vs0mg"},{"bike_id":"b89eb48b-e97b-4abf-8014-42ec3603d979","system_id":"levelo_inurba_marseille","lat":43.26229,"lon":5.40452,"is_reserved":false,"is_disabled":false,"rental_uris":{"android":"levelo://app?vid=b89eb48b-e97b-4abf-8014-42ec3603d979","ios":"levelo://app?vid=b89eb48b-e97b-4abf-8014-42ec3603d979"},"vehicle_type_id":"4","last_reported":1741999673,"current_range_meters":18000,"station_id":"ce4bhmh2rcd13ifvqgmg","pricing_plan_id":"cebpf4jnsgd1na2vs0mg"},{"bike_id":"63de112b-8926-44ae-b37e-c65a7c89f888","system_id":"levelo_inurba_marseille","lat":43.30895,"lon":5.39632,"is_reserved":false,"is_disabled":false,"rental_uris":{"android":"levelo://app?vid=63de112b-8926-44ae-b37e-c65a7c89f888","ios":"levelo://app?vid=63de112b-8926-44ae-b37e-c65a7c89f888"},"vehicle_type_id":"4","last_reported":1741999673,"current_range_meters":18000,"station_id":"ce4bh012rcd13ifvqcv0","pricing_plan_id":"cebpf4jnsgd1na2vs0mg"},{"bike_id":"37d6b6b3-c485-4987-9bc5-8406395f6e1a","system_id":"levelo_inurba_marseille","lat":43.26689,"lon":5.38262,"is_reserved":false,"is_disabled":false,"rental_uris":{"android":"levelo://app?vid=37d6b6b3-c485-4987-9bc5-8406395f6e1a","ios":"levelo://app?vid=37d6b6b3-c485-4987-9bc5-8406395f6e1a"},"vehicle_type_id":"4","last_reported":1741999673,"current_range_meters":18000,"station_id":"ce4bhg92rcd13ifvqf90","pricing_plan_id":"cebpf4jnsgd1na2vs0mg"},{"bike_id":"9cbf3e39-b34d-473c-8889-f9a2bdb60822","system_id":"levelo_inurba_marseille","lat":43.29263,"lon":5.3761,"is_reserved":false,"is_disabled":false,"rental_uris":{"android":"levelo://app?vid=9cbf3e39-b34d-473c-8889-f9a2bdb60822","ios":"levelo://app?vid=9cbf3e39-b34d-473c-8889-f9a2bdb60822"},"vehicle_type_id":"4","last_reported":1741999673,"current_range_meters":18000,"station_id":"ce4bgi12rcd13ifvqb80","pricing_plan_id":"cebpf4jnsgd1na2vs0mg"},{"bike_id":"672d046d-745f-4e9b-a4af-0b7b09b8f5ce","system_id":"levelo_inurba_marseille","lat":43.323653,"lon":5.388789,"is_reserved":false,"is_disabled":false,"rental_uris":{"android":"levelo://app?vid=672d046d-745f-4e9b-a4af-0b7b09b8f5ce","ios":"levelo://app?vid=672d046d-745f-4e9b-a4af-0b7b09b8f5ce"},"vehicle_type_id":"4","last_reported":1741999673,"current_range_meters":18000,"station_id":"ce4bhqp2rcd13ifvqhog","pricing_plan_id":"cebpf4jnsgd1na2vs0mg"},{"bike_id":"c8ce92fd-bb0f-4dea-ad35-c14fdebad14b","system_id":"levelo_inurba_marseille","lat":43.3031,"lon":5.3923,"is_reserved":false,"is_disabled":false,"rental_uris":{"android":"levelo://app?vid=c8ce92fd-bb0f-4dea-ad35-c14fdebad14b","ios":"levelo://app?vid=c8ce92fd-bb0f-4dea-ad35-c14fdebad14b"},"vehicle_type_id":"4","last_reported":1741999673,"current_range_meters":18800,"station_id":"ce4bgkh2rcd13ifvqbk0","pricing_plan_id":"cebpf4jnsgd1na2vs0mg"},{"bike_id":"33444adf-3fc7-4d48-a8a8-7f9d3386366c","system_id":"levelo_inurba_marseille","lat":43.25121,"lon":5.40313,"is_reserved":false,"is_disabled":false,"rental_uris":{"android":"levelo://app?vid=33444adf-3fc7-4d48-a8a8-7f9d3386366c","ios":"levelo://app?vid=33444adf-3fc7-4d48-a8a8-7f9d3386366c"},"vehicle_type_id":"4","last_reported":1741999673,"current_range_meters":18800,"station_id":"ce4bhlh2rcd13ifvqgig","pricing_plan_id":"cebpf4jnsgd1na2vs0mg"},{"bike_id":"b3c1d7c0-4d2e-47b0-8c09-e5f996b8f46f","system_id":"levelo_inurba_marseille","lat":43.28452,"lon":5.35883,"is_reserved":false,"is_disabled":false,"rental_uris":{"android":"levelo://app?vid=b3c1d7c0-4d2e-47b0-8c09-e5f996b8f46f","ios":"levelo://app?vid=b3c1d7c0-4d2e-47b0-8c09-e5f996b8f46f"},"vehicle_type_id":"4","last_reported":1741999673,"current_range_meters":18800,"station_id":"ce4bhah2rcd13ifvqei0","pricing_plan_id":"cebpf4jnsgd1na2vs0mg"},{"bike_id":"10a5dfbf-3aa3-4cf3-ac17-cd4d12fd6782","system_id":"levelo_inurba_marseille","lat":43.3237,"lon":5.3678,"is_reserved":false,"is_disabled":false,"rental_uris":{"android":"levelo://app?vid=10a5dfbf-3aa3-4cf3-ac17-cd4d12fd6782","ios":"levelo://app?vid=10a5dfbf-3aa3-4cf3-ac17-cd4d12fd6782"},"vehicle_type_id":"4","last_reported":1741999673,"current_range_meters":18800,"station_id":"ce4bhsh2rcd13ifvqi2g","pricing_plan_id":"cebpf4jnsgd1na2vs0mg"},{"bike_id":"2ff4138e-8b86-413b-bb24-afd5e55fff4f","system_id":"levelo_inurba_marseille","lat":43.28456,"lon":5.35886,"is_reserved":false,"is_disabled":false,"rental_uris":{"android":"levelo://app?vid=2ff4138e-8b86-413b-bb24-afd5e55fff4f","ios":"levelo://app?vid=2ff4138e-8b86-413b-bb24-afd5e55fff4f"},"vehicle_type_id":"4","last_reported":1741999673,"current_range_meters":18800,"station_id":"ce4bhah2rcd13ifvqei0","pricing_plan_id":"cebpf4jnsgd1na2vs0mg"},{"bike_id":"7099c38a-2986-4dc9-9398-307b562f7d30","system_id":"levelo_inurba_marseille","lat":43.25947,"lon":5.40884,"is_reserved":false,"is_disabled":false,"rental_uris":{"android":"levelo://app?vid=7099c38a-2986-4dc9-9398-307b562f7d30","ios":"levelo://app?vid=7099c38a-2986-4dc9-9398-307b562f7d30"},"vehicle_type_id":"4","last_reported":1741999673,"current_range_meters":18800,"station_id":"ce4bhm92rcd13ifvqglg","pricing_plan_id":"cebpf4jnsgd1na2vs0mg"},{"bike_id":"e9554909-0abe-4a01-ac30-5e19b4445b23","system_id":"levelo_inurba_marseille","lat":43.32364,"lon":5.38887,"is_reserved":false,"is_disabled":false,"rental_uris":{"android":"levelo://app?vid=e9554909-0abe-4a01-ac30-5e19b4445b23","ios":"levelo://app?vid=e9554909-0abe-4a01-ac30-5e19b4445b23"},"vehicle_type_id":"4","last_reported":1741999673,"current_range_meters":18800,"station_id":"ce4bhqp2rcd13ifvqhog","pricing_plan_id":"cebpf4jnsgd1na2vs0mg"},{"bike_id":"bafd57f9-42ca-4d51-b0a0-95f66f340e25","system_id":"levelo_inurba_marseille","lat":43.25834,"lon":5.39427,"is_reserved":false,"is_disabled":false,"rental_uris":{"android":"levelo://app?vid=bafd57f9-42ca-4d51-b0a0-95f66f340e25","ios":"levelo://app?vid=bafd57f9-42ca-4d51-b0a0-95f66f340e25"},"vehicle_type_id":"4","last_reported":1741999673,"current_range_meters":18800,"station_id":"ce4bhip2rcd13ifvqft0","pricing_plan_id":"cebpf4jnsgd1na2vs0mg"},{"bike_id":"04291597-1f63-422b-8894-848cb7b5856d","system_id":"levelo_inurba_marseille","lat":43.25924,"lon":5.40891,"is_reserved":false,"is_disabled":false,"rental_uris":{"android":"levelo://app?vid=04291597-1f63-422b-8894-848cb7b5856d","ios":"levelo://app?vid=04291597-1f63-422b-8894-848cb7b5856d"},"vehicle_type_id":"4","last_reported":1741999673,"current_range_meters":18800,"station_id":"ce4bhm92rcd13ifvqglg","pricing_plan_id":"cebpf4jnsgd1na2vs0mg"},{"bike_id":"8527826e-88f1-4362-ae49-a2d988939265","system_id":"levelo_inurba_marseille","lat":43.27615,"lon":5.36118,"is_reserved":false,"is_disabled":false,"rental_uris":{"android":"levelo://app?vid=8527826e-88f1-4362-ae49-a2d988939265","ios":"levelo://app?vid=8527826e-88f1-4362-ae49-a2d988939265"},"vehicle_type_id":"4","last_reported":1741999673,"current_range_meters":19200,"station_id":"ce4bgj92rcd13ifvqbe0","pricing_plan_id":"cebpf4jnsgd1na2vs0mg"},{"bike_id":"75123447-2b69-42e2-be90-9aa99ce954e5","system_id":"levelo_inurba_marseille","lat":43.32318,"lon":5.38861,"is_reserved":false,"is_disabled":false,"rental_uris":{"android":"levelo://app?vid=75123447-2b69-42e2-be90-9aa99ce954e5","ios":"levelo://app?vid=75123447-2b69-42e2-be90-9aa99ce954e5"},"vehicle_type_id":"4","last_reported":1741999673,"current_range_meters":19200,"station_id":"ce4bhqp2rcd13ifvqhog","pricing_plan_id":"cebpf4jnsgd1na2vs0mg"},{"bike_id":"937006d4-256e-4276-90fa-83b260647208","system_id":"levelo_inurba_marseille","lat":43.29595,"lon":5.36754,"is_reserved":false,"is_disabled":false,"rental_uris":{"android":"levelo://app?vid=937006d4-256e-4276-90fa-83b260647208","ios":"levelo://app?vid=937006d4-256e-4276-90fa-83b260647208"},"vehicle_type_id":"4","last_reported":1741999673,"current_range_meters":19200,"station_id":"ce4bgph2rcd13ifvqc2g","pricing_plan_id":"cebpf4jnsgd1na2vs0mg"},{"bike_id":"d223b888-8aed-43c6-a393-ac1852419085","system_id":"levelo_inurba_marseille","lat":43.28458,"lon":5.35887,"is_reserved":false,"is_disabled":false,"rental_uris":{"android":"levelo://app?vid=d223b888-8aed-43c6-a393-ac1852419085","ios":"levelo://app?vid=d223b888-8aed-43c6-a393-ac1852419085"},"vehicle_type_id":"4","last_reported":1741999673,"current_range_meters":19200,"station_id":"ce4bhah2rcd13ifvqei0","pricing_plan_id":"cebpf4jnsgd1na2vs0mg"},{"bike_id":"56a1a9c3-61fd-4176-bcc9-d053f72749d0","system_id":"levelo_inurba_marseille","lat":43.2827,"lon":5.35074,"is_reserved":false,"is_disabled":false,"rental_uris":{"android":"levelo://app?vid=56a1a9c3-61fd-4176-bcc9-d053f72749d0","ios":"levelo://app?vid=56a1a9c3-61fd-4176-bcc9-d053f72749d0"},"vehicle_type_id":"4","last_reported":1741999673,"current_range_meters":19200,"station_id":"ce4bhbp2rcd13ifvqerg","pricing_plan_id":"cebpf4jnsgd1na2vs0mg"},{"bike_id":"566e0489-1013-464c-941b-6fbcd4c26340","system_id":"levelo_inurba_marseille","lat":43.32109,"lon":5.3677,"is_reserved":false,"is_disabled":false,"rental_uris":{"android":"levelo://app?vid=566e0489-1013-464c-941b-6fbcd4c26340","ios":"levelo://app?vid=566e0489-1013-464c-941b-6fbcd4c26340"},"vehicle_type_id":"4","last_reported":1741999673,"current_range_meters":19200,"station_id":"ce4bhrh2rcd13ifvqhug","pricing_plan_id":"cebpf4jnsgd1na2vs0mg"},{"bike_id":"db24b7a2-1bbd-4fcf-89eb-e88f362d32e1","system_id":"levelo_inurba_marseille","lat":43.27932,"lon":5.41057,"is_reserved":false,"is_disabled":false,"rental_uris":{"android":"levelo://app?vid=db24b7a2-1bbd-4fcf-89eb-e88f362d32e1","ios":"levelo://app?vid=db24b7a2-1bbd-4fcf-89eb-e88f362d32e1"},"vehicle_type_id":"4","last_reported":1741999673,"current_range_meters":19200,"station_id":"ce4bhnp2rcd13ifvqh0g","pricing_plan_id":"cebpf4jnsgd1na2vs0mg"},{"bike_id":"d49e42ca-6d80-408b-b49b-49ede3ca4dd4","system_id":"levelo_inurba_marseille","lat":43.30886,"lon":5.39642,"is_reserved":false,"is_disabled":false,"rental_uris":{"android":"levelo://app?vid=d49e42ca-6d80-408b-b49b-49ede3ca4dd4","ios":"levelo://app?vid=d49e42ca-6d80-408b-b49b-49ede3ca4dd4"},"vehicle_type_id":"4","last_reported":1741999673,"current_range_meters":19200,"station_id":"ce4bh012rcd13ifvqcv0","pricing_plan_id":"cebpf4jnsgd1na2vs0mg"},{"bike_id":"8bcf9978-0a0f-4514-b162-723c6b634fa0","system_id":"levelo_inurba_marseille","lat":43.24543,"lon":5.39531,"is_reserved":false,"is_disabled":false,"rental_uris":{"android":"levelo://app?vid=8bcf9978-0a0f-4514-b162-723c6b634fa0","ios":"levelo://app?vid=8bcf9978-0a0f-4514-b162-723c6b634fa0"},"vehicle_type_id":"4","last_reported":1741999673,"current_range_meters":19200,"station_id":"ce4bhlp2rcd13ifvqgjg","pricing_plan_id":"cebpf4jnsgd1na2vs0mg"},{"bike_id":"8338d9e1-4eee-4277-a106-6dfc57c0a24e","system_id":"levelo_inurba_marseille","lat":43.32333,"lon":5.38892,"is_reserved":false,"is_disabled":false,"rental_uris":{"android":"levelo://app?vid=8338d9e1-4eee-4277-a106-6dfc57c0a24e","ios":"levelo://app?vid=8338d9e1-4eee-4277-a106-6dfc57c0a24e"},"vehicle_type_id":"4","last_reported":1741999673,"current_range_meters":19200,"station_id":"ce4bhqp2rcd13ifvqhog","pricing_plan_id":"cebpf4jnsgd1na2vs0mg"},{"bike_id":"a5d25e73-30c5-40b5-8d7e-865df923e9a1","system_id":"levelo_inurba_marseille","lat":43.30324,"lon":5.40436,"is_reserved":false,"is_disabled":false,"rental_uris":{"android":"levelo://app?vid=a5d25e73-30c5-40b5-8d7e-865df923e9a1","ios":"levelo://app?vid=a5d25e73-30c5-40b5-8d7e-865df923e9a1"},"vehicle_type_id":"4","last_reported":1741999673,"current_range_meters":19200,"station_id":"ce4bh012rcd13ifvqd10","pricing_plan_id":"cebpf4jnsgd1na2vs0mg"},{"bike_id":"d5919fda-7a40-4419-b77b-8aacbc6ac2b1","system_id":"levelo_inurba_marseille","lat":43.25717,"lon":5.42163,"is_reserved":false,"is_disabled":false,"rental_uris":{"android":"levelo://app?vid=d5919fda-7a40-4419-b77b-8aacbc6ac2b1","ios":"levelo://app?vid=d5919fda-7a40-4419-b77b-8aacbc6ac2b1"},"vehicle_type_id":"4","last_reported":1741999673,"current_range_meters":19200,"station_id":"","pricing_plan_id":"cebpf4jnsgd1na2vs0mg"},{"bike_id":"d2c1304d-c6de-4e19-a363-2c0c4bdd9fb1","system_id":"levelo_inurba_marseille","lat":43.24667,"lon":5.38888,"is_reserved":false,"is_disabled":false,"rental_uris":{"android":"levelo://app?vid=d2c1304d-c6de-4e19-a363-2c0c4bdd9fb1","ios":"levelo://app?vid=d2c1304d-c6de-4e19-a363-2c0c4bdd9fb1"},"vehicle_type_id":"4","last_reported":1741999673,"current_range_meters":19200,"station_id":"ce4bhg12rcd13ifvqf60","pricing_plan_id":"cebpf4jnsgd1na2vs0mg"},{"bike_id":"63155ee7-ae42-4436-9f9c-65fbc2308a83","system_id":"levelo_inurba_marseille","lat":43.31731,"lon":5.42393,"is_reserved":false,"is_disabled":false,"rental_uris":{"android":"levelo://app?vid=63155ee7-ae42-4436-9f9c-65fbc2308a83","ios":"levelo://app?vid=63155ee7-ae42-4436-9f9c-65fbc2308a83"},"vehicle_type_id":"4","last_reported":1741999673,"current_range_meters":20000,"station_id":"ce4bhp92rcd13ifvqhbg","pricing_plan_id":"cebpf4jnsgd1na2vs0mg"},{"bike_id":"985ce29b-c73e-4a46-8bec-a34a0cea9484","system_id":"levelo_inurba_marseille","lat":43.30191,"lon":5.366069,"is_reserved":false,"is_disabled":false,"rental_uris":{"android":"levelo://app?vid=985ce29b-c73e-4a46-8bec-a34a0cea9484","ios":"levelo://app?vid=985ce29b-c73e-4a46-8bec-a34a0cea9484"},"vehicle_type_id":"4","last_reported":1741999673,"current_range_meters":19600,"station_id":"ce4bgrh2rcd13ifvqc8g","pricing_plan_id":"cebpf4jnsgd1na2vs0mg"},{"bike_id":"82ebc1bb-8f10-4f38-8766-8cb84c804185","system_id":"levelo_inurba_marseille","lat":43.28608,"lon":5.35102,"is_reserved":false,"is_disabled":false,"rental_uris":{"android":"levelo://app?vid=82ebc1bb-8f10-4f38-8766-8cb84c804185","ios":"levelo://app?vid=82ebc1bb-8f10-4f38-8766-8cb84c804185"},"vehicle_type_id":"4","last_reported":1741999673,"current_range_meters":19600,"station_id":"ce4bhch2rcd13ifvqeug","pricing_plan_id":"cebpf4jnsgd1na2vs0mg"},{"bike_id":"bc2101bd-583c-4377-8050-5ce623db9fe3","system_id":"levelo_inurba_marseille","lat":43.30301,"lon":5.39201,"is_reserved":false,"is_disabled":false,"rental_uris":{"android":"levelo://app?vid=bc2101bd-583c-4377-8050-5ce623db9fe3","ios":"levelo://app?vid=bc2101bd-583c-4377-8050-5ce623db9fe3"},"vehicle_type_id":"4","last_reported":1741999673,"current_range_meters":19600,"station_id":"ce4bgkh2rcd13ifvqbk0","pricing_plan_id":"cebpf4jnsgd1na2vs0mg"},{"bike_id":"910fbe18-f136-4df3-b982-42083905997b","system_id":"levelo_inurba_marseille","lat":43.24391,"lon":5.37039,"is_reserved":false,"is_disabled":false,"rental_uris":{"android":"levelo://app?vid=910fbe18-f136-4df3-b982-42083905997b","ios":"levelo://app?vid=910fbe18-f136-4df3-b982-42083905997b"},