{"last_updated":1726819951,"ttl":30,"version":"2.2","data":{"bikes":[{"bike_id":"4ec07f2b-7a04-4fdf-8217-bd293b3ca1a2","system_id":"levelo_inurba_marseille","lat":43.31356,"lon":5.36702,"is_reserved":false,"is_disabled":false,"rental_uris":{"android":"levelo://app?vid=4ec07f2b-7a04-4fdf-8217-bd293b3ca1a2","ios":"levelo://app?vid=4ec07f2b-7a04-4fdf-8217-bd293b3ca1a2"},"vehicle_type_id":"4","last_reported":1726819951,"current_range_meters":22000,"station_id":"ce4bgr92rcd13ifvqc6g","pricing_plan_id":"cebpf4jnsgd1na2vs0mg"},{"bike_id":"8ac6d82f-5b78-477d-a9cb-5c523e12158a","system_id":"levelo_inurba_marseille","lat":43.28352,"lon":5.381,"is_reserved":false,"is_disabled":false,"rental_uris":{"android":"levelo://app?vid=8ac6d82f-5b78-477d-a9cb-5c523e12158a","ios":"levelo://app?vid=8ac6d82f-5b78-477d-a9cb-5c523e12158a"},"vehicle_type_id":"4","last_reported":1726819951,"current_range_meters":18800,"station_id":"ce4bh412rcd13ifvqdr0","pricing_plan_id":"cebpf4jnsgd1na2vs0mg"},{"bike_id":"4ffbcc01-7039-49cb-989b-f710e35f7fbc","system_id":"levelo_inurba_marseille","lat":43.31479,"lon":5.37266,"is_reserved":false,"is_disabled":false,"rental_uris":{"android":"levelo://app?vid=4ffbcc01-7039-49cb-989b-f710e35f7fbc","ios":"levelo://app?vid=4ffbcc01-7039-49cb-989b-f710e35f7fbc"},"vehicle_type_id":"4","last_reported":1726819951,"current_range_meters":24800,"station_id":"ce4bgt12rcd13ifvqcd0","pricing_plan_id":"cebpf4jnsgd1na2vs0mg"},{"bike_id":"b9585ecf-f944-4472-b847-6f7eb1439340","system_id":"levelo_inurba_marseille","lat":43.30412,"lon":5.41297,"is_reserved":false,"is_disabled":false,"rental_uris":{"android":"levelo://app?vid=b9585ecf-f944-4472-b847-6f7eb1439340","ios":"levelo://app?vid=b9585ecf-f944-4472-b847-6f7eb1439340"},"vehicle_type_id":"4","last_reported":1726819951,"current_range_meters":34000,"station_id":"ce4bhop2rcd13ifvqh8g","pricing_plan_id":"cebpf4jnsgd1na2vs0mg"},{"bike_id":"96fa43fd-bb07-4167-a26a-d2f7eb9692c1","system_id":"levelo_inurba_marseille","lat":43.31497,"lon":5.37302,"is_reserved":false,"is_disabled":false,"rental_uris":{"android":"levelo://app?vid=96fa43fd-bb07-4167-a26a-d2f7eb9692c1","ios":"levelo://app?vid=96fa43fd-bb07-4167-a26a-d2f7eb9692c1"},"vehicle_type_id":"4","last_reported":1726819951,"current_range_meters":12800,"station_id":"ce4bgt12rcd13ifvqcd0","pricing_plan_id":"cebpf4jnsgd1na2vs0mg"},{"bike_id":"cdc6bf7b-82d4-44c2-95dd-ce08021c20c7","system_id":"levelo_inurba_marseille","lat":43.3135,"lon":5.36732,"is_reserved":false,"is_disabled":false,"rental_uris":{"android":"levelo://app?vid=cdc6bf7b-82d4-44c2-95dd-ce08021c20c7","ios":"levelo://app?vid=cdc6bf7b-82d4-44c2-95dd-ce08021c20c7"},"vehicle_type_id":"4","last_reported":1726819951,"current_range_meters":27200,"station_id":"ce4bgr92rcd13ifvqc6g","pricing_plan_id":"cebpf4jnsgd1na2vs0mg"},{"bike_id":"8c306e71-a531-4b3f-9da3-bcb78c39978e","system_id":"levelo_inurba_marseille","lat":43.31488,"lon":5.37298,"is_reserved":false,"is_disabled":false,"rental_uris":{"android":"levelo://app?vid=8c306e71-a531-4b3f-9da3-bcb78c39978e","ios":"levelo://app?vid=8c306e71-a531-4b3f-9da3-bcb78c39978e"},"vehicle_type_id":"4","last_reported":1726819951,"current_range_meters":38400,"station_id":"ce4bgt12rcd13ifvqcd0","pricing_plan_id":"cebpf4jnsgd1na2vs0mg"},{"bike_id":"f882f190-1890-487b-837d-55f6d80e6a14","system_id":"levelo_inurba_marseille","lat":43.31366,"lon":5.36711,"is_reserved":false,"is_disabled":false,"rental_uris":{"android":"levelo://app?vid=f882f190-1890-487b-837d-55f6d80e6a14","ios":"levelo://app?vid=f882f190-1890-487b-837d-55f6d80e6a14"},"vehicle_type_id":"4","last_reported":1726819951,"current_range_meters":26800,"station_id":"ce4bgr92rcd13ifvqc6g","pricing_plan_id":"cebpf4jnsgd1na2vs0mg"},{"bike_id":"e532fd53-ad12-4848-82ea-70ac934c1c37","system_id":"levelo_inurba_marseille","lat":43.3375,"lon":5.37446,"is_reserved":false,"is_disabled":false,"rental_uris":{"android":"levelo://app?vid=e532fd53-ad12-4848-82ea-70ac934c1c37","ios":"levelo://app?vid=e532fd53-ad12-4848-82ea-70ac934c1c37"},"vehicle_type_id":"4","last_reported":1726819951,"current_range_meters":34000,"station_id":"","pricing_plan_id":"cebpf4jnsgd1na2vs0mg"},{"bike_id":"c7d4ab82-b4ba-46c9-9db0-e90f652728b9","system_id":"levelo_inurba_marseille","lat":43.26557,"lon":5.37284,"is_reserved":false,"is_disabled":false,"rental_uris":{"android":"levelo://app?vid=c7d4ab82-b4ba-46c9-9db0-e90f652728b9","ios":"levelo://app?vid=c7d4ab82-b4ba-46c9-9db0-e90f652728b9"},"vehicle_type_id":"4","last_reported":1726819951,"current_range_meters":38800,"station_id":"ce4bhg12rcd13ifvqf70","pricing_plan_id":"cebpf4jnsgd1na2vs0mg"},{"bike_id":"360568a5-c676-44a4-a358-6a181b818a79","system_id":"levelo_inurba_marseille","lat":43.29709,"lon":5.37706,"is_reserved":false,"is_disabled":false,"rental_uris":{"android":"levelo://app?vid=360568a5-c676-44a4-a358-6a181b818a79","ios":"levelo://app?vid=360568a5-c676-44a4-a358-6a181b818a79"},"vehicle_type_id":"4","last_reported":1726819951,"current_range_meters":9200,"station_id":"ce4bgkh2rcd13ifvqbl0","pricing_plan_id":"cebpf4jnsgd1na2vs0mg"},{"bike_id":"7ae54c23-d029-4df1-ac7f-dc61dfb3bf8f","system_id":"levelo_inurba_marseille","lat":43.32479,"lon":5.36557,"is_reserved":false,"is_disabled":false,"rental_uris":{"android":"levelo://app?vid=7ae54c23-d029-4df1-ac7f-dc61dfb3bf8f","ios":"levelo://app?vid=7ae54c23-d029-4df1-ac7f-dc61dfb3bf8f"},"vehicle_type_id":"4","last_reported":1726819951,"current_range_meters":14400,"station_id":"ce4bhs12rcd13ifvqhvg","pricing_plan_id":"cebpf4jnsgd1na2vs0mg"},{"bike_id":"632e98ae-be6c-4e55-bf13-20d3c5fab428","system_id":"levelo_inurba_marseille","lat":43.30471,"lon":5.37913,"is_reserved":false,"is_disabled":false,"rental_uris":{"android":"levelo://app?vid=632e98ae-be6c-4e55-bf13-20d3c5fab428","ios":"levelo://app?vid=632e98ae-be6c-4e55-bf13-20d3c5fab428"},"vehicle_type_id":"4","last_reported":1726819951,"current_range_meters":22800,"station_id":"ce4bgup2rcd13ifvqcn0","pricing_plan_id":"cebpf4jnsgd1na2vs0mg"},{"bike_id":"7ec01ccc-afe3-4f46-82f9-a24f1ada3fdf","system_id":"levelo_inurba_marseille","lat":43.34143,"lon":5.4091,"is_reserved":false,"is_disabled":false,"rental_uris":{"android":"levelo://app?vid=7ec01ccc-afe3-4f46-82f9-a24f1ada3fdf","ios":"levelo://app?vid=7ec01ccc-afe3-4f46-82f9-a24f1ada3fdf"},"vehicle_type_id":"4","last_reported":1726819951,"current_range_meters":31200,"station_id":"ce4bhqh2rcd13ifvqhlg","pricing_plan_id":"cebpf4jnsgd1na2vs0mg"},{"bike_id":"4a885958-d8cf-4d4e-b042-2d0a7e2feaf5","system_id":"levelo_inurba_marseille","lat":43.29981,"lon":5.38489,"is_reserved":false,"is_disabled":false,"rental_uris":{"android":"levelo://app?vid=4a885958-d8cf-4d4e-b042-2d0a7e2feaf5","ios":"levelo://app?vid=4a885958-d8cf-4d4e-b042-2d0a7e2feaf5"},"vehicle_type_id":"4","last_reported":1726819951,"current_range_meters":39200,"station_id":"ce4bgj92rcd13ifvqbd0","pricing_plan_id":"cebpf4jnsgd1na2vs0mg"},{"bike_id":"b9e1d6ef-037d-4e06-aad7-7d9852b429ed","system_id":"levelo_inurba_marseille","lat":43.25933,"lon":5.40914,"is_reserved":false,"is_disabled":false,"rental_uris":{"android":"levelo://app?vid=b9e1d6ef-037d-4e06-aad7-7d9852b429ed","ios":"levelo://app?vid=b9e1d6ef-037d-4e06-aad7-7d9852b429ed"},"vehicle_type_id":"4","last_reported":1726819951,"current_range_meters":28000,"station_id":"ce4bhm92rcd13ifvqglg","pricing_plan_id":"cebpf4jnsgd1na2vs0mg"},{"bike_id":"ac4570dc-1f12-4c2c-aeb8-bec5840e3c7d","system_id":"levelo_inurba_marseille","lat":43.27492,"lon":5.42459,"is_reserved":false,"is_disabled":false,"rental_uris":{"android":"levelo://app?vid=ac4570dc-1f12-4c2c-aeb8-bec5840e3c7d","ios":"levelo://app?vid=ac4570dc-1f12-4c2c-aeb8-bec5840e3c7d"},"vehicle_type_id":"4","last_reported":1726819951,"current_range_meters":23200,"station_id":"ce4bhn92rcd13ifvqgrg","pricing_plan_id":"cebpf4jnsgd1na2vs0mg"},{"bike_id":"00479890-5c7f-4820-8b84-7d690960759a","system_id":"levelo_inurba_marseille","lat":43.28147,"lon":5.42644,"is_reserved":false,"is_disabled":false,"rental_uris":{"android":"levelo://app?vid=00479890-5c7f-4820-8b84-7d690960759a","ios":"levelo://app?vid=00479890-5c7f-4820-8b84-7d690960759a"},"vehicle_type_id":"4","last_reported":1726819951,"current_range_meters":30800,"station_id":"ce4bhnh2rcd13ifvqgug","pricing_plan_id":"cebpf4jnsgd1na2vs0mg"},{"bike_id":"1c66f49b-4363-4cca-97a6-cfccf25e74c8","system_id":"levelo_inurba_marseille","lat":43.30284,"lon":5.37718,"is_reserved":false,"is_disabled":false,"rental_uris":{"android":"levelo://app?vid=1c66f49b-4363-4cca-97a6-cfccf25e74c8","ios":"levelo://app?vid=1c66f49b-4363-4cca-97a6-cfccf25e74c8"},"vehicle_type_id":"4","last_reported":1726819951,"current_range_meters":39200,"station_id":"ce4bguh2rcd13ifvqcj0","pricing_plan_id":"cebpf4jnsgd1na2vs0mg"},{"bike_id":"6a454a5f-f30a-4a25-9d92-bf74907f8eb8","system_id":"levelo_inurba_marseille","lat":43.2407,"lon":5.37762,"is_reserved":false,"is_disabled":false,"rental_uris":{"android":"levelo://app?vid=6a454a5f-f30a-4a25-9d92-bf74907f8eb8","ios":"levelo://app?vid=6a454a5f-f30a-4a25-9d92-bf74907f8eb8"},"vehicle_type_id":"4","last_reported":1726819951,"current_range_meters":17200,"station_id":"ce4bhnp2rcd13ifvqgvg","pricing_plan_id":"cebpf4jnsgd1na2vs0mg"},{"bike_id":"0d197c14-823a-4063-8ecb-b214e88b0f7d","system_id":"levelo_inurba_marseille","lat":43.28156,"lon":5.4264,"is_reserved":false,"is_disabled":false,"rental_uris":{"android":"levelo://app?vid=0d197c14-823a-4063-8ecb-b214e88b0f7d","ios":"levelo://app?vid=0d197c14-823a-4063-8ecb-b214e88b0f7d"},"vehicle_type_id":"4","last_reported":1726819951,"current_range_meters":35600,"station_id":"ce4bhnh2rcd13ifvqgug","pricing_plan_id":"cebpf4jnsgd1na2vs0mg"},{"bike_id":"838e99a9-3d23-4997-ab0d-600a12008281","system_id":"levelo_inurba_marseille","lat":43.27501,"lon":5.4245,"is_reserved":false,"is_disabled":false,"rental_uris":{"android":"levelo://app?vid=838e99a9-3d23-4997-ab0d-600a12008281","ios":"levelo://app?vid=838e99a9-3d23-4997-ab0d-600a12008281"},"vehicle_type_id":"4","last_reported":1726819951,"current_range_meters":20800,"station_id":"ce4bhn92rcd13ifvqgrg","pricing_plan_id":"cebpf4jnsgd1na2vs0mg"},{"bike_id":"06eef320-c2b1-42ca-bda3-e896022e4f06","system_id":"levelo_inurba_marseille","lat":43.27076,"lon":5.42279,"is_reserved":false,"is_disabled":false,"rental_uris":{"android":"levelo://app?vid=06eef320-c2b1-42ca-bda3-e896022e4f06","ios":"levelo://app?vid=06eef320-c2b1-42ca-bda3-e896022e4f06"},"vehicle_type_id":"4","last_reported":1726819951,"current_range_meters":14400,"station_id":"ce4bhk92rcd13ifvqgb0","pricing_plan_id":"cebpf4jnsgd1na2vs0mg"},{"bike_id":"b2d365df-12bf-423e-97e3-a941e51b856a","system_id":"levelo_inurba_marseille","lat":43.29302,"lon":5.37472,"is_reserved":false,"is_disabled":false,"rental_uris":{"android":"levelo://app?vid=b2d365df-12bf-423e-97e3-a941e51b856a","ios":"levelo://app?vid=b2d365df-12bf-423e-97e3-a941e51b856a"},"vehicle_type_id":"4","last_reported":1726819951,"current_range_meters":31200,"station_id":"ce4bgi12rcd13ifvqb70","pricing_plan_id":"cebpf4jnsgd1na2vs0mg"},{"bike_id":"ffafc182-e1e3-466d-bf54-1539ad0fc712","system_id":"levelo_inurba_marseille","lat":43.23153,"lon":5.43711,"is_reserved":false,"is_disabled":false,"rental_uris":{"android":"levelo://app?vid=ffafc182-e1e3-466d-bf54-1539ad0fc712","ios":"levelo://app?vid=ffafc182-e1e3-466d-bf54-1539ad0fc712"},"vehicle_type_id":"4","last_reported":1726819951,"current_range_meters":24000,"station_id":"ce4bhmp2rcd13ifvqgog","pricing_plan_id":"cebpf4jnsgd1na2vs0mg"},{"bike_id":"eae20c8a-7236-4683-a810-7c6bfac99e86","system_id":"levelo_inurba_marseille","lat":43.323361,"lon":5.406264,"is_reserved":false,"is_disabled":false,"rental_uris":{"android":"levelo://app?vid=eae20c8a-7236-4683-a810-7c6bfac99e86","ios":"levelo://app?vid=eae20c8a-7236-4683-a810-7c6bfac99e86"},"vehicle_type_id":"4","last_reported":1726819951,"current_range_meters":3200,"station_id":"ce4bhq92rcd13ifvqhjg","pricing_plan_id":"cebpf4jnsgd1na2vs0mg"},{"bike_id":"5f2e4fae-bb33-4e4e-81dc-fbf1953aa152","system_id":"levelo_inurba_marseille","lat":43.3055,"lon":5.36538,"is_reserved":false,"is_disabled":false,"rental_uris":{"android":"levelo://app?vid=5f2e4fae-bb33-4e4e-81dc-fbf1953aa152","ios":"levelo://app?vid=5f2e4fae-bb33-4e4e-81dc-fbf1953aa152"},"vehicle_type_id":"4","last_reported":1726819951,"current_range_meters":25200,"station_id":"","pricing_plan_id":"cebpf4jnsgd1na2vs0mg"},{"bike_id":"e8a43349-6e7a-4086-bc82-dc073f429ffd","system_id":"levelo_inurba_marseille","lat":43.29955,"lon":5.41314,"is_reserved":false,"is_disabled":false,"rental_uris":{"android":"levelo://app?vid=e8a43349-6e7a-4086-bc82-dc073f429ffd","ios":"levelo://app?vid=e8a43349-6e7a-4086-bc82-dc073f429ffd"},"vehicle_type_id":"4","last_reported":1726819951,"current_range_meters":39200,"station_id":"ce4bhp12rcd13ifvqh9g","pricing_plan_id":"cebpf4jnsgd1na2vs0mg"},{"bike_id":"0bc221d8-b29f-41c6-8681-2d513f2ff888","system_id":"levelo_inurba_marseille","lat":43.30467,"lon":5.37918,"is_reserved":false,"is_disabled":false,"rental_uris":{"android":"levelo://app?vid=0bc221d8-b29f-41c6-8681-2d513f2ff888","ios":"levelo://app?vid=0bc221d8-b29f-41c6-8681-2d513f2ff888"},"vehicle_type_id":"4","last_reported":1726819951,"current_range_meters":34000,"station_id":"ce4bgup2rcd13ifvqcn0","pricing_plan_id":"cebpf4jnsgd1na2vs0mg"},{"bike_id":"d15f00db-e899-4f15-8ab4-a1f72b5956cb","system_id":"levelo_inurba_marseille","lat":43.30171,"lon":5.38085,"is_reserved":false,"is_disabled":false,"rental_uris":{"android":"levelo://app?vid=d15f00db-e899-4f15-8ab4-a1f72b5956cb","ios":"levelo://app?vid=d15f00db-e899-4f15-8ab4-a1f72b5956cb"},"vehicle_type_id":"4","last_reported":1726819951,"current_range_meters":26800,"station_id":"ce4bgjp2rcd13ifvqbh0","pricing_plan_id":"cebpf4jnsgd1na2vs0mg"},{"bike_id":"c9f49b48-5873-49e2-bab7-f1ba0d8a08cc","system_id":"levelo_inurba_marseille","lat":43.27211,"lon":5.3917,"is_reserved":false,"is_disabled":false,"rental_uris":{"android":"levelo://app?vid=c9f49b48-5873-49e2-bab7-f1ba0d8a08cc","ios":"levelo://app?vid=c9f49b48-5873-49e2-bab7-f1ba0d8a08cc"},"vehicle_type_id":"4","last_reported":1726819951,"current_range_meters":37600,"station_id":"ce4bhhp2rcd13ifvqfm0","pricing_plan_id":"cebpf4jnsgd1na2vs0mg"},{"bike_id":"82a011ee-927c-4b1e-a350-b969affb7d65","system_id":"levelo_inurba_marseille","lat":43.3361,"lon":5.41022,"is_reserved":false,"is_disabled":false,"rental_uris":{"android":"levelo://app?vid=82a011ee-927c-4b1e-a350-b969affb7d65","ios":"levelo://app?vid=82a011ee-927c-4b1e-a350-b969affb7d65"},"vehicle_type_id":"4","last_reported":1726819951,"current_range_meters":38400,"station_id":"ce4bhqh2rcd13ifvqhmg","pricing_plan_id":"cebpf4jnsgd1na2vs0mg"},{"bike_id":"9fb37ac8-7c76-4132-82ba-395f412b660d","system_id":"levelo_inurba_marseille","lat":43.23155,"lon":5.43714,"is_reserved":false,"is_disabled":false,"rental_uris":{"android":"levelo://app?vid=9fb37ac8-7c76-4132-82ba-395f412b660d","ios":"levelo://app?vid=9fb37ac8-7c76-4132-82ba-395f412b660d"},"vehicle_type_id":"4","last_reported":1726819951,"current_range_meters":2000,"station_id":"ce4bhmp2rcd13ifvqgog","pricing_plan_id":"cebpf4jnsgd1na2vs0mg"},{"bike_id":"ce9d87f2-9941-4431-9f3a-b0e277f41807","system_id":"levelo_inurba_marseille","lat":43.31362,"lon":5.36696,"is_reserved":false,"is_disabled":false,"rental_uris":{"android":"levelo://app?vid=ce9d87f2-9941-4431-9f3a-b0e277f41807","ios":"levelo://app?vid=ce9d87f2-9941-4431-9f3a-b0e277f41807"},"vehicle_type_id":"4","last_reported":1726819951,"current_range_meters":39200,"station_id":"ce4bgr92rcd13ifvqc6g","pricing_plan_id":"cebpf4jnsgd1na2vs0mg"},{"bike_id":"036ab25f-0c34-4c45-8e88-1fc9200da6fd","system_id":"levelo_inurba_marseille","lat":43.27163,"lon":5.42739,"is_reserved":false,"is_disabled":false,"rental_uris":{"android":"levelo://app?vid=036ab25f-0c34-4c45-8e88-1fc9200da6fd","ios":"levelo://app?vid=036ab25f-0c34-4c45-8e88-1fc9200da6fd"},"vehicle_type_id":"4","last_reported":1726819951,"current_range_meters":26800,"station_id":"","pricing_plan_id":"cebpf4jnsgd1na2vs0mg"},{"bike_id":"40e5b403-5590-4098-a474-822a4163b2a7","system_id":"levelo_inurba_marseille","lat":43.24086,"lon":5.37739,"is_reserved":false,"is_disabled":false,"rental_uris":{"android":"levelo://app?vid=40e5b403-5590-4098-a474-822a4163b2a7","ios":"levelo://app?vid=40e5b403-5590-4098-a474-822a4163b2a7"},"vehicle_type_id":"4","last_reported":1726819951,"current_range_meters":24800,"station_id":"ce4bhnp2rcd13ifvqgvg","pricing_plan_id":"cebpf4jnsgd1na2vs0mg"},{"bike_id":"34314706-660f-4618-b97a-f19d93477afb","system_id":"levelo_inurba_marseille","lat":43.26944,"lon":5.3863,"is_reserved":false,"is_disabled":false,"rental_uris":{"android":"levelo://app?vid=34314706-660f-4618-b97a-f19d93477afb","ios":"levelo://app?vid=34314706-660f-4618-b97a-f19d93477afb"},"vehicle_type_id":"4","last_reported":1726819951,"current_range_meters":28800,"station_id":"ce4bhh92rcd13ifvqfh0","pricing_plan_id":"cebpf4jnsgd1na2vs0mg"},{"bike_id":"55e30d2a-d6de-4742-83bf-0a472175ceb6","system_id":"levelo_inurba_marseille","lat":43.29041,"lon":5.3996,"is_reserved":false,"is_disabled":false,"rental_uris":{"android":"levelo://app?vid=55e30d2a-d6de-4742-83bf-0a472175ceb6","ios":"levelo://app?vid=55e30d2a-d6de-4742-83bf-0a472175ceb6"},"vehicle_type_id":"4","last_reported":1726819951,"current_range_meters":30800,"station_id":"ce4bh392rcd13ifvqdm0","pricing_plan_id":"cebpf4jnsgd1na2vs0mg"},{"bike_id":"0fb42f67-e6d4-4b33-8619-af1b1d2a30e9","system_id":"levelo_inurba_marseille","lat":43.23147,"lon":5.43732,"is_reserved":false,"is_disabled":false,"rental_uris":{"android":"levelo://app?vid=0fb42f67-e6d4-4b33-8619-af1b1d2a30e9","ios":"levelo://app?vid=0fb42f67-e6d4-4b33-8619-af1b1d2a30e9"},"vehicle_type_id":"4","last_reported":1726819951,"current_range_meters":39200,"station_id":"ce4bhmp2rcd13ifvqgog","pricing_plan_id":"cebpf4jnsgd1na2vs0mg"},{"bike_id":"0805af00-b845-4cc5-89d5-9db87216f25e","system_id":"levelo_inurba_marseille","lat":43.25502,"lon":5.37652,"is_reserved":false,"is_disabled":false,"rental_uris":{"android":"levelo://app?vid=0805af00-b845-4cc5-89d5-9db87216f25e","ios":"levelo://app?vid=0805af00-b845-4cc5-89d5-9db87216f25e"},"vehicle_type_id":"4","last_reported":1726819951,"current_range_meters":17200,"station_id":"ce4bhh12rcd13ifvqff0","pricing_plan_id":"cebpf4jnsgd1na2vs0mg"},{"bike_id":"1968a456-3c5e-4ce2-8ef4-1e4c031fda3d","system_id":"levelo_inurba_marseille","lat":43.30475,"lon":5.37904,"is_reserved":false,"is_disabled":false,"rental_uris":{"android":"levelo://app?vid=1968a456-3c5e-4ce2-8ef4-1e4c031fda3d","ios":"levelo://app?vid=1968a456-3c5e-4ce2-8ef4-1e4c031fda3d"},"vehicle_type_id":"4","last_reported":1726819951,"current_range_meters":36800,"station_id":"ce4bgup2rcd13ifvqcn0","pricing_plan_id":"cebpf4jnsgd1na2vs0mg"},{"bike_id":"e3157b7d-f63e-4215-9b0b-bec081b31a83","system_id":"levelo_inurba_marseille","lat":43.32482,"lon":5.36567,"is_reserved":false,"is_disabled":false,"rental_uris":{"android":"levelo://app?vid=e3157b7d-f63e-4215-9b0b-bec081b31a83","ios":"levelo://app?vid=e3157b7d-f63e-4215-9b0b-bec081b31a83"},"vehicle_type_id":"4","last_reported":1726819951,"current_range_meters":7200,"station_id":"ce4bhs12rcd13ifvqhvg","pricing_plan_id":"cebpf4jnsgd1na2vs0mg"},{"bike_id":"751f90c9-696d-43a3-abf5-68be55a262c9","system_id":"levelo_inurba_marseille","lat":43.33622,"lon":5.41038,"is_reserved":false,"is_disabled":false,"rental_uris":{"android":"levelo://app?vid=751f90c9-696d-43a3-abf5-68be55a262c9","ios":"levelo://app?vid=751f90c9-696d-43a3-abf5-68be55a262c9"},"vehicle_type_id":"4","last_reported":1726819951,"current_range_meters":16800,"station_id":"ce4bhqh2rcd13ifvqhmg","pricing_plan_id":"cebpf4jnsgd1na2vs0mg"},{"bike_id":"9899969d-4f8e-4fed-bc43-e675716ac04a","system_id":"levelo_inurba_marseille","lat":43.23153,"lon":5.43715,"is_reserved":false,"is_disabled":false,"rental_uris":{"android":"levelo://app?vid=9899969d-4f8e-4fed-bc43-e675716ac04a","ios":"levelo://app?vid=9899969d-4f8e-4fed-bc43-e675716ac04a"},"vehicle_type_id":"4","last_reported":1726819951,"current_range_meters":39200,"station_id":"ce4bhmp2rcd13ifvqgog","pricing_plan_id":"cebpf4jnsgd1na2vs0mg"},{"bike_id":"edfb1ff5-b81b-4225-8da9-100a9115b1e3","system_id":"levelo_inurba_marseille","lat":43.29735,"lon":5.36561,"is_reserved":false,"is_disabled":false,"rental_uris":{"android":"levelo://app?vid=edfb1ff5-b81b-4225-8da9-100a9115b1e3","ios":"levelo://app?vid=edfb1ff5-b81b-4225-8da9-100a9115b1e3"},"vehicle_type_id":"4","last_reported":1726819951,"current_range_meters":14000,"station_id":"","pricing_plan_id":"cebpf4jnsgd1na2vs0mg"},{"bike_id":"fee14bd9-4d8d-4aae-a39a-19d9f53a67a6","system_id":"levelo_inurba_marseille","lat":43.30486,"lon":5.37909,"is_reserved":false,"is_disabled":false,"rental_uris":{"android":"levelo://app?vid=fee14bd9-4d8d-4aae-a39a-19d9f53a67a6","ios":"levelo://app?vid=fee14bd9-4d8d-4aae-a39a-19d9f53a67a6"},"vehicle_type_id":"4","last_reported":1726819951,"current_range_meters":39200,"station_id":"ce4bgup2rcd13ifvqcn0","pricing_plan_id":"cebpf4jnsgd1na2vs0mg"},{"bike_id":"6dfe58ea-25da-42aa-887c-07c9b24a26ac","system_id":"levelo_inurba_marseille","lat":43.23184,"lon":5.39983,"is_reserved":false,"is_disabled":false,"rental_uris":{"android":"levelo://app?vid=6dfe58ea-25da-42aa-887c-07c9b24a26ac","ios":"levelo://app?vid=6dfe58ea-25da-42aa-887c-07c9b24a26ac"},"vehicle_type_id":"4","last_reported":1726819951,"current_range_meters":20800,"station_id":"ce4bhn12rcd13ifvqgqg","pricing_plan_id":"cebpf4jnsgd1na2vs0mg"},{"bike_id":"310fd0d7-5f1d-4f0e-bcd6-9df4466c866d","system_id":"levelo_inurba_marseille","lat":43.30953,"lon":5.39037,"is_reserved":false,"is_disabled":false,"rental_uris":{"android":"levelo://app?vid=310fd0d7-5f1d-4f0e-bcd6-9df4466c866d","ios":"levelo://app?vid=310fd0d7-5f1d-4f0e-bcd6-9df4466c866d"},"vehicle_type_id":"4","last_reported":1726819951,"current_range_meters":22000,"station_id":"ce4bgup2rcd13ifvqco0","pricing_plan_id":"cebpf4jnsgd1na2vs0mg"},{"bike_id":"9c265d7b-b0a5-4799-b251-6fc39180cbcb","system_id":"levelo_inurba_marseille","lat":43.32541,"lon":5.41433,"is_reserved":false,"is_disabled":false,"rental_uris":{"android":"levelo://app?vid=9c265d7b-b0a5-4799-b251-6fc39180cbcb","ios":"levelo://app?vid=9c265d7b-b0a5-4799-b251-6fc39180cbcb"},"vehicle_type_id":"4","last_reported":1726819951,"current_range_meters":28800,"station_id":"ce4bhq12rcd13ifvqhhg","pricing_plan_id":"cebpf4jnsgd1na2vs0mg"},{"bike_id":"0945b090-e80e-402c-9b22-adbad6a0d5ae","system_id":"levelo_inurba_marseille","lat":43.31713,"lon":5.4371,"is_reserved":false,"is_disabled":false,"rental_uris":{"android":"levelo://app?vid=0945b090-e80e-402c-9b22-adbad6a0d5ae","ios":"levelo://app?vid=0945b090-e80e-402c-9b22-adbad6a0d5ae"},"vehicle_type_id":"4","last_reported":1726819951,"current_range_meters":2800,"station_id":"ce4bhp92rcd13ifvqhcg","pricing_plan_id":"cebpf4jnsgd1na2vs0mg"},{"bike_id":"bd9dc574-40ac-47dc-a3de-f8195b34f0de","system_id":"levelo_inurba_marseille","lat":43.33607,"lon":5.41035,"is_reserved":false,"is_disabled":false,"rental_uris":{"android":"levelo://app?vid=bd9dc574-40ac-47dc-a3de-f8195b34f0de","ios":"levelo://app?vid=bd9dc574-40ac-47dc-a3de-f8195b34f0de"},"vehicle_type_id":"4","last_reported":1726819951,"current_range_meters":16400,"station_id":"ce4bhqh2rcd13ifvqhmg","pricing_plan_id":"cebpf4jnsgd1na2vs0mg"},{"bike_id":"4cbb35f9-cdcb-4515-9161-c04e683e952e","system_id":"levelo_inurba_marseille","lat":43.296959,"lon":5.372906,"is_reserved":false,"is_disabled":false,"rental_uris":{"android":"levelo://app?vid=4cbb35f9-cdcb-4515-9161-c04e683e952e","ios":"levelo://app?vid=4cbb35f9-cdcb-4515-9161-c04e683e952e"},"vehicle_type_id":"4","last_reported":1726819951,"current_range_meters":9200,"station_id":"ce4bgk12rcd13ifvqbj0","pricing_plan_id":"cebpf4jnsgd1na2vs0mg"},{"bike_id":"a1defe3d-7ef8-422e-8197-b2cd120a3257","system_id":"levelo_inurba_marseille","lat":43.28984,"lon":5.37839,"is_reserved":false,"is_disabled":false,"rental_uris":{"android":"levelo://app?vid=a1defe3d-7ef8-422e-8197-b2cd120a3257","ios":"levelo://app?vid=a1defe3d-7ef8-422e-8197-b2cd120a3257"},"vehicle_type_id":"4","last_reported":1726819951,"current_range_meters":24800,"station_id":"ce4bh9p2rcd13ifvqed0","pricing_plan_id":"cebpf4jnsgd1na2vs0mg"},{"bike_id":"e8a1ac1d-9e10-4e94-9ed7-5b9ab1ebe882","system_id":"levelo_inurba_marseille","lat":43.23148,"lon":5.43732,"is_reserved":false,"is_disabled":false,"rental_uris":{"android":"levelo://app?vid=e8a1ac1d-9e10-4e94-9ed7-5b9ab1ebe882","ios":"levelo://app?vid=e8a1ac1d-9e10-4e94-9ed7-5b9ab1ebe882"},"vehicle_type_id":"4","last_reported":1726819951,"current_range_meters":16000,"station_id":"ce4bhmp2rcd13ifvqgog","pricing_plan_id":"cebpf4jnsgd1na2vs0mg"},{"bike_id":"b767e618-2fa8-406f-9fc8-970b1602eb26","system_id":"levelo_inurba_marseille","lat":43.28976,"lon":5.37834,"is_reserved":false,"is_disabled":false,"rental_uris":{"android":"levelo://app?vid=b767e618-2fa8-406f-9fc8-970b1602eb26","ios":"levelo://app?vid=b767e618-2fa8-406f-9fc8-970b1602eb26"},"vehicle_type_id":"4","last_reported":1726819951,"current_range_meters":36000,"station_id":"ce4bh9p2rcd13ifvqed0","pricing_plan_id":"cebpf4jnsgd1na2vs0mg"},{"bike_id":"ff13ccc6-5f9f-47d0-a5ae-87d8650fc89a","system_id":"levelo_inurba_marseille","lat":43.28354,"lon":5.38104,"is_reserved":false,"is_disabled":false,"rental_uris":{"android":"levelo://app?vid=ff13ccc6-5f9f-47d0-a5ae-87d8650fc89a","ios":"levelo://app?vid=ff13ccc6-5f9f-47d0-a5ae-87d8650fc89a"},"vehicle_type_id":"4","last_reported":1726819951,"current_range_meters":26000,"station_id":"ce4bh412rcd13ifvqdr0","pricing_plan_id":"cebpf4jnsgd1na2vs0mg"},{"bike_id":"b7d4762a-1954-4b12-b3ec-ca886d184b18","system_id":"levelo_inurba_marseille","lat":43.29969,"lon":5.38496,"is_reserved":false,"is_disabled":false,"rental_uris":{"android":"levelo://app?vid=b7d4762a-1954-4b12-b3ec-ca886d184b18","ios":"levelo://app?vid=b7d4762a-1954-4b12-b3ec-ca886d184b18"},"vehicle_type_id":"4","last_reported":1726819951,"current_range_meters":38000,"station_id":"ce4bgj92rcd13ifvqbd0","pricing_plan_id":"cebpf4jnsgd1na2vs0mg"},{"bike_id":"43356356-1ebf-41d4-a9de-4fa2973940ef","system_id":"levelo_inurba_marseille","lat":43.29961,"lon":5.41333,"is_reserved":false,"is_disabled":false,"rental_uris":{"android":"levelo://app?vid=43356356-1ebf-41d4-a9de-4fa2973940ef","ios":"levelo://app?vid=43356356-1ebf-41d4-a9de-4fa2973940ef"},"vehicle_type_id":"4","last_reported":1726819951,"current_range_meters":32800,"station_id":"ce4bhp12rcd13ifvqh9g","pricing_plan_id":"cebpf4jnsgd1na2vs0mg"},{"bike_id":"e2bdc4bb-8774-4981-a659-1b1998644639","system_id":"levelo_inurba_marseille","lat":43.30555,"lon":5.36538,"is_reserved":false,"is_disabled":false,"rental_uris":{"android":"levelo://app?vid=e2bdc4bb-8774-4981-a659-1b1998644639","ios":"levelo://app?vid=e2bdc4bb-8774-4981-a659-1b1998644639"},"vehicle_type_id":"4","last_reported":1726819951,"current_range_meters":39200,"station_id":"ce4bgs12rcd13ifvqcag","pricing_plan_id":"cebpf4jnsgd1na2vs0mg"},{"bike_id":"6bbab1e7-c46d-4bcc-afb5-894cf0ac646b","system_id":"levelo_inurba_marseille","lat":43.26681,"lon":5.38266,"is_reserved":false,"is_disabled":false,"rental_uris":{"android":"levelo://app?vid=6bbab1e7-c46d-4bcc-afb5-894cf0ac646b","ios":"levelo://app?vid=6bbab1e7-c46d-4bcc-afb5-894cf0ac646b"},"vehicle_type_id":"4","last_reported":1726819951,"current_range_meters":8400,"station_id":"ce4bhg92rcd13ifvqf90","pricing_plan_id":"cebpf4jnsgd1na2vs0mg"},{"bike_id":"b431aa11-7864-481f-af3a-c99c02ad287c","system_id":"levelo_inurba_marseille","lat":43.23957,"lon":5.36652,"is_reserved":false,"is_disabled":false,"rental_uris":{"android":"levelo://app?vid=b431aa11-7864-481f-af3a-c99c02ad287c","ios":"levelo://app?vid=b431aa11-7864-481f-af3a-c99c02ad287c"},"vehicle_type_id":"4","last_reported":1726819951,"current_range_meters":38400,"station_id":"ce4bhi12rcd13ifvqfp0","pricing_plan_id":"cebpf4jnsgd1na2vs0mg"},{"bike_id":"e6805398-14bf-4c72-b165-1bedb5484a2a","system_id":"levelo_inurba_marseille","lat":43.29844,"lon":5.36269,"is_reserved":false,"is_disabled":false,"rental_uris":{"android":"levelo://app?vid=e6805398-14bf-4c72-b165-1bedb5484a2a","ios":"levelo://app?vid=e6805398-14bf-4c72-b165-1bedb5484a2a"},"vehicle_type_id":"4","last_reported":1726819951,"current_range_meters":33600,"station_id":"ce4bgpp2rcd13ifvqc3g","pricing_plan_id":"cebpf4jnsgd1na2vs0mg"},{"bike_id":"e21d0503-d758-4ec9-850d-d857697ee6d6","system_id":"levelo_inurba_marseille","lat":43.27203,"lon":5.39188,"is_reserved":false,"is_disabled":false,"rental_uris":{"android":"levelo://app?vid=e21d0503-d758-4ec9-850d-d857697ee6d6","ios":"levelo://app?vid=e21d0503-d758-4ec9-850d-d857697ee6d6"},"vehicle_type_id":"4","last_reported":1726819951,"current_range_meters":10000,"station_id":"ce4bhhp2rcd13ifvqfm0","pricing_plan_id":"cebpf4jnsgd1na2vs0mg"},{"bike_id":"b1cb1e9f-3e69-46f2-9aa0-798c2ddb2e2b","system_id":"levelo_inurba_marseille","lat":43.250061,"lon":5.389172,"is_reserved":false,"is_disabled":false,"rental_uris":{"android":"levelo://app?vid=b1cb1e9f-3e69-46f2-9aa0-798c2ddb2e2b","ios":"levelo://app?vid=b1cb1e9f-3e69-46f2-9aa0-798c2ddb2e2b"},"vehicle_type_id":"4","last_reported":1726819951,"current_range_meters":20400,"station_id":"ce4bhgp2rcd13ifvqfd0","pricing_plan_id":"cebpf4jnsgd1na2vs0mg"},{"bike_id":"0103eeda-09a7-4e2b-b881-e857ddcec39e","system_id":"levelo_inurba_marseille","lat":43.2319,"lon":5.3999,"is_reserved":false,"is_disabled":false,"rental_uris":{"android":"levelo://app?vid=0103eeda-09a7-4e2b-b881-e857ddcec39e","ios":"levelo://app?vid=0103eeda-09a7-4e2b-b881-e857ddcec39e"},"vehicle_type_id":"4","last_reported":1726819951,"current_range_meters":38000,"station_id":"ce4bhn12rcd13ifvqgqg","pricing_plan_id":"cebpf4jnsgd1na2vs0mg"},{"bike_id":"06db260b-56f3-4d24-914c-8282b53ae9c9","system_id":"levelo_inurba_marseille","lat":43.28979,"lon":5.3784,"is_reserved":false,"is_disabled":false,"rental_uris":{"android":"levelo://app?vid=06db260b-56f3-4d24-914c-8282b53ae9c9","ios":"levelo://app?vid=06db260b-56f3-4d24-914c-8282b53ae9c9"},"vehicle_type_id":"4","last_reported":1726819951,"current_range_meters":38400,"station_id":"ce4bh9p2rcd13ifvqed0","pricing_plan_id":"cebpf4jnsgd1na2vs0mg"},{"bike_id":"20c38507-54cc-4c8f-8982-751b7d95bdda","system_id":"levelo_inurba_marseille","lat":43.305939,"lon":5.372314,"is_reserved":false,"is_disabled":false,"rental_uris":{"android":"levelo://app?vid=20c38507-54cc-4c8f-8982-751b7d95bdda","ios":"levelo://app?vid=20c38507-54cc-4c8f-8982-751b7d95bdda"},"vehicle_type_id":"4","last_reported":1726819951,"current_range_meters":23200,"station_id":"ce4bhc92rcd13ifvqetg","pricing_plan_id":"cebpf4jnsgd1na2vs0mg"},{"bike_id":"85d5201c-522f-4cbd-ae43-eaf7a287246f","system_id":"levelo_inurba_marseille","lat":43.2408,"lon":5.37754,"is_reserved":false,"is_disabled":false,"rental_uris":{"android":"levelo://app?vid=85d5201c-522f-4cbd-ae43-eaf7a287246f","ios":"levelo://app?vid=85d5201c-522f-4cbd-ae43-eaf7a287246f"},"vehicle_type_id":"4","last_reported":1726819951,"current_range_meters":32800,"station_id":"ce4bhnp2rcd13ifvqgvg","pricing_plan_id":"cebpf4jnsgd1na2vs0mg"},{"bike_id":"0ac15010-dd38-4741-a92d-67db1c58b97f","system_id":"levelo_inurba_marseille","lat":43.32494,"lon":5.36563,"is_reserved":false,"is_disabled":false,"rental_uris":{"android":"levelo://app?vid=0ac15010-dd38-4741-a92d-67db1c58b97f","ios":"levelo://app?vid=0ac15010-dd38-4741-a92d-67db1c58b97f"},"vehicle_type_id":"4","last_reported":1726819951,"current_range_meters":17600,"station_id":"ce4bhs12rcd13ifvqhvg","pricing_plan_id":"cebpf4jnsgd1na2vs0mg"},{"bike_id":"06160354-60df-4cba-b7d5-441cbcd00837","system_id":"levelo_inurba_marseille","lat":43.30482,"lon":5.37908,"is_reserved":false,"is_disabled":false,"rental_uris":{"android":"levelo://app?vid=06160354-60df-4cba-b7d5-441cbcd00837","ios":"levelo://app?vid=06160354-60df-4cba-b7d5-441cbcd00837"},"vehicle_type_id":"4","last_reported":1726819951,"current_range_meters":38400,"station_id":"ce4bgup2rcd13ifvqcn0","pricing_plan_id":"cebpf4jnsgd1na2vs0mg"},{"bike_id":"306549f4-d300-4209-9498-1103ebfb72df","system_id":"levelo_inurba_marseille","lat":43.30545,"lon":5.36549,"is_reserved":false,"is_disabled":false,"rental_uris":{"android":"levelo://app?vid=306549f4-d300-4209-9498-1103ebfb72df","ios":"levelo://app?vid=306549f4-d300-4209-9498-1103ebfb72df"},"vehicle_type_id":"4","last_reported":1726819951,"current_range_meters":29600,"station_id":"ce4bgs12rcd13ifvqcag","pricing_plan_id":"cebpf4jnsgd1na2vs0mg"},{"bike_id":"55210ca0-1e27-46f9-805c-0e7e16a9b548","system_id":"levelo_inurba_marseille","lat":43.292664,"lon":5.368526,"is_reserved":false,"is_disabled":false,"rental_uris":{"android":"levelo://app?vid=55210ca0-1e27-46f9-805c-0e7e16a9b548","ios":"levelo://app?vid=55210ca0-1e27-46f9-805c-0e7e16a9b548"},"vehicle_type_id":"4","last_reported":1726819951,"current_range_meters":33600,"station_id":"ce4bhbp2rcd13ifvqesg","pricing_plan_id":"cebpf4jnsgd1na2vs0mg"},{"bike_id":"896e6927-c5f6-4910-b508-b7785967479b","system_id":"levelo_inurba_marseille","lat":43.26204,"lon":5.37923,"is_reserved":false,"is_disabled":false,"rental_uris":{"android":"levelo://app?vid=896e6927-c5f6-4910-b508-b7785967479b","ios":"levelo://app?vid=896e6927-c5f6-4910-b508-b7785967479b"},"vehicle_type_id":"4","last_reported":1726819951,"current_range_meters":37600,"station_id":"ce4bhjp2rcd13ifvqg90","pricing_plan_id":"cebpf4jnsgd1na2vs0mg"},{"bike_id":"cf555b44-67b0-41d4-a5f9-65b67db51574","system_id":"levelo_inurba_marseille","lat":43.2408,"lon":5.37747,"is_reserved":false,"is_disabled":false,"rental_uris":{"android":"levelo://app?vid=cf555b44-67b0-41d4-a5f9-65b67db51574","ios":"levelo://app?vid=cf555b44-67b0-41d4-a5f9-65b67db51574"},"vehicle_type_id":"4","last_reported":1726819951,"current_range_meters":3200,"station_id":"ce4bhnp2rcd13ifvqgvg","pricing_plan_id":"cebpf4jnsgd1na2vs0mg"},{"bike_id":"56b61507-dc12-40e5-b6e7-282fd0c50fea","system_id":"levelo_inurba_marseille","lat":43.28954,"lon":5.36421,"is_reserved":false,"is_disabled":false,"rental_uris":{"android":"levelo://app?vid=56b61507-dc12-40e5-b6e7-282fd0c50fea","ios":"levelo://app?vid=56b61507-dc12-40e5-b6e7-282fd0c50fea"},"vehicle_type_id":"4","last_reported":1726819951,"current_range_meters":6400,"station_id":"ce4bhc92rcd13ifvqetg","pricing_plan_id":"cebpf4jnsgd1na2vs0mg"},{"bike_id":"5e8cd25f-f66f-44f9-a20a-ca52de41cf51","system_id":"levelo_inurba_marseille","lat":43.30141,"lon":5.37405,"is_reserved":false,"is_disabled":false,"rental_uris":{"android":"levelo://app?vid=5e8cd25f-f66f-44f9-a20a-ca52de41cf51","ios":"levelo://app?vid=5e8cd25f-f66f-44f9-a20a-ca52de41cf51"},"vehicle_type_id":"4","last_reported":1726819951,"current_range_meters":36800,"station_id":"ce4bgs92rcd13ifvqcc0","pricing_plan_id":"cebpf4jnsgd1na2vs0mg"},{"bike_id":"2b2df78e-3214-4699-829a-8f95a79667af","system_id":"levelo_inurba_marseille","lat":43.24081,"lon":5.37754,"is_reserved":false,"is_disabled":false,"rental_uris":{"android":"levelo://app?vid=2b2df78e-3214-4699-829a-8f95a79667af","ios":"levelo://app?vid=2b2df78e-3214-4699-829a-8f95a79667af"},"vehicle_type_id":"4","last_reported":1726819951,"current_range_meters":25600,"station_id":"ce4bhnp2rcd13ifvqgvg","pricing_plan_id":"cebpf4jnsgd1na2vs0mg"},{"bike_id":"f104eaef-b3b0-4392-ad0b-884d81f7af7f","system_id":"levelo_inurba_marseille","lat":43.27491,"lon":5.42464,"is_reserved":false,"is_disabled":false,"rental_uris":{"android":"levelo://app?vid=f104eaef-b3b0-4392-ad0b-884d81f7af7f","ios":"levelo://app?vid=f104eaef-b3b0-4392-ad0b-884d81f7af7f"},"vehicle_type_id":"4","last_reported":1726819951,"current_range_meters":8000,"station_id":"ce4bhn92rcd13ifvqgrg","pricing_plan_id":"cebpf4jnsgd1na2vs0mg"},{"bike_id":"6305f7dd-88e5-4e74-8721-e6c5fd5be070","system_id":"levelo_inurba_marseille","lat":43.3048,"lon":5.37916,"is_reserved":false,"is_disabled":false,"rental_uris":{"android":"levelo://app?vid=6305f7dd-88e5-4e74-8721-e6c5fd5be070","ios":"levelo://app?vid=6305f7dd-88e5-4e74-8721-e6c5fd5be070"},"vehicle_type_id":"4","last_reported":1726819951,"current_range_meters":33600,"station_id":"ce4bgup2rcd13ifvqcn0","pricing_plan_id":"cebpf4jnsgd1na2vs0mg"},{"bike_id":"f87be47e-32d1-4f8a-818b-778dfb1144f9","system_id":"levelo_inurba_marseille","lat":43.301716,"lon":5.366285,"is_reserved":false,"is_disabled":false,"rental_uris":{"android":"levelo://app?vid=f87be47e-32d1-4f8a-818b-778dfb1144f9","ios":"levelo://app?vid=f87be47e-32d1-4f8a-818b-778dfb1144f9"},"vehicle_type_id":"4","last_reported":1726819951,"current_range_meters":34000,"station_id":"ce4bgrh2rcd13ifvqc8g","pricing_plan_id":"cebpf4jnsgd1na2vs0mg"},{"bike_id":"fad1b77a-7b5d-47ac-834a-7978db09f46b","system_id":"levelo_inurba_marseille","lat":43.289764,"lon":5.378414,"is_reserved":false,"is_disabled":false,"rental_uris":{"android":"levelo://app?vid=fad1b77a-7b5d-47ac-834a-7978db09f46b","ios":"levelo://app?vid=fad1b77a-7b5d-47ac-834a-7978db09f46b"},"vehicle_type_id":"4","last_reported":1726819951,"current_range_meters":38400,"station_id":"ce4bh9p2rcd13ifvqed0","pricing_plan_id":"cebpf4jnsgd1na2vs0mg"},{"bike_id":"9733eb26-9e68-456c-b0c3-d7415e89c90e","system_id":"levelo_inurba_marseille","lat":43.30553,"lon":5.36706,"is_reserved":false,"is_disabled":false,"rental_uris":{"android":"levelo://app?vid=9733eb26-9e68-456c-b0c3-d7415e89c90e","ios":"levelo://app?vid=9733eb26-9e68-456c-b0c3-d7415e89c90e"},"vehicle_type_id":"4","last_reported":1726819951,"current_range_meters":29600,"station_id":"ce4bgrp2rcd13ifvqc9g","pricing_plan_id":"cebpf4jnsgd1na2vs0mg"},{"bike_id":"dd5d1dac-99f5-433a-85c0-ca7b958391ea","system_id":"levelo_inurba_marseille","lat":43.30458,"lon":5.37925,"is_reserved":false,"is_disabled":false,"rental_uris":{"android":"levelo://app?vid=dd5d1dac-99f5-433a-85c0-ca7b958391ea","ios":"levelo://app?vid=dd5d1dac-99f5-433a-85c0-ca7b958391ea"},"vehicle_type_id":"4","last_reported":1726819951,"current_range_meters":27600,"station_id":"ce4bgup2rcd13ifvqcn0","pricing_plan_id":"cebpf4jnsgd1na2vs0mg"},{"bike_id":"09450b7f-f6cd-42a7-803e-6c020016fe60","system_id":"levelo_inurba_marseille","lat":43.2728,"lon":5.39114,"is_reserved":false,"is_disabled":false,"rental_uris":{"android":"levelo://app?vid=09450b7f-f6cd-42a7-803e-6c020016fe60","ios":"levelo://app?vid=09450b7f-f6cd-42a7-803e-6c020016fe60"},"vehicle_type_id":"4","last_reported":1726819951,"current_range_meters":28000,"station_id":"ce4bhgp2rcd13ifvqfe0","pricing_plan_id":"cebpf4jnsgd1na2vs0mg"},{"bike_id":"7738401f-101a-4c61-86f8-1271ccec939a","system_id":"levelo_inurba_marseille","lat":43.28356,"lon":5.38104,"is_reserved":false,"is_disabled":false,"rental_uris":{"android":"levelo://app?vid=7738401f-101a-4c61-86f8-1271ccec939a","ios":"levelo://app?vid=7738401f-101a-4c61-86f8-1271ccec939a"},"vehicle_type_id":"4","last_reported":1726819951,"current_range_meters":39200,"station_id":"ce4bh412rcd13ifvqdr0","pricing_plan_id":"cebpf4jnsgd1na2vs0mg"},{"bike_id":"fddda46f-3770-430a-bd4b-01e0f31638c2","system_id":"levelo_inurba_marseille","lat":43.25941,"lon":5.40897,"is_reserved":false,"is_disabled":false,"rental_uris":{"android":"levelo://app?vid=fddda46f-3770-430a-bd4b-01e0f31638c2","ios":"levelo://app?vid=fddda46f-3770-430a-bd4b-01e0f31638c2"},"vehicle_type_id":"4","last_reported":1726819951,"current_range_meters":30800,"station_id":"ce4bhm92rcd13ifvqglg","pricing_plan_id":"cebpf4jnsgd1na2vs0mg"},{"bike_id":"8ee6d5db-cb8b-4219-a1d2-5a1a8206952f","system_id":"levelo_inurba_marseille","lat":43.29556,"lon":5.42299,"is_reserved":false,"is_disabled":false,"rental_uris":{"android":"levelo://app?vid=8ee6d5db-cb8b-4219-a1d2-5a1a8206952f","ios":"levelo://app?vid=8ee6d5db-cb8b-4219-a1d2-5a1a8206952f"},"vehicle_type_id":"4","last_reported":1726819951,"current_range_meters":38000,"station_id":"ce4bhph2rcd13ifvqhdg","pricing_plan_id":"cebpf4jnsgd1na2vs0mg"},{"bike_id":"10f12f49-4cb0-4006-af16-73843c3bf357","system_id":"levelo_inurba_marseille","lat":43.24079,"lon":5.37759,"is_reserved":false,"is_disabled":false,"rental_uris":{"android":"levelo://app?vid=10f12f49-4cb0-4006-af16-73843c3bf357","ios":"levelo://app?vid=10f12f49-4cb0-4006-af16-73843c3bf357"},"vehicle_type_id":"4","last_reported":1726819951,"current_range_meters":16800,"station_id":"ce4bhnp2rcd13ifvqgvg","pricing_plan_id":"cebpf4jnsgd1na2vs0mg"},{"bike_id":"3048392a-9395-4998-80c0-039450d3cfa3","system_id":"levelo_inurba_marseille","lat":43.25932,"lon":5.40911,"is_reserved":false,"is_disabled":false,"rental_uris":{"android":"levelo://app?vid=3048392a-9395-4998-80c0-039450d3cfa3","ios":"levelo://app?vid=3048392a-9395-4998-80c0-039450d3cfa3"},"vehicle_type_id":"4","last_reported":1726819951,"current_range_meters":16400,"station_id":"ce4bhm92rcd13ifvqglg","pricing_plan_id":"cebpf4jnsgd1na2vs0mg"},{"bike_id":"b02c4222-612b-4c06-bc86-d4f2cfd5e477","system_id":"levelo_inurba_marseille","lat":43.24546,"lon":5.39533,"is_reserved":false,"is_disabled":false,"rental_uris":{"android":"levelo://app?vid=b02c4222-612b-4c06-bc86-d4f2cfd5e477","ios":"levelo://app?vid=b02c4222-612b-4c06-bc86-d4f2cfd5e477"},"vehicle_type_id":"4","last_reported":1726819951,"current_range_meters":25200,"station_id":"ce4bhlp2rcd13ifvqgjg","pricing_plan_id":"cebpf4jnsgd1na2vs0mg"},{"bike_id":"6cc57481-25b4-4654-8964-094a6c525f6d","system_id":"levelo_inurba_marseille","lat":43.27492,"lon":5.42448,"is_reserved":false,"is_disabled":false,"rental_uris":{"android":"levelo://app?vid=6cc57481-25b4-4654-8964-094a6c525f6d","ios":"levelo://app?vid=6cc57481-25b4-4654-8964-094a6c525f6d"},"vehicle_type_id":"4","last_reported":1726819951,"current_range_meters":6400,"station_id":"ce4bhn92rcd13ifvqgrg","pricing_plan_id":"cebpf4jnsgd1na2vs0mg"},{"bike_id":"ab704c81-0bdc-4966-a9a3-ecdb72287598","system_id":"levelo_inurba_marseille","lat":43.33604,"lon":5.41038,"is_reserved":false,"is_disabled":false,"rental_uris":{"android":"levelo://app?vid=ab704c81-0bdc-4966-a9a3-ecdb72287598","ios":"levelo://app?vid=ab704c81-0bdc-4966-a9a3-ecdb72287598"},"vehicle_type_id":"4","last_reported":1726819951,"current_range_meters":6800,"station_id":"ce4bhqh2rcd13ifvqhmg","pricing_plan_id":"cebpf4jnsgd1na2vs0mg"},{"bike_id":"bfc2814d-d660-4f27-8771-b310fb735346","system_id":"levelo_inurba_marseille","lat":43.24388,"lon":5.37048,"is_reserved":false,"is_disabled":false,"rental_uris":{"android":"levelo://app?vid=bfc2814d-d660-4f27-8771-b310fb735346","ios":"levelo://app?vid=bfc2814d-d660-4f27-8771-b310fb735346"},"vehicle_type_id":"4","last_reported":1726819951,"current_range_meters":36800,"station_id":"ce4bhhh2rcd13ifvqfk0","pricing_plan_id":"cebpf4jnsgd1na2vs0mg"},{"bike_id":"66bdbe49-6c87-4f80-b9c2-4a52c0ab5db0","system_id":"levelo_inurba_marseille","lat":43.30528,"lon":5.36704,"is_reserved":false,"is_disabled":false,"rental_uris":{"android":"levelo://app?vid=66bdbe49-6c87-4f80-b9c2-4a52c0ab5db0","ios":"levelo://app?vid=66bdbe49-6c87-4f80-b9c2-4a52c0ab5db0"},"vehicle_type_id":"4","last_reported":1726819951,"current_range_meters":10000,"station_id":"ce4bgrp2rcd13ifvqc9g","pricing_plan_id":"cebpf4jnsgd1na2vs0mg"},{"bike_id":"f05b292b-dfb4-4a49-bb04-bc6996a30a2f","system_id":"levelo_inurba_marseille","lat":43.30907,"lon":5.36846,"is_reserved":false,"is_disabled":false,"rental_uris":{"android":"levelo://app?vid=f05b292b-dfb4-4a49-bb04-bc6996a30a2f","ios":"levelo://app?vid=f05b292b-dfb4-4a49-bb04-bc6996a30a2f"},"vehicle_type_id":"4","last_reported":1726819951,"current_range_meters":25200,"station_id":"ce4bgn92rcd13ifvqbvg","pricing_plan_id":"cebpf4jnsgd1na2vs0mg"},{"bike_id":"ca1e80a3-8fb9-481f-8548-02eac17fcc5a","system_id":"levelo_inurba_marseille","lat":43.311116,"lon":5.377664,"is_reserved":false,"is_disabled":false,"rental_uris":{"android":"levelo://app?vid=ca1e80a3-8fb9-481f-8548-02eac17fcc5a","ios":"levelo://app?vid=ca1e80a3-8fb9-481f-8548-02eac17fcc5a"},"vehicle_type_id":"4","last_reported":1726819951,"current_range_meters":24800,"station_id":"ce4bgt92rcd13ifvqcg0","pricing_plan_id":"cebpf4jnsgd1na2vs0mg"},{"bike_id":"7604bb9e-fa4f-4017-a5c9-663dd19f2ba8","system_id":"levelo_inurba_marseille","lat":43.25943,"lon":5.40914,"is_reserved":false,"is_disabled":false,"rental_uris":{"android":"levelo://app?vid=7604bb9e-fa4f-4017-a5c9-663dd19f2ba8","ios":"levelo://app?vid=7604bb9e-fa4f-4017-a5c9-663dd19f2ba8"},"vehicle_type_id":"4","last_reported":1726819951,"current_range_meters":26800,"station_id":"ce4bhm92rcd13ifvqglg","pricing_plan_id":"cebpf4jnsgd1na2vs0mg"},{"bike_id":"b153f585-91a7-4778-8e3b-fba7bd4d15f4","system_id":"levelo_inurba_marseille","lat":43.31369,"lon":5.36697,"is_reserved":false,"is_disabled":false,"rental_uris":{"android":"levelo://app?vid=b153f585-91a7-4778-8e3b-fba7bd4d15f4","ios":"levelo://app?vid=b153f585-91a7-4778-8e3b-fba7bd4d15f4"},"vehicle_type_id":"4","last_reported":1726819951,"current_range_meters":39200,"station_id":"ce4bgr92rcd13ifvqc6g","pricing_plan_id":"cebpf4jnsgd1na2vs0mg"},{"bike_id":"162400c4-7c8e-4e08-8e30-3872a8628f3a","system_id":"levelo_inurba_marseille","lat":43.2695,"lon":5.38643,"is_reserved":false,"is_disabled":false,"rental_uris":{"android":"levelo://app?vid=162400c4-7c8e-4e08-8e30-3872a8628f3a","ios":"levelo://app?vid=162400c4-7c8e-4e08-8e30-3872a8628f3a"},"vehicle_type_id":"4","last_reported":1726819951,"current_range_meters":10800,"station_id":"ce4bhh92rcd13ifvqfh0","pricing_plan_id":"cebpf4jnsgd1na2vs0mg"},{"bike_id":"aa8c723a-18e1-4191-a83a-484ae857f704","system_id":"levelo_inurba_marseille","lat":43.34147,"lon":5.40908,"is_reserved":false,"is_disabled":false,"rental_uris":{"android":"levelo://app?vid=aa8c723a-18e1-4191-a83a-484ae857f704","ios":"levelo://app?vid=aa8c723a-18e1-4191-a83a-484ae857f704"},"vehicle_type_id":"4","last_reported":1726819951,"current_range_meters":28000,"station_id":"ce4bhqh2rcd13ifvqhlg","pricing_plan_id":"cebpf4jnsgd1na2vs0mg"},{"bike_id":"a036a2a0-6219-461f-bb0b-f34736ab1d2c","system_id":"levelo_inurba_marseille","lat":43.30909,"lon":5.3685,"is_reserved":false,"is_disabled":false,"rental_uris":{"android":"levelo://app?vid=a036a2a0-6219-461f-bb0b-f34736ab1d2c","ios":"levelo://app?vid=a036a2a0-6219-461f-bb0b-f34736ab1d2c"},"vehicle_type_id":"4","last_reported":1726819951,"current_range_meters":4800,"station_id":"ce4bgn92rcd13ifvqbvg","pricing_plan_id":"cebpf4jnsgd1na2vs0mg"},{"bike_id":"9e17731e-35d9-4aa0-92b3-bc18bc20078c","system_id":"levelo_inurba_marseille","lat":43.30947,"lon":5.39039,"is_reserved":false,"is_disabled":false,"rental_uris":{"android":"levelo://app?vid=9e17731e-35d9-4aa0-92b3-bc18bc20078c","ios":"levelo://app?vid=9e17731e-35d9-4aa0-92b3-bc18bc20078c"},"vehicle_type_id":"4","last_reported":1726819951,"current_range_meters":20400,"station_id":"ce4bgup2rcd13ifvqco0","pricing_plan_id":"cebpf4jnsgd1na2vs0mg"},{"bike_id":"247f8924-d2ca-48e7-b639-f5097299ef61","system_id":"levelo_inurba_marseille","lat":43.24388,"lon":5.37051,"is_reserved":false,"is_disabled":false,"rental_uris":{"android":"levelo://app?vid=247f8924-d2ca-48e7-b639-f5097299ef61","ios":"levelo://app?vid=247f8924-d2ca-48e7-b639-f5097299ef61"},"vehicle_type_id":"4","last_reported":1726819951,"current_range_meters":40000,"station_id":"ce4bhhh2rcd13ifvqfk0","pricing_plan_id":"cebpf4jnsgd1na2vs0mg"},{"bike_id":"bd84ece4-126a-4b12-8836-cea47ffa79e9","system_id":"levelo_inurba_marseille","lat":43.30549,"lon":5.36695,"is_reserved":false,"is_disabled":false,"rental_uris":{"android":"levelo://app?vid=bd84ece4-126a-4b12-8836-cea47ffa79e9","ios":"levelo://app?vid=bd84ece4-126a-4b12-8836-cea47ffa79e9"},"vehicle_type_id":"4","last_reported":1726819951,"current_range_meters":32000,"station_id":"ce4bgrp2rcd13ifvqc9g","pricing_plan_id":"cebpf4jnsgd1na2vs0mg"},{"bike_id":"6b0b777a-8312-49d9-bdfc-41a6c52e6b37","system_id":"levelo_inurba_marseille","lat":43.30471,"lon":5.37905,"is_reserved":false,"is_disabled":false,"rental_uris":{"android":"levelo://app?vid=6b0b777a-8312-49d9-bdfc-41a6c52e6b37","ios":"levelo://app?vid=6b0b777a-8312-49d9-bdfc-41a6c52e6b37"},"vehicle_type_id":"4","last_reported":1726819951,"current_range_meters":33600,"station_id":"ce4bgup2rcd13ifvqcn0","pricing_plan_id":"cebpf4jnsgd1na2vs0mg"},{"bike_id":"604c9531-be4f-4974-bfe2-bd7828d7386f","system_id":"levelo_inurba_marseille","lat":43.29905,"lon":5.43672,"is_reserved":false,"is_disabled":false,"rental_uris":{"android":"levelo://app?vid=604c9531-be4f-4974-bfe2-bd7828d7386f","ios":"levelo://app?vid=604c9531-be4f-4974-bfe2-bd7828d7386f"},"vehicle_type_id":"4","last_reported":1726819951,"current_range_meters":29600,"station_id":"ce4bhpp2rcd13ifvqhfg","pricing_plan_id":"cebpf4jnsgd1na2vs0mg"},{"bike_id":"44da3e59-dcf2-4354-910f-f3fece0ed467","system_id":"levelo_inurba_marseille","lat":43.27064,"lon":5.42275,"is_reserved":false,"is_disabled":false,"rental_uris":{"android":"levelo://app?vid=44da3e59-dcf2-4354-910f-f3fece0ed467","ios":"levelo://app?vid=44da3e59-dcf2-4354-910f-f3fece0ed467"},"vehicle_type_id":"4","last_reported":1726819951,"current_range_meters":37600,"station_id":"ce4bhk92rcd13ifvqgb0","pricing_plan_id":"cebpf4jnsgd1na2vs0mg"},{"bike_id":"eb2ef9af-e9bb-4b94-aee1-3fb33b5e66f9","system_id":"levelo_inurba_marseille","lat":43.27998,"lon":5.41665,"is_reserved":false,"is_disabled":false,"rental_uris":{"android":"levelo://app?vid=eb2ef9af-e9bb-4b94-aee1-3fb33b5e66f9","ios":"levelo://app?vid=eb2ef9af-e9bb-4b94-aee1-3fb33b5e66f9"},"vehicle_type_id":"4","last_reported":1726819951,"current_range_meters":37600,"station_id":"ce4bho12rcd13ifvqh1g","pricing_plan_id":"cebpf4jnsgd1na2vs0mg"},{"bike_id":"5cea981d-b657-480e-a220-5159c5967380","system_id":"levelo_inurba_marseille","lat":43.33761,"lon":5.37443,"is_reserved":false,"is_disabled":false,"rental_uris":{"android":"levelo://app?vid=5cea981d-b657-480e-a220-5159c5967380","ios":"levelo://app?vid=5cea981d-b657-480e-a220-5159c5967380"},"vehicle_type_id":"4","last_reported":1726819951,"current_range_meters":18800,"station_id":"","pricing_plan_id":"cebpf4jnsgd1na2vs0mg"},{"bike_id":"be365c2e-80e2-44c5-a20e-0144c10d6da3","system_id":"levelo_inurba_marseille","lat":43.26946,"lon":5.38652,"is_reserved":false,"is_disabled":false,"rental_uris":{"android":"levelo://app?vid=be365c2e-80e2-44c5-a20e-0144c10d6da3","ios":"levelo://app?vid=be365c2e-80e2-44c5-a20e-0144c10d6da3"},"vehicle_type_id":"4","last_reported":1726819951,"current_range_meters":40000,"station_id":"ce4bhh92rcd13ifvqfh0","pricing_plan_id":"cebpf4jnsgd1na2vs0mg"},{"bike_id":"bbabc812-5d4f-4dde-ac4b-6c59e8a40a27","system_id":"levelo_inurba_marseille","lat":43.27492,"lon":5.4245,"is_reserved":false,"is_disabled":false,"rental_uris":{"android":"levelo://app?vid=bbabc812-5d4f-4dde-ac4b-6c59e8a40a27","ios":"levelo://app?vid=bbabc812-5d4f-4dde-ac4b-6c59e8a40a27"},"vehicle_type_id":"4","last_reported":1726819951,"current_range_meters":38800,"station_id":"ce4bhn92rcd13ifvqgrg","pricing_plan_id":"cebpf4jnsgd1na2vs0mg"},{"bike_id":"15bbdbd8-fa35-4790-b472-706c4e2f4e69","system_id":"levelo_inurba_marseille","lat":43.3053,"lon":5.37272,"is_reserved":false,"is_disabled":false,"rental_uris":{"android":"levelo://app?vid=15bbdbd8-fa35-4790-b472-706c4e2f4e69","ios":"levelo://app?vid=15bbdbd8-fa35-4790-b472-706c4e2f4e69"},"vehicle_type_id":"4","last_reported":1726819951,"current_range_meters":6400,"station_id":"","pricing_plan_id":"cebpf4jnsgd1na2vs0mg"},{"bike_id":"ef6e8a6b-dbc8-497d-adeb-1b246e1a7dec","system_id":"levelo_inurba_marseille","lat":43.24165,"lon":5.39742,"is_reserved":false,"is_disabled":false,"rental_uris":{"android":"levelo://app?vid=ef6e8a6b-dbc8-497d-adeb-1b246e1a7dec","ios":"levelo://app?vid=ef6e8a6b-dbc8-497d-adeb-1b246e1a7dec"},"vehicle_type_id":"4","last_reported":1726819951,"current_range_meters":39200,"station_id":"ce4bhn12rcd13ifvqgpg","pricing_plan_id":"cebpf4jnsgd1na2vs0mg"},{"bike_id":"9f8649e2-75d2-4d09-94ee-538fd13f9680","system_id":"levelo_inurba_marseille","lat":43.33605,"lon":5.41021,"is_reserved":false,"is_disabled":false,"rental_uris":{"android":"levelo://app?vid=9f8649e2-75d2-4d09-94ee-538fd13f9680","ios":"levelo://app?vid=9f8649e2-75d2-4d09-94ee-538fd13f9680"},"vehicle_type_id":"4","last_reported":1726819951,"current_range_meters":38800,"station_id":"ce4bhqh2rcd13ifvqhmg","pricing_plan_id":"cebpf4jnsgd1na2vs0mg"},{"bike_id":"eba8614c-0914-4ce7-a706-4d43d12ff0e3","system_id":"levelo_inurba_marseille","lat":43.28152,"lon":5.4265,"is_reserved":false,"is_disabled":false,"rental_uris":{"android":"levelo://app?vid=eba8614c-0914-4ce7-a706-4d43d12ff0e3","ios":"levelo://app?vid=eba8614c-0914-4ce7-a706-4d43d12ff0e3"},"vehicle_type_id":"4","last_reported":1726819951,"current_range_meters":33200,"station_id":"ce4bhnh2rcd13ifvqgug","pricing_plan_id":"cebpf4jnsgd1na2vs0mg"},{"bike_id":"95b41d6d-fd81-42f3-8c2c-23df7314a0a1","system_id":"levelo_inurba_marseille","lat":43.251265,"lon":5.403074,"is_reserved":false,"is_disabled":false,"rental_uris":{"android":"levelo://app?vid=95b41d6d-fd81-42f3-8c2c-23df7314a0a1","ios":"levelo://app?vid=95b41d6d-fd81-42f3-8c2c-23df7314a0a1"},"vehicle_type_id":"4","last_reported":1726819951,"current_range_meters":7200,"station_id":"ce4bhlh2rcd13ifvqgig","pricing_plan_id":"cebpf4jnsgd1na2vs0mg"},{"bike_id":"d945eb8d-5cb8-4c31-bb96-00ddae5c2676","system_id":"levelo_inurba_marseille","lat":43.29001,"lon":5.37857,"is_reserved":false,"is_disabled":false,"rental_uris":{"android":"levelo://app?vid=d945eb8d-5cb8-4c31-bb96-00ddae5c2676","ios":"levelo://app?vid=d945eb8d-5cb8-4c31-bb96-00ddae5c2676"},"vehicle_type_id":"4","last_reported":1726819951,"current_range_meters":33200,"station_id":"ce4bh9p2rcd13ifvqed0","pricing_plan_id":"cebpf4jnsgd1na2vs0mg"},{"bike_id":"41ffe4d4-1ffb-4af5-9736-66aefde672c8","system_id":"levelo_inurba_marseille","lat":43.30148,"lon":5.37423,"is_reserved":false,"is_disabled":false,"rental_uris":{"android":"levelo://app?vid=41ffe4d4-1ffb-4af5-9736-66aefde672c8","ios":"levelo://app?vid=41ffe4d4-1ffb-4af5-9736-66aefde672c8"},"vehicle_type_id":"4","last_reported":1726819951,"current_range_meters":27200,"station_id":"ce4bgs92rcd13ifvqcc0","pricing_plan_id":"cebpf4jnsgd1na2vs0mg"},{"bike_id":"5910eaa6-f894-4b8f-9a20-79443111bee6","system_id":"levelo_inurba_marseille","lat":43.24077,"lon":5.37801,"is_reserved":false,"is_disabled":false,"rental_uris":{"android":"levelo://app?vid=5910eaa6-f894-4b8f-9a20-79443111bee6","ios":"levelo://app?vid=5910eaa6-f894-4b8f-9a20-79443111bee6"},"vehicle_type_id":"4","last_reported":1726819951,"current_range_meters":35200,"station_id":"ce4bhnp2rcd13ifvqgvg","pricing_plan_id":"cebpf4jnsgd1na2vs0mg"},{"bike_id":"e4047342-26b0-4622-96c7-68f931d0feca","system_id":"levelo_inurba_marseille","lat":43.28369,"lon":5.38639,"is_reserved":false,"is_disabled":false,"rental_uris":{"android":"levelo://app?vid=e4047342-26b0-4622-96c7-68f931d0feca","ios":"levelo://app?vid=e4047342-26b0-4622-96c7-68f931d0feca"},"vehicle_type_id":"4","last_reported":1726819951,"current_range_meters":39200,"station_id":"ce4bh492rcd13ifvqdvg","pricing_plan_id":"cebpf4jnsgd1na2vs0mg"},{"bike_id":"8bded9b1-4958-41a5-9529-392455536bc5","system_id":"levelo_inurba_marseille","lat":43.27494,"lon":5.42452,"is_reserved":false,"is_disabled":false,"rental_uris":{"android":"levelo://app?vid=8bded9b1-4958-41a5-9529-392455536bc5","ios":"levelo://app?vid=8bded9b1-4958-41a5-9529-392455536bc5"},"vehicle_type_id":"4","last_reported":1726819951,"current_range_meters":38800,"station_id":"ce4bhn92rcd13ifvqgrg","pricing_plan_id":"cebpf4jnsgd1na2vs0mg"},{"bike_id":"923be1b8-882a-445b-83fa-e72f0e039471","system_id":"levelo_inurba_marseille","lat":43.30557,"lon":5.36531,"is_reserved":false,"is_disabled":false,"rental_uris":{"android":"levelo://app?vid=923be1b8-882a-445b-83fa-e72f0e039471","ios":"levelo://app?vid=923be1b8-882a-445b-83fa-e72f0e039471"},"vehicle_type_id":"4","last_reported":1726819951,"current_range_meters":39200,"station_id":"ce4bgs12rcd13ifvqcag","pricing_plan_id":"cebpf4jnsgd1na2vs0mg"},{"bike_id":"af6873ae-bb6e-4ae7-a012-a9d9905682e3","system_id":"levelo_inurba_marseille","lat":43.2922,"lon":5.36071,"is_reserved":false,"is_disabled":false,"rental_uris":{"android":"levelo://app?vid=af6873ae-bb6e-4ae7-a012-a9d9905682e3","ios":"levelo://app?vid=af6873ae-bb6e-4ae7-a012-a9d9905682e3"},"vehicle_type_id":"4","last_reported":1726819951,"current_range_meters":22800,"station_id":"ce4bhbh2rcd13ifvqeqg","pricing_plan_id":"cebpf4jnsgd1na2vs0mg"},{"bike_id":"cb86d49d-19a8-49b4-b19d-84fe057be2c4","system_id":"levelo_inurba_marseille","lat":43.29304,"lon":5.37473,"is_reserved":false,"is_disabled":false,"rental_uris":{"android":"levelo://app?vid=cb86d49d-19a8-49b4-b19d-84fe057be2c4","ios":"levelo://app?vid=cb86d49d-19a8-49b4-b19d-84fe057be2c4"},"vehicle_type_id":"4","last_reported":1726819951,"current_range_meters":20000,"station_id":"ce4bgi12rcd13ifvqb70","pricing_plan_id":"cebpf4jnsgd1na2vs0mg"},{"bike_id":"4fa0ca0d-342c-4cd6-990b-f5e4ae40db2b","system_id":"levelo_inurba_marseille","lat":43.29963,"lon":5.41325,"is_reserved":false,"is_disabled":false,"rental_uris":{"android":"levelo://app?vid=4fa0ca0d-342c-4cd6-990b-f5e4ae40db2b","ios":"levelo://app?vid=4fa0ca0d-342c-4cd6-990b-f5e4ae40db2b"},"vehicle_type_id":"4","last_reported":1726819951,"current_range_meters":36800,"station_id":"ce4bhp12rcd13ifvqh9g","pricing_plan_id":"cebpf4jnsgd1na2vs0mg"},{"bike_id":"1b297945-7c8a-4e0e-b2c4-bc43a6c00be3","system_id":"levelo_inurba_marseille","lat":43.2465,"lon":5.38907,"is_reserved":false,"is_disabled":false,"rental_uris":{"android":"levelo://app?vid=1b297945-7c8a-4e0e-b2c4-bc43a6c00be3","ios":"levelo://app?vid=1b297945-7c8a-4e0e-b2c4-bc43a6c00be3"},"vehicle_type_id":"4","last_reported":1726819951,"current_range_meters":38800,"station_id":"ce4bhg12rcd13ifvqf60","pricing_plan_id":"cebpf4jnsgd1na2vs0mg"},{"bike_id":"f8571aad-5f92-4ec9-b9ed-faec8639629b","system_id":"levelo_inurba_marseille","lat":43.3362,"lon":5.41019,"is_reserved":false,"is_disabled":false,"rental_uris":{"android":"levelo://app?vid=f8571aad-5f92-4ec9-b9ed-faec8639629b","ios":"levelo://app?vid=f8571aad-5f92-4ec9-b9ed-faec8639629b"},"vehicle_type_id":"4","last_reported":1726819951,"current_range_meters":17200,"station_id":"ce4bhqh2rcd13ifvqhmg","pricing_plan_id":"cebpf4jnsgd1na2vs0mg"},{"bike_id":"79c66cf1-cd91-4389-b17f-aaf81e94c310","system_id":"levelo_inurba_marseille","lat":43.23153,"lon":5.43726,"is_reserved":false,"is_disabled":false,"rental_uris":{"android":"levelo://app?vid=79c66cf1-cd91-4389-b17f-aaf81e94c310","ios":"levelo://app?vid=79c66cf1-cd91-4389-b17f-aaf81e94c310"},"vehicle_type_id":"4","last_reported":1726819951,"current_range_meters":28800,"station_id":"ce4bhmp2rcd13ifvqgog","pricing_plan_id":"cebpf4jnsgd1na2vs0mg"},{"bike_id":"9029c59f-5616-4636-a3a2-5d0cfac2c465","system_id":"levelo_inurba_marseille","lat":43.25827,"lon":5.39425,"is_reserved":false,"is_disabled":false,"rental_uris":{"android":"levelo://app?vid=9029c59f-5616-4636-a3a2-5d0cfac2c465","ios":"levelo://app?vid=9029c59f-5616-4636-a3a2-5d0cfac2c465"},"vehicle_type_id":"4","last_reported":1726819951,"current_range_meters":20000,"station_id":"ce4bhip2rcd13ifvqft0","pricing_plan_id":"cebpf4jnsgd1na2vs0mg"},{"bike_id":"8a12d865-b083-4883-b5aa-f97910a59200","system_id":"levelo_inurba_marseille","lat":43.30165,"lon":5.38087,"is_reserved":false,"is_disabled":false,"rental_uris":{"android":"levelo://app?vid=8a12d865-b083-4883-b5aa-f97910a59200","ios":"levelo://app?vid=8a12d865-b083-4883-b5aa-f97910a59200"},"vehicle_type_id":"4","last_reported":1726819951,"current_range_meters":32400,"station_id":"ce4bgjp2rcd13ifvqbh0","pricing_plan_id":"cebpf4jnsgd1na2vs0mg"},{"bike_id":"084cf6df-dabb-4d3c-b823-2c74f4e5856c","system_id":"levelo_inurba_marseille","lat":43.337444,"lon":5.374475,"is_reserved":false,"is_disabled":false,"rental_uris":{"android":"levelo://app?vid=084cf6df-dabb-4d3c-b823-2c74f4e5856c","ios":"levelo://app?vid=084cf6df-dabb-4d3c-b823-2c74f4e5856c"},"vehicle_type_id":"4","last_reported":1726819951,"current_range_meters":33600,"station_id":"","pricing_plan_id":"cebpf4jnsgd1na2vs0mg"},{"bike_id":"b8472931-e20b-407c-9734-eb6a09400b38","system_id":"levelo_inurba_marseille","lat":43.30951,"lon":5.39042,"is_reserved":false,"is_disabled":false,"rental_uris":{"android":"levelo://app?vid=b8472931-e20b-407c-9734-eb6a09400b38","ios":"levelo://app?vid=b8472931-e20b-407c-9734-eb6a09400b38"},"vehicle_type_id":"4","last_reported":1726819951,"current_range_meters":16800,"station_id":"ce4bgup2rcd13ifvqco0","pricing_plan_id":"cebpf4jnsgd1na2vs0mg"},{"bike_id":"283085bc-c3f6-4452-931b-d999c2f07c43","system_id":"levelo_inurba_marseille","lat":43.24079,"lon":5.37754,"is_reserved":false,"is_disabled":false,"rental_uris":{"android":"levelo://app?vid=283085bc-c3f6-4452-931b-d999c2f07c43","ios":"levelo://app?vid=283085bc-c3f6-4452-931b-d999c2f07c43"},"vehicle_type_id":"4","last_reported":1726819951,"current_range_meters":30000,"station_id":"ce4bhnp2rcd13ifvqgvg","pricing_plan_id":"cebpf4jnsgd1na2vs0mg"},{"bike_id":"4f9594be-eb89-451c-99e6-1d1b91e83878","system_id":"levelo_inurba_marseille","lat":43.28768,"lon":5.37854,"is_reserved":false,"is_disabled":false,"rental_uris":{"android":"levelo://app?vid=4f9594be-eb89-451c-99e6-1d1b91e83878","ios":"levelo://app?vid=4f9594be-eb89-451c-99e6-1d1b91e83878"},"vehicle_type_id":"4","last_reported":1726819951,"current_range_meters":8800,"station_id":"","pricing_plan_id":"cebpf4jnsgd1na2vs0mg"},{"bike_id":"5705acbc-d503-4f36-a9f5-13b5f18aa34d","system_id":"levelo_inurba_marseille","lat":43.2396,"lon":5.36649,"is_reserved":false,"is_disabled":false,"rental_uris":{"android":"levelo://app?vid=5705acbc-d503-4f36-a9f5-13b5f18aa34d","ios":"levelo://app?vid=5705acbc-d503-4f36-a9f5-13b5f18aa34d"},"vehicle_type_id":"4","last_reported":1726819951,"current_range_meters":36000,"station_id":"ce4bhi12rcd13ifvqfp0","pricing_plan_id":"cebpf4jnsgd1na2vs0mg"},{"bike_id":"d88f21e2-1a2f-4913-af49-ccdbbe8b85a3","system_id":"levelo_inurba_marseille","lat":43.255,"lon":5.3765,"is_reserved":false,"is_disabled":false,"rental_uris":{"android":"levelo://app?vid=d88f21e2-1a2f-4913-af49-ccdbbe8b85a3","ios":"levelo://app?vid=d88f21e2-1a2f-4913-af49-ccdbbe8b85a3"},"vehicle_type_id":"4","last_reported":1726819951,"current_range_meters":27600,"station_id":"ce4bhh12rcd13ifvqff0","pricing_plan_id":"cebpf4jnsgd1na2vs0mg"},{"bike_id":"f3cf9103-1834-46e7-b289-cf440a45e85f","system_id":"levelo_inurba_marseille","lat":43.30555,"lon":5.36715,"is_reserved":false,"is_disabled":false,"rental_uris":{"android":"levelo://app?vid=f3cf9103-1834-46e7-b289-cf440a45e85f","ios":"levelo://app?vid=f3cf9103-1834-46e7-b289-cf440a45e85f"},"vehicle_type_id":"4","last_reported":1726819951,"current_range_meters":22000,"station_id":"ce4bgrp2rcd13ifvqc9g","pricing_plan_id":"cebpf4jnsgd1na2vs0mg"},{"bike_id":"6891a506-ca8f-4c85-b0e4-4edd7a4e2bed","system_id":"levelo_inurba_marseille","lat":43.26208,"lon":5.3793,"is_reserved":false,"is_disabled":false,"rental_uris":{"android":"levelo://app?vid=6891a506-ca8f-4c85-b0e4-4edd7a4e2bed","ios":"levelo://app?vid=6891a506-ca8f-4c85-b0e4-4edd7a4e2bed"},"vehicle_type_id":"4","last_reported":1726819951,"current_range_meters":25200,"station_id":"ce4bhjp2rcd13ifvqg90","pricing_plan_id":"cebpf4jnsgd1na2vs0mg"},{"bike_id":"9f74c31e-e7e4-4011-8c2d-e9d6e7471353","system_id":"levelo_inurba_marseille","lat":43.29574,"lon":5.39971,"is_reserved":false,"is_disabled":false,"rental_uris":{"android":"levelo://app?vid=9f74c31e-e7e4-4011-8c2d-e9d6e7471353","ios":"levelo://app?vid=9f74c31e-e7e4-4011-8c2d-e9d6e7471353"},"vehicle_type_id":"4","last_reported":1726819951,"current_range_meters":27200,"station_id":"ce4bh312rcd13ifvqdj0","pricing_plan_id":"cebpf4jnsgd1na2vs0mg"},{"bike_id":"7b9dd459-340b-4978-bfb0-6c163a5263e8","system_id":"levelo_inurba_marseille","lat":43.23192,"lon":5.35547,"is_reserved":false,"is_disabled":false,"rental_uris":{"android":"levelo://app?vid=7b9dd459-340b-4978-bfb0-6c163a5263e8","ios":"levelo://app?vid=7b9dd459-340b-4978-bfb0-6c163a5263e8"},"vehicle_type_id":"4","last_reported":1726819951,"current_range_meters":39200,"station_id":"ce4bhu92rcd13ifvqi70","pricing_plan_id":"cebpf4jnsgd1na2vs0mg"},{"bike_id":"4f43dba0-3939-44ed-896a-3812c56c94e0","system_id":"levelo_inurba_marseille","lat":43.30163,"lon":5.38074,"is_reserved":false,"is_disabled":false,"rental_uris":{"android":"levelo://app?vid=4f43dba0-3939-44ed-896a-3812c56c94e0","ios":"levelo://app?vid=4f43dba0-3939-44ed-896a-3812c56c94e0"},"vehicle_type_id":"4","last_reported":1726819951,"current_range_meters":21600,"station_id":"ce4bgjp2rcd13ifvqbh0","pricing_plan_id":"cebpf4jnsgd1na2vs0mg"},{"bike_id":"8a8b9775-ebde-4d45-82eb-edb2dda75711","system_id":"levelo_inurba_marseille","lat":43.30464,"lon":5.37914,"is_reserved":false,"is_disabled":false,"rental_uris":{"android":"levelo://app?vid=8a8b9775-ebde-4d45-82eb-edb2dda75711","ios":"levelo://app?vid=8a8b9775-ebde-4d45-82eb-edb2dda75711"},"vehicle_type_id":"4","last_reported":1726819951,"current_range_meters":22000,"station_id":"ce4bgup2rcd13ifvqcn0","pricing_plan_id":"cebpf4jnsgd1na2vs0mg"},{"bike_id":"6e3089e4-6251-4618-9b17-ed0e256ff525","system_id":"levelo_inurba_marseille","lat":43.29223,"lon":5.36082,"is_reserved":false,"is_disabled":false,"rental_uris":{"android":"levelo://app?vid=6e3089e4-6251-4618-9b17-ed0e256ff525","ios":"levelo://app?vid=6e3089e4-6251-4618-9b17-ed0e256ff525"},"vehicle_type_id":"4","last_reported":1726819951,"current_range_meters":30000,"station_id":"ce4bhbh2rcd13ifvqeqg","pricing_plan_id":"cebpf4jnsgd1na2vs0mg"},{"bike_id":"d42a3ae0-96fd-483d-9a44-b14a73508c02","system_id":"levelo_inurba_marseille","lat":43.24073,"lon":5.37761,"is_reserved":false,"is_disabled":false,"rental_uris":{"android":"levelo://app?vid=d42a3ae0-96fd-483d-9a44-b14a73508c02","ios":"levelo://app?vid=d42a3ae0-96fd-483d-9a44-b14a73508c02"},"vehicle_type_id":"4","last_reported":1726819951,"current_range_meters":10800,"station_id":"ce4bhnp2rcd13ifvqgvg","pricing_plan_id":"cebpf4jnsgd1na2vs0mg"},{"bike_id":"30d03598-4584-4809-9303-434479df300e","system_id":"levelo_inurba_marseille","lat":43.32477,"lon":5.36562,"is_reserved":false,"is_disabled":false,"rental_uris":{"android":"levelo://app?vid=30d03598-4584-4809-9303-434479df300e","ios":"levelo://app?vid=30d03598-4584-4809-9303-434479df300e"},"vehicle_type_id":"4","last_reported":1726819951,"current_range_meters":30800,"station_id":"ce4bhs12rcd13ifvqhvg","pricing_plan_id":"cebpf4jnsgd1na2vs0mg"},{"bike_id":"455da7ee-666a-41a0-9f52-dbe9e11da969","system_id":"levelo_inurba_marseille","lat":43.25115,"lon":5.40321,"is_reserved":false,"is_disabled":false,"rental_uris":{"android":"levelo://app?vid=455da7ee-666a-41a0-9f52-dbe9e11da969","ios":"levelo://app?vid=455da7ee-666a-41a0-9f52-dbe9e11da969"},"vehicle_type_id":"4","last_reported":1726819951,"current_range_meters":22000,"station_id":"ce4bhlh2rcd13ifvqgig","pricing_plan_id":"cebpf4jnsgd1na2vs0mg"},{"bike_id":"59526314-6814-428f-9df0-ead1cf1c2777","system_id":"levelo_inurba_marseille","lat":43.25934,"lon":5.40917,"is_reserved":false,"is_disabled":false,"rental_uris":{"android":"levelo://app?vid=59526314-6814-428f-9df0-ead1cf1c2777","ios":"levelo://app?vid=59526314-6814-428f-9df0-ead1cf1c2777"},"vehicle_type_id":"4","last_reported":1726819951,"current_range_meters":35600,"station_id":"ce4bhm92rcd13ifvqglg","pricing_plan_id":"cebpf4jnsgd1na2vs0mg"},{"bike_id":"52e93c74-6881-49e0-9338-d52c172e47d4","system_id":"levelo_inurba_marseille","lat":43.30429,"lon":5.39741,"is_reserved":false,"is_disabled":false,"rental_uris":{"android":"levelo://app?vid=52e93c74-6881-49e0-9338-d52c172e47d4","ios":"levelo://app?vid=52e93c74-6881-49e0-9338-d52c172e47d4"},"vehicle_type_id":"4","last_reported":1726819951,"current_range_meters":38800,"station_id":"ce4bh092rcd13ifvqd20","pricing_plan_id":"cebpf4jnsgd1na2vs0mg"},{"bike_id":"32d4a5c9-769a-4251-b032-0492dfb4b942","system_id":"levelo_inurba_marseille","lat":43.27486,"lon":5.42457,"is_reserved":false,"is_disabled":false,"rental_uris":{"android":"levelo://app?vid=32d4a5c9-769a-4251-b032-0492dfb4b942","ios":"levelo://app?vid=32d4a5c9-769a-4251-b032-0492dfb4b942"},"vehicle_type_id":"4","last_reported":1726819951,"current_range_meters":32400,"station_id":"ce4bhn92rcd13ifvqgrg","pricing_plan_id":"cebpf4jnsgd1na2vs0mg"},{"bike_id":"69bbfd59-fc16-411e-a1f5-96425a817f6c","system_id":"levelo_inurba_marseille","lat":43.26943,"lon":5.38642,"is_reserved":false,"is_disabled":false,"rental_uris":{"android":"levelo://app?vid=69bbfd59-fc16-411e-a1f5-96425a817f6c","ios":"levelo://app?vid=69bbfd59-fc16-411e-a1f5-96425a817f6c"},"vehicle_type_id":"4","last_reported":1726819951,"current_range_meters":31200,"station_id":"ce4bhh92rcd13ifvqfh0","pricing_plan_id":"cebpf4jnsgd1na2vs0mg"},{"bike_id":"75308ddd-64cf-4f19-8197-d8de2afe069c","system_id":"levelo_inurba_marseille","lat":43.28342,"lon":5.3811,"is_reserved":false,"is_disabled":false,"rental_uris":{"android":"levelo://app?vid=75308ddd-64cf-4f19-8197-d8de2afe069c","ios":"levelo://app?vid=75308ddd-64cf-4f19-8197-d8de2afe069c"},"vehicle_type_id":"4","last_reported":1726819951,"current_range_meters":11600,"station_id":"ce4bh412rcd13ifvqdr0","pricing_plan_id":"cebpf4jnsgd1na2vs0mg"},{"bike_id":"b3d39a3c-0271-40ca-9144-acc31cfc237a","system_id":"levelo_inurba_marseille","lat":43.25938,"lon":5.40906,"is_reserved":false,"is_disabled":false,"rental_uris":{"android":"levelo://app?vid=b3d39a3c-0271-40ca-9144-acc31cfc237a","ios":"levelo://app?vid=b3d39a3c-0271-40ca-9144-acc31cfc237a"},"vehicle_type_id":"4","last_reported":1726819951,"current_range_meters":8000,"station_id":"ce4bhm92rcd13ifvqglg","pricing_plan_id":"cebpf4jnsgd1na2vs0mg"},{"bike_id":"ffddd2d0-239b-4ad9-bf5e-964f010aa097","system_id":"levelo_inurba_marseille","lat":43.24086,"lon":5.37751,"is_reserved":false,"is_disabled":false,"rental_uris":{"android":"levelo://app?vid=ffddd2d0-239b-4ad9-bf5e-964f010aa097","ios":"levelo://app?vid=ffddd2d0-239b-4ad9-bf5e-964f010aa097"},"vehicle_type_id":"4","last_reported":1726819951,"current_range_meters":26000,"station_id":"ce4bhnp2rcd13ifvqgvg","pricing_plan_id":"cebpf4jnsgd1na2vs0mg"},{"bike_id":"953d3fb6-bcd6-43d5-a729-cf2cc0c9556b","system_id":"levelo_inurba_marseille","lat":43.30148,"lon":5.37421,"is_reserved":false,"is_disabled":false,"rental_uris":{"android":"levelo://app?vid=953d3fb6-bcd6-43d5-a729-cf2cc0c9556b","ios":"levelo://app?vid=953d3fb6-bcd6-43d5-a729-cf2cc0c9556b"},"vehicle_type_id":"4","last_reported":1726819951,"current_range_meters":6400,"station_id":"ce4bgs92rcd13ifvqcc0","pricing_plan_id":"cebpf4jnsgd1na2vs0mg"},{"bike_id":"e8838fc0-3cd4-4213-84e3-c33f37fcda59","system_id":"levelo_inurba_marseille","lat":43.25836,"lon":5.39434,"is_reserved":false,"is_disabled":false,"rental_uris":{"android":"levelo://app?vid=e8838fc0-3cd4-4213-84e3-c33f37fcda59","ios":"levelo://app?vid=e8838fc0-3cd4-4213-84e3-c33f37fcda59"},"vehicle_type_id":"4","last_reported":1726819951,"current_range_meters":38800,"station_id":"ce4bhip2rcd13ifvqft0","pricing_plan_id":"cebpf4jnsgd1na2vs0mg"},{"bike_id":"9f41393a-138e-4e65-a1a2-1a0526a4555e","system_id":"levelo_inurba_marseille","lat":43.27498,"lon":5.42458,"is_reserved":false,"is_disabled":false,"rental_uris":{"android":"levelo://app?vid=9f41393a-138e-4e65-a1a2-1a0526a4555e","ios":"levelo://app?vid=9f41393a-138e-4e65-a1a2-1a0526a4555e"},"vehicle_type_id":"4","last_reported":1726819951,"current_range_meters":20400,"station_id":"ce4bhn92rcd13ifvqgrg","pricing_plan_id":"cebpf4jnsgd1na2vs0mg"},{"bike_id":"6f393d5d-9448-4f71-b2f1-3d0a35ff0431","system_id":"levelo_inurba_marseille","lat":43.25827,"lon":5.39438,"is_reserved":false,"is_disabled":false,"rental_uris":{"android":"levelo://app?vid=6f393d5d-9448-4f71-b2f1-3d0a35ff0431","ios":"levelo://app?vid=6f393d5d-9448-4f71-b2f1-3d0a35ff0431"},"vehicle_type_id":"4","last_reported":1726819951,"current_range_meters":37600,"station_id":"ce4bhip2rcd13ifvqft0","pricing_plan_id":"cebpf4jnsgd1na2vs0mg"},{"bike_id":"e867b2f1-483d-43f1-8393-388c5bc68b9c","system_id":"levelo_inurba_marseille","lat":43.31713,"lon":5.40462,"is_reserved":false,"is_disabled":false,"rental_uris":{"android":"levelo://app?vid=e867b2f1-483d-43f1-8393-388c5bc68b9c","ios":"levelo://app?vid=e867b2f1-483d-43f1-8393-388c5bc68b9c"},"vehicle_type_id":"4","last_reported":1726819951,"current_range_meters":38800,"station_id":"ce4bh012rcd13ifvqd00","pricing_plan_id":"cebpf4jnsgd1na2vs0mg"},{"bike_id":"625efc9f-ff46-4ca3-aaac-13f8f46af8bc","system_id":"levelo_inurba_marseille","lat":43.30946,"lon":5.39035,"is_reserved":false,"is_disabled":false,"rental_uris":{"android":"levelo://app?vid=625efc9f-ff46-4ca3-aaac-13f8f46af8bc","ios":"levelo://app?vid=625efc9f-ff46-4ca3-aaac-13f8f46af8bc"},"vehicle_type_id":"4","last_reported":1726819951,"current_range_meters":32400,"station_id":"ce4bgup2rcd13ifvqco0","pricing_plan_id":"cebpf4jnsgd1na2vs0mg"},{"bike_id":"eb2bede7-1cfc-481d-95f0-4175f9ef21df","system_id":"levelo_inurba_marseille","lat":43.25939,"lon":5.40899,"is_reserved":false,"is_disabled":false,"rental_uris":{"android":"levelo://app?vid=eb2bede7-1cfc-481d-95f0-4175f9ef21df","ios":"levelo://app?vid=eb2bede7-1cfc-481d-95f0-4175f9ef21df"},"vehicle_type_id":"4","last_reported":1726819951,"current_range_meters":16800,"station_id":"ce4bhm92rcd13ifvqglg","pricing_plan_id":"cebpf4jnsgd1na2vs0mg"},{"bike_id":"72483228-b25f-4a44-9415-50aa169e2997","system_id":"levelo_inurba_marseille","lat":43.24808,"lon":5.37454,"is_reserved":false,"is_disabled":false,"rental_uris":{"android":"levelo://app?vid=72483228-b25f-4a44-9415-50aa169e2997","ios":"levelo://app?vid=72483228-b25f-4a44-9415-50aa169e2997"},"vehicle_type_id":"4","last_reported":1726819951,"current_range_meters":38000,"station_id":"ce4bhgh2rcd13ifvqfb0","pricing_plan_id":"cebpf4jnsgd1na2vs0mg"},{"bike_id":"8252c765-e1e7-4ef5-92fb-809ea1e6a090","system_id":"levelo_inurba_marseille","lat":43.30527,"lon":5.36557,"is_reserved":false,"is_disabled":false,"rental_uris":{"android":"levelo://app?vid=8252c765-e1e7-4ef5-92fb-809ea1e6a090","ios":"levelo://app?vid=8252c765-e1e7-4ef5-92fb-809ea1e6a090"},"vehicle_type_id":"4","last_reported":1726819951,"current_range_meters":18800,"station_id":"ce4bgs12rcd13ifvqcag","pricing_plan_id":"cebpf4jnsgd1na2vs0mg"},{"bike_id":"93e94795-a222-4c33-8338-9093dd96735b","system_id":"levelo_inurba_marseille","lat":43.32547,"lon":5.41442,"is_reserved":false,"is_disabled":false,"rental_uris":{"android":"levelo://app?vid=93e94795-a222-4c33-8338-9093dd96735b","ios":"levelo://app?vid=93e94795-a222-4c33-8338-9093dd96735b"},"vehicle_type_id":"4","last_reported":1726819951,"current_range_meters":38800,"station_id":"ce4bhq12rcd13ifvqhhg","pricing_plan_id":"cebpf4jnsgd1na2vs0mg"},{"bike_id":"3f92bbb0-67da-49b7-a380-d3e998be8116","system_id":"levelo_inurba_marseille","lat":43.30542,"lon":5.36712,"is_reserved":false,"is_disabled":false,"rental_uris":{"android":"levelo://app?vid=3f92bbb0-67da-49b7-a380-d3e998be8116","ios":"levelo://app?vid=3f92bbb0-67da-49b7-a380-d3e998be8116"},"vehicle_type_id":"4","last_reported":1726819951,"current_range_meters":8000,"station_id":"ce4bgrp2rcd13ifvqc9g","pricing_plan_id":"cebpf4jnsgd1na2vs0mg"},{"bike_id":"16153942-1726-423e-9491-af7b2ea5791a","system_id":"levelo_inurba_marseille","lat":43.29981,"lon":5.371877,"is_reserved":false,"is_disabled":false,"rental_uris":{"android":"levelo://app?vid=16153942-1726-423e-9491-af7b2ea5791a","ios":"levelo://app?vid=16153942-1726-423e-9491-af7b2ea5791a"},"vehicle_type_id":"4","last_reported":1726819951,"current_range_meters":28000,"station_id":"ce4bhih2rcd13ifvqfs0","pricing_plan_id":"cebpf4jnsgd1na2vs0mg"},{"bike_id":"bc76209f-8bca-44a2-a690-e087d3d50e0f","system_id":"levelo_inurba_marseille","lat":43.27072,"lon":5.42283,"is_reserved":false,"is_disabled":false,"rental_uris":{"android":"levelo://app?vid=bc76209f-8bca-44a2-a690-e087d3d50e0f","ios":"levelo://app?vid=bc76209f-8bca-44a2-a690-e087d3d50e0f"},"vehicle_type_id":"4","last_reported":1726819951,"current_range_meters":20000,"station_id":"ce4bhk92rcd13ifvqgb0","pricing_plan_id":"cebpf4jnsgd1na2vs0mg"},{"bike_id":"82ea35eb-356c-435a-af7e-f3943eee0033","system_id":"levelo_inurba_marseille","lat":43.31528,"lon":5.3804,"is_reserved":false,"is_disabled":false,"rental_uris":{"android":"levelo://app?vid=82ea35eb-356c-435a-af7e-f3943eee0033","ios":"levelo://app?vid=82ea35eb-356c-435a-af7e-f3943eee0033"},"vehicle_type_id":"4","last_reported":1726819951,"current_range_meters":40000,"station_id":"ce4bhsp2rcd13ifvqi50","pricing_plan_id":"cebpf4jnsgd1na2vs0mg"},{"bike_id":"787016c0-3af2-4dc1-8aeb-8fd1d9648c80","system_id":"levelo_inurba_marseille","lat":43.27494,"lon":5.42456,"is_reserved":false,"is_disabled":false,"rental_uris":{"android":"levelo://app?vid=787016c0-3af2-4dc1-8aeb-8fd1d9648c80","ios":"levelo://app?vid=787016c0-3af2-4dc1-8aeb-8fd1d9648c80"},"vehicle_type_id":"4","last_reported":1726819951,"current_range_meters":28800,"station_id":"ce4bhn92rcd13ifvqgrg","pricing_plan_id":"cebpf4jnsgd1na2vs0mg"},{"bike_id":"59bcf95b-4fb4-4ef5-bbe9-00138aa77003","system_id":"levelo_inurba_marseille","lat":43.24172,"lon":5.3974,"is_reserved":false,"is_disabled":false,"rental_uris":{"android":"levelo://app?vid=59bcf95b-4fb4-4ef5-bbe9-00138aa77003","ios":"levelo://app?vid=59bcf95b-4fb4-4ef5-bbe9-00138aa77003"},"vehicle_type_id":"4","last_reported":1726819951,"current_range_meters":17600,"station_id":"ce4bhn12rcd13ifvqgpg","pricing_plan_id":"cebpf4jnsgd1na2vs0mg"},{"bike_id":"0e2fe41f-ec69-40f0-8f9e-497a2367d1be","system_id":"levelo_inurba_marseille","lat":43.27495,"lon":5.42453,"is_reserved":false,"is_disabled":false,"rental_uris":{"android":"levelo://app?vid=0e2fe41f-ec69-40f0-8f9e-497a2367d1be","ios":"levelo://app?vid=0e2fe41f-ec69-40f0-8f9e-497a2367d1be"},"vehicle_type_id":"4","last_reported":1726819951,"current_range_meters":25600,"station_id":"ce4bhn92rcd13ifvqgrg","pricing_plan_id":"cebpf4jnsgd1na2vs0mg"},{"bike_id":"e20f5eee-fcb7-4f82-9e97-78851e1743d5","system_id":"levelo_inurba_marseille","lat":43.284396,"lon":5.374913,"is_reserved":false,"is_disabled":false,"rental_uris":{"android":"levelo://app?vid=e20f5eee-fcb7-4f82-9e97-78851e1743d5","ios":"levelo://app?vid=e20f5eee-fcb7-4f82-9e97-78851e1743d5"},"vehicle_type_id":"4","last_reported":1726819951,"current_range_meters":10000,"station_id":"ce4bh412rcd13ifvqds0","pricing_plan_id":"cebpf4jnsgd1na2vs0mg"},{"bike_id":"f0892b3f-e293-409b-b476-0882d73b5577","system_id":"levelo_inurba_marseille","lat":43.30468,"lon":5.37927,"is_reserved":false,"is_disabled":false,"rental_uris":{"android":"levelo://app?vid=f0892b3f-e293-409b-b476-0882d73b5577","ios":"levelo://app?vid=f0892b3f-e293-409b-b476-0882d73b5577"},"vehicle_type_id":"4","last_reported":1726819951,"current_range_meters":33200,"station_id":"ce4bgup2rcd13ifvqcn0","pricing_plan_id":"cebpf4jnsgd1na2vs0mg"},{"bike_id":"346e8fea-955d-4950-8c2d-9b8b8eacddfd","system_id":"levelo_inurba_marseille","lat":43.30909,"lon":5.3685,"is_reserved":false,"is_disabled":false,"rental_uris":{"android":"levelo://app?vid=346e8fea-955d-4950-8c2d-9b8b8eacddfd","ios":"levelo://app?vid=346e8fea-955d-4950-8c2d-9b8b8eacddfd"},"vehicle_type_id":"4","last_reported":1726819951,"current_range_meters":34800,"station_id":"ce4bgn92rcd13ifvqbvg","pricing_plan_id":"cebpf4jnsgd1na2vs0mg"},{"bike_id":"12d37568-4574-4e56-ba42-36463fce6ab1","system_id":"levelo_inurba_marseille","lat":43.29218,"lon":5.36073,"is_reserved":false,"is_disabled":false,"rental_uris":{"android":"levelo://app?vid=12d37568-4574-4e56-ba42-36463fce6ab1","ios":"levelo://app?vid=12d37568-4574-4e56-ba42-36463fce6ab1"},"vehicle_type_id":"4","last_reported":1726819951,"current_range_meters":18800,"station_id":"ce4bhbh2rcd13ifvqeqg","pricing_plan_id":"cebpf4jnsgd1na2vs0mg"},{"bike_id":"84f68348-b1f8-40b8-a55d-82c254a1a023","system_id":"levelo_inurba_marseille","lat":43.24387,"lon":5.37055,"is_reserved":false,"is_disabled":false,"rental_uris":{"android":"levelo://app?vid=84f68348-b1f8-40b8-a55d-82c254a1a023","ios":"levelo://app?vid=84f68348-b1f8-40b8-a55d-82c254a1a023"},"vehicle_type_id":"4","last_reported":1726819951,"current_range_meters":28800,"station_id":"ce4bhhh2rcd13ifvqfk0","pricing_plan_id":"cebpf4jnsgd1na2vs0mg"},{"bike_id":"db5bed51-afb9-4548-98e9-7b7ae226c501","system_id":"levelo_inurba_marseille","lat":43.33756,"lon":5.37453,"is_reserved":false,"is_disabled":false,"rental_uris":{"android":"levelo://app?vid=db5bed51-afb9-4548-98e9-7b7ae226c501","ios":"levelo://app?vid=db5bed51-afb9-4548-98e9-7b7ae226c501"},"vehicle_type_id":"4","last_reported":1726819951,"current_range_meters":19600,"station_id":"","pricing_plan_id":"cebpf4jnsgd1na2vs0mg"},{"bike_id":"9dad5afe-5050-419e-83a1-b8b898ac539b","system_id":"levelo_inurba_marseille","lat":43.30161,"lon":5.38077,"is_reserved":false,"is_disabled":false,"rental_uris":{"android":"levelo://app?vid=9dad5afe-5050-419e-83a1-b8b898ac539b","ios":"levelo://app?vid=9dad5afe-5050-419e-83a1-b8b898ac539b"},"vehicle_type_id":"4","last_reported":1726819951,"current_range_meters":8800,"station_id":"ce4bgjp2rcd13ifvqbh0","pricing_plan_id":"cebpf4jnsgd1na2vs0mg"},{"bike_id":"4f755e06-83cd-4f7c-83ce-c0e0c9ca166d","system_id":"levelo_inurba_marseille","lat":43.31718,"lon":5.43713,"is_reserved":false,"is_disabled":false,"rental_uris":{"android":"levelo://app?vid=4f755e06-83cd-4f7c-83ce-c0e0c9ca166d","ios":"levelo://app?vid=4f755e06-83cd-4f7c-83ce-c0e0c9ca166d"},"vehicle_type_id":"4","last_reported":1726819951,"current_range_meters":17600,"station_id":"ce4bhp92rcd13ifvqhcg","pricing_plan_id":"cebpf4jnsgd1na2vs0mg"},{"bike_id":"0d1a7982-a640-4dc4-90da-1842e46ce6f2","system_id":"levelo_inurba_marseille","lat":43.32286,"lon":5.38272,"is_reserved":false,"is_disabled":false,"rental_uris":{"android":"levelo://app?vid=0d1a7982-a640-4dc4-90da-1842e46ce6f2","ios":"levelo://app?vid=0d1a7982-a640-4dc4-90da-1842e46ce6f2"},"vehicle_type_id":"4","last_reported":1726819951,"current_range_meters":27200,"station_id":"ce4bhr12rcd13ifvqhqg","pricing_plan_id":"cebpf4jnsgd1na2vs0mg"},{"bike_id":"8b477e20-3ae9-4f41-9669-ed6c08dff189","system_id":"levelo_inurba_marseille","lat":43.29269,"lon":5.36845,"is_reserved":false,"is_disabled":false,"rental_uris":{"android":"levelo://app?vid=8b477e20-3ae9-4f41-9669-ed6c08dff189","ios":"levelo://app?vid=8b477e20-3ae9-4f41-9669-ed6c08dff189"},"vehicle_type_id":"4","last_reported":1726819951,"current_range_meters":22800,"station_id":"ce4bhbp2rcd13ifvqesg","pricing_plan_id":"cebpf4jnsgd1na2vs0mg"},{"bike_id":"91a8417e-1594-4797-8051-7046abb38c00","system_id":"levelo_inurba_marseille","lat":43.28357,"lon":5.3812,"is_reserved":false,"is_disabled":false,"rental_uris":{"android":"levelo://app?vid=91a8417e-1594-4797-8051-7046abb38c00","ios":"levelo://app?vid=91a8417e-1594-4797-8051-7046abb38c00"},"vehicle_type_id":"4","last_reported":1726819951,"current_range_meters":37600,"station_id":"ce4bh412rcd13ifvqdr0","pricing_plan_id":"cebpf4jnsgd1na2vs0mg"},{"bike_id":"509f9ae3-b8f2-48d0-aebc-d5ba2b423f9c","system_id":"levelo_inurba_marseille","lat":43.30475,"lon":5.37907,"is_reserved":false,"is_disabled":false,"rental_uris":{"android":"levelo://app?vid=509f9ae3-b8f2-48d0-aebc-d5ba2b423f9c","ios":"levelo://app?vid=509f9ae3-b8f2-48d0-aebc-d5ba2b423f9c"},"vehicle_type_id":"4","last_reported":1726819951,"current_range_meters":22000,"station_id":"ce4bgup2rcd13ifvqcn0","pricing_plan_id":"cebpf4jnsgd1na2vs0mg"},{"bike_id":"ffa23234-c1ea-4d00-b640-cd73b1915784","system_id":"levelo_inurba_marseille","lat":43.31998,"lon":5.38143,"is_reserved":false,"is_disabled":false,"rental_uris":{"android":"levelo://app?vid=ffa23234-c1ea-4d00-b640-cd73b1915784","ios":"levelo://app?vid=ffa23234-c1ea-4d00-b640-cd73b1915784"},"vehicle_type_id":"4","last_reported":1726819951,"current_range_meters":9200,"station_id":"ce4bhr12rcd13ifvqhpg","pricing_plan_id":"cebpf4jnsgd1na2vs0mg"},{"bike_id":"b87c8417-c59f-418d-bd60-25eb8e63567c","system_id":"levelo_inurba_marseille","lat":43.30529,"lon":5.36709,"is_reserved":false,"is_disabled":false,"rental_uris":{"android":"levelo://app?vid=b87c8417-c59f-418d-bd60-25eb8e63567c","ios":"levelo://app?vid=b87c8417-c59f-418d-bd60-25eb8e63567c"},"vehicle_type_id":"4","last_reported":1726819951,"current_range_meters":26800,"station_id":"ce4bgrp2rcd13ifvqc9g","pricing_plan_id":"cebpf4jnsgd1na2vs0mg"},{"bike_id":"7d8bd6dc-fbd2-4d74-b29c-025fbf0a8f09","system_id":"levelo_inurba_marseille","lat":43.32007,"lon":5.38152,"is_reserved":false,"is_disabled":false,"rental_uris":{"android":"levelo://app?vid=7d8bd6dc-fbd2-4d74-b29c-025fbf0a8f09","ios":"levelo://app?vid=7d8bd6dc-fbd2-4d74-b29c-025fbf0a8f09"},"vehicle_type_id":"4","last_reported":1726819951,"current_range_meters":27600,"station_id":"ce4bhr12rcd13ifvqhpg","pricing_plan_id":"cebpf4jnsgd1na2vs0mg"},{"bike_id":"dfa25865-d491-4319-ac0d-4a43b0719215","system_id":"levelo_inurba_marseille","lat":43.32482,"lon":5.36564,"is_reserved":false,"is_disabled":false,"rental_uris":{"android":"levelo://app?vid=dfa25865-d491-4319-ac0d-4a43b0719215","ios":"levelo://app?vid=dfa25865-d491-4319-ac0d-4a43b0719215"},"vehicle_type_id":"4","last_reported":1726819951,"current_range_meters":7200,"station_id":"ce4bhs12rcd13ifvqhvg","pricing_plan_id":"cebpf4jnsgd1na2vs0mg"},{"bike_id":"58014cc6-4f39-4119-a8a0-cdc0e2507820","system_id":"levelo_inurba_marseille","lat":43.32285,"lon":5.38283,"is_reserved":false,"is_disabled":false,"rental_uris":{"android":"levelo://app?vid=58014cc6-4f39-4119-a8a0-cdc0e2507820","ios":"levelo://app?vid=58014cc6-4f39-4119-a8a0-cdc0e2507820"},"vehicle_type_id":"4","last_reported":1726819951,"current_range_meters":39200,"station_id":"ce4bhr12rcd13ifvqhqg","pricing_plan_id":"cebpf4jnsgd1na2vs0mg"},{"bike_id":"fa08381f-cfee-4269-bc09-2e10ac65fa40","system_id":"levelo_inurba_marseille","lat":43.29912,"lon":5.38139,"is_reserved":false,"is_disabled":false,"rental_uris":{"android":"levelo://app?vid=fa08381f-cfee-4269-bc09-2e10ac65fa40","ios":"levelo://app?vid=fa08381f-cfee-4269-bc09-2e10ac65fa40"},"vehicle_type_id":"4","last_reported":1726819951,"current_range_meters":32800,"station_id":"ce4bgj12rcd13ifvqbc0","pricing_plan_id":"cebpf4jnsgd1na2vs0mg"},{"bike_id":"14157212-06d6-4688-8139-63040cece655","system_id":"levelo_inurba_marseille","lat":43.31352,"lon":5.36709,"is_reserved":false,"is_disabled":false,"rental_uris":{"android":"levelo://app?vid=14157212-06d6-4688-8139-63040cece655","ios":"levelo://app?vid=14157212-06d6-4688-8139-63040cece655"},"vehicle_type_id":"4","last_reported":1726819951,"current_range_meters":27200,"station_id":"ce4bgr92rcd13ifvqc6g","pricing_plan_id":"cebpf4jnsgd1na2vs0mg"},{"bike_id":"2c805b3b-a495-4180-86b7-d5d239ddc3de","system_id":"levelo_inurba_marseille","lat":43.27493,"lon":5.42457,"is_reserved":false,"is_disabled":false,"rental_uris":{"android":"levelo://app?vid=2c805b3b-a495-4180-86b7-d5d239ddc3de","ios":"levelo://app?vid=2c805b3b-a495-4180-86b7-d5d239ddc3de"},"vehicle_type_id":"4","last_reported":1726819951,"current_range_meters":28000,"station_id":"ce4bhn92rcd13ifvqgrg","pricing_plan_id":"cebpf4jnsgd1na2vs0mg"},{"bike_id":"9cb8b98a-f4fa-4074-9926-eea1d49957bb","system_id":"levelo_inurba_marseille","lat":43.29276,"lon":5.36849,"is_reserved":false,"is_disabled":false,"rental_uris":{"android":"levelo://app?vid=9cb8b98a-f4fa-4074-9926-eea1d49957bb","ios":"levelo://app?vid=9cb8b98a-f4fa-4074-9926-eea1d49957bb"},"vehicle_type_id":"4","last_reported":1726819951,"current_range_meters":17200,"station_id":"ce4bhbp2rcd13ifvqesg","pricing_plan_id":"cebpf4jnsgd1na2vs0mg"},{"bike_id":"bce83964-771d-421d-a795-c2b376c5b9dc","system_id":"levelo_inurba_marseille","lat":43.232,"lon":5.35551,"is_reserved":false,"is_disabled":false,"rental_uris":{"android":"levelo://app?vid=bce83964-771d-421d-a795-c2b376c5b9dc","ios":"levelo://app?vid=bce83964-771d-421d-a795-c2b376c5b9dc"},"vehicle_type_id":"4","last_reported":1726819951,"current_range_meters":18800,"station_id":"ce4bhu92rcd13ifvqi70","pricing_plan_id":"cebpf4jnsgd1na2vs0mg"},{"bike_id":"184fa668-86b6-44f7-9483-c63e7dee538e","system_id":"levelo_inurba_marseille","lat":43.295685,"lon":5.375201,"is_reserved":false,"is_disabled":false,"rental_uris":{"android":"levelo://app?vid=184fa668-86b6-44f7-9483-c63e7dee538e","ios":"levelo://app?vid=184fa668-86b6-44f7-9483-c63e7dee538e"},"vehicle_type_id":"4","last_reported":1726819951,"current_range_meters":36800,"station_id":"ce4bhgp2rcd13ifvqfe0","pricing_plan_id":"cebpf4jnsgd1na2vs0mg"},{"bike_id":"1cc429cf-9df4-43d8-81c0-a9ea9e79d2c2","system_id":"levelo_inurba_marseille","lat":43.3091,"lon":5.36858,"is_reserved":false,"is_disabled":false,"rental_uris":{"android":"levelo://app?vid=1cc429cf-9df4-43d8-81c0-a9ea9e79d2c2","ios":"levelo://app?vid=1cc429cf-9df4-43d8-81c0-a9ea9e79d2c2"},"vehicle_type_id":"4","last_reported":1726819951,"current_range_meters":39200,"station_id":"ce4bgn92rcd13ifvqbvg","pricing_plan_id":"cebpf4jnsgd1na2vs0mg"},{"bike_id":"542c8138-c01b-4d21-b9fb-bdbc96ad430d","system_id":"levelo_inurba_marseille","lat":43.27999,"lon":5.40011,"is_reserved":false,"is_disabled":false,"rental_uris":{"android":"levelo://app?vid=542c8138-c01b-4d21-b9fb-bdbc96ad430d","ios":"levelo://app?vid=542c8138-c01b-4d21-b9fb-bdbc96ad430d"},"vehicle_type_id":"4","last_reported":1726819951,"current_range_meters":22800,"station_id":"ce4bho92rcd13ifvqh4g","pricing_plan_id":"cebpf4jnsgd1na2vs0mg"},{"bike_id":"5a96b346-4bdb-41cb-8aa8-a96b50b63166","system_id":"levelo_inurba_marseille","lat":43.24074,"lon":5.37758,"is_reserved":false,"is_disabled":false,"rental_uris":{"android":"levelo://app?vid=5a96b346-4bdb-41cb-8aa8-a96b50b63166","ios":"levelo://app?vid=5a96b346-4bdb-41cb-8aa8-a96b50b63166"},"vehicle_type_id":"4","last_reported":1726819951,"current_range_meters":31200,"station_id":"ce4bhnp2rcd13ifvqgvg","pricing_plan_id":"cebpf4jnsgd1na2vs0mg"},{"bike_id":"63478cfc-fe19-4128-90c9-d9ff3e6b9a45","system_id":"levelo_inurba_marseille","lat":43.32365,"lon":5.38878,"is_reserved":false,"is_disabled":false,"rental_uris":{"android":"levelo://app?vid=63478cfc-fe19-4128-90c9-d9ff3e6b9a45","ios":"levelo://app?vid=63478cfc-fe19-4128-90c9-d9ff3e6b9a45"},"vehicle_type_id":"4","last_reported":1726819951,"current_range_meters":30000,"station_id":"ce4bhqp2rcd13ifvqhog","pricing_plan_id":"cebpf4jnsgd1na2vs0mg"},{"bike_id":"3a5970ee-b014-47da-8eb7-fc0257a68477","system_id":"levelo_inurba_marseille","lat":43.3362,"lon":5.41031,"is_reserved":false,"is_disabled":false,"rental_uris":{"android":"levelo://app?vid=3a5970ee-b014-47da-8eb7-fc0257a68477","ios":"levelo://app?vid=3a5970ee-b014-47da-8eb7-fc0257a68477"},"vehicle_type_id":"4","last_reported":1726819951,"current_range_meters":25600,"station_id":"ce4bhqh2rcd13ifvqhmg","pricing_plan_id":"cebpf4jnsgd1na2vs0mg"},{"bike_id":"ec29d62d-5ae9-437a-b766-df37d25daa06","system_id":"levelo_inurba_marseille","lat":43.25437,"lon":5.41296,"is_reserved":false,"is_disabled":false,"rental_uris":{"android":"levelo://app?vid=ec29d62d-5ae9-437a-b766-df37d25daa06","ios":"levelo://app?vid=ec29d62d-5ae9-437a-b766-df37d25daa06"},"vehicle_type_id":"4","last_reported":1726819951,"current_range_meters":15200,"station_id":"","pricing_plan_id":"cebpf4jnsgd1na2vs0mg"},{"bike_id":"f606bfdc-7831-4e19-ad16-d0f312e8d42a","system_id":"levelo_inurba_marseille","lat":43.30321,"lon":5.36908,"is_reserved":false,"is_disabled":false,"rental_uris":{"android":"levelo://app?vid=f606bfdc-7831-4e19-ad16-d0f312e8d42a","ios":"levelo://app?vid=f606bfdc-7831-4e19-ad16-d0f312e8d42a"},"vehicle_type_id":"4","last_reported":1726819951,"current_range_meters":39200,"station_id":"ce4bgqh2rcd13ifvqc5g","pricing_plan_id":"cebpf4jnsgd1na2vs0mg"},{"bike_id":"1ce793e9-2607-45d6-aeb9-ab7390886a13","system_id":"levelo_inurba_marseille","lat":43.31346,"lon":5.36723,"is_reserved":false,"is_disabled":false,"rental_uris":{"android":"levelo://app?vid=1ce793e9-2607-45d6-aeb9-ab7390886a13","ios":"levelo://app?vid=1ce793e9-2607-45d6-aeb9-ab7390886a13"},"vehicle_type_id":"4","last_reported":1726819951,"current_range_meters":30800,"station_id":"ce4bgr92rcd13ifvqc6g","pricing_plan_id":"cebpf4jnsgd1na2vs0mg"},{"bike_id":"e6338656-f3c8-4e51-a479-6d5042572037","system_id":"levelo_inurba_marseille","lat":43.25579,"lon":5.3824,"is_reserved":false,"is_disabled":false,"rental_uris":{"android":"levelo://app?vid=e6338656-f3c8-4e51-a479-6d5042572037","ios":"levelo://app?vid=e6338656-f3c8-4e51-a479-6d5042572037"},"vehicle_type_id":"4","last_reported":1726819951,"current_range_meters":32000,"station_id":"ce4bhih2rcd13ifvqfs0","pricing_plan_id":"cebpf4jnsgd1na2vs0mg"},{"bike_id":"83df875a-5d3f-4c35-9ab9-74ee899a6fd0","system_id":"levelo_inurba_marseille","lat":43.30144,"lon":5.38081,"is_reserved":false,"is_disabled":false,"rental_uris":{"android":"levelo://app?vid=83df875a-5d3f-4c35-9ab9-74ee899a6fd0","ios":"levelo://app?vid=83df875a-5d3f-4c35-9ab9-74ee899a6fd0"},"vehicle_type_id":"4","last_reported":1726819951,"current_range_meters":36400,"station_id":"ce4bgjp2rcd13ifvqbh0","pricing_plan_id":"cebpf4jnsgd1na2vs0mg"},{"bike_id":"9203ecb9-93ff-435b-8666-3ab65a56b22a","system_id":"levelo_inurba_marseille","lat":43.315312,"lon":5.373182,"is_reserved":false,"is_disabled":false,"rental_uris":{"android":"levelo://app?vid=9203ecb9-93ff-435b-8666-3ab65a56b22a","ios":"levelo://app?vid=9203ecb9-93ff-435b-8666-3ab65a56b22a"},"vehicle_type_id":"4","last_reported":1726819951,"current_range_meters":37600,"station_id":"ce4bgt12rcd13ifvqcd0","pricing_plan_id":"cebpf4jnsgd1na2vs0mg"},{"bike_id":"558c82b6-eaf2-4c6c-b82b-04a3f4a146f6","system_id":"levelo_inurba_marseille","lat":43.31692,"lon":5.40464,"is_reserved":false,"is_disabled":false,"rental_uris":{"android":"levelo://app?vid=558c82b6-eaf2-4c6c-b82b-04a3f4a146f6","ios":"levelo://app?vid=558c82b6-eaf2-4c6c-b82b-04a3f4a146f6"},"vehicle_type_id":"4","last_reported":1726819951,"current_range_meters":30800,"station_id":"ce4bh012rcd13ifvqd00","pricing_plan_id":"cebpf4jnsgd1na2vs0mg"},{"bike_id":"49641b67-2110-4fdb-b43e-23e54f250a94","system_id":"levelo_inurba_marseille","lat":43.28349,"lon":5.38103,"is_reserved":false,"is_disabled":false,"rental_uris":{"android":"levelo://app?vid=49641b67-2110-4fdb-b43e-23e54f250a94","ios":"levelo://app?vid=49641b67-2110-4fdb-b43e-23e54f250a94"},"vehicle_type_id":"4","last_reported":1726819951,"current_range_meters":24400,"station_id":"ce4bh412rcd13ifvqdr0","pricing_plan_id":"cebpf4jnsgd1na2vs0mg"},{"bike_id":"fa2e946d-01fe-4bb4-a2b0-55af60a0bcec","system_id":"levelo_inurba_marseille","lat":43.33728,"lon":5.39185,"is_reserved":false,"is_disabled":false,"rental_uris":{"android":"levelo://app?vid=fa2e946d-01fe-4bb4-a2b0-55af60a0bcec","ios":"levelo://app?vid=fa2e946d-01fe-4bb4-a2b0-55af60a0bcec"},"vehicle_type_id":"4","last_reported":1726819951,"current_range_meters":37600,"station_id":"ce4bhr92rcd13ifvqhsg","pricing_plan_id":"cebpf4jnsgd1na2vs0mg"},{"bike_id":"c33add25-123c-4b36-8cf5-b7923beb3261","system_id":"levelo_inurba_marseille","lat":43.32482,"lon":5.3657,"is_reserved":false,"is_disabled":false,"rental_uris":{"android":"levelo://app?vid=c33add25-123c-4b36-8cf5-b7923beb3261","ios":"levelo://app?vid=c33add25-123c-4b36-8cf5-b7923beb3261"},"vehicle_type_id":"4","last_reported":1726819951,"current_range_meters":22400,"station_id":"ce4bhs12rcd13ifvqhvg","pricing_plan_id":"cebpf4jnsgd1na2vs0mg"},{"bike_id":"1556d40c-3bc6-4ccb-917c-cc814b98e117","system_id":"levelo_inurba_marseille","lat":43.26553,"lon":5.37283,"is_reserved":false,"is_disabled":false,"rental_uris":{"android":"levelo://app?vid=1556d40c-3bc6-4ccb-917c-cc814b98e117","ios":"levelo://app?vid=1556d40c-3bc6-4ccb-917c-cc814b98e117"},"vehicle_type_id":"4","last_reported":1726819951,"current_range_meters":18000,"station_id":"ce4bhg12rcd13ifvqf70","pricing_plan_id":"cebpf4jnsgd1na2vs0mg"},{"bike_id":"11d9698c-d3bf-48ca-a9ce-d5ad0d09c0f7","system_id":"levelo_inurba_marseille","lat":43.32543,"lon":5.41439,"is_reserved":false,"is_disabled":false,"rental_uris":{"android":"levelo://app?vid=11d9698c-d3bf-48ca-a9ce-d5ad0d09c0f7","ios":"levelo://app?vid=11d9698c-d3bf-48ca-a9ce-d5ad0d09c0f7"},"vehicle_type_id":"4","last_reported":1726819951,"current_range_meters":37600,"station_id":"ce4bhq12rcd13ifvqhhg","pricing_plan_id":"cebpf4jnsgd1na2vs0mg"},{"bike_id":"7b2e01c0-d2a8-4b61-998f-ae9716277f02","system_id":"levelo_inurba_marseille","lat":43.33027,"lon":5.39046,"is_reserved":false,"is_disabled":false,"rental_uris":{"android":"levelo://app?vid=7b2e01c0-d2a8-4b61-998f-ae9716277f02","ios":"levelo://app?vid=7b2e01c0-d2a8-4b61-998f-ae9716277f02"},"vehicle_type_id":"4","last_reported":1726819951,"current_range_meters":5600,"station_id":"ce4bhr92rcd13ifvqhrg","pricing_plan_id":"cebpf4jnsgd1na2vs0mg"},{"bike_id":"9da6d2b5-5f08-48ad-803f-fd5005db9741","system_id":"levelo_inurba_marseille","lat":43.30478,"lon":5.37912,"is_reserved":false,"is_disabled":false,"rental_uris":{"android":"levelo://app?vid=9da6d2b5-5f08-48ad-803f-fd5005db9741","ios":"levelo://app?vid=9da6d2b5-5f08-48ad-803f-fd5005db9741"},"vehicle_type_id":"4","last_reported":1726819951,"current_range_meters":37600,"station_id":"ce4bgup2rcd13ifvqcn0","pricing_plan_id":"cebpf4jnsgd1na2vs0mg"},{"bike_id":"62b6177e-e922-4a6b-8990-d2b3d202dbfe","system_id":"levelo_inurba_marseille","lat":43.291443,"lon":5.380637,"is_reserved":false,"is_disabled":false,"rental_uris":{"android":"levelo://app?vid=62b6177e-e922-4a6b-8990-d2b3d202dbfe","ios":"levelo://app?vid=62b6177e-e922-4a6b-8990-d2b3d202dbfe"},"vehicle_type_id":"4","last_reported":1726819951,"current_range_meters":28400,"station_id":"ce4bh492rcd13ifvqdvg","pricing_plan_id":"cebpf4jnsgd1na2vs0mg"},{"bike_id":"f6afed58-cf55-4d3c-8813-dc533e765c78","system_id":"levelo_inurba_marseille","lat":43.3361,"lon":5.41032,"is_reserved":false,"is_disabled":false,"rental_uris":{"android":"levelo://app?vid=f6afed58-cf55-4d3c-8813-dc533e765c78","ios":"levelo://app?vid=f6afed58-cf55-4d3c-8813-dc533e765c78"},"vehicle_type_id":"4","last_reported":1726819951,"current_range_meters":9600,"station_id":"ce4bhqh2rcd13ifvqhmg","pricing_plan_id":"cebpf4jnsgd1na2vs0mg"},{"bike_id":"0271e760-394a-46af-97f8-ff6577a27277","system_id":"levelo_inurba_marseille","lat":43.30534,"lon":5.36552,"is_reserved":false,"is_disabled":false,"rental_uris":{"android":"levelo://app?vid=0271e760-394a-46af-97f8-ff6577a27277","ios":"levelo://app?vid=0271e760-394a-46af-97f8-ff6577a27277"},"vehicle_type_id":"4","last_reported":1726819951,"current_range_meters":23200,"station_id":"ce4bgs12rcd13ifvqcag","pricing_plan_id":"cebpf4jnsgd1na2vs0mg"},{"bike_id":"517aabc5-f8a6-4fe2-bcfc-9786db0d86c0","system_id":"levelo_inurba_marseille","lat":43.24081,"lon":5.3775,"is_reserved":false,"is_disabled":false,"rental_uris":{"android":"levelo://app?vid=517aabc5-f8a6-4fe2-bcfc-9786db0d86c0","ios":"levelo://app?vid=517aabc5-f8a6-4fe2-bcfc-9786db0d86c0"},"vehicle_type_id":"4","last_reported":1726819951,"current_range_meters":31200,"station_id":"ce4bhnp2rcd13ifvqgvg","pricing_plan_id":"cebpf4jnsgd1na2vs0mg"},{"bike_id":"e3d5c732-2c99-4fcf-a415-45efade06efe","system_id":"levelo_inurba_marseille","lat":43.29013,"lon":5.35617,"is_reserved":false,"is_disabled":false,"rental_uris":{"android":"levelo://app?vid=e3d5c732-2c99-4fcf-a415-45efade06efe","ios":"levelo://app?vid=e3d5c732-2c99-4fcf-a415-45efade06efe"},"vehicle_type_id":"4","last_reported":1726819951,"current_range_meters":19600,"station_id":"ce4bhb92rcd13ifvqen0","pricing_plan_id":"cebpf4jnsgd1na2vs0mg"},{"bike_id":"67c0d9da-13b7-41ac-a1be-c7de728164e4","system_id":"levelo_inurba_marseille","lat":43.29559,"lon":5.42287,"is_reserved":false,"is_disabled":false,"rental_uris":{"android":"levelo://app?vid=67c0d9da-13b7-41ac-a1be-c7de728164e4","ios":"levelo://app?vid=67c0d9da-13b7-41ac-a1be-c7de728164e4"},"vehicle_type_id":"4","last_reported":1726819951,"current_range_meters":22800,"station_id":"ce4bhph2rcd13ifvqhdg","pricing_plan_id":"cebpf4jnsgd1na2vs0mg"},{"bike_id":"bdad65f2-31ba-454a-9ba4-d246d4a99f28","system_id":"levelo_inurba_marseille","lat":43.2707,"lon":5.42273,"is_reserved":false,"is_disabled":false,"rental_uris":{"android":"levelo://app?vid=bdad65f2-31ba-454a-9ba4-d246d4a99f28","ios":"levelo://app?vid=bdad65f2-31ba-454a-9ba4-d246d4a99f28"},"vehicle_type_id":"4","last_reported":1726819951,"current_range_meters":36400,"station_id":"ce4bhk92rcd13ifvqgb0","pricing_plan_id":"cebpf4jnsgd1na2vs0mg"},