{"last_updated":1731445703,"ttl":60,"version":"2.2","data":{"bikes":[{"bike_id":"aa05ff5a-02ec-4030-a810-a7356a8b4f94","system_id":"levelo_inurba_marseille","lat":43.2408,"lon":5.37751,"is_reserved":false,"is_disabled":false,"rental_uris":{"android":"levelo://app?vid=aa05ff5a-02ec-4030-a810-a7356a8b4f94","ios":"levelo://app?vid=aa05ff5a-02ec-4030-a810-a7356a8b4f94"},"vehicle_type_id":"4","last_reported":1731445703,"current_range_meters":38000,"station_id":"ce4bhnp2rcd13ifvqgvg","pricing_plan_id":"cebpf4jnsgd1na2vs0mg"},{"bike_id":"4ecf88c0-77a6-4268-b158-1994aec5c096","system_id":"levelo_inurba_marseille","lat":43.31072,"lon":5.40092,"is_reserved":false,"is_disabled":false,"rental_uris":{"android":"levelo://app?vid=4ecf88c0-77a6-4268-b158-1994aec5c096","ios":"levelo://app?vid=4ecf88c0-77a6-4268-b158-1994aec5c096"},"vehicle_type_id":"4","last_reported":1731445703,"current_range_meters":3600,"station_id":"","pricing_plan_id":"cebpf4jnsgd1na2vs0mg"},{"bike_id":"b9d5dd2f-2182-4f5d-bcc1-33a4fd6ef587","system_id":"levelo_inurba_marseille","lat":43.30424,"lon":5.3889,"is_reserved":false,"is_disabled":false,"rental_uris":{"android":"levelo://app?vid=b9d5dd2f-2182-4f5d-bcc1-33a4fd6ef587","ios":"levelo://app?vid=b9d5dd2f-2182-4f5d-bcc1-33a4fd6ef587"},"vehicle_type_id":"4","last_reported":1731445703,"current_range_meters":7200,"station_id":"ce4bgk12rcd13ifvqbi0","pricing_plan_id":"cebpf4jnsgd1na2vs0mg"},{"bike_id":"e3302601-dafd-4911-99fe-3d1cec184d66","system_id":"levelo_inurba_marseille","lat":43.29513,"lon":5.39411,"is_reserved":false,"is_disabled":false,"rental_uris":{"android":"levelo://app?vid=e3302601-dafd-4911-99fe-3d1cec184d66","ios":"levelo://app?vid=e3302601-dafd-4911-99fe-3d1cec184d66"},"vehicle_type_id":"4","last_reported":1731445703,"current_range_meters":36800,"station_id":"ce4bh292rcd13ifvqdf0","pricing_plan_id":"cebpf4jnsgd1na2vs0mg"},{"bike_id":"32b9fb5c-72c7-40fa-b43d-660b6b2d8d9d","system_id":"levelo_inurba_marseille","lat":43.32338,"lon":5.40613,"is_reserved":false,"is_disabled":false,"rental_uris":{"android":"levelo://app?vid=32b9fb5c-72c7-40fa-b43d-660b6b2d8d9d","ios":"levelo://app?vid=32b9fb5c-72c7-40fa-b43d-660b6b2d8d9d"},"vehicle_type_id":"4","last_reported":1731445703,"current_range_meters":28400,"station_id":"ce4bhq92rcd13ifvqhjg","pricing_plan_id":"cebpf4jnsgd1na2vs0mg"},{"bike_id":"8b0e17cd-2b4c-4c87-bad2-440414a75083","system_id":"levelo_inurba_marseille","lat":43.296539,"lon":5.37787,"is_reserved":false,"is_disabled":false,"rental_uris":{"android":"levelo://app?vid=8b0e17cd-2b4c-4c87-bad2-440414a75083","ios":"levelo://app?vid=8b0e17cd-2b4c-4c87-bad2-440414a75083"},"vehicle_type_id":"4","last_reported":1731445703,"current_range_meters":38400,"station_id":"ce4bgpp2rcd13ifvqc3g","pricing_plan_id":"cebpf4jnsgd1na2vs0mg"},{"bike_id":"c4e00506-2f54-4afb-b23c-6fdb96d02c0e","system_id":"levelo_inurba_marseille","lat":43.23193,"lon":5.35556,"is_reserved":false,"is_disabled":false,"rental_uris":{"android":"levelo://app?vid=c4e00506-2f54-4afb-b23c-6fdb96d02c0e","ios":"levelo://app?vid=c4e00506-2f54-4afb-b23c-6fdb96d02c0e"},"vehicle_type_id":"4","last_reported":1731445703,"current_range_meters":23200,"station_id":"ce4bhu92rcd13ifvqi70","pricing_plan_id":"cebpf4jnsgd1na2vs0mg"},{"bike_id":"dd6f9bb7-4775-4e9e-9d5d-e853a06b449e","system_id":"levelo_inurba_marseille","lat":43.34139,"lon":5.409,"is_reserved":false,"is_disabled":false,"rental_uris":{"android":"levelo://app?vid=dd6f9bb7-4775-4e9e-9d5d-e853a06b449e","ios":"levelo://app?vid=dd6f9bb7-4775-4e9e-9d5d-e853a06b449e"},"vehicle_type_id":"4","last_reported":1731445703,"current_range_meters":28400,"station_id":"ce4bhqh2rcd13ifvqhlg","pricing_plan_id":"cebpf4jnsgd1na2vs0mg"},{"bike_id":"df07c872-8147-43e3-97cb-6fc79750e1c4","system_id":"levelo_inurba_marseille","lat":43.28669,"lon":5.38677,"is_reserved":false,"is_disabled":false,"rental_uris":{"android":"levelo://app?vid=df07c872-8147-43e3-97cb-6fc79750e1c4","ios":"levelo://app?vid=df07c872-8147-43e3-97cb-6fc79750e1c4"},"vehicle_type_id":"4","last_reported":1731445703,"current_range_meters":38000,"station_id":"ce4bh492rcd13ifvqdug","pricing_plan_id":"cebpf4jnsgd1na2vs0mg"},{"bike_id":"0b785488-5f6f-4147-b7d5-50aff61b8478","system_id":"levelo_inurba_marseille","lat":43.31171,"lon":5.38712,"is_reserved":false,"is_disabled":false,"rental_uris":{"android":"levelo://app?vid=0b785488-5f6f-4147-b7d5-50aff61b8478","ios":"levelo://app?vid=0b785488-5f6f-4147-b7d5-50aff61b8478"},"vehicle_type_id":"4","last_reported":1731445703,"current_range_meters":27600,"station_id":"ce4bgv12rcd13ifvqcp0","pricing_plan_id":"cebpf4jnsgd1na2vs0mg"},{"bike_id":"6aa52774-ecc5-40c2-910f-a95e18609cc0","system_id":"levelo_inurba_marseille","lat":43.29952,"lon":5.37475,"is_reserved":false,"is_disabled":false,"rental_uris":{"android":"levelo://app?vid=6aa52774-ecc5-40c2-910f-a95e18609cc0","ios":"levelo://app?vid=6aa52774-ecc5-40c2-910f-a95e18609cc0"},"vehicle_type_id":"4","last_reported":1731445703,"current_range_meters":38800,"station_id":"ce4bgjh2rcd13ifvqbg0","pricing_plan_id":"cebpf4jnsgd1na2vs0mg"},{"bike_id":"18600b65-d922-4b26-8018-34b1e4d05724","system_id":"levelo_inurba_marseille","lat":43.27813,"lon":5.40715,"is_reserved":false,"is_disabled":false,"rental_uris":{"android":"levelo://app?vid=18600b65-d922-4b26-8018-34b1e4d05724","ios":"levelo://app?vid=18600b65-d922-4b26-8018-34b1e4d05724"},"vehicle_type_id":"4","last_reported":1731445703,"current_range_meters":39200,"station_id":"ce4bhnh2rcd13ifvqgtg","pricing_plan_id":"cebpf4jnsgd1na2vs0mg"},{"bike_id":"18df7c71-103d-4f7e-ac84-690ea0604d22","system_id":"levelo_inurba_marseille","lat":43.23196,"lon":5.35557,"is_reserved":false,"is_disabled":false,"rental_uris":{"android":"levelo://app?vid=18df7c71-103d-4f7e-ac84-690ea0604d22","ios":"levelo://app?vid=18df7c71-103d-4f7e-ac84-690ea0604d22"},"vehicle_type_id":"4","last_reported":1731445703,"current_range_meters":22000,"station_id":"ce4bhu92rcd13ifvqi70","pricing_plan_id":"cebpf4jnsgd1na2vs0mg"},{"bike_id":"6b228d07-4301-4a5b-9474-4b744d853bd2","system_id":"levelo_inurba_marseille","lat":43.32458,"lon":5.36539,"is_reserved":false,"is_disabled":false,"rental_uris":{"android":"levelo://app?vid=6b228d07-4301-4a5b-9474-4b744d853bd2","ios":"levelo://app?vid=6b228d07-4301-4a5b-9474-4b744d853bd2"},"vehicle_type_id":"4","last_reported":1731445703,"current_range_meters":23200,"station_id":"ce4bhs12rcd13ifvqhvg","pricing_plan_id":"cebpf4jnsgd1na2vs0mg"},{"bike_id":"08b576bb-db72-4765-beb3-6747da039575","system_id":"levelo_inurba_marseille","lat":43.28147,"lon":5.42637,"is_reserved":false,"is_disabled":false,"rental_uris":{"android":"levelo://app?vid=08b576bb-db72-4765-beb3-6747da039575","ios":"levelo://app?vid=08b576bb-db72-4765-beb3-6747da039575"},"vehicle_type_id":"4","last_reported":1731445703,"current_range_meters":9600,"station_id":"ce4bhnh2rcd13ifvqgug","pricing_plan_id":"cebpf4jnsgd1na2vs0mg"},{"bike_id":"55c4e55a-a8c4-404a-9911-b8710ca32662","system_id":"levelo_inurba_marseille","lat":43.2979,"lon":5.39343,"is_reserved":false,"is_disabled":false,"rental_uris":{"android":"levelo://app?vid=55c4e55a-a8c4-404a-9911-b8710ca32662","ios":"levelo://app?vid=55c4e55a-a8c4-404a-9911-b8710ca32662"},"vehicle_type_id":"4","last_reported":1731445703,"current_range_meters":38800,"station_id":"chh1huq6cuj3fo74tm60","pricing_plan_id":"cebpf4jnsgd1na2vs0mg"},{"bike_id":"7d87b85e-93cd-4582-82c9-874c09a2a874","system_id":"levelo_inurba_marseille","lat":43.27494,"lon":5.42451,"is_reserved":false,"is_disabled":false,"rental_uris":{"android":"levelo://app?vid=7d87b85e-93cd-4582-82c9-874c09a2a874","ios":"levelo://app?vid=7d87b85e-93cd-4582-82c9-874c09a2a874"},"vehicle_type_id":"4","last_reported":1731445703,"current_range_meters":9200,"station_id":"ce4bhn92rcd13ifvqgrg","pricing_plan_id":"cebpf4jnsgd1na2vs0mg"},{"bike_id":"ae7a1209-30cb-4adf-9682-f9a609b62c9b","system_id":"levelo_inurba_marseille","lat":43.32365,"lon":5.38883,"is_reserved":false,"is_disabled":false,"rental_uris":{"android":"levelo://app?vid=ae7a1209-30cb-4adf-9682-f9a609b62c9b","ios":"levelo://app?vid=ae7a1209-30cb-4adf-9682-f9a609b62c9b"},"vehicle_type_id":"4","last_reported":1731445703,"current_range_meters":17200,"station_id":"ce4bhqp2rcd13ifvqhog","pricing_plan_id":"cebpf4jnsgd1na2vs0mg"},{"bike_id":"92501b6a-7129-4fd6-b1c6-a0ff5a76a687","system_id":"levelo_inurba_marseille","lat":43.25087,"lon":5.39516,"is_reserved":false,"is_disabled":false,"rental_uris":{"android":"levelo://app?vid=92501b6a-7129-4fd6-b1c6-a0ff5a76a687","ios":"levelo://app?vid=92501b6a-7129-4fd6-b1c6-a0ff5a76a687"},"vehicle_type_id":"4","last_reported":1731445703,"current_range_meters":18800,"station_id":"ce4bhm12rcd13ifvqgkg","pricing_plan_id":"cebpf4jnsgd1na2vs0mg"},{"bike_id":"45bc7c88-9c3a-4904-b8f3-dfc1061e8f0f","system_id":"levelo_inurba_marseille","lat":43.27997,"lon":5.40004,"is_reserved":false,"is_disabled":false,"rental_uris":{"android":"levelo://app?vid=45bc7c88-9c3a-4904-b8f3-dfc1061e8f0f","ios":"levelo://app?vid=45bc7c88-9c3a-4904-b8f3-dfc1061e8f0f"},"vehicle_type_id":"4","last_reported":1731445703,"current_range_meters":8000,"station_id":"ce4bho92rcd13ifvqh4g","pricing_plan_id":"cebpf4jnsgd1na2vs0mg"},{"bike_id":"b4b0725b-f58b-4e0c-9961-5cb977872dd3","system_id":"levelo_inurba_marseille","lat":43.28462,"lon":5.35893,"is_reserved":false,"is_disabled":false,"rental_uris":{"android":"levelo://app?vid=b4b0725b-f58b-4e0c-9961-5cb977872dd3","ios":"levelo://app?vid=b4b0725b-f58b-4e0c-9961-5cb977872dd3"},"vehicle_type_id":"4","last_reported":1731445703,"current_range_meters":19200,"station_id":"ce4bhah2rcd13ifvqei0","pricing_plan_id":"cebpf4jnsgd1na2vs0mg"},{"bike_id":"1cbb113a-3849-46a4-851a-787c51b69892","system_id":"levelo_inurba_marseille","lat":43.2808,"lon":5.39666,"is_reserved":false,"is_disabled":false,"rental_uris":{"android":"levelo://app?vid=1cbb113a-3849-46a4-851a-787c51b69892","ios":"levelo://app?vid=1cbb113a-3849-46a4-851a-787c51b69892"},"vehicle_type_id":"4","last_reported":1731445703,"current_range_meters":22000,"station_id":"ce4bho12rcd13ifvqh2g","pricing_plan_id":"cebpf4jnsgd1na2vs0mg"},{"bike_id":"f313cd83-3b4d-439f-b288-fbed704bfde0","system_id":"levelo_inurba_marseille","lat":43.29871,"lon":5.38896,"is_reserved":false,"is_disabled":false,"rental_uris":{"android":"levelo://app?vid=f313cd83-3b4d-439f-b288-fbed704bfde0","ios":"levelo://app?vid=f313cd83-3b4d-439f-b288-fbed704bfde0"},"vehicle_type_id":"4","last_reported":1731445703,"current_range_meters":8400,"station_id":"ce4bh392rcd13ifvqdl0","pricing_plan_id":"cebpf4jnsgd1na2vs0mg"},{"bike_id":"131c48f7-325d-49f5-b51e-4c6b86326b57","system_id":"levelo_inurba_marseille","lat":43.30212,"lon":5.39472,"is_reserved":false,"is_disabled":false,"rental_uris":{"android":"levelo://app?vid=131c48f7-325d-49f5-b51e-4c6b86326b57","ios":"levelo://app?vid=131c48f7-325d-49f5-b51e-4c6b86326b57"},"vehicle_type_id":"4","last_reported":1731445703,"current_range_meters":40000,"station_id":"ce4bh0p2rcd13ifvqd70","pricing_plan_id":"cebpf4jnsgd1na2vs0mg"},{"bike_id":"77a8d971-2f30-4a1d-8bad-2f755f82f9a7","system_id":"levelo_inurba_marseille","lat":43.28264,"lon":5.35075,"is_reserved":false,"is_disabled":false,"rental_uris":{"android":"levelo://app?vid=77a8d971-2f30-4a1d-8bad-2f755f82f9a7","ios":"levelo://app?vid=77a8d971-2f30-4a1d-8bad-2f755f82f9a7"},"vehicle_type_id":"4","last_reported":1731445703,"current_range_meters":38800,"station_id":"ce4bhbp2rcd13ifvqerg","pricing_plan_id":"cebpf4jnsgd1na2vs0mg"},{"bike_id":"1e6d59bd-28cd-4e09-b6e4-a60784365a06","system_id":"levelo_inurba_marseille","lat":43.2799,"lon":5.41662,"is_reserved":false,"is_disabled":false,"rental_uris":{"android":"levelo://app?vid=1e6d59bd-28cd-4e09-b6e4-a60784365a06","ios":"levelo://app?vid=1e6d59bd-28cd-4e09-b6e4-a60784365a06"},"vehicle_type_id":"4","last_reported":1731445703,"current_range_meters":39200,"station_id":"ce4bho12rcd13ifvqh1g","pricing_plan_id":"cebpf4jnsgd1na2vs0mg"},{"bike_id":"de1213ad-8538-49db-90f1-13c1562aa5c2","system_id":"levelo_inurba_marseille","lat":43.28622,"lon":5.35105,"is_reserved":false,"is_disabled":false,"rental_uris":{"android":"levelo://app?vid=de1213ad-8538-49db-90f1-13c1562aa5c2","ios":"levelo://app?vid=de1213ad-8538-49db-90f1-13c1562aa5c2"},"vehicle_type_id":"4","last_reported":1731445703,"current_range_meters":8000,"station_id":"ce4bhch2rcd13ifvqeug","pricing_plan_id":"cebpf4jnsgd1na2vs0mg"},{"bike_id":"5770bbd9-2c6e-4691-a76b-306c0fdae32c","system_id":"levelo_inurba_marseille","lat":43.28849,"lon":5.3585,"is_reserved":false,"is_disabled":false,"rental_uris":{"android":"levelo://app?vid=5770bbd9-2c6e-4691-a76b-306c0fdae32c","ios":"levelo://app?vid=5770bbd9-2c6e-4691-a76b-306c0fdae32c"},"vehicle_type_id":"4","last_reported":1731445703,"current_range_meters":32000,"station_id":"ce4bhb12rcd13ifvqem0","pricing_plan_id":"cebpf4jnsgd1na2vs0mg"},{"bike_id":"507284d9-4009-457e-bfa1-5ddbf58c6240","system_id":"levelo_inurba_marseille","lat":43.27175,"lon":5.40988,"is_reserved":false,"is_disabled":false,"rental_uris":{"android":"levelo://app?vid=507284d9-4009-457e-bfa1-5ddbf58c6240","ios":"levelo://app?vid=507284d9-4009-457e-bfa1-5ddbf58c6240"},"vehicle_type_id":"4","last_reported":1731445703,"current_range_meters":38800,"station_id":"ce4bhl12rcd13ifvqgf0","pricing_plan_id":"cebpf4jnsgd1na2vs0mg"},{"bike_id":"5585f7df-260f-4763-a77b-cec71622b344","system_id":"levelo_inurba_marseille","lat":43.31991,"lon":5.38149,"is_reserved":false,"is_disabled":false,"rental_uris":{"android":"levelo://app?vid=5585f7df-260f-4763-a77b-cec71622b344","ios":"levelo://app?vid=5585f7df-260f-4763-a77b-cec71622b344"},"vehicle_type_id":"4","last_reported":1731445703,"current_range_meters":30800,"station_id":"ce4bhr12rcd13ifvqhpg","pricing_plan_id":"cebpf4jnsgd1na2vs0mg"},{"bike_id":"8ec439ca-4d2b-4f2c-82cc-8c4371c47736","system_id":"levelo_inurba_marseille","lat":43.28004,"lon":5.4001,"is_reserved":false,"is_disabled":false,"rental_uris":{"android":"levelo://app?vid=8ec439ca-4d2b-4f2c-82cc-8c4371c47736","ios":"levelo://app?vid=8ec439ca-4d2b-4f2c-82cc-8c4371c47736"},"vehicle_type_id":"4","last_reported":1731445703,"current_range_meters":38000,"station_id":"ce4bho92rcd13ifvqh4g","pricing_plan_id":"cebpf4jnsgd1na2vs0mg"},{"bike_id":"477ac499-461c-4a23-8dfa-5e9d7eb9d95e","system_id":"levelo_inurba_marseille","lat":43.31166,"lon":5.38705,"is_reserved":false,"is_disabled":false,"rental_uris":{"android":"levelo://app?vid=477ac499-461c-4a23-8dfa-5e9d7eb9d95e","ios":"levelo://app?vid=477ac499-461c-4a23-8dfa-5e9d7eb9d95e"},"vehicle_type_id":"4","last_reported":1731445703,"current_range_meters":10000,"station_id":"ce4bgv12rcd13ifvqcp0","pricing_plan_id":"cebpf4jnsgd1na2vs0mg"},{"bike_id":"dbc4a587-0fc9-4e6b-bcff-acfb3feee328","system_id":"levelo_inurba_marseille","lat":43.29008,"lon":5.35614,"is_reserved":false,"is_disabled":false,"rental_uris":{"android":"levelo://app?vid=dbc4a587-0fc9-4e6b-bcff-acfb3feee328","ios":"levelo://app?vid=dbc4a587-0fc9-4e6b-bcff-acfb3feee328"},"vehicle_type_id":"4","last_reported":1731445703,"current_range_meters":39200,"station_id":"ce4bhb92rcd13ifvqen0","pricing_plan_id":"cebpf4jnsgd1na2vs0mg"},{"bike_id":"0c16ce1e-70c2-4d1f-b546-d3a2156323ff","system_id":"levelo_inurba_marseille","lat":43.27808,"lon":5.40702,"is_reserved":false,"is_disabled":false,"rental_uris":{"android":"levelo://app?vid=0c16ce1e-70c2-4d1f-b546-d3a2156323ff","ios":"levelo://app?vid=0c16ce1e-70c2-4d1f-b546-d3a2156323ff"},"vehicle_type_id":"4","last_reported":1731445703,"current_range_meters":32000,"station_id":"ce4bhnh2rcd13ifvqgtg","pricing_plan_id":"cebpf4jnsgd1na2vs0mg"},{"bike_id":"545b5284-2b5f-4c76-b6de-050eba91d10e","system_id":"levelo_inurba_marseille","lat":43.24802,"lon":5.37457,"is_reserved":false,"is_disabled":false,"rental_uris":{"android":"levelo://app?vid=545b5284-2b5f-4c76-b6de-050eba91d10e","ios":"levelo://app?vid=545b5284-2b5f-4c76-b6de-050eba91d10e"},"vehicle_type_id":"4","last_reported":1731445703,"current_range_meters":16400,"station_id":"ce4bhgh2rcd13ifvqfb0","pricing_plan_id":"cebpf4jnsgd1na2vs0mg"},{"bike_id":"fa42d5e4-72af-4228-990b-fcd520addeee","system_id":"levelo_inurba_marseille","lat":43.29265,"lon":5.40146,"is_reserved":false,"is_disabled":false,"rental_uris":{"android":"levelo://app?vid=fa42d5e4-72af-4228-990b-fcd520addeee","ios":"levelo://app?vid=fa42d5e4-72af-4228-990b-fcd520addeee"},"vehicle_type_id":"4","last_reported":1731445703,"current_range_meters":38800,"station_id":"ce4bh312rcd13ifvqdk0","pricing_plan_id":"cebpf4jnsgd1na2vs0mg"},{"bike_id":"d265751d-fa37-4729-b8e3-a5848e7e9d07","system_id":"levelo_inurba_marseille","lat":43.24804,"lon":5.37455,"is_reserved":false,"is_disabled":false,"rental_uris":{"android":"levelo://app?vid=d265751d-fa37-4729-b8e3-a5848e7e9d07","ios":"levelo://app?vid=d265751d-fa37-4729-b8e3-a5848e7e9d07"},"vehicle_type_id":"4","last_reported":1731445703,"current_range_meters":39200,"station_id":"ce4bhgh2rcd13ifvqfb0","pricing_plan_id":"cebpf4jnsgd1na2vs0mg"},{"bike_id":"e4557244-baef-4fb7-ae0e-00398e2706db","system_id":"levelo_inurba_marseille","lat":43.28457,"lon":5.35893,"is_reserved":false,"is_disabled":false,"rental_uris":{"android":"levelo://app?vid=e4557244-baef-4fb7-ae0e-00398e2706db","ios":"levelo://app?vid=e4557244-baef-4fb7-ae0e-00398e2706db"},"vehicle_type_id":"4","last_reported":1731445703,"current_range_meters":27600,"station_id":"ce4bhah2rcd13ifvqei0","pricing_plan_id":"cebpf4jnsgd1na2vs0mg"},{"bike_id":"f6ab6a11-7b1f-4725-a4fc-55ac9756602b","system_id":"levelo_inurba_marseille","lat":43.23193,"lon":5.35541,"is_reserved":false,"is_disabled":false,"rental_uris":{"android":"levelo://app?vid=f6ab6a11-7b1f-4725-a4fc-55ac9756602b","ios":"levelo://app?vid=f6ab6a11-7b1f-4725-a4fc-55ac9756602b"},"vehicle_type_id":"4","last_reported":1731445703,"current_range_meters":37600,"station_id":"ce4bhu92rcd13ifvqi70","pricing_plan_id":"cebpf4jnsgd1na2vs0mg"},{"bike_id":"1661b959-96a0-4bc6-9284-ecde42b3da08","system_id":"levelo_inurba_marseille","lat":43.30604,"lon":5.39351,"is_reserved":false,"is_disabled":false,"rental_uris":{"android":"levelo://app?vid=1661b959-96a0-4bc6-9284-ecde42b3da08","ios":"levelo://app?vid=1661b959-96a0-4bc6-9284-ecde42b3da08"},"vehicle_type_id":"4","last_reported":1731445703,"current_range_meters":36400,"station_id":"ce4bh0p2rcd13ifvqd80","pricing_plan_id":"cebpf4jnsgd1na2vs0mg"},{"bike_id":"3922a5eb-6156-4c8a-a09b-14fee498ab0f","system_id":"levelo_inurba_marseille","lat":43.27069,"lon":5.42279,"is_reserved":false,"is_disabled":false,"rental_uris":{"android":"levelo://app?vid=3922a5eb-6156-4c8a-a09b-14fee498ab0f","ios":"levelo://app?vid=3922a5eb-6156-4c8a-a09b-14fee498ab0f"},"vehicle_type_id":"4","last_reported":1731445703,"current_range_meters":38800,"station_id":"ce4bhk92rcd13ifvqgb0","pricing_plan_id":"cebpf4jnsgd1na2vs0mg"},{"bike_id":"fe88984c-6c15-4917-946c-722d5eb3041b","system_id":"levelo_inurba_marseille","lat":43.30888,"lon":5.37193,"is_reserved":false,"is_disabled":false,"rental_uris":{"android":"levelo://app?vid=fe88984c-6c15-4917-946c-722d5eb3041b","ios":"levelo://app?vid=fe88984c-6c15-4917-946c-722d5eb3041b"},"vehicle_type_id":"4","last_reported":1731445703,"current_range_meters":21600,"station_id":"ce4bguh2rcd13ifvqckg","pricing_plan_id":"cebpf4jnsgd1na2vs0mg"},{"bike_id":"9c6e8335-7b55-4c15-8665-29190ffcd09f","system_id":"levelo_inurba_marseille","lat":43.26564,"lon":5.38999,"is_reserved":false,"is_disabled":false,"rental_uris":{"android":"levelo://app?vid=9c6e8335-7b55-4c15-8665-29190ffcd09f","ios":"levelo://app?vid=9c6e8335-7b55-4c15-8665-29190ffcd09f"},"vehicle_type_id":"4","last_reported":1731445703,"current_range_meters":16000,"station_id":"ce4bhe12rcd13ifvqf30","pricing_plan_id":"cebpf4jnsgd1na2vs0mg"},{"bike_id":"643acdb3-4fdc-4eb0-be6f-5155ce023638","system_id":"levelo_inurba_marseille","lat":43.22933,"lon":5.35376,"is_reserved":false,"is_disabled":false,"rental_uris":{"android":"levelo://app?vid=643acdb3-4fdc-4eb0-be6f-5155ce023638","ios":"levelo://app?vid=643acdb3-4fdc-4eb0-be6f-5155ce023638"},"vehicle_type_id":"4","last_reported":1731445703,"current_range_meters":22800,"station_id":"cpo3532slgdg3j2ikp40","pricing_plan_id":"cebpf4jnsgd1na2vs0mg"},{"bike_id":"0adb12ab-145d-49b1-88c7-deba2d2aab14","system_id":"levelo_inurba_marseille","lat":43.31699,"lon":5.40467,"is_reserved":false,"is_disabled":false,"rental_uris":{"android":"levelo://app?vid=0adb12ab-145d-49b1-88c7-deba2d2aab14","ios":"levelo://app?vid=0adb12ab-145d-49b1-88c7-deba2d2aab14"},"vehicle_type_id":"4","last_reported":1731445703,"current_range_meters":5600,"station_id":"ce4bh012rcd13ifvqd00","pricing_plan_id":"cebpf4jnsgd1na2vs0mg"},{"bike_id":"4ea09c0a-69d0-4a4b-ac6d-f8d9d70b9f13","system_id":"levelo_inurba_marseille","lat":43.28464,"lon":5.35885,"is_reserved":false,"is_disabled":false,"rental_uris":{"android":"levelo://app?vid=4ea09c0a-69d0-4a4b-ac6d-f8d9d70b9f13","ios":"levelo://app?vid=4ea09c0a-69d0-4a4b-ac6d-f8d9d70b9f13"},"vehicle_type_id":"4","last_reported":1731445703,"current_range_meters":34000,"station_id":"ce4bhah2rcd13ifvqei0","pricing_plan_id":"cebpf4jnsgd1na2vs0mg"},{"bike_id":"cf22720c-159f-4b29-a3ab-ef3cb85cf588","system_id":"levelo_inurba_marseille","lat":43.25823,"lon":5.39433,"is_reserved":false,"is_disabled":false,"rental_uris":{"android":"levelo://app?vid=cf22720c-159f-4b29-a3ab-ef3cb85cf588","ios":"levelo://app?vid=cf22720c-159f-4b29-a3ab-ef3cb85cf588"},"vehicle_type_id":"4","last_reported":1731445703,"current_range_meters":17600,"station_id":"ce4bhip2rcd13ifvqft0","pricing_plan_id":"cebpf4jnsgd1na2vs0mg"},{"bike_id":"e3eec66d-93c1-47d6-8207-dd4e8e9fdef7","system_id":"levelo_inurba_marseille","lat":43.29571,"lon":5.39982,"is_reserved":false,"is_disabled":false,"rental_uris":{"android":"levelo://app?vid=e3eec66d-93c1-47d6-8207-dd4e8e9fdef7","ios":"levelo://app?vid=e3eec66d-93c1-47d6-8207-dd4e8e9fdef7"},"vehicle_type_id":"4","last_reported":1731445703,"current_range_meters":38800,"station_id":"ce4bh312rcd13ifvqdj0","pricing_plan_id":"cebpf4jnsgd1na2vs0mg"},{"bike_id":"d7ad06ec-6153-4f7f-a6e6-8b8e0d4e8fa7","system_id":"levelo_inurba_marseille","lat":43.31754,"lon":5.39025,"is_reserved":false,"is_disabled":false,"rental_uris":{"android":"levelo://app?vid=d7ad06ec-6153-4f7f-a6e6-8b8e0d4e8fa7","ios":"levelo://app?vid=d7ad06ec-6153-4f7f-a6e6-8b8e0d4e8fa7"},"vehicle_type_id":"4","last_reported":1731445703,"current_range_meters":35200,"station_id":"ce4bhqp2rcd13ifvqhng","pricing_plan_id":"cebpf4jnsgd1na2vs0mg"},{"bike_id":"96d2f104-c9ef-4a4c-99ea-d8fee576fe68","system_id":"levelo_inurba_marseille","lat":43.25085,"lon":5.39519,"is_reserved":false,"is_disabled":false,"rental_uris":{"android":"levelo://app?vid=96d2f104-c9ef-4a4c-99ea-d8fee576fe68","ios":"levelo://app?vid=96d2f104-c9ef-4a4c-99ea-d8fee576fe68"},"vehicle_type_id":"4","last_reported":1731445703,"current_range_meters":6800,"station_id":"ce4bhm12rcd13ifvqgkg","pricing_plan_id":"cebpf4jnsgd1na2vs0mg"},{"bike_id":"cc28e414-0047-4ae0-a828-6e21b2d2f7a4","system_id":"levelo_inurba_marseille","lat":43.2799,"lon":5.4166,"is_reserved":false,"is_disabled":false,"rental_uris":{"android":"levelo://app?vid=cc28e414-0047-4ae0-a828-6e21b2d2f7a4","ios":"levelo://app?vid=cc28e414-0047-4ae0-a828-6e21b2d2f7a4"},"vehicle_type_id":"4","last_reported":1731445703,"current_range_meters":7200,"station_id":"ce4bho12rcd13ifvqh1g","pricing_plan_id":"cebpf4jnsgd1na2vs0mg"},{"bike_id":"7d250492-b878-490b-8fb4-bee304bc7d48","system_id":"levelo_inurba_marseille","lat":43.29519,"lon":5.39035,"is_reserved":false,"is_disabled":false,"rental_uris":{"android":"levelo://app?vid=7d250492-b878-490b-8fb4-bee304bc7d48","ios":"levelo://app?vid=7d250492-b878-490b-8fb4-bee304bc7d48"},"vehicle_type_id":"4","last_reported":1731445703,"current_range_meters":32400,"station_id":"ce4bh3p2rcd13ifvqdp0","pricing_plan_id":"cebpf4jnsgd1na2vs0mg"},{"bike_id":"2f7c0ff4-f529-409a-83cd-35a4539bd82f","system_id":"levelo_inurba_marseille","lat":43.24071,"lon":5.37757,"is_reserved":false,"is_disabled":false,"rental_uris":{"android":"levelo://app?vid=2f7c0ff4-f529-409a-83cd-35a4539bd82f","ios":"levelo://app?vid=2f7c0ff4-f529-409a-83cd-35a4539bd82f"},"vehicle_type_id":"4","last_reported":1731445703,"current_range_meters":23200,"station_id":"ce4bhnp2rcd13ifvqgvg","pricing_plan_id":"cebpf4jnsgd1na2vs0mg"},{"bike_id":"38bf0ea6-6602-448e-873a-d412f2b6ea95","system_id":"levelo_inurba_marseille","lat":43.28914,"lon":5.35965,"is_reserved":false,"is_disabled":false,"rental_uris":{"android":"levelo://app?vid=38bf0ea6-6602-448e-873a-d412f2b6ea95","ios":"levelo://app?vid=38bf0ea6-6602-448e-873a-d412f2b6ea95"},"vehicle_type_id":"4","last_reported":1731445703,"current_range_meters":20000,"station_id":"ce4bha92rcd13ifvqeg0","pricing_plan_id":"cebpf4jnsgd1na2vs0mg"},{"bike_id":"1c823daa-54e3-4fdc-ac69-748d400a7157","system_id":"levelo_inurba_marseille","lat":43.28108,"lon":5.37837,"is_reserved":false,"is_disabled":false,"rental_uris":{"android":"levelo://app?vid=1c823daa-54e3-4fdc-ac69-748d400a7157","ios":"levelo://app?vid=1c823daa-54e3-4fdc-ac69-748d400a7157"},"vehicle_type_id":"4","last_reported":1731445703,"current_range_meters":39200,"station_id":"ce4bha12rcd13ifvqee0","pricing_plan_id":"cebpf4jnsgd1na2vs0mg"},{"bike_id":"8f7aa605-e45f-45c6-94d7-43fd6b5ff2f2","system_id":"levelo_inurba_marseille","lat":43.29034,"lon":5.38642,"is_reserved":false,"is_disabled":false,"rental_uris":{"android":"levelo://app?vid=8f7aa605-e45f-45c6-94d7-43fd6b5ff2f2","ios":"levelo://app?vid=8f7aa605-e45f-45c6-94d7-43fd6b5ff2f2"},"vehicle_type_id":"4","last_reported":1731445703,"current_range_meters":19600,"station_id":"ce4bh4p2rcd13ifvqe0g","pricing_plan_id":"cebpf4jnsgd1na2vs0mg"},{"bike_id":"310bf956-2d0c-40fb-9411-0b80e8e2b383","system_id":"levelo_inurba_marseille","lat":43.30324,"lon":5.40442,"is_reserved":false,"is_disabled":false,"rental_uris":{"android":"levelo://app?vid=310bf956-2d0c-40fb-9411-0b80e8e2b383","ios":"levelo://app?vid=310bf956-2d0c-40fb-9411-0b80e8e2b383"},"vehicle_type_id":"4","last_reported":1731445703,"current_range_meters":38800,"station_id":"ce4bh012rcd13ifvqd10","pricing_plan_id":"cebpf4jnsgd1na2vs0mg"},{"bike_id":"e8e02d9c-9f18-44fb-893f-40424ddd086b","system_id":"levelo_inurba_marseille","lat":43.28457,"lon":5.35887,"is_reserved":false,"is_disabled":false,"rental_uris":{"android":"levelo://app?vid=e8e02d9c-9f18-44fb-893f-40424ddd086b","ios":"levelo://app?vid=e8e02d9c-9f18-44fb-893f-40424ddd086b"},"vehicle_type_id":"4","last_reported":1731445703,"current_range_meters":38800,"station_id":"ce4bhah2rcd13ifvqei0","pricing_plan_id":"cebpf4jnsgd1na2vs0mg"},{"bike_id":"82e98470-11c0-4399-ad83-59956d6b4baa","system_id":"levelo_inurba_marseille","lat":43.30592,"lon":5.39353,"is_reserved":false,"is_disabled":false,"rental_uris":{"android":"levelo://app?vid=82e98470-11c0-4399-ad83-59956d6b4baa","ios":"levelo://app?vid=82e98470-11c0-4399-ad83-59956d6b4baa"},"vehicle_type_id":"4","last_reported":1731445703,"current_range_meters":12800,"station_id":"ce4bh0p2rcd13ifvqd80","pricing_plan_id":"cebpf4jnsgd1na2vs0mg"},{"bike_id":"b0843d66-5916-4a06-86f1-73ac0aafef65","system_id":"levelo_inurba_marseille","lat":43.31756,"lon":5.39025,"is_reserved":false,"is_disabled":false,"rental_uris":{"android":"levelo://app?vid=b0843d66-5916-4a06-86f1-73ac0aafef65","ios":"levelo://app?vid=b0843d66-5916-4a06-86f1-73ac0aafef65"},"vehicle_type_id":"4","last_reported":1731445703,"current_range_meters":34000,"station_id":"ce4bhqp2rcd13ifvqhng","pricing_plan_id":"cebpf4jnsgd1na2vs0mg"},{"bike_id":"1740a8aa-c44f-4c36-a230-385a32395a5f","system_id":"levelo_inurba_marseille","lat":43.28725,"lon":5.36091,"is_reserved":false,"is_disabled":false,"rental_uris":{"android":"levelo://app?vid=1740a8aa-c44f-4c36-a230-385a32395a5f","ios":"levelo://app?vid=1740a8aa-c44f-4c36-a230-385a32395a5f"},"vehicle_type_id":"4","last_reported":1731445703,"current_range_meters":38800,"station_id":"cki0cbj6b192h4jlfktg","pricing_plan_id":"cebpf4jnsgd1na2vs0mg"},{"bike_id":"279e7387-2aa6-4fe0-952b-39bf3dc9e040","system_id":"levelo_inurba_marseille","lat":43.22932,"lon":5.35379,"is_reserved":false,"is_disabled":false,"rental_uris":{"android":"levelo://app?vid=279e7387-2aa6-4fe0-952b-39bf3dc9e040","ios":"levelo://app?vid=279e7387-2aa6-4fe0-952b-39bf3dc9e040"},"vehicle_type_id":"4","last_reported":1731445703,"current_range_meters":8400,"station_id":"cpo3532slgdg3j2ikp40","pricing_plan_id":"cebpf4jnsgd1na2vs0mg"},{"bike_id":"20e975d9-146c-433a-8f08-95e7bdb690e9","system_id":"levelo_inurba_marseille","lat":43.2942,"lon":5.38624,"is_reserved":false,"is_disabled":false,"rental_uris":{"android":"levelo://app?vid=20e975d9-146c-433a-8f08-95e7bdb690e9","ios":"levelo://app?vid=20e975d9-146c-433a-8f08-95e7bdb690e9"},"vehicle_type_id":"4","last_reported":1731445703,"current_range_meters":4400,"station_id":"ce4bh2h2rcd13ifvqdh0","pricing_plan_id":"cebpf4jnsgd1na2vs0mg"},{"bike_id":"bffb9ad5-11f9-4ac1-bc93-daa95e4d74a2","system_id":"levelo_inurba_marseille","lat":43.23182,"lon":5.39979,"is_reserved":false,"is_disabled":false,"rental_uris":{"android":"levelo://app?vid=bffb9ad5-11f9-4ac1-bc93-daa95e4d74a2","ios":"levelo://app?vid=bffb9ad5-11f9-4ac1-bc93-daa95e4d74a2"},"vehicle_type_id":"4","last_reported":1731445703,"current_range_meters":38800,"station_id":"ce4bhn12rcd13ifvqgqg","pricing_plan_id":"cebpf4jnsgd1na2vs0mg"},{"bike_id":"c7e00296-bf3e-4b20-a73c-06fbedfe35d5","system_id":"levelo_inurba_marseille","lat":43.2928,"lon":5.40125,"is_reserved":false,"is_disabled":false,"rental_uris":{"android":"levelo://app?vid=c7e00296-bf3e-4b20-a73c-06fbedfe35d5","ios":"levelo://app?vid=c7e00296-bf3e-4b20-a73c-06fbedfe35d5"},"vehicle_type_id":"4","last_reported":1731445703,"current_range_meters":20800,"station_id":"ce4bh312rcd13ifvqdk0","pricing_plan_id":"cebpf4jnsgd1na2vs0mg"},{"bike_id":"9686312c-dfac-4840-b80b-c5ff4cc01644","system_id":"levelo_inurba_marseille","lat":43.28836,"lon":5.39321,"is_reserved":false,"is_disabled":false,"rental_uris":{"android":"levelo://app?vid=9686312c-dfac-4840-b80b-c5ff4cc01644","ios":"levelo://app?vid=9686312c-dfac-4840-b80b-c5ff4cc01644"},"vehicle_type_id":"4","last_reported":1731445703,"current_range_meters":39200,"station_id":"ce4bh2p2rcd13ifvqdi0","pricing_plan_id":"cebpf4jnsgd1na2vs0mg"},{"bike_id":"7de8e655-df9b-45fc-8982-9a2d00a0ff2b","system_id":"levelo_inurba_marseille","lat":43.24667,"lon":5.38164,"is_reserved":false,"is_disabled":false,"rental_uris":{"android":"levelo://app?vid=7de8e655-df9b-45fc-8982-9a2d00a0ff2b","ios":"levelo://app?vid=7de8e655-df9b-45fc-8982-9a2d00a0ff2b"},"vehicle_type_id":"4","last_reported":1731445703,"current_range_meters":34000,"station_id":"ce4bhih2rcd13ifvqfr0","pricing_plan_id":"cebpf4jnsgd1na2vs0mg"},{"bike_id":"c513fbdc-e8eb-47df-818c-e5f9f8caf87e","system_id":"levelo_inurba_marseille","lat":43.31324,"lon":5.39694,"is_reserved":false,"is_disabled":false,"rental_uris":{"android":"levelo://app?vid=c513fbdc-e8eb-47df-818c-e5f9f8caf87e","ios":"levelo://app?vid=c513fbdc-e8eb-47df-818c-e5f9f8caf87e"},"vehicle_type_id":"4","last_reported":1731445703,"current_range_meters":13600,"station_id":"ce4bgvp2rcd13ifvqcu0","pricing_plan_id":"cebpf4jnsgd1na2vs0mg"},{"bike_id":"794ff0eb-2631-47c9-a941-e73b931f570b","system_id":"levelo_inurba_marseille","lat":43.30884,"lon":5.39649,"is_reserved":false,"is_disabled":false,"rental_uris":{"android":"levelo://app?vid=794ff0eb-2631-47c9-a941-e73b931f570b","ios":"levelo://app?vid=794ff0eb-2631-47c9-a941-e73b931f570b"},"vehicle_type_id":"4","last_reported":1731445703,"current_range_meters":17600,"station_id":"ce4bh012rcd13ifvqcv0","pricing_plan_id":"cebpf4jnsgd1na2vs0mg"},{"bike_id":"47765a50-2b2f-4a20-9ee8-c77b7b635e8f","system_id":"levelo_inurba_marseille","lat":43.31317,"lon":5.39687,"is_reserved":false,"is_disabled":false,"rental_uris":{"android":"levelo://app?vid=47765a50-2b2f-4a20-9ee8-c77b7b635e8f","ios":"levelo://app?vid=47765a50-2b2f-4a20-9ee8-c77b7b635e8f"},"vehicle_type_id":"4","last_reported":1731445703,"current_range_meters":9200,"station_id":"ce4bgvp2rcd13ifvqcu0","pricing_plan_id":"cebpf4jnsgd1na2vs0mg"},{"bike_id":"0533d407-0885-441e-afcd-c99a726d8cbf","system_id":"levelo_inurba_marseille","lat":43.2884,"lon":5.35864,"is_reserved":false,"is_disabled":false,"rental_uris":{"android":"levelo://app?vid=0533d407-0885-441e-afcd-c99a726d8cbf","ios":"levelo://app?vid=0533d407-0885-441e-afcd-c99a726d8cbf"},"vehicle_type_id":"4","last_reported":1731445703,"current_range_meters":6400,"station_id":"ce4bhb12rcd13ifvqem0","pricing_plan_id":"cebpf4jnsgd1na2vs0mg"},{"bike_id":"6af85b63-eb6f-495b-9cce-d62cb4e5f26b","system_id":"levelo_inurba_marseille","lat":43.28153,"lon":5.42637,"is_reserved":false,"is_disabled":false,"rental_uris":{"android":"levelo://app?vid=6af85b63-eb6f-495b-9cce-d62cb4e5f26b","ios":"levelo://app?vid=6af85b63-eb6f-495b-9cce-d62cb4e5f26b"},"vehicle_type_id":"4","last_reported":1731445703,"current_range_meters":24400,"station_id":"ce4bhnh2rcd13ifvqgug","pricing_plan_id":"cebpf4jnsgd1na2vs0mg"},{"bike_id":"d7263090-4e41-407d-9271-2db32801f77e","system_id":"levelo_inurba_marseille","lat":43.2783,"lon":5.3921,"is_reserved":false,"is_disabled":false,"rental_uris":{"android":"levelo://app?vid=d7263090-4e41-407d-9271-2db32801f77e","ios":"levelo://app?vid=d7263090-4e41-407d-9271-2db32801f77e"},"vehicle_type_id":"4","last_reported":1731445703,"current_range_meters":39200,"station_id":"ce4bhjp2rcd13ifvqga0","pricing_plan_id":"cebpf4jnsgd1na2vs0mg"},{"bike_id":"bb77e99f-7a39-4871-bd61-fd76f02b1e7e","system_id":"levelo_inurba_marseille","lat":43.29418,"lon":5.38625,"is_reserved":false,"is_disabled":false,"rental_uris":{"android":"levelo://app?vid=bb77e99f-7a39-4871-bd61-fd76f02b1e7e","ios":"levelo://app?vid=bb77e99f-7a39-4871-bd61-fd76f02b1e7e"},"vehicle_type_id":"4","last_reported":1731445703,"current_range_meters":9200,"station_id":"ce4bh2h2rcd13ifvqdh0","pricing_plan_id":"cebpf4jnsgd1na2vs0mg"},{"bike_id":"6202c343-c23c-4a8a-85fc-54b819826d60","system_id":"levelo_inurba_marseille","lat":43.31071,"lon":5.40104,"is_reserved":false,"is_disabled":false,"rental_uris":{"android":"levelo://app?vid=6202c343-c23c-4a8a-85fc-54b819826d60","ios":"levelo://app?vid=6202c343-c23c-4a8a-85fc-54b819826d60"},"vehicle_type_id":"4","last_reported":1731445703,"current_range_meters":17200,"station_id":"","pricing_plan_id":"cebpf4jnsgd1na2vs0mg"},{"bike_id":"2836167b-5db5-4496-9e46-a29afd1a6d15","system_id":"levelo_inurba_marseille","lat":43.29054,"lon":5.35905,"is_reserved":false,"is_disabled":false,"rental_uris":{"android":"levelo://app?vid=2836167b-5db5-4496-9e46-a29afd1a6d15","ios":"levelo://app?vid=2836167b-5db5-4496-9e46-a29afd1a6d15"},"vehicle_type_id":"4","last_reported":1731445703,"current_range_meters":33600,"station_id":"ce4bha92rcd13ifvqeg0","pricing_plan_id":"cebpf4jnsgd1na2vs0mg"},{"bike_id":"b006f22f-269a-46a7-b220-e64237870ed6","system_id":"levelo_inurba_marseille","lat":43.27181,"lon":5.40989,"is_reserved":false,"is_disabled":false,"rental_uris":{"android":"levelo://app?vid=b006f22f-269a-46a7-b220-e64237870ed6","ios":"levelo://app?vid=b006f22f-269a-46a7-b220-e64237870ed6"},"vehicle_type_id":"4","last_reported":1731445703,"current_range_meters":5600,"station_id":"ce4bhl12rcd13ifvqgf0","pricing_plan_id":"cebpf4jnsgd1na2vs0mg"},{"bike_id":"a4b6d270-8a6e-4716-a83e-fe9575fea649","system_id":"levelo_inurba_marseille","lat":43.24075,"lon":5.37763,"is_reserved":false,"is_disabled":false,"rental_uris":{"android":"levelo://app?vid=a4b6d270-8a6e-4716-a83e-fe9575fea649","ios":"levelo://app?vid=a4b6d270-8a6e-4716-a83e-fe9575fea649"},"vehicle_type_id":"4","last_reported":1731445703,"current_range_meters":6000,"station_id":"ce4bhnp2rcd13ifvqgvg","pricing_plan_id":"cebpf4jnsgd1na2vs0mg"},{"bike_id":"ac5501a9-cd92-46be-9b01-66b8a10f5b68","system_id":"levelo_inurba_marseille","lat":43.28101,"lon":5.37841,"is_reserved":false,"is_disabled":false,"rental_uris":{"android":"levelo://app?vid=ac5501a9-cd92-46be-9b01-66b8a10f5b68","ios":"levelo://app?vid=ac5501a9-cd92-46be-9b01-66b8a10f5b68"},"vehicle_type_id":"4","last_reported":1731445703,"current_range_meters":39200,"station_id":"ce4bha12rcd13ifvqee0","pricing_plan_id":"cebpf4jnsgd1na2vs0mg"},{"bike_id":"a395d216-538f-45c7-8a2a-a35c24519384","system_id":"levelo_inurba_marseille","lat":43.26801,"lon":5.40261,"is_reserved":false,"is_disabled":false,"rental_uris":{"android":"levelo://app?vid=a395d216-538f-45c7-8a2a-a35c24519384","ios":"levelo://app?vid=a395d216-538f-45c7-8a2a-a35c24519384"},"vehicle_type_id":"4","last_reported":1731445703,"current_range_meters":38800,"station_id":"ce501612rcd8frsf0b60","pricing_plan_id":"cebpf4jnsgd1na2vs0mg"},{"bike_id":"07b21832-7713-4564-8eca-1b04356a54ed","system_id":"levelo_inurba_marseille","lat":43.28572,"lon":5.39493,"is_reserved":false,"is_disabled":false,"rental_uris":{"android":"levelo://app?vid=07b21832-7713-4564-8eca-1b04356a54ed","ios":"levelo://app?vid=07b21832-7713-4564-8eca-1b04356a54ed"},"vehicle_type_id":"4","last_reported":1731445703,"current_range_meters":37600,"station_id":"ce4bh292rcd13ifvqdg0","pricing_plan_id":"cebpf4jnsgd1na2vs0mg"},{"bike_id":"25d4cae7-d5bc-48bf-9087-92d412dcc944","system_id":"levelo_inurba_marseille","lat":43.2885,"lon":5.35843,"is_reserved":false,"is_disabled":false,"rental_uris":{"android":"levelo://app?vid=25d4cae7-d5bc-48bf-9087-92d412dcc944","ios":"levelo://app?vid=25d4cae7-d5bc-48bf-9087-92d412dcc944"},"vehicle_type_id":"4","last_reported":1731445703,"current_range_meters":36000,"station_id":"ce4bhb12rcd13ifvqem0","pricing_plan_id":"cebpf4jnsgd1na2vs0mg"},{"bike_id":"65715c3f-614c-464f-af5f-e10124002dd8","system_id":"levelo_inurba_marseille","lat":43.31528,"lon":5.38029,"is_reserved":false,"is_disabled":false,"rental_uris":{"android":"levelo://app?vid=65715c3f-614c-464f-af5f-e10124002dd8","ios":"levelo://app?vid=65715c3f-614c-464f-af5f-e10124002dd8"},"vehicle_type_id":"4","last_reported":1731445703,"current_range_meters":39200,"station_id":"ce4bhsp2rcd13ifvqi50","pricing_plan_id":"cebpf4jnsgd1na2vs0mg"},{"bike_id":"22e180e6-24f2-4ab6-80da-3b2e910228b6","system_id":"levelo_inurba_marseille","lat":43.30099,"lon":5.39082,"is_reserved":false,"is_disabled":false,"rental_uris":{"android":"levelo://app?vid=22e180e6-24f2-4ab6-80da-3b2e910228b6","ios":"levelo://app?vid=22e180e6-24f2-4ab6-80da-3b2e910228b6"},"vehicle_type_id":"4","last_reported":1731445703,"current_range_meters":22800,"station_id":"ce4bh192rcd13ifvqdb0","pricing_plan_id":"cebpf4jnsgd1na2vs0mg"},{"bike_id":"00090ebe-df58-4cfb-a1b3-37deebdb9913","system_id":"levelo_inurba_marseille","lat":43.28948,"lon":5.35775,"is_reserved":false,"is_disabled":false,"rental_uris":{"android":"levelo://app?vid=00090ebe-df58-4cfb-a1b3-37deebdb9913","ios":"levelo://app?vid=00090ebe-df58-4cfb-a1b3-37deebdb9913"},"vehicle_type_id":"4","last_reported":1731445703,"current_range_meters":28400,"station_id":"","pricing_plan_id":"cebpf4jnsgd1na2vs0mg"},{"bike_id":"66666f45-6562-4a25-905a-788c606fb154","system_id":"levelo_inurba_marseille","lat":43.27913,"lon":5.39585,"is_reserved":false,"is_disabled":false,"rental_uris":{"android":"levelo://app?vid=66666f45-6562-4a25-905a-788c606fb154","ios":"levelo://app?vid=66666f45-6562-4a25-905a-788c606fb154"},"vehicle_type_id":"4","last_reported":1731445703,"current_range_meters":17200,"station_id":"ce4bhf92rcd13ifvqf40","pricing_plan_id":"cebpf4jnsgd1na2vs0mg"},{"bike_id":"6c33d6fe-bec3-4f6f-b5ca-47ffb024b8ed","system_id":"levelo_inurba_marseille","lat":43.29518,"lon":5.39396,"is_reserved":false,"is_disabled":false,"rental_uris":{"android":"levelo://app?vid=6c33d6fe-bec3-4f6f-b5ca-47ffb024b8ed","ios":"levelo://app?vid=6c33d6fe-bec3-4f6f-b5ca-47ffb024b8ed"},"vehicle_type_id":"4","last_reported":1731445703,"current_range_meters":28400,"station_id":"ce4bh292rcd13ifvqdf0","pricing_plan_id":"cebpf4jnsgd1na2vs0mg"},{"bike_id":"02a3f1fa-1b00-4bb2-8845-d89d50875ff5","system_id":"levelo_inurba_marseille","lat":43.32368,"lon":5.38874,"is_reserved":false,"is_disabled":false,"rental_uris":{"android":"levelo://app?vid=02a3f1fa-1b00-4bb2-8845-d89d50875ff5","ios":"levelo://app?vid=02a3f1fa-1b00-4bb2-8845-d89d50875ff5"},"vehicle_type_id":"4","last_reported":1731445703,"current_range_meters":35600,"station_id":"ce4bhqp2rcd13ifvqhog","pricing_plan_id":"cebpf4jnsgd1na2vs0mg"},{"bike_id":"8968d603-509e-44a7-808c-aa3ffa0dc107","system_id":"levelo_inurba_marseille","lat":43.3059,"lon":5.39359,"is_reserved":false,"is_disabled":false,"rental_uris":{"android":"levelo://app?vid=8968d603-509e-44a7-808c-aa3ffa0dc107","ios":"levelo://app?vid=8968d603-509e-44a7-808c-aa3ffa0dc107"},"vehicle_type_id":"4","last_reported":1731445703,"current_range_meters":28800,"station_id":"ce4bh0p2rcd13ifvqd80","pricing_plan_id":"cebpf4jnsgd1na2vs0mg"},{"bike_id":"91396e2c-9f64-4b07-9603-7237ff652da5","system_id":"levelo_inurba_marseille","lat":43.2815,"lon":5.42633,"is_reserved":false,"is_disabled":false,"rental_uris":{"android":"levelo://app?vid=91396e2c-9f64-4b07-9603-7237ff652da5","ios":"levelo://app?vid=91396e2c-9f64-4b07-9603-7237ff652da5"},"vehicle_type_id":"4","last_reported":1731445703,"current_range_meters":36800,"station_id":"ce4bhnh2rcd13ifvqgug","pricing_plan_id":"cebpf4jnsgd1na2vs0mg"},{"bike_id":"3fc8e131-ee97-4bd0-9956-4d476a1f6edb","system_id":"levelo_inurba_marseille","lat":43.27915,"lon":5.39588,"is_reserved":false,"is_disabled":false,"rental_uris":{"android":"levelo://app?vid=3fc8e131-ee97-4bd0-9956-4d476a1f6edb","ios":"levelo://app?vid=3fc8e131-ee97-4bd0-9956-4d476a1f6edb"},"vehicle_type_id":"4","last_reported":1731445703,"current_range_meters":19600,"station_id":"ce4bhf92rcd13ifvqf40","pricing_plan_id":"cebpf4jnsgd1na2vs0mg"},{"bike_id":"23371319-3326-4e94-b694-68f01aa3521f","system_id":"levelo_inurba_marseille","lat":43.337444,"lon":5.374475,"is_reserved":false,"is_disabled":false,"rental_uris":{"android":"levelo://app?vid=23371319-3326-4e94-b694-68f01aa3521f","ios":"levelo://app?vid=23371319-3326-4e94-b694-68f01aa3521f"},"vehicle_type_id":"4","last_reported":1731445703,"current_range_meters":36000,"station_id":"","pricing_plan_id":"cebpf4jnsgd1na2vs0mg"},{"bike_id":"e269129c-da8e-47c2-b65c-08eed86bffb7","system_id":"levelo_inurba_marseille","lat":43.32542,"lon":5.41442,"is_reserved":false,"is_disabled":false,"rental_uris":{"android":"levelo://app?vid=e269129c-da8e-47c2-b65c-08eed86bffb7","ios":"levelo://app?vid=e269129c-da8e-47c2-b65c-08eed86bffb7"},"vehicle_type_id":"4","last_reported":1731445703,"current_range_meters":30400,"station_id":"ce4bhq12rcd13ifvqhhg","pricing_plan_id":"cebpf4jnsgd1na2vs0mg"},{"bike_id":"1c3cb488-c336-4aee-8dd4-6df60f393abe","system_id":"levelo_inurba_marseille","lat":43.3046,"lon":5.37902,"is_reserved":false,"is_disabled":false,"rental_uris":{"android":"levelo://app?vid=1c3cb488-c336-4aee-8dd4-6df60f393abe","ios":"levelo://app?vid=1c3cb488-c336-4aee-8dd4-6df60f393abe"},"vehicle_type_id":"4","last_reported":1731445703,"current_range_meters":36400,"station_id":"ce4bgup2rcd13ifvqcn0","pricing_plan_id":"cebpf4jnsgd1na2vs0mg"},{"bike_id":"a93d8b68-be2e-4d7d-bd53-815af0cfe36b","system_id":"levelo_inurba_marseille","lat":43.2718,"lon":5.40988,"is_reserved":false,"is_disabled":false,"rental_uris":{"android":"levelo://app?vid=a93d8b68-be2e-4d7d-bd53-815af0cfe36b","ios":"levelo://app?vid=a93d8b68-be2e-4d7d-bd53-815af0cfe36b"},"vehicle_type_id":"4","last_reported":1731445703,"current_range_meters":8800,"station_id":"ce4bhl12rcd13ifvqgf0","pricing_plan_id":"cebpf4jnsgd1na2vs0mg"},{"bike_id":"56413b8d-93b3-48ae-b61f-0009617aa94a","system_id":"levelo_inurba_marseille","lat":43.25732,"lon":5.41102,"is_reserved":false,"is_disabled":false,"rental_uris":{"android":"levelo://app?vid=56413b8d-93b3-48ae-b61f-0009617aa94a","ios":"levelo://app?vid=56413b8d-93b3-48ae-b61f-0009617aa94a"},"vehicle_type_id":"4","last_reported":1731445703,"current_range_meters":38800,"station_id":"ce4bhkp2rcd13ifvqgd0","pricing_plan_id":"cebpf4jnsgd1na2vs0mg"},{"bike_id":"f6ec8717-1c2c-4c9c-90c5-29827b3ed065","system_id":"levelo_inurba_marseille","lat":43.28851,"lon":5.35847,"is_reserved":false,"is_disabled":false,"rental_uris":{"android":"levelo://app?vid=f6ec8717-1c2c-4c9c-90c5-29827b3ed065","ios":"levelo://app?vid=f6ec8717-1c2c-4c9c-90c5-29827b3ed065"},"vehicle_type_id":"4","last_reported":1731445703,"current_range_meters":38400,"station_id":"ce4bhb12rcd13ifvqem0","pricing_plan_id":"cebpf4jnsgd1na2vs0mg"},{"bike_id":"468eed61-26ce-4f5c-b6ba-6d4aa7a408b5","system_id":"levelo_inurba_marseille","lat":43.29221,"lon":5.36072,"is_reserved":false,"is_disabled":false,"rental_uris":{"android":"levelo://app?vid=468eed61-26ce-4f5c-b6ba-6d4aa7a408b5","ios":"levelo://app?vid=468eed61-26ce-4f5c-b6ba-6d4aa7a408b5"},"vehicle_type_id":"4","last_reported":1731445703,"current_range_meters":36000,"station_id":"ce4bhbh2rcd13ifvqeqg","pricing_plan_id":"cebpf4jnsgd1na2vs0mg"},{"bike_id":"09077a57-50a1-44fb-b69b-72cc0c96f899","system_id":"levelo_inurba_marseille","lat":43.30243,"lon":5.4005,"is_reserved":false,"is_disabled":false,"rental_uris":{"android":"levelo://app?vid=09077a57-50a1-44fb-b69b-72cc0c96f899","ios":"levelo://app?vid=09077a57-50a1-44fb-b69b-72cc0c96f899"},"vehicle_type_id":"4","last_reported":1731445703,"current_range_meters":6400,"station_id":"ce4bgvh2rcd13ifvqcs0","pricing_plan_id":"cebpf4jnsgd1na2vs0mg"},{"bike_id":"4abc47d7-7a2c-4582-8d48-8fc4ad8eb42d","system_id":"levelo_inurba_marseille","lat":43.23191,"lon":5.35547,"is_reserved":false,"is_disabled":false,"rental_uris":{"android":"levelo://app?vid=4abc47d7-7a2c-4582-8d48-8fc4ad8eb42d","ios":"levelo://app?vid=4abc47d7-7a2c-4582-8d48-8fc4ad8eb42d"},"vehicle_type_id":"4","last_reported":1731445703,"current_range_meters":18800,"station_id":"ce4bhu92rcd13ifvqi70","pricing_plan_id":"cebpf4jnsgd1na2vs0mg"},{"bike_id":"a44bcfe8-777d-45fe-a1bd-e3af260423ba","system_id":"levelo_inurba_marseille","lat":43.30354,"lon":5.41882,"is_reserved":false,"is_disabled":false,"rental_uris":{"android":"levelo://app?vid=a44bcfe8-777d-45fe-a1bd-e3af260423ba","ios":"levelo://app?vid=a44bcfe8-777d-45fe-a1bd-e3af260423ba"},"vehicle_type_id":"4","last_reported":1731445703,"current_range_meters":28000,"station_id":"ce4bhop2rcd13ifvqh7g","pricing_plan_id":"cebpf4jnsgd1na2vs0mg"},{"bike_id":"fec10551-f379-49ba-9ca2-8a635f99a617","system_id":"levelo_inurba_marseille","lat":43.337444,"lon":5.374475,"is_reserved":false,"is_disabled":false,"rental_uris":{"android":"levelo://app?vid=fec10551-f379-49ba-9ca2-8a635f99a617","ios":"levelo://app?vid=fec10551-f379-49ba-9ca2-8a635f99a617"},"vehicle_type_id":"4","last_reported":1731445703,"current_range_meters":38000,"station_id":"","pricing_plan_id":"cebpf4jnsgd1na2vs0mg"},{"bike_id":"979b0182-b0c0-414a-ac99-0bb48afc867b","system_id":"levelo_inurba_marseille","lat":43.27408,"lon":5.38951,"is_reserved":false,"is_disabled":false,"rental_uris":{"android":"levelo://app?vid=979b0182-b0c0-414a-ac99-0bb48afc867b","ios":"levelo://app?vid=979b0182-b0c0-414a-ac99-0bb48afc867b"},"vehicle_type_id":"4","last_reported":1731445703,"current_range_meters":12000,"station_id":"","pricing_plan_id":"cebpf4jnsgd1na2vs0mg"},{"bike_id":"5deeb5b0-30a6-4dd7-8440-5bd8367e681d","system_id":"levelo_inurba_marseille","lat":43.30209,"lon":5.39469,"is_reserved":false,"is_disabled":false,"rental_uris":{"android":"levelo://app?vid=5deeb5b0-30a6-4dd7-8440-5bd8367e681d","ios":"levelo://app?vid=5deeb5b0-30a6-4dd7-8440-5bd8367e681d"},"vehicle_type_id":"4","last_reported":1731445703,"current_range_meters":37600,"station_id":"ce4bh0p2rcd13ifvqd70","pricing_plan_id":"cebpf4jnsgd1na2vs0mg"},{"bike_id":"9bcabaea-e159-41bf-9c59-27112db6b98d","system_id":"levelo_inurba_marseille","lat":43.28936,"lon":5.3663,"is_reserved":false,"is_disabled":false,"rental_uris":{"android":"levelo://app?vid=9bcabaea-e159-41bf-9c59-27112db6b98d","ios":"levelo://app?vid=9bcabaea-e159-41bf-9c59-27112db6b98d"},"vehicle_type_id":"4","last_reported":1731445703,"current_range_meters":38800,"station_id":"ce4bhap2rcd13ifvqek0","pricing_plan_id":"cebpf4jnsgd1na2vs0mg"},{"bike_id":"074aa0b6-d412-46a9-8f34-f50122ac74f5","system_id":"levelo_inurba_marseille","lat":43.30911,"lon":5.3685,"is_reserved":false,"is_disabled":false,"rental_uris":{"android":"levelo://app?vid=074aa0b6-d412-46a9-8f34-f50122ac74f5","ios":"levelo://app?vid=074aa0b6-d412-46a9-8f34-f50122ac74f5"},"vehicle_type_id":"4","last_reported":1731445703,"current_range_meters":38800,"station_id":"ce4bgn92rcd13ifvqbvg","pricing_plan_id":"cebpf4jnsgd1na2vs0mg"},{"bike_id":"9be58879-9b4f-48bf-864f-f319b0546a88","system_id":"levelo_inurba_marseille","lat":43.23961,"lon":5.36632,"is_reserved":false,"is_disabled":false,"rental_uris":{"android":"levelo://app?vid=9be58879-9b4f-48bf-864f-f319b0546a88","ios":"levelo://app?vid=9be58879-9b4f-48bf-864f-f319b0546a88"},"vehicle_type_id":"4","last_reported":1731445703,"current_range_meters":35600,"station_id":"ce4bhi12rcd13ifvqfp0","pricing_plan_id":"cebpf4jnsgd1na2vs0mg"},{"bike_id":"3856d85a-99c7-478f-9a1f-e4f2704976cf","system_id":"levelo_inurba_marseille","lat":43.2797,"lon":5.38746,"is_reserved":false,"is_disabled":false,"rental_uris":{"android":"levelo://app?vid=3856d85a-99c7-478f-9a1f-e4f2704976cf","ios":"levelo://app?vid=3856d85a-99c7-478f-9a1f-e4f2704976cf"},"vehicle_type_id":"4","last_reported":1731445703,"current_range_meters":38800,"station_id":"ce4bhg12rcd13ifvqf80","pricing_plan_id":"cebpf4jnsgd1na2vs0mg"},{"bike_id":"997e8ac0-1d46-4817-95d5-b61546cadfd8","system_id":"levelo_inurba_marseille","lat":43.22931,"lon":5.3538,"is_reserved":false,"is_disabled":false,"rental_uris":{"android":"levelo://app?vid=997e8ac0-1d46-4817-95d5-b61546cadfd8","ios":"levelo://app?vid=997e8ac0-1d46-4817-95d5-b61546cadfd8"},"vehicle_type_id":"4","last_reported":1731445703,"current_range_meters":37600,"station_id":"cpo3532slgdg3j2ikp40","pricing_plan_id":"cebpf4jnsgd1na2vs0mg"},{"bike_id":"8d37a234-729d-41b4-af36-39effabcf73b","system_id":"levelo_inurba_marseille","lat":43.28663,"lon":5.3636,"is_reserved":false,"is_disabled":false,"rental_uris":{"android":"levelo://app?vid=8d37a234-729d-41b4-af36-39effabcf73b","ios":"levelo://app?vid=8d37a234-729d-41b4-af36-39effabcf73b"},"vehicle_type_id":"4","last_reported":1731445703,"current_range_meters":25200,"station_id":"ce4bhah2rcd13ifvqej0","pricing_plan_id":"cebpf4jnsgd1na2vs0mg"},{"bike_id":"1826be12-7e84-4d96-b7a3-56cbb24a0206","system_id":"levelo_inurba_marseille","lat":43.30244,"lon":5.40043,"is_reserved":false,"is_disabled":false,"rental_uris":{"android":"levelo://app?vid=1826be12-7e84-4d96-b7a3-56cbb24a0206","ios":"levelo://app?vid=1826be12-7e84-4d96-b7a3-56cbb24a0206"},"vehicle_type_id":"4","last_reported":1731445703,"current_range_meters":19200,"station_id":"ce4bgvh2rcd13ifvqcs0","pricing_plan_id":"cebpf4jnsgd1na2vs0mg"},{"bike_id":"a39f91b1-3b07-4ce0-a758-fef7041c9206","system_id":"levelo_inurba_marseille","lat":43.26938,"lon":5.40254,"is_reserved":false,"is_disabled":false,"rental_uris":{"android":"levelo://app?vid=a39f91b1-3b07-4ce0-a758-fef7041c9206","ios":"levelo://app?vid=a39f91b1-3b07-4ce0-a758-fef7041c9206"},"vehicle_type_id":"4","last_reported":1731445703,"current_range_meters":32800,"station_id":"cjm6bp8fraef2m0cb0m0","pricing_plan_id":"cebpf4jnsgd1na2vs0mg"},{"bike_id":"9c297363-88e6-4271-a4fa-e7aca7f99792","system_id":"levelo_inurba_marseille","lat":43.25001,"lon":5.38921,"is_reserved":false,"is_disabled":false,"rental_uris":{"android":"levelo://app?vid=9c297363-88e6-4271-a4fa-e7aca7f99792","ios":"levelo://app?vid=9c297363-88e6-4271-a4fa-e7aca7f99792"},"vehicle_type_id":"4","last_reported":1731445703,"current_range_meters":38800,"station_id":"ce4bhgp2rcd13ifvqfd0","pricing_plan_id":"cebpf4jnsgd1na2vs0mg"},{"bike_id":"b8b354cb-22e5-4485-9c06-28e725ba2368","system_id":"levelo_inurba_marseille","lat":43.34144,"lon":5.40899,"is_reserved":false,"is_disabled":false,"rental_uris":{"android":"levelo://app?vid=b8b354cb-22e5-4485-9c06-28e725ba2368","ios":"levelo://app?vid=b8b354cb-22e5-4485-9c06-28e725ba2368"},"vehicle_type_id":"4","last_reported":1731445703,"current_range_meters":20000,"station_id":"ce4bhqh2rcd13ifvqhlg","pricing_plan_id":"cebpf4jnsgd1na2vs0mg"},{"bike_id":"56cd5555-5691-44a6-b515-7c9485fe6b17","system_id":"levelo_inurba_marseille","lat":43.2955,"lon":5.42276,"is_reserved":false,"is_disabled":false,"rental_uris":{"android":"levelo://app?vid=56cd5555-5691-44a6-b515-7c9485fe6b17","ios":"levelo://app?vid=56cd5555-5691-44a6-b515-7c9485fe6b17"},"vehicle_type_id":"4","last_reported":1731445703,"current_range_meters":37600,"station_id":"ce4bhph2rcd13ifvqhdg","pricing_plan_id":"cebpf4jnsgd1na2vs0mg"},{"bike_id":"fa6af7c8-ac01-422b-a4fb-fe688220bd82","system_id":"levelo_inurba_marseille","lat":43.291962,"lon":5.385193,"is_reserved":false,"is_disabled":false,"rental_uris":{"android":"levelo://app?vid=fa6af7c8-ac01-422b-a4fb-fe688220bd82","ios":"levelo://app?vid=fa6af7c8-ac01-422b-a4fb-fe688220bd82"},"vehicle_type_id":"4","last_reported":1731445703,"current_range_meters":32000,"station_id":"","pricing_plan_id":"cebpf4jnsgd1na2vs0mg"},{"bike_id":"b5ccbd96-aaea-451a-8037-751f3bf2316a","system_id":"levelo_inurba_marseille","lat":43.24649,"lon":5.38888,"is_reserved":false,"is_disabled":false,"rental_uris":{"android":"levelo://app?vid=b5ccbd96-aaea-451a-8037-751f3bf2316a","ios":"levelo://app?vid=b5ccbd96-aaea-451a-8037-751f3bf2316a"},"vehicle_type_id":"4","last_reported":1731445703,"current_range_meters":16000,"station_id":"ce4bhg12rcd13ifvqf60","pricing_plan_id":"cebpf4jnsgd1na2vs0mg"},{"bike_id":"0b73a88d-5384-4ff7-91ab-9490fe9c1ac5","system_id":"levelo_inurba_marseille","lat":43.29785,"lon":5.39343,"is_reserved":false,"is_disabled":false,"rental_uris":{"android":"levelo://app?vid=0b73a88d-5384-4ff7-91ab-9490fe9c1ac5","ios":"levelo://app?vid=0b73a88d-5384-4ff7-91ab-9490fe9c1ac5"},"vehicle_type_id":"4","last_reported":1731445703,"current_range_meters":22800,"station_id":"chh1huq6cuj3fo74tm60","pricing_plan_id":"cebpf4jnsgd1na2vs0mg"},{"bike_id":"1f19bde5-b87a-4cfe-b505-74028be98918","system_id":"levelo_inurba_marseille","lat":43.30134,"lon":5.38781,"is_reserved":false,"is_disabled":false,"rental_uris":{"android":"levelo://app?vid=1f19bde5-b87a-4cfe-b505-74028be98918","ios":"levelo://app?vid=1f19bde5-b87a-4cfe-b505-74028be98918"},"vehicle_type_id":"4","last_reported":1731445703,"current_range_meters":24000,"station_id":"ce4bghh2rcd13ifvqb60","pricing_plan_id":"cebpf4jnsgd1na2vs0mg"},{"bike_id":"a3a3c4f2-2706-496b-918a-6d519b7c9166","system_id":"levelo_inurba_marseille","lat":43.26497,"lon":5.39531,"is_reserved":false,"is_disabled":false,"rental_uris":{"android":"levelo://app?vid=a3a3c4f2-2706-496b-918a-6d519b7c9166","ios":"levelo://app?vid=a3a3c4f2-2706-496b-918a-6d519b7c9166"},"vehicle_type_id":"4","last_reported":1731445703,"current_range_meters":35600,"station_id":"ce4bhi12rcd13ifvqfq0","pricing_plan_id":"cebpf4jnsgd1na2vs0mg"},{"bike_id":"1d2fdf37-8550-4501-9665-b3a002de98ca","system_id":"levelo_inurba_marseille","lat":43.29791,"lon":5.39344,"is_reserved":false,"is_disabled":false,"rental_uris":{"android":"levelo://app?vid=1d2fdf37-8550-4501-9665-b3a002de98ca","ios":"levelo://app?vid=1d2fdf37-8550-4501-9665-b3a002de98ca"},"vehicle_type_id":"4","last_reported":1731445703,"current_range_meters":24000,"station_id":"chh1huq6cuj3fo74tm60","pricing_plan_id":"cebpf4jnsgd1na2vs0mg"},{"bike_id":"f7be93c3-e6a3-40ba-94d0-3df20ea7a045","system_id":"levelo_inurba_marseille","lat":43.2319,"lon":5.39974,"is_reserved":false,"is_disabled":false,"rental_uris":{"android":"levelo://app?vid=f7be93c3-e6a3-40ba-94d0-3df20ea7a045","ios":"levelo://app?vid=f7be93c3-e6a3-40ba-94d0-3df20ea7a045"},"vehicle_type_id":"4","last_reported":1731445703,"current_range_meters":18000,"station_id":"ce4bhn12rcd13ifvqgqg","pricing_plan_id":"cebpf4jnsgd1na2vs0mg"},{"bike_id":"71a649ef-ed3c-4201-bbe7-3f4c92d1bb6e","system_id":"levelo_inurba_marseille","lat":43.29517,"lon":5.39033,"is_reserved":false,"is_disabled":false,"rental_uris":{"android":"levelo://app?vid=71a649ef-ed3c-4201-bbe7-3f4c92d1bb6e","ios":"levelo://app?vid=71a649ef-ed3c-4201-bbe7-3f4c92d1bb6e"},"vehicle_type_id":"4","last_reported":1731445703,"current_range_meters":32400,"station_id":"ce4bh3p2rcd13ifvqdp0","pricing_plan_id":"cebpf4jnsgd1na2vs0mg"},{"bike_id":"37d06836-adf9-4fd3-b447-ace2ba2f68e2","system_id":"levelo_inurba_marseille","lat":43.31371,"lon":5.38497,"is_reserved":false,"is_disabled":false,"rental_uris":{"android":"levelo://app?vid=37d06836-adf9-4fd3-b447-ace2ba2f68e2","ios":"levelo://app?vid=37d06836-adf9-4fd3-b447-ace2ba2f68e2"},"vehicle_type_id":"4","last_reported":1731445703,"current_range_meters":34800,"station_id":"ce4bgt92rcd13ifvqcf0","pricing_plan_id":"cebpf4jnsgd1na2vs0mg"},{"bike_id":"50ec9a72-2d48-4182-b452-21b17e2354cd","system_id":"levelo_inurba_marseille","lat":43.308,"lon":5.43524,"is_reserved":false,"is_disabled":false,"rental_uris":{"android":"levelo://app?vid=50ec9a72-2d48-4182-b452-21b17e2354cd","ios":"levelo://app?vid=50ec9a72-2d48-4182-b452-21b17e2354cd"},"vehicle_type_id":"4","last_reported":1731445703,"current_range_meters":4800,"station_id":"ce4bhph2rcd13ifvqheg","pricing_plan_id":"cebpf4jnsgd1na2vs0mg"},{"bike_id":"de654265-0d80-4f4f-9671-79f3c4312a80","system_id":"levelo_inurba_marseille","lat":43.30646,"lon":5.40089,"is_reserved":false,"is_disabled":false,"rental_uris":{"android":"levelo://app?vid=de654265-0d80-4f4f-9671-79f3c4312a80","ios":"levelo://app?vid=de654265-0d80-4f4f-9671-79f3c4312a80"},"vehicle_type_id":"4","last_reported":1731445703,"current_range_meters":33200,"station_id":"ce4bh112rcd13ifvqda0","pricing_plan_id":"cebpf4jnsgd1na2vs0mg"},{"bike_id":"449db091-0de4-40ee-9460-262ac1df43fb","system_id":"levelo_inurba_marseille","lat":43.28664,"lon":5.36359,"is_reserved":false,"is_disabled":false,"rental_uris":{"android":"levelo://app?vid=449db091-0de4-40ee-9460-262ac1df43fb","ios":"levelo://app?vid=449db091-0de4-40ee-9460-262ac1df43fb"},"vehicle_type_id":"4","last_reported":1731445703,"current_range_meters":13600,"station_id":"ce4bhah2rcd13ifvqej0","pricing_plan_id":"cebpf4jnsgd1na2vs0mg"},{"bike_id":"428f796d-85f5-406a-8832-33d370c96797","system_id":"levelo_inurba_marseille","lat":43.30884,"lon":5.3964,"is_reserved":false,"is_disabled":false,"rental_uris":{"android":"levelo://app?vid=428f796d-85f5-406a-8832-33d370c96797","ios":"levelo://app?vid=428f796d-85f5-406a-8832-33d370c96797"},"vehicle_type_id":"4","last_reported":1731445703,"current_range_meters":24400,"station_id":"ce4bh012rcd13ifvqcv0","pricing_plan_id":"cebpf4jnsgd1na2vs0mg"},{"bike_id":"9be06787-203e-47f2-9a11-b20300f2d806","system_id":"levelo_inurba_marseille","lat":43.27375,"lon":5.36263,"is_reserved":false,"is_disabled":false,"rental_uris":{"android":"levelo://app?vid=9be06787-203e-47f2-9a11-b20300f2d806","ios":"levelo://app?vid=9be06787-203e-47f2-9a11-b20300f2d806"},"vehicle_type_id":"4","last_reported":1731445703,"current_range_meters":38800,"station_id":"ce4bhbh2rcd13ifvqeo0","pricing_plan_id":"cebpf4jnsgd1na2vs0mg"},{"bike_id":"e20e371e-0ac8-4f8a-8e0a-12e9bf345f5e","system_id":"levelo_inurba_marseille","lat":43.27069,"lon":5.42281,"is_reserved":false,"is_disabled":false,"rental_uris":{"android":"levelo://app?vid=e20e371e-0ac8-4f8a-8e0a-12e9bf345f5e","ios":"levelo://app?vid=e20e371e-0ac8-4f8a-8e0a-12e9bf345f5e"},"vehicle_type_id":"4","last_reported":1731445703,"current_range_meters":30000,"station_id":"ce4bhk92rcd13ifvqgb0","pricing_plan_id":"cebpf4jnsgd1na2vs0mg"},{"bike_id":"9230f939-409f-42b5-a7a7-bcf8003da7db","system_id":"levelo_inurba_marseille","lat":43.29515,"lon":5.39032,"is_reserved":false,"is_disabled":false,"rental_uris":{"android":"levelo://app?vid=9230f939-409f-42b5-a7a7-bcf8003da7db","ios":"levelo://app?vid=9230f939-409f-42b5-a7a7-bcf8003da7db"},"vehicle_type_id":"4","last_reported":1731445703,"current_range_meters":32000,"station_id":"ce4bh3p2rcd13ifvqdp0","pricing_plan_id":"cebpf4jnsgd1na2vs0mg"},{"bike_id":"b1b0efcd-56c6-4c0d-9823-5e2861adb3b4","system_id":"levelo_inurba_marseille","lat":43.3266,"lon":5.40989,"is_reserved":false,"is_disabled":false,"rental_uris":{"android":"levelo://app?vid=b1b0efcd-56c6-4c0d-9823-5e2861adb3b4","ios":"levelo://app?vid=b1b0efcd-56c6-4c0d-9823-5e2861adb3b4"},"vehicle_type_id":"4","last_reported":1731445703,"current_range_meters":16800,"station_id":"ce4bhpp2rcd13ifvqhgg","pricing_plan_id":"cebpf4jnsgd1na2vs0mg"},{"bike_id":"a7fa391a-5e9a-4306-ab89-3411e5df4996","system_id":"levelo_inurba_marseille","lat":43.33014,"lon":5.39023,"is_reserved":false,"is_disabled":false,"rental_uris":{"android":"levelo://app?vid=a7fa391a-5e9a-4306-ab89-3411e5df4996","ios":"levelo://app?vid=a7fa391a-5e9a-4306-ab89-3411e5df4996"},"vehicle_type_id":"4","last_reported":1731445703,"current_range_meters":36800,"station_id":"ce4bhr92rcd13ifvqhrg","pricing_plan_id":"cebpf4jnsgd1na2vs0mg"},{"bike_id":"5817e958-deb7-4799-af1a-ed194ead4717","system_id":"levelo_inurba_marseille","lat":43.29191,"lon":5.39315,"is_reserved":false,"is_disabled":false,"rental_uris":{"android":"levelo://app?vid=5817e958-deb7-4799-af1a-ed194ead4717","ios":"levelo://app?vid=5817e958-deb7-4799-af1a-ed194ead4717"},"vehicle_type_id":"4","last_reported":1731445703,"current_range_meters":39200,"station_id":"ce4bh192rcd13ifvqdd0","pricing_plan_id":"cebpf4jnsgd1na2vs0mg"},{"bike_id":"5f9cc451-1489-43a5-b763-f3c403f1be22","system_id":"levelo_inurba_marseille","lat":43.29006,"lon":5.35616,"is_reserved":false,"is_disabled":false,"rental_uris":{"android":"levelo://app?vid=5f9cc451-1489-43a5-b763-f3c403f1be22","ios":"levelo://app?vid=5f9cc451-1489-43a5-b763-f3c403f1be22"},"vehicle_type_id":"4","last_reported":1731445703,"current_range_meters":36800,"station_id":"ce4bhb92rcd13ifvqen0","pricing_plan_id":"cebpf4jnsgd1na2vs0mg"},{"bike_id":"03190979-82a2-475a-bfb4-cdd8525d153b","system_id":"levelo_inurba_marseille","lat":43.29523,"lon":5.39038,"is_reserved":false,"is_disabled":false,"rental_uris":{"android":"levelo://app?vid=03190979-82a2-475a-bfb4-cdd8525d153b","ios":"levelo://app?vid=03190979-82a2-475a-bfb4-cdd8525d153b"},"vehicle_type_id":"4","last_reported":1731445703,"current_range_meters":28000,"station_id":"ce4bh3p2rcd13ifvqdp0","pricing_plan_id":"cebpf4jnsgd1na2vs0mg"},{"bike_id":"db011a98-5d5e-4b2c-b0fd-4b0f8f58bd17","system_id":"levelo_inurba_marseille","lat":43.23184,"lon":5.39988,"is_reserved":false,"is_disabled":false,"rental_uris":{"android":"levelo://app?vid=db011a98-5d5e-4b2c-b0fd-4b0f8f58bd17","ios":"levelo://app?vid=db011a98-5d5e-4b2c-b0fd-4b0f8f58bd17"},"vehicle_type_id":"4","last_reported":1731445703,"current_range_meters":22000,"station_id":"ce4bhn12rcd13ifvqgqg","pricing_plan_id":"cebpf4jnsgd1na2vs0mg"},{"bike_id":"51de079a-4713-4220-aef5-8906afb2ba42","system_id":"levelo_inurba_marseille","lat":43.28106,"lon":5.3784,"is_reserved":false,"is_disabled":false,"rental_uris":{"android":"levelo://app?vid=51de079a-4713-4220-aef5-8906afb2ba42","ios":"levelo://app?vid=51de079a-4713-4220-aef5-8906afb2ba42"},"vehicle_type_id":"4","last_reported":1731445703,"current_range_meters":35600,"station_id":"ce4bha12rcd13ifvqee0","pricing_plan_id":"cebpf4jnsgd1na2vs0mg"},{"bike_id":"125a2747-f0ec-484a-8dc4-8899407fc4ee","system_id":"levelo_inurba_marseille","lat":43.30934,"lon":5.40142,"is_reserved":false,"is_disabled":false,"rental_uris":{"android":"levelo://app?vid=125a2747-f0ec-484a-8dc4-8899407fc4ee","ios":"levelo://app?vid=125a2747-f0ec-484a-8dc4-8899407fc4ee"},"vehicle_type_id":"4","last_reported":1731445703,"current_range_meters":38800,"station_id":"ce4bgvp2rcd13ifvqct0","pricing_plan_id":"cebpf4jnsgd1na2vs0mg"},{"bike_id":"d3d88389-bd60-4947-8db6-b3fd375e6183","system_id":"levelo_inurba_marseille","lat":43.23962,"lon":5.36619,"is_reserved":false,"is_disabled":false,"rental_uris":{"android":"levelo://app?vid=d3d88389-bd60-4947-8db6-b3fd375e6183","ios":"levelo://app?vid=d3d88389-bd60-4947-8db6-b3fd375e6183"},"vehicle_type_id":"4","last_reported":1731445703,"current_range_meters":36000,"station_id":"ce4bhi12rcd13ifvqfp0","pricing_plan_id":"cebpf4jnsgd1na2vs0mg"},{"bike_id":"78c3522d-5b6e-4e08-b566-8994a5485a38","system_id":"levelo_inurba_marseille","lat":43.27823,"lon":5.39208,"is_reserved":false,"is_disabled":false,"rental_uris":{"android":"levelo://app?vid=78c3522d-5b6e-4e08-b566-8994a5485a38","ios":"levelo://app?vid=78c3522d-5b6e-4e08-b566-8994a5485a38"},"vehicle_type_id":"4","last_reported":1731445703,"current_range_meters":26800,"station_id":"ce4bhjp2rcd13ifvqga0","pricing_plan_id":"cebpf4jnsgd1na2vs0mg"},{"bike_id":"6373b2ec-d5d0-4dc6-be95-a91e32029870","system_id":"levelo_inurba_marseille","lat":43.28102,"lon":5.3784,"is_reserved":false,"is_disabled":false,"rental_uris":{"android":"levelo://app?vid=6373b2ec-d5d0-4dc6-be95-a91e32029870","ios":"levelo://app?vid=6373b2ec-d5d0-4dc6-be95-a91e32029870"},"vehicle_type_id":"4","last_reported":1731445703,"current_range_meters":19200,"station_id":"ce4bha12rcd13ifvqee0","pricing_plan_id":"cebpf4jnsgd1na2vs0mg"},{"bike_id":"6a262d8c-b862-4636-a252-02099ef84214","system_id":"levelo_inurba_marseille","lat":43.33022,"lon":5.39044,"is_reserved":false,"is_disabled":false,"rental_uris":{"android":"levelo://app?vid=6a262d8c-b862-4636-a252-02099ef84214","ios":"levelo://app?vid=6a262d8c-b862-4636-a252-02099ef84214"},"vehicle_type_id":"4","last_reported":1731445703,"current_range_meters":17600,"station_id":"ce4bhr92rcd13ifvqhrg","pricing_plan_id":"cebpf4jnsgd1na2vs0mg"},{"bike_id":"0c903410-46b7-4746-8ed6-27dadde6a6a5","system_id":"levelo_inurba_marseille","lat":43.27891,"lon":5.38025,"is_reserved":false,"is_disabled":false,"rental_uris":{"android":"levelo://app?vid=0c903410-46b7-4746-8ed6-27dadde6a6a5","ios":"levelo://app?vid=0c903410-46b7-4746-8ed6-27dadde6a6a5"},"vehicle_type_id":"4","last_reported":1731445703,"current_range_meters":18800,"station_id":"ce4bhf92rcd13ifvqf50","pricing_plan_id":"cebpf4jnsgd1na2vs0mg"},{"bike_id":"6a7864c7-1043-407c-b1f5-95a83a37e67e","system_id":"levelo_inurba_marseille","lat":43.28408,"lon":5.37523,"is_reserved":false,"is_disabled":false,"rental_uris":{"android":"levelo://app?vid=6a7864c7-1043-407c-b1f5-95a83a37e67e","ios":"levelo://app?vid=6a7864c7-1043-407c-b1f5-95a83a37e67e"},"vehicle_type_id":"4","last_reported":1731445703,"current_range_meters":30400,"station_id":"ce4bh412rcd13ifvqds0","pricing_plan_id":"cebpf4jnsgd1na2vs0mg"},{"bike_id":"91526d85-6d2f-4b0d-b668-d1a556d90682","system_id":"levelo_inurba_marseille","lat":43.319997,"lon":5.381587,"is_reserved":false,"is_disabled":false,"rental_uris":{"android":"levelo://app?vid=91526d85-6d2f-4b0d-b668-d1a556d90682","ios":"levelo://app?vid=91526d85-6d2f-4b0d-b668-d1a556d90682"},"vehicle_type_id":"4","last_reported":1731445703,"current_range_meters":39200,"station_id":"ce4bhr12rcd13ifvqhpg","pricing_plan_id":"cebpf4jnsgd1na2vs0mg"},{"bike_id":"852f8b30-023f-44ea-a674-a7e86bbbc5e7","system_id":"levelo_inurba_marseille","lat":43.336177,"lon":5.410335,"is_reserved":false,"is_disabled":false,"rental_uris":{"android":"levelo://app?vid=852f8b30-023f-44ea-a674-a7e86bbbc5e7","ios":"levelo://app?vid=852f8b30-023f-44ea-a674-a7e86bbbc5e7"},"vehicle_type_id":"4","last_reported":1731445703,"current_range_meters":9600,"station_id":"ce4bhqh2rcd13ifvqhmg","pricing_plan_id":"cebpf4jnsgd1na2vs0mg"},{"bike_id":"385d91d5-d144-4838-b15f-8b4d784f8d86","system_id":"levelo_inurba_marseille","lat":43.31173,"lon":5.38714,"is_reserved":false,"is_disabled":false,"rental_uris":{"android":"levelo://app?vid=385d91d5-d144-4838-b15f-8b4d784f8d86","ios":"levelo://app?vid=385d91d5-d144-4838-b15f-8b4d784f8d86"},"vehicle_type_id":"4","last_reported":1731445703,"current_range_meters":38800,"station_id":"ce4bgv12rcd13ifvqcp0","pricing_plan_id":"cebpf4jnsgd1na2vs0mg"},{"bike_id":"4c9d8f6b-1158-43b4-88d2-fb0cddbe32db","system_id":"levelo_inurba_marseille","lat":43.26929,"lon":5.38924,"is_reserved":false,"is_disabled":false,"rental_uris":{"android":"levelo://app?vid=4c9d8f6b-1158-43b4-88d2-fb0cddbe32db","ios":"levelo://app?vid=4c9d8f6b-1158-43b4-88d2-fb0cddbe32db"},"vehicle_type_id":"4","last_reported":1731445703,"current_range_meters":16800,"station_id":"ce4bhhh2rcd13ifvqfl0","pricing_plan_id":"cebpf4jnsgd1na2vs0mg"},{"bike_id":"53a25274-988a-4a57-8ad4-0fb0a1a3b2ca","system_id":"levelo_inurba_marseille","lat":43.3014,"lon":5.37422,"is_reserved":false,"is_disabled":false,"rental_uris":{"android":"levelo://app?vid=53a25274-988a-4a57-8ad4-0fb0a1a3b2ca","ios":"levelo://app?vid=53a25274-988a-4a57-8ad4-0fb0a1a3b2ca"},"vehicle_type_id":"4","last_reported":1731445703,"current_range_meters":38400,"station_id":"ce4bgs92rcd13ifvqcc0","pricing_plan_id":"cebpf4jnsgd1na2vs0mg"},{"bike_id":"d32cb781-3101-480c-93dd-503a994b5a91","system_id":"levelo_inurba_marseille","lat":43.24668,"lon":5.38153,"is_reserved":false,"is_disabled":false,"rental_uris":{"android":"levelo://app?vid=d32cb781-3101-480c-93dd-503a994b5a91","ios":"levelo://app?vid=d32cb781-3101-480c-93dd-503a994b5a91"},"vehicle_type_id":"4","last_reported":1731445703,"current_range_meters":24400,"station_id":"ce4bhih2rcd13ifvqfr0","pricing_plan_id":"cebpf4jnsgd1na2vs0mg"},{"bike_id":"8e74dac9-2ddd-462c-82f6-a2f7dee5cdbc","system_id":"levelo_inurba_marseille","lat":43.27832,"lon":5.39205,"is_reserved":false,"is_disabled":false,"rental_uris":{"android":"levelo://app?vid=8e74dac9-2ddd-462c-82f6-a2f7dee5cdbc","ios":"levelo://app?vid=8e74dac9-2ddd-462c-82f6-a2f7dee5cdbc"},"vehicle_type_id":"4","last_reported":1731445703,"current_range_meters":26000,"station_id":"ce4bhjp2rcd13ifvqga0","pricing_plan_id":"cebpf4jnsgd1na2vs0mg"},{"bike_id":"7438763c-b765-4d2b-b443-55070a986cbf","system_id":"levelo_inurba_marseille","lat":43.27811,"lon":5.40713,"is_reserved":false,"is_disabled":false,"rental_uris":{"android":"levelo://app?vid=7438763c-b765-4d2b-b443-55070a986cbf","ios":"levelo://app?vid=7438763c-b765-4d2b-b443-55070a986cbf"},"vehicle_type_id":"4","last_reported":1731445703,"current_range_meters":38800,"station_id":"ce4bhnh2rcd13ifvqgtg","pricing_plan_id":"cebpf4jnsgd1na2vs0mg"},{"bike_id":"690959e1-32d7-492f-a674-cbcd4a6a2909","system_id":"levelo_inurba_marseille","lat":43.2791,"lon":5.39583,"is_reserved":false,"is_disabled":false,"rental_uris":{"android":"levelo://app?vid=690959e1-32d7-492f-a674-cbcd4a6a2909","ios":"levelo://app?vid=690959e1-32d7-492f-a674-cbcd4a6a2909"},"vehicle_type_id":"4","last_reported":1731445703,"current_range_meters":34800,"station_id":"ce4bhf92rcd13ifvqf40","pricing_plan_id":"cebpf4jnsgd1na2vs0mg"},{"bike_id":"d2a9931b-542d-45bd-9ec9-3a935c8c133f","system_id":"levelo_inurba_marseille","lat":43.284606,"lon":5.35889,"is_reserved":false,"is_disabled":false,"rental_uris":{"android":"levelo://app?vid=d2a9931b-542d-45bd-9ec9-3a935c8c133f","ios":"levelo://app?vid=d2a9931b-542d-45bd-9ec9-3a935c8c133f"},"vehicle_type_id":"4","last_reported":1731445703,"current_range_meters":34000,"station_id":"ce4bh392rcd13ifvqdl0","pricing_plan_id":"cebpf4jnsgd1na2vs0mg"},{"bike_id":"2d11c320-a81b-424e-80ce-d8ac1193642b","system_id":"levelo_inurba_marseille","lat":43.27813,"lon":5.40708,"is_reserved":false,"is_disabled":false,"rental_uris":{"android":"levelo://app?vid=2d11c320-a81b-424e-80ce-d8ac1193642b","ios":"levelo://app?vid=2d11c320-a81b-424e-80ce-d8ac1193642b"},"vehicle_type_id":"4","last_reported":1731445703,"current_range_meters":36800,"station_id":"ce4bhnh2rcd13ifvqgtg","pricing_plan_id":"cebpf4jnsgd1na2vs0mg"},{"bike_id":"96b84df2-447b-42c1-9180-a983ad587907","system_id":"levelo_inurba_marseille","lat":43.25722,"lon":5.41109,"is_reserved":false,"is_disabled":false,"rental_uris":{"android":"levelo://app?vid=96b84df2-447b-42c1-9180-a983ad587907","ios":"levelo://app?vid=96b84df2-447b-42c1-9180-a983ad587907"},"vehicle_type_id":"4","last_reported":1731445703,"current_range_meters":37600,"station_id":"ce4bhkp2rcd13ifvqgd0","pricing_plan_id":"cebpf4jnsgd1na2vs0mg"},{"bike_id":"ca3ec729-c559-4487-9094-901e9dbc66f2","system_id":"levelo_inurba_marseille","lat":43.30429,"lon":5.38899,"is_reserved":false,"is_disabled":false,"rental_uris":{"android":"levelo://app?vid=ca3ec729-c559-4487-9094-901e9dbc66f2","ios":"levelo://app?vid=ca3ec729-c559-4487-9094-901e9dbc66f2"},"vehicle_type_id":"4","last_reported":1731445703,"current_range_meters":28400,"station_id":"ce4bgk12rcd13ifvqbi0","pricing_plan_id":"cebpf4jnsgd1na2vs0mg"},{"bike_id":"e62bb96a-ded7-4199-85d5-f7da5543f92d","system_id":"levelo_inurba_marseille","lat":43.30236,"lon":5.40047,"is_reserved":false,"is_disabled":false,"rental_uris":{"android":"levelo://app?vid=e62bb96a-ded7-4199-85d5-f7da5543f92d","ios":"levelo://app?vid=e62bb96a-ded7-4199-85d5-f7da5543f92d"},"vehicle_type_id":"4","last_reported":1731445703,"current_range_meters":38800,"station_id":"","pricing_plan_id":"cebpf4jnsgd1na2vs0mg"},{"bike_id":"8ef70561-fcee-40a4-b033-2b7fb95e2bd9","system_id":"levelo_inurba_marseille","lat":43.27831,"lon":5.39214,"is_reserved":false,"is_disabled":false,"rental_uris":{"android":"levelo://app?vid=8ef70561-fcee-40a4-b033-2b7fb95e2bd9","ios":"levelo://app?vid=8ef70561-fcee-40a4-b033-2b7fb95e2bd9"},"vehicle_type_id":"4","last_reported":1731445703,"current_range_meters":32400,"station_id":"ce4bhjp2rcd13ifvqga0","pricing_plan_id":"cebpf4jnsgd1na2vs0mg"},{"bike_id":"23bd2924-0acf-4f0e-a6f4-fa7bc784425a","system_id":"levelo_inurba_marseille","lat":43.2293,"lon":5.35376,"is_reserved":false,"is_disabled":false,"rental_uris":{"android":"levelo://app?vid=23bd2924-0acf-4f0e-a6f4-fa7bc784425a","ios":"levelo://app?vid=23bd2924-0acf-4f0e-a6f4-fa7bc784425a"},"vehicle_type_id":"4","last_reported":1731445703,"current_range_meters":31200,"station_id":"cpo3532slgdg3j2ikp40","pricing_plan_id":"cebpf4jnsgd1na2vs0mg"},{"bike_id":"3f7f3df8-50d9-475f-8a41-f4a7ada046d4","system_id":"levelo_inurba_marseille","lat":43.319688,"lon":5.368299,"is_reserved":false,"is_disabled":false,"rental_uris":{"android":"levelo://app?vid=3f7f3df8-50d9-475f-8a41-f4a7ada046d4","ios":"levelo://app?vid=3f7f3df8-50d9-475f-8a41-f4a7ada046d4"},"vehicle_type_id":"4","last_reported":1731445703,"current_range_meters":27200,"station_id":"","pricing_plan_id":"cebpf4jnsgd1na2vs0mg"},{"bike_id":"28071f5e-223d-4fd3-b16c-5ef3c0211c4e","system_id":"levelo_inurba_marseille","lat":43.31532,"lon":5.38035,"is_reserved":false,"is_disabled":false,"rental_uris":{"android":"levelo://app?vid=28071f5e-223d-4fd3-b16c-5ef3c0211c4e","ios":"levelo://app?vid=28071f5e-223d-4fd3-b16c-5ef3c0211c4e"},"vehicle_type_id":"4","last_reported":1731445703,"current_range_meters":27200,"station_id":"ce4bhsp2rcd13ifvqi50","pricing_plan_id":"cebpf4jnsgd1na2vs0mg"},{"bike_id":"972d1d13-6d58-4c88-a331-c887e116d85e","system_id":"levelo_inurba_marseille","lat":43.31167,"lon":5.38717,"is_reserved":false,"is_disabled":false,"rental_uris":{"android":"levelo://app?vid=972d1d13-6d58-4c88-a331-c887e116d85e","ios":"levelo://app?vid=972d1d13-6d58-4c88-a331-c887e116d85e"},"vehicle_type_id":"4","last_reported":1731445703,"current_range_meters":28400,"station_id":"ce4bgv12rcd13ifvqcp0","pricing_plan_id":"cebpf4jnsgd1na2vs0mg"},{"bike_id":"30b4d1b4-b2f1-4f6e-aa22-a82631f0ed92","system_id":"levelo_inurba_marseille","lat":43.23068,"lon":5.35491,"is_reserved":false,"is_disabled":false,"rental_uris":{"android":"levelo://app?vid=30b4d1b4-b2f1-4f6e-aa22-a82631f0ed92","ios":"levelo://app?vid=30b4d1b4-b2f1-4f6e-aa22-a82631f0ed92"},"vehicle_type_id":"4","last_reported":1731445703,"current_range_meters":38800,"station_id":"cpo3342slgdg3j2ifvpg","pricing_plan_id":"cebpf4jnsgd1na2vs0mg"},{"bike_id":"bcd861b0-8eca-430f-8082-61adce7c6e7e","system_id":"levelo_inurba_marseille","lat":43.25825,"lon":5.394285,"is_reserved":false,"is_disabled":false,"rental_uris":{"android":"levelo://app?vid=bcd861b0-8eca-430f-8082-61adce7c6e7e","ios":"levelo://app?vid=bcd861b0-8eca-430f-8082-61adce7c6e7e"},"vehicle_type_id":"4","last_reported":1731445703,"current_range_meters":25200,"station_id":"ce4bhip2rcd13ifvqft0","pricing_plan_id":"cebpf4jnsgd1na2vs0mg"},{"bike_id":"6ed75bb6-ecd5-4053-b356-e9bfd9ccb6e8","system_id":"levelo_inurba_marseille","lat":43.30878,"lon":5.39644,"is_reserved":false,"is_disabled":false,"rental_uris":{"android":"levelo://app?vid=6ed75bb6-ecd5-4053-b356-e9bfd9ccb6e8","ios":"levelo://app?vid=6ed75bb6-ecd5-4053-b356-e9bfd9ccb6e8"},"vehicle_type_id":"4","last_reported":1731445703,"current_range_meters":10000,"station_id":"ce4bh012rcd13ifvqcv0","pricing_plan_id":"cebpf4jnsgd1na2vs0mg"},{"bike_id":"0e171ddd-bcf2-4897-a3c5-4bcad6a3968d","system_id":"levelo_inurba_marseille","lat":43.2955,"lon":5.42283,"is_reserved":false,"is_disabled":false,"rental_uris":{"android":"levelo://app?vid=0e171ddd-bcf2-4897-a3c5-4bcad6a3968d","ios":"levelo://app?vid=0e171ddd-bcf2-4897-a3c5-4bcad6a3968d"},"vehicle_type_id":"4","last_reported":1731445703,"current_range_meters":26000,"station_id":"ce4bhph2rcd13ifvqhdg","pricing_plan_id":"cebpf4jnsgd1na2vs0mg"},{"bike_id":"017243b1-75f3-49c9-bb9b-195640650987","system_id":"levelo_inurba_marseille","lat":43.29714,"lon":5.36606,"is_reserved":false,"is_disabled":false,"rental_uris":{"android":"levelo://app?vid=017243b1-75f3-49c9-bb9b-195640650987","ios":"levelo://app?vid=017243b1-75f3-49c9-bb9b-195640650987"},"vehicle_type_id":"4","last_reported":1731445703,"current_range_meters":33600,"station_id":"ce4bgn12rcd13ifvqbt0","pricing_plan_id":"cebpf4jnsgd1na2vs0mg"},{"bike_id":"6b8f7736-5721-4913-aa90-fd587765e3da","system_id":"levelo_inurba_marseille","lat":43.32353,"lon":5.3889,"is_reserved":false,"is_disabled":false,"rental_uris":{"android":"levelo://app?vid=6b8f7736-5721-4913-aa90-fd587765e3da","ios":"levelo://app?vid=6b8f7736-5721-4913-aa90-fd587765e3da"},"vehicle_type_id":"4","last_reported":1731445703,"current_range_meters":6800,"station_id":"ce4bhqp2rcd13ifvqhog","pricing_plan_id":"cebpf4jnsgd1na2vs0mg"},{"bike_id":"e92c5947-6d80-41ba-aecc-06ded8281947","system_id":"levelo_inurba_marseille","lat":43.32483,"lon":5.36563,"is_reserved":false,"is_disabled":false,"rental_uris":{"android":"levelo://app?vid=e92c5947-6d80-41ba-aecc-06ded8281947","ios":"levelo://app?vid=e92c5947-6d80-41ba-aecc-06ded8281947"},"vehicle_type_id":"4","last_reported":1731445703,"current_range_meters":36000,"station_id":"ce4bhs12rcd13ifvqhvg","pricing_plan_id":"cebpf4jnsgd1na2vs0mg"},{"bike_id":"95a92208-fe5e-4560-85cb-1eeb02f67bdb","system_id":"levelo_inurba_marseille","lat":43.31324,"lon":5.39691,"is_reserved":false,"is_disabled":false,"rental_uris":{"android":"levelo://app?vid=95a92208-fe5e-4560-85cb-1eeb02f67bdb","ios":"levelo://app?vid=95a92208-fe5e-4560-85cb-1eeb02f67bdb"},"vehicle_type_id":"4","last_reported":1731445703,"current_range_meters":30800,"station_id":"ce4bgvp2rcd13ifvqcu0","pricing_plan_id":"cebpf4jnsgd1na2vs0mg"},{"bike_id":"dafb3a4c-4065-4ba3-859a-f79caad4724e","system_id":"levelo_inurba_marseille","lat":43.30146,"lon":5.38772,"is_reserved":false,"is_disabled":false,"rental_uris":{"android":"levelo://app?vid=dafb3a4c-4065-4ba3-859a-f79caad4724e","ios":"levelo://app?vid=dafb3a4c-4065-4ba3-859a-f79caad4724e"},"vehicle_type_id":"4","last_reported":1731445703,"current_range_meters":26800,"station_id":"ce4bghh2rcd13ifvqb60","pricing_plan_id":"cebpf4jnsgd1na2vs0mg"},{"bike_id":"79f4cbdc-eb31-4cdf-850c-cf22338e8712","system_id":"levelo_inurba_marseille","lat":43.29098,"lon":5.38131,"is_reserved":false,"is_disabled":false,"rental_uris":{"android":"levelo://app?vid=79f4cbdc-eb31-4cdf-850c-cf22338e8712","ios":"levelo://app?vid=79f4cbdc-eb31-4cdf-850c-cf22338e8712"},"vehicle_type_id":"4","last_reported":1731445703,"current_range_meters":18000,"station_id":"ce4bh512rcd13ifvqe2g","pricing_plan_id":"cebpf4jnsgd1na2vs0mg"},{"bike_id":"01750c2b-b2e2-4033-9897-51265d1bbf68","system_id":"levelo_inurba_marseille","lat":43.30209,"lon":5.39461,"is_reserved":false,"is_disabled":false,"rental_uris":{"android":"levelo://app?vid=01750c2b-b2e2-4033-9897-51265d1bbf68","ios":"levelo://app?vid=01750c2b-b2e2-4033-9897-51265d1bbf68"},"vehicle_type_id":"4","last_reported":1731445703,"current_range_meters":24000,"station_id":"ce4bh0p2rcd13ifvqd70","pricing_plan_id":"cebpf4jnsgd1na2vs0mg"},{"bike_id":"84815c8c-d9df-4fa2-8ab2-37024a802a5d","system_id":"levelo_inurba_marseille","lat":43.30777,"lon":5.37649,"is_reserved":false,"is_disabled":false,"rental_uris":{"android":"levelo://app?vid=84815c8c-d9df-4fa2-8ab2-37024a802a5d","ios":"levelo://app?vid=84815c8c-d9df-4fa2-8ab2-37024a802a5d"},"vehicle_type_id":"4","last_reported":1731445703,"current_range_meters":38800,"station_id":"ce4bgv92rcd13ifvqcq0","pricing_plan_id":"cebpf4jnsgd1na2vs0mg"},{"bike_id":"8f78c412-98db-4d29-8c22-3b9175c2738c","system_id":"levelo_inurba_marseille","lat":43.299316,"lon":5.365554,"is_reserved":false,"is_disabled":false,"rental_uris":{"android":"levelo://app?vid=8f78c412-98db-4d29-8c22-3b9175c2738c","ios":"levelo://app?vid=8f78c412-98db-4d29-8c22-3b9175c2738c"},"vehicle_type_id":"4","last_reported":1731445703,"current_range_meters":19200,"station_id":"ce4bgm92rcd13ifvqbr0","pricing_plan_id":"cebpf4jnsgd1na2vs0mg"},{"bike_id":"4560d80d-b770-46a9-8ac0-6fe10fc64b4e","system_id":"levelo_inurba_marseille","lat":43.28035,"lon":5.36949,"is_reserved":false,"is_disabled":false,"rental_uris":{"android":"levelo://app?vid=4560d80d-b770-46a9-8ac0-6fe10fc64b4e","ios":"levelo://app?vid=4560d80d-b770-46a9-8ac0-6fe10fc64b4e"},"vehicle_type_id":"4","last_reported":1731445703,"current_range_meters":32400,"station_id":"ce4bha12rcd13ifvqef0","pricing_plan_id":"cebpf4jnsgd1na2vs0mg"},{"bike_id":"08b12162-639b-42e6-b6d7-e289591b02ce","system_id":"levelo_inurba_marseille","lat":43.3175,"lon":5.39018,"is_reserved":false,"is_disabled":false,"rental_uris":{"android":"levelo://app?vid=08b12162-639b-42e6-b6d7-e289591b02ce","ios":"levelo://app?vid=08b12162-639b-42e6-b6d7-e289591b02ce"},"vehicle_type_id":"4","last_reported":1731445703,"current_range_meters":22000,"station_id":"ce4bhqp2rcd13ifvqhng","pricing_plan_id":"cebpf4jnsgd1na2vs0mg"},{"bike_id":"e60b42f2-a281-4419-a16c-efdb587b14b5","system_id":"levelo_inurba_marseille","lat":43.32284,"lon":5.38274,"is_reserved":false,"is_disabled":false,"rental_uris":{"android":"levelo://app?vid=e60b42f2-a281-4419-a16c-efdb587b14b5","ios":"levelo://app?vid=e60b42f2-a281-4419-a16c-efdb587b14b5"},"vehicle_type_id":"4","last_reported":1731445703,"current_range_meters":24800,"station_id":"ce4bhr12rcd13ifvqhqg","pricing_plan_id":"cebpf4jnsgd1na2vs0mg"},{"bike_id":"ee0f3edc-a2eb-41a5-9d63-4b2d59c7d64f","system_id":"levelo_inurba_marseille","lat":43.25111,"lon":5.40322,"is_reserved":false,"is_disabled":false,"rental_uris":{"android":"levelo://app?vid=ee0f3edc-a2eb-41a5-9d63-4b2d59c7d64f","ios":"levelo://app?vid=ee0f3edc-a2eb-41a5-9d63-4b2d59c7d64f"},"vehicle_type_id":"4","last_reported":1731445703,"current_range_meters":31200,"station_id":"ce4bhlh2rcd13ifvqgig","pricing_plan_id":"cebpf4jnsgd1na2vs0mg"},{"bike_id":"0a4189d5-e56b-4a49-a75b-035f42369ff2","system_id":"levelo_inurba_marseille","lat":43.30133,"lon":5.39876,"is_reserved":false,"is_disabled":false,"rental_uris":{"android":"levelo://app?vid=0a4189d5-e56b-4a49-a75b-035f42369ff2","ios":"levelo://app?vid=0a4189d5-e56b-4a49-a75b-035f42369ff2"},"vehicle_type_id":"4","last_reported":1731445703,"current_range_meters":10000,"station_id":"ce4bh0h2rcd13ifvqd40","pricing_plan_id":"cebpf4jnsgd1na2vs0mg"},{"bike_id":"7b1d3612-39cd-4cb3-9238-b7159cf9796b","system_id":"levelo_inurba_marseille","lat":43.28705,"lon":5.37389,"is_reserved":false,"is_disabled":false,"rental_uris":{"android":"levelo://app?vid=7b1d3612-39cd-4cb3-9238-b7159cf9796b","ios":"levelo://app?vid=7b1d3612-39cd-4cb3-9238-b7159cf9796b"},"vehicle_type_id":"4","last_reported":1731445703,"current_range_meters":30400,"station_id":"ce4bh3p2rcd13ifvqdq0","pricing_plan_id":"cebpf4jnsgd1na2vs0mg"},{"bike_id":"593dd953-92e9-4448-9d82-ca754ac12605","system_id":"levelo_inurba_marseille","lat":43.25082,"lon":5.39515,"is_reserved":false,"is_disabled":false,"rental_uris":{"android":"levelo://app?vid=593dd953-92e9-4448-9d82-ca754ac12605","ios":"levelo://app?vid=593dd953-92e9-4448-9d82-ca754ac12605"},"vehicle_type_id":"4","last_reported":1731445703,"current_range_meters":16800,"station_id":"ce4bhm12rcd13ifvqgkg","pricing_plan_id":"cebpf4jnsgd1na2vs0mg"},{"bike_id":"98a41b55-783d-4a53-9a0a-09f9b47b2669","system_id":"levelo_inurba_marseille","lat":43.23195,"lon":5.35559,"is_reserved":false,"is_disabled":false,"rental_uris":{"android":"levelo://app?vid=98a41b55-783d-4a53-9a0a-09f9b47b2669","ios":"levelo://app?vid=98a41b55-783d-4a53-9a0a-09f9b47b2669"},"vehicle_type_id":"4","last_reported":1731445703,"current_range_meters":19200,"station_id":"ce4bhu92rcd13ifvqi70","pricing_plan_id":"cebpf4jnsgd1na2vs0mg"},{"bike_id":"9b899324-9bf0-4e7e-944b-128cdc9d3596","system_id":"levelo_inurba_marseille","lat":43.25576,"lon":5.38235,"is_reserved":false,"is_disabled":false,"rental_uris":{"android":"levelo://app?vid=9b899324-9bf0-4e7e-944b-128cdc9d3596","ios":"levelo://app?vid=9b899324-9bf0-4e7e-944b-128cdc9d3596"},"vehicle_type_id":"4","last_reported":1731445703,"current_range_meters":31200,"station_id":"ce4bhih2rcd13ifvqfs0","pricing_plan_id":"cebpf4jnsgd1na2vs0mg"},{"bike_id":"33982fe9-a903-40cd-a32c-32a0ffad344a","system_id":"levelo_inurba_marseille","lat":43.284613,"lon":5.358891,"is_reserved":false,"is_disabled":false,"rental_uris":{"android":"levelo://app?vid=33982fe9-a903-40cd-a32c-32a0ffad344a","ios":"levelo://app?vid=33982fe9-a903-40cd-a32c-32a0ffad344a"},"vehicle_type_id":"4","last_reported":1731445703,"current_range_meters":32400,"station_id":"ce4bhah2rcd13ifvqei0","pricing_plan_id":"cebpf4jnsgd1na2vs0mg"},{"bike_id":"230b6c77-b329-402c-a40c-b0b4a301a608","system_id":"levelo_inurba_marseille","lat":43.27561,"lon":5.3842,"is_reserved":false,"is_disabled":false,"rental_uris":{"android":"levelo://app?vid=230b6c77-b329-402c-a40c-b0b4a301a608","ios":"levelo://app?vid=230b6c77-b329-402c-a40c-b0b4a301a608"},"vehicle_type_id":"4","last_reported":1731445703,"current_range_meters":20400,"station_id":"ce4bhh92rcd13ifvqfi0","pricing_plan_id":"cebpf4jnsgd1na2vs0mg"},{"bike_id":"2202a904-a13c-4eda-9d49-23c5c6db8e84","system_id":"levelo_inurba_marseille","lat":43.28262,"lon":5.35067,"is_reserved":false,"is_disabled":false,"rental_uris":{"android":"levelo://app?vid=2202a904-a13c-4eda-9d49-23c5c6db8e84","ios":"levelo://app?vid=2202a904-a13c-4eda-9d49-23c5c6db8e84"},"vehicle_type_id":"4","last_reported":1731445703,"current_range_meters":38800,"station_id":"ce4bhbp2rcd13ifvqerg","pricing_plan_id":"cebpf4jnsgd1na2vs0mg"},{"bike_id":"692fb841-efd6-45f3-98d5-6b03df882962","system_id":"levelo_inurba_marseille","lat":43.27488,"lon":5.42458,"is_reserved":false,"is_disabled":false,"rental_uris":{"android":"levelo://app?vid=692fb841-efd6-45f3-98d5-6b03df882962","ios":"levelo://app?vid=692fb841-efd6-45f3-98d5-6b03df882962"},"vehicle_type_id":"4","last_reported":1731445703,"current_range_meters":38800,"station_id":"ce4bhn92rcd13ifvqgrg","pricing_plan_id":"cebpf4jnsgd1na2vs0mg"},{"bike_id":"7de4566c-6dbd-4468-becd-c3534e14aea7","system_id":"levelo_inurba_marseille","lat":43.29029,"lon":5.37561,"is_reserved":false,"is_disabled":false,"rental_uris":{"android":"levelo://app?vid=7de4566c-6dbd-4468-becd-c3534e14aea7","ios":"levelo://app?vid=7de4566c-6dbd-4468-becd-c3534e14aea7"},"vehicle_type_id":"4","last_reported":1731445703,"current_range_meters":14800,"station_id":"ce4bh692rcd13ifvqe90","pricing_plan_id":"cebpf4jnsgd1na2vs0mg"},{"bike_id":"f7dfe9d8-8b1c-44bd-9e07-3a51ca4750f2","system_id":"levelo_inurba_marseille","lat":43.26491,"lon":5.3955,"is_reserved":false,"is_disabled":false,"rental_uris":{"android":"levelo://app?vid=f7dfe9d8-8b1c-44bd-9e07-3a51ca4750f2","ios":"levelo://app?vid=f7dfe9d8-8b1c-44bd-9e07-3a51ca4750f2"},"vehicle_type_id":"4","last_reported":1731445703,"current_range_meters":33200,"station_id":"ce4bhi12rcd13ifvqfq0","pricing_plan_id":"cebpf4jnsgd1na2vs0mg"},{"bike_id":"5918f272-9be9-4fab-a76f-db071de18465","system_id":"levelo_inurba_marseille","lat":43.28673,"lon":5.3866,"is_reserved":false,"is_disabled":false,"rental_uris":{"android":"levelo://app?vid=5918f272-9be9-4fab-a76f-db071de18465","ios":"levelo://app?vid=5918f272-9be9-4fab-a76f-db071de18465"},"vehicle_type_id":"4","last_reported":1731445703,"current_range_meters":4800,"station_id":"ce4bh492rcd13ifvqdug","pricing_plan_id":"cebpf4jnsgd1na2vs0mg"},{"bike_id":"bc61a3b9-3fb3-4296-853e-797c816f3109","system_id":"levelo_inurba_marseille","lat":43.28854,"lon":5.3583,"is_reserved":false,"is_disabled":false,"rental_uris":{"android":"levelo://app?vid=bc61a3b9-3fb3-4296-853e-797c816f3109","ios":"levelo://app?vid=bc61a3b9-3fb3-4296-853e-797c816f3109"},"vehicle_type_id":"4","last_reported":1731445703,"current_range_meters":20400,"station_id":"ce4bhb12rcd13ifvqem0","pricing_plan_id":"cebpf4jnsgd1na2vs0mg"},{"bike_id":"7b7f672e-657a-4cbe-b1c4-7972ae12c59f","system_id":"levelo_inurba_marseille","lat":43.28841,"lon":5.35854,"is_reserved":false,"is_disabled":false,"rental_uris":{"android":"levelo://app?vid=7b7f672e-657a-4cbe-b1c4-7972ae12c59f","ios":"levelo://app?vid=7b7f672e-657a-4cbe-b1c4-7972ae12c59f"},"vehicle_type_id":"4","last_reported":1731445703,"current_range_meters":33200,"station_id":"ce4bhb12rcd13ifvqem0","pricing_plan_id":"cebpf4jnsgd1na2vs0mg"},{"bike_id":"10a3d61e-1d90-4dd4-83fc-9f8eca235ba3","system_id":"levelo_inurba_marseille","lat":43.29518,"lon":5.39402,"is_reserved":false,"is_disabled":false,"rental_uris":{"android":"levelo://app?vid=10a3d61e-1d90-4dd4-83fc-9f8eca235ba3","ios":"levelo://app?vid=10a3d61e-1d90-4dd4-83fc-9f8eca235ba3"},"vehicle_type_id":"4","last_reported":1731445703,"current_range_meters":2000,"station_id":"ce4bh292rcd13ifvqdf0","pricing_plan_id":"cebpf4jnsgd1na2vs0mg"},{"bike_id":"73586d51-a7db-4f37-8fd9-c683a07e913a","system_id":"levelo_inurba_marseille","lat":43.28656,"lon":5.36346,"is_reserved":false,"is_disabled":false,"rental_uris":{"android":"levelo://app?vid=73586d51-a7db-4f37-8fd9-c683a07e913a","ios":"levelo://app?vid=73586d51-a7db-4f37-8fd9-c683a07e913a"},"vehicle_type_id":"4","last_reported":1731445703,"current_range_meters":16400,"station_id":"ce4bhah2rcd13ifvqej0","pricing_plan_id":"cebpf4jnsgd1na2vs0mg"},{"bike_id":"0606443b-4369-42a4-bea1-57669a14e9a4","system_id":"levelo_inurba_marseille","lat":43.27815,"lon":5.40715,"is_reserved":false,"is_disabled":false,"rental_uris":{"android":"levelo://app?vid=0606443b-4369-42a4-bea1-57669a14e9a4","ios":"levelo://app?vid=0606443b-4369-42a4-bea1-57669a14e9a4"},"vehicle_type_id":"4","last_reported":1731445703,"current_range_meters":36800,"station_id":"ce4bhnh2rcd13ifvqgtg","pricing_plan_id":"cebpf4jnsgd1na2vs0mg"},{"bike_id":"0fb7af37-ed7e-4639-a28c-e6d4b52ce80c","system_id":"levelo_inurba_marseille","lat":43.30934,"lon":5.40156,"is_reserved":false,"is_disabled":false,"rental_uris":{"android":"levelo://app?vid=0fb7af37-ed7e-4639-a28c-e6d4b52ce80c","ios":"levelo://app?vid=0fb7af37-ed7e-4639-a28c-e6d4b52ce80c"},"vehicle_type_id":"4","last_reported":1731445703,"current_range_meters":36800,"station_id":"ce4bgvp2rcd13ifvqct0","pricing_plan_id":"cebpf4jnsgd1na2vs0mg"},{"bike_id":"03a59692-85a3-45c0-9151-a54628631a12","system_id":"levelo_inurba_marseille","lat":43.30129,"lon":5.38781,"is_reserved":false,"is_disabled":false,"rental_uris":{"android":"levelo://app?vid=03a59692-85a3-45c0-9151-a54628631a12","ios":"levelo://app?vid=03a59692-85a3-45c0-9151-a54628631a12"},"vehicle_type_id":"4","last_reported":1731445703,"current_range_meters":38800,"station_id":"ce4bghh2rcd13ifvqb60","pricing_plan_id":"cebpf4jnsgd1na2vs0mg"},{"bike_id":"d5b47975-7665-4836-8707-7a65639f0843","system_id":"levelo_inurba_marseille","lat":43.3024,"lon":5.40064,"is_reserved":false,"is_disabled":false,"rental_uris":{"android":"levelo://app?vid=d5b47975-7665-4836-8707-7a65639f0843","ios":"levelo://app?vid=d5b47975-7665-4836-8707-7a65639f0843"},"vehicle_type_id":"4","last_reported":1731445703,"current_range_meters":37600,"station_id":"ce4bgvh2rcd13ifvqcs0","pricing_plan_id":"cebpf4jnsgd1na2vs0mg"},{"bike_id":"b69ae1e5-2081-4d30-bae8-22f64613b416","system_id":"levelo_inurba_marseille","lat":43.30593,"lon":5.39355,"is_reserved":false,"is_disabled":false,"rental_uris":{"android":"levelo://app?vid=b69ae1e5-2081-4d30-bae8-22f64613b416","ios":"levelo://app?vid=b69ae1e5-2081-4d30-bae8-22f64613b416"},"vehicle_type_id":"4","last_reported":1731445703,"current_range_meters":8000,"station_id":"ce4bh0p2rcd13ifvqd80","pricing_plan_id":"cebpf4jnsgd1na2vs0mg"},{"bike_id":"09539a57-684d-447c-bc50-44d99b665999","system_id":"levelo_inurba_marseille","lat":43.30884,"lon":5.39642,"is_reserved":false,"is_disabled":false,"rental_uris":{"android":"levelo://app?vid=09539a57-684d-447c-bc50-44d99b665999","ios":"levelo://app?vid=09539a57-684d-447c-bc50-44d99b665999"},"vehicle_type_id":"4","last_reported":1731445703,"current_range_meters":23200,"station_id":"ce4bh012rcd13ifvqcv0","pricing_plan_id":"cebpf4jnsgd1na2vs0mg"},{"bike_id":"f67f4316-3345-44cf-b08d-8bc4cb9f2a66","system_id":"levelo_inurba_marseille","lat":43.292755,"lon":5.407279,"is_reserved":false,"is_disabled":false,"rental_uris":{"android":"levelo://app?vid=f67f4316-3345-44cf-b08d-8bc4cb9f2a66","ios":"levelo://app?vid=f67f4316-3345-44cf-b08d-8bc4cb9f2a66"},"vehicle_type_id":"4","last_reported":1731445703,"current_range_meters":36800,"station_id":"ce4bh192rcd13ifvqdc0","pricing_plan_id":"cebpf4jnsgd1na2vs0mg"},{"bike_id":"d1637773-1cf9-455f-bb0f-cde84ed359c0","system_id":"levelo_inurba_marseille","lat":43.28454,"lon":5.35887,"is_reserved":false,"is_disabled":false,"rental_uris":{"android":"levelo://app?vid=d1637773-1cf9-455f-bb0f-cde84ed359c0","ios":"levelo://app?vid=d1637773-1cf9-455f-bb0f-cde84ed359c0"},"vehicle_type_id":"4","last_reported":1731445703,"current_range_meters":38800,"station_id":"ce4bhah2rcd13ifvqei0","pricing_plan_id":"cebpf4jnsgd1na2vs0mg"},{"bike_id":"ed2020d9-53c9-4082-9a6b-029c3dfcbe63","system_id":"levelo_inurba_marseille","lat":43.29286,"lon":5.3932,"is_reserved":false,"is_disabled":false,"rental_uris":{"android":"levelo://app?vid=ed2020d9-53c9-4082-9a6b-029c3dfcbe63","ios":"levelo://app?vid=ed2020d9-53c9-4082-9a6b-029c3dfcbe63"},"vehicle_type_id":"4","last_reported":1731445703,"current_range_meters":4400,"station_id":"","pricing_plan_id":"cebpf4jnsgd1na2vs0mg"},{"bike_id":"43488694-41b0-40fd-a881-b3754e16f72c","system_id":"levelo_inurba_marseille","lat":43.27569,"lon":5.38425,"is_reserved":false,"is_disabled":false,"rental_uris":{"android":"levelo://app?vid=43488694-41b0-40fd-a881-b3754e16f72c","ios":"levelo://app?vid=43488694-41b0-40fd-a881-b3754e16f72c"},"vehicle_type_id":"4","last_reported":1731445703,"current_range_meters":38800,"station_id":"ce4bhh92rcd13ifvqfi0","pricing_plan_id":"cebpf4jnsgd1na2vs0mg"},{"bike_id":"7ca33f6b-e349-49e0-8226-5b445a766323","system_id":"levelo_inurba_marseille","lat":43.32102,"lon":5.36777,"is_reserved":false,"is_disabled":false,"rental_uris":{"android":"levelo://app?vid=7ca33f6b-e349-49e0-8226-5b445a766323","ios":"levelo://app?vid=7ca33f6b-e349-49e0-8226-5b445a766323"},"vehicle_type_id":"4","last_reported":1731445703,"current_range_meters":22400,"station_id":"ce4bhrh2rcd13ifvqhug","pricing_plan_id":"cebpf4jnsgd1na2vs0mg"},{"bike_id":"7eefa272-3116-4b84-a466-6a64c9d9db4c","system_id":"levelo_inurba_marseille","lat":43.28863,"lon":5.35844,"is_reserved":false,"is_disabled":false,"rental_uris":{"android":"levelo://app?vid=7eefa272-3116-4b84-a466-6a64c9d9db4c","ios":"levelo://app?vid=7eefa272-3116-4b84-a466-6a64c9d9db4c"},"vehicle_type_id":"4","last_reported":1731445703,"current_range_meters":36800,"station_id":"ce4bhb12rcd13ifvqem0","pricing_plan_id":"cebpf4jnsgd1na2vs0mg"},{"bike_id":"9b6f4511-578c-42ab-81ac-bef492210160","system_id":"levelo_inurba_marseille","lat":43.31329,"lon":5.39696,"is_reserved":false,"is_disabled":false,"rental_uris":{"android":"levelo://app?vid=9b6f4511-578c-42ab-81ac-bef492210160","ios":"levelo://app?vid=9b6f4511-578c-42ab-81ac-bef492210160"},"vehicle_type_id":"4","last_reported":1731445703,"current_range_meters":38800,"station_id":"ce4bgvp2rcd13ifvqcu0","pricing_plan_id":"cebpf4jnsgd1na2vs0mg"},{"bike_id":"79f97668-b056-484d-b423-1f2196ea3148","system_id":"levelo_inurba_marseille","lat":43.33602,"lon":5.41022,"is_reserved":false,"is_disabled":false,"rental_uris":{"android":"levelo://app?vid=79f97668-b056-484d-b423-1f2196ea3148","ios":"levelo://app?vid=79f97668-b056-484d-b423-1f2196ea3148"},"vehicle_type_id":"4","last_reported":1731445703,"current_range_meters":24400,"station_id":"ce4bhqh2rcd13ifvqhmg","pricing_plan_id":"cebpf4jnsgd1na2vs0mg"},{"bike_id":"aae49cd0-069f-4251-b778-25c0ab501fa1","system_id":"levelo_inurba_marseille","lat":43.29713,"lon":5.3661,"is_reserved":false,"is_disabled":false,"rental_uris":{"android":"levelo://app?vid=aae49cd0-069f-4251-b778-25c0ab501fa1","ios":"levelo://app?vid=aae49cd0-069f-4251-b778-25c0ab501fa1"},"vehicle_type_id":"4","last_reported":1731445703,"current_range_meters":22800,"station_id":"ce4bgn12rcd13ifvqbt0","pricing_plan_id":"cebpf4jnsgd1na2vs0mg"},{"bike_id":"a2fed592-e055-404e-949b-38dc428964cc","system_id":"levelo_inurba_marseille","lat":43.26566,"lon":5.39005,"is_reserved":false,"is_disabled":false,"rental_uris":{"android":"levelo://app?vid=a2fed592-e055-404e-949b-38dc428964cc","ios":"levelo://app?vid=a2fed592-e055-404e-949b-38dc428964cc"},"vehicle_type_id":"4","last_reported":1731445703,"current_range_meters":9600,"station_id":"ce4bhe12rcd13ifvqf30","pricing_plan_id":"cebpf4jnsgd1na2vs0mg"},{"bike_id":"053fb325-4a36-41e3-b541-71396d1c7972","system_id":"levelo_inurba_marseille","lat":43.29515,"lon":5.39408,"is_reserved":false,"is_disabled":false,"rental_uris":{"android":"levelo://app?vid=053fb325-4a36-41e3-b541-71396d1c7972","ios":"levelo://app?vid=053fb325-4a36-41e3-b541-71396d1c7972"},"vehicle_type_id":"4","last_reported":1731445703,"current_range_meters":17600,"station_id":"ce4bh292rcd13ifvqdf0","pricing_plan_id":"cebpf4jnsgd1na2vs0mg"},{"bike_id":"3a49739d-e0d5-44ce-afc6-bcfbf1160431","system_id":"levelo_inurba_marseille","lat":43.27938,"lon":5.41035,"is_reserved":false,"is_disabled":false,"rental_uris":{"android":"levelo://app?vid=3a49739d-e0d5-44ce-afc6-bcfbf1160431","ios":"levelo://app?vid=3a49739d-e0d5-44ce-afc6-bcfbf1160431"},"vehicle_type_id":"4","last_reported":1731445703,"current_range_meters":33200,"station_id":"ce4bhnp2rcd13ifvqh0g","pricing_plan_id":"cebpf4jnsgd1na2vs0mg"},{"bike_id":"d8691974-b452-4302-8aac-bf750f2c4c5d","system_id":"levelo_inurba_marseille","lat":43.28416,"lon":5.34995,"is_reserved":false,"is_disabled":false,"rental_uris":{"android":"levelo://app?vid=d8691974-b452-4302-8aac-bf750f2c4c5d","ios":"levelo://app?vid=d8691974-b452-4302-8aac-bf750f2c4c5d"},"vehicle_type_id":"4","last_reported":1731445703,"current_range_meters":38000,"station_id":"ce4bhbh2rcd13ifvqepg","pricing_plan_id":"cebpf4jnsgd1na2vs0mg"},{"bike_id":"6cc49a5a-10d7-4481-bb6e-0b4566b7e49e","system_id":"levelo_inurba_marseille","lat":43.30637,"lon":5.40069,"is_reserved":false,"is_disabled":false,"rental_uris":{"android":"levelo://app?vid=6cc49a5a-10d7-4481-bb6e-0b4566b7e49e","ios":"levelo://app?vid=6cc49a5a-10d7-4481-bb6e-0b4566b7e49e"},"vehicle_type_id":"4","last_reported":1731445703,"current_range_meters":38800,"station_id":"ce4bh112rcd13ifvqda0","pricing_plan_id":"cebpf4jnsgd1na2vs0mg"},{"bike_id":"290d9ccc-ec87-4d41-bca2-75fa1cd5e08e","system_id":"levelo_inurba_marseille","lat":43.28854,"lon":5.35837,"is_reserved":false,"is_disabled":false,"rental_uris":{"android":"levelo://app?vid=290d9ccc-ec87-4d41-bca2-75fa1cd5e08e","ios":"levelo://app?vid=290d9ccc-ec87-4d41-bca2-75fa1cd5e08e"},"vehicle_type_id":"4","last_reported":1731445703,"current_range_meters":38800,"station_id":"ce4bhb12rcd13ifvqem0","pricing_plan_id":"cebpf4jnsgd1na2vs0mg"},{"bike_id":"87405bba-8d27-43a9-ba45-4436b04620c4","system_id":"levelo_inurba_marseille","lat":43.3108,"lon":5.42428,"is_reserved":false,"is_disabled":false,"rental_uris":{"android":"levelo://app?vid=87405bba-8d27-43a9-ba45-4436b04620c4","ios":"levelo://app?vid=87405bba-8d27-43a9-ba45-4436b04620c4"},"vehicle_type_id":"4","last_reported":1731445703,"current_range_meters":32000,"station_id":"ce4bhp92rcd13ifvqhag","pricing_plan_id":"cebpf4jnsgd1na2vs0mg"},