{"last_updated":1704312473,"ttl":30,"version":"2.2","data":{"bikes":[{"bike_id":"a5ec7141-2000-4cfd-8482-141a614f274d","system_id":"levelo_inurba_marseille","lat":43.312239,"lon":5.368562,"is_reserved":false,"is_disabled":false,"rental_uris":{"android":"levelo://app?vid=a5ec7141-2000-4cfd-8482-141a614f274d","ios":"levelo://app?vid=a5ec7141-2000-4cfd-8482-141a614f274d"},"vehicle_type_id":"4","last_reported":1704312473,"current_range_meters":19600,"station_id":"ce4bgl92rcd13ifvqbq0","pricing_plan_id":"free"},{"bike_id":"730d1160-642a-4735-aeaa-50a5925460fe","system_id":"levelo_inurba_marseille","lat":43.31235,"lon":5.36863,"is_reserved":false,"is_disabled":false,"rental_uris":{"android":"levelo://app?vid=730d1160-642a-4735-aeaa-50a5925460fe","ios":"levelo://app?vid=730d1160-642a-4735-aeaa-50a5925460fe"},"vehicle_type_id":"4","last_reported":1704312473,"current_range_meters":18800,"station_id":"ce4bgl92rcd13ifvqbq0","pricing_plan_id":"free"},{"bike_id":"472d7880-631c-48bd-938a-a55af25db655","system_id":"levelo_inurba_marseille","lat":43.312239,"lon":5.368562,"is_reserved":false,"is_disabled":false,"rental_uris":{"android":"levelo://app?vid=472d7880-631c-48bd-938a-a55af25db655","ios":"levelo://app?vid=472d7880-631c-48bd-938a-a55af25db655"},"vehicle_type_id":"4","last_reported":1704312473,"current_range_meters":15200,"station_id":"ce4bgl92rcd13ifvqbq0","pricing_plan_id":"free"},{"bike_id":"ef56b1e2-9c80-4bbc-be94-435c74c3d194","system_id":"levelo_inurba_marseille","lat":43.312239,"lon":5.368562,"is_reserved":false,"is_disabled":false,"rental_uris":{"android":"levelo://app?vid=ef56b1e2-9c80-4bbc-be94-435c74c3d194","ios":"levelo://app?vid=ef56b1e2-9c80-4bbc-be94-435c74c3d194"},"vehicle_type_id":"4","last_reported":1704312473,"current_range_meters":13600,"station_id":"ce4bgl92rcd13ifvqbq0","pricing_plan_id":"free"},{"bike_id":"e0e67dda-0230-46fe-8d5a-832623bf213d","system_id":"levelo_inurba_marseille","lat":43.309076,"lon":5.368465,"is_reserved":false,"is_disabled":false,"rental_uris":{"android":"levelo://app?vid=e0e67dda-0230-46fe-8d5a-832623bf213d","ios":"levelo://app?vid=e0e67dda-0230-46fe-8d5a-832623bf213d"},"vehicle_type_id":"4","last_reported":1704312473,"current_range_meters":0,"station_id":"ce4bgn92rcd13ifvqbvg","pricing_plan_id":"free"},{"bike_id":"3113e6a1-21b3-4e2b-a947-a55ab5b8868b","system_id":"levelo_inurba_marseille","lat":43.314811,"lon":5.373103,"is_reserved":false,"is_disabled":false,"rental_uris":{"android":"levelo://app?vid=3113e6a1-21b3-4e2b-a947-a55ab5b8868b","ios":"levelo://app?vid=3113e6a1-21b3-4e2b-a947-a55ab5b8868b"},"vehicle_type_id":"4","last_reported":1704312473,"current_range_meters":24000,"station_id":"ce4bgt12rcd13ifvqcd0","pricing_plan_id":"free"},{"bike_id":"f39af422-b66f-40df-905d-211a51d2db7d","system_id":"levelo_inurba_marseille","lat":43.314811,"lon":5.373104,"is_reserved":false,"is_disabled":false,"rental_uris":{"android":"levelo://app?vid=f39af422-b66f-40df-905d-211a51d2db7d","ios":"levelo://app?vid=f39af422-b66f-40df-905d-211a51d2db7d"},"vehicle_type_id":"4","last_reported":1704312473,"current_range_meters":18000,"station_id":"ce4bgt12rcd13ifvqcd0","pricing_plan_id":"free"},{"bike_id":"8edfe687-5585-4091-b57b-785d87cd81a0","system_id":"levelo_inurba_marseille","lat":43.314811,"lon":5.373104,"is_reserved":false,"is_disabled":false,"rental_uris":{"android":"levelo://app?vid=8edfe687-5585-4091-b57b-785d87cd81a0","ios":"levelo://app?vid=8edfe687-5585-4091-b57b-785d87cd81a0"},"vehicle_type_id":"4","last_reported":1704312473,"current_range_meters":20400,"station_id":"ce4bgt12rcd13ifvqcd0","pricing_plan_id":"free"},{"bike_id":"d5473b7a-0a89-4a27-934b-61f957cbc11d","system_id":"levelo_inurba_marseille","lat":43.309039,"lon":5.371797,"is_reserved":false,"is_disabled":false,"rental_uris":{"android":"levelo://app?vid=d5473b7a-0a89-4a27-934b-61f957cbc11d","ios":"levelo://app?vid=d5473b7a-0a89-4a27-934b-61f957cbc11d"},"vehicle_type_id":"4","last_reported":1704312473,"current_range_meters":23200,"station_id":"ce4bguh2rcd13ifvqckg","pricing_plan_id":"free"},{"bike_id":"de2d62fc-c4ac-4f9d-addc-3c268404097a","system_id":"levelo_inurba_marseille","lat":43.30892,"lon":5.3719,"is_reserved":false,"is_disabled":false,"rental_uris":{"android":"levelo://app?vid=de2d62fc-c4ac-4f9d-addc-3c268404097a","ios":"levelo://app?vid=de2d62fc-c4ac-4f9d-addc-3c268404097a"},"vehicle_type_id":"4","last_reported":1704312473,"current_range_meters":4400,"station_id":"ce4bguh2rcd13ifvqckg","pricing_plan_id":"free"},{"bike_id":"83c3054f-2efe-4bf1-b5d4-5b6cb95c752d","system_id":"levelo_inurba_marseille","lat":43.305368,"lon":5.367343,"is_reserved":false,"is_disabled":false,"rental_uris":{"android":"levelo://app?vid=83c3054f-2efe-4bf1-b5d4-5b6cb95c752d","ios":"levelo://app?vid=83c3054f-2efe-4bf1-b5d4-5b6cb95c752d"},"vehicle_type_id":"4","last_reported":1704312473,"current_range_meters":15200,"station_id":"ce4bgrp2rcd13ifvqc9g","pricing_plan_id":"free"},{"bike_id":"3345dc1a-f71f-43e1-8995-f24f867057f1","system_id":"levelo_inurba_marseille","lat":43.305989,"lon":5.37225,"is_reserved":false,"is_disabled":false,"rental_uris":{"android":"levelo://app?vid=3345dc1a-f71f-43e1-8995-f24f867057f1","ios":"levelo://app?vid=3345dc1a-f71f-43e1-8995-f24f867057f1"},"vehicle_type_id":"4","last_reported":1704312473,"current_range_meters":14800,"station_id":"ce4bgqh2rcd13ifvqc4g","pricing_plan_id":"free"},{"bike_id":"35dcad53-0f03-4c82-a9b3-601c41a595fa","system_id":"levelo_inurba_marseille","lat":43.311131,"lon":5.377651,"is_reserved":false,"is_disabled":false,"rental_uris":{"android":"levelo://app?vid=35dcad53-0f03-4c82-a9b3-601c41a595fa","ios":"levelo://app?vid=35dcad53-0f03-4c82-a9b3-601c41a595fa"},"vehicle_type_id":"4","last_reported":1704312473,"current_range_meters":1200,"station_id":"ce4bgt92rcd13ifvqcg0","pricing_plan_id":"free"},{"bike_id":"4ff0d636-a8b3-40cf-bfe8-94ec9806bc78","system_id":"levelo_inurba_marseille","lat":43.307945,"lon":5.376487,"is_reserved":false,"is_disabled":false,"rental_uris":{"android":"levelo://app?vid=4ff0d636-a8b3-40cf-bfe8-94ec9806bc78","ios":"levelo://app?vid=4ff0d636-a8b3-40cf-bfe8-94ec9806bc78"},"vehicle_type_id":"4","last_reported":1704312473,"current_range_meters":5600,"station_id":"ce4bgv92rcd13ifvqcq0","pricing_plan_id":"free"},{"bike_id":"d090650c-84e6-4360-be73-3303b7a3535c","system_id":"levelo_inurba_marseille","lat":43.307945,"lon":5.376487,"is_reserved":false,"is_disabled":false,"rental_uris":{"android":"levelo://app?vid=d090650c-84e6-4360-be73-3303b7a3535c","ios":"levelo://app?vid=d090650c-84e6-4360-be73-3303b7a3535c"},"vehicle_type_id":"4","last_reported":1704312473,"current_range_meters":19600,"station_id":"ce4bgv92rcd13ifvqcq0","pricing_plan_id":"free"},{"bike_id":"058bdd97-c16f-4848-aacc-95a7a29e30e6","system_id":"levelo_inurba_marseille","lat":43.317075,"lon":5.377367,"is_reserved":false,"is_disabled":false,"rental_uris":{"android":"levelo://app?vid=058bdd97-c16f-4848-aacc-95a7a29e30e6","ios":"levelo://app?vid=058bdd97-c16f-4848-aacc-95a7a29e30e6"},"vehicle_type_id":"4","last_reported":1704312473,"current_range_meters":30000,"station_id":"ce4bgth2rcd13ifvqch0","pricing_plan_id":"free"},{"bike_id":"47ad3251-086a-40df-a881-d15b82cb59cd","system_id":"levelo_inurba_marseille","lat":43.317075,"lon":5.377367,"is_reserved":false,"is_disabled":false,"rental_uris":{"android":"levelo://app?vid=47ad3251-086a-40df-a881-d15b82cb59cd","ios":"levelo://app?vid=47ad3251-086a-40df-a881-d15b82cb59cd"},"vehicle_type_id":"4","last_reported":1704312473,"current_range_meters":15200,"station_id":"ce4bgth2rcd13ifvqch0","pricing_plan_id":"free"},{"bike_id":"c2775606-fc04-48a8-8700-1cc14f96a7e9","system_id":"levelo_inurba_marseille","lat":43.31055,"lon":5.37888,"is_reserved":false,"is_disabled":false,"rental_uris":{"android":"levelo://app?vid=c2775606-fc04-48a8-8700-1cc14f96a7e9","ios":"levelo://app?vid=c2775606-fc04-48a8-8700-1cc14f96a7e9"},"vehicle_type_id":"4","last_reported":1704312473,"current_range_meters":15600,"station_id":"","pricing_plan_id":"free"},{"bike_id":"c4e90871-bb94-4085-82dc-ccbd997a22ca","system_id":"levelo_inurba_marseille","lat":43.315211,"lon":5.379088,"is_reserved":false,"is_disabled":false,"rental_uris":{"android":"levelo://app?vid=c4e90871-bb94-4085-82dc-ccbd997a22ca","ios":"levelo://app?vid=c4e90871-bb94-4085-82dc-ccbd997a22ca"},"vehicle_type_id":"4","last_reported":1704312473,"current_range_meters":22000,"station_id":"","pricing_plan_id":"free"},{"bike_id":"7c924ec7-be0f-497e-8147-8906ff22a09d","system_id":"levelo_inurba_marseille","lat":43.30304,"lon":5.368987,"is_reserved":false,"is_disabled":false,"rental_uris":{"android":"levelo://app?vid=7c924ec7-be0f-497e-8147-8906ff22a09d","ios":"levelo://app?vid=7c924ec7-be0f-497e-8147-8906ff22a09d"},"vehicle_type_id":"4","last_reported":1704312473,"current_range_meters":23200,"station_id":"ce4bgqh2rcd13ifvqc5g","pricing_plan_id":"free"},{"bike_id":"4810d17d-15f2-4699-980f-89ebf8877f7a","system_id":"levelo_inurba_marseille","lat":43.31528,"lon":5.38025,"is_reserved":false,"is_disabled":false,"rental_uris":{"android":"levelo://app?vid=4810d17d-15f2-4699-980f-89ebf8877f7a","ios":"levelo://app?vid=4810d17d-15f2-4699-980f-89ebf8877f7a"},"vehicle_type_id":"4","last_reported":1704312473,"current_range_meters":29600,"station_id":"ce4bhsp2rcd13ifvqi50","pricing_plan_id":"free"},{"bike_id":"c6b9ae57-d536-4516-ba9c-332a8e036b8a","system_id":"levelo_inurba_marseille","lat":43.308012,"lon":5.381511,"is_reserved":false,"is_disabled":false,"rental_uris":{"android":"levelo://app?vid=c6b9ae57-d536-4516-ba9c-332a8e036b8a","ios":"levelo://app?vid=c6b9ae57-d536-4516-ba9c-332a8e036b8a"},"vehicle_type_id":"4","last_reported":1704312473,"current_range_meters":24800,"station_id":"ce4bgt12rcd13ifvqce0","pricing_plan_id":"free"},{"bike_id":"5377074b-30e2-4d67-825b-9deb3b1dbed3","system_id":"levelo_inurba_marseille","lat":43.304708,"lon":5.379039,"is_reserved":false,"is_disabled":false,"rental_uris":{"android":"levelo://app?vid=5377074b-30e2-4d67-825b-9deb3b1dbed3","ios":"levelo://app?vid=5377074b-30e2-4d67-825b-9deb3b1dbed3"},"vehicle_type_id":"4","last_reported":1704312473,"current_range_meters":6000,"station_id":"","pricing_plan_id":"free"},{"bike_id":"a4535830-2f3b-479e-a939-f97547203e35","system_id":"levelo_inurba_marseille","lat":43.313633,"lon":5.38333,"is_reserved":false,"is_disabled":false,"rental_uris":{"android":"levelo://app?vid=a4535830-2f3b-479e-a939-f97547203e35","ios":"levelo://app?vid=a4535830-2f3b-479e-a939-f97547203e35"},"vehicle_type_id":"4","last_reported":1704312473,"current_range_meters":4400,"station_id":"","pricing_plan_id":"free"},{"bike_id":"816e8d7f-4111-4d6f-8f15-7775b02a72db","system_id":"levelo_inurba_marseille","lat":43.304606,"lon":5.379026,"is_reserved":false,"is_disabled":false,"rental_uris":{"android":"levelo://app?vid=816e8d7f-4111-4d6f-8f15-7775b02a72db","ios":"levelo://app?vid=816e8d7f-4111-4d6f-8f15-7775b02a72db"},"vehicle_type_id":"4","last_reported":1704312473,"current_range_meters":28000,"station_id":"ce4bgup2rcd13ifvqcn0","pricing_plan_id":"free"},{"bike_id":"add53c28-ed17-4e00-a6ed-8efe24b59089","system_id":"levelo_inurba_marseille","lat":43.267959,"lon":5.402685,"is_reserved":false,"is_disabled":false,"rental_uris":{"android":"levelo://app?vid=add53c28-ed17-4e00-a6ed-8efe24b59089","ios":"levelo://app?vid=add53c28-ed17-4e00-a6ed-8efe24b59089"},"vehicle_type_id":"4","last_reported":1704312473,"current_range_meters":0,"station_id":"ce501612rcd8frsf0b60","pricing_plan_id":"free"},{"bike_id":"1c6e55bf-6b0c-4848-96ae-9e712df180c6","system_id":"levelo_inurba_marseille","lat":43.319935,"lon":5.381699,"is_reserved":false,"is_disabled":false,"rental_uris":{"android":"levelo://app?vid=1c6e55bf-6b0c-4848-96ae-9e712df180c6","ios":"levelo://app?vid=1c6e55bf-6b0c-4848-96ae-9e712df180c6"},"vehicle_type_id":"4","last_reported":1704312473,"current_range_meters":30800,"station_id":"ce4bhr12rcd13ifvqhpg","pricing_plan_id":"free"},{"bike_id":"2a6911e4-99f7-4853-9039-ac05cf0c6d2a","system_id":"levelo_inurba_marseille","lat":43.319935,"lon":5.381699,"is_reserved":false,"is_disabled":false,"rental_uris":{"android":"levelo://app?vid=2a6911e4-99f7-4853-9039-ac05cf0c6d2a","ios":"levelo://app?vid=2a6911e4-99f7-4853-9039-ac05cf0c6d2a"},"vehicle_type_id":"4","last_reported":1704312473,"current_range_meters":30000,"station_id":"ce4bhr12rcd13ifvqhpg","pricing_plan_id":"free"},{"bike_id":"442c1b48-0c9d-41d7-80ff-51493b8682d0","system_id":"levelo_inurba_marseille","lat":43.319935,"lon":5.381699,"is_reserved":false,"is_disabled":false,"rental_uris":{"android":"levelo://app?vid=442c1b48-0c9d-41d7-80ff-51493b8682d0","ios":"levelo://app?vid=442c1b48-0c9d-41d7-80ff-51493b8682d0"},"vehicle_type_id":"4","last_reported":1704312473,"current_range_meters":16000,"station_id":"ce4bhr12rcd13ifvqhpg","pricing_plan_id":"free"},{"bike_id":"a9ec24e9-bba6-40c5-9fa6-b3c57d576f31","system_id":"levelo_inurba_marseille","lat":43.319935,"lon":5.381699,"is_reserved":false,"is_disabled":false,"rental_uris":{"android":"levelo://app?vid=a9ec24e9-bba6-40c5-9fa6-b3c57d576f31","ios":"levelo://app?vid=a9ec24e9-bba6-40c5-9fa6-b3c57d576f31"},"vehicle_type_id":"4","last_reported":1704312473,"current_range_meters":8800,"station_id":"ce4bhr12rcd13ifvqhpg","pricing_plan_id":"free"},{"bike_id":"17504bde-947a-4cd6-98b3-9a4c66aca99b","system_id":"levelo_inurba_marseille","lat":43.313827,"lon":5.385007,"is_reserved":false,"is_disabled":false,"rental_uris":{"android":"levelo://app?vid=17504bde-947a-4cd6-98b3-9a4c66aca99b","ios":"levelo://app?vid=17504bde-947a-4cd6-98b3-9a4c66aca99b"},"vehicle_type_id":"4","last_reported":1704312473,"current_range_meters":16000,"station_id":"ce4bgt92rcd13ifvqcf0","pricing_plan_id":"free"},{"bike_id":"a930e640-78e8-4b58-8411-c4ec23c37477","system_id":"levelo_inurba_marseille","lat":43.299222,"lon":5.365554,"is_reserved":false,"is_disabled":false,"rental_uris":{"android":"levelo://app?vid=a930e640-78e8-4b58-8411-c4ec23c37477","ios":"levelo://app?vid=a930e640-78e8-4b58-8411-c4ec23c37477"},"vehicle_type_id":"4","last_reported":1704312473,"current_range_meters":0,"station_id":"ce4bgm92rcd13ifvqbr0","pricing_plan_id":"free"},{"bike_id":"a804eb7e-920a-4b19-bd72-7bb4332841ac","system_id":"levelo_inurba_marseille","lat":43.299724,"lon":5.371829,"is_reserved":false,"is_disabled":false,"rental_uris":{"android":"levelo://app?vid=a804eb7e-920a-4b19-bd72-7bb4332841ac","ios":"levelo://app?vid=a804eb7e-920a-4b19-bd72-7bb4332841ac"},"vehicle_type_id":"4","last_reported":1704312473,"current_range_meters":24400,"station_id":"ce4bgr92rcd13ifvqc7g","pricing_plan_id":"free"},{"bike_id":"69cfb051-1d59-4b26-8b69-7eca67089199","system_id":"levelo_inurba_marseille","lat":43.299222,"lon":5.365554,"is_reserved":false,"is_disabled":false,"rental_uris":{"android":"levelo://app?vid=69cfb051-1d59-4b26-8b69-7eca67089199","ios":"levelo://app?vid=69cfb051-1d59-4b26-8b69-7eca67089199"},"vehicle_type_id":"4","last_reported":1704312473,"current_range_meters":8400,"station_id":"ce4bgm92rcd13ifvqbr0","pricing_plan_id":"free"},{"bike_id":"03d9a952-6bd8-4eec-a020-5abcb5f4bff7","system_id":"levelo_inurba_marseille","lat":43.30534,"lon":5.38413,"is_reserved":false,"is_disabled":false,"rental_uris":{"android":"levelo://app?vid=03d9a952-6bd8-4eec-a020-5abcb5f4bff7","ios":"levelo://app?vid=03d9a952-6bd8-4eec-a020-5abcb5f4bff7"},"vehicle_type_id":"4","last_reported":1704312473,"current_range_meters":4000,"station_id":"ce4bgg92rcd13ifvqb30","pricing_plan_id":"free"},{"bike_id":"355b9567-2c3e-41c6-b49a-73fc7ab389d4","system_id":"levelo_inurba_marseille","lat":43.305397,"lon":5.38422,"is_reserved":false,"is_disabled":false,"rental_uris":{"android":"levelo://app?vid=355b9567-2c3e-41c6-b49a-73fc7ab389d4","ios":"levelo://app?vid=355b9567-2c3e-41c6-b49a-73fc7ab389d4"},"vehicle_type_id":"4","last_reported":1704312473,"current_range_meters":18400,"station_id":"ce4bgg92rcd13ifvqb30","pricing_plan_id":"free"},{"bike_id":"e67ce35e-22da-4d32-9fd1-f0e9702f0c84","system_id":"levelo_inurba_marseille","lat":43.305364,"lon":5.384119,"is_reserved":false,"is_disabled":false,"rental_uris":{"android":"levelo://app?vid=e67ce35e-22da-4d32-9fd1-f0e9702f0c84","ios":"levelo://app?vid=e67ce35e-22da-4d32-9fd1-f0e9702f0c84"},"vehicle_type_id":"4","last_reported":1704312473,"current_range_meters":29200,"station_id":"ce4bgg92rcd13ifvqb30","pricing_plan_id":"free"},{"bike_id":"0233118d-6be7-4240-a1a5-35a788f46e67","system_id":"levelo_inurba_marseille","lat":43.31177,"lon":5.38721,"is_reserved":false,"is_disabled":false,"rental_uris":{"android":"levelo://app?vid=0233118d-6be7-4240-a1a5-35a788f46e67","ios":"levelo://app?vid=0233118d-6be7-4240-a1a5-35a788f46e67"},"vehicle_type_id":"4","last_reported":1704312473,"current_range_meters":4400,"station_id":"ce4bgv12rcd13ifvqcp0","pricing_plan_id":"free"},{"bike_id":"e291f5d7-76a0-4d49-ae30-75bbf0baa94f","system_id":"levelo_inurba_marseille","lat":43.311722,"lon":5.387247,"is_reserved":false,"is_disabled":false,"rental_uris":{"android":"levelo://app?vid=e291f5d7-76a0-4d49-ae30-75bbf0baa94f","ios":"levelo://app?vid=e291f5d7-76a0-4d49-ae30-75bbf0baa94f"},"vehicle_type_id":"4","last_reported":1704312473,"current_range_meters":4000,"station_id":"ce4bgv12rcd13ifvqcp0","pricing_plan_id":"free"},{"bike_id":"7e0f7b46-416f-497c-8e32-2a4e2c709f37","system_id":"levelo_inurba_marseille","lat":43.311722,"lon":5.387247,"is_reserved":false,"is_disabled":false,"rental_uris":{"android":"levelo://app?vid=7e0f7b46-416f-497c-8e32-2a4e2c709f37","ios":"levelo://app?vid=7e0f7b46-416f-497c-8e32-2a4e2c709f37"},"vehicle_type_id":"4","last_reported":1704312473,"current_range_meters":7600,"station_id":"ce4bgv12rcd13ifvqcp0","pricing_plan_id":"free"},{"bike_id":"e1bbe910-db4c-4702-a80c-ef915abf4b00","system_id":"levelo_inurba_marseille","lat":43.311722,"lon":5.387247,"is_reserved":false,"is_disabled":false,"rental_uris":{"android":"levelo://app?vid=e1bbe910-db4c-4702-a80c-ef915abf4b00","ios":"levelo://app?vid=e1bbe910-db4c-4702-a80c-ef915abf4b00"},"vehicle_type_id":"4","last_reported":1704312473,"current_range_meters":13600,"station_id":"ce4bgv12rcd13ifvqcp0","pricing_plan_id":"free"},{"bike_id":"de71f5a1-c732-451e-b4ec-df4cda404f99","system_id":"levelo_inurba_marseille","lat":43.297794,"lon":5.370888,"is_reserved":false,"is_disabled":false,"rental_uris":{"android":"levelo://app?vid=de71f5a1-c732-451e-b4ec-df4cda404f99","ios":"levelo://app?vid=de71f5a1-c732-451e-b4ec-df4cda404f99"},"vehicle_type_id":"4","last_reported":1704312473,"current_range_meters":29200,"station_id":"ce4bgop2rcd13ifvqc1g","pricing_plan_id":"free"},{"bike_id":"6d90e6d0-18f2-4d59-a7c0-6f5d8f3563c2","system_id":"levelo_inurba_marseille","lat":43.322872,"lon":5.382756,"is_reserved":false,"is_disabled":false,"rental_uris":{"android":"levelo://app?vid=6d90e6d0-18f2-4d59-a7c0-6f5d8f3563c2","ios":"levelo://app?vid=6d90e6d0-18f2-4d59-a7c0-6f5d8f3563c2"},"vehicle_type_id":"4","last_reported":1704312473,"current_range_meters":26000,"station_id":"ce4bhr12rcd13ifvqhqg","pricing_plan_id":"free"},{"bike_id":"282990a5-37f6-4baa-8fe8-f98cb5dcf1b9","system_id":"levelo_inurba_marseille","lat":43.322872,"lon":5.382756,"is_reserved":false,"is_disabled":false,"rental_uris":{"android":"levelo://app?vid=282990a5-37f6-4baa-8fe8-f98cb5dcf1b9","ios":"levelo://app?vid=282990a5-37f6-4baa-8fe8-f98cb5dcf1b9"},"vehicle_type_id":"4","last_reported":1704312473,"current_range_meters":16400,"station_id":"ce4bhr12rcd13ifvqhqg","pricing_plan_id":"free"},{"bike_id":"0fd1a754-34d0-4db5-92ef-c7d51180155b","system_id":"levelo_inurba_marseille","lat":43.322872,"lon":5.382756,"is_reserved":false,"is_disabled":false,"rental_uris":{"android":"levelo://app?vid=0fd1a754-34d0-4db5-92ef-c7d51180155b","ios":"levelo://app?vid=0fd1a754-34d0-4db5-92ef-c7d51180155b"},"vehicle_type_id":"4","last_reported":1704312473,"current_range_meters":20000,"station_id":"ce4bhr12rcd13ifvqhqg","pricing_plan_id":"free"},{"bike_id":"b3dc36b5-78bd-4891-ba38-a66f92777aa9","system_id":"levelo_inurba_marseille","lat":43.322872,"lon":5.382756,"is_reserved":false,"is_disabled":false,"rental_uris":{"android":"levelo://app?vid=b3dc36b5-78bd-4891-ba38-a66f92777aa9","ios":"levelo://app?vid=b3dc36b5-78bd-4891-ba38-a66f92777aa9"},"vehicle_type_id":"4","last_reported":1704312473,"current_range_meters":8000,"station_id":"ce4bhr12rcd13ifvqhqg","pricing_plan_id":"free"},{"bike_id":"f53e7a9d-7ee6-4428-85bd-3db5d7cc3975","system_id":"levelo_inurba_marseille","lat":43.322872,"lon":5.382756,"is_reserved":false,"is_disabled":false,"rental_uris":{"android":"levelo://app?vid=f53e7a9d-7ee6-4428-85bd-3db5d7cc3975","ios":"levelo://app?vid=f53e7a9d-7ee6-4428-85bd-3db5d7cc3975"},"vehicle_type_id":"4","last_reported":1704312473,"current_range_meters":23600,"station_id":"ce4bhr12rcd13ifvqhqg","pricing_plan_id":"free"},{"bike_id":"b1b531a6-b271-457f-a47c-b5f17d57c6b0","system_id":"levelo_inurba_marseille","lat":43.322872,"lon":5.382756,"is_reserved":false,"is_disabled":false,"rental_uris":{"android":"levelo://app?vid=b1b531a6-b271-457f-a47c-b5f17d57c6b0","ios":"levelo://app?vid=b1b531a6-b271-457f-a47c-b5f17d57c6b0"},"vehicle_type_id":"4","last_reported":1704312473,"current_range_meters":23600,"station_id":"ce4bhr12rcd13ifvqhqg","pricing_plan_id":"free"},{"bike_id":"e344a4f8-37b0-4824-b7de-a9d0470bf846","system_id":"levelo_inurba_marseille","lat":43.322872,"lon":5.382756,"is_reserved":false,"is_disabled":false,"rental_uris":{"android":"levelo://app?vid=e344a4f8-37b0-4824-b7de-a9d0470bf846","ios":"levelo://app?vid=e344a4f8-37b0-4824-b7de-a9d0470bf846"},"vehicle_type_id":"4","last_reported":1704312473,"current_range_meters":31600,"station_id":"ce4bhr12rcd13ifvqhqg","pricing_plan_id":"free"},{"bike_id":"370cccf7-c9ba-46c2-819b-c8e8cacc4c21","system_id":"levelo_inurba_marseille","lat":43.3277,"lon":5.37458,"is_reserved":false,"is_disabled":false,"rental_uris":{"android":"levelo://app?vid=370cccf7-c9ba-46c2-819b-c8e8cacc4c21","ios":"levelo://app?vid=370cccf7-c9ba-46c2-819b-c8e8cacc4c21"},"vehicle_type_id":"4","last_reported":1704312473,"current_range_meters":4000,"station_id":"","pricing_plan_id":"free"},{"bike_id":"f1908e61-5202-43e3-bf16-d91f711a0b5b","system_id":"levelo_inurba_marseille","lat":43.2968,"lon":5.37291,"is_reserved":false,"is_disabled":false,"rental_uris":{"android":"levelo://app?vid=f1908e61-5202-43e3-bf16-d91f711a0b5b","ios":"levelo://app?vid=f1908e61-5202-43e3-bf16-d91f711a0b5b"},"vehicle_type_id":"4","last_reported":1704312473,"current_range_meters":14000,"station_id":"ce4bgk12rcd13ifvqbj0","pricing_plan_id":"free"},{"bike_id":"9b538b89-a43e-4336-9013-73742aa3d750","system_id":"levelo_inurba_marseille","lat":43.29573,"lon":5.367355,"is_reserved":false,"is_disabled":false,"rental_uris":{"android":"levelo://app?vid=9b538b89-a43e-4336-9013-73742aa3d750","ios":"levelo://app?vid=9b538b89-a43e-4336-9013-73742aa3d750"},"vehicle_type_id":"4","last_reported":1704312473,"current_range_meters":18000,"station_id":"ce4bgph2rcd13ifvqc2g","pricing_plan_id":"free"},{"bike_id":"4b57a785-c2d7-4cf0-8023-6c96ec591992","system_id":"levelo_inurba_marseille","lat":43.296921,"lon":5.376579,"is_reserved":false,"is_disabled":false,"rental_uris":{"android":"levelo://app?vid=4b57a785-c2d7-4cf0-8023-6c96ec591992","ios":"levelo://app?vid=4b57a785-c2d7-4cf0-8023-6c96ec591992"},"vehicle_type_id":"4","last_reported":1704312473,"current_range_meters":7600,"station_id":"ce4bgkh2rcd13ifvqbl0","pricing_plan_id":"free"},{"bike_id":"bd8df2a8-2a58-4898-9c55-a49d88d4e886","system_id":"levelo_inurba_marseille","lat":43.299028,"lon":5.381509,"is_reserved":false,"is_disabled":false,"rental_uris":{"android":"levelo://app?vid=bd8df2a8-2a58-4898-9c55-a49d88d4e886","ios":"levelo://app?vid=bd8df2a8-2a58-4898-9c55-a49d88d4e886"},"vehicle_type_id":"4","last_reported":1704312473,"current_range_meters":11200,"station_id":"ce4bgj12rcd13ifvqbc0","pricing_plan_id":"free"},{"bike_id":"3d4ee389-4467-4d7e-989a-c42b22d51f73","system_id":"levelo_inurba_marseille","lat":43.317557,"lon":5.390173,"is_reserved":false,"is_disabled":false,"rental_uris":{"android":"levelo://app?vid=3d4ee389-4467-4d7e-989a-c42b22d51f73","ios":"levelo://app?vid=3d4ee389-4467-4d7e-989a-c42b22d51f73"},"vehicle_type_id":"4","last_reported":1704312473,"current_range_meters":22800,"station_id":"ce4bhqp2rcd13ifvqhng","pricing_plan_id":"free"},{"bike_id":"c45955cd-c08a-44c9-a8aa-d6757945c061","system_id":"levelo_inurba_marseille","lat":43.317557,"lon":5.390173,"is_reserved":false,"is_disabled":false,"rental_uris":{"android":"levelo://app?vid=c45955cd-c08a-44c9-a8aa-d6757945c061","ios":"levelo://app?vid=c45955cd-c08a-44c9-a8aa-d6757945c061"},"vehicle_type_id":"4","last_reported":1704312473,"current_range_meters":32000,"station_id":"ce4bhqp2rcd13ifvqhng","pricing_plan_id":"free"},{"bike_id":"ba9ee5e9-6c19-4de4-aa35-30131b12decb","system_id":"levelo_inurba_marseille","lat":43.29569,"lon":5.37526,"is_reserved":false,"is_disabled":false,"rental_uris":{"android":"levelo://app?vid=ba9ee5e9-6c19-4de4-aa35-30131b12decb","ios":"levelo://app?vid=ba9ee5e9-6c19-4de4-aa35-30131b12decb"},"vehicle_type_id":"4","last_reported":1704312473,"current_range_meters":24400,"station_id":"ce4bgh92rcd13ifvqb50","pricing_plan_id":"free"},{"bike_id":"d60802d6-4f47-444a-b234-883690eec05b","system_id":"levelo_inurba_marseille","lat":43.33062,"lon":5.3627,"is_reserved":false,"is_disabled":false,"rental_uris":{"android":"levelo://app?vid=d60802d6-4f47-444a-b234-883690eec05b","ios":"levelo://app?vid=d60802d6-4f47-444a-b234-883690eec05b"},"vehicle_type_id":"4","last_reported":1704312473,"current_range_meters":10800,"station_id":"","pricing_plan_id":"free"},{"bike_id":"7119845d-00aa-4d9f-be8c-fc97d41f1380","system_id":"levelo_inurba_marseille","lat":43.297594,"lon":5.381134,"is_reserved":false,"is_disabled":false,"rental_uris":{"android":"levelo://app?vid=7119845d-00aa-4d9f-be8c-fc97d41f1380","ios":"levelo://app?vid=7119845d-00aa-4d9f-be8c-fc97d41f1380"},"vehicle_type_id":"4","last_reported":1704312473,"current_range_meters":0,"station_id":"ce4bgip2rcd13ifvqbb0","pricing_plan_id":"free"},{"bike_id":"a082d93e-a2f1-41b2-af8f-b1546d9caff3","system_id":"levelo_inurba_marseille","lat":43.304278,"lon":5.388868,"is_reserved":false,"is_disabled":false,"rental_uris":{"android":"levelo://app?vid=a082d93e-a2f1-41b2-af8f-b1546d9caff3","ios":"levelo://app?vid=a082d93e-a2f1-41b2-af8f-b1546d9caff3"},"vehicle_type_id":"4","last_reported":1704312473,"current_range_meters":0,"station_id":"ce4bgk12rcd13ifvqbi0","pricing_plan_id":"free"},{"bike_id":"717e6596-52fd-4175-ba4a-2552ab0977d6","system_id":"levelo_inurba_marseille","lat":43.293259,"lon":5.371586,"is_reserved":false,"is_disabled":false,"rental_uris":{"android":"levelo://app?vid=717e6596-52fd-4175-ba4a-2552ab0977d6","ios":"levelo://app?vid=717e6596-52fd-4175-ba4a-2552ab0977d6"},"vehicle_type_id":"4","last_reported":1704312473,"current_range_meters":10000,"station_id":"ce4bgh92rcd13ifvqb40","pricing_plan_id":"free"},{"bike_id":"0080ab4a-a0f4-4f85-b4d6-219957d107e2","system_id":"levelo_inurba_marseille","lat":43.303002,"lon":5.392142,"is_reserved":false,"is_disabled":false,"rental_uris":{"android":"levelo://app?vid=0080ab4a-a0f4-4f85-b4d6-219957d107e2","ios":"levelo://app?vid=0080ab4a-a0f4-4f85-b4d6-219957d107e2"},"vehicle_type_id":"4","last_reported":1704312473,"current_range_meters":12400,"station_id":"ce4bgkh2rcd13ifvqbk0","pricing_plan_id":"free"},{"bike_id":"651c7288-b471-4770-b618-484423b30a3c","system_id":"levelo_inurba_marseille","lat":43.293009,"lon":5.374584,"is_reserved":false,"is_disabled":false,"rental_uris":{"android":"levelo://app?vid=651c7288-b471-4770-b618-484423b30a3c","ios":"levelo://app?vid=651c7288-b471-4770-b618-484423b30a3c"},"vehicle_type_id":"4","last_reported":1704312473,"current_range_meters":24000,"station_id":"ce4bgi12rcd13ifvqb70","pricing_plan_id":"free"},{"bike_id":"f882fc57-398f-4e90-b3b0-6b3f9cf3445f","system_id":"levelo_inurba_marseille","lat":43.305994,"lon":5.393687,"is_reserved":false,"is_disabled":false,"rental_uris":{"android":"levelo://app?vid=f882fc57-398f-4e90-b3b0-6b3f9cf3445f","ios":"levelo://app?vid=f882fc57-398f-4e90-b3b0-6b3f9cf3445f"},"vehicle_type_id":"4","last_reported":1704312473,"current_range_meters":15600,"station_id":"ce4bh0p2rcd13ifvqd80","pricing_plan_id":"free"},{"bike_id":"daf5f2d4-5b69-414a-8823-07d6055e9504","system_id":"levelo_inurba_marseille","lat":43.305994,"lon":5.393687,"is_reserved":false,"is_disabled":false,"rental_uris":{"android":"levelo://app?vid=daf5f2d4-5b69-414a-8823-07d6055e9504","ios":"levelo://app?vid=daf5f2d4-5b69-414a-8823-07d6055e9504"},"vehicle_type_id":"4","last_reported":1704312473,"current_range_meters":13600,"station_id":"ce4bh0p2rcd13ifvqd80","pricing_plan_id":"free"},{"bike_id":"841d87f1-853c-4cc4-a6ab-5ce12ca07038","system_id":"levelo_inurba_marseille","lat":43.3018,"lon":5.3909,"is_reserved":false,"is_disabled":false,"rental_uris":{"android":"levelo://app?vid=841d87f1-853c-4cc4-a6ab-5ce12ca07038","ios":"levelo://app?vid=841d87f1-853c-4cc4-a6ab-5ce12ca07038"},"vehicle_type_id":"4","last_reported":1704312473,"current_range_meters":20800,"station_id":"","pricing_plan_id":"free"},{"bike_id":"604d52a4-7041-4d46-85c2-1560c1c5b423","system_id":"levelo_inurba_marseille","lat":43.2936,"lon":5.37835,"is_reserved":false,"is_disabled":false,"rental_uris":{"android":"levelo://app?vid=604d52a4-7041-4d46-85c2-1560c1c5b423","ios":"levelo://app?vid=604d52a4-7041-4d46-85c2-1560c1c5b423"},"vehicle_type_id":"4","last_reported":1704312473,"current_range_meters":20800,"station_id":"ce4bgjh2rcd13ifvqbf0","pricing_plan_id":"free"},{"bike_id":"0335ee4d-b8d1-4700-8dff-e1974ac16b11","system_id":"levelo_inurba_marseille","lat":43.29272,"lon":5.37615,"is_reserved":false,"is_disabled":false,"rental_uris":{"android":"levelo://app?vid=0335ee4d-b8d1-4700-8dff-e1974ac16b11","ios":"levelo://app?vid=0335ee4d-b8d1-4700-8dff-e1974ac16b11"},"vehicle_type_id":"4","last_reported":1704312473,"current_range_meters":8000,"station_id":"","pricing_plan_id":"free"},{"bike_id":"bee0d25e-5928-4166-a427-6e32ca8691d8","system_id":"levelo_inurba_marseille","lat":43.292609,"lon":5.3762,"is_reserved":false,"is_disabled":false,"rental_uris":{"android":"levelo://app?vid=bee0d25e-5928-4166-a427-6e32ca8691d8","ios":"levelo://app?vid=bee0d25e-5928-4166-a427-6e32ca8691d8"},"vehicle_type_id":"4","last_reported":1704312473,"current_range_meters":14400,"station_id":"","pricing_plan_id":"free"},{"bike_id":"8f86e043-0dac-4467-b8ef-615961dba736","system_id":"levelo_inurba_marseille","lat":43.298702,"lon":5.388996,"is_reserved":false,"is_disabled":false,"rental_uris":{"android":"levelo://app?vid=8f86e043-0dac-4467-b8ef-615961dba736","ios":"levelo://app?vid=8f86e043-0dac-4467-b8ef-615961dba736"},"vehicle_type_id":"4","last_reported":1704312473,"current_range_meters":24400,"station_id":"","pricing_plan_id":"free"},{"bike_id":"8c75c840-5d05-4083-8415-273f5a4aeaf3","system_id":"levelo_inurba_marseille","lat":43.298698,"lon":5.389103,"is_reserved":false,"is_disabled":false,"rental_uris":{"android":"levelo://app?vid=8c75c840-5d05-4083-8415-273f5a4aeaf3","ios":"levelo://app?vid=8c75c840-5d05-4083-8415-273f5a4aeaf3"},"vehicle_type_id":"4","last_reported":1704312473,"current_range_meters":2800,"station_id":"","pricing_plan_id":"free"},{"bike_id":"4a9311c4-4db5-4367-b1f7-d435bd185033","system_id":"levelo_inurba_marseille","lat":43.33182,"lon":5.38075,"is_reserved":false,"is_disabled":false,"rental_uris":{"android":"levelo://app?vid=4a9311c4-4db5-4367-b1f7-d435bd185033","ios":"levelo://app?vid=4a9311c4-4db5-4367-b1f7-d435bd185033"},"vehicle_type_id":"4","last_reported":1704312473,"current_range_meters":9600,"station_id":"","pricing_plan_id":"free"},{"bike_id":"7f7c01df-ff2f-4da9-bb63-e147698deda9","system_id":"levelo_inurba_marseille","lat":43.30886,"lon":5.39634,"is_reserved":false,"is_disabled":false,"rental_uris":{"android":"levelo://app?vid=7f7c01df-ff2f-4da9-bb63-e147698deda9","ios":"levelo://app?vid=7f7c01df-ff2f-4da9-bb63-e147698deda9"},"vehicle_type_id":"4","last_reported":1704312473,"current_range_meters":0,"station_id":"ce4bh012rcd13ifvqcv0","pricing_plan_id":"free"},{"bike_id":"4e6e447a-17f6-4981-ac18-91ec05c1f791","system_id":"levelo_inurba_marseille","lat":43.313291,"lon":5.396838,"is_reserved":false,"is_disabled":false,"rental_uris":{"android":"levelo://app?vid=4e6e447a-17f6-4981-ac18-91ec05c1f791","ios":"levelo://app?vid=4e6e447a-17f6-4981-ac18-91ec05c1f791"},"vehicle_type_id":"4","last_reported":1704312473,"current_range_meters":28800,"station_id":"ce4bgvp2rcd13ifvqcu0","pricing_plan_id":"free"},{"bike_id":"b9d5d6bb-b122-457b-bf67-61aeee7a48e7","system_id":"levelo_inurba_marseille","lat":43.313291,"lon":5.396838,"is_reserved":false,"is_disabled":false,"rental_uris":{"android":"levelo://app?vid=b9d5d6bb-b122-457b-bf67-61aeee7a48e7","ios":"levelo://app?vid=b9d5d6bb-b122-457b-bf67-61aeee7a48e7"},"vehicle_type_id":"4","last_reported":1704312473,"current_range_meters":2400,"station_id":"ce4bgvp2rcd13ifvqcu0","pricing_plan_id":"free"},{"bike_id":"dfebc943-e094-4094-b5b8-1edfe748e45e","system_id":"levelo_inurba_marseille","lat":43.3088,"lon":5.39638,"is_reserved":false,"is_disabled":false,"rental_uris":{"android":"levelo://app?vid=dfebc943-e094-4094-b5b8-1edfe748e45e","ios":"levelo://app?vid=dfebc943-e094-4094-b5b8-1edfe748e45e"},"vehicle_type_id":"4","last_reported":1704312473,"current_range_meters":8800,"station_id":"ce4bh012rcd13ifvqcv0","pricing_plan_id":"free"},{"bike_id":"bbaa65b3-f133-4877-b49f-27299792c8f5","system_id":"levelo_inurba_marseille","lat":43.313291,"lon":5.396838,"is_reserved":false,"is_disabled":false,"rental_uris":{"android":"levelo://app?vid=bbaa65b3-f133-4877-b49f-27299792c8f5","ios":"levelo://app?vid=bbaa65b3-f133-4877-b49f-27299792c8f5"},"vehicle_type_id":"4","last_reported":1704312473,"current_range_meters":10800,"station_id":"ce4bgvp2rcd13ifvqcu0","pricing_plan_id":"free"},{"bike_id":"4618c8c4-91b4-4c5b-9667-4b1388c43278","system_id":"levelo_inurba_marseille","lat":43.313291,"lon":5.396838,"is_reserved":false,"is_disabled":false,"rental_uris":{"android":"levelo://app?vid=4618c8c4-91b4-4c5b-9667-4b1388c43278","ios":"levelo://app?vid=4618c8c4-91b4-4c5b-9667-4b1388c43278"},"vehicle_type_id":"4","last_reported":1704312473,"current_range_meters":14400,"station_id":"ce4bgvp2rcd13ifvqcu0","pricing_plan_id":"free"},{"bike_id":"4632b70d-b9bd-4373-84dd-9a7c8befe5cf","system_id":"levelo_inurba_marseille","lat":43.313291,"lon":5.396838,"is_reserved":false,"is_disabled":false,"rental_uris":{"android":"levelo://app?vid=4632b70d-b9bd-4373-84dd-9a7c8befe5cf","ios":"levelo://app?vid=4632b70d-b9bd-4373-84dd-9a7c8befe5cf"},"vehicle_type_id":"4","last_reported":1704312473,"current_range_meters":0,"station_id":"ce4bgvp2rcd13ifvqcu0","pricing_plan_id":"free"},{"bike_id":"8205d084-c47b-4fd2-ab65-c1ed9e2ca6ac","system_id":"levelo_inurba_marseille","lat":43.313291,"lon":5.396838,"is_reserved":false,"is_disabled":false,"rental_uris":{"android":"levelo://app?vid=8205d084-c47b-4fd2-ab65-c1ed9e2ca6ac","ios":"levelo://app?vid=8205d084-c47b-4fd2-ab65-c1ed9e2ca6ac"},"vehicle_type_id":"4","last_reported":1704312473,"current_range_meters":17200,"station_id":"ce4bgvp2rcd13ifvqcu0","pricing_plan_id":"free"},{"bike_id":"82d1f46b-b236-4828-a9e7-962a314b4a66","system_id":"levelo_inurba_marseille","lat":43.313291,"lon":5.396838,"is_reserved":false,"is_disabled":false,"rental_uris":{"android":"levelo://app?vid=82d1f46b-b236-4828-a9e7-962a314b4a66","ios":"levelo://app?vid=82d1f46b-b236-4828-a9e7-962a314b4a66"},"vehicle_type_id":"4","last_reported":1704312473,"current_range_meters":24400,"station_id":"ce4bgvp2rcd13ifvqcu0","pricing_plan_id":"free"},{"bike_id":"ac200040-1a82-4963-b4a5-725d0db99592","system_id":"levelo_inurba_marseille","lat":43.309038,"lon":5.396546,"is_reserved":false,"is_disabled":false,"rental_uris":{"android":"levelo://app?vid=ac200040-1a82-4963-b4a5-725d0db99592","ios":"levelo://app?vid=ac200040-1a82-4963-b4a5-725d0db99592"},"vehicle_type_id":"4","last_reported":1704312473,"current_range_meters":4800,"station_id":"ce4bh012rcd13ifvqcv0","pricing_plan_id":"free"},{"bike_id":"52cb9422-bdda-444e-acf8-53ea52ac4c8d","system_id":"levelo_inurba_marseille","lat":43.309047,"lon":5.396551,"is_reserved":false,"is_disabled":false,"rental_uris":{"android":"levelo://app?vid=52cb9422-bdda-444e-acf8-53ea52ac4c8d","ios":"levelo://app?vid=52cb9422-bdda-444e-acf8-53ea52ac4c8d"},"vehicle_type_id":"4","last_reported":1704312473,"current_range_meters":23600,"station_id":"ce4bh012rcd13ifvqcv0","pricing_plan_id":"free"},{"bike_id":"db0b473c-b957-4b85-92d4-070515c92a07","system_id":"levelo_inurba_marseille","lat":43.309038,"lon":5.396546,"is_reserved":false,"is_disabled":false,"rental_uris":{"android":"levelo://app?vid=db0b473c-b957-4b85-92d4-070515c92a07","ios":"levelo://app?vid=db0b473c-b957-4b85-92d4-070515c92a07"},"vehicle_type_id":"4","last_reported":1704312473,"current_range_meters":30400,"station_id":"ce4bh012rcd13ifvqcv0","pricing_plan_id":"free"},{"bike_id":"bcfa8101-8549-4290-95ee-c9ef9f526b61","system_id":"levelo_inurba_marseille","lat":43.309038,"lon":5.396546,"is_reserved":false,"is_disabled":false,"rental_uris":{"android":"levelo://app?vid=bcfa8101-8549-4290-95ee-c9ef9f526b61","ios":"levelo://app?vid=bcfa8101-8549-4290-95ee-c9ef9f526b61"},"vehicle_type_id":"4","last_reported":1704312473,"current_range_meters":12400,"station_id":"ce4bh012rcd13ifvqcv0","pricing_plan_id":"free"},{"bike_id":"66972551-0bf5-4cd8-b102-ef9ac86488e4","system_id":"levelo_inurba_marseille","lat":43.309038,"lon":5.396546,"is_reserved":false,"is_disabled":false,"rental_uris":{"android":"levelo://app?vid=66972551-0bf5-4cd8-b102-ef9ac86488e4","ios":"levelo://app?vid=66972551-0bf5-4cd8-b102-ef9ac86488e4"},"vehicle_type_id":"4","last_reported":1704312473,"current_range_meters":0,"station_id":"ce4bh012rcd13ifvqcv0","pricing_plan_id":"free"},{"bike_id":"31361286-2cac-4459-af7c-94abe9b7a69d","system_id":"levelo_inurba_marseille","lat":43.308806,"lon":5.39655,"is_reserved":false,"is_disabled":false,"rental_uris":{"android":"levelo://app?vid=31361286-2cac-4459-af7c-94abe9b7a69d","ios":"levelo://app?vid=31361286-2cac-4459-af7c-94abe9b7a69d"},"vehicle_type_id":"4","last_reported":1704312473,"current_range_meters":16000,"station_id":"ce4bh012rcd13ifvqcv0","pricing_plan_id":"free"},{"bike_id":"8d368af0-3de7-4857-9748-b51fbbf65cde","system_id":"levelo_inurba_marseille","lat":43.309038,"lon":5.396546,"is_reserved":false,"is_disabled":false,"rental_uris":{"android":"levelo://app?vid=8d368af0-3de7-4857-9748-b51fbbf65cde","ios":"levelo://app?vid=8d368af0-3de7-4857-9748-b51fbbf65cde"},"vehicle_type_id":"4","last_reported":1704312473,"current_range_meters":1200,"station_id":"ce4bh012rcd13ifvqcv0","pricing_plan_id":"free"},{"bike_id":"d0072676-6cf8-48d5-8063-399c6ed718a0","system_id":"levelo_inurba_marseille","lat":43.302008,"lon":5.394694,"is_reserved":false,"is_disabled":false,"rental_uris":{"android":"levelo://app?vid=d0072676-6cf8-48d5-8063-399c6ed718a0","ios":"levelo://app?vid=d0072676-6cf8-48d5-8063-399c6ed718a0"},"vehicle_type_id":"4","last_reported":1704312473,"current_range_meters":20400,"station_id":"ce4bh0p2rcd13ifvqd70","pricing_plan_id":"free"},{"bike_id":"ca2fe1a5-caa9-4889-bcb4-62a27c64db42","system_id":"levelo_inurba_marseille","lat":43.302008,"lon":5.394694,"is_reserved":false,"is_disabled":false,"rental_uris":{"android":"levelo://app?vid=ca2fe1a5-caa9-4889-bcb4-62a27c64db42","ios":"levelo://app?vid=ca2fe1a5-caa9-4889-bcb4-62a27c64db42"},"vehicle_type_id":"4","last_reported":1704312473,"current_range_meters":4800,"station_id":"ce4bh0p2rcd13ifvqd70","pricing_plan_id":"free"},{"bike_id":"fd72e394-d9a3-4447-97d1-0c6f10a41ec4","system_id":"levelo_inurba_marseille","lat":43.290624,"lon":5.359245,"is_reserved":false,"is_disabled":false,"rental_uris":{"android":"levelo://app?vid=fd72e394-d9a3-4447-97d1-0c6f10a41ec4","ios":"levelo://app?vid=fd72e394-d9a3-4447-97d1-0c6f10a41ec4"},"vehicle_type_id":"4","last_reported":1704312473,"current_range_meters":14400,"station_id":"ce4bha92rcd13ifvqeg0","pricing_plan_id":"free"},{"bike_id":"a8844d8c-366b-4bfb-97fa-965111a7354c","system_id":"levelo_inurba_marseille","lat":43.290327,"lon":5.375711,"is_reserved":false,"is_disabled":false,"rental_uris":{"android":"levelo://app?vid=a8844d8c-366b-4bfb-97fa-965111a7354c","ios":"levelo://app?vid=a8844d8c-366b-4bfb-97fa-965111a7354c"},"vehicle_type_id":"4","last_reported":1704312473,"current_range_meters":27600,"station_id":"ce4bh692rcd13ifvqe90","pricing_plan_id":"free"},{"bike_id":"d6c4e73a-d563-4894-b881-3bf4e24bd3aa","system_id":"levelo_inurba_marseille","lat":43.289184,"lon":5.366408,"is_reserved":false,"is_disabled":false,"rental_uris":{"android":"levelo://app?vid=d6c4e73a-d563-4894-b881-3bf4e24bd3aa","ios":"levelo://app?vid=d6c4e73a-d563-4894-b881-3bf4e24bd3aa"},"vehicle_type_id":"4","last_reported":1704312473,"current_range_meters":27600,"station_id":"ce4bhap2rcd13ifvqek0","pricing_plan_id":"free"},{"bike_id":"fa829f85-eccd-43ce-a02e-8bb078eca9fd","system_id":"levelo_inurba_marseille","lat":43.289184,"lon":5.366408,"is_reserved":false,"is_disabled":false,"rental_uris":{"android":"levelo://app?vid=fa829f85-eccd-43ce-a02e-8bb078eca9fd","ios":"levelo://app?vid=fa829f85-eccd-43ce-a02e-8bb078eca9fd"},"vehicle_type_id":"4","last_reported":1704312473,"current_range_meters":0,"station_id":"ce4bhap2rcd13ifvqek0","pricing_plan_id":"free"},{"bike_id":"0c437dcb-5577-4cd3-8d8c-ab3cd599e1f1","system_id":"levelo_inurba_marseille","lat":43.292564,"lon":5.3833,"is_reserved":false,"is_disabled":false,"rental_uris":{"android":"levelo://app?vid=0c437dcb-5577-4cd3-8d8c-ab3cd599e1f1","ios":"levelo://app?vid=0c437dcb-5577-4cd3-8d8c-ab3cd599e1f1"},"vehicle_type_id":"4","last_reported":1704312473,"current_range_meters":21200,"station_id":"","pricing_plan_id":"free"},{"bike_id":"aba8ad64-7f46-4b15-bbe5-432a1730db4d","system_id":"levelo_inurba_marseille","lat":43.304274,"lon":5.397513,"is_reserved":false,"is_disabled":false,"rental_uris":{"android":"levelo://app?vid=aba8ad64-7f46-4b15-bbe5-432a1730db4d","ios":"levelo://app?vid=aba8ad64-7f46-4b15-bbe5-432a1730db4d"},"vehicle_type_id":"4","last_reported":1704312473,"current_range_meters":28000,"station_id":"ce4bh092rcd13ifvqd20","pricing_plan_id":"free"},{"bike_id":"101b0cc9-b5f1-40c9-9ef7-92374dc53540","system_id":"levelo_inurba_marseille","lat":43.29262,"lon":5.3844,"is_reserved":false,"is_disabled":false,"rental_uris":{"android":"levelo://app?vid=101b0cc9-b5f1-40c9-9ef7-92374dc53540","ios":"levelo://app?vid=101b0cc9-b5f1-40c9-9ef7-92374dc53540"},"vehicle_type_id":"4","last_reported":1704312473,"current_range_meters":0,"station_id":"ce4bh692rcd13ifvqea0","pricing_plan_id":"free"},{"bike_id":"7bcfaf0c-db40-4049-9e62-e165192f445d","system_id":"levelo_inurba_marseille","lat":43.29267,"lon":5.38452,"is_reserved":false,"is_disabled":false,"rental_uris":{"android":"levelo://app?vid=7bcfaf0c-db40-4049-9e62-e165192f445d","ios":"levelo://app?vid=7bcfaf0c-db40-4049-9e62-e165192f445d"},"vehicle_type_id":"4","last_reported":1704312473,"current_range_meters":0,"station_id":"ce4bh692rcd13ifvqea0","pricing_plan_id":"free"},{"bike_id":"bb58d015-63e3-45a9-9723-5d54e87219a0","system_id":"levelo_inurba_marseille","lat":43.304296,"lon":5.397513,"is_reserved":false,"is_disabled":false,"rental_uris":{"android":"levelo://app?vid=bb58d015-63e3-45a9-9723-5d54e87219a0","ios":"levelo://app?vid=bb58d015-63e3-45a9-9723-5d54e87219a0"},"vehicle_type_id":"4","last_reported":1704312473,"current_range_meters":8400,"station_id":"ce4bh092rcd13ifvqd20","pricing_plan_id":"free"},{"bike_id":"8f60c0cd-bcc8-42c3-9973-824c2c1dd492","system_id":"levelo_inurba_marseille","lat":43.296921,"lon":5.376579,"is_reserved":false,"is_disabled":false,"rental_uris":{"android":"levelo://app?vid=8f60c0cd-bcc8-42c3-9973-824c2c1dd492","ios":"levelo://app?vid=8f60c0cd-bcc8-42c3-9973-824c2c1dd492"},"vehicle_type_id":"4","last_reported":1704312473,"current_range_meters":30400,"station_id":"ce4bgkh2rcd13ifvqbl0","pricing_plan_id":"free"},{"bike_id":"c3e2f972-3136-4680-a087-d4eb992bac85","system_id":"levelo_inurba_marseille","lat":43.304296,"lon":5.397513,"is_reserved":false,"is_disabled":false,"rental_uris":{"android":"levelo://app?vid=c3e2f972-3136-4680-a087-d4eb992bac85","ios":"levelo://app?vid=c3e2f972-3136-4680-a087-d4eb992bac85"},"vehicle_type_id":"4","last_reported":1704312473,"current_range_meters":20400,"station_id":"ce4bh092rcd13ifvqd20","pricing_plan_id":"free"},{"bike_id":"3214b76d-0390-44a9-8091-e02429372c31","system_id":"levelo_inurba_marseille","lat":43.29256,"lon":5.38452,"is_reserved":false,"is_disabled":false,"rental_uris":{"android":"levelo://app?vid=3214b76d-0390-44a9-8091-e02429372c31","ios":"levelo://app?vid=3214b76d-0390-44a9-8091-e02429372c31"},"vehicle_type_id":"4","last_reported":1704312473,"current_range_meters":0,"station_id":"ce4bh692rcd13ifvqea0","pricing_plan_id":"free"},{"bike_id":"c0f78171-2e0a-4e1c-bdc6-54db651d0e22","system_id":"levelo_inurba_marseille","lat":43.290103,"lon":5.356114,"is_reserved":false,"is_disabled":false,"rental_uris":{"android":"levelo://app?vid=c0f78171-2e0a-4e1c-bdc6-54db651d0e22","ios":"levelo://app?vid=c0f78171-2e0a-4e1c-bdc6-54db651d0e22"},"vehicle_type_id":"4","last_reported":1704312473,"current_range_meters":25200,"station_id":"ce4bhb92rcd13ifvqen0","pricing_plan_id":"free"},{"bike_id":"89dd4cee-c6d2-44dc-b80a-3d2871f40b88","system_id":"levelo_inurba_marseille","lat":43.290995,"lon":5.381361,"is_reserved":false,"is_disabled":false,"rental_uris":{"android":"levelo://app?vid=89dd4cee-c6d2-44dc-b80a-3d2871f40b88","ios":"levelo://app?vid=89dd4cee-c6d2-44dc-b80a-3d2871f40b88"},"vehicle_type_id":"4","last_reported":1704312473,"current_range_meters":3200,"station_id":"ce4bh512rcd13ifvqe2g","pricing_plan_id":"free"},{"bike_id":"4bb06369-461a-4bbf-a66a-8c371d92863c","system_id":"levelo_inurba_marseille","lat":43.29789,"lon":5.39334,"is_reserved":false,"is_disabled":false,"rental_uris":{"android":"levelo://app?vid=4bb06369-461a-4bbf-a66a-8c371d92863c","ios":"levelo://app?vid=4bb06369-461a-4bbf-a66a-8c371d92863c"},"vehicle_type_id":"4","last_reported":1704312473,"current_range_meters":22000,"station_id":"chh1huq6cuj3fo74tm60","pricing_plan_id":"free"},{"bike_id":"437fda1a-75a8-4281-8e17-87c545b925fe","system_id":"levelo_inurba_marseille","lat":43.29793,"lon":5.393498,"is_reserved":false,"is_disabled":false,"rental_uris":{"android":"levelo://app?vid=437fda1a-75a8-4281-8e17-87c545b925fe","ios":"levelo://app?vid=437fda1a-75a8-4281-8e17-87c545b925fe"},"vehicle_type_id":"4","last_reported":1704312473,"current_range_meters":6400,"station_id":"chh1huq6cuj3fo74tm60","pricing_plan_id":"free"},{"bike_id":"7a95e6bc-35c5-447e-af6d-12db5479cb7d","system_id":"levelo_inurba_marseille","lat":43.297815,"lon":5.393548,"is_reserved":false,"is_disabled":false,"rental_uris":{"android":"levelo://app?vid=7a95e6bc-35c5-447e-af6d-12db5479cb7d","ios":"levelo://app?vid=7a95e6bc-35c5-447e-af6d-12db5479cb7d"},"vehicle_type_id":"4","last_reported":1704312473,"current_range_meters":8000,"station_id":"chh1huq6cuj3fo74tm60","pricing_plan_id":"free"},{"bike_id":"b9f1870d-91b7-4991-8da2-fb88515c5d8e","system_id":"levelo_inurba_marseille","lat":43.330442,"lon":5.389148,"is_reserved":false,"is_disabled":false,"rental_uris":{"android":"levelo://app?vid=b9f1870d-91b7-4991-8da2-fb88515c5d8e","ios":"levelo://app?vid=b9f1870d-91b7-4991-8da2-fb88515c5d8e"},"vehicle_type_id":"4","last_reported":1704312473,"current_range_meters":17600,"station_id":"ce4bhr92rcd13ifvqhrg","pricing_plan_id":"free"},{"bike_id":"b4dc5f58-d698-47e4-9d04-a65a1aac924a","system_id":"levelo_inurba_marseille","lat":43.330442,"lon":5.389148,"is_reserved":false,"is_disabled":false,"rental_uris":{"android":"levelo://app?vid=b4dc5f58-d698-47e4-9d04-a65a1aac924a","ios":"levelo://app?vid=b4dc5f58-d698-47e4-9d04-a65a1aac924a"},"vehicle_type_id":"4","last_reported":1704312473,"current_range_meters":12400,"station_id":"ce4bhr92rcd13ifvqhrg","pricing_plan_id":"free"},{"bike_id":"3537c72e-affb-4603-a0d4-44c57db301e5","system_id":"levelo_inurba_marseille","lat":43.330442,"lon":5.389148,"is_reserved":false,"is_disabled":false,"rental_uris":{"android":"levelo://app?vid=3537c72e-affb-4603-a0d4-44c57db301e5","ios":"levelo://app?vid=3537c72e-affb-4603-a0d4-44c57db301e5"},"vehicle_type_id":"4","last_reported":1704312473,"current_range_meters":9200,"station_id":"ce4bhr92rcd13ifvqhrg","pricing_plan_id":"free"},{"bike_id":"a4544299-4117-4ba4-98ad-2dcd1cebe1e8","system_id":"levelo_inurba_marseille","lat":43.330442,"lon":5.389148,"is_reserved":false,"is_disabled":false,"rental_uris":{"android":"levelo://app?vid=a4544299-4117-4ba4-98ad-2dcd1cebe1e8","ios":"levelo://app?vid=a4544299-4117-4ba4-98ad-2dcd1cebe1e8"},"vehicle_type_id":"4","last_reported":1704312473,"current_range_meters":23600,"station_id":"ce4bhr92rcd13ifvqhrg","pricing_plan_id":"free"},{"bike_id":"d9852308-447b-4d56-ba4c-f18536f77895","system_id":"levelo_inurba_marseille","lat":43.295169,"lon":5.390426,"is_reserved":false,"is_disabled":false,"rental_uris":{"android":"levelo://app?vid=d9852308-447b-4d56-ba4c-f18536f77895","ios":"levelo://app?vid=d9852308-447b-4d56-ba4c-f18536f77895"},"vehicle_type_id":"4","last_reported":1704312473,"current_range_meters":29200,"station_id":"ce4bh3p2rcd13ifvqdp0","pricing_plan_id":"free"},{"bike_id":"a45508dc-3e20-4dc2-a3f2-c48092cac22d","system_id":"levelo_inurba_marseille","lat":43.330442,"lon":5.389148,"is_reserved":false,"is_disabled":false,"rental_uris":{"android":"levelo://app?vid=a45508dc-3e20-4dc2-a3f2-c48092cac22d","ios":"levelo://app?vid=a45508dc-3e20-4dc2-a3f2-c48092cac22d"},"vehicle_type_id":"4","last_reported":1704312473,"current_range_meters":6400,"station_id":"ce4bhr92rcd13ifvqhrg","pricing_plan_id":"free"},{"bike_id":"76d7e895-280d-46ab-a811-ec2c6987f4ce","system_id":"levelo_inurba_marseille","lat":43.295169,"lon":5.390426,"is_reserved":false,"is_disabled":false,"rental_uris":{"android":"levelo://app?vid=76d7e895-280d-46ab-a811-ec2c6987f4ce","ios":"levelo://app?vid=76d7e895-280d-46ab-a811-ec2c6987f4ce"},"vehicle_type_id":"4","last_reported":1704312473,"current_range_meters":0,"station_id":"ce4bh3p2rcd13ifvqdp0","pricing_plan_id":"free"},{"bike_id":"c8a89af1-576f-428f-b43f-c8ac30d412d1","system_id":"levelo_inurba_marseille","lat":43.28856,"lon":5.358371,"is_reserved":false,"is_disabled":false,"rental_uris":{"android":"levelo://app?vid=c8a89af1-576f-428f-b43f-c8ac30d412d1","ios":"levelo://app?vid=c8a89af1-576f-428f-b43f-c8ac30d412d1"},"vehicle_type_id":"4","last_reported":1704312473,"current_range_meters":18400,"station_id":"ce4bhb12rcd13ifvqem0","pricing_plan_id":"free"},{"bike_id":"11c31758-c676-4a53-a779-a9081b37aa00","system_id":"levelo_inurba_marseille","lat":43.290094,"lon":5.381264,"is_reserved":false,"is_disabled":false,"rental_uris":{"android":"levelo://app?vid=11c31758-c676-4a53-a779-a9081b37aa00","ios":"levelo://app?vid=11c31758-c676-4a53-a779-a9081b37aa00"},"vehicle_type_id":"4","last_reported":1704312473,"current_range_meters":14400,"station_id":"ce4bh4p2rcd13ifvqe1g","pricing_plan_id":"free"},{"bike_id":"1e16a714-6cd7-4cab-a8bf-3d460d19a2a2","system_id":"levelo_inurba_marseille","lat":43.28856,"lon":5.358371,"is_reserved":false,"is_disabled":false,"rental_uris":{"android":"levelo://app?vid=1e16a714-6cd7-4cab-a8bf-3d460d19a2a2","ios":"levelo://app?vid=1e16a714-6cd7-4cab-a8bf-3d460d19a2a2"},"vehicle_type_id":"4","last_reported":1704312473,"current_range_meters":8400,"station_id":"ce4bhb12rcd13ifvqem0","pricing_plan_id":"free"},{"bike_id":"3e2f2edd-b93e-4bf2-be71-a5f91a327f6f","system_id":"levelo_inurba_marseille","lat":43.288554,"lon":5.358638,"is_reserved":false,"is_disabled":false,"rental_uris":{"android":"levelo://app?vid=3e2f2edd-b93e-4bf2-be71-a5f91a327f6f","ios":"levelo://app?vid=3e2f2edd-b93e-4bf2-be71-a5f91a327f6f"},"vehicle_type_id":"4","last_reported":1704312473,"current_range_meters":26400,"station_id":"ce4bhb12rcd13ifvqem0","pricing_plan_id":"free"},{"bike_id":"bf8cbc99-1c75-4030-9950-2229ecf52928","system_id":"levelo_inurba_marseille","lat":43.288413,"lon":5.358579,"is_reserved":false,"is_disabled":false,"rental_uris":{"android":"levelo://app?vid=bf8cbc99-1c75-4030-9950-2229ecf52928","ios":"levelo://app?vid=bf8cbc99-1c75-4030-9950-2229ecf52928"},"vehicle_type_id":"4","last_reported":1704312473,"current_range_meters":22000,"station_id":"ce4bhb12rcd13ifvqem0","pricing_plan_id":"free"},{"bike_id":"2c0d1c7a-52d6-45c8-b950-66774576aada","system_id":"levelo_inurba_marseille","lat":43.33734,"lon":5.37442,"is_reserved":false,"is_disabled":false,"rental_uris":{"android":"levelo://app?vid=2c0d1c7a-52d6-45c8-b950-66774576aada","ios":"levelo://app?vid=2c0d1c7a-52d6-45c8-b950-66774576aada"},"vehicle_type_id":"4","last_reported":1704312473,"current_range_meters":26400,"station_id":"","pricing_plan_id":"free"},{"bike_id":"56eea705-8312-497c-a7a5-2d086e47098a","system_id":"levelo_inurba_marseille","lat":43.312609,"lon":5.401662,"is_reserved":false,"is_disabled":false,"rental_uris":{"android":"levelo://app?vid=56eea705-8312-497c-a7a5-2d086e47098a","ios":"levelo://app?vid=56eea705-8312-497c-a7a5-2d086e47098a"},"vehicle_type_id":"4","last_reported":1704312473,"current_range_meters":20800,"station_id":"ce4bh092rcd13ifvqd30","pricing_plan_id":"free"},{"bike_id":"e0179918-445e-4cbe-b3fa-576a3d6075b5","system_id":"levelo_inurba_marseille","lat":43.33745,"lon":5.37449,"is_reserved":false,"is_disabled":false,"rental_uris":{"android":"levelo://app?vid=e0179918-445e-4cbe-b3fa-576a3d6075b5","ios":"levelo://app?vid=e0179918-445e-4cbe-b3fa-576a3d6075b5"},"vehicle_type_id":"4","last_reported":1704312473,"current_range_meters":30400,"station_id":"","pricing_plan_id":"free"},{"bike_id":"c473dc02-8994-4174-a9e4-3a30dad995ff","system_id":"levelo_inurba_marseille","lat":43.33746,"lon":5.374443,"is_reserved":false,"is_disabled":false,"rental_uris":{"android":"levelo://app?vid=c473dc02-8994-4174-a9e4-3a30dad995ff","ios":"levelo://app?vid=c473dc02-8994-4174-a9e4-3a30dad995ff"},"vehicle_type_id":"4","last_reported":1704312473,"current_range_meters":28800,"station_id":"","pricing_plan_id":"free"},{"bike_id":"30fd1d34-48e0-43f9-b460-0e8b66eba17f","system_id":"levelo_inurba_marseille","lat":43.312609,"lon":5.401662,"is_reserved":false,"is_disabled":false,"rental_uris":{"android":"levelo://app?vid=30fd1d34-48e0-43f9-b460-0e8b66eba17f","ios":"levelo://app?vid=30fd1d34-48e0-43f9-b460-0e8b66eba17f"},"vehicle_type_id":"4","last_reported":1704312473,"current_range_meters":22800,"station_id":"ce4bh092rcd13ifvqd30","pricing_plan_id":"free"},{"bike_id":"cf21f113-3dc6-4a4d-beda-1c56139d5517","system_id":"levelo_inurba_marseille","lat":43.33746,"lon":5.37458,"is_reserved":false,"is_disabled":false,"rental_uris":{"android":"levelo://app?vid=cf21f113-3dc6-4a4d-beda-1c56139d5517","ios":"levelo://app?vid=cf21f113-3dc6-4a4d-beda-1c56139d5517"},"vehicle_type_id":"4","last_reported":1704312473,"current_range_meters":30400,"station_id":"","pricing_plan_id":"free"},{"bike_id":"faee7e2c-01fc-4e91-aff6-451e1e53df63","system_id":"levelo_inurba_marseille","lat":43.309371,"lon":5.401449,"is_reserved":false,"is_disabled":false,"rental_uris":{"android":"levelo://app?vid=faee7e2c-01fc-4e91-aff6-451e1e53df63","ios":"levelo://app?vid=faee7e2c-01fc-4e91-aff6-451e1e53df63"},"vehicle_type_id":"4","last_reported":1704312473,"current_range_meters":0,"station_id":"ce4bgvp2rcd13ifvqct0","pricing_plan_id":"free"},{"bike_id":"b0952245-9fb6-48db-ada0-ffa31ed5e542","system_id":"levelo_inurba_marseille","lat":43.30927,"lon":5.40148,"is_reserved":false,"is_disabled":false,"rental_uris":{"android":"levelo://app?vid=b0952245-9fb6-48db-ada0-ffa31ed5e542","ios":"levelo://app?vid=b0952245-9fb6-48db-ada0-ffa31ed5e542"},"vehicle_type_id":"4","last_reported":1704312473,"current_range_meters":0,"station_id":"ce4bgvp2rcd13ifvqct0","pricing_plan_id":"free"},{"bike_id":"8436be69-9835-4bbb-8e22-574227ba5ba1","system_id":"levelo_inurba_marseille","lat":43.33755,"lon":5.37455,"is_reserved":false,"is_disabled":false,"rental_uris":{"android":"levelo://app?vid=8436be69-9835-4bbb-8e22-574227ba5ba1","ios":"levelo://app?vid=8436be69-9835-4bbb-8e22-574227ba5ba1"},"vehicle_type_id":"4","last_reported":1704312473,"current_range_meters":28000,"station_id":"","pricing_plan_id":"free"},{"bike_id":"f963ecae-ccdf-4b8b-8e48-49346eba778a","system_id":"levelo_inurba_marseille","lat":43.28727,"lon":5.36078,"is_reserved":false,"is_disabled":false,"rental_uris":{"android":"levelo://app?vid=f963ecae-ccdf-4b8b-8e48-49346eba778a","ios":"levelo://app?vid=f963ecae-ccdf-4b8b-8e48-49346eba778a"},"vehicle_type_id":"4","last_reported":1704312473,"current_range_meters":22400,"station_id":"cki0cbj6b192h4jlfktg","pricing_plan_id":"free"},{"bike_id":"1fae5872-4781-4be3-a7e3-08510609eb2a","system_id":"levelo_inurba_marseille","lat":43.28727,"lon":5.36078,"is_reserved":false,"is_disabled":false,"rental_uris":{"android":"levelo://app?vid=1fae5872-4781-4be3-a7e3-08510609eb2a","ios":"levelo://app?vid=1fae5872-4781-4be3-a7e3-08510609eb2a"},"vehicle_type_id":"4","last_reported":1704312473,"current_range_meters":23600,"station_id":"cki0cbj6b192h4jlfktg","pricing_plan_id":"free"},{"bike_id":"b896c28b-8222-419c-94f7-2c9bc6c4b90e","system_id":"levelo_inurba_marseille","lat":43.286593,"lon":5.363346,"is_reserved":false,"is_disabled":false,"rental_uris":{"android":"levelo://app?vid=b896c28b-8222-419c-94f7-2c9bc6c4b90e","ios":"levelo://app?vid=b896c28b-8222-419c-94f7-2c9bc6c4b90e"},"vehicle_type_id":"4","last_reported":1704312473,"current_range_meters":14400,"station_id":"ce4bhah2rcd13ifvqej0","pricing_plan_id":"free"},{"bike_id":"a89797a6-c69b-43b4-9930-63c48f9770ee","system_id":"levelo_inurba_marseille","lat":43.286961,"lon":5.373785,"is_reserved":false,"is_disabled":false,"rental_uris":{"android":"levelo://app?vid=a89797a6-c69b-43b4-9930-63c48f9770ee","ios":"levelo://app?vid=a89797a6-c69b-43b4-9930-63c48f9770ee"},"vehicle_type_id":"4","last_reported":1704312473,"current_range_meters":2400,"station_id":"ce4bh3p2rcd13ifvqdq0","pricing_plan_id":"free"},{"bike_id":"101a1ac2-9e31-49a5-ae3a-ae697a974c7c","system_id":"levelo_inurba_marseille","lat":43.286593,"lon":5.363346,"is_reserved":false,"is_disabled":false,"rental_uris":{"android":"levelo://app?vid=101a1ac2-9e31-49a5-ae3a-ae697a974c7c","ios":"levelo://app?vid=101a1ac2-9e31-49a5-ae3a-ae697a974c7c"},"vehicle_type_id":"4","last_reported":1704312473,"current_range_meters":27600,"station_id":"ce4bhah2rcd13ifvqej0","pricing_plan_id":"free"},{"bike_id":"b865ba43-f428-48d2-9b35-1cbc615199e4","system_id":"levelo_inurba_marseille","lat":43.286593,"lon":5.363346,"is_reserved":false,"is_disabled":false,"rental_uris":{"android":"levelo://app?vid=b865ba43-f428-48d2-9b35-1cbc615199e4","ios":"levelo://app?vid=b865ba43-f428-48d2-9b35-1cbc615199e4"},"vehicle_type_id":"4","last_reported":1704312473,"current_range_meters":23200,"station_id":"ce4bhah2rcd13ifvqej0","pricing_plan_id":"free"},{"bike_id":"2b9212d8-5c12-4bf3-96c9-cccc2ec9b286","system_id":"levelo_inurba_marseille","lat":43.286593,"lon":5.363346,"is_reserved":false,"is_disabled":false,"rental_uris":{"android":"levelo://app?vid=2b9212d8-5c12-4bf3-96c9-cccc2ec9b286","ios":"levelo://app?vid=2b9212d8-5c12-4bf3-96c9-cccc2ec9b286"},"vehicle_type_id":"4","last_reported":1704312473,"current_range_meters":27200,"station_id":"ce4bhah2rcd13ifvqej0","pricing_plan_id":"free"},{"bike_id":"a74fb89c-afd8-40a6-9e45-afeb337cfb62","system_id":"levelo_inurba_marseille","lat":43.286593,"lon":5.363346,"is_reserved":false,"is_disabled":false,"rental_uris":{"android":"levelo://app?vid=a74fb89c-afd8-40a6-9e45-afeb337cfb62","ios":"levelo://app?vid=a74fb89c-afd8-40a6-9e45-afeb337cfb62"},"vehicle_type_id":"4","last_reported":1704312473,"current_range_meters":17600,"station_id":"ce4bhah2rcd13ifvqej0","pricing_plan_id":"free"},{"bike_id":"1f0dcbee-eb1b-4e7d-9660-30633d5155a8","system_id":"levelo_inurba_marseille","lat":43.295194,"lon":5.39397,"is_reserved":false,"is_disabled":false,"rental_uris":{"android":"levelo://app?vid=1f0dcbee-eb1b-4e7d-9660-30633d5155a8","ios":"levelo://app?vid=1f0dcbee-eb1b-4e7d-9660-30633d5155a8"},"vehicle_type_id":"4","last_reported":1704312473,"current_range_meters":0,"station_id":"ce4bh292rcd13ifvqdf0","pricing_plan_id":"free"},{"bike_id":"e77689d6-9776-4f17-8393-8b191f02de70","system_id":"levelo_inurba_marseille","lat":43.302759,"lon":5.400793,"is_reserved":false,"is_disabled":false,"rental_uris":{"android":"levelo://app?vid=e77689d6-9776-4f17-8393-8b191f02de70","ios":"levelo://app?vid=e77689d6-9776-4f17-8393-8b191f02de70"},"vehicle_type_id":"4","last_reported":1704312473,"current_range_meters":27600,"station_id":"ce4bgvh2rcd13ifvqcs0","pricing_plan_id":"free"},{"bike_id":"41f160ee-9d8e-4960-8721-b5dc7ef09b3a","system_id":"levelo_inurba_marseille","lat":43.289307,"lon":5.38406,"is_reserved":false,"is_disabled":false,"rental_uris":{"android":"levelo://app?vid=41f160ee-9d8e-4960-8721-b5dc7ef09b3a","ios":"levelo://app?vid=41f160ee-9d8e-4960-8721-b5dc7ef09b3a"},"vehicle_type_id":"4","last_reported":1704312473,"current_range_meters":30000,"station_id":"ce4bh612rcd13ifvqe6g","pricing_plan_id":"free"},{"bike_id":"3cea8ed4-271c-480d-9e96-9ffb4427ff3a","system_id":"levelo_inurba_marseille","lat":43.290336,"lon":5.386425,"is_reserved":false,"is_disabled":false,"rental_uris":{"android":"levelo://app?vid=3cea8ed4-271c-480d-9e96-9ffb4427ff3a","ios":"levelo://app?vid=3cea8ed4-271c-480d-9e96-9ffb4427ff3a"},"vehicle_type_id":"4","last_reported":1704312473,"current_range_meters":22000,"station_id":"ce4bh4p2rcd13ifvqe0g","pricing_plan_id":"free"},{"bike_id":"b62474be-3489-4936-9e25-5f0492bebe6d","system_id":"levelo_inurba_marseille","lat":43.302759,"lon":5.400793,"is_reserved":false,"is_disabled":false,"rental_uris":{"android":"levelo://app?vid=b62474be-3489-4936-9e25-5f0492bebe6d","ios":"levelo://app?vid=b62474be-3489-4936-9e25-5f0492bebe6d"},"vehicle_type_id":"4","last_reported":1704312473,"current_range_meters":13600,"station_id":"ce4bgvh2rcd13ifvqcs0","pricing_plan_id":"free"},{"bike_id":"11bf2dda-ce59-4080-bd35-70c83a544e4a","system_id":"levelo_inurba_marseille","lat":43.302759,"lon":5.400793,"is_reserved":false,"is_disabled":false,"rental_uris":{"android":"levelo://app?vid=11bf2dda-ce59-4080-bd35-70c83a544e4a","ios":"levelo://app?vid=11bf2dda-ce59-4080-bd35-70c83a544e4a"},"vehicle_type_id":"4","last_reported":1704312473,"current_range_meters":12400,"station_id":"ce4bgvh2rcd13ifvqcs0","pricing_plan_id":"free"},{"bike_id":"d9b38e0d-2caa-46a3-9c01-8676640e9f06","system_id":"levelo_inurba_marseille","lat":43.286039,"lon":5.370679,"is_reserved":false,"is_disabled":false,"rental_uris":{"android":"levelo://app?vid=d9b38e0d-2caa-46a3-9c01-8676640e9f06","ios":"levelo://app?vid=d9b38e0d-2caa-46a3-9c01-8676640e9f06"},"vehicle_type_id":"4","last_reported":1704312473,"current_range_meters":22400,"station_id":"ce4bht12rcd13ifvqi60","pricing_plan_id":"free"},{"bike_id":"aa5bb3f1-bcce-4e74-9c9e-464524cf44e0","system_id":"levelo_inurba_marseille","lat":43.286039,"lon":5.370679,"is_reserved":false,"is_disabled":false,"rental_uris":{"android":"levelo://app?vid=aa5bb3f1-bcce-4e74-9c9e-464524cf44e0","ios":"levelo://app?vid=aa5bb3f1-bcce-4e74-9c9e-464524cf44e0"},"vehicle_type_id":"4","last_reported":1704312473,"current_range_meters":24800,"station_id":"ce4bht12rcd13ifvqi60","pricing_plan_id":"free"},{"bike_id":"d4efe913-617a-4427-83fb-407051eb27e6","system_id":"levelo_inurba_marseille","lat":43.287185,"lon":5.379373,"is_reserved":false,"is_disabled":false,"rental_uris":{"android":"levelo://app?vid=d4efe913-617a-4427-83fb-407051eb27e6","ios":"levelo://app?vid=d4efe913-617a-4427-83fb-407051eb27e6"},"vehicle_type_id":"4","last_reported":1704312473,"current_range_meters":11600,"station_id":"ce4bh9p2rcd13ifvqec0","pricing_plan_id":"free"},{"bike_id":"7886eaa6-4080-45a4-b584-10320559dd6b","system_id":"levelo_inurba_marseille","lat":43.316828,"lon":5.404723,"is_reserved":false,"is_disabled":false,"rental_uris":{"android":"levelo://app?vid=7886eaa6-4080-45a4-b584-10320559dd6b","ios":"levelo://app?vid=7886eaa6-4080-45a4-b584-10320559dd6b"},"vehicle_type_id":"4","last_reported":1704312473,"current_range_meters":25200,"station_id":"ce4bh012rcd13ifvqd00","pricing_plan_id":"free"},{"bike_id":"4fbd45c9-7045-4421-a97b-bf0c706479e3","system_id":"levelo_inurba_marseille","lat":43.291994,"lon":5.392907,"is_reserved":false,"is_disabled":false,"rental_uris":{"android":"levelo://app?vid=4fbd45c9-7045-4421-a97b-bf0c706479e3","ios":"levelo://app?vid=4fbd45c9-7045-4421-a97b-bf0c706479e3"},"vehicle_type_id":"4","last_reported":1704312473,"current_range_meters":21200,"station_id":"ce4bh192rcd13ifvqdd0","pricing_plan_id":"free"},{"bike_id":"9f7113b3-1728-4c68-81ba-7d16231fba75","system_id":"levelo_inurba_marseille","lat":43.28465,"lon":5.35887,"is_reserved":false,"is_disabled":false,"rental_uris":{"android":"levelo://app?vid=9f7113b3-1728-4c68-81ba-7d16231fba75","ios":"levelo://app?vid=9f7113b3-1728-4c68-81ba-7d16231fba75"},"vehicle_type_id":"4","last_reported":1704312473,"current_range_meters":26400,"station_id":"ce4bhah2rcd13ifvqei0","pricing_plan_id":"free"},{"bike_id":"c9e7ba4d-c3f5-4da0-adaf-4408bb675013","system_id":"levelo_inurba_marseille","lat":43.284575,"lon":5.358956,"is_reserved":false,"is_disabled":false,"rental_uris":{"android":"levelo://app?vid=c9e7ba4d-c3f5-4da0-adaf-4408bb675013","ios":"levelo://app?vid=c9e7ba4d-c3f5-4da0-adaf-4408bb675013"},"vehicle_type_id":"4","last_reported":1704312473,"current_range_meters":15200,"station_id":"ce4bhah2rcd13ifvqei0","pricing_plan_id":"free"},{"bike_id":"cbce6bf6-5cc0-4c25-adf9-ad3693606f22","system_id":"levelo_inurba_marseille","lat":43.294314,"lon":5.397498,"is_reserved":false,"is_disabled":false,"rental_uris":{"android":"levelo://app?vid=cbce6bf6-5cc0-4c25-adf9-ad3693606f22","ios":"levelo://app?vid=cbce6bf6-5cc0-4c25-adf9-ad3693606f22"},"vehicle_type_id":"4","last_reported":1704312473,"current_range_meters":10400,"station_id":"ce4bh3h2rcd13ifvqdo0","pricing_plan_id":"free"},{"bike_id":"df95760d-0956-4253-a9d3-6d0dba6fca43","system_id":"levelo_inurba_marseille","lat":43.285856,"lon":5.350771,"is_reserved":false,"is_disabled":false,"rental_uris":{"android":"levelo://app?vid=df95760d-0956-4253-a9d3-6d0dba6fca43","ios":"levelo://app?vid=df95760d-0956-4253-a9d3-6d0dba6fca43"},"vehicle_type_id":"4","last_reported":1704312473,"current_range_meters":9600,"station_id":"ce4bhch2rcd13ifvqeug","pricing_plan_id":"free"},{"bike_id":"0a33f248-3afd-44e0-af30-8d029a1edb6f","system_id":"levelo_inurba_marseille","lat":43.285856,"lon":5.350771,"is_reserved":false,"is_disabled":false,"rental_uris":{"android":"levelo://app?vid=0a33f248-3afd-44e0-af30-8d029a1edb6f","ios":"levelo://app?vid=0a33f248-3afd-44e0-af30-8d029a1edb6f"},"vehicle_type_id":"4","last_reported":1704312473,"current_range_meters":22400,"station_id":"ce4bhch2rcd13ifvqeug","pricing_plan_id":"free"},{"bike_id":"687e2c28-7acc-47c2-a076-a20f7ba04ff3","system_id":"levelo_inurba_marseille","lat":43.28617,"lon":5.35098,"is_reserved":false,"is_disabled":false,"rental_uris":{"android":"levelo://app?vid=687e2c28-7acc-47c2-a076-a20f7ba04ff3","ios":"levelo://app?vid=687e2c28-7acc-47c2-a076-a20f7ba04ff3"},"vehicle_type_id":"4","last_reported":1704312473,"current_range_meters":8800,"station_id":"ce4bhch2rcd13ifvqeug","pricing_plan_id":"free"},{"bike_id":"87683641-7624-4067-a8f5-5417c315ce19","system_id":"levelo_inurba_marseille","lat":43.285848,"lon":5.350787,"is_reserved":false,"is_disabled":false,"rental_uris":{"android":"levelo://app?vid=87683641-7624-4067-a8f5-5417c315ce19","ios":"levelo://app?vid=87683641-7624-4067-a8f5-5417c315ce19"},"vehicle_type_id":"4","last_reported":1704312473,"current_range_meters":14400,"station_id":"ce4bhch2rcd13ifvqeug","pricing_plan_id":"free"},{"bike_id":"9cca6c09-51bf-4cf6-9348-b5964dd96890","system_id":"levelo_inurba_marseille","lat":43.28612,"lon":5.35107,"is_reserved":false,"is_disabled":false,"rental_uris":{"android":"levelo://app?vid=9cca6c09-51bf-4cf6-9348-b5964dd96890","ios":"levelo://app?vid=9cca6c09-51bf-4cf6-9348-b5964dd96890"},"vehicle_type_id":"4","last_reported":1704312473,"current_range_meters":8400,"station_id":"ce4bhch2rcd13ifvqeug","pricing_plan_id":"free"},{"bike_id":"cd50297d-45fb-4eed-acac-5bbb06c99f86","system_id":"levelo_inurba_marseille","lat":43.285848,"lon":5.350787,"is_reserved":false,"is_disabled":false,"rental_uris":{"android":"levelo://app?vid=cd50297d-45fb-4eed-acac-5bbb06c99f86","ios":"levelo://app?vid=cd50297d-45fb-4eed-acac-5bbb06c99f86"},"vehicle_type_id":"4","last_reported":1704312473,"current_range_meters":16400,"station_id":"ce4bhch2rcd13ifvqeug","pricing_plan_id":"free"},{"bike_id":"73d6d06e-244a-46d2-adc8-e6e586ceb96b","system_id":"levelo_inurba_marseille","lat":43.28612,"lon":5.35101,"is_reserved":false,"is_disabled":false,"rental_uris":{"android":"levelo://app?vid=73d6d06e-244a-46d2-adc8-e6e586ceb96b","ios":"levelo://app?vid=73d6d06e-244a-46d2-adc8-e6e586ceb96b"},"vehicle_type_id":"4","last_reported":1704312473,"current_range_meters":4000,"station_id":"ce4bhch2rcd13ifvqeug","pricing_plan_id":"free"},{"bike_id":"e41df8c7-2972-46f1-95a6-c26e555d4a97","system_id":"levelo_inurba_marseille","lat":43.2861,"lon":5.35105,"is_reserved":false,"is_disabled":false,"rental_uris":{"android":"levelo://app?vid=e41df8c7-2972-46f1-95a6-c26e555d4a97","ios":"levelo://app?vid=e41df8c7-2972-46f1-95a6-c26e555d4a97"},"vehicle_type_id":"4","last_reported":1704312473,"current_range_meters":15600,"station_id":"ce4bhch2rcd13ifvqeug","pricing_plan_id":"free"},{"bike_id":"3f2d67b5-1b70-4dca-a662-d18b710194fe","system_id":"levelo_inurba_marseille","lat":43.29842,"lon":5.40187,"is_reserved":false,"is_disabled":false,"rental_uris":{"android":"levelo://app?vid=3f2d67b5-1b70-4dca-a662-d18b710194fe","ios":"levelo://app?vid=3f2d67b5-1b70-4dca-a662-d18b710194fe"},"vehicle_type_id":"4","last_reported":1704312473,"current_range_meters":16000,"station_id":"","pricing_plan_id":"free"},{"bike_id":"f99006df-0376-429f-ab2e-144629f2fc8b","system_id":"levelo_inurba_marseille","lat":43.283998,"lon":5.375062,"is_reserved":false,"is_disabled":false,"rental_uris":{"android":"levelo://app?vid=f99006df-0376-429f-ab2e-144629f2fc8b","ios":"levelo://app?vid=f99006df-0376-429f-ab2e-144629f2fc8b"},"vehicle_type_id":"4","last_reported":1704312473,"current_range_meters":0,"station_id":"ce4bh412rcd13ifvqds0","pricing_plan_id":"free"},{"bike_id":"fca0bf88-899f-4725-97f5-5bfaf2f057ae","system_id":"levelo_inurba_marseille","lat":43.283998,"lon":5.375062,"is_reserved":false,"is_disabled":false,"rental_uris":{"android":"levelo://app?vid=fca0bf88-899f-4725-97f5-5bfaf2f057ae","ios":"levelo://app?vid=fca0bf88-899f-4725-97f5-5bfaf2f057ae"},"vehicle_type_id":"4","last_reported":1704312473,"current_range_meters":12400,"station_id":"ce4bh412rcd13ifvqds0","pricing_plan_id":"free"},{"bike_id":"b1bef3c5-048e-429b-b10c-8728ac9f777d","system_id":"levelo_inurba_marseille","lat":43.283998,"lon":5.375062,"is_reserved":false,"is_disabled":false,"rental_uris":{"android":"levelo://app?vid=b1bef3c5-048e-429b-b10c-8728ac9f777d","ios":"levelo://app?vid=b1bef3c5-048e-429b-b10c-8728ac9f777d"},"vehicle_type_id":"4","last_reported":1704312473,"current_range_meters":28800,"station_id":"ce4bh412rcd13ifvqds0","pricing_plan_id":"free"},{"bike_id":"6993b03f-aa47-4435-930d-a564fca31502","system_id":"levelo_inurba_marseille","lat":43.295713,"lon":5.399639,"is_reserved":false,"is_disabled":false,"rental_uris":{"android":"levelo://app?vid=6993b03f-aa47-4435-930d-a564fca31502","ios":"levelo://app?vid=6993b03f-aa47-4435-930d-a564fca31502"},"vehicle_type_id":"4","last_reported":1704312473,"current_range_meters":4000,"station_id":"ce4bh312rcd13ifvqdj0","pricing_plan_id":"free"},{"bike_id":"c4b6a10c-ad2d-4b12-9d1a-e195297213c7","system_id":"levelo_inurba_marseille","lat":43.295713,"lon":5.399639,"is_reserved":false,"is_disabled":false,"rental_uris":{"android":"levelo://app?vid=c4b6a10c-ad2d-4b12-9d1a-e195297213c7","ios":"levelo://app?vid=c4b6a10c-ad2d-4b12-9d1a-e195297213c7"},"vehicle_type_id":"4","last_reported":1704312473,"current_range_meters":26400,"station_id":"ce4bh312rcd13ifvqdj0","pricing_plan_id":"free"},{"bike_id":"63284dfa-a160-4edb-b62b-73700c9226ee","system_id":"levelo_inurba_marseille","lat":43.286595,"lon":5.386795,"is_reserved":false,"is_disabled":false,"rental_uris":{"android":"levelo://app?vid=63284dfa-a160-4edb-b62b-73700c9226ee","ios":"levelo://app?vid=63284dfa-a160-4edb-b62b-73700c9226ee"},"vehicle_type_id":"4","last_reported":1704312473,"current_range_meters":20400,"station_id":"ce4bh492rcd13ifvqdug","pricing_plan_id":"free"},{"bike_id":"f5cb0c25-b286-41bb-8639-b300a1319619","system_id":"levelo_inurba_marseille","lat":43.286595,"lon":5.386795,"is_reserved":false,"is_disabled":false,"rental_uris":{"android":"levelo://app?vid=f5cb0c25-b286-41bb-8639-b300a1319619","ios":"levelo://app?vid=f5cb0c25-b286-41bb-8639-b300a1319619"},"vehicle_type_id":"4","last_reported":1704312473,"current_range_meters":17600,"station_id":"ce4bh492rcd13ifvqdug","pricing_plan_id":"free"},{"bike_id":"2556f8a3-f1f0-4cdc-9edd-a7f3cfcea9a9","system_id":"levelo_inurba_marseille","lat":43.323464,"lon":5.406297,"is_reserved":false,"is_disabled":false,"rental_uris":{"android":"levelo://app?vid=2556f8a3-f1f0-4cdc-9edd-a7f3cfcea9a9","ios":"levelo://app?vid=2556f8a3-f1f0-4cdc-9edd-a7f3cfcea9a9"},"vehicle_type_id":"4","last_reported":1704312473,"current_range_meters":25600,"station_id":"ce4bhq92rcd13ifvqhjg","pricing_plan_id":"free"},{"bike_id":"5e57c7c1-bfc5-49c6-9e57-613a538e8d1e","system_id":"levelo_inurba_marseille","lat":43.323464,"lon":5.406297,"is_reserved":false,"is_disabled":false,"rental_uris":{"android":"levelo://app?vid=5e57c7c1-bfc5-49c6-9e57-613a538e8d1e","ios":"levelo://app?vid=5e57c7c1-bfc5-49c6-9e57-613a538e8d1e"},"vehicle_type_id":"4","last_reported":1704312473,"current_range_meters":1600,"station_id":"ce4bhq92rcd13ifvqhjg","pricing_plan_id":"free"},{"bike_id":"1d5e7d8d-bde2-4934-81e8-5cb3f5c05f04","system_id":"levelo_inurba_marseille","lat":43.28479,"lon":5.38413,"is_reserved":false,"is_disabled":false,"rental_uris":{"android":"levelo://app?vid=1d5e7d8d-bde2-4934-81e8-5cb3f5c05f04","ios":"levelo://app?vid=1d5e7d8d-bde2-4934-81e8-5cb3f5c05f04"},"vehicle_type_id":"4","last_reported":1704312473,"current_range_meters":3600,"station_id":"ce4bh512rcd13ifvqe3g","pricing_plan_id":"free"},{"bike_id":"51fbea01-9d9a-4bc2-b30a-a2c5072e2a80","system_id":"levelo_inurba_marseille","lat":43.284787,"lon":5.384116,"is_reserved":false,"is_disabled":false,"rental_uris":{"android":"levelo://app?vid=51fbea01-9d9a-4bc2-b30a-a2c5072e2a80","ios":"levelo://app?vid=51fbea01-9d9a-4bc2-b30a-a2c5072e2a80"},"vehicle_type_id":"4","last_reported":1704312473,"current_range_meters":15600,"station_id":"ce4bh512rcd13ifvqe3g","pricing_plan_id":"free"},{"bike_id":"3b207d8c-7d10-4ce3-8bb1-5bcc943e7018","system_id":"levelo_inurba_marseille","lat":43.280382,"lon":5.369291,"is_reserved":false,"is_disabled":false,"rental_uris":{"android":"levelo://app?vid=3b207d8c-7d10-4ce3-8bb1-5bcc943e7018","ios":"levelo://app?vid=3b207d8c-7d10-4ce3-8bb1-5bcc943e7018"},"vehicle_type_id":"4","last_reported":1704312473,"current_range_meters":20000,"station_id":"ce4bha12rcd13ifvqef0","pricing_plan_id":"free"},{"bike_id":"0f22183d-1025-4855-919e-cbde878ec0a6","system_id":"levelo_inurba_marseille","lat":43.288501,"lon":5.393087,"is_reserved":false,"is_disabled":false,"rental_uris":{"android":"levelo://app?vid=0f22183d-1025-4855-919e-cbde878ec0a6","ios":"levelo://app?vid=0f22183d-1025-4855-919e-cbde878ec0a6"},"vehicle_type_id":"4","last_reported":1704312473,"current_range_meters":27200,"station_id":"ce4bh2p2rcd13ifvqdi0","pricing_plan_id":"free"},{"bike_id":"54e0fcad-72d6-4ecc-83d2-631f759e7b3d","system_id":"levelo_inurba_marseille","lat":43.283494,"lon":5.380945,"is_reserved":false,"is_disabled":false,"rental_uris":{"android":"levelo://app?vid=54e0fcad-72d6-4ecc-83d2-631f759e7b3d","ios":"levelo://app?vid=54e0fcad-72d6-4ecc-83d2-631f759e7b3d"},"vehicle_type_id":"4","last_reported":1704312473,"current_range_meters":12800,"station_id":"ce4bh412rcd13ifvqdr0","pricing_plan_id":"free"},{"bike_id":"2f21a4f9-a200-4619-815e-386e9a71ae13","system_id":"levelo_inurba_marseille","lat":43.283498,"lon":5.380948,"is_reserved":false,"is_disabled":false,"rental_uris":{"android":"levelo://app?vid=2f21a4f9-a200-4619-815e-386e9a71ae13","ios":"levelo://app?vid=2f21a4f9-a200-4619-815e-386e9a71ae13"},"vehicle_type_id":"4","last_reported":1704312473,"current_range_meters":19200,"station_id":"ce4bh412rcd13ifvqdr0","pricing_plan_id":"free"},{"bike_id":"c79bbec0-5b45-4028-aa88-b3391f12681c","system_id":"levelo_inurba_marseille","lat":43.28345,"lon":5.38113,"is_reserved":false,"is_disabled":false,"rental_uris":{"android":"levelo://app?vid=c79bbec0-5b45-4028-aa88-b3391f12681c","ios":"levelo://app?vid=c79bbec0-5b45-4028-aa88-b3391f12681c"},"vehicle_type_id":"4","last_reported":1704312473,"current_range_meters":1200,"station_id":"ce4bh412rcd13ifvqdr0","pricing_plan_id":"free"},{"bike_id":"4cc32faf-c266-4535-bdff-c42098dbefc9","system_id":"levelo_inurba_marseille","lat":43.321537,"lon":5.407913,"is_reserved":false,"is_disabled":false,"rental_uris":{"android":"levelo://app?vid=4cc32faf-c266-4535-bdff-c42098dbefc9","ios":"levelo://app?vid=4cc32faf-c266-4535-bdff-c42098dbefc9"},"vehicle_type_id":"4","last_reported":1704312473,"current_range_meters":18400,"station_id":"","pricing_plan_id":"free"},{"bike_id":"ffcf399d-216c-4f01-b735-ecbb777a2c86","system_id":"levelo_inurba_marseille","lat":43.283494,"lon":5.380945,"is_reserved":false,"is_disabled":false,"rental_uris":{"android":"levelo://app?vid=ffcf399d-216c-4f01-b735-ecbb777a2c86","ios":"levelo://app?vid=ffcf399d-216c-4f01-b735-ecbb777a2c86"},"vehicle_type_id":"4","last_reported":1704312473,"current_range_meters":18800,"station_id":"ce4bh412rcd13ifvqdr0","pricing_plan_id":"free"},{"bike_id":"20004556-0887-4fdf-9eae-029b2009dac5","system_id":"levelo_inurba_marseille","lat":43.282744,"lon":5.350533,"is_reserved":false,"is_disabled":false,"rental_uris":{"android":"levelo://app?vid=20004556-0887-4fdf-9eae-029b2009dac5","ios":"levelo://app?vid=20004556-0887-4fdf-9eae-029b2009dac5"},"vehicle_type_id":"4","last_reported":1704312473,"current_range_meters":23600,"station_id":"ce4bhbp2rcd13ifvqerg","pricing_plan_id":"free"},{"bike_id":"b4304143-a21f-4cfe-b2a2-5c2bb5bb69d2","system_id":"levelo_inurba_marseille","lat":43.282744,"lon":5.350533,"is_reserved":false,"is_disabled":false,"rental_uris":{"android":"levelo://app?vid=b4304143-a21f-4cfe-b2a2-5c2bb5bb69d2","ios":"levelo://app?vid=b4304143-a21f-4cfe-b2a2-5c2bb5bb69d2"},"vehicle_type_id":"4","last_reported":1704312473,"current_range_meters":27200,"station_id":"ce4bhbp2rcd13ifvqerg","pricing_plan_id":"free"},{"bike_id":"79837741-56a5-43d5-82bd-fc00e6332b2a","system_id":"levelo_inurba_marseille","lat":43.282683,"lon":5.35066,"is_reserved":false,"is_disabled":false,"rental_uris":{"android":"levelo://app?vid=79837741-56a5-43d5-82bd-fc00e6332b2a","ios":"levelo://app?vid=79837741-56a5-43d5-82bd-fc00e6332b2a"},"vehicle_type_id":"4","last_reported":1704312473,"current_range_meters":12400,"station_id":"ce4bhbp2rcd13ifvqerg","pricing_plan_id":"free"},{"bike_id":"59e9c861-4538-413b-b990-baf404440911","system_id":"levelo_inurba_marseille","lat":43.282754,"lon":5.350519,"is_reserved":false,"is_disabled":false,"rental_uris":{"android":"levelo://app?vid=59e9c861-4538-413b-b990-baf404440911","ios":"levelo://app?vid=59e9c861-4538-413b-b990-baf404440911"},"vehicle_type_id":"4","last_reported":1704312473,"current_range_meters":18800,"station_id":"ce4bhbp2rcd13ifvqerg","pricing_plan_id":"free"},{"bike_id":"158b0588-3244-4568-ba7c-451d06797205","system_id":"levelo_inurba_marseille","lat":43.282744,"lon":5.350533,"is_reserved":false,"is_disabled":false,"rental_uris":{"android":"levelo://app?vid=158b0588-3244-4568-ba7c-451d06797205","ios":"levelo://app?vid=158b0588-3244-4568-ba7c-451d06797205"},"vehicle_type_id":"4","last_reported":1704312473,"current_range_meters":0,"station_id":"ce4bhbp2rcd13ifvqerg","pricing_plan_id":"free"},{"bike_id":"35ff1647-a820-4cae-b68f-04ab6aa16600","system_id":"levelo_inurba_marseille","lat":43.282744,"lon":5.350533,"is_reserved":false,"is_disabled":false,"rental_uris":{"android":"levelo://app?vid=35ff1647-a820-4cae-b68f-04ab6aa16600","ios":"levelo://app?vid=35ff1647-a820-4cae-b68f-04ab6aa16600"},"vehicle_type_id":"4","last_reported":1704312473,"current_range_meters":23200,"station_id":"ce4bhbp2rcd13ifvqerg","pricing_plan_id":"free"},{"bike_id":"051e6cff-2b63-4f3e-9a65-fc47e6c0d7c8","system_id":"levelo_inurba_marseille","lat":43.28039,"lon":5.369297,"is_reserved":false,"is_disabled":false,"rental_uris":{"android":"levelo://app?vid=051e6cff-2b63-4f3e-9a65-fc47e6c0d7c8","ios":"levelo://app?vid=051e6cff-2b63-4f3e-9a65-fc47e6c0d7c8"},"vehicle_type_id":"4","last_reported":1704312473,"current_range_meters":10000,"station_id":"ce4bha12rcd13ifvqef0","pricing_plan_id":"free"},{"bike_id":"b0d71ed9-2e4a-4896-80b1-f614c14a0d2d","system_id":"levelo_inurba_marseille","lat":43.28039,"lon":5.369297,"is_reserved":false,"is_disabled":false,"rental_uris":{"android":"levelo://app?vid=b0d71ed9-2e4a-4896-80b1-f614c14a0d2d","ios":"levelo://app?vid=b0d71ed9-2e4a-4896-80b1-f614c14a0d2d"},"vehicle_type_id":"4","last_reported":1704312473,"current_range_meters":25200,"station_id":"ce4bha12rcd13ifvqef0","pricing_plan_id":"free"},{"bike_id":"6379fe39-b264-4272-b02b-31adc296f6a8","system_id":"levelo_inurba_marseille","lat":43.29041,"lon":5.399634,"is_reserved":false,"is_disabled":false,"rental_uris":{"android":"levelo://app?vid=6379fe39-b264-4272-b02b-31adc296f6a8","ios":"levelo://app?vid=6379fe39-b264-4272-b02b-31adc296f6a8"},"vehicle_type_id":"4","last_reported":1704312473,"current_range_meters":24400,"station_id":"ce4bh392rcd13ifvqdm0","pricing_plan_id":"free"},{"bike_id":"346028c1-ac1e-41a0-b151-c61de7fab0fd","system_id":"levelo_inurba_marseille","lat":43.29041,"lon":5.399634,"is_reserved":false,"is_disabled":false,"rental_uris":{"android":"levelo://app?vid=346028c1-ac1e-41a0-b151-c61de7fab0fd","ios":"levelo://app?vid=346028c1-ac1e-41a0-b151-c61de7fab0fd"},"vehicle_type_id":"4","last_reported":1704312473,"current_range_meters":29600,"station_id":"ce4bh392rcd13ifvqdm0","pricing_plan_id":"free"},{"bike_id":"50929a8e-8344-449f-8597-b952fff97661","system_id":"levelo_inurba_marseille","lat":43.290412,"lon":5.399633,"is_reserved":false,"is_disabled":false,"rental_uris":{"android":"levelo://app?vid=50929a8e-8344-449f-8597-b952fff97661","ios":"levelo://app?vid=50929a8e-8344-449f-8597-b952fff97661"},"vehicle_type_id":"4","last_reported":1704312473,"current_range_meters":2000,"station_id":"ce4bh392rcd13ifvqdm0","pricing_plan_id":"free"},{"bike_id":"507d56e5-c9bd-48b9-a408-0af5f2bbb572","system_id":"levelo_inurba_marseille","lat":43.29041,"lon":5.399634,"is_reserved":false,"is_disabled":false,"rental_uris":{"android":"levelo://app?vid=507d56e5-c9bd-48b9-a408-0af5f2bbb572","ios":"levelo://app?vid=507d56e5-c9bd-48b9-a408-0af5f2bbb572"},"vehicle_type_id":"4","last_reported":1704312473,"current_range_meters":31200,"station_id":"ce4bh392rcd13ifvqdm0","pricing_plan_id":"free"},{"bike_id":"18632d31-3e4c-4088-ab2e-8444973ca7f0","system_id":"levelo_inurba_marseille","lat":43.281044,"lon":5.378308,"is_reserved":false,"is_disabled":false,"rental_uris":{"android":"levelo://app?vid=18632d31-3e4c-4088-ab2e-8444973ca7f0","ios":"levelo://app?vid=18632d31-3e4c-4088-ab2e-8444973ca7f0"},"vehicle_type_id":"4","last_reported":1704312473,"current_range_meters":22000,"station_id":"ce4bha12rcd13ifvqee0","pricing_plan_id":"free"},{"bike_id":"507cc011-b0f1-407e-a4ca-21f10d36b9b3","system_id":"levelo_inurba_marseille","lat":43.281044,"lon":5.378308,"is_reserved":false,"is_disabled":false,"rental_uris":{"android":"levelo://app?vid=507cc011-b0f1-407e-a4ca-21f10d36b9b3","ios":"levelo://app?vid=507cc011-b0f1-407e-a4ca-21f10d36b9b3"},"vehicle_type_id":"4","last_reported":1704312473,"current_range_meters":23200,"station_id":"ce4bha12rcd13ifvqee0","pricing_plan_id":"free"},{"bike_id":"1faac5aa-900a-4f02-b967-e8783dfdff13","system_id":"levelo_inurba_marseille","lat":43.284462,"lon":5.392121,"is_reserved":false,"is_disabled":false,"rental_uris":{"android":"levelo://app?vid=1faac5aa-900a-4f02-b967-e8783dfdff13","ios":"levelo://app?vid=1faac5aa-900a-4f02-b967-e8783dfdff13"},"vehicle_type_id":"4","last_reported":1704312473,"current_range_meters":29200,"station_id":"ce4bhoh2rcd13ifvqh5g","pricing_plan_id":"free"},{"bike_id":"61e42589-1e35-415b-af68-e6119f239e29","system_id":"levelo_inurba_marseille","lat":43.284462,"lon":5.392121,"is_reserved":false,"is_disabled":false,"rental_uris":{"android":"levelo://app?vid=61e42589-1e35-415b-af68-e6119f239e29","ios":"levelo://app?vid=61e42589-1e35-415b-af68-e6119f239e29"},"vehicle_type_id":"4","last_reported":1704312473,"current_range_meters":21200,"station_id":"ce4bhoh2rcd13ifvqh5g","pricing_plan_id":"free"},{"bike_id":"5d326506-feaf-4d6c-8e29-03fba7fa522c","system_id":"levelo_inurba_marseille","lat":43.28573,"lon":5.394992,"is_reserved":false,"is_disabled":false,"rental_uris":{"android":"levelo://app?vid=5d326506-feaf-4d6c-8e29-03fba7fa522c","ios":"levelo://app?vid=5d326506-feaf-4d6c-8e29-03fba7fa522c"},"vehicle_type_id":"4","last_reported":1704312473,"current_range_meters":26000,"station_id":"ce4bh292rcd13ifvqdg0","pricing_plan_id":"free"},{"bike_id":"63c74dd7-8350-4537-b230-7b61f66c99c5","system_id":"levelo_inurba_marseille","lat":43.326605,"lon":5.409903,"is_reserved":false,"is_disabled":false,"rental_uris":{"android":"levelo://app?vid=63c74dd7-8350-4537-b230-7b61f66c99c5","ios":"levelo://app?vid=63c74dd7-8350-4537-b230-7b61f66c99c5"},"vehicle_type_id":"4","last_reported":1704312473,"current_range_meters":25200,"station_id":"ce4bhpp2rcd13ifvqhgg","pricing_plan_id":"free"},{"bike_id":"f4617c72-b11a-4a52-8f8e-2d11648a89f8","system_id":"levelo_inurba_marseille","lat":43.326605,"lon":5.409903,"is_reserved":false,"is_disabled":false,"rental_uris":{"android":"levelo://app?vid=f4617c72-b11a-4a52-8f8e-2d11648a89f8","ios":"levelo://app?vid=f4617c72-b11a-4a52-8f8e-2d11648a89f8"},"vehicle_type_id":"4","last_reported":1704312473,"current_range_meters":13200,"station_id":"ce4bhpp2rcd13ifvqhgg","pricing_plan_id":"free"},{"bike_id":"8b32f731-9a8c-4c2b-9a2a-8108ef4979e2","system_id":"levelo_inurba_marseille","lat":43.304188,"lon":5.412904,"is_reserved":false,"is_disabled":false,"rental_uris":{"android":"levelo://app?vid=8b32f731-9a8c-4c2b-9a2a-8108ef4979e2","ios":"levelo://app?vid=8b32f731-9a8c-4c2b-9a2a-8108ef4979e2"},"vehicle_type_id":"4","last_reported":1704312473,"current_range_meters":31200,"station_id":"ce4bhop2rcd13ifvqh8g","pricing_plan_id":"free"},{"bike_id":"7001f7b2-08bc-4b89-826e-286daa0f7ff4","system_id":"levelo_inurba_marseille","lat":43.304188,"lon":5.412904,"is_reserved":false,"is_disabled":false,"rental_uris":{"android":"levelo://app?vid=7001f7b2-08bc-4b89-826e-286daa0f7ff4","ios":"levelo://app?vid=7001f7b2-08bc-4b89-826e-286daa0f7ff4"},"vehicle_type_id":"4","last_reported":1704312473,"current_range_meters":21200,"station_id":"ce4bhop2rcd13ifvqh8g","pricing_plan_id":"free"},{"bike_id":"1d7d0b44-395f-4e21-af9d-8af1ed86a5aa","system_id":"levelo_inurba_marseille","lat":43.299579,"lon":5.413255,"is_reserved":false,"is_disabled":false,"rental_uris":{"android":"levelo://app?vid=1d7d0b44-395f-4e21-af9d-8af1ed86a5aa","ios":"levelo://app?vid=1d7d0b44-395f-4e21-af9d-8af1ed86a5aa"},"vehicle_type_id":"4","last_reported":1704312473,"current_range_meters":26000,"station_id":"ce4bhp12rcd13ifvqh9g","pricing_plan_id":"free"},{"bike_id":"3910ee78-f245-43bb-bf2b-4ecd5d32414f","system_id":"levelo_inurba_marseille","lat":43.279742,"lon":5.38744,"is_reserved":false,"is_disabled":false,"rental_uris":{"android":"levelo://app?vid=3910ee78-f245-43bb-bf2b-4ecd5d32414f","ios":"levelo://app?vid=3910ee78-f245-43bb-bf2b-4ecd5d32414f"},"vehicle_type_id":"4","last_reported":1704312473,"current_range_meters":17200,"station_id":"ce4bhg12rcd13ifvqf80","pricing_plan_id":"free"},{"bike_id":"8f6d0a45-3da2-46a6-92bb-15355d9a7d09","system_id":"levelo_inurba_marseille","lat":43.279742,"lon":5.38744,"is_reserved":false,"is_disabled":false,"rental_uris":{"android":"levelo://app?vid=8f6d0a45-3da2-46a6-92bb-15355d9a7d09","ios":"levelo://app?vid=8f6d0a45-3da2-46a6-92bb-15355d9a7d09"},"vehicle_type_id":"4","last_reported":1704312473,"current_range_meters":22000,"station_id":"ce4bhg12rcd13ifvqf80","pricing_plan_id":"free"},{"bike_id":"80699dff-d2c3-4a46-a800-fe16199edb74","system_id":"levelo_inurba_marseille","lat":43.292571,"lon":5.409107,"is_reserved":false,"is_disabled":false,"rental_uris":{"android":"levelo://app?vid=80699dff-d2c3-4a46-a800-fe16199edb74","ios":"levelo://app?vid=80699dff-d2c3-4a46-a800-fe16199edb74"},"vehicle_type_id":"4","last_reported":1704312473,"current_range_meters":24400,"station_id":"ce4bh192rcd13ifvqdc0","pricing_plan_id":"free"},{"bike_id":"d3f25bcc-da64-44bb-8495-bf854b2f447f","system_id":"levelo_inurba_marseille","lat":43.325243,"lon":5.414326,"is_reserved":false,"is_disabled":false,"rental_uris":{"android":"levelo://app?vid=d3f25bcc-da64-44bb-8495-bf854b2f447f","ios":"levelo://app?vid=d3f25bcc-da64-44bb-8495-bf854b2f447f"},"vehicle_type_id":"4","last_reported":1704312473,"current_range_meters":21200,"station_id":"ce4bhq12rcd13ifvqhhg","pricing_plan_id":"free"},{"bike_id":"21486971-0a89-4fdc-9fc6-dfabf9aa4ff4","system_id":"levelo_inurba_marseille","lat":43.292569,"lon":5.409107,"is_reserved":false,"is_disabled":false,"rental_uris":{"android":"levelo://app?vid=21486971-0a89-4fdc-9fc6-dfabf9aa4ff4","ios":"levelo://app?vid=21486971-0a89-4fdc-9fc6-dfabf9aa4ff4"},"vehicle_type_id":"4","last_reported":1704312473,"current_range_meters":24400,"station_id":"ce4bh192rcd13ifvqdc0","pricing_plan_id":"free"},{"bike_id":"4c7f4829-27bf-44ad-b4ff-99eba7fde8b1","system_id":"levelo_inurba_marseille","lat":43.292569,"lon":5.409107,"is_reserved":false,"is_disabled":false,"rental_uris":{"android":"levelo://app?vid=4c7f4829-27bf-44ad-b4ff-99eba7fde8b1","ios":"levelo://app?vid=4c7f4829-27bf-44ad-b4ff-99eba7fde8b1"},"vehicle_type_id":"4","last_reported":1704312473,"current_range_meters":29200,"station_id":"ce4bh192rcd13ifvqdc0","pricing_plan_id":"free"},{"bike_id":"9f1d2f0a-822a-4456-b0bf-275b0adbf974","system_id":"levelo_inurba_marseille","lat":43.280784,"lon":5.396622,"is_reserved":false,"is_disabled":false,"rental_uris":{"android":"levelo://app?vid=9f1d2f0a-822a-4456-b0bf-275b0adbf974","ios":"levelo://app?vid=9f1d2f0a-822a-4456-b0bf-275b0adbf974"},"vehicle_type_id":"4","last_reported":1704312473,"current_range_meters":6000,"station_id":"ce4bho12rcd13ifvqh2g","pricing_plan_id":"free"},{"bike_id":"878989f4-64e5-45eb-97fd-e2c865789826","system_id":"levelo_inurba_marseille","lat":43.280784,"lon":5.396622,"is_reserved":false,"is_disabled":false,"rental_uris":{"android":"levelo://app?vid=878989f4-64e5-45eb-97fd-e2c865789826","ios":"levelo://app?vid=878989f4-64e5-45eb-97fd-e2c865789826"},"vehicle_type_id":"4","last_reported":1704312473,"current_range_meters":29200,"station_id":"ce4bho12rcd13ifvqh2g","pricing_plan_id":"free"},{"bike_id":"cce89fc2-8980-4e8a-91b4-3d474529ae07","system_id":"levelo_inurba_marseille","lat":43.280784,"lon":5.396622,"is_reserved":false,"is_disabled":false,"rental_uris":{"android":"levelo://app?vid=cce89fc2-8980-4e8a-91b4-3d474529ae07","ios":"levelo://app?vid=cce89fc2-8980-4e8a-91b4-3d474529ae07"},"vehicle_type_id":"4","last_reported":1704312473,"current_range_meters":17200,"station_id":"ce4bho12rcd13ifvqh2g","pricing_plan_id":"free"},{"bike_id":"a19da322-8f75-4d36-906d-e15866d82b2a","system_id":"levelo_inurba_marseille","lat":43.303837,"lon":5.418724,"is_reserved":false,"is_disabled":false,"rental_uris":{"android":"levelo://app?vid=a19da322-8f75-4d36-906d-e15866d82b2a","ios":"levelo://app?vid=a19da322-8f75-4d36-906d-e15866d82b2a"},"vehicle_type_id":"4","last_reported":1704312473,"current_range_meters":16800,"station_id":"ce4bhop2rcd13ifvqh7g","pricing_plan_id":"free"},{"bike_id":"ede5c5ca-d82c-475a-9658-ac3ca513a719","system_id":"levelo_inurba_marseille","lat":43.278401,"lon":5.392152,"is_reserved":false,"is_disabled":false,"rental_uris":{"android":"levelo://app?vid=ede5c5ca-d82c-475a-9658-ac3ca513a719","ios":"levelo://app?vid=ede5c5ca-d82c-475a-9658-ac3ca513a719"},"vehicle_type_id":"4","last_reported":1704312473,"current_range_meters":17200,"station_id":"ce4bhjp2rcd13ifvqga0","pricing_plan_id":"free"},{"bike_id":"994deca2-fc9b-4974-b870-30eaca6e4008","system_id":"levelo_inurba_marseille","lat":43.275625,"lon":5.384392,"is_reserved":false,"is_disabled":false,"rental_uris":{"android":"levelo://app?vid=994deca2-fc9b-4974-b870-30eaca6e4008","ios":"levelo://app?vid=994deca2-fc9b-4974-b870-30eaca6e4008"},"vehicle_type_id":"4","last_reported":1704312473,"current_range_meters":10000,"station_id":"ce4bhh92rcd13ifvqfi0","pricing_plan_id":"free"},{"bike_id":"2adc39e4-adca-4267-9b58-11106d541d95","system_id":"levelo_inurba_marseille","lat":43.336134,"lon":5.410341,"is_reserved":false,"is_disabled":false,"rental_uris":{"android":"levelo://app?vid=2adc39e4-adca-4267-9b58-11106d541d95","ios":"levelo://app?vid=2adc39e4-adca-4267-9b58-11106d541d95"},"vehicle_type_id":"4","last_reported":1704312473,"current_range_meters":14800,"station_id":"ce4bhqh2rcd13ifvqhmg","pricing_plan_id":"free"},{"bike_id":"20832136-1247-4fb2-a6b1-acf0507e0287","system_id":"levelo_inurba_marseille","lat":43.336148,"lon":5.410349,"is_reserved":false,"is_disabled":false,"rental_uris":{"android":"levelo://app?vid=20832136-1247-4fb2-a6b1-acf0507e0287","ios":"levelo://app?vid=20832136-1247-4fb2-a6b1-acf0507e0287"},"vehicle_type_id":"4","last_reported":1704312473,"current_range_meters":18400,"station_id":"ce4bhqh2rcd13ifvqhmg","pricing_plan_id":"free"},{"bike_id":"06320ab3-2ddc-4a1e-8450-a5cac17925f2","system_id":"levelo_inurba_marseille","lat":43.336134,"lon":5.410341,"is_reserved":false,"is_disabled":false,"rental_uris":{"android":"levelo://app?vid=06320ab3-2ddc-4a1e-8450-a5cac17925f2","ios":"levelo://app?vid=06320ab3-2ddc-4a1e-8450-a5cac17925f2"},"vehicle_type_id":"4","last_reported":1704312473,"current_range_meters":13600,"station_id":"ce4bhqh2rcd13ifvqhmg","pricing_plan_id":"free"},{"bike_id":"71f49bd0-0b27-4b88-801e-ba24d07cba08","system_id":"levelo_inurba_marseille","lat":43.279952,"lon":5.400085,"is_reserved":false,"is_disabled":false,"rental_uris":{"android":"levelo://app?vid=71f49bd0-0b27-4b88-801e-ba24d07cba08","ios":"levelo://app?vid=71f49bd0-0b27-4b88-801e-ba24d07cba08"},"vehicle_type_id":"4","last_reported":1704312473,"current_range_meters":13600,"station_id":"ce4bho92rcd13ifvqh4g","pricing_plan_id":"free"},{"bike_id":"1406b64b-39e6-4303-a601-9ae6fc9b5612","system_id":"levelo_inurba_marseille","lat":43.279952,"lon":5.400085,"is_reserved":false,"is_disabled":false,"rental_uris":{"android":"levelo://app?vid=1406b64b-39e6-4303-a601-9ae6fc9b5612","ios":"levelo://app?vid=1406b64b-39e6-4303-a601-9ae6fc9b5612"},"vehicle_type_id":"4","last_reported":1704312473,"current_range_meters":4000,"station_id":"ce4bho92rcd13ifvqh4g","pricing_plan_id":"free"},{"bike_id":"fb9f3fee-8a96-4d86-bfd6-caed95c25143","system_id":"levelo_inurba_marseille","lat":43.279975,"lon":5.40009,"is_reserved":false,"is_disabled":false,"rental_uris":{"android":"levelo://app?vid=fb9f3fee-8a96-4d86-bfd6-caed95c25143","ios":"levelo://app?vid=fb9f3fee-8a96-4d86-bfd6-caed95c25143"},"vehicle_type_id":"4","last_reported":1704312473,"current_range_meters":28000,"station_id":"ce4bho92rcd13ifvqh4g","pricing_plan_id":"free"},{"bike_id":"4cd6c5e9-b385-4fe7-8022-3b52bb9e1d40","system_id":"levelo_inurba_marseille","lat":43.317121,"lon":5.423936,"is_reserved":false,"is_disabled":false,"rental_uris":{"android":"levelo://app?vid=4cd6c5e9-b385-4fe7-8022-3b52bb9e1d40","ios":"levelo://app?vid=4cd6c5e9-b385-4fe7-8022-3b52bb9e1d40"},"vehicle_type_id":"4","last_reported":1704312473,"current_range_meters":19200,"station_id":"ce4bhp92rcd13ifvqhbg","pricing_plan_id":"free"},{"bike_id":"dba161a3-eca7-47af-a2d7-c8f705dd51be","system_id":"levelo_inurba_marseille","lat":43.317121,"lon":5.423936,"is_reserved":false,"is_disabled":false,"rental_uris":{"android":"levelo://app?vid=dba161a3-eca7-47af-a2d7-c8f705dd51be","ios":"levelo://app?vid=dba161a3-eca7-47af-a2d7-c8f705dd51be"},"vehicle_type_id":"4","last_reported":1704312473,"current_range_meters":22000,"station_id":"ce4bhp92rcd13ifvqhbg","pricing_plan_id":"free"},{"bike_id":"5e3452d0-bbc8-463b-8852-ec98e809d5a0","system_id":"levelo_inurba_marseille","lat":43.317121,"lon":5.423936,"is_reserved":false,"is_disabled":false,"rental_uris":{"android":"levelo://app?vid=5e3452d0-bbc8-463b-8852-ec98e809d5a0","ios":"levelo://app?vid=5e3452d0-bbc8-463b-8852-ec98e809d5a0"},"vehicle_type_id":"4","last_reported":1704312473,"current_range_meters":31600,"station_id":"ce4bhp92rcd13ifvqhbg","pricing_plan_id":"free"},{"bike_id":"d77951a7-3cab-4a7a-920c-f716d44755f3","system_id":"levelo_inurba_marseille","lat":43.317121,"lon":5.423936,"is_reserved":false,"is_disabled":false,"rental_uris":{"android":"levelo://app?vid=d77951a7-3cab-4a7a-920c-f716d44755f3","ios":"levelo://app?vid=d77951a7-3cab-4a7a-920c-f716d44755f3"},"vehicle_type_id":"4","last_reported":1704312473,"current_range_meters":20000,"station_id":"ce4bhp92rcd13ifvqhbg","pricing_plan_id":"free"},{"bike_id":"1f916b87-738b-4fd1-b28f-f51e1b86e62d","system_id":"levelo_inurba_marseille","lat":43.310785,"lon":5.424305,"is_reserved":false,"is_disabled":false,"rental_uris":{"android":"levelo://app?vid=1f916b87-738b-4fd1-b28f-f51e1b86e62d","ios":"levelo://app?vid=1f916b87-738b-4fd1-b28f-f51e1b86e62d"},"vehicle_type_id":"4","last_reported":1704312473,"current_range_meters":12800,"station_id":"ce4bhp92rcd13ifvqhag","pricing_plan_id":"free"},{"bike_id":"2ab753f2-632a-42dd-bd7e-ba07115e8c19","system_id":"levelo_inurba_marseille","lat":43.340804,"lon":5.410219,"is_reserved":false,"is_disabled":false,"rental_uris":{"android":"levelo://app?vid=2ab753f2-632a-42dd-bd7e-ba07115e8c19","ios":"levelo://app?vid=2ab753f2-632a-42dd-bd7e-ba07115e8c19"},"vehicle_type_id":"4","last_reported":1704312473,"current_range_meters":18400,"station_id":"ce4bhqh2rcd13ifvqhlg","pricing_plan_id":"free"},{"bike_id":"2a832ed3-aea8-4301-9bfc-1d3713752156","system_id":"levelo_inurba_marseille","lat":43.274103,"lon":5.394016,"is_reserved":false,"is_disabled":false,"rental_uris":{"android":"levelo://app?vid=2a832ed3-aea8-4301-9bfc-1d3713752156","ios":"levelo://app?vid=2a832ed3-aea8-4301-9bfc-1d3713752156"},"vehicle_type_id":"4","last_reported":1704312473,"current_range_meters":12800,"station_id":"ce4bhdp2rcd13ifvqf20","pricing_plan_id":"free"},{"bike_id":"10ed3795-bfe5-4b86-be82-ee832a4fc7df","system_id":"levelo_inurba_marseille","lat":43.304096,"lon":5.425385,"is_reserved":false,"is_disabled":false,"rental_uris":{"android":"levelo://app?vid=10ed3795-bfe5-4b86-be82-ee832a4fc7df","ios":"levelo://app?vid=10ed3795-bfe5-4b86-be82-ee832a4fc7df"},"vehicle_type_id":"4","last_reported":1704312473,"current_range_meters":0,"station_id":"ce4bhoh2rcd13ifvqh6g","pricing_plan_id":"free"},{"bike_id":"99c4d750-1e61-45ab-ade9-a2732e4430dd","system_id":"levelo_inurba_marseille","lat":43.272124,"lon":5.391768,"is_reserved":false,"is_disabled":false,"rental_uris":{"android":"levelo://app?vid=99c4d750-1e61-45ab-ade9-a2732e4430dd","ios":"levelo://app?vid=99c4d750-1e61-45ab-ade9-a2732e4430dd"},"vehicle_type_id":"4","last_reported":1704312473,"current_range_meters":7200,"station_id":"ce4bhhp2rcd13ifvqfm0","pricing_plan_id":"free"},{"bike_id":"e89d1555-b57a-44e9-9a60-b79ea725af64","system_id":"levelo_inurba_marseille","lat":43.278128,"lon":5.407195,"is_reserved":false,"is_disabled":false,"rental_uris":{"android":"levelo://app?vid=e89d1555-b57a-44e9-9a60-b79ea725af64","ios":"levelo://app?vid=e89d1555-b57a-44e9-9a60-b79ea725af64"},