{"last_updated":1745921471,"ttl":60,"version":"2.2","data":{"bikes":[{"bike_id":"0d42d741-2505-42aa-b79a-41df572094e2","system_id":"levelo_inurba_marseille","lat":43.276156,"lon":5.393107,"is_reserved":false,"is_disabled":true,"rental_uris":{"android":"levelo://app?vid=0d42d741-2505-42aa-b79a-41df572094e2","ios":"levelo://app?vid=0d42d741-2505-42aa-b79a-41df572094e2"},"vehicle_type_id":"4","last_reported":1745921472,"current_range_meters":0,"station_id":"","pricing_plan_id":"cebpf4jnsgd1na2vs0mg"},{"bike_id":"b156cb3a-a131-4c8b-b3b5-13ae6db8151f","system_id":"levelo_inurba_marseille","lat":43.26883,"lon":5.38182,"is_reserved":false,"is_disabled":true,"rental_uris":{"android":"levelo://app?vid=b156cb3a-a131-4c8b-b3b5-13ae6db8151f","ios":"levelo://app?vid=b156cb3a-a131-4c8b-b3b5-13ae6db8151f"},"vehicle_type_id":"4","last_reported":1745921472,"current_range_meters":0,"station_id":"","pricing_plan_id":"cebpf4jnsgd1na2vs0mg"},{"bike_id":"8f515858-71d6-4b47-b989-20758303e199","system_id":"levelo_inurba_marseille","lat":43.26797,"lon":5.42702,"is_reserved":false,"is_disabled":true,"rental_uris":{"android":"levelo://app?vid=8f515858-71d6-4b47-b989-20758303e199","ios":"levelo://app?vid=8f515858-71d6-4b47-b989-20758303e199"},"vehicle_type_id":"4","last_reported":1745921472,"current_range_meters":0,"station_id":"","pricing_plan_id":"cebpf4jnsgd1na2vs0mg"},{"bike_id":"9e2ed24c-a8e8-4759-b396-7d820551a1cd","system_id":"levelo_inurba_marseille","lat":43.26712,"lon":5.4022,"is_reserved":false,"is_disabled":true,"rental_uris":{"android":"levelo://app?vid=9e2ed24c-a8e8-4759-b396-7d820551a1cd","ios":"levelo://app?vid=9e2ed24c-a8e8-4759-b396-7d820551a1cd"},"vehicle_type_id":"4","last_reported":1745921472,"current_range_meters":0,"station_id":"","pricing_plan_id":"cebpf4jnsgd1na2vs0mg"},{"bike_id":"705db5aa-feb0-4862-923d-cfb22bced0d3","system_id":"levelo_inurba_marseille","lat":43.21495,"lon":5.3482,"is_reserved":false,"is_disabled":true,"rental_uris":{"android":"levelo://app?vid=705db5aa-feb0-4862-923d-cfb22bced0d3","ios":"levelo://app?vid=705db5aa-feb0-4862-923d-cfb22bced0d3"},"vehicle_type_id":"4","last_reported":1745921472,"current_range_meters":0,"station_id":"","pricing_plan_id":"cebpf4jnsgd1na2vs0mg"},{"bike_id":"4fdc9b70-2976-4394-9ec4-83af9f2f26f8","system_id":"levelo_inurba_marseille","lat":43.28612,"lon":5.35106,"is_reserved":false,"is_disabled":true,"rental_uris":{"android":"levelo://app?vid=4fdc9b70-2976-4394-9ec4-83af9f2f26f8","ios":"levelo://app?vid=4fdc9b70-2976-4394-9ec4-83af9f2f26f8"},"vehicle_type_id":"4","last_reported":1745921472,"current_range_meters":0,"station_id":"ce4bhch2rcd13ifvqeug","pricing_plan_id":"cebpf4jnsgd1na2vs0mg"},{"bike_id":"fff4d816-2692-48c1-89e3-e5a7856042b7","system_id":"levelo_inurba_marseille","lat":43.28615,"lon":5.35099,"is_reserved":false,"is_disabled":true,"rental_uris":{"android":"levelo://app?vid=fff4d816-2692-48c1-89e3-e5a7856042b7","ios":"levelo://app?vid=fff4d816-2692-48c1-89e3-e5a7856042b7"},"vehicle_type_id":"4","last_reported":1745921472,"current_range_meters":0,"station_id":"ce4bhch2rcd13ifvqeug","pricing_plan_id":"cebpf4jnsgd1na2vs0mg"},{"bike_id":"775b9229-85ec-4e7d-94da-46cbe40b117c","system_id":"levelo_inurba_marseille","lat":43.21217,"lon":5.35041,"is_reserved":false,"is_disabled":true,"rental_uris":{"android":"levelo://app?vid=775b9229-85ec-4e7d-94da-46cbe40b117c","ios":"levelo://app?vid=775b9229-85ec-4e7d-94da-46cbe40b117c"},"vehicle_type_id":"4","last_reported":1745921472,"current_range_meters":0,"station_id":"st_cvj6sg6p6f1abm77japg","pricing_plan_id":"cebpf4jnsgd1na2vs0mg"},{"bike_id":"74677f28-3596-4c5b-98de-ba4120a70f9d","system_id":"levelo_inurba_marseille","lat":43.2562,"lon":5.41196,"is_reserved":false,"is_disabled":true,"rental_uris":{"android":"levelo://app?vid=74677f28-3596-4c5b-98de-ba4120a70f9d","ios":"levelo://app?vid=74677f28-3596-4c5b-98de-ba4120a70f9d"},"vehicle_type_id":"4","last_reported":1745921472,"current_range_meters":400,"station_id":"","pricing_plan_id":"cebpf4jnsgd1na2vs0mg"},{"bike_id":"1fff0c18-a43c-4fa5-b429-5f86227b0b1f","system_id":"levelo_inurba_marseille","lat":43.25087,"lon":5.39528,"is_reserved":false,"is_disabled":true,"rental_uris":{"android":"levelo://app?vid=1fff0c18-a43c-4fa5-b429-5f86227b0b1f","ios":"levelo://app?vid=1fff0c18-a43c-4fa5-b429-5f86227b0b1f"},"vehicle_type_id":"4","last_reported":1745921472,"current_range_meters":400,"station_id":"ce4bhm12rcd13ifvqgkg","pricing_plan_id":"cebpf4jnsgd1na2vs0mg"},{"bike_id":"5c634152-8612-498f-bc6f-93b4d5da1eff","system_id":"levelo_inurba_marseille","lat":43.28036,"lon":5.36943,"is_reserved":false,"is_disabled":true,"rental_uris":{"android":"levelo://app?vid=5c634152-8612-498f-bc6f-93b4d5da1eff","ios":"levelo://app?vid=5c634152-8612-498f-bc6f-93b4d5da1eff"},"vehicle_type_id":"4","last_reported":1745921472,"current_range_meters":800,"station_id":"ce4bha12rcd13ifvqef0","pricing_plan_id":"cebpf4jnsgd1na2vs0mg"},{"bike_id":"63b01577-e63a-49d3-bb3d-e01dded7ccbc","system_id":"levelo_inurba_marseille","lat":43.26212,"lon":5.37441,"is_reserved":false,"is_disabled":true,"rental_uris":{"android":"levelo://app?vid=63b01577-e63a-49d3-bb3d-e01dded7ccbc","ios":"levelo://app?vid=63b01577-e63a-49d3-bb3d-e01dded7ccbc"},"vehicle_type_id":"4","last_reported":1745921472,"current_range_meters":1200,"station_id":"ce4bhgp2rcd13ifvqfc0","pricing_plan_id":"cebpf4jnsgd1na2vs0mg"},{"bike_id":"97e3c322-2802-4222-a660-aa78bd8139d7","system_id":"levelo_inurba_marseille","lat":43.27968,"lon":5.38741,"is_reserved":false,"is_disabled":true,"rental_uris":{"android":"levelo://app?vid=97e3c322-2802-4222-a660-aa78bd8139d7","ios":"levelo://app?vid=97e3c322-2802-4222-a660-aa78bd8139d7"},"vehicle_type_id":"4","last_reported":1745921472,"current_range_meters":1600,"station_id":"ce4bhg12rcd13ifvqf80","pricing_plan_id":"cebpf4jnsgd1na2vs0mg"},{"bike_id":"22b87a8c-daa6-4991-baf0-3ab163beac41","system_id":"levelo_inurba_marseille","lat":43.28673,"lon":5.36356,"is_reserved":false,"is_disabled":true,"rental_uris":{"android":"levelo://app?vid=22b87a8c-daa6-4991-baf0-3ab163beac41","ios":"levelo://app?vid=22b87a8c-daa6-4991-baf0-3ab163beac41"},"vehicle_type_id":"4","last_reported":1745921472,"current_range_meters":2000,"station_id":"ce4bhah2rcd13ifvqej0","pricing_plan_id":"cebpf4jnsgd1na2vs0mg"},{"bike_id":"19246a52-f950-429d-a6b5-0bd23527a4b1","system_id":"levelo_inurba_marseille","lat":43.28265,"lon":5.35063,"is_reserved":false,"is_disabled":false,"rental_uris":{"android":"levelo://app?vid=19246a52-f950-429d-a6b5-0bd23527a4b1","ios":"levelo://app?vid=19246a52-f950-429d-a6b5-0bd23527a4b1"},"vehicle_type_id":"4","last_reported":1745921472,"current_range_meters":3600,"station_id":"ce4bhbp2rcd13ifvqerg","pricing_plan_id":"cebpf4jnsgd1na2vs0mg"},{"bike_id":"579c3996-6ba3-4da4-9e87-733ce79eb220","system_id":"levelo_inurba_marseille","lat":43.29174,"lon":5.37145,"is_reserved":false,"is_disabled":false,"rental_uris":{"android":"levelo://app?vid=579c3996-6ba3-4da4-9e87-733ce79eb220","ios":"levelo://app?vid=579c3996-6ba3-4da4-9e87-733ce79eb220"},"vehicle_type_id":"4","last_reported":1745921472,"current_range_meters":4000,"station_id":"ce4bha92rcd13ifvqeh0","pricing_plan_id":"cebpf4jnsgd1na2vs0mg"},{"bike_id":"2d1ab554-2413-4535-b608-17b6218726c4","system_id":"levelo_inurba_marseille","lat":43.29227,"lon":5.36058,"is_reserved":false,"is_disabled":false,"rental_uris":{"android":"levelo://app?vid=2d1ab554-2413-4535-b608-17b6218726c4","ios":"levelo://app?vid=2d1ab554-2413-4535-b608-17b6218726c4"},"vehicle_type_id":"4","last_reported":1745921472,"current_range_meters":4000,"station_id":"ce4bhbh2rcd13ifvqeqg","pricing_plan_id":"cebpf4jnsgd1na2vs0mg"},{"bike_id":"a4c8a335-745b-4d95-97e0-7bac3cb18549","system_id":"levelo_inurba_marseille","lat":43.281316,"lon":5.398482,"is_reserved":false,"is_disabled":false,"rental_uris":{"android":"levelo://app?vid=a4c8a335-745b-4d95-97e0-7bac3cb18549","ios":"levelo://app?vid=a4c8a335-745b-4d95-97e0-7bac3cb18549"},"vehicle_type_id":"4","last_reported":1745921472,"current_range_meters":4400,"station_id":"","pricing_plan_id":"cebpf4jnsgd1na2vs0mg"},{"bike_id":"e316e9c9-3641-4187-83e7-351f605a3292","system_id":"levelo_inurba_marseille","lat":43.23196,"lon":5.3555,"is_reserved":false,"is_disabled":false,"rental_uris":{"android":"levelo://app?vid=e316e9c9-3641-4187-83e7-351f605a3292","ios":"levelo://app?vid=e316e9c9-3641-4187-83e7-351f605a3292"},"vehicle_type_id":"4","last_reported":1745921472,"current_range_meters":4400,"station_id":"ce4bhu92rcd13ifvqi70","pricing_plan_id":"cebpf4jnsgd1na2vs0mg"},{"bike_id":"26deac1f-c435-40bc-9469-9ae0b266bb77","system_id":"levelo_inurba_marseille","lat":43.30202,"lon":5.3845,"is_reserved":false,"is_disabled":false,"rental_uris":{"android":"levelo://app?vid=26deac1f-c435-40bc-9469-9ae0b266bb77","ios":"levelo://app?vid=26deac1f-c435-40bc-9469-9ae0b266bb77"},"vehicle_type_id":"4","last_reported":1745921472,"current_range_meters":6000,"station_id":"","pricing_plan_id":"cebpf4jnsgd1na2vs0mg"},{"bike_id":"a8565d0e-74c7-4812-9ed5-df524f49e4a3","system_id":"levelo_inurba_marseille","lat":43.30544,"lon":5.36555,"is_reserved":false,"is_disabled":false,"rental_uris":{"android":"levelo://app?vid=a8565d0e-74c7-4812-9ed5-df524f49e4a3","ios":"levelo://app?vid=a8565d0e-74c7-4812-9ed5-df524f49e4a3"},"vehicle_type_id":"4","last_reported":1745921472,"current_range_meters":6000,"station_id":"ce4bgs12rcd13ifvqcag","pricing_plan_id":"cebpf4jnsgd1na2vs0mg"},{"bike_id":"7a9bbc58-8ae1-40f8-91b9-e41a349f1ca1","system_id":"levelo_inurba_marseille","lat":43.23073,"lon":5.35475,"is_reserved":false,"is_disabled":false,"rental_uris":{"android":"levelo://app?vid=7a9bbc58-8ae1-40f8-91b9-e41a349f1ca1","ios":"levelo://app?vid=7a9bbc58-8ae1-40f8-91b9-e41a349f1ca1"},"vehicle_type_id":"4","last_reported":1745921472,"current_range_meters":6000,"station_id":"cpo3342slgdg3j2ifvpg","pricing_plan_id":"cebpf4jnsgd1na2vs0mg"},{"bike_id":"823a57dd-2179-498d-94b0-85f773446c0a","system_id":"levelo_inurba_marseille","lat":43.33602,"lon":5.4109,"is_reserved":false,"is_disabled":false,"rental_uris":{"android":"levelo://app?vid=823a57dd-2179-498d-94b0-85f773446c0a","ios":"levelo://app?vid=823a57dd-2179-498d-94b0-85f773446c0a"},"vehicle_type_id":"4","last_reported":1745921472,"current_range_meters":6400,"station_id":"ce4bhqh2rcd13ifvqhmg","pricing_plan_id":"cebpf4jnsgd1na2vs0mg"},{"bike_id":"0e5de2d9-d392-414d-b55a-f2700939af8b","system_id":"levelo_inurba_marseille","lat":43.26808,"lon":5.40268,"is_reserved":false,"is_disabled":false,"rental_uris":{"android":"levelo://app?vid=0e5de2d9-d392-414d-b55a-f2700939af8b","ios":"levelo://app?vid=0e5de2d9-d392-414d-b55a-f2700939af8b"},"vehicle_type_id":"4","last_reported":1745921472,"current_range_meters":6400,"station_id":"ce501612rcd8frsf0b60","pricing_plan_id":"cebpf4jnsgd1na2vs0mg"},{"bike_id":"af4f0c69-e62d-4155-b1d1-a67b45271ae1","system_id":"levelo_inurba_marseille","lat":43.24764,"lon":5.41219,"is_reserved":false,"is_disabled":false,"rental_uris":{"android":"levelo://app?vid=af4f0c69-e62d-4155-b1d1-a67b45271ae1","ios":"levelo://app?vid=af4f0c69-e62d-4155-b1d1-a67b45271ae1"},"vehicle_type_id":"4","last_reported":1745921472,"current_range_meters":6800,"station_id":"","pricing_plan_id":"cebpf4jnsgd1na2vs0mg"},{"bike_id":"90a181e3-6c03-4539-bcd6-54d3a740f581","system_id":"levelo_inurba_marseille","lat":43.290009,"lon":5.356142,"is_reserved":false,"is_disabled":false,"rental_uris":{"android":"levelo://app?vid=90a181e3-6c03-4539-bcd6-54d3a740f581","ios":"levelo://app?vid=90a181e3-6c03-4539-bcd6-54d3a740f581"},"vehicle_type_id":"4","last_reported":1745921472,"current_range_meters":6800,"station_id":"ce4bhb92rcd13ifvqen0","pricing_plan_id":"cebpf4jnsgd1na2vs0mg"},{"bike_id":"a927ad15-b129-4085-9072-8cc54f2c8cf2","system_id":"levelo_inurba_marseille","lat":43.321013,"lon":5.367758,"is_reserved":false,"is_disabled":false,"rental_uris":{"android":"levelo://app?vid=a927ad15-b129-4085-9072-8cc54f2c8cf2","ios":"levelo://app?vid=a927ad15-b129-4085-9072-8cc54f2c8cf2"},"vehicle_type_id":"4","last_reported":1745921472,"current_range_meters":6800,"station_id":"ce4bhrh2rcd13ifvqhug","pricing_plan_id":"cebpf4jnsgd1na2vs0mg"},{"bike_id":"bf05d069-2ec5-4246-9d82-6d6f716d8264","system_id":"levelo_inurba_marseille","lat":43.24168,"lon":5.36403,"is_reserved":false,"is_disabled":false,"rental_uris":{"android":"levelo://app?vid=bf05d069-2ec5-4246-9d82-6d6f716d8264","ios":"levelo://app?vid=bf05d069-2ec5-4246-9d82-6d6f716d8264"},"vehicle_type_id":"4","last_reported":1745921472,"current_range_meters":6800,"station_id":"cpo36qri1sfpv3e86is0","pricing_plan_id":"cebpf4jnsgd1na2vs0mg"},{"bike_id":"1ffa1701-5d66-4a54-9737-cc26fc010b76","system_id":"levelo_inurba_marseille","lat":43.2979,"lon":5.38099,"is_reserved":false,"is_disabled":false,"rental_uris":{"android":"levelo://app?vid=1ffa1701-5d66-4a54-9737-cc26fc010b76","ios":"levelo://app?vid=1ffa1701-5d66-4a54-9737-cc26fc010b76"},"vehicle_type_id":"4","last_reported":1745921472,"current_range_meters":8000,"station_id":"ce4bgip2rcd13ifvqbb0","pricing_plan_id":"cebpf4jnsgd1na2vs0mg"},{"bike_id":"99420b6b-5374-47ba-b9e4-992f15a54aa4","system_id":"levelo_inurba_marseille","lat":43.27378,"lon":5.36259,"is_reserved":false,"is_disabled":false,"rental_uris":{"android":"levelo://app?vid=99420b6b-5374-47ba-b9e4-992f15a54aa4","ios":"levelo://app?vid=99420b6b-5374-47ba-b9e4-992f15a54aa4"},"vehicle_type_id":"4","last_reported":1745921472,"current_range_meters":8000,"station_id":"ce4bhbh2rcd13ifvqeo0","pricing_plan_id":"cebpf4jnsgd1na2vs0mg"},{"bike_id":"01897522-4b43-491e-8e5c-59f1f7816db7","system_id":"levelo_inurba_marseille","lat":43.28421,"lon":5.34989,"is_reserved":false,"is_disabled":false,"rental_uris":{"android":"levelo://app?vid=01897522-4b43-491e-8e5c-59f1f7816db7","ios":"levelo://app?vid=01897522-4b43-491e-8e5c-59f1f7816db7"},"vehicle_type_id":"4","last_reported":1745921472,"current_range_meters":8000,"station_id":"ce4bhbh2rcd13ifvqepg","pricing_plan_id":"cebpf4jnsgd1na2vs0mg"},{"bike_id":"b7c6c638-94ed-4c6c-a347-e7816b7a3131","system_id":"levelo_inurba_marseille","lat":43.28271,"lon":5.35061,"is_reserved":false,"is_disabled":false,"rental_uris":{"android":"levelo://app?vid=b7c6c638-94ed-4c6c-a347-e7816b7a3131","ios":"levelo://app?vid=b7c6c638-94ed-4c6c-a347-e7816b7a3131"},"vehicle_type_id":"4","last_reported":1745921472,"current_range_meters":8000,"station_id":"ce4bhbp2rcd13ifvqerg","pricing_plan_id":"cebpf4jnsgd1na2vs0mg"},{"bike_id":"35b6ee82-72bf-4c96-931b-30c19ff84a76","system_id":"levelo_inurba_marseille","lat":43.28155,"lon":5.42649,"is_reserved":false,"is_disabled":false,"rental_uris":{"android":"levelo://app?vid=35b6ee82-72bf-4c96-931b-30c19ff84a76","ios":"levelo://app?vid=35b6ee82-72bf-4c96-931b-30c19ff84a76"},"vehicle_type_id":"4","last_reported":1745921472,"current_range_meters":8000,"station_id":"ce4bhnh2rcd13ifvqgug","pricing_plan_id":"cebpf4jnsgd1na2vs0mg"},{"bike_id":"1f19ae80-a633-40e2-944b-c9ca822ccc97","system_id":"levelo_inurba_marseille","lat":43.33103,"lon":5.40742,"is_reserved":false,"is_disabled":false,"rental_uris":{"android":"levelo://app?vid=1f19ae80-a633-40e2-944b-c9ca822ccc97","ios":"levelo://app?vid=1f19ae80-a633-40e2-944b-c9ca822ccc97"},"vehicle_type_id":"4","last_reported":1745921472,"current_range_meters":8400,"station_id":"","pricing_plan_id":"cebpf4jnsgd1na2vs0mg"},{"bike_id":"6ec7c9e7-8fcc-40b8-bf46-9b267c0ba9a0","system_id":"levelo_inurba_marseille","lat":43.30911,"lon":5.36843,"is_reserved":false,"is_disabled":false,"rental_uris":{"android":"levelo://app?vid=6ec7c9e7-8fcc-40b8-bf46-9b267c0ba9a0","ios":"levelo://app?vid=6ec7c9e7-8fcc-40b8-bf46-9b267c0ba9a0"},"vehicle_type_id":"4","last_reported":1745921472,"current_range_meters":8400,"station_id":"ce4bgn92rcd13ifvqbvg","pricing_plan_id":"cebpf4jnsgd1na2vs0mg"},{"bike_id":"34a57f90-577c-486d-987e-f635b782833a","system_id":"levelo_inurba_marseille","lat":43.28349,"lon":5.381073,"is_reserved":false,"is_disabled":false,"rental_uris":{"android":"levelo://app?vid=34a57f90-577c-486d-987e-f635b782833a","ios":"levelo://app?vid=34a57f90-577c-486d-987e-f635b782833a"},"vehicle_type_id":"4","last_reported":1745921472,"current_range_meters":8400,"station_id":"ce4bh412rcd13ifvqdr0","pricing_plan_id":"cebpf4jnsgd1na2vs0mg"},{"bike_id":"e664a8de-4321-40c0-92b0-4633bbf27684","system_id":"levelo_inurba_marseille","lat":43.25497,"lon":5.37649,"is_reserved":false,"is_disabled":false,"rental_uris":{"android":"levelo://app?vid=e664a8de-4321-40c0-92b0-4633bbf27684","ios":"levelo://app?vid=e664a8de-4321-40c0-92b0-4633bbf27684"},"vehicle_type_id":"4","last_reported":1745921472,"current_range_meters":8400,"station_id":"ce4bhh12rcd13ifvqff0","pricing_plan_id":"cebpf4jnsgd1na2vs0mg"},{"bike_id":"11beab31-c7c5-4dd2-a927-f48a7ff7bce4","system_id":"levelo_inurba_marseille","lat":43.324865,"lon":5.365637,"is_reserved":false,"is_disabled":false,"rental_uris":{"android":"levelo://app?vid=11beab31-c7c5-4dd2-a927-f48a7ff7bce4","ios":"levelo://app?vid=11beab31-c7c5-4dd2-a927-f48a7ff7bce4"},"vehicle_type_id":"4","last_reported":1745921472,"current_range_meters":8400,"station_id":"ce4bhs12rcd13ifvqhvg","pricing_plan_id":"cebpf4jnsgd1na2vs0mg"},{"bike_id":"e5b4b90d-e268-4de2-98f4-f6d0513f8801","system_id":"levelo_inurba_marseille","lat":43.26558,"lon":5.42206,"is_reserved":false,"is_disabled":false,"rental_uris":{"android":"levelo://app?vid=e5b4b90d-e268-4de2-98f4-f6d0513f8801","ios":"levelo://app?vid=e5b4b90d-e268-4de2-98f4-f6d0513f8801"},"vehicle_type_id":"4","last_reported":1745921472,"current_range_meters":8800,"station_id":"","pricing_plan_id":"cebpf4jnsgd1na2vs0mg"},{"bike_id":"a5a21448-fdf6-46d8-97cc-f2aa7e1ce13f","system_id":"levelo_inurba_marseille","lat":43.2794,"lon":5.41052,"is_reserved":false,"is_disabled":false,"rental_uris":{"android":"levelo://app?vid=a5a21448-fdf6-46d8-97cc-f2aa7e1ce13f","ios":"levelo://app?vid=a5a21448-fdf6-46d8-97cc-f2aa7e1ce13f"},"vehicle_type_id":"4","last_reported":1745921472,"current_range_meters":8800,"station_id":"ce4bhnp2rcd13ifvqh0g","pricing_plan_id":"cebpf4jnsgd1na2vs0mg"},{"bike_id":"745b9895-f483-41a3-8c4c-f00c28e54b9c","system_id":"levelo_inurba_marseille","lat":43.30142,"lon":5.39879,"is_reserved":false,"is_disabled":false,"rental_uris":{"android":"levelo://app?vid=745b9895-f483-41a3-8c4c-f00c28e54b9c","ios":"levelo://app?vid=745b9895-f483-41a3-8c4c-f00c28e54b9c"},"vehicle_type_id":"4","last_reported":1745921472,"current_range_meters":9200,"station_id":"ce4bh0h2rcd13ifvqd40","pricing_plan_id":"cebpf4jnsgd1na2vs0mg"},{"bike_id":"545d6e85-7c4e-4a2d-9efc-c526155753e6","system_id":"levelo_inurba_marseille","lat":43.28427,"lon":5.35014,"is_reserved":false,"is_disabled":false,"rental_uris":{"android":"levelo://app?vid=545d6e85-7c4e-4a2d-9efc-c526155753e6","ios":"levelo://app?vid=545d6e85-7c4e-4a2d-9efc-c526155753e6"},"vehicle_type_id":"4","last_reported":1745921472,"current_range_meters":9200,"station_id":"ce4bhbh2rcd13ifvqepg","pricing_plan_id":"cebpf4jnsgd1na2vs0mg"},{"bike_id":"13fdb0a5-8403-4d91-a3f0-3135ef3906a4","system_id":"levelo_inurba_marseille","lat":43.28423,"lon":5.3498,"is_reserved":false,"is_disabled":false,"rental_uris":{"android":"levelo://app?vid=13fdb0a5-8403-4d91-a3f0-3135ef3906a4","ios":"levelo://app?vid=13fdb0a5-8403-4d91-a3f0-3135ef3906a4"},"vehicle_type_id":"4","last_reported":1745921472,"current_range_meters":9200,"station_id":"ce4bhbh2rcd13ifvqepg","pricing_plan_id":"cebpf4jnsgd1na2vs0mg"},{"bike_id":"db87410b-c699-47fa-8ee4-123d3a7d8581","system_id":"levelo_inurba_marseille","lat":43.23154,"lon":5.43708,"is_reserved":false,"is_disabled":false,"rental_uris":{"android":"levelo://app?vid=db87410b-c699-47fa-8ee4-123d3a7d8581","ios":"levelo://app?vid=db87410b-c699-47fa-8ee4-123d3a7d8581"},"vehicle_type_id":"4","last_reported":1745921472,"current_range_meters":9200,"station_id":"ce4bhmp2rcd13ifvqgog","pricing_plan_id":"cebpf4jnsgd1na2vs0mg"},{"bike_id":"f8527f98-9dba-4767-9c49-2ee5632fd2af","system_id":"levelo_inurba_marseille","lat":43.2781,"lon":5.40726,"is_reserved":false,"is_disabled":false,"rental_uris":{"android":"levelo://app?vid=f8527f98-9dba-4767-9c49-2ee5632fd2af","ios":"levelo://app?vid=f8527f98-9dba-4767-9c49-2ee5632fd2af"},"vehicle_type_id":"4","last_reported":1745921472,"current_range_meters":9200,"station_id":"ce4bhnh2rcd13ifvqgtg","pricing_plan_id":"cebpf4jnsgd1na2vs0mg"},{"bike_id":"41c5c197-2d7d-4655-95f6-f84a49947d72","system_id":"levelo_inurba_marseille","lat":43.2781,"lon":5.40706,"is_reserved":false,"is_disabled":false,"rental_uris":{"android":"levelo://app?vid=41c5c197-2d7d-4655-95f6-f84a49947d72","ios":"levelo://app?vid=41c5c197-2d7d-4655-95f6-f84a49947d72"},"vehicle_type_id":"4","last_reported":1745921472,"current_range_meters":9200,"station_id":"ce4bhnh2rcd13ifvqgtg","pricing_plan_id":"cebpf4jnsgd1na2vs0mg"},{"bike_id":"af8c8c52-bc3a-4742-b1c2-30e550391e79","system_id":"levelo_inurba_marseille","lat":43.30526,"lon":5.36697,"is_reserved":false,"is_disabled":false,"rental_uris":{"android":"levelo://app?vid=af8c8c52-bc3a-4742-b1c2-30e550391e79","ios":"levelo://app?vid=af8c8c52-bc3a-4742-b1c2-30e550391e79"},"vehicle_type_id":"4","last_reported":1745921472,"current_range_meters":9600,"station_id":"ce4bgrp2rcd13ifvqc9g","pricing_plan_id":"cebpf4jnsgd1na2vs0mg"},{"bike_id":"4d2a74c4-40d6-47d9-b4ec-543887a48b0c","system_id":"levelo_inurba_marseille","lat":43.29535,"lon":5.3903,"is_reserved":false,"is_disabled":false,"rental_uris":{"android":"levelo://app?vid=4d2a74c4-40d6-47d9-b4ec-543887a48b0c","ios":"levelo://app?vid=4d2a74c4-40d6-47d9-b4ec-543887a48b0c"},"vehicle_type_id":"4","last_reported":1745921472,"current_range_meters":10000,"station_id":"ce4bh3p2rcd13ifvqdp0","pricing_plan_id":"cebpf4jnsgd1na2vs0mg"},{"bike_id":"221baf4d-c602-4577-a05a-e2579ad3dcd8","system_id":"levelo_inurba_marseille","lat":43.30926,"lon":5.36856,"is_reserved":false,"is_disabled":false,"rental_uris":{"android":"levelo://app?vid=221baf4d-c602-4577-a05a-e2579ad3dcd8","ios":"levelo://app?vid=221baf4d-c602-4577-a05a-e2579ad3dcd8"},"vehicle_type_id":"4","last_reported":1745921472,"current_range_meters":10800,"station_id":"ce4bgn92rcd13ifvqbvg","pricing_plan_id":"cebpf4jnsgd1na2vs0mg"},{"bike_id":"c037164e-6b4a-4516-a04c-fd997fdba2e3","system_id":"levelo_inurba_marseille","lat":43.30313,"lon":5.36896,"is_reserved":false,"is_disabled":false,"rental_uris":{"android":"levelo://app?vid=c037164e-6b4a-4516-a04c-fd997fdba2e3","ios":"levelo://app?vid=c037164e-6b4a-4516-a04c-fd997fdba2e3"},"vehicle_type_id":"4","last_reported":1745921472,"current_range_meters":10800,"station_id":"ce4bgqh2rcd13ifvqc5g","pricing_plan_id":"cebpf4jnsgd1na2vs0mg"},{"bike_id":"978c4f03-4d43-4305-bd80-2431ab157904","system_id":"levelo_inurba_marseille","lat":43.31364,"lon":5.3849,"is_reserved":false,"is_disabled":false,"rental_uris":{"android":"levelo://app?vid=978c4f03-4d43-4305-bd80-2431ab157904","ios":"levelo://app?vid=978c4f03-4d43-4305-bd80-2431ab157904"},"vehicle_type_id":"4","last_reported":1745921472,"current_range_meters":10800,"station_id":"ce4bgt92rcd13ifvqcf0","pricing_plan_id":"cebpf4jnsgd1na2vs0mg"},{"bike_id":"56d3126a-5caf-4303-83cc-6be1581e9786","system_id":"levelo_inurba_marseille","lat":43.248136,"lon":5.374566,"is_reserved":false,"is_disabled":false,"rental_uris":{"android":"levelo://app?vid=56d3126a-5caf-4303-83cc-6be1581e9786","ios":"levelo://app?vid=56d3126a-5caf-4303-83cc-6be1581e9786"},"vehicle_type_id":"4","last_reported":1745921472,"current_range_meters":10800,"station_id":"ce4bhgh2rcd13ifvqfb0","pricing_plan_id":"cebpf4jnsgd1na2vs0mg"},{"bike_id":"4dd68de9-38f5-4f09-b686-0416ef8c15a1","system_id":"levelo_inurba_marseille","lat":43.27576,"lon":5.38437,"is_reserved":false,"is_disabled":false,"rental_uris":{"android":"levelo://app?vid=4dd68de9-38f5-4f09-b686-0416ef8c15a1","ios":"levelo://app?vid=4dd68de9-38f5-4f09-b686-0416ef8c15a1"},"vehicle_type_id":"4","last_reported":1745921472,"current_range_meters":10800,"station_id":"ce4bhh92rcd13ifvqfi0","pricing_plan_id":"cebpf4jnsgd1na2vs0mg"},{"bike_id":"5773b8c3-4bce-4cd5-ae03-62ab7e7a7a59","system_id":"levelo_inurba_marseille","lat":43.32367,"lon":5.3888,"is_reserved":false,"is_disabled":false,"rental_uris":{"android":"levelo://app?vid=5773b8c3-4bce-4cd5-ae03-62ab7e7a7a59","ios":"levelo://app?vid=5773b8c3-4bce-4cd5-ae03-62ab7e7a7a59"},"vehicle_type_id":"4","last_reported":1745921472,"current_range_meters":10800,"station_id":"ce4bhqp2rcd13ifvqhog","pricing_plan_id":"cebpf4jnsgd1na2vs0mg"},{"bike_id":"28894e81-ede6-4351-84e3-e6b48081a345","system_id":"levelo_inurba_marseille","lat":43.33465,"lon":5.400537,"is_reserved":false,"is_disabled":false,"rental_uris":{"android":"levelo://app?vid=28894e81-ede6-4351-84e3-e6b48081a345","ios":"levelo://app?vid=28894e81-ede6-4351-84e3-e6b48081a345"},"vehicle_type_id":"4","last_reported":1745921472,"current_range_meters":11200,"station_id":"","pricing_plan_id":"cebpf4jnsgd1na2vs0mg"},{"bike_id":"e1bb458e-4b89-4822-ade5-342b1539adf2","system_id":"levelo_inurba_marseille","lat":43.29879,"lon":5.39733,"is_reserved":false,"is_disabled":false,"rental_uris":{"android":"levelo://app?vid=e1bb458e-4b89-4822-ade5-342b1539adf2","ios":"levelo://app?vid=e1bb458e-4b89-4822-ade5-342b1539adf2"},"vehicle_type_id":"4","last_reported":1745921472,"current_range_meters":11200,"station_id":"ce4bh0h2rcd13ifvqd50","pricing_plan_id":"cebpf4jnsgd1na2vs0mg"},{"bike_id":"5c1bcff4-2da6-4f00-a814-0421b24164ed","system_id":"levelo_inurba_marseille","lat":43.30085,"lon":5.39079,"is_reserved":false,"is_disabled":false,"rental_uris":{"android":"levelo://app?vid=5c1bcff4-2da6-4f00-a814-0421b24164ed","ios":"levelo://app?vid=5c1bcff4-2da6-4f00-a814-0421b24164ed"},"vehicle_type_id":"4","last_reported":1745921472,"current_range_meters":11200,"station_id":"ce4bh192rcd13ifvqdb0","pricing_plan_id":"cebpf4jnsgd1na2vs0mg"},{"bike_id":"b24d099b-c213-4d0e-8bed-0a6b1553f715","system_id":"levelo_inurba_marseille","lat":43.32478,"lon":5.36576,"is_reserved":false,"is_disabled":false,"rental_uris":{"android":"levelo://app?vid=b24d099b-c213-4d0e-8bed-0a6b1553f715","ios":"levelo://app?vid=b24d099b-c213-4d0e-8bed-0a6b1553f715"},"vehicle_type_id":"4","last_reported":1745921472,"current_range_meters":11200,"station_id":"ce4bhs12rcd13ifvqhvg","pricing_plan_id":"cebpf4jnsgd1na2vs0mg"},{"bike_id":"d58e03bb-19b9-469a-bcd7-0c3ce91d40b5","system_id":"levelo_inurba_marseille","lat":43.211942,"lon":5.350816,"is_reserved":false,"is_disabled":false,"rental_uris":{"android":"levelo://app?vid=d58e03bb-19b9-469a-bcd7-0c3ce91d40b5","ios":"levelo://app?vid=d58e03bb-19b9-469a-bcd7-0c3ce91d40b5"},"vehicle_type_id":"4","last_reported":1745921472,"current_range_meters":11600,"station_id":"","pricing_plan_id":"cebpf4jnsgd1na2vs0mg"},{"bike_id":"ad361a6a-a448-4d1a-b38a-c1c9c7fff737","system_id":"levelo_inurba_marseille","lat":43.30156,"lon":5.38093,"is_reserved":false,"is_disabled":false,"rental_uris":{"android":"levelo://app?vid=ad361a6a-a448-4d1a-b38a-c1c9c7fff737","ios":"levelo://app?vid=ad361a6a-a448-4d1a-b38a-c1c9c7fff737"},"vehicle_type_id":"4","last_reported":1745921472,"current_range_meters":11600,"station_id":"ce4bgjp2rcd13ifvqbh0","pricing_plan_id":"cebpf4jnsgd1na2vs0mg"},{"bike_id":"e0a67d71-56cf-4c6f-8cd1-18b38a5ec7fa","system_id":"levelo_inurba_marseille","lat":43.2587,"lon":5.39898,"is_reserved":false,"is_disabled":false,"rental_uris":{"android":"levelo://app?vid=e0a67d71-56cf-4c6f-8cd1-18b38a5ec7fa","ios":"levelo://app?vid=e0a67d71-56cf-4c6f-8cd1-18b38a5ec7fa"},"vehicle_type_id":"4","last_reported":1745921472,"current_range_meters":11600,"station_id":"ce4bhl92rcd13ifvqghg","pricing_plan_id":"cebpf4jnsgd1na2vs0mg"},{"bike_id":"b13f9913-27dd-4197-ba83-0d6b671b36d4","system_id":"levelo_inurba_marseille","lat":43.32499,"lon":5.36588,"is_reserved":false,"is_disabled":false,"rental_uris":{"android":"levelo://app?vid=b13f9913-27dd-4197-ba83-0d6b671b36d4","ios":"levelo://app?vid=b13f9913-27dd-4197-ba83-0d6b671b36d4"},"vehicle_type_id":"4","last_reported":1745921472,"current_range_meters":11600,"station_id":"ce4bhs12rcd13ifvqhvg","pricing_plan_id":"cebpf4jnsgd1na2vs0mg"},{"bike_id":"56c96086-c533-4033-8a3e-111b1ae1b91b","system_id":"levelo_inurba_marseille","lat":43.29934,"lon":5.36558,"is_reserved":false,"is_disabled":false,"rental_uris":{"android":"levelo://app?vid=56c96086-c533-4033-8a3e-111b1ae1b91b","ios":"levelo://app?vid=56c96086-c533-4033-8a3e-111b1ae1b91b"},"vehicle_type_id":"4","last_reported":1745921472,"current_range_meters":12400,"station_id":"ce4bgm92rcd13ifvqbr0","pricing_plan_id":"cebpf4jnsgd1na2vs0mg"},{"bike_id":"70087214-77c4-41d0-9651-7b0c8a71c604","system_id":"levelo_inurba_marseille","lat":43.30172,"lon":5.36594,"is_reserved":false,"is_disabled":false,"rental_uris":{"android":"levelo://app?vid=70087214-77c4-41d0-9651-7b0c8a71c604","ios":"levelo://app?vid=70087214-77c4-41d0-9651-7b0c8a71c604"},"vehicle_type_id":"4","last_reported":1745921472,"current_range_meters":12400,"station_id":"ce4bgrh2rcd13ifvqc8g","pricing_plan_id":"cebpf4jnsgd1na2vs0mg"},{"bike_id":"bd4dd0d7-46f4-440a-a46e-451b65dfbb5a","system_id":"levelo_inurba_marseille","lat":43.30583,"lon":5.3667,"is_reserved":false,"is_disabled":false,"rental_uris":{"android":"levelo://app?vid=bd4dd0d7-46f4-440a-a46e-451b65dfbb5a","ios":"levelo://app?vid=bd4dd0d7-46f4-440a-a46e-451b65dfbb5a"},"vehicle_type_id":"4","last_reported":1745921472,"current_range_meters":12400,"station_id":"ce4bgrp2rcd13ifvqc9g","pricing_plan_id":"cebpf4jnsgd1na2vs0mg"},{"bike_id":"324c441c-d801-49f9-a9b8-d7904f4acea2","system_id":"levelo_inurba_marseille","lat":43.26559,"lon":5.37284,"is_reserved":false,"is_disabled":false,"rental_uris":{"android":"levelo://app?vid=324c441c-d801-49f9-a9b8-d7904f4acea2","ios":"levelo://app?vid=324c441c-d801-49f9-a9b8-d7904f4acea2"},"vehicle_type_id":"4","last_reported":1745921472,"current_range_meters":12400,"station_id":"ce4bhg12rcd13ifvqf70","pricing_plan_id":"cebpf4jnsgd1na2vs0mg"},{"bike_id":"c561163e-a003-49a9-bf4f-8ad31b0bbaac","system_id":"levelo_inurba_marseille","lat":43.25717,"lon":5.41834,"is_reserved":false,"is_disabled":false,"rental_uris":{"android":"levelo://app?vid=c561163e-a003-49a9-bf4f-8ad31b0bbaac","ios":"levelo://app?vid=c561163e-a003-49a9-bf4f-8ad31b0bbaac"},"vehicle_type_id":"4","last_reported":1745921472,"current_range_meters":12800,"station_id":"","pricing_plan_id":"cebpf4jnsgd1na2vs0mg"},{"bike_id":"ebda2215-edfb-484e-93f8-a440f8ce9570","system_id":"levelo_inurba_marseille","lat":43.29613,"lon":5.37736,"is_reserved":false,"is_disabled":false,"rental_uris":{"android":"levelo://app?vid=ebda2215-edfb-484e-93f8-a440f8ce9570","ios":"levelo://app?vid=ebda2215-edfb-484e-93f8-a440f8ce9570"},"vehicle_type_id":"4","last_reported":1745921472,"current_range_meters":12800,"station_id":"ce4bgi92rcd13ifvqb90","pricing_plan_id":"cebpf4jnsgd1na2vs0mg"},{"bike_id":"356b2bc3-7073-489b-8831-c255695ff812","system_id":"levelo_inurba_marseille","lat":43.28095,"lon":5.37847,"is_reserved":false,"is_disabled":false,"rental_uris":{"android":"levelo://app?vid=356b2bc3-7073-489b-8831-c255695ff812","ios":"levelo://app?vid=356b2bc3-7073-489b-8831-c255695ff812"},"vehicle_type_id":"4","last_reported":1745921472,"current_range_meters":12800,"station_id":"ce4bha12rcd13ifvqee0","pricing_plan_id":"cebpf4jnsgd1na2vs0mg"},{"bike_id":"90ec756e-7d75-44ae-9837-bcc6f8c453df","system_id":"levelo_inurba_marseille","lat":43.23195,"lon":5.35539,"is_reserved":false,"is_disabled":false,"rental_uris":{"android":"levelo://app?vid=90ec756e-7d75-44ae-9837-bcc6f8c453df","ios":"levelo://app?vid=90ec756e-7d75-44ae-9837-bcc6f8c453df"},"vehicle_type_id":"4","last_reported":1745921472,"current_range_meters":12800,"station_id":"ce4bhu92rcd13ifvqi70","pricing_plan_id":"cebpf4jnsgd1na2vs0mg"},{"bike_id":"0eb3d368-9ac6-43d6-88f4-c6528c324d4a","system_id":"levelo_inurba_marseille","lat":43.30899,"lon":5.36826,"is_reserved":false,"is_disabled":false,"rental_uris":{"android":"levelo://app?vid=0eb3d368-9ac6-43d6-88f4-c6528c324d4a","ios":"levelo://app?vid=0eb3d368-9ac6-43d6-88f4-c6528c324d4a"},"vehicle_type_id":"4","last_reported":1745921472,"current_range_meters":13600,"station_id":"ce4bgn92rcd13ifvqbvg","pricing_plan_id":"cebpf4jnsgd1na2vs0mg"},{"bike_id":"a964f03a-e8da-4c7d-ab74-643e645d26cc","system_id":"levelo_inurba_marseille","lat":43.28942,"lon":5.39636,"is_reserved":false,"is_disabled":false,"rental_uris":{"android":"levelo://app?vid=a964f03a-e8da-4c7d-ab74-643e645d26cc","ios":"levelo://app?vid=a964f03a-e8da-4c7d-ab74-643e645d26cc"},"vehicle_type_id":"4","last_reported":1745921472,"current_range_meters":13600,"station_id":"ce4bh3h2rcd13ifvqdn0","pricing_plan_id":"cebpf4jnsgd1na2vs0mg"},{"bike_id":"6e613b7c-075e-4c0b-bfb7-0aebe53a0865","system_id":"levelo_inurba_marseille","lat":43.28672,"lon":5.38682,"is_reserved":false,"is_disabled":false,"rental_uris":{"android":"levelo://app?vid=6e613b7c-075e-4c0b-bfb7-0aebe53a0865","ios":"levelo://app?vid=6e613b7c-075e-4c0b-bfb7-0aebe53a0865"},"vehicle_type_id":"4","last_reported":1745921472,"current_range_meters":13600,"station_id":"ce4bh492rcd13ifvqdug","pricing_plan_id":"cebpf4jnsgd1na2vs0mg"},{"bike_id":"4ee8a113-f1a4-4cd8-b480-b1fb9eb60422","system_id":"levelo_inurba_marseille","lat":43.23195,"lon":5.3555,"is_reserved":false,"is_disabled":false,"rental_uris":{"android":"levelo://app?vid=4ee8a113-f1a4-4cd8-b480-b1fb9eb60422","ios":"levelo://app?vid=4ee8a113-f1a4-4cd8-b480-b1fb9eb60422"},"vehicle_type_id":"4","last_reported":1745921472,"current_range_meters":14000,"station_id":"ce4bhu92rcd13ifvqi70","pricing_plan_id":"cebpf4jnsgd1na2vs0mg"},{"bike_id":"489415b8-9254-45c1-b00c-e7554d56755c","system_id":"levelo_inurba_marseille","lat":43.245189,"lon":5.412145,"is_reserved":false,"is_disabled":false,"rental_uris":{"android":"levelo://app?vid=489415b8-9254-45c1-b00c-e7554d56755c","ios":"levelo://app?vid=489415b8-9254-45c1-b00c-e7554d56755c"},"vehicle_type_id":"4","last_reported":1745921472,"current_range_meters":14400,"station_id":"","pricing_plan_id":"cebpf4jnsgd1na2vs0mg"},{"bike_id":"7129dc9f-b27d-4eb2-9b62-71e8aabbf113","system_id":"levelo_inurba_marseille","lat":43.23182,"lon":5.39991,"is_reserved":false,"is_disabled":false,"rental_uris":{"android":"levelo://app?vid=7129dc9f-b27d-4eb2-9b62-71e8aabbf113","ios":"levelo://app?vid=7129dc9f-b27d-4eb2-9b62-71e8aabbf113"},"vehicle_type_id":"4","last_reported":1745921472,"current_range_meters":14400,"station_id":"ce4bhn12rcd13ifvqgqg","pricing_plan_id":"cebpf4jnsgd1na2vs0mg"},{"bike_id":"2d303286-1748-405f-b5c7-c9d6c2ec111c","system_id":"levelo_inurba_marseille","lat":43.24398,"lon":5.37038,"is_reserved":false,"is_disabled":false,"rental_uris":{"android":"levelo://app?vid=2d303286-1748-405f-b5c7-c9d6c2ec111c","ios":"levelo://app?vid=2d303286-1748-405f-b5c7-c9d6c2ec111c"},"vehicle_type_id":"4","last_reported":1745921472,"current_range_meters":14800,"station_id":"ce4bhhh2rcd13ifvqfk0","pricing_plan_id":"cebpf4jnsgd1na2vs0mg"},{"bike_id":"3d337857-4663-489f-893b-41ede5fdb8b8","system_id":"levelo_inurba_marseille","lat":43.33625,"lon":5.41032,"is_reserved":false,"is_disabled":false,"rental_uris":{"android":"levelo://app?vid=3d337857-4663-489f-893b-41ede5fdb8b8","ios":"levelo://app?vid=3d337857-4663-489f-893b-41ede5fdb8b8"},"vehicle_type_id":"4","last_reported":1745921472,"current_range_meters":14800,"station_id":"ce4bhqh2rcd13ifvqhmg","pricing_plan_id":"cebpf4jnsgd1na2vs0mg"},{"bike_id":"7b092f81-4cab-4312-aabe-e4160e91f931","system_id":"levelo_inurba_marseille","lat":43.30543,"lon":5.36546,"is_reserved":false,"is_disabled":false,"rental_uris":{"android":"levelo://app?vid=7b092f81-4cab-4312-aabe-e4160e91f931","ios":"levelo://app?vid=7b092f81-4cab-4312-aabe-e4160e91f931"},"vehicle_type_id":"4","last_reported":1745921472,"current_range_meters":16000,"station_id":"ce4bgs12rcd13ifvqcag","pricing_plan_id":"cebpf4jnsgd1na2vs0mg"},{"bike_id":"db6b023a-fb68-41cc-a7f8-9b2673eb0142","system_id":"levelo_inurba_marseille","lat":43.29447,"lon":5.39745,"is_reserved":false,"is_disabled":false,"rental_uris":{"android":"levelo://app?vid=db6b023a-fb68-41cc-a7f8-9b2673eb0142","ios":"levelo://app?vid=db6b023a-fb68-41cc-a7f8-9b2673eb0142"},"vehicle_type_id":"4","last_reported":1745921472,"current_range_meters":16000,"station_id":"ce4bh3h2rcd13ifvqdo0","pricing_plan_id":"cebpf4jnsgd1na2vs0mg"},{"bike_id":"3e2c401e-ca49-4745-83ea-fff5814aa0d8","system_id":"levelo_inurba_marseille","lat":43.28985,"lon":5.37845,"is_reserved":false,"is_disabled":false,"rental_uris":{"android":"levelo://app?vid=3e2c401e-ca49-4745-83ea-fff5814aa0d8","ios":"levelo://app?vid=3e2c401e-ca49-4745-83ea-fff5814aa0d8"},"vehicle_type_id":"4","last_reported":1745921472,"current_range_meters":16000,"station_id":"ce4bh9p2rcd13ifvqed0","pricing_plan_id":"cebpf4jnsgd1na2vs0mg"},{"bike_id":"ddf42e2f-5ba3-456f-b6b9-71a4fb220f7c","system_id":"levelo_inurba_marseille","lat":43.21752,"lon":5.34602,"is_reserved":false,"is_disabled":false,"rental_uris":{"android":"levelo://app?vid=ddf42e2f-5ba3-456f-b6b9-71a4fb220f7c","ios":"levelo://app?vid=ddf42e2f-5ba3-456f-b6b9-71a4fb220f7c"},"vehicle_type_id":"4","last_reported":1745921472,"current_range_meters":16400,"station_id":"","pricing_plan_id":"cebpf4jnsgd1na2vs0mg"},{"bike_id":"1cb3da76-f497-49e4-a8a6-5a0629444d60","system_id":"levelo_inurba_marseille","lat":43.29953,"lon":5.36692,"is_reserved":false,"is_disabled":false,"rental_uris":{"android":"levelo://app?vid=1cb3da76-f497-49e4-a8a6-5a0629444d60","ios":"levelo://app?vid=1cb3da76-f497-49e4-a8a6-5a0629444d60"},"vehicle_type_id":"4","last_reported":1745921472,"current_range_meters":16400,"station_id":"","pricing_plan_id":"cebpf4jnsgd1na2vs0mg"},{"bike_id":"07693e24-7000-4fd3-8fe1-8644dd3f1e08","system_id":"levelo_inurba_marseille","lat":43.24994,"lon":5.37963,"is_reserved":false,"is_disabled":false,"rental_uris":{"android":"levelo://app?vid=07693e24-7000-4fd3-8fe1-8644dd3f1e08","ios":"levelo://app?vid=07693e24-7000-4fd3-8fe1-8644dd3f1e08"},"vehicle_type_id":"4","last_reported":1745921472,"current_range_meters":16400,"station_id":"","pricing_plan_id":"cebpf4jnsgd1na2vs0mg"},{"bike_id":"fcfc4d22-1e3f-4c30-a4b2-3667e5fef044","system_id":"levelo_inurba_marseille","lat":43.29939,"lon":5.36555,"is_reserved":false,"is_disabled":false,"rental_uris":{"android":"levelo://app?vid=fcfc4d22-1e3f-4c30-a4b2-3667e5fef044","ios":"levelo://app?vid=fcfc4d22-1e3f-4c30-a4b2-3667e5fef044"},"vehicle_type_id":"4","last_reported":1745921472,"current_range_meters":16400,"station_id":"ce4bgm92rcd13ifvqbr0","pricing_plan_id":"cebpf4jnsgd1na2vs0mg"},{"bike_id":"76af5874-77c9-4c9d-9dc4-5db82c4ebf2b","system_id":"levelo_inurba_marseille","lat":43.29039,"lon":5.39963,"is_reserved":false,"is_disabled":false,"rental_uris":{"android":"levelo://app?vid=76af5874-77c9-4c9d-9dc4-5db82c4ebf2b","ios":"levelo://app?vid=76af5874-77c9-4c9d-9dc4-5db82c4ebf2b"},"vehicle_type_id":"4","last_reported":1745921472,"current_range_meters":16400,"station_id":"ce4bh392rcd13ifvqdm0","pricing_plan_id":"cebpf4jnsgd1na2vs0mg"},{"bike_id":"3116d66b-5e57-4f41-b790-e11ad4af653f","system_id":"levelo_inurba_marseille","lat":43.2799,"lon":5.41648,"is_reserved":false,"is_disabled":false,"rental_uris":{"android":"levelo://app?vid=3116d66b-5e57-4f41-b790-e11ad4af653f","ios":"levelo://app?vid=3116d66b-5e57-4f41-b790-e11ad4af653f"},"vehicle_type_id":"4","last_reported":1745921472,"current_range_meters":16400,"station_id":"ce4bho12rcd13ifvqh1g","pricing_plan_id":"cebpf4jnsgd1na2vs0mg"},{"bike_id":"fe8960e1-228f-4306-bc25-b57b60a713c0","system_id":"levelo_inurba_marseille","lat":43.21755,"lon":5.34603,"is_reserved":false,"is_disabled":false,"rental_uris":{"android":"levelo://app?vid=fe8960e1-228f-4306-bc25-b57b60a713c0","ios":"levelo://app?vid=fe8960e1-228f-4306-bc25-b57b60a713c0"},"vehicle_type_id":"4","last_reported":1745921472,"current_range_meters":16800,"station_id":"","pricing_plan_id":"cebpf4jnsgd1na2vs0mg"},{"bike_id":"bfed2da6-0d8b-41a3-9024-fac66defb3de","system_id":"levelo_inurba_marseille","lat":43.30902,"lon":5.36853,"is_reserved":false,"is_disabled":false,"rental_uris":{"android":"levelo://app?vid=bfed2da6-0d8b-41a3-9024-fac66defb3de","ios":"levelo://app?vid=bfed2da6-0d8b-41a3-9024-fac66defb3de"},"vehicle_type_id":"4","last_reported":1745921472,"current_range_meters":16800,"station_id":"ce4bgn92rcd13ifvqbvg","pricing_plan_id":"cebpf4jnsgd1na2vs0mg"},{"bike_id":"bd819a87-aa03-451e-a3fd-4650be6bf34a","system_id":"levelo_inurba_marseille","lat":43.30531,"lon":5.3656,"is_reserved":false,"is_disabled":false,"rental_uris":{"android":"levelo://app?vid=bd819a87-aa03-451e-a3fd-4650be6bf34a","ios":"levelo://app?vid=bd819a87-aa03-451e-a3fd-4650be6bf34a"},"vehicle_type_id":"4","last_reported":1745921472,"current_range_meters":16800,"station_id":"ce4bgs12rcd13ifvqcag","pricing_plan_id":"cebpf4jnsgd1na2vs0mg"},{"bike_id":"9f3727a4-65e1-4500-a436-10e0621cddaf","system_id":"levelo_inurba_marseille","lat":43.28164,"lon":5.42626,"is_reserved":false,"is_disabled":false,"rental_uris":{"android":"levelo://app?vid=9f3727a4-65e1-4500-a436-10e0621cddaf","ios":"levelo://app?vid=9f3727a4-65e1-4500-a436-10e0621cddaf"},"vehicle_type_id":"4","last_reported":1745921472,"current_range_meters":16800,"station_id":"ce4bhnh2rcd13ifvqgug","pricing_plan_id":"cebpf4jnsgd1na2vs0mg"},{"bike_id":"af4d5a53-d44a-40d9-aae0-e385a0ec276e","system_id":"levelo_inurba_marseille","lat":43.23195,"lon":5.35559,"is_reserved":false,"is_disabled":false,"rental_uris":{"android":"levelo://app?vid=af4d5a53-d44a-40d9-aae0-e385a0ec276e","ios":"levelo://app?vid=af4d5a53-d44a-40d9-aae0-e385a0ec276e"},"vehicle_type_id":"4","last_reported":1745921472,"current_range_meters":16800,"station_id":"ce4bhu92rcd13ifvqi70","pricing_plan_id":"cebpf4jnsgd1na2vs0mg"},{"bike_id":"d2f13750-e22a-4165-8dd4-3429f9cedb09","system_id":"levelo_inurba_marseille","lat":43.292847,"lon":5.375897,"is_reserved":false,"is_disabled":false,"rental_uris":{"android":"levelo://app?vid=d2f13750-e22a-4165-8dd4-3429f9cedb09","ios":"levelo://app?vid=d2f13750-e22a-4165-8dd4-3429f9cedb09"},"vehicle_type_id":"4","last_reported":1745921472,"current_range_meters":17200,"station_id":"ce4bgi12rcd13ifvqb80","pricing_plan_id":"cebpf4jnsgd1na2vs0mg"},{"bike_id":"3dc5334e-7f78-456d-aca8-0c7179f6fb19","system_id":"levelo_inurba_marseille","lat":43.29047,"lon":5.39977,"is_reserved":false,"is_disabled":false,"rental_uris":{"android":"levelo://app?vid=3dc5334e-7f78-456d-aca8-0c7179f6fb19","ios":"levelo://app?vid=3dc5334e-7f78-456d-aca8-0c7179f6fb19"},"vehicle_type_id":"4","last_reported":1745921472,"current_range_meters":17200,"station_id":"ce4bh392rcd13ifvqdm0","pricing_plan_id":"cebpf4jnsgd1na2vs0mg"},{"bike_id":"1ff7221b-8e1e-4dce-9e57-4aed861ca4b9","system_id":"levelo_inurba_marseille","lat":43.33746,"lon":5.39169,"is_reserved":false,"is_disabled":false,"rental_uris":{"android":"levelo://app?vid=1ff7221b-8e1e-4dce-9e57-4aed861ca4b9","ios":"levelo://app?vid=1ff7221b-8e1e-4dce-9e57-4aed861ca4b9"},"vehicle_type_id":"4","last_reported":1745921472,"current_range_meters":17200,"station_id":"ce4bhr92rcd13ifvqhsg","pricing_plan_id":"cebpf4jnsgd1na2vs0mg"},{"bike_id":"4f257de4-5ee9-4747-a036-9aa9f4b756cb","system_id":"levelo_inurba_marseille","lat":43.28273,"lon":5.3508,"is_reserved":false,"is_disabled":false,"rental_uris":{"android":"levelo://app?vid=4f257de4-5ee9-4747-a036-9aa9f4b756cb","ios":"levelo://app?vid=4f257de4-5ee9-4747-a036-9aa9f4b756cb"},"vehicle_type_id":"4","last_reported":1745921472,"current_range_meters":17600,"station_id":"ce4bhbp2rcd13ifvqerg","pricing_plan_id":"cebpf4jnsgd1na2vs0mg"},{"bike_id":"6f5ae455-fcc6-469e-8940-5aae42fecf06","system_id":"levelo_inurba_marseille","lat":43.28615,"lon":5.35106,"is_reserved":false,"is_disabled":false,"rental_uris":{"android":"levelo://app?vid=6f5ae455-fcc6-469e-8940-5aae42fecf06","ios":"levelo://app?vid=6f5ae455-fcc6-469e-8940-5aae42fecf06"},"vehicle_type_id":"4","last_reported":1745921472,"current_range_meters":17600,"station_id":"ce4bhch2rcd13ifvqeug","pricing_plan_id":"cebpf4jnsgd1na2vs0mg"},{"bike_id":"0c46722b-9dcc-4cf2-bae2-44ec0553adae","system_id":"levelo_inurba_marseille","lat":43.309075,"lon":5.368374,"is_reserved":false,"is_disabled":false,"rental_uris":{"android":"levelo://app?vid=0c46722b-9dcc-4cf2-bae2-44ec0553adae","ios":"levelo://app?vid=0c46722b-9dcc-4cf2-bae2-44ec0553adae"},"vehicle_type_id":"4","last_reported":1745921472,"current_range_meters":18000,"station_id":"ce4bgn92rcd13ifvqbvg","pricing_plan_id":"cebpf4jnsgd1na2vs0mg"},{"bike_id":"a90a1ea1-0ac8-4fdc-94b8-ebe3ef5eef26","system_id":"levelo_inurba_marseille","lat":43.29621,"lon":5.37174,"is_reserved":false,"is_disabled":false,"rental_uris":{"android":"levelo://app?vid=a90a1ea1-0ac8-4fdc-94b8-ebe3ef5eef26","ios":"levelo://app?vid=a90a1ea1-0ac8-4fdc-94b8-ebe3ef5eef26"},"vehicle_type_id":"4","last_reported":1745921472,"current_range_meters":18000,"station_id":"ce4bgnh2rcd13ifvqc0g","pricing_plan_id":"cebpf4jnsgd1na2vs0mg"},{"bike_id":"98759f99-1bbc-4a78-983b-b56bec366500","system_id":"levelo_inurba_marseille","lat":43.27041,"lon":5.40285,"is_reserved":false,"is_disabled":false,"rental_uris":{"android":"levelo://app?vid=98759f99-1bbc-4a78-983b-b56bec366500","ios":"levelo://app?vid=98759f99-1bbc-4a78-983b-b56bec366500"},"vehicle_type_id":"4","last_reported":1745921472,"current_range_meters":18000,"station_id":"ce4bhk92rcd13ifvqgc0","pricing_plan_id":"cebpf4jnsgd1na2vs0mg"},{"bike_id":"d99bbe3b-2af1-4b73-8e26-c06f6faeba9b","system_id":"levelo_inurba_marseille","lat":43.32105,"lon":5.36769,"is_reserved":false,"is_disabled":false,"rental_uris":{"android":"levelo://app?vid=d99bbe3b-2af1-4b73-8e26-c06f6faeba9b","ios":"levelo://app?vid=d99bbe3b-2af1-4b73-8e26-c06f6faeba9b"},"vehicle_type_id":"4","last_reported":1745921472,"current_range_meters":18000,"station_id":"ce4bhrh2rcd13ifvqhug","pricing_plan_id":"cebpf4jnsgd1na2vs0mg"},{"bike_id":"47a9c5d0-ed84-424b-98b1-5dc8bf5c9b1b","system_id":"levelo_inurba_marseille","lat":43.30919,"lon":5.36818,"is_reserved":false,"is_disabled":false,"rental_uris":{"android":"levelo://app?vid=47a9c5d0-ed84-424b-98b1-5dc8bf5c9b1b","ios":"levelo://app?vid=47a9c5d0-ed84-424b-98b1-5dc8bf5c9b1b"},"vehicle_type_id":"4","last_reported":1745921472,"current_range_meters":18800,"station_id":"ce4bgn92rcd13ifvqbvg","pricing_plan_id":"cebpf4jnsgd1na2vs0mg"},{"bike_id":"9195c75b-fbb7-4a46-b4b5-16dd2350c568","system_id":"levelo_inurba_marseille","lat":43.30538,"lon":5.36693,"is_reserved":false,"is_disabled":false,"rental_uris":{"android":"levelo://app?vid=9195c75b-fbb7-4a46-b4b5-16dd2350c568","ios":"levelo://app?vid=9195c75b-fbb7-4a46-b4b5-16dd2350c568"},"vehicle_type_id":"4","last_reported":1745921472,"current_range_meters":18800,"station_id":"ce4bgrp2rcd13ifvqc9g","pricing_plan_id":"cebpf4jnsgd1na2vs0mg"},{"bike_id":"13368c26-5f43-40f0-893f-bdf1b09fa7e8","system_id":"levelo_inurba_marseille","lat":43.29507,"lon":5.39403,"is_reserved":false,"is_disabled":false,"rental_uris":{"android":"levelo://app?vid=13368c26-5f43-40f0-893f-bdf1b09fa7e8","ios":"levelo://app?vid=13368c26-5f43-40f0-893f-bdf1b09fa7e8"},"vehicle_type_id":"4","last_reported":1745921472,"current_range_meters":18800,"station_id":"ce4bh292rcd13ifvqdf0","pricing_plan_id":"cebpf4jnsgd1na2vs0mg"},{"bike_id":"d9e08f95-179f-4ae0-9bc2-e736de45549e","system_id":"levelo_inurba_marseille","lat":43.23966,"lon":5.36647,"is_reserved":false,"is_disabled":false,"rental_uris":{"android":"levelo://app?vid=d9e08f95-179f-4ae0-9bc2-e736de45549e","ios":"levelo://app?vid=d9e08f95-179f-4ae0-9bc2-e736de45549e"},"vehicle_type_id":"4","last_reported":1745921472,"current_range_meters":18800,"station_id":"ce4bhi12rcd13ifvqfp0","pricing_plan_id":"cebpf4jnsgd1na2vs0mg"},{"bike_id":"bf7edfbb-25e4-4844-a297-4a2e05e889ef","system_id":"levelo_inurba_marseille","lat":43.26197,"lon":5.37933,"is_reserved":false,"is_disabled":false,"rental_uris":{"android":"levelo://app?vid=bf7edfbb-25e4-4844-a297-4a2e05e889ef","ios":"levelo://app?vid=bf7edfbb-25e4-4844-a297-4a2e05e889ef"},"vehicle_type_id":"4","last_reported":1745921472,"current_range_meters":18800,"station_id":"ce4bhjp2rcd13ifvqg90","pricing_plan_id":"cebpf4jnsgd1na2vs0mg"},{"bike_id":"32b33499-54fa-4c63-b565-ff6a41c5eea4","system_id":"levelo_inurba_marseille","lat":43.24187,"lon":5.39737,"is_reserved":false,"is_disabled":false,"rental_uris":{"android":"levelo://app?vid=32b33499-54fa-4c63-b565-ff6a41c5eea4","ios":"levelo://app?vid=32b33499-54fa-4c63-b565-ff6a41c5eea4"},"vehicle_type_id":"4","last_reported":1745921472,"current_range_meters":18800,"station_id":"ce4bhn12rcd13ifvqgpg","pricing_plan_id":"cebpf4jnsgd1na2vs0mg"},{"bike_id":"ce2710b2-8aee-43d8-8ef3-2843f2527c66","system_id":"levelo_inurba_marseille","lat":43.24181,"lon":5.36379,"is_reserved":false,"is_disabled":false,"rental_uris":{"android":"levelo://app?vid=ce2710b2-8aee-43d8-8ef3-2843f2527c66","ios":"levelo://app?vid=ce2710b2-8aee-43d8-8ef3-2843f2527c66"},"vehicle_type_id":"4","last_reported":1745921472,"current_range_meters":18800,"station_id":"cpo36qri1sfpv3e86is0","pricing_plan_id":"cebpf4jnsgd1na2vs0mg"},{"bike_id":"942e1be8-0b4c-4b58-97b4-0482c4bdb7e4","system_id":"levelo_inurba_marseille","lat":43.30883,"lon":5.36865,"is_reserved":false,"is_disabled":false,"rental_uris":{"android":"levelo://app?vid=942e1be8-0b4c-4b58-97b4-0482c4bdb7e4","ios":"levelo://app?vid=942e1be8-0b4c-4b58-97b4-0482c4bdb7e4"},"vehicle_type_id":"4","last_reported":1745921472,"current_range_meters":19200,"station_id":"ce4bgn92rcd13ifvqbvg","pricing_plan_id":"cebpf4jnsgd1na2vs0mg"},{"bike_id":"a449696b-1a08-4fc8-84f7-2bee3f790d48","system_id":"levelo_inurba_marseille","lat":43.28423,"lon":5.34986,"is_reserved":false,"is_disabled":false,"rental_uris":{"android":"levelo://app?vid=a449696b-1a08-4fc8-84f7-2bee3f790d48","ios":"levelo://app?vid=a449696b-1a08-4fc8-84f7-2bee3f790d48"},"vehicle_type_id":"4","last_reported":1745921472,"current_range_meters":19200,"station_id":"ce4bhbh2rcd13ifvqepg","pricing_plan_id":"cebpf4jnsgd1na2vs0mg"},{"bike_id":"613dd303-9b9b-490c-8b90-12fd790120cd","system_id":"levelo_inurba_marseille","lat":43.23144,"lon":5.43709,"is_reserved":false,"is_disabled":false,"rental_uris":{"android":"levelo://app?vid=613dd303-9b9b-490c-8b90-12fd790120cd","ios":"levelo://app?vid=613dd303-9b9b-490c-8b90-12fd790120cd"},"vehicle_type_id":"4","last_reported":1745921472,"current_range_meters":19200,"station_id":"ce4bhmp2rcd13ifvqgog","pricing_plan_id":"cebpf4jnsgd1na2vs0mg"},{"bike_id":"3fd0ef00-618e-4001-a774-5ba471e6404d","system_id":"levelo_inurba_marseille","lat":43.23145,"lon":5.43711,"is_reserved":false,"is_disabled":false,"rental_uris":{"android":"levelo://app?vid=3fd0ef00-618e-4001-a774-5ba471e6404d","ios":"levelo://app?vid=3fd0ef00-618e-4001-a774-5ba471e6404d"},"vehicle_type_id":"4","last_reported":1745921472,"current_range_meters":19200,"station_id":"ce4bhmp2rcd13ifvqgog","pricing_plan_id":"cebpf4jnsgd1na2vs0mg"},{"bike_id":"4678f98c-9605-485e-9f52-d38650b7e3f9","system_id":"levelo_inurba_marseille","lat":43.324719,"lon":5.365652,"is_reserved":false,"is_disabled":false,"rental_uris":{"android":"levelo://app?vid=4678f98c-9605-485e-9f52-d38650b7e3f9","ios":"levelo://app?vid=4678f98c-9605-485e-9f52-d38650b7e3f9"},"vehicle_type_id":"4","last_reported":1745921472,"current_range_meters":19200,"station_id":"ce4bhs12rcd13ifvqhvg","pricing_plan_id":"cebpf4jnsgd1na2vs0mg"},{"bike_id":"8fceefae-27dc-47cb-bb3b-f35eafd2131c","system_id":"levelo_inurba_marseille","lat":43.31533,"lon":5.38037,"is_reserved":false,"is_disabled":false,"rental_uris":{"android":"levelo://app?vid=8fceefae-27dc-47cb-bb3b-f35eafd2131c","ios":"levelo://app?vid=8fceefae-27dc-47cb-bb3b-f35eafd2131c"},"vehicle_type_id":"4","last_reported":1745921472,"current_range_meters":19200,"station_id":"ce4bhsp2rcd13ifvqi50","pricing_plan_id":"cebpf4jnsgd1na2vs0mg"},{"bike_id":"b26a0b33-650f-4f7b-8536-58a942167ba4","system_id":"levelo_inurba_marseille","lat":43.23201,"lon":5.35548,"is_reserved":false,"is_disabled":false,"rental_uris":{"android":"levelo://app?vid=b26a0b33-650f-4f7b-8536-58a942167ba4","ios":"levelo://app?vid=b26a0b33-650f-4f7b-8536-58a942167ba4"},"vehicle_type_id":"4","last_reported":1745921472,"current_range_meters":19200,"station_id":"ce4bhu92rcd13ifvqi70","pricing_plan_id":"cebpf4jnsgd1na2vs0mg"},{"bike_id":"86c2979e-8cf6-48ed-bdb1-835ff11e3adc","system_id":"levelo_inurba_marseille","lat":43.2542,"lon":5.41835,"is_reserved":false,"is_disabled":false,"rental_uris":{"android":"levelo://app?vid=86c2979e-8cf6-48ed-bdb1-835ff11e3adc","ios":"levelo://app?vid=86c2979e-8cf6-48ed-bdb1-835ff11e3adc"},"vehicle_type_id":"4","last_reported":1745921472,"current_range_meters":19600,"station_id":"","pricing_plan_id":"cebpf4jnsgd1na2vs0mg"},{"bike_id":"1aa43037-e734-4c2c-97bd-6469b528c017","system_id":"levelo_inurba_marseille","lat":43.30537,"lon":5.36696,"is_reserved":false,"is_disabled":false,"rental_uris":{"android":"levelo://app?vid=1aa43037-e734-4c2c-97bd-6469b528c017","ios":"levelo://app?vid=1aa43037-e734-4c2c-97bd-6469b528c017"},"vehicle_type_id":"4","last_reported":1745921472,"current_range_meters":19600,"station_id":"ce4bgrp2rcd13ifvqc9g","pricing_plan_id":"cebpf4jnsgd1na2vs0mg"},{"bike_id":"946f161a-49e1-4f5b-a2c3-788e3eb20de5","system_id":"levelo_inurba_marseille","lat":43.30536,"lon":5.36685,"is_reserved":false,"is_disabled":false,"rental_uris":{"android":"levelo://app?vid=946f161a-49e1-4f5b-a2c3-788e3eb20de5","ios":"levelo://app?vid=946f161a-49e1-4f5b-a2c3-788e3eb20de5"},"vehicle_type_id":"4","last_reported":1745921472,"current_range_meters":19600,"station_id":"ce4bgrp2rcd13ifvqc9g","pricing_plan_id":"cebpf4jnsgd1na2vs0mg"},{"bike_id":"2a545176-797e-4a22-9aa6-6f5afa43ba0c","system_id":"levelo_inurba_marseille","lat":43.30538,"lon":5.36543,"is_reserved":false,"is_disabled":false,"rental_uris":{"android":"levelo://app?vid=2a545176-797e-4a22-9aa6-6f5afa43ba0c","ios":"levelo://app?vid=2a545176-797e-4a22-9aa6-6f5afa43ba0c"},"vehicle_type_id":"4","last_reported":1745921472,"current_range_meters":19600,"station_id":"ce4bgs12rcd13ifvqcag","pricing_plan_id":"cebpf4jnsgd1na2vs0mg"},{"bike_id":"31b29cd9-a9f7-45cd-9ff7-0571dd59fff7","system_id":"levelo_inurba_marseille","lat":43.29046,"lon":5.39983,"is_reserved":false,"is_disabled":false,"rental_uris":{"android":"levelo://app?vid=31b29cd9-a9f7-45cd-9ff7-0571dd59fff7","ios":"levelo://app?vid=31b29cd9-a9f7-45cd-9ff7-0571dd59fff7"},"vehicle_type_id":"4","last_reported":1745921472,"current_range_meters":19600,"station_id":"ce4bh392rcd13ifvqdm0","pricing_plan_id":"cebpf4jnsgd1na2vs0mg"},{"bike_id":"702857a5-ddbd-41c7-a712-01fba97a6f57","system_id":"levelo_inurba_marseille","lat":43.28263,"lon":5.35067,"is_reserved":false,"is_disabled":false,"rental_uris":{"android":"levelo://app?vid=702857a5-ddbd-41c7-a712-01fba97a6f57","ios":"levelo://app?vid=702857a5-ddbd-41c7-a712-01fba97a6f57"},"vehicle_type_id":"4","last_reported":1745921472,"current_range_meters":19600,"station_id":"ce4bhbp2rcd13ifvqerg","pricing_plan_id":"cebpf4jnsgd1na2vs0mg"},{"bike_id":"3f2c8720-4262-4c4b-b203-35899e59c127","system_id":"levelo_inurba_marseille","lat":43.34138,"lon":5.40915,"is_reserved":false,"is_disabled":false,"rental_uris":{"android":"levelo://app?vid=3f2c8720-4262-4c4b-b203-35899e59c127","ios":"levelo://app?vid=3f2c8720-4262-4c4b-b203-35899e59c127"},"vehicle_type_id":"4","last_reported":1745921472,"current_range_meters":19600,"station_id":"ce4bhqh2rcd13ifvqhlg","pricing_plan_id":"cebpf4jnsgd1na2vs0mg"},{"bike_id":"fce2c520-92d3-4d18-810b-8d643fc15a1a","system_id":"levelo_inurba_marseille","lat":43.23078,"lon":5.35467,"is_reserved":false,"is_disabled":false,"rental_uris":{"android":"levelo://app?vid=fce2c520-92d3-4d18-810b-8d643fc15a1a","ios":"levelo://app?vid=fce2c520-92d3-4d18-810b-8d643fc15a1a"},"vehicle_type_id":"4","last_reported":1745921472,"current_range_meters":19600,"station_id":"cpo3342slgdg3j2ifvpg","pricing_plan_id":"cebpf4jnsgd1na2vs0mg"},{"bike_id":"da96aa7a-93b4-48a0-bb1d-180b0e4b55f8","system_id":"levelo_inurba_marseille","lat":43.30954,"lon":5.39044,"is_reserved":false,"is_disabled":false,"rental_uris":{"android":"levelo://app?vid=da96aa7a-93b4-48a0-bb1d-180b0e4b55f8","ios":"levelo://app?vid=da96aa7a-93b4-48a0-bb1d-180b0e4b55f8"},"vehicle_type_id":"4","last_reported":1745921472,"current_range_meters":20000,"station_id":"ce4bgup2rcd13ifvqco0","pricing_plan_id":"cebpf4jnsgd1na2vs0mg"},{"bike_id":"404f8bb0-e61e-473d-84e3-ad9a44a44b05","system_id":"levelo_inurba_marseille","lat":43.28416,"lon":5.34981,"is_reserved":false,"is_disabled":false,"rental_uris":{"android":"levelo://app?vid=404f8bb0-e61e-473d-84e3-ad9a44a44b05","ios":"levelo://app?vid=404f8bb0-e61e-473d-84e3-ad9a44a44b05"},"vehicle_type_id":"4","last_reported":1745921472,"current_range_meters":20000,"station_id":"ce4bhbh2rcd13ifvqepg","pricing_plan_id":"cebpf4jnsgd1na2vs0mg"},{"bike_id":"0340a9a7-a8a2-4179-baa6-ff873ae7770e","system_id":"levelo_inurba_marseille","lat":43.2706,"lon":5.40259,"is_reserved":false,"is_disabled":false,"rental_uris":{"android":"levelo://app?vid=0340a9a7-a8a2-4179-baa6-ff873ae7770e","ios":"levelo://app?vid=0340a9a7-a8a2-4179-baa6-ff873ae7770e"},"vehicle_type_id":"4","last_reported":1745921472,"current_range_meters":20000,"station_id":"ce4bhk92rcd13ifvqgc0","pricing_plan_id":"cebpf4jnsgd1na2vs0mg"},{"bike_id":"a84d2b28-71d8-476e-a9cd-cac83e8ddc72","system_id":"levelo_inurba_marseille","lat":43.2587,"lon":5.3989,"is_reserved":false,"is_disabled":false,"rental_uris":{"android":"levelo://app?vid=a84d2b28-71d8-476e-a9cd-cac83e8ddc72","ios":"levelo://app?vid=a84d2b28-71d8-476e-a9cd-cac83e8ddc72"},"vehicle_type_id":"4","last_reported":1745921472,"current_range_meters":20000,"station_id":"ce4bhl92rcd13ifvqghg","pricing_plan_id":"cebpf4jnsgd1na2vs0mg"},{"bike_id":"b74c9413-6f76-4cf0-89c3-c3ff3e121bb7","system_id":"levelo_inurba_marseille","lat":43.278095,"lon":5.407159,"is_reserved":false,"is_disabled":false,"rental_uris":{"android":"levelo://app?vid=b74c9413-6f76-4cf0-89c3-c3ff3e121bb7","ios":"levelo://app?vid=b74c9413-6f76-4cf0-89c3-c3ff3e121bb7"},"vehicle_type_id":"4","last_reported":1745921472,"current_range_meters":20000,"station_id":"ce4bhnh2rcd13ifvqgtg","pricing_plan_id":"cebpf4jnsgd1na2vs0mg"},{"bike_id":"413264ce-5e6a-42a6-8111-b4e2202bdb6f","system_id":"levelo_inurba_marseille","lat":43.31084,"lon":5.42431,"is_reserved":false,"is_disabled":false,"rental_uris":{"android":"levelo://app?vid=413264ce-5e6a-42a6-8111-b4e2202bdb6f","ios":"levelo://app?vid=413264ce-5e6a-42a6-8111-b4e2202bdb6f"},"vehicle_type_id":"4","last_reported":1745921472,"current_range_meters":20000,"station_id":"ce4bhp92rcd13ifvqhag","pricing_plan_id":"cebpf4jnsgd1na2vs0mg"},{"bike_id":"a6d0ce6a-843f-4729-9a07-a84d24e9d12a","system_id":"levelo_inurba_marseille","lat":43.24167,"lon":5.3639,"is_reserved":false,"is_disabled":false,"rental_uris":{"android":"levelo://app?vid=a6d0ce6a-843f-4729-9a07-a84d24e9d12a","ios":"levelo://app?vid=a6d0ce6a-843f-4729-9a07-a84d24e9d12a"},"vehicle_type_id":"4","last_reported":1745921472,"current_range_meters":20000,"station_id":"cpo36qri1sfpv3e86is0","pricing_plan_id":"cebpf4jnsgd1na2vs0mg"},{"bike_id":"637f17b1-a980-4bc5-993d-9a9de04fb5bf","system_id":"levelo_inurba_marseille","lat":43.31467,"lon":5.36881,"is_reserved":false,"is_disabled":false,"rental_uris":{"android":"levelo://app?vid=637f17b1-a980-4bc5-993d-9a9de04fb5bf","ios":"levelo://app?vid=637f17b1-a980-4bc5-993d-9a9de04fb5bf"},"vehicle_type_id":"4","last_reported":1745921472,"current_range_meters":20400,"station_id":"","pricing_plan_id":"cebpf4jnsgd1na2vs0mg"},{"bike_id":"7fad7121-638c-46ed-8a50-1c8d09a2c238","system_id":"levelo_inurba_marseille","lat":43.3013,"lon":5.39876,"is_reserved":false,"is_disabled":false,"rental_uris":{"android":"levelo://app?vid=7fad7121-638c-46ed-8a50-1c8d09a2c238","ios":"levelo://app?vid=7fad7121-638c-46ed-8a50-1c8d09a2c238"},"vehicle_type_id":"4","last_reported":1745921472,"current_range_meters":20400,"station_id":"ce4bh0h2rcd13ifvqd40","pricing_plan_id":"cebpf4jnsgd1na2vs0mg"},{"bike_id":"32527666-35d8-45a7-a435-6e8a76300004","system_id":"levelo_inurba_marseille","lat":43.24646,"lon":5.3889,"is_reserved":false,"is_disabled":false,"rental_uris":{"android":"levelo://app?vid=32527666-35d8-45a7-a435-6e8a76300004","ios":"levelo://app?vid=32527666-35d8-45a7-a435-6e8a76300004"},"vehicle_type_id":"4","last_reported":1745921472,"current_range_meters":20400,"station_id":"ce4bhg12rcd13ifvqf60","pricing_plan_id":"cebpf4jnsgd1na2vs0mg"},{"bike_id":"cab04114-7539-4c23-9a1a-60304e599a43","system_id":"levelo_inurba_marseille","lat":43.2622,"lon":5.40449,"is_reserved":false,"is_disabled":false,"rental_uris":{"android":"levelo://app?vid=cab04114-7539-4c23-9a1a-60304e599a43","ios":"levelo://app?vid=cab04114-7539-4c23-9a1a-60304e599a43"},"vehicle_type_id":"4","last_reported":1745921472,"current_range_meters":20400,"station_id":"ce4bhmh2rcd13ifvqgmg","pricing_plan_id":"cebpf4jnsgd1na2vs0mg"},{"bike_id":"8c6a8a46-4537-47a3-8f6f-698154bf9976","system_id":"levelo_inurba_marseille","lat":43.34144,"lon":5.40909,"is_reserved":false,"is_disabled":false,"rental_uris":{"android":"levelo://app?vid=8c6a8a46-4537-47a3-8f6f-698154bf9976","ios":"levelo://app?vid=8c6a8a46-4537-47a3-8f6f-698154bf9976"},"vehicle_type_id":"4","last_reported":1745921472,"current_range_meters":20400,"station_id":"ce4bhqh2rcd13ifvqhlg","pricing_plan_id":"cebpf4jnsgd1na2vs0mg"},{"bike_id":"456540d1-7e4b-4c94-81f7-c6140e987cde","system_id":"levelo_inurba_marseille","lat":43.33017,"lon":5.39044,"is_reserved":false,"is_disabled":false,"rental_uris":{"android":"levelo://app?vid=456540d1-7e4b-4c94-81f7-c6140e987cde","ios":"levelo://app?vid=456540d1-7e4b-4c94-81f7-c6140e987cde"},"vehicle_type_id":"4","last_reported":1745921472,"current_range_meters":20400,"station_id":"ce4bhr92rcd13ifvqhrg","pricing_plan_id":"cebpf4jnsgd1na2vs0mg"},{"bike_id":"4974ee8a-8937-46e6-aada-e77179cb74ac","system_id":"levelo_inurba_marseille","lat":43.2119,"lon":5.35066,"is_reserved":false,"is_disabled":false,"rental_uris":{"android":"levelo://app?vid=4974ee8a-8937-46e6-aada-e77179cb74ac","ios":"levelo://app?vid=4974ee8a-8937-46e6-aada-e77179cb74ac"},"vehicle_type_id":"4","last_reported":1745921472,"current_range_meters":20400,"station_id":"st_cvj6sg6p6f1abm77japg","pricing_plan_id":"cebpf4jnsgd1na2vs0mg"},{"bike_id":"01848dd4-50bd-411c-ad46-63627ba25ec6","system_id":"levelo_inurba_marseille","lat":43.29263,"lon":5.3762,"is_reserved":false,"is_disabled":false,"rental_uris":{"android":"levelo://app?vid=01848dd4-50bd-411c-ad46-63627ba25ec6","ios":"levelo://app?vid=01848dd4-50bd-411c-ad46-63627ba25ec6"},"vehicle_type_id":"4","last_reported":1745921472,"current_range_meters":20800,"station_id":"ce4bgi12rcd13ifvqb80","pricing_plan_id":"cebpf4jnsgd1na2vs0mg"},{"bike_id":"aa45a9c3-19db-48e4-af0e-eda4ff7c28e9","system_id":"levelo_inurba_marseille","lat":43.29201,"lon":5.39336,"is_reserved":false,"is_disabled":false,"rental_uris":{"android":"levelo://app?vid=aa45a9c3-19db-48e4-af0e-eda4ff7c28e9","ios":"levelo://app?vid=aa45a9c3-19db-48e4-af0e-eda4ff7c28e9"},"vehicle_type_id":"4","last_reported":1745921472,"current_range_meters":20800,"station_id":"ce4bh192rcd13ifvqdd0","pricing_plan_id":"cebpf4jnsgd1na2vs0mg"},{"bike_id":"45ba522e-d8e2-4594-a74e-5ad038124c4c","system_id":"levelo_inurba_marseille","lat":43.29224,"lon":5.36072,"is_reserved":false,"is_disabled":false,"rental_uris":{"android":"levelo://app?vid=45ba522e-d8e2-4594-a74e-5ad038124c4c","ios":"levelo://app?vid=45ba522e-d8e2-4594-a74e-5ad038124c4c"},"vehicle_type_id":"4","last_reported":1745921472,"current_range_meters":20800,"station_id":"ce4bhbh2rcd13ifvqeqg","pricing_plan_id":"cebpf4jnsgd1na2vs0mg"},{"bike_id":"a37a012e-6850-4355-bed8-56704f99f162","system_id":"levelo_inurba_marseille","lat":43.2455,"lon":5.39538,"is_reserved":false,"is_disabled":false,"rental_uris":{"android":"levelo://app?vid=a37a012e-6850-4355-bed8-56704f99f162","ios":"levelo://app?vid=a37a012e-6850-4355-bed8-56704f99f162"},"vehicle_type_id":"4","last_reported":1745921472,"current_range_meters":20800,"station_id":"ce4bhlp2rcd13ifvqgjg","pricing_plan_id":"cebpf4jnsgd1na2vs0mg"},{"bike_id":"70f751ea-4f3d-4f66-9157-fe2736e5479a","system_id":"levelo_inurba_marseille","lat":43.23191,"lon":5.39983,"is_reserved":false,"is_disabled":false,"rental_uris":{"android":"levelo://app?vid=70f751ea-4f3d-4f66-9157-fe2736e5479a","ios":"levelo://app?vid=70f751ea-4f3d-4f66-9157-fe2736e5479a"},"vehicle_type_id":"4","last_reported":1745921472,"current_range_meters":20800,"station_id":"ce4bhn12rcd13ifvqgqg","pricing_plan_id":"cebpf4jnsgd1na2vs0mg"},{"bike_id":"2567dff5-4086-4762-9204-bf87d395fd02","system_id":"levelo_inurba_marseille","lat":43.23181,"lon":5.39985,"is_reserved":false,"is_disabled":false,"rental_uris":{"android":"levelo://app?vid=2567dff5-4086-4762-9204-bf87d395fd02","ios":"levelo://app?vid=2567dff5-4086-4762-9204-bf87d395fd02"},"vehicle_type_id":"4","last_reported":1745921472,"current_range_meters":20800,"station_id":"ce4bhn12rcd13ifvqgqg","pricing_plan_id":"cebpf4jnsgd1na2vs0mg"},{"bike_id":"754aaf30-d130-45cd-8668-ae35915e3408","system_id":"levelo_inurba_marseille","lat":43.30543,"lon":5.36691,"is_reserved":false,"is_disabled":false,"rental_uris":{"android":"levelo://app?vid=754aaf30-d130-45cd-8668-ae35915e3408","ios":"levelo://app?vid=754aaf30-d130-45cd-8668-ae35915e3408"},"vehicle_type_id":"4","last_reported":1745921472,"current_range_meters":21600,"station_id":"ce4bgrp2rcd13ifvqc9g","pricing_plan_id":"cebpf4jnsgd1na2vs0mg"},{"bike_id":"9d16da21-6a74-4fc8-b8ad-41c41ab84a3b","system_id":"levelo_inurba_marseille","lat":43.30525,"lon":5.36508,"is_reserved":false,"is_disabled":false,"rental_uris":{"android":"levelo://app?vid=9d16da21-6a74-4fc8-b8ad-41c41ab84a3b","ios":"levelo://app?vid=9d16da21-6a74-4fc8-b8ad-41c41ab84a3b"},"vehicle_type_id":"4","last_reported":1745921472,"current_range_meters":21600,"station_id":"ce4bgs12rcd13ifvqcag","pricing_plan_id":"cebpf4jnsgd1na2vs0mg"},{"bike_id":"db27a1cf-cb33-47b6-bbb9-698ceb4a547c","system_id":"levelo_inurba_marseille","lat":43.29886,"lon":5.38896,"is_reserved":false,"is_disabled":false,"rental_uris":{"android":"levelo://app?vid=db27a1cf-cb33-47b6-bbb9-698ceb4a547c","ios":"levelo://app?vid=db27a1cf-cb33-47b6-bbb9-698ceb4a547c"},"vehicle_type_id":"4","last_reported":1745921472,"current_range_meters":21600,"station_id":"ce4bh392rcd13ifvqdl0","pricing_plan_id":"cebpf4jnsgd1na2vs0mg"},{"bike_id":"39089e5b-adfa-4663-816f-59cf0daa187e","system_id":"levelo_inurba_marseille","lat":43.28267,"lon":5.35078,"is_reserved":false,"is_disabled":false,"rental_uris":{"android":"levelo://app?vid=39089e5b-adfa-4663-816f-59cf0daa187e","ios":"levelo://app?vid=39089e5b-adfa-4663-816f-59cf0daa187e"},"vehicle_type_id":"4","last_reported":1745921472,"current_range_meters":21600,"station_id":"ce4bhbp2rcd13ifvqerg","pricing_plan_id":"cebpf4jnsgd1na2vs0mg"},{"bike_id":"9eac9edc-c3d5-43dc-8ebc-c05868539cb4","system_id":"levelo_inurba_marseille","lat":43.24993,"lon":5.3799,"is_reserved":false,"is_disabled":false,"rental_uris":{"android":"levelo://app?vid=9eac9edc-c3d5-43dc-8ebc-c05868539cb4","ios":"levelo://app?vid=9eac9edc-c3d5-43dc-8ebc-c05868539cb4"},"vehicle_type_id":"4","last_reported":1745921472,"current_range_meters":22000,"station_id":"","pricing_plan_id":"cebpf4jnsgd1na2vs0mg"},{"bike_id":"7940bc1b-eaa7-4f49-a435-46dc9391f6a1","system_id":"levelo_inurba_marseille","lat":43.21192,"lon":5.35073,"is_reserved":false,"is_disabled":false,"rental_uris":{"android":"levelo://app?vid=7940bc1b-eaa7-4f49-a435-46dc9391f6a1","ios":"levelo://app?vid=7940bc1b-eaa7-4f49-a435-46dc9391f6a1"},"vehicle_type_id":"4","last_reported":1745921472,"current_range_meters":22000,"station_id":"","pricing_plan_id":"cebpf4jnsgd1na2vs0mg"},{"bike_id":"6b37b913-7498-45e1-9276-d02f75638a95","system_id":"levelo_inurba_marseille","lat":43.28857,"lon":5.35851,"is_reserved":false,"is_disabled":false,"rental_uris":{"android":"levelo://app?vid=6b37b913-7498-45e1-9276-d02f75638a95","ios":"levelo://app?vid=6b37b913-7498-45e1-9276-d02f75638a95"},"vehicle_type_id":"4","last_reported":1745921472,"current_range_meters":22000,"station_id":"ce4bhb12rcd13ifvqem0","pricing_plan_id":"cebpf4jnsgd1na2vs0mg"},{"bike_id":"2372f7c6-1089-4c13-bafe-c3d7862aadcc","system_id":"levelo_inurba_marseille","lat":43.31719,"lon":5.43682,"is_reserved":false,"is_disabled":false,"rental_uris":{"android":"levelo://app?vid=2372f7c6-1089-4c13-bafe-c3d7862aadcc","ios":"levelo://app?vid=2372f7c6-1089-4c13-bafe-c3d7862aadcc"},"vehicle_type_id":"4","last_reported":1745921472,"current_range_meters":22000,"station_id":"ce4bhp92rcd13ifvqhcg","pricing_plan_id":"cebpf4jnsgd1na2vs0mg"},{"bike_id":"750b37f4-0312-424d-8787-8c7fa359a8d6","system_id":"levelo_inurba_marseille","lat":43.33622,"lon":5.40987,"is_reserved":false,"is_disabled":false,"rental_uris":{"android":"levelo://app?vid=750b37f4-0312-424d-8787-8c7fa359a8d6","ios":"levelo://app?vid=750b37f4-0312-424d-8787-8c7fa359a8d6"},"vehicle_type_id":"4","last_reported":1745921472,"current_range_meters":22000,"station_id":"ce4bhqh2rcd13ifvqhmg","pricing_plan_id":"cebpf4jnsgd1na2vs0mg"},{"bike_id":"23c01d12-cada-4cf4-95b2-26b2841a45a5","system_id":"levelo_inurba_marseille","lat":43.30148,"lon":5.38081,"is_reserved":false,"is_disabled":false,"rental_uris":{"android":"levelo://app?vid=23c01d12-cada-4cf4-95b2-26b2841a45a5","ios":"levelo://app?vid=23c01d12-cada-4cf4-95b2-26b2841a45a5"},"vehicle_type_id":"4","last_reported":1745921472,"current_range_meters":22400,"station_id":"ce4bgjp2rcd13ifvqbh0","pricing_plan_id":"cebpf4jnsgd1na2vs0mg"},{"bike_id":"6cd7efb9-f66f-43f6-8e27-9e34414ddfe9","system_id":"levelo_inurba_marseille","lat":43.3054,"lon":5.36514,"is_reserved":false,"is_disabled":false,"rental_uris":{"android":"levelo://app?vid=6cd7efb9-f66f-43f6-8e27-9e34414ddfe9","ios":"levelo://app?vid=6cd7efb9-f66f-43f6-8e27-9e34414ddfe9"},"vehicle_type_id":"4","last_reported":1745921472,"current_range_meters":22400,"station_id":"ce4bgs12rcd13ifvqcag","pricing_plan_id":"cebpf4jnsgd1na2vs0mg"},{"bike_id":"7c762ade-8f67-4020-84b0-f1216b71ffa0","system_id":"levelo_inurba_marseille","lat":43.29261,"lon":5.38444,"is_reserved":false,"is_disabled":false,"rental_uris":{"android":"levelo://app?vid=7c762ade-8f67-4020-84b0-f1216b71ffa0","ios":"levelo://app?vid=7c762ade-8f67-4020-84b0-f1216b71ffa0"},"vehicle_type_id":"4","last_reported":1745921472,"current_range_meters":22400,"station_id":"ce4bh692rcd13ifvqea0","pricing_plan_id":"cebpf4jnsgd1na2vs0mg"},{"bike_id":"56f97f50-545e-495c-bca9-5d8f00a054af","system_id":"levelo_inurba_marseille","lat":43.291224,"lon":5.35781,"is_reserved":false,"is_disabled":false,"rental_uris":{"android":"levelo://app?vid=56f97f50-545e-495c-bca9-5d8f00a054af","ios":"levelo://app?vid=56f97f50-545e-495c-bca9-5d8f00a054af"},"vehicle_type_id":"4","last_reported":1745921472,"current_range_meters":22400,"station_id":"ce4bhbh2rcd13ifvqeqg","pricing_plan_id":"cebpf4jnsgd1na2vs0mg"},{"bike_id":"46f72c88-6db3-4671-9508-280b034fbfb0","system_id":"levelo_inurba_marseille","lat":43.25003,"lon":5.3892,"is_reserved":false,"is_disabled":false,"rental_uris":{"android":"levelo://app?vid=46f72c88-6db3-4671-9508-280b034fbfb0","ios":"levelo://app?vid=46f72c88-6db3-4671-9508-280b034fbfb0"},"vehicle_type_id":"4","last_reported":1745921472,"current_range_meters":22400,"station_id":"ce4bhgp2rcd13ifvqfd0","pricing_plan_id":"cebpf4jnsgd1na2vs0mg"},{"bike_id":"9a6d1a0d-0520-4c44-b0a9-74ddbe754418","system_id":"levelo_inurba_marseille","lat":43.257291,"lon":5.411214,"is_reserved":false,"is_disabled":false,"rental_uris":{"android":"levelo://app?vid=9a6d1a0d-0520-4c44-b0a9-74ddbe754418","ios":"levelo://app?vid=9a6d1a0d-0520-4c44-b0a9-74ddbe754418"},"vehicle_type_id":"4","last_reported":1745921472,"current_range_meters":22400,"station_id":"ce4bhkp2rcd13ifvqgd0","pricing_plan_id":"cebpf4jnsgd1na2vs0mg"},{"bike_id":"9bfe6821-b569-461d-b21b-20646d93475e","system_id":"levelo_inurba_marseille","lat":43.32477,"lon":5.36583,"is_reserved":false,"is_disabled":false,"rental_uris":{"android":"levelo://app?vid=9bfe6821-b569-461d-b21b-20646d93475e","ios":"levelo://app?vid=9bfe6821-b569-461d-b21b-20646d93475e"},"vehicle_type_id":"4","last_reported":1745921472,"current_range_meters":22400,"station_id":"ce4bhs12rcd13ifvqhvg","pricing_plan_id":"cebpf4jnsgd1na2vs0mg"},{"bike_id":"e2b65113-5686-428f-89e2-2fd1fe171268","system_id":"levelo_inurba_marseille","lat":43.29913,"lon":5.38147,"is_reserved":false,"is_disabled":false,"rental_uris":{"android":"levelo://app?vid=e2b65113-5686-428f-89e2-2fd1fe171268","ios":"levelo://app?vid=e2b65113-5686-428f-89e2-2fd1fe171268"},"vehicle_type_id":"4","last_reported":1745921472,"current_range_meters":22800,"station_id":"ce4bgj12rcd13ifvqbc0","pricing_plan_id":"cebpf4jnsgd1na2vs0mg"},{"bike_id":"033264c3-c952-4b6e-84ac-199478b5c779","system_id":"levelo_inurba_marseille","lat":43.29845,"lon":5.36267,"is_reserved":false,"is_disabled":false,"rental_uris":{"android":"levelo://app?vid=033264c3-c952-4b6e-84ac-199478b5c779","ios":"levelo://app?vid=033264c3-c952-4b6e-84ac-199478b5c779"},"vehicle_type_id":"4","last_reported":1745921472,"current_range_meters":22800,"station_id":"ce4bgpp2rcd13ifvqc3g","pricing_plan_id":"cebpf4jnsgd1na2vs0mg"},{"bike_id":"26518def-20a6-45d3-a6da-3dd32646ed26","system_id":"levelo_inurba_marseille","lat":43.30536,"lon":5.36529,"is_reserved":false,"is_disabled":false,"rental_uris":{"android":"levelo://app?vid=26518def-20a6-45d3-a6da-3dd32646ed26","ios":"levelo://app?vid=26518def-20a6-45d3-a6da-3dd32646ed26"},"vehicle_type_id":"4","last_reported":1745921472,"current_range_meters":22800,"station_id":"ce4bgs12rcd13ifvqcag","pricing_plan_id":"cebpf4jnsgd1na2vs0mg"},{"bike_id":"cda11a53-6f1e-44ab-a971-714c61d848f8","system_id":"levelo_inurba_marseille","lat":43.30898,"lon":5.37185,"is_reserved":false,"is_disabled":false,"rental_uris":{"android":"levelo://app?vid=cda11a53-6f1e-44ab-a971-714c61d848f8","ios":"levelo://app?vid=cda11a53-6f1e-44ab-a971-714c61d848f8"},"vehicle_type_id":"4","last_reported":1745921472,"current_range_meters":22800,"station_id":"ce4bguh2rcd13ifvqckg","pricing_plan_id":"cebpf4jnsgd1na2vs0mg"},{"bike_id":"ac26c0a5-4b08-4eff-a9e0-ab5cd70fbdf3","system_id":"levelo_inurba_marseille","lat":43.30334,"lon":5.40426,"is_reserved":false,"is_disabled":false,"rental_uris":{"android":"levelo://app?vid=ac26c0a5-4b08-4eff-a9e0-ab5cd70fbdf3","ios":"levelo://app?vid=ac26c0a5-4b08-4eff-a9e0-ab5cd70fbdf3"},"vehicle_type_id":"4","last_reported":1745921472,"current_range_meters":22800,"station_id":"ce4bh012rcd13ifvqd10","pricing_plan_id":"cebpf4jnsgd1na2vs0mg"},{"bike_id":"e86ed365-5c24-4ad4-8ab9-c67983345db7","system_id":"levelo_inurba_marseille","lat":43.29048,"lon":5.39971,"is_reserved":false,"is_disabled":false,"rental_uris":{"android":"levelo://app?vid=e86ed365-5c24-4ad4-8ab9-c67983345db7","ios":"levelo://app?vid=e86ed365-5c24-4ad4-8ab9-c67983345db7"},"vehicle_type_id":"4","last_reported":1745921472,"current_range_meters":22800,"station_id":"ce4bh392rcd13ifvqdm0","pricing_plan_id":"cebpf4jnsgd1na2vs0mg"},{"bike_id":"c7ac3f4d-99da-4672-86a5-a20a296c8918","system_id":"levelo_inurba_marseille","lat":43.24164,"lon":5.39714,"is_reserved":false,"is_disabled":false,"rental_uris":{"android":"levelo://app?vid=c7ac3f4d-99da-4672-86a5-a20a296c8918","ios":"levelo://app?vid=c7ac3f4d-99da-4672-86a5-a20a296c8918"},"vehicle_type_id":"4","last_reported":1745921472,"current_range_meters":22800,"station_id":"ce4bhn12rcd13ifvqgpg","pricing_plan_id":"cebpf4jnsgd1na2vs0mg"},{"bike_id":"b65024f1-321f-4d06-a452-3dc7546cb35f","system_id":"levelo_inurba_marseille","lat":43.32052,"lon":5.41536,"is_reserved":false,"is_disabled":false,"rental_uris":{"android":"levelo://app?vid=b65024f1-321f-4d06-a452-3dc7546cb35f","ios":"levelo://app?vid=b65024f1-321f-4d06-a452-3dc7546cb35f"},"vehicle_type_id":"4","last_reported":1745921472,"current_range_meters":22800,"station_id":"ce4bhq92rcd13ifvqhkg","pricing_plan_id":"cebpf4jnsgd1na2vs0mg"},{"bike_id":"e644bd44-c292-4306-8346-c691554a767a","system_id":"levelo_inurba_marseille","lat":43.30557,"lon":5.3666,"is_reserved":false,"is_disabled":false,"rental_uris":{"android":"levelo://app?vid=e644bd44-c292-4306-8346-c691554a767a","ios":"levelo://app?vid=e644bd44-c292-4306-8346-c691554a767a"},"vehicle_type_id":"4","last_reported":1745921472,"current_range_meters":23200,"station_id":"","pricing_plan_id":"cebpf4jnsgd1na2vs0mg"},{"bike_id":"92e4e008-2eec-4572-9883-65fa7f4a706f","system_id":"levelo_inurba_marseille","lat":43.299657,"lon":5.384903,"is_reserved":false,"is_disabled":false,"rental_uris":{"android":"levelo://app?vid=92e4e008-2eec-4572-9883-65fa7f4a706f","ios":"levelo://app?vid=92e4e008-2eec-4572-9883-65fa7f4a706f"},"vehicle_type_id":"4","last_reported":1745921472,"current_range_meters":23200,"station_id":"ce4bgj92rcd13ifvqbd0","pricing_plan_id":"cebpf4jnsgd1na2vs0mg"},{"bike_id":"4579eca8-76de-47b2-a0b0-a1c93a2f7dbc","system_id":"levelo_inurba_marseille","lat":43.29358,"lon":5.3785,"is_reserved":false,"is_disabled":false,"rental_uris":{"android":"levelo://app?vid=4579eca8-76de-47b2-a0b0-a1c93a2f7dbc","ios":"levelo://app?vid=4579eca8-76de-47b2-a0b0-a1c93a2f7dbc"},"vehicle_type_id":"4","last_reported":1745921472,"current_range_meters":23200,"station_id":"ce4bgjh2rcd13ifvqbf0","pricing_plan_id":"cebpf4jnsgd1na2vs0mg"},{"bike_id":"01bbe0b0-0f60-4e3f-92d5-8f4ec380fa57","system_id":"levelo_inurba_marseille","lat":43.30905,"lon":5.36836,"is_reserved":false,"is_disabled":false,"rental_uris":{"android":"levelo://app?vid=01bbe0b0-0f60-4e3f-92d5-8f4ec380fa57","ios":"levelo://app?vid=01bbe0b0-0f60-4e3f-92d5-8f4ec380fa57"},"vehicle_type_id":"4","last_reported":1745921472,"current_range_meters":23200,"station_id":"ce4bgn92rcd13ifvqbvg","pricing_plan_id":"cebpf4jnsgd1na2vs0mg"},{"bike_id":"aba425a9-bc0e-4992-bab8-21b7d2136130","system_id":"levelo_inurba_marseille","lat":43.30903,"lon":5.368525,"is_reserved":false,"is_disabled":false,"rental_uris":{"android":"levelo://app?vid=aba425a9-bc0e-4992-bab8-21b7d2136130","ios":"levelo://app?vid=aba425a9-bc0e-4992-bab8-21b7d2136130"},"vehicle_type_id":"4","last_reported":1745921472,"current_range_meters":23200,"station_id":"ce4bgn92rcd13ifvqbvg","pricing_plan_id":"cebpf4jnsgd1na2vs0mg"},{"bike_id":"fed9a162-5086-4050-90ab-3b987d4c76ff","system_id":"levelo_inurba_marseille","lat":43.27921,"lon":5.39577,"is_reserved":false,"is_disabled":false,"rental_uris":{"android":"levelo://app?vid=fed9a162-5086-4050-90ab-3b987d4c76ff","ios":"levelo://app?vid=fed9a162-5086-4050-90ab-3b987d4c76ff"},"vehicle_type_id":"4","last_reported":1745921472,"current_range_meters":23200,"station_id":"ce4bhf92rcd13ifvqf40","pricing_plan_id":"cebpf4jnsgd1na2vs0mg"},{"bike_id":"2ad6da54-ecc0-45d2-8638-cc0a342069a8","system_id":"levelo_inurba_marseille","lat":43.262129,"lon":5.374333,"is_reserved":false,"is_disabled":false,"rental_uris":{"android":"levelo://app?vid=2ad6da54-ecc0-45d2-8638-cc0a342069a8","ios":"levelo://app?vid=2ad6da54-ecc0-45d2-8638-cc0a342069a8"},"vehicle_type_id":"4","last_reported":1745921472,"current_range_meters":23200,"station_id":"ce4bhgp2rcd13ifvqfc0","pricing_plan_id":"cebpf4jnsgd1na2vs0mg"},{"bike_id":"c7fd1859-a779-43d6-b463-c044d2693dad","system_id":"levelo_inurba_marseille","lat":43.28153,"lon":5.42637,"is_reserved":false,"is_disabled":false,"rental_uris":{"android":"levelo://app?vid=c7fd1859-a779-43d6-b463-c044d2693dad","ios":"levelo://app?vid=c7fd1859-a779-43d6-b463-c044d2693dad"},"vehicle_type_id":"4","last_reported":1745921472,"current_range_meters":23200,"station_id":"ce4bhnh2rcd13ifvqgug","pricing_plan_id":"cebpf4jnsgd1na2vs0mg"},{"bike_id":"55dbfb08-f027-4634-90d6-2b1246dfdb71","system_id":"levelo_inurba_marseille","lat":43.33599,"lon":5.40987,"is_reserved":false,"is_disabled":false,"rental_uris":{"android":"levelo://app?vid=55dbfb08-f027-4634-90d6-2b1246dfdb71","ios":"levelo://app?vid=55dbfb08-f027-4634-90d6-2b1246dfdb71"},"vehicle_type_id":"4","last_reported":1745921472,"current_range_meters":23200,"station_id":"ce4bhqh2rcd13ifvqhmg","pricing_plan_id":"cebpf4jnsgd1na2vs0mg"},{"bike_id":"3cb31b89-e7f9-4ae1-ab70-5aa8b1845a93","system_id":"levelo_inurba_marseille","lat":43.33617,"lon":5.40981,"is_reserved":false,"is_disabled":false,"rental_uris":{"android":"levelo://app?vid=3cb31b89-e7f9-4ae1-ab70-5aa8b1845a93","ios":"levelo://app?vid=3cb31b89-e7f9-4ae1-ab70-5aa8b1845a93"},"vehicle_type_id":"4","last_reported":1745921472,"current_range_meters":23200,"station_id":"ce4bhqh2rcd13ifvqhmg","pricing_plan_id":"cebpf4jnsgd1na2vs0mg"},{"bike_id":"4bf6b69b-e08a-490c-9b07-d13072b37d89","system_id":"levelo_inurba_marseille","lat":43.24159,"lon":5.36401,"is_reserved":false,"is_disabled":false,"rental_uris":{"android":"levelo://app?vid=4bf6b69b-e08a-490c-9b07-d13072b37d89","ios":"levelo://app?vid=4bf6b69b-e08a-490c-9b07-d13072b37d89"},"vehicle_type_id":"4","last_reported":1745921472,"current_range_meters":23200,"station_id":"cpo36qri1sfpv3e86is0","pricing_plan_id":"cebpf4jnsgd1na2vs0mg"},{"bike_id":"8105b649-192e-41f5-bc57-1c7d840cfd90","system_id":"levelo_inurba_marseille","lat":43.30916,"lon":5.36855,"is_reserved":false,"is_disabled":false,"rental_uris":{"android":"levelo://app?vid=8105b649-192e-41f5-bc57-1c7d840cfd90","ios":"levelo://app?vid=8105b649-192e-41f5-bc57-1c7d840cfd90"},"vehicle_type_id":"4","last_reported":1745921472,"current_range_meters":24000,"station_id":"ce4bgn92rcd13ifvqbvg","pricing_plan_id":"cebpf4jnsgd1na2vs0mg"},{"bike_id":"1f0a1703-e3ea-49eb-ad91-5f5c21c0c5e6","system_id":"levelo_inurba_marseille","lat":43.29042,"lon":5.39971,"is_reserved":false,"is_disabled":false,"rental_uris":{"android":"levelo://app?vid=1f0a1703-e3ea-49eb-ad91-5f5c21c0c5e6","ios":"levelo://app?vid=1f0a1703-e3ea-49eb-ad91-5f5c21c0c5e6"},"vehicle_type_id":"4","last_reported":1745921472,"current_range_meters":24000,"station_id":"ce4bh392rcd13ifvqdm0","pricing_plan_id":"cebpf4jnsgd1na2vs0mg"},{"bike_id":"9b95c0b2-c243-4270-bff7-d65d94f70652","system_id":"levelo_inurba_marseille","lat":43.29434,"lon":5.39755,"is_reserved":false,"is_disabled":false,"rental_uris":{"android":"levelo://app?vid=9b95c0b2-c243-4270-bff7-d65d94f70652","ios":"levelo://app?vid=9b95c0b2-c243-4270-bff7-d65d94f70652"},"vehicle_type_id":"4","last_reported":1745921472,"current_range_meters":24000,"station_id":"ce4bh3h2rcd13ifvqdo0","pricing_plan_id":"cebpf4jnsgd1na2vs0mg"},{"bike_id":"3335369b-45d4-4d27-b3e2-f089e20d6e32","system_id":"levelo_inurba_marseille","lat":43.2827,"lon":5.35066,"is_reserved":false,"is_disabled":false,"rental_uris":{"android":"levelo://app?vid=3335369b-45d4-4d27-b3e2-f089e20d6e32","ios":"levelo://app?vid=3335369b-45d4-4d27-b3e2-f089e20d6e32"},"vehicle_type_id":"4","last_reported":1745921472,"current_range_meters":24000,"station_id":"ce4bhbp2rcd13ifvqerg","pricing_plan_id":"cebpf4jnsgd1na2vs0mg"},{"bike_id":"b348314c-06d4-4635-ad96-c6b2115b89e1","system_id":"levelo_inurba_marseille","lat":43.27055,"lon":5.40265,"is_reserved":false,"is_disabled":false,"rental_uris":{"android":"levelo://app?vid=b348314c-06d4-4635-ad96-c6b2115b89e1","ios":"levelo://app?vid=b348314c-06d4-4635-ad96-c6b2115b89e1"},"vehicle_type_id":"4","last_reported":1745921472,"current_range_meters":24000,"station_id":"ce4bhk92rcd13ifvqgc0","pricing_plan_id":"cebpf4jnsgd1na2vs0mg"},{"bike_id":"0d0660c2-7dff-4618-9edd-a09c6cef06cd","system_id":"levelo_inurba_marseille","lat":43.23148,"lon":5.43721,"is_reserved":false,"is_disabled":false,"rental_uris":{"android":"levelo://app?vid=0d0660c2-7dff-4618-9edd-a09c6cef06cd","ios":"levelo://app?vid=0d0660c2-7dff-4618-9edd-a09c6cef06cd"},"vehicle_type_id":"4","last_reported":1745921472,"current_range_meters":24000,"station_id":"ce4bhmp2rcd13ifvqgog","pricing_plan_id":"cebpf4jnsgd1na2vs0mg"},{"bike_id":"f70df9fb-fd26-4c89-b7f9-eca205c4a8ec","system_id":"levelo_inurba_marseille","lat":43.24182,"lon":5.39712,"is_reserved":false,"is_disabled":false,"rental_uris":{"android":"levelo://app?vid=f70df9fb-fd26-4c89-b7f9-eca205c4a8ec","ios":"levelo://app?vid=f70df9fb-fd26-4c89-b7f9-eca205c4a8ec"},"vehicle_type_id":"4","last_reported":1745921472,"current_range_meters":24000,"station_id":"ce4bhn12rcd13ifvqgpg","pricing_plan_id":"cebpf4jnsgd1na2vs0mg"},{"bike_id":"9a33a1ec-c46e-4265-ab1b-22b05b04694e","system_id":"levelo_inurba_marseille","lat":43.2801,"lon":5.400045,"is_reserved":false,"is_disabled":false,"rental_uris":{"android":"levelo://app?vid=9a33a1ec-c46e-4265-ab1b-22b05b04694e","ios":"levelo://app?vid=9a33a1ec-c46e-4265-ab1b-22b05b04694e"},"vehicle_type_id":"4","last_reported":1745921472,"current_range_meters":24000,"station_id":"ce4bho92rcd13ifvqh4g","pricing_plan_id":"cebpf4jnsgd1na2vs0mg"},{"bike_id":"2125b237-cda7-41d8-ad1c-6d66d79fdf2b","system_id":"levelo_inurba_marseille","lat":43.33609,"lon":5.41024,"is_reserved":false,"is_disabled":false,"rental_uris":{"android":"levelo://app?vid=2125b237-cda7-41d8-ad1c-6d66d79fdf2b","ios":"levelo://app?vid=2125b237-cda7-41d8-ad1c-6d66d79fdf2b"},"vehicle_type_id":"4","last_reported":1745921472,"current_range_meters":24000,"station_id":"ce4bhqh2rcd13ifvqhmg","pricing_plan_id":"cebpf4jnsgd1na2vs0mg"},{"bike_id":"0174f6ad-5ca6-45e3-8fa2-abcb25849f1e","system_id":"levelo_inurba_marseille","lat":43.3302,"lon":5.39038,"is_reserved":false,"is_disabled":false,"rental_uris":{"android":"levelo://app?vid=0174f6ad-5ca6-45e3-8fa2-abcb25849f1e","ios":"levelo://app?vid=0174f6ad-5ca6-45e3-8fa2-abcb25849f1e"},"vehicle_type_id":"4","last_reported":1745921472,"current_range_meters":24000,"station_id":"ce4bhr92rcd13ifvqhrg","pricing_plan_id":"cebpf4jnsgd1na2vs0mg"},{"bike_id":"b1d7566a-6dc0-4d59-a991-4b47e7a20fdb","system_id":"levelo_inurba_marseille","lat":43.267792,"lon":5.383597,"is_reserved":false,"is_disabled":false,"rental_uris":{"android":"levelo://app?vid=b1d7566a-6dc0-4d59-a991-4b47e7a20fdb","ios":"levelo://app?vid=b1d7566a-6dc0-4d59-a991-4b47e7a20fdb"},"vehicle_type_id":"4","last_reported":1745921472,"current_range_meters":24400,"station_id":"","pricing_plan_id":"cebpf4jnsgd1na2vs0mg"},{"bike_id":"288b5399-540d-470c-af94-6957e7dabf20","system_id":"levelo_inurba_marseille","lat":43.24158,"lon":5.3641,"is_reserved":false,"is_disabled":false,"rental_uris":{"android":"levelo://app?vid=288b5399-540d-470c-af94-6957e7dabf20","ios":"levelo://app?vid=288b5399-540d-470c-af94-6957e7dabf20"},"vehicle_type_id":"4","last_reported":1745921472,"current_range_meters":24400,"station_id":"cpo36qri1sfpv3e86is0","pricing_plan_id":"cebpf4jnsgd1na2vs0mg"},{"bike_id":"42c6d5fb-e6cd-4658-a88b-b142bee86eec","system_id":"levelo_inurba_marseille","lat":43.2958,"lon":5.38283,"is_reserved":false,"is_disabled":false,"rental_uris":{"android":"levelo://app?vid=42c6d5fb-e6cd-4658-a88b-b142bee86eec","ios":"levelo://app?vid=42c6d5fb-e6cd-4658-a88b-b142bee86eec"},"vehicle_type_id":"4","last_reported":1745921472,"current_range_meters":24800,"station_id":"","pricing_plan_id":"cebpf4jnsgd1na2vs0mg"},{"bike_id":"288e959d-96e9-467b-806a-661e544cf3a4","system_id":"levelo_inurba_marseille","lat":43.212018,"lon":5.350761,"is_reserved":false,"is_disabled":false,"rental_uris":{"android":"levelo://app?vid=288e959d-96e9-467b-806a-661e544cf3a4","ios":"levelo://app?vid=288e959d-96e9-467b-806a-661e544cf3a4"},"vehicle_type_id":"4","last_reported":1745921472,"current_range_meters":24800,"station_id":"","pricing_plan_id":"cebpf4jnsgd1na2vs0mg"},{"bike_id":"37e57504-ecc1-4011-aa34-f3e6a6fc10ee","system_id":"levelo_inurba_marseille","lat":43.30161,"lon":5.38096,"is_reserved":false,"is_disabled":false,"rental_uris":{"android":"levelo://app?vid=37e57504-ecc1-4011-aa34-f3e6a6fc10ee","ios":"levelo://app?vid=37e57504-ecc1-4011-aa34-f3e6a6fc10ee"},"vehicle_type_id":"4","last_reported":1745921472,"current_range_meters":24800,"station_id":"ce4bgjp2rcd13ifvqbh0","pricing_plan_id":"cebpf4jnsgd1na2vs0mg"},{"bike_id":"4781c3af-83db-476b-ab9d-21984f3f821a","system_id":"levelo_inurba_marseille","lat":43.30545,"lon":5.36696,"is_reserved":false,"is_disabled":false,"rental_uris":{"android":"levelo://app?vid=4781c3af-83db-476b-ab9d-21984f3f821a","ios":"levelo://app?vid=4781c3af-83db-476b-ab9d-21984f3f821a"},"vehicle_type_id":"4","last_reported":1745921472,"current_range_meters":24800,"station_id":"ce4bgrp2rcd13ifvqc9g","pricing_plan_id":"cebpf4jnsgd1na2vs0mg"},{"bike_id":"764ec382-1e16-485f-8704-00baa5213135","system_id":"levelo_inurba_marseille","lat":43.25,"lon":5.38924,"is_reserved":false,"is_disabled":false,"rental_uris":{"android":"levelo://app?vid=764ec382-1e16-485f-8704-00baa5213135","ios":"levelo://app?vid=764ec382-1e16-485f-8704-00baa5213135"},"vehicle_type_id":"4","last_reported":1745921472,"current_range_meters":24800,"station_id":"ce4bhgp2rcd13ifvqfd0","pricing_plan_id":"cebpf4jnsgd1na2vs0mg"},{"bike_id":"64f60661-8522-49d5-aa74-69a27bb157c2","system_id":"levelo_inurba_marseille","lat":43.33733,"lon":5.39203,"is_reserved":false,"is_disabled":false,"rental_uris":{"android":"levelo://app?vid=64f60661-8522-49d5-aa74-69a27bb157c2","ios":"levelo://app?vid=64f60661-8522-49d5-aa74-69a27bb157c2"},"vehicle_type_id":"4","last_reported":1745921472,"current_range_meters":24800,"station_id":"ce4bhr92rcd13ifvqhsg","pricing_plan_id":"cebpf4jnsgd1na2vs0mg"},{"bike_id":"d1910393-cd5e-4eb2-aac2-0ff61b658401","system_id":"levelo_inurba_marseille","lat":43.30545,"lon":5.36706,"is_reserved":false,"is_disabled":false,"rental_uris":{"android":"levelo://app?vid=d1910393-cd5e-4eb2-aac2-0ff61b658401","ios":"levelo://app?vid=d1910393-cd5e-4eb2-aac2-0ff61b658401"},"vehicle_type_id":"4","last_reported":1745921472,"current_range_meters":25200,"station_id":"ce4bgrp2rcd13ifvqc9g","pricing_plan_id":"cebpf4jnsgd1na2vs0mg"},{"bike_id":"60898a5e-6955-4709-a952-3456167b8121","system_id":"levelo_inurba_marseille","lat":43.295321,"lon":5.390381,"is_reserved":false,"is_disabled":false,"rental_uris":{"android":"levelo://app?vid=60898a5e-6955-4709-a952-3456167b8121","ios":"levelo://app?vid=60898a5e-6955-4709-a952-3456167b8121"},"vehicle_type_id":"4","last_reported":1745921472,"current_range_meters":25200,"station_id":"ce4bh3p2rcd13ifvqdp0","pricing_plan_id":"cebpf4jnsgd1na2vs0mg"},{"bike_id":"ddf9520d-06d6-4194-ad52-17a30e19d15d","system_id":"levelo_inurba_marseille","lat":43.27427,"lon":5.39417,"is_reserved":false,"is_disabled":false,"rental_uris":{"android":"levelo://app?vid=ddf9520d-06d6-4194-ad52-17a30e19d15d","ios":"levelo://app?vid=ddf9520d-06d6-4194-ad52-17a30e19d15d"},"vehicle_type_id":"4","last_reported":1745921472,"current_range_meters":25200,"station_id":"ce4bhdp2rcd13ifvqf20","pricing_plan_id":"cebpf4jnsgd1na2vs0mg"},{"bike_id":"dae80de0-aeba-430a-8859-1966ede50ca2","system_id":"levelo_inurba_marseille","lat":43.26224,"lon":5.40457,"is_reserved":false,"is_disabled":false,"rental_uris":{"android":"levelo://app?vid=dae80de0-aeba-430a-8859-1966ede50ca2","ios":"levelo://app?vid=dae80de0-aeba-430a-8859-1966ede50ca2"},"vehicle_type_id":"4","last_reported":1745921472,"current_range_meters":25200,"station_id":"ce4bhmh2rcd13ifvqgmg","pricing_plan_id":"cebpf4jnsgd1na2vs0mg"},{"bike_id":"6c80404d-1c48-456c-9dea-05dc30cca050","system_id":"levelo_inurba_marseille","lat":43.32478,"lon":5.36577,"is_reserved":false,"is_disabled":false,"rental_uris":{"android":"levelo://app?vid=6c80404d-1c48-456c-9dea-05dc30cca050","ios":"levelo://app?vid=6c80404d-1c48-456c-9dea-05dc30cca050"},"vehicle_type_id":"4","last_reported":1745921472,"current_range_meters":25200,"station_id":"ce4bhs12rcd13ifvqhvg","pricing_plan_id":"cebpf4jnsgd1na2vs0mg"},{"bike_id":"c5b32758-d70f-4bcb-864e-59f0e1a9230f","system_id":"levelo_inurba_marseille","lat":43.2711,"lon":5.39291,"is_reserved":false,"is_disabled":false,"rental_uris":{"android":"levelo://app?vid=c5b32758-d70f-4bcb-864e-59f0e1a9230f","ios":"levelo://app?vid=c5b32758-d70f-4bcb-864e-59f0e1a9230f"},"vehicle_type_id":"4","last_reported":1745921472,"current_range_meters":25600,"station_id":"","pricing_plan_id":"cebpf4jnsgd1na2vs0mg"},{"bike_id":"96c642ba-7d8b-450a-ac9b-6ded10706845","system_id":"levelo_inurba_marseille","lat":43.30434,"lon":5.38901,"is_reserved":false,"is_disabled":false,"rental_uris":{"android":"levelo://app?vid=96c642ba-7d8b-450a-ac9b-6ded10706845","ios":"levelo://app?vid=96c642ba-7d8b-450a-ac9b-6ded10706845"},"vehicle_type_id":"4","last_reported":1745921472,"current_range_meters":25600,"station_id":"ce4bgk12rcd13ifvqbi0","pricing_plan_id":"cebpf4jnsgd1na2vs0mg"},{"bike_id":"94c63fc5-5a57-463a-bee3-5f5c834dbc16","system_id":"levelo_inurba_marseille","lat":43.29226,"lon":5.36069,"is_reserved":false,"is_disabled":false,"rental_uris":{"android":"levelo://app?vid=94c63fc5-5a57-463a-bee3-5f5c834dbc16","ios":"levelo://app?vid=94c63fc5-5a57-463a-bee3-5f5c834dbc16"},"vehicle_type_id":"4","last_reported":1745921472,"current_range_meters":25600,"station_id":"ce4bhbh2rcd13ifvqeqg","pricing_plan_id":"cebpf4jnsgd1na2vs0mg"},{"bike_id":"01e60f11-94a8-4456-9842-34bf8195985d","system_id":"levelo_inurba_marseille","lat":43.24388,"lon":5.37052,"is_reserved":false,"is_disabled":false,"rental_uris":{"android":"levelo://app?vid=01e60f11-94a8-4456-9842-34bf8195985d","ios":"levelo://app?vid=01e60f11-94a8-4456-9842-34bf8195985d"},"vehicle_type_id":"4","last_reported":1745921472,"current_range_meters":25600,"station_id":"ce4bhhh2rcd13ifvqfk0","pricing_plan_id":"cebpf4jnsgd1na2vs0mg"},{"bike_id":"8a5e9bfc-4f84-4c48-988d-82ffda9a4301","system_id":"levelo_inurba_marseille","lat":43.27799,"lon":5.40696,"is_reserved":false,"is_disabled":false,"rental_uris":{"android":"levelo://app?vid=8a5e9bfc-4f84-4c48-988d-82ffda9a4301","ios":"levelo://app?vid=8a5e9bfc-4f84-4c48-988d-82ffda9a4301"},"vehicle_type_id":"4","last_reported":1745921472,"current_range_meters":25600,"station_id":"ce4bhnh2rcd13ifvqgtg","pricing_plan_id":"cebpf4jnsgd1na2vs0mg"},{"bike_id":"3c76b9a9-dbb7-496e-bdd5-c2f1df78cbba","system_id":"levelo_inurba_marseille","lat":43.27815,"lon":5.40707,"is_reserved":false,"is_disabled":false,"rental_uris":{"android":"levelo://app?vid=3c76b9a9-dbb7-496e-bdd5-c2f1df78cbba","ios":"levelo://app?vid=3c76b9a9-dbb7-496e-bdd5-c2f1df78cbba"},"vehicle_type_id":"4","last_reported":1745921472,"current_range_meters":25600,"station_id":"ce4bhnh2rcd13ifvqgtg","pricing_plan_id":"cebpf4jnsgd1na2vs0mg"},{"bike_id":"1d361d4d-abc9-406e-a2b9-626fd19f903c","system_id":"levelo_inurba_marseille","lat":43.32038,"lon":5.41551,"is_reserved":false,"is_disabled":false,"rental_uris":{"android":"levelo://app?vid=1d361d4d-abc9-406e-a2b9-626fd19f903c","ios":"levelo://app?vid=1d361d4d-abc9-406e-a2b9-626fd19f903c"},"vehicle_type_id":"4","last_reported":1745921472,"current_range_meters":25600,"station_id":"ce4bhq92rcd13ifvqhkg","pricing_plan_id":"cebpf4jnsgd1na2vs0mg"},{"bike_id":"841002a3-39b8-4bf2-bed0-3bdb38177115","system_id":"levelo_inurba_marseille","lat":43.307922,"lon":5.376636,"is_reserved":false,"is_disabled":false,"rental_uris":{"android":"levelo://app?vid=841002a3-39b8-4bf2-bed0-3bdb38177115","ios":"levelo://app?vid=841002a3-39b8-4bf2-bed0-3bdb38177115"},"vehicle_type_id":"4","last_reported":1745921472,"current_range_meters":26000,"station_id":"ce4bgv92rcd13ifvqcq0","pricing_plan_id":"cebpf4jnsgd1na2vs0mg"},{"bike_id":"605ee275-61af-46c2-9739-0e85c42dc811","system_id":"levelo_inurba_marseille","lat":43.29881,"lon":5.39744,"is_reserved":false,"is_disabled":false,"rental_uris":{"android":"levelo://app?vid=605ee275-61af-46c2-9739-0e85c42dc811","ios":"levelo://app?vid=605ee275-61af-46c2-9739-0e85c42dc811"},"vehicle_type_id":"4","last_reported":1745921472,"current_range_meters":26000,"station_id":"ce4bh0h2rcd13ifvqd50","pricing_plan_id":"cebpf4jnsgd1na2vs0mg"},{"bike_id":"a8eb07df-afb3-46ac-b185-95bebe1f42ec","system_id":"levelo_inurba_marseille","lat":43.2903,"lon":5.39961,"is_reserved":false,"is_disabled":false,"rental_uris":{"android":"levelo://app?vid=a8eb07df-afb3-46ac-b185-95bebe1f42ec","ios":"levelo://app?vid=a8eb07df-afb3-46ac-b185-95bebe1f42ec"},"vehicle_type_id":"4","last_reported":1745921472,"current_range_meters":26000,"station_id":"ce4bh392rcd13ifvqdm0","pricing_plan_id":"cebpf4jnsgd1na2vs0mg"},{"bike_id":"74b2bcad-ee85-4989-bbfb-2f71bad6743c","system_id":"levelo_inurba_marseille","lat":43.29161,"lon":5.3717,"is_reserved":false,"is_disabled":false,"rental_uris":{"android":"levelo://app?vid=74b2bcad-ee85-4989-bbfb-2f71bad6743c","ios":"levelo://app?vid=74b2bcad-ee85-4989-bbfb-2f71bad6743c"},"vehicle_type_id":"4","last_reported":1745921472,"current_range_meters":26000,"station_id":"ce4bha92rcd13ifvqeh0","pricing_plan_id":"cebpf4jnsgd1na2vs0mg"},{"bike_id":"2d2078ec-7498-43c3-9613-db0841ced050","system_id":"levelo_inurba_marseille","lat":43.24087,"lon":5.37734,"is_reserved":false,"is_disabled":false,"rental_uris":{"android":"levelo://app?vid=2d2078ec-7498-43c3-9613-db0841ced050","ios":"levelo://app?vid=2d2078ec-7498-43c3-9613-db0841ced050"},"vehicle_type_id":"4","last_reported":1745921472,"current_range_meters":26000,"station_id":"ce4bhnp2rcd13ifvqgvg","pricing_plan_id":"cebpf4jnsgd1na2vs0mg"},{"bike_id":"4e61ea9d-803a-409f-ba5b-5e2d1ef081e0","system_id":"levelo_inurba_marseille","lat":43.32111,"lon":5.36754,"is_reserved":false,"is_disabled":false,"rental_uris":{"android":"levelo://app?vid=4e61ea9d-803a-409f-ba5b-5e2d1ef081e0","ios":"levelo://app?vid=4e61ea9d-803a-409f-ba5b-5e2d1ef081e0"},"vehicle_type_id":"4","last_reported":1745921472,"current_range_meters":26000,"station_id":"ce4bhrh2rcd13ifvqhug","pricing_plan_id":"cebpf4jnsgd1na2vs0mg"},{"bike_id":"09e81b69-b409-454f-a834-5c2e60f29d7d","system_id":"levelo_inurba_marseille","lat":43.24172,"lon":5.36395,"is_reserved":false,"is_disabled":false,"rental_uris":{"android":"levelo://app?vid=09e81b69-b409-454f-a834-5c2e60f29d7d","ios":"levelo://app?vid=09e81b69-b409-454f-a834-5c2e60f29d7d"},"vehicle_type_id":"4","last_reported":1745921472,"current_range_meters":26000,"station_id":"cpo36qri1sfpv3e86is0","pricing_plan_id":"cebpf4jnsgd1na2vs0mg"},{"bike_id":"038eedab-f965-4d85-9119-ead9f1a7c285","system_id":"levelo_inurba_marseille","lat":43.21193,"lon":5.35076,"is_reserved":false,"is_disabled":false,"rental_uris":{"android":"levelo://app?vid=038eedab-f965-4d85-9119-ead9f1a7c285","ios":"levelo://app?vid=038eedab-f965-4d85-9119-ead9f1a7c285"},"vehicle_type_id":"4","last_reported":1745921472,"current_range_meters":26000,"station_id":"st_cvj6sg6p6f1abm77japg","pricing_plan_id":"cebpf4jnsgd1na2vs0mg"},{"bike_id":"89558795-9637-493d-812a-6b628ca32c22","system_id":"levelo_inurba_marseille","lat":43.29916,"lon":5.38142,"is_reserved":false,"is_disabled":false,"rental_uris":{"android":"levelo://app?vid=89558795-9637-493d-812a-6b628ca32c22","ios":"levelo://app?vid=89558795-9637-493d-812a-6b628ca32c22"},"vehicle_type_id":"4","last_reported":1745921472,"current_range_meters":26800,"station_id":"ce4bgj12rcd13ifvqbc0","pricing_plan_id":"cebpf4jnsgd1na2vs0mg"},{"bike_id":"af740dd3-89d1-414e-a33e-14acddde99ed","system_id":"levelo_inurba_marseille","lat":43.31336,"lon":5.36765,"is_reserved":false,"is_disabled":false,"rental_uris":{"android":"levelo://app?vid=af740dd3-89d1-414e-a33e-14acddde99ed","ios":"levelo://app?vid=af740dd3-89d1-414e-a33e-14acddde99ed"},"vehicle_type_id":"4","last_reported":1745921472,"current_range_meters":26800,"station_id":"ce4bgr92rcd13ifvqc6g","pricing_plan_id":"cebpf4jnsgd1na2vs0mg"},{"bike_id":"552d6e61-fef0-45ad-b127-b58dc39fdd9a","system_id":"levelo_inurba_marseille","lat":43.31367,"lon":5.38494,"is_reserved":false,"is_disabled":false,"rental_uris":{"android":"levelo://app?vid=552d6e61-fef0-45ad-b127-b58dc39fdd9a","ios":"levelo://app?vid=552d6e61-fef0-45ad-b127-b58dc39fdd9a"},"vehicle_type_id":"4","last_reported":1745921472,"current_range_meters":26800,"station_id":"ce4bgt92rcd13ifvqcf0","pricing_plan_id":"cebpf4jnsgd1na2vs0mg"},{"bike_id":"e978d9b0-25ed-49c2-8bf7-8a2bee5dd24f","system_id":"levelo_inurba_marseille","lat":43.29888,"lon":5.38905,"is_reserved":false,"is_disabled":false,"rental_uris":{"android":"levelo://app?vid=e978d9b0-25ed-49c2-8bf7-8a2bee5dd24f","ios":"levelo://app?vid=e978d9b0-25ed-49c2-8bf7-8a2bee5dd24f"},"vehicle_type_id":"4","last_reported":1745921472,"current_range_meters":26800,"station_id":"ce4bh392rcd13ifvqdl0","pricing_plan_id":"cebpf4jnsgd1na2vs0mg"},