{"last_updated":1738080624,"ttl":60,"version":"2.2","data":{"bikes":[{"bike_id":"683b60af-7543-4196-a343-9f4a163afe2d","system_id":"levelo_inurba_marseille","lat":43.279847,"lon":5.386719,"is_reserved":false,"is_disabled":false,"rental_uris":{"android":"levelo://app?vid=683b60af-7543-4196-a343-9f4a163afe2d","ios":"levelo://app?vid=683b60af-7543-4196-a343-9f4a163afe2d"},"vehicle_type_id":"4","last_reported":1738080624,"current_range_meters":9600,"station_id":"ce4bhh92rcd13ifvqfj0","pricing_plan_id":"cebpf4jnsgd1na2vs0mg"},{"bike_id":"c98c10ad-2c59-465b-9626-e2f31164a824","system_id":"levelo_inurba_marseille","lat":43.2319,"lon":5.35547,"is_reserved":false,"is_disabled":false,"rental_uris":{"android":"levelo://app?vid=c98c10ad-2c59-465b-9626-e2f31164a824","ios":"levelo://app?vid=c98c10ad-2c59-465b-9626-e2f31164a824"},"vehicle_type_id":"4","last_reported":1738080624,"current_range_meters":28800,"station_id":"ce4bhu92rcd13ifvqi70","pricing_plan_id":"cebpf4jnsgd1na2vs0mg"},{"bike_id":"32a12146-0984-48fc-b188-4982a78e33b1","system_id":"levelo_inurba_marseille","lat":43.30598,"lon":5.3935,"is_reserved":false,"is_disabled":false,"rental_uris":{"android":"levelo://app?vid=32a12146-0984-48fc-b188-4982a78e33b1","ios":"levelo://app?vid=32a12146-0984-48fc-b188-4982a78e33b1"},"vehicle_type_id":"4","last_reported":1738080624,"current_range_meters":35600,"station_id":"ce4bh0p2rcd13ifvqd80","pricing_plan_id":"cebpf4jnsgd1na2vs0mg"},{"bike_id":"99ced388-93f8-4f95-955b-ac009a0677d3","system_id":"levelo_inurba_marseille","lat":43.30472,"lon":5.3788,"is_reserved":false,"is_disabled":false,"rental_uris":{"android":"levelo://app?vid=99ced388-93f8-4f95-955b-ac009a0677d3","ios":"levelo://app?vid=99ced388-93f8-4f95-955b-ac009a0677d3"},"vehicle_type_id":"4","last_reported":1738080624,"current_range_meters":1600,"station_id":"ce4bgup2rcd13ifvqcn0","pricing_plan_id":"cebpf4jnsgd1na2vs0mg"},{"bike_id":"9dae2d43-32e4-4327-a288-266a56099417","system_id":"levelo_inurba_marseille","lat":43.29719,"lon":5.37692,"is_reserved":false,"is_disabled":false,"rental_uris":{"android":"levelo://app?vid=9dae2d43-32e4-4327-a288-266a56099417","ios":"levelo://app?vid=9dae2d43-32e4-4327-a288-266a56099417"},"vehicle_type_id":"4","last_reported":1738080624,"current_range_meters":28000,"station_id":"ce4bgkh2rcd13ifvqbl0","pricing_plan_id":"cebpf4jnsgd1na2vs0mg"},{"bike_id":"6a968bc3-3694-434a-86b3-557a838c0927","system_id":"levelo_inurba_marseille","lat":43.2952,"lon":5.39029,"is_reserved":false,"is_disabled":false,"rental_uris":{"android":"levelo://app?vid=6a968bc3-3694-434a-86b3-557a838c0927","ios":"levelo://app?vid=6a968bc3-3694-434a-86b3-557a838c0927"},"vehicle_type_id":"4","last_reported":1738080624,"current_range_meters":28800,"station_id":"ce4bh3p2rcd13ifvqdp0","pricing_plan_id":"cebpf4jnsgd1na2vs0mg"},{"bike_id":"f7f8117f-03ef-415e-85c6-2eeaf165e4f2","system_id":"levelo_inurba_marseille","lat":43.26144,"lon":5.4046,"is_reserved":false,"is_disabled":true,"rental_uris":{"android":"levelo://app?vid=f7f8117f-03ef-415e-85c6-2eeaf165e4f2","ios":"levelo://app?vid=f7f8117f-03ef-415e-85c6-2eeaf165e4f2"},"vehicle_type_id":"4","last_reported":1738080624,"current_range_meters":32400,"station_id":"","pricing_plan_id":"cebpf4jnsgd1na2vs0mg"},{"bike_id":"40fa2f30-c25b-4700-8cce-e41dd9b769cf","system_id":"levelo_inurba_marseille","lat":43.26584,"lon":5.39024,"is_reserved":false,"is_disabled":false,"rental_uris":{"android":"levelo://app?vid=40fa2f30-c25b-4700-8cce-e41dd9b769cf","ios":"levelo://app?vid=40fa2f30-c25b-4700-8cce-e41dd9b769cf"},"vehicle_type_id":"4","last_reported":1738080624,"current_range_meters":38800,"station_id":"ce4bhe12rcd13ifvqf30","pricing_plan_id":"cebpf4jnsgd1na2vs0mg"},{"bike_id":"bf4cd1f6-e7b2-4265-b2ee-454ea82fce68","system_id":"levelo_inurba_marseille","lat":43.29878,"lon":5.38914,"is_reserved":false,"is_disabled":false,"rental_uris":{"android":"levelo://app?vid=bf4cd1f6-e7b2-4265-b2ee-454ea82fce68","ios":"levelo://app?vid=bf4cd1f6-e7b2-4265-b2ee-454ea82fce68"},"vehicle_type_id":"4","last_reported":1738080624,"current_range_meters":36400,"station_id":"ce4bh392rcd13ifvqdl0","pricing_plan_id":"cebpf4jnsgd1na2vs0mg"},{"bike_id":"990ae45e-9692-41d6-9f8a-fa5d779220e1","system_id":"levelo_inurba_marseille","lat":43.2396,"lon":5.36631,"is_reserved":false,"is_disabled":false,"rental_uris":{"android":"levelo://app?vid=990ae45e-9692-41d6-9f8a-fa5d779220e1","ios":"levelo://app?vid=990ae45e-9692-41d6-9f8a-fa5d779220e1"},"vehicle_type_id":"4","last_reported":1738080624,"current_range_meters":8000,"station_id":"ce4bhi12rcd13ifvqfp0","pricing_plan_id":"cebpf4jnsgd1na2vs0mg"},{"bike_id":"3dfd3c65-9319-4df0-b7e5-a40cf909f36a","system_id":"levelo_inurba_marseille","lat":43.27067,"lon":5.40261,"is_reserved":false,"is_disabled":false,"rental_uris":{"android":"levelo://app?vid=3dfd3c65-9319-4df0-b7e5-a40cf909f36a","ios":"levelo://app?vid=3dfd3c65-9319-4df0-b7e5-a40cf909f36a"},"vehicle_type_id":"4","last_reported":1738080624,"current_range_meters":22400,"station_id":"ce4bhk92rcd13ifvqgc0","pricing_plan_id":"cebpf4jnsgd1na2vs0mg"},{"bike_id":"d77faba5-2b0c-430f-ad22-bcf40b90e74c","system_id":"levelo_inurba_marseille","lat":43.27822,"lon":5.40729,"is_reserved":false,"is_disabled":true,"rental_uris":{"android":"levelo://app?vid=d77faba5-2b0c-430f-ad22-bcf40b90e74c","ios":"levelo://app?vid=d77faba5-2b0c-430f-ad22-bcf40b90e74c"},"vehicle_type_id":"4","last_reported":1738080624,"current_range_meters":38000,"station_id":"ce4bhnh2rcd13ifvqgtg","pricing_plan_id":"cebpf4jnsgd1na2vs0mg"},{"bike_id":"e1062aeb-c2fe-4436-9378-f34f81565a82","system_id":"levelo_inurba_marseille","lat":43.29526,"lon":5.42282,"is_reserved":false,"is_disabled":false,"rental_uris":{"android":"levelo://app?vid=e1062aeb-c2fe-4436-9378-f34f81565a82","ios":"levelo://app?vid=e1062aeb-c2fe-4436-9378-f34f81565a82"},"vehicle_type_id":"4","last_reported":1738080624,"current_range_meters":39200,"station_id":"ce4bhph2rcd13ifvqhdg","pricing_plan_id":"cebpf4jnsgd1na2vs0mg"},{"bike_id":"5c06a0dd-d55b-4a3a-9f47-fadaa27d8e28","system_id":"levelo_inurba_marseille","lat":43.2902,"lon":5.38146,"is_reserved":false,"is_disabled":false,"rental_uris":{"android":"levelo://app?vid=5c06a0dd-d55b-4a3a-9f47-fadaa27d8e28","ios":"levelo://app?vid=5c06a0dd-d55b-4a3a-9f47-fadaa27d8e28"},"vehicle_type_id":"4","last_reported":1738080624,"current_range_meters":39200,"station_id":"ce4bh4p2rcd13ifvqe1g","pricing_plan_id":"cebpf4jnsgd1na2vs0mg"},{"bike_id":"9177240c-3fdb-4fb6-bef2-c9c7a83655d9","system_id":"levelo_inurba_marseille","lat":43.3237,"lon":5.38886,"is_reserved":false,"is_disabled":false,"rental_uris":{"android":"levelo://app?vid=9177240c-3fdb-4fb6-bef2-c9c7a83655d9","ios":"levelo://app?vid=9177240c-3fdb-4fb6-bef2-c9c7a83655d9"},"vehicle_type_id":"4","last_reported":1738080624,"current_range_meters":36400,"station_id":"ce4bhqp2rcd13ifvqhog","pricing_plan_id":"cebpf4jnsgd1na2vs0mg"},{"bike_id":"71b08460-4b9d-46eb-90f1-d29961c4c138","system_id":"levelo_inurba_marseille","lat":43.29171,"lon":5.35805,"is_reserved":false,"is_disabled":false,"rental_uris":{"android":"levelo://app?vid=71b08460-4b9d-46eb-90f1-d29961c4c138","ios":"levelo://app?vid=71b08460-4b9d-46eb-90f1-d29961c4c138"},"vehicle_type_id":"4","last_reported":1738080624,"current_range_meters":17600,"station_id":"ce4bhb12rcd13ifvqel0","pricing_plan_id":"cebpf4jnsgd1na2vs0mg"},{"bike_id":"8df2db50-4daa-47a5-9ab9-8a9fa8fdc263","system_id":"levelo_inurba_marseille","lat":43.26497,"lon":5.39559,"is_reserved":false,"is_disabled":false,"rental_uris":{"android":"levelo://app?vid=8df2db50-4daa-47a5-9ab9-8a9fa8fdc263","ios":"levelo://app?vid=8df2db50-4daa-47a5-9ab9-8a9fa8fdc263"},"vehicle_type_id":"4","last_reported":1738080624,"current_range_meters":32400,"station_id":"ce4bhi12rcd13ifvqfq0","pricing_plan_id":"cebpf4jnsgd1na2vs0mg"},{"bike_id":"4fdc1a81-816d-4f08-8e37-679c153a6d39","system_id":"levelo_inurba_marseille","lat":43.26558,"lon":5.37287,"is_reserved":false,"is_disabled":false,"rental_uris":{"android":"levelo://app?vid=4fdc1a81-816d-4f08-8e37-679c153a6d39","ios":"levelo://app?vid=4fdc1a81-816d-4f08-8e37-679c153a6d39"},"vehicle_type_id":"4","last_reported":1738080624,"current_range_meters":6800,"station_id":"ce4bhg12rcd13ifvqf70","pricing_plan_id":"cebpf4jnsgd1na2vs0mg"},{"bike_id":"49a28dbb-9ec5-46f9-976d-461f8d6f358f","system_id":"levelo_inurba_marseille","lat":43.30294,"lon":5.3691,"is_reserved":false,"is_disabled":false,"rental_uris":{"android":"levelo://app?vid=49a28dbb-9ec5-46f9-976d-461f8d6f358f","ios":"levelo://app?vid=49a28dbb-9ec5-46f9-976d-461f8d6f358f"},"vehicle_type_id":"4","last_reported":1738080624,"current_range_meters":10800,"station_id":"ce4bgqh2rcd13ifvqc5g","pricing_plan_id":"cebpf4jnsgd1na2vs0mg"},{"bike_id":"96c6d005-88bb-4fd6-98f4-0a014c553eb8","system_id":"levelo_inurba_marseille","lat":43.33038,"lon":5.39031,"is_reserved":false,"is_disabled":false,"rental_uris":{"android":"levelo://app?vid=96c6d005-88bb-4fd6-98f4-0a014c553eb8","ios":"levelo://app?vid=96c6d005-88bb-4fd6-98f4-0a014c553eb8"},"vehicle_type_id":"4","last_reported":1738080624,"current_range_meters":38000,"station_id":"ce4bhr92rcd13ifvqhrg","pricing_plan_id":"cebpf4jnsgd1na2vs0mg"},{"bike_id":"f3b486f5-4ec0-459a-a91c-292105fc4a62","system_id":"levelo_inurba_marseille","lat":43.30138,"lon":5.39869,"is_reserved":false,"is_disabled":false,"rental_uris":{"android":"levelo://app?vid=f3b486f5-4ec0-459a-a91c-292105fc4a62","ios":"levelo://app?vid=f3b486f5-4ec0-459a-a91c-292105fc4a62"},"vehicle_type_id":"4","last_reported":1738080624,"current_range_meters":23200,"station_id":"ce4bh0h2rcd13ifvqd40","pricing_plan_id":"cebpf4jnsgd1na2vs0mg"},{"bike_id":"5c388708-e3f2-4bbd-88d9-c199a31e81f9","system_id":"levelo_inurba_marseille","lat":43.2869,"lon":5.40049,"is_reserved":false,"is_disabled":true,"rental_uris":{"android":"levelo://app?vid=5c388708-e3f2-4bbd-88d9-c199a31e81f9","ios":"levelo://app?vid=5c388708-e3f2-4bbd-88d9-c199a31e81f9"},"vehicle_type_id":"4","last_reported":1738080624,"current_range_meters":35600,"station_id":"ce4bho92rcd13ifvqh3g","pricing_plan_id":"cebpf4jnsgd1na2vs0mg"},{"bike_id":"99f052ce-e5d4-4959-9f96-077a48f3f1c5","system_id":"levelo_inurba_marseille","lat":43.272,"lon":5.40982,"is_reserved":false,"is_disabled":false,"rental_uris":{"android":"levelo://app?vid=99f052ce-e5d4-4959-9f96-077a48f3f1c5","ios":"levelo://app?vid=99f052ce-e5d4-4959-9f96-077a48f3f1c5"},"vehicle_type_id":"4","last_reported":1738080624,"current_range_meters":32800,"station_id":"ce4bhl12rcd13ifvqgf0","pricing_plan_id":"cebpf4jnsgd1na2vs0mg"},{"bike_id":"d302b16d-f581-4992-9151-b0c15c078cdc","system_id":"levelo_inurba_marseille","lat":43.26805,"lon":5.40268,"is_reserved":false,"is_disabled":false,"rental_uris":{"android":"levelo://app?vid=d302b16d-f581-4992-9151-b0c15c078cdc","ios":"levelo://app?vid=d302b16d-f581-4992-9151-b0c15c078cdc"},"vehicle_type_id":"4","last_reported":1738080624,"current_range_meters":38800,"station_id":"ce501612rcd8frsf0b60","pricing_plan_id":"cebpf4jnsgd1na2vs0mg"},{"bike_id":"f7dbd7c4-7033-43ce-b8a8-91687507514d","system_id":"levelo_inurba_marseille","lat":43.31156,"lon":5.37755,"is_reserved":false,"is_disabled":false,"rental_uris":{"android":"levelo://app?vid=f7dbd7c4-7033-43ce-b8a8-91687507514d","ios":"levelo://app?vid=f7dbd7c4-7033-43ce-b8a8-91687507514d"},"vehicle_type_id":"4","last_reported":1738080624,"current_range_meters":30800,"station_id":"ce4bgt92rcd13ifvqcg0","pricing_plan_id":"cebpf4jnsgd1na2vs0mg"},{"bike_id":"26b11614-6415-40a3-bed2-5926abfaad8a","system_id":"levelo_inurba_marseille","lat":43.26687,"lon":5.38287,"is_reserved":false,"is_disabled":false,"rental_uris":{"android":"levelo://app?vid=26b11614-6415-40a3-bed2-5926abfaad8a","ios":"levelo://app?vid=26b11614-6415-40a3-bed2-5926abfaad8a"},"vehicle_type_id":"4","last_reported":1738080624,"current_range_meters":30800,"station_id":"ce4bhg92rcd13ifvqf90","pricing_plan_id":"cebpf4jnsgd1na2vs0mg"},{"bike_id":"0e6e18c6-9d20-4de3-be4c-c1c693c0e8c1","system_id":"levelo_inurba_marseille","lat":43.29792,"lon":5.39352,"is_reserved":false,"is_disabled":false,"rental_uris":{"android":"levelo://app?vid=0e6e18c6-9d20-4de3-be4c-c1c693c0e8c1","ios":"levelo://app?vid=0e6e18c6-9d20-4de3-be4c-c1c693c0e8c1"},"vehicle_type_id":"4","last_reported":1738080624,"current_range_meters":18000,"station_id":"chh1huq6cuj3fo74tm60","pricing_plan_id":"cebpf4jnsgd1na2vs0mg"},{"bike_id":"2ce354e2-4893-4bff-80f4-014eb6d0e561","system_id":"levelo_inurba_marseille","lat":43.28564,"lon":5.39503,"is_reserved":false,"is_disabled":false,"rental_uris":{"android":"levelo://app?vid=2ce354e2-4893-4bff-80f4-014eb6d0e561","ios":"levelo://app?vid=2ce354e2-4893-4bff-80f4-014eb6d0e561"},"vehicle_type_id":"4","last_reported":1738080624,"current_range_meters":22000,"station_id":"ce4bh292rcd13ifvqdg0","pricing_plan_id":"cebpf4jnsgd1na2vs0mg"},{"bike_id":"a8d5c007-3fb3-466f-9983-df258542e202","system_id":"levelo_inurba_marseille","lat":43.29929,"lon":5.36508,"is_reserved":false,"is_disabled":false,"rental_uris":{"android":"levelo://app?vid=a8d5c007-3fb3-466f-9983-df258542e202","ios":"levelo://app?vid=a8d5c007-3fb3-466f-9983-df258542e202"},"vehicle_type_id":"4","last_reported":1738080624,"current_range_meters":16800,"station_id":"ce4bgm92rcd13ifvqbr0","pricing_plan_id":"cebpf4jnsgd1na2vs0mg"},{"bike_id":"069b705e-258c-450c-88dc-0d2ac3a8269c","system_id":"levelo_inurba_marseille","lat":43.31383,"lon":5.38499,"is_reserved":false,"is_disabled":false,"rental_uris":{"android":"levelo://app?vid=069b705e-258c-450c-88dc-0d2ac3a8269c","ios":"levelo://app?vid=069b705e-258c-450c-88dc-0d2ac3a8269c"},"vehicle_type_id":"4","last_reported":1738080624,"current_range_meters":8000,"station_id":"ce4bgt92rcd13ifvqcf0","pricing_plan_id":"cebpf4jnsgd1na2vs0mg"},{"bike_id":"5d4915e0-4a9f-4c36-821a-8bde58abc3cd","system_id":"levelo_inurba_marseille","lat":43.25112,"lon":5.40332,"is_reserved":false,"is_disabled":true,"rental_uris":{"android":"levelo://app?vid=5d4915e0-4a9f-4c36-821a-8bde58abc3cd","ios":"levelo://app?vid=5d4915e0-4a9f-4c36-821a-8bde58abc3cd"},"vehicle_type_id":"4","last_reported":1738080624,"current_range_meters":14400,"station_id":"ce4bhlh2rcd13ifvqgig","pricing_plan_id":"cebpf4jnsgd1na2vs0mg"},{"bike_id":"7ef08bd5-086b-4f34-841f-58d15a733476","system_id":"levelo_inurba_marseille","lat":43.2582,"lon":5.39434,"is_reserved":false,"is_disabled":false,"rental_uris":{"android":"levelo://app?vid=7ef08bd5-086b-4f34-841f-58d15a733476","ios":"levelo://app?vid=7ef08bd5-086b-4f34-841f-58d15a733476"},"vehicle_type_id":"4","last_reported":1738080624,"current_range_meters":34000,"station_id":"ce4bhip2rcd13ifvqft0","pricing_plan_id":"cebpf4jnsgd1na2vs0mg"},{"bike_id":"75f78423-7bb1-46bc-9291-8f61438106b2","system_id":"levelo_inurba_marseille","lat":43.33021,"lon":5.39029,"is_reserved":false,"is_disabled":false,"rental_uris":{"android":"levelo://app?vid=75f78423-7bb1-46bc-9291-8f61438106b2","ios":"levelo://app?vid=75f78423-7bb1-46bc-9291-8f61438106b2"},"vehicle_type_id":"4","last_reported":1738080624,"current_range_meters":28800,"station_id":"ce4bhr92rcd13ifvqhrg","pricing_plan_id":"cebpf4jnsgd1na2vs0mg"},{"bike_id":"07f836ff-08c3-41f5-80e0-bbb6209aa2f9","system_id":"levelo_inurba_marseille","lat":43.29378,"lon":5.37863,"is_reserved":false,"is_disabled":false,"rental_uris":{"android":"levelo://app?vid=07f836ff-08c3-41f5-80e0-bbb6209aa2f9","ios":"levelo://app?vid=07f836ff-08c3-41f5-80e0-bbb6209aa2f9"},"vehicle_type_id":"4","last_reported":1738080624,"current_range_meters":13600,"station_id":"ce4bgjh2rcd13ifvqbf0","pricing_plan_id":"cebpf4jnsgd1na2vs0mg"},{"bike_id":"5b093e90-300a-4b0a-a15d-ae22ef06f7a6","system_id":"levelo_inurba_marseille","lat":43.30544,"lon":5.36563,"is_reserved":false,"is_disabled":false,"rental_uris":{"android":"levelo://app?vid=5b093e90-300a-4b0a-a15d-ae22ef06f7a6","ios":"levelo://app?vid=5b093e90-300a-4b0a-a15d-ae22ef06f7a6"},"vehicle_type_id":"4","last_reported":1738080624,"current_range_meters":31200,"station_id":"ce4bgs12rcd13ifvqcag","pricing_plan_id":"cebpf4jnsgd1na2vs0mg"},{"bike_id":"8906b01c-c546-42d8-8a71-d3e4c23c32f6","system_id":"levelo_inurba_marseille","lat":43.24401,"lon":5.37051,"is_reserved":false,"is_disabled":false,"rental_uris":{"android":"levelo://app?vid=8906b01c-c546-42d8-8a71-d3e4c23c32f6","ios":"levelo://app?vid=8906b01c-c546-42d8-8a71-d3e4c23c32f6"},"vehicle_type_id":"4","last_reported":1738080624,"current_range_meters":38800,"station_id":"ce4bhhh2rcd13ifvqfk0","pricing_plan_id":"cebpf4jnsgd1na2vs0mg"},{"bike_id":"6dc46f7b-097e-4bed-b74a-5bab6b23ccc2","system_id":"levelo_inurba_marseille","lat":43.31313,"lon":5.39712,"is_reserved":false,"is_disabled":false,"rental_uris":{"android":"levelo://app?vid=6dc46f7b-097e-4bed-b74a-5bab6b23ccc2","ios":"levelo://app?vid=6dc46f7b-097e-4bed-b74a-5bab6b23ccc2"},"vehicle_type_id":"4","last_reported":1738080624,"current_range_meters":28400,"station_id":"ce4bgvp2rcd13ifvqcu0","pricing_plan_id":"cebpf4jnsgd1na2vs0mg"},{"bike_id":"f070232a-a2a6-42db-b6e0-d10ef8824f4c","system_id":"levelo_inurba_marseille","lat":43.30538,"lon":5.36563,"is_reserved":false,"is_disabled":false,"rental_uris":{"android":"levelo://app?vid=f070232a-a2a6-42db-b6e0-d10ef8824f4c","ios":"levelo://app?vid=f070232a-a2a6-42db-b6e0-d10ef8824f4c"},"vehicle_type_id":"4","last_reported":1738080624,"current_range_meters":28000,"station_id":"ce4bgs12rcd13ifvqcag","pricing_plan_id":"cebpf4jnsgd1na2vs0mg"},{"bike_id":"f34da461-f61f-4178-8b83-f173480586de","system_id":"levelo_inurba_marseille","lat":43.2988,"lon":5.39742,"is_reserved":false,"is_disabled":false,"rental_uris":{"android":"levelo://app?vid=f34da461-f61f-4178-8b83-f173480586de","ios":"levelo://app?vid=f34da461-f61f-4178-8b83-f173480586de"},"vehicle_type_id":"4","last_reported":1738080624,"current_range_meters":39200,"station_id":"ce4bh0h2rcd13ifvqd50","pricing_plan_id":"cebpf4jnsgd1na2vs0mg"},{"bike_id":"e1fd9a38-be79-4c1a-b105-62d9c0a7e21b","system_id":"levelo_inurba_marseille","lat":43.30436,"lon":5.38894,"is_reserved":false,"is_disabled":false,"rental_uris":{"android":"levelo://app?vid=e1fd9a38-be79-4c1a-b105-62d9c0a7e21b","ios":"levelo://app?vid=e1fd9a38-be79-4c1a-b105-62d9c0a7e21b"},"vehicle_type_id":"4","last_reported":1738080624,"current_range_meters":30800,"station_id":"ce4bgk12rcd13ifvqbi0","pricing_plan_id":"cebpf4jnsgd1na2vs0mg"},{"bike_id":"c8d71b77-8734-42f9-ac51-84a7c5f5c869","system_id":"levelo_inurba_marseille","lat":43.29618,"lon":5.37164,"is_reserved":false,"is_disabled":false,"rental_uris":{"android":"levelo://app?vid=c8d71b77-8734-42f9-ac51-84a7c5f5c869","ios":"levelo://app?vid=c8d71b77-8734-42f9-ac51-84a7c5f5c869"},"vehicle_type_id":"4","last_reported":1738080624,"current_range_meters":28800,"station_id":"ce4bgnh2rcd13ifvqc0g","pricing_plan_id":"cebpf4jnsgd1na2vs0mg"},{"bike_id":"f0d39fe9-a4e1-45c3-a0b3-b06ac9d06d7e","system_id":"levelo_inurba_marseille","lat":43.30928,"lon":5.40144,"is_reserved":false,"is_disabled":false,"rental_uris":{"android":"levelo://app?vid=f0d39fe9-a4e1-45c3-a0b3-b06ac9d06d7e","ios":"levelo://app?vid=f0d39fe9-a4e1-45c3-a0b3-b06ac9d06d7e"},"vehicle_type_id":"4","last_reported":1738080624,"current_range_meters":19600,"station_id":"ce4bgvp2rcd13ifvqct0","pricing_plan_id":"cebpf4jnsgd1na2vs0mg"},{"bike_id":"6926221e-8b00-4c4c-ab4f-202267e358dc","system_id":"levelo_inurba_marseille","lat":43.31266,"lon":5.36828,"is_reserved":false,"is_disabled":false,"rental_uris":{"android":"levelo://app?vid=6926221e-8b00-4c4c-ab4f-202267e358dc","ios":"levelo://app?vid=6926221e-8b00-4c4c-ab4f-202267e358dc"},"vehicle_type_id":"4","last_reported":1738080624,"current_range_meters":33200,"station_id":"","pricing_plan_id":"cebpf4jnsgd1na2vs0mg"},{"bike_id":"e8b3a5d7-b6e2-42c5-83cf-018ee3c6998d","system_id":"levelo_inurba_marseille","lat":43.29029,"lon":5.38651,"is_reserved":false,"is_disabled":false,"rental_uris":{"android":"levelo://app?vid=e8b3a5d7-b6e2-42c5-83cf-018ee3c6998d","ios":"levelo://app?vid=e8b3a5d7-b6e2-42c5-83cf-018ee3c6998d"},"vehicle_type_id":"4","last_reported":1738080624,"current_range_meters":16800,"station_id":"ce4bh4p2rcd13ifvqe0g","pricing_plan_id":"cebpf4jnsgd1na2vs0mg"},{"bike_id":"528dd257-e231-44f4-876b-6552ff415f71","system_id":"levelo_inurba_marseille","lat":43.22931,"lon":5.35366,"is_reserved":false,"is_disabled":false,"rental_uris":{"android":"levelo://app?vid=528dd257-e231-44f4-876b-6552ff415f71","ios":"levelo://app?vid=528dd257-e231-44f4-876b-6552ff415f71"},"vehicle_type_id":"4","last_reported":1738080624,"current_range_meters":39200,"station_id":"cpo3532slgdg3j2ikp40","pricing_plan_id":"cebpf4jnsgd1na2vs0mg"},{"bike_id":"c8a3a0ed-dff2-4f3c-87dc-2e6b47b1ad28","system_id":"levelo_inurba_marseille","lat":43.337444,"lon":5.374475,"is_reserved":false,"is_disabled":true,"rental_uris":{"android":"levelo://app?vid=c8a3a0ed-dff2-4f3c-87dc-2e6b47b1ad28","ios":"levelo://app?vid=c8a3a0ed-dff2-4f3c-87dc-2e6b47b1ad28"},"vehicle_type_id":"4","last_reported":1738080624,"current_range_meters":4800,"station_id":"","pricing_plan_id":"cebpf4jnsgd1na2vs0mg"},{"bike_id":"0f10d308-2d80-45fa-b11d-26cec9418517","system_id":"levelo_inurba_marseille","lat":43.29791,"lon":5.38095,"is_reserved":false,"is_disabled":false,"rental_uris":{"android":"levelo://app?vid=0f10d308-2d80-45fa-b11d-26cec9418517","ios":"levelo://app?vid=0f10d308-2d80-45fa-b11d-26cec9418517"},"vehicle_type_id":"4","last_reported":1738080624,"current_range_meters":39200,"station_id":"ce4bgip2rcd13ifvqbb0","pricing_plan_id":"cebpf4jnsgd1na2vs0mg"},{"bike_id":"061a807c-1db8-46c7-beec-da6308b151ea","system_id":"levelo_inurba_marseille","lat":43.29591,"lon":5.38095,"is_reserved":false,"is_disabled":true,"rental_uris":{"android":"levelo://app?vid=061a807c-1db8-46c7-beec-da6308b151ea","ios":"levelo://app?vid=061a807c-1db8-46c7-beec-da6308b151ea"},"vehicle_type_id":"4","last_reported":1738080624,"current_range_meters":32000,"station_id":"ce4bgl12rcd13ifvqbo0","pricing_plan_id":"cebpf4jnsgd1na2vs0mg"},{"bike_id":"bbac4089-71dc-4393-89ae-ad1e6d7b6fc4","system_id":"levelo_inurba_marseille","lat":43.29273,"lon":5.36848,"is_reserved":false,"is_disabled":false,"rental_uris":{"android":"levelo://app?vid=bbac4089-71dc-4393-89ae-ad1e6d7b6fc4","ios":"levelo://app?vid=bbac4089-71dc-4393-89ae-ad1e6d7b6fc4"},"vehicle_type_id":"4","last_reported":1738080624,"current_range_meters":38800,"station_id":"ce4bhbp2rcd13ifvqesg","pricing_plan_id":"cebpf4jnsgd1na2vs0mg"},{"bike_id":"a7ee1724-a999-4f11-8f28-1b1c8c10ea18","system_id":"levelo_inurba_marseille","lat":43.29615,"lon":5.37732,"is_reserved":false,"is_disabled":false,"rental_uris":{"android":"levelo://app?vid=a7ee1724-a999-4f11-8f28-1b1c8c10ea18","ios":"levelo://app?vid=a7ee1724-a999-4f11-8f28-1b1c8c10ea18"},"vehicle_type_id":"4","last_reported":1738080624,"current_range_meters":31200,"station_id":"ce4bgi92rcd13ifvqb90","pricing_plan_id":"cebpf4jnsgd1na2vs0mg"},{"bike_id":"317641f9-e35e-4cc5-8468-c17053a33f25","system_id":"levelo_inurba_marseille","lat":43.29885,"lon":5.39744,"is_reserved":false,"is_disabled":false,"rental_uris":{"android":"levelo://app?vid=317641f9-e35e-4cc5-8468-c17053a33f25","ios":"levelo://app?vid=317641f9-e35e-4cc5-8468-c17053a33f25"},"vehicle_type_id":"4","last_reported":1738080624,"current_range_meters":28000,"station_id":"ce4bh0h2rcd13ifvqd50","pricing_plan_id":"cebpf4jnsgd1na2vs0mg"},{"bike_id":"7125fabb-d4fe-450e-b9a8-9b858c3dc86d","system_id":"levelo_inurba_marseille","lat":43.3248,"lon":5.36572,"is_reserved":false,"is_disabled":false,"rental_uris":{"android":"levelo://app?vid=7125fabb-d4fe-450e-b9a8-9b858c3dc86d","ios":"levelo://app?vid=7125fabb-d4fe-450e-b9a8-9b858c3dc86d"},"vehicle_type_id":"4","last_reported":1738080624,"current_range_meters":28400,"station_id":"ce4bhs12rcd13ifvqhvg","pricing_plan_id":"cebpf4jnsgd1na2vs0mg"},{"bike_id":"878dfc93-a59a-462b-b8a9-67361a235037","system_id":"levelo_inurba_marseille","lat":43.28553,"lon":5.39498,"is_reserved":false,"is_disabled":false,"rental_uris":{"android":"levelo://app?vid=878dfc93-a59a-462b-b8a9-67361a235037","ios":"levelo://app?vid=878dfc93-a59a-462b-b8a9-67361a235037"},"vehicle_type_id":"4","last_reported":1738080624,"current_range_meters":39200,"station_id":"ce4bh292rcd13ifvqdg0","pricing_plan_id":"cebpf4jnsgd1na2vs0mg"},{"bike_id":"b789081f-d35e-40cb-93f0-259b21f07a15","system_id":"levelo_inurba_marseille","lat":43.30462,"lon":5.37135,"is_reserved":false,"is_disabled":false,"rental_uris":{"android":"levelo://app?vid=b789081f-d35e-40cb-93f0-259b21f07a15","ios":"levelo://app?vid=b789081f-d35e-40cb-93f0-259b21f07a15"},"vehicle_type_id":"4","last_reported":1738080624,"current_range_meters":24000,"station_id":"","pricing_plan_id":"cebpf4jnsgd1na2vs0mg"},{"bike_id":"304671ee-d3db-4725-b698-15e5f144fe70","system_id":"levelo_inurba_marseille","lat":43.2785,"lon":5.40681,"is_reserved":false,"is_disabled":false,"rental_uris":{"android":"levelo://app?vid=304671ee-d3db-4725-b698-15e5f144fe70","ios":"levelo://app?vid=304671ee-d3db-4725-b698-15e5f144fe70"},"vehicle_type_id":"4","last_reported":1738080624,"current_range_meters":36800,"station_id":"","pricing_plan_id":"cebpf4jnsgd1na2vs0mg"},{"bike_id":"cd82f50f-1e86-40da-9758-123ed9f78048","system_id":"levelo_inurba_marseille","lat":43.27404,"lon":5.39395,"is_reserved":false,"is_disabled":false,"rental_uris":{"android":"levelo://app?vid=cd82f50f-1e86-40da-9758-123ed9f78048","ios":"levelo://app?vid=cd82f50f-1e86-40da-9758-123ed9f78048"},"vehicle_type_id":"4","last_reported":1738080624,"current_range_meters":33600,"station_id":"ce4bhdp2rcd13ifvqf20","pricing_plan_id":"cebpf4jnsgd1na2vs0mg"},{"bike_id":"ac87515a-8bb4-48b1-b85c-2c3a2a77a9ff","system_id":"levelo_inurba_marseille","lat":43.29774,"lon":5.37659,"is_reserved":false,"is_disabled":false,"rental_uris":{"android":"levelo://app?vid=ac87515a-8bb4-48b1-b85c-2c3a2a77a9ff","ios":"levelo://app?vid=ac87515a-8bb4-48b1-b85c-2c3a2a77a9ff"},"vehicle_type_id":"4","last_reported":1738080624,"current_range_meters":37600,"station_id":"","pricing_plan_id":"cebpf4jnsgd1na2vs0mg"},{"bike_id":"ece1c51d-d854-4523-ab4d-ec36ed60fd30","system_id":"levelo_inurba_marseille","lat":43.28427,"lon":5.35002,"is_reserved":false,"is_disabled":false,"rental_uris":{"android":"levelo://app?vid=ece1c51d-d854-4523-ab4d-ec36ed60fd30","ios":"levelo://app?vid=ece1c51d-d854-4523-ab4d-ec36ed60fd30"},"vehicle_type_id":"4","last_reported":1738080624,"current_range_meters":38800,"station_id":"ce4bhbh2rcd13ifvqepg","pricing_plan_id":"cebpf4jnsgd1na2vs0mg"},{"bike_id":"9838cc78-2b53-49d3-ae13-82df62c4fd64","system_id":"levelo_inurba_marseille","lat":43.28412,"lon":5.40934,"is_reserved":false,"is_disabled":true,"rental_uris":{"android":"levelo://app?vid=9838cc78-2b53-49d3-ae13-82df62c4fd64","ios":"levelo://app?vid=9838cc78-2b53-49d3-ae13-82df62c4fd64"},"vehicle_type_id":"4","last_reported":1738080624,"current_range_meters":0,"station_id":"","pricing_plan_id":"cebpf4jnsgd1na2vs0mg"},{"bike_id":"f7fe43dd-4981-4cd5-87f2-77f4f1f7fb0f","system_id":"levelo_inurba_marseille","lat":43.28684,"lon":5.37982,"is_reserved":false,"is_disabled":true,"rental_uris":{"android":"levelo://app?vid=f7fe43dd-4981-4cd5-87f2-77f4f1f7fb0f","ios":"levelo://app?vid=f7fe43dd-4981-4cd5-87f2-77f4f1f7fb0f"},"vehicle_type_id":"4","last_reported":1738080624,"current_range_meters":38800,"station_id":"ce4bh9p2rcd13ifvqec0","pricing_plan_id":"cebpf4jnsgd1na2vs0mg"},{"bike_id":"44d70056-f722-4d8f-80f9-afd89c389591","system_id":"levelo_inurba_marseille","lat":43.33022,"lon":5.39042,"is_reserved":false,"is_disabled":false,"rental_uris":{"android":"levelo://app?vid=44d70056-f722-4d8f-80f9-afd89c389591","ios":"levelo://app?vid=44d70056-f722-4d8f-80f9-afd89c389591"},"vehicle_type_id":"4","last_reported":1738080624,"current_range_meters":20000,"station_id":"ce4bhr92rcd13ifvqhrg","pricing_plan_id":"cebpf4jnsgd1na2vs0mg"},{"bike_id":"cb4b9878-96ef-4892-8d93-336dc7a1cc89","system_id":"levelo_inurba_marseille","lat":43.340293,"lon":5.353737,"is_reserved":false,"is_disabled":false,"rental_uris":{"android":"levelo://app?vid=cb4b9878-96ef-4892-8d93-336dc7a1cc89","ios":"levelo://app?vid=cb4b9878-96ef-4892-8d93-336dc7a1cc89"},"vehicle_type_id":"4","last_reported":1738080624,"current_range_meters":36000,"station_id":"","pricing_plan_id":"cebpf4jnsgd1na2vs0mg"},{"bike_id":"8d198b1c-d183-4e75-867d-bee140abe05c","system_id":"levelo_inurba_marseille","lat":43.30816,"lon":5.43517,"is_reserved":false,"is_disabled":false,"rental_uris":{"android":"levelo://app?vid=8d198b1c-d183-4e75-867d-bee140abe05c","ios":"levelo://app?vid=8d198b1c-d183-4e75-867d-bee140abe05c"},"vehicle_type_id":"4","last_reported":1738080624,"current_range_meters":16800,"station_id":"ce4bhph2rcd13ifvqheg","pricing_plan_id":"cebpf4jnsgd1na2vs0mg"},{"bike_id":"b787c678-c9ab-4691-91ff-cc908e6000c0","system_id":"levelo_inurba_marseille","lat":43.30782,"lon":5.37641,"is_reserved":false,"is_disabled":false,"rental_uris":{"android":"levelo://app?vid=b787c678-c9ab-4691-91ff-cc908e6000c0","ios":"levelo://app?vid=b787c678-c9ab-4691-91ff-cc908e6000c0"},"vehicle_type_id":"4","last_reported":1738080624,"current_range_meters":32400,"station_id":"ce4bgv92rcd13ifvqcq0","pricing_plan_id":"cebpf4jnsgd1na2vs0mg"},{"bike_id":"b83effac-5ead-4880-819e-28161d9808f2","system_id":"levelo_inurba_marseille","lat":43.31277,"lon":5.4016,"is_reserved":false,"is_disabled":false,"rental_uris":{"android":"levelo://app?vid=b83effac-5ead-4880-819e-28161d9808f2","ios":"levelo://app?vid=b83effac-5ead-4880-819e-28161d9808f2"},"vehicle_type_id":"4","last_reported":1738080624,"current_range_meters":38800,"station_id":"ce4bh092rcd13ifvqd30","pricing_plan_id":"cebpf4jnsgd1na2vs0mg"},{"bike_id":"95a48d4c-6415-4c25-ad8c-f819e28a304b","system_id":"levelo_inurba_marseille","lat":43.2992,"lon":5.38876,"is_reserved":false,"is_disabled":false,"rental_uris":{"android":"levelo://app?vid=95a48d4c-6415-4c25-ad8c-f819e28a304b","ios":"levelo://app?vid=95a48d4c-6415-4c25-ad8c-f819e28a304b"},"vehicle_type_id":"4","last_reported":1738080624,"current_range_meters":37600,"station_id":"","pricing_plan_id":"cebpf4jnsgd1na2vs0mg"},{"bike_id":"2e0a8b86-b457-48a0-8577-213b01080398","system_id":"levelo_inurba_marseille","lat":43.23196,"lon":5.35553,"is_reserved":false,"is_disabled":false,"rental_uris":{"android":"levelo://app?vid=2e0a8b86-b457-48a0-8577-213b01080398","ios":"levelo://app?vid=2e0a8b86-b457-48a0-8577-213b01080398"},"vehicle_type_id":"4","last_reported":1738080624,"current_range_meters":38800,"station_id":"ce4bhu92rcd13ifvqi70","pricing_plan_id":"cebpf4jnsgd1na2vs0mg"},{"bike_id":"cfb044e4-ee7e-453d-b0dc-006540db0448","system_id":"levelo_inurba_marseille","lat":43.24794,"lon":5.37463,"is_reserved":false,"is_disabled":false,"rental_uris":{"android":"levelo://app?vid=cfb044e4-ee7e-453d-b0dc-006540db0448","ios":"levelo://app?vid=cfb044e4-ee7e-453d-b0dc-006540db0448"},"vehicle_type_id":"4","last_reported":1738080624,"current_range_meters":8800,"station_id":"ce4bhgh2rcd13ifvqfb0","pricing_plan_id":"cebpf4jnsgd1na2vs0mg"},{"bike_id":"d979d8d2-ec65-47af-9229-e4270aab279a","system_id":"levelo_inurba_marseille","lat":43.23062,"lon":5.35499,"is_reserved":false,"is_disabled":false,"rental_uris":{"android":"levelo://app?vid=d979d8d2-ec65-47af-9229-e4270aab279a","ios":"levelo://app?vid=d979d8d2-ec65-47af-9229-e4270aab279a"},"vehicle_type_id":"4","last_reported":1738080624,"current_range_meters":24000,"station_id":"cpo3342slgdg3j2ifvpg","pricing_plan_id":"cebpf4jnsgd1na2vs0mg"},{"bike_id":"beec82ff-6bac-4064-befa-4bdf4421761b","system_id":"levelo_inurba_marseille","lat":43.3172,"lon":5.4241,"is_reserved":false,"is_disabled":false,"rental_uris":{"android":"levelo://app?vid=beec82ff-6bac-4064-befa-4bdf4421761b","ios":"levelo://app?vid=beec82ff-6bac-4064-befa-4bdf4421761b"},"vehicle_type_id":"4","last_reported":1738080624,"current_range_meters":7200,"station_id":"ce4bhp92rcd13ifvqhbg","pricing_plan_id":"cebpf4jnsgd1na2vs0mg"},{"bike_id":"af190cbd-d008-43f0-ada0-6e9d26903b20","system_id":"levelo_inurba_marseille","lat":43.324828,"lon":5.365719,"is_reserved":false,"is_disabled":false,"rental_uris":{"android":"levelo://app?vid=af190cbd-d008-43f0-ada0-6e9d26903b20","ios":"levelo://app?vid=af190cbd-d008-43f0-ada0-6e9d26903b20"},"vehicle_type_id":"4","last_reported":1738080624,"current_range_meters":28800,"station_id":"ce4bhs12rcd13ifvqhvg","pricing_plan_id":"cebpf4jnsgd1na2vs0mg"},{"bike_id":"ae75ff73-3c54-45ed-8995-7871e96fe33a","system_id":"levelo_inurba_marseille","lat":43.26495,"lon":5.39548,"is_reserved":false,"is_disabled":false,"rental_uris":{"android":"levelo://app?vid=ae75ff73-3c54-45ed-8995-7871e96fe33a","ios":"levelo://app?vid=ae75ff73-3c54-45ed-8995-7871e96fe33a"},"vehicle_type_id":"4","last_reported":1738080624,"current_range_meters":39200,"station_id":"ce4bhi12rcd13ifvqfq0","pricing_plan_id":"cebpf4jnsgd1na2vs0mg"},{"bike_id":"9ae1c842-ff63-4a71-a085-4379a4cfc193","system_id":"levelo_inurba_marseille","lat":43.28448,"lon":5.35893,"is_reserved":false,"is_disabled":false,"rental_uris":{"android":"levelo://app?vid=9ae1c842-ff63-4a71-a085-4379a4cfc193","ios":"levelo://app?vid=9ae1c842-ff63-4a71-a085-4379a4cfc193"},"vehicle_type_id":"4","last_reported":1738080624,"current_range_meters":30000,"station_id":"ce4bhah2rcd13ifvqei0","pricing_plan_id":"cebpf4jnsgd1na2vs0mg"},{"bike_id":"809d19dd-8b78-4c8c-9077-c6b78688e456","system_id":"levelo_inurba_marseille","lat":43.28283,"lon":5.35086,"is_reserved":false,"is_disabled":false,"rental_uris":{"android":"levelo://app?vid=809d19dd-8b78-4c8c-9077-c6b78688e456","ios":"levelo://app?vid=809d19dd-8b78-4c8c-9077-c6b78688e456"},"vehicle_type_id":"4","last_reported":1738080624,"current_range_meters":14800,"station_id":"ce4bhbp2rcd13ifvqerg","pricing_plan_id":"cebpf4jnsgd1na2vs0mg"},{"bike_id":"c92f3ed1-1832-45b1-95ae-e066a3c304bb","system_id":"levelo_inurba_marseille","lat":43.33069,"lon":5.39039,"is_reserved":false,"is_disabled":false,"rental_uris":{"android":"levelo://app?vid=c92f3ed1-1832-45b1-95ae-e066a3c304bb","ios":"levelo://app?vid=c92f3ed1-1832-45b1-95ae-e066a3c304bb"},"vehicle_type_id":"4","last_reported":1738080624,"current_range_meters":38000,"station_id":"","pricing_plan_id":"cebpf4jnsgd1na2vs0mg"},{"bike_id":"4d8dba79-ba29-44ee-b424-8008f46fbd61","system_id":"levelo_inurba_marseille","lat":43.29267,"lon":5.36863,"is_reserved":false,"is_disabled":false,"rental_uris":{"android":"levelo://app?vid=4d8dba79-ba29-44ee-b424-8008f46fbd61","ios":"levelo://app?vid=4d8dba79-ba29-44ee-b424-8008f46fbd61"},"vehicle_type_id":"4","last_reported":1738080624,"current_range_meters":14800,"station_id":"ce4bhbp2rcd13ifvqesg","pricing_plan_id":"cebpf4jnsgd1na2vs0mg"},{"bike_id":"f8f2df1d-7b9b-4c17-8eac-f6e30cc9ac2b","system_id":"levelo_inurba_marseille","lat":43.32041,"lon":5.41555,"is_reserved":false,"is_disabled":false,"rental_uris":{"android":"levelo://app?vid=f8f2df1d-7b9b-4c17-8eac-f6e30cc9ac2b","ios":"levelo://app?vid=f8f2df1d-7b9b-4c17-8eac-f6e30cc9ac2b"},"vehicle_type_id":"4","last_reported":1738080624,"current_range_meters":24800,"station_id":"ce4bhq92rcd13ifvqhkg","pricing_plan_id":"cebpf4jnsgd1na2vs0mg"},{"bike_id":"65e5d743-4939-4264-b58d-d07fa3ba4595","system_id":"levelo_inurba_marseille","lat":43.24812,"lon":5.37454,"is_reserved":false,"is_disabled":false,"rental_uris":{"android":"levelo://app?vid=65e5d743-4939-4264-b58d-d07fa3ba4595","ios":"levelo://app?vid=65e5d743-4939-4264-b58d-d07fa3ba4595"},"vehicle_type_id":"4","last_reported":1738080624,"current_range_meters":38800,"station_id":"ce4bhgh2rcd13ifvqfb0","pricing_plan_id":"cebpf4jnsgd1na2vs0mg"},{"bike_id":"be048866-8445-4922-bc00-7e8b91d393ff","system_id":"levelo_inurba_marseille","lat":43.29036,"lon":5.3864,"is_reserved":false,"is_disabled":false,"rental_uris":{"android":"levelo://app?vid=be048866-8445-4922-bc00-7e8b91d393ff","ios":"levelo://app?vid=be048866-8445-4922-bc00-7e8b91d393ff"},"vehicle_type_id":"4","last_reported":1738080624,"current_range_meters":13600,"station_id":"ce4bh4p2rcd13ifvqe0g","pricing_plan_id":"cebpf4jnsgd1na2vs0mg"},{"bike_id":"75214a19-3086-4aab-8ba6-a177978da634","system_id":"levelo_inurba_marseille","lat":43.29899,"lon":5.4368,"is_reserved":false,"is_disabled":false,"rental_uris":{"android":"levelo://app?vid=75214a19-3086-4aab-8ba6-a177978da634","ios":"levelo://app?vid=75214a19-3086-4aab-8ba6-a177978da634"},"vehicle_type_id":"4","last_reported":1738080624,"current_range_meters":36000,"station_id":"ce4bhpp2rcd13ifvqhfg","pricing_plan_id":"cebpf4jnsgd1na2vs0mg"},{"bike_id":"9f47c8a8-8b96-4697-bbe1-21be71e87159","system_id":"levelo_inurba_marseille","lat":43.33722,"lon":5.39182,"is_reserved":false,"is_disabled":false,"rental_uris":{"android":"levelo://app?vid=9f47c8a8-8b96-4697-bbe1-21be71e87159","ios":"levelo://app?vid=9f47c8a8-8b96-4697-bbe1-21be71e87159"},"vehicle_type_id":"4","last_reported":1738080624,"current_range_meters":38800,"station_id":"ce4bhr92rcd13ifvqhsg","pricing_plan_id":"cebpf4jnsgd1na2vs0mg"},{"bike_id":"ddeeb021-3aa5-4692-ac65-d696b9db8d28","system_id":"levelo_inurba_marseille","lat":43.3301,"lon":5.39043,"is_reserved":false,"is_disabled":false,"rental_uris":{"android":"levelo://app?vid=ddeeb021-3aa5-4692-ac65-d696b9db8d28","ios":"levelo://app?vid=ddeeb021-3aa5-4692-ac65-d696b9db8d28"},"vehicle_type_id":"4","last_reported":1738080624,"current_range_meters":38800,"station_id":"ce4bhr92rcd13ifvqhrg","pricing_plan_id":"cebpf4jnsgd1na2vs0mg"},{"bike_id":"af721f4e-7a43-4ca7-b439-ce7407c250b4","system_id":"levelo_inurba_marseille","lat":43.30775,"lon":5.37664,"is_reserved":false,"is_disabled":false,"rental_uris":{"android":"levelo://app?vid=af721f4e-7a43-4ca7-b439-ce7407c250b4","ios":"levelo://app?vid=af721f4e-7a43-4ca7-b439-ce7407c250b4"},"vehicle_type_id":"4","last_reported":1738080624,"current_range_meters":32400,"station_id":"ce4bgv92rcd13ifvqcq0","pricing_plan_id":"cebpf4jnsgd1na2vs0mg"},{"bike_id":"03b14df3-447e-41cb-ae1c-d71249b2f0d2","system_id":"levelo_inurba_marseille","lat":43.29033,"lon":5.38646,"is_reserved":false,"is_disabled":false,"rental_uris":{"android":"levelo://app?vid=03b14df3-447e-41cb-ae1c-d71249b2f0d2","ios":"levelo://app?vid=03b14df3-447e-41cb-ae1c-d71249b2f0d2"},"vehicle_type_id":"4","last_reported":1738080624,"current_range_meters":30400,"station_id":"ce4bh4p2rcd13ifvqe0g","pricing_plan_id":"cebpf4jnsgd1na2vs0mg"},{"bike_id":"b98ebd21-0ed2-45bf-adf2-3a5fd07f9bba","system_id":"levelo_inurba_marseille","lat":43.30616,"lon":5.3664,"is_reserved":false,"is_disabled":false,"rental_uris":{"android":"levelo://app?vid=b98ebd21-0ed2-45bf-adf2-3a5fd07f9bba","ios":"levelo://app?vid=b98ebd21-0ed2-45bf-adf2-3a5fd07f9bba"},"vehicle_type_id":"4","last_reported":1738080624,"current_range_meters":38000,"station_id":"ce4bgs12rcd13ifvqcag","pricing_plan_id":"cebpf4jnsgd1na2vs0mg"},{"bike_id":"62b3bc5a-e332-4adc-bfdb-f1b0cda7dc2a","system_id":"levelo_inurba_marseille","lat":43.29617,"lon":5.37154,"is_reserved":false,"is_disabled":false,"rental_uris":{"android":"levelo://app?vid=62b3bc5a-e332-4adc-bfdb-f1b0cda7dc2a","ios":"levelo://app?vid=62b3bc5a-e332-4adc-bfdb-f1b0cda7dc2a"},"vehicle_type_id":"4","last_reported":1738080624,"current_range_meters":38400,"station_id":"ce4bgnh2rcd13ifvqc0g","pricing_plan_id":"cebpf4jnsgd1na2vs0mg"},{"bike_id":"3c9c9088-9c27-4609-bc62-8218c0dc2be8","system_id":"levelo_inurba_marseille","lat":43.23199,"lon":5.35554,"is_reserved":false,"is_disabled":false,"rental_uris":{"android":"levelo://app?vid=3c9c9088-9c27-4609-bc62-8218c0dc2be8","ios":"levelo://app?vid=3c9c9088-9c27-4609-bc62-8218c0dc2be8"},"vehicle_type_id":"4","last_reported":1738080624,"current_range_meters":32400,"station_id":"ce4bhu92rcd13ifvqi70","pricing_plan_id":"cebpf4jnsgd1na2vs0mg"},{"bike_id":"7b2b703e-05da-49b7-a279-939b79518acc","system_id":"levelo_inurba_marseille","lat":43.25865,"lon":5.39896,"is_reserved":false,"is_disabled":false,"rental_uris":{"android":"levelo://app?vid=7b2b703e-05da-49b7-a279-939b79518acc","ios":"levelo://app?vid=7b2b703e-05da-49b7-a279-939b79518acc"},"vehicle_type_id":"4","last_reported":1738080624,"current_range_meters":32400,"station_id":"ce4bhl92rcd13ifvqghg","pricing_plan_id":"cebpf4jnsgd1na2vs0mg"},{"bike_id":"15af56a0-50cc-4287-938a-57061c15f0c6","system_id":"levelo_inurba_marseille","lat":43.32989,"lon":5.39017,"is_reserved":false,"is_disabled":false,"rental_uris":{"android":"levelo://app?vid=15af56a0-50cc-4287-938a-57061c15f0c6","ios":"levelo://app?vid=15af56a0-50cc-4287-938a-57061c15f0c6"},"vehicle_type_id":"4","last_reported":1738080624,"current_range_meters":35600,"station_id":"ce4bhr92rcd13ifvqhrg","pricing_plan_id":"cebpf4jnsgd1na2vs0mg"},{"bike_id":"9e0e0359-d88d-47b2-b022-328dee299c0c","system_id":"levelo_inurba_marseille","lat":43.32063,"lon":5.41558,"is_reserved":false,"is_disabled":false,"rental_uris":{"android":"levelo://app?vid=9e0e0359-d88d-47b2-b022-328dee299c0c","ios":"levelo://app?vid=9e0e0359-d88d-47b2-b022-328dee299c0c"},"vehicle_type_id":"4","last_reported":1738080624,"current_range_meters":38400,"station_id":"ce4bhq92rcd13ifvqhkg","pricing_plan_id":"cebpf4jnsgd1na2vs0mg"},{"bike_id":"1006b69c-5f0f-4774-a460-b676c3be86dc","system_id":"levelo_inurba_marseille","lat":43.25716,"lon":5.4113,"is_reserved":false,"is_disabled":false,"rental_uris":{"android":"levelo://app?vid=1006b69c-5f0f-4774-a460-b676c3be86dc","ios":"levelo://app?vid=1006b69c-5f0f-4774-a460-b676c3be86dc"},"vehicle_type_id":"4","last_reported":1738080624,"current_range_meters":8800,"station_id":"ce4bhkp2rcd13ifvqgd0","pricing_plan_id":"cebpf4jnsgd1na2vs0mg"},{"bike_id":"b58e9c2c-f4fa-4e4d-a3e6-d964f639b0fc","system_id":"levelo_inurba_marseille","lat":43.3135,"lon":5.36701,"is_reserved":false,"is_disabled":false,"rental_uris":{"android":"levelo://app?vid=b58e9c2c-f4fa-4e4d-a3e6-d964f639b0fc","ios":"levelo://app?vid=b58e9c2c-f4fa-4e4d-a3e6-d964f639b0fc"},"vehicle_type_id":"4","last_reported":1738080624,"current_range_meters":38800,"station_id":"ce4bgr92rcd13ifvqc6g","pricing_plan_id":"cebpf4jnsgd1na2vs0mg"},{"bike_id":"8045e5a5-32d5-4b9b-9f1d-8444be5eb7af","system_id":"levelo_inurba_marseille","lat":43.33729,"lon":5.391905,"is_reserved":false,"is_disabled":false,"rental_uris":{"android":"levelo://app?vid=8045e5a5-32d5-4b9b-9f1d-8444be5eb7af","ios":"levelo://app?vid=8045e5a5-32d5-4b9b-9f1d-8444be5eb7af"},"vehicle_type_id":"4","last_reported":1738080624,"current_range_meters":19600,"station_id":"ce4bhr92rcd13ifvqhsg","pricing_plan_id":"cebpf4jnsgd1na2vs0mg"},{"bike_id":"6da47834-7d2e-4774-9bb3-2602319ea12c","system_id":"levelo_inurba_marseille","lat":43.3301,"lon":5.392881,"is_reserved":false,"is_disabled":true,"rental_uris":{"android":"levelo://app?vid=6da47834-7d2e-4774-9bb3-2602319ea12c","ios":"levelo://app?vid=6da47834-7d2e-4774-9bb3-2602319ea12c"},"vehicle_type_id":"4","last_reported":1738080624,"current_range_meters":0,"station_id":"","pricing_plan_id":"cebpf4jnsgd1na2vs0mg"},{"bike_id":"0928d7c6-291b-465e-a26d-59a12315b1a9","system_id":"levelo_inurba_marseille","lat":43.31319,"lon":5.39703,"is_reserved":false,"is_disabled":false,"rental_uris":{"android":"levelo://app?vid=0928d7c6-291b-465e-a26d-59a12315b1a9","ios":"levelo://app?vid=0928d7c6-291b-465e-a26d-59a12315b1a9"},"vehicle_type_id":"4","last_reported":1738080624,"current_range_meters":29600,"station_id":"ce4bgvp2rcd13ifvqcu0","pricing_plan_id":"cebpf4jnsgd1na2vs0mg"},{"bike_id":"5adc01f0-2664-42db-a1e1-9fb13658f326","system_id":"levelo_inurba_marseille","lat":43.28951,"lon":5.36637,"is_reserved":false,"is_disabled":false,"rental_uris":{"android":"levelo://app?vid=5adc01f0-2664-42db-a1e1-9fb13658f326","ios":"levelo://app?vid=5adc01f0-2664-42db-a1e1-9fb13658f326"},"vehicle_type_id":"4","last_reported":1738080624,"current_range_meters":38800,"station_id":"ce4bhap2rcd13ifvqek0","pricing_plan_id":"cebpf4jnsgd1na2vs0mg"},{"bike_id":"b3f0c39b-7f92-4681-9665-648473977d15","system_id":"levelo_inurba_marseille","lat":43.29183,"lon":5.35825,"is_reserved":false,"is_disabled":false,"rental_uris":{"android":"levelo://app?vid=b3f0c39b-7f92-4681-9665-648473977d15","ios":"levelo://app?vid=b3f0c39b-7f92-4681-9665-648473977d15"},"vehicle_type_id":"4","last_reported":1738080624,"current_range_meters":38000,"station_id":"ce4bhb12rcd13ifvqel0","pricing_plan_id":"cebpf4jnsgd1na2vs0mg"},{"bike_id":"2256710f-428a-4b6c-afaf-f485da875c48","system_id":"levelo_inurba_marseille","lat":43.28622,"lon":5.35091,"is_reserved":false,"is_disabled":false,"rental_uris":{"android":"levelo://app?vid=2256710f-428a-4b6c-afaf-f485da875c48","ios":"levelo://app?vid=2256710f-428a-4b6c-afaf-f485da875c48"},"vehicle_type_id":"4","last_reported":1738080624,"current_range_meters":14800,"station_id":"ce4bhch2rcd13ifvqeug","pricing_plan_id":"cebpf4jnsgd1na2vs0mg"},{"bike_id":"ab2c796a-c23b-4a3a-9534-777b873d6a05","system_id":"levelo_inurba_marseille","lat":43.2417,"lon":5.36396,"is_reserved":false,"is_disabled":false,"rental_uris":{"android":"levelo://app?vid=ab2c796a-c23b-4a3a-9534-777b873d6a05","ios":"levelo://app?vid=ab2c796a-c23b-4a3a-9534-777b873d6a05"},"vehicle_type_id":"4","last_reported":1738080624,"current_range_meters":20000,"station_id":"cpo36qri1sfpv3e86is0","pricing_plan_id":"cebpf4jnsgd1na2vs0mg"},{"bike_id":"68e34f77-241b-4365-bae3-3f86c64c156a","system_id":"levelo_inurba_marseille","lat":43.25813,"lon":5.3943,"is_reserved":false,"is_disabled":false,"rental_uris":{"android":"levelo://app?vid=68e34f77-241b-4365-bae3-3f86c64c156a","ios":"levelo://app?vid=68e34f77-241b-4365-bae3-3f86c64c156a"},"vehicle_type_id":"4","last_reported":1738080624,"current_range_meters":12400,"station_id":"ce4bhip2rcd13ifvqft0","pricing_plan_id":"cebpf4jnsgd1na2vs0mg"},{"bike_id":"529f1ab7-390e-41c3-9180-30692697770e","system_id":"levelo_inurba_marseille","lat":43.2861,"lon":5.35101,"is_reserved":false,"is_disabled":false,"rental_uris":{"android":"levelo://app?vid=529f1ab7-390e-41c3-9180-30692697770e","ios":"levelo://app?vid=529f1ab7-390e-41c3-9180-30692697770e"},"vehicle_type_id":"4","last_reported":1738080624,"current_range_meters":12800,"station_id":"ce4bhch2rcd13ifvqeug","pricing_plan_id":"cebpf4jnsgd1na2vs0mg"},{"bike_id":"82e854ec-49ac-469d-8fbf-4b7ac6ce4ed1","system_id":"levelo_inurba_marseille","lat":43.29796,"lon":5.37103,"is_reserved":false,"is_disabled":false,"rental_uris":{"android":"levelo://app?vid=82e854ec-49ac-469d-8fbf-4b7ac6ce4ed1","ios":"levelo://app?vid=82e854ec-49ac-469d-8fbf-4b7ac6ce4ed1"},"vehicle_type_id":"4","last_reported":1738080624,"current_range_meters":27600,"station_id":"ce4bgop2rcd13ifvqc1g","pricing_plan_id":"cebpf4jnsgd1na2vs0mg"},{"bike_id":"42179c87-52d7-4595-9a07-c8f323c173d1","system_id":"levelo_inurba_marseille","lat":43.25719,"lon":5.41112,"is_reserved":false,"is_disabled":false,"rental_uris":{"android":"levelo://app?vid=42179c87-52d7-4595-9a07-c8f323c173d1","ios":"levelo://app?vid=42179c87-52d7-4595-9a07-c8f323c173d1"},"vehicle_type_id":"4","last_reported":1738080624,"current_range_meters":10800,"station_id":"ce4bhkp2rcd13ifvqgd0","pricing_plan_id":"cebpf4jnsgd1na2vs0mg"},{"bike_id":"afbfef3e-40af-4a33-9753-3dec06720839","system_id":"levelo_inurba_marseille","lat":43.28145,"lon":5.42647,"is_reserved":false,"is_disabled":false,"rental_uris":{"android":"levelo://app?vid=afbfef3e-40af-4a33-9753-3dec06720839","ios":"levelo://app?vid=afbfef3e-40af-4a33-9753-3dec06720839"},"vehicle_type_id":"4","last_reported":1738080624,"current_range_meters":28400,"station_id":"ce4bhnh2rcd13ifvqgug","pricing_plan_id":"cebpf4jnsgd1na2vs0mg"},{"bike_id":"4807c682-c371-46b3-ab79-b24aee656edf","system_id":"levelo_inurba_marseille","lat":43.30642,"lon":5.40103,"is_reserved":false,"is_disabled":false,"rental_uris":{"android":"levelo://app?vid=4807c682-c371-46b3-ab79-b24aee656edf","ios":"levelo://app?vid=4807c682-c371-46b3-ab79-b24aee656edf"},"vehicle_type_id":"4","last_reported":1738080624,"current_range_meters":32000,"station_id":"ce4bh112rcd13ifvqda0","pricing_plan_id":"cebpf4jnsgd1na2vs0mg"},{"bike_id":"6b544164-ad64-4907-9140-df7ab85fac74","system_id":"levelo_inurba_marseille","lat":43.32362,"lon":5.36765,"is_reserved":false,"is_disabled":false,"rental_uris":{"android":"levelo://app?vid=6b544164-ad64-4907-9140-df7ab85fac74","ios":"levelo://app?vid=6b544164-ad64-4907-9140-df7ab85fac74"},"vehicle_type_id":"4","last_reported":1738080624,"current_range_meters":24400,"station_id":"ce4bhsh2rcd13ifvqi2g","pricing_plan_id":"cebpf4jnsgd1na2vs0mg"},{"bike_id":"baed0dc5-42d3-41cc-bce7-fb215a9d1bcb","system_id":"levelo_inurba_marseille","lat":43.298,"lon":5.40412,"is_reserved":false,"is_disabled":false,"rental_uris":{"android":"levelo://app?vid=baed0dc5-42d3-41cc-bce7-fb215a9d1bcb","ios":"levelo://app?vid=baed0dc5-42d3-41cc-bce7-fb215a9d1bcb"},"vehicle_type_id":"4","last_reported":1738080624,"current_range_meters":28400,"station_id":"ce4bh112rcd13ifvqd90","pricing_plan_id":"cebpf4jnsgd1na2vs0mg"},{"bike_id":"4f090322-e83d-4f2c-8b06-12942c5b65da","system_id":"levelo_inurba_marseille","lat":43.2951,"lon":5.39417,"is_reserved":false,"is_disabled":false,"rental_uris":{"android":"levelo://app?vid=4f090322-e83d-4f2c-8b06-12942c5b65da","ios":"levelo://app?vid=4f090322-e83d-4f2c-8b06-12942c5b65da"},"vehicle_type_id":"4","last_reported":1738080624,"current_range_meters":36800,"station_id":"ce4bh292rcd13ifvqdf0","pricing_plan_id":"cebpf4jnsgd1na2vs0mg"},{"bike_id":"3afe2907-14fe-40b0-8ce8-247215ed16c8","system_id":"levelo_inurba_marseille","lat":43.26992,"lon":5.38877,"is_reserved":false,"is_disabled":true,"rental_uris":{"android":"levelo://app?vid=3afe2907-14fe-40b0-8ce8-247215ed16c8","ios":"levelo://app?vid=3afe2907-14fe-40b0-8ce8-247215ed16c8"},"vehicle_type_id":"4","last_reported":1738080624,"current_range_meters":8400,"station_id":"","pricing_plan_id":"cebpf4jnsgd1na2vs0mg"},{"bike_id":"e8e1f7c6-d773-4c38-bfcc-4a6d773355ce","system_id":"levelo_inurba_marseille","lat":43.22933,"lon":5.35378,"is_reserved":false,"is_disabled":false,"rental_uris":{"android":"levelo://app?vid=e8e1f7c6-d773-4c38-bfcc-4a6d773355ce","ios":"levelo://app?vid=e8e1f7c6-d773-4c38-bfcc-4a6d773355ce"},"vehicle_type_id":"4","last_reported":1738080624,"current_range_meters":32400,"station_id":"cpo3532slgdg3j2ikp40","pricing_plan_id":"cebpf4jnsgd1na2vs0mg"},{"bike_id":"a01196f7-bf19-45ed-8b12-401185d8ab0c","system_id":"levelo_inurba_marseille","lat":43.29266,"lon":5.3685,"is_reserved":false,"is_disabled":false,"rental_uris":{"android":"levelo://app?vid=a01196f7-bf19-45ed-8b12-401185d8ab0c","ios":"levelo://app?vid=a01196f7-bf19-45ed-8b12-401185d8ab0c"},"vehicle_type_id":"4","last_reported":1738080624,"current_range_meters":36800,"station_id":"ce4bhbp2rcd13ifvqesg","pricing_plan_id":"cebpf4jnsgd1na2vs0mg"},{"bike_id":"ce083113-46ef-48fe-b4fa-8944c608e412","system_id":"levelo_inurba_marseille","lat":43.28075,"lon":5.39664,"is_reserved":false,"is_disabled":false,"rental_uris":{"android":"levelo://app?vid=ce083113-46ef-48fe-b4fa-8944c608e412","ios":"levelo://app?vid=ce083113-46ef-48fe-b4fa-8944c608e412"},"vehicle_type_id":"4","last_reported":1738080624,"current_range_meters":14000,"station_id":"ce4bho12rcd13ifvqh2g","pricing_plan_id":"cebpf4jnsgd1na2vs0mg"},{"bike_id":"e16bcf47-fcd7-4bd9-a4d9-3d929e20bb54","system_id":"levelo_inurba_marseille","lat":43.31696,"lon":5.3776,"is_reserved":false,"is_disabled":false,"rental_uris":{"android":"levelo://app?vid=e16bcf47-fcd7-4bd9-a4d9-3d929e20bb54","ios":"levelo://app?vid=e16bcf47-fcd7-4bd9-a4d9-3d929e20bb54"},"vehicle_type_id":"4","last_reported":1738080624,"current_range_meters":38800,"station_id":"ce4bgth2rcd13ifvqch0","pricing_plan_id":"cebpf4jnsgd1na2vs0mg"},{"bike_id":"cc26c524-9981-41d6-9e25-17cb40d9e550","system_id":"levelo_inurba_marseille","lat":43.24817,"lon":5.37455,"is_reserved":false,"is_disabled":false,"rental_uris":{"android":"levelo://app?vid=cc26c524-9981-41d6-9e25-17cb40d9e550","ios":"levelo://app?vid=cc26c524-9981-41d6-9e25-17cb40d9e550"},"vehicle_type_id":"4","last_reported":1738080624,"current_range_meters":26800,"station_id":"ce4bhgh2rcd13ifvqfb0","pricing_plan_id":"cebpf4jnsgd1na2vs0mg"},{"bike_id":"abd7b629-1ee8-48a5-9306-c3be72beb0ed","system_id":"levelo_inurba_marseille","lat":43.29529,"lon":5.3906,"is_reserved":false,"is_disabled":false,"rental_uris":{"android":"levelo://app?vid=abd7b629-1ee8-48a5-9306-c3be72beb0ed","ios":"levelo://app?vid=abd7b629-1ee8-48a5-9306-c3be72beb0ed"},"vehicle_type_id":"4","last_reported":1738080624,"current_range_meters":22800,"station_id":"ce4bh3p2rcd13ifvqdp0","pricing_plan_id":"cebpf4jnsgd1na2vs0mg"},{"bike_id":"979afcab-47cc-4ca6-85fa-98c2a022da48","system_id":"levelo_inurba_marseille","lat":43.3109,"lon":5.38348,"is_reserved":false,"is_disabled":false,"rental_uris":{"android":"levelo://app?vid=979afcab-47cc-4ca6-85fa-98c2a022da48","ios":"levelo://app?vid=979afcab-47cc-4ca6-85fa-98c2a022da48"},"vehicle_type_id":"4","last_reported":1738080624,"current_range_meters":20000,"station_id":"ce4bgv92rcd13ifvqcr0","pricing_plan_id":"cebpf4jnsgd1na2vs0mg"},{"bike_id":"dd195832-ff3f-4763-a260-74003ef7ff4c","system_id":"levelo_inurba_marseille","lat":43.29225,"lon":5.3605,"is_reserved":false,"is_disabled":true,"rental_uris":{"android":"levelo://app?vid=dd195832-ff3f-4763-a260-74003ef7ff4c","ios":"levelo://app?vid=dd195832-ff3f-4763-a260-74003ef7ff4c"},"vehicle_type_id":"4","last_reported":1738080624,"current_range_meters":37600,"station_id":"ce4bhbh2rcd13ifvqeqg","pricing_plan_id":"cebpf4jnsgd1na2vs0mg"},{"bike_id":"504dea5b-3c2a-489e-8275-d8db04b04cbd","system_id":"levelo_inurba_marseille","lat":43.28725,"lon":5.38398,"is_reserved":false,"is_disabled":false,"rental_uris":{"android":"levelo://app?vid=504dea5b-3c2a-489e-8275-d8db04b04cbd","ios":"levelo://app?vid=504dea5b-3c2a-489e-8275-d8db04b04cbd"},"vehicle_type_id":"4","last_reported":1738080624,"current_range_meters":37600,"station_id":"","pricing_plan_id":"cebpf4jnsgd1na2vs0mg"},{"bike_id":"09e4f03a-f14b-4684-b9e9-a0f65d700fea","system_id":"levelo_inurba_marseille","lat":43.28355,"lon":5.381,"is_reserved":false,"is_disabled":false,"rental_uris":{"android":"levelo://app?vid=09e4f03a-f14b-4684-b9e9-a0f65d700fea","ios":"levelo://app?vid=09e4f03a-f14b-4684-b9e9-a0f65d700fea"},"vehicle_type_id":"4","last_reported":1738080624,"current_range_meters":34000,"station_id":"ce4bh412rcd13ifvqdr0","pricing_plan_id":"cebpf4jnsgd1na2vs0mg"},{"bike_id":"3397293d-065b-495f-a994-abeeb6ac01b9","system_id":"levelo_inurba_marseille","lat":43.246607,"lon":5.381723,"is_reserved":false,"is_disabled":false,"rental_uris":{"android":"levelo://app?vid=3397293d-065b-495f-a994-abeeb6ac01b9","ios":"levelo://app?vid=3397293d-065b-495f-a994-abeeb6ac01b9"},"vehicle_type_id":"4","last_reported":1738080624,"current_range_meters":11600,"station_id":"ce4bhih2rcd13ifvqfr0","pricing_plan_id":"cebpf4jnsgd1na2vs0mg"},{"bike_id":"71f34f72-d3b7-46a5-9bd4-1fe057b3152f","system_id":"levelo_inurba_marseille","lat":43.22933,"lon":5.35379,"is_reserved":false,"is_disabled":false,"rental_uris":{"android":"levelo://app?vid=71f34f72-d3b7-46a5-9bd4-1fe057b3152f","ios":"levelo://app?vid=71f34f72-d3b7-46a5-9bd4-1fe057b3152f"},"vehicle_type_id":"4","last_reported":1738080624,"current_range_meters":30800,"station_id":"cpo3532slgdg3j2ikp40","pricing_plan_id":"cebpf4jnsgd1na2vs0mg"},{"bike_id":"cd48da39-a655-4dcb-97c2-bcb8d3d8c55b","system_id":"levelo_inurba_marseille","lat":43.23142,"lon":5.43718,"is_reserved":false,"is_disabled":true,"rental_uris":{"android":"levelo://app?vid=cd48da39-a655-4dcb-97c2-bcb8d3d8c55b","ios":"levelo://app?vid=cd48da39-a655-4dcb-97c2-bcb8d3d8c55b"},"vehicle_type_id":"4","last_reported":1738080624,"current_range_meters":0,"station_id":"ce4bhmp2rcd13ifvqgog","pricing_plan_id":"cebpf4jnsgd1na2vs0mg"},{"bike_id":"380db4f1-f717-47f9-90c2-eaffe33861d5","system_id":"levelo_inurba_marseille","lat":43.31211,"lon":5.36835,"is_reserved":false,"is_disabled":false,"rental_uris":{"android":"levelo://app?vid=380db4f1-f717-47f9-90c2-eaffe33861d5","ios":"levelo://app?vid=380db4f1-f717-47f9-90c2-eaffe33861d5"},"vehicle_type_id":"4","last_reported":1738080624,"current_range_meters":38800,"station_id":"ce4bgl92rcd13ifvqbq0","pricing_plan_id":"cebpf4jnsgd1na2vs0mg"},{"bike_id":"99298a83-a193-455b-a171-4b47b0817b02","system_id":"levelo_inurba_marseille","lat":43.29805,"lon":5.38111,"is_reserved":false,"is_disabled":true,"rental_uris":{"android":"levelo://app?vid=99298a83-a193-455b-a171-4b47b0817b02","ios":"levelo://app?vid=99298a83-a193-455b-a171-4b47b0817b02"},"vehicle_type_id":"4","last_reported":1738080624,"current_range_meters":0,"station_id":"ce4bgip2rcd13ifvqbb0","pricing_plan_id":"cebpf4jnsgd1na2vs0mg"},{"bike_id":"4a310ab6-a6cb-44ee-a86e-40b74f0142b1","system_id":"levelo_inurba_marseille","lat":43.287041,"lon":5.399923,"is_reserved":false,"is_disabled":true,"rental_uris":{"android":"levelo://app?vid=4a310ab6-a6cb-44ee-a86e-40b74f0142b1","ios":"levelo://app?vid=4a310ab6-a6cb-44ee-a86e-40b74f0142b1"},"vehicle_type_id":"4","last_reported":1738080624,"current_range_meters":1200,"station_id":"ce4bho92rcd13ifvqh3g","pricing_plan_id":"cebpf4jnsgd1na2vs0mg"},{"bike_id":"01c346e4-7211-4b0a-9252-8b8a59a9b82f","system_id":"levelo_inurba_marseille","lat":43.28848,"lon":5.35837,"is_reserved":false,"is_disabled":true,"rental_uris":{"android":"levelo://app?vid=01c346e4-7211-4b0a-9252-8b8a59a9b82f","ios":"levelo://app?vid=01c346e4-7211-4b0a-9252-8b8a59a9b82f"},"vehicle_type_id":"4","last_reported":1738080624,"current_range_meters":38000,"station_id":"ce4bhb12rcd13ifvqem0","pricing_plan_id":"cebpf4jnsgd1na2vs0mg"},{"bike_id":"822d0c81-aadf-42c0-a949-a73417b2af62","system_id":"levelo_inurba_marseille","lat":43.32486,"lon":5.36576,"is_reserved":false,"is_disabled":false,"rental_uris":{"android":"levelo://app?vid=822d0c81-aadf-42c0-a949-a73417b2af62","ios":"levelo://app?vid=822d0c81-aadf-42c0-a949-a73417b2af62"},"vehicle_type_id":"4","last_reported":1738080624,"current_range_meters":8400,"station_id":"ce4bhs12rcd13ifvqhvg","pricing_plan_id":"cebpf4jnsgd1na2vs0mg"},{"bike_id":"1deb9f83-7def-49a4-a7ec-4fa7f01e7960","system_id":"levelo_inurba_marseille","lat":43.31325,"lon":5.39718,"is_reserved":false,"is_disabled":false,"rental_uris":{"android":"levelo://app?vid=1deb9f83-7def-49a4-a7ec-4fa7f01e7960","ios":"levelo://app?vid=1deb9f83-7def-49a4-a7ec-4fa7f01e7960"},"vehicle_type_id":"4","last_reported":1738080624,"current_range_meters":28000,"station_id":"ce4bgvp2rcd13ifvqcu0","pricing_plan_id":"cebpf4jnsgd1na2vs0mg"},{"bike_id":"3fb74e29-7f1d-4c67-8af5-0bb8332df870","system_id":"levelo_inurba_marseille","lat":43.24393,"lon":5.37046,"is_reserved":false,"is_disabled":false,"rental_uris":{"android":"levelo://app?vid=3fb74e29-7f1d-4c67-8af5-0bb8332df870","ios":"levelo://app?vid=3fb74e29-7f1d-4c67-8af5-0bb8332df870"},"vehicle_type_id":"4","last_reported":1738080624,"current_range_meters":25600,"station_id":"ce4bhhh2rcd13ifvqfk0","pricing_plan_id":"cebpf4jnsgd1na2vs0mg"},{"bike_id":"611fad2e-6d45-44eb-a5e7-b3ab022b1b90","system_id":"levelo_inurba_marseille","lat":43.30549,"lon":5.36531,"is_reserved":false,"is_disabled":false,"rental_uris":{"android":"levelo://app?vid=611fad2e-6d45-44eb-a5e7-b3ab022b1b90","ios":"levelo://app?vid=611fad2e-6d45-44eb-a5e7-b3ab022b1b90"},"vehicle_type_id":"4","last_reported":1738080624,"current_range_meters":38800,"station_id":"ce4bgs12rcd13ifvqcag","pricing_plan_id":"cebpf4jnsgd1na2vs0mg"},{"bike_id":"a1f25abd-5197-4524-ac53-ad8743bef105","system_id":"levelo_inurba_marseille","lat":43.29892,"lon":5.43658,"is_reserved":false,"is_disabled":true,"rental_uris":{"android":"levelo://app?vid=a1f25abd-5197-4524-ac53-ad8743bef105","ios":"levelo://app?vid=a1f25abd-5197-4524-ac53-ad8743bef105"},"vehicle_type_id":"4","last_reported":1738080624,"current_range_meters":37600,"station_id":"ce4bhpp2rcd13ifvqhfg","pricing_plan_id":"cebpf4jnsgd1na2vs0mg"},{"bike_id":"fffee2fa-192e-4478-a71c-0d71eadd73ad","system_id":"levelo_inurba_marseille","lat":43.31082,"lon":5.42432,"is_reserved":false,"is_disabled":false,"rental_uris":{"android":"levelo://app?vid=fffee2fa-192e-4478-a71c-0d71eadd73ad","ios":"levelo://app?vid=fffee2fa-192e-4478-a71c-0d71eadd73ad"},"vehicle_type_id":"4","last_reported":1738080624,"current_range_meters":10000,"station_id":"ce4bhp92rcd13ifvqhag","pricing_plan_id":"cebpf4jnsgd1na2vs0mg"},{"bike_id":"d4c4823e-dc30-4194-9ee5-9575cfd62441","system_id":"levelo_inurba_marseille","lat":43.27808,"lon":5.40719,"is_reserved":false,"is_disabled":false,"rental_uris":{"android":"levelo://app?vid=d4c4823e-dc30-4194-9ee5-9575cfd62441","ios":"levelo://app?vid=d4c4823e-dc30-4194-9ee5-9575cfd62441"},"vehicle_type_id":"4","last_reported":1738080624,"current_range_meters":20800,"station_id":"ce4bhnh2rcd13ifvqgtg","pricing_plan_id":"cebpf4jnsgd1na2vs0mg"},{"bike_id":"98b5d980-9023-4bea-a577-897937daf1e8","system_id":"levelo_inurba_marseille","lat":43.27899,"lon":5.38025,"is_reserved":false,"is_disabled":false,"rental_uris":{"android":"levelo://app?vid=98b5d980-9023-4bea-a577-897937daf1e8","ios":"levelo://app?vid=98b5d980-9023-4bea-a577-897937daf1e8"},"vehicle_type_id":"4","last_reported":1738080624,"current_range_meters":30000,"station_id":"ce4bhf92rcd13ifvqf50","pricing_plan_id":"cebpf4jnsgd1na2vs0mg"},{"bike_id":"ff68af14-5554-4f8d-a3de-4549d987f602","system_id":"levelo_inurba_marseille","lat":43.29892,"lon":5.43669,"is_reserved":false,"is_disabled":false,"rental_uris":{"android":"levelo://app?vid=ff68af14-5554-4f8d-a3de-4549d987f602","ios":"levelo://app?vid=ff68af14-5554-4f8d-a3de-4549d987f602"},"vehicle_type_id":"4","last_reported":1738080624,"current_range_meters":36000,"station_id":"ce4bhpp2rcd13ifvqhfg","pricing_plan_id":"cebpf4jnsgd1na2vs0mg"},{"bike_id":"296acca2-a355-4830-bc97-a6939a85f573","system_id":"levelo_inurba_marseille","lat":43.25555,"lon":5.38232,"is_reserved":false,"is_disabled":false,"rental_uris":{"android":"levelo://app?vid=296acca2-a355-4830-bc97-a6939a85f573","ios":"levelo://app?vid=296acca2-a355-4830-bc97-a6939a85f573"},"vehicle_type_id":"4","last_reported":1738080624,"current_range_meters":27600,"station_id":"ce4bhih2rcd13ifvqfs0","pricing_plan_id":"cebpf4jnsgd1na2vs0mg"},{"bike_id":"59b30219-10f1-4c23-bb8c-b1a42621c49a","system_id":"levelo_inurba_marseille","lat":43.30253,"lon":5.40083,"is_reserved":false,"is_disabled":false,"rental_uris":{"android":"levelo://app?vid=59b30219-10f1-4c23-bb8c-b1a42621c49a","ios":"levelo://app?vid=59b30219-10f1-4c23-bb8c-b1a42621c49a"},"vehicle_type_id":"4","last_reported":1738080624,"current_range_meters":22800,"station_id":"ce4bgvh2rcd13ifvqcs0","pricing_plan_id":"cebpf4jnsgd1na2vs0mg"},{"bike_id":"17a26eb6-f3bb-490a-884c-51546c39762c","system_id":"levelo_inurba_marseille","lat":43.27999,"lon":5.41655,"is_reserved":false,"is_disabled":false,"rental_uris":{"android":"levelo://app?vid=17a26eb6-f3bb-490a-884c-51546c39762c","ios":"levelo://app?vid=17a26eb6-f3bb-490a-884c-51546c39762c"},"vehicle_type_id":"4","last_reported":1738080624,"current_range_meters":39200,"station_id":"ce4bho12rcd13ifvqh1g","pricing_plan_id":"cebpf4jnsgd1na2vs0mg"},{"bike_id":"9aba2675-eede-4366-8c5e-c9a41436c0d3","system_id":"levelo_inurba_marseille","lat":43.2293,"lon":5.35376,"is_reserved":false,"is_disabled":false,"rental_uris":{"android":"levelo://app?vid=9aba2675-eede-4366-8c5e-c9a41436c0d3","ios":"levelo://app?vid=9aba2675-eede-4366-8c5e-c9a41436c0d3"},"vehicle_type_id":"4","last_reported":1738080624,"current_range_meters":25200,"station_id":"cpo3532slgdg3j2ikp40","pricing_plan_id":"cebpf4jnsgd1na2vs0mg"},{"bike_id":"3c5cbf2e-5914-44e5-adf1-7229185be9cb","system_id":"levelo_inurba_marseille","lat":43.32476,"lon":5.36576,"is_reserved":false,"is_disabled":false,"rental_uris":{"android":"levelo://app?vid=3c5cbf2e-5914-44e5-adf1-7229185be9cb","ios":"levelo://app?vid=3c5cbf2e-5914-44e5-adf1-7229185be9cb"},"vehicle_type_id":"4","last_reported":1738080624,"current_range_meters":12000,"station_id":"ce4bhs12rcd13ifvqhvg","pricing_plan_id":"cebpf4jnsgd1na2vs0mg"},{"bike_id":"b1d260c0-acdb-4241-b1fa-29a58e464bb9","system_id":"levelo_inurba_marseille","lat":43.24393,"lon":5.37019,"is_reserved":false,"is_disabled":false,"rental_uris":{"android":"levelo://app?vid=b1d260c0-acdb-4241-b1fa-29a58e464bb9","ios":"levelo://app?vid=b1d260c0-acdb-4241-b1fa-29a58e464bb9"},"vehicle_type_id":"4","last_reported":1738080624,"current_range_meters":37600,"station_id":"ce4bhhh2rcd13ifvqfk0","pricing_plan_id":"cebpf4jnsgd1na2vs0mg"},{"bike_id":"b02537d3-b5df-4f3e-a29c-3943d1a0a885","system_id":"levelo_inurba_marseille","lat":43.27816,"lon":5.40698,"is_reserved":false,"is_disabled":false,"rental_uris":{"android":"levelo://app?vid=b02537d3-b5df-4f3e-a29c-3943d1a0a885","ios":"levelo://app?vid=b02537d3-b5df-4f3e-a29c-3943d1a0a885"},"vehicle_type_id":"4","last_reported":1738080624,"current_range_meters":32000,"station_id":"ce4bhnh2rcd13ifvqgtg","pricing_plan_id":"cebpf4jnsgd1na2vs0mg"},{"bike_id":"6abfa5ba-b621-4c88-9f9e-4e38e8225d45","system_id":"levelo_inurba_marseille","lat":43.29614,"lon":5.37731,"is_reserved":false,"is_disabled":false,"rental_uris":{"android":"levelo://app?vid=6abfa5ba-b621-4c88-9f9e-4e38e8225d45","ios":"levelo://app?vid=6abfa5ba-b621-4c88-9f9e-4e38e8225d45"},"vehicle_type_id":"4","last_reported":1738080624,"current_range_meters":32800,"station_id":"ce4bgi92rcd13ifvqb90","pricing_plan_id":"cebpf4jnsgd1na2vs0mg"},{"bike_id":"a06f6d36-0ad8-4d9d-aa1c-2264b02038dd","system_id":"levelo_inurba_marseille","lat":43.2706,"lon":5.40259,"is_reserved":false,"is_disabled":false,"rental_uris":{"android":"levelo://app?vid=a06f6d36-0ad8-4d9d-aa1c-2264b02038dd","ios":"levelo://app?vid=a06f6d36-0ad8-4d9d-aa1c-2264b02038dd"},"vehicle_type_id":"4","last_reported":1738080624,"current_range_meters":9600,"station_id":"ce4bhk92rcd13ifvqgc0","pricing_plan_id":"cebpf4jnsgd1na2vs0mg"},{"bike_id":"e3c5a10e-948d-477c-91ce-8c835a7fe362","system_id":"levelo_inurba_marseille","lat":43.28099,"lon":5.39665,"is_reserved":false,"is_disabled":true,"rental_uris":{"android":"levelo://app?vid=e3c5a10e-948d-477c-91ce-8c835a7fe362","ios":"levelo://app?vid=e3c5a10e-948d-477c-91ce-8c835a7fe362"},"vehicle_type_id":"4","last_reported":1738080624,"current_range_meters":0,"station_id":"ce4bho12rcd13ifvqh2g","pricing_plan_id":"cebpf4jnsgd1na2vs0mg"},{"bike_id":"074b03f3-53f3-4453-b1d1-87e01062d6be","system_id":"levelo_inurba_marseille","lat":43.29108,"lon":5.38138,"is_reserved":false,"is_disabled":false,"rental_uris":{"android":"levelo://app?vid=074b03f3-53f3-4453-b1d1-87e01062d6be","ios":"levelo://app?vid=074b03f3-53f3-4453-b1d1-87e01062d6be"},"vehicle_type_id":"4","last_reported":1738080624,"current_range_meters":28800,"station_id":"ce4bh512rcd13ifvqe2g","pricing_plan_id":"cebpf4jnsgd1na2vs0mg"},{"bike_id":"9f018113-1138-458d-9938-2357ae09399b","system_id":"levelo_inurba_marseille","lat":43.28612,"lon":5.35101,"is_reserved":false,"is_disabled":false,"rental_uris":{"android":"levelo://app?vid=9f018113-1138-458d-9938-2357ae09399b","ios":"levelo://app?vid=9f018113-1138-458d-9938-2357ae09399b"},"vehicle_type_id":"4","last_reported":1738080624,"current_range_meters":38400,"station_id":"ce4bhch2rcd13ifvqeug","pricing_plan_id":"cebpf4jnsgd1na2vs0mg"},{"bike_id":"a7681d1b-3f86-484c-bd90-707685aa6172","system_id":"levelo_inurba_marseille","lat":43.2979,"lon":5.38102,"is_reserved":false,"is_disabled":false,"rental_uris":{"android":"levelo://app?vid=a7681d1b-3f86-484c-bd90-707685aa6172","ios":"levelo://app?vid=a7681d1b-3f86-484c-bd90-707685aa6172"},"vehicle_type_id":"4","last_reported":1738080624,"current_range_meters":37600,"station_id":"ce4bgip2rcd13ifvqbb0","pricing_plan_id":"cebpf4jnsgd1na2vs0mg"},{"bike_id":"f846d495-effa-4e8f-ae39-f2d7b1fc0ba3","system_id":"levelo_inurba_marseille","lat":43.26805,"lon":5.40252,"is_reserved":false,"is_disabled":false,"rental_uris":{"android":"levelo://app?vid=f846d495-effa-4e8f-ae39-f2d7b1fc0ba3","ios":"levelo://app?vid=f846d495-effa-4e8f-ae39-f2d7b1fc0ba3"},"vehicle_type_id":"4","last_reported":1738080624,"current_range_meters":38800,"station_id":"ce501612rcd8frsf0b60","pricing_plan_id":"cebpf4jnsgd1na2vs0mg"},{"bike_id":"78bc61bf-426e-4c8b-af21-b3b451435e49","system_id":"levelo_inurba_marseille","lat":43.29193,"lon":5.35791,"is_reserved":false,"is_disabled":false,"rental_uris":{"android":"levelo://app?vid=78bc61bf-426e-4c8b-af21-b3b451435e49","ios":"levelo://app?vid=78bc61bf-426e-4c8b-af21-b3b451435e49"},"vehicle_type_id":"4","last_reported":1738080624,"current_range_meters":17600,"station_id":"ce4bhb12rcd13ifvqel0","pricing_plan_id":"cebpf4jnsgd1na2vs0mg"},{"bike_id":"b7073f96-d16f-405f-8de7-80aaf9a2139a","system_id":"levelo_inurba_marseille","lat":43.28283,"lon":5.35083,"is_reserved":false,"is_disabled":false,"rental_uris":{"android":"levelo://app?vid=b7073f96-d16f-405f-8de7-80aaf9a2139a","ios":"levelo://app?vid=b7073f96-d16f-405f-8de7-80aaf9a2139a"},"vehicle_type_id":"4","last_reported":1738080624,"current_range_meters":9200,"station_id":"ce4bhbp2rcd13ifvqerg","pricing_plan_id":"cebpf4jnsgd1na2vs0mg"},{"bike_id":"a39421c6-9484-490e-8cc5-862b183dca07","system_id":"levelo_inurba_marseille","lat":43.32472,"lon":5.36568,"is_reserved":false,"is_disabled":false,"rental_uris":{"android":"levelo://app?vid=a39421c6-9484-490e-8cc5-862b183dca07","ios":"levelo://app?vid=a39421c6-9484-490e-8cc5-862b183dca07"},"vehicle_type_id":"4","last_reported":1738080624,"current_range_meters":34800,"station_id":"ce4bhs12rcd13ifvqhvg","pricing_plan_id":"cebpf4jnsgd1na2vs0mg"},{"bike_id":"607b294c-43fa-486a-b244-44c4a76eff71","system_id":"levelo_inurba_marseille","lat":43.29882,"lon":5.38911,"is_reserved":false,"is_disabled":false,"rental_uris":{"android":"levelo://app?vid=607b294c-43fa-486a-b244-44c4a76eff71","ios":"levelo://app?vid=607b294c-43fa-486a-b244-44c4a76eff71"},"vehicle_type_id":"4","last_reported":1738080624,"current_range_meters":37600,"station_id":"ce4bh392rcd13ifvqdl0","pricing_plan_id":"cebpf4jnsgd1na2vs0mg"},{"bike_id":"599f7c6f-97e9-4903-9bdd-508f24c2e000","system_id":"levelo_inurba_marseille","lat":43.29027,"lon":5.38133,"is_reserved":false,"is_disabled":false,"rental_uris":{"android":"levelo://app?vid=599f7c6f-97e9-4903-9bdd-508f24c2e000","ios":"levelo://app?vid=599f7c6f-97e9-4903-9bdd-508f24c2e000"},"vehicle_type_id":"4","last_reported":1738080624,"current_range_meters":38800,"station_id":"ce4bh4p2rcd13ifvqe1g","pricing_plan_id":"cebpf4jnsgd1na2vs0mg"},{"bike_id":"f9173de2-2fa5-436f-a76b-3c96bd571284","system_id":"levelo_inurba_marseille","lat":43.29808,"lon":5.40426,"is_reserved":false,"is_disabled":true,"rental_uris":{"android":"levelo://app?vid=f9173de2-2fa5-436f-a76b-3c96bd571284","ios":"levelo://app?vid=f9173de2-2fa5-436f-a76b-3c96bd571284"},"vehicle_type_id":"4","last_reported":1738080624,"current_range_meters":36400,"station_id":"ce4bh112rcd13ifvqd90","pricing_plan_id":"cebpf4jnsgd1na2vs0mg"},{"bike_id":"efd80fd0-328b-4dc4-bd09-ca853fed1175","system_id":"levelo_inurba_marseille","lat":43.31083,"lon":5.4243,"is_reserved":false,"is_disabled":false,"rental_uris":{"android":"levelo://app?vid=efd80fd0-328b-4dc4-bd09-ca853fed1175","ios":"levelo://app?vid=efd80fd0-328b-4dc4-bd09-ca853fed1175"},"vehicle_type_id":"4","last_reported":1738080624,"current_range_meters":38800,"station_id":"ce4bhp92rcd13ifvqhag","pricing_plan_id":"cebpf4jnsgd1na2vs0mg"},{"bike_id":"1932502a-a386-4bd4-8041-b68d3b661876","system_id":"levelo_inurba_marseille","lat":43.23205,"lon":5.35562,"is_reserved":false,"is_disabled":false,"rental_uris":{"android":"levelo://app?vid=1932502a-a386-4bd4-8041-b68d3b661876","ios":"levelo://app?vid=1932502a-a386-4bd4-8041-b68d3b661876"},"vehicle_type_id":"4","last_reported":1738080624,"current_range_meters":24800,"station_id":"ce4bhu92rcd13ifvqi70","pricing_plan_id":"cebpf4jnsgd1na2vs0mg"},{"bike_id":"18018373-d1cd-48a9-b8b4-4eb37521854d","system_id":"levelo_inurba_marseille","lat":43.29928,"lon":5.43657,"is_reserved":false,"is_disabled":false,"rental_uris":{"android":"levelo://app?vid=18018373-d1cd-48a9-b8b4-4eb37521854d","ios":"levelo://app?vid=18018373-d1cd-48a9-b8b4-4eb37521854d"},"vehicle_type_id":"4","last_reported":1738080624,"current_range_meters":22000,"station_id":"ce4bhpp2rcd13ifvqhfg","pricing_plan_id":"cebpf4jnsgd1na2vs0mg"},{"bike_id":"c71d9a58-79c2-4121-bc4b-958cbabc75f1","system_id":"levelo_inurba_marseille","lat":43.29203,"lon":5.40052,"is_reserved":false,"is_disabled":false,"rental_uris":{"android":"levelo://app?vid=c71d9a58-79c2-4121-bc4b-958cbabc75f1","ios":"levelo://app?vid=c71d9a58-79c2-4121-bc4b-958cbabc75f1"},"vehicle_type_id":"4","last_reported":1738080624,"current_range_meters":6400,"station_id":"ce4bh312rcd13ifvqdk0","pricing_plan_id":"cebpf4jnsgd1na2vs0mg"},{"bike_id":"ab1185a4-330a-4e4e-83e9-bab6f1acbe6b","system_id":"levelo_inurba_marseille","lat":43.24387,"lon":5.37055,"is_reserved":false,"is_disabled":false,"rental_uris":{"android":"levelo://app?vid=ab1185a4-330a-4e4e-83e9-bab6f1acbe6b","ios":"levelo://app?vid=ab1185a4-330a-4e4e-83e9-bab6f1acbe6b"},"vehicle_type_id":"4","last_reported":1738080624,"current_range_meters":17200,"station_id":"ce4bhhh2rcd13ifvqfk0","pricing_plan_id":"cebpf4jnsgd1na2vs0mg"},{"bike_id":"1d77bc85-22c3-4156-b3dc-b84e3aa53d9c","system_id":"levelo_inurba_marseille","lat":43.27332,"lon":5.39129,"is_reserved":false,"is_disabled":false,"rental_uris":{"android":"levelo://app?vid=1d77bc85-22c3-4156-b3dc-b84e3aa53d9c","ios":"levelo://app?vid=1d77bc85-22c3-4156-b3dc-b84e3aa53d9c"},"vehicle_type_id":"4","last_reported":1738080624,"current_range_meters":32800,"station_id":"ce4bhgp2rcd13ifvqfe0","pricing_plan_id":"cebpf4jnsgd1na2vs0mg"},{"bike_id":"e5c6c351-bc10-4670-ad7a-95b98de39ace","system_id":"levelo_inurba_marseille","lat":43.29795,"lon":5.38102,"is_reserved":false,"is_disabled":false,"rental_uris":{"android":"levelo://app?vid=e5c6c351-bc10-4670-ad7a-95b98de39ace","ios":"levelo://app?vid=e5c6c351-bc10-4670-ad7a-95b98de39ace"},"vehicle_type_id":"4","last_reported":1738080624,"current_range_meters":27600,"station_id":"ce4bgip2rcd13ifvqbb0","pricing_plan_id":"cebpf4jnsgd1na2vs0mg"},{"bike_id":"aeb52962-1fe5-4ed8-99b7-f0690979f4d3","system_id":"levelo_inurba_marseille","lat":43.28538,"lon":5.38627,"is_reserved":false,"is_disabled":false,"rental_uris":{"android":"levelo://app?vid=aeb52962-1fe5-4ed8-99b7-f0690979f4d3","ios":"levelo://app?vid=aeb52962-1fe5-4ed8-99b7-f0690979f4d3"},"vehicle_type_id":"4","last_reported":1738080624,"current_range_meters":27600,"station_id":"","pricing_plan_id":"cebpf4jnsgd1na2vs0mg"},{"bike_id":"87479f9b-8efa-4460-8351-79d6c2829104","system_id":"levelo_inurba_marseille","lat":43.30539,"lon":5.36514,"is_reserved":false,"is_disabled":false,"rental_uris":{"android":"levelo://app?vid=87479f9b-8efa-4460-8351-79d6c2829104","ios":"levelo://app?vid=87479f9b-8efa-4460-8351-79d6c2829104"},"vehicle_type_id":"4","last_reported":1738080624,"current_range_meters":14000,"station_id":"ce4bgs12rcd13ifvqcag","pricing_plan_id":"cebpf4jnsgd1na2vs0mg"},{"bike_id":"283c25d8-9fc5-495b-9825-5a72a68442bd","system_id":"levelo_inurba_marseille","lat":43.29254,"lon":5.4092,"is_reserved":false,"is_disabled":true,"rental_uris":{"android":"levelo://app?vid=283c25d8-9fc5-495b-9825-5a72a68442bd","ios":"levelo://app?vid=283c25d8-9fc5-495b-9825-5a72a68442bd"},"vehicle_type_id":"4","last_reported":1738080624,"current_range_meters":0,"station_id":"ce4bh192rcd13ifvqdc0","pricing_plan_id":"cebpf4jnsgd1na2vs0mg"},{"bike_id":"e3e26aee-15e1-425c-a48f-db58aa520742","system_id":"levelo_inurba_marseille","lat":43.23062,"lon":5.35487,"is_reserved":false,"is_disabled":false,"rental_uris":{"android":"levelo://app?vid=e3e26aee-15e1-425c-a48f-db58aa520742","ios":"levelo://app?vid=e3e26aee-15e1-425c-a48f-db58aa520742"},"vehicle_type_id":"4","last_reported":1738080624,"current_range_meters":36800,"station_id":"cpo3342slgdg3j2ifvpg","pricing_plan_id":"cebpf4jnsgd1na2vs0mg"},{"bike_id":"12ba83fb-0f7c-47f5-b1e1-d3474ac6f164","system_id":"levelo_inurba_marseille","lat":43.29529,"lon":5.38548,"is_reserved":false,"is_disabled":false,"rental_uris":{"android":"levelo://app?vid=12ba83fb-0f7c-47f5-b1e1-d3474ac6f164","ios":"levelo://app?vid=12ba83fb-0f7c-47f5-b1e1-d3474ac6f164"},"vehicle_type_id":"4","last_reported":1738080624,"current_range_meters":35600,"station_id":"ce4bgih2rcd13ifvqba0","pricing_plan_id":"cebpf4jnsgd1na2vs0mg"},{"bike_id":"22ece8d6-ae08-4007-9d95-4ab4df0dfa49","system_id":"levelo_inurba_marseille","lat":43.32361,"lon":5.38869,"is_reserved":false,"is_disabled":false,"rental_uris":{"android":"levelo://app?vid=22ece8d6-ae08-4007-9d95-4ab4df0dfa49","ios":"levelo://app?vid=22ece8d6-ae08-4007-9d95-4ab4df0dfa49"},"vehicle_type_id":"4","last_reported":1738080624,"current_range_meters":38800,"station_id":"ce4bhqp2rcd13ifvqhog","pricing_plan_id":"cebpf4jnsgd1na2vs0mg"},{"bike_id":"df2653fe-4fdf-43fd-a7c1-0f1c8d8556c5","system_id":"levelo_inurba_marseille","lat":43.33019,"lon":5.39046,"is_reserved":false,"is_disabled":false,"rental_uris":{"android":"levelo://app?vid=df2653fe-4fdf-43fd-a7c1-0f1c8d8556c5","ios":"levelo://app?vid=df2653fe-4fdf-43fd-a7c1-0f1c8d8556c5"},"vehicle_type_id":"4","last_reported":1738080624,"current_range_meters":38800,"station_id":"ce4bhr92rcd13ifvqhrg","pricing_plan_id":"cebpf4jnsgd1na2vs0mg"},{"bike_id":"7c78a755-c7f5-4f07-a96b-621451d47948","system_id":"levelo_inurba_marseille","lat":43.29888,"lon":5.43669,"is_reserved":false,"is_disabled":false,"rental_uris":{"android":"levelo://app?vid=7c78a755-c7f5-4f07-a96b-621451d47948","ios":"levelo://app?vid=7c78a755-c7f5-4f07-a96b-621451d47948"},"vehicle_type_id":"4","last_reported":1738080624,"current_range_meters":22800,"station_id":"ce4bhpp2rcd13ifvqhfg","pricing_plan_id":"cebpf4jnsgd1na2vs0mg"},{"bike_id":"4ebc8090-1105-4905-bf9f-56879aa1cf25","system_id":"levelo_inurba_marseille","lat":43.31365,"lon":5.38497,"is_reserved":false,"is_disabled":false,"rental_uris":{"android":"levelo://app?vid=4ebc8090-1105-4905-bf9f-56879aa1cf25","ios":"levelo://app?vid=4ebc8090-1105-4905-bf9f-56879aa1cf25"},"vehicle_type_id":"4","last_reported":1738080624,"current_range_meters":33600,"station_id":"ce4bgt92rcd13ifvqcf0","pricing_plan_id":"cebpf4jnsgd1na2vs0mg"},{"bike_id":"74fbf005-89e9-4e7c-a9d3-aaf08ee668f7","system_id":"levelo_inurba_marseille","lat":43.28108,"lon":5.3783,"is_reserved":false,"is_disabled":false,"rental_uris":{"android":"levelo://app?vid=74fbf005-89e9-4e7c-a9d3-aaf08ee668f7","ios":"levelo://app?vid=74fbf005-89e9-4e7c-a9d3-aaf08ee668f7"},"vehicle_type_id":"4","last_reported":1738080624,"current_range_meters":34800,"station_id":"ce4bha12rcd13ifvqee0","pricing_plan_id":"cebpf4jnsgd1na2vs0mg"},{"bike_id":"6759d6ba-9231-494e-bbc6-d9ee8bac8fa2","system_id":"levelo_inurba_marseille","lat":43.29573,"lon":5.39982,"is_reserved":false,"is_disabled":false,"rental_uris":{"android":"levelo://app?vid=6759d6ba-9231-494e-bbc6-d9ee8bac8fa2","ios":"levelo://app?vid=6759d6ba-9231-494e-bbc6-d9ee8bac8fa2"},"vehicle_type_id":"4","last_reported":1738080624,"current_range_meters":0,"station_id":"ce4bh312rcd13ifvqdj0","pricing_plan_id":"cebpf4jnsgd1na2vs0mg"},{"bike_id":"803e03d8-7d2e-4feb-ac46-774902d16dee","system_id":"levelo_inurba_marseille","lat":43.33759,"lon":5.37435,"is_reserved":false,"is_disabled":true,"rental_uris":{"android":"levelo://app?vid=803e03d8-7d2e-4feb-ac46-774902d16dee","ios":"levelo://app?vid=803e03d8-7d2e-4feb-ac46-774902d16dee"},"vehicle_type_id":"4","last_reported":1738080624,"current_range_meters":37600,"station_id":"","pricing_plan_id":"cebpf4jnsgd1na2vs0mg"},{"bike_id":"ff1e303e-f01b-45b4-953d-3439c6552787","system_id":"levelo_inurba_marseille","lat":43.26943,"lon":5.40261,"is_reserved":false,"is_disabled":false,"rental_uris":{"android":"levelo://app?vid=ff1e303e-f01b-45b4-953d-3439c6552787","ios":"levelo://app?vid=ff1e303e-f01b-45b4-953d-3439c6552787"},"vehicle_type_id":"4","last_reported":1738080624,"current_range_meters":30800,"station_id":"cjm6bp8fraef2m0cb0m0","pricing_plan_id":"cebpf4jnsgd1na2vs0mg"},{"bike_id":"919a653c-798e-4498-bae3-9cc4d56442e5","system_id":"levelo_inurba_marseille","lat":43.33731,"lon":5.39197,"is_reserved":false,"is_disabled":false,"rental_uris":{"android":"levelo://app?vid=919a653c-798e-4498-bae3-9cc4d56442e5","ios":"levelo://app?vid=919a653c-798e-4498-bae3-9cc4d56442e5"},"vehicle_type_id":"4","last_reported":1738080624,"current_range_meters":38800,"station_id":"ce4bhr92rcd13ifvqhsg","pricing_plan_id":"cebpf4jnsgd1na2vs0mg"},{"bike_id":"7f762cad-14d3-4378-9c59-c304651b7679","system_id":"levelo_inurba_marseille","lat":43.29565,"lon":5.39969,"is_reserved":false,"is_disabled":true,"rental_uris":{"android":"levelo://app?vid=7f762cad-14d3-4378-9c59-c304651b7679","ios":"levelo://app?vid=7f762cad-14d3-4378-9c59-c304651b7679"},"vehicle_type_id":"4","last_reported":1738080624,"current_range_meters":28800,"station_id":"ce4bh312rcd13ifvqdj0","pricing_plan_id":"cebpf4jnsgd1na2vs0mg"},{"bike_id":"5054b824-0214-4f5f-a1ac-959a37e3db40","system_id":"levelo_inurba_marseille","lat":43.29634,"lon":5.38561,"is_reserved":false,"is_disabled":false,"rental_uris":{"android":"levelo://app?vid=5054b824-0214-4f5f-a1ac-959a37e3db40","ios":"levelo://app?vid=5054b824-0214-4f5f-a1ac-959a37e3db40"},"vehicle_type_id":"4","last_reported":1738080624,"current_range_meters":32000,"station_id":"ce4bgih2rcd13ifvqba0","pricing_plan_id":"cebpf4jnsgd1na2vs0mg"},{"bike_id":"6788c144-cbf5-4b38-9c1f-0196f122a762","system_id":"levelo_inurba_marseille","lat":43.30192,"lon":5.36597,"is_reserved":false,"is_disabled":false,"rental_uris":{"android":"levelo://app?vid=6788c144-cbf5-4b38-9c1f-0196f122a762","ios":"levelo://app?vid=6788c144-cbf5-4b38-9c1f-0196f122a762"},"vehicle_type_id":"4","last_reported":1738080624,"current_range_meters":34000,"station_id":"ce4bgrh2rcd13ifvqc8g","pricing_plan_id":"cebpf4jnsgd1na2vs0mg"},{"bike_id":"f651cf3a-c08c-4c47-808c-76fb221427bc","system_id":"levelo_inurba_marseille","lat":43.29521,"lon":5.39408,"is_reserved":false,"is_disabled":false,"rental_uris":{"android":"levelo://app?vid=f651cf3a-c08c-4c47-808c-76fb221427bc","ios":"levelo://app?vid=f651cf3a-c08c-4c47-808c-76fb221427bc"},"vehicle_type_id":"4","last_reported":1738080624,"current_range_meters":35200,"station_id":"ce4bh292rcd13ifvqdf0","pricing_plan_id":"cebpf4jnsgd1na2vs0mg"},{"bike_id":"9daff7be-41bd-4b2a-9f7b-565f6c80a22b","system_id":"levelo_inurba_marseille","lat":43.27824,"lon":5.40702,"is_reserved":false,"is_disabled":false,"rental_uris":{"android":"levelo://app?vid=9daff7be-41bd-4b2a-9f7b-565f6c80a22b","ios":"levelo://app?vid=9daff7be-41bd-4b2a-9f7b-565f6c80a22b"},"vehicle_type_id":"4","last_reported":1738080624,"current_range_meters":31200,"station_id":"ce4bhnh2rcd13ifvqgtg","pricing_plan_id":"cebpf4jnsgd1na2vs0mg"},{"bike_id":"cb153ec5-64a6-46ba-bce5-bb15c977d5e8","system_id":"levelo_inurba_marseille","lat":43.28078,"lon":5.39662,"is_reserved":false,"is_disabled":false,"rental_uris":{"android":"levelo://app?vid=cb153ec5-64a6-46ba-bce5-bb15c977d5e8","ios":"levelo://app?vid=cb153ec5-64a6-46ba-bce5-bb15c977d5e8"},"vehicle_type_id":"4","last_reported":1738080624,"current_range_meters":38400,"station_id":"ce4bho12rcd13ifvqh2g","pricing_plan_id":"cebpf4jnsgd1na2vs0mg"},{"bike_id":"6a3d1c30-828f-4670-a94d-b8ba0dd1a370","system_id":"levelo_inurba_marseille","lat":43.2964,"lon":5.37156,"is_reserved":false,"is_disabled":false,"rental_uris":{"android":"levelo://app?vid=6a3d1c30-828f-4670-a94d-b8ba0dd1a370","ios":"levelo://app?vid=6a3d1c30-828f-4670-a94d-b8ba0dd1a370"},"vehicle_type_id":"4","last_reported":1738080624,"current_range_meters":28400,"station_id":"ce4bgnh2rcd13ifvqc0g","pricing_plan_id":"cebpf4jnsgd1na2vs0mg"},{"bike_id":"86255055-5d6c-4828-8dde-818efa7f469e","system_id":"levelo_inurba_marseille","lat":43.3086,"lon":5.37781,"is_reserved":false,"is_disabled":false,"rental_uris":{"android":"levelo://app?vid=86255055-5d6c-4828-8dde-818efa7f469e","ios":"levelo://app?vid=86255055-5d6c-4828-8dde-818efa7f469e"},"vehicle_type_id":"4","last_reported":1738080624,"current_range_meters":5600,"station_id":"","pricing_plan_id":"cebpf4jnsgd1na2vs0mg"},{"bike_id":"c438c788-2c8f-4eda-8233-a8485c23c4af","system_id":"levelo_inurba_marseille","lat":43.30413,"lon":5.41282,"is_reserved":false,"is_disabled":true,"rental_uris":{"android":"levelo://app?vid=c438c788-2c8f-4eda-8233-a8485c23c4af","ios":"levelo://app?vid=c438c788-2c8f-4eda-8233-a8485c23c4af"},"vehicle_type_id":"4","last_reported":1738080624,"current_range_meters":0,"station_id":"ce4bhop2rcd13ifvqh8g","pricing_plan_id":"cebpf4jnsgd1na2vs0mg"},{"bike_id":"e5a82cfb-32c4-4006-aa9f-46c1a8aa3c0e","system_id":"levelo_inurba_marseille","lat":43.29274,"lon":5.36842,"is_reserved":false,"is_disabled":false,"rental_uris":{"android":"levelo://app?vid=e5a82cfb-32c4-4006-aa9f-46c1a8aa3c0e","ios":"levelo://app?vid=e5a82cfb-32c4-4006-aa9f-46c1a8aa3c0e"},"vehicle_type_id":"4","last_reported":1738080624,"current_range_meters":37600,"station_id":"ce4bhbp2rcd13ifvqesg","pricing_plan_id":"cebpf4jnsgd1na2vs0mg"},{"bike_id":"85af6c92-372c-4cd2-84da-c4ec61fa470d","system_id":"levelo_inurba_marseille","lat":43.2572,"lon":5.41123,"is_reserved":false,"is_disabled":true,"rental_uris":{"android":"levelo://app?vid=85af6c92-372c-4cd2-84da-c4ec61fa470d","ios":"levelo://app?vid=85af6c92-372c-4cd2-84da-c4ec61fa470d"},"vehicle_type_id":"4","last_reported":1738080624,"current_range_meters":38800,"station_id":"ce4bhkp2rcd13ifvqgd0","pricing_plan_id":"cebpf4jnsgd1na2vs0mg"},{"bike_id":"c7224523-d4d4-42ba-a7fd-26a78292008a","system_id":"levelo_inurba_marseille","lat":43.24807,"lon":5.37459,"is_reserved":false,"is_disabled":false,"rental_uris":{"android":"levelo://app?vid=c7224523-d4d4-42ba-a7fd-26a78292008a","ios":"levelo://app?vid=c7224523-d4d4-42ba-a7fd-26a78292008a"},"vehicle_type_id":"4","last_reported":1738080624,"current_range_meters":31200,"station_id":"ce4bhgh2rcd13ifvqfb0","pricing_plan_id":"cebpf4jnsgd1na2vs0mg"},{"bike_id":"2e02df94-9b0d-4dde-ace7-107552e26bd2","system_id":"levelo_inurba_marseille","lat":43.26801,"lon":5.40269,"is_reserved":false,"is_disabled":false,"rental_uris":{"android":"levelo://app?vid=2e02df94-9b0d-4dde-ace7-107552e26bd2","ios":"levelo://app?vid=2e02df94-9b0d-4dde-ace7-107552e26bd2"},"vehicle_type_id":"4","last_reported":1738080624,"current_range_meters":38800,"station_id":"ce501612rcd8frsf0b60","pricing_plan_id":"cebpf4jnsgd1na2vs0mg"},{"bike_id":"dd0cc133-0d17-46c8-8f5c-8de4d6eeb9e2","system_id":"levelo_inurba_marseille","lat":43.30538,"lon":5.36566,"is_reserved":false,"is_disabled":false,"rental_uris":{"android":"levelo://app?vid=dd0cc133-0d17-46c8-8f5c-8de4d6eeb9e2","ios":"levelo://app?vid=dd0cc133-0d17-46c8-8f5c-8de4d6eeb9e2"},"vehicle_type_id":"4","last_reported":1738080624,"current_range_meters":13600,"station_id":"ce4bgs12rcd13ifvqcag","pricing_plan_id":"cebpf4jnsgd1na2vs0mg"},{"bike_id":"0a0ae71f-4f56-4994-bc72-73253d32ead8","system_id":"levelo_inurba_marseille","lat":43.27455,"lon":5.39394,"is_reserved":false,"is_disabled":false,"rental_uris":{"android":"levelo://app?vid=0a0ae71f-4f56-4994-bc72-73253d32ead8","ios":"levelo://app?vid=0a0ae71f-4f56-4994-bc72-73253d32ead8"},"vehicle_type_id":"4","last_reported":1738080624,"current_range_meters":38800,"station_id":"ce4bhdp2rcd13ifvqf20","pricing_plan_id":"cebpf4jnsgd1na2vs0mg"},{"bike_id":"b93867eb-a153-4812-a194-4480462c06a8","system_id":"levelo_inurba_marseille","lat":43.31262,"lon":5.36897,"is_reserved":false,"is_disabled":false,"rental_uris":{"android":"levelo://app?vid=b93867eb-a153-4812-a194-4480462c06a8","ios":"levelo://app?vid=b93867eb-a153-4812-a194-4480462c06a8"},"vehicle_type_id":"4","last_reported":1738080624,"current_range_meters":16800,"station_id":"","pricing_plan_id":"cebpf4jnsgd1na2vs0mg"},{"bike_id":"3d98c6ce-e80d-46e8-b577-648cd8c28632","system_id":"levelo_inurba_marseille","lat":43.34699,"lon":5.34741,"is_reserved":false,"is_disabled":true,"rental_uris":{"android":"levelo://app?vid=3d98c6ce-e80d-46e8-b577-648cd8c28632","ios":"levelo://app?vid=3d98c6ce-e80d-46e8-b577-648cd8c28632"},"vehicle_type_id":"4","last_reported":1738080624,"current_range_meters":0,"station_id":"","pricing_plan_id":"cebpf4jnsgd1na2vs0mg"},{"bike_id":"f5c44da6-a43b-4180-abb7-12a732e5c80e","system_id":"levelo_inurba_marseille","lat":43.3027,"lon":5.37722,"is_reserved":false,"is_disabled":false,"rental_uris":{"android":"levelo://app?vid=f5c44da6-a43b-4180-abb7-12a732e5c80e","ios":"levelo://app?vid=f5c44da6-a43b-4180-abb7-12a732e5c80e"},"vehicle_type_id":"4","last_reported":1738080624,"current_range_meters":16400,"station_id":"ce4bguh2rcd13ifvqcj0","pricing_plan_id":"cebpf4jnsgd1na2vs0mg"},{"bike_id":"4bb4f2ad-32f7-4de4-aefe-944acff7c8f5","system_id":"levelo_inurba_marseille","lat":43.26805,"lon":5.40262,"is_reserved":false,"is_disabled":true,"rental_uris":{"android":"levelo://app?vid=4bb4f2ad-32f7-4de4-aefe-944acff7c8f5","ios":"levelo://app?vid=4bb4f2ad-32f7-4de4-aefe-944acff7c8f5"},"vehicle_type_id":"4","last_reported":1738080624,"current_range_meters":18800,"station_id":"ce501612rcd8frsf0b60","pricing_plan_id":"cebpf4jnsgd1na2vs0mg"},{"bike_id":"9c6c808c-2344-4484-b654-8a68fb115aa6","system_id":"levelo_inurba_marseille","lat":43.31487,"lon":5.37361,"is_reserved":false,"is_disabled":false,"rental_uris":{"android":"levelo://app?vid=9c6c808c-2344-4484-b654-8a68fb115aa6","ios":"levelo://app?vid=9c6c808c-2344-4484-b654-8a68fb115aa6"},"vehicle_type_id":"4","last_reported":1738080624,"current_range_meters":33600,"station_id":"ce4bgt12rcd13ifvqcd0","pricing_plan_id":"cebpf4jnsgd1na2vs0mg"},{"bike_id":"3116cc8b-2a1e-48fe-a0b4-4df0b4c23746","system_id":"levelo_inurba_marseille","lat":43.29964,"lon":5.37178,"is_reserved":false,"is_disabled":false,"rental_uris":{"android":"levelo://app?vid=3116cc8b-2a1e-48fe-a0b4-4df0b4c23746","ios":"levelo://app?vid=3116cc8b-2a1e-48fe-a0b4-4df0b4c23746"},"vehicle_type_id":"4","last_reported":1738080624,"current_range_meters":22000,"station_id":"ce4bgr92rcd13ifvqc7g","pricing_plan_id":"cebpf4jnsgd1na2vs0mg"},{"bike_id":"3b20c0ef-5eb5-4103-b846-b97b1fa087ed","system_id":"levelo_inurba_marseille","lat":43.30569,"lon":5.36533,"is_reserved":false,"is_disabled":false,"rental_uris":{"android":"levelo://app?vid=3b20c0ef-5eb5-4103-b846-b97b1fa087ed","ios":"levelo://app?vid=3b20c0ef-5eb5-4103-b846-b97b1fa087ed"},"vehicle_type_id":"4","last_reported":1738080624,"current_range_meters":32400,"station_id":"ce4bgs12rcd13ifvqcag","pricing_plan_id":"cebpf4jnsgd1na2vs0mg"},{"bike_id":"12742cf5-eff2-47b3-86b5-d35c9fcccae9","system_id":"levelo_inurba_marseille","lat":43.28614,"lon":5.35103,"is_reserved":false,"is_disabled":false,"rental_uris":{"android":"levelo://app?vid=12742cf5-eff2-47b3-86b5-d35c9fcccae9","ios":"levelo://app?vid=12742cf5-eff2-47b3-86b5-d35c9fcccae9"},"vehicle_type_id":"4","last_reported":1738080624,"current_range_meters":26800,"station_id":"ce4bhch2rcd13ifvqeug","pricing_plan_id":"cebpf4jnsgd1na2vs0mg"},{"bike_id":"0d0df9f1-edbf-4e8c-9522-12f0475ac324","system_id":"levelo_inurba_marseille","lat":43.29737,"lon":5.3769,"is_reserved":false,"is_disabled":false,"rental_uris":{"android":"levelo://app?vid=0d0df9f1-edbf-4e8c-9522-12f0475ac324","ios":"levelo://app?vid=0d0df9f1-edbf-4e8c-9522-12f0475ac324"},"vehicle_type_id":"4","last_reported":1738080624,"current_range_meters":37600,"station_id":"ce4bgkh2rcd13ifvqbl0","pricing_plan_id":"cebpf4jnsgd1na2vs0mg"},{"bike_id":"d0d13967-deed-4a4a-a1d1-c656b87d8b34","system_id":"levelo_inurba_marseille","lat":43.28933,"lon":5.38391,"is_reserved":false,"is_disabled":false,"rental_uris":{"android":"levelo://app?vid=d0d13967-deed-4a4a-a1d1-c656b87d8b34","ios":"levelo://app?vid=d0d13967-deed-4a4a-a1d1-c656b87d8b34"},"vehicle_type_id":"4","last_reported":1738080624,"current_range_meters":21600,"station_id":"ce4bh612rcd13ifvqe6g","pricing_plan_id":"cebpf4jnsgd1na2vs0mg"},{"bike_id":"0c69db19-2745-4f4d-bfef-389fd2b8d447","system_id":"levelo_inurba_marseille","lat":43.29573,"lon":5.37559,"is_reserved":false,"is_disabled":false,"rental_uris":{"android":"levelo://app?vid=0c69db19-2745-4f4d-bfef-389fd2b8d447","ios":"levelo://app?vid=0c69db19-2745-4f4d-bfef-389fd2b8d447"},"vehicle_type_id":"4","last_reported":1738080624,"current_range_meters":38400,"station_id":"ce4bgh92rcd13ifvqb50","pricing_plan_id":"cebpf4jnsgd1na2vs0mg"},{"bike_id":"982b8ba5-a082-4ef8-b358-fc7e6687e3da","system_id":"levelo_inurba_marseille","lat":43.31364,"lon":5.38493,"is_reserved":false,"is_disabled":false,"rental_uris":{"android":"levelo://app?vid=982b8ba5-a082-4ef8-b358-fc7e6687e3da","ios":"levelo://app?vid=982b8ba5-a082-4ef8-b358-fc7e6687e3da"},"vehicle_type_id":"4","last_reported":1738080624,"current_range_meters":16400,"station_id":"ce4bgt92rcd13ifvqcf0","pricing_plan_id":"cebpf4jnsgd1na2vs0mg"},{"bike_id":"ec098f85-99c2-4496-85ac-8004e92e052c","system_id":"levelo_inurba_marseille","lat":43.31371,"lon":5.385,"is_reserved":false,"is_disabled":false,"rental_uris":{"android":"levelo://app?vid=ec098f85-99c2-4496-85ac-8004e92e052c","ios":"levelo://app?vid=ec098f85-99c2-4496-85ac-8004e92e052c"},"vehicle_type_id":"4","last_reported":1738080624,"current_range_meters":17200,"station_id":"ce4bgt92rcd13ifvqcf0","pricing_plan_id":"cebpf4jnsgd1na2vs0mg"},{"bike_id":"5d60fd09-d7f2-4a4a-b1ab-7eb1b11ab66c","system_id":"levelo_inurba_marseille","lat":43.31076,"lon":5.3836,"is_reserved":false,"is_disabled":false,"rental_uris":{"android":"levelo://app?vid=5d60fd09-d7f2-4a4a-b1ab-7eb1b11ab66c","ios":"levelo://app?vid=5d60fd09-d7f2-4a4a-b1ab-7eb1b11ab66c"},"vehicle_type_id":"4","last_reported":1738080624,"current_range_meters":20000,"station_id":"ce4bgv92rcd13ifvqcr0","pricing_plan_id":"cebpf4jnsgd1na2vs0mg"},{"bike_id":"850655d7-7bff-4320-9bab-fb81b1c15c73","system_id":"levelo_inurba_marseille","lat":43.28367,"lon":5.38627,"is_reserved":false,"is_disabled":false,"rental_uris":{"android":"levelo://app?vid=850655d7-7bff-4320-9bab-fb81b1c15c73","ios":"levelo://app?vid=850655d7-7bff-4320-9bab-fb81b1c15c73"},"vehicle_type_id":"4","last_reported":1738080624,"current_range_meters":38000,"station_id":"ce4bh492rcd13ifvqdvg","pricing_plan_id":"cebpf4jnsgd1na2vs0mg"},{"bike_id":"3a4b0d28-abff-4477-b908-21514b7c5219","system_id":"levelo_inurba_marseille","lat":43.26187,"lon":5.37922,"is_reserved":false,"is_disabled":false,"rental_uris":{"android":"levelo://app?vid=3a4b0d28-abff-4477-b908-21514b7c5219","ios":"levelo://app?vid=3a4b0d28-abff-4477-b908-21514b7c5219"},"vehicle_type_id":"4","last_reported":1738080624,"current_range_meters":17200,"station_id":"ce4bhjp2rcd13ifvqg90","pricing_plan_id":"cebpf4jnsgd1na2vs0mg"},{"bike_id":"5cf038e3-da9e-4312-b06d-c741f4cb7f67","system_id":"levelo_inurba_marseille","lat":43.26956,"lon":5.38627,"is_reserved":false,"is_disabled":true,"rental_uris":{"android":"levelo://app?vid=5cf038e3-da9e-4312-b06d-c741f4cb7f67","ios":"levelo://app?vid=5cf038e3-da9e-4312-b06d-c741f4cb7f67"},"vehicle_type_id":"4","last_reported":1738080624,"current_range_meters":32800,"station_id":"ce4bhh92rcd13ifvqfh0","pricing_plan_id":"cebpf4jnsgd1na2vs0mg"},{"bike_id":"19080389-7a11-445b-b07c-425543ec84d3","system_id":"levelo_inurba_marseille","lat":43.23981,"lon":5.36593,"is_reserved":false,"is_disabled":false,"rental_uris":{"android":"levelo://app?vid=19080389-7a11-445b-b07c-425543ec84d3","ios":"levelo://app?vid=19080389-7a11-445b-b07c-425543ec84d3"},"vehicle_type_id":"4","last_reported":1738080624,"current_range_meters":38000,"station_id":"ce4bhi12rcd13ifvqfp0","pricing_plan_id":"cebpf4jnsgd1na2vs0mg"},{"bike_id":"e204d2c3-19de-4f20-950e-3c19d4cbc71f","system_id":"levelo_inurba_marseille","lat":43.30886,"lon":5.39634,"is_reserved":false,"is_disabled":false,"rental_uris":{"android":"levelo://app?vid=e204d2c3-19de-4f20-950e-3c19d4cbc71f","ios":"levelo://app?vid=e204d2c3-19de-4f20-950e-3c19d4cbc71f"},"vehicle_type_id":"4","last_reported":1738080624,"current_range_meters":39200,"station_id":"ce4bh012rcd13ifvqcv0","pricing_plan_id":"cebpf4jnsgd1na2vs0mg"},{"bike_id":"1a9ec841-a319-462e-971d-720bca0e4753","system_id":"levelo_inurba_marseille","lat":43.29801,"lon":5.3809,"is_reserved":false,"is_disabled":false,"rental_uris":{"android":"levelo://app?vid=1a9ec841-a319-462e-971d-720bca0e4753","ios":"levelo://app?vid=1a9ec841-a319-462e-971d-720bca0e4753"},"vehicle_type_id":"4","last_reported":1738080624,"current_range_meters":38000,"station_id":"ce4bgip2rcd13ifvqbb0","pricing_plan_id":"cebpf4jnsgd1na2vs0mg"},{"bike_id":"7752910c-018c-4db4-8746-2945eff1b773","system_id":"levelo_inurba_marseille","lat":43.30895,"lon":5.39658,"is_reserved":false,"is_disabled":false,"rental_uris":{"android":"levelo://app?vid=7752910c-018c-4db4-8746-2945eff1b773","ios":"levelo://app?vid=7752910c-018c-4db4-8746-2945eff1b773"},"vehicle_type_id":"4","last_reported":1738080624,"current_range_meters":14400,"station_id":"ce4bh012rcd13ifvqcv0","pricing_plan_id":"cebpf4jnsgd1na2vs0mg"},{"bike_id":"1f3f464c-785d-4d29-aca9-d7f3d7d0b38d","system_id":"levelo_inurba_marseille","lat":43.27071,"lon":5.42279,"is_reserved":false,"is_disabled":false,"rental_uris":{"android":"levelo://app?vid=1f3f464c-785d-4d29-aca9-d7f3d7d0b38d","ios":"levelo://app?vid=1f3f464c-785d-4d29-aca9-d7f3d7d0b38d"},"vehicle_type_id":"4","last_reported":1738080624,"current_range_meters":20800,"station_id":"ce4bhk92rcd13ifvqgb0","pricing_plan_id":"cebpf4jnsgd1na2vs0mg"},{"bike_id":"4008c5d4-accb-4981-8933-9e85f4cde128","system_id":"levelo_inurba_marseille","lat":43.23197,"lon":5.35543,"is_reserved":false,"is_disabled":false,"rental_uris":{"android":"levelo://app?vid=4008c5d4-accb-4981-8933-9e85f4cde128","ios":"levelo://app?vid=4008c5d4-accb-4981-8933-9e85f4cde128"},"vehicle_type_id":"4","last_reported":1738080624,"current_range_meters":11200,"station_id":"ce4bhu92rcd13ifvqi70","pricing_plan_id":"cebpf4jnsgd1na2vs0mg"},{"bike_id":"7f7e898a-3071-42c7-bc00-ea1835347453","system_id":"levelo_inurba_marseille","lat":43.27585,"lon":5.38418,"is_reserved":false,"is_disabled":false,"rental_uris":{"android":"levelo://app?vid=7f7e898a-3071-42c7-bc00-ea1835347453","ios":"levelo://app?vid=7f7e898a-3071-42c7-bc00-ea1835347453"},"vehicle_type_id":"4","last_reported":1738080624,"current_range_meters":27600,"station_id":"ce4bhh92rcd13ifvqfi0","pricing_plan_id":"cebpf4jnsgd1na2vs0mg"},{"bike_id":"cef336cc-7db5-4799-b9ce-ade1b7d270e4","system_id":"levelo_inurba_marseille","lat":43.29562,"lon":5.36757,"is_reserved":false,"is_disabled":false,"rental_uris":{"android":"levelo://app?vid=cef336cc-7db5-4799-b9ce-ade1b7d270e4","ios":"levelo://app?vid=cef336cc-7db5-4799-b9ce-ade1b7d270e4"},"vehicle_type_id":"4","last_reported":1738080624,"current_range_meters":37600,"station_id":"ce4bgph2rcd13ifvqc2g","pricing_plan_id":"cebpf4jnsgd1na2vs0mg"},{"bike_id":"3a4bc591-4c9d-43f8-a952-0ba13f311996","system_id":"levelo_inurba_marseille","lat":43.29155,"lon":5.37167,"is_reserved":false,"is_disabled":false,"rental_uris":{"android":"levelo://app?vid=3a4bc591-4c9d-43f8-a952-0ba13f311996","ios":"levelo://app?vid=3a4bc591-4c9d-43f8-a952-0ba13f311996"},"vehicle_type_id":"4","last_reported":1738080624,"current_range_meters":38800,"station_id":"ce4bha92rcd13ifvqeh0","pricing_plan_id":"cebpf4jnsgd1na2vs0mg"},{"bike_id":"dde0b023-0524-495c-b601-59e86c915b58","system_id":"levelo_inurba_marseille","lat":43.295614,"lon":5.422644,"is_reserved":false,"is_disabled":false,"rental_uris":{"android":"levelo://app?vid=dde0b023-0524-495c-b601-59e86c915b58","ios":"levelo://app?vid=dde0b023-0524-495c-b601-59e86c915b58"},"vehicle_type_id":"4","last_reported":1738080624,"current_range_meters":20800,"station_id":"ce4bhph2rcd13ifvqhdg","pricing_plan_id":"cebpf4jnsgd1na2vs0mg"},{"bike_id":"af27571c-dbd9-4da4-85f4-96f3d0a1f3af","system_id":"levelo_inurba_marseille","lat":43.25007,"lon":5.38917,"is_reserved":false,"is_disabled":false,"rental_uris":{"android":"levelo://app?vid=af27571c-dbd9-4da4-85f4-96f3d0a1f3af","ios":"levelo://app?vid=af27571c-dbd9-4da4-85f4-96f3d0a1f3af"},"vehicle_type_id":"4","last_reported":1738080624,"current_range_meters":36800,"station_id":"ce4bhgp2rcd13ifvqfd0","pricing_plan_id":"cebpf4jnsgd1na2vs0mg"},{"bike_id":"fe6052ce-9491-43b1-9234-80684e635226","system_id":"levelo_inurba_marseille","lat":43.32917,"lon":5.4277,"is_reserved":false,"is_disabled":false,"rental_uris":{"android":"levelo://app?vid=fe6052ce-9491-43b1-9234-80684e635226","ios":"levelo://app?vid=fe6052ce-9491-43b1-9234-80684e635226"},