{"last_updated":1702670870,"ttl":30,"version":"2.2","data":{"bikes":[{"bike_id":"9eea7540-24ba-473f-9243-0bded8c603a8","system_id":"levelo_inurba_marseille","lat":43.31341,"lon":5.367098,"is_reserved":false,"is_disabled":false,"rental_uris":{"android":"levelo://app?vid=9eea7540-24ba-473f-9243-0bded8c603a8","ios":"levelo://app?vid=9eea7540-24ba-473f-9243-0bded8c603a8"},"vehicle_type_id":"4","last_reported":1702670870,"current_range_meters":12000,"station_id":"ce4bgr92rcd13ifvqc6g","pricing_plan_id":"free"},{"bike_id":"5b37b296-ac12-4124-87b0-a35828d949f7","system_id":"levelo_inurba_marseille","lat":43.31223,"lon":5.36855,"is_reserved":false,"is_disabled":false,"rental_uris":{"android":"levelo://app?vid=5b37b296-ac12-4124-87b0-a35828d949f7","ios":"levelo://app?vid=5b37b296-ac12-4124-87b0-a35828d949f7"},"vehicle_type_id":"4","last_reported":1702670870,"current_range_meters":15600,"station_id":"ce4bgl92rcd13ifvqbq0","pricing_plan_id":"free"},{"bike_id":"89d14e8c-dc93-4f54-976a-8d74455e4035","system_id":"levelo_inurba_marseille","lat":43.312239,"lon":5.368562,"is_reserved":false,"is_disabled":false,"rental_uris":{"android":"levelo://app?vid=89d14e8c-dc93-4f54-976a-8d74455e4035","ios":"levelo://app?vid=89d14e8c-dc93-4f54-976a-8d74455e4035"},"vehicle_type_id":"4","last_reported":1702670870,"current_range_meters":13200,"station_id":"ce4bgl92rcd13ifvqbq0","pricing_plan_id":"free"},{"bike_id":"01699ddd-dba5-4493-b6b0-88a28fd09403","system_id":"levelo_inurba_marseille","lat":43.314811,"lon":5.373103,"is_reserved":false,"is_disabled":false,"rental_uris":{"android":"levelo://app?vid=01699ddd-dba5-4493-b6b0-88a28fd09403","ios":"levelo://app?vid=01699ddd-dba5-4493-b6b0-88a28fd09403"},"vehicle_type_id":"4","last_reported":1702670870,"current_range_meters":19200,"station_id":"ce4bgt12rcd13ifvqcd0","pricing_plan_id":"free"},{"bike_id":"1c05bad1-b574-443d-a3e9-454c7f5a7aa0","system_id":"levelo_inurba_marseille","lat":43.314811,"lon":5.373104,"is_reserved":false,"is_disabled":false,"rental_uris":{"android":"levelo://app?vid=1c05bad1-b574-443d-a3e9-454c7f5a7aa0","ios":"levelo://app?vid=1c05bad1-b574-443d-a3e9-454c7f5a7aa0"},"vehicle_type_id":"4","last_reported":1702670870,"current_range_meters":8400,"station_id":"ce4bgt12rcd13ifvqcd0","pricing_plan_id":"free"},{"bike_id":"3f8b821f-e430-4a35-bf14-f8b6e777ea11","system_id":"levelo_inurba_marseille","lat":43.313939,"lon":5.375306,"is_reserved":false,"is_disabled":false,"rental_uris":{"android":"levelo://app?vid=3f8b821f-e430-4a35-bf14-f8b6e777ea11","ios":"levelo://app?vid=3f8b821f-e430-4a35-bf14-f8b6e777ea11"},"vehicle_type_id":"4","last_reported":1702670870,"current_range_meters":0,"station_id":"","pricing_plan_id":"free"},{"bike_id":"955e4ab2-16e5-44e8-a986-a2f50ff96c06","system_id":"levelo_inurba_marseille","lat":43.305382,"lon":5.365389,"is_reserved":false,"is_disabled":false,"rental_uris":{"android":"levelo://app?vid=955e4ab2-16e5-44e8-a986-a2f50ff96c06","ios":"levelo://app?vid=955e4ab2-16e5-44e8-a986-a2f50ff96c06"},"vehicle_type_id":"4","last_reported":1702670870,"current_range_meters":18400,"station_id":"","pricing_plan_id":"free"},{"bike_id":"f4f300bf-fb1c-4cca-8e5b-93856af5707d","system_id":"levelo_inurba_marseille","lat":43.307945,"lon":5.376487,"is_reserved":false,"is_disabled":false,"rental_uris":{"android":"levelo://app?vid=f4f300bf-fb1c-4cca-8e5b-93856af5707d","ios":"levelo://app?vid=f4f300bf-fb1c-4cca-8e5b-93856af5707d"},"vehicle_type_id":"4","last_reported":1702670870,"current_range_meters":4400,"station_id":"ce4bgv92rcd13ifvqcq0","pricing_plan_id":"free"},{"bike_id":"181dabf2-d8b2-462f-9c67-c31f68bd32af","system_id":"levelo_inurba_marseille","lat":43.317075,"lon":5.377367,"is_reserved":false,"is_disabled":false,"rental_uris":{"android":"levelo://app?vid=181dabf2-d8b2-462f-9c67-c31f68bd32af","ios":"levelo://app?vid=181dabf2-d8b2-462f-9c67-c31f68bd32af"},"vehicle_type_id":"4","last_reported":1702670870,"current_range_meters":9200,"station_id":"ce4bgth2rcd13ifvqch0","pricing_plan_id":"free"},{"bike_id":"18f65a18-b67f-4e81-a972-2b3b5dd94811","system_id":"levelo_inurba_marseille","lat":43.317075,"lon":5.377367,"is_reserved":false,"is_disabled":false,"rental_uris":{"android":"levelo://app?vid=18f65a18-b67f-4e81-a972-2b3b5dd94811","ios":"levelo://app?vid=18f65a18-b67f-4e81-a972-2b3b5dd94811"},"vehicle_type_id":"4","last_reported":1702670870,"current_range_meters":20400,"station_id":"ce4bgth2rcd13ifvqch0","pricing_plan_id":"free"},{"bike_id":"5fee9a9c-d585-498d-b0f6-40b6eaf7417b","system_id":"levelo_inurba_marseille","lat":43.317068,"lon":5.377648,"is_reserved":false,"is_disabled":false,"rental_uris":{"android":"levelo://app?vid=5fee9a9c-d585-498d-b0f6-40b6eaf7417b","ios":"levelo://app?vid=5fee9a9c-d585-498d-b0f6-40b6eaf7417b"},"vehicle_type_id":"4","last_reported":1702670870,"current_range_meters":2000,"station_id":"ce4bgth2rcd13ifvqch0","pricing_plan_id":"free"},{"bike_id":"112889bc-8d0f-431d-9767-314715ea602b","system_id":"levelo_inurba_marseille","lat":43.31544,"lon":5.38028,"is_reserved":false,"is_disabled":false,"rental_uris":{"android":"levelo://app?vid=112889bc-8d0f-431d-9767-314715ea602b","ios":"levelo://app?vid=112889bc-8d0f-431d-9767-314715ea602b"},"vehicle_type_id":"4","last_reported":1702670870,"current_range_meters":19200,"station_id":"ce4bhsp2rcd13ifvqi50","pricing_plan_id":"free"},{"bike_id":"fb3f16d5-be05-4c97-812c-59301c1f20ed","system_id":"levelo_inurba_marseille","lat":43.308012,"lon":5.381511,"is_reserved":false,"is_disabled":false,"rental_uris":{"android":"levelo://app?vid=fb3f16d5-be05-4c97-812c-59301c1f20ed","ios":"levelo://app?vid=fb3f16d5-be05-4c97-812c-59301c1f20ed"},"vehicle_type_id":"4","last_reported":1702670870,"current_range_meters":0,"station_id":"ce4bgt12rcd13ifvqce0","pricing_plan_id":"free"},{"bike_id":"88f7ea2a-62f7-4a88-9e9d-900940b4d7e5","system_id":"levelo_inurba_marseille","lat":43.32477,"lon":5.365628,"is_reserved":false,"is_disabled":false,"rental_uris":{"android":"levelo://app?vid=88f7ea2a-62f7-4a88-9e9d-900940b4d7e5","ios":"levelo://app?vid=88f7ea2a-62f7-4a88-9e9d-900940b4d7e5"},"vehicle_type_id":"4","last_reported":1702670870,"current_range_meters":19200,"station_id":"ce4bhs12rcd13ifvqhvg","pricing_plan_id":"free"},{"bike_id":"dfe62985-6f65-471f-8bdb-4e96693a7937","system_id":"levelo_inurba_marseille","lat":43.32478,"lon":5.36574,"is_reserved":false,"is_disabled":false,"rental_uris":{"android":"levelo://app?vid=dfe62985-6f65-471f-8bdb-4e96693a7937","ios":"levelo://app?vid=dfe62985-6f65-471f-8bdb-4e96693a7937"},"vehicle_type_id":"4","last_reported":1702670870,"current_range_meters":20400,"station_id":"ce4bhs12rcd13ifvqhvg","pricing_plan_id":"free"},{"bike_id":"f1cde3ff-6cd4-4e86-99bc-06e7a73fc0a0","system_id":"levelo_inurba_marseille","lat":43.32479,"lon":5.36558,"is_reserved":false,"is_disabled":false,"rental_uris":{"android":"levelo://app?vid=f1cde3ff-6cd4-4e86-99bc-06e7a73fc0a0","ios":"levelo://app?vid=f1cde3ff-6cd4-4e86-99bc-06e7a73fc0a0"},"vehicle_type_id":"4","last_reported":1702670870,"current_range_meters":20400,"station_id":"ce4bhs12rcd13ifvqhvg","pricing_plan_id":"free"},{"bike_id":"29103955-731a-4e6b-aade-0a731f58f869","system_id":"levelo_inurba_marseille","lat":43.301429,"lon":5.37413,"is_reserved":false,"is_disabled":false,"rental_uris":{"android":"levelo://app?vid=29103955-731a-4e6b-aade-0a731f58f869","ios":"levelo://app?vid=29103955-731a-4e6b-aade-0a731f58f869"},"vehicle_type_id":"4","last_reported":1702670870,"current_range_meters":18400,"station_id":"ce4bgs92rcd13ifvqcc0","pricing_plan_id":"free"},{"bike_id":"2716ecf2-2796-49fc-8310-074102d61e52","system_id":"levelo_inurba_marseille","lat":43.313571,"lon":5.384829,"is_reserved":false,"is_disabled":false,"rental_uris":{"android":"levelo://app?vid=2716ecf2-2796-49fc-8310-074102d61e52","ios":"levelo://app?vid=2716ecf2-2796-49fc-8310-074102d61e52"},"vehicle_type_id":"4","last_reported":1702670870,"current_range_meters":3600,"station_id":"ce4bgt92rcd13ifvqcf0","pricing_plan_id":"free"},{"bike_id":"4d739753-bb87-4264-8320-6cdcf453f8e4","system_id":"levelo_inurba_marseille","lat":43.299222,"lon":5.365554,"is_reserved":false,"is_disabled":false,"rental_uris":{"android":"levelo://app?vid=4d739753-bb87-4264-8320-6cdcf453f8e4","ios":"levelo://app?vid=4d739753-bb87-4264-8320-6cdcf453f8e4"},"vehicle_type_id":"4","last_reported":1702670870,"current_range_meters":12000,"station_id":"ce4bgm92rcd13ifvqbr0","pricing_plan_id":"free"},{"bike_id":"4cfeee5c-a63d-4ec0-b4ff-b5cc74f4f508","system_id":"levelo_inurba_marseille","lat":43.313023,"lon":5.386138,"is_reserved":false,"is_disabled":false,"rental_uris":{"android":"levelo://app?vid=4cfeee5c-a63d-4ec0-b4ff-b5cc74f4f508","ios":"levelo://app?vid=4cfeee5c-a63d-4ec0-b4ff-b5cc74f4f508"},"vehicle_type_id":"4","last_reported":1702670870,"current_range_meters":0,"station_id":"","pricing_plan_id":"free"},{"bike_id":"03a99dd8-c174-4ceb-9c82-086f48815e3a","system_id":"levelo_inurba_marseille","lat":43.305364,"lon":5.384119,"is_reserved":false,"is_disabled":false,"rental_uris":{"android":"levelo://app?vid=03a99dd8-c174-4ceb-9c82-086f48815e3a","ios":"levelo://app?vid=03a99dd8-c174-4ceb-9c82-086f48815e3a"},"vehicle_type_id":"4","last_reported":1702670870,"current_range_meters":4800,"station_id":"ce4bgg92rcd13ifvqb30","pricing_plan_id":"free"},{"bike_id":"04378296-36e4-4591-9054-497136b40447","system_id":"levelo_inurba_marseille","lat":43.298433,"lon":5.362774,"is_reserved":false,"is_disabled":false,"rental_uris":{"android":"levelo://app?vid=04378296-36e4-4591-9054-497136b40447","ios":"levelo://app?vid=04378296-36e4-4591-9054-497136b40447"},"vehicle_type_id":"4","last_reported":1702670870,"current_range_meters":10800,"station_id":"ce4bgpp2rcd13ifvqc3g","pricing_plan_id":"free"},{"bike_id":"cf2be0c6-01c7-4f7c-9d55-806cec3de34f","system_id":"levelo_inurba_marseille","lat":43.298433,"lon":5.362774,"is_reserved":false,"is_disabled":false,"rental_uris":{"android":"levelo://app?vid=cf2be0c6-01c7-4f7c-9d55-806cec3de34f","ios":"levelo://app?vid=cf2be0c6-01c7-4f7c-9d55-806cec3de34f"},"vehicle_type_id":"4","last_reported":1702670870,"current_range_meters":18400,"station_id":"ce4bgpp2rcd13ifvqc3g","pricing_plan_id":"free"},{"bike_id":"c4e77394-aef9-4077-b745-e99148625344","system_id":"levelo_inurba_marseille","lat":43.32733,"lon":5.36707,"is_reserved":false,"is_disabled":false,"rental_uris":{"android":"levelo://app?vid=c4e77394-aef9-4077-b745-e99148625344","ios":"levelo://app?vid=c4e77394-aef9-4077-b745-e99148625344"},"vehicle_type_id":"4","last_reported":1702670870,"current_range_meters":25600,"station_id":"","pricing_plan_id":"free"},{"bike_id":"73542550-e93b-4977-b46c-0fabdd60ce00","system_id":"levelo_inurba_marseille","lat":43.305364,"lon":5.384119,"is_reserved":false,"is_disabled":false,"rental_uris":{"android":"levelo://app?vid=73542550-e93b-4977-b46c-0fabdd60ce00","ios":"levelo://app?vid=73542550-e93b-4977-b46c-0fabdd60ce00"},"vehicle_type_id":"4","last_reported":1702670870,"current_range_meters":19600,"station_id":"ce4bgg92rcd13ifvqb30","pricing_plan_id":"free"},{"bike_id":"872b0441-eebb-4668-9220-803589301d6e","system_id":"levelo_inurba_marseille","lat":43.298433,"lon":5.362774,"is_reserved":false,"is_disabled":false,"rental_uris":{"android":"levelo://app?vid=872b0441-eebb-4668-9220-803589301d6e","ios":"levelo://app?vid=872b0441-eebb-4668-9220-803589301d6e"},"vehicle_type_id":"4","last_reported":1702670870,"current_range_meters":7600,"station_id":"ce4bgpp2rcd13ifvqc3g","pricing_plan_id":"free"},{"bike_id":"8a524f98-94c1-4f11-8e97-5585e7ff4c88","system_id":"levelo_inurba_marseille","lat":43.298433,"lon":5.362774,"is_reserved":false,"is_disabled":false,"rental_uris":{"android":"levelo://app?vid=8a524f98-94c1-4f11-8e97-5585e7ff4c88","ios":"levelo://app?vid=8a524f98-94c1-4f11-8e97-5585e7ff4c88"},"vehicle_type_id":"4","last_reported":1702670870,"current_range_meters":23200,"station_id":"ce4bgpp2rcd13ifvqc3g","pricing_plan_id":"free"},{"bike_id":"19d0bf9a-c90c-4e16-8406-2a2de7bc0411","system_id":"levelo_inurba_marseille","lat":43.299243,"lon":5.374807,"is_reserved":false,"is_disabled":false,"rental_uris":{"android":"levelo://app?vid=19d0bf9a-c90c-4e16-8406-2a2de7bc0411","ios":"levelo://app?vid=19d0bf9a-c90c-4e16-8406-2a2de7bc0411"},"vehicle_type_id":"4","last_reported":1702670870,"current_range_meters":18400,"station_id":"ce4bgjh2rcd13ifvqbg0","pricing_plan_id":"free"},{"bike_id":"c697c5d1-c048-4f10-b165-aaaa6b0c60a2","system_id":"levelo_inurba_marseille","lat":43.298433,"lon":5.362774,"is_reserved":false,"is_disabled":false,"rental_uris":{"android":"levelo://app?vid=c697c5d1-c048-4f10-b165-aaaa6b0c60a2","ios":"levelo://app?vid=c697c5d1-c048-4f10-b165-aaaa6b0c60a2"},"vehicle_type_id":"4","last_reported":1702670870,"current_range_meters":31600,"station_id":"ce4bgpp2rcd13ifvqc3g","pricing_plan_id":"free"},{"bike_id":"2283926f-3d86-4a8d-96fd-9f31be798410","system_id":"levelo_inurba_marseille","lat":43.298433,"lon":5.362774,"is_reserved":false,"is_disabled":false,"rental_uris":{"android":"levelo://app?vid=2283926f-3d86-4a8d-96fd-9f31be798410","ios":"levelo://app?vid=2283926f-3d86-4a8d-96fd-9f31be798410"},"vehicle_type_id":"4","last_reported":1702670870,"current_range_meters":11600,"station_id":"ce4bgpp2rcd13ifvqc3g","pricing_plan_id":"free"},{"bike_id":"819cb438-2e9c-4e0b-902b-5e19ef554d5c","system_id":"levelo_inurba_marseille","lat":43.30544,"lon":5.38448,"is_reserved":false,"is_disabled":false,"rental_uris":{"android":"levelo://app?vid=819cb438-2e9c-4e0b-902b-5e19ef554d5c","ios":"levelo://app?vid=819cb438-2e9c-4e0b-902b-5e19ef554d5c"},"vehicle_type_id":"4","last_reported":1702670870,"current_range_meters":19600,"station_id":"ce4bgg92rcd13ifvqb30","pricing_plan_id":"free"},{"bike_id":"0073900a-5c47-44b8-b6b2-5bccaf75d5e4","system_id":"levelo_inurba_marseille","lat":43.299724,"lon":5.371829,"is_reserved":false,"is_disabled":false,"rental_uris":{"android":"levelo://app?vid=0073900a-5c47-44b8-b6b2-5bccaf75d5e4","ios":"levelo://app?vid=0073900a-5c47-44b8-b6b2-5bccaf75d5e4"},"vehicle_type_id":"4","last_reported":1702670870,"current_range_meters":11600,"station_id":"ce4bgr92rcd13ifvqc7g","pricing_plan_id":"free"},{"bike_id":"bf3ded93-ff12-458b-b154-e9649af84b7c","system_id":"levelo_inurba_marseille","lat":43.297774,"lon":5.370875,"is_reserved":false,"is_disabled":false,"rental_uris":{"android":"levelo://app?vid=bf3ded93-ff12-458b-b154-e9649af84b7c","ios":"levelo://app?vid=bf3ded93-ff12-458b-b154-e9649af84b7c"},"vehicle_type_id":"4","last_reported":1702670870,"current_range_meters":5600,"station_id":"ce4bgop2rcd13ifvqc1g","pricing_plan_id":"free"},{"bike_id":"cb559df9-b405-48a1-9eb4-7367463ff55c","system_id":"levelo_inurba_marseille","lat":43.323006,"lon":5.382743,"is_reserved":false,"is_disabled":false,"rental_uris":{"android":"levelo://app?vid=cb559df9-b405-48a1-9eb4-7367463ff55c","ios":"levelo://app?vid=cb559df9-b405-48a1-9eb4-7367463ff55c"},"vehicle_type_id":"4","last_reported":1702670870,"current_range_meters":6000,"station_id":"ce4bhr12rcd13ifvqhqg","pricing_plan_id":"free"},{"bike_id":"1175711d-7211-41fe-bf16-76d8cd775479","system_id":"levelo_inurba_marseille","lat":43.299028,"lon":5.381509,"is_reserved":false,"is_disabled":false,"rental_uris":{"android":"levelo://app?vid=1175711d-7211-41fe-bf16-76d8cd775479","ios":"levelo://app?vid=1175711d-7211-41fe-bf16-76d8cd775479"},"vehicle_type_id":"4","last_reported":1702670870,"current_range_meters":17600,"station_id":"ce4bgj12rcd13ifvqbc0","pricing_plan_id":"free"},{"bike_id":"83aa5caa-782c-409a-81f6-e829d98e5d88","system_id":"levelo_inurba_marseille","lat":43.29796,"lon":5.38093,"is_reserved":false,"is_disabled":false,"rental_uris":{"android":"levelo://app?vid=83aa5caa-782c-409a-81f6-e829d98e5d88","ios":"levelo://app?vid=83aa5caa-782c-409a-81f6-e829d98e5d88"},"vehicle_type_id":"4","last_reported":1702670870,"current_range_meters":7600,"station_id":"ce4bgip2rcd13ifvqbb0","pricing_plan_id":"free"},{"bike_id":"e61a2d98-3531-463b-aa03-71eb606ed49a","system_id":"levelo_inurba_marseille","lat":43.30428,"lon":5.38888,"is_reserved":false,"is_disabled":false,"rental_uris":{"android":"levelo://app?vid=e61a2d98-3531-463b-aa03-71eb606ed49a","ios":"levelo://app?vid=e61a2d98-3531-463b-aa03-71eb606ed49a"},"vehicle_type_id":"4","last_reported":1702670870,"current_range_meters":400,"station_id":"ce4bgk12rcd13ifvqbi0","pricing_plan_id":"free"},{"bike_id":"f1e99bc4-0eca-4e29-88cd-b99a376addba","system_id":"levelo_inurba_marseille","lat":43.304278,"lon":5.388868,"is_reserved":false,"is_disabled":false,"rental_uris":{"android":"levelo://app?vid=f1e99bc4-0eca-4e29-88cd-b99a376addba","ios":"levelo://app?vid=f1e99bc4-0eca-4e29-88cd-b99a376addba"},"vehicle_type_id":"4","last_reported":1702670870,"current_range_meters":18000,"station_id":"ce4bgk12rcd13ifvqbi0","pricing_plan_id":"free"},{"bike_id":"b498cec0-07b7-4379-8898-352b39f3ffb7","system_id":"levelo_inurba_marseille","lat":43.295279,"lon":5.375048,"is_reserved":false,"is_disabled":false,"rental_uris":{"android":"levelo://app?vid=b498cec0-07b7-4379-8898-352b39f3ffb7","ios":"levelo://app?vid=b498cec0-07b7-4379-8898-352b39f3ffb7"},"vehicle_type_id":"4","last_reported":1702670870,"current_range_meters":7200,"station_id":"ce4bgkp2rcd13ifvqbmg","pricing_plan_id":"free"},{"bike_id":"03df5dc7-987d-4eba-9e68-155503877be4","system_id":"levelo_inurba_marseille","lat":43.295748,"lon":5.37522,"is_reserved":false,"is_disabled":false,"rental_uris":{"android":"levelo://app?vid=03df5dc7-987d-4eba-9e68-155503877be4","ios":"levelo://app?vid=03df5dc7-987d-4eba-9e68-155503877be4"},"vehicle_type_id":"4","last_reported":1702670870,"current_range_meters":22800,"station_id":"ce4bgh92rcd13ifvqb50","pricing_plan_id":"free"},{"bike_id":"eb7eb303-02c9-4710-9fae-f8c99eae6ff7","system_id":"levelo_inurba_marseille","lat":43.299707,"lon":5.384859,"is_reserved":false,"is_disabled":false,"rental_uris":{"android":"levelo://app?vid=eb7eb303-02c9-4710-9fae-f8c99eae6ff7","ios":"levelo://app?vid=eb7eb303-02c9-4710-9fae-f8c99eae6ff7"},"vehicle_type_id":"4","last_reported":1702670870,"current_range_meters":4000,"station_id":"ce4bgj92rcd13ifvqbd0","pricing_plan_id":"free"},{"bike_id":"13893eb6-8d19-4328-8848-32f7c97ea882","system_id":"levelo_inurba_marseille","lat":43.29601,"lon":5.381084,"is_reserved":false,"is_disabled":false,"rental_uris":{"android":"levelo://app?vid=13893eb6-8d19-4328-8848-32f7c97ea882","ios":"levelo://app?vid=13893eb6-8d19-4328-8848-32f7c97ea882"},"vehicle_type_id":"4","last_reported":1702670870,"current_range_meters":0,"station_id":"ce4bgl12rcd13ifvqbo0","pricing_plan_id":"free"},{"bike_id":"e5712de2-ce1b-4153-81ed-0b1d00d2ad5d","system_id":"levelo_inurba_marseille","lat":43.29602,"lon":5.381084,"is_reserved":false,"is_disabled":false,"rental_uris":{"android":"levelo://app?vid=e5712de2-ce1b-4153-81ed-0b1d00d2ad5d","ios":"levelo://app?vid=e5712de2-ce1b-4153-81ed-0b1d00d2ad5d"},"vehicle_type_id":"4","last_reported":1702670870,"current_range_meters":3600,"station_id":"ce4bgl12rcd13ifvqbo0","pricing_plan_id":"free"},{"bike_id":"5a19e420-8e50-4066-94da-f8c443796aca","system_id":"levelo_inurba_marseille","lat":43.293259,"lon":5.371586,"is_reserved":false,"is_disabled":false,"rental_uris":{"android":"levelo://app?vid=5a19e420-8e50-4066-94da-f8c443796aca","ios":"levelo://app?vid=5a19e420-8e50-4066-94da-f8c443796aca"},"vehicle_type_id":"4","last_reported":1702670870,"current_range_meters":22800,"station_id":"ce4bgh92rcd13ifvqb40","pricing_plan_id":"free"},{"bike_id":"abaa6035-2f10-459d-9d9d-8ebafeef05ac","system_id":"levelo_inurba_marseille","lat":43.293259,"lon":5.371586,"is_reserved":false,"is_disabled":false,"rental_uris":{"android":"levelo://app?vid=abaa6035-2f10-459d-9d9d-8ebafeef05ac","ios":"levelo://app?vid=abaa6035-2f10-459d-9d9d-8ebafeef05ac"},"vehicle_type_id":"4","last_reported":1702670870,"current_range_meters":5200,"station_id":"ce4bgh92rcd13ifvqb40","pricing_plan_id":"free"},{"bike_id":"756dc3d7-1aa0-49e2-bbc2-7112ddc92000","system_id":"levelo_inurba_marseille","lat":43.293259,"lon":5.371586,"is_reserved":false,"is_disabled":false,"rental_uris":{"android":"levelo://app?vid=756dc3d7-1aa0-49e2-bbc2-7112ddc92000","ios":"levelo://app?vid=756dc3d7-1aa0-49e2-bbc2-7112ddc92000"},"vehicle_type_id":"4","last_reported":1702670870,"current_range_meters":4400,"station_id":"ce4bgh92rcd13ifvqb40","pricing_plan_id":"free"},{"bike_id":"4180ae26-634e-4a50-a6dc-a907d05b58ef","system_id":"levelo_inurba_marseille","lat":43.293259,"lon":5.371586,"is_reserved":false,"is_disabled":false,"rental_uris":{"android":"levelo://app?vid=4180ae26-634e-4a50-a6dc-a907d05b58ef","ios":"levelo://app?vid=4180ae26-634e-4a50-a6dc-a907d05b58ef"},"vehicle_type_id":"4","last_reported":1702670870,"current_range_meters":16400,"station_id":"ce4bgh92rcd13ifvqb40","pricing_plan_id":"free"},{"bike_id":"49ec2840-2f0c-4dd7-a3ed-b764a38a7d7f","system_id":"levelo_inurba_marseille","lat":43.293009,"lon":5.374584,"is_reserved":false,"is_disabled":false,"rental_uris":{"android":"levelo://app?vid=49ec2840-2f0c-4dd7-a3ed-b764a38a7d7f","ios":"levelo://app?vid=49ec2840-2f0c-4dd7-a3ed-b764a38a7d7f"},"vehicle_type_id":"4","last_reported":1702670870,"current_range_meters":27200,"station_id":"ce4bgi12rcd13ifvqb70","pricing_plan_id":"free"},{"bike_id":"d6f54ac3-6f8b-4150-b475-329585bc84f4","system_id":"levelo_inurba_marseille","lat":43.292975,"lon":5.374593,"is_reserved":false,"is_disabled":false,"rental_uris":{"android":"levelo://app?vid=d6f54ac3-6f8b-4150-b475-329585bc84f4","ios":"levelo://app?vid=d6f54ac3-6f8b-4150-b475-329585bc84f4"},"vehicle_type_id":"4","last_reported":1702670870,"current_range_meters":26400,"station_id":"ce4bgi12rcd13ifvqb70","pricing_plan_id":"free"},{"bike_id":"831a5892-159a-49e6-b83a-3967370f847d","system_id":"levelo_inurba_marseille","lat":43.293009,"lon":5.374584,"is_reserved":false,"is_disabled":false,"rental_uris":{"android":"levelo://app?vid=831a5892-159a-49e6-b83a-3967370f847d","ios":"levelo://app?vid=831a5892-159a-49e6-b83a-3967370f847d"},"vehicle_type_id":"4","last_reported":1702670870,"current_range_meters":28800,"station_id":"ce4bgi12rcd13ifvqb70","pricing_plan_id":"free"},{"bike_id":"2ff8c676-9f87-4ff8-a4cd-f9fc18037865","system_id":"levelo_inurba_marseille","lat":43.293009,"lon":5.374584,"is_reserved":false,"is_disabled":false,"rental_uris":{"android":"levelo://app?vid=2ff8c676-9f87-4ff8-a4cd-f9fc18037865","ios":"levelo://app?vid=2ff8c676-9f87-4ff8-a4cd-f9fc18037865"},"vehicle_type_id":"4","last_reported":1702670870,"current_range_meters":23600,"station_id":"ce4bgi12rcd13ifvqb70","pricing_plan_id":"free"},{"bike_id":"80d30f29-aca1-46d4-ba29-0e0703284a69","system_id":"levelo_inurba_marseille","lat":43.293009,"lon":5.374584,"is_reserved":false,"is_disabled":false,"rental_uris":{"android":"levelo://app?vid=80d30f29-aca1-46d4-ba29-0e0703284a69","ios":"levelo://app?vid=80d30f29-aca1-46d4-ba29-0e0703284a69"},"vehicle_type_id":"4","last_reported":1702670870,"current_range_meters":22800,"station_id":"ce4bgi12rcd13ifvqb70","pricing_plan_id":"free"},{"bike_id":"bcd4d561-f7d2-415a-bd42-b3c3e0a6da44","system_id":"levelo_inurba_marseille","lat":43.293009,"lon":5.374584,"is_reserved":false,"is_disabled":false,"rental_uris":{"android":"levelo://app?vid=bcd4d561-f7d2-415a-bd42-b3c3e0a6da44","ios":"levelo://app?vid=bcd4d561-f7d2-415a-bd42-b3c3e0a6da44"},"vehicle_type_id":"4","last_reported":1702670870,"current_range_meters":18000,"station_id":"ce4bgi12rcd13ifvqb70","pricing_plan_id":"free"},{"bike_id":"9a307c2b-e473-4ac9-a783-607baebc4ad9","system_id":"levelo_inurba_marseille","lat":43.29295,"lon":5.37459,"is_reserved":false,"is_disabled":false,"rental_uris":{"android":"levelo://app?vid=9a307c2b-e473-4ac9-a783-607baebc4ad9","ios":"levelo://app?vid=9a307c2b-e473-4ac9-a783-607baebc4ad9"},"vehicle_type_id":"4","last_reported":1702670870,"current_range_meters":28400,"station_id":"ce4bgi12rcd13ifvqb70","pricing_plan_id":"free"},{"bike_id":"b80432d6-be50-4e5e-a970-7ebb8ebfdf94","system_id":"levelo_inurba_marseille","lat":43.292852,"lon":5.37439,"is_reserved":false,"is_disabled":false,"rental_uris":{"android":"levelo://app?vid=b80432d6-be50-4e5e-a970-7ebb8ebfdf94","ios":"levelo://app?vid=b80432d6-be50-4e5e-a970-7ebb8ebfdf94"},"vehicle_type_id":"4","last_reported":1702670870,"current_range_meters":21600,"station_id":"ce4bgi12rcd13ifvqb70","pricing_plan_id":"free"},{"bike_id":"8a9b2ffa-bce1-4436-af4c-eb18f193d656","system_id":"levelo_inurba_marseille","lat":43.302992,"lon":5.392136,"is_reserved":false,"is_disabled":false,"rental_uris":{"android":"levelo://app?vid=8a9b2ffa-bce1-4436-af4c-eb18f193d656","ios":"levelo://app?vid=8a9b2ffa-bce1-4436-af4c-eb18f193d656"},"vehicle_type_id":"4","last_reported":1702670870,"current_range_meters":28400,"station_id":"ce4bgkh2rcd13ifvqbk0","pricing_plan_id":"free"},{"bike_id":"57775e6a-0c00-496c-9e57-0183e106f164","system_id":"levelo_inurba_marseille","lat":43.30096,"lon":5.39094,"is_reserved":false,"is_disabled":false,"rental_uris":{"android":"levelo://app?vid=57775e6a-0c00-496c-9e57-0183e106f164","ios":"levelo://app?vid=57775e6a-0c00-496c-9e57-0183e106f164"},"vehicle_type_id":"4","last_reported":1702670870,"current_range_meters":7600,"station_id":"ce4bh192rcd13ifvqdb0","pricing_plan_id":"free"},{"bike_id":"53435069-57fb-4a78-b5af-660f9c7acae6","system_id":"levelo_inurba_marseille","lat":43.291671,"lon":5.371575,"is_reserved":false,"is_disabled":false,"rental_uris":{"android":"levelo://app?vid=53435069-57fb-4a78-b5af-660f9c7acae6","ios":"levelo://app?vid=53435069-57fb-4a78-b5af-660f9c7acae6"},"vehicle_type_id":"4","last_reported":1702670870,"current_range_meters":2400,"station_id":"ce4bha92rcd13ifvqeh0","pricing_plan_id":"free"},{"bike_id":"afa08908-9754-4431-9b1c-baa0c0ec63ca","system_id":"levelo_inurba_marseille","lat":43.29196,"lon":5.35807,"is_reserved":false,"is_disabled":false,"rental_uris":{"android":"levelo://app?vid=afa08908-9754-4431-9b1c-baa0c0ec63ca","ios":"levelo://app?vid=afa08908-9754-4431-9b1c-baa0c0ec63ca"},"vehicle_type_id":"4","last_reported":1702670870,"current_range_meters":14000,"station_id":"ce4bhb12rcd13ifvqel0","pricing_plan_id":"free"},{"bike_id":"5d8f4c0a-1894-4784-9947-4c7cec0be9bc","system_id":"levelo_inurba_marseille","lat":43.313291,"lon":5.396838,"is_reserved":false,"is_disabled":false,"rental_uris":{"android":"levelo://app?vid=5d8f4c0a-1894-4784-9947-4c7cec0be9bc","ios":"levelo://app?vid=5d8f4c0a-1894-4784-9947-4c7cec0be9bc"},"vehicle_type_id":"4","last_reported":1702670870,"current_range_meters":9600,"station_id":"ce4bgvp2rcd13ifvqcu0","pricing_plan_id":"free"},{"bike_id":"fdd2a506-3ce4-45f2-96cb-38173ec0e746","system_id":"levelo_inurba_marseille","lat":43.273129,"lon":5.390725,"is_reserved":false,"is_disabled":false,"rental_uris":{"android":"levelo://app?vid=fdd2a506-3ce4-45f2-96cb-38173ec0e746","ios":"levelo://app?vid=fdd2a506-3ce4-45f2-96cb-38173ec0e746"},"vehicle_type_id":"4","last_reported":1702670870,"current_range_meters":800,"station_id":"ce4bhgp2rcd13ifvqfe0","pricing_plan_id":"free"},{"bike_id":"82c40f62-de8a-49cf-8e0a-14d36bc34cfa","system_id":"levelo_inurba_marseille","lat":43.302008,"lon":5.394694,"is_reserved":false,"is_disabled":false,"rental_uris":{"android":"levelo://app?vid=82c40f62-de8a-49cf-8e0a-14d36bc34cfa","ios":"levelo://app?vid=82c40f62-de8a-49cf-8e0a-14d36bc34cfa"},"vehicle_type_id":"4","last_reported":1702670870,"current_range_meters":30000,"station_id":"ce4bh0p2rcd13ifvqd70","pricing_plan_id":"free"},{"bike_id":"b04edbf8-01e7-4a2d-a242-054afcfadb4e","system_id":"levelo_inurba_marseille","lat":43.294153,"lon":5.386305,"is_reserved":false,"is_disabled":false,"rental_uris":{"android":"levelo://app?vid=b04edbf8-01e7-4a2d-a242-054afcfadb4e","ios":"levelo://app?vid=b04edbf8-01e7-4a2d-a242-054afcfadb4e"},"vehicle_type_id":"4","last_reported":1702670870,"current_range_meters":11200,"station_id":"ce4bh2h2rcd13ifvqdh0","pricing_plan_id":"free"},{"bike_id":"f7b22461-b901-42a5-815f-92baa7a58a24","system_id":"levelo_inurba_marseille","lat":43.2942,"lon":5.38625,"is_reserved":false,"is_disabled":false,"rental_uris":{"android":"levelo://app?vid=f7b22461-b901-42a5-815f-92baa7a58a24","ios":"levelo://app?vid=f7b22461-b901-42a5-815f-92baa7a58a24"},"vehicle_type_id":"4","last_reported":1702670870,"current_range_meters":0,"station_id":"ce4bh2h2rcd13ifvqdh0","pricing_plan_id":"free"},{"bike_id":"04ba313f-ba9a-42e5-8d9d-f5ed74437f94","system_id":"levelo_inurba_marseille","lat":43.294153,"lon":5.386305,"is_reserved":false,"is_disabled":false,"rental_uris":{"android":"levelo://app?vid=04ba313f-ba9a-42e5-8d9d-f5ed74437f94","ios":"levelo://app?vid=04ba313f-ba9a-42e5-8d9d-f5ed74437f94"},"vehicle_type_id":"4","last_reported":1702670870,"current_range_meters":400,"station_id":"ce4bh2h2rcd13ifvqdh0","pricing_plan_id":"free"},{"bike_id":"e929ae16-9cd3-425c-bf31-fe2e5eb5c140","system_id":"levelo_inurba_marseille","lat":43.29266,"lon":5.3844,"is_reserved":false,"is_disabled":false,"rental_uris":{"android":"levelo://app?vid=e929ae16-9cd3-425c-bf31-fe2e5eb5c140","ios":"levelo://app?vid=e929ae16-9cd3-425c-bf31-fe2e5eb5c140"},"vehicle_type_id":"4","last_reported":1702670870,"current_range_meters":13600,"station_id":"ce4bh692rcd13ifvqea0","pricing_plan_id":"free"},{"bike_id":"a9f2c644-c362-495e-a7e9-3f3de2c37cfa","system_id":"levelo_inurba_marseille","lat":43.29275,"lon":5.38463,"is_reserved":false,"is_disabled":false,"rental_uris":{"android":"levelo://app?vid=a9f2c644-c362-495e-a7e9-3f3de2c37cfa","ios":"levelo://app?vid=a9f2c644-c362-495e-a7e9-3f3de2c37cfa"},"vehicle_type_id":"4","last_reported":1702670870,"current_range_meters":13200,"station_id":"ce4bh692rcd13ifvqea0","pricing_plan_id":"free"},{"bike_id":"92bab57e-24ac-4363-ae0f-d449672c101a","system_id":"levelo_inurba_marseille","lat":43.29262,"lon":5.38438,"is_reserved":false,"is_disabled":false,"rental_uris":{"android":"levelo://app?vid=92bab57e-24ac-4363-ae0f-d449672c101a","ios":"levelo://app?vid=92bab57e-24ac-4363-ae0f-d449672c101a"},"vehicle_type_id":"4","last_reported":1702670870,"current_range_meters":400,"station_id":"ce4bh692rcd13ifvqea0","pricing_plan_id":"free"},{"bike_id":"ea5dbc3f-18b7-46d0-97bb-929132b82487","system_id":"levelo_inurba_marseille","lat":43.292642,"lon":5.384254,"is_reserved":false,"is_disabled":false,"rental_uris":{"android":"levelo://app?vid=ea5dbc3f-18b7-46d0-97bb-929132b82487","ios":"levelo://app?vid=ea5dbc3f-18b7-46d0-97bb-929132b82487"},"vehicle_type_id":"4","last_reported":1702670870,"current_range_meters":18800,"station_id":"ce4bh692rcd13ifvqea0","pricing_plan_id":"free"},{"bike_id":"5186915c-e84f-462b-91bd-fbae9cc83056","system_id":"levelo_inurba_marseille","lat":43.330442,"lon":5.389148,"is_reserved":false,"is_disabled":false,"rental_uris":{"android":"levelo://app?vid=5186915c-e84f-462b-91bd-fbae9cc83056","ios":"levelo://app?vid=5186915c-e84f-462b-91bd-fbae9cc83056"},"vehicle_type_id":"4","last_reported":1702670870,"current_range_meters":0,"station_id":"ce4bhr92rcd13ifvqhrg","pricing_plan_id":"free"},{"bike_id":"8395c2af-866b-4e5c-9699-2f5b3e3585f4","system_id":"levelo_inurba_marseille","lat":43.33044,"lon":5.38913,"is_reserved":false,"is_disabled":false,"rental_uris":{"android":"levelo://app?vid=8395c2af-866b-4e5c-9699-2f5b3e3585f4","ios":"levelo://app?vid=8395c2af-866b-4e5c-9699-2f5b3e3585f4"},"vehicle_type_id":"4","last_reported":1702670870,"current_range_meters":13200,"station_id":"ce4bhr92rcd13ifvqhrg","pricing_plan_id":"free"},{"bike_id":"f2c160a8-4c8e-4357-a555-9fdd0cb55b4f","system_id":"levelo_inurba_marseille","lat":43.33045,"lon":5.38916,"is_reserved":false,"is_disabled":false,"rental_uris":{"android":"levelo://app?vid=f2c160a8-4c8e-4357-a555-9fdd0cb55b4f","ios":"levelo://app?vid=f2c160a8-4c8e-4357-a555-9fdd0cb55b4f"},"vehicle_type_id":"4","last_reported":1702670870,"current_range_meters":19600,"station_id":"ce4bhr92rcd13ifvqhrg","pricing_plan_id":"free"},{"bike_id":"f69ad9ef-ec36-434f-9347-a0803cd99e93","system_id":"levelo_inurba_marseille","lat":43.290104,"lon":5.356111,"is_reserved":false,"is_disabled":false,"rental_uris":{"android":"levelo://app?vid=f69ad9ef-ec36-434f-9347-a0803cd99e93","ios":"levelo://app?vid=f69ad9ef-ec36-434f-9347-a0803cd99e93"},"vehicle_type_id":"4","last_reported":1702670870,"current_range_meters":0,"station_id":"ce4bhb92rcd13ifvqen0","pricing_plan_id":"free"},{"bike_id":"46c4ecb1-08fb-41ae-8344-2f9e1bee96a0","system_id":"levelo_inurba_marseille","lat":43.295169,"lon":5.390426,"is_reserved":false,"is_disabled":false,"rental_uris":{"android":"levelo://app?vid=46c4ecb1-08fb-41ae-8344-2f9e1bee96a0","ios":"levelo://app?vid=46c4ecb1-08fb-41ae-8344-2f9e1bee96a0"},"vehicle_type_id":"4","last_reported":1702670870,"current_range_meters":13600,"station_id":"ce4bh3p2rcd13ifvqdp0","pricing_plan_id":"free"},{"bike_id":"8c1ca4c2-ff10-4306-8b0d-2cc5f6d333eb","system_id":"levelo_inurba_marseille","lat":43.295169,"lon":5.390426,"is_reserved":false,"is_disabled":false,"rental_uris":{"android":"levelo://app?vid=8c1ca4c2-ff10-4306-8b0d-2cc5f6d333eb","ios":"levelo://app?vid=8c1ca4c2-ff10-4306-8b0d-2cc5f6d333eb"},"vehicle_type_id":"4","last_reported":1702670870,"current_range_meters":4800,"station_id":"ce4bh3p2rcd13ifvqdp0","pricing_plan_id":"free"},{"bike_id":"d280a117-ab3b-4435-9ecf-aea32a92e53e","system_id":"levelo_inurba_marseille","lat":43.297815,"lon":5.393548,"is_reserved":false,"is_disabled":false,"rental_uris":{"android":"levelo://app?vid=d280a117-ab3b-4435-9ecf-aea32a92e53e","ios":"levelo://app?vid=d280a117-ab3b-4435-9ecf-aea32a92e53e"},"vehicle_type_id":"4","last_reported":1702670870,"current_range_meters":28800,"station_id":"chh1huq6cuj3fo74tm60","pricing_plan_id":"free"},{"bike_id":"f1635740-00e0-45d3-bb50-27ef11f19acd","system_id":"levelo_inurba_marseille","lat":43.290995,"lon":5.381361,"is_reserved":false,"is_disabled":false,"rental_uris":{"android":"levelo://app?vid=f1635740-00e0-45d3-bb50-27ef11f19acd","ios":"levelo://app?vid=f1635740-00e0-45d3-bb50-27ef11f19acd"},"vehicle_type_id":"4","last_reported":1702670870,"current_range_meters":5200,"station_id":"ce4bh512rcd13ifvqe2g","pricing_plan_id":"free"},{"bike_id":"a2d250c5-c759-4ef0-a70e-5f08346cd746","system_id":"levelo_inurba_marseille","lat":43.295169,"lon":5.390426,"is_reserved":false,"is_disabled":false,"rental_uris":{"android":"levelo://app?vid=a2d250c5-c759-4ef0-a70e-5f08346cd746","ios":"levelo://app?vid=a2d250c5-c759-4ef0-a70e-5f08346cd746"},"vehicle_type_id":"4","last_reported":1702670870,"current_range_meters":800,"station_id":"ce4bh3p2rcd13ifvqdp0","pricing_plan_id":"free"},{"bike_id":"cc2e6fcb-1e16-4144-970e-6582df67101c","system_id":"levelo_inurba_marseille","lat":43.289743,"lon":5.378304,"is_reserved":false,"is_disabled":false,"rental_uris":{"android":"levelo://app?vid=cc2e6fcb-1e16-4144-970e-6582df67101c","ios":"levelo://app?vid=cc2e6fcb-1e16-4144-970e-6582df67101c"},"vehicle_type_id":"4","last_reported":1702670870,"current_range_meters":15600,"station_id":"ce4bh9p2rcd13ifvqed0","pricing_plan_id":"free"},{"bike_id":"a107fffb-8671-4686-90f2-0b35941ddbc3","system_id":"levelo_inurba_marseille","lat":43.289741,"lon":5.378306,"is_reserved":false,"is_disabled":false,"rental_uris":{"android":"levelo://app?vid=a107fffb-8671-4686-90f2-0b35941ddbc3","ios":"levelo://app?vid=a107fffb-8671-4686-90f2-0b35941ddbc3"},"vehicle_type_id":"4","last_reported":1702670870,"current_range_meters":29600,"station_id":"ce4bh9p2rcd13ifvqed0","pricing_plan_id":"free"},{"bike_id":"0636fce3-e426-4bbd-bd7e-19b99aa7dfb2","system_id":"levelo_inurba_marseille","lat":43.289741,"lon":5.378306,"is_reserved":false,"is_disabled":false,"rental_uris":{"android":"levelo://app?vid=0636fce3-e426-4bbd-bd7e-19b99aa7dfb2","ios":"levelo://app?vid=0636fce3-e426-4bbd-bd7e-19b99aa7dfb2"},"vehicle_type_id":"4","last_reported":1702670870,"current_range_meters":8800,"station_id":"ce4bh9p2rcd13ifvqed0","pricing_plan_id":"free"},{"bike_id":"5a78434f-43ea-4089-a059-3e5576e30f1d","system_id":"levelo_inurba_marseille","lat":43.289741,"lon":5.378306,"is_reserved":false,"is_disabled":false,"rental_uris":{"android":"levelo://app?vid=5a78434f-43ea-4089-a059-3e5576e30f1d","ios":"levelo://app?vid=5a78434f-43ea-4089-a059-3e5576e30f1d"},"vehicle_type_id":"4","last_reported":1702670870,"current_range_meters":27200,"station_id":"ce4bh9p2rcd13ifvqed0","pricing_plan_id":"free"},{"bike_id":"9125335d-b385-4577-8fe1-9e5ab1a511f0","system_id":"levelo_inurba_marseille","lat":43.289743,"lon":5.378304,"is_reserved":false,"is_disabled":false,"rental_uris":{"android":"levelo://app?vid=9125335d-b385-4577-8fe1-9e5ab1a511f0","ios":"levelo://app?vid=9125335d-b385-4577-8fe1-9e5ab1a511f0"},"vehicle_type_id":"4","last_reported":1702670870,"current_range_meters":30000,"station_id":"ce4bh9p2rcd13ifvqed0","pricing_plan_id":"free"},{"bike_id":"a875caa1-d51d-423c-a94b-8fea39fd0e7d","system_id":"levelo_inurba_marseille","lat":43.289743,"lon":5.378304,"is_reserved":false,"is_disabled":false,"rental_uris":{"android":"levelo://app?vid=a875caa1-d51d-423c-a94b-8fea39fd0e7d","ios":"levelo://app?vid=a875caa1-d51d-423c-a94b-8fea39fd0e7d"},"vehicle_type_id":"4","last_reported":1702670870,"current_range_meters":30400,"station_id":"ce4bh9p2rcd13ifvqed0","pricing_plan_id":"free"},{"bike_id":"ca6bc7f5-06fc-474b-b945-1e78dcfb6a86","system_id":"levelo_inurba_marseille","lat":43.289743,"lon":5.378304,"is_reserved":false,"is_disabled":false,"rental_uris":{"android":"levelo://app?vid=ca6bc7f5-06fc-474b-b945-1e78dcfb6a86","ios":"levelo://app?vid=ca6bc7f5-06fc-474b-b945-1e78dcfb6a86"},"vehicle_type_id":"4","last_reported":1702670870,"current_range_meters":28400,"station_id":"ce4bh9p2rcd13ifvqed0","pricing_plan_id":"free"},{"bike_id":"fc78cc6a-f9da-4684-86ce-2d41b1094757","system_id":"levelo_inurba_marseille","lat":43.289743,"lon":5.378304,"is_reserved":false,"is_disabled":false,"rental_uris":{"android":"levelo://app?vid=fc78cc6a-f9da-4684-86ce-2d41b1094757","ios":"levelo://app?vid=fc78cc6a-f9da-4684-86ce-2d41b1094757"},"vehicle_type_id":"4","last_reported":1702670870,"current_range_meters":30800,"station_id":"ce4bh9p2rcd13ifvqed0","pricing_plan_id":"free"},{"bike_id":"2aa429d3-441f-47df-9ff8-d18fbe4d8e61","system_id":"levelo_inurba_marseille","lat":43.330442,"lon":5.389148,"is_reserved":false,"is_disabled":false,"rental_uris":{"android":"levelo://app?vid=2aa429d3-441f-47df-9ff8-d18fbe4d8e61","ios":"levelo://app?vid=2aa429d3-441f-47df-9ff8-d18fbe4d8e61"},"vehicle_type_id":"4","last_reported":1702670870,"current_range_meters":19600,"station_id":"ce4bhr92rcd13ifvqhrg","pricing_plan_id":"free"},{"bike_id":"e18170da-18aa-4d4d-a9ee-bd5c5694bf9a","system_id":"levelo_inurba_marseille","lat":43.295169,"lon":5.390426,"is_reserved":false,"is_disabled":false,"rental_uris":{"android":"levelo://app?vid=e18170da-18aa-4d4d-a9ee-bd5c5694bf9a","ios":"levelo://app?vid=e18170da-18aa-4d4d-a9ee-bd5c5694bf9a"},"vehicle_type_id":"4","last_reported":1702670870,"current_range_meters":16800,"station_id":"ce4bh3p2rcd13ifvqdp0","pricing_plan_id":"free"},{"bike_id":"93ddb065-a271-41e8-9d16-a49af23b2332","system_id":"levelo_inurba_marseille","lat":43.31281,"lon":5.40154,"is_reserved":false,"is_disabled":false,"rental_uris":{"android":"levelo://app?vid=93ddb065-a271-41e8-9d16-a49af23b2332","ios":"levelo://app?vid=93ddb065-a271-41e8-9d16-a49af23b2332"},"vehicle_type_id":"4","last_reported":1702670870,"current_range_meters":10000,"station_id":"ce4bh092rcd13ifvqd30","pricing_plan_id":"free"},{"bike_id":"f0cd831c-cfb9-44c7-9487-103b6df223ca","system_id":"levelo_inurba_marseille","lat":43.337437,"lon":5.374596,"is_reserved":false,"is_disabled":false,"rental_uris":{"android":"levelo://app?vid=f0cd831c-cfb9-44c7-9487-103b6df223ca","ios":"levelo://app?vid=f0cd831c-cfb9-44c7-9487-103b6df223ca"},"vehicle_type_id":"4","last_reported":1702670870,"current_range_meters":29600,"station_id":"","pricing_plan_id":"free"},{"bike_id":"ef80ceab-dc9f-4b6c-8f52-707d5177f481","system_id":"levelo_inurba_marseille","lat":43.337503,"lon":5.374523,"is_reserved":false,"is_disabled":false,"rental_uris":{"android":"levelo://app?vid=ef80ceab-dc9f-4b6c-8f52-707d5177f481","ios":"levelo://app?vid=ef80ceab-dc9f-4b6c-8f52-707d5177f481"},"vehicle_type_id":"4","last_reported":1702670870,"current_range_meters":31200,"station_id":"","pricing_plan_id":"free"},{"bike_id":"af9bd255-1c38-4485-bc89-023488d259a8","system_id":"levelo_inurba_marseille","lat":43.30923,"lon":5.40148,"is_reserved":false,"is_disabled":false,"rental_uris":{"android":"levelo://app?vid=af9bd255-1c38-4485-bc89-023488d259a8","ios":"levelo://app?vid=af9bd255-1c38-4485-bc89-023488d259a8"},"vehicle_type_id":"4","last_reported":1702670870,"current_range_meters":9600,"station_id":"ce4bgvp2rcd13ifvqct0","pricing_plan_id":"free"},{"bike_id":"a15a6f31-d26a-498f-aab0-fad2629bd007","system_id":"levelo_inurba_marseille","lat":43.337535,"lon":5.37446,"is_reserved":false,"is_disabled":false,"rental_uris":{"android":"levelo://app?vid=a15a6f31-d26a-498f-aab0-fad2629bd007","ios":"levelo://app?vid=a15a6f31-d26a-498f-aab0-fad2629bd007"},"vehicle_type_id":"4","last_reported":1702670870,"current_range_meters":1600,"station_id":"","pricing_plan_id":"free"},{"bike_id":"9e5231e6-9497-41e6-bfd0-a7d79b8fad43","system_id":"levelo_inurba_marseille","lat":43.33756,"lon":5.3746,"is_reserved":false,"is_disabled":false,"rental_uris":{"android":"levelo://app?vid=9e5231e6-9497-41e6-bfd0-a7d79b8fad43","ios":"levelo://app?vid=9e5231e6-9497-41e6-bfd0-a7d79b8fad43"},"vehicle_type_id":"4","last_reported":1702670870,"current_range_meters":28000,"station_id":"","pricing_plan_id":"free"},{"bike_id":"adfcfe3d-f0bb-41e3-92b3-fae985cb2ef0","system_id":"levelo_inurba_marseille","lat":43.33757,"lon":5.37471,"is_reserved":false,"is_disabled":false,"rental_uris":{"android":"levelo://app?vid=adfcfe3d-f0bb-41e3-92b3-fae985cb2ef0","ios":"levelo://app?vid=adfcfe3d-f0bb-41e3-92b3-fae985cb2ef0"},"vehicle_type_id":"4","last_reported":1702670870,"current_range_meters":29200,"station_id":"","pricing_plan_id":"free"},{"bike_id":"930bba3a-4350-44cf-bb9b-310a6cbdb5ef","system_id":"levelo_inurba_marseille","lat":43.337601,"lon":5.374549,"is_reserved":false,"is_disabled":false,"rental_uris":{"android":"levelo://app?vid=930bba3a-4350-44cf-bb9b-310a6cbdb5ef","ios":"levelo://app?vid=930bba3a-4350-44cf-bb9b-310a6cbdb5ef"},"vehicle_type_id":"4","last_reported":1702670870,"current_range_meters":27200,"station_id":"","pricing_plan_id":"free"},{"bike_id":"990df8a7-4201-46ee-b4d8-44ba6bb9a2f4","system_id":"levelo_inurba_marseille","lat":43.306412,"lon":5.401035,"is_reserved":false,"is_disabled":false,"rental_uris":{"android":"levelo://app?vid=990df8a7-4201-46ee-b4d8-44ba6bb9a2f4","ios":"levelo://app?vid=990df8a7-4201-46ee-b4d8-44ba6bb9a2f4"},"vehicle_type_id":"4","last_reported":1702670870,"current_range_meters":28000,"station_id":"ce4bh112rcd13ifvqda0","pricing_plan_id":"free"},{"bike_id":"b694963e-fc6a-4611-9c63-08761d1bec54","system_id":"levelo_inurba_marseille","lat":43.30642,"lon":5.401031,"is_reserved":false,"is_disabled":false,"rental_uris":{"android":"levelo://app?vid=b694963e-fc6a-4611-9c63-08761d1bec54","ios":"levelo://app?vid=b694963e-fc6a-4611-9c63-08761d1bec54"},"vehicle_type_id":"4","last_reported":1702670870,"current_range_meters":16000,"station_id":"ce4bh112rcd13ifvqda0","pricing_plan_id":"free"},{"bike_id":"811eac48-7c36-4ce9-9a27-879aa1e1514e","system_id":"levelo_inurba_marseille","lat":43.33767,"lon":5.37435,"is_reserved":false,"is_disabled":false,"rental_uris":{"android":"levelo://app?vid=811eac48-7c36-4ce9-9a27-879aa1e1514e","ios":"levelo://app?vid=811eac48-7c36-4ce9-9a27-879aa1e1514e"},"vehicle_type_id":"4","last_reported":1702670870,"current_range_meters":28400,"station_id":"","pricing_plan_id":"free"},{"bike_id":"1b1bd80c-92ec-4f8e-8e80-a125315f4b22","system_id":"levelo_inurba_marseille","lat":43.337652,"lon":5.374468,"is_reserved":false,"is_disabled":false,"rental_uris":{"android":"levelo://app?vid=1b1bd80c-92ec-4f8e-8e80-a125315f4b22","ios":"levelo://app?vid=1b1bd80c-92ec-4f8e-8e80-a125315f4b22"},"vehicle_type_id":"4","last_reported":1702670870,"current_range_meters":9200,"station_id":"","pricing_plan_id":"free"},{"bike_id":"ae89338c-287d-45ea-8587-d837ddc6d5b1","system_id":"levelo_inurba_marseille","lat":43.301117,"lon":5.398795,"is_reserved":false,"is_disabled":false,"rental_uris":{"android":"levelo://app?vid=ae89338c-287d-45ea-8587-d837ddc6d5b1","ios":"levelo://app?vid=ae89338c-287d-45ea-8587-d837ddc6d5b1"},"vehicle_type_id":"4","last_reported":1702670870,"current_range_meters":19600,"station_id":"ce4bh0h2rcd13ifvqd40","pricing_plan_id":"free"},{"bike_id":"08b866c4-fc47-4bdc-bc5f-156dae762e96","system_id":"levelo_inurba_marseille","lat":43.28727,"lon":5.36078,"is_reserved":false,"is_disabled":false,"rental_uris":{"android":"levelo://app?vid=08b866c4-fc47-4bdc-bc5f-156dae762e96","ios":"levelo://app?vid=08b866c4-fc47-4bdc-bc5f-156dae762e96"},"vehicle_type_id":"4","last_reported":1702670870,"current_range_meters":6800,"station_id":"cki0cbj6b192h4jlfktg","pricing_plan_id":"free"},{"bike_id":"ffbb890e-6b64-4346-80d0-1e1b077ee7b5","system_id":"levelo_inurba_marseille","lat":43.298681,"lon":5.397225,"is_reserved":false,"is_disabled":false,"rental_uris":{"android":"levelo://app?vid=ffbb890e-6b64-4346-80d0-1e1b077ee7b5","ios":"levelo://app?vid=ffbb890e-6b64-4346-80d0-1e1b077ee7b5"},"vehicle_type_id":"4","last_reported":1702670870,"current_range_meters":7200,"station_id":"ce4bh0h2rcd13ifvqd50","pricing_plan_id":"free"},{"bike_id":"4189c09d-d993-419c-b27b-d4e06aeb42f7","system_id":"levelo_inurba_marseille","lat":43.286961,"lon":5.373785,"is_reserved":false,"is_disabled":false,"rental_uris":{"android":"levelo://app?vid=4189c09d-d993-419c-b27b-d4e06aeb42f7","ios":"levelo://app?vid=4189c09d-d993-419c-b27b-d4e06aeb42f7"},"vehicle_type_id":"4","last_reported":1702670870,"current_range_meters":30400,"station_id":"ce4bh3p2rcd13ifvqdq0","pricing_plan_id":"free"},{"bike_id":"e932364f-b0af-4773-8718-59c837f05f02","system_id":"levelo_inurba_marseille","lat":43.295194,"lon":5.39397,"is_reserved":false,"is_disabled":false,"rental_uris":{"android":"levelo://app?vid=e932364f-b0af-4773-8718-59c837f05f02","ios":"levelo://app?vid=e932364f-b0af-4773-8718-59c837f05f02"},"vehicle_type_id":"4","last_reported":1702670870,"current_range_meters":4400,"station_id":"ce4bh292rcd13ifvqdf0","pricing_plan_id":"free"},{"bike_id":"f2a668c4-cecf-4528-b46f-d71b13153779","system_id":"levelo_inurba_marseille","lat":43.298676,"lon":5.397491,"is_reserved":false,"is_disabled":false,"rental_uris":{"android":"levelo://app?vid=f2a668c4-cecf-4528-b46f-d71b13153779","ios":"levelo://app?vid=f2a668c4-cecf-4528-b46f-d71b13153779"},"vehicle_type_id":"4","last_reported":1702670870,"current_range_meters":0,"station_id":"ce4bh0h2rcd13ifvqd50","pricing_plan_id":"free"},{"bike_id":"26bbe45f-9192-44ab-88be-9b699697c95b","system_id":"levelo_inurba_marseille","lat":43.295196,"lon":5.39397,"is_reserved":false,"is_disabled":false,"rental_uris":{"android":"levelo://app?vid=26bbe45f-9192-44ab-88be-9b699697c95b","ios":"levelo://app?vid=26bbe45f-9192-44ab-88be-9b699697c95b"},"vehicle_type_id":"4","last_reported":1702670870,"current_range_meters":24400,"station_id":"ce4bh292rcd13ifvqdf0","pricing_plan_id":"free"},{"bike_id":"89c49eae-5d74-4692-a006-485741784a6c","system_id":"levelo_inurba_marseille","lat":43.294153,"lon":5.386305,"is_reserved":false,"is_disabled":false,"rental_uris":{"android":"levelo://app?vid=89c49eae-5d74-4692-a006-485741784a6c","ios":"levelo://app?vid=89c49eae-5d74-4692-a006-485741784a6c"},"vehicle_type_id":"4","last_reported":1702670870,"current_range_meters":8000,"station_id":"ce4bh2h2rcd13ifvqdh0","pricing_plan_id":"free"},{"bike_id":"1b604e8e-1e44-44b6-acab-672a198b82a8","system_id":"levelo_inurba_marseille","lat":43.295143,"lon":5.39403,"is_reserved":false,"is_disabled":false,"rental_uris":{"android":"levelo://app?vid=1b604e8e-1e44-44b6-acab-672a198b82a8","ios":"levelo://app?vid=1b604e8e-1e44-44b6-acab-672a198b82a8"},"vehicle_type_id":"4","last_reported":1702670870,"current_range_meters":0,"station_id":"ce4bh292rcd13ifvqdf0","pricing_plan_id":"free"},{"bike_id":"d1c621e4-534a-492c-80c7-80f7a03d6f06","system_id":"levelo_inurba_marseille","lat":43.290265,"lon":5.386363,"is_reserved":false,"is_disabled":false,"rental_uris":{"android":"levelo://app?vid=d1c621e4-534a-492c-80c7-80f7a03d6f06","ios":"levelo://app?vid=d1c621e4-534a-492c-80c7-80f7a03d6f06"},"vehicle_type_id":"4","last_reported":1702670870,"current_range_meters":0,"station_id":"ce4bh4p2rcd13ifvqe0g","pricing_plan_id":"free"},{"bike_id":"a872564a-f200-4c89-8a26-3d2b5a8b8cad","system_id":"levelo_inurba_marseille","lat":43.29028,"lon":5.38649,"is_reserved":false,"is_disabled":false,"rental_uris":{"android":"levelo://app?vid=a872564a-f200-4c89-8a26-3d2b5a8b8cad","ios":"levelo://app?vid=a872564a-f200-4c89-8a26-3d2b5a8b8cad"},"vehicle_type_id":"4","last_reported":1702670870,"current_range_meters":18800,"station_id":"ce4bh4p2rcd13ifvqe0g","pricing_plan_id":"free"},{"bike_id":"1d7cc9e5-177b-48ce-9cdd-cb6120014765","system_id":"levelo_inurba_marseille","lat":43.316878,"lon":5.404633,"is_reserved":false,"is_disabled":false,"rental_uris":{"android":"levelo://app?vid=1d7cc9e5-177b-48ce-9cdd-cb6120014765","ios":"levelo://app?vid=1d7cc9e5-177b-48ce-9cdd-cb6120014765"},"vehicle_type_id":"4","last_reported":1702670870,"current_range_meters":6800,"station_id":"ce4bh012rcd13ifvqd00","pricing_plan_id":"free"},{"bike_id":"e955a040-6763-4c99-9f3f-c57890b7c48a","system_id":"levelo_inurba_marseille","lat":43.291994,"lon":5.392907,"is_reserved":false,"is_disabled":false,"rental_uris":{"android":"levelo://app?vid=e955a040-6763-4c99-9f3f-c57890b7c48a","ios":"levelo://app?vid=e955a040-6763-4c99-9f3f-c57890b7c48a"},"vehicle_type_id":"4","last_reported":1702670870,"current_range_meters":23600,"station_id":"ce4bh192rcd13ifvqdd0","pricing_plan_id":"free"},{"bike_id":"5844ceb8-15eb-4e80-acbd-5a0ab3df7356","system_id":"levelo_inurba_marseille","lat":43.284538,"lon":5.358657,"is_reserved":false,"is_disabled":false,"rental_uris":{"android":"levelo://app?vid=5844ceb8-15eb-4e80-acbd-5a0ab3df7356","ios":"levelo://app?vid=5844ceb8-15eb-4e80-acbd-5a0ab3df7356"},"vehicle_type_id":"4","last_reported":1702670870,"current_range_meters":29200,"station_id":"ce4bhah2rcd13ifvqei0","pricing_plan_id":"free"},{"bike_id":"58081b01-b4a0-42d0-b0f3-cffea8a952d4","system_id":"levelo_inurba_marseille","lat":43.28616,"lon":5.35108,"is_reserved":false,"is_disabled":false,"rental_uris":{"android":"levelo://app?vid=58081b01-b4a0-42d0-b0f3-cffea8a952d4","ios":"levelo://app?vid=58081b01-b4a0-42d0-b0f3-cffea8a952d4"},"vehicle_type_id":"4","last_reported":1702670870,"current_range_meters":2000,"station_id":"ce4bhch2rcd13ifvqeug","pricing_plan_id":"free"},{"bike_id":"2c7497a1-17a9-4008-9bc7-72b8b83ba876","system_id":"levelo_inurba_marseille","lat":43.28616,"lon":5.35105,"is_reserved":false,"is_disabled":false,"rental_uris":{"android":"levelo://app?vid=2c7497a1-17a9-4008-9bc7-72b8b83ba876","ios":"levelo://app?vid=2c7497a1-17a9-4008-9bc7-72b8b83ba876"},"vehicle_type_id":"4","last_reported":1702670870,"current_range_meters":18000,"station_id":"ce4bhch2rcd13ifvqeug","pricing_plan_id":"free"},{"bike_id":"f6a8b12b-f6d4-46ba-939d-74c18fccd09b","system_id":"levelo_inurba_marseille","lat":43.28612,"lon":5.35107,"is_reserved":false,"is_disabled":false,"rental_uris":{"android":"levelo://app?vid=f6a8b12b-f6d4-46ba-939d-74c18fccd09b","ios":"levelo://app?vid=f6a8b12b-f6d4-46ba-939d-74c18fccd09b"},"vehicle_type_id":"4","last_reported":1702670870,"current_range_meters":19600,"station_id":"ce4bhch2rcd13ifvqeug","pricing_plan_id":"free"},{"bike_id":"5664e5a3-13b0-4e70-85c3-ef220222052e","system_id":"levelo_inurba_marseille","lat":43.28614,"lon":5.35098,"is_reserved":false,"is_disabled":false,"rental_uris":{"android":"levelo://app?vid=5664e5a3-13b0-4e70-85c3-ef220222052e","ios":"levelo://app?vid=5664e5a3-13b0-4e70-85c3-ef220222052e"},"vehicle_type_id":"4","last_reported":1702670870,"current_range_meters":4400,"station_id":"ce4bhch2rcd13ifvqeug","pricing_plan_id":"free"},{"bike_id":"975ce48b-5ee6-4141-baec-20904ecd16ae","system_id":"levelo_inurba_marseille","lat":43.283998,"lon":5.375062,"is_reserved":false,"is_disabled":false,"rental_uris":{"android":"levelo://app?vid=975ce48b-5ee6-4141-baec-20904ecd16ae","ios":"levelo://app?vid=975ce48b-5ee6-4141-baec-20904ecd16ae"},"vehicle_type_id":"4","last_reported":1702670870,"current_range_meters":0,"station_id":"ce4bh412rcd13ifvqds0","pricing_plan_id":"free"},{"bike_id":"1361d248-9816-48d1-a0a4-d6ae7a71db1c","system_id":"levelo_inurba_marseille","lat":43.295713,"lon":5.399639,"is_reserved":false,"is_disabled":false,"rental_uris":{"android":"levelo://app?vid=1361d248-9816-48d1-a0a4-d6ae7a71db1c","ios":"levelo://app?vid=1361d248-9816-48d1-a0a4-d6ae7a71db1c"},"vehicle_type_id":"4","last_reported":1702670870,"current_range_meters":18400,"station_id":"ce4bh312rcd13ifvqdj0","pricing_plan_id":"free"},{"bike_id":"b3fceda4-b1de-4f34-be8c-58d508461659","system_id":"levelo_inurba_marseille","lat":43.295713,"lon":5.399639,"is_reserved":false,"is_disabled":false,"rental_uris":{"android":"levelo://app?vid=b3fceda4-b1de-4f34-be8c-58d508461659","ios":"levelo://app?vid=b3fceda4-b1de-4f34-be8c-58d508461659"},"vehicle_type_id":"4","last_reported":1702670870,"current_range_meters":10800,"station_id":"ce4bh312rcd13ifvqdj0","pricing_plan_id":"free"},{"bike_id":"16373837-b161-407f-b0fa-3d0f27559010","system_id":"levelo_inurba_marseille","lat":43.323464,"lon":5.406297,"is_reserved":false,"is_disabled":false,"rental_uris":{"android":"levelo://app?vid=16373837-b161-407f-b0fa-3d0f27559010","ios":"levelo://app?vid=16373837-b161-407f-b0fa-3d0f27559010"},"vehicle_type_id":"4","last_reported":1702670870,"current_range_meters":30800,"station_id":"ce4bhq92rcd13ifvqhjg","pricing_plan_id":"free"},{"bike_id":"c69c6207-4af6-411f-b2b5-2a57e0ff77db","system_id":"levelo_inurba_marseille","lat":43.297946,"lon":5.404063,"is_reserved":false,"is_disabled":false,"rental_uris":{"android":"levelo://app?vid=c69c6207-4af6-411f-b2b5-2a57e0ff77db","ios":"levelo://app?vid=c69c6207-4af6-411f-b2b5-2a57e0ff77db"},"vehicle_type_id":"4","last_reported":1702670870,"current_range_meters":25600,"station_id":"ce4bh112rcd13ifvqd90","pricing_plan_id":"free"},{"bike_id":"6688630f-0501-413f-8a03-a99ab4a5363f","system_id":"levelo_inurba_marseille","lat":43.282754,"lon":5.350519,"is_reserved":false,"is_disabled":false,"rental_uris":{"android":"levelo://app?vid=6688630f-0501-413f-8a03-a99ab4a5363f","ios":"levelo://app?vid=6688630f-0501-413f-8a03-a99ab4a5363f"},"vehicle_type_id":"4","last_reported":1702670870,"current_range_meters":24400,"station_id":"ce4bhbp2rcd13ifvqerg","pricing_plan_id":"free"},{"bike_id":"641711f6-d8eb-46b1-b838-05d1065ef742","system_id":"levelo_inurba_marseille","lat":43.28262,"lon":5.35074,"is_reserved":false,"is_disabled":false,"rental_uris":{"android":"levelo://app?vid=641711f6-d8eb-46b1-b838-05d1065ef742","ios":"levelo://app?vid=641711f6-d8eb-46b1-b838-05d1065ef742"},"vehicle_type_id":"4","last_reported":1702670870,"current_range_meters":0,"station_id":"ce4bhbp2rcd13ifvqerg","pricing_plan_id":"free"},{"bike_id":"1c879b48-8c27-4970-9dab-d312615135bd","system_id":"levelo_inurba_marseille","lat":43.283502,"lon":5.386471,"is_reserved":false,"is_disabled":false,"rental_uris":{"android":"levelo://app?vid=1c879b48-8c27-4970-9dab-d312615135bd","ios":"levelo://app?vid=1c879b48-8c27-4970-9dab-d312615135bd"},"vehicle_type_id":"4","last_reported":1702670870,"current_range_meters":400,"station_id":"ce4bh492rcd13ifvqdvg","pricing_plan_id":"free"},{"bike_id":"8cc5c416-4ab4-4c4f-a22f-0508774ed150","system_id":"levelo_inurba_marseille","lat":43.280382,"lon":5.369291,"is_reserved":false,"is_disabled":false,"rental_uris":{"android":"levelo://app?vid=8cc5c416-4ab4-4c4f-a22f-0508774ed150","ios":"levelo://app?vid=8cc5c416-4ab4-4c4f-a22f-0508774ed150"},"vehicle_type_id":"4","last_reported":1702670870,"current_range_meters":6000,"station_id":"ce4bha12rcd13ifvqef0","pricing_plan_id":"free"},{"bike_id":"8fb47eb9-d1de-47c3-9a4f-063d68d00739","system_id":"levelo_inurba_marseille","lat":43.280382,"lon":5.369291,"is_reserved":false,"is_disabled":false,"rental_uris":{"android":"levelo://app?vid=8fb47eb9-d1de-47c3-9a4f-063d68d00739","ios":"levelo://app?vid=8fb47eb9-d1de-47c3-9a4f-063d68d00739"},"vehicle_type_id":"4","last_reported":1702670870,"current_range_meters":30400,"station_id":"ce4bha12rcd13ifvqef0","pricing_plan_id":"free"},{"bike_id":"e04d024f-d664-423c-b963-3e21ecbf2e8d","system_id":"levelo_inurba_marseille","lat":43.280334,"lon":5.369456,"is_reserved":false,"is_disabled":false,"rental_uris":{"android":"levelo://app?vid=e04d024f-d664-423c-b963-3e21ecbf2e8d","ios":"levelo://app?vid=e04d024f-d664-423c-b963-3e21ecbf2e8d"},"vehicle_type_id":"4","last_reported":1702670870,"current_range_meters":26000,"station_id":"ce4bha12rcd13ifvqef0","pricing_plan_id":"free"},{"bike_id":"62c32a41-5c85-445e-a62d-27f8a6e615c9","system_id":"levelo_inurba_marseille","lat":43.280382,"lon":5.369291,"is_reserved":false,"is_disabled":false,"rental_uris":{"android":"levelo://app?vid=62c32a41-5c85-445e-a62d-27f8a6e615c9","ios":"levelo://app?vid=62c32a41-5c85-445e-a62d-27f8a6e615c9"},"vehicle_type_id":"4","last_reported":1702670870,"current_range_meters":27200,"station_id":"ce4bha12rcd13ifvqef0","pricing_plan_id":"free"},{"bike_id":"51c67930-0f81-4e81-8ba2-97e5f5bf98b2","system_id":"levelo_inurba_marseille","lat":43.280382,"lon":5.369291,"is_reserved":false,"is_disabled":false,"rental_uris":{"android":"levelo://app?vid=51c67930-0f81-4e81-8ba2-97e5f5bf98b2","ios":"levelo://app?vid=51c67930-0f81-4e81-8ba2-97e5f5bf98b2"},"vehicle_type_id":"4","last_reported":1702670870,"current_range_meters":10400,"station_id":"ce4bha12rcd13ifvqef0","pricing_plan_id":"free"},{"bike_id":"866b9d67-381b-4562-a7ca-4f4f676ccc7e","system_id":"levelo_inurba_marseille","lat":43.280382,"lon":5.369291,"is_reserved":false,"is_disabled":false,"rental_uris":{"android":"levelo://app?vid=866b9d67-381b-4562-a7ca-4f4f676ccc7e","ios":"levelo://app?vid=866b9d67-381b-4562-a7ca-4f4f676ccc7e"},"vehicle_type_id":"4","last_reported":1702670870,"current_range_meters":6000,"station_id":"ce4bha12rcd13ifvqef0","pricing_plan_id":"free"},{"bike_id":"f83ae381-294d-47eb-afa8-aef24f68f07f","system_id":"levelo_inurba_marseille","lat":43.28573,"lon":5.394992,"is_reserved":false,"is_disabled":false,"rental_uris":{"android":"levelo://app?vid=f83ae381-294d-47eb-afa8-aef24f68f07f","ios":"levelo://app?vid=f83ae381-294d-47eb-afa8-aef24f68f07f"},"vehicle_type_id":"4","last_reported":1702670870,"current_range_meters":23200,"station_id":"ce4bh292rcd13ifvqdg0","pricing_plan_id":"free"},{"bike_id":"68fba007-950c-47b9-bb32-05d913a635dc","system_id":"levelo_inurba_marseille","lat":43.28573,"lon":5.394992,"is_reserved":false,"is_disabled":false,"rental_uris":{"android":"levelo://app?vid=68fba007-950c-47b9-bb32-05d913a635dc","ios":"levelo://app?vid=68fba007-950c-47b9-bb32-05d913a635dc"},"vehicle_type_id":"4","last_reported":1702670870,"current_range_meters":11600,"station_id":"ce4bh292rcd13ifvqdg0","pricing_plan_id":"free"},{"bike_id":"e79e3b44-98ba-4ac6-835c-4d82dbc69092","system_id":"levelo_inurba_marseille","lat":43.326605,"lon":5.409903,"is_reserved":false,"is_disabled":false,"rental_uris":{"android":"levelo://app?vid=e79e3b44-98ba-4ac6-835c-4d82dbc69092","ios":"levelo://app?vid=e79e3b44-98ba-4ac6-835c-4d82dbc69092"},"vehicle_type_id":"4","last_reported":1702670870,"current_range_meters":27200,"station_id":"ce4bhpp2rcd13ifvqhgg","pricing_plan_id":"free"},{"bike_id":"026ae723-500f-4488-9074-1c785625255d","system_id":"levelo_inurba_marseille","lat":43.279087,"lon":5.380114,"is_reserved":false,"is_disabled":false,"rental_uris":{"android":"levelo://app?vid=026ae723-500f-4488-9074-1c785625255d","ios":"levelo://app?vid=026ae723-500f-4488-9074-1c785625255d"},"vehicle_type_id":"4","last_reported":1702670870,"current_range_meters":24000,"station_id":"ce4bhf92rcd13ifvqf50","pricing_plan_id":"free"},{"bike_id":"bf5bb9ac-8293-409d-96d3-ce25d14ae8e2","system_id":"levelo_inurba_marseille","lat":43.279087,"lon":5.380114,"is_reserved":false,"is_disabled":false,"rental_uris":{"android":"levelo://app?vid=bf5bb9ac-8293-409d-96d3-ce25d14ae8e2","ios":"levelo://app?vid=bf5bb9ac-8293-409d-96d3-ce25d14ae8e2"},"vehicle_type_id":"4","last_reported":1702670870,"current_range_meters":26000,"station_id":"ce4bhf92rcd13ifvqf50","pricing_plan_id":"free"},{"bike_id":"adc39c46-2333-4fdb-9dc0-bff8b4e05824","system_id":"levelo_inurba_marseille","lat":43.292571,"lon":5.409107,"is_reserved":false,"is_disabled":false,"rental_uris":{"android":"levelo://app?vid=adc39c46-2333-4fdb-9dc0-bff8b4e05824","ios":"levelo://app?vid=adc39c46-2333-4fdb-9dc0-bff8b4e05824"},"vehicle_type_id":"4","last_reported":1702670870,"current_range_meters":31200,"station_id":"ce4bh192rcd13ifvqdc0","pricing_plan_id":"free"},{"bike_id":"146727e3-1afa-4143-9d2e-46d420c240be","system_id":"levelo_inurba_marseille","lat":43.292566,"lon":5.409106,"is_reserved":false,"is_disabled":false,"rental_uris":{"android":"levelo://app?vid=146727e3-1afa-4143-9d2e-46d420c240be","ios":"levelo://app?vid=146727e3-1afa-4143-9d2e-46d420c240be"},"vehicle_type_id":"4","last_reported":1702670870,"current_range_meters":2400,"station_id":"ce4bh192rcd13ifvqdc0","pricing_plan_id":"free"},{"bike_id":"c40aebd4-c148-4d4d-9243-dcfaa5c4b14c","system_id":"levelo_inurba_marseille","lat":43.27615,"lon":5.36115,"is_reserved":false,"is_disabled":false,"rental_uris":{"android":"levelo://app?vid=c40aebd4-c148-4d4d-9243-dcfaa5c4b14c","ios":"levelo://app?vid=c40aebd4-c148-4d4d-9243-dcfaa5c4b14c"},"vehicle_type_id":"4","last_reported":1702670870,"current_range_meters":18000,"station_id":"ce4bgj92rcd13ifvqbe0","pricing_plan_id":"free"},{"bike_id":"9364e81e-0e92-4783-ab1e-61959cf6d510","system_id":"levelo_inurba_marseille","lat":43.27613,"lon":5.36105,"is_reserved":false,"is_disabled":false,"rental_uris":{"android":"levelo://app?vid=9364e81e-0e92-4783-ab1e-61959cf6d510","ios":"levelo://app?vid=9364e81e-0e92-4783-ab1e-61959cf6d510"},"vehicle_type_id":"4","last_reported":1702670870,"current_range_meters":10800,"station_id":"ce4bgj92rcd13ifvqbe0","pricing_plan_id":"free"},{"bike_id":"85967ac3-c8bf-4c4d-9f65-8f46db69571a","system_id":"levelo_inurba_marseille","lat":43.27611,"lon":5.36103,"is_reserved":false,"is_disabled":false,"rental_uris":{"android":"levelo://app?vid=85967ac3-c8bf-4c4d-9f65-8f46db69571a","ios":"levelo://app?vid=85967ac3-c8bf-4c4d-9f65-8f46db69571a"},"vehicle_type_id":"4","last_reported":1702670870,"current_range_meters":29200,"station_id":"ce4bgj92rcd13ifvqbe0","pricing_plan_id":"free"},{"bike_id":"60bbc476-e74c-400a-93d5-71ff320c465d","system_id":"levelo_inurba_marseille","lat":43.280784,"lon":5.396622,"is_reserved":false,"is_disabled":false,"rental_uris":{"android":"levelo://app?vid=60bbc476-e74c-400a-93d5-71ff320c465d","ios":"levelo://app?vid=60bbc476-e74c-400a-93d5-71ff320c465d"},"vehicle_type_id":"4","last_reported":1702670870,"current_range_meters":1600,"station_id":"ce4bho12rcd13ifvqh2g","pricing_plan_id":"free"},{"bike_id":"8e1e848d-d96b-4302-ada5-5df8b44d4656","system_id":"levelo_inurba_marseille","lat":43.30346,"lon":5.41896,"is_reserved":false,"is_disabled":false,"rental_uris":{"android":"levelo://app?vid=8e1e848d-d96b-4302-ada5-5df8b44d4656","ios":"levelo://app?vid=8e1e848d-d96b-4302-ada5-5df8b44d4656"},"vehicle_type_id":"4","last_reported":1702670870,"current_range_meters":16800,"station_id":"ce4bhop2rcd13ifvqh7g","pricing_plan_id":"free"},{"bike_id":"33864370-4430-4dd2-b741-a297768752df","system_id":"levelo_inurba_marseille","lat":43.336134,"lon":5.410341,"is_reserved":false,"is_disabled":false,"rental_uris":{"android":"levelo://app?vid=33864370-4430-4dd2-b741-a297768752df","ios":"levelo://app?vid=33864370-4430-4dd2-b741-a297768752df"},"vehicle_type_id":"4","last_reported":1702670870,"current_range_meters":17200,"station_id":"ce4bhqh2rcd13ifvqhmg","pricing_plan_id":"free"},{"bike_id":"6f20950f-1374-4020-b4f9-6e56dbc5c7e3","system_id":"levelo_inurba_marseille","lat":43.336134,"lon":5.410341,"is_reserved":false,"is_disabled":false,"rental_uris":{"android":"levelo://app?vid=6f20950f-1374-4020-b4f9-6e56dbc5c7e3","ios":"levelo://app?vid=6f20950f-1374-4020-b4f9-6e56dbc5c7e3"},"vehicle_type_id":"4","last_reported":1702670870,"current_range_meters":18400,"station_id":"ce4bhqh2rcd13ifvqhmg","pricing_plan_id":"free"},{"bike_id":"6ac2844f-d840-4fbb-ab96-2e239b43d33b","system_id":"levelo_inurba_marseille","lat":43.27558,"lon":5.38427,"is_reserved":false,"is_disabled":false,"rental_uris":{"android":"levelo://app?vid=6ac2844f-d840-4fbb-ab96-2e239b43d33b","ios":"levelo://app?vid=6ac2844f-d840-4fbb-ab96-2e239b43d33b"},"vehicle_type_id":"4","last_reported":1702670870,"current_range_meters":20000,"station_id":"ce4bhh92rcd13ifvqfi0","pricing_plan_id":"free"},{"bike_id":"f36764fc-7a21-4abe-b48b-9cf0cc11e0ff","system_id":"levelo_inurba_marseille","lat":43.279952,"lon":5.400085,"is_reserved":false,"is_disabled":false,"rental_uris":{"android":"levelo://app?vid=f36764fc-7a21-4abe-b48b-9cf0cc11e0ff","ios":"levelo://app?vid=f36764fc-7a21-4abe-b48b-9cf0cc11e0ff"},"vehicle_type_id":"4","last_reported":1702670870,"current_range_meters":13600,"station_id":"ce4bho92rcd13ifvqh4g","pricing_plan_id":"free"},{"bike_id":"ed338ba8-ca08-4526-8cf4-45bf0a14c1e8","system_id":"levelo_inurba_marseille","lat":43.279952,"lon":5.400085,"is_reserved":false,"is_disabled":false,"rental_uris":{"android":"levelo://app?vid=ed338ba8-ca08-4526-8cf4-45bf0a14c1e8","ios":"levelo://app?vid=ed338ba8-ca08-4526-8cf4-45bf0a14c1e8"},"vehicle_type_id":"4","last_reported":1702670870,"current_range_meters":4800,"station_id":"ce4bho92rcd13ifvqh4g","pricing_plan_id":"free"},{"bike_id":"25042987-187e-4971-80aa-4edf5237efc1","system_id":"levelo_inurba_marseille","lat":43.279975,"lon":5.40009,"is_reserved":false,"is_disabled":false,"rental_uris":{"android":"levelo://app?vid=25042987-187e-4971-80aa-4edf5237efc1","ios":"levelo://app?vid=25042987-187e-4971-80aa-4edf5237efc1"},"vehicle_type_id":"4","last_reported":1702670870,"current_range_meters":26000,"station_id":"ce4bho92rcd13ifvqh4g","pricing_plan_id":"free"},{"bike_id":"d96cc6aa-f307-4216-99ed-c9924f6230ce","system_id":"levelo_inurba_marseille","lat":43.279975,"lon":5.40009,"is_reserved":false,"is_disabled":false,"rental_uris":{"android":"levelo://app?vid=d96cc6aa-f307-4216-99ed-c9924f6230ce","ios":"levelo://app?vid=d96cc6aa-f307-4216-99ed-c9924f6230ce"},"vehicle_type_id":"4","last_reported":1702670870,"current_range_meters":22800,"station_id":"ce4bho92rcd13ifvqh4g","pricing_plan_id":"free"},{"bike_id":"7e907a90-0f45-4013-a335-a203442269f6","system_id":"levelo_inurba_marseille","lat":43.279975,"lon":5.40009,"is_reserved":false,"is_disabled":false,"rental_uris":{"android":"levelo://app?vid=7e907a90-0f45-4013-a335-a203442269f6","ios":"levelo://app?vid=7e907a90-0f45-4013-a335-a203442269f6"},"vehicle_type_id":"4","last_reported":1702670870,"current_range_meters":14800,"station_id":"ce4bho92rcd13ifvqh4g","pricing_plan_id":"free"},{"bike_id":"bcccc262-9445-490b-8e10-137ab8bc680c","system_id":"levelo_inurba_marseille","lat":43.317121,"lon":5.423936,"is_reserved":false,"is_disabled":false,"rental_uris":{"android":"levelo://app?vid=bcccc262-9445-490b-8e10-137ab8bc680c","ios":"levelo://app?vid=bcccc262-9445-490b-8e10-137ab8bc680c"},"vehicle_type_id":"4","last_reported":1702670870,"current_range_meters":14000,"station_id":"ce4bhp92rcd13ifvqhbg","pricing_plan_id":"free"},{"bike_id":"58836c95-6366-4507-b317-696c63def311","system_id":"levelo_inurba_marseille","lat":43.317121,"lon":5.423936,"is_reserved":false,"is_disabled":false,"rental_uris":{"android":"levelo://app?vid=58836c95-6366-4507-b317-696c63def311","ios":"levelo://app?vid=58836c95-6366-4507-b317-696c63def311"},"vehicle_type_id":"4","last_reported":1702670870,"current_range_meters":30400,"station_id":"ce4bhp92rcd13ifvqhbg","pricing_plan_id":"free"},{"bike_id":"cdc69067-dad5-415d-b4f3-0a438e350196","system_id":"levelo_inurba_marseille","lat":43.317121,"lon":5.423936,"is_reserved":false,"is_disabled":false,"rental_uris":{"android":"levelo://app?vid=cdc69067-dad5-415d-b4f3-0a438e350196","ios":"levelo://app?vid=cdc69067-dad5-415d-b4f3-0a438e350196"},"vehicle_type_id":"4","last_reported":1702670870,"current_range_meters":28400,"station_id":"ce4bhp92rcd13ifvqhbg","pricing_plan_id":"free"},{"bike_id":"93a9a0b0-f09a-4679-973e-f3ebca0caf36","system_id":"levelo_inurba_marseille","lat":43.310785,"lon":5.424305,"is_reserved":false,"is_disabled":false,"rental_uris":{"android":"levelo://app?vid=93a9a0b0-f09a-4679-973e-f3ebca0caf36","ios":"levelo://app?vid=93a9a0b0-f09a-4679-973e-f3ebca0caf36"},"vehicle_type_id":"4","last_reported":1702670870,"current_range_meters":29600,"station_id":"ce4bhp92rcd13ifvqhag","pricing_plan_id":"free"},{"bike_id":"13b63d08-aaa3-4985-bf57-1f32727c58d1","system_id":"levelo_inurba_marseille","lat":43.310785,"lon":5.424305,"is_reserved":false,"is_disabled":false,"rental_uris":{"android":"levelo://app?vid=13b63d08-aaa3-4985-bf57-1f32727c58d1","ios":"levelo://app?vid=13b63d08-aaa3-4985-bf57-1f32727c58d1"},"vehicle_type_id":"4","last_reported":1702670870,"current_range_meters":28000,"station_id":"ce4bhp92rcd13ifvqhag","pricing_plan_id":"free"},{"bike_id":"3ca2c2d2-99b0-4aa6-a05d-e30f02e6a7fb","system_id":"levelo_inurba_marseille","lat":43.276092,"lon":5.395289,"is_reserved":false,"is_disabled":false,"rental_uris":{"android":"levelo://app?vid=3ca2c2d2-99b0-4aa6-a05d-e30f02e6a7fb","ios":"levelo://app?vid=3ca2c2d2-99b0-4aa6-a05d-e30f02e6a7fb"},"vehicle_type_id":"4","last_reported":1702670870,"current_range_meters":25600,"station_id":"","pricing_plan_id":"free"},{"bike_id":"7af81fb6-fdcc-4047-a21d-6804294090be","system_id":"levelo_inurba_marseille","lat":43.273125,"lon":5.390731,"is_reserved":false,"is_disabled":false,"rental_uris":{"android":"levelo://app?vid=7af81fb6-fdcc-4047-a21d-6804294090be","ios":"levelo://app?vid=7af81fb6-fdcc-4047-a21d-6804294090be"},"vehicle_type_id":"4","last_reported":1702670870,"current_range_meters":24400,"station_id":"ce4bhgp2rcd13ifvqfe0","pricing_plan_id":"free"},{"bike_id":"2aaf9015-ddf0-4b6c-9404-a5d66ec028c1","system_id":"levelo_inurba_marseille","lat":43.274103,"lon":5.394016,"is_reserved":false,"is_disabled":false,"rental_uris":{"android":"levelo://app?vid=2aaf9015-ddf0-4b6c-9404-a5d66ec028c1","ios":"levelo://app?vid=2aaf9015-ddf0-4b6c-9404-a5d66ec028c1"},"vehicle_type_id":"4","last_reported":1702670870,"current_range_meters":24000,"station_id":"ce4bhdp2rcd13ifvqf20","pricing_plan_id":"free"},{"bike_id":"dc6b6bd6-9f4c-4d9e-aab6-073780bd9d51","system_id":"levelo_inurba_marseille","lat":43.274099,"lon":5.394019,"is_reserved":false,"is_disabled":false,"rental_uris":{"android":"levelo://app?vid=dc6b6bd6-9f4c-4d9e-aab6-073780bd9d51","ios":"levelo://app?vid=dc6b6bd6-9f4c-4d9e-aab6-073780bd9d51"},"vehicle_type_id":"4","last_reported":1702670870,"current_range_meters":5200,"station_id":"ce4bhdp2rcd13ifvqf20","pricing_plan_id":"free"},{"bike_id":"6863f1b0-5a3d-43ee-bfea-87f1e7b44648","system_id":"levelo_inurba_marseille","lat":43.27418,"lon":5.39413,"is_reserved":false,"is_disabled":false,"rental_uris":{"android":"levelo://app?vid=6863f1b0-5a3d-43ee-bfea-87f1e7b44648","ios":"levelo://app?vid=6863f1b0-5a3d-43ee-bfea-87f1e7b44648"},"vehicle_type_id":"4","last_reported":1702670870,"current_range_meters":0,"station_id":"","pricing_plan_id":"free"},{"bike_id":"d85ccd0f-017a-4247-b89e-73a3b46faf4b","system_id":"levelo_inurba_marseille","lat":43.304096,"lon":5.425385,"is_reserved":false,"is_disabled":false,"rental_uris":{"android":"levelo://app?vid=d85ccd0f-017a-4247-b89e-73a3b46faf4b","ios":"levelo://app?vid=d85ccd0f-017a-4247-b89e-73a3b46faf4b"},"vehicle_type_id":"4","last_reported":1702670870,"current_range_meters":21200,"station_id":"ce4bhoh2rcd13ifvqh6g","pricing_plan_id":"free"},{"bike_id":"de9feb39-3844-4206-aa16-9fe6fe1926e0","system_id":"levelo_inurba_marseille","lat":43.295511,"lon":5.422926,"is_reserved":false,"is_disabled":false,"rental_uris":{"android":"levelo://app?vid=de9feb39-3844-4206-aa16-9fe6fe1926e0","ios":"levelo://app?vid=de9feb39-3844-4206-aa16-9fe6fe1926e0"},"vehicle_type_id":"4","last_reported":1702670870,"current_range_meters":18000,"station_id":"ce4bhph2rcd13ifvqhdg","pricing_plan_id":"free"},{"bike_id":"1d2472e2-350f-44fa-a627-38e6bb5829da","system_id":"levelo_inurba_marseille","lat":43.295511,"lon":5.422926,"is_reserved":false,"is_disabled":false,"rental_uris":{"android":"levelo://app?vid=1d2472e2-350f-44fa-a627-38e6bb5829da","ios":"levelo://app?vid=1d2472e2-350f-44fa-a627-38e6bb5829da"},"vehicle_type_id":"4","last_reported":1702670870,"current_range_meters":31600,"station_id":"ce4bhph2rcd13ifvqhdg","pricing_plan_id":"free"},{"bike_id":"c52928c9-4db5-4734-b2a1-722395fc76c7","system_id":"levelo_inurba_marseille","lat":43.27187,"lon":5.39224,"is_reserved":false,"is_disabled":false,"rental_uris":{"android":"levelo://app?vid=c52928c9-4db5-4734-b2a1-722395fc76c7","ios":"levelo://app?vid=c52928c9-4db5-4734-b2a1-722395fc76c7"},"vehicle_type_id":"4","last_reported":1702670870,"current_range_meters":19600,"station_id":"ce4bhhp2rcd13ifvqfm0","pricing_plan_id":"free"},{"bike_id":"56bcfaa2-cd67-4456-9399-0a7806d20d1a","system_id":"levelo_inurba_marseille","lat":43.278128,"lon":5.407195,"is_reserved":false,"is_disabled":false,"rental_uris":{"android":"levelo://app?vid=56bcfaa2-cd67-4456-9399-0a7806d20d1a","ios":"levelo://app?vid=56bcfaa2-cd67-4456-9399-0a7806d20d1a"},"vehicle_type_id":"4","last_reported":1702670870,"current_range_meters":30800,"station_id":"ce4bhnh2rcd13ifvqgtg","pricing_plan_id":"free"},{"bike_id":"30f59ffe-e1fa-4ed8-a4e3-ce159c007c40","system_id":"levelo_inurba_marseille","lat":43.278128,"lon":5.407195,"is_reserved":false,"is_disabled":false,"rental_uris":{"android":"levelo://app?vid=30f59ffe-e1fa-4ed8-a4e3-ce159c007c40","ios":"levelo://app?vid=30f59ffe-e1fa-4ed8-a4e3-ce159c007c40"},"vehicle_type_id":"4","last_reported":1702670870,"current_range_meters":4800,"station_id":"ce4bhnh2rcd13ifvqgtg","pricing_plan_id":"free"},{"bike_id":"9fd29f59-5307-4c84-8c42-adb6ed116c0a","system_id":"levelo_inurba_marseille","lat":43.269467,"lon":5.386439,"is_reserved":false,"is_disabled":false,"rental_uris":{"android":"levelo://app?vid=9fd29f59-5307-4c84-8c42-adb6ed116c0a","ios":"levelo://app?vid=9fd29f59-5307-4c84-8c42-adb6ed116c0a"},"vehicle_type_id":"4","last_reported":1702670870,"current_range_meters":17200,"station_id":"ce4bhh92rcd13ifvqfh0","pricing_plan_id":"free"},{"bike_id":"9b210e26-540e-4112-87ea-f0d1cb81baed","system_id":"levelo_inurba_marseille","lat":43.269467,"lon":5.386439,"is_reserved":false,"is_disabled":false,"rental_uris":{"android":"levelo://app?vid=9b210e26-540e-4112-87ea-f0d1cb81baed","ios":"levelo://app?vid=9b210e26-540e-4112-87ea-f0d1cb81baed"},"vehicle_type_id":"4","last_reported":1702670870,"current_range_meters":10000,"station_id":"ce4bhh92rcd13ifvqfh0","pricing_plan_id":"free"},{"bike_id":"176d2912-2bb5-43b4-99d5-d3578938fdd7","system_id":"levelo_inurba_marseille","lat":43.269467,"lon":5.386439,"is_reserved":false,"is_disabled":false,"rental_uris":{"android":"levelo://app?vid=176d2912-2bb5-43b4-99d5-d3578938fdd7","ios":"levelo://app?vid=176d2912-2bb5-43b4-99d5-d3578938fdd7"},"vehicle_type_id":"4","last_reported":1702670870,"current_range_meters":26000,"station_id":"ce4bhh92rcd13ifvqfh0","pricing_plan_id":"free"},{"bike_id":"1566d4f3-f261-456c-9ab4-824ec68224f1","system_id":"levelo_inurba_marseille","lat":43.27944,"lon":5.41046,"is_reserved":false,"is_disabled":false,"rental_uris":{"android":"levelo://app?vid=1566d4f3-f261-456c-9ab4-824ec68224f1","ios":"levelo://app?vid=1566d4f3-f261-456c-9ab4-824ec68224f1"},"vehicle_type_id":"4","last_reported":1702670870,"current_range_meters":15200,"station_id":"ce4bhnp2rcd13ifvqh0g","pricing_plan_id":"free"},{"bike_id":"db774753-4382-453e-a138-c32d538f9839","system_id":"levelo_inurba_marseille","lat":43.358702,"lon":5.356774,"is_reserved":false,"is_disabled":false,"rental_uris":{"android":"levelo://app?vid=db774753-4382-453e-a138-c32d538f9839","ios":"levelo://app?vid=db774753-4382-453e-a138-c32d538f9839"},"vehicle_type_id":"4","last_reported":1702670870,"current_range_meters":10800,"station_id":"","pricing_plan_id":"free"},{"bike_id":"2f52d334-fff4-4d0a-ad53-f2326be459c3","system_id":"levelo_inurba_marseille","lat":43.26681,"lon":5.382694,"is_reserved":false,"is_disabled":false,"rental_uris":{"android":"levelo://app?vid=2f52d334-fff4-4d0a-ad53-f2326be459c3","ios":"levelo://app?vid=2f52d334-fff4-4d0a-ad53-f2326be459c3"},"vehicle_type_id":"4","last_reported":1702670870,"current_range_meters":29200,"station_id":"ce4bhg92rcd13ifvqf90","pricing_plan_id":"free"},{"bike_id":"95e9dd1f-f2f5-405d-b720-08fe860b3dcc","system_id":"levelo_inurba_marseille","lat":43.308051,"lon":5.43527,"is_reserved":false,"is_disabled":false,"rental_uris":{"android":"levelo://app?vid=95e9dd1f-f2f5-405d-b720-08fe860b3dcc","ios":"levelo://app?vid=95e9dd1f-f2f5-405d-b720-08fe860b3dcc"},"vehicle_type_id":"4","last_reported":1702670870,"current_range_meters":26400,"station_id":"ce4bhph2rcd13ifvqheg","pricing_plan_id":"free"},{"bike_id":"12f3b4a0-282f-4973-9df7-658ea9a0d322","system_id":"levelo_inurba_marseille","lat":43.26565,"lon":5.39011,"is_reserved":false,"is_disabled":false,"rental_uris":{"android":"levelo://app?vid=12f3b4a0-282f-4973-9df7-658ea9a0d322","ios":"levelo://app?vid=12f3b4a0-282f-4973-9df7-658ea9a0d322"},"vehicle_type_id":"4","last_reported":1702670870,"current_range_meters":30400,"station_id":"ce4bhe12rcd13ifvqf30","pricing_plan_id":"free"},{"bike_id":"644d3aad-5e5d-43ba-8c13-486190b0531a","system_id":"levelo_inurba_marseille","lat":43.26561,"lon":5.39009,"is_reserved":false,"is_disabled":false,"rental_uris":{"android":"levelo://app?vid=644d3aad-5e5d-43ba-8c13-486190b0531a","ios":"levelo://app?vid=644d3aad-5e5d-43ba-8c13-486190b0531a"},"vehicle_type_id":"4","last_reported":1702670870,"current_range_meters":3600,"station_id":"ce4bhe12rcd13ifvqf30","pricing_plan_id":"free"},{"bike_id":"6678b5c3-f2cb-4a58-871b-9a9ab92af85d","system_id":"levelo_inurba_marseille","lat":43.26949,"lon":5.40262,"is_reserved":false,"is_disabled":false,"rental_uris":{"android":"levelo://app?vid=6678b5c3-f2cb-4a58-871b-9a9ab92af85d","ios":"levelo://app?vid=6678b5c3-f2cb-4a58-871b-9a9ab92af85d"},"vehicle_type_id":"4","last_reported":1702670870,"current_range_meters":16000,"station_id":"cjm6bp8fraef2m0cb0m0","pricing_plan_id":"free"},{"bike_id":"9a89f80e-f7d1-4157-8bd9-8182ba4b8b45","system_id":"levelo_inurba_marseille","lat":43.26949,"lon":5.40262,"is_reserved":false,"is_disabled":false,"rental_uris":{"android":"levelo://app?vid=9a89f80e-f7d1-4157-8bd9-8182ba4b8b45","ios":"levelo://app?vid=9a89f80e-f7d1-4157-8bd9-8182ba4b8b45"},"vehicle_type_id":"4","last_reported":1702670870,"current_range_meters":400,"station_id":"cjm6bp8fraef2m0cb0m0","pricing_plan_id":"free"},{"bike_id":"485d583c-fd74-4b35-b248-b664c0bd57a5","system_id":"levelo_inurba_marseille","lat":43.261782,"lon":5.374515,"is_reserved":false,"is_disabled":false,"rental_uris":{"android":"levelo://app?vid=485d583c-fd74-4b35-b248-b664c0bd57a5","ios":"levelo://app?vid=485d583c-fd74-4b35-b248-b664c0bd57a5"},"vehicle_type_id":"4","last_reported":1702670870,"current_range_meters":2800,"station_id":"ce4bhgp2rcd13ifvqfc0","pricing_plan_id":"free"},{"bike_id":"151ad32e-e8a8-4f27-83ce-9e7eab520933","system_id":"levelo_inurba_marseille","lat":43.303837,"lon":5.418724,"is_reserved":false,"is_disabled":false,"rental_uris":{"android":"levelo://app?vid=151ad32e-e8a8-4f27-83ce-9e7eab520933","ios":"levelo://app?vid=151ad32e-e8a8-4f27-83ce-9e7eab520933"},"vehicle_type_id":"4","last_reported":1702670870,"current_range_meters":27600,"station_id":"ce4bhop2rcd13ifvqh7g","pricing_plan_id":"free"},{"bike_id":"3da0d9bf-67b1-4a9f-a833-ad035b1c6b5d","system_id":"levelo_inurba_marseille","lat":43.26183,"lon":5.37442,"is_reserved":false,"is_disabled":false,"rental_uris":{"android":"levelo://app?vid=3da0d9bf-67b1-4a9f-a833-ad035b1c6b5d","ios":"levelo://app?vid=3da0d9bf-67b1-4a9f-a833-ad035b1c6b5d"},"vehicle_type_id":"4","last_reported":1702670870,"current_range_meters":31200,"station_id":"ce4bhgp2rcd13ifvqfc0","pricing_plan_id":"free"},{"bike_id":"db481c7c-3c9b-48e0-8a06-cf25e7e2afe8","system_id":"levelo_inurba_marseille","lat":43.262012,"lon":5.379307,"is_reserved":false,"is_disabled":false,"rental_uris":{"android":"levelo://app?vid=db481c7c-3c9b-48e0-8a06-cf25e7e2afe8","ios":"levelo://app?vid=db481c7c-3c9b-48e0-8a06-cf25e7e2afe8"},"vehicle_type_id":"4","last_reported":1702670870,"current_range_meters":7200,"station_id":"ce4bhjp2rcd13ifvqg90","pricing_plan_id":"free"},{"bike_id":"a530acdb-feac-4219-a37f-c9cf0c05c2fb","system_id":"levelo_inurba_marseille","lat":43.262012,"lon":5.379307,"is_reserved":false,"is_disabled":false,"rental_uris":{"android":"levelo://app?vid=a530acdb-feac-4219-a37f-c9cf0c05c2fb","ios":"levelo://app?vid=a530acdb-feac-4219-a37f-c9cf0c05c2fb"},"vehicle_type_id":"4","last_reported":1702670870,"current_range_meters":14800,"station_id":"ce4bhjp2rcd13ifvqg90","pricing_plan_id":"free"},{"bike_id":"3feeb233-5481-4cea-989c-30b75874f2b5","system_id":"levelo_inurba_marseille","lat":43.26198,"lon":5.37928,"is_reserved":false,"is_disabled":false,"rental_uris":{"android":"levelo://app?vid=3feeb233-5481-4cea-989c-30b75874f2b5","ios":"levelo://app?vid=3feeb233-5481-4cea-989c-30b75874f2b5"},"vehicle_type_id":"4","last_reported":1702670870,"current_range_meters":29200,"station_id":"ce4bhjp2rcd13ifvqg90","pricing_plan_id":"free"},{"bike_id":"b791f66a-59d1-479c-a120-bdaecac884e4","system_id":"levelo_inurba_marseille","lat":43.271388,"lon":5.409269,"is_reserved":false,"is_disabled":false,"rental_uris":{"android":"levelo://app?vid=b791f66a-59d1-479c-a120-bdaecac884e4","ios":"levelo://app?vid=b791f66a-59d1-479c-a120-bdaecac884e4"},"vehicle_type_id":"4","last_reported":1702670870,"current_range_meters":15200,"station_id":"ce4bhl12rcd13ifvqgf0","pricing_plan_id":"free"},{"bike_id":"dd56b8c8-65e0-491e-8f20-9ee5b66ffaa9","system_id":"levelo_inurba_marseille","lat":43.298768,"lon":5.43643,"is_reserved":false,"is_disabled":false,"rental_uris":{"android":"levelo://app?vid=dd56b8c8-65e0-491e-8f20-9ee5b66ffaa9","ios":"levelo://app?vid=dd56b8c8-65e0-491e-8f20-9ee5b66ffaa9"},"vehicle_type_id":"4","last_reported":1702670870,"current_range_meters":11600,"station_id":"ce4bhpp2rcd13ifvqhfg","pricing_plan_id":"free"},{"bike_id":"7b189e95-4650-4ce6-97aa-2a3df829cdf0","system_id":"levelo_inurba_marseille","lat":43.28153,"lon":5.42639,"is_reserved":false,"is_disabled":false,"rental_uris":{"android":"levelo://app?vid=7b189e95-4650-4ce6-97aa-2a3df829cdf0","ios":"levelo://app?vid=7b189e95-4650-4ce6-97aa-2a3df829cdf0"},"vehicle_type_id":"4","last_reported":1702670870,"current_range_meters":7600,"station_id":"ce4bhnh2rcd13ifvqgug","pricing_plan_id":"free"},{"bike_id":"c21fb619-2886-431a-9a8b-d378034c76a5","system_id":"levelo_inurba_marseille","lat":43.2607,"lon":5.393983,"is_reserved":false,"is_disabled":false,"rental_uris":{"android":"levelo://app?vid=c21fb619-2886-431a-9a8b-d378034c76a5","ios":"levelo://app?vid=c21fb619-2886-431a-9a8b-d378034c76a5"},"vehicle_type_id":"4","last_reported":1702670870,"current_range_meters":13600,"station_id":"ce4bhh92rcd13ifvqfj0","pricing_plan_id":"free"},{"bike_id":"b76e4b50-f6f0-431f-a6f8-b141c06663a4","system_id":"levelo_inurba_marseille","lat":43.275028,"lon":5.424534,"is_reserved":false,"is_disabled":false,"rental_uris":{"android":"levelo://app?vid=b76e4b50-f6f0-431f-a6f8-b141c06663a4","ios":"levelo://app?vid=b76e4b50-f6f0-431f-a6f8-b141c06663a4"},"vehicle_type_id":"4","last_reported":1702670870,"current_range_meters":16000,"station_id":"ce4bhn92rcd13ifvqgrg","pricing_plan_id":"free"},{"bike_id":"cc5d76b0-a393-4a4c-baa6-a656fc269eb7","system_id":"levelo_inurba_marseille","lat":43.275028,"lon":5.424534,"is_reserved":false,"is_disabled":false,"rental_uris":{"android":"levelo://app?vid=cc5d76b0-a393-4a4c-baa6-a656fc269eb7","ios":"levelo://app?vid=cc5d76b0-a393-4a4c-baa6-a656fc269eb7"},"vehicle_type_id":"4","last_reported":1702670870,"current_range_meters":30400,"station_id":"ce4bhn92rcd13ifvqgrg","pricing_plan_id":"free"},{"bike_id":"51db3d55-1508-44d3-a1ab-1ae837af26aa","system_id":"levelo_inurba_marseille","lat":43.258224,"lon":5.394369,"is_reserved":false,"is_disabled":false,"rental_uris":{"android":"levelo://app?vid=51db3d55-1508-44d3-a1ab-1ae837af26aa","ios":"levelo://app?vid=51db3d55-1508-44d3-a1ab-1ae837af26aa"},"vehicle_type_id":"4","last_reported":1702670870,"current_range_meters":18400,"station_id":"ce4bhip2rcd13ifvqft0","pricing_plan_id":"free"},{"bike_id":"684c1270-0092-4a86-ad29-c7608ce182e8","system_id":"levelo_inurba_marseille","lat":43.254947,"lon":5.376454,"is_reserved":false,"is_disabled":false,"rental_uris":{"android":"levelo://app?vid=684c1270-0092-4a86-ad29-c7608ce182e8","ios":"levelo://app?vid=684c1270-0092-4a86-ad29-c7608ce182e8"},"vehicle_type_id":"4","last_reported":1702670870,"current_range_meters":30800,"station_id":"ce4bhh12rcd13ifvqff0","pricing_plan_id":"free"},{"bike_id":"111316c0-6736-470e-8765-a58f5e076013","system_id":"levelo_inurba_marseille","lat":43.254947,"lon":5.376454,"is_reserved":false,"is_disabled":false,"rental_uris":{"android":"levelo://app?vid=111316c0-6736-470e-8765-a58f5e076013","ios":"levelo://app?vid=111316c0-6736-470e-8765-a58f5e076013"},"vehicle_type_id":"4","last_reported":1702670870,"current_range_meters":16000,"station_id":"ce4bhh12rcd13ifvqff0","pricing_plan_id":"free"},{"bike_id":"774dd1c5-d7ab-4987-aaff-87ab2bdb72e5","system_id":"levelo_inurba_marseille","lat":43.254947,"lon":5.376454,"is_reserved":false,"is_disabled":false,"rental_uris":{"android":"levelo://app?vid=774dd1c5-d7ab-4987-aaff-87ab2bdb72e5","ios":"levelo://app?vid=774dd1c5-d7ab-4987-aaff-87ab2bdb72e5"},"vehicle_type_id":"4","last_reported":1702670870,"current_range_meters":32000,"station_id":"ce4bhh12rcd13ifvqff0","pricing_plan_id":"free"},{"bike_id":"c9f09b88-2f5a-4c7b-9b79-b379e0790abf","system_id":"levelo_inurba_marseille","lat":43.254947,"lon":5.376454,"is_reserved":false,"is_disabled":false,"rental_uris":{"android":"levelo://app?vid=c9f09b88-2f5a-4c7b-9b79-b379e0790abf","ios":"levelo://app?vid=c9f09b88-2f5a-4c7b-9b79-b379e0790abf"},"vehicle_type_id":"4","last_reported":1702670870,"current_range_meters":9200,"station_id":"ce4bhh12rcd13ifvqff0","pricing_plan_id":"free"},{"bike_id":"e44f9abc-0e7a-4a73-99f3-c036d5df87c5","system_id":"levelo_inurba_marseille","lat":43.257079,"lon":5.411051,"is_reserved":false,"is_disabled":false,"rental_uris":{"android":"levelo://app?vid=e44f9abc-0e7a-4a73-99f3-c036d5df87c5","ios":"levelo://app?vid=e44f9abc-0e7a-4a73-99f3-c036d5df87c5"},"vehicle_type_id":"4","last_reported":1702670870,"current_range_meters":16000,"station_id":"ce4bhkp2rcd13ifvqgd0","pricing_plan_id":"free"},{"bike_id":"a94d0d87-f21b-4bcf-99be-0f6ac5ca1a70","system_id":"levelo_inurba_marseille","lat":43.250009,"lon":5.389195,"is_reserved":false,"is_disabled":false,"rental_uris":{"android":"levelo://app?vid=a94d0d87-f21b-4bcf-99be-0f6ac5ca1a70","ios":"levelo://app?vid=a94d0d87-f21b-4bcf-99be-0f6ac5ca1a70"},"vehicle_type_id":"4","last_reported":1702670870,"current_range_meters":18800,"station_id":"ce4bhgp2rcd13ifvqfd0","pricing_plan_id":"free"},{"bike_id":"3c7d9e23-e4db-463f-beab-a6678e90777c","system_id":"levelo_inurba_marseille","lat":43.2479,"lon":5.374457,"is_reserved":false,"is_disabled":false,"rental_uris":{"android":"levelo://app?vid=3c7d9e23-e4db-463f-beab-a6678e90777c","ios":"levelo://app?vid=3c7d9e23-e4db-463f-beab-a6678e90777c"},"vehicle_type_id":"4","last_reported":1702670870,"current_range_meters":21200,"station_id":"ce4bhgh2rcd13ifvqfb0","pricing_plan_id":"free"},{"bike_id":"24823af9-e338-40f7-b3ab-8a760ed4d424","system_id":"levelo_inurba_marseille","lat":43.24693,"lon":5.382096,"is_reserved":false,"is_disabled":false,"rental_uris":{"android":"levelo://app?vid=24823af9-e338-40f7-b3ab-8a760ed4d424","ios":"levelo://app?vid=24823af9-e338-40f7-b3ab-8a760ed4d424"},"vehicle_type_id":"4","last_reported":1702670870,"current_range_meters":30000,"station_id":"ce4bhih2rcd13ifvqfr0","pricing_plan_id":"free"},{"bike_id":"1792bf4b-2a7a-4e47-9b67-780a8c27534f","system_id":"levelo_inurba_marseille","lat":43.24693,"lon":5.382096,"is_reserved":false,"is_disabled":false,"rental_uris":{"android":"levelo://app?vid=1792bf4b-2a7a-4e47-9b67-780a8c27534f","ios":"levelo://app?vid=1792bf4b-2a7a-4e47-9b67-780a8c27534f"},"vehicle_type_id":"4","last_reported":1702670870,"current_range_meters":24000,"station_id":"ce4bhih2rcd13ifvqfr0","pricing_plan_id":"free"},{"bike_id":"a883bbb0-7187-4fd7-8da9-843ee539d094","system_id":"levelo_inurba_marseille","lat":43.24693,"lon":5.382096,"is_reserved":false,"is_disabled":false,"rental_uris":{"android":"levelo://app?vid=a883bbb0-7187-4fd7-8da9-843ee539d094","ios":"levelo://app?vid=a883bbb0-7187-4fd7-8da9-843ee539d094"},"vehicle_type_id":"4","last_reported":1702670870,"current_range_meters":4400,"station_id":"ce4bhih2rcd13ifvqfr0","pricing_plan_id":"free"},{"bike_id":"66e7b19f-84c5-49d8-b672-231ec5b67748","system_id":"levelo_inurba_marseille","lat":43.25102,"lon":5.403214,"is_reserved":false,"is_disabled":false,"rental_uris":{"android":"levelo://app?vid=66e7b19f-84c5-49d8-b672-231ec5b67748","ios":"levelo://app?vid=66e7b19f-84c5-49d8-b672-231ec5b67748"},"vehicle_type_id":"4","last_reported":1702670870,"current_range_meters":18800,"station_id":"ce4bhlh2rcd13ifvqgig","pricing_plan_id":"free"},{"bike_id":"ecdb582b-98ab-4291-8a23-b6c84ea08e81","system_id":"levelo_inurba_marseille","lat":43.2439,"lon":5.37059,"is_reserved":false,"is_disabled":false,"rental_uris":{"android":"levelo://app?vid=ecdb582b-98ab-4291-8a23-b6c84ea08e81","ios":"levelo://app?vid=ecdb582b-98ab-4291-8a23-b6c84ea08e81"},"vehicle_type_id":"4","last_reported":1702670870,"current_range_meters":0,"station_id":"ce4bhhh2rcd13ifvqfk0","pricing_plan_id":"free"},{"bike_id":"e9aae6e1-229c-459c-ba5f-56228d518ab4","system_id":"levelo_inurba_marseille","lat":43.24389,"lon":5.37058,"is_reserved":false,"is_disabled":false,"rental_uris":{"android":"levelo://app?vid=e9aae6e1-229c-459c-ba5f-56228d518ab4","ios":"levelo://app?vid=e9aae6e1-229c-459c-ba5f-56228d518ab4"},"vehicle_type_id":"4","last_reported":1702670870,"current_range_meters":17200,"station_id":"ce4bhhh2rcd13ifvqfk0","pricing_plan_id":"free"},{"bike_id":"f13ee189-60e7-46f5-8544-a3f085497e42","system_id":"levelo_inurba_marseille","lat":43.243884,"lon":5.370736,"is_reserved":false,"is_disabled":false,"rental_uris":{"android":"levelo://app?vid=f13ee189-60e7-46f5-8544-a3f085497e42","ios":"levelo://app?vid=f13ee189-60e7-46f5-8544-a3f085497e42"},"vehicle_type_id":"4","last_reported":1702670870,"current_range_meters":26000,"station_id":"ce4bhhh2rcd13ifvqfk0","pricing_plan_id":"free"},{"bike_id":"e9e27456-3f97-4c18-83bc-8f4de754de9d","system_id":"levelo_inurba_marseille","lat":43.245581,"lon":5.395069,"is_reserved":false,"is_disabled":false,"rental_uris":{"android":"levelo://app?vid=e9e27456-3f97-4c18-83bc-8f4de754de9d","ios":"levelo://app?vid=e9e27456-3f97-4c18-83bc-8f4de754de9d"},"vehicle_type_id":"4","last_reported":1702670870,"current_range_meters":10000,"station_id":"ce4bhlp2rcd13ifvqgjg","pricing_plan_id":"free"},{"bike_id":"8c112bac-5f5a-407d-8532-bc3c79605cd8","system_id":"levelo_inurba_marseille","lat":43.239588,"lon":5.366238,"is_reserved":false,"is_disabled":false,"rental_uris":{"android":"levelo://app?vid=8c112bac-5f5a-407d-8532-bc3c79605cd8","ios":"levelo://app?vid=8c112bac-5f5a-407d-8532-bc3c79605cd8"},"vehicle_type_id":"4","last_reported":1702670870,"current_range_meters":31200,"station_id":"ce4bhi12rcd13ifvqfp0","pricing_plan_id":"free"},{"bike_id":"a6ab5f0e-f0ee-41be-b237-17726a43f065","system_id":"levelo_inurba_marseille","lat":43.23199,"lon":5.35556,"is_reserved":false,"is_disabled":false,"rental_uris":{"android":"levelo://app?vid=a6ab5f0e-f0ee-41be-b237-17726a43f065","ios":"levelo://app?vid=a6ab5f0e-f0ee-41be-b237-17726a43f065"},"vehicle_type_id":"4","last_reported":1702670870,"current_range_meters":6400,"station_id":"ce4bhu92rcd13ifvqi70","pricing_plan_id":"free"},{"bike_id":"600bdeb8-ea2a-4d1c-a6da-f7a255388a48","system_id":"levelo_inurba_marseille","lat":43.23198,"lon":5.35552,"is_reserved":false,"is_disabled":false,"rental_uris":{"android":"levelo://app?vid=600bdeb8-ea2a-4d1c-a6da-f7a255388a48","ios":"levelo://app?vid=600bdeb8-ea2a-4d1c-a6da-f7a255388a48"},"vehicle_type_id":"4","last_reported":1702670870,"current_range_meters":14000,"station_id":"ce4bhu92rcd13ifvqi70","pricing_plan_id":"free"},{"bike_id":"547672b1-18af-4711-b9a3-86e73cab70b4","system_id":"levelo_inurba_marseille","lat":43.23197,"lon":5.3555,"is_reserved":false,"is_disabled":false,"rental_uris":{"android":"levelo://app?vid=547672b1-18af-4711-b9a3-86e73cab70b4","ios":"levelo://app?vid=547672b1-18af-4711-b9a3-86e73cab70b4"},"vehicle_type_id":"4","last_reported":1702670870,"current_range_meters":19600,"station_id":"ce4bhu92rcd13ifvqi70","pricing_plan_id":"free"},{"bike_id":"185da70e-7a95-41eb-8b73-66c95513e7d7","system_id":"levelo_inurba_marseille","lat":43.231919,"lon":5.355532,"is_reserved":false,"is_disabled":false,"rental_uris":{"android":"levelo://app?vid=185da70e-7a95-41eb-8b73-66c95513e7d7","ios":"levelo://app?vid=185da70e-7a95-41eb-8b73-66c95513e7d7"},"vehicle_type_id":"4","last_reported":1702670870,"current_range_meters":19600,"station_id":"ce4bhu92rcd13ifvqi70","pricing_plan_id":"free"},{"bike_id":"bad9b33d-de7d-4c7c-82d1-be01fc455f93","system_id":"levelo_inurba_marseille","lat":43.231919,"lon":5.355532,"is_reserved":false,"is_disabled":false,"rental_uris":{"android":"levelo://app?vid=bad9b33d-de7d-4c7c-82d1-be01fc455f93","ios":"levelo://app?vid=bad9b33d-de7d-4c7c-82d1-be01fc455f93"},"vehicle_type_id":"4","last_reported":1702670870,"current_range_meters":26000,"station_id":"ce4bhu92rcd13ifvqi70","pricing_plan_id":"free"},{"bike_id":"e2effc20-8600-4cb3-88e5-e93a2f872714","system_id":"levelo_inurba_marseille","lat":43.23191,"lon":5.3555,"is_reserved":false,"is_disabled":false,"rental_uris":{"android":"levelo://app?vid=e2effc20-8600-4cb3-88e5-e93a2f872714","ios":"levelo://app?vid=e2effc20-8600-4cb3-88e5-e93a2f872714"},"vehicle_type_id":"4","last_reported":1702670870,"current_range_meters":8400,"station_id":"ce4bhu92rcd13ifvqi70","pricing_plan_id":"free"},{"bike_id":"bb21ca5a-cb13-451e-943b-2dfa4a3b7fbc","system_id":"levelo_inurba_marseille","lat":43.231919,"lon":5.355532,"is_reserved":false,"is_disabled":false,"rental_uris":{"android":"levelo://app?vid=bb21ca5a-cb13-451e-943b-2dfa4a3b7fbc","ios":"levelo://app?vid=bb21ca5a-cb13-451e-943b-2dfa4a3b7fbc"},"vehicle_type_id":"4","last_reported":1702670870,"current_range_meters":31600,"station_id":"ce4bhu92rcd13ifvqi70","pricing_plan_id":"free"},{"bike_id":"4bbb9689-2e2d-4bda-9d3c-7b90daddfa8a","system_id":"levelo_inurba_marseille","lat":43.231793,"lon":5.400044,"is_reserved":false,"is_disabled":false,"rental_uris":{"android":"levelo://app?vid=4bbb9689-2e2d-4bda-9d3c-7b90daddfa8a","ios":"levelo://app?vid=4bbb9689-2e2d-4bda-9d3c-7b90daddfa8a"},"vehicle_type_id":"4","last_reported":1702670870,"current_range_meters":29600,"station_id":"ce4bhn12rcd13ifvqgqg","pricing_plan_id":"free"},{"bike_id":"f232aa67-6076-4223-8e5a-a70e7a8cdfcf","system_id":"levelo_inurba_marseille","lat":43.231794,"lon":5.400052,"is_reserved":false,"is_disabled":false,"rental_uris":{"android":"levelo://app?vid=f232aa67-6076-4223-8e5a-a70e7a8cdfcf","ios":"levelo://app?vid=f232aa67-6076-4223-8e5a-a70e7a8cdfcf"},"vehicle_type_id":"4","last_reported":1702670870,"current_range_meters":22000,"station_id":"ce4bhn12rcd13ifvqgqg","pricing_plan_id":"free"},{"bike_id":"1b041eba-5032-4091-b5c2-13003df48ba9","system_id":"levelo_inurba_marseille","lat":43.231794,"lon":5.400052,"is_reserved":false,"is_disabled":false,"rental_uris":{"android":"levelo://app?vid=1b041eba-5032-4091-b5c2-13003df48ba9","ios":"levelo://app?vid=1b041eba-5032-4091-b5c2-13003df48ba9"},"vehicle_type_id":"4","last_reported":1702670870,"current_range_meters":2400,"station_id":"ce4bhn12rcd13ifvqgqg","pricing_plan_id":"free"},{"bike_id":"ad4a709a-3bbc-4b66-b7ec-31b555a6fb6f","system_id":"levelo_inurba_marseille","lat":43.231794,"lon":5.400052,"is_reserved":false,"is_disabled":false,"rental_uris":{"android":"levelo://app?vid=ad4a709a-3bbc-4b66-b7ec-31b555a6fb6f","ios":"levelo://app?vid=ad4a709a-3bbc-4b66-b7ec-31b555a6fb6f"},"vehicle_type_id":"4","last_reported":1702670870,"current_range_meters":28800,"station_id":"ce4bhn12rcd13ifvqgqg","pricing_plan_id":"free"},{"bike_id":"f0daebf7-48d1-4965-9af4-f0c1a8bd3366","system_id":"levelo_inurba_marseille","lat":43.23186,"lon":5.3999,"is_reserved":false,"is_disabled":false,"rental_uris":{"android":"levelo://app?vid=f0daebf7-48d1-4965-9af4-f0c1a8bd3366","ios":"levelo://app?vid=f0daebf7-48d1-4965-9af4-f0c1a8bd3366"},"vehicle_type_id":"4","last_reported":1702670870,"current_range_meters":20800,"station_id":"ce4bhn12rcd13ifvqgqg","pricing_plan_id":"free"},{"bike_id":"5e675e68-5f89-4337-9f5e-8b0067b010c6","system_id":"levelo_inurba_marseille","lat":43.231794,"lon":5.400052,"is_reserved":false,"is_disabled":false,"rental_uris":{"android":"levelo://app?vid=5e675e68-5f89-4337-9f5e-8b0067b010c6","ios":"levelo://app?vid=5e675e68-5f89-4337-9f5e-8b0067b010c6"},"vehicle_type_id":"4","last_reported":1702670870,"current_range_meters":28400,"station_id":"ce4bhn12rcd13ifvqgqg","pricing_plan_id":"free"},{"bike_id":"b709f06c-bc25-400a-bc75-39c96c4cd26b","system_id":"levelo_inurba_marseille","lat":43.231794,"lon":5.400052,"is_reserved":false,"is_disabled":false,"rental_uris":{"android":"levelo://app?vid=b709f06c-bc25-400a-bc75-39c96c4cd26b","ios":"levelo://app?vid=b709f06c-bc25-400a-bc75-39c96c4cd26b"},"vehicle_type_id":"4","last_reported":1702670870,"current_range_meters":0,"station_id":"ce4bhn12rcd13ifvqgqg","pricing_plan_id":"free"},{"bike_id":"9ec6e627-bbad-4b65-9589-ccea6752ce9c","system_id":"levelo_inurba_marseille","lat":43.231794,"lon":5.400052,"is_reserved":false,"is_disabled":false,"rental_uris":{"android":"levelo://app?vid=9ec6e627-bbad-4b65-9589-ccea6752ce9c","ios":"levelo://app?vid=9ec6e627-bbad-4b65-9589-ccea6752ce9c"},"vehicle_type_id":"4","last_reported":1702670870,"current_range_meters":24800,"station_id":"ce4bhn12rcd13ifvqgqg","pricing_plan_id":"free"},{"bike_id":"76011e8e-8381-4dc8-a22b-7020e857666d","system_id":"levelo_inurba_marseille","lat":43.231793,"lon":5.400044,"is_reserved":false,"is_disabled":false,"rental_uris":{"android":"levelo://app?vid=76011e8e-8381-4dc8-a22b-7020e857666d","ios":"levelo://app?vid=76011e8e-8381-4dc8-a22b-7020e857666d"},"vehicle_type_id":"4","last_reported":1702670870,"current_range_meters":17600,"station_id":"ce4bhn12rcd13ifvqgqg","pricing_plan_id":"free"},{"bike_id":"7591c304-548e-4cab-b2c2-be1de5925a19","system_id":"levelo_inurba_marseille","lat":43.231793,"lon":5.400044,"is_reserved":false,"is_disabled":false,"rental_uris":{"android":"levelo://app?vid=7591c304-548e-4cab-b2c2-be1de5925a19","ios":"levelo://app?vid=7591c304-548e-4cab-b2c2-be1de5925a19"},"vehicle_type_id":"4","last_reported":1702670870,"current_range_meters":20800,"station_id":"ce4bhn12rcd13ifvqgqg","pricing_plan_id":"free"},{"bike_id":"11fffc33-48fc-46cd-acb2-ae0ed2f88292","system_id":"levelo_inurba_marseille","lat":43.231794,"lon":5.400052,"is_reserved":false,"is_disabled":false,"rental_uris":{"android":"levelo://app?vid=11fffc33-48fc-46cd-acb2-ae0ed2f88292","ios":"levelo://app?vid=11fffc33-48fc-46cd-acb2-ae0ed2f88292"},"vehicle_type_id":"4","last_reported":1702670870,"current_range_meters":2400,"station_id":"ce4bhn12rcd13ifvqgqg","pricing_plan_id":"free"}]}}