{"last_updated":1758708654,"ttl":60,"version":"2.2","data":{"bikes":[{"bike_id":"f62302ea-c8ae-4585-8ca5-4f403788171d","system_id":"levelo_inurba_marseille","lat":43.27222,"lon":5.39185,"is_reserved":false,"is_disabled":false,"rental_uris":{"android":"levelo://app?vid=f62302ea-c8ae-4585-8ca5-4f403788171d","ios":"levelo://app?vid=f62302ea-c8ae-4585-8ca5-4f403788171d"},"vehicle_type_id":"4","last_reported":1758708654,"current_range_meters":2800,"station_id":"ce4bhhp2rcd13ifvqfm0","pricing_plan_id":"cebpf4jnsgd1na2vs0mg"},{"bike_id":"886f4530-4d44-4b26-bac7-485c876b7d5d","system_id":"levelo_inurba_marseille","lat":43.29966,"lon":5.384852,"is_reserved":false,"is_disabled":false,"rental_uris":{"android":"levelo://app?vid=886f4530-4d44-4b26-bac7-485c876b7d5d","ios":"levelo://app?vid=886f4530-4d44-4b26-bac7-485c876b7d5d"},"vehicle_type_id":"4","last_reported":1758708654,"current_range_meters":3200,"station_id":"","pricing_plan_id":"cebpf4jnsgd1na2vs0mg"},{"bike_id":"7fd14ad2-a454-423d-bbfa-04d2678cc6ac","system_id":"levelo_inurba_marseille","lat":43.29795,"lon":5.38094,"is_reserved":false,"is_disabled":false,"rental_uris":{"android":"levelo://app?vid=7fd14ad2-a454-423d-bbfa-04d2678cc6ac","ios":"levelo://app?vid=7fd14ad2-a454-423d-bbfa-04d2678cc6ac"},"vehicle_type_id":"4","last_reported":1758708654,"current_range_meters":3600,"station_id":"ce4bgip2rcd13ifvqbb0","pricing_plan_id":"cebpf4jnsgd1na2vs0mg"},{"bike_id":"418a67d9-5fe0-4f57-a9ea-9dcf946dbea1","system_id":"levelo_inurba_marseille","lat":43.27978,"lon":5.38742,"is_reserved":false,"is_disabled":false,"rental_uris":{"android":"levelo://app?vid=418a67d9-5fe0-4f57-a9ea-9dcf946dbea1","ios":"levelo://app?vid=418a67d9-5fe0-4f57-a9ea-9dcf946dbea1"},"vehicle_type_id":"4","last_reported":1758708654,"current_range_meters":3600,"station_id":"ce4bhg12rcd13ifvqf80","pricing_plan_id":"cebpf4jnsgd1na2vs0mg"},{"bike_id":"7a49baae-1192-4d9e-9454-3b7dc1b5cd97","system_id":"levelo_inurba_marseille","lat":43.30146,"lon":5.37403,"is_reserved":false,"is_disabled":false,"rental_uris":{"android":"levelo://app?vid=7a49baae-1192-4d9e-9454-3b7dc1b5cd97","ios":"levelo://app?vid=7a49baae-1192-4d9e-9454-3b7dc1b5cd97"},"vehicle_type_id":"4","last_reported":1758708654,"current_range_meters":3600,"station_id":"ce4bgs92rcd13ifvqcc0","pricing_plan_id":"cebpf4jnsgd1na2vs0mg"},{"bike_id":"3142344f-d1e3-4814-9010-89190160aa75","system_id":"levelo_inurba_marseille","lat":43.2926,"lon":5.38444,"is_reserved":false,"is_disabled":false,"rental_uris":{"android":"levelo://app?vid=3142344f-d1e3-4814-9010-89190160aa75","ios":"levelo://app?vid=3142344f-d1e3-4814-9010-89190160aa75"},"vehicle_type_id":"4","last_reported":1758708654,"current_range_meters":4000,"station_id":"ce4bh692rcd13ifvqea0","pricing_plan_id":"cebpf4jnsgd1na2vs0mg"},{"bike_id":"213937f4-0cd9-48b8-9d64-0b73c37bc721","system_id":"levelo_inurba_marseille","lat":43.29558,"lon":5.38174,"is_reserved":false,"is_disabled":false,"rental_uris":{"android":"levelo://app?vid=213937f4-0cd9-48b8-9d64-0b73c37bc721","ios":"levelo://app?vid=213937f4-0cd9-48b8-9d64-0b73c37bc721"},"vehicle_type_id":"4","last_reported":1758708654,"current_range_meters":4000,"station_id":"","pricing_plan_id":"cebpf4jnsgd1na2vs0mg"},{"bike_id":"c3ccbf09-5bbf-4439-ab62-cd1f4f69efb3","system_id":"levelo_inurba_marseille","lat":43.33616,"lon":5.41022,"is_reserved":false,"is_disabled":false,"rental_uris":{"android":"levelo://app?vid=c3ccbf09-5bbf-4439-ab62-cd1f4f69efb3","ios":"levelo://app?vid=c3ccbf09-5bbf-4439-ab62-cd1f4f69efb3"},"vehicle_type_id":"4","last_reported":1758708654,"current_range_meters":4000,"station_id":"ce4bhqh2rcd13ifvqhmg","pricing_plan_id":"cebpf4jnsgd1na2vs0mg"},{"bike_id":"5f708e73-eb33-4fa1-aee3-f0b295010716","system_id":"levelo_inurba_marseille","lat":43.282703,"lon":5.350592,"is_reserved":false,"is_disabled":false,"rental_uris":{"android":"levelo://app?vid=5f708e73-eb33-4fa1-aee3-f0b295010716","ios":"levelo://app?vid=5f708e73-eb33-4fa1-aee3-f0b295010716"},"vehicle_type_id":"4","last_reported":1758708654,"current_range_meters":4000,"station_id":"ce4bhbp2rcd13ifvqerg","pricing_plan_id":"cebpf4jnsgd1na2vs0mg"},{"bike_id":"b427b948-e5ee-495f-b6e7-de15ce917c31","system_id":"levelo_inurba_marseille","lat":43.299406,"lon":5.36566,"is_reserved":false,"is_disabled":false,"rental_uris":{"android":"levelo://app?vid=b427b948-e5ee-495f-b6e7-de15ce917c31","ios":"levelo://app?vid=b427b948-e5ee-495f-b6e7-de15ce917c31"},"vehicle_type_id":"4","last_reported":1758708654,"current_range_meters":4000,"station_id":"ce4bgm92rcd13ifvqbr0","pricing_plan_id":"cebpf4jnsgd1na2vs0mg"},{"bike_id":"1efddf8d-578f-4e4c-8c3f-e3a8bd592ba4","system_id":"levelo_inurba_marseille","lat":43.29956,"lon":5.37422,"is_reserved":false,"is_disabled":false,"rental_uris":{"android":"levelo://app?vid=1efddf8d-578f-4e4c-8c3f-e3a8bd592ba4","ios":"levelo://app?vid=1efddf8d-578f-4e4c-8c3f-e3a8bd592ba4"},"vehicle_type_id":"4","last_reported":1758708654,"current_range_meters":4400,"station_id":"","pricing_plan_id":"cebpf4jnsgd1na2vs0mg"},{"bike_id":"0a1ab1a5-b85e-4ac3-936e-fe171b7ebe82","system_id":"levelo_inurba_marseille","lat":43.296295,"lon":5.381289,"is_reserved":false,"is_disabled":false,"rental_uris":{"android":"levelo://app?vid=0a1ab1a5-b85e-4ac3-936e-fe171b7ebe82","ios":"levelo://app?vid=0a1ab1a5-b85e-4ac3-936e-fe171b7ebe82"},"vehicle_type_id":"4","last_reported":1758708654,"current_range_meters":4400,"station_id":"","pricing_plan_id":"cebpf4jnsgd1na2vs0mg"},{"bike_id":"db2c4d73-a23d-4cb3-aaf8-98ff0fdd1966","system_id":"levelo_inurba_marseille","lat":43.27205,"lon":5.3919,"is_reserved":false,"is_disabled":false,"rental_uris":{"android":"levelo://app?vid=db2c4d73-a23d-4cb3-aaf8-98ff0fdd1966","ios":"levelo://app?vid=db2c4d73-a23d-4cb3-aaf8-98ff0fdd1966"},"vehicle_type_id":"4","last_reported":1758708654,"current_range_meters":4800,"station_id":"ce4bhhp2rcd13ifvqfm0","pricing_plan_id":"cebpf4jnsgd1na2vs0mg"},{"bike_id":"4abb9cb8-ea6b-4a84-8c04-ad58174c85f6","system_id":"levelo_inurba_marseille","lat":43.29537,"lon":5.3941,"is_reserved":false,"is_disabled":false,"rental_uris":{"android":"levelo://app?vid=4abb9cb8-ea6b-4a84-8c04-ad58174c85f6","ios":"levelo://app?vid=4abb9cb8-ea6b-4a84-8c04-ad58174c85f6"},"vehicle_type_id":"4","last_reported":1758708654,"current_range_meters":4800,"station_id":"ce4bh292rcd13ifvqdf0","pricing_plan_id":"cebpf4jnsgd1na2vs0mg"},{"bike_id":"3b49cb0c-4367-40fe-9f05-4b5736cf26fa","system_id":"levelo_inurba_marseille","lat":43.25004,"lon":5.38927,"is_reserved":false,"is_disabled":false,"rental_uris":{"android":"levelo://app?vid=3b49cb0c-4367-40fe-9f05-4b5736cf26fa","ios":"levelo://app?vid=3b49cb0c-4367-40fe-9f05-4b5736cf26fa"},"vehicle_type_id":"4","last_reported":1758708654,"current_range_meters":5600,"station_id":"ce4bhgp2rcd13ifvqfd0","pricing_plan_id":"cebpf4jnsgd1na2vs0mg"},{"bike_id":"0b907fe7-a462-4053-80b1-00b03641a4ce","system_id":"levelo_inurba_marseille","lat":43.21747,"lon":5.34603,"is_reserved":false,"is_disabled":false,"rental_uris":{"android":"levelo://app?vid=0b907fe7-a462-4053-80b1-00b03641a4ce","ios":"levelo://app?vid=0b907fe7-a462-4053-80b1-00b03641a4ce"},"vehicle_type_id":"4","last_reported":1758708654,"current_range_meters":5600,"station_id":"st_cvj6r9ubvosntc0bgbag","pricing_plan_id":"cebpf4jnsgd1na2vs0mg"},{"bike_id":"82304ba4-71d4-444b-a52b-5e234edb762c","system_id":"levelo_inurba_marseille","lat":43.22945,"lon":5.35374,"is_reserved":false,"is_disabled":false,"rental_uris":{"android":"levelo://app?vid=82304ba4-71d4-444b-a52b-5e234edb762c","ios":"levelo://app?vid=82304ba4-71d4-444b-a52b-5e234edb762c"},"vehicle_type_id":"4","last_reported":1758708654,"current_range_meters":5600,"station_id":"","pricing_plan_id":"cebpf4jnsgd1na2vs0mg"},{"bike_id":"3028bd2d-a479-44b5-9a96-222ee8498129","system_id":"levelo_inurba_marseille","lat":43.21195,"lon":5.35078,"is_reserved":false,"is_disabled":false,"rental_uris":{"android":"levelo://app?vid=3028bd2d-a479-44b5-9a96-222ee8498129","ios":"levelo://app?vid=3028bd2d-a479-44b5-9a96-222ee8498129"},"vehicle_type_id":"4","last_reported":1758708654,"current_range_meters":5600,"station_id":"st_cvj6sg6p6f1abm77japg","pricing_plan_id":"cebpf4jnsgd1na2vs0mg"},{"bike_id":"023538a4-c74d-41b7-b52d-a9cf1f022cec","system_id":"levelo_inurba_marseille","lat":43.30883,"lon":5.37951,"is_reserved":false,"is_disabled":false,"rental_uris":{"android":"levelo://app?vid=023538a4-c74d-41b7-b52d-a9cf1f022cec","ios":"levelo://app?vid=023538a4-c74d-41b7-b52d-a9cf1f022cec"},"vehicle_type_id":"4","last_reported":1758708654,"current_range_meters":5600,"station_id":"","pricing_plan_id":"cebpf4jnsgd1na2vs0mg"},{"bike_id":"cb6bf7d2-2ed1-47c4-b0a7-9c935f0ebf1a","system_id":"levelo_inurba_marseille","lat":43.26866,"lon":5.40687,"is_reserved":false,"is_disabled":false,"rental_uris":{"android":"levelo://app?vid=cb6bf7d2-2ed1-47c4-b0a7-9c935f0ebf1a","ios":"levelo://app?vid=cb6bf7d2-2ed1-47c4-b0a7-9c935f0ebf1a"},"vehicle_type_id":"4","last_reported":1758708654,"current_range_meters":6000,"station_id":"","pricing_plan_id":"cebpf4jnsgd1na2vs0mg"},{"bike_id":"1f08633a-8f55-4a9e-9496-b83ccb92dd6d","system_id":"levelo_inurba_marseille","lat":43.27063,"lon":5.42272,"is_reserved":false,"is_disabled":false,"rental_uris":{"android":"levelo://app?vid=1f08633a-8f55-4a9e-9496-b83ccb92dd6d","ios":"levelo://app?vid=1f08633a-8f55-4a9e-9496-b83ccb92dd6d"},"vehicle_type_id":"4","last_reported":1758708654,"current_range_meters":6000,"station_id":"ce4bhk92rcd13ifvqgb0","pricing_plan_id":"cebpf4jnsgd1na2vs0mg"},{"bike_id":"962b15bf-a341-4469-9450-c0428eb337e2","system_id":"levelo_inurba_marseille","lat":43.23179,"lon":5.43737,"is_reserved":false,"is_disabled":false,"rental_uris":{"android":"levelo://app?vid=962b15bf-a341-4469-9450-c0428eb337e2","ios":"levelo://app?vid=962b15bf-a341-4469-9450-c0428eb337e2"},"vehicle_type_id":"4","last_reported":1758708654,"current_range_meters":6400,"station_id":"ce4bhmp2rcd13ifvqgog","pricing_plan_id":"cebpf4jnsgd1na2vs0mg"},{"bike_id":"d5fedea1-6241-4b34-ab73-322586469be7","system_id":"levelo_inurba_marseille","lat":43.30182,"lon":5.36624,"is_reserved":false,"is_disabled":false,"rental_uris":{"android":"levelo://app?vid=d5fedea1-6241-4b34-ab73-322586469be7","ios":"levelo://app?vid=d5fedea1-6241-4b34-ab73-322586469be7"},"vehicle_type_id":"4","last_reported":1758708654,"current_range_meters":6400,"station_id":"ce4bgrh2rcd13ifvqc8g","pricing_plan_id":"cebpf4jnsgd1na2vs0mg"},{"bike_id":"95626dd7-f14a-4756-933e-ef3a733d2781","system_id":"levelo_inurba_marseille","lat":43.29982,"lon":5.37182,"is_reserved":false,"is_disabled":false,"rental_uris":{"android":"levelo://app?vid=95626dd7-f14a-4756-933e-ef3a733d2781","ios":"levelo://app?vid=95626dd7-f14a-4756-933e-ef3a733d2781"},"vehicle_type_id":"4","last_reported":1758708654,"current_range_meters":6800,"station_id":"ce4bgr92rcd13ifvqc7g","pricing_plan_id":"cebpf4jnsgd1na2vs0mg"},{"bike_id":"edf2587e-4949-4e7e-a274-d46763137a09","system_id":"levelo_inurba_marseille","lat":43.29582,"lon":5.36744,"is_reserved":false,"is_disabled":false,"rental_uris":{"android":"levelo://app?vid=edf2587e-4949-4e7e-a274-d46763137a09","ios":"levelo://app?vid=edf2587e-4949-4e7e-a274-d46763137a09"},"vehicle_type_id":"4","last_reported":1758708654,"current_range_meters":6800,"station_id":"ce4bgph2rcd13ifvqc2g","pricing_plan_id":"cebpf4jnsgd1na2vs0mg"},{"bike_id":"b49f589d-f879-4c54-af23-a1d7a8e8b818","system_id":"levelo_inurba_marseille","lat":43.231957,"lon":5.355518,"is_reserved":false,"is_disabled":false,"rental_uris":{"android":"levelo://app?vid=b49f589d-f879-4c54-af23-a1d7a8e8b818","ios":"levelo://app?vid=b49f589d-f879-4c54-af23-a1d7a8e8b818"},"vehicle_type_id":"4","last_reported":1758708654,"current_range_meters":7200,"station_id":"ce4bhu92rcd13ifvqi70","pricing_plan_id":"cebpf4jnsgd1na2vs0mg"},{"bike_id":"c95e0c05-dd94-491f-8092-9c7978400114","system_id":"levelo_inurba_marseille","lat":43.33492,"lon":5.36249,"is_reserved":false,"is_disabled":false,"rental_uris":{"android":"levelo://app?vid=c95e0c05-dd94-491f-8092-9c7978400114","ios":"levelo://app?vid=c95e0c05-dd94-491f-8092-9c7978400114"},"vehicle_type_id":"4","last_reported":1758708654,"current_range_meters":7200,"station_id":"ce4bhs12rcd13ifvqhvg","pricing_plan_id":"cebpf4jnsgd1na2vs0mg"},{"bike_id":"eecd2d2b-42d7-4497-9b6f-bd5d1d51cfe0","system_id":"levelo_inurba_marseille","lat":43.306605,"lon":5.400925,"is_reserved":false,"is_disabled":true,"rental_uris":{"android":"levelo://app?vid=eecd2d2b-42d7-4497-9b6f-bd5d1d51cfe0","ios":"levelo://app?vid=eecd2d2b-42d7-4497-9b6f-bd5d1d51cfe0"},"vehicle_type_id":"4","last_reported":1758708654,"current_range_meters":7200,"station_id":"ce4bh112rcd13ifvqda0","pricing_plan_id":"cebpf4jnsgd1na2vs0mg"},{"bike_id":"2b106f1d-35f0-475a-897d-fddf90769074","system_id":"levelo_inurba_marseille","lat":43.31994,"lon":5.38166,"is_reserved":false,"is_disabled":false,"rental_uris":{"android":"levelo://app?vid=2b106f1d-35f0-475a-897d-fddf90769074","ios":"levelo://app?vid=2b106f1d-35f0-475a-897d-fddf90769074"},"vehicle_type_id":"4","last_reported":1758708654,"current_range_meters":8000,"station_id":"ce4bhr12rcd13ifvqhpg","pricing_plan_id":"cebpf4jnsgd1na2vs0mg"},{"bike_id":"8d243e83-cc74-44d3-bf18-f20421549672","system_id":"levelo_inurba_marseille","lat":43.28938,"lon":5.35952,"is_reserved":false,"is_disabled":false,"rental_uris":{"android":"levelo://app?vid=8d243e83-cc74-44d3-bf18-f20421549672","ios":"levelo://app?vid=8d243e83-cc74-44d3-bf18-f20421549672"},"vehicle_type_id":"4","last_reported":1758708654,"current_range_meters":8000,"station_id":"","pricing_plan_id":"cebpf4jnsgd1na2vs0mg"},{"bike_id":"39164507-e2c6-48d9-bee3-8e96330f5f78","system_id":"levelo_inurba_marseille","lat":43.24079,"lon":5.37749,"is_reserved":false,"is_disabled":false,"rental_uris":{"android":"levelo://app?vid=39164507-e2c6-48d9-bee3-8e96330f5f78","ios":"levelo://app?vid=39164507-e2c6-48d9-bee3-8e96330f5f78"},"vehicle_type_id":"4","last_reported":1758708654,"current_range_meters":8400,"station_id":"ce4bhnp2rcd13ifvqgvg","pricing_plan_id":"cebpf4jnsgd1na2vs0mg"},{"bike_id":"3baee417-39e5-49f9-97a6-40faa0674446","system_id":"levelo_inurba_marseille","lat":43.30602,"lon":5.37233,"is_reserved":false,"is_disabled":false,"rental_uris":{"android":"levelo://app?vid=3baee417-39e5-49f9-97a6-40faa0674446","ios":"levelo://app?vid=3baee417-39e5-49f9-97a6-40faa0674446"},"vehicle_type_id":"4","last_reported":1758708654,"current_range_meters":8400,"station_id":"ce4bgqh2rcd13ifvqc4g","pricing_plan_id":"cebpf4jnsgd1na2vs0mg"},{"bike_id":"5a6b8f0f-e996-4a58-8907-b5a0b437dc53","system_id":"levelo_inurba_marseille","lat":43.27055,"lon":5.4026,"is_reserved":false,"is_disabled":false,"rental_uris":{"android":"levelo://app?vid=5a6b8f0f-e996-4a58-8907-b5a0b437dc53","ios":"levelo://app?vid=5a6b8f0f-e996-4a58-8907-b5a0b437dc53"},"vehicle_type_id":"4","last_reported":1758708654,"current_range_meters":8400,"station_id":"ce4bhk92rcd13ifvqgc0","pricing_plan_id":"cebpf4jnsgd1na2vs0mg"},{"bike_id":"2357d2b0-122b-4dfe-8078-02ca83ca8e48","system_id":"levelo_inurba_marseille","lat":43.31347,"lon":5.36722,"is_reserved":false,"is_disabled":false,"rental_uris":{"android":"levelo://app?vid=2357d2b0-122b-4dfe-8078-02ca83ca8e48","ios":"levelo://app?vid=2357d2b0-122b-4dfe-8078-02ca83ca8e48"},"vehicle_type_id":"4","last_reported":1758708654,"current_range_meters":8400,"station_id":"ce4bgr92rcd13ifvqc6g","pricing_plan_id":"cebpf4jnsgd1na2vs0mg"},{"bike_id":"4cabf13e-70d3-46c5-8d1e-119d522aa974","system_id":"levelo_inurba_marseille","lat":43.26937,"lon":5.38906,"is_reserved":false,"is_disabled":false,"rental_uris":{"android":"levelo://app?vid=4cabf13e-70d3-46c5-8d1e-119d522aa974","ios":"levelo://app?vid=4cabf13e-70d3-46c5-8d1e-119d522aa974"},"vehicle_type_id":"4","last_reported":1758708654,"current_range_meters":8400,"station_id":"ce4bhhh2rcd13ifvqfl0","pricing_plan_id":"cebpf4jnsgd1na2vs0mg"},{"bike_id":"5831c095-df14-45e5-a8ab-be880ef9780a","system_id":"levelo_inurba_marseille","lat":43.26683,"lon":5.38251,"is_reserved":false,"is_disabled":false,"rental_uris":{"android":"levelo://app?vid=5831c095-df14-45e5-a8ab-be880ef9780a","ios":"levelo://app?vid=5831c095-df14-45e5-a8ab-be880ef9780a"},"vehicle_type_id":"4","last_reported":1758708654,"current_range_meters":8800,"station_id":"ce4bhg92rcd13ifvqf90","pricing_plan_id":"cebpf4jnsgd1na2vs0mg"},{"bike_id":"93d09efc-3d5a-4572-a77e-388981ded0df","system_id":"levelo_inurba_marseille","lat":43.27939,"lon":5.41046,"is_reserved":false,"is_disabled":false,"rental_uris":{"android":"levelo://app?vid=93d09efc-3d5a-4572-a77e-388981ded0df","ios":"levelo://app?vid=93d09efc-3d5a-4572-a77e-388981ded0df"},"vehicle_type_id":"4","last_reported":1758708654,"current_range_meters":8800,"station_id":"ce4bhnp2rcd13ifvqh0g","pricing_plan_id":"cebpf4jnsgd1na2vs0mg"},{"bike_id":"99cbb4f6-6b97-4d53-809c-595be327c599","system_id":"levelo_inurba_marseille","lat":43.3013,"lon":5.3877,"is_reserved":false,"is_disabled":false,"rental_uris":{"android":"levelo://app?vid=99cbb4f6-6b97-4d53-809c-595be327c599","ios":"levelo://app?vid=99cbb4f6-6b97-4d53-809c-595be327c599"},"vehicle_type_id":"4","last_reported":1758708654,"current_range_meters":9200,"station_id":"ce4bghh2rcd13ifvqb60","pricing_plan_id":"cebpf4jnsgd1na2vs0mg"},{"bike_id":"5066d309-8216-451d-a4ad-b99cfce50b61","system_id":"levelo_inurba_marseille","lat":43.30559,"lon":5.3671,"is_reserved":false,"is_disabled":false,"rental_uris":{"android":"levelo://app?vid=5066d309-8216-451d-a4ad-b99cfce50b61","ios":"levelo://app?vid=5066d309-8216-451d-a4ad-b99cfce50b61"},"vehicle_type_id":"4","last_reported":1758708654,"current_range_meters":9200,"station_id":"ce4bgrp2rcd13ifvqc9g","pricing_plan_id":"cebpf4jnsgd1na2vs0mg"},{"bike_id":"af8bbd19-ecc7-4921-bc16-cdbeda63b9f0","system_id":"levelo_inurba_marseille","lat":43.32475,"lon":5.36588,"is_reserved":false,"is_disabled":false,"rental_uris":{"android":"levelo://app?vid=af8bbd19-ecc7-4921-bc16-cdbeda63b9f0","ios":"levelo://app?vid=af8bbd19-ecc7-4921-bc16-cdbeda63b9f0"},"vehicle_type_id":"4","last_reported":1758708654,"current_range_meters":9200,"station_id":"ce4bhs12rcd13ifvqhvg","pricing_plan_id":"cebpf4jnsgd1na2vs0mg"},{"bike_id":"cdac1455-b607-4301-b3d7-8d6d21f524da","system_id":"levelo_inurba_marseille","lat":43.27965,"lon":5.38752,"is_reserved":false,"is_disabled":false,"rental_uris":{"android":"levelo://app?vid=cdac1455-b607-4301-b3d7-8d6d21f524da","ios":"levelo://app?vid=cdac1455-b607-4301-b3d7-8d6d21f524da"},"vehicle_type_id":"4","last_reported":1758708654,"current_range_meters":9600,"station_id":"ce4bhg12rcd13ifvqf80","pricing_plan_id":"cebpf4jnsgd1na2vs0mg"},{"bike_id":"3ec0418d-bf5c-410b-8e00-2346a9069fc3","system_id":"levelo_inurba_marseille","lat":43.29036,"lon":5.38145,"is_reserved":false,"is_disabled":false,"rental_uris":{"android":"levelo://app?vid=3ec0418d-bf5c-410b-8e00-2346a9069fc3","ios":"levelo://app?vid=3ec0418d-bf5c-410b-8e00-2346a9069fc3"},"vehicle_type_id":"4","last_reported":1758708654,"current_range_meters":9600,"station_id":"ce4bh4p2rcd13ifvqe1g","pricing_plan_id":"cebpf4jnsgd1na2vs0mg"},{"bike_id":"97cd7d08-b451-4882-98bd-4a7d65c8e805","system_id":"levelo_inurba_marseille","lat":43.297363,"lon":5.376853,"is_reserved":false,"is_disabled":false,"rental_uris":{"android":"levelo://app?vid=97cd7d08-b451-4882-98bd-4a7d65c8e805","ios":"levelo://app?vid=97cd7d08-b451-4882-98bd-4a7d65c8e805"},"vehicle_type_id":"4","last_reported":1758708654,"current_range_meters":9600,"station_id":"ce4bgkh2rcd13ifvqbl0","pricing_plan_id":"cebpf4jnsgd1na2vs0mg"},{"bike_id":"9c4a7bdb-c552-4dfd-8efb-40b9e0b0b147","system_id":"levelo_inurba_marseille","lat":43.30914,"lon":5.36743,"is_reserved":false,"is_disabled":false,"rental_uris":{"android":"levelo://app?vid=9c4a7bdb-c552-4dfd-8efb-40b9e0b0b147","ios":"levelo://app?vid=9c4a7bdb-c552-4dfd-8efb-40b9e0b0b147"},"vehicle_type_id":"4","last_reported":1758708654,"current_range_meters":9600,"station_id":"","pricing_plan_id":"cebpf4jnsgd1na2vs0mg"},{"bike_id":"596ba430-19b2-47a9-978e-56711c383456","system_id":"levelo_inurba_marseille","lat":43.28273,"lon":5.35084,"is_reserved":false,"is_disabled":false,"rental_uris":{"android":"levelo://app?vid=596ba430-19b2-47a9-978e-56711c383456","ios":"levelo://app?vid=596ba430-19b2-47a9-978e-56711c383456"},"vehicle_type_id":"4","last_reported":1758708654,"current_range_meters":9600,"station_id":"ce4bhbp2rcd13ifvqerg","pricing_plan_id":"cebpf4jnsgd1na2vs0mg"},{"bike_id":"52de0958-b441-4537-88d9-5943de40f698","system_id":"levelo_inurba_marseille","lat":43.29938,"lon":5.36558,"is_reserved":false,"is_disabled":false,"rental_uris":{"android":"levelo://app?vid=52de0958-b441-4537-88d9-5943de40f698","ios":"levelo://app?vid=52de0958-b441-4537-88d9-5943de40f698"},"vehicle_type_id":"4","last_reported":1758708654,"current_range_meters":9600,"station_id":"ce4bgm92rcd13ifvqbr0","pricing_plan_id":"cebpf4jnsgd1na2vs0mg"},{"bike_id":"316d2b5b-2c67-42ee-8fb6-2babe4d63809","system_id":"levelo_inurba_marseille","lat":43.27309,"lon":5.39084,"is_reserved":false,"is_disabled":false,"rental_uris":{"android":"levelo://app?vid=316d2b5b-2c67-42ee-8fb6-2babe4d63809","ios":"levelo://app?vid=316d2b5b-2c67-42ee-8fb6-2babe4d63809"},"vehicle_type_id":"4","last_reported":1758708654,"current_range_meters":10000,"station_id":"ce4bhgp2rcd13ifvqfe0","pricing_plan_id":"cebpf4jnsgd1na2vs0mg"},{"bike_id":"08ffd931-e17f-4442-9575-cf4dfdcd5276","system_id":"levelo_inurba_marseille","lat":43.28282,"lon":5.35076,"is_reserved":false,"is_disabled":false,"rental_uris":{"android":"levelo://app?vid=08ffd931-e17f-4442-9575-cf4dfdcd5276","ios":"levelo://app?vid=08ffd931-e17f-4442-9575-cf4dfdcd5276"},"vehicle_type_id":"4","last_reported":1758708654,"current_range_meters":10000,"station_id":"ce4bhbp2rcd13ifvqerg","pricing_plan_id":"cebpf4jnsgd1na2vs0mg"},{"bike_id":"4ce67155-9f15-4130-9400-f86685d8ecda","system_id":"levelo_inurba_marseille","lat":43.29762,"lon":5.36534,"is_reserved":false,"is_disabled":false,"rental_uris":{"android":"levelo://app?vid=4ce67155-9f15-4130-9400-f86685d8ecda","ios":"levelo://app?vid=4ce67155-9f15-4130-9400-f86685d8ecda"},"vehicle_type_id":"4","last_reported":1758708654,"current_range_meters":10000,"station_id":"","pricing_plan_id":"cebpf4jnsgd1na2vs0mg"},{"bike_id":"ee324131-7f1e-4c44-8cd4-8facf81a76e2","system_id":"levelo_inurba_marseille","lat":43.28009,"lon":5.39992,"is_reserved":false,"is_disabled":false,"rental_uris":{"android":"levelo://app?vid=ee324131-7f1e-4c44-8cd4-8facf81a76e2","ios":"levelo://app?vid=ee324131-7f1e-4c44-8cd4-8facf81a76e2"},"vehicle_type_id":"4","last_reported":1758708654,"current_range_meters":10000,"station_id":"ce4bho92rcd13ifvqh4g","pricing_plan_id":"cebpf4jnsgd1na2vs0mg"},{"bike_id":"9e297a69-302c-4894-8030-14e98fb700b7","system_id":"levelo_inurba_marseille","lat":43.29615,"lon":5.37725,"is_reserved":false,"is_disabled":false,"rental_uris":{"android":"levelo://app?vid=9e297a69-302c-4894-8030-14e98fb700b7","ios":"levelo://app?vid=9e297a69-302c-4894-8030-14e98fb700b7"},"vehicle_type_id":"4","last_reported":1758708654,"current_range_meters":10000,"station_id":"ce4bgi92rcd13ifvqb90","pricing_plan_id":"cebpf4jnsgd1na2vs0mg"},{"bike_id":"7c0482c3-9253-4d1b-b4f3-be55cdb7721d","system_id":"levelo_inurba_marseille","lat":43.33757,"lon":5.37466,"is_reserved":false,"is_disabled":false,"rental_uris":{"android":"levelo://app?vid=7c0482c3-9253-4d1b-b4f3-be55cdb7721d","ios":"levelo://app?vid=7c0482c3-9253-4d1b-b4f3-be55cdb7721d"},"vehicle_type_id":"4","last_reported":1758708654,"current_range_meters":10800,"station_id":"","pricing_plan_id":"cebpf4jnsgd1na2vs0mg"},{"bike_id":"a97c5f3a-89d2-4741-940f-600f22b16835","system_id":"levelo_inurba_marseille","lat":43.24175,"lon":5.39727,"is_reserved":false,"is_disabled":false,"rental_uris":{"android":"levelo://app?vid=a97c5f3a-89d2-4741-940f-600f22b16835","ios":"levelo://app?vid=a97c5f3a-89d2-4741-940f-600f22b16835"},"vehicle_type_id":"4","last_reported":1758708654,"current_range_meters":10800,"station_id":"ce4bhn12rcd13ifvqgpg","pricing_plan_id":"cebpf4jnsgd1na2vs0mg"},{"bike_id":"4c0b651b-953c-4759-a0f7-0074f59a45eb","system_id":"levelo_inurba_marseille","lat":43.25766,"lon":5.39246,"is_reserved":false,"is_disabled":false,"rental_uris":{"android":"levelo://app?vid=4c0b651b-953c-4759-a0f7-0074f59a45eb","ios":"levelo://app?vid=4c0b651b-953c-4759-a0f7-0074f59a45eb"},"vehicle_type_id":"4","last_reported":1758708654,"current_range_meters":10800,"station_id":"","pricing_plan_id":"cebpf4jnsgd1na2vs0mg"},{"bike_id":"b3ec3379-5c3f-4624-9266-6edb4f07b01e","system_id":"levelo_inurba_marseille","lat":43.30303,"lon":5.37705,"is_reserved":false,"is_disabled":false,"rental_uris":{"android":"levelo://app?vid=b3ec3379-5c3f-4624-9266-6edb4f07b01e","ios":"levelo://app?vid=b3ec3379-5c3f-4624-9266-6edb4f07b01e"},"vehicle_type_id":"4","last_reported":1758708654,"current_range_meters":10800,"station_id":"ce4bguh2rcd13ifvqcj0","pricing_plan_id":"cebpf4jnsgd1na2vs0mg"},{"bike_id":"43d57fd4-047e-4ac8-97e5-ec9b96239472","system_id":"levelo_inurba_marseille","lat":43.33231,"lon":5.39821,"is_reserved":false,"is_disabled":false,"rental_uris":{"android":"levelo://app?vid=43d57fd4-047e-4ac8-97e5-ec9b96239472","ios":"levelo://app?vid=43d57fd4-047e-4ac8-97e5-ec9b96239472"},"vehicle_type_id":"4","last_reported":1758708654,"current_range_meters":10800,"station_id":"","pricing_plan_id":"cebpf4jnsgd1na2vs0mg"},{"bike_id":"e35dc3d8-0dfe-4bd4-87f7-5d3ca8bee4e5","system_id":"levelo_inurba_marseille","lat":43.25093,"lon":5.42578,"is_reserved":false,"is_disabled":false,"rental_uris":{"android":"levelo://app?vid=e35dc3d8-0dfe-4bd4-87f7-5d3ca8bee4e5","ios":"levelo://app?vid=e35dc3d8-0dfe-4bd4-87f7-5d3ca8bee4e5"},"vehicle_type_id":"4","last_reported":1758708654,"current_range_meters":10800,"station_id":"","pricing_plan_id":"cebpf4jnsgd1na2vs0mg"},{"bike_id":"3c0d7b5f-4dd7-4035-8738-26503c1a28eb","system_id":"levelo_inurba_marseille","lat":43.21749,"lon":5.34603,"is_reserved":false,"is_disabled":false,"rental_uris":{"android":"levelo://app?vid=3c0d7b5f-4dd7-4035-8738-26503c1a28eb","ios":"levelo://app?vid=3c0d7b5f-4dd7-4035-8738-26503c1a28eb"},"vehicle_type_id":"4","last_reported":1758708654,"current_range_meters":11200,"station_id":"st_cvj6r9ubvosntc0bgbag","pricing_plan_id":"cebpf4jnsgd1na2vs0mg"},{"bike_id":"05c71d1b-93ca-41b5-9e26-6b92b9d131f5","system_id":"levelo_inurba_marseille","lat":43.30554,"lon":5.36534,"is_reserved":false,"is_disabled":false,"rental_uris":{"android":"levelo://app?vid=05c71d1b-93ca-41b5-9e26-6b92b9d131f5","ios":"levelo://app?vid=05c71d1b-93ca-41b5-9e26-6b92b9d131f5"},"vehicle_type_id":"4","last_reported":1758708654,"current_range_meters":11200,"station_id":"ce4bgs12rcd13ifvqcag","pricing_plan_id":"cebpf4jnsgd1na2vs0mg"},{"bike_id":"06a24bce-028d-4b4a-b4a3-d45296145db5","system_id":"levelo_inurba_marseille","lat":43.28425,"lon":5.34991,"is_reserved":false,"is_disabled":true,"rental_uris":{"android":"levelo://app?vid=06a24bce-028d-4b4a-b4a3-d45296145db5","ios":"levelo://app?vid=06a24bce-028d-4b4a-b4a3-d45296145db5"},"vehicle_type_id":"4","last_reported":1758708654,"current_range_meters":11200,"station_id":"ce4bhch2rcd13ifvqeug","pricing_plan_id":"cebpf4jnsgd1na2vs0mg"},{"bike_id":"f746730a-01df-4aaf-8b03-2432ec0f5a0e","system_id":"levelo_inurba_marseille","lat":43.25944,"lon":5.40902,"is_reserved":false,"is_disabled":false,"rental_uris":{"android":"levelo://app?vid=f746730a-01df-4aaf-8b03-2432ec0f5a0e","ios":"levelo://app?vid=f746730a-01df-4aaf-8b03-2432ec0f5a0e"},"vehicle_type_id":"4","last_reported":1758708654,"current_range_meters":11200,"station_id":"ce4bhm92rcd13ifvqglg","pricing_plan_id":"cebpf4jnsgd1na2vs0mg"},{"bike_id":"ca23d393-b27c-481c-b91f-8f67d654c6f7","system_id":"levelo_inurba_marseille","lat":43.27202,"lon":5.39193,"is_reserved":false,"is_disabled":false,"rental_uris":{"android":"levelo://app?vid=ca23d393-b27c-481c-b91f-8f67d654c6f7","ios":"levelo://app?vid=ca23d393-b27c-481c-b91f-8f67d654c6f7"},"vehicle_type_id":"4","last_reported":1758708654,"current_range_meters":11200,"station_id":"ce4bhhp2rcd13ifvqfm0","pricing_plan_id":"cebpf4jnsgd1na2vs0mg"},{"bike_id":"ff363bf3-8d67-4f85-a90b-d63b35c9e259","system_id":"levelo_inurba_marseille","lat":43.27367,"lon":5.42394,"is_reserved":false,"is_disabled":false,"rental_uris":{"android":"levelo://app?vid=ff363bf3-8d67-4f85-a90b-d63b35c9e259","ios":"levelo://app?vid=ff363bf3-8d67-4f85-a90b-d63b35c9e259"},"vehicle_type_id":"4","last_reported":1758708654,"current_range_meters":11200,"station_id":"","pricing_plan_id":"cebpf4jnsgd1na2vs0mg"},{"bike_id":"557da376-c35c-486a-8093-6418cf36577e","system_id":"levelo_inurba_marseille","lat":43.27216,"lon":5.39189,"is_reserved":false,"is_disabled":false,"rental_uris":{"android":"levelo://app?vid=557da376-c35c-486a-8093-6418cf36577e","ios":"levelo://app?vid=557da376-c35c-486a-8093-6418cf36577e"},"vehicle_type_id":"4","last_reported":1758708654,"current_range_meters":11200,"station_id":"ce4bhhp2rcd13ifvqfm0","pricing_plan_id":"cebpf4jnsgd1na2vs0mg"},{"bike_id":"2884e01e-e8e5-4f64-839a-a54c238e1ae3","system_id":"levelo_inurba_marseille","lat":43.22545,"lon":5.34814,"is_reserved":false,"is_disabled":false,"rental_uris":{"android":"levelo://app?vid=2884e01e-e8e5-4f64-839a-a54c238e1ae3","ios":"levelo://app?vid=2884e01e-e8e5-4f64-839a-a54c238e1ae3"},"vehicle_type_id":"4","last_reported":1758708654,"current_range_meters":11600,"station_id":"","pricing_plan_id":"cebpf4jnsgd1na2vs0mg"},{"bike_id":"ac84aaae-c3eb-4db9-972a-fd754e485c90","system_id":"levelo_inurba_marseille","lat":43.32044,"lon":5.41567,"is_reserved":false,"is_disabled":false,"rental_uris":{"android":"levelo://app?vid=ac84aaae-c3eb-4db9-972a-fd754e485c90","ios":"levelo://app?vid=ac84aaae-c3eb-4db9-972a-fd754e485c90"},"vehicle_type_id":"4","last_reported":1758708654,"current_range_meters":11600,"station_id":"ce4bhq92rcd13ifvqhkg","pricing_plan_id":"cebpf4jnsgd1na2vs0mg"},{"bike_id":"b3227321-eb37-4bdd-8d3a-9c0b5475baa1","system_id":"levelo_inurba_marseille","lat":43.24548,"lon":5.39523,"is_reserved":false,"is_disabled":false,"rental_uris":{"android":"levelo://app?vid=b3227321-eb37-4bdd-8d3a-9c0b5475baa1","ios":"levelo://app?vid=b3227321-eb37-4bdd-8d3a-9c0b5475baa1"},"vehicle_type_id":"4","last_reported":1758708654,"current_range_meters":11600,"station_id":"ce4bhlp2rcd13ifvqgjg","pricing_plan_id":"cebpf4jnsgd1na2vs0mg"},{"bike_id":"7981bd57-1a91-436b-8601-50130d20e8be","system_id":"levelo_inurba_marseille","lat":43.21198,"lon":5.35068,"is_reserved":false,"is_disabled":false,"rental_uris":{"android":"levelo://app?vid=7981bd57-1a91-436b-8601-50130d20e8be","ios":"levelo://app?vid=7981bd57-1a91-436b-8601-50130d20e8be"},"vehicle_type_id":"4","last_reported":1758708654,"current_range_meters":12000,"station_id":"st_cvj6sg6p6f1abm77japg","pricing_plan_id":"cebpf4jnsgd1na2vs0mg"},{"bike_id":"836d7415-1df9-49f6-be99-81cd92a11bfb","system_id":"levelo_inurba_marseille","lat":43.29916,"lon":5.38149,"is_reserved":false,"is_disabled":false,"rental_uris":{"android":"levelo://app?vid=836d7415-1df9-49f6-be99-81cd92a11bfb","ios":"levelo://app?vid=836d7415-1df9-49f6-be99-81cd92a11bfb"},"vehicle_type_id":"4","last_reported":1758708654,"current_range_meters":12000,"station_id":"ce4bgj12rcd13ifvqbc0","pricing_plan_id":"cebpf4jnsgd1na2vs0mg"},{"bike_id":"5d93178e-9df8-409e-9875-7e68c6516015","system_id":"levelo_inurba_marseille","lat":43.337444,"lon":5.374475,"is_reserved":false,"is_disabled":false,"rental_uris":{"android":"levelo://app?vid=5d93178e-9df8-409e-9875-7e68c6516015","ios":"levelo://app?vid=5d93178e-9df8-409e-9875-7e68c6516015"},"vehicle_type_id":"4","last_reported":1758708654,"current_range_meters":12000,"station_id":"","pricing_plan_id":"cebpf4jnsgd1na2vs0mg"},{"bike_id":"b3f4de2e-1d31-41fc-9c19-8961d366edc0","system_id":"levelo_inurba_marseille","lat":43.27907,"lon":5.37996,"is_reserved":false,"is_disabled":false,"rental_uris":{"android":"levelo://app?vid=b3f4de2e-1d31-41fc-9c19-8961d366edc0","ios":"levelo://app?vid=b3f4de2e-1d31-41fc-9c19-8961d366edc0"},"vehicle_type_id":"4","last_reported":1758708654,"current_range_meters":12000,"station_id":"ce4bhf92rcd13ifvqf50","pricing_plan_id":"cebpf4jnsgd1na2vs0mg"},{"bike_id":"a60abba9-f9b8-477b-8786-175fc2b6218b","system_id":"levelo_inurba_marseille","lat":43.30866,"lon":5.37169,"is_reserved":false,"is_disabled":false,"rental_uris":{"android":"levelo://app?vid=a60abba9-f9b8-477b-8786-175fc2b6218b","ios":"levelo://app?vid=a60abba9-f9b8-477b-8786-175fc2b6218b"},"vehicle_type_id":"4","last_reported":1758708654,"current_range_meters":12400,"station_id":"ce4bguh2rcd13ifvqckg","pricing_plan_id":"cebpf4jnsgd1na2vs0mg"},{"bike_id":"f1b5e4f7-6c13-4fc5-9c5f-8ccc2bedb67e","system_id":"levelo_inurba_marseille","lat":43.25858,"lon":5.39918,"is_reserved":false,"is_disabled":false,"rental_uris":{"android":"levelo://app?vid=f1b5e4f7-6c13-4fc5-9c5f-8ccc2bedb67e","ios":"levelo://app?vid=f1b5e4f7-6c13-4fc5-9c5f-8ccc2bedb67e"},"vehicle_type_id":"4","last_reported":1758708654,"current_range_meters":12000,"station_id":"ce4bhl92rcd13ifvqghg","pricing_plan_id":"cebpf4jnsgd1na2vs0mg"},{"bike_id":"d45e55fd-bdef-4148-a4fe-c963d9428301","system_id":"levelo_inurba_marseille","lat":43.25958,"lon":5.40957,"is_reserved":false,"is_disabled":false,"rental_uris":{"android":"levelo://app?vid=d45e55fd-bdef-4148-a4fe-c963d9428301","ios":"levelo://app?vid=d45e55fd-bdef-4148-a4fe-c963d9428301"},"vehicle_type_id":"4","last_reported":1758708654,"current_range_meters":12400,"station_id":"ce4bhm92rcd13ifvqglg","pricing_plan_id":"cebpf4jnsgd1na2vs0mg"},{"bike_id":"1f8d6478-65dc-4441-8c70-9cf9b7b436ab","system_id":"levelo_inurba_marseille","lat":43.30555,"lon":5.38433,"is_reserved":false,"is_disabled":false,"rental_uris":{"android":"levelo://app?vid=1f8d6478-65dc-4441-8c70-9cf9b7b436ab","ios":"levelo://app?vid=1f8d6478-65dc-4441-8c70-9cf9b7b436ab"},"vehicle_type_id":"4","last_reported":1758708654,"current_range_meters":12400,"station_id":"ce4bgg92rcd13ifvqb30","pricing_plan_id":"cebpf4jnsgd1na2vs0mg"},{"bike_id":"0f1650fe-7e07-4db9-9c9e-440f7f5b47d4","system_id":"levelo_inurba_marseille","lat":43.21189,"lon":5.350716,"is_reserved":false,"is_disabled":false,"rental_uris":{"android":"levelo://app?vid=0f1650fe-7e07-4db9-9c9e-440f7f5b47d4","ios":"levelo://app?vid=0f1650fe-7e07-4db9-9c9e-440f7f5b47d4"},"vehicle_type_id":"4","last_reported":1758708654,"current_range_meters":12400,"station_id":"st_cvj6sg6p6f1abm77japg","pricing_plan_id":"cebpf4jnsgd1na2vs0mg"},{"bike_id":"9feb0e0f-24fa-4463-b0f3-30472830c043","system_id":"levelo_inurba_marseille","lat":43.31757,"lon":5.39002,"is_reserved":false,"is_disabled":false,"rental_uris":{"android":"levelo://app?vid=9feb0e0f-24fa-4463-b0f3-30472830c043","ios":"levelo://app?vid=9feb0e0f-24fa-4463-b0f3-30472830c043"},"vehicle_type_id":"4","last_reported":1758708654,"current_range_meters":12800,"station_id":"ce4bhqp2rcd13ifvqhng","pricing_plan_id":"cebpf4jnsgd1na2vs0mg"},{"bike_id":"936bd9de-c891-4360-8a83-7b082d691027","system_id":"levelo_inurba_marseille","lat":43.29987,"lon":5.37161,"is_reserved":false,"is_disabled":false,"rental_uris":{"android":"levelo://app?vid=936bd9de-c891-4360-8a83-7b082d691027","ios":"levelo://app?vid=936bd9de-c891-4360-8a83-7b082d691027"},"vehicle_type_id":"4","last_reported":1758708654,"current_range_meters":12800,"station_id":"ce4bgr92rcd13ifvqc7g","pricing_plan_id":"cebpf4jnsgd1na2vs0mg"},{"bike_id":"a740e6c6-76f8-48cb-b6fe-e70d48f6ba79","system_id":"levelo_inurba_marseille","lat":43.291988,"lon":5.393192,"is_reserved":false,"is_disabled":true,"rental_uris":{"android":"levelo://app?vid=a740e6c6-76f8-48cb-b6fe-e70d48f6ba79","ios":"levelo://app?vid=a740e6c6-76f8-48cb-b6fe-e70d48f6ba79"},"vehicle_type_id":"4","last_reported":1758708654,"current_range_meters":12800,"station_id":"ce4bh192rcd13ifvqdd0","pricing_plan_id":"cebpf4jnsgd1na2vs0mg"},{"bike_id":"438ead59-de14-4fa0-a61d-03a70a4122ae","system_id":"levelo_inurba_marseille","lat":43.97269,"lon":4.89111,"is_reserved":false,"is_disabled":true,"rental_uris":{"android":"levelo://app?vid=438ead59-de14-4fa0-a61d-03a70a4122ae","ios":"levelo://app?vid=438ead59-de14-4fa0-a61d-03a70a4122ae"},"vehicle_type_id":"4","last_reported":1758708654,"current_range_meters":12800,"station_id":"","pricing_plan_id":"cebpf4jnsgd1na2vs0mg"},{"bike_id":"381c58df-700e-440f-9d2d-9f7625571f05","system_id":"levelo_inurba_marseille","lat":43.30251,"lon":5.40076,"is_reserved":false,"is_disabled":false,"rental_uris":{"android":"levelo://app?vid=381c58df-700e-440f-9d2d-9f7625571f05","ios":"levelo://app?vid=381c58df-700e-440f-9d2d-9f7625571f05"},"vehicle_type_id":"4","last_reported":1758708654,"current_range_meters":12400,"station_id":"ce4bgvh2rcd13ifvqcs0","pricing_plan_id":"cebpf4jnsgd1na2vs0mg"},{"bike_id":"775d2ad5-89ec-4ca2-aad6-292d6d92b011","system_id":"levelo_inurba_marseille","lat":43.32413,"lon":5.36574,"is_reserved":false,"is_disabled":false,"rental_uris":{"android":"levelo://app?vid=775d2ad5-89ec-4ca2-aad6-292d6d92b011","ios":"levelo://app?vid=775d2ad5-89ec-4ca2-aad6-292d6d92b011"},"vehicle_type_id":"4","last_reported":1758708654,"current_range_meters":13600,"station_id":"","pricing_plan_id":"cebpf4jnsgd1na2vs0mg"},{"bike_id":"ffd521c1-575a-4f96-b866-83580b1e4a1c","system_id":"levelo_inurba_marseille","lat":43.29533,"lon":5.37508,"is_reserved":false,"is_disabled":false,"rental_uris":{"android":"levelo://app?vid=ffd521c1-575a-4f96-b866-83580b1e4a1c","ios":"levelo://app?vid=ffd521c1-575a-4f96-b866-83580b1e4a1c"},"vehicle_type_id":"4","last_reported":1758708654,"current_range_meters":13600,"station_id":"ce4bgkp2rcd13ifvqbmg","pricing_plan_id":"cebpf4jnsgd1na2vs0mg"},{"bike_id":"b5097eea-9912-4be2-9cf9-14c224c5fab6","system_id":"levelo_inurba_marseille","lat":43.232032,"lon":5.355433,"is_reserved":false,"is_disabled":false,"rental_uris":{"android":"levelo://app?vid=b5097eea-9912-4be2-9cf9-14c224c5fab6","ios":"levelo://app?vid=b5097eea-9912-4be2-9cf9-14c224c5fab6"},"vehicle_type_id":"4","last_reported":1758708654,"current_range_meters":13600,"station_id":"ce4bhu92rcd13ifvqi70","pricing_plan_id":"cebpf4jnsgd1na2vs0mg"},{"bike_id":"4f60849d-7e41-47e4-a340-7c7f445d6859","system_id":"levelo_inurba_marseille","lat":43.31758,"lon":5.39011,"is_reserved":false,"is_disabled":false,"rental_uris":{"android":"levelo://app?vid=4f60849d-7e41-47e4-a340-7c7f445d6859","ios":"levelo://app?vid=4f60849d-7e41-47e4-a340-7c7f445d6859"},"vehicle_type_id":"4","last_reported":1758708654,"current_range_meters":13600,"station_id":"ce4bhqp2rcd13ifvqhng","pricing_plan_id":"cebpf4jnsgd1na2vs0mg"},{"bike_id":"256d7e8b-6f10-45e7-998f-21b1a7616e67","system_id":"levelo_inurba_marseille","lat":43.298143,"lon":5.380933,"is_reserved":false,"is_disabled":false,"rental_uris":{"android":"levelo://app?vid=256d7e8b-6f10-45e7-998f-21b1a7616e67","ios":"levelo://app?vid=256d7e8b-6f10-45e7-998f-21b1a7616e67"},"vehicle_type_id":"4","last_reported":1758708654,"current_range_meters":13600,"station_id":"ce4bgip2rcd13ifvqbb0","pricing_plan_id":"cebpf4jnsgd1na2vs0mg"},{"bike_id":"6fc2c705-7f42-4b0a-a53a-f7331de27ea1","system_id":"levelo_inurba_marseille","lat":43.29574,"lon":5.37505,"is_reserved":false,"is_disabled":false,"rental_uris":{"android":"levelo://app?vid=6fc2c705-7f42-4b0a-a53a-f7331de27ea1","ios":"levelo://app?vid=6fc2c705-7f42-4b0a-a53a-f7331de27ea1"},"vehicle_type_id":"4","last_reported":1758708654,"current_range_meters":13600,"station_id":"ce4bgh92rcd13ifvqb50","pricing_plan_id":"cebpf4jnsgd1na2vs0mg"},{"bike_id":"4ea71d83-c74b-45e0-95a5-e4c77af55e88","system_id":"levelo_inurba_marseille","lat":43.32104,"lon":5.36789,"is_reserved":false,"is_disabled":false,"rental_uris":{"android":"levelo://app?vid=4ea71d83-c74b-45e0-95a5-e4c77af55e88","ios":"levelo://app?vid=4ea71d83-c74b-45e0-95a5-e4c77af55e88"},"vehicle_type_id":"4","last_reported":1758708654,"current_range_meters":14000,"station_id":"ce4bhrh2rcd13ifvqhug","pricing_plan_id":"cebpf4jnsgd1na2vs0mg"},{"bike_id":"b6171b2d-49a8-4555-999d-d6c2df532e49","system_id":"levelo_inurba_marseille","lat":43.231939,"lon":5.355467,"is_reserved":false,"is_disabled":false,"rental_uris":{"android":"levelo://app?vid=b6171b2d-49a8-4555-999d-d6c2df532e49","ios":"levelo://app?vid=b6171b2d-49a8-4555-999d-d6c2df532e49"},"vehicle_type_id":"4","last_reported":1758708654,"current_range_meters":14000,"station_id":"ce4bhu92rcd13ifvqi70","pricing_plan_id":"cebpf4jnsgd1na2vs0mg"},{"bike_id":"06c10839-75c7-457b-804b-f341157fb4f3","system_id":"levelo_inurba_marseille","lat":43.25084,"lon":5.40441,"is_reserved":false,"is_disabled":false,"rental_uris":{"android":"levelo://app?vid=06c10839-75c7-457b-804b-f341157fb4f3","ios":"levelo://app?vid=06c10839-75c7-457b-804b-f341157fb4f3"},"vehicle_type_id":"4","last_reported":1758708654,"current_range_meters":14000,"station_id":"","pricing_plan_id":"cebpf4jnsgd1na2vs0mg"},{"bike_id":"52094713-4280-421b-b417-fe5c844f4daa","system_id":"levelo_inurba_marseille","lat":43.25111,"lon":5.40331,"is_reserved":false,"is_disabled":false,"rental_uris":{"android":"levelo://app?vid=52094713-4280-421b-b417-fe5c844f4daa","ios":"levelo://app?vid=52094713-4280-421b-b417-fe5c844f4daa"},"vehicle_type_id":"4","last_reported":1758708654,"current_range_meters":14000,"station_id":"ce4bhlh2rcd13ifvqgig","pricing_plan_id":"cebpf4jnsgd1na2vs0mg"},{"bike_id":"d25ea62f-67e4-45a8-83f3-4e59e22ad782","system_id":"levelo_inurba_marseille","lat":43.2931,"lon":5.3746,"is_reserved":false,"is_disabled":false,"rental_uris":{"android":"levelo://app?vid=d25ea62f-67e4-45a8-83f3-4e59e22ad782","ios":"levelo://app?vid=d25ea62f-67e4-45a8-83f3-4e59e22ad782"},"vehicle_type_id":"4","last_reported":1758708654,"current_range_meters":14000,"station_id":"ce4bgi12rcd13ifvqb70","pricing_plan_id":"cebpf4jnsgd1na2vs0mg"},{"bike_id":"90531cf1-c3c6-4374-9d7f-da4a9ea7fd92","system_id":"levelo_inurba_marseille","lat":43.2953,"lon":5.37504,"is_reserved":false,"is_disabled":false,"rental_uris":{"android":"levelo://app?vid=90531cf1-c3c6-4374-9d7f-da4a9ea7fd92","ios":"levelo://app?vid=90531cf1-c3c6-4374-9d7f-da4a9ea7fd92"},"vehicle_type_id":"4","last_reported":1758708654,"current_range_meters":14000,"station_id":"ce4bgkp2rcd13ifvqbmg","pricing_plan_id":"cebpf4jnsgd1na2vs0mg"},{"bike_id":"d68b9cdd-055c-48e6-b5c7-c6c683b923e5","system_id":"levelo_inurba_marseille","lat":43.28688,"lon":5.35265,"is_reserved":false,"is_disabled":true,"rental_uris":{"android":"levelo://app?vid=d68b9cdd-055c-48e6-b5c7-c6c683b923e5","ios":"levelo://app?vid=d68b9cdd-055c-48e6-b5c7-c6c683b923e5"},"vehicle_type_id":"4","last_reported":1758708654,"current_range_meters":14000,"station_id":"","pricing_plan_id":"cebpf4jnsgd1na2vs0mg"},{"bike_id":"528c3ca2-6e69-4088-b13a-99bd3c7e415f","system_id":"levelo_inurba_marseille","lat":43.23189,"lon":5.39978,"is_reserved":false,"is_disabled":false,"rental_uris":{"android":"levelo://app?vid=528c3ca2-6e69-4088-b13a-99bd3c7e415f","ios":"levelo://app?vid=528c3ca2-6e69-4088-b13a-99bd3c7e415f"},"vehicle_type_id":"4","last_reported":1758708654,"current_range_meters":14000,"station_id":"ce4bhn12rcd13ifvqgqg","pricing_plan_id":"cebpf4jnsgd1na2vs0mg"},{"bike_id":"398fef7f-c52c-464b-b837-db7db0e2602a","system_id":"levelo_inurba_marseille","lat":43.249843,"lon":5.417915,"is_reserved":false,"is_disabled":false,"rental_uris":{"android":"levelo://app?vid=398fef7f-c52c-464b-b837-db7db0e2602a","ios":"levelo://app?vid=398fef7f-c52c-464b-b837-db7db0e2602a"},"vehicle_type_id":"4","last_reported":1758708654,"current_range_meters":14800,"station_id":"st_d2m65c5bi1j21697t3ng","pricing_plan_id":"cebpf4jnsgd1na2vs0mg"},{"bike_id":"3f9b1775-5d55-481e-be79-078d38b09814","system_id":"levelo_inurba_marseille","lat":43.2574,"lon":5.41105,"is_reserved":false,"is_disabled":false,"rental_uris":{"android":"levelo://app?vid=3f9b1775-5d55-481e-be79-078d38b09814","ios":"levelo://app?vid=3f9b1775-5d55-481e-be79-078d38b09814"},"vehicle_type_id":"4","last_reported":1758708654,"current_range_meters":14000,"station_id":"ce4bhkp2rcd13ifvqgd0","pricing_plan_id":"cebpf4jnsgd1na2vs0mg"},{"bike_id":"8c0227e3-55e8-4994-aa0c-9b6ee99b7e26","system_id":"levelo_inurba_marseille","lat":43.230537,"lon":5.354966,"is_reserved":false,"is_disabled":false,"rental_uris":{"android":"levelo://app?vid=8c0227e3-55e8-4994-aa0c-9b6ee99b7e26","ios":"levelo://app?vid=8c0227e3-55e8-4994-aa0c-9b6ee99b7e26"},"vehicle_type_id":"4","last_reported":1758708654,"current_range_meters":14400,"station_id":"cpo3342slgdg3j2ifvpg","pricing_plan_id":"cebpf4jnsgd1na2vs0mg"},{"bike_id":"2d4006e7-21c9-43f0-a094-fcaaa7f929b9","system_id":"levelo_inurba_marseille","lat":43.30539,"lon":5.365329,"is_reserved":false,"is_disabled":false,"rental_uris":{"android":"levelo://app?vid=2d4006e7-21c9-43f0-a094-fcaaa7f929b9","ios":"levelo://app?vid=2d4006e7-21c9-43f0-a094-fcaaa7f929b9"},"vehicle_type_id":"4","last_reported":1758708654,"current_range_meters":14400,"station_id":"ce4bgs12rcd13ifvqcag","pricing_plan_id":"cebpf4jnsgd1na2vs0mg"},{"bike_id":"d0ebaeb4-0509-4e9f-a02a-c09b9a9e066b","system_id":"levelo_inurba_marseille","lat":43.26696,"lon":5.38252,"is_reserved":false,"is_disabled":false,"rental_uris":{"android":"levelo://app?vid=d0ebaeb4-0509-4e9f-a02a-c09b9a9e066b","ios":"levelo://app?vid=d0ebaeb4-0509-4e9f-a02a-c09b9a9e066b"},"vehicle_type_id":"4","last_reported":1758708654,"current_range_meters":14400,"station_id":"ce4bhg92rcd13ifvqf90","pricing_plan_id":"cebpf4jnsgd1na2vs0mg"},{"bike_id":"2101ae46-8462-4c6e-915a-2b94ae7aab06","system_id":"levelo_inurba_marseille","lat":43.28979,"lon":5.37829,"is_reserved":false,"is_disabled":false,"rental_uris":{"android":"levelo://app?vid=2101ae46-8462-4c6e-915a-2b94ae7aab06","ios":"levelo://app?vid=2101ae46-8462-4c6e-915a-2b94ae7aab06"},"vehicle_type_id":"4","last_reported":1758708654,"current_range_meters":14400,"station_id":"ce4bh9p2rcd13ifvqed0","pricing_plan_id":"cebpf4jnsgd1na2vs0mg"},{"bike_id":"36b070bb-df09-4433-b99c-aab79ada22d5","system_id":"levelo_inurba_marseille","lat":43.29287,"lon":5.3744,"is_reserved":false,"is_disabled":false,"rental_uris":{"android":"levelo://app?vid=36b070bb-df09-4433-b99c-aab79ada22d5","ios":"levelo://app?vid=36b070bb-df09-4433-b99c-aab79ada22d5"},"vehicle_type_id":"4","last_reported":1758708654,"current_range_meters":14400,"station_id":"","pricing_plan_id":"cebpf4jnsgd1na2vs0mg"},{"bike_id":"8c28d318-3390-424f-8782-21566cc89608","system_id":"levelo_inurba_marseille","lat":43.28622,"lon":5.35108,"is_reserved":false,"is_disabled":false,"rental_uris":{"android":"levelo://app?vid=8c28d318-3390-424f-8782-21566cc89608","ios":"levelo://app?vid=8c28d318-3390-424f-8782-21566cc89608"},"vehicle_type_id":"4","last_reported":1758708654,"current_range_meters":14800,"station_id":"ce4bhch2rcd13ifvqeug","pricing_plan_id":"cebpf4jnsgd1na2vs0mg"},{"bike_id":"ef00c611-56e3-4d87-83a8-6fad9627913a","system_id":"levelo_inurba_marseille","lat":43.308894,"lon":5.371943,"is_reserved":false,"is_disabled":false,"rental_uris":{"android":"levelo://app?vid=ef00c611-56e3-4d87-83a8-6fad9627913a","ios":"levelo://app?vid=ef00c611-56e3-4d87-83a8-6fad9627913a"},"vehicle_type_id":"4","last_reported":1758708654,"current_range_meters":14800,"station_id":"ce4bguh2rcd13ifvqckg","pricing_plan_id":"cebpf4jnsgd1na2vs0mg"},{"bike_id":"fa32ac66-1868-4621-9603-33ed57153ba3","system_id":"levelo_inurba_marseille","lat":43.29991,"lon":5.40109,"is_reserved":false,"is_disabled":false,"rental_uris":{"android":"levelo://app?vid=fa32ac66-1868-4621-9603-33ed57153ba3","ios":"levelo://app?vid=fa32ac66-1868-4621-9603-33ed57153ba3"},"vehicle_type_id":"4","last_reported":1758708654,"current_range_meters":14800,"station_id":"","pricing_plan_id":"cebpf4jnsgd1na2vs0mg"},{"bike_id":"28fd374e-bb11-4cd4-9373-3be3f27bca5b","system_id":"levelo_inurba_marseille","lat":43.21751,"lon":5.346,"is_reserved":false,"is_disabled":false,"rental_uris":{"android":"levelo://app?vid=28fd374e-bb11-4cd4-9373-3be3f27bca5b","ios":"levelo://app?vid=28fd374e-bb11-4cd4-9373-3be3f27bca5b"},"vehicle_type_id":"4","last_reported":1758708654,"current_range_meters":14800,"station_id":"st_cvj6r9ubvosntc0bgbag","pricing_plan_id":"cebpf4jnsgd1na2vs0mg"},{"bike_id":"e08a5c95-4de5-40d9-88ef-395724071684","system_id":"levelo_inurba_marseille","lat":43.30178,"lon":5.36628,"is_reserved":false,"is_disabled":false,"rental_uris":{"android":"levelo://app?vid=e08a5c95-4de5-40d9-88ef-395724071684","ios":"levelo://app?vid=e08a5c95-4de5-40d9-88ef-395724071684"},"vehicle_type_id":"4","last_reported":1758708654,"current_range_meters":14800,"station_id":"ce4bgrh2rcd13ifvqc8g","pricing_plan_id":"cebpf4jnsgd1na2vs0mg"},{"bike_id":"a851cae0-b395-441e-9dd1-21300baf3396","system_id":"levelo_inurba_marseille","lat":43.31512,"lon":5.3871,"is_reserved":false,"is_disabled":false,"rental_uris":{"android":"levelo://app?vid=a851cae0-b395-441e-9dd1-21300baf3396","ios":"levelo://app?vid=a851cae0-b395-441e-9dd1-21300baf3396"},"vehicle_type_id":"4","last_reported":1758708654,"current_range_meters":14800,"station_id":"","pricing_plan_id":"cebpf4jnsgd1na2vs0mg"},{"bike_id":"8059f433-2aac-4f5f-a019-21c12cb4080a","system_id":"levelo_inurba_marseille","lat":43.29305,"lon":5.37449,"is_reserved":false,"is_disabled":false,"rental_uris":{"android":"levelo://app?vid=8059f433-2aac-4f5f-a019-21c12cb4080a","ios":"levelo://app?vid=8059f433-2aac-4f5f-a019-21c12cb4080a"},"vehicle_type_id":"4","last_reported":1758708654,"current_range_meters":14800,"station_id":"ce4bgi12rcd13ifvqb70","pricing_plan_id":"cebpf4jnsgd1na2vs0mg"},{"bike_id":"87ca8a08-9855-4e9c-97d7-ec2808660ba6","system_id":"levelo_inurba_marseille","lat":43.27217,"lon":5.39186,"is_reserved":false,"is_disabled":false,"rental_uris":{"android":"levelo://app?vid=87ca8a08-9855-4e9c-97d7-ec2808660ba6","ios":"levelo://app?vid=87ca8a08-9855-4e9c-97d7-ec2808660ba6"},"vehicle_type_id":"4","last_reported":1758708654,"current_range_meters":14800,"station_id":"ce4bhhp2rcd13ifvqfm0","pricing_plan_id":"cebpf4jnsgd1na2vs0mg"},{"bike_id":"b48e70b2-53f1-4641-819c-a53cac59b8ed","system_id":"levelo_inurba_marseille","lat":43.258241,"lon":5.39439,"is_reserved":false,"is_disabled":false,"rental_uris":{"android":"levelo://app?vid=b48e70b2-53f1-4641-819c-a53cac59b8ed","ios":"levelo://app?vid=b48e70b2-53f1-4641-819c-a53cac59b8ed"},"vehicle_type_id":"4","last_reported":1758708654,"current_range_meters":14800,"station_id":"ce4bhip2rcd13ifvqft0","pricing_plan_id":"cebpf4jnsgd1na2vs0mg"},{"bike_id":"7f3b6c61-4c37-40ee-a91e-38074668f3b0","system_id":"levelo_inurba_marseille","lat":43.2901,"lon":5.38112,"is_reserved":false,"is_disabled":false,"rental_uris":{"android":"levelo://app?vid=7f3b6c61-4c37-40ee-a91e-38074668f3b0","ios":"levelo://app?vid=7f3b6c61-4c37-40ee-a91e-38074668f3b0"},"vehicle_type_id":"4","last_reported":1758708654,"current_range_meters":15200,"station_id":"ce4bh4p2rcd13ifvqe1g","pricing_plan_id":"cebpf4jnsgd1na2vs0mg"},{"bike_id":"33d10b96-03f0-4b6d-9565-e6246fa8a513","system_id":"levelo_inurba_marseille","lat":43.31162,"lon":5.38733,"is_reserved":false,"is_disabled":false,"rental_uris":{"android":"levelo://app?vid=33d10b96-03f0-4b6d-9565-e6246fa8a513","ios":"levelo://app?vid=33d10b96-03f0-4b6d-9565-e6246fa8a513"},"vehicle_type_id":"4","last_reported":1758708654,"current_range_meters":14800,"station_id":"ce4bgv12rcd13ifvqcp0","pricing_plan_id":"cebpf4jnsgd1na2vs0mg"},{"bike_id":"212de2eb-8bbc-413c-b204-9fe1facd76e8","system_id":"levelo_inurba_marseille","lat":43.31307,"lon":5.3776,"is_reserved":false,"is_disabled":false,"rental_uris":{"android":"levelo://app?vid=212de2eb-8bbc-413c-b204-9fe1facd76e8","ios":"levelo://app?vid=212de2eb-8bbc-413c-b204-9fe1facd76e8"},"vehicle_type_id":"4","last_reported":1758708654,"current_range_meters":15200,"station_id":"","pricing_plan_id":"cebpf4jnsgd1na2vs0mg"},{"bike_id":"3cb1dae7-6bcd-41e5-b1b7-c1d25c751a99","system_id":"levelo_inurba_marseille","lat":43.337594,"lon":5.374419,"is_reserved":false,"is_disabled":false,"rental_uris":{"android":"levelo://app?vid=3cb1dae7-6bcd-41e5-b1b7-c1d25c751a99","ios":"levelo://app?vid=3cb1dae7-6bcd-41e5-b1b7-c1d25c751a99"},"vehicle_type_id":"4","last_reported":1758708654,"current_range_meters":16000,"station_id":"","pricing_plan_id":"cebpf4jnsgd1na2vs0mg"},{"bike_id":"85b3e210-bc48-405c-ba18-814dcce46479","system_id":"levelo_inurba_marseille","lat":43.298,"lon":5.38098,"is_reserved":false,"is_disabled":false,"rental_uris":{"android":"levelo://app?vid=85b3e210-bc48-405c-ba18-814dcce46479","ios":"levelo://app?vid=85b3e210-bc48-405c-ba18-814dcce46479"},"vehicle_type_id":"4","last_reported":1758708654,"current_range_meters":16000,"station_id":"ce4bgip2rcd13ifvqbb0","pricing_plan_id":"cebpf4jnsgd1na2vs0mg"},{"bike_id":"b35e17b5-5146-4002-8489-7191bbb0b4d8","system_id":"levelo_inurba_marseille","lat":43.231547,"lon":5.43713,"is_reserved":false,"is_disabled":false,"rental_uris":{"android":"levelo://app?vid=b35e17b5-5146-4002-8489-7191bbb0b4d8","ios":"levelo://app?vid=b35e17b5-5146-4002-8489-7191bbb0b4d8"},"vehicle_type_id":"4","last_reported":1758708654,"current_range_meters":16000,"station_id":"ce4bhmp2rcd13ifvqgog","pricing_plan_id":"cebpf4jnsgd1na2vs0mg"},{"bike_id":"c2f5514d-a186-44b4-88ef-2693d573efac","system_id":"levelo_inurba_marseille","lat":43.29796,"lon":5.38087,"is_reserved":false,"is_disabled":false,"rental_uris":{"android":"levelo://app?vid=c2f5514d-a186-44b4-88ef-2693d573efac","ios":"levelo://app?vid=c2f5514d-a186-44b4-88ef-2693d573efac"},"vehicle_type_id":"4","last_reported":1758708654,"current_range_meters":16000,"station_id":"ce4bgip2rcd13ifvqbb0","pricing_plan_id":"cebpf4jnsgd1na2vs0mg"},{"bike_id":"e2017298-7010-4fcc-9644-9ccfb0f46125","system_id":"levelo_inurba_marseille","lat":43.30115,"lon":5.41519,"is_reserved":false,"is_disabled":false,"rental_uris":{"android":"levelo://app?vid=e2017298-7010-4fcc-9644-9ccfb0f46125","ios":"levelo://app?vid=e2017298-7010-4fcc-9644-9ccfb0f46125"},"vehicle_type_id":"4","last_reported":1758708654,"current_range_meters":16000,"station_id":"","pricing_plan_id":"cebpf4jnsgd1na2vs0mg"},{"bike_id":"d9e1888b-5c06-4823-924b-a03611151086","system_id":"levelo_inurba_marseille","lat":43.28616,"lon":5.35105,"is_reserved":false,"is_disabled":false,"rental_uris":{"android":"levelo://app?vid=d9e1888b-5c06-4823-924b-a03611151086","ios":"levelo://app?vid=d9e1888b-5c06-4823-924b-a03611151086"},"vehicle_type_id":"4","last_reported":1758708654,"current_range_meters":16400,"station_id":"ce4bhch2rcd13ifvqeug","pricing_plan_id":"cebpf4jnsgd1na2vs0mg"},{"bike_id":"57b14c92-2a17-45b3-beb1-cbb460ef441b","system_id":"levelo_inurba_marseille","lat":43.23192,"lon":5.39996,"is_reserved":false,"is_disabled":false,"rental_uris":{"android":"levelo://app?vid=57b14c92-2a17-45b3-beb1-cbb460ef441b","ios":"levelo://app?vid=57b14c92-2a17-45b3-beb1-cbb460ef441b"},"vehicle_type_id":"4","last_reported":1758708654,"current_range_meters":16400,"station_id":"ce4bhn12rcd13ifvqgqg","pricing_plan_id":"cebpf4jnsgd1na2vs0mg"},{"bike_id":"178af37d-dd54-4cf7-b80a-b996e0f2a163","system_id":"levelo_inurba_marseille","lat":43.21202,"lon":5.3507,"is_reserved":false,"is_disabled":false,"rental_uris":{"android":"levelo://app?vid=178af37d-dd54-4cf7-b80a-b996e0f2a163","ios":"levelo://app?vid=178af37d-dd54-4cf7-b80a-b996e0f2a163"},"vehicle_type_id":"4","last_reported":1758708654,"current_range_meters":16400,"station_id":"st_cvj6sg6p6f1abm77japg","pricing_plan_id":"cebpf4jnsgd1na2vs0mg"},{"bike_id":"50c03ce7-6089-4ca2-9f23-f4c8c568a597","system_id":"levelo_inurba_marseille","lat":43.33782,"lon":5.37432,"is_reserved":false,"is_disabled":false,"rental_uris":{"android":"levelo://app?vid=50c03ce7-6089-4ca2-9f23-f4c8c568a597","ios":"levelo://app?vid=50c03ce7-6089-4ca2-9f23-f4c8c568a597"},"vehicle_type_id":"4","last_reported":1758708654,"current_range_meters":16400,"station_id":"","pricing_plan_id":"cebpf4jnsgd1na2vs0mg"},{"bike_id":"d2be082e-bd73-4203-addb-18871b3a9587","system_id":"levelo_inurba_marseille","lat":43.29427,"lon":5.3747,"is_reserved":false,"is_disabled":false,"rental_uris":{"android":"levelo://app?vid=d2be082e-bd73-4203-addb-18871b3a9587","ios":"levelo://app?vid=d2be082e-bd73-4203-addb-18871b3a9587"},"vehicle_type_id":"4","last_reported":1758708654,"current_range_meters":16400,"station_id":"","pricing_plan_id":"cebpf4jnsgd1na2vs0mg"},{"bike_id":"e19472f1-87e0-4943-97f3-e785d2a10054","system_id":"levelo_inurba_marseille","lat":43.28877,"lon":5.42552,"is_reserved":false,"is_disabled":false,"rental_uris":{"android":"levelo://app?vid=e19472f1-87e0-4943-97f3-e785d2a10054","ios":"levelo://app?vid=e19472f1-87e0-4943-97f3-e785d2a10054"},"vehicle_type_id":"4","last_reported":1758708654,"current_range_meters":16400,"station_id":"","pricing_plan_id":"cebpf4jnsgd1na2vs0mg"},{"bike_id":"8c29ed20-d3eb-4ff9-b2fb-332a4c6e32f4","system_id":"levelo_inurba_marseille","lat":43.26691,"lon":5.38269,"is_reserved":false,"is_disabled":false,"rental_uris":{"android":"levelo://app?vid=8c29ed20-d3eb-4ff9-b2fb-332a4c6e32f4","ios":"levelo://app?vid=8c29ed20-d3eb-4ff9-b2fb-332a4c6e32f4"},"vehicle_type_id":"4","last_reported":1758708654,"current_range_meters":16800,"station_id":"ce4bhg92rcd13ifvqf90","pricing_plan_id":"cebpf4jnsgd1na2vs0mg"},{"bike_id":"8eae954c-dab6-4303-94f5-569e1c483f62","system_id":"levelo_inurba_marseille","lat":43.29446,"lon":5.40751,"is_reserved":false,"is_disabled":false,"rental_uris":{"android":"levelo://app?vid=8eae954c-dab6-4303-94f5-569e1c483f62","ios":"levelo://app?vid=8eae954c-dab6-4303-94f5-569e1c483f62"},"vehicle_type_id":"4","last_reported":1758708654,"current_range_meters":16800,"station_id":"","pricing_plan_id":"cebpf4jnsgd1na2vs0mg"},{"bike_id":"9aa94c4f-da7c-4770-9081-a8dca3f600f4","system_id":"levelo_inurba_marseille","lat":43.27499,"lon":5.42457,"is_reserved":false,"is_disabled":false,"rental_uris":{"android":"levelo://app?vid=9aa94c4f-da7c-4770-9081-a8dca3f600f4","ios":"levelo://app?vid=9aa94c4f-da7c-4770-9081-a8dca3f600f4"},"vehicle_type_id":"4","last_reported":1758708654,"current_range_meters":16800,"station_id":"ce4bhn92rcd13ifvqgrg","pricing_plan_id":"cebpf4jnsgd1na2vs0mg"},{"bike_id":"52cf4d24-b2ee-4aa5-a977-3af4a4dd5f82","system_id":"levelo_inurba_marseille","lat":43.29902,"lon":5.3747,"is_reserved":false,"is_disabled":false,"rental_uris":{"android":"levelo://app?vid=52cf4d24-b2ee-4aa5-a977-3af4a4dd5f82","ios":"levelo://app?vid=52cf4d24-b2ee-4aa5-a977-3af4a4dd5f82"},"vehicle_type_id":"4","last_reported":1758708654,"current_range_meters":16800,"station_id":"ce4bgjh2rcd13ifvqbg0","pricing_plan_id":"cebpf4jnsgd1na2vs0mg"},{"bike_id":"c7f6a08b-c655-4213-b2ba-7d02e7f382fe","system_id":"levelo_inurba_marseille","lat":43.27988,"lon":5.39483,"is_reserved":false,"is_disabled":false,"rental_uris":{"android":"levelo://app?vid=c7f6a08b-c655-4213-b2ba-7d02e7f382fe","ios":"levelo://app?vid=c7f6a08b-c655-4213-b2ba-7d02e7f382fe"},"vehicle_type_id":"4","last_reported":1758708654,"current_range_meters":16800,"station_id":"","pricing_plan_id":"cebpf4jnsgd1na2vs0mg"},{"bike_id":"1b68545e-8831-43f7-8b1b-4a3856d01818","system_id":"levelo_inurba_marseille","lat":43.23179,"lon":5.39992,"is_reserved":false,"is_disabled":false,"rental_uris":{"android":"levelo://app?vid=1b68545e-8831-43f7-8b1b-4a3856d01818","ios":"levelo://app?vid=1b68545e-8831-43f7-8b1b-4a3856d01818"},"vehicle_type_id":"4","last_reported":1758708654,"current_range_meters":16800,"station_id":"ce4bhn12rcd13ifvqgqg","pricing_plan_id":"cebpf4jnsgd1na2vs0mg"},{"bike_id":"0d0c93a1-14ed-4e3e-a45d-cf08d8aa0d39","system_id":"levelo_inurba_marseille","lat":43.25981,"lon":5.40954,"is_reserved":false,"is_disabled":false,"rental_uris":{"android":"levelo://app?vid=0d0c93a1-14ed-4e3e-a45d-cf08d8aa0d39","ios":"levelo://app?vid=0d0c93a1-14ed-4e3e-a45d-cf08d8aa0d39"},"vehicle_type_id":"4","last_reported":1758708654,"current_range_meters":17200,"station_id":"","pricing_plan_id":"cebpf4jnsgd1na2vs0mg"},{"bike_id":"fdb9e30b-a061-4666-be77-813eb22b20b2","system_id":"levelo_inurba_marseille","lat":43.251081,"lon":5.403186,"is_reserved":false,"is_disabled":false,"rental_uris":{"android":"levelo://app?vid=fdb9e30b-a061-4666-be77-813eb22b20b2","ios":"levelo://app?vid=fdb9e30b-a061-4666-be77-813eb22b20b2"},"vehicle_type_id":"4","last_reported":1758708654,"current_range_meters":17200,"station_id":"ce4bhlh2rcd13ifvqgig","pricing_plan_id":"cebpf4jnsgd1na2vs0mg"},{"bike_id":"6e28c473-43c7-4359-9768-11e494b67b04","system_id":"levelo_inurba_marseille","lat":43.270661,"lon":5.422875,"is_reserved":false,"is_disabled":false,"rental_uris":{"android":"levelo://app?vid=6e28c473-43c7-4359-9768-11e494b67b04","ios":"levelo://app?vid=6e28c473-43c7-4359-9768-11e494b67b04"},"vehicle_type_id":"4","last_reported":1758708654,"current_range_meters":17200,"station_id":"ce4bhk92rcd13ifvqgb0","pricing_plan_id":"cebpf4jnsgd1na2vs0mg"},{"bike_id":"b1c24100-f3f8-47d4-8ba8-accf2a827162","system_id":"levelo_inurba_marseille","lat":43.2827,"lon":5.35067,"is_reserved":false,"is_disabled":false,"rental_uris":{"android":"levelo://app?vid=b1c24100-f3f8-47d4-8ba8-accf2a827162","ios":"levelo://app?vid=b1c24100-f3f8-47d4-8ba8-accf2a827162"},"vehicle_type_id":"4","last_reported":1758708654,"current_range_meters":17200,"station_id":"ce4bhbp2rcd13ifvqerg","pricing_plan_id":"cebpf4jnsgd1na2vs0mg"},{"bike_id":"0e9ca394-4351-4bf8-a641-f4e5215baf20","system_id":"levelo_inurba_marseille","lat":43.28252,"lon":5.3511,"is_reserved":false,"is_disabled":false,"rental_uris":{"android":"levelo://app?vid=0e9ca394-4351-4bf8-a641-f4e5215baf20","ios":"levelo://app?vid=0e9ca394-4351-4bf8-a641-f4e5215baf20"},"vehicle_type_id":"4","last_reported":1758708654,"current_range_meters":17200,"station_id":"","pricing_plan_id":"cebpf4jnsgd1na2vs0mg"},{"bike_id":"129c8450-4cca-4e9f-b9f6-538b0080ad49","system_id":"levelo_inurba_marseille","lat":43.32557,"lon":5.389,"is_reserved":false,"is_disabled":false,"rental_uris":{"android":"levelo://app?vid=129c8450-4cca-4e9f-b9f6-538b0080ad49","ios":"levelo://app?vid=129c8450-4cca-4e9f-b9f6-538b0080ad49"},"vehicle_type_id":"4","last_reported":1758708654,"current_range_meters":17200,"station_id":"","pricing_plan_id":"cebpf4jnsgd1na2vs0mg"},{"bike_id":"a6e34ff3-eb30-431d-92d6-c50ebfd8c6a8","system_id":"levelo_inurba_marseille","lat":43.262306,"lon":5.374459,"is_reserved":false,"is_disabled":false,"rental_uris":{"android":"levelo://app?vid=a6e34ff3-eb30-431d-92d6-c50ebfd8c6a8","ios":"levelo://app?vid=a6e34ff3-eb30-431d-92d6-c50ebfd8c6a8"},"vehicle_type_id":"4","last_reported":1758708654,"current_range_meters":17200,"station_id":"ce4bhgp2rcd13ifvqfc0","pricing_plan_id":"cebpf4jnsgd1na2vs0mg"},{"bike_id":"16a3e31e-14e7-462a-a681-b9bd4b981754","system_id":"levelo_inurba_marseille","lat":43.30558,"lon":5.36536,"is_reserved":false,"is_disabled":false,"rental_uris":{"android":"levelo://app?vid=16a3e31e-14e7-462a-a681-b9bd4b981754","ios":"levelo://app?vid=16a3e31e-14e7-462a-a681-b9bd4b981754"},"vehicle_type_id":"4","last_reported":1758708654,"current_range_meters":17200,"station_id":"ce4bgs12rcd13ifvqcag","pricing_plan_id":"cebpf4jnsgd1na2vs0mg"},{"bike_id":"9daac5d3-61aa-4838-867b-05177cf139a4","system_id":"levelo_inurba_marseille","lat":43.22564,"lon":5.41622,"is_reserved":false,"is_disabled":false,"rental_uris":{"android":"levelo://app?vid=9daac5d3-61aa-4838-867b-05177cf139a4","ios":"levelo://app?vid=9daac5d3-61aa-4838-867b-05177cf139a4"},"vehicle_type_id":"4","last_reported":1758708654,"current_range_meters":17200,"station_id":"st_d2o4gvlbi1j2169b742g","pricing_plan_id":"cebpf4jnsgd1na2vs0mg"},{"bike_id":"8d866a0f-e0cb-47c2-aa24-8abc9656ee3b","system_id":"levelo_inurba_marseille","lat":43.32363,"lon":5.38898,"is_reserved":false,"is_disabled":false,"rental_uris":{"android":"levelo://app?vid=8d866a0f-e0cb-47c2-aa24-8abc9656ee3b","ios":"levelo://app?vid=8d866a0f-e0cb-47c2-aa24-8abc9656ee3b"},"vehicle_type_id":"4","last_reported":1758708654,"current_range_meters":17200,"station_id":"ce4bhqp2rcd13ifvqhog","pricing_plan_id":"cebpf4jnsgd1na2vs0mg"},{"bike_id":"8a828295-28e2-4f47-bc01-1374c80f32a1","system_id":"levelo_inurba_marseille","lat":43.23957,"lon":5.36627,"is_reserved":false,"is_disabled":false,"rental_uris":{"android":"levelo://app?vid=8a828295-28e2-4f47-bc01-1374c80f32a1","ios":"levelo://app?vid=8a828295-28e2-4f47-bc01-1374c80f32a1"},"vehicle_type_id":"4","last_reported":1758708654,"current_range_meters":17600,"station_id":"ce4bhi12rcd13ifvqfp0","pricing_plan_id":"cebpf4jnsgd1na2vs0mg"},{"bike_id":"cdd9250b-20c0-48e2-b45b-56204b8135aa","system_id":"levelo_inurba_marseille","lat":43.30274,"lon":5.37704,"is_reserved":false,"is_disabled":false,"rental_uris":{"android":"levelo://app?vid=cdd9250b-20c0-48e2-b45b-56204b8135aa","ios":"levelo://app?vid=cdd9250b-20c0-48e2-b45b-56204b8135aa"},"vehicle_type_id":"4","last_reported":1758708654,"current_range_meters":17600,"station_id":"ce4bguh2rcd13ifvqcj0","pricing_plan_id":"cebpf4jnsgd1na2vs0mg"},{"bike_id":"6ce97256-6e29-4ee4-b817-ac92bdd5aea1","system_id":"levelo_inurba_marseille","lat":43.22534,"lon":5.34835,"is_reserved":false,"is_disabled":false,"rental_uris":{"android":"levelo://app?vid=6ce97256-6e29-4ee4-b817-ac92bdd5aea1","ios":"levelo://app?vid=6ce97256-6e29-4ee4-b817-ac92bdd5aea1"},"vehicle_type_id":"4","last_reported":1758708654,"current_range_meters":17600,"station_id":"","pricing_plan_id":"cebpf4jnsgd1na2vs0mg"},{"bike_id":"e3c3ba7e-cc3d-4c3b-859d-d06270b85562","system_id":"levelo_inurba_marseille","lat":43.27213,"lon":5.39156,"is_reserved":false,"is_disabled":false,"rental_uris":{"android":"levelo://app?vid=e3c3ba7e-cc3d-4c3b-859d-d06270b85562","ios":"levelo://app?vid=e3c3ba7e-cc3d-4c3b-859d-d06270b85562"},"vehicle_type_id":"4","last_reported":1758708654,"current_range_meters":17600,"station_id":"ce4bhhp2rcd13ifvqfm0","pricing_plan_id":"cebpf4jnsgd1na2vs0mg"},{"bike_id":"a6ad0c6c-868d-42f3-ba54-573e1a175a36","system_id":"levelo_inurba_marseille","lat":43.262571,"lon":5.413012,"is_reserved":false,"is_disabled":false,"rental_uris":{"android":"levelo://app?vid=a6ad0c6c-868d-42f3-ba54-573e1a175a36","ios":"levelo://app?vid=a6ad0c6c-868d-42f3-ba54-573e1a175a36"},"vehicle_type_id":"4","last_reported":1758708654,"current_range_meters":17600,"station_id":"","pricing_plan_id":"cebpf4jnsgd1na2vs0mg"},{"bike_id":"5468b8b7-ef8b-4501-bace-fb4b745e7593","system_id":"levelo_inurba_marseille","lat":43.23154,"lon":5.43711,"is_reserved":false,"is_disabled":false,"rental_uris":{"android":"levelo://app?vid=5468b8b7-ef8b-4501-bace-fb4b745e7593","ios":"levelo://app?vid=5468b8b7-ef8b-4501-bace-fb4b745e7593"},"vehicle_type_id":"4","last_reported":1758708654,"current_range_meters":17600,"station_id":"ce4bhmp2rcd13ifvqgog","pricing_plan_id":"cebpf4jnsgd1na2vs0mg"},{"bike_id":"003515e8-8117-44bb-979d-5f47e8d50fda","system_id":"levelo_inurba_marseille","lat":43.30637,"lon":5.37562,"is_reserved":false,"is_disabled":false,"rental_uris":{"android":"levelo://app?vid=003515e8-8117-44bb-979d-5f47e8d50fda","ios":"levelo://app?vid=003515e8-8117-44bb-979d-5f47e8d50fda"},"vehicle_type_id":"4","last_reported":1758708654,"current_range_meters":18000,"station_id":"","pricing_plan_id":"cebpf4jnsgd1na2vs0mg"},{"bike_id":"2bd2a176-8590-4e06-8b8c-a96b49b7b36a","system_id":"levelo_inurba_marseille","lat":43.262237,"lon":5.404538,"is_reserved":false,"is_disabled":false,"rental_uris":{"android":"levelo://app?vid=2bd2a176-8590-4e06-8b8c-a96b49b7b36a","ios":"levelo://app?vid=2bd2a176-8590-4e06-8b8c-a96b49b7b36a"},"vehicle_type_id":"4","last_reported":1758708654,"current_range_meters":18000,"station_id":"","pricing_plan_id":"cebpf4jnsgd1na2vs0mg"},{"bike_id":"16d9a464-95f6-4241-939a-8d28eb548d4d","system_id":"levelo_inurba_marseille","lat":43.28627,"lon":5.35094,"is_reserved":false,"is_disabled":true,"rental_uris":{"android":"levelo://app?vid=16d9a464-95f6-4241-939a-8d28eb548d4d","ios":"levelo://app?vid=16d9a464-95f6-4241-939a-8d28eb548d4d"},"vehicle_type_id":"4","last_reported":1758708654,"current_range_meters":18000,"station_id":"ce4bhch2rcd13ifvqeug","pricing_plan_id":"cebpf4jnsgd1na2vs0mg"},{"bike_id":"7f26efef-5bca-4964-9649-a135cb9baf4f","system_id":"levelo_inurba_marseille","lat":43.250915,"lon":5.395253,"is_reserved":false,"is_disabled":false,"rental_uris":{"android":"levelo://app?vid=7f26efef-5bca-4964-9649-a135cb9baf4f","ios":"levelo://app?vid=7f26efef-5bca-4964-9649-a135cb9baf4f"},"vehicle_type_id":"4","last_reported":1758708654,"current_range_meters":18000,"station_id":"ce4bhm12rcd13ifvqgkg","pricing_plan_id":"cebpf4jnsgd1na2vs0mg"},{"bike_id":"a7dda9bc-e5b7-469c-bb8b-1a0efae9aa03","system_id":"levelo_inurba_marseille","lat":43.27941,"lon":5.38678,"is_reserved":false,"is_disabled":false,"rental_uris":{"android":"levelo://app?vid=a7dda9bc-e5b7-469c-bb8b-1a0efae9aa03","ios":"levelo://app?vid=a7dda9bc-e5b7-469c-bb8b-1a0efae9aa03"},"vehicle_type_id":"4","last_reported":1758708654,"current_range_meters":18000,"station_id":"","pricing_plan_id":"cebpf4jnsgd1na2vs0mg"},{"bike_id":"c5e35d50-1334-4251-9e23-b568a1a449ad","system_id":"levelo_inurba_marseille","lat":43.30302,"lon":5.3771,"is_reserved":false,"is_disabled":false,"rental_uris":{"android":"levelo://app?vid=c5e35d50-1334-4251-9e23-b568a1a449ad","ios":"levelo://app?vid=c5e35d50-1334-4251-9e23-b568a1a449ad"},"vehicle_type_id":"4","last_reported":1758708654,"current_range_meters":18000,"station_id":"ce4bguh2rcd13ifvqcj0","pricing_plan_id":"cebpf4jnsgd1na2vs0mg"},{"bike_id":"3603f0d4-2db8-48fe-a384-4a028bf2de94","system_id":"levelo_inurba_marseille","lat":43.29289,"lon":5.37456,"is_reserved":false,"is_disabled":false,"rental_uris":{"android":"levelo://app?vid=3603f0d4-2db8-48fe-a384-4a028bf2de94","ios":"levelo://app?vid=3603f0d4-2db8-48fe-a384-4a028bf2de94"},"vehicle_type_id":"4","last_reported":1758708654,"current_range_meters":18000,"station_id":"","pricing_plan_id":"cebpf4jnsgd1na2vs0mg"},{"bike_id":"12ebe663-507e-4482-8305-e7b133b42d7d","system_id":"levelo_inurba_marseille","lat":43.21196,"lon":5.35073,"is_reserved":false,"is_disabled":false,"rental_uris":{"android":"levelo://app?vid=12ebe663-507e-4482-8305-e7b133b42d7d","ios":"levelo://app?vid=12ebe663-507e-4482-8305-e7b133b42d7d"},"vehicle_type_id":"4","last_reported":1758708654,"current_range_meters":18000,"station_id":"st_cvj6sg6p6f1abm77japg","pricing_plan_id":"cebpf4jnsgd1na2vs0mg"},{"bike_id":"53812b58-9ac3-431d-9ae0-cf5a2600f457","system_id":"levelo_inurba_marseille","lat":43.28429,"lon":5.35003,"is_reserved":false,"is_disabled":false,"rental_uris":{"android":"levelo://app?vid=53812b58-9ac3-431d-9ae0-cf5a2600f457","ios":"levelo://app?vid=53812b58-9ac3-431d-9ae0-cf5a2600f457"},"vehicle_type_id":"4","last_reported":1758708654,"current_range_meters":18800,"station_id":"ce4bhbh2rcd13ifvqepg","pricing_plan_id":"cebpf4jnsgd1na2vs0mg"},{"bike_id":"429b97eb-f7cc-4d35-b219-e8e26e3f47e0","system_id":"levelo_inurba_marseille","lat":43.2596,"lon":5.40921,"is_reserved":false,"is_disabled":false,"rental_uris":{"android":"levelo://app?vid=429b97eb-f7cc-4d35-b219-e8e26e3f47e0","ios":"levelo://app?vid=429b97eb-f7cc-4d35-b219-e8e26e3f47e0"},"vehicle_type_id":"4","last_reported":1758708654,"current_range_meters":18800,"station_id":"ce4bhm92rcd13ifvqglg","pricing_plan_id":"cebpf4jnsgd1na2vs0mg"},{"bike_id":"5b2e4301-8a04-44b6-bb74-5f97ee4e1633","system_id":"levelo_inurba_marseille","lat":43.25952,"lon":5.40931,"is_reserved":false,"is_disabled":false,"rental_uris":{"android":"levelo://app?vid=5b2e4301-8a04-44b6-bb74-5f97ee4e1633","ios":"levelo://app?vid=5b2e4301-8a04-44b6-bb74-5f97ee4e1633"},"vehicle_type_id":"4","last_reported":1758708654,"current_range_meters":18800,"station_id":"ce4bhm92rcd13ifvqglg","pricing_plan_id":"cebpf4jnsgd1na2vs0mg"},{"bike_id":"2b644e71-e910-47c3-bc22-6ae07a295fb4","system_id":"levelo_inurba_marseille","lat":43.29248,"lon":5.37638,"is_reserved":false,"is_disabled":false,"rental_uris":{"android":"levelo://app?vid=2b644e71-e910-47c3-bc22-6ae07a295fb4","ios":"levelo://app?vid=2b644e71-e910-47c3-bc22-6ae07a295fb4"},"vehicle_type_id":"4","last_reported":1758708654,"current_range_meters":18800,"station_id":"ce4bgi12rcd13ifvqb80","pricing_plan_id":"cebpf4jnsgd1na2vs0mg"},{"bike_id":"e8e0a80f-25dc-47ab-ae8b-3cbce8fbad61","system_id":"levelo_inurba_marseille","lat":43.2418,"lon":5.39726,"is_reserved":false,"is_disabled":false,"rental_uris":{"android":"levelo://app?vid=e8e0a80f-25dc-47ab-ae8b-3cbce8fbad61","ios":"levelo://app?vid=e8e0a80f-25dc-47ab-ae8b-3cbce8fbad61"},"vehicle_type_id":"4","last_reported":1758708654,"current_range_meters":18800,"station_id":"ce4bhn12rcd13ifvqgpg","pricing_plan_id":"cebpf4jnsgd1na2vs0mg"},{"bike_id":"3089e134-074f-4b80-bb96-2d7e56377c3d","system_id":"levelo_inurba_marseille","lat":43.29543,"lon":5.37507,"is_reserved":false,"is_disabled":false,"rental_uris":{"android":"levelo://app?vid=3089e134-074f-4b80-bb96-2d7e56377c3d","ios":"levelo://app?vid=3089e134-074f-4b80-bb96-2d7e56377c3d"},"vehicle_type_id":"4","last_reported":1758708654,"current_range_meters":18800,"station_id":"ce4bgkp2rcd13ifvqbmg","pricing_plan_id":"cebpf4jnsgd1na2vs0mg"},{"bike_id":"756d354d-b3f7-48e8-b228-bb651050ff39","system_id":"levelo_inurba_marseille","lat":43.26932,"lon":5.38931,"is_reserved":false,"is_disabled":false,"rental_uris":{"android":"levelo://app?vid=756d354d-b3f7-48e8-b228-bb651050ff39","ios":"levelo://app?vid=756d354d-b3f7-48e8-b228-bb651050ff39"},"vehicle_type_id":"4","last_reported":1758708654,"current_range_meters":18800,"station_id":"ce4bhhh2rcd13ifvqfl0","pricing_plan_id":"cebpf4jnsgd1na2vs0mg"},{"bike_id":"3a04b665-f001-425e-be0a-41be23de77d1","system_id":"levelo_inurba_marseille","lat":43.27984,"lon":5.3874,"is_reserved":false,"is_disabled":false,"rental_uris":{"android":"levelo://app?vid=3a04b665-f001-425e-be0a-41be23de77d1","ios":"levelo://app?vid=3a04b665-f001-425e-be0a-41be23de77d1"},"vehicle_type_id":"4","last_reported":1758708654,"current_range_meters":18000,"station_id":"ce4bhg12rcd13ifvqf80","pricing_plan_id":"cebpf4jnsgd1na2vs0mg"},{"bike_id":"3caf2067-9564-406c-ab05-047edca50866","system_id":"levelo_inurba_marseille","lat":43.29296,"lon":5.37444,"is_reserved":false,"is_disabled":false,"rental_uris":{"android":"levelo://app?vid=3caf2067-9564-406c-ab05-047edca50866","ios":"levelo://app?vid=3caf2067-9564-406c-ab05-047edca50866"},"vehicle_type_id":"4","last_reported":1758708654,"current_range_meters":18800,"station_id":"ce4bgi12rcd13ifvqb70","pricing_plan_id":"cebpf4jnsgd1na2vs0mg"},{"bike_id":"942c48de-c56c-48fe-85de-fbd6e81eab59","system_id":"levelo_inurba_marseille","lat":43.287082,"lon":5.379391,"is_reserved":false,"is_disabled":false,"rental_uris":{"android":"levelo://app?vid=942c48de-c56c-48fe-85de-fbd6e81eab59","ios":"levelo://app?vid=942c48de-c56c-48fe-85de-fbd6e81eab59"},"vehicle_type_id":"4","last_reported":1758708654,"current_range_meters":18800,"station_id":"ce4bh9p2rcd13ifvqec0","pricing_plan_id":"cebpf4jnsgd1na2vs0mg"},{"bike_id":"e76ba9e9-1d13-4c6d-8c30-52611500a175","system_id":"levelo_inurba_marseille","lat":43.29843,"lon":5.36275,"is_reserved":false,"is_disabled":false,"rental_uris":{"android":"levelo://app?vid=e76ba9e9-1d13-4c6d-8c30-52611500a175","ios":"levelo://app?vid=e76ba9e9-1d13-4c6d-8c30-52611500a175"},"vehicle_type_id":"4","last_reported":1758708654,"current_range_meters":19200,"station_id":"ce4bgpp2rcd13ifvqc3g","pricing_plan_id":"cebpf4jnsgd1na2vs0mg"},{"bike_id":"b33afcb9-323b-4b25-b34a-d7ff770bee10","system_id":"levelo_inurba_marseille","lat":43.2593,"lon":5.4091,"is_reserved":false,"is_disabled":false,"rental_uris":{"android":"levelo://app?vid=b33afcb9-323b-4b25-b34a-d7ff770bee10","ios":"levelo://app?vid=b33afcb9-323b-4b25-b34a-d7ff770bee10"},"vehicle_type_id":"4","last_reported":1758708654,"current_range_meters":19200,"station_id":"ce4bhm92rcd13ifvqglg","pricing_plan_id":"cebpf4jnsgd1na2vs0mg"},{"bike_id":"a18e322d-fd1b-4845-af86-bddb5255e783","system_id":"levelo_inurba_marseille","lat":43.32542,"lon":5.41446,"is_reserved":false,"is_disabled":false,"rental_uris":{"android":"levelo://app?vid=a18e322d-fd1b-4845-af86-bddb5255e783","ios":"levelo://app?vid=a18e322d-fd1b-4845-af86-bddb5255e783"},"vehicle_type_id":"4","last_reported":1758708654,"current_range_meters":19200,"station_id":"ce4bhq12rcd13ifvqhhg","pricing_plan_id":"cebpf4jnsgd1na2vs0mg"},{"bike_id":"173a8f92-d156-417c-825f-fc3f477b8569","system_id":"levelo_inurba_marseille","lat":43.30552,"lon":5.36538,"is_reserved":false,"is_disabled":false,"rental_uris":{"android":"levelo://app?vid=173a8f92-d156-417c-825f-fc3f477b8569","ios":"levelo://app?vid=173a8f92-d156-417c-825f-fc3f477b8569"},"vehicle_type_id":"4","last_reported":1758708654,"current_range_meters":19200,"station_id":"ce4bgs12rcd13ifvqcag","pricing_plan_id":"cebpf4jnsgd1na2vs0mg"},{"bike_id":"d20f424d-ee13-4ac0-9ee5-3674cc349c53","system_id":"levelo_inurba_marseille","lat":43.2997,"lon":5.41322,"is_reserved":false,"is_disabled":false,"rental_uris":{"android":"levelo://app?vid=d20f424d-ee13-4ac0-9ee5-3674cc349c53","ios":"levelo://app?vid=d20f424d-ee13-4ac0-9ee5-3674cc349c53"},"vehicle_type_id":"4","last_reported":1758708654,"current_range_meters":19200,"station_id":"ce4bhp12rcd13ifvqh9g","pricing_plan_id":"cebpf4jnsgd1na2vs0mg"},{"bike_id":"6be3fd93-90c7-49ea-908d-c909eea76e85","system_id":"levelo_inurba_marseille","lat":43.29908,"lon":5.38125,"is_reserved":false,"is_disabled":false,"rental_uris":{"android":"levelo://app?vid=6be3fd93-90c7-49ea-908d-c909eea76e85","ios":"levelo://app?vid=6be3fd93-90c7-49ea-908d-c909eea76e85"},"vehicle_type_id":"4","last_reported":1758708654,"current_range_meters":19200,"station_id":"ce4bgj12rcd13ifvqbc0","pricing_plan_id":"cebpf4jnsgd1na2vs0mg"},{"bike_id":"d4b33841-be4c-4864-91b8-475aaf9a7f71","system_id":"levelo_inurba_marseille","lat":43.266781,"lon":5.382624,"is_reserved":false,"is_disabled":false,"rental_uris":{"android":"levelo://app?vid=d4b33841-be4c-4864-91b8-475aaf9a7f71","ios":"levelo://app?vid=d4b33841-be4c-4864-91b8-475aaf9a7f71"},"vehicle_type_id":"4","last_reported":1758708654,"current_range_meters":19200,"station_id":"ce4bhg92rcd13ifvqf90","pricing_plan_id":"cebpf4jnsgd1na2vs0mg"},{"bike_id":"327c041e-5c9e-4b0d-a97c-a2dbaab036ae","system_id":"levelo_inurba_marseille","lat":43.327637,"lon":5.411443,"is_reserved":false,"is_disabled":false,"rental_uris":{"android":"levelo://app?vid=327c041e-5c9e-4b0d-a97c-a2dbaab036ae","ios":"levelo://app?vid=327c041e-5c9e-4b0d-a97c-a2dbaab036ae"},"vehicle_type_id":"4","last_reported":1758708654,"current_range_meters":19600,"station_id":"","pricing_plan_id":"cebpf4jnsgd1na2vs0mg"},{"bike_id":"03a299aa-a1ee-4b2d-823a-0d1c040619c6","system_id":"levelo_inurba_marseille","lat":43.29634,"lon":5.40591,"is_reserved":false,"is_disabled":false,"rental_uris":{"android":"levelo://app?vid=03a299aa-a1ee-4b2d-823a-0d1c040619c6","ios":"levelo://app?vid=03a299aa-a1ee-4b2d-823a-0d1c040619c6"},"vehicle_type_id":"4","last_reported":1758708654,"current_range_meters":19600,"station_id":"ce4bh0h2rcd13ifvqd60","pricing_plan_id":"cebpf4jnsgd1na2vs0mg"},{"bike_id":"0c16ac8a-a536-4d89-a0b4-2803631fd83e","system_id":"levelo_inurba_marseille","lat":43.250002,"lon":5.389433,"is_reserved":false,"is_disabled":false,"rental_uris":{"android":"levelo://app?vid=0c16ac8a-a536-4d89-a0b4-2803631fd83e","ios":"levelo://app?vid=0c16ac8a-a536-4d89-a0b4-2803631fd83e"},"vehicle_type_id":"4","last_reported":1758708654,"current_range_meters":19600,"station_id":"ce4bhgp2rcd13ifvqfd0","pricing_plan_id":"cebpf4jnsgd1na2vs0mg"},{"bike_id":"9ad67f25-172f-4562-8f8e-dcc023c41300","system_id":"levelo_inurba_marseille","lat":43.309432,"lon":5.390319,"is_reserved":false,"is_disabled":false,"rental_uris":{"android":"levelo://app?vid=9ad67f25-172f-4562-8f8e-dcc023c41300","ios":"levelo://app?vid=9ad67f25-172f-4562-8f8e-dcc023c41300"},"vehicle_type_id":"4","last_reported":1758708654,"current_range_meters":19600,"station_id":"ce4bgup2rcd13ifvqco0","pricing_plan_id":"cebpf4jnsgd1na2vs0mg"},{"bike_id":"28c88dbd-9da7-4de2-8d6f-292480000a32","system_id":"levelo_inurba_marseille","lat":43.31082,"lon":5.38342,"is_reserved":false,"is_disabled":true,"rental_uris":{"android":"levelo://app?vid=28c88dbd-9da7-4de2-8d6f-292480000a32","ios":"levelo://app?vid=28c88dbd-9da7-4de2-8d6f-292480000a32"},"vehicle_type_id":"4","last_reported":1758708654,"current_range_meters":19600,"station_id":"ce4bgv92rcd13ifvqcr0","pricing_plan_id":"cebpf4jnsgd1na2vs0mg"},{"bike_id":"d31d856a-933d-49cf-948f-ce03657dfc74","system_id":"levelo_inurba_marseille","lat":43.284172,"lon":5.34993,"is_reserved":false,"is_disabled":false,"rental_uris":{"android":"levelo://app?vid=d31d856a-933d-49cf-948f-ce03657dfc74","ios":"levelo://app?vid=d31d856a-933d-49cf-948f-ce03657dfc74"},"vehicle_type_id":"4","last_reported":1758708654,"current_range_meters":19600,"station_id":"ce4bhbh2rcd13ifvqepg","pricing_plan_id":"cebpf4jnsgd1na2vs0mg"},{"bike_id":"cbffa1ac-98d6-4cc2-87a0-04642a871cda","system_id":"levelo_inurba_marseille","lat":43.30211,"lon":5.37376,"is_reserved":false,"is_disabled":false,"rental_uris":{"android":"levelo://app?vid=cbffa1ac-98d6-4cc2-87a0-04642a871cda","ios":"levelo://app?vid=cbffa1ac-98d6-4cc2-87a0-04642a871cda"},"vehicle_type_id":"4","last_reported":1758708654,"current_range_meters":19600,"station_id":"","pricing_plan_id":"cebpf4jnsgd1na2vs0mg"},{"bike_id":"f24cf0fc-9d9d-4cad-9aee-41f32aa3bbf7","system_id":"levelo_inurba_marseille","lat":43.26557,"lon":5.372833,"is_reserved":false,"is_disabled":false,"rental_uris":{"android":"levelo://app?vid=f24cf0fc-9d9d-4cad-9aee-41f32aa3bbf7","ios":"levelo://app?vid=f24cf0fc-9d9d-4cad-9aee-41f32aa3bbf7"},"vehicle_type_id":"4","last_reported":1758708654,"current_range_meters":19600,"station_id":"ce4bhg12rcd13ifvqf70","pricing_plan_id":"cebpf4jnsgd1na2vs0mg"},{"bike_id":"344f590f-c240-4165-9441-6ca9ff3a0e6f","system_id":"levelo_inurba_marseille","lat":43.30543,"lon":5.36707,"is_reserved":false,"is_disabled":false,"rental_uris":{"android":"levelo://app?vid=344f590f-c240-4165-9441-6ca9ff3a0e6f","ios":"levelo://app?vid=344f590f-c240-4165-9441-6ca9ff3a0e6f"},"vehicle_type_id":"4","last_reported":1758708654,"current_range_meters":20000,"station_id":"ce4bgrp2rcd13ifvqc9g","pricing_plan_id":"cebpf4jnsgd1na2vs0mg"},{"bike_id":"d55f7cff-ce18-4107-992e-8cb8fb12b05f","system_id":"levelo_inurba_marseille","lat":43.232007,"lon":5.355572,"is_reserved":false,"is_disabled":false,"rental_uris":{"android":"levelo://app?vid=d55f7cff-ce18-4107-992e-8cb8fb12b05f","ios":"levelo://app?vid=d55f7cff-ce18-4107-992e-8cb8fb12b05f"},"vehicle_type_id":"4","last_reported":1758708654,"current_range_meters":20000,"station_id":"ce4bhu92rcd13ifvqi70","pricing_plan_id":"cebpf4jnsgd1na2vs0mg"},{"bike_id":"725b1ff1-3894-44f1-a38e-91bc39cbab7e","system_id":"levelo_inurba_marseille","lat":43.2464,"lon":5.43162,"is_reserved":false,"is_disabled":false,"rental_uris":{"android":"levelo://app?vid=725b1ff1-3894-44f1-a38e-91bc39cbab7e","ios":"levelo://app?vid=725b1ff1-3894-44f1-a38e-91bc39cbab7e"},"vehicle_type_id":"4","last_reported":1758708654,"current_range_meters":20000,"station_id":"st_d2m6c4gdas8pm72e190g","pricing_plan_id":"cebpf4jnsgd1na2vs0mg"},{"bike_id":"175760d5-253d-4692-91bd-1ac0c3f225e0","system_id":"levelo_inurba_marseille","lat":43.30888,"lon":5.39638,"is_reserved":false,"is_disabled":false,"rental_uris":{"android":"levelo://app?vid=175760d5-253d-4692-91bd-1ac0c3f225e0","ios":"levelo://app?vid=175760d5-253d-4692-91bd-1ac0c3f225e0"},"vehicle_type_id":"4","last_reported":1758708654,"current_range_meters":20000,"station_id":"ce4bh012rcd13ifvqcv0","pricing_plan_id":"cebpf4jnsgd1na2vs0mg"},{"bike_id":"7e7885f6-e810-4d6a-8c25-36c86050dba1","system_id":"levelo_inurba_marseille","lat":43.287018,"lon":5.373832,"is_reserved":false,"is_disabled":false,"rental_uris":{"android":"levelo://app?vid=7e7885f6-e810-4d6a-8c25-36c86050dba1","ios":"levelo://app?vid=7e7885f6-e810-4d6a-8c25-36c86050dba1"},"vehicle_type_id":"4","last_reported":1758708654,"current_range_meters":20000,"station_id":"ce4bh3p2rcd13ifvqdq0","pricing_plan_id":"cebpf4jnsgd1na2vs0mg"},{"bike_id":"028b7ed6-f3f9-4174-b7c6-25b8c3a9d163","system_id":"levelo_inurba_marseille","lat":43.24174,"lon":5.39739,"is_reserved":false,"is_disabled":false,"rental_uris":{"android":"levelo://app?vid=028b7ed6-f3f9-4174-b7c6-25b8c3a9d163","ios":"levelo://app?vid=028b7ed6-f3f9-4174-b7c6-25b8c3a9d163"},"vehicle_type_id":"4","last_reported":1758708654,"current_range_meters":20000,"station_id":"ce4bhn12rcd13ifvqgpg","pricing_plan_id":"cebpf4jnsgd1na2vs0mg"},{"bike_id":"5ba63f7e-3ad9-48c1-b258-aa24eedf3704","system_id":"levelo_inurba_marseille","lat":43.30566,"lon":5.36529,"is_reserved":false,"is_disabled":false,"rental_uris":{"android":"levelo://app?vid=5ba63f7e-3ad9-48c1-b258-aa24eedf3704","ios":"levelo://app?vid=5ba63f7e-3ad9-48c1-b258-aa24eedf3704"},"vehicle_type_id":"4","last_reported":1758708654,"current_range_meters":20000,"station_id":"ce4bgs12rcd13ifvqcag","pricing_plan_id":"cebpf4jnsgd1na2vs0mg"},{"bike_id":"89d329b3-6f02-43f9-a503-07030d415236","system_id":"levelo_inurba_marseille","lat":43.29956,"lon":5.4132,"is_reserved":false,"is_disabled":false,"rental_uris":{"android":"levelo://app?vid=89d329b3-6f02-43f9-a503-07030d415236","ios":"levelo://app?vid=89d329b3-6f02-43f9-a503-07030d415236"},"vehicle_type_id":"4","last_reported":1758708654,"current_range_meters":20400,"station_id":"ce4bhp12rcd13ifvqh9g","pricing_plan_id":"cebpf4jnsgd1na2vs0mg"},{"bike_id":"16367185-ced5-4128-9547-82d2cbdb7062","system_id":"levelo_inurba_marseille","lat":43.31484,"lon":5.37301,"is_reserved":false,"is_disabled":false,"rental_uris":{"android":"levelo://app?vid=16367185-ced5-4128-9547-82d2cbdb7062","ios":"levelo://app?vid=16367185-ced5-4128-9547-82d2cbdb7062"},"vehicle_type_id":"4","last_reported":1758708654,"current_range_meters":20400,"station_id":"ce4bgt12rcd13ifvqcd0","pricing_plan_id":"cebpf4jnsgd1na2vs0mg"},{"bike_id":"29ae3b3e-162e-4338-a4d5-9fd5b81b36c7","system_id":"levelo_inurba_marseille","lat":43.29615,"lon":5.37716,"is_reserved":false,"is_disabled":false,"rental_uris":{"android":"levelo://app?vid=29ae3b3e-162e-4338-a4d5-9fd5b81b36c7","ios":"levelo://app?vid=29ae3b3e-162e-4338-a4d5-9fd5b81b36c7"},"vehicle_type_id":"4","last_reported":1758708654,"current_range_meters":20400,"station_id":"ce4bgi92rcd13ifvqb90","pricing_plan_id":"cebpf4jnsgd1na2vs0mg"},{"bike_id":"e4996bd1-f47c-4753-85dc-cc0d65cf60d7","system_id":"levelo_inurba_marseille","lat":43.33781,"lon":5.37423,"is_reserved":false,"is_disabled":false,"rental_uris":{"android":"levelo://app?vid=e4996bd1-f47c-4753-85dc-cc0d65cf60d7","ios":"levelo://app?vid=e4996bd1-f47c-4753-85dc-cc0d65cf60d7"},"vehicle_type_id":"4","last_reported":1758708654,"current_range_meters":20400,"station_id":"","pricing_plan_id":"cebpf4jnsgd1na2vs0mg"},{"bike_id":"5421b11f-6375-4f74-ac12-c335a87fc8b3","system_id":"levelo_inurba_marseille","lat":43.31509,"lon":5.37278,"is_reserved":false,"is_disabled":false,"rental_uris":{"android":"levelo://app?vid=5421b11f-6375-4f74-ac12-c335a87fc8b3","ios":"levelo://app?vid=5421b11f-6375-4f74-ac12-c335a87fc8b3"},"vehicle_type_id":"4","last_reported":1758708654,"current_range_meters":20400,"station_id":"ce4bgt12rcd13ifvqcd0","pricing_plan_id":"cebpf4jnsgd1na2vs0mg"},{"bike_id":"fe6b098c-64ac-478b-a2df-0541f3bba5ad","system_id":"levelo_inurba_marseille","lat":43.3229,"lon":5.3827,"is_reserved":false,"is_disabled":false,"rental_uris":{"android":"levelo://app?vid=fe6b098c-64ac-478b-a2df-0541f3bba5ad","ios":"levelo://app?vid=fe6b098c-64ac-478b-a2df-0541f3bba5ad"},"vehicle_type_id":"4","last_reported":1758708654,"current_range_meters":20400,"station_id":"ce4bhr12rcd13ifvqhqg","pricing_plan_id":"cebpf4jnsgd1na2vs0mg"},{"bike_id":"041cd397-24ab-4e04-af23-07b961e161f4","system_id":"levelo_inurba_marseille","lat":43.337444,"lon":5.374475,"is_reserved":false,"is_disabled":false,"rental_uris":{"android":"levelo://app?vid=041cd397-24ab-4e04-af23-07b961e161f4","ios":"levelo://app?vid=041cd397-24ab-4e04-af23-07b961e161f4"},"vehicle_type_id":"4","last_reported":1758708654,"current_range_meters":20400,"station_id":"","pricing_plan_id":"cebpf4jnsgd1na2vs0mg"},{"bike_id":"2899fe08-0262-4359-b766-8a4062fcac5c","system_id":"levelo_inurba_marseille","lat":43.25124,"lon":5.3948,"is_reserved":false,"is_disabled":false,"rental_uris":{"android":"levelo://app?vid=2899fe08-0262-4359-b766-8a4062fcac5c","ios":"levelo://app?vid=2899fe08-0262-4359-b766-8a4062fcac5c"},"vehicle_type_id":"4","last_reported":1758708654,"current_range_meters":20800,"station_id":"ce4bhm12rcd13ifvqgkg","pricing_plan_id":"cebpf4jnsgd1na2vs0mg"},{"bike_id":"946cf8b8-cf9a-4dcd-9e0f-9f7df30570d3","system_id":"levelo_inurba_marseille","lat":43.225588,"lon":5.416322,"is_reserved":false,"is_disabled":false,"rental_uris":{"android":"levelo://app?vid=946cf8b8-cf9a-4dcd-9e0f-9f7df30570d3","ios":"levelo://app?vid=946cf8b8-cf9a-4dcd-9e0f-9f7df30570d3"},"vehicle_type_id":"4","last_reported":1758708654,"current_range_meters":20800,"station_id":"st_d2o4gvlbi1j2169b742g","pricing_plan_id":"cebpf4jnsgd1na2vs0mg"},{"bike_id":"9f641ba7-f885-4049-9509-c9a6bdc9ddd3","system_id":"levelo_inurba_marseille","lat":43.292722,"lon":5.36851,"is_reserved":false,"is_disabled":false,"rental_uris":{"android":"levelo://app?vid=9f641ba7-f885-4049-9509-c9a6bdc9ddd3","ios":"levelo://app?vid=9f641ba7-f885-4049-9509-c9a6bdc9ddd3"},"vehicle_type_id":"4","last_reported":1758708654,"current_range_meters":20800,"station_id":"ce4bhbp2rcd13ifvqesg","pricing_plan_id":"cebpf4jnsgd1na2vs0mg"},{"bike_id":"dec5e3d0-16cf-4f61-8905-2078866bf757","system_id":"levelo_inurba_marseille","lat":43.25087,"lon":5.39518,"is_reserved":false,"is_disabled":false,"rental_uris":{"android":"levelo://app?vid=dec5e3d0-16cf-4f61-8905-2078866bf757","ios":"levelo://app?vid=dec5e3d0-16cf-4f61-8905-2078866bf757"},"vehicle_type_id":"4","last_reported":1758708654,"current_range_meters":20800,"station_id":"ce4bhm12rcd13ifvqgkg","pricing_plan_id":"cebpf4jnsgd1na2vs0mg"},{"bike_id":"3a5ab464-6124-4a59-884a-16a2783503cf","system_id":"levelo_inurba_marseille","lat":43.29989,"lon":5.38081,"is_reserved":false,"is_disabled":false,"rental_uris":{"android":"levelo://app?vid=3a5ab464-6124-4a59-884a-16a2783503cf","ios":"levelo://app?vid=3a5ab464-6124-4a59-884a-16a2783503cf"},"vehicle_type_id":"4","last_reported":1758708654,"current_range_meters":21600,"station_id":"","pricing_plan_id":"cebpf4jnsgd1na2vs0mg"},{"bike_id":"2111f395-38d0-430d-9791-2840a0e62dcb","system_id":"levelo_inurba_marseille","lat":43.292988,"lon":5.374548,"is_reserved":false,"is_disabled":false,"rental_uris":{"android":"levelo://app?vid=2111f395-38d0-430d-9791-2840a0e62dcb","ios":"levelo://app?vid=2111f395-38d0-430d-9791-2840a0e62dcb"},"vehicle_type_id":"4","last_reported":1758708654,"current_range_meters":21600,"station_id":"ce4bgi12rcd13ifvqb70","pricing_plan_id":"cebpf4jnsgd1na2vs0mg"},{"bike_id":"ad143bc4-0025-4bdb-bd8a-f4eaa8fbe22d","system_id":"levelo_inurba_marseille","lat":43.280418,"lon":5.369423,"is_reserved":false,"is_disabled":false,"rental_uris":{"android":"levelo://app?vid=ad143bc4-0025-4bdb-bd8a-f4eaa8fbe22d","ios":"levelo://app?vid=ad143bc4-0025-4bdb-bd8a-f4eaa8fbe22d"},"vehicle_type_id":"4","last_reported":1758708654,"current_range_meters":21600,"station_id":"","pricing_plan_id":"cebpf4jnsgd1na2vs0mg"},{"bike_id":"37039d9c-4484-49e6-b052-9edb44b8bedb","system_id":"levelo_inurba_marseille","lat":43.323836,"lon":5.367345,"is_reserved":false,"is_disabled":false,"rental_uris":{"android":"levelo://app?vid=37039d9c-4484-49e6-b052-9edb44b8bedb","ios":"levelo://app?vid=37039d9c-4484-49e6-b052-9edb44b8bedb"},"vehicle_type_id":"4","last_reported":1758708654,"current_range_meters":21600,"station_id":"ce4bhsh2rcd13ifvqi2g","pricing_plan_id":"cebpf4jnsgd1na2vs0mg"},{"bike_id":"049d12d6-9b69-4fa3-b828-faf08af51446","system_id":"levelo_inurba_marseille","lat":43.28866,"lon":5.42514,"is_reserved":false,"is_disabled":false,"rental_uris":{"android":"levelo://app?vid=049d12d6-9b69-4fa3-b828-faf08af51446","ios":"levelo://app?vid=049d12d6-9b69-4fa3-b828-faf08af51446"},"vehicle_type_id":"4","last_reported":1758708654,"current_range_meters":21600,"station_id":"","pricing_plan_id":"cebpf4jnsgd1na2vs0mg"},{"bike_id":"055257d3-b71c-4f5c-85a1-9f34b8e92098","system_id":"levelo_inurba_marseille","lat":43.28619,"lon":5.35097,"is_reserved":false,"is_disabled":false,"rental_uris":{"android":"levelo://app?vid=055257d3-b71c-4f5c-85a1-9f34b8e92098","ios":"levelo://app?vid=055257d3-b71c-4f5c-85a1-9f34b8e92098"},"vehicle_type_id":"4","last_reported":1758708654,"current_range_meters":22000,"station_id":"ce4bhch2rcd13ifvqeug","pricing_plan_id":"cebpf4jnsgd1na2vs0mg"},{"bike_id":"573525ee-0a6a-4169-8294-7a89fdbf9d63","system_id":"levelo_inurba_marseille","lat":43.30507,"lon":5.36795,"is_reserved":false,"is_disabled":false,"rental_uris":{"android":"levelo://app?vid=573525ee-0a6a-4169-8294-7a89fdbf9d63","ios":"levelo://app?vid=573525ee-0a6a-4169-8294-7a89fdbf9d63"},"vehicle_type_id":"4","last_reported":1758708654,"current_range_meters":22000,"station_id":"","pricing_plan_id":"cebpf4jnsgd1na2vs0mg"},{"bike_id":"68e1168d-eb73-48cd-8670-6e33539e5cfa","system_id":"levelo_inurba_marseille","lat":43.281381,"lon":5.378295,"is_reserved":false,"is_disabled":false,"rental_uris":{"android":"levelo://app?vid=68e1168d-eb73-48cd-8670-6e33539e5cfa","ios":"levelo://app?vid=68e1168d-eb73-48cd-8670-6e33539e5cfa"},"vehicle_type_id":"4","last_reported":1758708654,"current_range_meters":22000,"station_id":"ce4bha12rcd13ifvqee0","pricing_plan_id":"cebpf4jnsgd1na2vs0mg"},{"bike_id":"70743f52-911d-4758-8a3f-6e3bb77e0354","system_id":"levelo_inurba_marseille","lat":43.30272,"lon":5.37717,"is_reserved":false,"is_disabled":false,"rental_uris":{"android":"levelo://app?vid=70743f52-911d-4758-8a3f-6e3bb77e0354","ios":"levelo://app?vid=70743f52-911d-4758-8a3f-6e3bb77e0354"},"vehicle_type_id":"4","last_reported":1758708654,"current_range_meters":22000,"station_id":"ce4bguh2rcd13ifvqcj0","pricing_plan_id":"cebpf4jnsgd1na2vs0mg"},{"bike_id":"d842bcb9-5d02-4dcb-bd38-dc54444e4d8a","system_id":"levelo_inurba_marseille","lat":43.23704,"lon":5.40196,"is_reserved":false,"is_disabled":false,"rental_uris":{"android":"levelo://app?vid=d842bcb9-5d02-4dcb-bd38-dc54444e4d8a","ios":"levelo://app?vid=d842bcb9-5d02-4dcb-bd38-dc54444e4d8a"},"vehicle_type_id":"4","last_reported":1758708654,"current_range_meters":22000,"station_id":"","pricing_plan_id":"cebpf4jnsgd1na2vs0mg"},{"bike_id":"a855d6c5-181b-4c09-9b6a-4ca0d6704141","system_id":"levelo_inurba_marseille","lat":43.298029,"lon":5.380759,"is_reserved":false,"is_disabled":false,"rental_uris":{"android":"levelo://app?vid=a855d6c5-181b-4c09-9b6a-4ca0d6704141","ios":"levelo://app?vid=a855d6c5-181b-4c09-9b6a-4ca0d6704141"},"vehicle_type_id":"4","last_reported":1758708654,"current_range_meters":22000,"station_id":"ce4bgip2rcd13ifvqbb0","pricing_plan_id":"cebpf4jnsgd1na2vs0mg"},{"bike_id":"f70b9a08-17b3-489a-87a5-7e7fe06627ac","system_id":"levelo_inurba_marseille","lat":43.23069,"lon":5.3548,"is_reserved":false,"is_disabled":false,"rental_uris":{"android":"levelo://app?vid=f70b9a08-17b3-489a-87a5-7e7fe06627ac","ios":"levelo://app?vid=f70b9a08-17b3-489a-87a5-7e7fe06627ac"},"vehicle_type_id":"4","last_reported":1758708654,"current_range_meters":22000,"station_id":"cpo3342slgdg3j2ifvpg","pricing_plan_id":"cebpf4jnsgd1na2vs0mg"},{"bike_id":"fdcb217c-04cc-4500-9516-78c2b4fe9767","system_id":"levelo_inurba_marseille","lat":43.306005,"lon":5.372386,"is_reserved":false,"is_disabled":false,"rental_uris":{"android":"levelo://app?vid=fdcb217c-04cc-4500-9516-78c2b4fe9767","ios":"levelo://app?vid=fdcb217c-04cc-4500-9516-78c2b4fe9767"},"vehicle_type_id":"4","last_reported":1758708654,"current_range_meters":22000,"station_id":"ce4bgqh2rcd13ifvqc4g","pricing_plan_id":"cebpf4jnsgd1na2vs0mg"},{"bike_id":"a57b3feb-2354-42fe-87fd-e8fcee3a0260","system_id":"levelo_inurba_marseille","lat":43.26953,"lon":5.40241,"is_reserved":false,"is_disabled":false,"rental_uris":{"android":"levelo://app?vid=a57b3feb-2354-42fe-87fd-e8fcee3a0260","ios":"levelo://app?vid=a57b3feb-2354-42fe-87fd-e8fcee3a0260"},"vehicle_type_id":"4","last_reported":1758708654,"current_range_meters":22000,"station_id":"","pricing_plan_id":"cebpf4jnsgd1na2vs0mg"},{"bike_id":"da62f041-9ba5-4cc8-bb4f-234479520639","system_id":"levelo_inurba_marseille","lat":43.29304,"lon":5.3744,"is_reserved":false,"is_disabled":false,"rental_uris":{"android":"levelo://app?vid=da62f041-9ba5-4cc8-bb4f-234479520639","ios":"levelo://app?vid=da62f041-9ba5-4cc8-bb4f-234479520639"},"vehicle_type_id":"4","last_reported":1758708654,"current_range_meters":22400,"station_id":"ce4bgi12rcd13ifvqb70","pricing_plan_id":"cebpf4jnsgd1na2vs0mg"},{"bike_id":"7aa27121-144e-499b-8918-461e3b8b9d74","system_id":"levelo_inurba_marseille","lat":43.298029,"lon":5.381043,"is_reserved":false,"is_disabled":false,"rental_uris":{"android":"levelo://app?vid=7aa27121-144e-499b-8918-461e3b8b9d74","ios":"levelo://app?vid=7aa27121-144e-499b-8918-461e3b8b9d74"},"vehicle_type_id":"4","last_reported":1758708654,"current_range_meters":22400,"station_id":"ce4bgip2rcd13ifvqbb0","pricing_plan_id":"cebpf4jnsgd1na2vs0mg"},{"bike_id":"72ea3735-7cd8-465b-93a0-f62af96b5ddf","system_id":"levelo_inurba_marseille","lat":43.32453,"lon":5.3659,"is_reserved":false,"is_disabled":false,"rental_uris":{"android":"levelo://app?vid=72ea3735-7cd8-465b-93a0-f62af96b5ddf","ios":"levelo://app?vid=72ea3735-7cd8-465b-93a0-f62af96b5ddf"},"vehicle_type_id":"4","last_reported":1758708654,"current_range_meters":22400,"station_id":"ce4bhs12rcd13ifvqhvg","pricing_plan_id":"cebpf4jnsgd1na2vs0mg"},{"bike_id":"969961ab-b527-4f6e-add1-56e7a5a0660d","system_id":"levelo_inurba_marseille","lat":43.30597,"lon":5.3721,"is_reserved":false,"is_disabled":false,"rental_uris":{"android":"levelo://app?vid=969961ab-b527-4f6e-add1-56e7a5a0660d","ios":"levelo://app?vid=969961ab-b527-4f6e-add1-56e7a5a0660d"},"vehicle_type_id":"4","last_reported":1758708654,"current_range_meters":22400,"station_id":"ce4bgqh2rcd13ifvqc4g","pricing_plan_id":"cebpf4jnsgd1na2vs0mg"},{"bike_id":"1a1f23ba-edc5-4e5b-9602-6564124a56de","system_id":"levelo_inurba_marseille","lat":43.311056,"lon":5.378276,"is_reserved":false,"is_disabled":false,"rental_uris":{"android":"levelo://app?vid=1a1f23ba-edc5-4e5b-9602-6564124a56de","ios":"levelo://app?vid=1a1f23ba-edc5-4e5b-9602-6564124a56de"},"vehicle_type_id":"4","last_reported":1758708654,"current_range_meters":22400,"station_id":"","pricing_plan_id":"cebpf4jnsgd1na2vs0mg"},{"bike_id":"006678ed-6111-4215-aae4-b9b607ca32a9","system_id":"levelo_inurba_marseille","lat":43.25957,"lon":5.41367,"is_reserved":false,"is_disabled":false,"rental_uris":{"android":"levelo://app?vid=006678ed-6111-4215-aae4-b9b607ca32a9","ios":"levelo://app?vid=006678ed-6111-4215-aae4-b9b607ca32a9"},"vehicle_type_id":"4","last_reported":1758708654,"current_range_meters":22400,"station_id":"","pricing_plan_id":"cebpf4jnsgd1na2vs0mg"},{"bike_id":"5db1c96d-6502-4e6b-9b1f-6d312b975a57","system_id":"levelo_inurba_marseille","lat":43.2906,"lon":5.38032,"is_reserved":false,"is_disabled":false,"rental_uris":{"android":"levelo://app?vid=5db1c96d-6502-4e6b-9b1f-6d312b975a57","ios":"levelo://app?vid=5db1c96d-6502-4e6b-9b1f-6d312b975a57"},"vehicle_type_id":"4","last_reported":1758708654,"current_range_meters":22400,"station_id":"","pricing_plan_id":"cebpf4jnsgd1na2vs0mg"},{"bike_id":"9ca8cf57-9bf7-4348-a5fe-87721e5e807e","system_id":"levelo_inurba_marseille","lat":43.2593,"lon":5.40929,"is_reserved":false,"is_disabled":false,"rental_uris":{"android":"levelo://app?vid=9ca8cf57-9bf7-4348-a5fe-87721e5e807e","ios":"levelo://app?vid=9ca8cf57-9bf7-4348-a5fe-87721e5e807e"},"vehicle_type_id":"4","last_reported":1758708654,"current_range_meters":22400,"station_id":"ce4bhm92rcd13ifvqglg","pricing_plan_id":"cebpf4jnsgd1na2vs0mg"},{"bike_id":"fd932ade-417c-4592-9a3e-ed76e4a844cd","system_id":"levelo_inurba_marseille","lat":43.259363,"lon":5.408984,"is_reserved":false,"is_disabled":false,"rental_uris":{"android":"levelo://app?vid=fd932ade-417c-4592-9a3e-ed76e4a844cd","ios":"levelo://app?vid=fd932ade-417c-4592-9a3e-ed76e4a844cd"},