{"last_updated":1679263595,"ttl":30,"version":"2.2","data":{"bikes":[{"bike_id":"d1d53a01-2978-4949-a6a4-ad0cca60a10b","system_id":"levelo_inurba_marseille","lat":43.31225,"lon":5.36858,"is_reserved":false,"is_disabled":false,"rental_uris":{"android":"levelo://app?vid=d1d53a01-2978-4949-a6a4-ad0cca60a10b","ios":"levelo://app?vid=d1d53a01-2978-4949-a6a4-ad0cca60a10b"},"vehicle_type_id":"4","last_reported":1679263596,"current_range_meters":10000,"station_id":"ce4bgl92rcd13ifvqbq0","pricing_plan_id":"free"},{"bike_id":"6c3accd4-c545-4bf4-9635-3174610e85ae","system_id":"levelo_inurba_marseille","lat":43.31484,"lon":5.37307,"is_reserved":false,"is_disabled":false,"rental_uris":{"android":"levelo://app?vid=6c3accd4-c545-4bf4-9635-3174610e85ae","ios":"levelo://app?vid=6c3accd4-c545-4bf4-9635-3174610e85ae"},"vehicle_type_id":"4","last_reported":1679263596,"current_range_meters":400,"station_id":"ce4bgt12rcd13ifvqcd0","pricing_plan_id":"free"},{"bike_id":"050cc297-ddd7-4817-8deb-3bb353d1051c","system_id":"levelo_inurba_marseille","lat":43.30889,"lon":5.371985,"is_reserved":false,"is_disabled":false,"rental_uris":{"android":"levelo://app?vid=050cc297-ddd7-4817-8deb-3bb353d1051c","ios":"levelo://app?vid=050cc297-ddd7-4817-8deb-3bb353d1051c"},"vehicle_type_id":"4","last_reported":1679263596,"current_range_meters":0,"station_id":"","pricing_plan_id":"free"},{"bike_id":"f0c7e25b-117e-4ca3-9238-a2f42879f5b5","system_id":"levelo_inurba_marseille","lat":43.31388,"lon":5.37448,"is_reserved":false,"is_disabled":false,"rental_uris":{"android":"levelo://app?vid=f0c7e25b-117e-4ca3-9238-a2f42879f5b5","ios":"levelo://app?vid=f0c7e25b-117e-4ca3-9238-a2f42879f5b5"},"vehicle_type_id":"4","last_reported":1679263596,"current_range_meters":8800,"station_id":"","pricing_plan_id":"free"},{"bike_id":"4ec8fe12-7b43-4a49-9bf3-7ade490a1c20","system_id":"levelo_inurba_marseille","lat":43.306377,"lon":5.37427,"is_reserved":false,"is_disabled":false,"rental_uris":{"android":"levelo://app?vid=4ec8fe12-7b43-4a49-9bf3-7ade490a1c20","ios":"levelo://app?vid=4ec8fe12-7b43-4a49-9bf3-7ade490a1c20"},"vehicle_type_id":"4","last_reported":1679263596,"current_range_meters":400,"station_id":"","pricing_plan_id":"free"},{"bike_id":"fd186cce-b235-40e9-a6f3-493f6354082b","system_id":"levelo_inurba_marseille","lat":43.317033,"lon":5.377593,"is_reserved":false,"is_disabled":false,"rental_uris":{"android":"levelo://app?vid=fd186cce-b235-40e9-a6f3-493f6354082b","ios":"levelo://app?vid=fd186cce-b235-40e9-a6f3-493f6354082b"},"vehicle_type_id":"4","last_reported":1679263596,"current_range_meters":7600,"station_id":"","pricing_plan_id":"free"},{"bike_id":"ea071a77-cbd4-4cc9-b267-d1ffa1f280aa","system_id":"levelo_inurba_marseille","lat":43.31705,"lon":5.377703,"is_reserved":false,"is_disabled":false,"rental_uris":{"android":"levelo://app?vid=ea071a77-cbd4-4cc9-b267-d1ffa1f280aa","ios":"levelo://app?vid=ea071a77-cbd4-4cc9-b267-d1ffa1f280aa"},"vehicle_type_id":"4","last_reported":1679263596,"current_range_meters":0,"station_id":"","pricing_plan_id":"free"},{"bike_id":"4e6fea43-a84e-480c-a0c8-d11b281bd231","system_id":"levelo_inurba_marseille","lat":43.30547,"lon":5.37617,"is_reserved":false,"is_disabled":false,"rental_uris":{"android":"levelo://app?vid=4e6fea43-a84e-480c-a0c8-d11b281bd231","ios":"levelo://app?vid=4e6fea43-a84e-480c-a0c8-d11b281bd231"},"vehicle_type_id":"4","last_reported":1679263596,"current_range_meters":4000,"station_id":"","pricing_plan_id":"free"},{"bike_id":"452b2672-b362-4d38-9696-ddda64ec1212","system_id":"levelo_inurba_marseille","lat":43.301939,"lon":5.366286,"is_reserved":false,"is_disabled":false,"rental_uris":{"android":"levelo://app?vid=452b2672-b362-4d38-9696-ddda64ec1212","ios":"levelo://app?vid=452b2672-b362-4d38-9696-ddda64ec1212"},"vehicle_type_id":"4","last_reported":1679263596,"current_range_meters":19600,"station_id":"ce4bgrh2rcd13ifvqc8g","pricing_plan_id":"free"},{"bike_id":"65a03aa4-9a29-43f7-a298-87699747a243","system_id":"levelo_inurba_marseille","lat":43.30859,"lon":5.380778,"is_reserved":false,"is_disabled":false,"rental_uris":{"android":"levelo://app?vid=65a03aa4-9a29-43f7-a298-87699747a243","ios":"levelo://app?vid=65a03aa4-9a29-43f7-a298-87699747a243"},"vehicle_type_id":"4","last_reported":1679263596,"current_range_meters":0,"station_id":"","pricing_plan_id":"free"},{"bike_id":"2f4c40f9-66ea-4d58-a55d-b8a0f4ed2f33","system_id":"levelo_inurba_marseille","lat":43.30799,"lon":5.38145,"is_reserved":false,"is_disabled":false,"rental_uris":{"android":"levelo://app?vid=2f4c40f9-66ea-4d58-a55d-b8a0f4ed2f33","ios":"levelo://app?vid=2f4c40f9-66ea-4d58-a55d-b8a0f4ed2f33"},"vehicle_type_id":"4","last_reported":1679263596,"current_range_meters":1600,"station_id":"","pricing_plan_id":"free"},{"bike_id":"1e6e3ce0-80ec-4596-bc77-6ffd033382e1","system_id":"levelo_inurba_marseille","lat":43.308012,"lon":5.381511,"is_reserved":false,"is_disabled":false,"rental_uris":{"android":"levelo://app?vid=1e6e3ce0-80ec-4596-bc77-6ffd033382e1","ios":"levelo://app?vid=1e6e3ce0-80ec-4596-bc77-6ffd033382e1"},"vehicle_type_id":"4","last_reported":1679263596,"current_range_meters":3200,"station_id":"ce4bgt12rcd13ifvqce0","pricing_plan_id":"free"},{"bike_id":"ddaf688d-af48-4744-81d2-8a6a70419d26","system_id":"levelo_inurba_marseille","lat":43.30803,"lon":5.38159,"is_reserved":false,"is_disabled":false,"rental_uris":{"android":"levelo://app?vid=ddaf688d-af48-4744-81d2-8a6a70419d26","ios":"levelo://app?vid=ddaf688d-af48-4744-81d2-8a6a70419d26"},"vehicle_type_id":"4","last_reported":1679263596,"current_range_meters":3600,"station_id":"ce4bgt12rcd13ifvqce0","pricing_plan_id":"free"},{"bike_id":"e2adbd85-f667-43f8-ad9d-4609c44de0bf","system_id":"levelo_inurba_marseille","lat":43.30143,"lon":5.37413,"is_reserved":false,"is_disabled":false,"rental_uris":{"android":"levelo://app?vid=e2adbd85-f667-43f8-ad9d-4609c44de0bf","ios":"levelo://app?vid=e2adbd85-f667-43f8-ad9d-4609c44de0bf"},"vehicle_type_id":"4","last_reported":1679263596,"current_range_meters":3200,"station_id":"ce4bgs92rcd13ifvqcc0","pricing_plan_id":"free"},{"bike_id":"f14a7db1-247f-4a66-a689-9a828c067b8a","system_id":"levelo_inurba_marseille","lat":43.313571,"lon":5.384829,"is_reserved":false,"is_disabled":false,"rental_uris":{"android":"levelo://app?vid=f14a7db1-247f-4a66-a689-9a828c067b8a","ios":"levelo://app?vid=f14a7db1-247f-4a66-a689-9a828c067b8a"},"vehicle_type_id":"4","last_reported":1679263596,"current_range_meters":20000,"station_id":"ce4bgt92rcd13ifvqcf0","pricing_plan_id":"free"},{"bike_id":"a60e52b1-153a-4d9c-880c-2f9d7cab9477","system_id":"levelo_inurba_marseille","lat":43.29929,"lon":5.37483,"is_reserved":false,"is_disabled":false,"rental_uris":{"android":"levelo://app?vid=a60e52b1-153a-4d9c-880c-2f9d7cab9477","ios":"levelo://app?vid=a60e52b1-153a-4d9c-880c-2f9d7cab9477"},"vehicle_type_id":"4","last_reported":1679263596,"current_range_meters":0,"station_id":"","pricing_plan_id":"free"},{"bike_id":"b1cca781-4db8-4599-8859-21420700b0a4","system_id":"levelo_inurba_marseille","lat":43.305364,"lon":5.384119,"is_reserved":false,"is_disabled":false,"rental_uris":{"android":"levelo://app?vid=b1cca781-4db8-4599-8859-21420700b0a4","ios":"levelo://app?vid=b1cca781-4db8-4599-8859-21420700b0a4"},"vehicle_type_id":"4","last_reported":1679263596,"current_range_meters":20800,"station_id":"ce4bgg92rcd13ifvqb30","pricing_plan_id":"free"},{"bike_id":"1f50a77f-c815-47d0-9a95-4aa1a7265cee","system_id":"levelo_inurba_marseille","lat":43.311722,"lon":5.387247,"is_reserved":false,"is_disabled":false,"rental_uris":{"android":"levelo://app?vid=1f50a77f-c815-47d0-9a95-4aa1a7265cee","ios":"levelo://app?vid=1f50a77f-c815-47d0-9a95-4aa1a7265cee"},"vehicle_type_id":"4","last_reported":1679263596,"current_range_meters":15200,"station_id":"ce4bgv12rcd13ifvqcp0","pricing_plan_id":"free"},{"bike_id":"04828532-ba93-4038-a742-9ab68a2bcc6b","system_id":"levelo_inurba_marseille","lat":43.311722,"lon":5.387247,"is_reserved":false,"is_disabled":false,"rental_uris":{"android":"levelo://app?vid=04828532-ba93-4038-a742-9ab68a2bcc6b","ios":"levelo://app?vid=04828532-ba93-4038-a742-9ab68a2bcc6b"},"vehicle_type_id":"4","last_reported":1679263596,"current_range_meters":28000,"station_id":"ce4bgv12rcd13ifvqcp0","pricing_plan_id":"free"},{"bike_id":"7b38ce2a-d95e-4fe6-82ed-235640470951","system_id":"levelo_inurba_marseille","lat":43.328371,"lon":5.366909,"is_reserved":false,"is_disabled":false,"rental_uris":{"android":"levelo://app?vid=7b38ce2a-d95e-4fe6-82ed-235640470951","ios":"levelo://app?vid=7b38ce2a-d95e-4fe6-82ed-235640470951"},"vehicle_type_id":"4","last_reported":1679263596,"current_range_meters":8800,"station_id":"ce4bhs92rcd13ifvqi0g","pricing_plan_id":"free"},{"bike_id":"f79fc366-a3ec-48e5-aa42-45166ee1f331","system_id":"levelo_inurba_marseille","lat":43.29683,"lon":5.37291,"is_reserved":false,"is_disabled":false,"rental_uris":{"android":"levelo://app?vid=f79fc366-a3ec-48e5-aa42-45166ee1f331","ios":"levelo://app?vid=f79fc366-a3ec-48e5-aa42-45166ee1f331"},"vehicle_type_id":"4","last_reported":1679263596,"current_range_meters":0,"station_id":"","pricing_plan_id":"free"},{"bike_id":"013d55aa-dde2-4987-9af5-784f54551cab","system_id":"levelo_inurba_marseille","lat":43.32842,"lon":5.375307,"is_reserved":false,"is_disabled":false,"rental_uris":{"android":"levelo://app?vid=013d55aa-dde2-4987-9af5-784f54551cab","ios":"levelo://app?vid=013d55aa-dde2-4987-9af5-784f54551cab"},"vehicle_type_id":"4","last_reported":1679263596,"current_range_meters":6800,"station_id":"","pricing_plan_id":"free"},{"bike_id":"82d7855d-89cf-4168-b0c1-dc3199c21867","system_id":"levelo_inurba_marseille","lat":43.296921,"lon":5.376579,"is_reserved":false,"is_disabled":false,"rental_uris":{"android":"levelo://app?vid=82d7855d-89cf-4168-b0c1-dc3199c21867","ios":"levelo://app?vid=82d7855d-89cf-4168-b0c1-dc3199c21867"},"vehicle_type_id":"4","last_reported":1679263596,"current_range_meters":0,"station_id":"ce4bgkh2rcd13ifvqbl0","pricing_plan_id":"free"},{"bike_id":"03bd547c-9bda-4b7d-8704-53e2a98a820b","system_id":"levelo_inurba_marseille","lat":43.309589,"lon":5.390258,"is_reserved":false,"is_disabled":false,"rental_uris":{"android":"levelo://app?vid=03bd547c-9bda-4b7d-8704-53e2a98a820b","ios":"levelo://app?vid=03bd547c-9bda-4b7d-8704-53e2a98a820b"},"vehicle_type_id":"4","last_reported":1679263596,"current_range_meters":9600,"station_id":"ce4bgup2rcd13ifvqco0","pricing_plan_id":"free"},{"bike_id":"9dd46a1f-549f-4e6a-9388-b19070774e1a","system_id":"levelo_inurba_marseille","lat":43.309589,"lon":5.390258,"is_reserved":false,"is_disabled":false,"rental_uris":{"android":"levelo://app?vid=9dd46a1f-549f-4e6a-9388-b19070774e1a","ios":"levelo://app?vid=9dd46a1f-549f-4e6a-9388-b19070774e1a"},"vehicle_type_id":"4","last_reported":1679263596,"current_range_meters":26000,"station_id":"ce4bgup2rcd13ifvqco0","pricing_plan_id":"free"},{"bike_id":"d2806991-aca0-4e2f-823e-8c134a702787","system_id":"levelo_inurba_marseille","lat":43.31758,"lon":5.3901,"is_reserved":false,"is_disabled":false,"rental_uris":{"android":"levelo://app?vid=d2806991-aca0-4e2f-823e-8c134a702787","ios":"levelo://app?vid=d2806991-aca0-4e2f-823e-8c134a702787"},"vehicle_type_id":"4","last_reported":1679263596,"current_range_meters":12800,"station_id":"ce4bhqp2rcd13ifvqhng","pricing_plan_id":"free"},{"bike_id":"8f0253d3-dd17-42cf-841b-2d4082d06618","system_id":"levelo_inurba_marseille","lat":43.298041,"lon":5.38092,"is_reserved":false,"is_disabled":false,"rental_uris":{"android":"levelo://app?vid=8f0253d3-dd17-42cf-841b-2d4082d06618","ios":"levelo://app?vid=8f0253d3-dd17-42cf-841b-2d4082d06618"},"vehicle_type_id":"4","last_reported":1679263596,"current_range_meters":0,"station_id":"ce4bgip2rcd13ifvqbb0","pricing_plan_id":"free"},{"bike_id":"f2fe71ca-8da9-4cf0-9313-5bb081eb967e","system_id":"levelo_inurba_marseille","lat":43.29635,"lon":5.376877,"is_reserved":false,"is_disabled":false,"rental_uris":{"android":"levelo://app?vid=f2fe71ca-8da9-4cf0-9313-5bb081eb967e","ios":"levelo://app?vid=f2fe71ca-8da9-4cf0-9313-5bb081eb967e"},"vehicle_type_id":"4","last_reported":1679263596,"current_range_meters":0,"station_id":"","pricing_plan_id":"free"},{"bike_id":"b61199e0-8ba4-4fb6-8b22-0a748dd7cf16","system_id":"levelo_inurba_marseille","lat":43.29796,"lon":5.38085,"is_reserved":false,"is_disabled":false,"rental_uris":{"android":"levelo://app?vid=b61199e0-8ba4-4fb6-8b22-0a748dd7cf16","ios":"levelo://app?vid=b61199e0-8ba4-4fb6-8b22-0a748dd7cf16"},"vehicle_type_id":"4","last_reported":1679263596,"current_range_meters":2000,"station_id":"","pricing_plan_id":"free"},{"bike_id":"033873b7-4119-4f38-8a4a-2ecae9558d4a","system_id":"levelo_inurba_marseille","lat":43.304278,"lon":5.388868,"is_reserved":false,"is_disabled":false,"rental_uris":{"android":"levelo://app?vid=033873b7-4119-4f38-8a4a-2ecae9558d4a","ios":"levelo://app?vid=033873b7-4119-4f38-8a4a-2ecae9558d4a"},"vehicle_type_id":"4","last_reported":1679263596,"current_range_meters":10400,"station_id":"ce4bgk12rcd13ifvqbi0","pricing_plan_id":"free"},{"bike_id":"dc2a66cb-9f68-41ff-afd4-106736553a96","system_id":"levelo_inurba_marseille","lat":43.32363,"lon":5.38884,"is_reserved":false,"is_disabled":false,"rental_uris":{"android":"levelo://app?vid=dc2a66cb-9f68-41ff-afd4-106736553a96","ios":"levelo://app?vid=dc2a66cb-9f68-41ff-afd4-106736553a96"},"vehicle_type_id":"4","last_reported":1679263596,"current_range_meters":6800,"station_id":"","pricing_plan_id":"free"},{"bike_id":"25a690a1-8ce6-46a3-bda6-cea29969af9d","system_id":"levelo_inurba_marseille","lat":43.32362,"lon":5.38887,"is_reserved":false,"is_disabled":false,"rental_uris":{"android":"levelo://app?vid=25a690a1-8ce6-46a3-bda6-cea29969af9d","ios":"levelo://app?vid=25a690a1-8ce6-46a3-bda6-cea29969af9d"},"vehicle_type_id":"4","last_reported":1679263596,"current_range_meters":2400,"station_id":"","pricing_plan_id":"free"},{"bike_id":"c97df904-3ae9-4d69-937d-efcf85a8a2a5","system_id":"levelo_inurba_marseille","lat":43.32366,"lon":5.38893,"is_reserved":false,"is_disabled":false,"rental_uris":{"android":"levelo://app?vid=c97df904-3ae9-4d69-937d-efcf85a8a2a5","ios":"levelo://app?vid=c97df904-3ae9-4d69-937d-efcf85a8a2a5"},"vehicle_type_id":"4","last_reported":1679263596,"current_range_meters":0,"station_id":"","pricing_plan_id":"free"},{"bike_id":"3348e1c3-39bd-4b95-8a18-af0b3d76428f","system_id":"levelo_inurba_marseille","lat":43.292987,"lon":5.374475,"is_reserved":false,"is_disabled":false,"rental_uris":{"android":"levelo://app?vid=3348e1c3-39bd-4b95-8a18-af0b3d76428f","ios":"levelo://app?vid=3348e1c3-39bd-4b95-8a18-af0b3d76428f"},"vehicle_type_id":"4","last_reported":1679263596,"current_range_meters":0,"station_id":"","pricing_plan_id":"free"},{"bike_id":"b5f0e910-1e28-4011-a554-5e1a0668879d","system_id":"levelo_inurba_marseille","lat":43.292253,"lon":5.360512,"is_reserved":false,"is_disabled":false,"rental_uris":{"android":"levelo://app?vid=b5f0e910-1e28-4011-a554-5e1a0668879d","ios":"levelo://app?vid=b5f0e910-1e28-4011-a554-5e1a0668879d"},"vehicle_type_id":"4","last_reported":1679263596,"current_range_meters":19600,"station_id":"ce4bhbh2rcd13ifvqeqg","pricing_plan_id":"free"},{"bike_id":"d3428953-8929-429e-a382-eb984c3c2ab4","system_id":"levelo_inurba_marseille","lat":43.313291,"lon":5.396838,"is_reserved":false,"is_disabled":false,"rental_uris":{"android":"levelo://app?vid=d3428953-8929-429e-a382-eb984c3c2ab4","ios":"levelo://app?vid=d3428953-8929-429e-a382-eb984c3c2ab4"},"vehicle_type_id":"4","last_reported":1679263596,"current_range_meters":0,"station_id":"ce4bgvp2rcd13ifvqcu0","pricing_plan_id":"free"},{"bike_id":"038c449b-4570-4526-9def-76c802691943","system_id":"levelo_inurba_marseille","lat":43.313291,"lon":5.396838,"is_reserved":false,"is_disabled":false,"rental_uris":{"android":"levelo://app?vid=038c449b-4570-4526-9def-76c802691943","ios":"levelo://app?vid=038c449b-4570-4526-9def-76c802691943"},"vehicle_type_id":"4","last_reported":1679263596,"current_range_meters":0,"station_id":"ce4bgvp2rcd13ifvqcu0","pricing_plan_id":"free"},{"bike_id":"b2b00d11-4fa9-4d2e-88a8-9a24ccf7d766","system_id":"levelo_inurba_marseille","lat":43.313291,"lon":5.396838,"is_reserved":false,"is_disabled":false,"rental_uris":{"android":"levelo://app?vid=b2b00d11-4fa9-4d2e-88a8-9a24ccf7d766","ios":"levelo://app?vid=b2b00d11-4fa9-4d2e-88a8-9a24ccf7d766"},"vehicle_type_id":"4","last_reported":1679263596,"current_range_meters":8800,"station_id":"ce4bgvp2rcd13ifvqcu0","pricing_plan_id":"free"},{"bike_id":"44f7d5af-0afb-4c05-aa8a-ac1c30a8558c","system_id":"levelo_inurba_marseille","lat":43.313291,"lon":5.396838,"is_reserved":false,"is_disabled":false,"rental_uris":{"android":"levelo://app?vid=44f7d5af-0afb-4c05-aa8a-ac1c30a8558c","ios":"levelo://app?vid=44f7d5af-0afb-4c05-aa8a-ac1c30a8558c"},"vehicle_type_id":"4","last_reported":1679263596,"current_range_meters":8400,"station_id":"ce4bgvp2rcd13ifvqcu0","pricing_plan_id":"free"},{"bike_id":"74b2254f-a542-4353-887f-da3db1373029","system_id":"levelo_inurba_marseille","lat":43.2942,"lon":5.38611,"is_reserved":false,"is_disabled":false,"rental_uris":{"android":"levelo://app?vid=74b2254f-a542-4353-887f-da3db1373029","ios":"levelo://app?vid=74b2254f-a542-4353-887f-da3db1373029"},"vehicle_type_id":"4","last_reported":1679263596,"current_range_meters":0,"station_id":"ce4bh2h2rcd13ifvqdh0","pricing_plan_id":"free"},{"bike_id":"f9662c37-a3b8-4979-8355-4f367a98b4e1","system_id":"levelo_inurba_marseille","lat":43.294162,"lon":5.386292,"is_reserved":false,"is_disabled":false,"rental_uris":{"android":"levelo://app?vid=f9662c37-a3b8-4979-8355-4f367a98b4e1","ios":"levelo://app?vid=f9662c37-a3b8-4979-8355-4f367a98b4e1"},"vehicle_type_id":"4","last_reported":1679263596,"current_range_meters":0,"station_id":"ce4bh2h2rcd13ifvqdh0","pricing_plan_id":"free"},{"bike_id":"61f23140-4fde-4dc8-bc9b-3c8bcb875ee8","system_id":"levelo_inurba_marseille","lat":43.294162,"lon":5.386292,"is_reserved":false,"is_disabled":false,"rental_uris":{"android":"levelo://app?vid=61f23140-4fde-4dc8-bc9b-3c8bcb875ee8","ios":"levelo://app?vid=61f23140-4fde-4dc8-bc9b-3c8bcb875ee8"},"vehicle_type_id":"4","last_reported":1679263596,"current_range_meters":23600,"station_id":"ce4bh2h2rcd13ifvqdh0","pricing_plan_id":"free"},{"bike_id":"0c52e680-a20e-4844-9b0d-0a917044c9e9","system_id":"levelo_inurba_marseille","lat":43.33045,"lon":5.38914,"is_reserved":false,"is_disabled":false,"rental_uris":{"android":"levelo://app?vid=0c52e680-a20e-4844-9b0d-0a917044c9e9","ios":"levelo://app?vid=0c52e680-a20e-4844-9b0d-0a917044c9e9"},"vehicle_type_id":"4","last_reported":1679263596,"current_range_meters":800,"station_id":"ce4bhr92rcd13ifvqhrg","pricing_plan_id":"free"},{"bike_id":"7126e8e7-9377-41c8-986f-68efccc35b56","system_id":"levelo_inurba_marseille","lat":43.290104,"lon":5.356111,"is_reserved":false,"is_disabled":false,"rental_uris":{"android":"levelo://app?vid=7126e8e7-9377-41c8-986f-68efccc35b56","ios":"levelo://app?vid=7126e8e7-9377-41c8-986f-68efccc35b56"},"vehicle_type_id":"4","last_reported":1679263596,"current_range_meters":0,"station_id":"ce4bhb92rcd13ifvqen0","pricing_plan_id":"free"},{"bike_id":"635da83a-0acd-47f6-88c5-8d5856068bdf","system_id":"levelo_inurba_marseille","lat":43.330442,"lon":5.389148,"is_reserved":false,"is_disabled":false,"rental_uris":{"android":"levelo://app?vid=635da83a-0acd-47f6-88c5-8d5856068bdf","ios":"levelo://app?vid=635da83a-0acd-47f6-88c5-8d5856068bdf"},"vehicle_type_id":"4","last_reported":1679263596,"current_range_meters":4000,"station_id":"ce4bhr92rcd13ifvqhrg","pricing_plan_id":"free"},{"bike_id":"ff3d9bea-fc66-42d8-b69f-b99648739620","system_id":"levelo_inurba_marseille","lat":43.28856,"lon":5.358371,"is_reserved":false,"is_disabled":false,"rental_uris":{"android":"levelo://app?vid=ff3d9bea-fc66-42d8-b69f-b99648739620","ios":"levelo://app?vid=ff3d9bea-fc66-42d8-b69f-b99648739620"},"vehicle_type_id":"4","last_reported":1679263596,"current_range_meters":800,"station_id":"ce4bhb12rcd13ifvqem0","pricing_plan_id":"free"},{"bike_id":"4dec7f33-c4b2-4bff-966f-62082aa546a2","system_id":"levelo_inurba_marseille","lat":43.28856,"lon":5.358371,"is_reserved":false,"is_disabled":false,"rental_uris":{"android":"levelo://app?vid=4dec7f33-c4b2-4bff-966f-62082aa546a2","ios":"levelo://app?vid=4dec7f33-c4b2-4bff-966f-62082aa546a2"},"vehicle_type_id":"4","last_reported":1679263596,"current_range_meters":12000,"station_id":"ce4bhb12rcd13ifvqem0","pricing_plan_id":"free"},{"bike_id":"d0d7df32-c37a-428a-9862-70b0480dd19b","system_id":"levelo_inurba_marseille","lat":43.337455,"lon":5.374605,"is_reserved":false,"is_disabled":false,"rental_uris":{"android":"levelo://app?vid=d0d7df32-c37a-428a-9862-70b0480dd19b","ios":"levelo://app?vid=d0d7df32-c37a-428a-9862-70b0480dd19b"},"vehicle_type_id":"4","last_reported":1679263596,"current_range_meters":3200,"station_id":"","pricing_plan_id":"free"},{"bike_id":"3691d997-1cad-46ed-b7e6-586680d35f2f","system_id":"levelo_inurba_marseille","lat":43.337471,"lon":5.374568,"is_reserved":false,"is_disabled":false,"rental_uris":{"android":"levelo://app?vid=3691d997-1cad-46ed-b7e6-586680d35f2f","ios":"levelo://app?vid=3691d997-1cad-46ed-b7e6-586680d35f2f"},"vehicle_type_id":"4","last_reported":1679263596,"current_range_meters":15600,"station_id":"","pricing_plan_id":"free"},{"bike_id":"228f65ff-6b04-4dbc-b939-c1fa72d1be5e","system_id":"levelo_inurba_marseille","lat":43.337608,"lon":5.374667,"is_reserved":false,"is_disabled":false,"rental_uris":{"android":"levelo://app?vid=228f65ff-6b04-4dbc-b939-c1fa72d1be5e","ios":"levelo://app?vid=228f65ff-6b04-4dbc-b939-c1fa72d1be5e"},"vehicle_type_id":"4","last_reported":1679263596,"current_range_meters":20000,"station_id":"","pricing_plan_id":"free"},{"bike_id":"ebb653f6-e780-4b35-8a80-63ced90399c4","system_id":"levelo_inurba_marseille","lat":43.30645,"lon":5.40102,"is_reserved":false,"is_disabled":false,"rental_uris":{"android":"levelo://app?vid=ebb653f6-e780-4b35-8a80-63ced90399c4","ios":"levelo://app?vid=ebb653f6-e780-4b35-8a80-63ced90399c4"},"vehicle_type_id":"4","last_reported":1679263596,"current_range_meters":0,"station_id":"","pricing_plan_id":"free"},{"bike_id":"81ad5c30-a71f-4bbc-8586-13872c82a318","system_id":"levelo_inurba_marseille","lat":43.298681,"lon":5.397225,"is_reserved":false,"is_disabled":false,"rental_uris":{"android":"levelo://app?vid=81ad5c30-a71f-4bbc-8586-13872c82a318","ios":"levelo://app?vid=81ad5c30-a71f-4bbc-8586-13872c82a318"},"vehicle_type_id":"4","last_reported":1679263596,"current_range_meters":17200,"station_id":"ce4bh0h2rcd13ifvqd50","pricing_plan_id":"free"},{"bike_id":"53469d26-9326-4819-ab49-c7fae63c0bfd","system_id":"levelo_inurba_marseille","lat":43.286593,"lon":5.363346,"is_reserved":false,"is_disabled":false,"rental_uris":{"android":"levelo://app?vid=53469d26-9326-4819-ab49-c7fae63c0bfd","ios":"levelo://app?vid=53469d26-9326-4819-ab49-c7fae63c0bfd"},"vehicle_type_id":"4","last_reported":1679263596,"current_range_meters":22000,"station_id":"ce4bhah2rcd13ifvqej0","pricing_plan_id":"free"},{"bike_id":"88a1a7fe-47f6-4905-a600-a126571e231f","system_id":"levelo_inurba_marseille","lat":43.286593,"lon":5.363346,"is_reserved":false,"is_disabled":false,"rental_uris":{"android":"levelo://app?vid=88a1a7fe-47f6-4905-a600-a126571e231f","ios":"levelo://app?vid=88a1a7fe-47f6-4905-a600-a126571e231f"},"vehicle_type_id":"4","last_reported":1679263596,"current_range_meters":3200,"station_id":"ce4bhah2rcd13ifvqej0","pricing_plan_id":"free"},{"bike_id":"13daf331-d4da-4609-b100-9d9d574ca585","system_id":"levelo_inurba_marseille","lat":43.286593,"lon":5.363346,"is_reserved":false,"is_disabled":false,"rental_uris":{"android":"levelo://app?vid=13daf331-d4da-4609-b100-9d9d574ca585","ios":"levelo://app?vid=13daf331-d4da-4609-b100-9d9d574ca585"},"vehicle_type_id":"4","last_reported":1679263596,"current_range_meters":4000,"station_id":"ce4bhah2rcd13ifvqej0","pricing_plan_id":"free"},{"bike_id":"a94248f1-3c0d-42e2-8cb1-cf4fa92ab279","system_id":"levelo_inurba_marseille","lat":43.286593,"lon":5.363346,"is_reserved":false,"is_disabled":false,"rental_uris":{"android":"levelo://app?vid=a94248f1-3c0d-42e2-8cb1-cf4fa92ab279","ios":"levelo://app?vid=a94248f1-3c0d-42e2-8cb1-cf4fa92ab279"},"vehicle_type_id":"4","last_reported":1679263596,"current_range_meters":0,"station_id":"ce4bhah2rcd13ifvqej0","pricing_plan_id":"free"},{"bike_id":"378a7a58-49da-4ad5-8cf2-fe505511d48c","system_id":"levelo_inurba_marseille","lat":43.302759,"lon":5.400793,"is_reserved":false,"is_disabled":false,"rental_uris":{"android":"levelo://app?vid=378a7a58-49da-4ad5-8cf2-fe505511d48c","ios":"levelo://app?vid=378a7a58-49da-4ad5-8cf2-fe505511d48c"},"vehicle_type_id":"4","last_reported":1679263596,"current_range_meters":29200,"station_id":"ce4bgvh2rcd13ifvqcs0","pricing_plan_id":"free"},{"bike_id":"b3ef11c0-4a95-445d-87a2-62843d16b93c","system_id":"levelo_inurba_marseille","lat":43.300942,"lon":5.399686,"is_reserved":false,"is_disabled":false,"rental_uris":{"android":"levelo://app?vid=b3ef11c0-4a95-445d-87a2-62843d16b93c","ios":"levelo://app?vid=b3ef11c0-4a95-445d-87a2-62843d16b93c"},"vehicle_type_id":"4","last_reported":1679263596,"current_range_meters":0,"station_id":"","pricing_plan_id":"free"},{"bike_id":"f7b4df50-eb50-4093-9fe5-a6ae01bfe3bb","system_id":"levelo_inurba_marseille","lat":43.316517,"lon":5.404375,"is_reserved":false,"is_disabled":false,"rental_uris":{"android":"levelo://app?vid=f7b4df50-eb50-4093-9fe5-a6ae01bfe3bb","ios":"levelo://app?vid=f7b4df50-eb50-4093-9fe5-a6ae01bfe3bb"},"vehicle_type_id":"4","last_reported":1679263596,"current_range_meters":15200,"station_id":"ce4bh012rcd13ifvqd00","pricing_plan_id":"free"},{"bike_id":"a8f5114f-9270-4c90-a713-38638b616ecd","system_id":"levelo_inurba_marseille","lat":43.28455,"lon":5.358877,"is_reserved":false,"is_disabled":false,"rental_uris":{"android":"levelo://app?vid=a8f5114f-9270-4c90-a713-38638b616ecd","ios":"levelo://app?vid=a8f5114f-9270-4c90-a713-38638b616ecd"},"vehicle_type_id":"4","last_reported":1679263596,"current_range_meters":800,"station_id":"","pricing_plan_id":"free"},{"bike_id":"f2bfd212-f48c-4550-a4ed-1ed42f6384eb","system_id":"levelo_inurba_marseille","lat":43.295713,"lon":5.399639,"is_reserved":false,"is_disabled":false,"rental_uris":{"android":"levelo://app?vid=f2bfd212-f48c-4550-a4ed-1ed42f6384eb","ios":"levelo://app?vid=f2bfd212-f48c-4550-a4ed-1ed42f6384eb"},"vehicle_type_id":"4","last_reported":1679263596,"current_range_meters":24400,"station_id":"ce4bh312rcd13ifvqdj0","pricing_plan_id":"free"},{"bike_id":"a4c7aac0-d891-4a93-9be7-26de2e858e67","system_id":"levelo_inurba_marseille","lat":43.29748,"lon":5.40145,"is_reserved":false,"is_disabled":false,"rental_uris":{"android":"levelo://app?vid=a4c7aac0-d891-4a93-9be7-26de2e858e67","ios":"levelo://app?vid=a4c7aac0-d891-4a93-9be7-26de2e858e67"},"vehicle_type_id":"4","last_reported":1679263596,"current_range_meters":5200,"station_id":"","pricing_plan_id":"free"},{"bike_id":"4044cf03-1ef5-4ca8-8e86-2fb5032fa631","system_id":"levelo_inurba_marseille","lat":43.295713,"lon":5.399639,"is_reserved":false,"is_disabled":false,"rental_uris":{"android":"levelo://app?vid=4044cf03-1ef5-4ca8-8e86-2fb5032fa631","ios":"levelo://app?vid=4044cf03-1ef5-4ca8-8e86-2fb5032fa631"},"vehicle_type_id":"4","last_reported":1679263596,"current_range_meters":0,"station_id":"ce4bh312rcd13ifvqdj0","pricing_plan_id":"free"},{"bike_id":"ee5843e7-549a-495d-9bf4-4b602b8dbd39","system_id":"levelo_inurba_marseille","lat":43.286595,"lon":5.386795,"is_reserved":false,"is_disabled":false,"rental_uris":{"android":"levelo://app?vid=ee5843e7-549a-495d-9bf4-4b602b8dbd39","ios":"levelo://app?vid=ee5843e7-549a-495d-9bf4-4b602b8dbd39"},"vehicle_type_id":"4","last_reported":1679263596,"current_range_meters":19200,"station_id":"ce4bh492rcd13ifvqdug","pricing_plan_id":"free"},{"bike_id":"1430011a-0610-46a9-9f8e-d7433f5de21d","system_id":"levelo_inurba_marseille","lat":43.324495,"lon":5.404483,"is_reserved":false,"is_disabled":false,"rental_uris":{"android":"levelo://app?vid=1430011a-0610-46a9-9f8e-d7433f5de21d","ios":"levelo://app?vid=1430011a-0610-46a9-9f8e-d7433f5de21d"},"vehicle_type_id":"4","last_reported":1679263596,"current_range_meters":14000,"station_id":"","pricing_plan_id":"free"},{"bike_id":"60d93b7c-19f9-4720-b598-5d4e354fedd5","system_id":"levelo_inurba_marseille","lat":43.33717,"lon":5.391857,"is_reserved":false,"is_disabled":false,"rental_uris":{"android":"levelo://app?vid=60d93b7c-19f9-4720-b598-5d4e354fedd5","ios":"levelo://app?vid=60d93b7c-19f9-4720-b598-5d4e354fedd5"},"vehicle_type_id":"4","last_reported":1679263596,"current_range_meters":9600,"station_id":"ce4bhr92rcd13ifvqhsg","pricing_plan_id":"free"},{"bike_id":"8c76c067-f6fd-484b-b2d7-db2b1f6800fe","system_id":"levelo_inurba_marseille","lat":43.283523,"lon":5.3811,"is_reserved":false,"is_disabled":false,"rental_uris":{"android":"levelo://app?vid=8c76c067-f6fd-484b-b2d7-db2b1f6800fe","ios":"levelo://app?vid=8c76c067-f6fd-484b-b2d7-db2b1f6800fe"},"vehicle_type_id":"4","last_reported":1679263596,"current_range_meters":18000,"station_id":"","pricing_plan_id":"free"},{"bike_id":"a915e190-db75-4cf8-93bd-052cba387278","system_id":"levelo_inurba_marseille","lat":43.284219,"lon":5.3497,"is_reserved":false,"is_disabled":false,"rental_uris":{"android":"levelo://app?vid=a915e190-db75-4cf8-93bd-052cba387278","ios":"levelo://app?vid=a915e190-db75-4cf8-93bd-052cba387278"},"vehicle_type_id":"4","last_reported":1679263596,"current_range_meters":3200,"station_id":"ce4bhbh2rcd13ifvqepg","pricing_plan_id":"free"},{"bike_id":"7e997109-05ad-48ec-b926-80f1206e07bc","system_id":"levelo_inurba_marseille","lat":43.28285,"lon":5.35082,"is_reserved":false,"is_disabled":false,"rental_uris":{"android":"levelo://app?vid=7e997109-05ad-48ec-b926-80f1206e07bc","ios":"levelo://app?vid=7e997109-05ad-48ec-b926-80f1206e07bc"},"vehicle_type_id":"4","last_reported":1679263596,"current_range_meters":9200,"station_id":"ce4bhbp2rcd13ifvqerg","pricing_plan_id":"free"},{"bike_id":"22f00f91-1583-48b1-b691-708679555aaf","system_id":"levelo_inurba_marseille","lat":43.28278,"lon":5.35082,"is_reserved":false,"is_disabled":false,"rental_uris":{"android":"levelo://app?vid=22f00f91-1583-48b1-b691-708679555aaf","ios":"levelo://app?vid=22f00f91-1583-48b1-b691-708679555aaf"},"vehicle_type_id":"4","last_reported":1679263596,"current_range_meters":23600,"station_id":"ce4bhbp2rcd13ifvqerg","pricing_plan_id":"free"},{"bike_id":"3bb1f037-d27a-4c0e-bb74-9188645e94c2","system_id":"levelo_inurba_marseille","lat":43.28277,"lon":5.35061,"is_reserved":false,"is_disabled":false,"rental_uris":{"android":"levelo://app?vid=3bb1f037-d27a-4c0e-bb74-9188645e94c2","ios":"levelo://app?vid=3bb1f037-d27a-4c0e-bb74-9188645e94c2"},"vehicle_type_id":"4","last_reported":1679263596,"current_range_meters":24000,"station_id":"ce4bhbp2rcd13ifvqerg","pricing_plan_id":"free"},{"bike_id":"c78c7551-d0a9-471f-a85d-a99ea05154bb","system_id":"levelo_inurba_marseille","lat":43.28102,"lon":5.37835,"is_reserved":false,"is_disabled":false,"rental_uris":{"android":"levelo://app?vid=c78c7551-d0a9-471f-a85d-a99ea05154bb","ios":"levelo://app?vid=c78c7551-d0a9-471f-a85d-a99ea05154bb"},"vehicle_type_id":"4","last_reported":1679263596,"current_range_meters":0,"station_id":"","pricing_plan_id":"free"},{"bike_id":"0b1a93c2-4ecb-4280-900f-5c9a8b7756e9","system_id":"levelo_inurba_marseille","lat":43.280993,"lon":5.37844,"is_reserved":false,"is_disabled":false,"rental_uris":{"android":"levelo://app?vid=0b1a93c2-4ecb-4280-900f-5c9a8b7756e9","ios":"levelo://app?vid=0b1a93c2-4ecb-4280-900f-5c9a8b7756e9"},"vehicle_type_id":"4","last_reported":1679263596,"current_range_meters":0,"station_id":"","pricing_plan_id":"free"},{"bike_id":"a28e1d42-4c50-42e1-8e26-ee31c2601144","system_id":"levelo_inurba_marseille","lat":43.284462,"lon":5.392121,"is_reserved":false,"is_disabled":false,"rental_uris":{"android":"levelo://app?vid=a28e1d42-4c50-42e1-8e26-ee31c2601144","ios":"levelo://app?vid=a28e1d42-4c50-42e1-8e26-ee31c2601144"},"vehicle_type_id":"4","last_reported":1679263596,"current_range_meters":30800,"station_id":"ce4bhoh2rcd13ifvqh5g","pricing_plan_id":"free"},{"bike_id":"a2e1576b-ffb5-4ac5-9606-29224d282f6b","system_id":"levelo_inurba_marseille","lat":43.28441,"lon":5.39204,"is_reserved":false,"is_disabled":false,"rental_uris":{"android":"levelo://app?vid=a2e1576b-ffb5-4ac5-9606-29224d282f6b","ios":"levelo://app?vid=a2e1576b-ffb5-4ac5-9606-29224d282f6b"},"vehicle_type_id":"4","last_reported":1679263596,"current_range_meters":8400,"station_id":"","pricing_plan_id":"free"},{"bike_id":"ac5e5f56-fb51-4e39-83f9-f7368de9a02f","system_id":"levelo_inurba_marseille","lat":43.304188,"lon":5.412904,"is_reserved":false,"is_disabled":false,"rental_uris":{"android":"levelo://app?vid=ac5e5f56-fb51-4e39-83f9-f7368de9a02f","ios":"levelo://app?vid=ac5e5f56-fb51-4e39-83f9-f7368de9a02f"},"vehicle_type_id":"4","last_reported":1679263596,"current_range_meters":29600,"station_id":"ce4bhop2rcd13ifvqh8g","pricing_plan_id":"free"},{"bike_id":"55f2c8c4-a1b3-4e25-85e3-0dc931df826e","system_id":"levelo_inurba_marseille","lat":43.304188,"lon":5.412904,"is_reserved":false,"is_disabled":false,"rental_uris":{"android":"levelo://app?vid=55f2c8c4-a1b3-4e25-85e3-0dc931df826e","ios":"levelo://app?vid=55f2c8c4-a1b3-4e25-85e3-0dc931df826e"},"vehicle_type_id":"4","last_reported":1679263596,"current_range_meters":29600,"station_id":"ce4bhop2rcd13ifvqh8g","pricing_plan_id":"free"},{"bike_id":"29671d63-0cc7-4cdf-8065-727b82ee79aa","system_id":"levelo_inurba_marseille","lat":43.304188,"lon":5.412904,"is_reserved":false,"is_disabled":false,"rental_uris":{"android":"levelo://app?vid=29671d63-0cc7-4cdf-8065-727b82ee79aa","ios":"levelo://app?vid=29671d63-0cc7-4cdf-8065-727b82ee79aa"},"vehicle_type_id":"4","last_reported":1679263596,"current_range_meters":31600,"station_id":"ce4bhop2rcd13ifvqh8g","pricing_plan_id":"free"},{"bike_id":"3635a144-8778-4232-b52f-584a4015e828","system_id":"levelo_inurba_marseille","lat":43.287154,"lon":5.399979,"is_reserved":false,"is_disabled":false,"rental_uris":{"android":"levelo://app?vid=3635a144-8778-4232-b52f-584a4015e828","ios":"levelo://app?vid=3635a144-8778-4232-b52f-584a4015e828"},"vehicle_type_id":"4","last_reported":1679263596,"current_range_meters":11200,"station_id":"ce4bho92rcd13ifvqh3g","pricing_plan_id":"free"},{"bike_id":"c470723b-776d-45c5-bf13-1f7687ac1537","system_id":"levelo_inurba_marseille","lat":43.287154,"lon":5.399979,"is_reserved":false,"is_disabled":false,"rental_uris":{"android":"levelo://app?vid=c470723b-776d-45c5-bf13-1f7687ac1537","ios":"levelo://app?vid=c470723b-776d-45c5-bf13-1f7687ac1537"},"vehicle_type_id":"4","last_reported":1679263596,"current_range_meters":0,"station_id":"ce4bho92rcd13ifvqh3g","pricing_plan_id":"free"},{"bike_id":"aaadd3ef-8cfa-41e9-a331-3709c11904e1","system_id":"levelo_inurba_marseille","lat":43.299577,"lon":5.413277,"is_reserved":false,"is_disabled":false,"rental_uris":{"android":"levelo://app?vid=aaadd3ef-8cfa-41e9-a331-3709c11904e1","ios":"levelo://app?vid=aaadd3ef-8cfa-41e9-a331-3709c11904e1"},"vehicle_type_id":"4","last_reported":1679263596,"current_range_meters":22400,"station_id":"ce4bhp12rcd13ifvqh9g","pricing_plan_id":"free"},{"bike_id":"e9d41ed9-6722-49f9-9845-ae38f2ce7d48","system_id":"levelo_inurba_marseille","lat":43.29952,"lon":5.41318,"is_reserved":false,"is_disabled":false,"rental_uris":{"android":"levelo://app?vid=e9d41ed9-6722-49f9-9845-ae38f2ce7d48","ios":"levelo://app?vid=e9d41ed9-6722-49f9-9845-ae38f2ce7d48"},"vehicle_type_id":"4","last_reported":1679263596,"current_range_meters":2800,"station_id":"","pricing_plan_id":"free"},{"bike_id":"1d9cd785-35c2-4153-afee-e820fc6587d5","system_id":"levelo_inurba_marseille","lat":43.299577,"lon":5.413277,"is_reserved":false,"is_disabled":false,"rental_uris":{"android":"levelo://app?vid=1d9cd785-35c2-4153-afee-e820fc6587d5","ios":"levelo://app?vid=1d9cd785-35c2-4153-afee-e820fc6587d5"},"vehicle_type_id":"4","last_reported":1679263596,"current_range_meters":25600,"station_id":"ce4bhp12rcd13ifvqh9g","pricing_plan_id":"free"},{"bike_id":"679fd8f8-2235-438a-a9e9-ce3e34fe297a","system_id":"levelo_inurba_marseille","lat":43.324733,"lon":5.414301,"is_reserved":false,"is_disabled":false,"rental_uris":{"android":"levelo://app?vid=679fd8f8-2235-438a-a9e9-ce3e34fe297a","ios":"levelo://app?vid=679fd8f8-2235-438a-a9e9-ce3e34fe297a"},"vehicle_type_id":"4","last_reported":1679263596,"current_range_meters":3600,"station_id":"","pricing_plan_id":"free"},{"bike_id":"a750acad-75af-4e17-83d4-954aa7130902","system_id":"levelo_inurba_marseille","lat":43.324792,"lon":5.414318,"is_reserved":false,"is_disabled":false,"rental_uris":{"android":"levelo://app?vid=a750acad-75af-4e17-83d4-954aa7130902","ios":"levelo://app?vid=a750acad-75af-4e17-83d4-954aa7130902"},"vehicle_type_id":"4","last_reported":1679263596,"current_range_meters":0,"station_id":"","pricing_plan_id":"free"},{"bike_id":"1745123a-25f7-4bce-a1f8-2ff755a9b2d4","system_id":"levelo_inurba_marseille","lat":43.32542,"lon":5.41435,"is_reserved":false,"is_disabled":false,"rental_uris":{"android":"levelo://app?vid=1745123a-25f7-4bce-a1f8-2ff755a9b2d4","ios":"levelo://app?vid=1745123a-25f7-4bce-a1f8-2ff755a9b2d4"},"vehicle_type_id":"4","last_reported":1679263596,"current_range_meters":8800,"station_id":"ce4bhq12rcd13ifvqhhg","pricing_plan_id":"free"},{"bike_id":"5f4b27df-7370-4663-9882-3043aab0ae75","system_id":"levelo_inurba_marseille","lat":43.281844,"lon":5.397192,"is_reserved":false,"is_disabled":false,"rental_uris":{"android":"levelo://app?vid=5f4b27df-7370-4663-9882-3043aab0ae75","ios":"levelo://app?vid=5f4b27df-7370-4663-9882-3043aab0ae75"},"vehicle_type_id":"4","last_reported":1679263596,"current_range_meters":19200,"station_id":"","pricing_plan_id":"free"},{"bike_id":"32f7f410-8568-4be2-93f2-3fd243e9feee","system_id":"levelo_inurba_marseille","lat":43.33607,"lon":5.41016,"is_reserved":false,"is_disabled":false,"rental_uris":{"android":"levelo://app?vid=32f7f410-8568-4be2-93f2-3fd243e9feee","ios":"levelo://app?vid=32f7f410-8568-4be2-93f2-3fd243e9feee"},"vehicle_type_id":"4","last_reported":1679263596,"current_range_meters":3600,"station_id":"","pricing_plan_id":"free"},{"bike_id":"38038e58-a818-4e1c-9c10-2a9f0d41e457","system_id":"levelo_inurba_marseille","lat":43.336134,"lon":5.410341,"is_reserved":false,"is_disabled":false,"rental_uris":{"android":"levelo://app?vid=38038e58-a818-4e1c-9c10-2a9f0d41e457","ios":"levelo://app?vid=38038e58-a818-4e1c-9c10-2a9f0d41e457"},"vehicle_type_id":"4","last_reported":1679263596,"current_range_meters":23600,"station_id":"ce4bhqh2rcd13ifvqhmg","pricing_plan_id":"free"},{"bike_id":"bf1fbe30-2902-4f49-a183-f265bbbc264c","system_id":"levelo_inurba_marseille","lat":43.33612,"lon":5.410321,"is_reserved":false,"is_disabled":false,"rental_uris":{"android":"levelo://app?vid=bf1fbe30-2902-4f49-a183-f265bbbc264c","ios":"levelo://app?vid=bf1fbe30-2902-4f49-a183-f265bbbc264c"},"vehicle_type_id":"4","last_reported":1679263596,"current_range_meters":10000,"station_id":"ce4bhqh2rcd13ifvqhmg","pricing_plan_id":"free"},{"bike_id":"6f7c456f-25b6-4043-8d52-78cb6427cc6b","system_id":"levelo_inurba_marseille","lat":43.336134,"lon":5.410341,"is_reserved":false,"is_disabled":false,"rental_uris":{"android":"levelo://app?vid=6f7c456f-25b6-4043-8d52-78cb6427cc6b","ios":"levelo://app?vid=6f7c456f-25b6-4043-8d52-78cb6427cc6b"},"vehicle_type_id":"4","last_reported":1679263596,"current_range_meters":11200,"station_id":"ce4bhqh2rcd13ifvqhmg","pricing_plan_id":"free"},{"bike_id":"d3ff9249-c181-4ac9-b814-cd9425a2b806","system_id":"levelo_inurba_marseille","lat":43.336134,"lon":5.410341,"is_reserved":false,"is_disabled":false,"rental_uris":{"android":"levelo://app?vid=d3ff9249-c181-4ac9-b814-cd9425a2b806","ios":"levelo://app?vid=d3ff9249-c181-4ac9-b814-cd9425a2b806"},"vehicle_type_id":"4","last_reported":1679263596,"current_range_meters":19600,"station_id":"ce4bhqh2rcd13ifvqhmg","pricing_plan_id":"free"},{"bike_id":"feb5f84b-cd87-4739-9b97-a1022bb1d412","system_id":"levelo_inurba_marseille","lat":43.336148,"lon":5.410349,"is_reserved":false,"is_disabled":false,"rental_uris":{"android":"levelo://app?vid=feb5f84b-cd87-4739-9b97-a1022bb1d412","ios":"levelo://app?vid=feb5f84b-cd87-4739-9b97-a1022bb1d412"},"vehicle_type_id":"4","last_reported":1679263596,"current_range_meters":21600,"station_id":"ce4bhqh2rcd13ifvqhmg","pricing_plan_id":"free"},{"bike_id":"4f958feb-9223-4a85-ae9d-6bbeb24b0ace","system_id":"levelo_inurba_marseille","lat":43.30413,"lon":5.42542,"is_reserved":false,"is_disabled":false,"rental_uris":{"android":"levelo://app?vid=4f958feb-9223-4a85-ae9d-6bbeb24b0ace","ios":"levelo://app?vid=4f958feb-9223-4a85-ae9d-6bbeb24b0ace"},"vehicle_type_id":"4","last_reported":1679263596,"current_range_meters":4800,"station_id":"","pricing_plan_id":"free"},{"bike_id":"7c25627b-52d2-4e1f-a2c5-ff281379658a","system_id":"levelo_inurba_marseille","lat":43.29552,"lon":5.42279,"is_reserved":false,"is_disabled":false,"rental_uris":{"android":"levelo://app?vid=7c25627b-52d2-4e1f-a2c5-ff281379658a","ios":"levelo://app?vid=7c25627b-52d2-4e1f-a2c5-ff281379658a"},"vehicle_type_id":"4","last_reported":1679263596,"current_range_meters":19200,"station_id":"ce4bhph2rcd13ifvqhdg","pricing_plan_id":"free"},{"bike_id":"94c91f66-5bf8-4124-bd49-21f28584ac87","system_id":"levelo_inurba_marseille","lat":43.29553,"lon":5.4228,"is_reserved":false,"is_disabled":false,"rental_uris":{"android":"levelo://app?vid=94c91f66-5bf8-4124-bd49-21f28584ac87","ios":"levelo://app?vid=94c91f66-5bf8-4124-bd49-21f28584ac87"},"vehicle_type_id":"4","last_reported":1679263596,"current_range_meters":800,"station_id":"ce4bhph2rcd13ifvqhdg","pricing_plan_id":"free"},{"bike_id":"bc064ba5-50f6-4ce3-8d9b-1239bb2d9bd3","system_id":"levelo_inurba_marseille","lat":43.29551,"lon":5.42285,"is_reserved":false,"is_disabled":false,"rental_uris":{"android":"levelo://app?vid=bc064ba5-50f6-4ce3-8d9b-1239bb2d9bd3","ios":"levelo://app?vid=bc064ba5-50f6-4ce3-8d9b-1239bb2d9bd3"},"vehicle_type_id":"4","last_reported":1679263596,"current_range_meters":0,"station_id":"","pricing_plan_id":"free"},{"bike_id":"294524a0-48d8-47f8-a638-1a025f7bfc14","system_id":"levelo_inurba_marseille","lat":43.295523,"lon":5.422926,"is_reserved":false,"is_disabled":false,"rental_uris":{"android":"levelo://app?vid=294524a0-48d8-47f8-a638-1a025f7bfc14","ios":"levelo://app?vid=294524a0-48d8-47f8-a638-1a025f7bfc14"},"vehicle_type_id":"4","last_reported":1679263596,"current_range_meters":9600,"station_id":"ce4bhph2rcd13ifvqhdg","pricing_plan_id":"free"},{"bike_id":"87f0a20b-30d2-431b-9d8c-bbe200acabae","system_id":"levelo_inurba_marseille","lat":43.29547,"lon":5.42287,"is_reserved":false,"is_disabled":false,"rental_uris":{"android":"levelo://app?vid=87f0a20b-30d2-431b-9d8c-bbe200acabae","ios":"levelo://app?vid=87f0a20b-30d2-431b-9d8c-bbe200acabae"},"vehicle_type_id":"4","last_reported":1679263596,"current_range_meters":21600,"station_id":"ce4bhph2rcd13ifvqhdg","pricing_plan_id":"free"},{"bike_id":"15357db7-2348-4275-97d7-f561e492026c","system_id":"levelo_inurba_marseille","lat":43.295518,"lon":5.422953,"is_reserved":false,"is_disabled":false,"rental_uris":{"android":"levelo://app?vid=15357db7-2348-4275-97d7-f561e492026c","ios":"levelo://app?vid=15357db7-2348-4275-97d7-f561e492026c"},"vehicle_type_id":"4","last_reported":1679263596,"current_range_meters":1200,"station_id":"ce4bhph2rcd13ifvqhdg","pricing_plan_id":"free"},{"bike_id":"4034f9c3-0ccb-46b6-8961-50741cfd0c27","system_id":"levelo_inurba_marseille","lat":43.278128,"lon":5.407195,"is_reserved":false,"is_disabled":false,"rental_uris":{"android":"levelo://app?vid=4034f9c3-0ccb-46b6-8961-50741cfd0c27","ios":"levelo://app?vid=4034f9c3-0ccb-46b6-8961-50741cfd0c27"},"vehicle_type_id":"4","last_reported":1679263596,"current_range_meters":31600,"station_id":"ce4bhnh2rcd13ifvqgtg","pricing_plan_id":"free"},{"bike_id":"df6f35ea-9f89-4d2a-bc60-fa15b434769e","system_id":"levelo_inurba_marseille","lat":43.26951,"lon":5.38646,"is_reserved":false,"is_disabled":false,"rental_uris":{"android":"levelo://app?vid=df6f35ea-9f89-4d2a-bc60-fa15b434769e","ios":"levelo://app?vid=df6f35ea-9f89-4d2a-bc60-fa15b434769e"},"vehicle_type_id":"4","last_reported":1679263596,"current_range_meters":7600,"station_id":"ce4bhh92rcd13ifvqfh0","pricing_plan_id":"free"},{"bike_id":"647c90bb-2fdc-4317-8e8c-8802e4ce171a","system_id":"levelo_inurba_marseille","lat":43.27996,"lon":5.416624,"is_reserved":false,"is_disabled":false,"rental_uris":{"android":"levelo://app?vid=647c90bb-2fdc-4317-8e8c-8802e4ce171a","ios":"levelo://app?vid=647c90bb-2fdc-4317-8e8c-8802e4ce171a"},"vehicle_type_id":"4","last_reported":1679263596,"current_range_meters":2000,"station_id":"ce4bho12rcd13ifvqh1g","pricing_plan_id":"free"},{"bike_id":"efa38077-8d8b-4846-9329-4529a5e3ae41","system_id":"levelo_inurba_marseille","lat":43.279976,"lon":5.416558,"is_reserved":false,"is_disabled":false,"rental_uris":{"android":"levelo://app?vid=efa38077-8d8b-4846-9329-4529a5e3ae41","ios":"levelo://app?vid=efa38077-8d8b-4846-9329-4529a5e3ae41"},"vehicle_type_id":"4","last_reported":1679263596,"current_range_meters":22000,"station_id":"","pricing_plan_id":"free"},{"bike_id":"b59ea7a0-1c83-42ec-bfd5-7331f7f03af8","system_id":"levelo_inurba_marseille","lat":43.27996,"lon":5.416624,"is_reserved":false,"is_disabled":false,"rental_uris":{"android":"levelo://app?vid=b59ea7a0-1c83-42ec-bfd5-7331f7f03af8","ios":"levelo://app?vid=b59ea7a0-1c83-42ec-bfd5-7331f7f03af8"},"vehicle_type_id":"4","last_reported":1679263596,"current_range_meters":0,"station_id":"ce4bho12rcd13ifvqh1g","pricing_plan_id":"free"},{"bike_id":"6f76e659-0d63-437b-aa9b-b1d2a0f4217c","system_id":"levelo_inurba_marseille","lat":43.27996,"lon":5.416624,"is_reserved":false,"is_disabled":false,"rental_uris":{"android":"levelo://app?vid=6f76e659-0d63-437b-aa9b-b1d2a0f4217c","ios":"levelo://app?vid=6f76e659-0d63-437b-aa9b-b1d2a0f4217c"},"vehicle_type_id":"4","last_reported":1679263596,"current_range_meters":1200,"station_id":"ce4bho12rcd13ifvqh1g","pricing_plan_id":"free"},{"bike_id":"cdda3a14-eaed-489a-b24c-a79f7e4e5923","system_id":"levelo_inurba_marseille","lat":43.26576,"lon":5.390027,"is_reserved":false,"is_disabled":false,"rental_uris":{"android":"levelo://app?vid=cdda3a14-eaed-489a-b24c-a79f7e4e5923","ios":"levelo://app?vid=cdda3a14-eaed-489a-b24c-a79f7e4e5923"},"vehicle_type_id":"4","last_reported":1679263596,"current_range_meters":2400,"station_id":"ce4bhe12rcd13ifvqf30","pricing_plan_id":"free"},{"bike_id":"c63f87f4-90a7-4fa0-a70b-3642141ca732","system_id":"levelo_inurba_marseille","lat":43.265695,"lon":5.398132,"is_reserved":false,"is_disabled":false,"rental_uris":{"android":"levelo://app?vid=c63f87f4-90a7-4fa0-a70b-3642141ca732","ios":"levelo://app?vid=c63f87f4-90a7-4fa0-a70b-3642141ca732"},"vehicle_type_id":"4","last_reported":1679263596,"current_range_meters":0,"station_id":"","pricing_plan_id":"free"},{"bike_id":"1c8b6c9d-2a09-4fb6-8e98-29790260ae12","system_id":"levelo_inurba_marseille","lat":43.2607,"lon":5.393983,"is_reserved":false,"is_disabled":false,"rental_uris":{"android":"levelo://app?vid=1c8b6c9d-2a09-4fb6-8e98-29790260ae12","ios":"levelo://app?vid=1c8b6c9d-2a09-4fb6-8e98-29790260ae12"},"vehicle_type_id":"4","last_reported":1679263596,"current_range_meters":5600,"station_id":"ce4bhh92rcd13ifvqfj0","pricing_plan_id":"free"},{"bike_id":"9aac5d88-84f2-49d4-8de1-83fbe49ab068","system_id":"levelo_inurba_marseille","lat":43.2607,"lon":5.393983,"is_reserved":false,"is_disabled":false,"rental_uris":{"android":"levelo://app?vid=9aac5d88-84f2-49d4-8de1-83fbe49ab068","ios":"levelo://app?vid=9aac5d88-84f2-49d4-8de1-83fbe49ab068"},"vehicle_type_id":"4","last_reported":1679263596,"current_range_meters":17200,"station_id":"ce4bhh92rcd13ifvqfj0","pricing_plan_id":"free"},{"bike_id":"39ae7553-5b15-41ed-be49-d087d1ff66f8","system_id":"levelo_inurba_marseille","lat":43.2607,"lon":5.393983,"is_reserved":false,"is_disabled":false,"rental_uris":{"android":"levelo://app?vid=39ae7553-5b15-41ed-be49-d087d1ff66f8","ios":"levelo://app?vid=39ae7553-5b15-41ed-be49-d087d1ff66f8"},"vehicle_type_id":"4","last_reported":1679263596,"current_range_meters":4400,"station_id":"ce4bhh92rcd13ifvqfj0","pricing_plan_id":"free"},{"bike_id":"0312c11b-f530-4c74-8298-1f0b15885c6d","system_id":"levelo_inurba_marseille","lat":43.2607,"lon":5.393983,"is_reserved":false,"is_disabled":false,"rental_uris":{"android":"levelo://app?vid=0312c11b-f530-4c74-8298-1f0b15885c6d","ios":"levelo://app?vid=0312c11b-f530-4c74-8298-1f0b15885c6d"},"vehicle_type_id":"4","last_reported":1679263596,"current_range_meters":1200,"station_id":"ce4bhh92rcd13ifvqfj0","pricing_plan_id":"free"},{"bike_id":"b5fd0508-197a-4071-8a3a-2378b72b0be9","system_id":"levelo_inurba_marseille","lat":43.2607,"lon":5.393983,"is_reserved":false,"is_disabled":false,"rental_uris":{"android":"levelo://app?vid=b5fd0508-197a-4071-8a3a-2378b72b0be9","ios":"levelo://app?vid=b5fd0508-197a-4071-8a3a-2378b72b0be9"},"vehicle_type_id":"4","last_reported":1679263596,"current_range_meters":32000,"station_id":"ce4bhh92rcd13ifvqfj0","pricing_plan_id":"free"},{"bike_id":"106ba0d7-eee6-4035-a2fc-25d6d4db5d3a","system_id":"levelo_inurba_marseille","lat":43.2607,"lon":5.393983,"is_reserved":false,"is_disabled":false,"rental_uris":{"android":"levelo://app?vid=106ba0d7-eee6-4035-a2fc-25d6d4db5d3a","ios":"levelo://app?vid=106ba0d7-eee6-4035-a2fc-25d6d4db5d3a"},"vehicle_type_id":"4","last_reported":1679263596,"current_range_meters":800,"station_id":"ce4bhh92rcd13ifvqfj0","pricing_plan_id":"free"},{"bike_id":"1d029ce5-36f7-4b74-b4fe-5432b4551522","system_id":"levelo_inurba_marseille","lat":43.260909,"lon":5.397624,"is_reserved":false,"is_disabled":false,"rental_uris":{"android":"levelo://app?vid=1d029ce5-36f7-4b74-b4fe-5432b4551522","ios":"levelo://app?vid=1d029ce5-36f7-4b74-b4fe-5432b4551522"},"vehicle_type_id":"4","last_reported":1679263596,"current_range_meters":18800,"station_id":"","pricing_plan_id":"free"},{"bike_id":"217a32fe-0161-43b0-bec3-ad3345425f35","system_id":"levelo_inurba_marseille","lat":43.29255,"lon":5.44146,"is_reserved":false,"is_disabled":false,"rental_uris":{"android":"levelo://app?vid=217a32fe-0161-43b0-bec3-ad3345425f35","ios":"levelo://app?vid=217a32fe-0161-43b0-bec3-ad3345425f35"},"vehicle_type_id":"4","last_reported":1679263596,"current_range_meters":18000,"station_id":"","pricing_plan_id":"free"},{"bike_id":"22eb2a93-8530-4d89-81c3-2ee96c198141","system_id":"levelo_inurba_marseille","lat":43.270721,"lon":5.422764,"is_reserved":false,"is_disabled":false,"rental_uris":{"android":"levelo://app?vid=22eb2a93-8530-4d89-81c3-2ee96c198141","ios":"levelo://app?vid=22eb2a93-8530-4d89-81c3-2ee96c198141"},"vehicle_type_id":"4","last_reported":1679263596,"current_range_meters":19600,"station_id":"ce4bhk92rcd13ifvqgb0","pricing_plan_id":"free"},{"bike_id":"249e6ff9-120e-46ee-8a67-e72270b7db49","system_id":"levelo_inurba_marseille","lat":43.250009,"lon":5.389195,"is_reserved":false,"is_disabled":false,"rental_uris":{"android":"levelo://app?vid=249e6ff9-120e-46ee-8a67-e72270b7db49","ios":"levelo://app?vid=249e6ff9-120e-46ee-8a67-e72270b7db49"},"vehicle_type_id":"4","last_reported":1679263596,"current_range_meters":25200,"station_id":"ce4bhgp2rcd13ifvqfd0","pricing_plan_id":"free"},{"bike_id":"d6ba5441-e7f8-4d02-bff7-30e543542b95","system_id":"levelo_inurba_marseille","lat":43.250009,"lon":5.389195,"is_reserved":false,"is_disabled":false,"rental_uris":{"android":"levelo://app?vid=d6ba5441-e7f8-4d02-bff7-30e543542b95","ios":"levelo://app?vid=d6ba5441-e7f8-4d02-bff7-30e543542b95"},"vehicle_type_id":"4","last_reported":1679263596,"current_range_meters":3600,"station_id":"ce4bhgp2rcd13ifvqfd0","pricing_plan_id":"free"},{"bike_id":"da99ef17-7f7a-4319-8014-293645ffe646","system_id":"levelo_inurba_marseille","lat":43.250966,"lon":5.395186,"is_reserved":false,"is_disabled":false,"rental_uris":{"android":"levelo://app?vid=da99ef17-7f7a-4319-8014-293645ffe646","ios":"levelo://app?vid=da99ef17-7f7a-4319-8014-293645ffe646"},"vehicle_type_id":"4","last_reported":1679263596,"current_range_meters":28400,"station_id":"ce4bhm12rcd13ifvqgkg","pricing_plan_id":"free"},{"bike_id":"c01836ea-60b2-49aa-85ba-dea461a3aee0","system_id":"levelo_inurba_marseille","lat":43.24693,"lon":5.382096,"is_reserved":false,"is_disabled":false,"rental_uris":{"android":"levelo://app?vid=c01836ea-60b2-49aa-85ba-dea461a3aee0","ios":"levelo://app?vid=c01836ea-60b2-49aa-85ba-dea461a3aee0"},"vehicle_type_id":"4","last_reported":1679263596,"current_range_meters":6800,"station_id":"ce4bhih2rcd13ifvqfr0","pricing_plan_id":"free"},{"bike_id":"0bedc515-d668-44ef-bd63-5d9b13d2828a","system_id":"levelo_inurba_marseille","lat":43.25102,"lon":5.403214,"is_reserved":false,"is_disabled":false,"rental_uris":{"android":"levelo://app?vid=0bedc515-d668-44ef-bd63-5d9b13d2828a","ios":"levelo://app?vid=0bedc515-d668-44ef-bd63-5d9b13d2828a"},"vehicle_type_id":"4","last_reported":1679263596,"current_range_meters":5600,"station_id":"ce4bhlh2rcd13ifvqgig","pricing_plan_id":"free"},{"bike_id":"b90459c5-e095-4f0a-aeac-221a028ba781","system_id":"levelo_inurba_marseille","lat":43.24693,"lon":5.382096,"is_reserved":false,"is_disabled":false,"rental_uris":{"android":"levelo://app?vid=b90459c5-e095-4f0a-aeac-221a028ba781","ios":"levelo://app?vid=b90459c5-e095-4f0a-aeac-221a028ba781"},"vehicle_type_id":"4","last_reported":1679263596,"current_range_meters":6400,"station_id":"ce4bhih2rcd13ifvqfr0","pricing_plan_id":"free"},{"bike_id":"bbd0f7ca-d1f4-48c8-9f65-340b99f7c8bc","system_id":"levelo_inurba_marseille","lat":43.24693,"lon":5.382096,"is_reserved":false,"is_disabled":false,"rental_uris":{"android":"levelo://app?vid=bbd0f7ca-d1f4-48c8-9f65-340b99f7c8bc","ios":"levelo://app?vid=bbd0f7ca-d1f4-48c8-9f65-340b99f7c8bc"},"vehicle_type_id":"4","last_reported":1679263596,"current_range_meters":3600,"station_id":"ce4bhih2rcd13ifvqfr0","pricing_plan_id":"free"},{"bike_id":"ca97ab45-0cf2-48cb-b71c-19ef4310206b","system_id":"levelo_inurba_marseille","lat":43.24693,"lon":5.382096,"is_reserved":false,"is_disabled":false,"rental_uris":{"android":"levelo://app?vid=ca97ab45-0cf2-48cb-b71c-19ef4310206b","ios":"levelo://app?vid=ca97ab45-0cf2-48cb-b71c-19ef4310206b"},"vehicle_type_id":"4","last_reported":1679263596,"current_range_meters":0,"station_id":"ce4bhih2rcd13ifvqfr0","pricing_plan_id":"free"},{"bike_id":"5a173d5e-9942-4239-8108-eb732309ce24","system_id":"levelo_inurba_marseille","lat":43.25102,"lon":5.403214,"is_reserved":false,"is_disabled":false,"rental_uris":{"android":"levelo://app?vid=5a173d5e-9942-4239-8108-eb732309ce24","ios":"levelo://app?vid=5a173d5e-9942-4239-8108-eb732309ce24"},"vehicle_type_id":"4","last_reported":1679263596,"current_range_meters":5600,"station_id":"ce4bhlh2rcd13ifvqgig","pricing_plan_id":"free"},{"bike_id":"fdcf7f55-deee-4429-a5e0-a76cade2bcee","system_id":"levelo_inurba_marseille","lat":43.25102,"lon":5.403214,"is_reserved":false,"is_disabled":false,"rental_uris":{"android":"levelo://app?vid=fdcf7f55-deee-4429-a5e0-a76cade2bcee","ios":"levelo://app?vid=fdcf7f55-deee-4429-a5e0-a76cade2bcee"},"vehicle_type_id":"4","last_reported":1679263596,"current_range_meters":4800,"station_id":"ce4bhlh2rcd13ifvqgig","pricing_plan_id":"free"},{"bike_id":"adc9fe03-106e-4f48-b0c8-8f80085f7015","system_id":"levelo_inurba_marseille","lat":43.25102,"lon":5.403214,"is_reserved":false,"is_disabled":false,"rental_uris":{"android":"levelo://app?vid=adc9fe03-106e-4f48-b0c8-8f80085f7015","ios":"levelo://app?vid=adc9fe03-106e-4f48-b0c8-8f80085f7015"},"vehicle_type_id":"4","last_reported":1679263596,"current_range_meters":4000,"station_id":"ce4bhlh2rcd13ifvqgig","pricing_plan_id":"free"},{"bike_id":"0d11801d-6fdd-40e0-85d9-f094fb6f88b0","system_id":"levelo_inurba_marseille","lat":43.25102,"lon":5.403214,"is_reserved":false,"is_disabled":false,"rental_uris":{"android":"levelo://app?vid=0d11801d-6fdd-40e0-85d9-f094fb6f88b0","ios":"levelo://app?vid=0d11801d-6fdd-40e0-85d9-f094fb6f88b0"},"vehicle_type_id":"4","last_reported":1679263596,"current_range_meters":23200,"station_id":"ce4bhlh2rcd13ifvqgig","pricing_plan_id":"free"},{"bike_id":"936ecc25-fffa-4bca-810c-08d9cae0872b","system_id":"levelo_inurba_marseille","lat":43.245581,"lon":5.395069,"is_reserved":false,"is_disabled":false,"rental_uris":{"android":"levelo://app?vid=936ecc25-fffa-4bca-810c-08d9cae0872b","ios":"levelo://app?vid=936ecc25-fffa-4bca-810c-08d9cae0872b"},"vehicle_type_id":"4","last_reported":1679263596,"current_range_meters":9200,"station_id":"ce4bhlp2rcd13ifvqgjg","pricing_plan_id":"free"},{"bike_id":"6517cd95-8881-4095-a72f-d78547f4b481","system_id":"levelo_inurba_marseille","lat":43.240623,"lon":5.377642,"is_reserved":false,"is_disabled":false,"rental_uris":{"android":"levelo://app?vid=6517cd95-8881-4095-a72f-d78547f4b481","ios":"levelo://app?vid=6517cd95-8881-4095-a72f-d78547f4b481"},"vehicle_type_id":"4","last_reported":1679263596,"current_range_meters":13600,"station_id":"ce4bhnp2rcd13ifvqgvg","pricing_plan_id":"free"},{"bike_id":"7b490dfd-52ab-4c51-9942-deb1ac519639","system_id":"levelo_inurba_marseille","lat":43.241782,"lon":5.397264,"is_reserved":false,"is_disabled":false,"rental_uris":{"android":"levelo://app?vid=7b490dfd-52ab-4c51-9942-deb1ac519639","ios":"levelo://app?vid=7b490dfd-52ab-4c51-9942-deb1ac519639"},"vehicle_type_id":"4","last_reported":1679263596,"current_range_meters":0,"station_id":"ce4bhn12rcd13ifvqgpg","pricing_plan_id":"free"},{"bike_id":"334e498b-b826-46b9-9de7-4687ff6c9d3a","system_id":"levelo_inurba_marseille","lat":43.2383,"lon":5.37561,"is_reserved":false,"is_disabled":false,"rental_uris":{"android":"levelo://app?vid=334e498b-b826-46b9-9de7-4687ff6c9d3a","ios":"levelo://app?vid=334e498b-b826-46b9-9de7-4687ff6c9d3a"},"vehicle_type_id":"4","last_reported":1679263596,"current_range_meters":1600,"station_id":"","pricing_plan_id":"free"},{"bike_id":"5dda21a0-4fd2-4ce0-bc65-60056dc23de8","system_id":"levelo_inurba_marseille","lat":43.231923,"lon":5.355545,"is_reserved":false,"is_disabled":false,"rental_uris":{"android":"levelo://app?vid=5dda21a0-4fd2-4ce0-bc65-60056dc23de8","ios":"levelo://app?vid=5dda21a0-4fd2-4ce0-bc65-60056dc23de8"},"vehicle_type_id":"4","last_reported":1679263596,"current_range_meters":24800,"station_id":"ce4bhu92rcd13ifvqi70","pricing_plan_id":"free"},{"bike_id":"2330a857-0775-4481-8767-6dfc1bdded79","system_id":"levelo_inurba_marseille","lat":43.286277,"lon":5.475073,"is_reserved":false,"is_disabled":false,"rental_uris":{"android":"levelo://app?vid=2330a857-0775-4481-8767-6dfc1bdded79","ios":"levelo://app?vid=2330a857-0775-4481-8767-6dfc1bdded79"},"vehicle_type_id":"4","last_reported":1679263596,"current_range_meters":16800,"station_id":"","pricing_plan_id":"free"},{"bike_id":"dc46f849-62cf-47d9-993c-25d51a98d655","system_id":"levelo_inurba_marseille","lat":43.28071,"lon":5.50566,"is_reserved":false,"is_disabled":false,"rental_uris":{"android":"levelo://app?vid=dc46f849-62cf-47d9-993c-25d51a98d655","ios":"levelo://app?vid=dc46f849-62cf-47d9-993c-25d51a98d655"},"vehicle_type_id":"4","last_reported":1679263596,"current_range_meters":4800,"station_id":"","pricing_plan_id":"free"}]}}