{"last_updated":1693462140,"ttl":30,"version":"2.2","data":{"bikes":[{"bike_id":"e112c393-a324-44f2-931b-4b19e131d09a","system_id":"levelo_inurba_marseille","lat":43.31341,"lon":5.367098,"is_reserved":false,"is_disabled":false,"rental_uris":{"android":"levelo://app?vid=e112c393-a324-44f2-931b-4b19e131d09a","ios":"levelo://app?vid=e112c393-a324-44f2-931b-4b19e131d09a"},"vehicle_type_id":"4","last_reported":1693462140,"current_range_meters":31200,"station_id":"ce4bgr92rcd13ifvqc6g","pricing_plan_id":"free"},{"bike_id":"9ce13e34-dbed-410d-adfe-26b57b26de4d","system_id":"levelo_inurba_marseille","lat":43.31341,"lon":5.367098,"is_reserved":false,"is_disabled":false,"rental_uris":{"android":"levelo://app?vid=9ce13e34-dbed-410d-adfe-26b57b26de4d","ios":"levelo://app?vid=9ce13e34-dbed-410d-adfe-26b57b26de4d"},"vehicle_type_id":"4","last_reported":1693462140,"current_range_meters":29200,"station_id":"ce4bgr92rcd13ifvqc6g","pricing_plan_id":"free"},{"bike_id":"f3c188ee-f5ea-4648-b66d-cdf0ed744280","system_id":"levelo_inurba_marseille","lat":43.31341,"lon":5.367098,"is_reserved":false,"is_disabled":false,"rental_uris":{"android":"levelo://app?vid=f3c188ee-f5ea-4648-b66d-cdf0ed744280","ios":"levelo://app?vid=f3c188ee-f5ea-4648-b66d-cdf0ed744280"},"vehicle_type_id":"4","last_reported":1693462140,"current_range_meters":29200,"station_id":"ce4bgr92rcd13ifvqc6g","pricing_plan_id":"free"},{"bike_id":"548787c4-c296-4c9f-8b8b-fae72eade3b2","system_id":"levelo_inurba_marseille","lat":43.31341,"lon":5.367098,"is_reserved":false,"is_disabled":false,"rental_uris":{"android":"levelo://app?vid=548787c4-c296-4c9f-8b8b-fae72eade3b2","ios":"levelo://app?vid=548787c4-c296-4c9f-8b8b-fae72eade3b2"},"vehicle_type_id":"4","last_reported":1693462140,"current_range_meters":8000,"station_id":"ce4bgr92rcd13ifvqc6g","pricing_plan_id":"free"},{"bike_id":"e0289170-fae8-4c73-9450-e830ca335011","system_id":"levelo_inurba_marseille","lat":43.312239,"lon":5.368562,"is_reserved":false,"is_disabled":false,"rental_uris":{"android":"levelo://app?vid=e0289170-fae8-4c73-9450-e830ca335011","ios":"levelo://app?vid=e0289170-fae8-4c73-9450-e830ca335011"},"vehicle_type_id":"4","last_reported":1693462140,"current_range_meters":26000,"station_id":"ce4bgl92rcd13ifvqbq0","pricing_plan_id":"free"},{"bike_id":"e23c4acb-4e9b-4502-96d2-4d535c4afe26","system_id":"levelo_inurba_marseille","lat":43.312239,"lon":5.368562,"is_reserved":false,"is_disabled":false,"rental_uris":{"android":"levelo://app?vid=e23c4acb-4e9b-4502-96d2-4d535c4afe26","ios":"levelo://app?vid=e23c4acb-4e9b-4502-96d2-4d535c4afe26"},"vehicle_type_id":"4","last_reported":1693462140,"current_range_meters":28800,"station_id":"ce4bgl92rcd13ifvqbq0","pricing_plan_id":"free"},{"bike_id":"423e4200-2e8e-4ee4-9b82-be8c637cd43d","system_id":"levelo_inurba_marseille","lat":43.312239,"lon":5.368562,"is_reserved":false,"is_disabled":false,"rental_uris":{"android":"levelo://app?vid=423e4200-2e8e-4ee4-9b82-be8c637cd43d","ios":"levelo://app?vid=423e4200-2e8e-4ee4-9b82-be8c637cd43d"},"vehicle_type_id":"4","last_reported":1693462140,"current_range_meters":26000,"station_id":"ce4bgl92rcd13ifvqbq0","pricing_plan_id":"free"},{"bike_id":"943eee51-efbc-4649-adba-cc4c58082b69","system_id":"levelo_inurba_marseille","lat":43.309076,"lon":5.368465,"is_reserved":false,"is_disabled":false,"rental_uris":{"android":"levelo://app?vid=943eee51-efbc-4649-adba-cc4c58082b69","ios":"levelo://app?vid=943eee51-efbc-4649-adba-cc4c58082b69"},"vehicle_type_id":"4","last_reported":1693462140,"current_range_meters":29200,"station_id":"ce4bgn92rcd13ifvqbvg","pricing_plan_id":"free"},{"bike_id":"0f9cb84f-79c9-49dd-b9f0-4bc3d086f5b4","system_id":"levelo_inurba_marseille","lat":43.309076,"lon":5.368465,"is_reserved":false,"is_disabled":false,"rental_uris":{"android":"levelo://app?vid=0f9cb84f-79c9-49dd-b9f0-4bc3d086f5b4","ios":"levelo://app?vid=0f9cb84f-79c9-49dd-b9f0-4bc3d086f5b4"},"vehicle_type_id":"4","last_reported":1693462140,"current_range_meters":26800,"station_id":"ce4bgn92rcd13ifvqbvg","pricing_plan_id":"free"},{"bike_id":"562c9121-82b1-4239-b8cf-e68d26c6d693","system_id":"levelo_inurba_marseille","lat":43.309076,"lon":5.368465,"is_reserved":false,"is_disabled":false,"rental_uris":{"android":"levelo://app?vid=562c9121-82b1-4239-b8cf-e68d26c6d693","ios":"levelo://app?vid=562c9121-82b1-4239-b8cf-e68d26c6d693"},"vehicle_type_id":"4","last_reported":1693462140,"current_range_meters":25600,"station_id":"ce4bgn92rcd13ifvqbvg","pricing_plan_id":"free"},{"bike_id":"9fb8d4e4-00a5-42e9-b677-cf558ba679f3","system_id":"levelo_inurba_marseille","lat":43.309076,"lon":5.368465,"is_reserved":false,"is_disabled":false,"rental_uris":{"android":"levelo://app?vid=9fb8d4e4-00a5-42e9-b677-cf558ba679f3","ios":"levelo://app?vid=9fb8d4e4-00a5-42e9-b677-cf558ba679f3"},"vehicle_type_id":"4","last_reported":1693462140,"current_range_meters":18800,"station_id":"ce4bgn92rcd13ifvqbvg","pricing_plan_id":"free"},{"bike_id":"4545ef08-4ae8-4435-96fe-55f14382ae40","system_id":"levelo_inurba_marseille","lat":43.314811,"lon":5.373103,"is_reserved":false,"is_disabled":false,"rental_uris":{"android":"levelo://app?vid=4545ef08-4ae8-4435-96fe-55f14382ae40","ios":"levelo://app?vid=4545ef08-4ae8-4435-96fe-55f14382ae40"},"vehicle_type_id":"4","last_reported":1693462140,"current_range_meters":31200,"station_id":"ce4bgt12rcd13ifvqcd0","pricing_plan_id":"free"},{"bike_id":"6f217aea-859a-4d06-8678-a7453ff5bfb6","system_id":"levelo_inurba_marseille","lat":43.314811,"lon":5.373103,"is_reserved":false,"is_disabled":false,"rental_uris":{"android":"levelo://app?vid=6f217aea-859a-4d06-8678-a7453ff5bfb6","ios":"levelo://app?vid=6f217aea-859a-4d06-8678-a7453ff5bfb6"},"vehicle_type_id":"4","last_reported":1693462140,"current_range_meters":29200,"station_id":"ce4bgt12rcd13ifvqcd0","pricing_plan_id":"free"},{"bike_id":"d2be997d-44d2-40a5-bb20-02aeaaf65fa5","system_id":"levelo_inurba_marseille","lat":43.314811,"lon":5.373104,"is_reserved":false,"is_disabled":false,"rental_uris":{"android":"levelo://app?vid=d2be997d-44d2-40a5-bb20-02aeaaf65fa5","ios":"levelo://app?vid=d2be997d-44d2-40a5-bb20-02aeaaf65fa5"},"vehicle_type_id":"4","last_reported":1693462140,"current_range_meters":30800,"station_id":"ce4bgt12rcd13ifvqcd0","pricing_plan_id":"free"},{"bike_id":"e3afaf7c-f44a-481f-bef4-6b02caad5521","system_id":"levelo_inurba_marseille","lat":43.309039,"lon":5.371797,"is_reserved":false,"is_disabled":false,"rental_uris":{"android":"levelo://app?vid=e3afaf7c-f44a-481f-bef4-6b02caad5521","ios":"levelo://app?vid=e3afaf7c-f44a-481f-bef4-6b02caad5521"},"vehicle_type_id":"4","last_reported":1693462140,"current_range_meters":30000,"station_id":"ce4bguh2rcd13ifvqckg","pricing_plan_id":"free"},{"bike_id":"dc1c1b25-80d1-4b57-a38a-88863b565809","system_id":"levelo_inurba_marseille","lat":43.309039,"lon":5.371797,"is_reserved":false,"is_disabled":false,"rental_uris":{"android":"levelo://app?vid=dc1c1b25-80d1-4b57-a38a-88863b565809","ios":"levelo://app?vid=dc1c1b25-80d1-4b57-a38a-88863b565809"},"vehicle_type_id":"4","last_reported":1693462140,"current_range_meters":8400,"station_id":"ce4bguh2rcd13ifvqckg","pricing_plan_id":"free"},{"bike_id":"bc3fd639-a164-4412-abc9-9c05cdc09b28","system_id":"levelo_inurba_marseille","lat":43.30887,"lon":5.37202,"is_reserved":false,"is_disabled":false,"rental_uris":{"android":"levelo://app?vid=bc3fd639-a164-4412-abc9-9c05cdc09b28","ios":"levelo://app?vid=bc3fd639-a164-4412-abc9-9c05cdc09b28"},"vehicle_type_id":"4","last_reported":1693462140,"current_range_meters":14800,"station_id":"ce4bguh2rcd13ifvqckg","pricing_plan_id":"free"},{"bike_id":"d387c593-2095-408a-82e7-d4b851422cf7","system_id":"levelo_inurba_marseille","lat":43.305368,"lon":5.367343,"is_reserved":false,"is_disabled":false,"rental_uris":{"android":"levelo://app?vid=d387c593-2095-408a-82e7-d4b851422cf7","ios":"levelo://app?vid=d387c593-2095-408a-82e7-d4b851422cf7"},"vehicle_type_id":"4","last_reported":1693462140,"current_range_meters":26800,"station_id":"ce4bgrp2rcd13ifvqc9g","pricing_plan_id":"free"},{"bike_id":"1941ca7c-ae7e-4542-93c2-357b9dfb8b93","system_id":"levelo_inurba_marseille","lat":43.305712,"lon":5.365641,"is_reserved":false,"is_disabled":false,"rental_uris":{"android":"levelo://app?vid=1941ca7c-ae7e-4542-93c2-357b9dfb8b93","ios":"levelo://app?vid=1941ca7c-ae7e-4542-93c2-357b9dfb8b93"},"vehicle_type_id":"4","last_reported":1693462140,"current_range_meters":28400,"station_id":"ce4bgs12rcd13ifvqcag","pricing_plan_id":"free"},{"bike_id":"702ece45-f422-41b2-a3a1-0260c51b9738","system_id":"levelo_inurba_marseille","lat":43.30543,"lon":5.36728,"is_reserved":false,"is_disabled":false,"rental_uris":{"android":"levelo://app?vid=702ece45-f422-41b2-a3a1-0260c51b9738","ios":"levelo://app?vid=702ece45-f422-41b2-a3a1-0260c51b9738"},"vehicle_type_id":"4","last_reported":1693462140,"current_range_meters":28800,"station_id":"ce4bgrp2rcd13ifvqc9g","pricing_plan_id":"free"},{"bike_id":"74f1994d-9932-4884-b91e-8f82bcbcdc3e","system_id":"levelo_inurba_marseille","lat":43.30535,"lon":5.36722,"is_reserved":false,"is_disabled":false,"rental_uris":{"android":"levelo://app?vid=74f1994d-9932-4884-b91e-8f82bcbcdc3e","ios":"levelo://app?vid=74f1994d-9932-4884-b91e-8f82bcbcdc3e"},"vehicle_type_id":"4","last_reported":1693462140,"current_range_meters":24400,"station_id":"ce4bgrp2rcd13ifvqc9g","pricing_plan_id":"free"},{"bike_id":"d4f721a5-503a-44f9-8740-a60530d35193","system_id":"levelo_inurba_marseille","lat":43.305706,"lon":5.365654,"is_reserved":false,"is_disabled":false,"rental_uris":{"android":"levelo://app?vid=d4f721a5-503a-44f9-8740-a60530d35193","ios":"levelo://app?vid=d4f721a5-503a-44f9-8740-a60530d35193"},"vehicle_type_id":"4","last_reported":1693462140,"current_range_meters":22800,"station_id":"ce4bgs12rcd13ifvqcag","pricing_plan_id":"free"},{"bike_id":"c3b1e3dc-4237-4896-9f00-724648610df6","system_id":"levelo_inurba_marseille","lat":43.305706,"lon":5.365654,"is_reserved":false,"is_disabled":false,"rental_uris":{"android":"levelo://app?vid=c3b1e3dc-4237-4896-9f00-724648610df6","ios":"levelo://app?vid=c3b1e3dc-4237-4896-9f00-724648610df6"},"vehicle_type_id":"4","last_reported":1693462140,"current_range_meters":18000,"station_id":"ce4bgs12rcd13ifvqcag","pricing_plan_id":"free"},{"bike_id":"94e66281-49a4-40e9-9393-fd3b33f97826","system_id":"levelo_inurba_marseille","lat":43.30539,"lon":5.36541,"is_reserved":false,"is_disabled":false,"rental_uris":{"android":"levelo://app?vid=94e66281-49a4-40e9-9393-fd3b33f97826","ios":"levelo://app?vid=94e66281-49a4-40e9-9393-fd3b33f97826"},"vehicle_type_id":"4","last_reported":1693462140,"current_range_meters":24400,"station_id":"ce4bgs12rcd13ifvqcag","pricing_plan_id":"free"},{"bike_id":"dd7c4009-88dc-4ef9-9507-25d05753eb97","system_id":"levelo_inurba_marseille","lat":43.3053,"lon":5.36714,"is_reserved":false,"is_disabled":false,"rental_uris":{"android":"levelo://app?vid=dd7c4009-88dc-4ef9-9507-25d05753eb97","ios":"levelo://app?vid=dd7c4009-88dc-4ef9-9507-25d05753eb97"},"vehicle_type_id":"4","last_reported":1693462140,"current_range_meters":25200,"station_id":"ce4bgrp2rcd13ifvqc9g","pricing_plan_id":"free"},{"bike_id":"45a8623f-a11f-40eb-b1e6-7875f46096dc","system_id":"levelo_inurba_marseille","lat":43.30526,"lon":5.36722,"is_reserved":false,"is_disabled":false,"rental_uris":{"android":"levelo://app?vid=45a8623f-a11f-40eb-b1e6-7875f46096dc","ios":"levelo://app?vid=45a8623f-a11f-40eb-b1e6-7875f46096dc"},"vehicle_type_id":"4","last_reported":1693462140,"current_range_meters":29600,"station_id":"ce4bgrp2rcd13ifvqc9g","pricing_plan_id":"free"},{"bike_id":"38c110e1-e105-4648-a41c-ab3d9ac99ce6","system_id":"levelo_inurba_marseille","lat":43.30522,"lon":5.36714,"is_reserved":false,"is_disabled":false,"rental_uris":{"android":"levelo://app?vid=38c110e1-e105-4648-a41c-ab3d9ac99ce6","ios":"levelo://app?vid=38c110e1-e105-4648-a41c-ab3d9ac99ce6"},"vehicle_type_id":"4","last_reported":1693462140,"current_range_meters":12400,"station_id":"ce4bgrp2rcd13ifvqc9g","pricing_plan_id":"free"},{"bike_id":"30261f75-b2d9-466c-a5e7-ce7f03e90d2d","system_id":"levelo_inurba_marseille","lat":43.311125,"lon":5.377624,"is_reserved":false,"is_disabled":false,"rental_uris":{"android":"levelo://app?vid=30261f75-b2d9-466c-a5e7-ce7f03e90d2d","ios":"levelo://app?vid=30261f75-b2d9-466c-a5e7-ce7f03e90d2d"},"vehicle_type_id":"4","last_reported":1693462140,"current_range_meters":1200,"station_id":"ce4bgt92rcd13ifvqcg0","pricing_plan_id":"free"},{"bike_id":"6d577261-eef6-4e71-8251-afee62f66935","system_id":"levelo_inurba_marseille","lat":43.311125,"lon":5.377624,"is_reserved":false,"is_disabled":false,"rental_uris":{"android":"levelo://app?vid=6d577261-eef6-4e71-8251-afee62f66935","ios":"levelo://app?vid=6d577261-eef6-4e71-8251-afee62f66935"},"vehicle_type_id":"4","last_reported":1693462140,"current_range_meters":31200,"station_id":"ce4bgt92rcd13ifvqcg0","pricing_plan_id":"free"},{"bike_id":"65749c36-8409-4b4f-b998-2a0ee35ff955","system_id":"levelo_inurba_marseille","lat":43.30571,"lon":5.37304,"is_reserved":false,"is_disabled":false,"rental_uris":{"android":"levelo://app?vid=65749c36-8409-4b4f-b998-2a0ee35ff955","ios":"levelo://app?vid=65749c36-8409-4b4f-b998-2a0ee35ff955"},"vehicle_type_id":"4","last_reported":1693462140,"current_range_meters":400,"station_id":"","pricing_plan_id":"free"},{"bike_id":"44daac98-424c-49f1-97c8-e4c9ae340d96","system_id":"levelo_inurba_marseille","lat":43.30779,"lon":5.37662,"is_reserved":false,"is_disabled":false,"rental_uris":{"android":"levelo://app?vid=44daac98-424c-49f1-97c8-e4c9ae340d96","ios":"levelo://app?vid=44daac98-424c-49f1-97c8-e4c9ae340d96"},"vehicle_type_id":"4","last_reported":1693462140,"current_range_meters":2000,"station_id":"ce4bgv92rcd13ifvqcq0","pricing_plan_id":"free"},{"bike_id":"85029175-769d-4c4a-9a1f-348dd03f763c","system_id":"levelo_inurba_marseille","lat":43.317075,"lon":5.377367,"is_reserved":false,"is_disabled":false,"rental_uris":{"android":"levelo://app?vid=85029175-769d-4c4a-9a1f-348dd03f763c","ios":"levelo://app?vid=85029175-769d-4c4a-9a1f-348dd03f763c"},"vehicle_type_id":"4","last_reported":1693462140,"current_range_meters":31200,"station_id":"ce4bgth2rcd13ifvqch0","pricing_plan_id":"free"},{"bike_id":"cd3d548f-bd59-45ea-a76c-bcaa7c22f274","system_id":"levelo_inurba_marseille","lat":43.317075,"lon":5.377367,"is_reserved":false,"is_disabled":false,"rental_uris":{"android":"levelo://app?vid=cd3d548f-bd59-45ea-a76c-bcaa7c22f274","ios":"levelo://app?vid=cd3d548f-bd59-45ea-a76c-bcaa7c22f274"},"vehicle_type_id":"4","last_reported":1693462140,"current_range_meters":30800,"station_id":"ce4bgth2rcd13ifvqch0","pricing_plan_id":"free"},{"bike_id":"55a16d96-17ad-4995-9695-ddc03f7c70a2","system_id":"levelo_inurba_marseille","lat":43.317075,"lon":5.377367,"is_reserved":false,"is_disabled":false,"rental_uris":{"android":"levelo://app?vid=55a16d96-17ad-4995-9695-ddc03f7c70a2","ios":"levelo://app?vid=55a16d96-17ad-4995-9695-ddc03f7c70a2"},"vehicle_type_id":"4","last_reported":1693462140,"current_range_meters":30800,"station_id":"ce4bgth2rcd13ifvqch0","pricing_plan_id":"free"},{"bike_id":"e0b15867-13f3-47d8-920e-d17442fcfa08","system_id":"levelo_inurba_marseille","lat":43.317075,"lon":5.377367,"is_reserved":false,"is_disabled":false,"rental_uris":{"android":"levelo://app?vid=e0b15867-13f3-47d8-920e-d17442fcfa08","ios":"levelo://app?vid=e0b15867-13f3-47d8-920e-d17442fcfa08"},"vehicle_type_id":"4","last_reported":1693462140,"current_range_meters":28800,"station_id":"ce4bgth2rcd13ifvqch0","pricing_plan_id":"free"},{"bike_id":"537a927d-8a1c-43e0-871b-ee68f3239d6e","system_id":"levelo_inurba_marseille","lat":43.317075,"lon":5.377367,"is_reserved":false,"is_disabled":false,"rental_uris":{"android":"levelo://app?vid=537a927d-8a1c-43e0-871b-ee68f3239d6e","ios":"levelo://app?vid=537a927d-8a1c-43e0-871b-ee68f3239d6e"},"vehicle_type_id":"4","last_reported":1693462140,"current_range_meters":31200,"station_id":"ce4bgth2rcd13ifvqch0","pricing_plan_id":"free"},{"bike_id":"45d25554-c37a-4064-9cea-6861b6f2ee28","system_id":"levelo_inurba_marseille","lat":43.317075,"lon":5.377367,"is_reserved":false,"is_disabled":false,"rental_uris":{"android":"levelo://app?vid=45d25554-c37a-4064-9cea-6861b6f2ee28","ios":"levelo://app?vid=45d25554-c37a-4064-9cea-6861b6f2ee28"},"vehicle_type_id":"4","last_reported":1693462140,"current_range_meters":28000,"station_id":"ce4bgth2rcd13ifvqch0","pricing_plan_id":"free"},{"bike_id":"cb62067a-bbcb-437f-b3bd-346255d21bfe","system_id":"levelo_inurba_marseille","lat":43.315293,"lon":5.380349,"is_reserved":false,"is_disabled":false,"rental_uris":{"android":"levelo://app?vid=cb62067a-bbcb-437f-b3bd-346255d21bfe","ios":"levelo://app?vid=cb62067a-bbcb-437f-b3bd-346255d21bfe"},"vehicle_type_id":"4","last_reported":1693462140,"current_range_meters":800,"station_id":"ce4bhsp2rcd13ifvqi50","pricing_plan_id":"free"},{"bike_id":"07b11ecd-5247-4fb4-95b7-59ab43b2c620","system_id":"levelo_inurba_marseille","lat":43.31527,"lon":5.3804,"is_reserved":false,"is_disabled":false,"rental_uris":{"android":"levelo://app?vid=07b11ecd-5247-4fb4-95b7-59ab43b2c620","ios":"levelo://app?vid=07b11ecd-5247-4fb4-95b7-59ab43b2c620"},"vehicle_type_id":"4","last_reported":1693462140,"current_range_meters":14800,"station_id":"ce4bhsp2rcd13ifvqi50","pricing_plan_id":"free"},{"bike_id":"9da4a18a-d9a7-49b8-9f23-9298e05c9673","system_id":"levelo_inurba_marseille","lat":43.315293,"lon":5.380349,"is_reserved":false,"is_disabled":false,"rental_uris":{"android":"levelo://app?vid=9da4a18a-d9a7-49b8-9f23-9298e05c9673","ios":"levelo://app?vid=9da4a18a-d9a7-49b8-9f23-9298e05c9673"},"vehicle_type_id":"4","last_reported":1693462140,"current_range_meters":12800,"station_id":"ce4bhsp2rcd13ifvqi50","pricing_plan_id":"free"},{"bike_id":"ac12cca8-363e-4402-8524-7c5684940175","system_id":"levelo_inurba_marseille","lat":43.30134,"lon":5.36981,"is_reserved":false,"is_disabled":false,"rental_uris":{"android":"levelo://app?vid=ac12cca8-363e-4402-8524-7c5684940175","ios":"levelo://app?vid=ac12cca8-363e-4402-8524-7c5684940175"},"vehicle_type_id":"4","last_reported":1693462140,"current_range_meters":28400,"station_id":"","pricing_plan_id":"free"},{"bike_id":"2187c77a-4b25-47f3-a7a7-d055d469ea0b","system_id":"levelo_inurba_marseille","lat":43.30808,"lon":5.38157,"is_reserved":false,"is_disabled":false,"rental_uris":{"android":"levelo://app?vid=2187c77a-4b25-47f3-a7a7-d055d469ea0b","ios":"levelo://app?vid=2187c77a-4b25-47f3-a7a7-d055d469ea0b"},"vehicle_type_id":"4","last_reported":1693462140,"current_range_meters":30800,"station_id":"ce4bgt12rcd13ifvqce0","pricing_plan_id":"free"},{"bike_id":"af5bd159-e63b-454a-bd3c-e6209511aef0","system_id":"levelo_inurba_marseille","lat":43.30802,"lon":5.38154,"is_reserved":false,"is_disabled":false,"rental_uris":{"android":"levelo://app?vid=af5bd159-e63b-454a-bd3c-e6209511aef0","ios":"levelo://app?vid=af5bd159-e63b-454a-bd3c-e6209511aef0"},"vehicle_type_id":"4","last_reported":1693462140,"current_range_meters":400,"station_id":"ce4bgt12rcd13ifvqce0","pricing_plan_id":"free"},{"bike_id":"2c11f035-166e-45e1-afe4-6685a41d2f43","system_id":"levelo_inurba_marseille","lat":43.30799,"lon":5.38153,"is_reserved":false,"is_disabled":false,"rental_uris":{"android":"levelo://app?vid=2c11f035-166e-45e1-afe4-6685a41d2f43","ios":"levelo://app?vid=2c11f035-166e-45e1-afe4-6685a41d2f43"},"vehicle_type_id":"4","last_reported":1693462140,"current_range_meters":30400,"station_id":"ce4bgt12rcd13ifvqce0","pricing_plan_id":"free"},{"bike_id":"6a8656d9-e7b0-4a3a-95d8-2fcac8bc6fe9","system_id":"levelo_inurba_marseille","lat":43.304606,"lon":5.379026,"is_reserved":false,"is_disabled":false,"rental_uris":{"android":"levelo://app?vid=6a8656d9-e7b0-4a3a-95d8-2fcac8bc6fe9","ios":"levelo://app?vid=6a8656d9-e7b0-4a3a-95d8-2fcac8bc6fe9"},"vehicle_type_id":"4","last_reported":1693462140,"current_range_meters":2000,"station_id":"ce4bgup2rcd13ifvqcn0","pricing_plan_id":"free"},{"bike_id":"30a28e97-71f9-4cb7-854c-6544a185de91","system_id":"levelo_inurba_marseille","lat":43.304606,"lon":5.379026,"is_reserved":false,"is_disabled":false,"rental_uris":{"android":"levelo://app?vid=30a28e97-71f9-4cb7-854c-6544a185de91","ios":"levelo://app?vid=30a28e97-71f9-4cb7-854c-6544a185de91"},"vehicle_type_id":"4","last_reported":1693462140,"current_range_meters":30800,"station_id":"ce4bgup2rcd13ifvqcn0","pricing_plan_id":"free"},{"bike_id":"7cfe8ef4-5d21-4997-8c4e-8a969a1fc445","system_id":"levelo_inurba_marseille","lat":43.304606,"lon":5.379026,"is_reserved":false,"is_disabled":false,"rental_uris":{"android":"levelo://app?vid=7cfe8ef4-5d21-4997-8c4e-8a969a1fc445","ios":"levelo://app?vid=7cfe8ef4-5d21-4997-8c4e-8a969a1fc445"},"vehicle_type_id":"4","last_reported":1693462140,"current_range_meters":31200,"station_id":"ce4bgup2rcd13ifvqcn0","pricing_plan_id":"free"},{"bike_id":"79c8ac91-9624-441b-9ef5-f086b37ff0c4","system_id":"levelo_inurba_marseille","lat":43.304606,"lon":5.379026,"is_reserved":false,"is_disabled":false,"rental_uris":{"android":"levelo://app?vid=79c8ac91-9624-441b-9ef5-f086b37ff0c4","ios":"levelo://app?vid=79c8ac91-9624-441b-9ef5-f086b37ff0c4"},"vehicle_type_id":"4","last_reported":1693462140,"current_range_meters":31600,"station_id":"ce4bgup2rcd13ifvqcn0","pricing_plan_id":"free"},{"bike_id":"9657bdc7-5243-4802-9fd2-0cc9fb293fab","system_id":"levelo_inurba_marseille","lat":43.304606,"lon":5.379026,"is_reserved":false,"is_disabled":false,"rental_uris":{"android":"levelo://app?vid=9657bdc7-5243-4802-9fd2-0cc9fb293fab","ios":"levelo://app?vid=9657bdc7-5243-4802-9fd2-0cc9fb293fab"},"vehicle_type_id":"4","last_reported":1693462140,"current_range_meters":31600,"station_id":"ce4bgup2rcd13ifvqcn0","pricing_plan_id":"free"},{"bike_id":"0048f991-08c9-4b9b-82c4-95d36b6e5f1d","system_id":"levelo_inurba_marseille","lat":43.304606,"lon":5.379026,"is_reserved":false,"is_disabled":false,"rental_uris":{"android":"levelo://app?vid=0048f991-08c9-4b9b-82c4-95d36b6e5f1d","ios":"levelo://app?vid=0048f991-08c9-4b9b-82c4-95d36b6e5f1d"},"vehicle_type_id":"4","last_reported":1693462140,"current_range_meters":18800,"station_id":"ce4bgup2rcd13ifvqcn0","pricing_plan_id":"free"},{"bike_id":"735f7673-8376-4be7-a838-70d37a77bd6a","system_id":"levelo_inurba_marseille","lat":43.304606,"lon":5.379026,"is_reserved":false,"is_disabled":false,"rental_uris":{"android":"levelo://app?vid=735f7673-8376-4be7-a838-70d37a77bd6a","ios":"levelo://app?vid=735f7673-8376-4be7-a838-70d37a77bd6a"},"vehicle_type_id":"4","last_reported":1693462140,"current_range_meters":30400,"station_id":"ce4bgup2rcd13ifvqcn0","pricing_plan_id":"free"},{"bike_id":"f6d5a381-1868-4907-8c04-69d661c42f74","system_id":"levelo_inurba_marseille","lat":43.304606,"lon":5.379026,"is_reserved":false,"is_disabled":false,"rental_uris":{"android":"levelo://app?vid=f6d5a381-1868-4907-8c04-69d661c42f74","ios":"levelo://app?vid=f6d5a381-1868-4907-8c04-69d661c42f74"},"vehicle_type_id":"4","last_reported":1693462140,"current_range_meters":26000,"station_id":"ce4bgup2rcd13ifvqcn0","pricing_plan_id":"free"},{"bike_id":"aad84be8-32b0-4cfd-a3fb-196dbdc97369","system_id":"levelo_inurba_marseille","lat":43.304606,"lon":5.379026,"is_reserved":false,"is_disabled":false,"rental_uris":{"android":"levelo://app?vid=aad84be8-32b0-4cfd-a3fb-196dbdc97369","ios":"levelo://app?vid=aad84be8-32b0-4cfd-a3fb-196dbdc97369"},"vehicle_type_id":"4","last_reported":1693462140,"current_range_meters":31600,"station_id":"ce4bgup2rcd13ifvqcn0","pricing_plan_id":"free"},{"bike_id":"79433cb6-aafa-4f04-9bae-0abb0adf9ed2","system_id":"levelo_inurba_marseille","lat":43.304606,"lon":5.379026,"is_reserved":false,"is_disabled":false,"rental_uris":{"android":"levelo://app?vid=79433cb6-aafa-4f04-9bae-0abb0adf9ed2","ios":"levelo://app?vid=79433cb6-aafa-4f04-9bae-0abb0adf9ed2"},"vehicle_type_id":"4","last_reported":1693462140,"current_range_meters":24400,"station_id":"ce4bgup2rcd13ifvqcn0","pricing_plan_id":"free"},{"bike_id":"97d26f49-c2fa-407f-b905-8b747463841a","system_id":"levelo_inurba_marseille","lat":43.304606,"lon":5.379026,"is_reserved":false,"is_disabled":false,"rental_uris":{"android":"levelo://app?vid=97d26f49-c2fa-407f-b905-8b747463841a","ios":"levelo://app?vid=97d26f49-c2fa-407f-b905-8b747463841a"},"vehicle_type_id":"4","last_reported":1693462140,"current_range_meters":30000,"station_id":"ce4bgup2rcd13ifvqcn0","pricing_plan_id":"free"},{"bike_id":"486f7fd4-4cbf-4e2d-89b4-443cbb700e5f","system_id":"levelo_inurba_marseille","lat":43.304606,"lon":5.379026,"is_reserved":false,"is_disabled":false,"rental_uris":{"android":"levelo://app?vid=486f7fd4-4cbf-4e2d-89b4-443cbb700e5f","ios":"levelo://app?vid=486f7fd4-4cbf-4e2d-89b4-443cbb700e5f"},"vehicle_type_id":"4","last_reported":1693462140,"current_range_meters":30800,"station_id":"ce4bgup2rcd13ifvqcn0","pricing_plan_id":"free"},{"bike_id":"f31d34af-7ce2-4b7c-9ecb-057efd2d0be7","system_id":"levelo_inurba_marseille","lat":43.304606,"lon":5.379026,"is_reserved":false,"is_disabled":false,"rental_uris":{"android":"levelo://app?vid=f31d34af-7ce2-4b7c-9ecb-057efd2d0be7","ios":"levelo://app?vid=f31d34af-7ce2-4b7c-9ecb-057efd2d0be7"},"vehicle_type_id":"4","last_reported":1693462140,"current_range_meters":24000,"station_id":"ce4bgup2rcd13ifvqcn0","pricing_plan_id":"free"},{"bike_id":"b70fd6f1-b4a1-47f8-b2fc-828f8c4adf86","system_id":"levelo_inurba_marseille","lat":43.304606,"lon":5.379026,"is_reserved":false,"is_disabled":false,"rental_uris":{"android":"levelo://app?vid=b70fd6f1-b4a1-47f8-b2fc-828f8c4adf86","ios":"levelo://app?vid=b70fd6f1-b4a1-47f8-b2fc-828f8c4adf86"},"vehicle_type_id":"4","last_reported":1693462140,"current_range_meters":23200,"station_id":"ce4bgup2rcd13ifvqcn0","pricing_plan_id":"free"},{"bike_id":"b79ed1f4-dd9e-4cb5-9a3d-ce6cb2858f83","system_id":"levelo_inurba_marseille","lat":43.304606,"lon":5.379026,"is_reserved":false,"is_disabled":false,"rental_uris":{"android":"levelo://app?vid=b79ed1f4-dd9e-4cb5-9a3d-ce6cb2858f83","ios":"levelo://app?vid=b79ed1f4-dd9e-4cb5-9a3d-ce6cb2858f83"},"vehicle_type_id":"4","last_reported":1693462140,"current_range_meters":14800,"station_id":"ce4bgup2rcd13ifvqcn0","pricing_plan_id":"free"},{"bike_id":"a9fa8742-e7d8-4c49-90a9-ac0363db1d71","system_id":"levelo_inurba_marseille","lat":43.304606,"lon":5.379026,"is_reserved":false,"is_disabled":false,"rental_uris":{"android":"levelo://app?vid=a9fa8742-e7d8-4c49-90a9-ac0363db1d71","ios":"levelo://app?vid=a9fa8742-e7d8-4c49-90a9-ac0363db1d71"},"vehicle_type_id":"4","last_reported":1693462140,"current_range_meters":25600,"station_id":"ce4bgup2rcd13ifvqcn0","pricing_plan_id":"free"},{"bike_id":"f54e683f-a3a2-4c5c-96e2-28195eadd756","system_id":"levelo_inurba_marseille","lat":43.304606,"lon":5.379026,"is_reserved":false,"is_disabled":false,"rental_uris":{"android":"levelo://app?vid=f54e683f-a3a2-4c5c-96e2-28195eadd756","ios":"levelo://app?vid=f54e683f-a3a2-4c5c-96e2-28195eadd756"},"vehicle_type_id":"4","last_reported":1693462140,"current_range_meters":31600,"station_id":"ce4bgup2rcd13ifvqcn0","pricing_plan_id":"free"},{"bike_id":"6c40d28e-04c5-4d63-b32f-8ad4dfa81d29","system_id":"levelo_inurba_marseille","lat":43.304606,"lon":5.379026,"is_reserved":false,"is_disabled":false,"rental_uris":{"android":"levelo://app?vid=6c40d28e-04c5-4d63-b32f-8ad4dfa81d29","ios":"levelo://app?vid=6c40d28e-04c5-4d63-b32f-8ad4dfa81d29"},"vehicle_type_id":"4","last_reported":1693462140,"current_range_meters":22400,"station_id":"ce4bgup2rcd13ifvqcn0","pricing_plan_id":"free"},{"bike_id":"e9585309-9b1a-430d-a21e-f080362dcfc9","system_id":"levelo_inurba_marseille","lat":43.304606,"lon":5.379026,"is_reserved":false,"is_disabled":false,"rental_uris":{"android":"levelo://app?vid=e9585309-9b1a-430d-a21e-f080362dcfc9","ios":"levelo://app?vid=e9585309-9b1a-430d-a21e-f080362dcfc9"},"vehicle_type_id":"4","last_reported":1693462140,"current_range_meters":31600,"station_id":"ce4bgup2rcd13ifvqcn0","pricing_plan_id":"free"},{"bike_id":"105e48fb-211f-47e4-9fe8-2d7727a2c0a3","system_id":"levelo_inurba_marseille","lat":43.304606,"lon":5.379026,"is_reserved":false,"is_disabled":false,"rental_uris":{"android":"levelo://app?vid=105e48fb-211f-47e4-9fe8-2d7727a2c0a3","ios":"levelo://app?vid=105e48fb-211f-47e4-9fe8-2d7727a2c0a3"},"vehicle_type_id":"4","last_reported":1693462140,"current_range_meters":31600,"station_id":"ce4bgup2rcd13ifvqcn0","pricing_plan_id":"free"},{"bike_id":"2476b2b3-3066-4e6b-96eb-3f7152a2e831","system_id":"levelo_inurba_marseille","lat":43.304606,"lon":5.379026,"is_reserved":false,"is_disabled":false,"rental_uris":{"android":"levelo://app?vid=2476b2b3-3066-4e6b-96eb-3f7152a2e831","ios":"levelo://app?vid=2476b2b3-3066-4e6b-96eb-3f7152a2e831"},"vehicle_type_id":"4","last_reported":1693462140,"current_range_meters":30800,"station_id":"ce4bgup2rcd13ifvqcn0","pricing_plan_id":"free"},{"bike_id":"297f7650-56f2-43b6-95e2-bc066da16343","system_id":"levelo_inurba_marseille","lat":43.304606,"lon":5.379026,"is_reserved":false,"is_disabled":false,"rental_uris":{"android":"levelo://app?vid=297f7650-56f2-43b6-95e2-bc066da16343","ios":"levelo://app?vid=297f7650-56f2-43b6-95e2-bc066da16343"},"vehicle_type_id":"4","last_reported":1693462140,"current_range_meters":31600,"station_id":"ce4bgup2rcd13ifvqcn0","pricing_plan_id":"free"},{"bike_id":"edc5c61e-bb5b-4b06-b383-1da3f1b2e458","system_id":"levelo_inurba_marseille","lat":43.304606,"lon":5.379026,"is_reserved":false,"is_disabled":false,"rental_uris":{"android":"levelo://app?vid=edc5c61e-bb5b-4b06-b383-1da3f1b2e458","ios":"levelo://app?vid=edc5c61e-bb5b-4b06-b383-1da3f1b2e458"},"vehicle_type_id":"4","last_reported":1693462140,"current_range_meters":16800,"station_id":"ce4bgup2rcd13ifvqcn0","pricing_plan_id":"free"},{"bike_id":"bef09103-bcfe-4c2e-9b8e-1260f8f06366","system_id":"levelo_inurba_marseille","lat":43.304606,"lon":5.379026,"is_reserved":false,"is_disabled":false,"rental_uris":{"android":"levelo://app?vid=bef09103-bcfe-4c2e-9b8e-1260f8f06366","ios":"levelo://app?vid=bef09103-bcfe-4c2e-9b8e-1260f8f06366"},"vehicle_type_id":"4","last_reported":1693462140,"current_range_meters":22800,"station_id":"ce4bgup2rcd13ifvqcn0","pricing_plan_id":"free"},{"bike_id":"4550db82-c719-4019-bc91-010875b7432b","system_id":"levelo_inurba_marseille","lat":43.304606,"lon":5.379026,"is_reserved":false,"is_disabled":false,"rental_uris":{"android":"levelo://app?vid=4550db82-c719-4019-bc91-010875b7432b","ios":"levelo://app?vid=4550db82-c719-4019-bc91-010875b7432b"},"vehicle_type_id":"4","last_reported":1693462140,"current_range_meters":29200,"station_id":"ce4bgup2rcd13ifvqcn0","pricing_plan_id":"free"},{"bike_id":"84cb5d0a-8f47-464f-9ff2-1ea9eb11a62b","system_id":"levelo_inurba_marseille","lat":43.30453,"lon":5.37893,"is_reserved":false,"is_disabled":false,"rental_uris":{"android":"levelo://app?vid=84cb5d0a-8f47-464f-9ff2-1ea9eb11a62b","ios":"levelo://app?vid=84cb5d0a-8f47-464f-9ff2-1ea9eb11a62b"},"vehicle_type_id":"4","last_reported":1693462140,"current_range_meters":27200,"station_id":"ce4bgup2rcd13ifvqcn0","pricing_plan_id":"free"},{"bike_id":"c40ad4de-d18b-46d5-965f-f9e860bdf009","system_id":"levelo_inurba_marseille","lat":43.304606,"lon":5.379026,"is_reserved":false,"is_disabled":false,"rental_uris":{"android":"levelo://app?vid=c40ad4de-d18b-46d5-965f-f9e860bdf009","ios":"levelo://app?vid=c40ad4de-d18b-46d5-965f-f9e860bdf009"},"vehicle_type_id":"4","last_reported":1693462140,"current_range_meters":18800,"station_id":"ce4bgup2rcd13ifvqcn0","pricing_plan_id":"free"},{"bike_id":"46766a95-9f10-44a2-8e0f-20f1bef457ac","system_id":"levelo_inurba_marseille","lat":43.304606,"lon":5.379026,"is_reserved":false,"is_disabled":false,"rental_uris":{"android":"levelo://app?vid=46766a95-9f10-44a2-8e0f-20f1bef457ac","ios":"levelo://app?vid=46766a95-9f10-44a2-8e0f-20f1bef457ac"},"vehicle_type_id":"4","last_reported":1693462140,"current_range_meters":25200,"station_id":"ce4bgup2rcd13ifvqcn0","pricing_plan_id":"free"},{"bike_id":"ed03d3cf-0eea-4921-b2b1-c19822570300","system_id":"levelo_inurba_marseille","lat":43.304606,"lon":5.379026,"is_reserved":false,"is_disabled":false,"rental_uris":{"android":"levelo://app?vid=ed03d3cf-0eea-4921-b2b1-c19822570300","ios":"levelo://app?vid=ed03d3cf-0eea-4921-b2b1-c19822570300"},"vehicle_type_id":"4","last_reported":1693462140,"current_range_meters":28000,"station_id":"ce4bgup2rcd13ifvqcn0","pricing_plan_id":"free"},{"bike_id":"09f2ab5c-048a-49b0-a402-2213ede471f2","system_id":"levelo_inurba_marseille","lat":43.304606,"lon":5.379026,"is_reserved":false,"is_disabled":false,"rental_uris":{"android":"levelo://app?vid=09f2ab5c-048a-49b0-a402-2213ede471f2","ios":"levelo://app?vid=09f2ab5c-048a-49b0-a402-2213ede471f2"},"vehicle_type_id":"4","last_reported":1693462140,"current_range_meters":19600,"station_id":"ce4bgup2rcd13ifvqcn0","pricing_plan_id":"free"},{"bike_id":"f813ee60-1887-41f8-bfac-bee08cec010d","system_id":"levelo_inurba_marseille","lat":43.30455,"lon":5.37898,"is_reserved":false,"is_disabled":false,"rental_uris":{"android":"levelo://app?vid=f813ee60-1887-41f8-bfac-bee08cec010d","ios":"levelo://app?vid=f813ee60-1887-41f8-bfac-bee08cec010d"},"vehicle_type_id":"4","last_reported":1693462140,"current_range_meters":11200,"station_id":"ce4bgup2rcd13ifvqcn0","pricing_plan_id":"free"},{"bike_id":"3938591c-b5d4-4f32-9557-104de7efdcf4","system_id":"levelo_inurba_marseille","lat":43.30461,"lon":5.37907,"is_reserved":false,"is_disabled":false,"rental_uris":{"android":"levelo://app?vid=3938591c-b5d4-4f32-9557-104de7efdcf4","ios":"levelo://app?vid=3938591c-b5d4-4f32-9557-104de7efdcf4"},"vehicle_type_id":"4","last_reported":1693462140,"current_range_meters":10400,"station_id":"","pricing_plan_id":"free"},{"bike_id":"23b2dc78-4e9d-4a26-b51a-f0c590248f2a","system_id":"levelo_inurba_marseille","lat":43.304606,"lon":5.379026,"is_reserved":false,"is_disabled":false,"rental_uris":{"android":"levelo://app?vid=23b2dc78-4e9d-4a26-b51a-f0c590248f2a","ios":"levelo://app?vid=23b2dc78-4e9d-4a26-b51a-f0c590248f2a"},"vehicle_type_id":"4","last_reported":1693462140,"current_range_meters":29200,"station_id":"ce4bgup2rcd13ifvqcn0","pricing_plan_id":"free"},{"bike_id":"149007d0-c3b6-4186-8cf2-423ed143033d","system_id":"levelo_inurba_marseille","lat":43.304606,"lon":5.379026,"is_reserved":false,"is_disabled":false,"rental_uris":{"android":"levelo://app?vid=149007d0-c3b6-4186-8cf2-423ed143033d","ios":"levelo://app?vid=149007d0-c3b6-4186-8cf2-423ed143033d"},"vehicle_type_id":"4","last_reported":1693462140,"current_range_meters":11200,"station_id":"ce4bgup2rcd13ifvqcn0","pricing_plan_id":"free"},{"bike_id":"0a552594-33c3-4130-8227-2913f642f28d","system_id":"levelo_inurba_marseille","lat":43.304606,"lon":5.379026,"is_reserved":false,"is_disabled":false,"rental_uris":{"android":"levelo://app?vid=0a552594-33c3-4130-8227-2913f642f28d","ios":"levelo://app?vid=0a552594-33c3-4130-8227-2913f642f28d"},"vehicle_type_id":"4","last_reported":1693462140,"current_range_meters":28400,"station_id":"ce4bgup2rcd13ifvqcn0","pricing_plan_id":"free"},{"bike_id":"65243e57-97e6-4a4f-bef8-e0e3aedd5e7c","system_id":"levelo_inurba_marseille","lat":43.304606,"lon":5.379026,"is_reserved":false,"is_disabled":false,"rental_uris":{"android":"levelo://app?vid=65243e57-97e6-4a4f-bef8-e0e3aedd5e7c","ios":"levelo://app?vid=65243e57-97e6-4a4f-bef8-e0e3aedd5e7c"},"vehicle_type_id":"4","last_reported":1693462140,"current_range_meters":28800,"station_id":"ce4bgup2rcd13ifvqcn0","pricing_plan_id":"free"},{"bike_id":"33b04721-bb85-4d0d-bdba-62eea0f31fe5","system_id":"levelo_inurba_marseille","lat":43.304606,"lon":5.379026,"is_reserved":false,"is_disabled":false,"rental_uris":{"android":"levelo://app?vid=33b04721-bb85-4d0d-bdba-62eea0f31fe5","ios":"levelo://app?vid=33b04721-bb85-4d0d-bdba-62eea0f31fe5"},"vehicle_type_id":"4","last_reported":1693462140,"current_range_meters":26800,"station_id":"ce4bgup2rcd13ifvqcn0","pricing_plan_id":"free"},{"bike_id":"7b723bd3-8e28-4ca5-bb4f-171e92b1107e","system_id":"levelo_inurba_marseille","lat":43.304606,"lon":5.379026,"is_reserved":false,"is_disabled":false,"rental_uris":{"android":"levelo://app?vid=7b723bd3-8e28-4ca5-bb4f-171e92b1107e","ios":"levelo://app?vid=7b723bd3-8e28-4ca5-bb4f-171e92b1107e"},"vehicle_type_id":"4","last_reported":1693462140,"current_range_meters":23200,"station_id":"ce4bgup2rcd13ifvqcn0","pricing_plan_id":"free"},{"bike_id":"f996dfeb-3a74-44e2-b4f9-79525d8d054d","system_id":"levelo_inurba_marseille","lat":43.30461,"lon":5.3791,"is_reserved":false,"is_disabled":false,"rental_uris":{"android":"levelo://app?vid=f996dfeb-3a74-44e2-b4f9-79525d8d054d","ios":"levelo://app?vid=f996dfeb-3a74-44e2-b4f9-79525d8d054d"},"vehicle_type_id":"4","last_reported":1693462140,"current_range_meters":24400,"station_id":"ce4bgup2rcd13ifvqcn0","pricing_plan_id":"free"},{"bike_id":"b9abfce9-6651-4ea5-9e4f-7f26b5051ce2","system_id":"levelo_inurba_marseille","lat":43.304606,"lon":5.379026,"is_reserved":false,"is_disabled":false,"rental_uris":{"android":"levelo://app?vid=b9abfce9-6651-4ea5-9e4f-7f26b5051ce2","ios":"levelo://app?vid=b9abfce9-6651-4ea5-9e4f-7f26b5051ce2"},"vehicle_type_id":"4","last_reported":1693462140,"current_range_meters":32000,"station_id":"ce4bgup2rcd13ifvqcn0","pricing_plan_id":"free"},{"bike_id":"b6e80a70-1a77-4fb6-8043-0ca60f5bc300","system_id":"levelo_inurba_marseille","lat":43.304606,"lon":5.379026,"is_reserved":false,"is_disabled":false,"rental_uris":{"android":"levelo://app?vid=b6e80a70-1a77-4fb6-8043-0ca60f5bc300","ios":"levelo://app?vid=b6e80a70-1a77-4fb6-8043-0ca60f5bc300"},"vehicle_type_id":"4","last_reported":1693462140,"current_range_meters":30000,"station_id":"ce4bgup2rcd13ifvqcn0","pricing_plan_id":"free"},{"bike_id":"18441ed1-45cf-4312-a1d2-afdba2bc25d1","system_id":"levelo_inurba_marseille","lat":43.304606,"lon":5.379026,"is_reserved":false,"is_disabled":false,"rental_uris":{"android":"levelo://app?vid=18441ed1-45cf-4312-a1d2-afdba2bc25d1","ios":"levelo://app?vid=18441ed1-45cf-4312-a1d2-afdba2bc25d1"},"vehicle_type_id":"4","last_reported":1693462140,"current_range_meters":12000,"station_id":"ce4bgup2rcd13ifvqcn0","pricing_plan_id":"free"},{"bike_id":"d075457e-db0d-416a-ae73-ce775dc03b56","system_id":"levelo_inurba_marseille","lat":43.304606,"lon":5.379026,"is_reserved":false,"is_disabled":false,"rental_uris":{"android":"levelo://app?vid=d075457e-db0d-416a-ae73-ce775dc03b56","ios":"levelo://app?vid=d075457e-db0d-416a-ae73-ce775dc03b56"},"vehicle_type_id":"4","last_reported":1693462140,"current_range_meters":1200,"station_id":"ce4bgup2rcd13ifvqcn0","pricing_plan_id":"free"},{"bike_id":"654b0a77-ce2d-4616-9a30-72891d65f2df","system_id":"levelo_inurba_marseille","lat":43.304606,"lon":5.379026,"is_reserved":false,"is_disabled":false,"rental_uris":{"android":"levelo://app?vid=654b0a77-ce2d-4616-9a30-72891d65f2df","ios":"levelo://app?vid=654b0a77-ce2d-4616-9a30-72891d65f2df"},"vehicle_type_id":"4","last_reported":1693462140,"current_range_meters":24000,"station_id":"ce4bgup2rcd13ifvqcn0","pricing_plan_id":"free"},{"bike_id":"11dd5800-c8b1-4aaa-b7f5-d2f7b17291e6","system_id":"levelo_inurba_marseille","lat":43.30271,"lon":5.37699,"is_reserved":false,"is_disabled":false,"rental_uris":{"android":"levelo://app?vid=11dd5800-c8b1-4aaa-b7f5-d2f7b17291e6","ios":"levelo://app?vid=11dd5800-c8b1-4aaa-b7f5-d2f7b17291e6"},"vehicle_type_id":"4","last_reported":1693462140,"current_range_meters":24000,"station_id":"ce4bguh2rcd13ifvqcj0","pricing_plan_id":"free"},{"bike_id":"5bb9f7b1-fecb-4227-8f60-56cc922f709e","system_id":"levelo_inurba_marseille","lat":43.302784,"lon":5.377158,"is_reserved":false,"is_disabled":false,"rental_uris":{"android":"levelo://app?vid=5bb9f7b1-fecb-4227-8f60-56cc922f709e","ios":"levelo://app?vid=5bb9f7b1-fecb-4227-8f60-56cc922f709e"},"vehicle_type_id":"4","last_reported":1693462140,"current_range_meters":29200,"station_id":"ce4bguh2rcd13ifvqcj0","pricing_plan_id":"free"},{"bike_id":"6be8fb4d-b19a-4c2a-a244-a2cad1c5c00b","system_id":"levelo_inurba_marseille","lat":43.30136,"lon":5.37412,"is_reserved":false,"is_disabled":false,"rental_uris":{"android":"levelo://app?vid=6be8fb4d-b19a-4c2a-a244-a2cad1c5c00b","ios":"levelo://app?vid=6be8fb4d-b19a-4c2a-a244-a2cad1c5c00b"},"vehicle_type_id":"4","last_reported":1693462140,"current_range_meters":21600,"station_id":"ce4bgs92rcd13ifvqcc0","pricing_plan_id":"free"},{"bike_id":"ecb1ea6c-7edd-46e8-b2b9-49af481e2b5e","system_id":"levelo_inurba_marseille","lat":43.319935,"lon":5.381699,"is_reserved":false,"is_disabled":false,"rental_uris":{"android":"levelo://app?vid=ecb1ea6c-7edd-46e8-b2b9-49af481e2b5e","ios":"levelo://app?vid=ecb1ea6c-7edd-46e8-b2b9-49af481e2b5e"},"vehicle_type_id":"4","last_reported":1693462140,"current_range_meters":30400,"station_id":"ce4bhr12rcd13ifvqhpg","pricing_plan_id":"free"},{"bike_id":"22519218-cc64-45e2-b597-6efa7f14ac9a","system_id":"levelo_inurba_marseille","lat":43.319935,"lon":5.381699,"is_reserved":false,"is_disabled":false,"rental_uris":{"android":"levelo://app?vid=22519218-cc64-45e2-b597-6efa7f14ac9a","ios":"levelo://app?vid=22519218-cc64-45e2-b597-6efa7f14ac9a"},"vehicle_type_id":"4","last_reported":1693462140,"current_range_meters":27600,"station_id":"ce4bhr12rcd13ifvqhpg","pricing_plan_id":"free"},{"bike_id":"6557e7fb-c380-4ef8-a33a-46791e4bf8c3","system_id":"levelo_inurba_marseille","lat":43.31999,"lon":5.38147,"is_reserved":false,"is_disabled":false,"rental_uris":{"android":"levelo://app?vid=6557e7fb-c380-4ef8-a33a-46791e4bf8c3","ios":"levelo://app?vid=6557e7fb-c380-4ef8-a33a-46791e4bf8c3"},"vehicle_type_id":"4","last_reported":1693462140,"current_range_meters":29200,"station_id":"ce4bhr12rcd13ifvqhpg","pricing_plan_id":"free"},{"bike_id":"e3dee695-866c-4302-b498-86d652ea8b5d","system_id":"levelo_inurba_marseille","lat":43.31999,"lon":5.38161,"is_reserved":false,"is_disabled":false,"rental_uris":{"android":"levelo://app?vid=e3dee695-866c-4302-b498-86d652ea8b5d","ios":"levelo://app?vid=e3dee695-866c-4302-b498-86d652ea8b5d"},"vehicle_type_id":"4","last_reported":1693462140,"current_range_meters":4800,"station_id":"ce4bhr12rcd13ifvqhpg","pricing_plan_id":"free"},{"bike_id":"5c4083c4-5a47-4792-af9a-ff64a2c4e4c5","system_id":"levelo_inurba_marseille","lat":43.31372,"lon":5.38513,"is_reserved":false,"is_disabled":false,"rental_uris":{"android":"levelo://app?vid=5c4083c4-5a47-4792-af9a-ff64a2c4e4c5","ios":"levelo://app?vid=5c4083c4-5a47-4792-af9a-ff64a2c4e4c5"},"vehicle_type_id":"4","last_reported":1693462140,"current_range_meters":400,"station_id":"ce4bgt92rcd13ifvqcf0","pricing_plan_id":"free"},{"bike_id":"2ca36f48-df6a-4285-b096-ffe55444391b","system_id":"levelo_inurba_marseille","lat":43.29931,"lon":5.36551,"is_reserved":false,"is_disabled":false,"rental_uris":{"android":"levelo://app?vid=2ca36f48-df6a-4285-b096-ffe55444391b","ios":"levelo://app?vid=2ca36f48-df6a-4285-b096-ffe55444391b"},"vehicle_type_id":"4","last_reported":1693462140,"current_range_meters":16800,"station_id":"ce4bgm92rcd13ifvqbr0","pricing_plan_id":"free"},{"bike_id":"f720a373-6ca4-4583-85c8-3a1e16bb8838","system_id":"levelo_inurba_marseille","lat":43.29926,"lon":5.36555,"is_reserved":false,"is_disabled":false,"rental_uris":{"android":"levelo://app?vid=f720a373-6ca4-4583-85c8-3a1e16bb8838","ios":"levelo://app?vid=f720a373-6ca4-4583-85c8-3a1e16bb8838"},"vehicle_type_id":"4","last_reported":1693462140,"current_range_meters":27600,"station_id":"ce4bgm92rcd13ifvqbr0","pricing_plan_id":"free"},{"bike_id":"8b923b24-d79d-4a19-93b9-8d265334229f","system_id":"levelo_inurba_marseille","lat":43.305394,"lon":5.384143,"is_reserved":false,"is_disabled":false,"rental_uris":{"android":"levelo://app?vid=8b923b24-d79d-4a19-93b9-8d265334229f","ios":"levelo://app?vid=8b923b24-d79d-4a19-93b9-8d265334229f"},"vehicle_type_id":"4","last_reported":1693462140,"current_range_meters":10800,"station_id":"ce4bgg92rcd13ifvqb30","pricing_plan_id":"free"},{"bike_id":"13447c9d-9d4e-497c-b21c-a829ed775139","system_id":"levelo_inurba_marseille","lat":43.298433,"lon":5.362774,"is_reserved":false,"is_disabled":false,"rental_uris":{"android":"levelo://app?vid=13447c9d-9d4e-497c-b21c-a829ed775139","ios":"levelo://app?vid=13447c9d-9d4e-497c-b21c-a829ed775139"},"vehicle_type_id":"4","last_reported":1693462140,"current_range_meters":31200,"station_id":"ce4bgpp2rcd13ifvqc3g","pricing_plan_id":"free"},{"bike_id":"0c6ea8d4-2fa2-49f6-bba8-269f64ef3130","system_id":"levelo_inurba_marseille","lat":43.298433,"lon":5.362774,"is_reserved":false,"is_disabled":false,"rental_uris":{"android":"levelo://app?vid=0c6ea8d4-2fa2-49f6-bba8-269f64ef3130","ios":"levelo://app?vid=0c6ea8d4-2fa2-49f6-bba8-269f64ef3130"},"vehicle_type_id":"4","last_reported":1693462140,"current_range_meters":31200,"station_id":"ce4bgpp2rcd13ifvqc3g","pricing_plan_id":"free"},{"bike_id":"2cd1a27a-aa13-450d-b572-4ef48defd601","system_id":"levelo_inurba_marseille","lat":43.305364,"lon":5.384119,"is_reserved":false,"is_disabled":false,"rental_uris":{"android":"levelo://app?vid=2cd1a27a-aa13-450d-b572-4ef48defd601","ios":"levelo://app?vid=2cd1a27a-aa13-450d-b572-4ef48defd601"},"vehicle_type_id":"4","last_reported":1693462140,"current_range_meters":21600,"station_id":"ce4bgg92rcd13ifvqb30","pricing_plan_id":"free"},{"bike_id":"ce8d40f0-006d-40dc-85c7-1e4a752c46b2","system_id":"levelo_inurba_marseille","lat":43.305372,"lon":5.384199,"is_reserved":false,"is_disabled":false,"rental_uris":{"android":"levelo://app?vid=ce8d40f0-006d-40dc-85c7-1e4a752c46b2","ios":"levelo://app?vid=ce8d40f0-006d-40dc-85c7-1e4a752c46b2"},"vehicle_type_id":"4","last_reported":1693462140,"current_range_meters":15600,"station_id":"ce4bgg92rcd13ifvqb30","pricing_plan_id":"free"},{"bike_id":"6574a592-dccb-41f6-8228-6c48b4cacb59","system_id":"levelo_inurba_marseille","lat":43.30543,"lon":5.384267,"is_reserved":false,"is_disabled":false,"rental_uris":{"android":"levelo://app?vid=6574a592-dccb-41f6-8228-6c48b4cacb59","ios":"levelo://app?vid=6574a592-dccb-41f6-8228-6c48b4cacb59"},"vehicle_type_id":"4","last_reported":1693462140,"current_range_meters":20000,"station_id":"ce4bgg92rcd13ifvqb30","pricing_plan_id":"free"},{"bike_id":"fd41350f-96b3-47b5-ba66-def6620718f4","system_id":"levelo_inurba_marseille","lat":43.305412,"lon":5.384286,"is_reserved":false,"is_disabled":false,"rental_uris":{"android":"levelo://app?vid=fd41350f-96b3-47b5-ba66-def6620718f4","ios":"levelo://app?vid=fd41350f-96b3-47b5-ba66-def6620718f4"},"vehicle_type_id":"4","last_reported":1693462140,"current_range_meters":400,"station_id":"ce4bgg92rcd13ifvqb30","pricing_plan_id":"free"},{"bike_id":"c544835e-22bf-4891-b4ec-334144235fa4","system_id":"levelo_inurba_marseille","lat":43.311722,"lon":5.387247,"is_reserved":false,"is_disabled":false,"rental_uris":{"android":"levelo://app?vid=c544835e-22bf-4891-b4ec-334144235fa4","ios":"levelo://app?vid=c544835e-22bf-4891-b4ec-334144235fa4"},"vehicle_type_id":"4","last_reported":1693462140,"current_range_meters":30000,"station_id":"ce4bgv12rcd13ifvqcp0","pricing_plan_id":"free"},{"bike_id":"2f9e2def-2173-4eb4-a460-9a385f59debe","system_id":"levelo_inurba_marseille","lat":43.299243,"lon":5.37481,"is_reserved":false,"is_disabled":false,"rental_uris":{"android":"levelo://app?vid=2f9e2def-2173-4eb4-a460-9a385f59debe","ios":"levelo://app?vid=2f9e2def-2173-4eb4-a460-9a385f59debe"},"vehicle_type_id":"4","last_reported":1693462140,"current_range_meters":31200,"station_id":"ce4bgjh2rcd13ifvqbg0","pricing_plan_id":"free"},{"bike_id":"35eb29b5-d337-4901-88c6-6df248b392f1","system_id":"levelo_inurba_marseille","lat":43.311722,"lon":5.387247,"is_reserved":false,"is_disabled":false,"rental_uris":{"android":"levelo://app?vid=35eb29b5-d337-4901-88c6-6df248b392f1","ios":"levelo://app?vid=35eb29b5-d337-4901-88c6-6df248b392f1"},"vehicle_type_id":"4","last_reported":1693462140,"current_range_meters":30000,"station_id":"ce4bgv12rcd13ifvqcp0","pricing_plan_id":"free"},{"bike_id":"5e0b65a3-4830-4efe-8df2-f90e6871cc74","system_id":"levelo_inurba_marseille","lat":43.311722,"lon":5.387247,"is_reserved":false,"is_disabled":false,"rental_uris":{"android":"levelo://app?vid=5e0b65a3-4830-4efe-8df2-f90e6871cc74","ios":"levelo://app?vid=5e0b65a3-4830-4efe-8df2-f90e6871cc74"},"vehicle_type_id":"4","last_reported":1693462140,"current_range_meters":31600,"station_id":"ce4bgv12rcd13ifvqcp0","pricing_plan_id":"free"},{"bike_id":"14f1fcb7-fe5e-4097-b8e1-07b7e0fe1fdc","system_id":"levelo_inurba_marseille","lat":43.297774,"lon":5.370875,"is_reserved":false,"is_disabled":false,"rental_uris":{"android":"levelo://app?vid=14f1fcb7-fe5e-4097-b8e1-07b7e0fe1fdc","ios":"levelo://app?vid=14f1fcb7-fe5e-4097-b8e1-07b7e0fe1fdc"},"vehicle_type_id":"4","last_reported":1693462140,"current_range_meters":31600,"station_id":"ce4bgop2rcd13ifvqc1g","pricing_plan_id":"free"},{"bike_id":"924d6452-f7f7-4baa-af9a-49926af70474","system_id":"levelo_inurba_marseille","lat":43.297774,"lon":5.370875,"is_reserved":false,"is_disabled":false,"rental_uris":{"android":"levelo://app?vid=924d6452-f7f7-4baa-af9a-49926af70474","ios":"levelo://app?vid=924d6452-f7f7-4baa-af9a-49926af70474"},"vehicle_type_id":"4","last_reported":1693462140,"current_range_meters":29200,"station_id":"ce4bgop2rcd13ifvqc1g","pricing_plan_id":"free"},{"bike_id":"8143ebd5-c5c5-467f-a353-1c0066f90341","system_id":"levelo_inurba_marseille","lat":43.297774,"lon":5.370875,"is_reserved":false,"is_disabled":false,"rental_uris":{"android":"levelo://app?vid=8143ebd5-c5c5-467f-a353-1c0066f90341","ios":"levelo://app?vid=8143ebd5-c5c5-467f-a353-1c0066f90341"},"vehicle_type_id":"4","last_reported":1693462140,"current_range_meters":31600,"station_id":"ce4bgop2rcd13ifvqc1g","pricing_plan_id":"free"},{"bike_id":"23cd11c4-e68a-4a38-86cb-897216ee74f6","system_id":"levelo_inurba_marseille","lat":43.32281,"lon":5.38275,"is_reserved":false,"is_disabled":false,"rental_uris":{"android":"levelo://app?vid=23cd11c4-e68a-4a38-86cb-897216ee74f6","ios":"levelo://app?vid=23cd11c4-e68a-4a38-86cb-897216ee74f6"},"vehicle_type_id":"4","last_reported":1693462140,"current_range_meters":0,"station_id":"ce4bhr12rcd13ifvqhqg","pricing_plan_id":"free"},{"bike_id":"ee5fb558-bde4-4922-bb25-19dc705955e4","system_id":"levelo_inurba_marseille","lat":43.32291,"lon":5.38279,"is_reserved":false,"is_disabled":false,"rental_uris":{"android":"levelo://app?vid=ee5fb558-bde4-4922-bb25-19dc705955e4","ios":"levelo://app?vid=ee5fb558-bde4-4922-bb25-19dc705955e4"},"vehicle_type_id":"4","last_reported":1693462140,"current_range_meters":7600,"station_id":"ce4bhr12rcd13ifvqhqg","pricing_plan_id":"free"},{"bike_id":"563bcbaa-cfe7-4e1b-b6f1-143e0704bbdb","system_id":"levelo_inurba_marseille","lat":43.32825,"lon":5.36684,"is_reserved":false,"is_disabled":false,"rental_uris":{"android":"levelo://app?vid=563bcbaa-cfe7-4e1b-b6f1-143e0704bbdb","ios":"levelo://app?vid=563bcbaa-cfe7-4e1b-b6f1-143e0704bbdb"},"vehicle_type_id":"4","last_reported":1693462140,"current_range_meters":26800,"station_id":"ce4bhs92rcd13ifvqi0g","pricing_plan_id":"free"},{"bike_id":"93982bf3-f447-4422-af45-2e902a0f3231","system_id":"levelo_inurba_marseille","lat":43.32825,"lon":5.36682,"is_reserved":false,"is_disabled":false,"rental_uris":{"android":"levelo://app?vid=93982bf3-f447-4422-af45-2e902a0f3231","ios":"levelo://app?vid=93982bf3-f447-4422-af45-2e902a0f3231"},"vehicle_type_id":"4","last_reported":1693462140,"current_range_meters":3600,"station_id":"ce4bhs92rcd13ifvqi0g","pricing_plan_id":"free"},{"bike_id":"a639971c-aba3-45af-9f9c-673e19e2bf25","system_id":"levelo_inurba_marseille","lat":43.32825,"lon":5.36681,"is_reserved":false,"is_disabled":false,"rental_uris":{"android":"levelo://app?vid=a639971c-aba3-45af-9f9c-673e19e2bf25","ios":"levelo://app?vid=a639971c-aba3-45af-9f9c-673e19e2bf25"},"vehicle_type_id":"4","last_reported":1693462140,"current_range_meters":24000,"station_id":"ce4bhs92rcd13ifvqi0g","pricing_plan_id":"free"},{"bike_id":"1c783fb8-ba9c-45f5-abd5-a36b1f6db2a2","system_id":"levelo_inurba_marseille","lat":43.328371,"lon":5.366909,"is_reserved":false,"is_disabled":false,"rental_uris":{"android":"levelo://app?vid=1c783fb8-ba9c-45f5-abd5-a36b1f6db2a2","ios":"levelo://app?vid=1c783fb8-ba9c-45f5-abd5-a36b1f6db2a2"},"vehicle_type_id":"4","last_reported":1693462140,"current_range_meters":25200,"station_id":"ce4bhs92rcd13ifvqi0g","pricing_plan_id":"free"},{"bike_id":"31b6a3c0-0240-44a0-b884-d8305caf4c60","system_id":"levelo_inurba_marseille","lat":43.32826,"lon":5.36677,"is_reserved":false,"is_disabled":false,"rental_uris":{"android":"levelo://app?vid=31b6a3c0-0240-44a0-b884-d8305caf4c60","ios":"levelo://app?vid=31b6a3c0-0240-44a0-b884-d8305caf4c60"},"vehicle_type_id":"4","last_reported":1693462140,"current_range_meters":12800,"station_id":"ce4bhs92rcd13ifvqi0g","pricing_plan_id":"free"},{"bike_id":"ea59a1ea-9fda-40ba-a931-81c283c5484f","system_id":"levelo_inurba_marseille","lat":43.32827,"lon":5.3669,"is_reserved":false,"is_disabled":false,"rental_uris":{"android":"levelo://app?vid=ea59a1ea-9fda-40ba-a931-81c283c5484f","ios":"levelo://app?vid=ea59a1ea-9fda-40ba-a931-81c283c5484f"},"vehicle_type_id":"4","last_reported":1693462140,"current_range_meters":18400,"station_id":"ce4bhs92rcd13ifvqi0g","pricing_plan_id":"free"},{"bike_id":"cdb9ac04-3ea0-4603-a85b-f974b484946e","system_id":"levelo_inurba_marseille","lat":43.328371,"lon":5.366909,"is_reserved":false,"is_disabled":false,"rental_uris":{"android":"levelo://app?vid=cdb9ac04-3ea0-4603-a85b-f974b484946e","ios":"levelo://app?vid=cdb9ac04-3ea0-4603-a85b-f974b484946e"},"vehicle_type_id":"4","last_reported":1693462140,"current_range_meters":27600,"station_id":"ce4bhs92rcd13ifvqi0g","pricing_plan_id":"free"},{"bike_id":"1ffdafda-87d9-4192-8efd-9f91de1be78b","system_id":"levelo_inurba_marseille","lat":43.328371,"lon":5.366909,"is_reserved":false,"is_disabled":false,"rental_uris":{"android":"levelo://app?vid=1ffdafda-87d9-4192-8efd-9f91de1be78b","ios":"levelo://app?vid=1ffdafda-87d9-4192-8efd-9f91de1be78b"},"vehicle_type_id":"4","last_reported":1693462140,"current_range_meters":10000,"station_id":"ce4bhs92rcd13ifvqi0g","pricing_plan_id":"free"},{"bike_id":"57beee59-17db-47bb-a09e-f9f6aeb1d9c4","system_id":"levelo_inurba_marseille","lat":43.328371,"lon":5.366909,"is_reserved":false,"is_disabled":false,"rental_uris":{"android":"levelo://app?vid=57beee59-17db-47bb-a09e-f9f6aeb1d9c4","ios":"levelo://app?vid=57beee59-17db-47bb-a09e-f9f6aeb1d9c4"},"vehicle_type_id":"4","last_reported":1693462140,"current_range_meters":11600,"station_id":"ce4bhs92rcd13ifvqi0g","pricing_plan_id":"free"},{"bike_id":"dd789220-e7b5-42c1-b9dc-dc4243148021","system_id":"levelo_inurba_marseille","lat":43.297163,"lon":5.365866,"is_reserved":false,"is_disabled":false,"rental_uris":{"android":"levelo://app?vid=dd789220-e7b5-42c1-b9dc-dc4243148021","ios":"levelo://app?vid=dd789220-e7b5-42c1-b9dc-dc4243148021"},"vehicle_type_id":"4","last_reported":1693462140,"current_range_meters":31200,"station_id":"ce4bgn12rcd13ifvqbt0","pricing_plan_id":"free"},{"bike_id":"bd0bd295-6ecc-40c4-a4d0-89f645593756","system_id":"levelo_inurba_marseille","lat":43.297163,"lon":5.365866,"is_reserved":false,"is_disabled":false,"rental_uris":{"android":"levelo://app?vid=bd0bd295-6ecc-40c4-a4d0-89f645593756","ios":"levelo://app?vid=bd0bd295-6ecc-40c4-a4d0-89f645593756"},"vehicle_type_id":"4","last_reported":1693462140,"current_range_meters":20000,"station_id":"ce4bgn12rcd13ifvqbt0","pricing_plan_id":"free"},{"bike_id":"2d38d843-9501-4a8b-8d1e-e53e054245cc","system_id":"levelo_inurba_marseille","lat":43.32164,"lon":5.38573,"is_reserved":false,"is_disabled":false,"rental_uris":{"android":"levelo://app?vid=2d38d843-9501-4a8b-8d1e-e53e054245cc","ios":"levelo://app?vid=2d38d843-9501-4a8b-8d1e-e53e054245cc"},"vehicle_type_id":"4","last_reported":1693462140,"current_range_meters":30800,"station_id":"","pricing_plan_id":"free"},{"bike_id":"36b63211-188a-44c9-a94b-0221f0ec53e9","system_id":"levelo_inurba_marseille","lat":43.30051,"lon":5.38198,"is_reserved":false,"is_disabled":false,"rental_uris":{"android":"levelo://app?vid=36b63211-188a-44c9-a94b-0221f0ec53e9","ios":"levelo://app?vid=36b63211-188a-44c9-a94b-0221f0ec53e9"},"vehicle_type_id":"4","last_reported":1693462140,"current_range_meters":9200,"station_id":"","pricing_plan_id":"free"},{"bike_id":"a604badb-8b56-4110-95be-e8e06851d658","system_id":"levelo_inurba_marseille","lat":43.2968,"lon":5.37291,"is_reserved":false,"is_disabled":false,"rental_uris":{"android":"levelo://app?vid=a604badb-8b56-4110-95be-e8e06851d658","ios":"levelo://app?vid=a604badb-8b56-4110-95be-e8e06851d658"},"vehicle_type_id":"4","last_reported":1693462140,"current_range_meters":30800,"station_id":"ce4bgk12rcd13ifvqbj0","pricing_plan_id":"free"},{"bike_id":"10d32cd1-8307-45ca-ad3e-2653e5514234","system_id":"levelo_inurba_marseille","lat":43.2964,"lon":5.37123,"is_reserved":false,"is_disabled":false,"rental_uris":{"android":"levelo://app?vid=10d32cd1-8307-45ca-ad3e-2653e5514234","ios":"levelo://app?vid=10d32cd1-8307-45ca-ad3e-2653e5514234"},"vehicle_type_id":"4","last_reported":1693462140,"current_range_meters":0,"station_id":"","pricing_plan_id":"free"},{"bike_id":"65d934c8-ea94-404c-b991-a012f59c0b64","system_id":"levelo_inurba_marseille","lat":43.296129,"lon":5.370777,"is_reserved":false,"is_disabled":false,"rental_uris":{"android":"levelo://app?vid=65d934c8-ea94-404c-b991-a012f59c0b64","ios":"levelo://app?vid=65d934c8-ea94-404c-b991-a012f59c0b64"},"vehicle_type_id":"4","last_reported":1693462140,"current_range_meters":24800,"station_id":"ce4bgnh2rcd13ifvqc0g","pricing_plan_id":"free"},{"bike_id":"d3139180-8ba9-4c91-b6e4-8baae3c22113","system_id":"levelo_inurba_marseille","lat":43.296131,"lon":5.370773,"is_reserved":false,"is_disabled":false,"rental_uris":{"android":"levelo://app?vid=d3139180-8ba9-4c91-b6e4-8baae3c22113","ios":"levelo://app?vid=d3139180-8ba9-4c91-b6e4-8baae3c22113"},"vehicle_type_id":"4","last_reported":1693462140,"current_range_meters":30000,"station_id":"ce4bgnh2rcd13ifvqc0g","pricing_plan_id":"free"},{"bike_id":"b20c4bf2-948f-4cfe-80b2-6ba26939a0ef","system_id":"levelo_inurba_marseille","lat":43.29573,"lon":5.367355,"is_reserved":false,"is_disabled":false,"rental_uris":{"android":"levelo://app?vid=b20c4bf2-948f-4cfe-80b2-6ba26939a0ef","ios":"levelo://app?vid=b20c4bf2-948f-4cfe-80b2-6ba26939a0ef"},"vehicle_type_id":"4","last_reported":1693462140,"current_range_meters":19600,"station_id":"ce4bgph2rcd13ifvqc2g","pricing_plan_id":"free"},{"bike_id":"88031c78-ba8e-4719-a3fe-ac16107922b5","system_id":"levelo_inurba_marseille","lat":43.29573,"lon":5.367355,"is_reserved":false,"is_disabled":false,"rental_uris":{"android":"levelo://app?vid=88031c78-ba8e-4719-a3fe-ac16107922b5","ios":"levelo://app?vid=88031c78-ba8e-4719-a3fe-ac16107922b5"},"vehicle_type_id":"4","last_reported":1693462140,"current_range_meters":24800,"station_id":"ce4bgph2rcd13ifvqc2g","pricing_plan_id":"free"},{"bike_id":"49ccf608-00ce-404d-b595-5435b2d6db14","system_id":"levelo_inurba_marseille","lat":43.299028,"lon":5.381509,"is_reserved":false,"is_disabled":false,"rental_uris":{"android":"levelo://app?vid=49ccf608-00ce-404d-b595-5435b2d6db14","ios":"levelo://app?vid=49ccf608-00ce-404d-b595-5435b2d6db14"},"vehicle_type_id":"4","last_reported":1693462140,"current_range_meters":16000,"station_id":"ce4bgj12rcd13ifvqbc0","pricing_plan_id":"free"},{"bike_id":"00a609fe-c3bf-4ccb-a39f-2768cdbc3b9f","system_id":"levelo_inurba_marseille","lat":43.299028,"lon":5.381509,"is_reserved":false,"is_disabled":false,"rental_uris":{"android":"levelo://app?vid=00a609fe-c3bf-4ccb-a39f-2768cdbc3b9f","ios":"levelo://app?vid=00a609fe-c3bf-4ccb-a39f-2768cdbc3b9f"},"vehicle_type_id":"4","last_reported":1693462140,"current_range_meters":30400,"station_id":"ce4bgj12rcd13ifvqbc0","pricing_plan_id":"free"},{"bike_id":"6f973d56-f76e-4281-a588-715d3648892b","system_id":"levelo_inurba_marseille","lat":43.309589,"lon":5.390258,"is_reserved":false,"is_disabled":false,"rental_uris":{"android":"levelo://app?vid=6f973d56-f76e-4281-a588-715d3648892b","ios":"levelo://app?vid=6f973d56-f76e-4281-a588-715d3648892b"},"vehicle_type_id":"4","last_reported":1693462140,"current_range_meters":28800,"station_id":"ce4bgup2rcd13ifvqco0","pricing_plan_id":"free"},{"bike_id":"28c8bcb7-e5df-4109-bee8-d17da82e48c6","system_id":"levelo_inurba_marseille","lat":43.309589,"lon":5.390258,"is_reserved":false,"is_disabled":false,"rental_uris":{"android":"levelo://app?vid=28c8bcb7-e5df-4109-bee8-d17da82e48c6","ios":"levelo://app?vid=28c8bcb7-e5df-4109-bee8-d17da82e48c6"},"vehicle_type_id":"4","last_reported":1693462140,"current_range_meters":28400,"station_id":"ce4bgup2rcd13ifvqco0","pricing_plan_id":"free"},{"bike_id":"f032ee11-c3c1-485b-be6c-df00c9e42f8c","system_id":"levelo_inurba_marseille","lat":43.30955,"lon":5.39031,"is_reserved":false,"is_disabled":false,"rental_uris":{"android":"levelo://app?vid=f032ee11-c3c1-485b-be6c-df00c9e42f8c","ios":"levelo://app?vid=f032ee11-c3c1-485b-be6c-df00c9e42f8c"},"vehicle_type_id":"4","last_reported":1693462140,"current_range_meters":26800,"station_id":"ce4bgup2rcd13ifvqco0","pricing_plan_id":"free"},{"bike_id":"ee074450-e872-4372-bbe6-a4b17e18ff87","system_id":"levelo_inurba_marseille","lat":43.30947,"lon":5.39029,"is_reserved":false,"is_disabled":false,"rental_uris":{"android":"levelo://app?vid=ee074450-e872-4372-bbe6-a4b17e18ff87","ios":"levelo://app?vid=ee074450-e872-4372-bbe6-a4b17e18ff87"},"vehicle_type_id":"4","last_reported":1693462140,"current_range_meters":24400,"station_id":"ce4bgup2rcd13ifvqco0","pricing_plan_id":"free"},{"bike_id":"4639bf9d-9451-46e4-bc55-6b06ea6a05a5","system_id":"levelo_inurba_marseille","lat":43.309589,"lon":5.390258,"is_reserved":false,"is_disabled":false,"rental_uris":{"android":"levelo://app?vid=4639bf9d-9451-46e4-bc55-6b06ea6a05a5","ios":"levelo://app?vid=4639bf9d-9451-46e4-bc55-6b06ea6a05a5"},"vehicle_type_id":"4","last_reported":1693462140,"current_range_meters":31200,"station_id":"ce4bgup2rcd13ifvqco0","pricing_plan_id":"free"},{"bike_id":"30d4dc9a-3fea-4ac4-b483-476b0781f085","system_id":"levelo_inurba_marseille","lat":43.309589,"lon":5.390258,"is_reserved":false,"is_disabled":false,"rental_uris":{"android":"levelo://app?vid=30d4dc9a-3fea-4ac4-b483-476b0781f085","ios":"levelo://app?vid=30d4dc9a-3fea-4ac4-b483-476b0781f085"},"vehicle_type_id":"4","last_reported":1693462140,"current_range_meters":31200,"station_id":"ce4bgup2rcd13ifvqco0","pricing_plan_id":"free"},{"bike_id":"169b69e8-27ac-404f-b07e-c39675ac7365","system_id":"levelo_inurba_marseille","lat":43.309589,"lon":5.390258,"is_reserved":false,"is_disabled":false,"rental_uris":{"android":"levelo://app?vid=169b69e8-27ac-404f-b07e-c39675ac7365","ios":"levelo://app?vid=169b69e8-27ac-404f-b07e-c39675ac7365"},"vehicle_type_id":"4","last_reported":1693462140,"current_range_meters":31200,"station_id":"ce4bgup2rcd13ifvqco0","pricing_plan_id":"free"},{"bike_id":"1f875fae-297a-412a-a540-58e69c5e0207","system_id":"levelo_inurba_marseille","lat":43.30949,"lon":5.39038,"is_reserved":false,"is_disabled":false,"rental_uris":{"android":"levelo://app?vid=1f875fae-297a-412a-a540-58e69c5e0207","ios":"levelo://app?vid=1f875fae-297a-412a-a540-58e69c5e0207"},"vehicle_type_id":"4","last_reported":1693462140,"current_range_meters":31200,"station_id":"ce4bgup2rcd13ifvqco0","pricing_plan_id":"free"},{"bike_id":"85837906-1594-42b0-a0b8-547532aa3cb3","system_id":"levelo_inurba_marseille","lat":43.309589,"lon":5.390258,"is_reserved":false,"is_disabled":false,"rental_uris":{"android":"levelo://app?vid=85837906-1594-42b0-a0b8-547532aa3cb3","ios":"levelo://app?vid=85837906-1594-42b0-a0b8-547532aa3cb3"},"vehicle_type_id":"4","last_reported":1693462140,"current_range_meters":29600,"station_id":"ce4bgup2rcd13ifvqco0","pricing_plan_id":"free"},{"bike_id":"2c93ce6f-c5e1-4ec9-9941-ebb7469bb8f2","system_id":"levelo_inurba_marseille","lat":43.31763,"lon":5.39005,"is_reserved":false,"is_disabled":false,"rental_uris":{"android":"levelo://app?vid=2c93ce6f-c5e1-4ec9-9941-ebb7469bb8f2","ios":"levelo://app?vid=2c93ce6f-c5e1-4ec9-9941-ebb7469bb8f2"},"vehicle_type_id":"4","last_reported":1693462140,"current_range_meters":24800,"station_id":"ce4bhqp2rcd13ifvqhng","pricing_plan_id":"free"},{"bike_id":"c52b5dfe-c4ee-41c6-93c7-13b1bfae41f0","system_id":"levelo_inurba_marseille","lat":43.317557,"lon":5.390173,"is_reserved":false,"is_disabled":false,"rental_uris":{"android":"levelo://app?vid=c52b5dfe-c4ee-41c6-93c7-13b1bfae41f0","ios":"levelo://app?vid=c52b5dfe-c4ee-41c6-93c7-13b1bfae41f0"},"vehicle_type_id":"4","last_reported":1693462140,"current_range_meters":12800,"station_id":"ce4bhqp2rcd13ifvqhng","pricing_plan_id":"free"},{"bike_id":"86d37462-6f2c-4ee1-b5e1-16f3e9285866","system_id":"levelo_inurba_marseille","lat":43.31755,"lon":5.39023,"is_reserved":false,"is_disabled":false,"rental_uris":{"android":"levelo://app?vid=86d37462-6f2c-4ee1-b5e1-16f3e9285866","ios":"levelo://app?vid=86d37462-6f2c-4ee1-b5e1-16f3e9285866"},"vehicle_type_id":"4","last_reported":1693462140,"current_range_meters":25200,"station_id":"ce4bhqp2rcd13ifvqhng","pricing_plan_id":"free"},{"bike_id":"90a6c397-82b7-4631-a45b-b7e3c6c92441","system_id":"levelo_inurba_marseille","lat":43.317557,"lon":5.390173,"is_reserved":false,"is_disabled":false,"rental_uris":{"android":"levelo://app?vid=90a6c397-82b7-4631-a45b-b7e3c6c92441","ios":"levelo://app?vid=90a6c397-82b7-4631-a45b-b7e3c6c92441"},"vehicle_type_id":"4","last_reported":1693462140,"current_range_meters":31200,"station_id":"ce4bhqp2rcd13ifvqhng","pricing_plan_id":"free"},{"bike_id":"f344e05f-f243-4466-b952-911f83eb79ef","system_id":"levelo_inurba_marseille","lat":43.317557,"lon":5.390173,"is_reserved":false,"is_disabled":false,"rental_uris":{"android":"levelo://app?vid=f344e05f-f243-4466-b952-911f83eb79ef","ios":"levelo://app?vid=f344e05f-f243-4466-b952-911f83eb79ef"},"vehicle_type_id":"4","last_reported":1693462140,"current_range_meters":6400,"station_id":"ce4bhqp2rcd13ifvqhng","pricing_plan_id":"free"},{"bike_id":"310e4c6c-dbfa-4d00-8203-2c10aaadd2df","system_id":"levelo_inurba_marseille","lat":43.298037,"lon":5.381066,"is_reserved":false,"is_disabled":false,"rental_uris":{"android":"levelo://app?vid=310e4c6c-dbfa-4d00-8203-2c10aaadd2df","ios":"levelo://app?vid=310e4c6c-dbfa-4d00-8203-2c10aaadd2df"},"vehicle_type_id":"4","last_reported":1693462140,"current_range_meters":12800,"station_id":"ce4bgip2rcd13ifvqbb0","pricing_plan_id":"free"},{"bike_id":"22907df1-63c5-4bc6-bffb-1875982a1641","system_id":"levelo_inurba_marseille","lat":43.295748,"lon":5.37522,"is_reserved":false,"is_disabled":false,"rental_uris":{"android":"levelo://app?vid=22907df1-63c5-4bc6-bffb-1875982a1641","ios":"levelo://app?vid=22907df1-63c5-4bc6-bffb-1875982a1641"},"vehicle_type_id":"4","last_reported":1693462140,"current_range_meters":26400,"station_id":"ce4bgh92rcd13ifvqb50","pricing_plan_id":"free"},{"bike_id":"4255c890-a66d-4e96-ae62-99c2ffe87b18","system_id":"levelo_inurba_marseille","lat":43.295748,"lon":5.37522,"is_reserved":false,"is_disabled":false,"rental_uris":{"android":"levelo://app?vid=4255c890-a66d-4e96-ae62-99c2ffe87b18","ios":"levelo://app?vid=4255c890-a66d-4e96-ae62-99c2ffe87b18"},"vehicle_type_id":"4","last_reported":1693462140,"current_range_meters":24800,"station_id":"ce4bgh92rcd13ifvqb50","pricing_plan_id":"free"},{"bike_id":"4944e91e-7ee2-40dd-88b2-12d3ce2b70c3","system_id":"levelo_inurba_marseille","lat":43.295748,"lon":5.37522,"is_reserved":false,"is_disabled":false,"rental_uris":{"android":"levelo://app?vid=4944e91e-7ee2-40dd-88b2-12d3ce2b70c3","ios":"levelo://app?vid=4944e91e-7ee2-40dd-88b2-12d3ce2b70c3"},"vehicle_type_id":"4","last_reported":1693462140,"current_range_meters":24400,"station_id":"ce4bgh92rcd13ifvqb50","pricing_plan_id":"free"},{"bike_id":"fea2a89d-e965-4be6-bda5-7d5f3184eeb5","system_id":"levelo_inurba_marseille","lat":43.296263,"lon":5.377094,"is_reserved":false,"is_disabled":false,"rental_uris":{"android":"levelo://app?vid=fea2a89d-e965-4be6-bda5-7d5f3184eeb5","ios":"levelo://app?vid=fea2a89d-e965-4be6-bda5-7d5f3184eeb5"},"vehicle_type_id":"4","last_reported":1693462140,"current_range_meters":20800,"station_id":"ce4bgi92rcd13ifvqb90","pricing_plan_id":"free"},{"bike_id":"8c588bdd-55c7-42bb-9e1b-580ee9365b19","system_id":"levelo_inurba_marseille","lat":43.296277,"lon":5.377108,"is_reserved":false,"is_disabled":false,"rental_uris":{"android":"levelo://app?vid=8c588bdd-55c7-42bb-9e1b-580ee9365b19","ios":"levelo://app?vid=8c588bdd-55c7-42bb-9e1b-580ee9365b19"},"vehicle_type_id":"4","last_reported":1693462140,"current_range_meters":30000,"station_id":"ce4bgi92rcd13ifvqb90","pricing_plan_id":"free"},{"bike_id":"71cc6c72-4400-45b5-8c88-a95d6aa78b4d","system_id":"levelo_inurba_marseille","lat":43.296263,"lon":5.377094,"is_reserved":false,"is_disabled":false,"rental_uris":{"android":"levelo://app?vid=71cc6c72-4400-45b5-8c88-a95d6aa78b4d","ios":"levelo://app?vid=71cc6c72-4400-45b5-8c88-a95d6aa78b4d"},"vehicle_type_id":"4","last_reported":1693462140,"current_range_meters":29200,"station_id":"ce4bgi92rcd13ifvqb90","pricing_plan_id":"free"},{"bike_id":"16430b20-5367-4ff0-b2df-9ae1c0338f96","system_id":"levelo_inurba_marseille","lat":43.296263,"lon":5.377094,"is_reserved":false,"is_disabled":false,"rental_uris":{"android":"levelo://app?vid=16430b20-5367-4ff0-b2df-9ae1c0338f96","ios":"levelo://app?vid=16430b20-5367-4ff0-b2df-9ae1c0338f96"},"vehicle_type_id":"4","last_reported":1693462140,"current_range_meters":31600,"station_id":"ce4bgi92rcd13ifvqb90","pricing_plan_id":"free"},{"bike_id":"d1babd1b-f646-4c71-90eb-0bd9b9f757a8","system_id":"levelo_inurba_marseille","lat":43.296277,"lon":5.377108,"is_reserved":false,"is_disabled":false,"rental_uris":{"android":"levelo://app?vid=d1babd1b-f646-4c71-90eb-0bd9b9f757a8","ios":"levelo://app?vid=d1babd1b-f646-4c71-90eb-0bd9b9f757a8"},"vehicle_type_id":"4","last_reported":1693462140,"current_range_meters":27600,"station_id":"ce4bgi92rcd13ifvqb90","pricing_plan_id":"free"},{"bike_id":"53cf8359-56c9-49fb-bf08-414da682918a","system_id":"levelo_inurba_marseille","lat":43.29602,"lon":5.381084,"is_reserved":false,"is_disabled":false,"rental_uris":{"android":"levelo://app?vid=53cf8359-56c9-49fb-bf08-414da682918a","ios":"levelo://app?vid=53cf8359-56c9-49fb-bf08-414da682918a"},"vehicle_type_id":"4","last_reported":1693462140,"current_range_meters":29200,"station_id":"ce4bgl12rcd13ifvqbo0","pricing_plan_id":"free"},{"bike_id":"f7542559-4eaf-4d74-8129-21a96dd13629","system_id":"levelo_inurba_marseille","lat":43.32367,"lon":5.388836,"is_reserved":false,"is_disabled":false,"rental_uris":{"android":"levelo://app?vid=f7542559-4eaf-4d74-8129-21a96dd13629","ios":"levelo://app?vid=f7542559-4eaf-4d74-8129-21a96dd13629"},"vehicle_type_id":"4","last_reported":1693462140,"current_range_meters":17600,"station_id":"ce4bhqp2rcd13ifvqhog","pricing_plan_id":"free"},{"bike_id":"813b146c-3882-4243-a3d4-d0a5e3c431b0","system_id":"levelo_inurba_marseille","lat":43.32361,"lon":5.3888,"is_reserved":false,"is_disabled":false,"rental_uris":{"android":"levelo://app?vid=813b146c-3882-4243-a3d4-d0a5e3c431b0","ios":"levelo://app?vid=813b146c-3882-4243-a3d4-d0a5e3c431b0"},"vehicle_type_id":"4","last_reported":1693462140,"current_range_meters":17200,"station_id":"ce4bhqp2rcd13ifvqhog","pricing_plan_id":"free"},{"bike_id":"865bfca0-73f6-4acc-b69b-232a1e521899","system_id":"levelo_inurba_marseille","lat":43.32358,"lon":5.38883,"is_reserved":false,"is_disabled":false,"rental_uris":{"android":"levelo://app?vid=865bfca0-73f6-4acc-b69b-232a1e521899","ios":"levelo://app?vid=865bfca0-73f6-4acc-b69b-232a1e521899"},"vehicle_type_id":"4","last_reported":1693462140,"current_range_meters":30000,"station_id":"ce4bhqp2rcd13ifvqhog","pricing_plan_id":"free"},{"bike_id":"b867c923-b0dd-495a-a27f-cb86432ecb02","system_id":"levelo_inurba_marseille","lat":43.32362,"lon":5.3888,"is_reserved":false,"is_disabled":false,"rental_uris":{"android":"levelo://app?vid=b867c923-b0dd-495a-a27f-cb86432ecb02","ios":"levelo://app?vid=b867c923-b0dd-495a-a27f-cb86432ecb02"},"vehicle_type_id":"4","last_reported":1693462140,"current_range_meters":31200,"station_id":"ce4bhqp2rcd13ifvqhog","pricing_plan_id":"free"},{"bike_id":"da789c4d-2789-467a-86ce-05c40a474da0","system_id":"levelo_inurba_marseille","lat":43.32364,"lon":5.38879,"is_reserved":false,"is_disabled":false,"rental_uris":{"android":"levelo://app?vid=da789c4d-2789-467a-86ce-05c40a474da0","ios":"levelo://app?vid=da789c4d-2789-467a-86ce-05c40a474da0"},"vehicle_type_id":"4","last_reported":1693462140,"current_range_meters":26800,"station_id":"ce4bhqp2rcd13ifvqhog","pricing_plan_id":"free"},{"bike_id":"88e335e7-ed10-41eb-9548-8de938847931","system_id":"levelo_inurba_marseille","lat":43.32367,"lon":5.388836,"is_reserved":false,"is_disabled":false,"rental_uris":{"android":"levelo://app?vid=88e335e7-ed10-41eb-9548-8de938847931","ios":"levelo://app?vid=88e335e7-ed10-41eb-9548-8de938847931"},"vehicle_type_id":"4","last_reported":1693462140,"current_range_meters":21600,"station_id":"ce4bhqp2rcd13ifvqhog","pricing_plan_id":"free"},{"bike_id":"79f0f202-2132-4d94-a277-37b3a172a72d","system_id":"levelo_inurba_marseille","lat":43.32361,"lon":5.38887,"is_reserved":false,"is_disabled":false,"rental_uris":{"android":"levelo://app?vid=79f0f202-2132-4d94-a277-37b3a172a72d","ios":"levelo://app?vid=79f0f202-2132-4d94-a277-37b3a172a72d"},"vehicle_type_id":"4","last_reported":1693462140,"current_range_meters":27600,"station_id":"ce4bhqp2rcd13ifvqhog","pricing_plan_id":"free"},{"bike_id":"cf33fd20-f3d3-4b17-afc7-bfcdfa63fef7","system_id":"levelo_inurba_marseille","lat":43.32366,"lon":5.38884,"is_reserved":false,"is_disabled":false,"rental_uris":{"android":"levelo://app?vid=cf33fd20-f3d3-4b17-afc7-bfcdfa63fef7","ios":"levelo://app?vid=cf33fd20-f3d3-4b17-afc7-bfcdfa63fef7"},"vehicle_type_id":"4","last_reported":1693462140,"current_range_meters":6400,"station_id":"ce4bhqp2rcd13ifvqhog","pricing_plan_id":"free"},{"bike_id":"360e53f0-83ba-46ba-8ee0-4bf425fc869a","system_id":"levelo_inurba_marseille","lat":43.32367,"lon":5.388836,"is_reserved":false,"is_disabled":false,"rental_uris":{"android":"levelo://app?vid=360e53f0-83ba-46ba-8ee0-4bf425fc869a","ios":"levelo://app?vid=360e53f0-83ba-46ba-8ee0-4bf425fc869a"},"vehicle_type_id":"4","last_reported":1693462140,"current_range_meters":28000,"station_id":"ce4bhqp2rcd13ifvqhog","pricing_plan_id":"free"},{"bike_id":"8703cfe1-da2a-4f5d-9a09-0a4c1b2058c6","system_id":"levelo_inurba_marseille","lat":43.32367,"lon":5.388836,"is_reserved":false,"is_disabled":false,"rental_uris":{"android":"levelo://app?vid=8703cfe1-da2a-4f5d-9a09-0a4c1b2058c6","ios":"levelo://app?vid=8703cfe1-da2a-4f5d-9a09-0a4c1b2058c6"},"vehicle_type_id":"4","last_reported":1693462140,"current_range_meters":30800,"station_id":"ce4bhqp2rcd13ifvqhog","pricing_plan_id":"free"},{"bike_id":"fd499b97-f84f-4693-ac26-848e5536c67e","system_id":"levelo_inurba_marseille","lat":43.292749,"lon":5.368402,"is_reserved":false,"is_disabled":false,"rental_uris":{"android":"levelo://app?vid=fd499b97-f84f-4693-ac26-848e5536c67e","ios":"levelo://app?vid=fd499b97-f84f-4693-ac26-848e5536c67e"},"vehicle_type_id":"4","last_reported":1693462140,"current_range_meters":28400,"station_id":"ce4bhbp2rcd13ifvqesg","pricing_plan_id":"free"},{"bike_id":"a3fed907-f751-4df0-a0b2-bd863feec911","system_id":"levelo_inurba_marseille","lat":43.29271,"lon":5.3685,"is_reserved":false,"is_disabled":false,"rental_uris":{"android":"levelo://app?vid=a3fed907-f751-4df0-a0b2-bd863feec911","ios":"levelo://app?vid=a3fed907-f751-4df0-a0b2-bd863feec911"},"vehicle_type_id":"4","last_reported":1693462140,"current_range_meters":0,"station_id":"ce4bhbp2rcd13ifvqesg","pricing_plan_id":"free"},{"bike_id":"af378848-4ab5-4a0c-a75c-c290cd6c3483","system_id":"levelo_inurba_marseille","lat":43.32459,"lon":5.38946,"is_reserved":false,"is_disabled":false,"rental_uris":{"android":"levelo://app?vid=af378848-4ab5-4a0c-a75c-c290cd6c3483","ios":"levelo://app?vid=af378848-4ab5-4a0c-a75c-c290cd6c3483"},"vehicle_type_id":"4","last_reported":1693462140,"current_range_meters":8400,"station_id":"","pricing_plan_id":"free"},{"bike_id":"862e5e3a-3de4-4737-8ca8-f931c1c85b6c","system_id":"levelo_inurba_marseille","lat":43.293009,"lon":5.374584,"is_reserved":false,"is_disabled":false,"rental_uris":{"android":"levelo://app?vid=862e5e3a-3de4-4737-8ca8-f931c1c85b6c","ios":"levelo://app?vid=862e5e3a-3de4-4737-8ca8-f931c1c85b6c"},"vehicle_type_id":"4","last_reported":1693462140,"current_range_meters":11600,"station_id":"ce4bgi12rcd13ifvqb70","pricing_plan_id":"free"},{"bike_id":"9210caf0-17c9-47c9-aaeb-d98b3fc67516","system_id":"levelo_inurba_marseille","lat":43.305994,"lon":5.393687,"is_reserved":false,"is_disabled":false,"rental_uris":{"android":"levelo://app?vid=9210caf0-17c9-47c9-aaeb-d98b3fc67516","ios":"levelo://app?vid=9210caf0-17c9-47c9-aaeb-d98b3fc67516"},"vehicle_type_id":"4","last_reported":1693462140,"current_range_meters":31200,"station_id":"ce4bh0p2rcd13ifvqd80","pricing_plan_id":"free"},{"bike_id":"acada8fe-3a79-45e4-a540-8da9ce6e764a","system_id":"levelo_inurba_marseille","lat":43.293009,"lon":5.374584,"is_reserved":false,"is_disabled":false,"rental_uris":{"android":"levelo://app?vid=acada8fe-3a79-45e4-a540-8da9ce6e764a","ios":"levelo://app?vid=acada8fe-3a79-45e4-a540-8da9ce6e764a"},"vehicle_type_id":"4","last_reported":1693462140,"current_range_meters":26000,"station_id":"ce4bgi12rcd13ifvqb70","pricing_plan_id":"free"},{"bike_id":"9c0a0413-f806-445a-8af2-5b728ab07972","system_id":"levelo_inurba_marseille","lat":43.305994,"lon":5.393687,"is_reserved":false,"is_disabled":false,"rental_uris":{"android":"levelo://app?vid=9c0a0413-f806-445a-8af2-5b728ab07972","ios":"levelo://app?vid=9c0a0413-f806-445a-8af2-5b728ab07972"},"vehicle_type_id":"4","last_reported":1693462140,"current_range_meters":28400,"station_id":"ce4bh0p2rcd13ifvqd80","pricing_plan_id":"free"},{"bike_id":"944d380d-6a8c-48c3-874e-1b22eb08106c","system_id":"levelo_inurba_marseille","lat":43.30596,"lon":5.3936,"is_reserved":false,"is_disabled":false,"rental_uris":{"android":"levelo://app?vid=944d380d-6a8c-48c3-874e-1b22eb08106c","ios":"levelo://app?vid=944d380d-6a8c-48c3-874e-1b22eb08106c"},"vehicle_type_id":"4","last_reported":1693462140,"current_range_meters":31200,"station_id":"ce4bh0p2rcd13ifvqd80","pricing_plan_id":"free"},{"bike_id":"cab71e14-30c3-4c11-97ed-9c857a92e949","system_id":"levelo_inurba_marseille","lat":43.305944,"lon":5.393596,"is_reserved":false,"is_disabled":false,"rental_uris":{"android":"levelo://app?vid=cab71e14-30c3-4c11-97ed-9c857a92e949","ios":"levelo://app?vid=cab71e14-30c3-4c11-97ed-9c857a92e949"},"vehicle_type_id":"4","last_reported":1693462140,"current_range_meters":23200,"station_id":"ce4bh0p2rcd13ifvqd80","pricing_plan_id":"free"},{"bike_id":"e11606e5-1c07-4c72-909d-c92c65dab687","system_id":"levelo_inurba_marseille","lat":43.305938,"lon":5.393595,"is_reserved":false,"is_disabled":false,"rental_uris":{"android":"levelo://app?vid=e11606e5-1c07-4c72-909d-c92c65dab687","ios":"levelo://app?vid=e11606e5-1c07-4c72-909d-c92c65dab687"},"vehicle_type_id":"4","last_reported":1693462140,"current_range_meters":25200,"station_id":"ce4bh0p2rcd13ifvqd80","pricing_plan_id":"free"},{"bike_id":"9101458d-583f-4176-acc7-e611a4e53aa9","system_id":"levelo_inurba_marseille","lat":43.305994,"lon":5.393687,"is_reserved":false,"is_disabled":false,"rental_uris":{"android":"levelo://app?vid=9101458d-583f-4176-acc7-e611a4e53aa9","ios":"levelo://app?vid=9101458d-583f-4176-acc7-e611a4e53aa9"},"vehicle_type_id":"4","last_reported":1693462140,"current_range_meters":31200,"station_id":"ce4bh0p2rcd13ifvqd80","pricing_plan_id":"free"},{"bike_id":"0724f352-a262-45b7-9b71-9a09ff17d945","system_id":"levelo_inurba_marseille","lat":43.30304,"lon":5.39204,"is_reserved":false,"is_disabled":false,"rental_uris":{"android":"levelo://app?vid=0724f352-a262-45b7-9b71-9a09ff17d945","ios":"levelo://app?vid=0724f352-a262-45b7-9b71-9a09ff17d945"},"vehicle_type_id":"4","last_reported":1693462140,"current_range_meters":10400,"station_id":"ce4bgkh2rcd13ifvqbk0","pricing_plan_id":"free"},{"bike_id":"38fef587-7cc5-4800-b069-87b8f296a10a","system_id":"levelo_inurba_marseille","lat":43.303002,"lon":5.392142,"is_reserved":false,"is_disabled":false,"rental_uris":{"android":"levelo://app?vid=38fef587-7cc5-4800-b069-87b8f296a10a","ios":"levelo://app?vid=38fef587-7cc5-4800-b069-87b8f296a10a"},"vehicle_type_id":"4","last_reported":1693462140,"current_range_meters":29600,"station_id":"ce4bgkh2rcd13ifvqbk0","pricing_plan_id":"free"},{"bike_id":"59d4a7cc-c4d8-47e1-a63f-2e26b5d209c3","system_id":"levelo_inurba_marseille","lat":43.2936,"lon":5.37835,"is_reserved":false,"is_disabled":false,"rental_uris":{"android":"levelo://app?vid=59d4a7cc-c4d8-47e1-a63f-2e26b5d209c3","ios":"levelo://app?vid=59d4a7cc-c4d8-47e1-a63f-2e26b5d209c3"},"vehicle_type_id":"4","last_reported":1693462140,"current_range_meters":31200,"station_id":"ce4bgjh2rcd13ifvqbf0","pricing_plan_id":"free"},{"bike_id":"5bacb336-e448-426a-a1d1-909897cfb92b","system_id":"levelo_inurba_marseille","lat":43.29371,"lon":5.37856,"is_reserved":false,"is_disabled":false,"rental_uris":{"android":"levelo://app?vid=5bacb336-e448-426a-a1d1-909897cfb92b","ios":"levelo://app?vid=5bacb336-e448-426a-a1d1-909897cfb92b"},"vehicle_type_id":"4","last_reported":1693462140,"current_range_meters":29200,"station_id":"","pricing_plan_id":"free"},{"bike_id":"dd7a41f3-02a1-4cd4-b6e9-40b1ff4dc2b8","system_id":"levelo_inurba_marseille","lat":43.292311,"lon":5.360731,"is_reserved":false,"is_disabled":false,"rental_uris":{"android":"levelo://app?vid=dd7a41f3-02a1-4cd4-b6e9-40b1ff4dc2b8","ios":"levelo://app?vid=dd7a41f3-02a1-4cd4-b6e9-40b1ff4dc2b8"},"vehicle_type_id":"4","last_reported":1693462140,"current_range_meters":30800,"station_id":"ce4bhbh2rcd13ifvqeqg","pricing_plan_id":"free"},{"bike_id":"10621ce6-7a8d-4c81-91df-9614a69c9336","system_id":"levelo_inurba_marseille","lat":43.300852,"lon":5.390859,"is_reserved":false,"is_disabled":false,"rental_uris":{"android":"levelo://app?vid=10621ce6-7a8d-4c81-91df-9614a69c9336","ios":"levelo://app?vid=10621ce6-7a8d-4c81-91df-9614a69c9336"},"vehicle_type_id":"4","last_reported":1693462140,"current_range_meters":28400,"station_id":"ce4bh192rcd13ifvqdb0","pricing_plan_id":"free"},{"bike_id":"d09cd1e0-6ca5-43df-a561-2d07d85f6f78","system_id":"levelo_inurba_marseille","lat":43.292311,"lon":5.360731,"is_reserved":false,"is_disabled":false,"rental_uris":{"android":"levelo://app?vid=d09cd1e0-6ca5-43df-a561-2d07d85f6f78","ios":"levelo://app?vid=d09cd1e0-6ca5-43df-a561-2d07d85f6f78"},"vehicle_type_id":"4","last_reported":1693462140,"current_range_meters":23200,"station_id":"ce4bhbh2rcd13ifvqeqg","pricing_plan_id":"free"},{"bike_id":"8b8af32b-a406-490e-849c-f809cd641165","system_id":"levelo_inurba_marseille","lat":43.292311,"lon":5.360731,"is_reserved":false,"is_disabled":false,"rental_uris":{"android":"levelo://app?vid=8b8af32b-a406-490e-849c-f809cd641165","ios":"levelo://app?vid=8b8af32b-a406-490e-849c-f809cd641165"},"vehicle_type_id":"4","last_reported":1693462140,"current_range_meters":31200,"station_id":"ce4bhbh2rcd13ifvqeqg","pricing_plan_id":"free"},{"bike_id":"f2e87b0c-e2e9-4d99-bda6-fdfd54f51a9d","system_id":"levelo_inurba_marseille","lat":43.292311,"lon":5.360731,"is_reserved":false,"is_disabled":false,"rental_uris":{"android":"levelo://app?vid=f2e87b0c-e2e9-4d99-bda6-fdfd54f51a9d","ios":"levelo://app?vid=f2e87b0c-e2e9-4d99-bda6-fdfd54f51a9d"},"vehicle_type_id":"4","last_reported":1693462140,"current_range_meters":27600,"station_id":"ce4bhbh2rcd13ifvqeqg","pricing_plan_id":"free"},{"bike_id":"300701e7-79cb-4e75-b38d-3316541b60f4","system_id":"levelo_inurba_marseille","lat":43.292311,"lon":5.360731,"is_reserved":false,"is_disabled":false,"rental_uris":{"android":"levelo://app?vid=300701e7-79cb-4e75-b38d-3316541b60f4","ios":"levelo://app?vid=300701e7-79cb-4e75-b38d-3316541b60f4"},"vehicle_type_id":"4","last_reported":1693462140,"current_range_meters":27200,"station_id":"ce4bhbh2rcd13ifvqeqg","pricing_plan_id":"free"},{"bike_id":"0c15abc2-ffbb-4bdb-b3f5-602303b93840","system_id":"levelo_inurba_marseille","lat":43.292663,"lon":5.376389,"is_reserved":false,"is_disabled":false,"rental_uris":{"android":"levelo://app?vid=0c15abc2-ffbb-4bdb-b3f5-602303b93840","ios":"levelo://app?vid=0c15abc2-ffbb-4bdb-b3f5-602303b93840"},"vehicle_type_id":"4","last_reported":1693462140,"current_range_meters":30400,"station_id":"ce4bgi12rcd13ifvqb80","pricing_plan_id":"free"},{"bike_id":"5fcb49d6-fff1-4937-894a-8c8b7f6d15f3","system_id":"levelo_inurba_marseille","lat":43.292311,"lon":5.360731,"is_reserved":false,"is_disabled":false,"rental_uris":{"android":"levelo://app?vid=5fcb49d6-fff1-4937-894a-8c8b7f6d15f3","ios":"levelo://app?vid=5fcb49d6-fff1-4937-894a-8c8b7f6d15f3"},"vehicle_type_id":"4","last_reported":1693462140,"current_range_meters":21600,"station_id":"ce4bhbh2rcd13ifvqeqg","pricing_plan_id":"free"},{"bike_id":"aa0c0c75-15bb-489c-95a3-620c05085b0e","system_id":"levelo_inurba_marseille","lat":43.30883,"lon":5.39637,"is_reserved":false,"is_disabled":false,"rental_uris":{"android":"levelo://app?vid=aa0c0c75-15bb-489c-95a3-620c05085b0e","ios":"levelo://app?vid=aa0c0c75-15bb-489c-95a3-620c05085b0e"},"vehicle_type_id":"4","last_reported":1693462140,"current_range_meters":30000,"station_id":"ce4bh012rcd13ifvqcv0","pricing_plan_id":"free"},{"bike_id":"dfbee735-53db-42f0-9109-cd3db081eb07","system_id":"levelo_inurba_marseille","lat":43.291994,"lon":5.357886,"is_reserved":false,"is_disabled":false,"rental_uris":{"android":"levelo://app?vid=dfbee735-53db-42f0-9109-cd3db081eb07","ios":"levelo://app?vid=dfbee735-53db-42f0-9109-cd3db081eb07"},"vehicle_type_id":"4","last_reported":1693462140,"current_range_meters":22000,"station_id":"ce4bhb12rcd13ifvqel0","pricing_plan_id":"free"},{"bike_id":"af784ab0-a9ab-407c-bfe2-66045497c6b4","system_id":"levelo_inurba_marseille","lat":43.29192,"lon":5.35803,"is_reserved":false,"is_disabled":false,"rental_uris":{"android":"levelo://app?vid=af784ab0-a9ab-407c-bfe2-66045497c6b4","ios":"levelo://app?vid=af784ab0-a9ab-407c-bfe2-66045497c6b4"},"vehicle_type_id":"4","last_reported":1693462140,"current_range_meters":30400,"station_id":"ce4bhb12rcd13ifvqel0","pricing_plan_id":"free"},{"bike_id":"09032a97-35e1-48b5-a816-6d8699d7d2bc","system_id":"levelo_inurba_marseille","lat":43.31331,"lon":5.39691,"is_reserved":false,"is_disabled":false,"rental_uris":{"android":"levelo://app?vid=09032a97-35e1-48b5-a816-6d8699d7d2bc","ios":"levelo://app?vid=09032a97-35e1-48b5-a816-6d8699d7d2bc"},"vehicle_type_id":"4","last_reported":1693462140,"current_range_meters":23600,"station_id":"ce4bgvp2rcd13ifvqcu0","pricing_plan_id":"free"},{"bike_id":"c2f7b2ee-221e-4b37-9d77-05e2405e2594","system_id":"levelo_inurba_marseille","lat":43.313291,"lon":5.396838,"is_reserved":false,"is_disabled":false,"rental_uris":{"android":"levelo://app?vid=c2f7b2ee-221e-4b37-9d77-05e2405e2594","ios":"levelo://app?vid=c2f7b2ee-221e-4b37-9d77-05e2405e2594"},"vehicle_type_id":"4","last_reported":1693462140,"current_range_meters":25200,"station_id":"ce4bgvp2rcd13ifvqcu0","pricing_plan_id":"free"},{"bike_id":"f35c5db4-20a0-4a63-aa23-1c03a091bfaa","system_id":"levelo_inurba_marseille","lat":43.29191,"lon":5.35797,"is_reserved":false,"is_disabled":false,"rental_uris":{"android":"levelo://app?vid=f35c5db4-20a0-4a63-aa23-1c03a091bfaa","ios":"levelo://app?vid=f35c5db4-20a0-4a63-aa23-1c03a091bfaa"},"vehicle_type_id":"4","last_reported":1693462140,"current_range_meters":16800,"station_id":"ce4bhb12rcd13ifvqel0","pricing_plan_id":"free"},{"bike_id":"70d76550-33c4-4a31-a69e-f0fe8e8a0447","system_id":"levelo_inurba_marseille","lat":43.291994,"lon":5.357886,"is_reserved":false,"is_disabled":false,"rental_uris":{"android":"levelo://app?vid=70d76550-33c4-4a31-a69e-f0fe8e8a0447","ios":"levelo://app?vid=70d76550-33c4-4a31-a69e-f0fe8e8a0447"},"vehicle_type_id":"4","last_reported":1693462140,"current_range_meters":24800,"station_id":"ce4bhb12rcd13ifvqel0","pricing_plan_id":"free"},{"bike_id":"9918d899-474f-42d2-9ecd-db8aad750e38","system_id":"levelo_inurba_marseille","lat":43.31329,"lon":5.39693,"is_reserved":false,"is_disabled":false,"rental_uris":{"android":"levelo://app?vid=9918d899-474f-42d2-9ecd-db8aad750e38","ios":"levelo://app?vid=9918d899-474f-42d2-9ecd-db8aad750e38"},"vehicle_type_id":"4","last_reported":1693462140,"current_range_meters":12800,"station_id":"ce4bgvp2rcd13ifvqcu0","pricing_plan_id":"free"},{"bike_id":"73c2e0c0-a939-4bc3-943a-e52094180bff","system_id":"levelo_inurba_marseille","lat":43.29184,"lon":5.35809,"is_reserved":false,"is_disabled":false,"rental_uris":{"android":"levelo://app?vid=73c2e0c0-a939-4bc3-943a-e52094180bff","ios":"levelo://app?vid=73c2e0c0-a939-4bc3-943a-e52094180bff"},"vehicle_type_id":"4","last_reported":1693462140,"current_range_meters":29600,"station_id":"ce4bhb12rcd13ifvqel0","pricing_plan_id":"free"},{"bike_id":"fcb7cfb1-cba5-4138-ad11-bf8f4f8e9034","system_id":"levelo_inurba_marseille","lat":43.29186,"lon":5.35798,"is_reserved":false,"is_disabled":false,"rental_uris":{"android":"levelo://app?vid=fcb7cfb1-cba5-4138-ad11-bf8f4f8e9034","ios":"levelo://app?vid=fcb7cfb1-cba5-4138-ad11-bf8f4f8e9034"},"vehicle_type_id":"4","last_reported":1693462140,"current_range_meters":31200,"station_id":"ce4bhb12rcd13ifvqel0","pricing_plan_id":"free"},{"bike_id":"b1a5e919-e1bd-4bbb-a86f-5b7d0154382e","system_id":"levelo_inurba_marseille","lat":43.313291,"lon":5.396838,"is_reserved":false,"is_disabled":false,"rental_uris":{"android":"levelo://app?vid=b1a5e919-e1bd-4bbb-a86f-5b7d0154382e","ios":"levelo://app?vid=b1a5e919-e1bd-4bbb-a86f-5b7d0154382e"},"vehicle_type_id":"4","last_reported":1693462140,"current_range_meters":21200,"station_id":"ce4bgvp2rcd13ifvqcu0","pricing_plan_id":"free"},{"bike_id":"86273639-51f0-403b-82cd-e03685ecc9ac","system_id":"levelo_inurba_marseille","lat":43.313291,"lon":5.396838,"is_reserved":false,"is_disabled":false,"rental_uris":{"android":"levelo://app?vid=86273639-51f0-403b-82cd-e03685ecc9ac","ios":"levelo://app?vid=86273639-51f0-403b-82cd-e03685ecc9ac"},"vehicle_type_id":"4","last_reported":1693462140,"current_range_meters":13200,"station_id":"ce4bgvp2rcd13ifvqcu0","pricing_plan_id":"free"},{"bike_id":"0d962e12-b732-4464-bc89-f40845207671","system_id":"levelo_inurba_marseille","lat":43.33235,"lon":5.38036,"is_reserved":false,"is_disabled":false,"rental_uris":{"android":"levelo://app?vid=0d962e12-b732-4464-bc89-f40845207671","ios":"levelo://app?vid=0d962e12-b732-4464-bc89-f40845207671"},"vehicle_type_id":"4","last_reported":1693462140,"current_range_meters":16800,"station_id":"","pricing_plan_id":"free"},{"bike_id":"b20fca5c-41a4-4d79-b6cb-b8a5aa2f3150","system_id":"levelo_inurba_marseille","lat":43.29181,"lon":5.35802,"is_reserved":false,"is_disabled":false,"rental_uris":{"android":"levelo://app?vid=b20fca5c-41a4-4d79-b6cb-b8a5aa2f3150","ios":"levelo://app?vid=b20fca5c-41a4-4d79-b6cb-b8a5aa2f3150"},"vehicle_type_id":"4","last_reported":1693462140,"current_range_meters":31200,"station_id":"ce4bhb12rcd13ifvqel0","pricing_plan_id":"free"},{"bike_id":"743edb9a-3f57-46d1-999e-7672b114ba4b","system_id":"levelo_inurba_marseille","lat":43.30889,"lon":5.39657,"is_reserved":false,"is_disabled":false,"rental_uris":{"android":"levelo://app?vid=743edb9a-3f57-46d1-999e-7672b114ba4b","ios":"levelo://app?vid=743edb9a-3f57-46d1-999e-7672b114ba4b"},"vehicle_type_id":"4","last_reported":1693462140,"current_range_meters":17600,"station_id":"ce4bh012rcd13ifvqcv0","pricing_plan_id":"free"},{"bike_id":"1da98f29-e1c4-45b4-85a2-f7557583087d","system_id":"levelo_inurba_marseille","lat":43.308933,"lon":5.396612,"is_reserved":false,"is_disabled":false,"rental_uris":{"android":"levelo://app?vid=1da98f29-e1c4-45b4-85a2-f7557583087d","ios":"levelo://app?vid=1da98f29-e1c4-45b4-85a2-f7557583087d"},"vehicle_type_id":"4","last_reported":1693462140,"current_range_meters":30800,"station_id":"ce4bh012rcd13ifvqcv0","pricing_plan_id":"free"},{"bike_id":"6df1fe57-664a-4942-94d6-3ce1bb980783","system_id":"levelo_inurba_marseille","lat":43.290779,"lon":5.371482,"is_reserved":false,"is_disabled":false,"rental_uris":{"android":"levelo://app?vid=6df1fe57-664a-4942-94d6-3ce1bb980783","ios":"levelo://app?vid=6df1fe57-664a-4942-94d6-3ce1bb980783"},"vehicle_type_id":"4","last_reported":1693462140,"current_range_meters":15600,"station_id":"ce4bh5p2rcd13ifvqe4g","pricing_plan_id":"free"},{"bike_id":"8ece6798-fe07-4f2c-a897-242837d4a521","system_id":"levelo_inurba_marseille","lat":43.29387,"lon":5.3836,"is_reserved":false,"is_disabled":false,"rental_uris":{"android":"levelo://app?vid=8ece6798-fe07-4f2c-a897-242837d4a521","ios":"levelo://app?vid=8ece6798-fe07-4f2c-a897-242837d4a521"},"vehicle_type_id":"4","last_reported":1693462140,"current_range_meters":4000,"station_id":"","pricing_plan_id":"free"},{"bike_id":"4defe362-8e8e-4b66-9fdc-1aef28008034","system_id":"levelo_inurba_marseille","lat":43.290631,"lon":5.359244,"is_reserved":false,"is_disabled":false,"rental_uris":{"android":"levelo://app?vid=4defe362-8e8e-4b66-9fdc-1aef28008034","ios":"levelo://app?vid=4defe362-8e8e-4b66-9fdc-1aef28008034"},"vehicle_type_id":"4","last_reported":1693462140,"current_range_meters":24800,"station_id":"ce4bha92rcd13ifvqeg0","pricing_plan_id":"free"},{"bike_id":"509df490-3ef2-4cdd-aaf2-8484295df699","system_id":"levelo_inurba_marseille","lat":43.289184,"lon":5.366408,"is_reserved":false,"is_disabled":false,"rental_uris":{"android":"levelo://app?vid=509df490-3ef2-4cdd-aaf2-8484295df699","ios":"levelo://app?vid=509df490-3ef2-4cdd-aaf2-8484295df699"},"vehicle_type_id":"4","last_reported":1693462140,"current_range_meters":16800,"station_id":"ce4bhap2rcd13ifvqek0","pricing_plan_id":"free"},{"bike_id":"2f93318d-a393-4e93-88c9-60d3ec241b0e","system_id":"levelo_inurba_marseille","lat":43.2894,"lon":5.36631,"is_reserved":false,"is_disabled":false,"rental_uris":{"android":"levelo://app?vid=2f93318d-a393-4e93-88c9-60d3ec241b0e","ios":"levelo://app?vid=2f93318d-a393-4e93-88c9-60d3ec241b0e"},"vehicle_type_id":"4","last_reported":1693462140,"current_range_meters":30800,"station_id":"ce4bhap2rcd13ifvqek0","pricing_plan_id":"free"},{"bike_id":"b127cb02-a67f-4944-955b-2653cb69db42","system_id":"levelo_inurba_marseille","lat":43.28948,"lon":5.36402,"is_reserved":false,"is_disabled":false,"rental_uris":{"android":"levelo://app?vid=b127cb02-a67f-4944-955b-2653cb69db42","ios":"levelo://app?vid=b127cb02-a67f-4944-955b-2653cb69db42"},"vehicle_type_id":"4","last_reported":1693462140,"current_range_meters":25600,"station_id":"ce4bhc92rcd13ifvqetg","pricing_plan_id":"free"},{"bike_id":"9bf5e3d0-d643-48a9-bac6-35e4b356fcbd","system_id":"levelo_inurba_marseille","lat":43.289468,"lon":5.363719,"is_reserved":false,"is_disabled":false,"rental_uris":{"android":"levelo://app?vid=9bf5e3d0-d643-48a9-bac6-35e4b356fcbd","ios":"levelo://app?vid=9bf5e3d0-d643-48a9-bac6-35e4b356fcbd"},"vehicle_type_id":"4","last_reported":1693462140,"current_range_meters":25200,"station_id":"ce4bhc92rcd13ifvqetg","pricing_plan_id":"free"},{"bike_id":"5e9f08c0-b77b-4775-be3b-074b7d18795f","system_id":"levelo_inurba_marseille","lat":43.290327,"lon":5.375711,"is_reserved":false,"is_disabled":false,"rental_uris":{"android":"levelo://app?vid=5e9f08c0-b77b-4775-be3b-074b7d18795f","ios":"levelo://app?vid=5e9f08c0-b77b-4775-be3b-074b7d18795f"},"vehicle_type_id":"4","last_reported":1693462140,"current_range_meters":25600,"station_id":"ce4bh692rcd13ifvqe90","pricing_plan_id":"free"},{"bike_id":"525fd913-42a0-4aee-89f6-e39d75f4ad1f","system_id":"levelo_inurba_marseille","lat":43.289468,"lon":5.363719,"is_reserved":false,"is_disabled":false,"rental_uris":{"android":"levelo://app?vid=525fd913-42a0-4aee-89f6-e39d75f4ad1f","ios":"levelo://app?vid=525fd913-42a0-4aee-89f6-e39d75f4ad1f"},"vehicle_type_id":"4","last_reported":1693462140,"current_range_meters":31200,"station_id":"ce4bhc92rcd13ifvqetg","pricing_plan_id":"free"},{"bike_id":"be09f781-a401-459c-8940-532da6f376c7","system_id":"levelo_inurba_marseille","lat":43.289468,"lon":5.363719,"is_reserved":false,"is_disabled":false,"rental_uris":{"android":"levelo://app?vid=be09f781-a401-459c-8940-532da6f376c7","ios":"levelo://app?vid=be09f781-a401-459c-8940-532da6f376c7"},"vehicle_type_id":"4","last_reported":1693462140,"current_range_meters":31200,"station_id":"ce4bhc92rcd13ifvqetg","pricing_plan_id":"free"},{"bike_id":"439017cf-f707-4fc3-b081-400dca2904a4","system_id":"levelo_inurba_marseille","lat":43.289468,"lon":5.363719,"is_reserved":false,"is_disabled":false,"rental_uris":{"android":"levelo://app?vid=439017cf-f707-4fc3-b081-400dca2904a4","ios":"levelo://app?vid=439017cf-f707-4fc3-b081-400dca2904a4"},"vehicle_type_id":"4","last_reported":1693462140,"current_range_meters":31200,"station_id":"ce4bhc92rcd13ifvqetg","pricing_plan_id":"free"},{"bike_id":"c224b50b-f0cc-4252-8e3c-c0ebe3eba165","system_id":"levelo_inurba_marseille","lat":43.289468,"lon":5.363719,"is_reserved":false,"is_disabled":false,"rental_uris":{"android":"levelo://app?vid=c224b50b-f0cc-4252-8e3c-c0ebe3eba165","ios":"levelo://app?vid=c224b50b-f0cc-4252-8e3c-c0ebe3eba165"},"vehicle_type_id":"4","last_reported":1693462140,"current_range_meters":31200,"station_id":"ce4bhc92rcd13ifvqetg","pricing_plan_id":"free"},{"bike_id":"a68cbc10-ef63-499c-bc6e-90ccd1643aff","system_id":"levelo_inurba_marseille","lat":43.289468,"lon":5.363719,"is_reserved":false,"is_disabled":false,"rental_uris":{"android":"levelo://app?vid=a68cbc10-ef63-499c-bc6e-90ccd1643aff","ios":"levelo://app?vid=a68cbc10-ef63-499c-bc6e-90ccd1643aff"},"vehicle_type_id":"4","last_reported":1693462140,"current_range_meters":16000,"station_id":"ce4bhc92rcd13ifvqetg","pricing_plan_id":"free"},{"bike_id":"de86a38f-8557-4627-a491-5b5d9d05f97c","system_id":"levelo_inurba_marseille","lat":43.289468,"lon":5.363719,"is_reserved":false,"is_disabled":false,"rental_uris":{"android":"levelo://app?vid=de86a38f-8557-4627-a491-5b5d9d05f97c","ios":"levelo://app?vid=de86a38f-8557-4627-a491-5b5d9d05f97c"},"vehicle_type_id":"4","last_reported":1693462140,"current_range_meters":30400,"station_id":"ce4bhc92rcd13ifvqetg","pricing_plan_id":"free"},{"bike_id":"bcdb671b-7fb7-4b57-96e4-06b89184da9e","system_id":"levelo_inurba_marseille","lat":43.289468,"lon":5.363719,"is_reserved":false,"is_disabled":false,"rental_uris":{"android":"levelo://app?vid=bcdb671b-7fb7-4b57-96e4-06b89184da9e","ios":"levelo://app?vid=bcdb671b-7fb7-4b57-96e4-06b89184da9e"},"vehicle_type_id":"4","last_reported":1693462140,"current_range_meters":3600,"station_id":"ce4bhc92rcd13ifvqetg","pricing_plan_id":"free"},{"bike_id":"7e630e14-9c2f-4ef3-8b35-6ce64765cde5","system_id":"levelo_inurba_marseille","lat":43.29827,"lon":5.39265,"is_reserved":false,"is_disabled":false,"rental_uris":{"android":"levelo://app?vid=7e630e14-9c2f-4ef3-8b35-6ce64765cde5","ios":"levelo://app?vid=7e630e14-9c2f-4ef3-8b35-6ce64765cde5"},"vehicle_type_id":"4","last_reported":1693462140,"current_range_meters":7600,"station_id":"","pricing_plan_id":"free"},{"bike_id":"9775728d-33cc-4195-8004-040a651c015f","system_id":"levelo_inurba_marseille","lat":43.28901,"lon":5.36653,"is_reserved":false,"is_disabled":false,"rental_uris":{"android":"levelo://app?vid=9775728d-33cc-4195-8004-040a651c015f","ios":"levelo://app?vid=9775728d-33cc-4195-8004-040a651c015f"},"vehicle_type_id":"4","last_reported":1693462140,"current_range_meters":29600,"station_id":"ce4bhap2rcd13ifvqek0","pricing_plan_id":"free"},{"bike_id":"0039fd15-5021-41b1-acfa-dee829401445","system_id":"levelo_inurba_marseille","lat":43.289,"lon":5.36652,"is_reserved":false,"is_disabled":false,"rental_uris":{"android":"levelo://app?vid=0039fd15-5021-41b1-acfa-dee829401445","ios":"levelo://app?vid=0039fd15-5021-41b1-acfa-dee829401445"},"vehicle_type_id":"4","last_reported":1693462140,"current_range_meters":31200,"station_id":"ce4bhap2rcd13ifvqek0","pricing_plan_id":"free"},