{"last_updated":1734037753,"ttl":60,"version":"2.2","data":{"bikes":[{"bike_id":"2fbe8e9a-d054-43f7-a514-7a4743e90500","system_id":"levelo_inurba_marseille","lat":43.24804,"lon":5.37456,"is_reserved":false,"is_disabled":false,"rental_uris":{"android":"levelo://app?vid=2fbe8e9a-d054-43f7-a514-7a4743e90500","ios":"levelo://app?vid=2fbe8e9a-d054-43f7-a514-7a4743e90500"},"vehicle_type_id":"4","last_reported":1734037754,"current_range_meters":39200,"station_id":"ce4bhgh2rcd13ifvqfb0","pricing_plan_id":"cebpf4jnsgd1na2vs0mg"},{"bike_id":"907fec12-a848-4864-ae30-c2b590a6dd5f","system_id":"levelo_inurba_marseille","lat":43.26235,"lon":5.37428,"is_reserved":false,"is_disabled":true,"rental_uris":{"android":"levelo://app?vid=907fec12-a848-4864-ae30-c2b590a6dd5f","ios":"levelo://app?vid=907fec12-a848-4864-ae30-c2b590a6dd5f"},"vehicle_type_id":"4","last_reported":1734037754,"current_range_meters":0,"station_id":"","pricing_plan_id":"cebpf4jnsgd1na2vs0mg"},{"bike_id":"60e9ed68-c2d5-4fcc-b1fe-df98992a2ea5","system_id":"levelo_inurba_marseille","lat":43.30764,"lon":5.36837,"is_reserved":false,"is_disabled":true,"rental_uris":{"android":"levelo://app?vid=60e9ed68-c2d5-4fcc-b1fe-df98992a2ea5","ios":"levelo://app?vid=60e9ed68-c2d5-4fcc-b1fe-df98992a2ea5"},"vehicle_type_id":"4","last_reported":1734037754,"current_range_meters":0,"station_id":"","pricing_plan_id":"cebpf4jnsgd1na2vs0mg"},{"bike_id":"bc04aebb-7b5e-4107-acf4-072d1fb0aaa3","system_id":"levelo_inurba_marseille","lat":43.24844,"lon":5.38954,"is_reserved":false,"is_disabled":false,"rental_uris":{"android":"levelo://app?vid=bc04aebb-7b5e-4107-acf4-072d1fb0aaa3","ios":"levelo://app?vid=bc04aebb-7b5e-4107-acf4-072d1fb0aaa3"},"vehicle_type_id":"4","last_reported":1734037754,"current_range_meters":11200,"station_id":"","pricing_plan_id":"cebpf4jnsgd1na2vs0mg"},{"bike_id":"b9147903-fe2d-4d97-a95f-309f5c06e674","system_id":"levelo_inurba_marseille","lat":43.31879,"lon":5.4073,"is_reserved":false,"is_disabled":false,"rental_uris":{"android":"levelo://app?vid=b9147903-fe2d-4d97-a95f-309f5c06e674","ios":"levelo://app?vid=b9147903-fe2d-4d97-a95f-309f5c06e674"},"vehicle_type_id":"4","last_reported":1734037754,"current_range_meters":28800,"station_id":"ce4bhq12rcd13ifvqhig","pricing_plan_id":"cebpf4jnsgd1na2vs0mg"},{"bike_id":"d10e5c87-8e55-4d77-9a4f-92f517a63f70","system_id":"levelo_inurba_marseille","lat":43.29423,"lon":5.38623,"is_reserved":false,"is_disabled":false,"rental_uris":{"android":"levelo://app?vid=d10e5c87-8e55-4d77-9a4f-92f517a63f70","ios":"levelo://app?vid=d10e5c87-8e55-4d77-9a4f-92f517a63f70"},"vehicle_type_id":"4","last_reported":1734037754,"current_range_meters":29600,"station_id":"ce4bh2h2rcd13ifvqdh0","pricing_plan_id":"cebpf4jnsgd1na2vs0mg"},{"bike_id":"88f15e5a-9413-445a-933b-2ffe428d3cff","system_id":"levelo_inurba_marseille","lat":43.2827,"lon":5.35064,"is_reserved":false,"is_disabled":false,"rental_uris":{"android":"levelo://app?vid=88f15e5a-9413-445a-933b-2ffe428d3cff","ios":"levelo://app?vid=88f15e5a-9413-445a-933b-2ffe428d3cff"},"vehicle_type_id":"4","last_reported":1734037754,"current_range_meters":32800,"station_id":"ce4bhbp2rcd13ifvqerg","pricing_plan_id":"cebpf4jnsgd1na2vs0mg"},{"bike_id":"9895f6d3-3e90-4d41-8b6f-3b0e731d3542","system_id":"levelo_inurba_marseille","lat":43.279948,"lon":5.40012,"is_reserved":false,"is_disabled":false,"rental_uris":{"android":"levelo://app?vid=9895f6d3-3e90-4d41-8b6f-3b0e731d3542","ios":"levelo://app?vid=9895f6d3-3e90-4d41-8b6f-3b0e731d3542"},"vehicle_type_id":"4","last_reported":1734037754,"current_range_meters":38800,"station_id":"ce4bho92rcd13ifvqh4g","pricing_plan_id":"cebpf4jnsgd1na2vs0mg"},{"bike_id":"fdc7f69f-0262-4094-a948-3b247c5ce866","system_id":"levelo_inurba_marseille","lat":43.28103,"lon":5.3784,"is_reserved":false,"is_disabled":false,"rental_uris":{"android":"levelo://app?vid=fdc7f69f-0262-4094-a948-3b247c5ce866","ios":"levelo://app?vid=fdc7f69f-0262-4094-a948-3b247c5ce866"},"vehicle_type_id":"4","last_reported":1734037754,"current_range_meters":24800,"station_id":"ce4bha12rcd13ifvqee0","pricing_plan_id":"cebpf4jnsgd1na2vs0mg"},{"bike_id":"7edeb7e2-3966-4a40-b4b2-644015340526","system_id":"levelo_inurba_marseille","lat":43.29876,"lon":5.3891,"is_reserved":false,"is_disabled":false,"rental_uris":{"android":"levelo://app?vid=7edeb7e2-3966-4a40-b4b2-644015340526","ios":"levelo://app?vid=7edeb7e2-3966-4a40-b4b2-644015340526"},"vehicle_type_id":"4","last_reported":1734037754,"current_range_meters":38000,"station_id":"ce4bh392rcd13ifvqdl0","pricing_plan_id":"cebpf4jnsgd1na2vs0mg"},{"bike_id":"f53a51f1-6db0-4716-9c45-7ac4c7fcd208","system_id":"levelo_inurba_marseille","lat":43.3229,"lon":5.382528,"is_reserved":false,"is_disabled":false,"rental_uris":{"android":"levelo://app?vid=f53a51f1-6db0-4716-9c45-7ac4c7fcd208","ios":"levelo://app?vid=f53a51f1-6db0-4716-9c45-7ac4c7fcd208"},"vehicle_type_id":"4","last_reported":1734037754,"current_range_meters":4400,"station_id":"ce4bhr12rcd13ifvqhqg","pricing_plan_id":"cebpf4jnsgd1na2vs0mg"},{"bike_id":"980f96eb-32c9-4906-98f6-c44dbf4c84a1","system_id":"levelo_inurba_marseille","lat":43.27455,"lon":5.40073,"is_reserved":false,"is_disabled":true,"rental_uris":{"android":"levelo://app?vid=980f96eb-32c9-4906-98f6-c44dbf4c84a1","ios":"levelo://app?vid=980f96eb-32c9-4906-98f6-c44dbf4c84a1"},"vehicle_type_id":"4","last_reported":1734037754,"current_range_meters":0,"station_id":"","pricing_plan_id":"cebpf4jnsgd1na2vs0mg"},{"bike_id":"e2c6f3ae-b19d-4d2a-82d5-8535feaeba70","system_id":"levelo_inurba_marseille","lat":43.29807,"lon":5.40399,"is_reserved":false,"is_disabled":false,"rental_uris":{"android":"levelo://app?vid=e2c6f3ae-b19d-4d2a-82d5-8535feaeba70","ios":"levelo://app?vid=e2c6f3ae-b19d-4d2a-82d5-8535feaeba70"},"vehicle_type_id":"4","last_reported":1734037754,"current_range_meters":25200,"station_id":"ce4bh112rcd13ifvqd90","pricing_plan_id":"cebpf4jnsgd1na2vs0mg"},{"bike_id":"8eb40f25-fc14-4288-9dd7-aae13b0a9b04","system_id":"levelo_inurba_marseille","lat":43.26948,"lon":5.40236,"is_reserved":false,"is_disabled":true,"rental_uris":{"android":"levelo://app?vid=8eb40f25-fc14-4288-9dd7-aae13b0a9b04","ios":"levelo://app?vid=8eb40f25-fc14-4288-9dd7-aae13b0a9b04"},"vehicle_type_id":"4","last_reported":1734037754,"current_range_meters":33200,"station_id":"cjm6bp8fraef2m0cb0m0","pricing_plan_id":"cebpf4jnsgd1na2vs0mg"},{"bike_id":"b8a7d334-6701-48cb-b976-cf4c708773bc","system_id":"levelo_inurba_marseille","lat":43.297121,"lon":5.365974,"is_reserved":false,"is_disabled":false,"rental_uris":{"android":"levelo://app?vid=b8a7d334-6701-48cb-b976-cf4c708773bc","ios":"levelo://app?vid=b8a7d334-6701-48cb-b976-cf4c708773bc"},"vehicle_type_id":"4","last_reported":1734037754,"current_range_meters":11200,"station_id":"ce4bgn12rcd13ifvqbt0","pricing_plan_id":"cebpf4jnsgd1na2vs0mg"},{"bike_id":"24d1dd30-e6fd-4cf7-8825-633bcd92df8c","system_id":"levelo_inurba_marseille","lat":43.2656,"lon":5.3901,"is_reserved":false,"is_disabled":false,"rental_uris":{"android":"levelo://app?vid=24d1dd30-e6fd-4cf7-8825-633bcd92df8c","ios":"levelo://app?vid=24d1dd30-e6fd-4cf7-8825-633bcd92df8c"},"vehicle_type_id":"4","last_reported":1734037754,"current_range_meters":34800,"station_id":"ce4bhe12rcd13ifvqf30","pricing_plan_id":"cebpf4jnsgd1na2vs0mg"},{"bike_id":"f3a40a5d-cef7-4614-9a73-c675fabca9fa","system_id":"levelo_inurba_marseille","lat":43.24813,"lon":5.37463,"is_reserved":false,"is_disabled":false,"rental_uris":{"android":"levelo://app?vid=f3a40a5d-cef7-4614-9a73-c675fabca9fa","ios":"levelo://app?vid=f3a40a5d-cef7-4614-9a73-c675fabca9fa"},"vehicle_type_id":"4","last_reported":1734037754,"current_range_meters":32800,"station_id":"ce4bhgh2rcd13ifvqfb0","pricing_plan_id":"cebpf4jnsgd1na2vs0mg"},{"bike_id":"ce4c7390-3de8-4776-bab7-8b30799fdcc8","system_id":"levelo_inurba_marseille","lat":43.29192,"lon":5.35799,"is_reserved":false,"is_disabled":true,"rental_uris":{"android":"levelo://app?vid=ce4c7390-3de8-4776-bab7-8b30799fdcc8","ios":"levelo://app?vid=ce4c7390-3de8-4776-bab7-8b30799fdcc8"},"vehicle_type_id":"4","last_reported":1734037754,"current_range_meters":33600,"station_id":"ce4bhb12rcd13ifvqel0","pricing_plan_id":"cebpf4jnsgd1na2vs0mg"},{"bike_id":"8a71f1d8-e6ca-4600-875d-5ae36050d7c2","system_id":"levelo_inurba_marseille","lat":43.29572,"lon":5.36736,"is_reserved":false,"is_disabled":false,"rental_uris":{"android":"levelo://app?vid=8a71f1d8-e6ca-4600-875d-5ae36050d7c2","ios":"levelo://app?vid=8a71f1d8-e6ca-4600-875d-5ae36050d7c2"},"vehicle_type_id":"4","last_reported":1734037754,"current_range_meters":27600,"station_id":"ce4bgph2rcd13ifvqc2g","pricing_plan_id":"cebpf4jnsgd1na2vs0mg"},{"bike_id":"976e1536-7249-425f-8cfa-22b5b9a9e0e3","system_id":"levelo_inurba_marseille","lat":43.28078,"lon":5.39657,"is_reserved":false,"is_disabled":false,"rental_uris":{"android":"levelo://app?vid=976e1536-7249-425f-8cfa-22b5b9a9e0e3","ios":"levelo://app?vid=976e1536-7249-425f-8cfa-22b5b9a9e0e3"},"vehicle_type_id":"4","last_reported":1734037754,"current_range_meters":38800,"station_id":"ce4bho12rcd13ifvqh2g","pricing_plan_id":"cebpf4jnsgd1na2vs0mg"},{"bike_id":"fe87f8f2-6e97-4611-93da-1318a830eb3c","system_id":"levelo_inurba_marseille","lat":43.27995,"lon":5.41657,"is_reserved":false,"is_disabled":true,"rental_uris":{"android":"levelo://app?vid=fe87f8f2-6e97-4611-93da-1318a830eb3c","ios":"levelo://app?vid=fe87f8f2-6e97-4611-93da-1318a830eb3c"},"vehicle_type_id":"4","last_reported":1734037754,"current_range_meters":38800,"station_id":"ce4bho12rcd13ifvqh1g","pricing_plan_id":"cebpf4jnsgd1na2vs0mg"},{"bike_id":"6cbfbc0e-6b40-495f-af72-824a6e03e097","system_id":"levelo_inurba_marseille","lat":43.29874,"lon":5.38921,"is_reserved":false,"is_disabled":false,"rental_uris":{"android":"levelo://app?vid=6cbfbc0e-6b40-495f-af72-824a6e03e097","ios":"levelo://app?vid=6cbfbc0e-6b40-495f-af72-824a6e03e097"},"vehicle_type_id":"4","last_reported":1734037754,"current_range_meters":39200,"station_id":"ce4bh392rcd13ifvqdl0","pricing_plan_id":"cebpf4jnsgd1na2vs0mg"},{"bike_id":"9be1e615-9094-4dfa-ac81-749ff7d35bed","system_id":"levelo_inurba_marseille","lat":43.2987,"lon":5.38894,"is_reserved":false,"is_disabled":false,"rental_uris":{"android":"levelo://app?vid=9be1e615-9094-4dfa-ac81-749ff7d35bed","ios":"levelo://app?vid=9be1e615-9094-4dfa-ac81-749ff7d35bed"},"vehicle_type_id":"4","last_reported":1734037754,"current_range_meters":28400,"station_id":"ce4bh392rcd13ifvqdl0","pricing_plan_id":"cebpf4jnsgd1na2vs0mg"},{"bike_id":"eaf4fa88-93af-42c4-ac71-6681b6449c9d","system_id":"levelo_inurba_marseille","lat":43.2718,"lon":5.40985,"is_reserved":false,"is_disabled":false,"rental_uris":{"android":"levelo://app?vid=eaf4fa88-93af-42c4-ac71-6681b6449c9d","ios":"levelo://app?vid=eaf4fa88-93af-42c4-ac71-6681b6449c9d"},"vehicle_type_id":"4","last_reported":1734037754,"current_range_meters":38800,"station_id":"ce4bhl12rcd13ifvqgf0","pricing_plan_id":"cebpf4jnsgd1na2vs0mg"},{"bike_id":"199f7d63-3a72-40c5-8716-507ac0e9e64b","system_id":"levelo_inurba_marseille","lat":43.31529,"lon":5.38029,"is_reserved":false,"is_disabled":false,"rental_uris":{"android":"levelo://app?vid=199f7d63-3a72-40c5-8716-507ac0e9e64b","ios":"levelo://app?vid=199f7d63-3a72-40c5-8716-507ac0e9e64b"},"vehicle_type_id":"4","last_reported":1734037754,"current_range_meters":32400,"station_id":"ce4bhsp2rcd13ifvqi50","pricing_plan_id":"cebpf4jnsgd1na2vs0mg"},{"bike_id":"9adbaaae-97a2-4d16-9676-ac344bccc81a","system_id":"levelo_inurba_marseille","lat":43.29969,"lon":5.41333,"is_reserved":false,"is_disabled":false,"rental_uris":{"android":"levelo://app?vid=9adbaaae-97a2-4d16-9676-ac344bccc81a","ios":"levelo://app?vid=9adbaaae-97a2-4d16-9676-ac344bccc81a"},"vehicle_type_id":"4","last_reported":1734037754,"current_range_meters":37600,"station_id":"ce4bhp12rcd13ifvqh9g","pricing_plan_id":"cebpf4jnsgd1na2vs0mg"},{"bike_id":"7728fdce-b39b-492a-b76d-af2e495b1f87","system_id":"levelo_inurba_marseille","lat":43.28462,"lon":5.35896,"is_reserved":false,"is_disabled":false,"rental_uris":{"android":"levelo://app?vid=7728fdce-b39b-492a-b76d-af2e495b1f87","ios":"levelo://app?vid=7728fdce-b39b-492a-b76d-af2e495b1f87"},"vehicle_type_id":"4","last_reported":1734037754,"current_range_meters":12400,"station_id":"ce4bhah2rcd13ifvqei0","pricing_plan_id":"cebpf4jnsgd1na2vs0mg"},{"bike_id":"0c3dd50b-c3e5-4af5-9cb3-0d200d12a110","system_id":"levelo_inurba_marseille","lat":43.23192,"lon":5.39996,"is_reserved":false,"is_disabled":false,"rental_uris":{"android":"levelo://app?vid=0c3dd50b-c3e5-4af5-9cb3-0d200d12a110","ios":"levelo://app?vid=0c3dd50b-c3e5-4af5-9cb3-0d200d12a110"},"vehicle_type_id":"4","last_reported":1734037754,"current_range_meters":19600,"station_id":"ce4bhn12rcd13ifvqgqg","pricing_plan_id":"cebpf4jnsgd1na2vs0mg"},{"bike_id":"8a4d7f78-d49b-4e09-bd84-6b0edf92f97f","system_id":"levelo_inurba_marseille","lat":43.28733,"lon":5.36084,"is_reserved":false,"is_disabled":false,"rental_uris":{"android":"levelo://app?vid=8a4d7f78-d49b-4e09-bd84-6b0edf92f97f","ios":"levelo://app?vid=8a4d7f78-d49b-4e09-bd84-6b0edf92f97f"},"vehicle_type_id":"4","last_reported":1734037754,"current_range_meters":39200,"station_id":"cki0cbj6b192h4jlfktg","pricing_plan_id":"cebpf4jnsgd1na2vs0mg"},{"bike_id":"38eb172d-a077-4ca7-9a48-d1565bc55b20","system_id":"levelo_inurba_marseille","lat":43.32285,"lon":5.38258,"is_reserved":false,"is_disabled":true,"rental_uris":{"android":"levelo://app?vid=38eb172d-a077-4ca7-9a48-d1565bc55b20","ios":"levelo://app?vid=38eb172d-a077-4ca7-9a48-d1565bc55b20"},"vehicle_type_id":"4","last_reported":1734037754,"current_range_meters":2000,"station_id":"ce4bhr12rcd13ifvqhqg","pricing_plan_id":"cebpf4jnsgd1na2vs0mg"},{"bike_id":"23b203e2-b068-4fc8-9a12-e11cba490e91","system_id":"levelo_inurba_marseille","lat":43.25579,"lon":5.38238,"is_reserved":false,"is_disabled":false,"rental_uris":{"android":"levelo://app?vid=23b203e2-b068-4fc8-9a12-e11cba490e91","ios":"levelo://app?vid=23b203e2-b068-4fc8-9a12-e11cba490e91"},"vehicle_type_id":"4","last_reported":1734037754,"current_range_meters":38800,"station_id":"ce4bhih2rcd13ifvqfs0","pricing_plan_id":"cebpf4jnsgd1na2vs0mg"},{"bike_id":"516bcbce-8b75-4610-9ee5-df08b7034853","system_id":"levelo_inurba_marseille","lat":43.26773,"lon":5.39456,"is_reserved":false,"is_disabled":false,"rental_uris":{"android":"levelo://app?vid=516bcbce-8b75-4610-9ee5-df08b7034853","ios":"levelo://app?vid=516bcbce-8b75-4610-9ee5-df08b7034853"},"vehicle_type_id":"4","last_reported":1734037754,"current_range_meters":38800,"station_id":"ce4bhh12rcd13ifvqfg0","pricing_plan_id":"cebpf4jnsgd1na2vs0mg"},{"bike_id":"584a244b-3e86-41c2-acdd-8059db2f3afd","system_id":"levelo_inurba_marseille","lat":43.30785,"lon":5.37641,"is_reserved":false,"is_disabled":false,"rental_uris":{"android":"levelo://app?vid=584a244b-3e86-41c2-acdd-8059db2f3afd","ios":"levelo://app?vid=584a244b-3e86-41c2-acdd-8059db2f3afd"},"vehicle_type_id":"4","last_reported":1734037754,"current_range_meters":27200,"station_id":"ce4bgv92rcd13ifvqcq0","pricing_plan_id":"cebpf4jnsgd1na2vs0mg"},{"bike_id":"80f66b82-54aa-4843-b64e-91d3afce4948","system_id":"levelo_inurba_marseille","lat":43.308,"lon":5.37316,"is_reserved":false,"is_disabled":true,"rental_uris":{"android":"levelo://app?vid=80f66b82-54aa-4843-b64e-91d3afce4948","ios":"levelo://app?vid=80f66b82-54aa-4843-b64e-91d3afce4948"},"vehicle_type_id":"4","last_reported":1734037754,"current_range_meters":25600,"station_id":"","pricing_plan_id":"cebpf4jnsgd1na2vs0mg"},{"bike_id":"a63958b5-e1f7-4b1a-9554-85840167b0f7","system_id":"levelo_inurba_marseille","lat":43.231937,"lon":5.39971,"is_reserved":false,"is_disabled":false,"rental_uris":{"android":"levelo://app?vid=a63958b5-e1f7-4b1a-9554-85840167b0f7","ios":"levelo://app?vid=a63958b5-e1f7-4b1a-9554-85840167b0f7"},"vehicle_type_id":"4","last_reported":1734037754,"current_range_meters":38800,"station_id":"ce4bhn12rcd13ifvqgqg","pricing_plan_id":"cebpf4jnsgd1na2vs0mg"},{"bike_id":"4975539e-bcbe-4ed8-8254-e8f67fe2aaf4","system_id":"levelo_inurba_marseille","lat":43.28853,"lon":5.39308,"is_reserved":false,"is_disabled":false,"rental_uris":{"android":"levelo://app?vid=4975539e-bcbe-4ed8-8254-e8f67fe2aaf4","ios":"levelo://app?vid=4975539e-bcbe-4ed8-8254-e8f67fe2aaf4"},"vehicle_type_id":"4","last_reported":1734037754,"current_range_meters":26000,"station_id":"ce4bh2p2rcd13ifvqdi0","pricing_plan_id":"cebpf4jnsgd1na2vs0mg"},{"bike_id":"87fce182-3296-4aa0-bc7c-a2decdf4c36c","system_id":"levelo_inurba_marseille","lat":43.2842,"lon":5.37518,"is_reserved":false,"is_disabled":false,"rental_uris":{"android":"levelo://app?vid=87fce182-3296-4aa0-bc7c-a2decdf4c36c","ios":"levelo://app?vid=87fce182-3296-4aa0-bc7c-a2decdf4c36c"},"vehicle_type_id":"4","last_reported":1734037754,"current_range_meters":16400,"station_id":"ce4bh412rcd13ifvqds0","pricing_plan_id":"cebpf4jnsgd1na2vs0mg"},{"bike_id":"3a56946e-b571-4f0a-89c3-228266a44430","system_id":"levelo_inurba_marseille","lat":43.26597,"lon":5.38971,"is_reserved":false,"is_disabled":true,"rental_uris":{"android":"levelo://app?vid=3a56946e-b571-4f0a-89c3-228266a44430","ios":"levelo://app?vid=3a56946e-b571-4f0a-89c3-228266a44430"},"vehicle_type_id":"4","last_reported":1734037754,"current_range_meters":1600,"station_id":"","pricing_plan_id":"cebpf4jnsgd1na2vs0mg"},{"bike_id":"05825c92-f0d6-456c-bae7-11f44a9e1090","system_id":"levelo_inurba_marseille","lat":43.30651,"lon":5.40091,"is_reserved":false,"is_disabled":false,"rental_uris":{"android":"levelo://app?vid=05825c92-f0d6-456c-bae7-11f44a9e1090","ios":"levelo://app?vid=05825c92-f0d6-456c-bae7-11f44a9e1090"},"vehicle_type_id":"4","last_reported":1734037754,"current_range_meters":10800,"station_id":"ce4bh112rcd13ifvqda0","pricing_plan_id":"cebpf4jnsgd1na2vs0mg"},{"bike_id":"5da35048-365f-4c26-b899-7414eb3a70fd","system_id":"levelo_inurba_marseille","lat":43.30931,"lon":5.40144,"is_reserved":false,"is_disabled":true,"rental_uris":{"android":"levelo://app?vid=5da35048-365f-4c26-b899-7414eb3a70fd","ios":"levelo://app?vid=5da35048-365f-4c26-b899-7414eb3a70fd"},"vehicle_type_id":"4","last_reported":1734037754,"current_range_meters":0,"station_id":"ce4bgvp2rcd13ifvqct0","pricing_plan_id":"cebpf4jnsgd1na2vs0mg"},{"bike_id":"3ea1724b-cceb-4cf7-893e-08ded22dd304","system_id":"levelo_inurba_marseille","lat":43.27819,"lon":5.40699,"is_reserved":false,"is_disabled":false,"rental_uris":{"android":"levelo://app?vid=3ea1724b-cceb-4cf7-893e-08ded22dd304","ios":"levelo://app?vid=3ea1724b-cceb-4cf7-893e-08ded22dd304"},"vehicle_type_id":"4","last_reported":1734037754,"current_range_meters":20000,"station_id":"ce4bhnh2rcd13ifvqgtg","pricing_plan_id":"cebpf4jnsgd1na2vs0mg"},{"bike_id":"915b04a0-0b5c-41e7-adab-04aedccd4406","system_id":"levelo_inurba_marseille","lat":43.28264,"lon":5.35072,"is_reserved":false,"is_disabled":false,"rental_uris":{"android":"levelo://app?vid=915b04a0-0b5c-41e7-adab-04aedccd4406","ios":"levelo://app?vid=915b04a0-0b5c-41e7-adab-04aedccd4406"},"vehicle_type_id":"4","last_reported":1734037754,"current_range_meters":35200,"station_id":"ce4bhbp2rcd13ifvqerg","pricing_plan_id":"cebpf4jnsgd1na2vs0mg"},{"bike_id":"bcf9e5dd-9165-4770-8c13-89762617e19d","system_id":"levelo_inurba_marseille","lat":43.3078,"lon":5.37656,"is_reserved":false,"is_disabled":false,"rental_uris":{"android":"levelo://app?vid=bcf9e5dd-9165-4770-8c13-89762617e19d","ios":"levelo://app?vid=bcf9e5dd-9165-4770-8c13-89762617e19d"},"vehicle_type_id":"4","last_reported":1734037754,"current_range_meters":39200,"station_id":"ce4bgv92rcd13ifvqcq0","pricing_plan_id":"cebpf4jnsgd1na2vs0mg"},{"bike_id":"48f89538-caef-48c0-b76c-a236ac0f81eb","system_id":"levelo_inurba_marseille","lat":43.2955,"lon":5.38542,"is_reserved":false,"is_disabled":true,"rental_uris":{"android":"levelo://app?vid=48f89538-caef-48c0-b76c-a236ac0f81eb","ios":"levelo://app?vid=48f89538-caef-48c0-b76c-a236ac0f81eb"},"vehicle_type_id":"4","last_reported":1734037754,"current_range_meters":24400,"station_id":"ce4bgih2rcd13ifvqba0","pricing_plan_id":"cebpf4jnsgd1na2vs0mg"},{"bike_id":"edaea664-24e0-4d6c-aa7a-497f5c5f88f6","system_id":"levelo_inurba_marseille","lat":43.27004,"lon":5.39153,"is_reserved":false,"is_disabled":true,"rental_uris":{"android":"levelo://app?vid=edaea664-24e0-4d6c-aa7a-497f5c5f88f6","ios":"levelo://app?vid=edaea664-24e0-4d6c-aa7a-497f5c5f88f6"},"vehicle_type_id":"4","last_reported":1734037754,"current_range_meters":800,"station_id":"","pricing_plan_id":"cebpf4jnsgd1na2vs0mg"},{"bike_id":"bf067af6-6d4e-462d-b00f-169d5c27dc6d","system_id":"levelo_inurba_marseille","lat":43.29534,"lon":5.38541,"is_reserved":false,"is_disabled":false,"rental_uris":{"android":"levelo://app?vid=bf067af6-6d4e-462d-b00f-169d5c27dc6d","ios":"levelo://app?vid=bf067af6-6d4e-462d-b00f-169d5c27dc6d"},"vehicle_type_id":"4","last_reported":1734037754,"current_range_meters":22800,"station_id":"ce4bgih2rcd13ifvqba0","pricing_plan_id":"cebpf4jnsgd1na2vs0mg"},{"bike_id":"b13f7988-892d-489e-89d4-b900be8b8ffb","system_id":"levelo_inurba_marseille","lat":43.29708,"lon":5.37283,"is_reserved":false,"is_disabled":true,"rental_uris":{"android":"levelo://app?vid=b13f7988-892d-489e-89d4-b900be8b8ffb","ios":"levelo://app?vid=b13f7988-892d-489e-89d4-b900be8b8ffb"},"vehicle_type_id":"4","last_reported":1734037754,"current_range_meters":38400,"station_id":"ce4bgk12rcd13ifvqbj0","pricing_plan_id":"cebpf4jnsgd1na2vs0mg"},{"bike_id":"aa06cd65-ffd0-4327-a82e-3e69bda75dc1","system_id":"levelo_inurba_marseille","lat":43.26564,"lon":5.39009,"is_reserved":false,"is_disabled":false,"rental_uris":{"android":"levelo://app?vid=aa06cd65-ffd0-4327-a82e-3e69bda75dc1","ios":"levelo://app?vid=aa06cd65-ffd0-4327-a82e-3e69bda75dc1"},"vehicle_type_id":"4","last_reported":1734037754,"current_range_meters":20800,"station_id":"ce4bhe12rcd13ifvqf30","pricing_plan_id":"cebpf4jnsgd1na2vs0mg"},{"bike_id":"9e1a4fcb-9b56-4903-90ff-c083b68169ee","system_id":"levelo_inurba_marseille","lat":43.29702,"lon":5.36612,"is_reserved":false,"is_disabled":false,"rental_uris":{"android":"levelo://app?vid=9e1a4fcb-9b56-4903-90ff-c083b68169ee","ios":"levelo://app?vid=9e1a4fcb-9b56-4903-90ff-c083b68169ee"},"vehicle_type_id":"4","last_reported":1734037754,"current_range_meters":38400,"station_id":"ce4bgn12rcd13ifvqbt0","pricing_plan_id":"cebpf4jnsgd1na2vs0mg"},{"bike_id":"acd467f1-d44f-47da-a00c-619ab570f071","system_id":"levelo_inurba_marseille","lat":43.29579,"lon":5.36739,"is_reserved":false,"is_disabled":false,"rental_uris":{"android":"levelo://app?vid=acd467f1-d44f-47da-a00c-619ab570f071","ios":"levelo://app?vid=acd467f1-d44f-47da-a00c-619ab570f071"},"vehicle_type_id":"4","last_reported":1734037754,"current_range_meters":38400,"station_id":"ce4bgph2rcd13ifvqc2g","pricing_plan_id":"cebpf4jnsgd1na2vs0mg"},{"bike_id":"11933e04-d81a-4d25-aa83-cc295172b3a1","system_id":"levelo_inurba_marseille","lat":43.25408,"lon":5.38273,"is_reserved":false,"is_disabled":true,"rental_uris":{"android":"levelo://app?vid=11933e04-d81a-4d25-aa83-cc295172b3a1","ios":"levelo://app?vid=11933e04-d81a-4d25-aa83-cc295172b3a1"},"vehicle_type_id":"4","last_reported":1734037754,"current_range_meters":28400,"station_id":"","pricing_plan_id":"cebpf4jnsgd1na2vs0mg"},{"bike_id":"6501d5cd-4dd5-4a19-afdb-ab2df9095f1a","system_id":"levelo_inurba_marseille","lat":43.29279,"lon":5.40119,"is_reserved":false,"is_disabled":false,"rental_uris":{"android":"levelo://app?vid=6501d5cd-4dd5-4a19-afdb-ab2df9095f1a","ios":"levelo://app?vid=6501d5cd-4dd5-4a19-afdb-ab2df9095f1a"},"vehicle_type_id":"4","last_reported":1734037754,"current_range_meters":35600,"station_id":"ce4bh312rcd13ifvqdk0","pricing_plan_id":"cebpf4jnsgd1na2vs0mg"},{"bike_id":"d256483c-f1ba-4eec-b427-5b2aeb560d85","system_id":"levelo_inurba_marseille","lat":43.30926,"lon":5.40136,"is_reserved":false,"is_disabled":false,"rental_uris":{"android":"levelo://app?vid=d256483c-f1ba-4eec-b427-5b2aeb560d85","ios":"levelo://app?vid=d256483c-f1ba-4eec-b427-5b2aeb560d85"},"vehicle_type_id":"4","last_reported":1734037754,"current_range_meters":39200,"station_id":"ce4bgvp2rcd13ifvqct0","pricing_plan_id":"cebpf4jnsgd1na2vs0mg"},{"bike_id":"6eba0172-c018-4556-82f7-1185f87fb948","system_id":"levelo_inurba_marseille","lat":43.2465,"lon":5.38894,"is_reserved":false,"is_disabled":false,"rental_uris":{"android":"levelo://app?vid=6eba0172-c018-4556-82f7-1185f87fb948","ios":"levelo://app?vid=6eba0172-c018-4556-82f7-1185f87fb948"},"vehicle_type_id":"4","last_reported":1734037754,"current_range_meters":16000,"station_id":"ce4bhg12rcd13ifvqf60","pricing_plan_id":"cebpf4jnsgd1na2vs0mg"},{"bike_id":"44043e74-3bb0-47c4-bd3e-6ee7a2f22137","system_id":"levelo_inurba_marseille","lat":43.28848,"lon":5.39313,"is_reserved":false,"is_disabled":false,"rental_uris":{"android":"levelo://app?vid=44043e74-3bb0-47c4-bd3e-6ee7a2f22137","ios":"levelo://app?vid=44043e74-3bb0-47c4-bd3e-6ee7a2f22137"},"vehicle_type_id":"4","last_reported":1734037754,"current_range_meters":27600,"station_id":"ce4bh2p2rcd13ifvqdi0","pricing_plan_id":"cebpf4jnsgd1na2vs0mg"},{"bike_id":"30b7f7b0-cffb-44e8-9e23-86428fe1183d","system_id":"levelo_inurba_marseille","lat":43.23073,"lon":5.35479,"is_reserved":false,"is_disabled":false,"rental_uris":{"android":"levelo://app?vid=30b7f7b0-cffb-44e8-9e23-86428fe1183d","ios":"levelo://app?vid=30b7f7b0-cffb-44e8-9e23-86428fe1183d"},"vehicle_type_id":"4","last_reported":1734037754,"current_range_meters":6800,"station_id":"cpo3342slgdg3j2ifvpg","pricing_plan_id":"cebpf4jnsgd1na2vs0mg"},{"bike_id":"cdee45cd-2c85-49c5-ad4f-3d1f26b7f88f","system_id":"levelo_inurba_marseille","lat":43.31338,"lon":5.39681,"is_reserved":false,"is_disabled":false,"rental_uris":{"android":"levelo://app?vid=cdee45cd-2c85-49c5-ad4f-3d1f26b7f88f","ios":"levelo://app?vid=cdee45cd-2c85-49c5-ad4f-3d1f26b7f88f"},"vehicle_type_id":"4","last_reported":1734037754,"current_range_meters":24000,"station_id":"ce4bgvp2rcd13ifvqcu0","pricing_plan_id":"cebpf4jnsgd1na2vs0mg"},{"bike_id":"c962957d-ec10-4997-96e1-a869343f922e","system_id":"levelo_inurba_marseille","lat":43.32667,"lon":5.3609,"is_reserved":false,"is_disabled":false,"rental_uris":{"android":"levelo://app?vid=c962957d-ec10-4997-96e1-a869343f922e","ios":"levelo://app?vid=c962957d-ec10-4997-96e1-a869343f922e"},"vehicle_type_id":"4","last_reported":1734037754,"current_range_meters":8400,"station_id":"","pricing_plan_id":"cebpf4jnsgd1na2vs0mg"},{"bike_id":"32a767c5-f0ae-4b08-b2a9-56fb3e20cf9b","system_id":"levelo_inurba_marseille","lat":43.2954,"lon":5.42292,"is_reserved":false,"is_disabled":false,"rental_uris":{"android":"levelo://app?vid=32a767c5-f0ae-4b08-b2a9-56fb3e20cf9b","ios":"levelo://app?vid=32a767c5-f0ae-4b08-b2a9-56fb3e20cf9b"},"vehicle_type_id":"4","last_reported":1734037754,"current_range_meters":20000,"station_id":"ce4bhph2rcd13ifvqhdg","pricing_plan_id":"cebpf4jnsgd1na2vs0mg"},{"bike_id":"956be3a6-8942-4caf-b1a1-bd842fc243b7","system_id":"levelo_inurba_marseille","lat":43.28276,"lon":5.35084,"is_reserved":false,"is_disabled":false,"rental_uris":{"android":"levelo://app?vid=956be3a6-8942-4caf-b1a1-bd842fc243b7","ios":"levelo://app?vid=956be3a6-8942-4caf-b1a1-bd842fc243b7"},"vehicle_type_id":"4","last_reported":1734037754,"current_range_meters":35600,"station_id":"ce4bhbp2rcd13ifvqerg","pricing_plan_id":"cebpf4jnsgd1na2vs0mg"},{"bike_id":"80e7d90a-8050-4fc6-8802-63867dac5ff2","system_id":"levelo_inurba_marseille","lat":43.28714,"lon":5.37394,"is_reserved":false,"is_disabled":true,"rental_uris":{"android":"levelo://app?vid=80e7d90a-8050-4fc6-8802-63867dac5ff2","ios":"levelo://app?vid=80e7d90a-8050-4fc6-8802-63867dac5ff2"},"vehicle_type_id":"4","last_reported":1734037754,"current_range_meters":36400,"station_id":"ce4bh3p2rcd13ifvqdq0","pricing_plan_id":"cebpf4jnsgd1na2vs0mg"},{"bike_id":"089f9ec9-a1f3-4d1e-a526-91033663c250","system_id":"levelo_inurba_marseille","lat":43.30994,"lon":5.4173,"is_reserved":false,"is_disabled":false,"rental_uris":{"android":"levelo://app?vid=089f9ec9-a1f3-4d1e-a526-91033663c250","ios":"levelo://app?vid=089f9ec9-a1f3-4d1e-a526-91033663c250"},"vehicle_type_id":"4","last_reported":1734037754,"current_range_meters":28000,"station_id":"","pricing_plan_id":"cebpf4jnsgd1na2vs0mg"},{"bike_id":"b3c69b6c-4963-461e-93ee-737b8bb175af","system_id":"levelo_inurba_marseille","lat":43.28708,"lon":5.39993,"is_reserved":false,"is_disabled":false,"rental_uris":{"android":"levelo://app?vid=b3c69b6c-4963-461e-93ee-737b8bb175af","ios":"levelo://app?vid=b3c69b6c-4963-461e-93ee-737b8bb175af"},"vehicle_type_id":"4","last_reported":1734037754,"current_range_meters":36800,"station_id":"ce4bho92rcd13ifvqh3g","pricing_plan_id":"cebpf4jnsgd1na2vs0mg"},{"bike_id":"75e97ce8-8ed5-4d27-8f31-01c51f6d48e8","system_id":"levelo_inurba_marseille","lat":43.24277,"lon":5.379443,"is_reserved":false,"is_disabled":false,"rental_uris":{"android":"levelo://app?vid=75e97ce8-8ed5-4d27-8f31-01c51f6d48e8","ios":"levelo://app?vid=75e97ce8-8ed5-4d27-8f31-01c51f6d48e8"},"vehicle_type_id":"4","last_reported":1734037754,"current_range_meters":38800,"station_id":"ce4bhhp2rcd13ifvqfm0","pricing_plan_id":"cebpf4jnsgd1na2vs0mg"},{"bike_id":"3cc49aec-0146-4bd6-8ced-13dc2b354f47","system_id":"levelo_inurba_marseille","lat":43.23192,"lon":5.39971,"is_reserved":false,"is_disabled":false,"rental_uris":{"android":"levelo://app?vid=3cc49aec-0146-4bd6-8ced-13dc2b354f47","ios":"levelo://app?vid=3cc49aec-0146-4bd6-8ced-13dc2b354f47"},"vehicle_type_id":"4","last_reported":1734037754,"current_range_meters":38800,"station_id":"ce4bhn12rcd13ifvqgqg","pricing_plan_id":"cebpf4jnsgd1na2vs0mg"},{"bike_id":"32eb0ea6-480c-4ad6-a51b-a5728e205f14","system_id":"levelo_inurba_marseille","lat":43.30145,"lon":5.38786,"is_reserved":false,"is_disabled":false,"rental_uris":{"android":"levelo://app?vid=32eb0ea6-480c-4ad6-a51b-a5728e205f14","ios":"levelo://app?vid=32eb0ea6-480c-4ad6-a51b-a5728e205f14"},"vehicle_type_id":"4","last_reported":1734037754,"current_range_meters":38800,"station_id":"ce4bhoh2rcd13ifvqh6g","pricing_plan_id":"cebpf4jnsgd1na2vs0mg"},{"bike_id":"e79247d7-f349-4d85-b8cc-75ca92971f51","system_id":"levelo_inurba_marseille","lat":43.330381,"lon":5.390563,"is_reserved":false,"is_disabled":false,"rental_uris":{"android":"levelo://app?vid=e79247d7-f349-4d85-b8cc-75ca92971f51","ios":"levelo://app?vid=e79247d7-f349-4d85-b8cc-75ca92971f51"},"vehicle_type_id":"4","last_reported":1734037754,"current_range_meters":38800,"station_id":"ce4bhr92rcd13ifvqhrg","pricing_plan_id":"cebpf4jnsgd1na2vs0mg"},{"bike_id":"b773f0c7-24dd-42e5-8c06-4f4f47ee5974","system_id":"levelo_inurba_marseille","lat":43.2587,"lon":5.39904,"is_reserved":false,"is_disabled":false,"rental_uris":{"android":"levelo://app?vid=b773f0c7-24dd-42e5-8c06-4f4f47ee5974","ios":"levelo://app?vid=b773f0c7-24dd-42e5-8c06-4f4f47ee5974"},"vehicle_type_id":"4","last_reported":1734037754,"current_range_meters":38800,"station_id":"ce4bhl92rcd13ifvqghg","pricing_plan_id":"cebpf4jnsgd1na2vs0mg"},{"bike_id":"eb01c2c1-238a-4baf-bf6a-4933c4215456","system_id":"levelo_inurba_marseille","lat":43.30428,"lon":5.39757,"is_reserved":false,"is_disabled":false,"rental_uris":{"android":"levelo://app?vid=eb01c2c1-238a-4baf-bf6a-4933c4215456","ios":"levelo://app?vid=eb01c2c1-238a-4baf-bf6a-4933c4215456"},"vehicle_type_id":"4","last_reported":1734037754,"current_range_meters":34800,"station_id":"ce4bh092rcd13ifvqd20","pricing_plan_id":"cebpf4jnsgd1na2vs0mg"},{"bike_id":"e6a36072-a399-485e-a1d6-06b393c73379","system_id":"levelo_inurba_marseille","lat":43.29557,"lon":5.42294,"is_reserved":false,"is_disabled":false,"rental_uris":{"android":"levelo://app?vid=e6a36072-a399-485e-a1d6-06b393c73379","ios":"levelo://app?vid=e6a36072-a399-485e-a1d6-06b393c73379"},"vehicle_type_id":"4","last_reported":1734037754,"current_range_meters":34800,"station_id":"ce4bhph2rcd13ifvqhdg","pricing_plan_id":"cebpf4jnsgd1na2vs0mg"},{"bike_id":"e43eb1f6-3ba6-4ad6-96a6-9bab6d7b3199","system_id":"levelo_inurba_marseille","lat":43.27057,"lon":5.40313,"is_reserved":false,"is_disabled":true,"rental_uris":{"android":"levelo://app?vid=e43eb1f6-3ba6-4ad6-96a6-9bab6d7b3199","ios":"levelo://app?vid=e43eb1f6-3ba6-4ad6-96a6-9bab6d7b3199"},"vehicle_type_id":"4","last_reported":1734037754,"current_range_meters":36000,"station_id":"ce4bhk92rcd13ifvqgc0","pricing_plan_id":"cebpf4jnsgd1na2vs0mg"},{"bike_id":"d2a98a1f-64a2-40e5-aa0b-ffab91cc3d62","system_id":"levelo_inurba_marseille","lat":43.29023,"lon":5.38132,"is_reserved":false,"is_disabled":true,"rental_uris":{"android":"levelo://app?vid=d2a98a1f-64a2-40e5-aa0b-ffab91cc3d62","ios":"levelo://app?vid=d2a98a1f-64a2-40e5-aa0b-ffab91cc3d62"},"vehicle_type_id":"4","last_reported":1734037754,"current_range_meters":24800,"station_id":"ce4bh4p2rcd13ifvqe1g","pricing_plan_id":"cebpf4jnsgd1na2vs0mg"},{"bike_id":"76ff1961-c0b3-46e5-8a96-8cdd004f58ad","system_id":"levelo_inurba_marseille","lat":43.30884,"lon":5.3966,"is_reserved":false,"is_disabled":false,"rental_uris":{"android":"levelo://app?vid=76ff1961-c0b3-46e5-8a96-8cdd004f58ad","ios":"levelo://app?vid=76ff1961-c0b3-46e5-8a96-8cdd004f58ad"},"vehicle_type_id":"4","last_reported":1734037754,"current_range_meters":8800,"station_id":"ce4bh012rcd13ifvqcv0","pricing_plan_id":"cebpf4jnsgd1na2vs0mg"},{"bike_id":"af67ac53-ba21-4ff0-8334-95679e9ff2cc","system_id":"levelo_inurba_marseille","lat":43.278805,"lon":5.388003,"is_reserved":false,"is_disabled":true,"rental_uris":{"android":"levelo://app?vid=af67ac53-ba21-4ff0-8334-95679e9ff2cc","ios":"levelo://app?vid=af67ac53-ba21-4ff0-8334-95679e9ff2cc"},"vehicle_type_id":"4","last_reported":1734037754,"current_range_meters":9600,"station_id":"","pricing_plan_id":"cebpf4jnsgd1na2vs0mg"},{"bike_id":"ade66eb7-5111-4a1a-adb9-998c08093abb","system_id":"levelo_inurba_marseille","lat":43.31759,"lon":5.39022,"is_reserved":false,"is_disabled":false,"rental_uris":{"android":"levelo://app?vid=ade66eb7-5111-4a1a-adb9-998c08093abb","ios":"levelo://app?vid=ade66eb7-5111-4a1a-adb9-998c08093abb"},"vehicle_type_id":"4","last_reported":1734037754,"current_range_meters":10000,"station_id":"ce4bhqp2rcd13ifvqhng","pricing_plan_id":"cebpf4jnsgd1na2vs0mg"},{"bike_id":"84778a4f-c0f4-4ce5-be03-9b3429bc22cb","system_id":"levelo_inurba_marseille","lat":43.28697,"lon":5.37405,"is_reserved":false,"is_disabled":false,"rental_uris":{"android":"levelo://app?vid=84778a4f-c0f4-4ce5-be03-9b3429bc22cb","ios":"levelo://app?vid=84778a4f-c0f4-4ce5-be03-9b3429bc22cb"},"vehicle_type_id":"4","last_reported":1734037754,"current_range_meters":10800,"station_id":"ce4bh3p2rcd13ifvqdq0","pricing_plan_id":"cebpf4jnsgd1na2vs0mg"},{"bike_id":"f77c0910-6be8-437c-9b37-31678d5bf201","system_id":"levelo_inurba_marseille","lat":43.30879,"lon":5.3964,"is_reserved":false,"is_disabled":false,"rental_uris":{"android":"levelo://app?vid=f77c0910-6be8-437c-9b37-31678d5bf201","ios":"levelo://app?vid=f77c0910-6be8-437c-9b37-31678d5bf201"},"vehicle_type_id":"4","last_reported":1734037754,"current_range_meters":24800,"station_id":"ce4bh012rcd13ifvqcv0","pricing_plan_id":"cebpf4jnsgd1na2vs0mg"},{"bike_id":"a8952a43-ed45-4b45-98c8-1bb60ae3ae5a","system_id":"levelo_inurba_marseille","lat":43.30776,"lon":5.37659,"is_reserved":false,"is_disabled":true,"rental_uris":{"android":"levelo://app?vid=a8952a43-ed45-4b45-98c8-1bb60ae3ae5a","ios":"levelo://app?vid=a8952a43-ed45-4b45-98c8-1bb60ae3ae5a"},"vehicle_type_id":"4","last_reported":1734037754,"current_range_meters":2000,"station_id":"ce4bgv92rcd13ifvqcq0","pricing_plan_id":"cebpf4jnsgd1na2vs0mg"},{"bike_id":"e629dc09-435c-49ef-9023-81bcbfdc66e3","system_id":"levelo_inurba_marseille","lat":43.29083,"lon":5.3717,"is_reserved":false,"is_disabled":true,"rental_uris":{"android":"levelo://app?vid=e629dc09-435c-49ef-9023-81bcbfdc66e3","ios":"levelo://app?vid=e629dc09-435c-49ef-9023-81bcbfdc66e3"},"vehicle_type_id":"4","last_reported":1734037754,"current_range_meters":38800,"station_id":"ce4bh5p2rcd13ifvqe4g","pricing_plan_id":"cebpf4jnsgd1na2vs0mg"},{"bike_id":"2863b9fc-1102-4394-a6ac-204ed254f891","system_id":"levelo_inurba_marseille","lat":43.30245,"lon":5.40083,"is_reserved":false,"is_disabled":false,"rental_uris":{"android":"levelo://app?vid=2863b9fc-1102-4394-a6ac-204ed254f891","ios":"levelo://app?vid=2863b9fc-1102-4394-a6ac-204ed254f891"},"vehicle_type_id":"4","last_reported":1734037754,"current_range_meters":38800,"station_id":"ce4bgvh2rcd13ifvqcs0","pricing_plan_id":"cebpf4jnsgd1na2vs0mg"},{"bike_id":"33400e60-39b9-42c2-89ef-b84fdae2a31c","system_id":"levelo_inurba_marseille","lat":43.28104,"lon":5.37848,"is_reserved":false,"is_disabled":false,"rental_uris":{"android":"levelo://app?vid=33400e60-39b9-42c2-89ef-b84fdae2a31c","ios":"levelo://app?vid=33400e60-39b9-42c2-89ef-b84fdae2a31c"},"vehicle_type_id":"4","last_reported":1734037754,"current_range_meters":30000,"station_id":"ce4bha12rcd13ifvqee0","pricing_plan_id":"cebpf4jnsgd1na2vs0mg"},{"bike_id":"d65fcea9-51ba-41f0-86fd-e798dfdd6f09","system_id":"levelo_inurba_marseille","lat":43.2868,"lon":5.38309,"is_reserved":false,"is_disabled":true,"rental_uris":{"android":"levelo://app?vid=d65fcea9-51ba-41f0-86fd-e798dfdd6f09","ios":"levelo://app?vid=d65fcea9-51ba-41f0-86fd-e798dfdd6f09"},"vehicle_type_id":"4","last_reported":1734037754,"current_range_meters":1200,"station_id":"","pricing_plan_id":"cebpf4jnsgd1na2vs0mg"},{"bike_id":"9f90c432-ac23-4439-a028-afaf147c7c4b","system_id":"levelo_inurba_marseille","lat":43.27498,"lon":5.42453,"is_reserved":false,"is_disabled":false,"rental_uris":{"android":"levelo://app?vid=9f90c432-ac23-4439-a028-afaf147c7c4b","ios":"levelo://app?vid=9f90c432-ac23-4439-a028-afaf147c7c4b"},"vehicle_type_id":"4","last_reported":1734037754,"current_range_meters":8800,"station_id":"ce4bhn92rcd13ifvqgrg","pricing_plan_id":"cebpf4jnsgd1na2vs0mg"},{"bike_id":"3cffa040-7e8b-4d9e-a1bd-b8a78d782447","system_id":"levelo_inurba_marseille","lat":43.31492,"lon":5.37309,"is_reserved":false,"is_disabled":false,"rental_uris":{"android":"levelo://app?vid=3cffa040-7e8b-4d9e-a1bd-b8a78d782447","ios":"levelo://app?vid=3cffa040-7e8b-4d9e-a1bd-b8a78d782447"},"vehicle_type_id":"4","last_reported":1734037754,"current_range_meters":6400,"station_id":"ce4bgt12rcd13ifvqcd0","pricing_plan_id":"cebpf4jnsgd1na2vs0mg"},{"bike_id":"812146ef-5497-4746-b4ff-5d5d828fb6ac","system_id":"levelo_inurba_marseille","lat":43.31719,"lon":5.42398,"is_reserved":false,"is_disabled":true,"rental_uris":{"android":"levelo://app?vid=812146ef-5497-4746-b4ff-5d5d828fb6ac","ios":"levelo://app?vid=812146ef-5497-4746-b4ff-5d5d828fb6ac"},"vehicle_type_id":"4","last_reported":1734037754,"current_range_meters":400,"station_id":"ce4bhp92rcd13ifvqhbg","pricing_plan_id":"cebpf4jnsgd1na2vs0mg"},{"bike_id":"e4f1b7b0-5d7b-41b5-b994-b33b77329499","system_id":"levelo_inurba_marseille","lat":43.2651,"lon":5.39561,"is_reserved":false,"is_disabled":false,"rental_uris":{"android":"levelo://app?vid=e4f1b7b0-5d7b-41b5-b994-b33b77329499","ios":"levelo://app?vid=e4f1b7b0-5d7b-41b5-b994-b33b77329499"},"vehicle_type_id":"4","last_reported":1734037754,"current_range_meters":38000,"station_id":"ce4bhi12rcd13ifvqfq0","pricing_plan_id":"cebpf4jnsgd1na2vs0mg"},{"bike_id":"7c579d63-30de-4198-9910-b7042f26d022","system_id":"levelo_inurba_marseille","lat":43.26945,"lon":5.40252,"is_reserved":false,"is_disabled":false,"rental_uris":{"android":"levelo://app?vid=7c579d63-30de-4198-9910-b7042f26d022","ios":"levelo://app?vid=7c579d63-30de-4198-9910-b7042f26d022"},"vehicle_type_id":"4","last_reported":1734037754,"current_range_meters":38800,"station_id":"cjm6bp8fraef2m0cb0m0","pricing_plan_id":"cebpf4jnsgd1na2vs0mg"},{"bike_id":"4873c46e-cb28-4a7f-a38b-62bd40ae6e70","system_id":"levelo_inurba_marseille","lat":43.2791,"lon":5.39577,"is_reserved":false,"is_disabled":true,"rental_uris":{"android":"levelo://app?vid=4873c46e-cb28-4a7f-a38b-62bd40ae6e70","ios":"levelo://app?vid=4873c46e-cb28-4a7f-a38b-62bd40ae6e70"},"vehicle_type_id":"4","last_reported":1734037754,"current_range_meters":30000,"station_id":"ce4bhf92rcd13ifvqf40","pricing_plan_id":"cebpf4jnsgd1na2vs0mg"},{"bike_id":"c8003731-90f0-4196-86e8-4ae80703ba34","system_id":"levelo_inurba_marseille","lat":43.29605,"lon":5.38105,"is_reserved":false,"is_disabled":true,"rental_uris":{"android":"levelo://app?vid=c8003731-90f0-4196-86e8-4ae80703ba34","ios":"levelo://app?vid=c8003731-90f0-4196-86e8-4ae80703ba34"},"vehicle_type_id":"4","last_reported":1734037754,"current_range_meters":2000,"station_id":"ce4bgl12rcd13ifvqbo0","pricing_plan_id":"cebpf4jnsgd1na2vs0mg"},{"bike_id":"26e9aaa5-be02-41d8-8cb0-77845ae122f6","system_id":"levelo_inurba_marseille","lat":43.29273,"lon":5.3842,"is_reserved":false,"is_disabled":false,"rental_uris":{"android":"levelo://app?vid=26e9aaa5-be02-41d8-8cb0-77845ae122f6","ios":"levelo://app?vid=26e9aaa5-be02-41d8-8cb0-77845ae122f6"},"vehicle_type_id":"4","last_reported":1734037754,"current_range_meters":38800,"station_id":"ce4bh692rcd13ifvqea0","pricing_plan_id":"cebpf4jnsgd1na2vs0mg"},{"bike_id":"1331cd78-1394-4f8d-b809-165b4263d86c","system_id":"levelo_inurba_marseille","lat":43.30916,"lon":5.40144,"is_reserved":false,"is_disabled":false,"rental_uris":{"android":"levelo://app?vid=1331cd78-1394-4f8d-b809-165b4263d86c","ios":"levelo://app?vid=1331cd78-1394-4f8d-b809-165b4263d86c"},"vehicle_type_id":"4","last_reported":1734037754,"current_range_meters":36400,"station_id":"ce4bgvp2rcd13ifvqct0","pricing_plan_id":"cebpf4jnsgd1na2vs0mg"},{"bike_id":"0229df6d-5289-4a3c-9b7f-bb9932b498a5","system_id":"levelo_inurba_marseille","lat":43.30593,"lon":5.39347,"is_reserved":false,"is_disabled":false,"rental_uris":{"android":"levelo://app?vid=0229df6d-5289-4a3c-9b7f-bb9932b498a5","ios":"levelo://app?vid=0229df6d-5289-4a3c-9b7f-bb9932b498a5"},"vehicle_type_id":"4","last_reported":1734037754,"current_range_meters":39200,"station_id":"ce4bh0p2rcd13ifvqd80","pricing_plan_id":"cebpf4jnsgd1na2vs0mg"},{"bike_id":"5ad49f46-c8b1-4229-8526-82b654075154","system_id":"levelo_inurba_marseille","lat":43.3117,"lon":5.38715,"is_reserved":false,"is_disabled":false,"rental_uris":{"android":"levelo://app?vid=5ad49f46-c8b1-4229-8526-82b654075154","ios":"levelo://app?vid=5ad49f46-c8b1-4229-8526-82b654075154"},"vehicle_type_id":"4","last_reported":1734037754,"current_range_meters":29600,"station_id":"ce4bgv12rcd13ifvqcp0","pricing_plan_id":"cebpf4jnsgd1na2vs0mg"},{"bike_id":"8f2dce46-c437-4b0d-a877-4841ecbd74cb","system_id":"levelo_inurba_marseille","lat":43.31067,"lon":5.40084,"is_reserved":false,"is_disabled":false,"rental_uris":{"android":"levelo://app?vid=8f2dce46-c437-4b0d-a877-4841ecbd74cb","ios":"levelo://app?vid=8f2dce46-c437-4b0d-a877-4841ecbd74cb"},"vehicle_type_id":"4","last_reported":1734037754,"current_range_meters":38800,"station_id":"ce4bhop2rcd13ifvqh8g","pricing_plan_id":"cebpf4jnsgd1na2vs0mg"},{"bike_id":"05cccde2-6fc9-46eb-9e62-f12f14b5d5c1","system_id":"levelo_inurba_marseille","lat":43.25725,"lon":5.41109,"is_reserved":false,"is_disabled":false,"rental_uris":{"android":"levelo://app?vid=05cccde2-6fc9-46eb-9e62-f12f14b5d5c1","ios":"levelo://app?vid=05cccde2-6fc9-46eb-9e62-f12f14b5d5c1"},"vehicle_type_id":"4","last_reported":1734037754,"current_range_meters":38400,"station_id":"ce4bhkp2rcd13ifvqgd0","pricing_plan_id":"cebpf4jnsgd1na2vs0mg"},{"bike_id":"9b113118-f269-4fee-9233-a39c056dbfe2","system_id":"levelo_inurba_marseille","lat":43.31704,"lon":5.37765,"is_reserved":false,"is_disabled":true,"rental_uris":{"android":"levelo://app?vid=9b113118-f269-4fee-9233-a39c056dbfe2","ios":"levelo://app?vid=9b113118-f269-4fee-9233-a39c056dbfe2"},"vehicle_type_id":"4","last_reported":1734037754,"current_range_meters":800,"station_id":"ce4bgth2rcd13ifvqch0","pricing_plan_id":"cebpf4jnsgd1na2vs0mg"},{"bike_id":"2ce59a81-0794-4a2b-8566-85f5271c5ef9","system_id":"levelo_inurba_marseille","lat":43.261871,"lon":5.374558,"is_reserved":false,"is_disabled":false,"rental_uris":{"android":"levelo://app?vid=2ce59a81-0794-4a2b-8566-85f5271c5ef9","ios":"levelo://app?vid=2ce59a81-0794-4a2b-8566-85f5271c5ef9"},"vehicle_type_id":"4","last_reported":1734037754,"current_range_meters":16800,"station_id":"ce4bhgp2rcd13ifvqfc0","pricing_plan_id":"cebpf4jnsgd1na2vs0mg"},{"bike_id":"bf3e6589-efbd-4fd5-a219-af531c5f5ece","system_id":"levelo_inurba_marseille","lat":43.30166,"lon":5.36605,"is_reserved":false,"is_disabled":false,"rental_uris":{"android":"levelo://app?vid=bf3e6589-efbd-4fd5-a219-af531c5f5ece","ios":"levelo://app?vid=bf3e6589-efbd-4fd5-a219-af531c5f5ece"},"vehicle_type_id":"4","last_reported":1734037754,"current_range_meters":28400,"station_id":"ce4bgrh2rcd13ifvqc8g","pricing_plan_id":"cebpf4jnsgd1na2vs0mg"},{"bike_id":"18449eca-7cd4-4637-aad8-d740a9109818","system_id":"levelo_inurba_marseille","lat":43.26806,"lon":5.40262,"is_reserved":false,"is_disabled":false,"rental_uris":{"android":"levelo://app?vid=18449eca-7cd4-4637-aad8-d740a9109818","ios":"levelo://app?vid=18449eca-7cd4-4637-aad8-d740a9109818"},"vehicle_type_id":"4","last_reported":1734037754,"current_range_meters":37600,"station_id":"ce501612rcd8frsf0b60","pricing_plan_id":"cebpf4jnsgd1na2vs0mg"},{"bike_id":"875e1e70-a4d6-4de2-a9b5-49d5f2778c60","system_id":"levelo_inurba_marseille","lat":43.248,"lon":5.37454,"is_reserved":false,"is_disabled":false,"rental_uris":{"android":"levelo://app?vid=875e1e70-a4d6-4de2-a9b5-49d5f2778c60","ios":"levelo://app?vid=875e1e70-a4d6-4de2-a9b5-49d5f2778c60"},"vehicle_type_id":"4","last_reported":1734037754,"current_range_meters":20400,"station_id":"ce4bhgh2rcd13ifvqfb0","pricing_plan_id":"cebpf4jnsgd1na2vs0mg"},{"bike_id":"3888a69b-a227-446c-9ee0-0e069b6a22ce","system_id":"levelo_inurba_marseille","lat":43.281173,"lon":5.378307,"is_reserved":false,"is_disabled":false,"rental_uris":{"android":"levelo://app?vid=3888a69b-a227-446c-9ee0-0e069b6a22ce","ios":"levelo://app?vid=3888a69b-a227-446c-9ee0-0e069b6a22ce"},"vehicle_type_id":"4","last_reported":1734037754,"current_range_meters":9600,"station_id":"ce4bha12rcd13ifvqee0","pricing_plan_id":"cebpf4jnsgd1na2vs0mg"},{"bike_id":"3d91e3c5-7cef-4a6b-b72c-1f72f9823e2d","system_id":"levelo_inurba_marseille","lat":43.2972,"lon":5.36185,"is_reserved":false,"is_disabled":true,"rental_uris":{"android":"levelo://app?vid=3d91e3c5-7cef-4a6b-b72c-1f72f9823e2d","ios":"levelo://app?vid=3d91e3c5-7cef-4a6b-b72c-1f72f9823e2d"},"vehicle_type_id":"4","last_reported":1734037754,"current_range_meters":0,"station_id":"","pricing_plan_id":"cebpf4jnsgd1na2vs0mg"},{"bike_id":"e42ae692-dc4e-42e4-9a0a-618a698f24a8","system_id":"levelo_inurba_marseille","lat":43.27433,"lon":5.39405,"is_reserved":false,"is_disabled":false,"rental_uris":{"android":"levelo://app?vid=e42ae692-dc4e-42e4-9a0a-618a698f24a8","ios":"levelo://app?vid=e42ae692-dc4e-42e4-9a0a-618a698f24a8"},"vehicle_type_id":"4","last_reported":1734037754,"current_range_meters":38000,"station_id":"ce4bhdp2rcd13ifvqf20","pricing_plan_id":"cebpf4jnsgd1na2vs0mg"},{"bike_id":"c4cf1c56-f9fb-4a4c-8b5b-9fc51a76262c","system_id":"levelo_inurba_marseille","lat":43.28858,"lon":5.39322,"is_reserved":false,"is_disabled":false,"rental_uris":{"android":"levelo://app?vid=c4cf1c56-f9fb-4a4c-8b5b-9fc51a76262c","ios":"levelo://app?vid=c4cf1c56-f9fb-4a4c-8b5b-9fc51a76262c"},"vehicle_type_id":"4","last_reported":1734037754,"current_range_meters":36800,"station_id":"ce4bh2p2rcd13ifvqdi0","pricing_plan_id":"cebpf4jnsgd1na2vs0mg"},{"bike_id":"e939de06-d909-4758-b8f3-8d43330311ae","system_id":"levelo_inurba_marseille","lat":43.255835,"lon":5.3823,"is_reserved":false,"is_disabled":false,"rental_uris":{"android":"levelo://app?vid=e939de06-d909-4758-b8f3-8d43330311ae","ios":"levelo://app?vid=e939de06-d909-4758-b8f3-8d43330311ae"},"vehicle_type_id":"4","last_reported":1734037754,"current_range_meters":38800,"station_id":"ce4bhih2rcd13ifvqfs0","pricing_plan_id":"cebpf4jnsgd1na2vs0mg"},{"bike_id":"7bfc381c-b4e7-4043-8e36-ab930ead7ef1","system_id":"levelo_inurba_marseille","lat":43.28623,"lon":5.35112,"is_reserved":false,"is_disabled":false,"rental_uris":{"android":"levelo://app?vid=7bfc381c-b4e7-4043-8e36-ab930ead7ef1","ios":"levelo://app?vid=7bfc381c-b4e7-4043-8e36-ab930ead7ef1"},"vehicle_type_id":"4","last_reported":1734037754,"current_range_meters":34000,"station_id":"ce4bhch2rcd13ifvqeug","pricing_plan_id":"cebpf4jnsgd1na2vs0mg"},{"bike_id":"49b8ce55-6ea6-43d2-bb4d-a3be63615a4c","system_id":"levelo_inurba_marseille","lat":43.30884,"lon":5.39621,"is_reserved":false,"is_disabled":false,"rental_uris":{"android":"levelo://app?vid=49b8ce55-6ea6-43d2-bb4d-a3be63615a4c","ios":"levelo://app?vid=49b8ce55-6ea6-43d2-bb4d-a3be63615a4c"},"vehicle_type_id":"4","last_reported":1734037754,"current_range_meters":38800,"station_id":"ce4bh012rcd13ifvqcv0","pricing_plan_id":"cebpf4jnsgd1na2vs0mg"},{"bike_id":"efb655cb-2785-4efc-abaf-ae9549ebe3e6","system_id":"levelo_inurba_marseille","lat":43.24072,"lon":5.37721,"is_reserved":false,"is_disabled":false,"rental_uris":{"android":"levelo://app?vid=efb655cb-2785-4efc-abaf-ae9549ebe3e6","ios":"levelo://app?vid=efb655cb-2785-4efc-abaf-ae9549ebe3e6"},"vehicle_type_id":"4","last_reported":1734037754,"current_range_meters":37600,"station_id":"ce4bhnp2rcd13ifvqgvg","pricing_plan_id":"cebpf4jnsgd1na2vs0mg"},{"bike_id":"32024ab4-c07d-4aab-9d5e-1b4a86ac8681","system_id":"levelo_inurba_marseille","lat":43.26193,"lon":5.37442,"is_reserved":false,"is_disabled":true,"rental_uris":{"android":"levelo://app?vid=32024ab4-c07d-4aab-9d5e-1b4a86ac8681","ios":"levelo://app?vid=32024ab4-c07d-4aab-9d5e-1b4a86ac8681"},"vehicle_type_id":"4","last_reported":1734037754,"current_range_meters":38800,"station_id":"ce4bhgp2rcd13ifvqfc0","pricing_plan_id":"cebpf4jnsgd1na2vs0mg"},{"bike_id":"6bcae189-bfbf-4d49-b342-470958698813","system_id":"levelo_inurba_marseille","lat":43.28097,"lon":5.37846,"is_reserved":false,"is_disabled":false,"rental_uris":{"android":"levelo://app?vid=6bcae189-bfbf-4d49-b342-470958698813","ios":"levelo://app?vid=6bcae189-bfbf-4d49-b342-470958698813"},"vehicle_type_id":"4","last_reported":1734037754,"current_range_meters":36800,"station_id":"ce4bha12rcd13ifvqee0","pricing_plan_id":"cebpf4jnsgd1na2vs0mg"},{"bike_id":"e88f72be-0ed4-4a2d-9927-0de228a41be5","system_id":"levelo_inurba_marseille","lat":43.31088,"lon":5.42431,"is_reserved":false,"is_disabled":false,"rental_uris":{"android":"levelo://app?vid=e88f72be-0ed4-4a2d-9927-0de228a41be5","ios":"levelo://app?vid=e88f72be-0ed4-4a2d-9927-0de228a41be5"},"vehicle_type_id":"4","last_reported":1734037754,"current_range_meters":38000,"station_id":"ce4bhp92rcd13ifvqhag","pricing_plan_id":"cebpf4jnsgd1na2vs0mg"},{"bike_id":"bd141b7d-ae51-452b-a515-b3f772f4727c","system_id":"levelo_inurba_marseille","lat":43.28848,"lon":5.39318,"is_reserved":false,"is_disabled":false,"rental_uris":{"android":"levelo://app?vid=bd141b7d-ae51-452b-a515-b3f772f4727c","ios":"levelo://app?vid=bd141b7d-ae51-452b-a515-b3f772f4727c"},"vehicle_type_id":"4","last_reported":1734037754,"current_range_meters":19600,"station_id":"ce4bh2p2rcd13ifvqdi0","pricing_plan_id":"cebpf4jnsgd1na2vs0mg"},{"bike_id":"f0f21383-8591-42b0-820c-046731a4a6e4","system_id":"levelo_inurba_marseille","lat":43.30926,"lon":5.40148,"is_reserved":false,"is_disabled":false,"rental_uris":{"android":"levelo://app?vid=f0f21383-8591-42b0-820c-046731a4a6e4","ios":"levelo://app?vid=f0f21383-8591-42b0-820c-046731a4a6e4"},"vehicle_type_id":"4","last_reported":1734037754,"current_range_meters":39200,"station_id":"ce4bgvp2rcd13ifvqct0","pricing_plan_id":"cebpf4jnsgd1na2vs0mg"},{"bike_id":"85fc7ebc-e1ee-4e0e-81f6-502ecea0cb12","system_id":"levelo_inurba_marseille","lat":43.33015,"lon":5.3906,"is_reserved":false,"is_disabled":false,"rental_uris":{"android":"levelo://app?vid=85fc7ebc-e1ee-4e0e-81f6-502ecea0cb12","ios":"levelo://app?vid=85fc7ebc-e1ee-4e0e-81f6-502ecea0cb12"},"vehicle_type_id":"4","last_reported":1734037754,"current_range_meters":38800,"station_id":"ce4bhr92rcd13ifvqhrg","pricing_plan_id":"cebpf4jnsgd1na2vs0mg"},{"bike_id":"d5d7f29c-2857-4b08-83cd-88fc47d82207","system_id":"levelo_inurba_marseille","lat":43.30181,"lon":5.3663,"is_reserved":false,"is_disabled":false,"rental_uris":{"android":"levelo://app?vid=d5d7f29c-2857-4b08-83cd-88fc47d82207","ios":"levelo://app?vid=d5d7f29c-2857-4b08-83cd-88fc47d82207"},"vehicle_type_id":"4","last_reported":1734037754,"current_range_meters":21600,"station_id":"ce4bgrh2rcd13ifvqc8g","pricing_plan_id":"cebpf4jnsgd1na2vs0mg"},{"bike_id":"f9ceb834-4570-40d7-8738-a9215c30d7fc","system_id":"levelo_inurba_marseille","lat":43.28687,"lon":5.38667,"is_reserved":false,"is_disabled":false,"rental_uris":{"android":"levelo://app?vid=f9ceb834-4570-40d7-8738-a9215c30d7fc","ios":"levelo://app?vid=f9ceb834-4570-40d7-8738-a9215c30d7fc"},"vehicle_type_id":"4","last_reported":1734037754,"current_range_meters":38800,"station_id":"ce4bh492rcd13ifvqdug","pricing_plan_id":"cebpf4jnsgd1na2vs0mg"},{"bike_id":"2979497b-78e3-4a72-9256-3bb1a4f8f177","system_id":"levelo_inurba_marseille","lat":43.26557,"lon":5.37281,"is_reserved":false,"is_disabled":false,"rental_uris":{"android":"levelo://app?vid=2979497b-78e3-4a72-9256-3bb1a4f8f177","ios":"levelo://app?vid=2979497b-78e3-4a72-9256-3bb1a4f8f177"},"vehicle_type_id":"4","last_reported":1734037754,"current_range_meters":25600,"station_id":"ce4bhg12rcd13ifvqf70","pricing_plan_id":"cebpf4jnsgd1na2vs0mg"},{"bike_id":"6bc7401a-ad66-4e4d-bfd6-a954bc5b40c0","system_id":"levelo_inurba_marseille","lat":43.337527,"lon":5.37441,"is_reserved":false,"is_disabled":false,"rental_uris":{"android":"levelo://app?vid=6bc7401a-ad66-4e4d-bfd6-a954bc5b40c0","ios":"levelo://app?vid=6bc7401a-ad66-4e4d-bfd6-a954bc5b40c0"},"vehicle_type_id":"4","last_reported":1734037754,"current_range_meters":33200,"station_id":"","pricing_plan_id":"cebpf4jnsgd1na2vs0mg"},{"bike_id":"a5be6c6e-6632-45c5-a5c1-34ef67f28fec","system_id":"levelo_inurba_marseille","lat":43.28857,"lon":5.35854,"is_reserved":false,"is_disabled":false,"rental_uris":{"android":"levelo://app?vid=a5be6c6e-6632-45c5-a5c1-34ef67f28fec","ios":"levelo://app?vid=a5be6c6e-6632-45c5-a5c1-34ef67f28fec"},"vehicle_type_id":"4","last_reported":1734037754,"current_range_meters":33600,"station_id":"ce4bhb12rcd13ifvqem0","pricing_plan_id":"cebpf4jnsgd1na2vs0mg"},{"bike_id":"f0a4f587-2333-4a7a-8819-09121e495e1b","system_id":"levelo_inurba_marseille","lat":43.22938,"lon":5.35384,"is_reserved":false,"is_disabled":false,"rental_uris":{"android":"levelo://app?vid=f0a4f587-2333-4a7a-8819-09121e495e1b","ios":"levelo://app?vid=f0a4f587-2333-4a7a-8819-09121e495e1b"},"vehicle_type_id":"4","last_reported":1734037754,"current_range_meters":7200,"station_id":"cpo3532slgdg3j2ikp40","pricing_plan_id":"cebpf4jnsgd1na2vs0mg"},{"bike_id":"2bfbefe1-2355-4d23-9902-67fe1871d777","system_id":"levelo_inurba_marseille","lat":43.288558,"lon":5.358484,"is_reserved":false,"is_disabled":false,"rental_uris":{"android":"levelo://app?vid=2bfbefe1-2355-4d23-9902-67fe1871d777","ios":"levelo://app?vid=2bfbefe1-2355-4d23-9902-67fe1871d777"},"vehicle_type_id":"4","last_reported":1734037754,"current_range_meters":25600,"station_id":"ce4bhb12rcd13ifvqem0","pricing_plan_id":"cebpf4jnsgd1na2vs0mg"},{"bike_id":"1546c62b-667d-400f-8c8c-7b42c51b6006","system_id":"levelo_inurba_marseille","lat":43.29526,"lon":5.39027,"is_reserved":false,"is_disabled":false,"rental_uris":{"android":"levelo://app?vid=1546c62b-667d-400f-8c8c-7b42c51b6006","ios":"levelo://app?vid=1546c62b-667d-400f-8c8c-7b42c51b6006"},"vehicle_type_id":"4","last_reported":1734037754,"current_range_meters":38400,"station_id":"ce4bh3p2rcd13ifvqdp0","pricing_plan_id":"cebpf4jnsgd1na2vs0mg"},{"bike_id":"8bf93698-29e2-4fb3-9eee-f9bfe683de1d","system_id":"levelo_inurba_marseille","lat":43.29521,"lon":5.39422,"is_reserved":false,"is_disabled":false,"rental_uris":{"android":"levelo://app?vid=8bf93698-29e2-4fb3-9eee-f9bfe683de1d","ios":"levelo://app?vid=8bf93698-29e2-4fb3-9eee-f9bfe683de1d"},"vehicle_type_id":"4","last_reported":1734037754,"current_range_meters":38800,"station_id":"ce4bh292rcd13ifvqdf0","pricing_plan_id":"cebpf4jnsgd1na2vs0mg"},{"bike_id":"e2b090ff-7c7f-4d4a-8f5b-c317e750043e","system_id":"levelo_inurba_marseille","lat":43.27065,"lon":5.42275,"is_reserved":false,"is_disabled":true,"rental_uris":{"android":"levelo://app?vid=e2b090ff-7c7f-4d4a-8f5b-c317e750043e","ios":"levelo://app?vid=e2b090ff-7c7f-4d4a-8f5b-c317e750043e"},"vehicle_type_id":"4","last_reported":1734037754,"current_range_meters":0,"station_id":"ce4bhk92rcd13ifvqgb0","pricing_plan_id":"cebpf4jnsgd1na2vs0mg"},{"bike_id":"1be4dfd7-b95c-4558-b62a-debc1f52eb94","system_id":"levelo_inurba_marseille","lat":43.2708,"lon":5.42268,"is_reserved":false,"is_disabled":false,"rental_uris":{"android":"levelo://app?vid=1be4dfd7-b95c-4558-b62a-debc1f52eb94","ios":"levelo://app?vid=1be4dfd7-b95c-4558-b62a-debc1f52eb94"},"vehicle_type_id":"4","last_reported":1734037754,"current_range_meters":38800,"station_id":"ce4bhk92rcd13ifvqgb0","pricing_plan_id":"cebpf4jnsgd1na2vs0mg"},{"bike_id":"eb1496f4-67ed-47fd-8660-60023378367f","system_id":"levelo_inurba_marseille","lat":43.29422,"lon":5.37431,"is_reserved":false,"is_disabled":true,"rental_uris":{"android":"levelo://app?vid=eb1496f4-67ed-47fd-8660-60023378367f","ios":"levelo://app?vid=eb1496f4-67ed-47fd-8660-60023378367f"},"vehicle_type_id":"4","last_reported":1734037754,"current_range_meters":0,"station_id":"","pricing_plan_id":"cebpf4jnsgd1na2vs0mg"},{"bike_id":"f3152ea7-684c-44a3-b264-f16f85aaea9a","system_id":"levelo_inurba_marseille","lat":43.29254,"lon":5.38454,"is_reserved":false,"is_disabled":false,"rental_uris":{"android":"levelo://app?vid=f3152ea7-684c-44a3-b264-f16f85aaea9a","ios":"levelo://app?vid=f3152ea7-684c-44a3-b264-f16f85aaea9a"},"vehicle_type_id":"4","last_reported":1734037754,"current_range_meters":32800,"station_id":"ce4bh692rcd13ifvqea0","pricing_plan_id":"cebpf4jnsgd1na2vs0mg"},{"bike_id":"21f9ec22-c921-4886-91dd-a6e302eb5e31","system_id":"levelo_inurba_marseille","lat":43.28076,"lon":5.39659,"is_reserved":false,"is_disabled":false,"rental_uris":{"android":"levelo://app?vid=21f9ec22-c921-4886-91dd-a6e302eb5e31","ios":"levelo://app?vid=21f9ec22-c921-4886-91dd-a6e302eb5e31"},"vehicle_type_id":"4","last_reported":1734037754,"current_range_meters":10000,"station_id":"ce4bho12rcd13ifvqh2g","pricing_plan_id":"cebpf4jnsgd1na2vs0mg"},{"bike_id":"a29ec15a-0267-4de8-b687-0d568e0a6a18","system_id":"levelo_inurba_marseille","lat":43.30982,"lon":5.37963,"is_reserved":false,"is_disabled":false,"rental_uris":{"android":"levelo://app?vid=a29ec15a-0267-4de8-b687-0d568e0a6a18","ios":"levelo://app?vid=a29ec15a-0267-4de8-b687-0d568e0a6a18"},"vehicle_type_id":"4","last_reported":1734037754,"current_range_meters":2800,"station_id":"","pricing_plan_id":"cebpf4jnsgd1na2vs0mg"},{"bike_id":"05877c7d-1db0-4268-93bc-bd6e6fb7172d","system_id":"levelo_inurba_marseille","lat":43.28078,"lon":5.39652,"is_reserved":false,"is_disabled":false,"rental_uris":{"android":"levelo://app?vid=05877c7d-1db0-4268-93bc-bd6e6fb7172d","ios":"levelo://app?vid=05877c7d-1db0-4268-93bc-bd6e6fb7172d"},"vehicle_type_id":"4","last_reported":1734037754,"current_range_meters":27600,"station_id":"ce4bho12rcd13ifvqh2g","pricing_plan_id":"cebpf4jnsgd1na2vs0mg"},{"bike_id":"62093206-4e3d-405a-b762-87c233065bd4","system_id":"levelo_inurba_marseille","lat":43.27811,"lon":5.40723,"is_reserved":false,"is_disabled":false,"rental_uris":{"android":"levelo://app?vid=62093206-4e3d-405a-b762-87c233065bd4","ios":"levelo://app?vid=62093206-4e3d-405a-b762-87c233065bd4"},"vehicle_type_id":"4","last_reported":1734037754,"current_range_meters":10800,"station_id":"ce4bhnh2rcd13ifvqgtg","pricing_plan_id":"cebpf4jnsgd1na2vs0mg"},{"bike_id":"769d39d1-4d8b-4897-b247-3ca24a894642","system_id":"levelo_inurba_marseille","lat":43.31485,"lon":5.37311,"is_reserved":false,"is_disabled":false,"rental_uris":{"android":"levelo://app?vid=769d39d1-4d8b-4897-b247-3ca24a894642","ios":"levelo://app?vid=769d39d1-4d8b-4897-b247-3ca24a894642"},"vehicle_type_id":"4","last_reported":1734037754,"current_range_meters":38800,"station_id":"ce4bgt12rcd13ifvqcd0","pricing_plan_id":"cebpf4jnsgd1na2vs0mg"},{"bike_id":"420d6b60-e63c-401b-baae-0ddfe021290a","system_id":"levelo_inurba_marseille","lat":43.30183,"lon":5.36621,"is_reserved":false,"is_disabled":false,"rental_uris":{"android":"levelo://app?vid=420d6b60-e63c-401b-baae-0ddfe021290a","ios":"levelo://app?vid=420d6b60-e63c-401b-baae-0ddfe021290a"},"vehicle_type_id":"4","last_reported":1734037754,"current_range_meters":25600,"station_id":"ce4bgrh2rcd13ifvqc8g","pricing_plan_id":"cebpf4jnsgd1na2vs0mg"},{"bike_id":"097a41bf-6635-41a6-b7a7-1173cae29ada","system_id":"levelo_inurba_marseille","lat":43.22931,"lon":5.35379,"is_reserved":false,"is_disabled":false,"rental_uris":{"android":"levelo://app?vid=097a41bf-6635-41a6-b7a7-1173cae29ada","ios":"levelo://app?vid=097a41bf-6635-41a6-b7a7-1173cae29ada"},"vehicle_type_id":"4","last_reported":1734037754,"current_range_meters":38800,"station_id":"cpo3532slgdg3j2ikp40","pricing_plan_id":"cebpf4jnsgd1na2vs0mg"},{"bike_id":"4d5881bc-1b66-4424-9cca-37b7d62f3c7f","system_id":"levelo_inurba_marseille","lat":43.29942,"lon":5.38489,"is_reserved":false,"is_disabled":false,"rental_uris":{"android":"levelo://app?vid=4d5881bc-1b66-4424-9cca-37b7d62f3c7f","ios":"levelo://app?vid=4d5881bc-1b66-4424-9cca-37b7d62f3c7f"},"vehicle_type_id":"4","last_reported":1734037754,"current_range_meters":36800,"station_id":"ce4bgj92rcd13ifvqbd0","pricing_plan_id":"cebpf4jnsgd1na2vs0mg"},{"bike_id":"f1ac6ac3-50c4-45a3-807d-dc2a982c9232","system_id":"levelo_inurba_marseille","lat":43.24806,"lon":5.37451,"is_reserved":false,"is_disabled":false,"rental_uris":{"android":"levelo://app?vid=f1ac6ac3-50c4-45a3-807d-dc2a982c9232","ios":"levelo://app?vid=f1ac6ac3-50c4-45a3-807d-dc2a982c9232"},"vehicle_type_id":"4","last_reported":1734037754,"current_range_meters":36800,"station_id":"ce4bhgh2rcd13ifvqfb0","pricing_plan_id":"cebpf4jnsgd1na2vs0mg"},{"bike_id":"73c649f1-573c-4ef2-b7fd-0a6363ea8204","system_id":"levelo_inurba_marseille","lat":43.25087,"lon":5.39525,"is_reserved":false,"is_disabled":false,"rental_uris":{"android":"levelo://app?vid=73c649f1-573c-4ef2-b7fd-0a6363ea8204","ios":"levelo://app?vid=73c649f1-573c-4ef2-b7fd-0a6363ea8204"},"vehicle_type_id":"4","last_reported":1734037754,"current_range_meters":36000,"station_id":"ce4bhm12rcd13ifvqgkg","pricing_plan_id":"cebpf4jnsgd1na2vs0mg"},{"bike_id":"c105de93-e3e8-40fe-bca3-ba5aeed4e7af","system_id":"levelo_inurba_marseille","lat":43.31725,"lon":5.37732,"is_reserved":false,"is_disabled":true,"rental_uris":{"android":"levelo://app?vid=c105de93-e3e8-40fe-bca3-ba5aeed4e7af","ios":"levelo://app?vid=c105de93-e3e8-40fe-bca3-ba5aeed4e7af"},"vehicle_type_id":"4","last_reported":1734037754,"current_range_meters":0,"station_id":"ce4bgth2rcd13ifvqch0","pricing_plan_id":"cebpf4jnsgd1na2vs0mg"},{"bike_id":"e74372ac-2a6c-47ae-afc7-e1b4e1c3d13f","system_id":"levelo_inurba_marseille","lat":43.23065,"lon":5.35488,"is_reserved":false,"is_disabled":false,"rental_uris":{"android":"levelo://app?vid=e74372ac-2a6c-47ae-afc7-e1b4e1c3d13f","ios":"levelo://app?vid=e74372ac-2a6c-47ae-afc7-e1b4e1c3d13f"},"vehicle_type_id":"4","last_reported":1734037754,"current_range_meters":12000,"station_id":"cpo3342slgdg3j2ifvpg","pricing_plan_id":"cebpf4jnsgd1na2vs0mg"},{"bike_id":"3aa873c6-2a1b-4847-9cf0-247d08a1f02b","system_id":"levelo_inurba_marseille","lat":43.30252,"lon":5.40061,"is_reserved":false,"is_disabled":false,"rental_uris":{"android":"levelo://app?vid=3aa873c6-2a1b-4847-9cf0-247d08a1f02b","ios":"levelo://app?vid=3aa873c6-2a1b-4847-9cf0-247d08a1f02b"},"vehicle_type_id":"4","last_reported":1734037754,"current_range_meters":38800,"station_id":"ce4bgvh2rcd13ifvqcs0","pricing_plan_id":"cebpf4jnsgd1na2vs0mg"},{"bike_id":"a6d16ca0-24e6-465f-8066-42b81af51d58","system_id":"levelo_inurba_marseille","lat":43.27208,"lon":5.39181,"is_reserved":false,"is_disabled":false,"rental_uris":{"android":"levelo://app?vid=a6d16ca0-24e6-465f-8066-42b81af51d58","ios":"levelo://app?vid=a6d16ca0-24e6-465f-8066-42b81af51d58"},"vehicle_type_id":"4","last_reported":1734037754,"current_range_meters":35200,"station_id":"ce4bhhp2rcd13ifvqfm0","pricing_plan_id":"cebpf4jnsgd1na2vs0mg"},{"bike_id":"09451a97-2d80-43e9-9691-251899b1fc6e","system_id":"levelo_inurba_marseille","lat":43.297,"lon":5.36601,"is_reserved":false,"is_disabled":false,"rental_uris":{"android":"levelo://app?vid=09451a97-2d80-43e9-9691-251899b1fc6e","ios":"levelo://app?vid=09451a97-2d80-43e9-9691-251899b1fc6e"},"vehicle_type_id":"4","last_reported":1734037754,"current_range_meters":39200,"station_id":"ce4bgn12rcd13ifvqbt0","pricing_plan_id":"cebpf4jnsgd1na2vs0mg"},{"bike_id":"b7753504-7c97-4ad3-9570-b6ae2f5889e2","system_id":"levelo_inurba_marseille","lat":43.30133,"lon":5.38788,"is_reserved":false,"is_disabled":false,"rental_uris":{"android":"levelo://app?vid=b7753504-7c97-4ad3-9570-b6ae2f5889e2","ios":"levelo://app?vid=b7753504-7c97-4ad3-9570-b6ae2f5889e2"},"vehicle_type_id":"4","last_reported":1734037754,"current_range_meters":38800,"station_id":"ce4bghh2rcd13ifvqb60","pricing_plan_id":"cebpf4jnsgd1na2vs0mg"},{"bike_id":"f45776b7-7455-45a8-88cf-b5bdb3d1d9e7","system_id":"levelo_inurba_marseille","lat":43.30867,"lon":5.37796,"is_reserved":false,"is_disabled":false,"rental_uris":{"android":"levelo://app?vid=f45776b7-7455-45a8-88cf-b5bdb3d1d9e7","ios":"levelo://app?vid=f45776b7-7455-45a8-88cf-b5bdb3d1d9e7"},"vehicle_type_id":"4","last_reported":1734037754,"current_range_meters":32000,"station_id":"","pricing_plan_id":"cebpf4jnsgd1na2vs0mg"},{"bike_id":"fe218123-8a4a-42eb-883f-f2564a296efb","system_id":"levelo_inurba_marseille","lat":43.28039,"lon":5.36954,"is_reserved":false,"is_disabled":false,"rental_uris":{"android":"levelo://app?vid=fe218123-8a4a-42eb-883f-f2564a296efb","ios":"levelo://app?vid=fe218123-8a4a-42eb-883f-f2564a296efb"},"vehicle_type_id":"4","last_reported":1734037754,"current_range_meters":38400,"station_id":"ce4bha12rcd13ifvqef0","pricing_plan_id":"cebpf4jnsgd1na2vs0mg"},{"bike_id":"362d1260-803a-483c-a969-639f68422741","system_id":"levelo_inurba_marseille","lat":43.27832,"lon":5.39211,"is_reserved":false,"is_disabled":false,"rental_uris":{"android":"levelo://app?vid=362d1260-803a-483c-a969-639f68422741","ios":"levelo://app?vid=362d1260-803a-483c-a969-639f68422741"},"vehicle_type_id":"4","last_reported":1734037754,"current_range_meters":4000,"station_id":"ce4bhjp2rcd13ifvqga0","pricing_plan_id":"cebpf4jnsgd1na2vs0mg"},{"bike_id":"f503f8b0-bd40-45b9-ae5e-f7e19487a17d","system_id":"levelo_inurba_marseille","lat":43.29895,"lon":5.4367,"is_reserved":false,"is_disabled":false,"rental_uris":{"android":"levelo://app?vid=f503f8b0-bd40-45b9-ae5e-f7e19487a17d","ios":"levelo://app?vid=f503f8b0-bd40-45b9-ae5e-f7e19487a17d"},"vehicle_type_id":"4","last_reported":1734037754,"current_range_meters":24800,"station_id":"ce4bhpp2rcd13ifvqhfg","pricing_plan_id":"cebpf4jnsgd1na2vs0mg"},{"bike_id":"b98a2775-59c2-45d8-9bad-49cd1e1d16d3","system_id":"levelo_inurba_marseille","lat":43.29206,"lon":5.39322,"is_reserved":false,"is_disabled":false,"rental_uris":{"android":"levelo://app?vid=b98a2775-59c2-45d8-9bad-49cd1e1d16d3","ios":"levelo://app?vid=b98a2775-59c2-45d8-9bad-49cd1e1d16d3"},"vehicle_type_id":"4","last_reported":1734037754,"current_range_meters":37600,"station_id":"ce4bh192rcd13ifvqdd0","pricing_plan_id":"cebpf4jnsgd1na2vs0mg"},{"bike_id":"3082828b-b6d5-44ca-9cf1-ff9db9bfc5d3","system_id":"levelo_inurba_marseille","lat":43.30438,"lon":5.38885,"is_reserved":false,"is_disabled":false,"rental_uris":{"android":"levelo://app?vid=3082828b-b6d5-44ca-9cf1-ff9db9bfc5d3","ios":"levelo://app?vid=3082828b-b6d5-44ca-9cf1-ff9db9bfc5d3"},"vehicle_type_id":"4","last_reported":1734037754,"current_range_meters":38800,"station_id":"ce4bgk12rcd13ifvqbi0","pricing_plan_id":"cebpf4jnsgd1na2vs0mg"},{"bike_id":"df7f784d-f754-4f4c-9554-cf27ba7532e3","system_id":"levelo_inurba_marseille","lat":43.2973,"lon":5.38129,"is_reserved":false,"is_disabled":true,"rental_uris":{"android":"levelo://app?vid=df7f784d-f754-4f4c-9554-cf27ba7532e3","ios":"levelo://app?vid=df7f784d-f754-4f4c-9554-cf27ba7532e3"},"vehicle_type_id":"4","last_reported":1734037754,"current_range_meters":400,"station_id":"ce4bgip2rcd13ifvqbb0","pricing_plan_id":"cebpf4jnsgd1na2vs0mg"},{"bike_id":"6dffa893-46ea-4323-b743-a68568e451a1","system_id":"levelo_inurba_marseille","lat":43.28701,"lon":5.39993,"is_reserved":false,"is_disabled":false,"rental_uris":{"android":"levelo://app?vid=6dffa893-46ea-4323-b743-a68568e451a1","ios":"levelo://app?vid=6dffa893-46ea-4323-b743-a68568e451a1"},"vehicle_type_id":"4","last_reported":1734037754,"current_range_meters":23200,"station_id":"ce4bho92rcd13ifvqh3g","pricing_plan_id":"cebpf4jnsgd1na2vs0mg"},{"bike_id":"a66c4b95-337e-4b9a-950c-e8c8d8e7a3a1","system_id":"levelo_inurba_marseille","lat":43.324799,"lon":5.365716,"is_reserved":false,"is_disabled":true,"rental_uris":{"android":"levelo://app?vid=a66c4b95-337e-4b9a-950c-e8c8d8e7a3a1","ios":"levelo://app?vid=a66c4b95-337e-4b9a-950c-e8c8d8e7a3a1"},"vehicle_type_id":"4","last_reported":1734037754,"current_range_meters":0,"station_id":"","pricing_plan_id":"cebpf4jnsgd1na2vs0mg"},{"bike_id":"021da959-8b05-44e2-9e52-905b2428e174","system_id":"levelo_inurba_marseille","lat":43.23193,"lon":5.3998,"is_reserved":false,"is_disabled":false,"rental_uris":{"android":"levelo://app?vid=021da959-8b05-44e2-9e52-905b2428e174","ios":"levelo://app?vid=021da959-8b05-44e2-9e52-905b2428e174"},"vehicle_type_id":"4","last_reported":1734037754,"current_range_meters":38800,"station_id":"ce4bhn12rcd13ifvqgqg","pricing_plan_id":"cebpf4jnsgd1na2vs0mg"},{"bike_id":"558e5ae6-b420-4a7f-b096-10ee0b677035","system_id":"levelo_inurba_marseille","lat":43.29037,"lon":5.39969,"is_reserved":false,"is_disabled":false,"rental_uris":{"android":"levelo://app?vid=558e5ae6-b420-4a7f-b096-10ee0b677035","ios":"levelo://app?vid=558e5ae6-b420-4a7f-b096-10ee0b677035"},"vehicle_type_id":"4","last_reported":1734037754,"current_range_meters":38800,"station_id":"ce4bh392rcd13ifvqdm0","pricing_plan_id":"cebpf4jnsgd1na2vs0mg"},{"bike_id":"002069da-d74c-4e41-ae54-1da711c0eed6","system_id":"levelo_inurba_marseille","lat":43.28598,"lon":5.41288,"is_reserved":false,"is_disabled":true,"rental_uris":{"android":"levelo://app?vid=002069da-d74c-4e41-ae54-1da711c0eed6","ios":"levelo://app?vid=002069da-d74c-4e41-ae54-1da711c0eed6"},"vehicle_type_id":"4","last_reported":1734037754,"current_range_meters":1200,"station_id":"","pricing_plan_id":"cebpf4jnsgd1na2vs0mg"},{"bike_id":"67ea53be-ec72-4668-a452-027f706dcb22","system_id":"levelo_inurba_marseille","lat":43.25496,"lon":5.37661,"is_reserved":false,"is_disabled":false,"rental_uris":{"android":"levelo://app?vid=67ea53be-ec72-4668-a452-027f706dcb22","ios":"levelo://app?vid=67ea53be-ec72-4668-a452-027f706dcb22"},"vehicle_type_id":"4","last_reported":1734037754,"current_range_meters":38800,"station_id":"ce4bhh12rcd13ifvqff0","pricing_plan_id":"cebpf4jnsgd1na2vs0mg"},{"bike_id":"003fcc20-75cd-4e78-9b9a-bd60ee138a76","system_id":"levelo_inurba_marseille","lat":43.25587,"lon":5.38228,"is_reserved":false,"is_disabled":false,"rental_uris":{"android":"levelo://app?vid=003fcc20-75cd-4e78-9b9a-bd60ee138a76","ios":"levelo://app?vid=003fcc20-75cd-4e78-9b9a-bd60ee138a76"},"vehicle_type_id":"4","last_reported":1734037754,"current_range_meters":38800,"station_id":"ce4bhih2rcd13ifvqfs0","pricing_plan_id":"cebpf4jnsgd1na2vs0mg"},{"bike_id":"973e21d2-7725-49f6-9e68-83e72bb48184","system_id":"levelo_inurba_marseille","lat":43.29786,"lon":5.39348,"is_reserved":false,"is_disabled":false,"rental_uris":{"android":"levelo://app?vid=973e21d2-7725-49f6-9e68-83e72bb48184","ios":"levelo://app?vid=973e21d2-7725-49f6-9e68-83e72bb48184"},"vehicle_type_id":"4","last_reported":1734037754,"current_range_meters":33200,"station_id":"chh1huq6cuj3fo74tm60","pricing_plan_id":"cebpf4jnsgd1na2vs0mg"},{"bike_id":"0dc53ed0-703c-41c7-a7ba-e5fe121ea6cc","system_id":"levelo_inurba_marseille","lat":43.27822,"lon":5.3921,"is_reserved":false,"is_disabled":true,"rental_uris":{"android":"levelo://app?vid=0dc53ed0-703c-41c7-a7ba-e5fe121ea6cc","ios":"levelo://app?vid=0dc53ed0-703c-41c7-a7ba-e5fe121ea6cc"},"vehicle_type_id":"4","last_reported":1734037754,"current_range_meters":35200,"station_id":"ce4bhjp2rcd13ifvqga0","pricing_plan_id":"cebpf4jnsgd1na2vs0mg"},{"bike_id":"a1b3e7ef-122c-4c3b-8be9-c3cc1fd01590","system_id":"levelo_inurba_marseille","lat":43.24536,"lon":5.39526,"is_reserved":false,"is_disabled":false,"rental_uris":{"android":"levelo://app?vid=a1b3e7ef-122c-4c3b-8be9-c3cc1fd01590","ios":"levelo://app?vid=a1b3e7ef-122c-4c3b-8be9-c3cc1fd01590"},"vehicle_type_id":"4","last_reported":1734037754,"current_range_meters":7200,"station_id":"ce4bhlp2rcd13ifvqgjg","pricing_plan_id":"cebpf4jnsgd1na2vs0mg"},{"bike_id":"1e09aea1-6592-4606-838e-01c5295332d1","system_id":"levelo_inurba_marseille","lat":43.32662,"lon":5.40984,"is_reserved":false,"is_disabled":true,"rental_uris":{"android":"levelo://app?vid=1e09aea1-6592-4606-838e-01c5295332d1","ios":"levelo://app?vid=1e09aea1-6592-4606-838e-01c5295332d1"},"vehicle_type_id":"4","last_reported":1734037754,"current_range_meters":35600,"station_id":"ce4bhpp2rcd13ifvqhgg","pricing_plan_id":"cebpf4jnsgd1na2vs0mg"},{"bike_id":"f0108de3-a952-4531-95a4-df208c0b0a85","system_id":"levelo_inurba_marseille","lat":43.29364,"lon":5.37822,"is_reserved":false,"is_disabled":false,"rental_uris":{"android":"levelo://app?vid=f0108de3-a952-4531-95a4-df208c0b0a85","ios":"levelo://app?vid=f0108de3-a952-4531-95a4-df208c0b0a85"},"vehicle_type_id":"4","last_reported":1734037754,"current_range_meters":38800,"station_id":"ce4bgjh2rcd13ifvqbf0","pricing_plan_id":"cebpf4jnsgd1na2vs0mg"},{"bike_id":"cc66f151-2460-4bd1-9c55-81df03cdad0d","system_id":"levelo_inurba_marseille","lat":43.30542,"lon":5.36874,"is_reserved":false,"is_disabled":true,"rental_uris":{"android":"levelo://app?vid=cc66f151-2460-4bd1-9c55-81df03cdad0d","ios":"levelo://app?vid=cc66f151-2460-4bd1-9c55-81df03cdad0d"},"vehicle_type_id":"4","last_reported":1734037754,"current_range_meters":0,"station_id":"","pricing_plan_id":"cebpf4jnsgd1na2vs0mg"},{"bike_id":"d3148480-0118-4460-90b5-07f095843da8","system_id":"levelo_inurba_marseille","lat":43.2466,"lon":5.38167,"is_reserved":false,"is_disabled":false,"rental_uris":{"android":"levelo://app?vid=d3148480-0118-4460-90b5-07f095843da8","ios":"levelo://app?vid=d3148480-0118-4460-90b5-07f095843da8"},"vehicle_type_id":"4","last_reported":1734037754,"current_range_meters":38800,"station_id":"ce4bhih2rcd13ifvqfr0","pricing_plan_id":"cebpf4jnsgd1na2vs0mg"},{"bike_id":"7d33a6c9-40e7-4b00-bffe-15443744dff9","system_id":"levelo_inurba_marseille","lat":43.24662,"lon":5.3817,"is_reserved":false,"is_disabled":false,"rental_uris":{"android":"levelo://app?vid=7d33a6c9-40e7-4b00-bffe-15443744dff9","ios":"levelo://app?vid=7d33a6c9-40e7-4b00-bffe-15443744dff9"},"vehicle_type_id":"4","last_reported":1734037754,"current_range_meters":32000,"station_id":"ce4bhih2rcd13ifvqfr0","pricing_plan_id":"cebpf4jnsgd1na2vs0mg"},{"bike_id":"153b91d9-6761-4975-9f15-6379d54006a3","system_id":"levelo_inurba_marseille","lat":43.2942,"lon":5.38609,"is_reserved":false,"is_disabled":true,"rental_uris":{"android":"levelo://app?vid=153b91d9-6761-4975-9f15-6379d54006a3","ios":"levelo://app?vid=153b91d9-6761-4975-9f15-6379d54006a3"},"vehicle_type_id":"4","last_reported":1734037754,"current_range_meters":38800,"station_id":"ce4bh2h2rcd13ifvqdh0","pricing_plan_id":"cebpf4jnsgd1na2vs0mg"},{"bike_id":"04f5a329-543b-40ca-ac96-b27eaba28927","system_id":"levelo_inurba_marseille","lat":43.28938,"lon":5.36399,"is_reserved":false,"is_disabled":false,"rental_uris":{"android":"levelo://app?vid=04f5a329-543b-40ca-ac96-b27eaba28927","ios":"levelo://app?vid=04f5a329-543b-40ca-ac96-b27eaba28927"},"vehicle_type_id":"4","last_reported":1734037754,"current_range_meters":38800,"station_id":"ce4bhc92rcd13ifvqetg","pricing_plan_id":"cebpf4jnsgd1na2vs0mg"},{"bike_id":"711bf3e6-a8b3-4217-8a3c-f7f6705573a9","system_id":"levelo_inurba_marseille","lat":43.27498,"lon":5.42451,"is_reserved":false,"is_disabled":false,"rental_uris":{"android":"levelo://app?vid=711bf3e6-a8b3-4217-8a3c-f7f6705573a9","ios":"levelo://app?vid=711bf3e6-a8b3-4217-8a3c-f7f6705573a9"},"vehicle_type_id":"4","last_reported":1734037754,"current_range_meters":38800,"station_id":"ce4bhn92rcd13ifvqgrg","pricing_plan_id":"cebpf4jnsgd1na2vs0mg"},{"bike_id":"bced2216-fe81-4039-bef5-7e9843b329f3","system_id":"levelo_inurba_marseille","lat":43.28156,"lon":5.4264,"is_reserved":false,"is_disabled":true,"rental_uris":{"android":"levelo://app?vid=bced2216-fe81-4039-bef5-7e9843b329f3","ios":"levelo://app?vid=bced2216-fe81-4039-bef5-7e9843b329f3"},"vehicle_type_id":"4","last_reported":1734037754,"current_range_meters":0,"station_id":"ce4bhnh2rcd13ifvqgug","pricing_plan_id":"cebpf4jnsgd1na2vs0mg"},{"bike_id":"20c3dc17-effd-4423-b025-dc7a6b601ac6","system_id":"levelo_inurba_marseille","lat":43.31477,"lon":5.37305,"is_reserved":false,"is_disabled":false,"rental_uris":{"android":"levelo://app?vid=20c3dc17-effd-4423-b025-dc7a6b601ac6","ios":"levelo://app?vid=20c3dc17-effd-4423-b025-dc7a6b601ac6"},"vehicle_type_id":"4","last_reported":1734037754,"current_range_meters":11600,"station_id":"ce4bgt12rcd13ifvqcd0","pricing_plan_id":"cebpf4jnsgd1na2vs0mg"},{"bike_id":"9332f19c-96e3-47ac-8807-c5c2384614c0","system_id":"levelo_inurba_marseille","lat":43.23053,"lon":5.35493,"is_reserved":false,"is_disabled":false,"rental_uris":{"android":"levelo://app?vid=9332f19c-96e3-47ac-8807-c5c2384614c0","ios":"levelo://app?vid=9332f19c-96e3-47ac-8807-c5c2384614c0"},"vehicle_type_id":"4","last_reported":1734037754,"current_range_meters":9600,"station_id":"cpo3342slgdg3j2ifvpg","pricing_plan_id":"cebpf4jnsgd1na2vs0mg"},{"bike_id":"507a9668-9123-4b65-b9a1-3df80fdee677","system_id":"levelo_inurba_marseille","lat":43.30607,"lon":5.39359,"is_reserved":false,"is_disabled":true,"rental_uris":{"android":"levelo://app?vid=507a9668-9123-4b65-b9a1-3df80fdee677","ios":"levelo://app?vid=507a9668-9123-4b65-b9a1-3df80fdee677"},"vehicle_type_id":"4","last_reported":1734037754,"current_range_meters":35600,"station_id":"ce4bh0p2rcd13ifvqd80","pricing_plan_id":"cebpf4jnsgd1na2vs0mg"},{"bike_id":"15c6a01d-4154-4121-a6ce-8336037503e2","system_id":"levelo_inurba_marseille","lat":43.31074,"lon":5.38355,"is_reserved":false,"is_disabled":false,"rental_uris":{"android":"levelo://app?vid=15c6a01d-4154-4121-a6ce-8336037503e2","ios":"levelo://app?vid=15c6a01d-4154-4121-a6ce-8336037503e2"},"vehicle_type_id":"4","last_reported":1734037754,"current_range_meters":11600,"station_id":"ce4bgv92rcd13ifvqcr0","pricing_plan_id":"cebpf4jnsgd1na2vs0mg"},{"bike_id":"1e5b3424-92e2-4d6e-a8c1-3ffc43434050","system_id":"levelo_inurba_marseille","lat":43.28153,"lon":5.426415,"is_reserved":false,"is_disabled":false,"rental_uris":{"android":"levelo://app?vid=1e5b3424-92e2-4d6e-a8c1-3ffc43434050","ios":"levelo://app?vid=1e5b3424-92e2-4d6e-a8c1-3ffc43434050"},"vehicle_type_id":"4","last_reported":1734037754,"current_range_meters":23200,"station_id":"ce4bhnh2rcd13ifvqgug","pricing_plan_id":"cebpf4jnsgd1na2vs0mg"},{"bike_id":"a8942e43-f3d6-46fd-8576-2cc6b2787f3e","system_id":"levelo_inurba_marseille","lat":43.33027,"lon":5.39069,"is_reserved":false,"is_disabled":false,"rental_uris":{"android":"levelo://app?vid=a8942e43-f3d6-46fd-8576-2cc6b2787f3e","ios":"levelo://app?vid=a8942e43-f3d6-46fd-8576-2cc6b2787f3e"},"vehicle_type_id":"4","last_reported":1734037754,"current_range_meters":24000,"station_id":"ce4bhr92rcd13ifvqhrg","pricing_plan_id":"cebpf4jnsgd1na2vs0mg"},{"bike_id":"ebab67b4-141a-4dd9-afd9-505143cd1336","system_id":"levelo_inurba_marseille","lat":43.31502,"lon":5.37306,"is_reserved":false,"is_disabled":false,"rental_uris":{"android":"levelo://app?vid=ebab67b4-141a-4dd9-afd9-505143cd1336","ios":"levelo://app?vid=ebab67b4-141a-4dd9-afd9-505143cd1336"},"vehicle_type_id":"4","last_reported":1734037754,"current_range_meters":22800,"station_id":"ce4bgt12rcd13ifvqcd0","pricing_plan_id":"cebpf4jnsgd1na2vs0mg"},{"bike_id":"88e5e253-9495-48e0-9198-fa6d82bb94e8","system_id":"levelo_inurba_marseille","lat":43.24653,"lon":5.38898,"is_reserved":false,"is_disabled":false,"rental_uris":{"android":"levelo://app?vid=88e5e253-9495-48e0-9198-fa6d82bb94e8","ios":"levelo://app?vid=88e5e253-9495-48e0-9198-fa6d82bb94e8"},"vehicle_type_id":"4","last_reported":1734037754,"current_range_meters":22800,"station_id":"ce4bhg12rcd13ifvqf60","pricing_plan_id":"cebpf4jnsgd1na2vs0mg"},{"bike_id":"208886c0-de2e-43ca-abbf-3e8665653f84","system_id":"levelo_inurba_marseille","lat":43.30422,"lon":5.37813,"is_reserved":false,"is_disabled":true,"rental_uris":{"android":"levelo://app?vid=208886c0-de2e-43ca-abbf-3e8665653f84","ios":"levelo://app?vid=208886c0-de2e-43ca-abbf-3e8665653f84"},"vehicle_type_id":"4","last_reported":1734037754,"current_range_meters":800,"station_id":"","pricing_plan_id":"cebpf4jnsgd1na2vs0mg"},{"bike_id":"96a9b5f4-85e4-41c2-a8da-2ac03a475364","system_id":"levelo_inurba_marseille","lat":43.31171,"lon":5.3872,"is_reserved":false,"is_disabled":false,"rental_uris":{"android":"levelo://app?vid=96a9b5f4-85e4-41c2-a8da-2ac03a475364","ios":"levelo://app?vid=96a9b5f4-85e4-41c2-a8da-2ac03a475364"},"vehicle_type_id":"4","last_reported":1734037754,"current_range_meters":24800,"station_id":"ce4bgv12rcd13ifvqcp0","pricing_plan_id":"cebpf4jnsgd1na2vs0mg"},{"bike_id":"36a6aaf7-7942-4cf8-a178-14100534e00e","system_id":"levelo_inurba_marseille","lat":43.2844,"lon":5.3919,"is_reserved":false,"is_disabled":true,"rental_uris":{"android":"levelo://app?vid=36a6aaf7-7942-4cf8-a178-14100534e00e","ios":"levelo://app?vid=36a6aaf7-7942-4cf8-a178-14100534e00e"},"vehicle_type_id":"4","last_reported":1734037754,"current_range_meters":30800,"station_id":"ce4bhoh2rcd13ifvqh5g","pricing_plan_id":"cebpf4jnsgd1na2vs0mg"},{"bike_id":"03e216e9-5e1e-4be7-8b40-5f91b6517e91","system_id":"levelo_inurba_marseille","lat":43.30143,"lon":5.39845,"is_reserved":false,"is_disabled":false,"rental_uris":{"android":"levelo://app?vid=03e216e9-5e1e-4be7-8b40-5f91b6517e91","ios":"levelo://app?vid=03e216e9-5e1e-4be7-8b40-5f91b6517e91"},"vehicle_type_id":"4","last_reported":1734037754,"current_range_meters":38800,"station_id":"ce4bh0h2rcd13ifvqd40","pricing_plan_id":"cebpf4jnsgd1na2vs0mg"},{"bike_id":"06f66dfc-67e3-46bb-8e23-90ef22aa2f49","system_id":"levelo_inurba_marseille","lat":43.33027,"lon":5.39029,"is_reserved":false,"is_disabled":false,"rental_uris":{"android":"levelo://app?vid=06f66dfc-67e3-46bb-8e23-90ef22aa2f49","ios":"levelo://app?vid=06f66dfc-67e3-46bb-8e23-90ef22aa2f49"},"vehicle_type_id":"4","last_reported":1734037754,"current_range_meters":27200,"station_id":"ce4bhr92rcd13ifvqhrg","pricing_plan_id":"cebpf4jnsgd1na2vs0mg"},{"bike_id":"348205a8-e4c3-4eb6-a0a7-a7df5a5b5eab","system_id":"levelo_inurba_marseille","lat":43.24795,"lon":5.37447,"is_reserved":false,"is_disabled":false,"rental_uris":{"android":"levelo://app?vid=348205a8-e4c3-4eb6-a0a7-a7df5a5b5eab","ios":"levelo://app?vid=348205a8-e4c3-4eb6-a0a7-a7df5a5b5eab"},"vehicle_type_id":"4","last_reported":1734037754,"current_range_meters":37600,"station_id":"ce4bhgh2rcd13ifvqfb0","pricing_plan_id":"cebpf4jnsgd1na2vs0mg"},{"bike_id":"6e6a004b-462d-4b03-aeaa-2611256f0d89","system_id":"levelo_inurba_marseille","lat":43.28118,"lon":5.38935,"is_reserved":false,"is_disabled":true,"rental_uris":{"android":"levelo://app?vid=6e6a004b-462d-4b03-aeaa-2611256f0d89","ios":"levelo://app?vid=6e6a004b-462d-4b03-aeaa-2611256f0d89"},"vehicle_type_id":"4","last_reported":1734037754,"current_range_meters":0,"station_id":"","pricing_plan_id":"cebpf4jnsgd1na2vs0mg"},{"bike_id":"aa260bda-2ac2-4694-ab35-894339060e24","system_id":"levelo_inurba_marseille","lat":43.30924,"lon":5.40148,"is_reserved":false,"is_disabled":false,"rental_uris":{"android":"levelo://app?vid=aa260bda-2ac2-4694-ab35-894339060e24","ios":"levelo://app?vid=aa260bda-2ac2-4694-ab35-894339060e24"},"vehicle_type_id":"4","last_reported":1734037754,"current_range_meters":14400,"station_id":"ce4bgvp2rcd13ifvqct0","pricing_plan_id":"cebpf4jnsgd1na2vs0mg"},{"bike_id":"14845a8f-c0c8-4311-843d-ef820014914a","system_id":"levelo_inurba_marseille","lat":43.26793,"lon":5.40273,"is_reserved":false,"is_disabled":false,"rental_uris":{"android":"levelo://app?vid=14845a8f-c0c8-4311-843d-ef820014914a","ios":"levelo://app?vid=14845a8f-c0c8-4311-843d-ef820014914a"},"vehicle_type_id":"4","last_reported":1734037754,"current_range_meters":38800,"station_id":"ce501612rcd8frsf0b60","pricing_plan_id":"cebpf4jnsgd1na2vs0mg"},{"bike_id":"dd643bc6-5b37-42ec-9cd1-25f6f7772e52","system_id":"levelo_inurba_marseille","lat":43.31756,"lon":5.39021,"is_reserved":false,"is_disabled":true,"rental_uris":{"android":"levelo://app?vid=dd643bc6-5b37-42ec-9cd1-25f6f7772e52","ios":"levelo://app?vid=dd643bc6-5b37-42ec-9cd1-25f6f7772e52"},"vehicle_type_id":"4","last_reported":1734037754,"current_range_meters":36000,"station_id":"ce4bhqp2rcd13ifvqhng","pricing_plan_id":"cebpf4jnsgd1na2vs0mg"},{"bike_id":"bf91c614-d49a-46f7-a2b1-f29ed05bf956","system_id":"levelo_inurba_marseille","lat":43.30886,"lon":5.39626,"is_reserved":false,"is_disabled":false,"rental_uris":{"android":"levelo://app?vid=bf91c614-d49a-46f7-a2b1-f29ed05bf956","ios":"levelo://app?vid=bf91c614-d49a-46f7-a2b1-f29ed05bf956"},"vehicle_type_id":"4","last_reported":1734037754,"current_range_meters":28000,"station_id":"ce4bh012rcd13ifvqcv0","pricing_plan_id":"cebpf4jnsgd1na2vs0mg"},{"bike_id":"e738fcc8-c725-46f1-b7fe-8f522bd56ad4","system_id":"levelo_inurba_marseille","lat":43.22943,"lon":5.35353,"is_reserved":false,"is_disabled":false,"rental_uris":{"android":"levelo://app?vid=e738fcc8-c725-46f1-b7fe-8f522bd56ad4","ios":"levelo://app?vid=e738fcc8-c725-46f1-b7fe-8f522bd56ad4"},"vehicle_type_id":"4","last_reported":1734037754,"current_range_meters":8400,"station_id":"cpo3532slgdg3j2ikp40","pricing_plan_id":"cebpf4jnsgd1na2vs0mg"},{"bike_id":"dabcf9c2-03ca-4b0a-a132-8a9c1c9236f4","system_id":"levelo_inurba_marseille","lat":43.28848,"lon":5.39316,"is_reserved":false,"is_disabled":false,"rental_uris":{"android":"levelo://app?vid=dabcf9c2-03ca-4b0a-a132-8a9c1c9236f4","ios":"levelo://app?vid=dabcf9c2-03ca-4b0a-a132-8a9c1c9236f4"},"vehicle_type_id":"4","last_reported":1734037754,"current_range_meters":28000,"station_id":"ce4bh2p2rcd13ifvqdi0","pricing_plan_id":"cebpf4jnsgd1na2vs0mg"},{"bike_id":"280acb0d-18ba-4f3c-8666-d9bb1f9c0a8b","system_id":"levelo_inurba_marseille","lat":43.32285,"lon":5.38268,"is_reserved":false,"is_disabled":false,"rental_uris":{"android":"levelo://app?vid=280acb0d-18ba-4f3c-8666-d9bb1f9c0a8b","ios":"levelo://app?vid=280acb0d-18ba-4f3c-8666-d9bb1f9c0a8b"},"vehicle_type_id":"4","last_reported":1734037754,"current_range_meters":34000,"station_id":"ce4bhr12rcd13ifvqhqg","pricing_plan_id":"cebpf4jnsgd1na2vs0mg"},{"bike_id":"7965bd8b-65b9-4460-9e65-36f253ebc53b","system_id":"levelo_inurba_marseille","lat":43.32052,"lon":5.4152,"is_reserved":false,"is_disabled":false,"rental_uris":{"android":"levelo://app?vid=7965bd8b-65b9-4460-9e65-36f253ebc53b","ios":"levelo://app?vid=7965bd8b-65b9-4460-9e65-36f253ebc53b"},"vehicle_type_id":"4","last_reported":1734037754,"current_range_meters":26000,"station_id":"ce4bhq92rcd13ifvqhkg","pricing_plan_id":"cebpf4jnsgd1na2vs0mg"},{"bike_id":"519916fd-9f4b-4b25-9a4d-05da4a625b0d","system_id":"levelo_inurba_marseille","lat":43.27213,"lon":5.39181,"is_reserved":false,"is_disabled":false,"rental_uris":{"android":"levelo://app?vid=519916fd-9f4b-4b25-9a4d-05da4a625b0d","ios":"levelo://app?vid=519916fd-9f4b-4b25-9a4d-05da4a625b0d"},"vehicle_type_id":"4","last_reported":1734037754,"current_range_meters":38800,"station_id":"ce4bhhp2rcd13ifvqfm0","pricing_plan_id":"cebpf4jnsgd1na2vs0mg"},{"bike_id":"467a8ed9-8f9d-4f9c-a7a2-b2a4bc21bd4a","system_id":"levelo_inurba_marseille","lat":43.24683,"lon":5.38871,"is_reserved":false,"is_disabled":false,"rental_uris":{"android":"levelo://app?vid=467a8ed9-8f9d-4f9c-a7a2-b2a4bc21bd4a","ios":"levelo://app?vid=467a8ed9-8f9d-4f9c-a7a2-b2a4bc21bd4a"},"vehicle_type_id":"4","last_reported":1734037754,"current_range_meters":34800,"station_id":"ce4bhg12rcd13ifvqf60","pricing_plan_id":"cebpf4jnsgd1na2vs0mg"},{"bike_id":"3f376398-b9b7-4419-aed9-9595c8c18ff6","system_id":"levelo_inurba_marseille","lat":43.29553,"lon":5.42282,"is_reserved":false,"is_disabled":false,"rental_uris":{"android":"levelo://app?vid=3f376398-b9b7-4419-aed9-9595c8c18ff6","ios":"levelo://app?vid=3f376398-b9b7-4419-aed9-9595c8c18ff6"},"vehicle_type_id":"4","last_reported":1734037754,"current_range_meters":37600,"station_id":"ce4bhph2rcd13ifvqhdg","pricing_plan_id":"cebpf4jnsgd1na2vs0mg"},{"bike_id":"512bba07-c0d9-48d8-8c46-31b3ecfbf0e4","system_id":"levelo_inurba_marseille","lat":43.23963,"lon":5.36632,"is_reserved":false,"is_disabled":false,"rental_uris":{"android":"levelo://app?vid=512bba07-c0d9-48d8-8c46-31b3ecfbf0e4","ios":"levelo://app?vid=512bba07-c0d9-48d8-8c46-31b3ecfbf0e4"},"vehicle_type_id":"4","last_reported":1734037754,"current_range_meters":30800,"station_id":"ce4bhi12rcd13ifvqfp0","pricing_plan_id":"cebpf4jnsgd1na2vs0mg"},{"bike_id":"cd310349-e3f2-443c-8f0f-42df3ae9f687","system_id":"levelo_inurba_marseille","lat":43.28106,"lon":5.39547,"is_reserved":false,"is_disabled":false,"rental_uris":{"android":"levelo://app?vid=cd310349-e3f2-443c-8f0f-42df3ae9f687","ios":"levelo://app?vid=cd310349-e3f2-443c-8f0f-42df3ae9f687"},"vehicle_type_id":"4","last_reported":1734037754,"current_range_meters":12000,"station_id":"","pricing_plan_id":"cebpf4jnsgd1na2vs0mg"},{"bike_id":"a5589391-a7e4-412b-9a87-f917b2322580","system_id":"levelo_inurba_marseille","lat":43.230598,"lon":5.354899,"is_reserved":false,"is_disabled":false,"rental_uris":{"android":"levelo://app?vid=a5589391-a7e4-412b-9a87-f917b2322580","ios":"levelo://app?vid=a5589391-a7e4-412b-9a87-f917b2322580"},"vehicle_type_id":"4","last_reported":1734037754,"current_range_meters":11200,"station_id":"cpo3342slgdg3j2ifvpg","pricing_plan_id":"cebpf4jnsgd1na2vs0mg"},{"bike_id":"dc5eef84-248e-4b7b-8318-9800bfc12594","system_id":"levelo_inurba_marseille","lat":43.29518,"lon":5.39042,"is_reserved":false,"is_disabled":false,"rental_uris":{"android":"levelo://app?vid=dc5eef84-248e-4b7b-8318-9800bfc12594","ios":"levelo://app?vid=dc5eef84-248e-4b7b-8318-9800bfc12594"},"vehicle_type_id":"4","last_reported":1734037754,"current_range_meters":39200,"station_id":"ce4bh3p2rcd13ifvqdp0","pricing_plan_id":"cebpf4jnsgd1na2vs0mg"},{"bike_id":"103e9cb3-a529-4d55-b047-75adf6d60c18","system_id":"levelo_inurba_marseille","lat":43.27963,"lon":5.3992,"is_reserved":false,"is_disabled":true,"rental_uris":{"android":"levelo://app?vid=103e9cb3-a529-4d55-b047-75adf6d60c18","ios":"levelo://app?vid=103e9cb3-a529-4d55-b047-75adf6d60c18"},"vehicle_type_id":"4","last_reported":1734037754,"current_range_meters":0,"station_id":"","pricing_plan_id":"cebpf4jnsgd1na2vs0mg"},{"bike_id":"ae2c65f4-c17d-44df-aa40-8105924d1509","system_id":"levelo_inurba_marseille","lat":43.29034,"lon":5.38649,"is_reserved":false,"is_disabled":false,"rental_uris":{"android":"levelo://app?vid=ae2c65f4-c17d-44df-aa40-8105924d1509","ios":"levelo://app?vid=ae2c65f4-c17d-44df-aa40-8105924d1509"},"vehicle_type_id":"4","last_reported":1734037754,"current_range_meters":30800,"station_id":"ce4bh4p2rcd13ifvqe0g","pricing_plan_id":"cebpf4jnsgd1na2vs0mg"},{"bike_id":"44a30e2a-c639-4db1-9bb2-a9cf89c01cf5","system_id":"levelo_inurba_marseille","lat":43.28571,"lon":5.39493,"is_reserved":false,"is_disabled":false,"rental_uris":{"android":"levelo://app?vid=44a30e2a-c639-4db1-9bb2-a9cf89c01cf5","ios":"levelo://app?vid=44a30e2a-c639-4db1-9bb2-a9cf89c01cf5"},"vehicle_type_id":"4","last_reported":1734037754,"current_range_meters":24000,"station_id":"ce4bh292rcd13ifvqdg0","pricing_plan_id":"cebpf4jnsgd1na2vs0mg"},{"bike_id":"cf2a554d-dca1-468f-a79f-dbc5900e9168","system_id":"levelo_inurba_marseille","lat":43.33008,"lon":5.39044,"is_reserved":false,"is_disabled":false,"rental_uris":{"android":"levelo://app?vid=cf2a554d-dca1-468f-a79f-dbc5900e9168","ios":"levelo://app?vid=cf2a554d-dca1-468f-a79f-dbc5900e9168"},"vehicle_type_id":"4","last_reported":1734037754,"current_range_meters":33600,"station_id":"ce4bhr92rcd13ifvqhrg","pricing_plan_id":"cebpf4jnsgd1na2vs0mg"},{"bike_id":"7f218b15-e3fc-43c4-8703-acd68250579b","system_id":"levelo_inurba_marseille","lat":43.337444,"lon":5.374475,"is_reserved":false,"is_disabled":false,"rental_uris":{"android":"levelo://app?vid=7f218b15-e3fc-43c4-8703-acd68250579b","ios":"levelo://app?vid=7f218b15-e3fc-43c4-8703-acd68250579b"},"vehicle_type_id":"4","last_reported":1734037754,"current_range_meters":32400,"station_id":"","pricing_plan_id":"cebpf4jnsgd1na2vs0mg"},{"bike_id":"5cd0227d-828f-4635-a4e6-90752f4b4e94","system_id":"levelo_inurba_marseille","lat":43.29186,"lon":5.35797,"is_reserved":false,"is_disabled":true,"rental_uris":{"android":"levelo://app?vid=5cd0227d-828f-4635-a4e6-90752f4b4e94","ios":"levelo://app?vid=5cd0227d-828f-4635-a4e6-90752f4b4e94"},"vehicle_type_id":"4","last_reported":1734037754,"current_range_meters":38800,"station_id":"ce4bhb12rcd13ifvqel0","pricing_plan_id":"cebpf4jnsgd1na2vs0mg"},{"bike_id":"9170b74c-6ab9-4aed-ae3b-75ae727d0100","system_id":"levelo_inurba_marseille","lat":43.27411,"lon":5.38994,"is_reserved":false,"is_disabled":false,"rental_uris":{"android":"levelo://app?vid=9170b74c-6ab9-4aed-ae3b-75ae727d0100","ios":"levelo://app?vid=9170b74c-6ab9-4aed-ae3b-75ae727d0100"},"vehicle_type_id":"4","last_reported":1734037754,"current_range_meters":13600,"station_id":"","pricing_plan_id":"cebpf4jnsgd1na2vs0mg"},{"bike_id":"bf26ba67-e67a-47f2-aeb5-22efb7770553","system_id":"levelo_inurba_marseille","lat":43.28613,"lon":5.35098,"is_reserved":false,"is_disabled":true,"rental_uris":{"android":"levelo://app?vid=bf26ba67-e67a-47f2-aeb5-22efb7770553","ios":"levelo://app?vid=bf26ba67-e67a-47f2-aeb5-22efb7770553"},"vehicle_type_id":"4","last_reported":1734037754,"current_range_meters":32000,"station_id":"ce4bhch2rcd13ifvqeug","pricing_plan_id":"cebpf4jnsgd1na2vs0mg"},{"bike_id":"1edcb435-be97-41f8-aa8c-4a20808cef7c","system_id":"levelo_inurba_marseille","lat":43.26795,"lon":5.4026,"is_reserved":false,"is_disabled":false,"rental_uris":{"android":"levelo://app?vid=1edcb435-be97-41f8-aa8c-4a20808cef7c","ios":"levelo://app?vid=1edcb435-be97-41f8-aa8c-4a20808cef7c"},"vehicle_type_id":"4","last_reported":1734037754,"current_range_meters":8000,"station_id":"ce501612rcd8frsf0b60","pricing_plan_id":"cebpf4jnsgd1na2vs0mg"},{"bike_id":"d0e8d8aa-ac8d-4986-b32f-eb5258141a2f","system_id":"levelo_inurba_marseille","lat":43.29628,"lon":5.40596,"is_reserved":false,"is_disabled":true,"rental_uris":{"android":"levelo://app?vid=d0e8d8aa-ac8d-4986-b32f-eb5258141a2f","ios":"levelo://app?vid=d0e8d8aa-ac8d-4986-b32f-eb5258141a2f"},"vehicle_type_id":"4","last_reported":1734037754,"current_range_meters":1600,"station_id":"ce4bh0h2rcd13ifvqd60","pricing_plan_id":"cebpf4jnsgd1na2vs0mg"},{"bike_id":"79efbb5a-a5a0-4710-a47a-ff1244106665","system_id":"levelo_inurba_marseille","lat":43.29537,"lon":5.38548,"is_reserved":false,"is_disabled":true,"rental_uris":{"android":"levelo://app?vid=79efbb5a-a5a0-4710-a47a-ff1244106665","ios":"levelo://app?vid=79efbb5a-a5a0-4710-a47a-ff1244106665"},"vehicle_type_id":"4","last_reported":1734037754,"current_range_meters":0,"station_id":"ce4bgih2rcd13ifvqba0","pricing_plan_id":"cebpf4jnsgd1na2vs0mg"},{"bike_id":"9255cda5-2fd5-45f5-b113-805ad0517112","system_id":"levelo_inurba_marseille","lat":43.24994,"lon":5.38933,"is_reserved":false,"is_disabled":false,"rental_uris":{"android":"levelo://app?vid=9255cda5-2fd5-45f5-b113-805ad0517112","ios":"levelo://app?vid=9255cda5-2fd5-45f5-b113-805ad0517112"},"vehicle_type_id":"4","last_reported":1734037754,"current_range_meters":32000,"station_id":"ce4bhgp2rcd13ifvqfd0","pricing_plan_id":"cebpf4jnsgd1na2vs0mg"},{"bike_id":"61df4582-7c9f-489e-b7da-d6a0cfdcd7c7","system_id":"levelo_inurba_marseille","lat":43.28654,"lon":5.3636,"is_reserved":false,"is_disabled":true,"rental_uris":{"android":"levelo://app?vid=61df4582-7c9f-489e-b7da-d6a0cfdcd7c7","ios":"levelo://app?vid=61df4582-7c9f-489e-b7da-d6a0cfdcd7c7"},"vehicle_type_id":"4","last_reported":1734037754,"current_range_meters":0,"station_id":"ce4bhah2rcd13ifvqej0","pricing_plan_id":"cebpf4jnsgd1na2vs0mg"},{"bike_id":"101f11c0-d0df-4db7-8cbf-d437ee429d15","system_id":"levelo_inurba_marseille","lat":43.330295,"lon":5.390334,"is_reserved":false,"is_disabled":false,"rental_uris":{"android":"levelo://app?vid=101f11c0-d0df-4db7-8cbf-d437ee429d15","ios":"levelo://app?vid=101f11c0-d0df-4db7-8cbf-d437ee429d15"},"vehicle_type_id":"4","last_reported":1734037754,"current_range_meters":38800,"station_id":"ce4bhr92rcd13ifvqhrg","pricing_plan_id":"cebpf4jnsgd1na2vs0mg"},{"bike_id":"48e7288e-0cc6-46e9-9ee6-76af6cec7f10","system_id":"levelo_inurba_marseille","lat":43.31174,"lon":5.38722,"is_reserved":false,"is_disabled":false,"rental_uris":{"android":"levelo://app?vid=48e7288e-0cc6-46e9-9ee6-76af6cec7f10","ios":"levelo://app?vid=48e7288e-0cc6-46e9-9ee6-76af6cec7f10"},"vehicle_type_id":"4","last_reported":1734037754,"current_range_meters":38800,"station_id":"ce4bgv12rcd13ifvqcp0","pricing_plan_id":"cebpf4jnsgd1na2vs0mg"},{"bike_id":"d6939c86-233b-42f1-816f-51f98e231070","system_id":"levelo_inurba_marseille","lat":43.31171,"lon":5.3871,"is_reserved":false,"is_disabled":false,"rental_uris":{"android":"levelo://app?vid=d6939c86-233b-42f1-816f-51f98e231070","ios":"levelo://app?vid=d6939c86-233b-42f1-816f-51f98e231070"},"vehicle_type_id":"4","last_reported":1734037754,"current_range_meters":32000,"station_id":"ce4bgv12rcd13ifvqcp0","pricing_plan_id":"cebpf4jnsgd1na2vs0mg"},{"bike_id":"ca3bf6a0-806c-4046-b219-bbea4c2ba646","system_id":"levelo_inurba_marseille","lat":43.23193,"lon":5.3555,"is_reserved":false,"is_disabled":false,"rental_uris":{"android":"levelo://app?vid=ca3bf6a0-806c-4046-b219-bbea4c2ba646","ios":"levelo://app?vid=ca3bf6a0-806c-4046-b219-bbea4c2ba646"},"vehicle_type_id":"4","last_reported":1734037754,"current_range_meters":38800,"station_id":"ce4bhu92rcd13ifvqi70","pricing_plan_id":"cebpf4jnsgd1na2vs0mg"},{"bike_id":"68eba3cf-a59b-44c7-b5f7-69152b212857","system_id":"levelo_inurba_marseille","lat":43.24652,"lon":5.38903,"is_reserved":false,"is_disabled":false,"rental_uris":{"android":"levelo://app?vid=68eba3cf-a59b-44c7-b5f7-69152b212857","ios":"levelo://app?vid=68eba3cf-a59b-44c7-b5f7-69152b212857"},"vehicle_type_id":"4","last_reported":1734037754,"current_range_meters":13600,"station_id":"ce4bhg12rcd13ifvqf60","pricing_plan_id":"cebpf4jnsgd1na2vs0mg"},{"bike_id":"3bc0821c-5f1a-42ae-b7b2-54ea6b3068f7","system_id":"levelo_inurba_marseille","lat":43.29194,"lon":5.39313,"is_reserved":false,"is_disabled":true,"rental_uris":{"android":"levelo://app?vid=3bc0821c-5f1a-42ae-b7b2-54ea6b3068f7","ios":"levelo://app?vid=3bc0821c-5f1a-42ae-b7b2-54ea6b3068f7"},"vehicle_type_id":"4","last_reported":1734037754,"current_range_meters":1200,"station_id":"ce4bh192rcd13ifvqdd0","pricing_plan_id":"cebpf4jnsgd1na2vs0mg"},{"bike_id":"46b2fdec-0870-4ae2-84dc-b1f57512351e","system_id":"levelo_inurba_marseille","lat":43.337444,"lon":5.374475,"is_reserved":false,"is_disabled":true,"rental_uris":{"android":"levelo://app?vid=46b2fdec-0870-4ae2-84dc-b1f57512351e","ios":"levelo://app?vid=46b2fdec-0870-4ae2-84dc-b1f57512351e"},"vehicle_type_id":"4","last_reported":1734037754,"current_range_meters":0,"station_id":"","pricing_plan_id":"cebpf4jnsgd1na2vs0mg"},{"bike_id":"ad8a8566-76f1-486f-a5c3-1b919241c9cc","system_id":"levelo_inurba_marseille","lat":43.30799,"lon":5.43526,"is_reserved":false,"is_disabled":true,"rental_uris":{"android":"levelo://app?vid=ad8a8566-76f1-486f-a5c3-1b919241c9cc","ios":"levelo://app?vid=ad8a8566-76f1-486f-a5c3-1b919241c9cc"},"vehicle_type_id":"4","last_reported":1734037754,"current_range_meters":0,"station_id":"ce4bhph2rcd13ifvqheg","pricing_plan_id":"cebpf4jnsgd1na2vs0mg"},