{"last_updated":1732871423,"ttl":60,"version":"2.2","data":{"bikes":[{"bike_id":"d9d62a26-96dc-4c6c-a7d5-2ff006586fce","system_id":"levelo_inurba_marseille","lat":43.30151,"lon":5.38087,"is_reserved":false,"is_disabled":false,"rental_uris":{"android":"levelo://app?vid=d9d62a26-96dc-4c6c-a7d5-2ff006586fce","ios":"levelo://app?vid=d9d62a26-96dc-4c6c-a7d5-2ff006586fce"},"vehicle_type_id":"4","last_reported":1732871423,"current_range_meters":30400,"station_id":"ce4bgjp2rcd13ifvqbh0","pricing_plan_id":"cebpf4jnsgd1na2vs0mg"},{"bike_id":"b856c8b4-412d-4c25-bdd4-e6b29aed04cb","system_id":"levelo_inurba_marseille","lat":43.22932,"lon":5.35378,"is_reserved":false,"is_disabled":false,"rental_uris":{"android":"levelo://app?vid=b856c8b4-412d-4c25-bdd4-e6b29aed04cb","ios":"levelo://app?vid=b856c8b4-412d-4c25-bdd4-e6b29aed04cb"},"vehicle_type_id":"4","last_reported":1732871423,"current_range_meters":38800,"station_id":"cpo3532slgdg3j2ikp40","pricing_plan_id":"cebpf4jnsgd1na2vs0mg"},{"bike_id":"963c4b2c-5f04-435c-94c4-a4cda56ddff8","system_id":"levelo_inurba_marseille","lat":43.30961,"lon":5.39041,"is_reserved":false,"is_disabled":false,"rental_uris":{"android":"levelo://app?vid=963c4b2c-5f04-435c-94c4-a4cda56ddff8","ios":"levelo://app?vid=963c4b2c-5f04-435c-94c4-a4cda56ddff8"},"vehicle_type_id":"4","last_reported":1732871423,"current_range_meters":29600,"station_id":"ce4bgup2rcd13ifvqco0","pricing_plan_id":"cebpf4jnsgd1na2vs0mg"},{"bike_id":"742641cb-ede7-44c9-9eca-ae4b65bf9ac5","system_id":"levelo_inurba_marseille","lat":43.25565,"lon":5.38249,"is_reserved":false,"is_disabled":false,"rental_uris":{"android":"levelo://app?vid=742641cb-ede7-44c9-9eca-ae4b65bf9ac5","ios":"levelo://app?vid=742641cb-ede7-44c9-9eca-ae4b65bf9ac5"},"vehicle_type_id":"4","last_reported":1732871423,"current_range_meters":20400,"station_id":"ce4bhih2rcd13ifvqfs0","pricing_plan_id":"cebpf4jnsgd1na2vs0mg"},{"bike_id":"fac63031-3de9-41dc-941a-a395646bc4e4","system_id":"levelo_inurba_marseille","lat":43.25575,"lon":5.38245,"is_reserved":false,"is_disabled":false,"rental_uris":{"android":"levelo://app?vid=fac63031-3de9-41dc-941a-a395646bc4e4","ios":"levelo://app?vid=fac63031-3de9-41dc-941a-a395646bc4e4"},"vehicle_type_id":"4","last_reported":1732871423,"current_range_meters":7200,"station_id":"ce4bhih2rcd13ifvqfs0","pricing_plan_id":"cebpf4jnsgd1na2vs0mg"},{"bike_id":"3d9237e1-11a2-4f25-99bf-fe83b0a2ddd6","system_id":"levelo_inurba_marseille","lat":43.24072,"lon":5.37746,"is_reserved":false,"is_disabled":false,"rental_uris":{"android":"levelo://app?vid=3d9237e1-11a2-4f25-99bf-fe83b0a2ddd6","ios":"levelo://app?vid=3d9237e1-11a2-4f25-99bf-fe83b0a2ddd6"},"vehicle_type_id":"4","last_reported":1732871423,"current_range_meters":35600,"station_id":"ce4bhnp2rcd13ifvqgvg","pricing_plan_id":"cebpf4jnsgd1na2vs0mg"},{"bike_id":"f6219e9b-b6fe-4d15-8f8c-8e0ae4a6d112","system_id":"levelo_inurba_marseille","lat":43.28338,"lon":5.38113,"is_reserved":false,"is_disabled":false,"rental_uris":{"android":"levelo://app?vid=f6219e9b-b6fe-4d15-8f8c-8e0ae4a6d112","ios":"levelo://app?vid=f6219e9b-b6fe-4d15-8f8c-8e0ae4a6d112"},"vehicle_type_id":"4","last_reported":1732871423,"current_range_meters":22400,"station_id":"ce4bh412rcd13ifvqdr0","pricing_plan_id":"cebpf4jnsgd1na2vs0mg"},{"bike_id":"554b6bde-c7d7-4167-a1a3-5b51fe3d3da7","system_id":"levelo_inurba_marseille","lat":43.30938,"lon":5.39045,"is_reserved":false,"is_disabled":false,"rental_uris":{"android":"levelo://app?vid=554b6bde-c7d7-4167-a1a3-5b51fe3d3da7","ios":"levelo://app?vid=554b6bde-c7d7-4167-a1a3-5b51fe3d3da7"},"vehicle_type_id":"4","last_reported":1732871423,"current_range_meters":38000,"station_id":"ce4bgup2rcd13ifvqco0","pricing_plan_id":"cebpf4jnsgd1na2vs0mg"},{"bike_id":"5d476db9-3a91-4547-a990-a1b0b21b44a3","system_id":"levelo_inurba_marseille","lat":43.3088,"lon":5.372,"is_reserved":false,"is_disabled":false,"rental_uris":{"android":"levelo://app?vid=5d476db9-3a91-4547-a990-a1b0b21b44a3","ios":"levelo://app?vid=5d476db9-3a91-4547-a990-a1b0b21b44a3"},"vehicle_type_id":"4","last_reported":1732871423,"current_range_meters":30400,"station_id":"ce4bguh2rcd13ifvqckg","pricing_plan_id":"cebpf4jnsgd1na2vs0mg"},{"bike_id":"7121f4be-3d3e-48f1-a37e-6346aa40858b","system_id":"levelo_inurba_marseille","lat":43.30533,"lon":5.3654,"is_reserved":false,"is_disabled":false,"rental_uris":{"android":"levelo://app?vid=7121f4be-3d3e-48f1-a37e-6346aa40858b","ios":"levelo://app?vid=7121f4be-3d3e-48f1-a37e-6346aa40858b"},"vehicle_type_id":"4","last_reported":1732871423,"current_range_meters":5600,"station_id":"ce4bgs12rcd13ifvqcag","pricing_plan_id":"cebpf4jnsgd1na2vs0mg"},{"bike_id":"ce15a521-8a1d-47b7-92c8-091ca367d00e","system_id":"levelo_inurba_marseille","lat":43.33749,"lon":5.37439,"is_reserved":false,"is_disabled":false,"rental_uris":{"android":"levelo://app?vid=ce15a521-8a1d-47b7-92c8-091ca367d00e","ios":"levelo://app?vid=ce15a521-8a1d-47b7-92c8-091ca367d00e"},"vehicle_type_id":"4","last_reported":1732871423,"current_range_meters":34000,"station_id":"","pricing_plan_id":"cebpf4jnsgd1na2vs0mg"},{"bike_id":"13a9c207-8dfd-4694-9ec3-31e33bea7860","system_id":"levelo_inurba_marseille","lat":43.32049,"lon":5.41532,"is_reserved":false,"is_disabled":false,"rental_uris":{"android":"levelo://app?vid=13a9c207-8dfd-4694-9ec3-31e33bea7860","ios":"levelo://app?vid=13a9c207-8dfd-4694-9ec3-31e33bea7860"},"vehicle_type_id":"4","last_reported":1732871423,"current_range_meters":38800,"station_id":"ce4bhq92rcd13ifvqhkg","pricing_plan_id":"cebpf4jnsgd1na2vs0mg"},{"bike_id":"ba2d1a62-e632-4169-9a28-b83f6acba689","system_id":"levelo_inurba_marseille","lat":43.26328,"lon":5.40459,"is_reserved":false,"is_disabled":true,"rental_uris":{"android":"levelo://app?vid=ba2d1a62-e632-4169-9a28-b83f6acba689","ios":"levelo://app?vid=ba2d1a62-e632-4169-9a28-b83f6acba689"},"vehicle_type_id":"4","last_reported":1732871423,"current_range_meters":0,"station_id":"","pricing_plan_id":"cebpf4jnsgd1na2vs0mg"},{"bike_id":"785babd4-8d81-4df0-b957-6a66d69671aa","system_id":"levelo_inurba_marseille","lat":43.29359,"lon":5.37828,"is_reserved":false,"is_disabled":false,"rental_uris":{"android":"levelo://app?vid=785babd4-8d81-4df0-b957-6a66d69671aa","ios":"levelo://app?vid=785babd4-8d81-4df0-b957-6a66d69671aa"},"vehicle_type_id":"4","last_reported":1732871423,"current_range_meters":27200,"station_id":"ce4bgjh2rcd13ifvqbf0","pricing_plan_id":"cebpf4jnsgd1na2vs0mg"},{"bike_id":"41ead4e9-439a-4c85-9c8e-819bad4cc319","system_id":"levelo_inurba_marseille","lat":43.2558,"lon":5.38233,"is_reserved":false,"is_disabled":false,"rental_uris":{"android":"levelo://app?vid=41ead4e9-439a-4c85-9c8e-819bad4cc319","ios":"levelo://app?vid=41ead4e9-439a-4c85-9c8e-819bad4cc319"},"vehicle_type_id":"4","last_reported":1732871423,"current_range_meters":39200,"station_id":"ce4bhih2rcd13ifvqfs0","pricing_plan_id":"cebpf4jnsgd1na2vs0mg"},{"bike_id":"6f7949e1-de87-4a49-8620-fec27e04447f","system_id":"levelo_inurba_marseille","lat":43.337286,"lon":5.391868,"is_reserved":false,"is_disabled":false,"rental_uris":{"android":"levelo://app?vid=6f7949e1-de87-4a49-8620-fec27e04447f","ios":"levelo://app?vid=6f7949e1-de87-4a49-8620-fec27e04447f"},"vehicle_type_id":"4","last_reported":1732871423,"current_range_meters":31200,"station_id":"ce4bhr92rcd13ifvqhsg","pricing_plan_id":"cebpf4jnsgd1na2vs0mg"},{"bike_id":"d6af473c-317d-44a4-ba58-092abf84584f","system_id":"levelo_inurba_marseille","lat":43.22933,"lon":5.3538,"is_reserved":false,"is_disabled":false,"rental_uris":{"android":"levelo://app?vid=d6af473c-317d-44a4-ba58-092abf84584f","ios":"levelo://app?vid=d6af473c-317d-44a4-ba58-092abf84584f"},"vehicle_type_id":"4","last_reported":1732871423,"current_range_meters":38800,"station_id":"cpo3532slgdg3j2ikp40","pricing_plan_id":"cebpf4jnsgd1na2vs0mg"},{"bike_id":"052e9e78-c936-43f0-b1bc-870daf3034da","system_id":"levelo_inurba_marseille","lat":43.29087,"lon":5.40075,"is_reserved":false,"is_disabled":false,"rental_uris":{"android":"levelo://app?vid=052e9e78-c936-43f0-b1bc-870daf3034da","ios":"levelo://app?vid=052e9e78-c936-43f0-b1bc-870daf3034da"},"vehicle_type_id":"4","last_reported":1732871423,"current_range_meters":28800,"station_id":"ce4bh392rcd13ifvqdm0","pricing_plan_id":"cebpf4jnsgd1na2vs0mg"},{"bike_id":"301ba404-e4ab-4cc6-bbf0-243e67febc55","system_id":"levelo_inurba_marseille","lat":43.26212,"lon":5.37441,"is_reserved":false,"is_disabled":false,"rental_uris":{"android":"levelo://app?vid=301ba404-e4ab-4cc6-bbf0-243e67febc55","ios":"levelo://app?vid=301ba404-e4ab-4cc6-bbf0-243e67febc55"},"vehicle_type_id":"4","last_reported":1732871423,"current_range_meters":4400,"station_id":"ce4bhgp2rcd13ifvqfc0","pricing_plan_id":"cebpf4jnsgd1na2vs0mg"},{"bike_id":"0dce51df-dda1-4b82-a09f-af3670b57517","system_id":"levelo_inurba_marseille","lat":43.24076,"lon":5.37758,"is_reserved":false,"is_disabled":false,"rental_uris":{"android":"levelo://app?vid=0dce51df-dda1-4b82-a09f-af3670b57517","ios":"levelo://app?vid=0dce51df-dda1-4b82-a09f-af3670b57517"},"vehicle_type_id":"4","last_reported":1732871423,"current_range_meters":36800,"station_id":"ce4bhnp2rcd13ifvqgvg","pricing_plan_id":"cebpf4jnsgd1na2vs0mg"},{"bike_id":"5d58b41c-e98d-401c-be1b-e3b259d2d40a","system_id":"levelo_inurba_marseille","lat":43.29904,"lon":5.3747,"is_reserved":false,"is_disabled":false,"rental_uris":{"android":"levelo://app?vid=5d58b41c-e98d-401c-be1b-e3b259d2d40a","ios":"levelo://app?vid=5d58b41c-e98d-401c-be1b-e3b259d2d40a"},"vehicle_type_id":"4","last_reported":1732871423,"current_range_meters":25200,"station_id":"ce4bgjh2rcd13ifvqbg0","pricing_plan_id":"cebpf4jnsgd1na2vs0mg"},{"bike_id":"52e410fd-1783-461b-a786-bcb12700645d","system_id":"levelo_inurba_marseille","lat":43.31337,"lon":5.36719,"is_reserved":false,"is_disabled":false,"rental_uris":{"android":"levelo://app?vid=52e410fd-1783-461b-a786-bcb12700645d","ios":"levelo://app?vid=52e410fd-1783-461b-a786-bcb12700645d"},"vehicle_type_id":"4","last_reported":1732871423,"current_range_meters":33200,"station_id":"ce4bgr92rcd13ifvqc6g","pricing_plan_id":"cebpf4jnsgd1na2vs0mg"},{"bike_id":"8cd373a5-ef27-4517-959f-9e4fe502c966","system_id":"levelo_inurba_marseille","lat":43.27054,"lon":5.42272,"is_reserved":false,"is_disabled":false,"rental_uris":{"android":"levelo://app?vid=8cd373a5-ef27-4517-959f-9e4fe502c966","ios":"levelo://app?vid=8cd373a5-ef27-4517-959f-9e4fe502c966"},"vehicle_type_id":"4","last_reported":1732871423,"current_range_meters":26000,"station_id":"ce4bhk92rcd13ifvqgb0","pricing_plan_id":"cebpf4jnsgd1na2vs0mg"},{"bike_id":"a3f13fbb-7cc0-4f6c-ab75-581227db1f92","system_id":"levelo_inurba_marseille","lat":43.30275,"lon":5.37693,"is_reserved":false,"is_disabled":false,"rental_uris":{"android":"levelo://app?vid=a3f13fbb-7cc0-4f6c-ab75-581227db1f92","ios":"levelo://app?vid=a3f13fbb-7cc0-4f6c-ab75-581227db1f92"},"vehicle_type_id":"4","last_reported":1732871423,"current_range_meters":26000,"station_id":"ce4bguh2rcd13ifvqcj0","pricing_plan_id":"cebpf4jnsgd1na2vs0mg"},{"bike_id":"14ef3313-0bbb-4810-8166-60c0504b7ffa","system_id":"levelo_inurba_marseille","lat":43.24073,"lon":5.37752,"is_reserved":false,"is_disabled":false,"rental_uris":{"android":"levelo://app?vid=14ef3313-0bbb-4810-8166-60c0504b7ffa","ios":"levelo://app?vid=14ef3313-0bbb-4810-8166-60c0504b7ffa"},"vehicle_type_id":"4","last_reported":1732871423,"current_range_meters":20400,"station_id":"ce4bhnp2rcd13ifvqgvg","pricing_plan_id":"cebpf4jnsgd1na2vs0mg"},{"bike_id":"55ea4b16-92ec-4478-9151-5bf508cbd361","system_id":"levelo_inurba_marseille","lat":43.30542,"lon":5.38428,"is_reserved":false,"is_disabled":false,"rental_uris":{"android":"levelo://app?vid=55ea4b16-92ec-4478-9151-5bf508cbd361","ios":"levelo://app?vid=55ea4b16-92ec-4478-9151-5bf508cbd361"},"vehicle_type_id":"4","last_reported":1732871423,"current_range_meters":38800,"station_id":"ce4bgg92rcd13ifvqb30","pricing_plan_id":"cebpf4jnsgd1na2vs0mg"},{"bike_id":"a8d53810-af87-4e56-85da-4c06b779ee0b","system_id":"levelo_inurba_marseille","lat":43.30912,"lon":5.36854,"is_reserved":false,"is_disabled":false,"rental_uris":{"android":"levelo://app?vid=a8d53810-af87-4e56-85da-4c06b779ee0b","ios":"levelo://app?vid=a8d53810-af87-4e56-85da-4c06b779ee0b"},"vehicle_type_id":"4","last_reported":1732871423,"current_range_meters":38800,"station_id":"ce4bgn92rcd13ifvqbvg","pricing_plan_id":"cebpf4jnsgd1na2vs0mg"},{"bike_id":"4709c438-f4af-415a-a919-d27302b75dca","system_id":"levelo_inurba_marseille","lat":43.23194,"lon":5.35553,"is_reserved":false,"is_disabled":false,"rental_uris":{"android":"levelo://app?vid=4709c438-f4af-415a-a919-d27302b75dca","ios":"levelo://app?vid=4709c438-f4af-415a-a919-d27302b75dca"},"vehicle_type_id":"4","last_reported":1732871423,"current_range_meters":38800,"station_id":"ce4bhu92rcd13ifvqi70","pricing_plan_id":"cebpf4jnsgd1na2vs0mg"},{"bike_id":"0526a8ec-d506-41cb-b00f-7a88f090c600","system_id":"levelo_inurba_marseille","lat":43.27373,"lon":5.3625,"is_reserved":false,"is_disabled":true,"rental_uris":{"android":"levelo://app?vid=0526a8ec-d506-41cb-b00f-7a88f090c600","ios":"levelo://app?vid=0526a8ec-d506-41cb-b00f-7a88f090c600"},"vehicle_type_id":"4","last_reported":1732871423,"current_range_meters":32800,"station_id":"ce4bhbh2rcd13ifvqeo0","pricing_plan_id":"cebpf4jnsgd1na2vs0mg"},{"bike_id":"4258e8ae-420a-41e8-8ab6-81ea0fbfde7d","system_id":"levelo_inurba_marseille","lat":43.33602,"lon":5.41009,"is_reserved":false,"is_disabled":false,"rental_uris":{"android":"levelo://app?vid=4258e8ae-420a-41e8-8ab6-81ea0fbfde7d","ios":"levelo://app?vid=4258e8ae-420a-41e8-8ab6-81ea0fbfde7d"},"vehicle_type_id":"4","last_reported":1732871423,"current_range_meters":20000,"station_id":"ce4bhqh2rcd13ifvqhmg","pricing_plan_id":"cebpf4jnsgd1na2vs0mg"},{"bike_id":"d21ca66c-8ebf-40a8-bc6f-8cae0c8b6834","system_id":"levelo_inurba_marseille","lat":43.26925,"lon":5.38912,"is_reserved":false,"is_disabled":false,"rental_uris":{"android":"levelo://app?vid=d21ca66c-8ebf-40a8-bc6f-8cae0c8b6834","ios":"levelo://app?vid=d21ca66c-8ebf-40a8-bc6f-8cae0c8b6834"},"vehicle_type_id":"4","last_reported":1732871423,"current_range_meters":8400,"station_id":"ce4bhhh2rcd13ifvqfl0","pricing_plan_id":"cebpf4jnsgd1na2vs0mg"},{"bike_id":"2c2dbeed-d8b9-4443-8bc1-facb2c0b2be9","system_id":"levelo_inurba_marseille","lat":43.30434,"lon":5.36868,"is_reserved":false,"is_disabled":false,"rental_uris":{"android":"levelo://app?vid=2c2dbeed-d8b9-4443-8bc1-facb2c0b2be9","ios":"levelo://app?vid=2c2dbeed-d8b9-4443-8bc1-facb2c0b2be9"},"vehicle_type_id":"4","last_reported":1732871423,"current_range_meters":8800,"station_id":"","pricing_plan_id":"cebpf4jnsgd1na2vs0mg"},{"bike_id":"8c09cd08-684e-4471-956f-e9d8d62c46a9","system_id":"levelo_inurba_marseille","lat":43.28268,"lon":5.35061,"is_reserved":false,"is_disabled":false,"rental_uris":{"android":"levelo://app?vid=8c09cd08-684e-4471-956f-e9d8d62c46a9","ios":"levelo://app?vid=8c09cd08-684e-4471-956f-e9d8d62c46a9"},"vehicle_type_id":"4","last_reported":1732871423,"current_range_meters":24800,"station_id":"ce4bhbp2rcd13ifvqerg","pricing_plan_id":"cebpf4jnsgd1na2vs0mg"},{"bike_id":"10216e28-087c-4a72-a90d-b68d608a0b87","system_id":"levelo_inurba_marseille","lat":43.28273,"lon":5.35059,"is_reserved":false,"is_disabled":false,"rental_uris":{"android":"levelo://app?vid=10216e28-087c-4a72-a90d-b68d608a0b87","ios":"levelo://app?vid=10216e28-087c-4a72-a90d-b68d608a0b87"},"vehicle_type_id":"4","last_reported":1732871423,"current_range_meters":22000,"station_id":"ce4bhbp2rcd13ifvqerg","pricing_plan_id":"cebpf4jnsgd1na2vs0mg"},{"bike_id":"bca85837-2438-4c43-b262-011ddc8b0e5a","system_id":"levelo_inurba_marseille","lat":43.26194,"lon":5.37447,"is_reserved":false,"is_disabled":false,"rental_uris":{"android":"levelo://app?vid=bca85837-2438-4c43-b262-011ddc8b0e5a","ios":"levelo://app?vid=bca85837-2438-4c43-b262-011ddc8b0e5a"},"vehicle_type_id":"4","last_reported":1732871423,"current_range_meters":37600,"station_id":"ce4bhgp2rcd13ifvqfc0","pricing_plan_id":"cebpf4jnsgd1na2vs0mg"},{"bike_id":"b053b308-df93-40ed-81b7-cc6347a6608e","system_id":"levelo_inurba_marseille","lat":43.28664,"lon":5.36356,"is_reserved":false,"is_disabled":true,"rental_uris":{"android":"levelo://app?vid=b053b308-df93-40ed-81b7-cc6347a6608e","ios":"levelo://app?vid=b053b308-df93-40ed-81b7-cc6347a6608e"},"vehicle_type_id":"4","last_reported":1732871423,"current_range_meters":38800,"station_id":"ce4bhah2rcd13ifvqej0","pricing_plan_id":"cebpf4jnsgd1na2vs0mg"},{"bike_id":"ffa4a609-12c2-4bcb-a232-bff214294d68","system_id":"levelo_inurba_marseille","lat":43.26199,"lon":5.37934,"is_reserved":false,"is_disabled":false,"rental_uris":{"android":"levelo://app?vid=ffa4a609-12c2-4bcb-a232-bff214294d68","ios":"levelo://app?vid=ffa4a609-12c2-4bcb-a232-bff214294d68"},"vehicle_type_id":"4","last_reported":1732871423,"current_range_meters":38800,"station_id":"ce4bhjp2rcd13ifvqg90","pricing_plan_id":"cebpf4jnsgd1na2vs0mg"},{"bike_id":"d43bcf0d-16aa-4132-bee9-932c9bcef8f2","system_id":"levelo_inurba_marseille","lat":43.32366,"lon":5.38882,"is_reserved":false,"is_disabled":false,"rental_uris":{"android":"levelo://app?vid=d43bcf0d-16aa-4132-bee9-932c9bcef8f2","ios":"levelo://app?vid=d43bcf0d-16aa-4132-bee9-932c9bcef8f2"},"vehicle_type_id":"4","last_reported":1732871423,"current_range_meters":38000,"station_id":"ce4bhqp2rcd13ifvqhog","pricing_plan_id":"cebpf4jnsgd1na2vs0mg"},{"bike_id":"e7f318cf-9726-43a1-8272-c8eab8e5fde5","system_id":"levelo_inurba_marseille","lat":43.28416,"lon":5.37499,"is_reserved":false,"is_disabled":false,"rental_uris":{"android":"levelo://app?vid=e7f318cf-9726-43a1-8272-c8eab8e5fde5","ios":"levelo://app?vid=e7f318cf-9726-43a1-8272-c8eab8e5fde5"},"vehicle_type_id":"4","last_reported":1732871423,"current_range_meters":12000,"station_id":"ce4bh412rcd13ifvqds0","pricing_plan_id":"cebpf4jnsgd1na2vs0mg"},{"bike_id":"a2f55e61-c857-45c2-b0a3-e646cd7988e4","system_id":"levelo_inurba_marseille","lat":43.32973,"lon":5.359,"is_reserved":false,"is_disabled":false,"rental_uris":{"android":"levelo://app?vid=a2f55e61-c857-45c2-b0a3-e646cd7988e4","ios":"levelo://app?vid=a2f55e61-c857-45c2-b0a3-e646cd7988e4"},"vehicle_type_id":"4","last_reported":1732871423,"current_range_meters":23200,"station_id":"","pricing_plan_id":"cebpf4jnsgd1na2vs0mg"},{"bike_id":"c264b6d9-709a-424c-a0d3-5c413e89c923","system_id":"levelo_inurba_marseille","lat":43.32054,"lon":5.4156,"is_reserved":false,"is_disabled":false,"rental_uris":{"android":"levelo://app?vid=c264b6d9-709a-424c-a0d3-5c413e89c923","ios":"levelo://app?vid=c264b6d9-709a-424c-a0d3-5c413e89c923"},"vehicle_type_id":"4","last_reported":1732871423,"current_range_meters":34800,"station_id":"ce4bhq92rcd13ifvqhkg","pricing_plan_id":"cebpf4jnsgd1na2vs0mg"},{"bike_id":"4035e70a-9b35-49ff-8763-9565717e2e74","system_id":"levelo_inurba_marseille","lat":43.28456,"lon":5.35888,"is_reserved":false,"is_disabled":true,"rental_uris":{"android":"levelo://app?vid=4035e70a-9b35-49ff-8763-9565717e2e74","ios":"levelo://app?vid=4035e70a-9b35-49ff-8763-9565717e2e74"},"vehicle_type_id":"4","last_reported":1732871423,"current_range_meters":10000,"station_id":"ce4bhah2rcd13ifvqei0","pricing_plan_id":"cebpf4jnsgd1na2vs0mg"},{"bike_id":"bc749360-3ce4-4dd6-a0ac-83aa82c323a7","system_id":"levelo_inurba_marseille","lat":43.28154,"lon":5.4264,"is_reserved":false,"is_disabled":true,"rental_uris":{"android":"levelo://app?vid=bc749360-3ce4-4dd6-a0ac-83aa82c323a7","ios":"levelo://app?vid=bc749360-3ce4-4dd6-a0ac-83aa82c323a7"},"vehicle_type_id":"4","last_reported":1732871423,"current_range_meters":38800,"station_id":"ce4bhnh2rcd13ifvqgug","pricing_plan_id":"cebpf4jnsgd1na2vs0mg"},{"bike_id":"422d452f-17cc-4565-afd8-833a3bc96a0e","system_id":"levelo_inurba_marseille","lat":43.30122,"lon":5.39861,"is_reserved":false,"is_disabled":true,"rental_uris":{"android":"levelo://app?vid=422d452f-17cc-4565-afd8-833a3bc96a0e","ios":"levelo://app?vid=422d452f-17cc-4565-afd8-833a3bc96a0e"},"vehicle_type_id":"4","last_reported":1732871423,"current_range_meters":24000,"station_id":"ce4bh0h2rcd13ifvqd40","pricing_plan_id":"cebpf4jnsgd1na2vs0mg"},{"bike_id":"dcee47ea-c950-4870-9c89-79b44232ba85","system_id":"levelo_inurba_marseille","lat":43.31721,"lon":5.42397,"is_reserved":false,"is_disabled":false,"rental_uris":{"android":"levelo://app?vid=dcee47ea-c950-4870-9c89-79b44232ba85","ios":"levelo://app?vid=dcee47ea-c950-4870-9c89-79b44232ba85"},"vehicle_type_id":"4","last_reported":1732871423,"current_range_meters":39200,"station_id":"ce4bhp92rcd13ifvqhbg","pricing_plan_id":"cebpf4jnsgd1na2vs0mg"},{"bike_id":"4d4c884f-6933-49c0-8899-f9856d90f44d","system_id":"levelo_inurba_marseille","lat":43.29748,"lon":5.37971,"is_reserved":false,"is_disabled":true,"rental_uris":{"android":"levelo://app?vid=4d4c884f-6933-49c0-8899-f9856d90f44d","ios":"levelo://app?vid=4d4c884f-6933-49c0-8899-f9856d90f44d"},"vehicle_type_id":"4","last_reported":1732871423,"current_range_meters":0,"station_id":"","pricing_plan_id":"cebpf4jnsgd1na2vs0mg"},{"bike_id":"0a6a01b8-ebc9-4549-9bc8-25449ed3a98c","system_id":"levelo_inurba_marseille","lat":43.31991,"lon":5.38146,"is_reserved":false,"is_disabled":false,"rental_uris":{"android":"levelo://app?vid=0a6a01b8-ebc9-4549-9bc8-25449ed3a98c","ios":"levelo://app?vid=0a6a01b8-ebc9-4549-9bc8-25449ed3a98c"},"vehicle_type_id":"4","last_reported":1732871423,"current_range_meters":24400,"station_id":"ce4bhr12rcd13ifvqhpg","pricing_plan_id":"cebpf4jnsgd1na2vs0mg"},{"bike_id":"b6e48330-8212-4476-b4d2-8a1e3bec5ff6","system_id":"levelo_inurba_marseille","lat":43.28658,"lon":5.36359,"is_reserved":false,"is_disabled":true,"rental_uris":{"android":"levelo://app?vid=b6e48330-8212-4476-b4d2-8a1e3bec5ff6","ios":"levelo://app?vid=b6e48330-8212-4476-b4d2-8a1e3bec5ff6"},"vehicle_type_id":"4","last_reported":1732871423,"current_range_meters":8800,"station_id":"ce4bhah2rcd13ifvqej0","pricing_plan_id":"cebpf4jnsgd1na2vs0mg"},{"bike_id":"0a022b54-20a9-483a-8d3f-b145f17c1ef8","system_id":"levelo_inurba_marseille","lat":43.2846,"lon":5.35887,"is_reserved":false,"is_disabled":false,"rental_uris":{"android":"levelo://app?vid=0a022b54-20a9-483a-8d3f-b145f17c1ef8","ios":"levelo://app?vid=0a022b54-20a9-483a-8d3f-b145f17c1ef8"},"vehicle_type_id":"4","last_reported":1732871423,"current_range_meters":14000,"station_id":"ce4bhah2rcd13ifvqei0","pricing_plan_id":"cebpf4jnsgd1na2vs0mg"},{"bike_id":"02895370-c40c-4c5d-869e-dbb8ac908e5c","system_id":"levelo_inurba_marseille","lat":43.27172,"lon":5.40994,"is_reserved":false,"is_disabled":false,"rental_uris":{"android":"levelo://app?vid=02895370-c40c-4c5d-869e-dbb8ac908e5c","ios":"levelo://app?vid=02895370-c40c-4c5d-869e-dbb8ac908e5c"},"vehicle_type_id":"4","last_reported":1732871423,"current_range_meters":20000,"station_id":"ce4bhl12rcd13ifvqgf0","pricing_plan_id":"cebpf4jnsgd1na2vs0mg"},{"bike_id":"9009be37-c6b1-406b-b0a8-fbab355f715e","system_id":"levelo_inurba_marseille","lat":43.33767,"lon":5.37492,"is_reserved":false,"is_disabled":false,"rental_uris":{"android":"levelo://app?vid=9009be37-c6b1-406b-b0a8-fbab355f715e","ios":"levelo://app?vid=9009be37-c6b1-406b-b0a8-fbab355f715e"},"vehicle_type_id":"4","last_reported":1732871423,"current_range_meters":37600,"station_id":"","pricing_plan_id":"cebpf4jnsgd1na2vs0mg"},{"bike_id":"d64d5b46-0d4e-4986-a1d1-fe847ea6b9f2","system_id":"levelo_inurba_marseille","lat":43.31342,"lon":5.36721,"is_reserved":false,"is_disabled":false,"rental_uris":{"android":"levelo://app?vid=d64d5b46-0d4e-4986-a1d1-fe847ea6b9f2","ios":"levelo://app?vid=d64d5b46-0d4e-4986-a1d1-fe847ea6b9f2"},"vehicle_type_id":"4","last_reported":1732871423,"current_range_meters":19600,"station_id":"ce4bgr92rcd13ifvqc6g","pricing_plan_id":"cebpf4jnsgd1na2vs0mg"},{"bike_id":"ad448571-bebb-4a8d-8d20-19092292da85","system_id":"levelo_inurba_marseille","lat":43.29171,"lon":5.37146,"is_reserved":false,"is_disabled":true,"rental_uris":{"android":"levelo://app?vid=ad448571-bebb-4a8d-8d20-19092292da85","ios":"levelo://app?vid=ad448571-bebb-4a8d-8d20-19092292da85"},"vehicle_type_id":"4","last_reported":1732871423,"current_range_meters":24400,"station_id":"ce4bha92rcd13ifvqeh0","pricing_plan_id":"cebpf4jnsgd1na2vs0mg"},{"bike_id":"5f433b1c-0e0f-43b4-a0b0-55b89bfd72f5","system_id":"levelo_inurba_marseille","lat":43.33605,"lon":5.41031,"is_reserved":false,"is_disabled":false,"rental_uris":{"android":"levelo://app?vid=5f433b1c-0e0f-43b4-a0b0-55b89bfd72f5","ios":"levelo://app?vid=5f433b1c-0e0f-43b4-a0b0-55b89bfd72f5"},"vehicle_type_id":"4","last_reported":1732871423,"current_range_meters":21600,"station_id":"ce4bhqh2rcd13ifvqhmg","pricing_plan_id":"cebpf4jnsgd1na2vs0mg"},{"bike_id":"30c67c45-7f58-484b-9db9-3056bcdc8ec9","system_id":"levelo_inurba_marseille","lat":43.30919,"lon":5.36848,"is_reserved":false,"is_disabled":false,"rental_uris":{"android":"levelo://app?vid=30c67c45-7f58-484b-9db9-3056bcdc8ec9","ios":"levelo://app?vid=30c67c45-7f58-484b-9db9-3056bcdc8ec9"},"vehicle_type_id":"4","last_reported":1732871423,"current_range_meters":39200,"station_id":"ce4bgn92rcd13ifvqbvg","pricing_plan_id":"cebpf4jnsgd1na2vs0mg"},{"bike_id":"9589002c-1bab-46c5-9d09-a7efb8d9d194","system_id":"levelo_inurba_marseille","lat":43.28484,"lon":5.34985,"is_reserved":false,"is_disabled":false,"rental_uris":{"android":"levelo://app?vid=9589002c-1bab-46c5-9d09-a7efb8d9d194","ios":"levelo://app?vid=9589002c-1bab-46c5-9d09-a7efb8d9d194"},"vehicle_type_id":"4","last_reported":1732871423,"current_range_meters":24800,"station_id":"","pricing_plan_id":"cebpf4jnsgd1na2vs0mg"},{"bike_id":"840c2084-3872-4bb0-aad2-5ab80f87c1f6","system_id":"levelo_inurba_marseille","lat":43.30665,"lon":5.40086,"is_reserved":false,"is_disabled":true,"rental_uris":{"android":"levelo://app?vid=840c2084-3872-4bb0-aad2-5ab80f87c1f6","ios":"levelo://app?vid=840c2084-3872-4bb0-aad2-5ab80f87c1f6"},"vehicle_type_id":"4","last_reported":1732871423,"current_range_meters":38800,"station_id":"ce4bh112rcd13ifvqda0","pricing_plan_id":"cebpf4jnsgd1na2vs0mg"},{"bike_id":"c0e8c0c5-8cf0-4bea-b3b2-c88efdc8014a","system_id":"levelo_inurba_marseille","lat":43.32364,"lon":5.38879,"is_reserved":false,"is_disabled":false,"rental_uris":{"android":"levelo://app?vid=c0e8c0c5-8cf0-4bea-b3b2-c88efdc8014a","ios":"levelo://app?vid=c0e8c0c5-8cf0-4bea-b3b2-c88efdc8014a"},"vehicle_type_id":"4","last_reported":1732871423,"current_range_meters":25200,"station_id":"ce4bhqp2rcd13ifvqhog","pricing_plan_id":"cebpf4jnsgd1na2vs0mg"},{"bike_id":"f803e80d-fb0f-4141-8766-a894408093d9","system_id":"levelo_inurba_marseille","lat":43.24083,"lon":5.37751,"is_reserved":false,"is_disabled":false,"rental_uris":{"android":"levelo://app?vid=f803e80d-fb0f-4141-8766-a894408093d9","ios":"levelo://app?vid=f803e80d-fb0f-4141-8766-a894408093d9"},"vehicle_type_id":"4","last_reported":1732871423,"current_range_meters":14000,"station_id":"ce4bhnp2rcd13ifvqgvg","pricing_plan_id":"cebpf4jnsgd1na2vs0mg"},{"bike_id":"4cd79fb1-29e9-4453-8446-eea81ab019c0","system_id":"levelo_inurba_marseille","lat":43.33758,"lon":5.37479,"is_reserved":false,"is_disabled":false,"rental_uris":{"android":"levelo://app?vid=4cd79fb1-29e9-4453-8446-eea81ab019c0","ios":"levelo://app?vid=4cd79fb1-29e9-4453-8446-eea81ab019c0"},"vehicle_type_id":"4","last_reported":1732871423,"current_range_meters":16400,"station_id":"","pricing_plan_id":"cebpf4jnsgd1na2vs0mg"},{"bike_id":"b260c7a1-fde8-4067-9298-09061a597f33","system_id":"levelo_inurba_marseille","lat":43.27211,"lon":5.39181,"is_reserved":false,"is_disabled":false,"rental_uris":{"android":"levelo://app?vid=b260c7a1-fde8-4067-9298-09061a597f33","ios":"levelo://app?vid=b260c7a1-fde8-4067-9298-09061a597f33"},"vehicle_type_id":"4","last_reported":1732871423,"current_range_meters":8800,"station_id":"ce4bhhp2rcd13ifvqfm0","pricing_plan_id":"cebpf4jnsgd1na2vs0mg"},{"bike_id":"6c9caa72-ea9c-4937-b745-357e728cf598","system_id":"levelo_inurba_marseille","lat":43.27603,"lon":5.36138,"is_reserved":false,"is_disabled":true,"rental_uris":{"android":"levelo://app?vid=6c9caa72-ea9c-4937-b745-357e728cf598","ios":"levelo://app?vid=6c9caa72-ea9c-4937-b745-357e728cf598"},"vehicle_type_id":"4","last_reported":1732871423,"current_range_meters":38400,"station_id":"ce4bgj92rcd13ifvqbe0","pricing_plan_id":"cebpf4jnsgd1na2vs0mg"},{"bike_id":"f62a5fa2-9173-4ac1-b63a-4a63811fbef9","system_id":"levelo_inurba_marseille","lat":43.2593,"lon":5.40914,"is_reserved":false,"is_disabled":false,"rental_uris":{"android":"levelo://app?vid=f62a5fa2-9173-4ac1-b63a-4a63811fbef9","ios":"levelo://app?vid=f62a5fa2-9173-4ac1-b63a-4a63811fbef9"},"vehicle_type_id":"4","last_reported":1732871423,"current_range_meters":19600,"station_id":"ce4bhm92rcd13ifvqglg","pricing_plan_id":"cebpf4jnsgd1na2vs0mg"},{"bike_id":"e8fa7be1-2407-41a7-b843-e7c70f1917ef","system_id":"levelo_inurba_marseille","lat":43.27619,"lon":5.3611,"is_reserved":false,"is_disabled":true,"rental_uris":{"android":"levelo://app?vid=e8fa7be1-2407-41a7-b843-e7c70f1917ef","ios":"levelo://app?vid=e8fa7be1-2407-41a7-b843-e7c70f1917ef"},"vehicle_type_id":"4","last_reported":1732871423,"current_range_meters":0,"station_id":"ce4bgj92rcd13ifvqbe0","pricing_plan_id":"cebpf4jnsgd1na2vs0mg"},{"bike_id":"d4de7547-4a24-414a-a9fd-380d258ebee2","system_id":"levelo_inurba_marseille","lat":43.2865,"lon":5.363279,"is_reserved":false,"is_disabled":false,"rental_uris":{"android":"levelo://app?vid=d4de7547-4a24-414a-a9fd-380d258ebee2","ios":"levelo://app?vid=d4de7547-4a24-414a-a9fd-380d258ebee2"},"vehicle_type_id":"4","last_reported":1732871423,"current_range_meters":27600,"station_id":"ce4bhah2rcd13ifvqej0","pricing_plan_id":"cebpf4jnsgd1na2vs0mg"},{"bike_id":"322ec04a-c98c-4b4e-b298-69412eba7415","system_id":"levelo_inurba_marseille","lat":43.24076,"lon":5.3776,"is_reserved":false,"is_disabled":false,"rental_uris":{"android":"levelo://app?vid=322ec04a-c98c-4b4e-b298-69412eba7415","ios":"levelo://app?vid=322ec04a-c98c-4b4e-b298-69412eba7415"},"vehicle_type_id":"4","last_reported":1732871423,"current_range_meters":38000,"station_id":"ce4bhnp2rcd13ifvqgvg","pricing_plan_id":"cebpf4jnsgd1na2vs0mg"},{"bike_id":"04151390-4806-4e4e-8288-4bb06cadcb10","system_id":"levelo_inurba_marseille","lat":43.29785,"lon":5.38088,"is_reserved":false,"is_disabled":true,"rental_uris":{"android":"levelo://app?vid=04151390-4806-4e4e-8288-4bb06cadcb10","ios":"levelo://app?vid=04151390-4806-4e4e-8288-4bb06cadcb10"},"vehicle_type_id":"4","last_reported":1732871423,"current_range_meters":38800,"station_id":"ce4bgip2rcd13ifvqbb0","pricing_plan_id":"cebpf4jnsgd1na2vs0mg"},{"bike_id":"e63455c5-5f55-4960-8084-8cbaf9be1b50","system_id":"levelo_inurba_marseille","lat":43.255759,"lon":5.382425,"is_reserved":false,"is_disabled":false,"rental_uris":{"android":"levelo://app?vid=e63455c5-5f55-4960-8084-8cbaf9be1b50","ios":"levelo://app?vid=e63455c5-5f55-4960-8084-8cbaf9be1b50"},"vehicle_type_id":"4","last_reported":1732871423,"current_range_meters":33600,"station_id":"ce4bhih2rcd13ifvqfs0","pricing_plan_id":"cebpf4jnsgd1na2vs0mg"},{"bike_id":"35cde48b-e232-4392-95d8-1d6118a2707a","system_id":"levelo_inurba_marseille","lat":43.28277,"lon":5.35073,"is_reserved":false,"is_disabled":true,"rental_uris":{"android":"levelo://app?vid=35cde48b-e232-4392-95d8-1d6118a2707a","ios":"levelo://app?vid=35cde48b-e232-4392-95d8-1d6118a2707a"},"vehicle_type_id":"4","last_reported":1732871423,"current_range_meters":8000,"station_id":"ce4bhbp2rcd13ifvqerg","pricing_plan_id":"cebpf4jnsgd1na2vs0mg"},{"bike_id":"e3036b86-4666-4127-9686-691e3c5eab4f","system_id":"levelo_inurba_marseille","lat":43.34141,"lon":5.409,"is_reserved":false,"is_disabled":false,"rental_uris":{"android":"levelo://app?vid=e3036b86-4666-4127-9686-691e3c5eab4f","ios":"levelo://app?vid=e3036b86-4666-4127-9686-691e3c5eab4f"},"vehicle_type_id":"4","last_reported":1732871423,"current_range_meters":32000,"station_id":"ce4bhqh2rcd13ifvqhlg","pricing_plan_id":"cebpf4jnsgd1na2vs0mg"},{"bike_id":"a4a09f77-02e5-4784-8aa5-39e2e511e685","system_id":"levelo_inurba_marseille","lat":43.26952,"lon":5.38632,"is_reserved":false,"is_disabled":false,"rental_uris":{"android":"levelo://app?vid=a4a09f77-02e5-4784-8aa5-39e2e511e685","ios":"levelo://app?vid=a4a09f77-02e5-4784-8aa5-39e2e511e685"},"vehicle_type_id":"4","last_reported":1732871423,"current_range_meters":30000,"station_id":"ce4bhh92rcd13ifvqfh0","pricing_plan_id":"cebpf4jnsgd1na2vs0mg"},{"bike_id":"3ca8d527-6c31-4160-8bc9-0dbae13780f9","system_id":"levelo_inurba_marseille","lat":43.28465,"lon":5.35888,"is_reserved":false,"is_disabled":true,"rental_uris":{"android":"levelo://app?vid=3ca8d527-6c31-4160-8bc9-0dbae13780f9","ios":"levelo://app?vid=3ca8d527-6c31-4160-8bc9-0dbae13780f9"},"vehicle_type_id":"4","last_reported":1732871423,"current_range_meters":24000,"station_id":"ce4bhah2rcd13ifvqei0","pricing_plan_id":"cebpf4jnsgd1na2vs0mg"},{"bike_id":"325fbcc4-a4bc-43ae-8d64-c177be6e0441","system_id":"levelo_inurba_marseille","lat":43.27991,"lon":5.41656,"is_reserved":false,"is_disabled":false,"rental_uris":{"android":"levelo://app?vid=325fbcc4-a4bc-43ae-8d64-c177be6e0441","ios":"levelo://app?vid=325fbcc4-a4bc-43ae-8d64-c177be6e0441"},"vehicle_type_id":"4","last_reported":1732871423,"current_range_meters":30000,"station_id":"ce4bho12rcd13ifvqh1g","pricing_plan_id":"cebpf4jnsgd1na2vs0mg"},{"bike_id":"f790fe4e-68f3-45cf-b184-d74ee8388636","system_id":"levelo_inurba_marseille","lat":43.274968,"lon":5.42451,"is_reserved":false,"is_disabled":false,"rental_uris":{"android":"levelo://app?vid=f790fe4e-68f3-45cf-b184-d74ee8388636","ios":"levelo://app?vid=f790fe4e-68f3-45cf-b184-d74ee8388636"},"vehicle_type_id":"4","last_reported":1732871423,"current_range_meters":4800,"station_id":"ce4bhn92rcd13ifvqgrg","pricing_plan_id":"cebpf4jnsgd1na2vs0mg"},{"bike_id":"42a1b6e2-bd74-4504-a0a4-5d00c7b5fb4d","system_id":"levelo_inurba_marseille","lat":43.33608,"lon":5.41029,"is_reserved":false,"is_disabled":false,"rental_uris":{"android":"levelo://app?vid=42a1b6e2-bd74-4504-a0a4-5d00c7b5fb4d","ios":"levelo://app?vid=42a1b6e2-bd74-4504-a0a4-5d00c7b5fb4d"},"vehicle_type_id":"4","last_reported":1732871423,"current_range_meters":14000,"station_id":"ce4bhqh2rcd13ifvqhmg","pricing_plan_id":"cebpf4jnsgd1na2vs0mg"},{"bike_id":"16fb8e17-b179-4d5a-add7-fbd05efe76fb","system_id":"levelo_inurba_marseille","lat":43.25931,"lon":5.40917,"is_reserved":false,"is_disabled":true,"rental_uris":{"android":"levelo://app?vid=16fb8e17-b179-4d5a-add7-fbd05efe76fb","ios":"levelo://app?vid=16fb8e17-b179-4d5a-add7-fbd05efe76fb"},"vehicle_type_id":"4","last_reported":1732871423,"current_range_meters":19600,"station_id":"ce4bhm92rcd13ifvqglg","pricing_plan_id":"cebpf4jnsgd1na2vs0mg"},{"bike_id":"3fdf5aa9-fc12-46fc-9f45-cbfbb96e2a5d","system_id":"levelo_inurba_marseille","lat":43.33022,"lon":5.39042,"is_reserved":false,"is_disabled":false,"rental_uris":{"android":"levelo://app?vid=3fdf5aa9-fc12-46fc-9f45-cbfbb96e2a5d","ios":"levelo://app?vid=3fdf5aa9-fc12-46fc-9f45-cbfbb96e2a5d"},"vehicle_type_id":"4","last_reported":1732871423,"current_range_meters":37600,"station_id":"ce4bhr92rcd13ifvqhrg","pricing_plan_id":"cebpf4jnsgd1na2vs0mg"},{"bike_id":"5febee6f-a4ce-4be1-ae36-1712d93c9a55","system_id":"levelo_inurba_marseille","lat":43.25004,"lon":5.38919,"is_reserved":false,"is_disabled":true,"rental_uris":{"android":"levelo://app?vid=5febee6f-a4ce-4be1-ae36-1712d93c9a55","ios":"levelo://app?vid=5febee6f-a4ce-4be1-ae36-1712d93c9a55"},"vehicle_type_id":"4","last_reported":1732871423,"current_range_meters":0,"station_id":"ce4bhgp2rcd13ifvqfd0","pricing_plan_id":"cebpf4jnsgd1na2vs0mg"},{"bike_id":"f9f279cc-03ce-4144-bdc3-10e6ec0b5486","system_id":"levelo_inurba_marseille","lat":43.24674,"lon":5.38165,"is_reserved":false,"is_disabled":true,"rental_uris":{"android":"levelo://app?vid=f9f279cc-03ce-4144-bdc3-10e6ec0b5486","ios":"levelo://app?vid=f9f279cc-03ce-4144-bdc3-10e6ec0b5486"},"vehicle_type_id":"4","last_reported":1732871423,"current_range_meters":8400,"station_id":"ce4bhih2rcd13ifvqfr0","pricing_plan_id":"cebpf4jnsgd1na2vs0mg"},{"bike_id":"8c199678-58de-40fe-8ff6-9c176228f61c","system_id":"levelo_inurba_marseille","lat":43.249983,"lon":5.389373,"is_reserved":false,"is_disabled":false,"rental_uris":{"android":"levelo://app?vid=8c199678-58de-40fe-8ff6-9c176228f61c","ios":"levelo://app?vid=8c199678-58de-40fe-8ff6-9c176228f61c"},"vehicle_type_id":"4","last_reported":1732871423,"current_range_meters":18800,"station_id":"","pricing_plan_id":"cebpf4jnsgd1na2vs0mg"},{"bike_id":"87a20c3c-65d4-407c-8eaf-fd2e0980a57a","system_id":"levelo_inurba_marseille","lat":43.33111,"lon":5.38227,"is_reserved":false,"is_disabled":false,"rental_uris":{"android":"levelo://app?vid=87a20c3c-65d4-407c-8eaf-fd2e0980a57a","ios":"levelo://app?vid=87a20c3c-65d4-407c-8eaf-fd2e0980a57a"},"vehicle_type_id":"4","last_reported":1732871423,"current_range_meters":16800,"station_id":"","pricing_plan_id":"cebpf4jnsgd1na2vs0mg"},{"bike_id":"2f6e993c-989c-482c-97ba-f64d3a144aec","system_id":"levelo_inurba_marseille","lat":43.27938,"lon":5.41037,"is_reserved":false,"is_disabled":false,"rental_uris":{"android":"levelo://app?vid=2f6e993c-989c-482c-97ba-f64d3a144aec","ios":"levelo://app?vid=2f6e993c-989c-482c-97ba-f64d3a144aec"},"vehicle_type_id":"4","last_reported":1732871423,"current_range_meters":16800,"station_id":"ce4bhnp2rcd13ifvqh0g","pricing_plan_id":"cebpf4jnsgd1na2vs0mg"},{"bike_id":"9649dcca-5ed0-4df9-b40c-1120ac38595c","system_id":"levelo_inurba_marseille","lat":43.28033,"lon":5.36937,"is_reserved":false,"is_disabled":false,"rental_uris":{"android":"levelo://app?vid=9649dcca-5ed0-4df9-b40c-1120ac38595c","ios":"levelo://app?vid=9649dcca-5ed0-4df9-b40c-1120ac38595c"},"vehicle_type_id":"4","last_reported":1732871423,"current_range_meters":38800,"station_id":"ce4bha12rcd13ifvqef0","pricing_plan_id":"cebpf4jnsgd1na2vs0mg"},{"bike_id":"f41786ba-cd4f-4997-885d-1183aeff00eb","system_id":"levelo_inurba_marseille","lat":43.29263,"lon":5.36842,"is_reserved":false,"is_disabled":false,"rental_uris":{"android":"levelo://app?vid=f41786ba-cd4f-4997-885d-1183aeff00eb","ios":"levelo://app?vid=f41786ba-cd4f-4997-885d-1183aeff00eb"},"vehicle_type_id":"4","last_reported":1732871423,"current_range_meters":20000,"station_id":"ce4bhbp2rcd13ifvqesg","pricing_plan_id":"cebpf4jnsgd1na2vs0mg"},{"bike_id":"8ccfdda0-7d32-44f9-9ebe-5173228549d6","system_id":"levelo_inurba_marseille","lat":43.32045,"lon":5.41532,"is_reserved":false,"is_disabled":false,"rental_uris":{"android":"levelo://app?vid=8ccfdda0-7d32-44f9-9ebe-5173228549d6","ios":"levelo://app?vid=8ccfdda0-7d32-44f9-9ebe-5173228549d6"},"vehicle_type_id":"4","last_reported":1732871423,"current_range_meters":36800,"station_id":"ce4bhq92rcd13ifvqhkg","pricing_plan_id":"cebpf4jnsgd1na2vs0mg"},{"bike_id":"0dd3253e-9184-40b4-9e24-8866b6391cb9","system_id":"levelo_inurba_marseille","lat":43.3095,"lon":5.3905,"is_reserved":false,"is_disabled":false,"rental_uris":{"android":"levelo://app?vid=0dd3253e-9184-40b4-9e24-8866b6391cb9","ios":"levelo://app?vid=0dd3253e-9184-40b4-9e24-8866b6391cb9"},"vehicle_type_id":"4","last_reported":1732871423,"current_range_meters":14800,"station_id":"ce4bgup2rcd13ifvqco0","pricing_plan_id":"cebpf4jnsgd1na2vs0mg"},{"bike_id":"a77952b3-3b0d-4465-b61c-0f3f802e5b2d","system_id":"levelo_inurba_marseille","lat":43.32547,"lon":5.41436,"is_reserved":false,"is_disabled":false,"rental_uris":{"android":"levelo://app?vid=a77952b3-3b0d-4465-b61c-0f3f802e5b2d","ios":"levelo://app?vid=a77952b3-3b0d-4465-b61c-0f3f802e5b2d"},"vehicle_type_id":"4","last_reported":1732871423,"current_range_meters":8400,"station_id":"ce4bhq12rcd13ifvqhhg","pricing_plan_id":"cebpf4jnsgd1na2vs0mg"},{"bike_id":"37e6b652-b990-4fd3-859f-2eb3ce6c15be","system_id":"levelo_inurba_marseille","lat":43.26956,"lon":5.38637,"is_reserved":false,"is_disabled":false,"rental_uris":{"android":"levelo://app?vid=37e6b652-b990-4fd3-859f-2eb3ce6c15be","ios":"levelo://app?vid=37e6b652-b990-4fd3-859f-2eb3ce6c15be"},"vehicle_type_id":"4","last_reported":1732871423,"current_range_meters":17200,"station_id":"ce4bhh92rcd13ifvqfh0","pricing_plan_id":"cebpf4jnsgd1na2vs0mg"},{"bike_id":"3b4eea70-c93f-4472-9e9b-54d8b2f9f612","system_id":"levelo_inurba_marseille","lat":43.2408,"lon":5.37746,"is_reserved":false,"is_disabled":false,"rental_uris":{"android":"levelo://app?vid=3b4eea70-c93f-4472-9e9b-54d8b2f9f612","ios":"levelo://app?vid=3b4eea70-c93f-4472-9e9b-54d8b2f9f612"},"vehicle_type_id":"4","last_reported":1732871423,"current_range_meters":38800,"station_id":"ce4bhnp2rcd13ifvqgvg","pricing_plan_id":"cebpf4jnsgd1na2vs0mg"},{"bike_id":"81d9f7be-c3c6-4233-bf11-948e6f22debc","system_id":"levelo_inurba_marseille","lat":43.32365,"lon":5.38877,"is_reserved":false,"is_disabled":false,"rental_uris":{"android":"levelo://app?vid=81d9f7be-c3c6-4233-bf11-948e6f22debc","ios":"levelo://app?vid=81d9f7be-c3c6-4233-bf11-948e6f22debc"},"vehicle_type_id":"4","last_reported":1732871423,"current_range_meters":37600,"station_id":"ce4bhqp2rcd13ifvqhog","pricing_plan_id":"cebpf4jnsgd1na2vs0mg"},{"bike_id":"7fe8aae4-e2fd-45e8-ad84-418c66f3914f","system_id":"levelo_inurba_marseille","lat":43.28844,"lon":5.35837,"is_reserved":false,"is_disabled":true,"rental_uris":{"android":"levelo://app?vid=7fe8aae4-e2fd-45e8-ad84-418c66f3914f","ios":"levelo://app?vid=7fe8aae4-e2fd-45e8-ad84-418c66f3914f"},"vehicle_type_id":"4","last_reported":1732871423,"current_range_meters":8000,"station_id":"ce4bhb12rcd13ifvqem0","pricing_plan_id":"cebpf4jnsgd1na2vs0mg"},{"bike_id":"1a1dbf65-b382-4d6a-bb3d-805762a9b907","system_id":"levelo_inurba_marseille","lat":43.26192,"lon":5.37449,"is_reserved":false,"is_disabled":false,"rental_uris":{"android":"levelo://app?vid=1a1dbf65-b382-4d6a-bb3d-805762a9b907","ios":"levelo://app?vid=1a1dbf65-b382-4d6a-bb3d-805762a9b907"},"vehicle_type_id":"4","last_reported":1732871423,"current_range_meters":38400,"station_id":"ce4bhgp2rcd13ifvqfc0","pricing_plan_id":"cebpf4jnsgd1na2vs0mg"},{"bike_id":"94952af0-4d0f-40a0-b02f-d2b1b059440a","system_id":"levelo_inurba_marseille","lat":43.30784,"lon":5.37651,"is_reserved":false,"is_disabled":false,"rental_uris":{"android":"levelo://app?vid=94952af0-4d0f-40a0-b02f-d2b1b059440a","ios":"levelo://app?vid=94952af0-4d0f-40a0-b02f-d2b1b059440a"},"vehicle_type_id":"4","last_reported":1732871423,"current_range_meters":10000,"station_id":"ce4bgv92rcd13ifvqcq0","pricing_plan_id":"cebpf4jnsgd1na2vs0mg"},{"bike_id":"0524318d-c2fc-4081-82d0-1b86d8b57b76","system_id":"levelo_inurba_marseille","lat":43.28003,"lon":5.40013,"is_reserved":false,"is_disabled":false,"rental_uris":{"android":"levelo://app?vid=0524318d-c2fc-4081-82d0-1b86d8b57b76","ios":"levelo://app?vid=0524318d-c2fc-4081-82d0-1b86d8b57b76"},"vehicle_type_id":"4","last_reported":1732871423,"current_range_meters":30800,"station_id":"ce4bho92rcd13ifvqh4g","pricing_plan_id":"cebpf4jnsgd1na2vs0mg"},{"bike_id":"62dd7d8f-a826-42c9-8798-d871fa21b979","system_id":"levelo_inurba_marseille","lat":43.31351,"lon":5.36706,"is_reserved":false,"is_disabled":false,"rental_uris":{"android":"levelo://app?vid=62dd7d8f-a826-42c9-8798-d871fa21b979","ios":"levelo://app?vid=62dd7d8f-a826-42c9-8798-d871fa21b979"},"vehicle_type_id":"4","last_reported":1732871423,"current_range_meters":20000,"station_id":"ce4bgr92rcd13ifvqc6g","pricing_plan_id":"cebpf4jnsgd1na2vs0mg"},{"bike_id":"649a6420-7d73-486f-af75-52c8a4c9f23a","system_id":"levelo_inurba_marseille","lat":43.31346,"lon":5.36721,"is_reserved":false,"is_disabled":false,"rental_uris":{"android":"levelo://app?vid=649a6420-7d73-486f-af75-52c8a4c9f23a","ios":"levelo://app?vid=649a6420-7d73-486f-af75-52c8a4c9f23a"},"vehicle_type_id":"4","last_reported":1732871423,"current_range_meters":36400,"station_id":"ce4bgr92rcd13ifvqc6g","pricing_plan_id":"cebpf4jnsgd1na2vs0mg"},{"bike_id":"29a80c71-9648-4a26-b6c9-5f69092eaa01","system_id":"levelo_inurba_marseille","lat":43.27076,"lon":5.42277,"is_reserved":false,"is_disabled":true,"rental_uris":{"android":"levelo://app?vid=29a80c71-9648-4a26-b6c9-5f69092eaa01","ios":"levelo://app?vid=29a80c71-9648-4a26-b6c9-5f69092eaa01"},"vehicle_type_id":"4","last_reported":1732871423,"current_range_meters":38800,"station_id":"ce4bhk92rcd13ifvqgb0","pricing_plan_id":"cebpf4jnsgd1na2vs0mg"},{"bike_id":"4d089ae2-8d3d-4ba1-9519-c59633c846c6","system_id":"levelo_inurba_marseille","lat":43.28265,"lon":5.35071,"is_reserved":false,"is_disabled":false,"rental_uris":{"android":"levelo://app?vid=4d089ae2-8d3d-4ba1-9519-c59633c846c6","ios":"levelo://app?vid=4d089ae2-8d3d-4ba1-9519-c59633c846c6"},"vehicle_type_id":"4","last_reported":1732871423,"current_range_meters":38000,"station_id":"ce4bhbp2rcd13ifvqerg","pricing_plan_id":"cebpf4jnsgd1na2vs0mg"},{"bike_id":"2a60fd72-9cfa-415f-937e-d89edec4f374","system_id":"levelo_inurba_marseille","lat":43.25005,"lon":5.38914,"is_reserved":false,"is_disabled":false,"rental_uris":{"android":"levelo://app?vid=2a60fd72-9cfa-415f-937e-d89edec4f374","ios":"levelo://app?vid=2a60fd72-9cfa-415f-937e-d89edec4f374"},"vehicle_type_id":"4","last_reported":1732871423,"current_range_meters":28400,"station_id":"ce4bhgp2rcd13ifvqfd0","pricing_plan_id":"cebpf4jnsgd1na2vs0mg"},{"bike_id":"0995621e-0e5a-482e-8b5a-efe4989f97eb","system_id":"levelo_inurba_marseille","lat":43.3136,"lon":5.38494,"is_reserved":false,"is_disabled":true,"rental_uris":{"android":"levelo://app?vid=0995621e-0e5a-482e-8b5a-efe4989f97eb","ios":"levelo://app?vid=0995621e-0e5a-482e-8b5a-efe4989f97eb"},"vehicle_type_id":"4","last_reported":1732871423,"current_range_meters":6800,"station_id":"ce4bgt92rcd13ifvqcf0","pricing_plan_id":"cebpf4jnsgd1na2vs0mg"},{"bike_id":"5b6140a7-7f65-4ca3-a3f2-419ab04c93da","system_id":"levelo_inurba_marseille","lat":43.22925,"lon":5.35375,"is_reserved":false,"is_disabled":true,"rental_uris":{"android":"levelo://app?vid=5b6140a7-7f65-4ca3-a3f2-419ab04c93da","ios":"levelo://app?vid=5b6140a7-7f65-4ca3-a3f2-419ab04c93da"},"vehicle_type_id":"4","last_reported":1732871423,"current_range_meters":28400,"station_id":"cpo3532slgdg3j2ikp40","pricing_plan_id":"cebpf4jnsgd1na2vs0mg"},{"bike_id":"f794b8fa-1f88-483b-a054-16f24b00c834","system_id":"levelo_inurba_marseille","lat":43.28272,"lon":5.35073,"is_reserved":false,"is_disabled":true,"rental_uris":{"android":"levelo://app?vid=f794b8fa-1f88-483b-a054-16f24b00c834","ios":"levelo://app?vid=f794b8fa-1f88-483b-a054-16f24b00c834"},"vehicle_type_id":"4","last_reported":1732871423,"current_range_meters":9200,"station_id":"ce4bhbp2rcd13ifvqerg","pricing_plan_id":"cebpf4jnsgd1na2vs0mg"},{"bike_id":"414ced6b-9457-41ed-a305-11df89f57c01","system_id":"levelo_inurba_marseille","lat":43.34144,"lon":5.40905,"is_reserved":false,"is_disabled":false,"rental_uris":{"android":"levelo://app?vid=414ced6b-9457-41ed-a305-11df89f57c01","ios":"levelo://app?vid=414ced6b-9457-41ed-a305-11df89f57c01"},"vehicle_type_id":"4","last_reported":1732871423,"current_range_meters":8000,"station_id":"ce4bhqh2rcd13ifvqhlg","pricing_plan_id":"cebpf4jnsgd1na2vs0mg"},{"bike_id":"64b95c1d-3e64-4c2b-9c8d-b6d2e325dedc","system_id":"levelo_inurba_marseille","lat":43.30955,"lon":5.39041,"is_reserved":false,"is_disabled":false,"rental_uris":{"android":"levelo://app?vid=64b95c1d-3e64-4c2b-9c8d-b6d2e325dedc","ios":"levelo://app?vid=64b95c1d-3e64-4c2b-9c8d-b6d2e325dedc"},"vehicle_type_id":"4","last_reported":1732871423,"current_range_meters":39200,"station_id":"ce4bgup2rcd13ifvqco0","pricing_plan_id":"cebpf4jnsgd1na2vs0mg"},{"bike_id":"bdf92731-d085-4aca-9c06-a8bf8cd225dc","system_id":"levelo_inurba_marseille","lat":43.29315,"lon":5.3721,"is_reserved":false,"is_disabled":false,"rental_uris":{"android":"levelo://app?vid=bdf92731-d085-4aca-9c06-a8bf8cd225dc","ios":"levelo://app?vid=bdf92731-d085-4aca-9c06-a8bf8cd225dc"},"vehicle_type_id":"4","last_reported":1732871423,"current_range_meters":34800,"station_id":"ce4bgh92rcd13ifvqb40","pricing_plan_id":"cebpf4jnsgd1na2vs0mg"},{"bike_id":"2b5fa18c-7202-4e5d-b392-56d7bf7de53d","system_id":"levelo_inurba_marseille","lat":43.25937,"lon":5.40909,"is_reserved":false,"is_disabled":false,"rental_uris":{"android":"levelo://app?vid=2b5fa18c-7202-4e5d-b392-56d7bf7de53d","ios":"levelo://app?vid=2b5fa18c-7202-4e5d-b392-56d7bf7de53d"},"vehicle_type_id":"4","last_reported":1732871423,"current_range_meters":36800,"station_id":"ce4bhm92rcd13ifvqglg","pricing_plan_id":"cebpf4jnsgd1na2vs0mg"},{"bike_id":"0a3e8c22-d2f0-409e-a216-1fe0c01f598b","system_id":"levelo_inurba_marseille","lat":43.32537,"lon":5.41425,"is_reserved":false,"is_disabled":false,"rental_uris":{"android":"levelo://app?vid=0a3e8c22-d2f0-409e-a216-1fe0c01f598b","ios":"levelo://app?vid=0a3e8c22-d2f0-409e-a216-1fe0c01f598b"},"vehicle_type_id":"4","last_reported":1732871423,"current_range_meters":29600,"station_id":"ce4bhq12rcd13ifvqhhg","pricing_plan_id":"cebpf4jnsgd1na2vs0mg"},{"bike_id":"6aa7d263-c9db-4fc0-b9ea-e1517b0dfa32","system_id":"levelo_inurba_marseille","lat":43.28147,"lon":5.42646,"is_reserved":false,"is_disabled":false,"rental_uris":{"android":"levelo://app?vid=6aa7d263-c9db-4fc0-b9ea-e1517b0dfa32","ios":"levelo://app?vid=6aa7d263-c9db-4fc0-b9ea-e1517b0dfa32"},"vehicle_type_id":"4","last_reported":1732871423,"current_range_meters":39200,"station_id":"ce4bhnh2rcd13ifvqgug","pricing_plan_id":"cebpf4jnsgd1na2vs0mg"},{"bike_id":"bfaa48e7-e0e0-44ce-b581-2e215750cf45","system_id":"levelo_inurba_marseille","lat":43.28273,"lon":5.35058,"is_reserved":false,"is_disabled":false,"rental_uris":{"android":"levelo://app?vid=bfaa48e7-e0e0-44ce-b581-2e215750cf45","ios":"levelo://app?vid=bfaa48e7-e0e0-44ce-b581-2e215750cf45"},"vehicle_type_id":"4","last_reported":1732871423,"current_range_meters":20000,"station_id":"ce4bhbp2rcd13ifvqerg","pricing_plan_id":"cebpf4jnsgd1na2vs0mg"},{"bike_id":"45ee1737-cd22-42fb-a8ff-9c819e5c2a31","system_id":"levelo_inurba_marseille","lat":43.30913,"lon":5.36852,"is_reserved":false,"is_disabled":false,"rental_uris":{"android":"levelo://app?vid=45ee1737-cd22-42fb-a8ff-9c819e5c2a31","ios":"levelo://app?vid=45ee1737-cd22-42fb-a8ff-9c819e5c2a31"},"vehicle_type_id":"4","last_reported":1732871423,"current_range_meters":39200,"station_id":"ce4bgn92rcd13ifvqbvg","pricing_plan_id":"cebpf4jnsgd1na2vs0mg"},{"bike_id":"af9cc34d-8f6e-4fbb-b0eb-301246c11b13","system_id":"levelo_inurba_marseille","lat":43.27322,"lon":5.39069,"is_reserved":false,"is_disabled":false,"rental_uris":{"android":"levelo://app?vid=af9cc34d-8f6e-4fbb-b0eb-301246c11b13","ios":"levelo://app?vid=af9cc34d-8f6e-4fbb-b0eb-301246c11b13"},"vehicle_type_id":"4","last_reported":1732871423,"current_range_meters":32000,"station_id":"ce4bhgp2rcd13ifvqfe0","pricing_plan_id":"cebpf4jnsgd1na2vs0mg"},{"bike_id":"2278c589-a3e3-4678-a431-058ef37a5b54","system_id":"levelo_inurba_marseille","lat":43.26941,"lon":5.38629,"is_reserved":false,"is_disabled":false,"rental_uris":{"android":"levelo://app?vid=2278c589-a3e3-4678-a431-058ef37a5b54","ios":"levelo://app?vid=2278c589-a3e3-4678-a431-058ef37a5b54"},"vehicle_type_id":"4","last_reported":1732871423,"current_range_meters":38800,"station_id":"ce4bhh92rcd13ifvqfh0","pricing_plan_id":"cebpf4jnsgd1na2vs0mg"},{"bike_id":"f232c7f1-c16a-416b-95f5-707af012466e","system_id":"levelo_inurba_marseille","lat":43.32052,"lon":5.4155,"is_reserved":false,"is_disabled":false,"rental_uris":{"android":"levelo://app?vid=f232c7f1-c16a-416b-95f5-707af012466e","ios":"levelo://app?vid=f232c7f1-c16a-416b-95f5-707af012466e"},"vehicle_type_id":"4","last_reported":1732871423,"current_range_meters":37600,"station_id":"ce4bhq92rcd13ifvqhkg","pricing_plan_id":"cebpf4jnsgd1na2vs0mg"},{"bike_id":"c36c9719-f2bb-432e-9c6e-4514ff969e45","system_id":"levelo_inurba_marseille","lat":43.30278,"lon":5.37697,"is_reserved":false,"is_disabled":false,"rental_uris":{"android":"levelo://app?vid=c36c9719-f2bb-432e-9c6e-4514ff969e45","ios":"levelo://app?vid=c36c9719-f2bb-432e-9c6e-4514ff969e45"},"vehicle_type_id":"4","last_reported":1732871423,"current_range_meters":26000,"station_id":"ce4bguh2rcd13ifvqcj0","pricing_plan_id":"cebpf4jnsgd1na2vs0mg"},{"bike_id":"b036063e-a5f2-4d26-b4d4-1ff11e0df402","system_id":"levelo_inurba_marseille","lat":43.33615,"lon":5.41039,"is_reserved":false,"is_disabled":false,"rental_uris":{"android":"levelo://app?vid=b036063e-a5f2-4d26-b4d4-1ff11e0df402","ios":"levelo://app?vid=b036063e-a5f2-4d26-b4d4-1ff11e0df402"},"vehicle_type_id":"4","last_reported":1732871423,"current_range_meters":22400,"station_id":"ce4bhqh2rcd13ifvqhmg","pricing_plan_id":"cebpf4jnsgd1na2vs0mg"},{"bike_id":"c1036bf3-bdda-4459-a1e1-1baaf6f71ab9","system_id":"levelo_inurba_marseille","lat":43.30642,"lon":5.40094,"is_reserved":false,"is_disabled":false,"rental_uris":{"android":"levelo://app?vid=c1036bf3-bdda-4459-a1e1-1baaf6f71ab9","ios":"levelo://app?vid=c1036bf3-bdda-4459-a1e1-1baaf6f71ab9"},"vehicle_type_id":"4","last_reported":1732871423,"current_range_meters":32000,"station_id":"ce4bh112rcd13ifvqda0","pricing_plan_id":"cebpf4jnsgd1na2vs0mg"},{"bike_id":"df3ad76f-1ffc-447b-92de-5eeec1894f4b","system_id":"levelo_inurba_marseille","lat":43.29621,"lon":5.37156,"is_reserved":false,"is_disabled":false,"rental_uris":{"android":"levelo://app?vid=df3ad76f-1ffc-447b-92de-5eeec1894f4b","ios":"levelo://app?vid=df3ad76f-1ffc-447b-92de-5eeec1894f4b"},"vehicle_type_id":"4","last_reported":1732871423,"current_range_meters":19200,"station_id":"ce4bgnh2rcd13ifvqc0g","pricing_plan_id":"cebpf4jnsgd1na2vs0mg"},{"bike_id":"14f77994-bb9f-4ef7-a188-04acbf54d1a2","system_id":"levelo_inurba_marseille","lat":43.31496,"lon":5.37314,"is_reserved":false,"is_disabled":true,"rental_uris":{"android":"levelo://app?vid=14f77994-bb9f-4ef7-a188-04acbf54d1a2","ios":"levelo://app?vid=14f77994-bb9f-4ef7-a188-04acbf54d1a2"},"vehicle_type_id":"4","last_reported":1732871423,"current_range_meters":0,"station_id":"ce4bgt12rcd13ifvqcd0","pricing_plan_id":"cebpf4jnsgd1na2vs0mg"},{"bike_id":"c9539d53-76d7-41f2-9f7b-36113051e9ab","system_id":"levelo_inurba_marseille","lat":43.29277,"lon":5.36846,"is_reserved":false,"is_disabled":false,"rental_uris":{"android":"levelo://app?vid=c9539d53-76d7-41f2-9f7b-36113051e9ab","ios":"levelo://app?vid=c9539d53-76d7-41f2-9f7b-36113051e9ab"},"vehicle_type_id":"4","last_reported":1732871423,"current_range_meters":28400,"station_id":"ce4bhbp2rcd13ifvqesg","pricing_plan_id":"cebpf4jnsgd1na2vs0mg"},{"bike_id":"0551ec67-94ad-4fcc-a139-50dc5d1a4e00","system_id":"levelo_inurba_marseille","lat":43.3136,"lon":5.367128,"is_reserved":false,"is_disabled":false,"rental_uris":{"android":"levelo://app?vid=0551ec67-94ad-4fcc-a139-50dc5d1a4e00","ios":"levelo://app?vid=0551ec67-94ad-4fcc-a139-50dc5d1a4e00"},"vehicle_type_id":"4","last_reported":1732871423,"current_range_meters":20800,"station_id":"ce4bgr92rcd13ifvqc6g","pricing_plan_id":"cebpf4jnsgd1na2vs0mg"},{"bike_id":"7789e245-92df-43c2-8166-d6f7ccbd033b","system_id":"levelo_inurba_marseille","lat":43.291557,"lon":5.37931,"is_reserved":false,"is_disabled":true,"rental_uris":{"android":"levelo://app?vid=7789e245-92df-43c2-8166-d6f7ccbd033b","ios":"levelo://app?vid=7789e245-92df-43c2-8166-d6f7ccbd033b"},"vehicle_type_id":"4","last_reported":1732871423,"current_range_meters":6400,"station_id":"","pricing_plan_id":"cebpf4jnsgd1na2vs0mg"},{"bike_id":"93bf632f-9c2c-453f-931e-3a26e12fd5f1","system_id":"levelo_inurba_marseille","lat":43.30136,"lon":5.39864,"is_reserved":false,"is_disabled":true,"rental_uris":{"android":"levelo://app?vid=93bf632f-9c2c-453f-931e-3a26e12fd5f1","ios":"levelo://app?vid=93bf632f-9c2c-453f-931e-3a26e12fd5f1"},"vehicle_type_id":"4","last_reported":1732871423,"current_range_meters":36400,"station_id":"ce4bh0h2rcd13ifvqd40","pricing_plan_id":"cebpf4jnsgd1na2vs0mg"},{"bike_id":"cef66869-2f8e-41d9-8f3b-be54ed9ffe3e","system_id":"levelo_inurba_marseille","lat":43.26944,"lon":5.38617,"is_reserved":false,"is_disabled":false,"rental_uris":{"android":"levelo://app?vid=cef66869-2f8e-41d9-8f3b-be54ed9ffe3e","ios":"levelo://app?vid=cef66869-2f8e-41d9-8f3b-be54ed9ffe3e"},"vehicle_type_id":"4","last_reported":1732871423,"current_range_meters":20400,"station_id":"ce4bhh92rcd13ifvqfh0","pricing_plan_id":"cebpf4jnsgd1na2vs0mg"},{"bike_id":"fe1c6c60-0f4f-4b5c-a7ea-9f2ff8347245","system_id":"levelo_inurba_marseille","lat":43.27616,"lon":5.36102,"is_reserved":false,"is_disabled":true,"rental_uris":{"android":"levelo://app?vid=fe1c6c60-0f4f-4b5c-a7ea-9f2ff8347245","ios":"levelo://app?vid=fe1c6c60-0f4f-4b5c-a7ea-9f2ff8347245"},"vehicle_type_id":"4","last_reported":1732871423,"current_range_meters":0,"station_id":"ce4bgj92rcd13ifvqbe0","pricing_plan_id":"cebpf4jnsgd1na2vs0mg"},{"bike_id":"839c30dd-94a5-4141-9c4d-65189b8854c9","system_id":"levelo_inurba_marseille","lat":43.27068,"lon":5.42279,"is_reserved":false,"is_disabled":false,"rental_uris":{"android":"levelo://app?vid=839c30dd-94a5-4141-9c4d-65189b8854c9","ios":"levelo://app?vid=839c30dd-94a5-4141-9c4d-65189b8854c9"},"vehicle_type_id":"4","last_reported":1732871423,"current_range_meters":26800,"station_id":"ce4bhk92rcd13ifvqgb0","pricing_plan_id":"cebpf4jnsgd1na2vs0mg"},{"bike_id":"371abac0-5dd0-42bb-a641-ca0cac7a118a","system_id":"levelo_inurba_marseille","lat":43.2767,"lon":5.38911,"is_reserved":false,"is_disabled":true,"rental_uris":{"android":"levelo://app?vid=371abac0-5dd0-42bb-a641-ca0cac7a118a","ios":"levelo://app?vid=371abac0-5dd0-42bb-a641-ca0cac7a118a"},"vehicle_type_id":"4","last_reported":1732871423,"current_range_meters":0,"station_id":"ce4bhi12rcd13ifvqfo0","pricing_plan_id":"cebpf4jnsgd1na2vs0mg"},{"bike_id":"44692518-f307-4d34-bde3-20456f8e1767","system_id":"levelo_inurba_marseille","lat":43.27419,"lon":5.39022,"is_reserved":false,"is_disabled":false,"rental_uris":{"android":"levelo://app?vid=44692518-f307-4d34-bde3-20456f8e1767","ios":"levelo://app?vid=44692518-f307-4d34-bde3-20456f8e1767"},"vehicle_type_id":"4","last_reported":1732871423,"current_range_meters":25200,"station_id":"","pricing_plan_id":"cebpf4jnsgd1na2vs0mg"},{"bike_id":"57883350-7ee0-4b23-9fb4-e091ce37b4c3","system_id":"levelo_inurba_marseille","lat":43.27177,"lon":5.40993,"is_reserved":false,"is_disabled":false,"rental_uris":{"android":"levelo://app?vid=57883350-7ee0-4b23-9fb4-e091ce37b4c3","ios":"levelo://app?vid=57883350-7ee0-4b23-9fb4-e091ce37b4c3"},"vehicle_type_id":"4","last_reported":1732871423,"current_range_meters":25600,"station_id":"ce4bhl12rcd13ifvqgf0","pricing_plan_id":"cebpf4jnsgd1na2vs0mg"},{"bike_id":"b97167aa-a565-44c5-bef6-fd9a2e9accad","system_id":"levelo_inurba_marseille","lat":43.304642,"lon":5.379061,"is_reserved":false,"is_disabled":false,"rental_uris":{"android":"levelo://app?vid=b97167aa-a565-44c5-bef6-fd9a2e9accad","ios":"levelo://app?vid=b97167aa-a565-44c5-bef6-fd9a2e9accad"},"vehicle_type_id":"4","last_reported":1732871423,"current_range_meters":35600,"station_id":"ce4bgup2rcd13ifvqcn0","pricing_plan_id":"cebpf4jnsgd1na2vs0mg"},{"bike_id":"179b5b97-0a72-4abe-998c-b37c239cc4f9","system_id":"levelo_inurba_marseille","lat":43.24077,"lon":5.37759,"is_reserved":false,"is_disabled":false,"rental_uris":{"android":"levelo://app?vid=179b5b97-0a72-4abe-998c-b37c239cc4f9","ios":"levelo://app?vid=179b5b97-0a72-4abe-998c-b37c239cc4f9"},"vehicle_type_id":"4","last_reported":1732871423,"current_range_meters":8400,"station_id":"ce4bhnp2rcd13ifvqgvg","pricing_plan_id":"cebpf4jnsgd1na2vs0mg"},{"bike_id":"329734a5-27ef-48de-9b10-5f93bafe4836","system_id":"levelo_inurba_marseille","lat":43.26944,"lon":5.40243,"is_reserved":false,"is_disabled":true,"rental_uris":{"android":"levelo://app?vid=329734a5-27ef-48de-9b10-5f93bafe4836","ios":"levelo://app?vid=329734a5-27ef-48de-9b10-5f93bafe4836"},"vehicle_type_id":"4","last_reported":1732871423,"current_range_meters":1600,"station_id":"cjm6bp8fraef2m0cb0m0","pricing_plan_id":"cebpf4jnsgd1na2vs0mg"},{"bike_id":"25fdb734-a980-4a8e-809e-7c1e836f6252","system_id":"levelo_inurba_marseille","lat":43.29092,"lon":5.38145,"is_reserved":false,"is_disabled":false,"rental_uris":{"android":"levelo://app?vid=25fdb734-a980-4a8e-809e-7c1e836f6252","ios":"levelo://app?vid=25fdb734-a980-4a8e-809e-7c1e836f6252"},"vehicle_type_id":"4","last_reported":1732871423,"current_range_meters":36800,"station_id":"ce4bh512rcd13ifvqe2g","pricing_plan_id":"cebpf4jnsgd1na2vs0mg"},{"bike_id":"83331ee4-5ce1-48e8-8eec-1cbdb46fef0c","system_id":"levelo_inurba_marseille","lat":43.27495,"lon":5.42449,"is_reserved":false,"is_disabled":false,"rental_uris":{"android":"levelo://app?vid=83331ee4-5ce1-48e8-8eec-1cbdb46fef0c","ios":"levelo://app?vid=83331ee4-5ce1-48e8-8eec-1cbdb46fef0c"},"vehicle_type_id":"4","last_reported":1732871423,"current_range_meters":33600,"station_id":"ce4bhn92rcd13ifvqgrg","pricing_plan_id":"cebpf4jnsgd1na2vs0mg"},{"bike_id":"a5a3c222-4020-434e-804a-37d7fa0dc268","system_id":"levelo_inurba_marseille","lat":43.29799,"lon":5.38116,"is_reserved":false,"is_disabled":false,"rental_uris":{"android":"levelo://app?vid=a5a3c222-4020-434e-804a-37d7fa0dc268","ios":"levelo://app?vid=a5a3c222-4020-434e-804a-37d7fa0dc268"},"vehicle_type_id":"4","last_reported":1732871423,"current_range_meters":38400,"station_id":"ce4bgip2rcd13ifvqbb0","pricing_plan_id":"cebpf4jnsgd1na2vs0mg"},{"bike_id":"a11c87cd-c5ed-4a29-ba8a-78abe7a5d984","system_id":"levelo_inurba_marseille","lat":43.27837,"lon":5.392,"is_reserved":false,"is_disabled":true,"rental_uris":{"android":"levelo://app?vid=a11c87cd-c5ed-4a29-ba8a-78abe7a5d984","ios":"levelo://app?vid=a11c87cd-c5ed-4a29-ba8a-78abe7a5d984"},"vehicle_type_id":"4","last_reported":1732871423,"current_range_meters":28000,"station_id":"ce4bhjp2rcd13ifvqga0","pricing_plan_id":"cebpf4jnsgd1na2vs0mg"},{"bike_id":"8aac95ad-61d0-4d11-b84e-ddd7f4dfd556","system_id":"levelo_inurba_marseille","lat":43.29708,"lon":5.36613,"is_reserved":false,"is_disabled":false,"rental_uris":{"android":"levelo://app?vid=8aac95ad-61d0-4d11-b84e-ddd7f4dfd556","ios":"levelo://app?vid=8aac95ad-61d0-4d11-b84e-ddd7f4dfd556"},"vehicle_type_id":"4","last_reported":1732871423,"current_range_meters":20800,"station_id":"ce4bgn12rcd13ifvqbt0","pricing_plan_id":"cebpf4jnsgd1na2vs0mg"},{"bike_id":"f6e9d20a-415c-4059-8446-8da030993c32","system_id":"levelo_inurba_marseille","lat":43.3133,"lon":5.36716,"is_reserved":false,"is_disabled":false,"rental_uris":{"android":"levelo://app?vid=f6e9d20a-415c-4059-8446-8da030993c32","ios":"levelo://app?vid=f6e9d20a-415c-4059-8446-8da030993c32"},"vehicle_type_id":"4","last_reported":1732871423,"current_range_meters":18800,"station_id":"ce4bgr92rcd13ifvqc6g","pricing_plan_id":"cebpf4jnsgd1na2vs0mg"},{"bike_id":"75486131-8e85-4448-87a1-67a7e3096de4","system_id":"levelo_inurba_marseille","lat":43.30921,"lon":5.37901,"is_reserved":false,"is_disabled":true,"rental_uris":{"android":"levelo://app?vid=75486131-8e85-4448-87a1-67a7e3096de4","ios":"levelo://app?vid=75486131-8e85-4448-87a1-67a7e3096de4"},"vehicle_type_id":"4","last_reported":1732871423,"current_range_meters":0,"station_id":"","pricing_plan_id":"cebpf4jnsgd1na2vs0mg"},{"bike_id":"a5909545-3e09-4859-9fda-9ffe4e6e4883","system_id":"levelo_inurba_marseille","lat":43.23066,"lon":5.35491,"is_reserved":false,"is_disabled":false,"rental_uris":{"android":"levelo://app?vid=a5909545-3e09-4859-9fda-9ffe4e6e4883","ios":"levelo://app?vid=a5909545-3e09-4859-9fda-9ffe4e6e4883"},"vehicle_type_id":"4","last_reported":1732871423,"current_range_meters":18000,"station_id":"cpo3342slgdg3j2ifvpg","pricing_plan_id":"cebpf4jnsgd1na2vs0mg"},{"bike_id":"05412edd-4f98-4b7b-8f3b-a793b3add8af","system_id":"levelo_inurba_marseille","lat":43.30534,"lon":5.3655,"is_reserved":false,"is_disabled":false,"rental_uris":{"android":"levelo://app?vid=05412edd-4f98-4b7b-8f3b-a793b3add8af","ios":"levelo://app?vid=05412edd-4f98-4b7b-8f3b-a793b3add8af"},"vehicle_type_id":"4","last_reported":1732871423,"current_range_meters":26000,"station_id":"ce4bgs12rcd13ifvqcag","pricing_plan_id":"cebpf4jnsgd1na2vs0mg"},{"bike_id":"b6b1f691-f5d4-4437-a273-f7c9759cc4c1","system_id":"levelo_inurba_marseille","lat":43.2919,"lon":5.39317,"is_reserved":false,"is_disabled":false,"rental_uris":{"android":"levelo://app?vid=b6b1f691-f5d4-4437-a273-f7c9759cc4c1","ios":"levelo://app?vid=b6b1f691-f5d4-4437-a273-f7c9759cc4c1"},"vehicle_type_id":"4","last_reported":1732871423,"current_range_meters":38400,"station_id":"ce4bh192rcd13ifvqdd0","pricing_plan_id":"cebpf4jnsgd1na2vs0mg"},{"bike_id":"1f3be82a-39fb-49be-9f70-2df7092d6f3c","system_id":"levelo_inurba_marseille","lat":43.32465,"lon":5.36571,"is_reserved":false,"is_disabled":false,"rental_uris":{"android":"levelo://app?vid=1f3be82a-39fb-49be-9f70-2df7092d6f3c","ios":"levelo://app?vid=1f3be82a-39fb-49be-9f70-2df7092d6f3c"},"vehicle_type_id":"4","last_reported":1732871423,"current_range_meters":13600,"station_id":"ce4bhs12rcd13ifvqhvg","pricing_plan_id":"cebpf4jnsgd1na2vs0mg"},{"bike_id":"5329edfd-3f80-481f-b22a-9053213b3f4f","system_id":"levelo_inurba_marseille","lat":43.33605,"lon":5.41024,"is_reserved":false,"is_disabled":false,"rental_uris":{"android":"levelo://app?vid=5329edfd-3f80-481f-b22a-9053213b3f4f","ios":"levelo://app?vid=5329edfd-3f80-481f-b22a-9053213b3f4f"},"vehicle_type_id":"4","last_reported":1732871423,"current_range_meters":24400,"station_id":"ce4bhqh2rcd13ifvqhmg","pricing_plan_id":"cebpf4jnsgd1na2vs0mg"},{"bike_id":"9030a65e-92b5-4035-a6e3-149d39d0b304","system_id":"levelo_inurba_marseille","lat":43.32106,"lon":5.3678,"is_reserved":false,"is_disabled":false,"rental_uris":{"android":"levelo://app?vid=9030a65e-92b5-4035-a6e3-149d39d0b304","ios":"levelo://app?vid=9030a65e-92b5-4035-a6e3-149d39d0b304"},"vehicle_type_id":"4","last_reported":1732871423,"current_range_meters":16400,"station_id":"ce4bhrh2rcd13ifvqhug","pricing_plan_id":"cebpf4jnsgd1na2vs0mg"},{"bike_id":"d232b51f-8a91-4fe2-8e93-1d5ea369822b","system_id":"levelo_inurba_marseille","lat":43.23156,"lon":5.43706,"is_reserved":false,"is_disabled":false,"rental_uris":{"android":"levelo://app?vid=d232b51f-8a91-4fe2-8e93-1d5ea369822b","ios":"levelo://app?vid=d232b51f-8a91-4fe2-8e93-1d5ea369822b"},"vehicle_type_id":"4","last_reported":1732871423,"current_range_meters":34800,"station_id":"ce4bhmp2rcd13ifvqgog","pricing_plan_id":"cebpf4jnsgd1na2vs0mg"},{"bike_id":"e5951ee3-4a5a-4ebb-b469-096c5188dfa3","system_id":"levelo_inurba_marseille","lat":43.23143,"lon":5.35512,"is_reserved":false,"is_disabled":false,"rental_uris":{"android":"levelo://app?vid=e5951ee3-4a5a-4ebb-b469-096c5188dfa3","ios":"levelo://app?vid=e5951ee3-4a5a-4ebb-b469-096c5188dfa3"},"vehicle_type_id":"4","last_reported":1732871423,"current_range_meters":24800,"station_id":"ce4bhu92rcd13ifvqi70","pricing_plan_id":"cebpf4jnsgd1na2vs0mg"},{"bike_id":"f9a63393-5401-4f98-ae5a-dfbb8291ab6d","system_id":"levelo_inurba_marseille","lat":43.30041,"lon":5.37547,"is_reserved":false,"is_disabled":true,"rental_uris":{"android":"levelo://app?vid=f9a63393-5401-4f98-ae5a-dfbb8291ab6d","ios":"levelo://app?vid=f9a63393-5401-4f98-ae5a-dfbb8291ab6d"},"vehicle_type_id":"4","last_reported":1732871423,"current_range_meters":400,"station_id":"","pricing_plan_id":"cebpf4jnsgd1na2vs0mg"},{"bike_id":"a9edb917-67ea-447d-a02a-a7d269323daa","system_id":"levelo_inurba_marseille","lat":43.29428,"lon":5.39757,"is_reserved":false,"is_disabled":false,"rental_uris":{"android":"levelo://app?vid=a9edb917-67ea-447d-a02a-a7d269323daa","ios":"levelo://app?vid=a9edb917-67ea-447d-a02a-a7d269323daa"},"vehicle_type_id":"4","last_reported":1732871423,"current_range_meters":28800,"station_id":"ce4bh3h2rcd13ifvqdo0","pricing_plan_id":"cebpf4jnsgd1na2vs0mg"},{"bike_id":"de303072-6173-4588-8260-f566e5a6e639","system_id":"levelo_inurba_marseille","lat":43.31355,"lon":5.36725,"is_reserved":false,"is_disabled":false,"rental_uris":{"android":"levelo://app?vid=de303072-6173-4588-8260-f566e5a6e639","ios":"levelo://app?vid=de303072-6173-4588-8260-f566e5a6e639"},"vehicle_type_id":"4","last_reported":1732871423,"current_range_meters":17200,"station_id":"ce4bgr92rcd13ifvqc6g","pricing_plan_id":"cebpf4jnsgd1na2vs0mg"},{"bike_id":"beecf29b-0bf3-4cee-a03e-0dd6251d4d12","system_id":"levelo_inurba_marseille","lat":43.3166,"lon":5.3772,"is_reserved":false,"is_disabled":false,"rental_uris":{"android":"levelo://app?vid=beecf29b-0bf3-4cee-a03e-0dd6251d4d12","ios":"levelo://app?vid=beecf29b-0bf3-4cee-a03e-0dd6251d4d12"},"vehicle_type_id":"4","last_reported":1732871423,"current_range_meters":38800,"station_id":"","pricing_plan_id":"cebpf4jnsgd1na2vs0mg"},{"bike_id":"f9030e76-b987-42ca-8d68-e694d5adb96f","system_id":"levelo_inurba_marseille","lat":43.27496,"lon":5.42451,"is_reserved":false,"is_disabled":false,"rental_uris":{"android":"levelo://app?vid=f9030e76-b987-42ca-8d68-e694d5adb96f","ios":"levelo://app?vid=f9030e76-b987-42ca-8d68-e694d5adb96f"},"vehicle_type_id":"4","last_reported":1732871423,"current_range_meters":24000,"station_id":"ce4bhn92rcd13ifvqgrg","pricing_plan_id":"cebpf4jnsgd1na2vs0mg"},{"bike_id":"13733150-4313-429c-b872-f3cf1ee14a82","system_id":"levelo_inurba_marseille","lat":43.31706,"lon":5.37755,"is_reserved":false,"is_disabled":false,"rental_uris":{"android":"levelo://app?vid=13733150-4313-429c-b872-f3cf1ee14a82","ios":"levelo://app?vid=13733150-4313-429c-b872-f3cf1ee14a82"},"vehicle_type_id":"4","last_reported":1732871423,"current_range_meters":37600,"station_id":"ce4bgth2rcd13ifvqch0","pricing_plan_id":"cebpf4jnsgd1na2vs0mg"},{"bike_id":"5637f218-5935-4ecf-8d2f-8e866d4ee57b","system_id":"levelo_inurba_marseille","lat":43.27992,"lon":5.41662,"is_reserved":false,"is_disabled":false,"rental_uris":{"android":"levelo://app?vid=5637f218-5935-4ecf-8d2f-8e866d4ee57b","ios":"levelo://app?vid=5637f218-5935-4ecf-8d2f-8e866d4ee57b"},"vehicle_type_id":"4","last_reported":1732871423,"current_range_meters":33600,"station_id":"ce4bho12rcd13ifvqh1g","pricing_plan_id":"cebpf4jnsgd1na2vs0mg"},{"bike_id":"465491be-15f1-444e-8407-2b8e52a4185c","system_id":"levelo_inurba_marseille","lat":43.2408,"lon":5.37739,"is_reserved":false,"is_disabled":false,"rental_uris":{"android":"levelo://app?vid=465491be-15f1-444e-8407-2b8e52a4185c","ios":"levelo://app?vid=465491be-15f1-444e-8407-2b8e52a4185c"},"vehicle_type_id":"4","last_reported":1732871423,"current_range_meters":36000,"station_id":"ce4bhnp2rcd13ifvqgvg","pricing_plan_id":"cebpf4jnsgd1na2vs0mg"},{"bike_id":"88b3397b-b680-40d4-8443-127782358fb4","system_id":"levelo_inurba_marseille","lat":43.24083,"lon":5.37754,"is_reserved":false,"is_disabled":false,"rental_uris":{"android":"levelo://app?vid=88b3397b-b680-40d4-8443-127782358fb4","ios":"levelo://app?vid=88b3397b-b680-40d4-8443-127782358fb4"},"vehicle_type_id":"4","last_reported":1732871423,"current_range_meters":22400,"station_id":"ce4bhnp2rcd13ifvqgvg","pricing_plan_id":"cebpf4jnsgd1na2vs0mg"},{"bike_id":"de8dedfd-c65e-4ce5-b8ec-b5ab34a22a6e","system_id":"levelo_inurba_marseille","lat":43.27068,"lon":5.42275,"is_reserved":false,"is_disabled":true,"rental_uris":{"android":"levelo://app?vid=de8dedfd-c65e-4ce5-b8ec-b5ab34a22a6e","ios":"levelo://app?vid=de8dedfd-c65e-4ce5-b8ec-b5ab34a22a6e"},"vehicle_type_id":"4","last_reported":1732871423,"current_range_meters":38800,"station_id":"ce4bhk92rcd13ifvqgb0","pricing_plan_id":"cebpf4jnsgd1na2vs0mg"},{"bike_id":"5d13a862-aca8-4c54-8f65-fc063af75c01","system_id":"levelo_inurba_marseille","lat":43.3053,"lon":5.36701,"is_reserved":false,"is_disabled":false,"rental_uris":{"android":"levelo://app?vid=5d13a862-aca8-4c54-8f65-fc063af75c01","ios":"levelo://app?vid=5d13a862-aca8-4c54-8f65-fc063af75c01"},"vehicle_type_id":"4","last_reported":1732871423,"current_range_meters":37600,"station_id":"ce4bgrp2rcd13ifvqc9g","pricing_plan_id":"cebpf4jnsgd1na2vs0mg"},{"bike_id":"baed12b3-7578-4780-a3e6-1f289df86bbf","system_id":"levelo_inurba_marseille","lat":43.30551,"lon":5.36701,"is_reserved":false,"is_disabled":false,"rental_uris":{"android":"levelo://app?vid=baed12b3-7578-4780-a3e6-1f289df86bbf","ios":"levelo://app?vid=baed12b3-7578-4780-a3e6-1f289df86bbf"},"vehicle_type_id":"4","last_reported":1732871423,"current_range_meters":18000,"station_id":"ce4bgrp2rcd13ifvqc9g","pricing_plan_id":"cebpf4jnsgd1na2vs0mg"},{"bike_id":"6e387dfd-1157-485b-8d2d-8bd685401269","system_id":"levelo_inurba_marseille","lat":43.29806,"lon":5.3809,"is_reserved":false,"is_disabled":false,"rental_uris":{"android":"levelo://app?vid=6e387dfd-1157-485b-8d2d-8bd685401269","ios":"levelo://app?vid=6e387dfd-1157-485b-8d2d-8bd685401269"},"vehicle_type_id":"4","last_reported":1732871423,"current_range_meters":38400,"station_id":"ce4bgip2rcd13ifvqbb0","pricing_plan_id":"cebpf4jnsgd1na2vs0mg"},{"bike_id":"75f174b0-a946-4a42-87ef-a93b48abb145","system_id":"levelo_inurba_marseille","lat":43.30947,"lon":5.39037,"is_reserved":false,"is_disabled":false,"rental_uris":{"android":"levelo://app?vid=75f174b0-a946-4a42-87ef-a93b48abb145","ios":"levelo://app?vid=75f174b0-a946-4a42-87ef-a93b48abb145"},"vehicle_type_id":"4","last_reported":1732871423,"current_range_meters":38800,"station_id":"ce4bgup2rcd13ifvqco0","pricing_plan_id":"cebpf4jnsgd1na2vs0mg"},{"bike_id":"f576f1ac-9441-4aaf-9239-99d550cb7b55","system_id":"levelo_inurba_marseille","lat":43.31699,"lon":5.37762,"is_reserved":false,"is_disabled":true,"rental_uris":{"android":"levelo://app?vid=f576f1ac-9441-4aaf-9239-99d550cb7b55","ios":"levelo://app?vid=f576f1ac-9441-4aaf-9239-99d550cb7b55"},"vehicle_type_id":"4","last_reported":1732871423,"current_range_meters":28400,"station_id":"ce4bgth2rcd13ifvqch0","pricing_plan_id":"cebpf4jnsgd1na2vs0mg"},{"bike_id":"9e8872c0-f9d7-4924-96cb-8705e33edf6d","system_id":"levelo_inurba_marseille","lat":43.30124,"lon":5.38771,"is_reserved":false,"is_disabled":true,"rental_uris":{"android":"levelo://app?vid=9e8872c0-f9d7-4924-96cb-8705e33edf6d","ios":"levelo://app?vid=9e8872c0-f9d7-4924-96cb-8705e33edf6d"},"vehicle_type_id":"4","last_reported":1732871423,"current_range_meters":0,"station_id":"ce4bghh2rcd13ifvqb60","pricing_plan_id":"cebpf4jnsgd1na2vs0mg"},{"bike_id":"3a3b1b2b-9521-4bba-ba92-f3603821bdb4","system_id":"levelo_inurba_marseille","lat":43.25591,"lon":5.3824,"is_reserved":false,"is_disabled":false,"rental_uris":{"android":"levelo://app?vid=3a3b1b2b-9521-4bba-ba92-f3603821bdb4","ios":"levelo://app?vid=3a3b1b2b-9521-4bba-ba92-f3603821bdb4"},"vehicle_type_id":"4","last_reported":1732871423,"current_range_meters":25200,"station_id":"ce4bhih2rcd13ifvqfs0","pricing_plan_id":"cebpf4jnsgd1na2vs0mg"},{"bike_id":"63c3b7c5-a0a5-4303-943a-5512cff1f3b4","system_id":"levelo_inurba_marseille","lat":43.32365,"lon":5.38876,"is_reserved":false,"is_disabled":false,"rental_uris":{"android":"levelo://app?vid=63c3b7c5-a0a5-4303-943a-5512cff1f3b4","ios":"levelo://app?vid=63c3b7c5-a0a5-4303-943a-5512cff1f3b4"},"vehicle_type_id":"4","last_reported":1732871423,"current_range_meters":24000,"station_id":"ce4bhqp2rcd13ifvqhog","pricing_plan_id":"cebpf4jnsgd1na2vs0mg"},{"bike_id":"f7e6c55b-098f-4854-8851-d265e6da79ad","system_id":"levelo_inurba_marseille","lat":43.3043,"lon":5.38882,"is_reserved":false,"is_disabled":false,"rental_uris":{"android":"levelo://app?vid=f7e6c55b-098f-4854-8851-d265e6da79ad","ios":"levelo://app?vid=f7e6c55b-098f-4854-8851-d265e6da79ad"},"vehicle_type_id":"4","last_reported":1732871423,"current_range_meters":8000,"station_id":"ce4bgk12rcd13ifvqbi0","pricing_plan_id":"cebpf4jnsgd1na2vs0mg"},{"bike_id":"aa47af36-d845-446d-9c4f-c0292a575ba0","system_id":"levelo_inurba_marseille","lat":43.29595,"lon":5.38107,"is_reserved":false,"is_disabled":false,"rental_uris":{"android":"levelo://app?vid=aa47af36-d845-446d-9c4f-c0292a575ba0","ios":"levelo://app?vid=aa47af36-d845-446d-9c4f-c0292a575ba0"},"vehicle_type_id":"4","last_reported":1732871423,"current_range_meters":17200,"station_id":"ce4bgl12rcd13ifvqbo0","pricing_plan_id":"cebpf4jnsgd1na2vs0mg"},{"bike_id":"e2fe1f3e-661a-432b-83d7-de4f8a5d821a","system_id":"levelo_inurba_marseille","lat":43.32485,"lon":5.36581,"is_reserved":false,"is_disabled":true,"rental_uris":{"android":"levelo://app?vid=e2fe1f3e-661a-432b-83d7-de4f8a5d821a","ios":"levelo://app?vid=e2fe1f3e-661a-432b-83d7-de4f8a5d821a"},"vehicle_type_id":"4","last_reported":1732871423,"current_range_meters":28400,"station_id":"ce4bhs12rcd13ifvqhvg","pricing_plan_id":"cebpf4jnsgd1na2vs0mg"},{"bike_id":"bd116da4-9303-4372-b375-2867673729fc","system_id":"levelo_inurba_marseille","lat":43.23155,"lon":5.4372,"is_reserved":false,"is_disabled":false,"rental_uris":{"android":"levelo://app?vid=bd116da4-9303-4372-b375-2867673729fc","ios":"levelo://app?vid=bd116da4-9303-4372-b375-2867673729fc"},"vehicle_type_id":"4","last_reported":1732871423,"current_range_meters":23200,"station_id":"ce4bhmp2rcd13ifvqgog","pricing_plan_id":"cebpf4jnsgd1na2vs0mg"},{"bike_id":"43746d86-8a13-4845-9faf-ae69b548d714","system_id":"levelo_inurba_marseille","lat":43.29459,"lon":5.37917,"is_reserved":false,"is_disabled":true,"rental_uris":{"android":"levelo://app?vid=43746d86-8a13-4845-9faf-ae69b548d714","ios":"levelo://app?vid=43746d86-8a13-4845-9faf-ae69b548d714"},"vehicle_type_id":"4","last_reported":1732871423,"current_range_meters":0,"station_id":"","pricing_plan_id":"cebpf4jnsgd1na2vs0mg"},{"bike_id":"7c9101ae-13cf-41cf-b845-9c8f8940015c","system_id":"levelo_inurba_marseille","lat":43.30457,"lon":5.37904,"is_reserved":false,"is_disabled":false,"rental_uris":{"android":"levelo://app?vid=7c9101ae-13cf-41cf-b845-9c8f8940015c","ios":"levelo://app?vid=7c9101ae-13cf-41cf-b845-9c8f8940015c"},"vehicle_type_id":"4","last_reported":1732871423,"current_range_meters":28400,"station_id":"ce4bgup2rcd13ifvqcn0","pricing_plan_id":"cebpf4jnsgd1na2vs0mg"},{"bike_id":"8548e7d0-36b3-491c-8fab-e43a2dc81aa2","system_id":"levelo_inurba_marseille","lat":43.337444,"lon":5.374475,"is_reserved":false,"is_disabled":false,"rental_uris":{"android":"levelo://app?vid=8548e7d0-36b3-491c-8fab-e43a2dc81aa2","ios":"levelo://app?vid=8548e7d0-36b3-491c-8fab-e43a2dc81aa2"},"vehicle_type_id":"4","last_reported":1732871423,"current_range_meters":30000,"station_id":"","pricing_plan_id":"cebpf4jnsgd1na2vs0mg"},{"bike_id":"09845e09-65ac-47d3-9db8-562837ee37a4","system_id":"levelo_inurba_marseille","lat":43.25939,"lon":5.40908,"is_reserved":false,"is_disabled":false,"rental_uris":{"android":"levelo://app?vid=09845e09-65ac-47d3-9db8-562837ee37a4","ios":"levelo://app?vid=09845e09-65ac-47d3-9db8-562837ee37a4"},"vehicle_type_id":"4","last_reported":1732871423,"current_range_meters":30400,"station_id":"ce4bhm92rcd13ifvqglg","pricing_plan_id":"cebpf4jnsgd1na2vs0mg"},{"bike_id":"b67dfb59-158c-4022-9bb1-a21e2fede85d","system_id":"levelo_inurba_marseille","lat":43.26682,"lon":5.38268,"is_reserved":false,"is_disabled":false,"rental_uris":{"android":"levelo://app?vid=b67dfb59-158c-4022-9bb1-a21e2fede85d","ios":"levelo://app?vid=b67dfb59-158c-4022-9bb1-a21e2fede85d"},"vehicle_type_id":"4","last_reported":1732871423,"current_range_meters":26800,"station_id":"ce4bhg92rcd13ifvqf90","pricing_plan_id":"cebpf4jnsgd1na2vs0mg"},{"bike_id":"d8404ab4-ce67-47f0-be35-3f1fcff4b0b2","system_id":"levelo_inurba_marseille","lat":43.27498,"lon":5.42448,"is_reserved":false,"is_disabled":false,"rental_uris":{"android":"levelo://app?vid=d8404ab4-ce67-47f0-be35-3f1fcff4b0b2","ios":"levelo://app?vid=d8404ab4-ce67-47f0-be35-3f1fcff4b0b2"},"vehicle_type_id":"4","last_reported":1732871423,"current_range_meters":38400,"station_id":"ce4bhn92rcd13ifvqgrg","pricing_plan_id":"cebpf4jnsgd1na2vs0mg"},{"bike_id":"48b5ff29-f272-4faf-a81d-daa5ce069c5c","system_id":"levelo_inurba_marseille","lat":43.31279,"lon":5.38861,"is_reserved":false,"is_disabled":true,"rental_uris":{"android":"levelo://app?vid=48b5ff29-f272-4faf-a81d-daa5ce069c5c","ios":"levelo://app?vid=48b5ff29-f272-4faf-a81d-daa5ce069c5c"},"vehicle_type_id":"4","last_reported":1732871423,"current_range_meters":8400,"station_id":"","pricing_plan_id":"cebpf4jnsgd1na2vs0mg"},{"bike_id":"6f298390-8ed4-48a0-811f-85b320b9e8f1","system_id":"levelo_inurba_marseille","lat":43.29291,"lon":5.37464,"is_reserved":false,"is_disabled":false,"rental_uris":{"android":"levelo://app?vid=6f298390-8ed4-48a0-811f-85b320b9e8f1","ios":"levelo://app?vid=6f298390-8ed4-48a0-811f-85b320b9e8f1"},"vehicle_type_id":"4","last_reported":1732871423,"current_range_meters":28000,"station_id":"ce4bgi12rcd13ifvqb70","pricing_plan_id":"cebpf4jnsgd1na2vs0mg"},{"bike_id":"56de734b-ad68-4a09-9df1-7fbc84e4bbf2","system_id":"levelo_inurba_marseille","lat":43.24081,"lon":5.37759,"is_reserved":false,"is_disabled":false,"rental_uris":{"android":"levelo://app?vid=56de734b-ad68-4a09-9df1-7fbc84e4bbf2","ios":"levelo://app?vid=56de734b-ad68-4a09-9df1-7fbc84e4bbf2"},"vehicle_type_id":"4","last_reported":1732871423,"current_range_meters":38800,"station_id":"ce4bhnp2rcd13ifvqgvg","pricing_plan_id":"cebpf4jnsgd1na2vs0mg"},{"bike_id":"b563a645-cd3c-4285-b2b8-becf5c7c0949","system_id":"levelo_inurba_marseille","lat":43.24181,"lon":5.39734,"is_reserved":false,"is_disabled":false,"rental_uris":{"android":"levelo://app?vid=b563a645-cd3c-4285-b2b8-becf5c7c0949","ios":"levelo://app?vid=b563a645-cd3c-4285-b2b8-becf5c7c0949"},"vehicle_type_id":"4","last_reported":1732871423,"current_range_meters":38800,"station_id":"ce4bhn12rcd13ifvqgpg","pricing_plan_id":"cebpf4jnsgd1na2vs0mg"},{"bike_id":"f56fb7e3-c722-421f-956f-65aa7ba72e68","system_id":"levelo_inurba_marseille","lat":43.315011,"lon":5.372981,"is_reserved":false,"is_disabled":false,"rental_uris":{"android":"levelo://app?vid=f56fb7e3-c722-421f-956f-65aa7ba72e68","ios":"levelo://app?vid=f56fb7e3-c722-421f-956f-65aa7ba72e68"},"vehicle_type_id":"4","last_reported":1732871423,"current_range_meters":26800,"station_id":"ce4bgt12rcd13ifvqcd0","pricing_plan_id":"cebpf4jnsgd1na2vs0mg"},{"bike_id":"47b708f5-709b-4341-a5c9-1ef96cf4b4b1","system_id":"levelo_inurba_marseille","lat":43.30954,"lon":5.39045,"is_reserved":false,"is_disabled":false,"rental_uris":{"android":"levelo://app?vid=47b708f5-709b-4341-a5c9-1ef96cf4b4b1","ios":"levelo://app?vid=47b708f5-709b-4341-a5c9-1ef96cf4b4b1"},"vehicle_type_id":"4","last_reported":1732871423,"current_range_meters":20000,"station_id":"ce4bgup2rcd13ifvqco0","pricing_plan_id":"cebpf4jnsgd1na2vs0mg"},{"bike_id":"7ce199cb-9f52-4791-9a0c-089dbc105cee","system_id":"levelo_inurba_marseille","lat":43.33597,"lon":5.41018,"is_reserved":false,"is_disabled":false,"rental_uris":{"android":"levelo://app?vid=7ce199cb-9f52-4791-9a0c-089dbc105cee","ios":"levelo://app?vid=7ce199cb-9f52-4791-9a0c-089dbc105cee"},"vehicle_type_id":"4","last_reported":1732871423,"current_range_meters":16000,"station_id":"ce4bhqh2rcd13ifvqhmg","pricing_plan_id":"cebpf4jnsgd1na2vs0mg"},{"bike_id":"e1a441bb-ffc3-4b30-950e-b8eb47f0e1ee","system_id":"levelo_inurba_marseille","lat":43.26951,"lon":5.38632,"is_reserved":false,"is_disabled":false,"rental_uris":{"android":"levelo://app?vid=e1a441bb-ffc3-4b30-950e-b8eb47f0e1ee","ios":"levelo://app?vid=e1a441bb-ffc3-4b30-950e-b8eb47f0e1ee"},"vehicle_type_id":"4","last_reported":1732871423,"current_range_meters":28400,"station_id":"ce4bhh92rcd13ifvqfh0","pricing_plan_id":"cebpf4jnsgd1na2vs0mg"},{"bike_id":"a8dc222d-2a79-4559-874d-5706fd2740a0","system_id":"levelo_inurba_marseille","lat":43.27066,"lon":5.40253,"is_reserved":false,"is_disabled":false,"rental_uris":{"android":"levelo://app?vid=a8dc222d-2a79-4559-874d-5706fd2740a0","ios":"levelo://app?vid=a8dc222d-2a79-4559-874d-5706fd2740a0"},"vehicle_type_id":"4","last_reported":1732871423,"current_range_meters":36800,"station_id":"ce4bhk92rcd13ifvqgc0","pricing_plan_id":"cebpf4jnsgd1na2vs0mg"},{"bike_id":"ba0b3a99-d95f-4728-8c1d-d6862fc917ad","system_id":"levelo_inurba_marseille","lat":43.27983,"lon":5.41021,"is_reserved":false,"is_disabled":false,"rental_uris":{"android":"levelo://app?vid=ba0b3a99-d95f-4728-8c1d-d6862fc917ad","ios":"levelo://app?vid=ba0b3a99-d95f-4728-8c1d-d6862fc917ad"},"vehicle_type_id":"4","last_reported":1732871423,"current_range_meters":16400,"station_id":"ce4bgr92rcd13ifvqc7g","pricing_plan_id":"cebpf4jnsgd1na2vs0mg"},{"bike_id":"27ed646a-5ca8-4e11-965e-ff2a57424384","system_id":"levelo_inurba_marseille","lat":43.26187,"lon":5.3745,"is_reserved":false,"is_disabled":false,"rental_uris":{"android":"levelo://app?vid=27ed646a-5ca8-4e11-965e-ff2a57424384","ios":"levelo://app?vid=27ed646a-5ca8-4e11-965e-ff2a57424384"},"vehicle_type_id":"4","last_reported":1732871423,"current_range_meters":25600,"station_id":"ce4bhgp2rcd13ifvqfc0","pricing_plan_id":"cebpf4jnsgd1na2vs0mg"},{"bike_id":"165216c8-95d7-4b2f-bd59-1243074ff431","system_id":"levelo_inurba_marseille","lat":43.27066,"lon":5.40258,"is_reserved":false,"is_disabled":false,"rental_uris":{"android":"levelo://app?vid=165216c8-95d7-4b2f-bd59-1243074ff431","ios":"levelo://app?vid=165216c8-95d7-4b2f-bd59-1243074ff431"},"vehicle_type_id":"4","last_reported":1732871423,"current_range_meters":10800,"station_id":"ce4bhk92rcd13ifvqgc0","pricing_plan_id":"cebpf4jnsgd1na2vs0mg"},{"bike_id":"fc4d15f5-6256-45a3-90d6-77bb4c676955","system_id":"levelo_inurba_marseille","lat":43.296284,"lon":5.377877,"is_reserved":false,"is_disabled":true,"rental_uris":{"android":"levelo://app?vid=fc4d15f5-6256-45a3-90d6-77bb4c676955","ios":"levelo://app?vid=fc4d15f5-6256-45a3-90d6-77bb4c676955"},"vehicle_type_id":"4","last_reported":1732871423,"current_range_meters":30000,"station_id":"","pricing_plan_id":"cebpf4jnsgd1na2vs0mg"},{"bike_id":"04ad1301-ff1b-4f01-a03d-a0246a7bbcca","system_id":"levelo_inurba_marseille","lat":43.30955,"lon":5.39032,"is_reserved":false,"is_disabled":false,"rental_uris":{"android":"levelo://app?vid=04ad1301-ff1b-4f01-a03d-a0246a7bbcca","ios":"levelo://app?vid=04ad1301-ff1b-4f01-a03d-a0246a7bbcca"},"vehicle_type_id":"4","last_reported":1732871423,"current_range_meters":33600,"station_id":"ce4bgup2rcd13ifvqco0","pricing_plan_id":"cebpf4jnsgd1na2vs0mg"},{"bike_id":"c88f8730-1176-4717-97e2-17c27b15274f","system_id":"levelo_inurba_marseille","lat":43.23199,"lon":5.35548,"is_reserved":false,"is_disabled":false,"rental_uris":{"android":"levelo://app?vid=c88f8730-1176-4717-97e2-17c27b15274f","ios":"levelo://app?vid=c88f8730-1176-4717-97e2-17c27b15274f"},"vehicle_type_id":"4","last_reported":1732871423,"current_range_meters":38800,"station_id":"ce4bhu92rcd13ifvqi70","pricing_plan_id":"cebpf4jnsgd1na2vs0mg"},{"bike_id":"57729228-d5fc-4aad-84bf-09d1889b3435","system_id":"levelo_inurba_marseille","lat":43.30533,"lon":5.36709,"is_reserved":false,"is_disabled":false,"rental_uris":{"android":"levelo://app?vid=57729228-d5fc-4aad-84bf-09d1889b3435","ios":"levelo://app?vid=57729228-d5fc-4aad-84bf-09d1889b3435"},"vehicle_type_id":"4","last_reported":1732871423,"current_range_meters":20800,"station_id":"ce4bgrp2rcd13ifvqc9g","pricing_plan_id":"cebpf4jnsgd1na2vs0mg"},{"bike_id":"483bde82-a734-46a5-8bb3-1b4e39b30732","system_id":"levelo_inurba_marseille","lat":43.25581,"lon":5.3824,"is_reserved":false,"is_disabled":false,"rental_uris":{"android":"levelo://app?vid=483bde82-a734-46a5-8bb3-1b4e39b30732","ios":"levelo://app?vid=483bde82-a734-46a5-8bb3-1b4e39b30732"},"vehicle_type_id":"4","last_reported":1732871423,"current_range_meters":20000,"station_id":"ce4bhih2rcd13ifvqfs0","pricing_plan_id":"cebpf4jnsgd1na2vs0mg"},{"bike_id":"c20afd6c-d414-44df-9450-cc27e4ad9839","system_id":"levelo_inurba_marseille","lat":43.32159,"lon":5.38463,"is_reserved":false,"is_disabled":true,"rental_uris":{"android":"levelo://app?vid=c20afd6c-d414-44df-9450-cc27e4ad9839","ios":"levelo://app?vid=c20afd6c-d414-44df-9450-cc27e4ad9839"},"vehicle_type_id":"4","last_reported":1732871423,"current_range_meters":0,"station_id":"","pricing_plan_id":"cebpf4jnsgd1na2vs0mg"},{"bike_id":"a62a0f42-9376-4be7-9075-1f7cd63bf4a3","system_id":"levelo_inurba_marseille","lat":43.24999,"lon":5.38947,"is_reserved":false,"is_disabled":false,"rental_uris":{"android":"levelo://app?vid=a62a0f42-9376-4be7-9075-1f7cd63bf4a3","ios":"levelo://app?vid=a62a0f42-9376-4be7-9075-1f7cd63bf4a3"},"vehicle_type_id":"4","last_reported":1732871423,"current_range_meters":25200,"station_id":"ce4bhgp2rcd13ifvqfd0","pricing_plan_id":"cebpf4jnsgd1na2vs0mg"},{"bike_id":"4b262992-5694-423d-ae6a-926833988b3b","system_id":"levelo_inurba_marseille","lat":43.30458,"lon":5.3791,"is_reserved":false,"is_disabled":false,"rental_uris":{"android":"levelo://app?vid=4b262992-5694-423d-ae6a-926833988b3b","ios":"levelo://app?vid=4b262992-5694-423d-ae6a-926833988b3b"},"vehicle_type_id":"4","last_reported":1732871423,"current_range_meters":32800,"station_id":"ce4bgup2rcd13ifvqcn0","pricing_plan_id":"cebpf4jnsgd1na2vs0mg"},{"bike_id":"3a4e6c41-3f77-4254-abd4-29776dd71545","system_id":"levelo_inurba_marseille","lat":43.30533,"lon":5.36543,"is_reserved":false,"is_disabled":false,"rental_uris":{"android":"levelo://app?vid=3a4e6c41-3f77-4254-abd4-29776dd71545","ios":"levelo://app?vid=3a4e6c41-3f77-4254-abd4-29776dd71545"},"vehicle_type_id":"4","last_reported":1732871423,"current_range_meters":7200,"station_id":"ce4bgs12rcd13ifvqcag","pricing_plan_id":"cebpf4jnsgd1na2vs0mg"},{"bike_id":"fd52e257-6121-4a27-b7c3-37b1660c1602","system_id":"levelo_inurba_marseille","lat":43.24078,"lon":5.37761,"is_reserved":false,"is_disabled":false,"rental_uris":{"android":"levelo://app?vid=fd52e257-6121-4a27-b7c3-37b1660c1602","ios":"levelo://app?vid=fd52e257-6121-4a27-b7c3-37b1660c1602"},"vehicle_type_id":"4","last_reported":1732871423,"current_range_meters":33600,"station_id":"ce4bhnp2rcd13ifvqgvg","pricing_plan_id":"cebpf4jnsgd1na2vs0mg"},{"bike_id":"53832248-7ea6-4cc6-856c-2b60c3f17998","system_id":"levelo_inurba_marseille","lat":43.29551,"lon":5.42289,"is_reserved":false,"is_disabled":true,"rental_uris":{"android":"levelo://app?vid=53832248-7ea6-4cc6-856c-2b60c3f17998","ios":"levelo://app?vid=53832248-7ea6-4cc6-856c-2b60c3f17998"},"vehicle_type_id":"4","last_reported":1732871423,"current_range_meters":38800,"station_id":"ce4bhph2rcd13ifvqhdg","pricing_plan_id":"cebpf4jnsgd1na2vs0mg"},{"bike_id":"61f919f4-7d6d-41ef-800f-5100786730a3","system_id":"levelo_inurba_marseille","lat":43.33611,"lon":5.41021,"is_reserved":false,"is_disabled":false,"rental_uris":{"android":"levelo://app?vid=61f919f4-7d6d-41ef-800f-5100786730a3","ios":"levelo://app?vid=61f919f4-7d6d-41ef-800f-5100786730a3"},"vehicle_type_id":"4","last_reported":1732871423,"current_range_meters":8000,"station_id":"ce4bhqh2rcd13ifvqhmg","pricing_plan_id":"cebpf4jnsgd1na2vs0mg"},{"bike_id":"92defe58-ac95-4158-a899-a1890c4e5262","system_id":"levelo_inurba_marseille","lat":43.26814,"lon":5.37126,"is_reserved":false,"is_disabled":true,"rental_uris":{"android":"levelo://app?vid=92defe58-ac95-4158-a899-a1890c4e5262","ios":"levelo://app?vid=92defe58-ac95-4158-a899-a1890c4e5262"},"vehicle_type_id":"4","last_reported":1732871423,"current_range_meters":800,"station_id":"","pricing_plan_id":"cebpf4jnsgd1na2vs0mg"},{"bike_id":"3043e874-44eb-4ce8-a2fb-d5bb027c2006","system_id":"levelo_inurba_marseille","lat":43.30533,"lon":5.3654,"is_reserved":false,"is_disabled":false,"rental_uris":{"android":"levelo://app?vid=3043e874-44eb-4ce8-a2fb-d5bb027c2006","ios":"levelo://app?vid=3043e874-44eb-4ce8-a2fb-d5bb027c2006"},"vehicle_type_id":"4","last_reported":1732871423,"current_range_meters":39200,"station_id":"ce4bgs12rcd13ifvqcag","pricing_plan_id":"cebpf4jnsgd1na2vs0mg"},{"bike_id":"6e295c8e-f99c-435a-a158-e0f0361aa477","system_id":"levelo_inurba_marseille","lat":43.2804,"lon":5.36947,"is_reserved":false,"is_disabled":false,"rental_uris":{"android":"levelo://app?vid=6e295c8e-f99c-435a-a158-e0f0361aa477","ios":"levelo://app?vid=6e295c8e-f99c-435a-a158-e0f0361aa477"},"vehicle_type_id":"4","last_reported":1732871423,"current_range_meters":36800,"station_id":"ce4bha12rcd13ifvqef0","pricing_plan_id":"cebpf4jnsgd1na2vs0mg"},{"bike_id":"234557b4-a50e-4e0e-b846-75b86a5e7ad6","system_id":"levelo_inurba_marseille","lat":43.33607,"lon":5.41025,"is_reserved":false,"is_disabled":false,"rental_uris":{"android":"levelo://app?vid=234557b4-a50e-4e0e-b846-75b86a5e7ad6","ios":"levelo://app?vid=234557b4-a50e-4e0e-b846-75b86a5e7ad6"},"vehicle_type_id":"4","last_reported":1732871423,"current_range_meters":25200,"station_id":"ce4bhqh2rcd13ifvqhmg","pricing_plan_id":"cebpf4jnsgd1na2vs0mg"},{"bike_id":"87037c72-a31f-42b3-8b02-c660277b11e9","system_id":"levelo_inurba_marseille","lat":43.3135,"lon":5.36712,"is_reserved":false,"is_disabled":false,"rental_uris":{"android":"levelo://app?vid=87037c72-a31f-42b3-8b02-c660277b11e9","ios":"levelo://app?vid=87037c72-a31f-42b3-8b02-c660277b11e9"},"vehicle_type_id":"4","last_reported":1732871423,"current_range_meters":11200,"station_id":"ce4bgr92rcd13ifvqc6g","pricing_plan_id":"cebpf4jnsgd1na2vs0mg"},{"bike_id":"7222b91b-18ff-4610-a728-06590b86deda","system_id":"levelo_inurba_marseille","lat":43.30459,"lon":5.379,"is_reserved":false,"is_disabled":false,"rental_uris":{"android":"levelo://app?vid=7222b91b-18ff-4610-a728-06590b86deda","ios":"levelo://app?vid=7222b91b-18ff-4610-a728-06590b86deda"},"vehicle_type_id":"4","last_reported":1732871423,"current_range_meters":28800,"station_id":"ce4bgup2rcd13ifvqcn0","pricing_plan_id":"cebpf4jnsgd1na2vs0mg"},{"bike_id":"d7281c1c-4e11-43d3-9a5f-bd6f92531d14","system_id":"levelo_inurba_marseille","lat":43.2947,"lon":5.39381,"is_reserved":false,"is_disabled":true,"rental_uris":{"android":"levelo://app?vid=d7281c1c-4e11-43d3-9a5f-bd6f92531d14","ios":"levelo://app?vid=d7281c1c-4e11-43d3-9a5f-bd6f92531d14"},"vehicle_type_id":"4","last_reported":1732871423,"current_range_meters":33600,"station_id":"","pricing_plan_id":"cebpf4jnsgd1na2vs0mg"},{"bike_id":"376bea24-73ba-4e44-a97d-ede0ded2ff94","system_id":"levelo_inurba_marseille","lat":43.34142,"lon":5.40907,"is_reserved":false,"is_disabled":false,"rental_uris":{"android":"levelo://app?vid=376bea24-73ba-4e44-a97d-ede0ded2ff94","ios":"levelo://app?vid=376bea24-73ba-4e44-a97d-ede0ded2ff94"},"vehicle_type_id":"4","last_reported":1732871423,"current_range_meters":32800,"station_id":"ce4bhqh2rcd13ifvqhlg","pricing_plan_id":"cebpf4jnsgd1na2vs0mg"},{"bike_id":"5c5f2969-a58f-44b4-b927-346aa8bda72b","system_id":"levelo_inurba_marseille","lat":43.29779,"lon":5.38111,"is_reserved":false,"is_disabled":true,"rental_uris":{"android":"levelo://app?vid=5c5f2969-a58f-44b4-b927-346aa8bda72b","ios":"levelo://app?vid=5c5f2969-a58f-44b4-b927-346aa8bda72b"},"vehicle_type_id":"4","last_reported":1732871423,"current_range_meters":38800,"station_id":"ce4bgip2rcd13ifvqbb0","pricing_plan_id":"cebpf4jnsgd1na2vs0mg"},{"bike_id":"373b0ef2-2c12-4172-adc7-218fad8a345e","system_id":"levelo_inurba_marseille","lat":43.30327,"lon":5.40442,"is_reserved":false,"is_disabled":true,"rental_uris":{"android":"levelo://app?vid=373b0ef2-2c12-4172-adc7-218fad8a345e","ios":"levelo://app?vid=373b0ef2-2c12-4172-adc7-218fad8a345e"},"vehicle_type_id":"4","last_reported":1732871423,"current_range_meters":0,"station_id":"ce4bh012rcd13ifvqd10","pricing_plan_id":"cebpf4jnsgd1na2vs0mg"},{"bike_id":"72c10d21-7b1a-4444-8640-6caa18065c17","system_id":"levelo_inurba_marseille","lat":43.29792,"lon":5.37087,"is_reserved":false,"is_disabled":false,"rental_uris":{"android":"levelo://app?vid=72c10d21-7b1a-4444-8640-6caa18065c17","ios":"levelo://app?vid=72c10d21-7b1a-4444-8640-6caa18065c17"},"vehicle_type_id":"4","last_reported":1732871423,"current_range_meters":38400,"station_id":"ce4bgop2rcd13ifvqc1g","pricing_plan_id":"cebpf4jnsgd1na2vs0mg"},{"bike_id":"bea31957-ef09-4b6c-ad5b-32eebdfda98d","system_id":"levelo_inurba_marseille","lat":43.31352,"lon":5.38494,"is_reserved":false,"is_disabled":false,"rental_uris":{"android":"levelo://app?vid=bea31957-ef09-4b6c-ad5b-32eebdfda98d","ios":"levelo://app?vid=bea31957-ef09-4b6c-ad5b-32eebdfda98d"},"vehicle_type_id":"4","last_reported":1732871423,"current_range_meters":33600,"station_id":"ce4bgt92rcd13ifvqcf0","pricing_plan_id":"cebpf4jnsgd1na2vs0mg"},{"bike_id":"871d5b76-85ee-4b2c-a192-7be62ed3fae6","system_id":"levelo_inurba_marseille","lat":43.29029,"lon":5.38123,"is_reserved":false,"is_disabled":true,"rental_uris":{"android":"levelo://app?vid=871d5b76-85ee-4b2c-a192-7be62ed3fae6","ios":"levelo://app?vid=871d5b76-85ee-4b2c-a192-7be62ed3fae6"},"vehicle_type_id":"4","last_reported":1732871423,"current_range_meters":32000,"station_id":"ce4bh4p2rcd13ifvqe1g","pricing_plan_id":"cebpf4jnsgd1na2vs0mg"},{"bike_id":"83688efd-6143-43ed-bf13-d38e5e751874","system_id":"levelo_inurba_marseille","lat":43.30471,"lon":5.37249,"is_reserved":false,"is_disabled":false,"rental_uris":{"android":"levelo://app?vid=83688efd-6143-43ed-bf13-d38e5e751874","ios":"levelo://app?vid=83688efd-6143-43ed-bf13-d38e5e751874"},"vehicle_type_id":"4","last_reported":1732871423,"current_range_meters":6400,"station_id":"","pricing_plan_id":"cebpf4jnsgd1na2vs0mg"},{"bike_id":"fbb69a76-9f06-4ea3-954f-7f4b2f1d4bea","system_id":"levelo_inurba_marseille","lat":43.22925,"lon":5.35375,"is_reserved":false,"is_disabled":false,"rental_uris":{"android":"levelo://app?vid=fbb69a76-9f06-4ea3-954f-7f4b2f1d4bea","ios":"levelo://app?vid=fbb69a76-9f06-4ea3-954f-7f4b2f1d4bea"},"vehicle_type_id":"4","last_reported":1732871423,"current_range_meters":38000,"station_id":"cpo3532slgdg3j2ikp40","pricing_plan_id":"cebpf4jnsgd1na2vs0mg"},{"bike_id":"fabdc60c-7f81-491b-a618-485f1f20a4e8","system_id":"levelo_inurba_marseille","lat":43.341426,"lon":5.409136,"is_reserved":false,"is_disabled":false,"rental_uris":{"android":"levelo://app?vid=fabdc60c-7f81-491b-a618-485f1f20a4e8","ios":"levelo://app?vid=fabdc60c-7f81-491b-a618-485f1f20a4e8"},"vehicle_type_id":"4","last_reported":1732871423,"current_range_meters":22000,"station_id":"ce4bhqh2rcd13ifvqhlg","pricing_plan_id":"cebpf4jnsgd1na2vs0mg"},{"bike_id":"9e944db9-d48e-4848-b5fa-4af701aee80b","system_id":"levelo_inurba_marseille","lat":48.80797,"lon":2.40127,"is_reserved":false,"is_disabled":true,"rental_uris":{"android":"levelo://app?vid=9e944db9-d48e-4848-b5fa-4af701aee80b","ios":"levelo://app?vid=9e944db9-d48e-4848-b5fa-4af701aee80b"},"vehicle_type_id":"4","last_reported":1732871423,"current_range_meters":20000,"station_id":"","pricing_plan_id":"cebpf4jnsgd1na2vs0mg"},{"bike_id":"7f1a008d-5cf0-4987-977e-af7ad826684c","system_id":"levelo_inurba_marseille","lat":43.30546,"lon":5.38421,"is_reserved":false,"is_disabled":false,"rental_uris":{"android":"levelo://app?vid=7f1a008d-5cf0-4987-977e-af7ad826684c","ios":"levelo://app?vid=7f1a008d-5cf0-4987-977e-af7ad826684c"},"vehicle_type_id":"4","last_reported":1732871423,"current_range_meters":26000,"station_id":"ce4bgg92rcd13ifvqb30","pricing_plan_id":"cebpf4jnsgd1na2vs0mg"},{"bike_id":"c0d6eb5d-1fd2-4931-a1d1-d852a46bc950","system_id":"levelo_inurba_marseille","lat":43.30947,"lon":5.39038,"is_reserved":false,"is_disabled":false,"rental_uris":{"android":"levelo://app?vid=c0d6eb5d-1fd2-4931-a1d1-d852a46bc950","ios":"levelo://app?vid=c0d6eb5d-1fd2-4931-a1d1-d852a46bc950"},"vehicle_type_id":"4","last_reported":1732871423,"current_range_meters":28400,"station_id":"ce4bgup2rcd13ifvqco0","pricing_plan_id":"cebpf4jnsgd1na2vs0mg"},{"bike_id":"0dc2eed4-0a96-4375-ab8a-bd6784c3eee6","system_id":"levelo_inurba_marseille","lat":43.30784,"lon":5.37654,"is_reserved":false,"is_disabled":false,"rental_uris":{"android":"levelo://app?vid=0dc2eed4-0a96-4375-ab8a-bd6784c3eee6","ios":"levelo://app?vid=0dc2eed4-0a96-4375-ab8a-bd6784c3eee6"},"vehicle_type_id":"4","last_reported":1732871423,"current_range_meters":37600,"station_id":"ce4bgv92rcd13ifvqcq0","pricing_plan_id":"cebpf4jnsgd1na2vs0mg"},{"bike_id":"7d98cc4e-3a27-4448-9f74-0e3fad5f50b8","system_id":"levelo_inurba_marseille","lat":43.32534,"lon":5.41423,"is_reserved":false,"is_disabled":false,"rental_uris":{"android":"levelo://app?vid=7d98cc4e-3a27-4448-9f74-0e3fad5f50b8","ios":"levelo://app?vid=7d98cc4e-3a27-4448-9f74-0e3fad5f50b8"},"vehicle_type_id":"4","last_reported":1732871423,"current_range_meters":28400,"station_id":"ce4bhq12rcd13ifvqhhg","pricing_plan_id":"cebpf4jnsgd1na2vs0mg"},{"bike_id":"66d83529-a29a-4480-ac7a-6e5820ed86e7","system_id":"levelo_inurba_marseille","lat":43.29856,"lon":5.36289,"is_reserved":false,"is_disabled":false,"rental_uris":{"android":"levelo://app?vid=66d83529-a29a-4480-ac7a-6e5820ed86e7","ios":"levelo://app?vid=66d83529-a29a-4480-ac7a-6e5820ed86e7"},"vehicle_type_id":"4","last_reported":1732871423,"current_range_meters":34000,"station_id":"ce4bgpp2rcd13ifvqc3g","pricing_plan_id":"cebpf4jnsgd1na2vs0mg"},