{"last_updated":1758903147,"ttl":60,"version":"2.2","data":{"bikes":[{"bike_id":"0ce7b860-ada3-44e7-a7b3-6c7032d6271c","system_id":"levelo_inurba_marseille","lat":43.29272,"lon":5.384449,"is_reserved":false,"is_disabled":false,"rental_uris":{"android":"levelo://app?vid=0ce7b860-ada3-44e7-a7b3-6c7032d6271c","ios":"levelo://app?vid=0ce7b860-ada3-44e7-a7b3-6c7032d6271c"},"vehicle_type_id":"4","last_reported":1758903147,"current_range_meters":2800,"station_id":"ce4bh8p2rcd13ifvqeb0","pricing_plan_id":"cebpf4jnsgd1na2vs0mg"},{"bike_id":"fe6a930e-1e6f-4c3f-a17a-23938db5cd50","system_id":"levelo_inurba_marseille","lat":43.27494,"lon":5.42447,"is_reserved":false,"is_disabled":false,"rental_uris":{"android":"levelo://app?vid=fe6a930e-1e6f-4c3f-a17a-23938db5cd50","ios":"levelo://app?vid=fe6a930e-1e6f-4c3f-a17a-23938db5cd50"},"vehicle_type_id":"4","last_reported":1758903147,"current_range_meters":2800,"station_id":"ce4bhn92rcd13ifvqgrg","pricing_plan_id":"cebpf4jnsgd1na2vs0mg"},{"bike_id":"565a0112-5b88-4a6f-8df7-08b703407b4f","system_id":"levelo_inurba_marseille","lat":43.21199,"lon":5.35087,"is_reserved":false,"is_disabled":false,"rental_uris":{"android":"levelo://app?vid=565a0112-5b88-4a6f-8df7-08b703407b4f","ios":"levelo://app?vid=565a0112-5b88-4a6f-8df7-08b703407b4f"},"vehicle_type_id":"4","last_reported":1758903147,"current_range_meters":2800,"station_id":"","pricing_plan_id":"cebpf4jnsgd1na2vs0mg"},{"bike_id":"585dc013-8a0d-4c3f-8917-bdfc8d0c3053","system_id":"levelo_inurba_marseille","lat":43.2558,"lon":5.38232,"is_reserved":false,"is_disabled":false,"rental_uris":{"android":"levelo://app?vid=585dc013-8a0d-4c3f-8917-bdfc8d0c3053","ios":"levelo://app?vid=585dc013-8a0d-4c3f-8917-bdfc8d0c3053"},"vehicle_type_id":"4","last_reported":1758903147,"current_range_meters":2800,"station_id":"ce4bhih2rcd13ifvqfs0","pricing_plan_id":"cebpf4jnsgd1na2vs0mg"},{"bike_id":"2ca7562b-646d-4340-b985-31d0591ba76f","system_id":"levelo_inurba_marseille","lat":43.25865,"lon":5.39903,"is_reserved":false,"is_disabled":false,"rental_uris":{"android":"levelo://app?vid=2ca7562b-646d-4340-b985-31d0591ba76f","ios":"levelo://app?vid=2ca7562b-646d-4340-b985-31d0591ba76f"},"vehicle_type_id":"4","last_reported":1758903147,"current_range_meters":2800,"station_id":"ce4bhl92rcd13ifvqghg","pricing_plan_id":"cebpf4jnsgd1na2vs0mg"},{"bike_id":"a825d9f5-d9f8-4b04-8ea9-f405cddf7d46","system_id":"levelo_inurba_marseille","lat":43.24632,"lon":5.4313,"is_reserved":false,"is_disabled":false,"rental_uris":{"android":"levelo://app?vid=a825d9f5-d9f8-4b04-8ea9-f405cddf7d46","ios":"levelo://app?vid=a825d9f5-d9f8-4b04-8ea9-f405cddf7d46"},"vehicle_type_id":"4","last_reported":1758903147,"current_range_meters":4800,"station_id":"st_d2m6c4gdas8pm72e190g","pricing_plan_id":"cebpf4jnsgd1na2vs0mg"},{"bike_id":"3ed38aa8-81e8-4ab6-8a87-576b067d753c","system_id":"levelo_inurba_marseille","lat":43.2417,"lon":5.36418,"is_reserved":false,"is_disabled":false,"rental_uris":{"android":"levelo://app?vid=3ed38aa8-81e8-4ab6-8a87-576b067d753c","ios":"levelo://app?vid=3ed38aa8-81e8-4ab6-8a87-576b067d753c"},"vehicle_type_id":"4","last_reported":1758903147,"current_range_meters":3200,"station_id":"cpo36qri1sfpv3e86is0","pricing_plan_id":"cebpf4jnsgd1na2vs0mg"},{"bike_id":"85751d64-7fcd-4719-9d06-ec420497e955","system_id":"levelo_inurba_marseille","lat":43.2981,"lon":5.38087,"is_reserved":false,"is_disabled":false,"rental_uris":{"android":"levelo://app?vid=85751d64-7fcd-4719-9d06-ec420497e955","ios":"levelo://app?vid=85751d64-7fcd-4719-9d06-ec420497e955"},"vehicle_type_id":"4","last_reported":1758903147,"current_range_meters":1200,"station_id":"ce4bgip2rcd13ifvqbb0","pricing_plan_id":"cebpf4jnsgd1na2vs0mg"},{"bike_id":"dc0861c6-a6fe-4157-89f1-64b6db415828","system_id":"levelo_inurba_marseille","lat":43.28471,"lon":5.38425,"is_reserved":false,"is_disabled":false,"rental_uris":{"android":"levelo://app?vid=dc0861c6-a6fe-4157-89f1-64b6db415828","ios":"levelo://app?vid=dc0861c6-a6fe-4157-89f1-64b6db415828"},"vehicle_type_id":"4","last_reported":1758903147,"current_range_meters":3200,"station_id":"ce4bh512rcd13ifvqe3g","pricing_plan_id":"cebpf4jnsgd1na2vs0mg"},{"bike_id":"32656b1e-38ef-4b51-a3fe-2e063de61d28","system_id":"levelo_inurba_marseille","lat":43.26569,"lon":5.39017,"is_reserved":false,"is_disabled":false,"rental_uris":{"android":"levelo://app?vid=32656b1e-38ef-4b51-a3fe-2e063de61d28","ios":"levelo://app?vid=32656b1e-38ef-4b51-a3fe-2e063de61d28"},"vehicle_type_id":"4","last_reported":1758903147,"current_range_meters":3200,"station_id":"ce4bhe12rcd13ifvqf30","pricing_plan_id":"cebpf4jnsgd1na2vs0mg"},{"bike_id":"f7818127-2f26-40d3-b0fb-4574abddca24","system_id":"levelo_inurba_marseille","lat":43.23179,"lon":5.39998,"is_reserved":false,"is_disabled":false,"rental_uris":{"android":"levelo://app?vid=f7818127-2f26-40d3-b0fb-4574abddca24","ios":"levelo://app?vid=f7818127-2f26-40d3-b0fb-4574abddca24"},"vehicle_type_id":"4","last_reported":1758903147,"current_range_meters":2800,"station_id":"ce4bhn12rcd13ifvqgqg","pricing_plan_id":"cebpf4jnsgd1na2vs0mg"},{"bike_id":"438ead59-de14-4fa0-a61d-03a70a4122ae","system_id":"levelo_inurba_marseille","lat":43.97269,"lon":4.89111,"is_reserved":false,"is_disabled":true,"rental_uris":{"android":"levelo://app?vid=438ead59-de14-4fa0-a61d-03a70a4122ae","ios":"levelo://app?vid=438ead59-de14-4fa0-a61d-03a70a4122ae"},"vehicle_type_id":"4","last_reported":1758903147,"current_range_meters":3200,"station_id":"","pricing_plan_id":"cebpf4jnsgd1na2vs0mg"},{"bike_id":"c0466175-81bd-4e8b-934c-3b97da1c47fc","system_id":"levelo_inurba_marseille","lat":43.29551,"lon":5.42296,"is_reserved":false,"is_disabled":false,"rental_uris":{"android":"levelo://app?vid=c0466175-81bd-4e8b-934c-3b97da1c47fc","ios":"levelo://app?vid=c0466175-81bd-4e8b-934c-3b97da1c47fc"},"vehicle_type_id":"4","last_reported":1758903147,"current_range_meters":3200,"station_id":"ce4bhph2rcd13ifvqhdg","pricing_plan_id":"cebpf4jnsgd1na2vs0mg"},{"bike_id":"974dc519-ba8f-4bd8-87a1-eeed7677de77","system_id":"levelo_inurba_marseille","lat":43.28477,"lon":5.38427,"is_reserved":false,"is_disabled":false,"rental_uris":{"android":"levelo://app?vid=974dc519-ba8f-4bd8-87a1-eeed7677de77","ios":"levelo://app?vid=974dc519-ba8f-4bd8-87a1-eeed7677de77"},"vehicle_type_id":"4","last_reported":1758903147,"current_range_meters":3200,"station_id":"ce4bh512rcd13ifvqe3g","pricing_plan_id":"cebpf4jnsgd1na2vs0mg"},{"bike_id":"d353585b-5758-4e77-94ef-a8825530bbfb","system_id":"levelo_inurba_marseille","lat":43.292687,"lon":5.384303,"is_reserved":false,"is_disabled":false,"rental_uris":{"android":"levelo://app?vid=d353585b-5758-4e77-94ef-a8825530bbfb","ios":"levelo://app?vid=d353585b-5758-4e77-94ef-a8825530bbfb"},"vehicle_type_id":"4","last_reported":1758903147,"current_range_meters":3600,"station_id":"ce4bh692rcd13ifvqea0","pricing_plan_id":"cebpf4jnsgd1na2vs0mg"},{"bike_id":"7a338ec0-0ba5-4ab6-859b-f448b49b22ce","system_id":"levelo_inurba_marseille","lat":43.294265,"lon":5.37183,"is_reserved":false,"is_disabled":false,"rental_uris":{"android":"levelo://app?vid=7a338ec0-0ba5-4ab6-859b-f448b49b22ce","ios":"levelo://app?vid=7a338ec0-0ba5-4ab6-859b-f448b49b22ce"},"vehicle_type_id":"4","last_reported":1758903147,"current_range_meters":3600,"station_id":"","pricing_plan_id":"cebpf4jnsgd1na2vs0mg"},{"bike_id":"b6f92a88-cab7-4383-8f12-ca70a673de4f","system_id":"levelo_inurba_marseille","lat":43.28162,"lon":5.42632,"is_reserved":false,"is_disabled":false,"rental_uris":{"android":"levelo://app?vid=b6f92a88-cab7-4383-8f12-ca70a673de4f","ios":"levelo://app?vid=b6f92a88-cab7-4383-8f12-ca70a673de4f"},"vehicle_type_id":"4","last_reported":1758903147,"current_range_meters":3600,"station_id":"ce4bhnh2rcd13ifvqgug","pricing_plan_id":"cebpf4jnsgd1na2vs0mg"},{"bike_id":"ea5b8c0e-5fb7-4628-b359-ff920429fd87","system_id":"levelo_inurba_marseille","lat":43.29839,"lon":5.36268,"is_reserved":false,"is_disabled":false,"rental_uris":{"android":"levelo://app?vid=ea5b8c0e-5fb7-4628-b359-ff920429fd87","ios":"levelo://app?vid=ea5b8c0e-5fb7-4628-b359-ff920429fd87"},"vehicle_type_id":"4","last_reported":1758903147,"current_range_meters":3600,"station_id":"ce4bgpp2rcd13ifvqc3g","pricing_plan_id":"cebpf4jnsgd1na2vs0mg"},{"bike_id":"95e1280b-5991-4128-912a-75e9f859bedc","system_id":"levelo_inurba_marseille","lat":43.28617,"lon":5.3704,"is_reserved":false,"is_disabled":false,"rental_uris":{"android":"levelo://app?vid=95e1280b-5991-4128-912a-75e9f859bedc","ios":"levelo://app?vid=95e1280b-5991-4128-912a-75e9f859bedc"},"vehicle_type_id":"4","last_reported":1758903147,"current_range_meters":3600,"station_id":"ce4bht12rcd13ifvqi60","pricing_plan_id":"cebpf4jnsgd1na2vs0mg"},{"bike_id":"3352cb98-5948-4caa-be0e-e5809e1ba385","system_id":"levelo_inurba_marseille","lat":43.2926,"lon":5.37636,"is_reserved":false,"is_disabled":false,"rental_uris":{"android":"levelo://app?vid=3352cb98-5948-4caa-be0e-e5809e1ba385","ios":"levelo://app?vid=3352cb98-5948-4caa-be0e-e5809e1ba385"},"vehicle_type_id":"4","last_reported":1758903147,"current_range_meters":4000,"station_id":"ce4bgi12rcd13ifvqb80","pricing_plan_id":"cebpf4jnsgd1na2vs0mg"},{"bike_id":"b62c444d-a2da-4204-b684-6f0631e50ba1","system_id":"levelo_inurba_marseille","lat":43.286913,"lon":5.373968,"is_reserved":false,"is_disabled":false,"rental_uris":{"android":"levelo://app?vid=b62c444d-a2da-4204-b684-6f0631e50ba1","ios":"levelo://app?vid=b62c444d-a2da-4204-b684-6f0631e50ba1"},"vehicle_type_id":"4","last_reported":1758903147,"current_range_meters":4400,"station_id":"ce4bh3p2rcd13ifvqdq0","pricing_plan_id":"cebpf4jnsgd1na2vs0mg"},{"bike_id":"5001b619-8a21-45c9-8930-9794a5346fdb","system_id":"levelo_inurba_marseille","lat":43.28765,"lon":5.3857,"is_reserved":false,"is_disabled":false,"rental_uris":{"android":"levelo://app?vid=5001b619-8a21-45c9-8930-9794a5346fdb","ios":"levelo://app?vid=5001b619-8a21-45c9-8930-9794a5346fdb"},"vehicle_type_id":"4","last_reported":1758903147,"current_range_meters":4400,"station_id":"","pricing_plan_id":"cebpf4jnsgd1na2vs0mg"},{"bike_id":"44d7d8c7-fb51-4b6b-aee0-86434ea95420","system_id":"levelo_inurba_marseille","lat":43.29278,"lon":5.36831,"is_reserved":false,"is_disabled":false,"rental_uris":{"android":"levelo://app?vid=44d7d8c7-fb51-4b6b-aee0-86434ea95420","ios":"levelo://app?vid=44d7d8c7-fb51-4b6b-aee0-86434ea95420"},"vehicle_type_id":"4","last_reported":1758903147,"current_range_meters":4400,"station_id":"ce4bhbp2rcd13ifvqesg","pricing_plan_id":"cebpf4jnsgd1na2vs0mg"},{"bike_id":"7f117c88-bcc0-42a1-aef6-9b8235fd420d","system_id":"levelo_inurba_marseille","lat":43.29752,"lon":5.38088,"is_reserved":false,"is_disabled":false,"rental_uris":{"android":"levelo://app?vid=7f117c88-bcc0-42a1-aef6-9b8235fd420d","ios":"levelo://app?vid=7f117c88-bcc0-42a1-aef6-9b8235fd420d"},"vehicle_type_id":"4","last_reported":1758903147,"current_range_meters":4800,"station_id":"ce4bgl12rcd13ifvqbo0","pricing_plan_id":"cebpf4jnsgd1na2vs0mg"},{"bike_id":"80a3815b-9845-4dc8-a1a8-230d5373642b","system_id":"levelo_inurba_marseille","lat":43.28662,"lon":5.3867,"is_reserved":false,"is_disabled":false,"rental_uris":{"android":"levelo://app?vid=80a3815b-9845-4dc8-a1a8-230d5373642b","ios":"levelo://app?vid=80a3815b-9845-4dc8-a1a8-230d5373642b"},"vehicle_type_id":"4","last_reported":1758903147,"current_range_meters":4400,"station_id":"ce4bh492rcd13ifvqdug","pricing_plan_id":"cebpf4jnsgd1na2vs0mg"},{"bike_id":"e5b870ff-8af1-43e5-9280-0558be073aab","system_id":"levelo_inurba_marseille","lat":43.3021,"lon":5.39467,"is_reserved":false,"is_disabled":false,"rental_uris":{"android":"levelo://app?vid=e5b870ff-8af1-43e5-9280-0558be073aab","ios":"levelo://app?vid=e5b870ff-8af1-43e5-9280-0558be073aab"},"vehicle_type_id":"4","last_reported":1758903147,"current_range_meters":4800,"station_id":"ce4bh0p2rcd13ifvqd70","pricing_plan_id":"cebpf4jnsgd1na2vs0mg"},{"bike_id":"c0b4923d-4c6e-4f4f-aa55-cda37aa51c84","system_id":"levelo_inurba_marseille","lat":43.31989,"lon":5.38159,"is_reserved":false,"is_disabled":false,"rental_uris":{"android":"levelo://app?vid=c0b4923d-4c6e-4f4f-aa55-cda37aa51c84","ios":"levelo://app?vid=c0b4923d-4c6e-4f4f-aa55-cda37aa51c84"},"vehicle_type_id":"4","last_reported":1758903147,"current_range_meters":4800,"station_id":"ce4bhr12rcd13ifvqhpg","pricing_plan_id":"cebpf4jnsgd1na2vs0mg"},{"bike_id":"b739ff0f-945d-49d6-9979-e071798a9bcc","system_id":"levelo_inurba_marseille","lat":43.287244,"lon":5.379279,"is_reserved":false,"is_disabled":false,"rental_uris":{"android":"levelo://app?vid=b739ff0f-945d-49d6-9979-e071798a9bcc","ios":"levelo://app?vid=b739ff0f-945d-49d6-9979-e071798a9bcc"},"vehicle_type_id":"4","last_reported":1758903147,"current_range_meters":5600,"station_id":"ce4bh9p2rcd13ifvqec0","pricing_plan_id":"cebpf4jnsgd1na2vs0mg"},{"bike_id":"a809bd48-19fa-4e6b-9673-d178d1b73a53","system_id":"levelo_inurba_marseille","lat":43.298755,"lon":5.397249,"is_reserved":false,"is_disabled":false,"rental_uris":{"android":"levelo://app?vid=a809bd48-19fa-4e6b-9673-d178d1b73a53","ios":"levelo://app?vid=a809bd48-19fa-4e6b-9673-d178d1b73a53"},"vehicle_type_id":"4","last_reported":1758903147,"current_range_meters":5600,"station_id":"","pricing_plan_id":"cebpf4jnsgd1na2vs0mg"},{"bike_id":"79d3310c-fdd3-4d41-af94-fd660c61298c","system_id":"levelo_inurba_marseille","lat":43.27981,"lon":5.38739,"is_reserved":false,"is_disabled":false,"rental_uris":{"android":"levelo://app?vid=79d3310c-fdd3-4d41-af94-fd660c61298c","ios":"levelo://app?vid=79d3310c-fdd3-4d41-af94-fd660c61298c"},"vehicle_type_id":"4","last_reported":1758903147,"current_range_meters":4800,"station_id":"ce4bhg12rcd13ifvqf80","pricing_plan_id":"cebpf4jnsgd1na2vs0mg"},{"bike_id":"2448f74a-0daf-4f47-bcf2-0a58a320e1d4","system_id":"levelo_inurba_marseille","lat":43.28419,"lon":5.34977,"is_reserved":false,"is_disabled":false,"rental_uris":{"android":"levelo://app?vid=2448f74a-0daf-4f47-bcf2-0a58a320e1d4","ios":"levelo://app?vid=2448f74a-0daf-4f47-bcf2-0a58a320e1d4"},"vehicle_type_id":"4","last_reported":1758903147,"current_range_meters":5600,"station_id":"ce4bhbh2rcd13ifvqepg","pricing_plan_id":"cebpf4jnsgd1na2vs0mg"},{"bike_id":"194c48d5-6849-45bf-8a89-f8fcfbf6ac7f","system_id":"levelo_inurba_marseille","lat":43.22561,"lon":5.41623,"is_reserved":false,"is_disabled":false,"rental_uris":{"android":"levelo://app?vid=194c48d5-6849-45bf-8a89-f8fcfbf6ac7f","ios":"levelo://app?vid=194c48d5-6849-45bf-8a89-f8fcfbf6ac7f"},"vehicle_type_id":"4","last_reported":1758903147,"current_range_meters":5600,"station_id":"st_d2o4gvlbi1j2169b742g","pricing_plan_id":"cebpf4jnsgd1na2vs0mg"},{"bike_id":"71b9f008-73c8-41b6-aadd-91c5edca348c","system_id":"levelo_inurba_marseille","lat":43.28714,"lon":5.373878,"is_reserved":false,"is_disabled":false,"rental_uris":{"android":"levelo://app?vid=71b9f008-73c8-41b6-aadd-91c5edca348c","ios":"levelo://app?vid=71b9f008-73c8-41b6-aadd-91c5edca348c"},"vehicle_type_id":"4","last_reported":1758903147,"current_range_meters":5600,"station_id":"ce4bh3p2rcd13ifvqdq0","pricing_plan_id":"cebpf4jnsgd1na2vs0mg"},{"bike_id":"235b0212-9174-49fc-a397-cbf96299e6b3","system_id":"levelo_inurba_marseille","lat":43.27946,"lon":5.41054,"is_reserved":false,"is_disabled":false,"rental_uris":{"android":"levelo://app?vid=235b0212-9174-49fc-a397-cbf96299e6b3","ios":"levelo://app?vid=235b0212-9174-49fc-a397-cbf96299e6b3"},"vehicle_type_id":"4","last_reported":1758903147,"current_range_meters":5600,"station_id":"ce4bhnp2rcd13ifvqh0g","pricing_plan_id":"cebpf4jnsgd1na2vs0mg"},{"bike_id":"260d08cd-1dc2-43ba-8292-c37c6dfd25ba","system_id":"levelo_inurba_marseille","lat":43.29578,"lon":5.3809,"is_reserved":false,"is_disabled":false,"rental_uris":{"android":"levelo://app?vid=260d08cd-1dc2-43ba-8292-c37c6dfd25ba","ios":"levelo://app?vid=260d08cd-1dc2-43ba-8292-c37c6dfd25ba"},"vehicle_type_id":"4","last_reported":1758903147,"current_range_meters":5600,"station_id":"ce4bgl12rcd13ifvqbo0","pricing_plan_id":"cebpf4jnsgd1na2vs0mg"},{"bike_id":"588bb5c6-d90f-4edd-b1de-2d2164a39c00","system_id":"levelo_inurba_marseille","lat":43.33029,"lon":5.3904,"is_reserved":false,"is_disabled":false,"rental_uris":{"android":"levelo://app?vid=588bb5c6-d90f-4edd-b1de-2d2164a39c00","ios":"levelo://app?vid=588bb5c6-d90f-4edd-b1de-2d2164a39c00"},"vehicle_type_id":"4","last_reported":1758903147,"current_range_meters":5600,"station_id":"ce4bhr92rcd13ifvqhrg","pricing_plan_id":"cebpf4jnsgd1na2vs0mg"},{"bike_id":"92e9b0fb-bc7b-46ea-80d9-ff27f3f4c141","system_id":"levelo_inurba_marseille","lat":43.24628,"lon":5.43151,"is_reserved":false,"is_disabled":false,"rental_uris":{"android":"levelo://app?vid=92e9b0fb-bc7b-46ea-80d9-ff27f3f4c141","ios":"levelo://app?vid=92e9b0fb-bc7b-46ea-80d9-ff27f3f4c141"},"vehicle_type_id":"4","last_reported":1758903147,"current_range_meters":5600,"station_id":"st_d2m6c4gdas8pm72e190g","pricing_plan_id":"cebpf4jnsgd1na2vs0mg"},{"bike_id":"72fb43fa-8e11-4c56-b8ba-eefc88474d61","system_id":"levelo_inurba_marseille","lat":43.29887,"lon":5.38894,"is_reserved":false,"is_disabled":false,"rental_uris":{"android":"levelo://app?vid=72fb43fa-8e11-4c56-b8ba-eefc88474d61","ios":"levelo://app?vid=72fb43fa-8e11-4c56-b8ba-eefc88474d61"},"vehicle_type_id":"4","last_reported":1758903147,"current_range_meters":4800,"station_id":"ce4bh392rcd13ifvqdl0","pricing_plan_id":"cebpf4jnsgd1na2vs0mg"},{"bike_id":"09f62ba6-af65-412e-aa52-83df4d376991","system_id":"levelo_inurba_marseille","lat":43.31089,"lon":5.36755,"is_reserved":false,"is_disabled":false,"rental_uris":{"android":"levelo://app?vid=09f62ba6-af65-412e-aa52-83df4d376991","ios":"levelo://app?vid=09f62ba6-af65-412e-aa52-83df4d376991"},"vehicle_type_id":"4","last_reported":1758903147,"current_range_meters":6000,"station_id":"","pricing_plan_id":"cebpf4jnsgd1na2vs0mg"},{"bike_id":"b20f62ae-291f-45d2-8412-e0836b5bbae2","system_id":"levelo_inurba_marseille","lat":43.26498,"lon":5.39564,"is_reserved":false,"is_disabled":false,"rental_uris":{"android":"levelo://app?vid=b20f62ae-291f-45d2-8412-e0836b5bbae2","ios":"levelo://app?vid=b20f62ae-291f-45d2-8412-e0836b5bbae2"},"vehicle_type_id":"4","last_reported":1758903147,"current_range_meters":6000,"station_id":"ce4bhi12rcd13ifvqfq0","pricing_plan_id":"cebpf4jnsgd1na2vs0mg"},{"bike_id":"7ba37acc-fc8f-407f-ac6e-e16afcf81ab7","system_id":"levelo_inurba_marseille","lat":43.26564,"lon":5.3901,"is_reserved":false,"is_disabled":false,"rental_uris":{"android":"levelo://app?vid=7ba37acc-fc8f-407f-ac6e-e16afcf81ab7","ios":"levelo://app?vid=7ba37acc-fc8f-407f-ac6e-e16afcf81ab7"},"vehicle_type_id":"4","last_reported":1758903147,"current_range_meters":6000,"station_id":"ce4bhe12rcd13ifvqf30","pricing_plan_id":"cebpf4jnsgd1na2vs0mg"},{"bike_id":"fb379369-1c30-4365-96ec-b71d9aff068e","system_id":"levelo_inurba_marseille","lat":43.22924,"lon":5.35379,"is_reserved":false,"is_disabled":false,"rental_uris":{"android":"levelo://app?vid=fb379369-1c30-4365-96ec-b71d9aff068e","ios":"levelo://app?vid=fb379369-1c30-4365-96ec-b71d9aff068e"},"vehicle_type_id":"4","last_reported":1758903147,"current_range_meters":6000,"station_id":"cpo3532slgdg3j2ikp40","pricing_plan_id":"cebpf4jnsgd1na2vs0mg"},{"bike_id":"f46c98dd-aab5-4483-93db-8bba18841fed","system_id":"levelo_inurba_marseille","lat":43.292816,"lon":5.36845,"is_reserved":false,"is_disabled":false,"rental_uris":{"android":"levelo://app?vid=f46c98dd-aab5-4483-93db-8bba18841fed","ios":"levelo://app?vid=f46c98dd-aab5-4483-93db-8bba18841fed"},"vehicle_type_id":"4","last_reported":1758903147,"current_range_meters":6000,"station_id":"ce4bhbp2rcd13ifvqesg","pricing_plan_id":"cebpf4jnsgd1na2vs0mg"},{"bike_id":"f30f6361-c433-4510-9d69-3fd0daf2f660","system_id":"levelo_inurba_marseille","lat":43.23192,"lon":5.35556,"is_reserved":false,"is_disabled":false,"rental_uris":{"android":"levelo://app?vid=f30f6361-c433-4510-9d69-3fd0daf2f660","ios":"levelo://app?vid=f30f6361-c433-4510-9d69-3fd0daf2f660"},"vehicle_type_id":"4","last_reported":1758903147,"current_range_meters":6400,"station_id":"ce4bhu92rcd13ifvqi70","pricing_plan_id":"cebpf4jnsgd1na2vs0mg"},{"bike_id":"3325f0da-cb66-4d3c-93c6-8a0307c8cdbe","system_id":"levelo_inurba_marseille","lat":43.28355,"lon":5.38628,"is_reserved":false,"is_disabled":false,"rental_uris":{"android":"levelo://app?vid=3325f0da-cb66-4d3c-93c6-8a0307c8cdbe","ios":"levelo://app?vid=3325f0da-cb66-4d3c-93c6-8a0307c8cdbe"},"vehicle_type_id":"4","last_reported":1758903147,"current_range_meters":6400,"station_id":"ce4bh492rcd13ifvqdvg","pricing_plan_id":"cebpf4jnsgd1na2vs0mg"},{"bike_id":"f06f303e-9c77-4cb4-9807-03e5552271ec","system_id":"levelo_inurba_marseille","lat":43.292681,"lon":5.384381,"is_reserved":false,"is_disabled":false,"rental_uris":{"android":"levelo://app?vid=f06f303e-9c77-4cb4-9807-03e5552271ec","ios":"levelo://app?vid=f06f303e-9c77-4cb4-9807-03e5552271ec"},"vehicle_type_id":"4","last_reported":1758903147,"current_range_meters":6400,"station_id":"ce4bh692rcd13ifvqea0","pricing_plan_id":"cebpf4jnsgd1na2vs0mg"},{"bike_id":"435ea7f2-2d14-4844-9d46-504c8c8ad753","system_id":"levelo_inurba_marseille","lat":43.3136,"lon":5.38491,"is_reserved":false,"is_disabled":false,"rental_uris":{"android":"levelo://app?vid=435ea7f2-2d14-4844-9d46-504c8c8ad753","ios":"levelo://app?vid=435ea7f2-2d14-4844-9d46-504c8c8ad753"},"vehicle_type_id":"4","last_reported":1758903147,"current_range_meters":6000,"station_id":"ce4bgt92rcd13ifvqcf0","pricing_plan_id":"cebpf4jnsgd1na2vs0mg"},{"bike_id":"d9db3974-bea6-4705-ac5b-6f364653f10c","system_id":"levelo_inurba_marseille","lat":43.30089,"lon":5.39086,"is_reserved":false,"is_disabled":false,"rental_uris":{"android":"levelo://app?vid=d9db3974-bea6-4705-ac5b-6f364653f10c","ios":"levelo://app?vid=d9db3974-bea6-4705-ac5b-6f364653f10c"},"vehicle_type_id":"4","last_reported":1758903147,"current_range_meters":6400,"station_id":"ce4bh192rcd13ifvqdb0","pricing_plan_id":"cebpf4jnsgd1na2vs0mg"},{"bike_id":"6b56529f-4769-40ee-9761-ada06c0f4929","system_id":"levelo_inurba_marseille","lat":43.27185,"lon":5.40986,"is_reserved":false,"is_disabled":false,"rental_uris":{"android":"levelo://app?vid=6b56529f-4769-40ee-9761-ada06c0f4929","ios":"levelo://app?vid=6b56529f-4769-40ee-9761-ada06c0f4929"},"vehicle_type_id":"4","last_reported":1758903147,"current_range_meters":6400,"station_id":"ce4bhl12rcd13ifvqgf0","pricing_plan_id":"cebpf4jnsgd1na2vs0mg"},{"bike_id":"c4c14fd8-ea32-424b-a86d-e0453cafdd6a","system_id":"levelo_inurba_marseille","lat":43.28854,"lon":5.4252,"is_reserved":false,"is_disabled":false,"rental_uris":{"android":"levelo://app?vid=c4c14fd8-ea32-424b-a86d-e0453cafdd6a","ios":"levelo://app?vid=c4c14fd8-ea32-424b-a86d-e0453cafdd6a"},"vehicle_type_id":"4","last_reported":1758903147,"current_range_meters":6400,"station_id":"st_d3b462108ojc7389ooeg","pricing_plan_id":"cebpf4jnsgd1na2vs0mg"},{"bike_id":"c6d4d30c-7776-47e0-8c0f-d3d4cf984ab3","system_id":"levelo_inurba_marseille","lat":43.29271,"lon":5.37633,"is_reserved":false,"is_disabled":false,"rental_uris":{"android":"levelo://app?vid=c6d4d30c-7776-47e0-8c0f-d3d4cf984ab3","ios":"levelo://app?vid=c6d4d30c-7776-47e0-8c0f-d3d4cf984ab3"},"vehicle_type_id":"4","last_reported":1758903147,"current_range_meters":6400,"station_id":"ce4bgi12rcd13ifvqb80","pricing_plan_id":"cebpf4jnsgd1na2vs0mg"},{"bike_id":"50f0b76a-3750-40db-a7a0-4a58c23c74e2","system_id":"levelo_inurba_marseille","lat":43.294361,"lon":5.397521,"is_reserved":false,"is_disabled":false,"rental_uris":{"android":"levelo://app?vid=50f0b76a-3750-40db-a7a0-4a58c23c74e2","ios":"levelo://app?vid=50f0b76a-3750-40db-a7a0-4a58c23c74e2"},"vehicle_type_id":"4","last_reported":1758903147,"current_range_meters":6000,"station_id":"ce4bh3h2rcd13ifvqdo0","pricing_plan_id":"cebpf4jnsgd1na2vs0mg"},{"bike_id":"7d9c893e-52dd-45e6-aa9f-5fa5fcf1a192","system_id":"levelo_inurba_marseille","lat":43.30925,"lon":5.40132,"is_reserved":false,"is_disabled":true,"rental_uris":{"android":"levelo://app?vid=7d9c893e-52dd-45e6-aa9f-5fa5fcf1a192","ios":"levelo://app?vid=7d9c893e-52dd-45e6-aa9f-5fa5fcf1a192"},"vehicle_type_id":"4","last_reported":1758903147,"current_range_meters":6800,"station_id":"ce4bgvp2rcd13ifvqct0","pricing_plan_id":"cebpf4jnsgd1na2vs0mg"},{"bike_id":"7f27357c-4c5e-458c-afd4-80f37a0b53f1","system_id":"levelo_inurba_marseille","lat":43.22929,"lon":5.35375,"is_reserved":false,"is_disabled":false,"rental_uris":{"android":"levelo://app?vid=7f27357c-4c5e-458c-afd4-80f37a0b53f1","ios":"levelo://app?vid=7f27357c-4c5e-458c-afd4-80f37a0b53f1"},"vehicle_type_id":"4","last_reported":1758903147,"current_range_meters":6800,"station_id":"cpo3532slgdg3j2ikp40","pricing_plan_id":"cebpf4jnsgd1na2vs0mg"},{"bike_id":"2b6f7d78-0bcf-4d0c-b195-3eabf6ea57e2","system_id":"levelo_inurba_marseille","lat":43.21196,"lon":5.35089,"is_reserved":false,"is_disabled":false,"rental_uris":{"android":"levelo://app?vid=2b6f7d78-0bcf-4d0c-b195-3eabf6ea57e2","ios":"levelo://app?vid=2b6f7d78-0bcf-4d0c-b195-3eabf6ea57e2"},"vehicle_type_id":"4","last_reported":1758903147,"current_range_meters":6800,"station_id":"st_cvj6sg6p6f1abm77japg","pricing_plan_id":"cebpf4jnsgd1na2vs0mg"},{"bike_id":"7594d82e-7f2b-4ddb-8aee-1e05cdd58c4a","system_id":"levelo_inurba_marseille","lat":43.30438,"lon":5.388925,"is_reserved":false,"is_disabled":false,"rental_uris":{"android":"levelo://app?vid=7594d82e-7f2b-4ddb-8aee-1e05cdd58c4a","ios":"levelo://app?vid=7594d82e-7f2b-4ddb-8aee-1e05cdd58c4a"},"vehicle_type_id":"4","last_reported":1758903147,"current_range_meters":6400,"station_id":"ce4bgk12rcd13ifvqbi0","pricing_plan_id":"cebpf4jnsgd1na2vs0mg"},{"bike_id":"e126b0a2-1aa8-47db-832d-c008308d7f99","system_id":"levelo_inurba_marseille","lat":43.292661,"lon":5.384286,"is_reserved":false,"is_disabled":false,"rental_uris":{"android":"levelo://app?vid=e126b0a2-1aa8-47db-832d-c008308d7f99","ios":"levelo://app?vid=e126b0a2-1aa8-47db-832d-c008308d7f99"},"vehicle_type_id":"4","last_reported":1758903147,"current_range_meters":6400,"station_id":"ce4bh692rcd13ifvqea0","pricing_plan_id":"cebpf4jnsgd1na2vs0mg"},{"bike_id":"67c7762b-f190-48ae-92d8-ce4b0b808e74","system_id":"levelo_inurba_marseille","lat":43.313396,"lon":5.396839,"is_reserved":false,"is_disabled":false,"rental_uris":{"android":"levelo://app?vid=67c7762b-f190-48ae-92d8-ce4b0b808e74","ios":"levelo://app?vid=67c7762b-f190-48ae-92d8-ce4b0b808e74"},"vehicle_type_id":"4","last_reported":1758903147,"current_range_meters":6800,"station_id":"ce4bgvp2rcd13ifvqcu0","pricing_plan_id":"cebpf4jnsgd1na2vs0mg"},{"bike_id":"8e4dbd40-a71e-488d-8dc7-9272fc8c3f30","system_id":"levelo_inurba_marseille","lat":43.25827,"lon":5.39439,"is_reserved":false,"is_disabled":false,"rental_uris":{"android":"levelo://app?vid=8e4dbd40-a71e-488d-8dc7-9272fc8c3f30","ios":"levelo://app?vid=8e4dbd40-a71e-488d-8dc7-9272fc8c3f30"},"vehicle_type_id":"4","last_reported":1758903147,"current_range_meters":6800,"station_id":"ce4bhip2rcd13ifvqft0","pricing_plan_id":"cebpf4jnsgd1na2vs0mg"},{"bike_id":"46a20183-6e6b-4ac9-939c-001da502957f","system_id":"levelo_inurba_marseille","lat":43.29196,"lon":5.35806,"is_reserved":false,"is_disabled":false,"rental_uris":{"android":"levelo://app?vid=46a20183-6e6b-4ac9-939c-001da502957f","ios":"levelo://app?vid=46a20183-6e6b-4ac9-939c-001da502957f"},"vehicle_type_id":"4","last_reported":1758903147,"current_range_meters":6800,"station_id":"ce4bhb12rcd13ifvqel0","pricing_plan_id":"cebpf4jnsgd1na2vs0mg"},{"bike_id":"c5f176b6-4594-46aa-b07d-b67bed8ed837","system_id":"levelo_inurba_marseille","lat":43.275667,"lon":5.384241,"is_reserved":false,"is_disabled":false,"rental_uris":{"android":"levelo://app?vid=c5f176b6-4594-46aa-b07d-b67bed8ed837","ios":"levelo://app?vid=c5f176b6-4594-46aa-b07d-b67bed8ed837"},"vehicle_type_id":"4","last_reported":1758903147,"current_range_meters":7200,"station_id":"ce4bhh92rcd13ifvqfi0","pricing_plan_id":"cebpf4jnsgd1na2vs0mg"},{"bike_id":"a7862c84-1ee5-4824-bd79-9ce62d6933b3","system_id":"levelo_inurba_marseille","lat":43.290788,"lon":5.371576,"is_reserved":false,"is_disabled":true,"rental_uris":{"android":"levelo://app?vid=a7862c84-1ee5-4824-bd79-9ce62d6933b3","ios":"levelo://app?vid=a7862c84-1ee5-4824-bd79-9ce62d6933b3"},"vehicle_type_id":"4","last_reported":1758903147,"current_range_meters":7200,"station_id":"ce4bh5p2rcd13ifvqe4g","pricing_plan_id":"cebpf4jnsgd1na2vs0mg"},{"bike_id":"2415088a-7784-4652-ba34-bc013b9f8537","system_id":"levelo_inurba_marseille","lat":43.21182,"lon":5.35078,"is_reserved":false,"is_disabled":false,"rental_uris":{"android":"levelo://app?vid=2415088a-7784-4652-ba34-bc013b9f8537","ios":"levelo://app?vid=2415088a-7784-4652-ba34-bc013b9f8537"},"vehicle_type_id":"4","last_reported":1758903147,"current_range_meters":8000,"station_id":"st_cvj6sg6p6f1abm77japg","pricing_plan_id":"cebpf4jnsgd1na2vs0mg"},{"bike_id":"8eae954c-dab6-4303-94f5-569e1c483f62","system_id":"levelo_inurba_marseille","lat":43.29459,"lon":5.40735,"is_reserved":false,"is_disabled":false,"rental_uris":{"android":"levelo://app?vid=8eae954c-dab6-4303-94f5-569e1c483f62","ios":"levelo://app?vid=8eae954c-dab6-4303-94f5-569e1c483f62"},"vehicle_type_id":"4","last_reported":1758903147,"current_range_meters":8000,"station_id":"","pricing_plan_id":"cebpf4jnsgd1na2vs0mg"},{"bike_id":"3a21c0e3-9525-4e6d-acc5-96f2797095f3","system_id":"levelo_inurba_marseille","lat":43.299675,"lon":5.38704,"is_reserved":false,"is_disabled":false,"rental_uris":{"android":"levelo://app?vid=3a21c0e3-9525-4e6d-acc5-96f2797095f3","ios":"levelo://app?vid=3a21c0e3-9525-4e6d-acc5-96f2797095f3"},"vehicle_type_id":"4","last_reported":1758903147,"current_range_meters":8000,"station_id":"","pricing_plan_id":"cebpf4jnsgd1na2vs0mg"},{"bike_id":"c134684e-ee34-4320-aa68-46e21071a305","system_id":"levelo_inurba_marseille","lat":43.31277,"lon":5.40165,"is_reserved":false,"is_disabled":false,"rental_uris":{"android":"levelo://app?vid=c134684e-ee34-4320-aa68-46e21071a305","ios":"levelo://app?vid=c134684e-ee34-4320-aa68-46e21071a305"},"vehicle_type_id":"4","last_reported":1758903147,"current_range_meters":7200,"station_id":"ce4bh092rcd13ifvqd30","pricing_plan_id":"cebpf4jnsgd1na2vs0mg"},{"bike_id":"d7f9e1df-8b0f-4a8d-ad58-d349030d8c25","system_id":"levelo_inurba_marseille","lat":43.29615,"lon":5.37809,"is_reserved":false,"is_disabled":false,"rental_uris":{"android":"levelo://app?vid=d7f9e1df-8b0f-4a8d-ad58-d349030d8c25","ios":"levelo://app?vid=d7f9e1df-8b0f-4a8d-ad58-d349030d8c25"},"vehicle_type_id":"4","last_reported":1758903147,"current_range_meters":8000,"station_id":"","pricing_plan_id":"cebpf4jnsgd1na2vs0mg"},{"bike_id":"42f26322-7700-4d7f-8345-7cf75066b245","system_id":"levelo_inurba_marseille","lat":43.28159,"lon":5.42634,"is_reserved":false,"is_disabled":false,"rental_uris":{"android":"levelo://app?vid=42f26322-7700-4d7f-8345-7cf75066b245","ios":"levelo://app?vid=42f26322-7700-4d7f-8345-7cf75066b245"},"vehicle_type_id":"4","last_reported":1758903147,"current_range_meters":8400,"station_id":"ce4bhnh2rcd13ifvqgug","pricing_plan_id":"cebpf4jnsgd1na2vs0mg"},{"bike_id":"ad72ce0b-470c-41ef-8029-058c181ca07d","system_id":"levelo_inurba_marseille","lat":43.31712,"lon":5.43707,"is_reserved":false,"is_disabled":false,"rental_uris":{"android":"levelo://app?vid=ad72ce0b-470c-41ef-8029-058c181ca07d","ios":"levelo://app?vid=ad72ce0b-470c-41ef-8029-058c181ca07d"},"vehicle_type_id":"4","last_reported":1758903147,"current_range_meters":8000,"station_id":"ce4bhp92rcd13ifvqhcg","pricing_plan_id":"cebpf4jnsgd1na2vs0mg"},{"bike_id":"003515e8-8117-44bb-979d-5f47e8d50fda","system_id":"levelo_inurba_marseille","lat":43.30616,"lon":5.37581,"is_reserved":false,"is_disabled":false,"rental_uris":{"android":"levelo://app?vid=003515e8-8117-44bb-979d-5f47e8d50fda","ios":"levelo://app?vid=003515e8-8117-44bb-979d-5f47e8d50fda"},"vehicle_type_id":"4","last_reported":1758903147,"current_range_meters":8400,"station_id":"","pricing_plan_id":"cebpf4jnsgd1na2vs0mg"},{"bike_id":"bdfdcb8e-4dfe-4707-ab4e-3cf01e7d9ce7","system_id":"levelo_inurba_marseille","lat":43.24545,"lon":5.39525,"is_reserved":false,"is_disabled":false,"rental_uris":{"android":"levelo://app?vid=bdfdcb8e-4dfe-4707-ab4e-3cf01e7d9ce7","ios":"levelo://app?vid=bdfdcb8e-4dfe-4707-ab4e-3cf01e7d9ce7"},"vehicle_type_id":"4","last_reported":1758903147,"current_range_meters":8400,"station_id":"ce4bhlp2rcd13ifvqgjg","pricing_plan_id":"cebpf4jnsgd1na2vs0mg"},{"bike_id":"aef011f5-8b93-403a-ae54-feedb4cabd28","system_id":"levelo_inurba_marseille","lat":43.30573,"lon":5.37223,"is_reserved":false,"is_disabled":false,"rental_uris":{"android":"levelo://app?vid=aef011f5-8b93-403a-ae54-feedb4cabd28","ios":"levelo://app?vid=aef011f5-8b93-403a-ae54-feedb4cabd28"},"vehicle_type_id":"4","last_reported":1758903147,"current_range_meters":8400,"station_id":"ce4bgqh2rcd13ifvqc4g","pricing_plan_id":"cebpf4jnsgd1na2vs0mg"},{"bike_id":"212de2eb-8bbc-413c-b204-9fe1facd76e8","system_id":"levelo_inurba_marseille","lat":43.31268,"lon":5.37831,"is_reserved":false,"is_disabled":false,"rental_uris":{"android":"levelo://app?vid=212de2eb-8bbc-413c-b204-9fe1facd76e8","ios":"levelo://app?vid=212de2eb-8bbc-413c-b204-9fe1facd76e8"},"vehicle_type_id":"4","last_reported":1758903147,"current_range_meters":8400,"station_id":"","pricing_plan_id":"cebpf4jnsgd1na2vs0mg"},{"bike_id":"339534b4-d6ce-428f-97c9-087d1b58c7b3","system_id":"levelo_inurba_marseille","lat":43.3269,"lon":5.40292,"is_reserved":false,"is_disabled":false,"rental_uris":{"android":"levelo://app?vid=339534b4-d6ce-428f-97c9-087d1b58c7b3","ios":"levelo://app?vid=339534b4-d6ce-428f-97c9-087d1b58c7b3"},"vehicle_type_id":"4","last_reported":1758903147,"current_range_meters":8400,"station_id":"","pricing_plan_id":"cebpf4jnsgd1na2vs0mg"},{"bike_id":"02dd0958-9148-4c4a-b1c0-55f0a84cceef","system_id":"levelo_inurba_marseille","lat":43.284853,"lon":5.384197,"is_reserved":false,"is_disabled":false,"rental_uris":{"android":"levelo://app?vid=02dd0958-9148-4c4a-b1c0-55f0a84cceef","ios":"levelo://app?vid=02dd0958-9148-4c4a-b1c0-55f0a84cceef"},"vehicle_type_id":"4","last_reported":1758903147,"current_range_meters":8800,"station_id":"ce4bh512rcd13ifvqe3g","pricing_plan_id":"cebpf4jnsgd1na2vs0mg"},{"bike_id":"7d1387cb-fd39-4b73-bb23-7159f9fde49d","system_id":"levelo_inurba_marseille","lat":43.22554,"lon":5.41644,"is_reserved":false,"is_disabled":false,"rental_uris":{"android":"levelo://app?vid=7d1387cb-fd39-4b73-bb23-7159f9fde49d","ios":"levelo://app?vid=7d1387cb-fd39-4b73-bb23-7159f9fde49d"},"vehicle_type_id":"4","last_reported":1758903147,"current_range_meters":8800,"station_id":"st_d2o4gvlbi1j2169b742g","pricing_plan_id":"cebpf4jnsgd1na2vs0mg"},{"bike_id":"aeb3aede-479e-423c-acdb-e2a8fd4f9c46","system_id":"levelo_inurba_marseille","lat":43.24805,"lon":5.37458,"is_reserved":false,"is_disabled":false,"rental_uris":{"android":"levelo://app?vid=aeb3aede-479e-423c-acdb-e2a8fd4f9c46","ios":"levelo://app?vid=aeb3aede-479e-423c-acdb-e2a8fd4f9c46"},"vehicle_type_id":"4","last_reported":1758903147,"current_range_meters":8800,"station_id":"ce4bhgh2rcd13ifvqfb0","pricing_plan_id":"cebpf4jnsgd1na2vs0mg"},{"bike_id":"c259f3d2-a340-49b9-8306-3528cca02126","system_id":"levelo_inurba_marseille","lat":43.26685,"lon":5.38285,"is_reserved":false,"is_disabled":false,"rental_uris":{"android":"levelo://app?vid=c259f3d2-a340-49b9-8306-3528cca02126","ios":"levelo://app?vid=c259f3d2-a340-49b9-8306-3528cca02126"},"vehicle_type_id":"4","last_reported":1758903147,"current_range_meters":8400,"station_id":"ce4bhg92rcd13ifvqf90","pricing_plan_id":"cebpf4jnsgd1na2vs0mg"},{"bike_id":"d2013b41-f24f-4171-9def-3912b99c1986","system_id":"levelo_inurba_marseille","lat":43.28858,"lon":5.35858,"is_reserved":false,"is_disabled":false,"rental_uris":{"android":"levelo://app?vid=d2013b41-f24f-4171-9def-3912b99c1986","ios":"levelo://app?vid=d2013b41-f24f-4171-9def-3912b99c1986"},"vehicle_type_id":"4","last_reported":1758903147,"current_range_meters":8800,"station_id":"ce4bhb12rcd13ifvqem0","pricing_plan_id":"cebpf4jnsgd1na2vs0mg"},{"bike_id":"f897d300-643c-4c7a-951b-f56d70ef23ca","system_id":"levelo_inurba_marseille","lat":43.30334,"lon":5.3908,"is_reserved":false,"is_disabled":false,"rental_uris":{"android":"levelo://app?vid=f897d300-643c-4c7a-951b-f56d70ef23ca","ios":"levelo://app?vid=f897d300-643c-4c7a-951b-f56d70ef23ca"},"vehicle_type_id":"4","last_reported":1758903147,"current_range_meters":8800,"station_id":"","pricing_plan_id":"cebpf4jnsgd1na2vs0mg"},{"bike_id":"7b6e5347-548f-4c2c-b3d5-8674851361ff","system_id":"levelo_inurba_marseille","lat":43.29534,"lon":5.38536,"is_reserved":false,"is_disabled":false,"rental_uris":{"android":"levelo://app?vid=7b6e5347-548f-4c2c-b3d5-8674851361ff","ios":"levelo://app?vid=7b6e5347-548f-4c2c-b3d5-8674851361ff"},"vehicle_type_id":"4","last_reported":1758903147,"current_range_meters":8800,"station_id":"ce4bgih2rcd13ifvqba0","pricing_plan_id":"cebpf4jnsgd1na2vs0mg"},{"bike_id":"ab5ceb4c-1e18-4e65-a243-8922170e3654","system_id":"levelo_inurba_marseille","lat":43.28154,"lon":5.42652,"is_reserved":false,"is_disabled":false,"rental_uris":{"android":"levelo://app?vid=ab5ceb4c-1e18-4e65-a243-8922170e3654","ios":"levelo://app?vid=ab5ceb4c-1e18-4e65-a243-8922170e3654"},"vehicle_type_id":"4","last_reported":1758903147,"current_range_meters":8800,"station_id":"ce4bhnh2rcd13ifvqgug","pricing_plan_id":"cebpf4jnsgd1na2vs0mg"},{"bike_id":"711b7c51-8622-4113-8796-c2df6c82fc6b","system_id":"levelo_inurba_marseille","lat":43.312756,"lon":5.401813,"is_reserved":false,"is_disabled":false,"rental_uris":{"android":"levelo://app?vid=711b7c51-8622-4113-8796-c2df6c82fc6b","ios":"levelo://app?vid=711b7c51-8622-4113-8796-c2df6c82fc6b"},"vehicle_type_id":"4","last_reported":1758903147,"current_range_meters":15200,"station_id":"ce4bh092rcd13ifvqd30","pricing_plan_id":"cebpf4jnsgd1na2vs0mg"},{"bike_id":"fb56146a-e658-4a9c-a14e-e5a81c5a382a","system_id":"levelo_inurba_marseille","lat":43.313287,"lon":5.396945,"is_reserved":false,"is_disabled":false,"rental_uris":{"android":"levelo://app?vid=fb56146a-e658-4a9c-a14e-e5a81c5a382a","ios":"levelo://app?vid=fb56146a-e658-4a9c-a14e-e5a81c5a382a"},"vehicle_type_id":"4","last_reported":1758903147,"current_range_meters":8800,"station_id":"ce4bgvp2rcd13ifvqcu0","pricing_plan_id":"cebpf4jnsgd1na2vs0mg"},{"bike_id":"ec8ce261-f4e3-4093-b380-233732068bf1","system_id":"levelo_inurba_marseille","lat":43.29593,"lon":5.38105,"is_reserved":false,"is_disabled":false,"rental_uris":{"android":"levelo://app?vid=ec8ce261-f4e3-4093-b380-233732068bf1","ios":"levelo://app?vid=ec8ce261-f4e3-4093-b380-233732068bf1"},"vehicle_type_id":"4","last_reported":1758903147,"current_range_meters":8800,"station_id":"ce4bgl12rcd13ifvqbo0","pricing_plan_id":"cebpf4jnsgd1na2vs0mg"},{"bike_id":"8fc8240c-d23d-43af-8d50-23bdfa71be09","system_id":"levelo_inurba_marseille","lat":43.28718,"lon":5.36082,"is_reserved":false,"is_disabled":false,"rental_uris":{"android":"levelo://app?vid=8fc8240c-d23d-43af-8d50-23bdfa71be09","ios":"levelo://app?vid=8fc8240c-d23d-43af-8d50-23bdfa71be09"},"vehicle_type_id":"4","last_reported":1758903147,"current_range_meters":8400,"station_id":"cki0cbj6b192h4jlfktg","pricing_plan_id":"cebpf4jnsgd1na2vs0mg"},{"bike_id":"f97b9ff3-3a1d-4a53-9727-0a4c47e08812","system_id":"levelo_inurba_marseille","lat":43.25081,"lon":5.39521,"is_reserved":false,"is_disabled":false,"rental_uris":{"android":"levelo://app?vid=f97b9ff3-3a1d-4a53-9727-0a4c47e08812","ios":"levelo://app?vid=f97b9ff3-3a1d-4a53-9727-0a4c47e08812"},"vehicle_type_id":"4","last_reported":1758903147,"current_range_meters":9200,"station_id":"ce4bhm12rcd13ifvqgkg","pricing_plan_id":"cebpf4jnsgd1na2vs0mg"},{"bike_id":"174dfb4f-f618-4c2f-be1c-ae0d6b405e94","system_id":"levelo_inurba_marseille","lat":43.29708,"lon":5.38262,"is_reserved":false,"is_disabled":false,"rental_uris":{"android":"levelo://app?vid=174dfb4f-f618-4c2f-be1c-ae0d6b405e94","ios":"levelo://app?vid=174dfb4f-f618-4c2f-be1c-ae0d6b405e94"},"vehicle_type_id":"4","last_reported":1758903147,"current_range_meters":9200,"station_id":"","pricing_plan_id":"cebpf4jnsgd1na2vs0mg"},{"bike_id":"93c45366-c971-43fb-8538-8a09abd49d8b","system_id":"levelo_inurba_marseille","lat":43.29156,"lon":5.38499,"is_reserved":false,"is_disabled":false,"rental_uris":{"android":"levelo://app?vid=93c45366-c971-43fb-8538-8a09abd49d8b","ios":"levelo://app?vid=93c45366-c971-43fb-8538-8a09abd49d8b"},"vehicle_type_id":"4","last_reported":1758903147,"current_range_meters":9200,"station_id":"","pricing_plan_id":"cebpf4jnsgd1na2vs0mg"},{"bike_id":"5474708c-9abd-40e6-93ff-f5199272e34c","system_id":"levelo_inurba_marseille","lat":43.33718,"lon":5.39183,"is_reserved":false,"is_disabled":false,"rental_uris":{"android":"levelo://app?vid=5474708c-9abd-40e6-93ff-f5199272e34c","ios":"levelo://app?vid=5474708c-9abd-40e6-93ff-f5199272e34c"},"vehicle_type_id":"4","last_reported":1758903147,"current_range_meters":9200,"station_id":"ce4bhr92rcd13ifvqhsg","pricing_plan_id":"cebpf4jnsgd1na2vs0mg"},{"bike_id":"8b7cbc0d-9db4-44fa-a796-4c78e5315e04","system_id":"levelo_inurba_marseille","lat":43.30789,"lon":5.37652,"is_reserved":false,"is_disabled":false,"rental_uris":{"android":"levelo://app?vid=8b7cbc0d-9db4-44fa-a796-4c78e5315e04","ios":"levelo://app?vid=8b7cbc0d-9db4-44fa-a796-4c78e5315e04"},"vehicle_type_id":"4","last_reported":1758903147,"current_range_meters":9200,"station_id":"ce4bgv92rcd13ifvqcq0","pricing_plan_id":"cebpf4jnsgd1na2vs0mg"},{"bike_id":"2be97b16-69f8-429d-b602-f006c36fbdd0","system_id":"levelo_inurba_marseille","lat":43.26945,"lon":5.40249,"is_reserved":false,"is_disabled":false,"rental_uris":{"android":"levelo://app?vid=2be97b16-69f8-429d-b602-f006c36fbdd0","ios":"levelo://app?vid=2be97b16-69f8-429d-b602-f006c36fbdd0"},"vehicle_type_id":"4","last_reported":1758903147,"current_range_meters":9200,"station_id":"cjm6bp8fraef2m0cb0m0","pricing_plan_id":"cebpf4jnsgd1na2vs0mg"},{"bike_id":"48ef803f-8801-4226-ac50-b6a5bbd0d098","system_id":"levelo_inurba_marseille","lat":43.25,"lon":5.38923,"is_reserved":false,"is_disabled":false,"rental_uris":{"android":"levelo://app?vid=48ef803f-8801-4226-ac50-b6a5bbd0d098","ios":"levelo://app?vid=48ef803f-8801-4226-ac50-b6a5bbd0d098"},"vehicle_type_id":"4","last_reported":1758903147,"current_range_meters":9200,"station_id":"ce4bhgp2rcd13ifvqfd0","pricing_plan_id":"cebpf4jnsgd1na2vs0mg"},{"bike_id":"7cd648a3-4da3-4f50-bfcd-95a3d8a1a352","system_id":"levelo_inurba_marseille","lat":43.309113,"lon":5.368459,"is_reserved":false,"is_disabled":false,"rental_uris":{"android":"levelo://app?vid=7cd648a3-4da3-4f50-bfcd-95a3d8a1a352","ios":"levelo://app?vid=7cd648a3-4da3-4f50-bfcd-95a3d8a1a352"},"vehicle_type_id":"4","last_reported":1758903147,"current_range_meters":9600,"station_id":"ce4bgn92rcd13ifvqbvg","pricing_plan_id":"cebpf4jnsgd1na2vs0mg"},{"bike_id":"78a77019-cf81-4b14-b1b6-522260ba331f","system_id":"levelo_inurba_marseille","lat":43.28263,"lon":5.35072,"is_reserved":false,"is_disabled":false,"rental_uris":{"android":"levelo://app?vid=78a77019-cf81-4b14-b1b6-522260ba331f","ios":"levelo://app?vid=78a77019-cf81-4b14-b1b6-522260ba331f"},"vehicle_type_id":"4","last_reported":1758903147,"current_range_meters":9600,"station_id":"ce4bhbp2rcd13ifvqerg","pricing_plan_id":"cebpf4jnsgd1na2vs0mg"},{"bike_id":"3e592d11-bd2e-44ac-af37-4af6687e7b9d","system_id":"levelo_inurba_marseille","lat":43.29534,"lon":5.39046,"is_reserved":false,"is_disabled":false,"rental_uris":{"android":"levelo://app?vid=3e592d11-bd2e-44ac-af37-4af6687e7b9d","ios":"levelo://app?vid=3e592d11-bd2e-44ac-af37-4af6687e7b9d"},"vehicle_type_id":"4","last_reported":1758903147,"current_range_meters":9600,"station_id":"ce4bh3p2rcd13ifvqdp0","pricing_plan_id":"cebpf4jnsgd1na2vs0mg"},{"bike_id":"d85a21d7-1e65-4d76-b134-97a257d3c799","system_id":"levelo_inurba_marseille","lat":43.29089,"lon":5.38148,"is_reserved":false,"is_disabled":true,"rental_uris":{"android":"levelo://app?vid=d85a21d7-1e65-4d76-b134-97a257d3c799","ios":"levelo://app?vid=d85a21d7-1e65-4d76-b134-97a257d3c799"},"vehicle_type_id":"4","last_reported":1758903147,"current_range_meters":9600,"station_id":"ce4bh512rcd13ifvqe2g","pricing_plan_id":"cebpf4jnsgd1na2vs0mg"},{"bike_id":"c7f6a08b-c655-4213-b2ba-7d02e7f382fe","system_id":"levelo_inurba_marseille","lat":43.27988,"lon":5.39483,"is_reserved":false,"is_disabled":false,"rental_uris":{"android":"levelo://app?vid=c7f6a08b-c655-4213-b2ba-7d02e7f382fe","ios":"levelo://app?vid=c7f6a08b-c655-4213-b2ba-7d02e7f382fe"},"vehicle_type_id":"4","last_reported":1758903147,"current_range_meters":9600,"station_id":"","pricing_plan_id":"cebpf4jnsgd1na2vs0mg"},{"bike_id":"e5303607-da03-4ac7-b81e-b332ede84cf7","system_id":"levelo_inurba_marseille","lat":43.31308,"lon":5.37824,"is_reserved":false,"is_disabled":false,"rental_uris":{"android":"levelo://app?vid=e5303607-da03-4ac7-b81e-b332ede84cf7","ios":"levelo://app?vid=e5303607-da03-4ac7-b81e-b332ede84cf7"},"vehicle_type_id":"4","last_reported":1758903147,"current_range_meters":9600,"station_id":"","pricing_plan_id":"cebpf4jnsgd1na2vs0mg"},{"bike_id":"dd19907d-2c1f-4c5c-8d64-ca99b8a77437","system_id":"levelo_inurba_marseille","lat":43.27428,"lon":5.39416,"is_reserved":false,"is_disabled":false,"rental_uris":{"android":"levelo://app?vid=dd19907d-2c1f-4c5c-8d64-ca99b8a77437","ios":"levelo://app?vid=dd19907d-2c1f-4c5c-8d64-ca99b8a77437"},"vehicle_type_id":"4","last_reported":1758903147,"current_range_meters":10000,"station_id":"ce4bhdp2rcd13ifvqf20","pricing_plan_id":"cebpf4jnsgd1na2vs0mg"},{"bike_id":"22e1526a-5d94-480e-9eef-c281aa35345c","system_id":"levelo_inurba_marseille","lat":43.21198,"lon":5.35073,"is_reserved":false,"is_disabled":false,"rental_uris":{"android":"levelo://app?vid=22e1526a-5d94-480e-9eef-c281aa35345c","ios":"levelo://app?vid=22e1526a-5d94-480e-9eef-c281aa35345c"},"vehicle_type_id":"4","last_reported":1758903147,"current_range_meters":10000,"station_id":"","pricing_plan_id":"cebpf4jnsgd1na2vs0mg"},{"bike_id":"d11e46ec-4d69-4270-b29b-98684b1815bc","system_id":"levelo_inurba_marseille","lat":43.30767,"lon":5.3766,"is_reserved":false,"is_disabled":false,"rental_uris":{"android":"levelo://app?vid=d11e46ec-4d69-4270-b29b-98684b1815bc","ios":"levelo://app?vid=d11e46ec-4d69-4270-b29b-98684b1815bc"},"vehicle_type_id":"4","last_reported":1758903147,"current_range_meters":10000,"station_id":"ce4bgv92rcd13ifvqcq0","pricing_plan_id":"cebpf4jnsgd1na2vs0mg"},{"bike_id":"96d9d290-3482-406b-a187-2a8b12ccabb2","system_id":"levelo_inurba_marseille","lat":43.29003,"lon":5.37138,"is_reserved":false,"is_disabled":false,"rental_uris":{"android":"levelo://app?vid=96d9d290-3482-406b-a187-2a8b12ccabb2","ios":"levelo://app?vid=96d9d290-3482-406b-a187-2a8b12ccabb2"},"vehicle_type_id":"4","last_reported":1758903147,"current_range_meters":10000,"station_id":"","pricing_plan_id":"cebpf4jnsgd1na2vs0mg"},{"bike_id":"da07c8fa-9e57-45c3-bfc9-3c52fb3bcec9","system_id":"levelo_inurba_marseille","lat":43.30207,"lon":5.39465,"is_reserved":false,"is_disabled":false,"rental_uris":{"android":"levelo://app?vid=da07c8fa-9e57-45c3-bfc9-3c52fb3bcec9","ios":"levelo://app?vid=da07c8fa-9e57-45c3-bfc9-3c52fb3bcec9"},"vehicle_type_id":"4","last_reported":1758903147,"current_range_meters":9600,"station_id":"ce4bh0p2rcd13ifvqd70","pricing_plan_id":"cebpf4jnsgd1na2vs0mg"},{"bike_id":"3f15a0d7-b26e-4b10-b4c9-fda50a56bf3d","system_id":"levelo_inurba_marseille","lat":43.29264,"lon":5.38445,"is_reserved":false,"is_disabled":false,"rental_uris":{"android":"levelo://app?vid=3f15a0d7-b26e-4b10-b4c9-fda50a56bf3d","ios":"levelo://app?vid=3f15a0d7-b26e-4b10-b4c9-fda50a56bf3d"},"vehicle_type_id":"4","last_reported":1758903147,"current_range_meters":10000,"station_id":"ce4bh692rcd13ifvqea0","pricing_plan_id":"cebpf4jnsgd1na2vs0mg"},{"bike_id":"465f6d1d-1d91-4137-9241-414fdc83ed72","system_id":"levelo_inurba_marseille","lat":43.22556,"lon":5.41659,"is_reserved":false,"is_disabled":false,"rental_uris":{"android":"levelo://app?vid=465f6d1d-1d91-4137-9241-414fdc83ed72","ios":"levelo://app?vid=465f6d1d-1d91-4137-9241-414fdc83ed72"},"vehicle_type_id":"4","last_reported":1758903147,"current_range_meters":10000,"station_id":"st_d2o4gvlbi1j2169b742g","pricing_plan_id":"cebpf4jnsgd1na2vs0mg"},{"bike_id":"b8837512-3f40-4c82-879b-29a97d07418c","system_id":"levelo_inurba_marseille","lat":43.30556,"lon":5.36547,"is_reserved":false,"is_disabled":false,"rental_uris":{"android":"levelo://app?vid=b8837512-3f40-4c82-879b-29a97d07418c","ios":"levelo://app?vid=b8837512-3f40-4c82-879b-29a97d07418c"},"vehicle_type_id":"4","last_reported":1758903147,"current_range_meters":10000,"station_id":"ce4bgs12rcd13ifvqcag","pricing_plan_id":"cebpf4jnsgd1na2vs0mg"},{"bike_id":"041cd397-24ab-4e04-af23-07b961e161f4","system_id":"levelo_inurba_marseille","lat":43.337444,"lon":5.374475,"is_reserved":false,"is_disabled":false,"rental_uris":{"android":"levelo://app?vid=041cd397-24ab-4e04-af23-07b961e161f4","ios":"levelo://app?vid=041cd397-24ab-4e04-af23-07b961e161f4"},"vehicle_type_id":"4","last_reported":1758903147,"current_range_meters":10000,"station_id":"","pricing_plan_id":"cebpf4jnsgd1na2vs0mg"},{"bike_id":"5cbf67ec-89ba-4741-9c48-e77f1a6e8203","system_id":"levelo_inurba_marseille","lat":43.29275,"lon":5.40113,"is_reserved":false,"is_disabled":false,"rental_uris":{"android":"levelo://app?vid=5cbf67ec-89ba-4741-9c48-e77f1a6e8203","ios":"levelo://app?vid=5cbf67ec-89ba-4741-9c48-e77f1a6e8203"},"vehicle_type_id":"4","last_reported":1758903147,"current_range_meters":10000,"station_id":"ce4bh312rcd13ifvqdk0","pricing_plan_id":"cebpf4jnsgd1na2vs0mg"},{"bike_id":"70b7ea01-eb7d-4ad4-9d7b-08819c9c9cd3","system_id":"levelo_inurba_marseille","lat":43.337444,"lon":5.374475,"is_reserved":false,"is_disabled":true,"rental_uris":{"android":"levelo://app?vid=70b7ea01-eb7d-4ad4-9d7b-08819c9c9cd3","ios":"levelo://app?vid=70b7ea01-eb7d-4ad4-9d7b-08819c9c9cd3"},"vehicle_type_id":"4","last_reported":1758903147,"current_range_meters":10800,"station_id":"ce4bhih2rcd13ifvqfs0","pricing_plan_id":"cebpf4jnsgd1na2vs0mg"},{"bike_id":"0c375b8c-a40e-4773-bb15-c57b61a3f03d","system_id":"levelo_inurba_marseille","lat":43.25729,"lon":5.41111,"is_reserved":false,"is_disabled":false,"rental_uris":{"android":"levelo://app?vid=0c375b8c-a40e-4773-bb15-c57b61a3f03d","ios":"levelo://app?vid=0c375b8c-a40e-4773-bb15-c57b61a3f03d"},"vehicle_type_id":"4","last_reported":1758903147,"current_range_meters":10800,"station_id":"ce4bhkp2rcd13ifvqgd0","pricing_plan_id":"cebpf4jnsgd1na2vs0mg"},{"bike_id":"6f21d50a-a7bf-4c9f-bf5b-506676464e0d","system_id":"levelo_inurba_marseille","lat":43.28853,"lon":5.358591,"is_reserved":false,"is_disabled":false,"rental_uris":{"android":"levelo://app?vid=6f21d50a-a7bf-4c9f-bf5b-506676464e0d","ios":"levelo://app?vid=6f21d50a-a7bf-4c9f-bf5b-506676464e0d"},"vehicle_type_id":"4","last_reported":1758903147,"current_range_meters":10800,"station_id":"ce4bhb12rcd13ifvqem0","pricing_plan_id":"cebpf4jnsgd1na2vs0mg"},{"bike_id":"255e5318-2cf4-4a47-b47c-0eaa1df73586","system_id":"levelo_inurba_marseille","lat":43.30925,"lon":5.40143,"is_reserved":false,"is_disabled":false,"rental_uris":{"android":"levelo://app?vid=255e5318-2cf4-4a47-b47c-0eaa1df73586","ios":"levelo://app?vid=255e5318-2cf4-4a47-b47c-0eaa1df73586"},"vehicle_type_id":"4","last_reported":1758903147,"current_range_meters":10800,"station_id":"ce4bgvp2rcd13ifvqct0","pricing_plan_id":"cebpf4jnsgd1na2vs0mg"},{"bike_id":"fab49cfd-82c8-41f7-b168-3b6986a6ea91","system_id":"levelo_inurba_marseille","lat":43.28025,"lon":5.36956,"is_reserved":false,"is_disabled":false,"rental_uris":{"android":"levelo://app?vid=fab49cfd-82c8-41f7-b168-3b6986a6ea91","ios":"levelo://app?vid=fab49cfd-82c8-41f7-b168-3b6986a6ea91"},"vehicle_type_id":"4","last_reported":1758903147,"current_range_meters":10800,"station_id":"ce4bha12rcd13ifvqef0","pricing_plan_id":"cebpf4jnsgd1na2vs0mg"},{"bike_id":"fd7db3b2-bf6f-47a6-a193-d9e54fb8924d","system_id":"levelo_inurba_marseille","lat":43.32323,"lon":5.39302,"is_reserved":false,"is_disabled":false,"rental_uris":{"android":"levelo://app?vid=fd7db3b2-bf6f-47a6-a193-d9e54fb8924d","ios":"levelo://app?vid=fd7db3b2-bf6f-47a6-a193-d9e54fb8924d"},"vehicle_type_id":"4","last_reported":1758903147,"current_range_meters":11200,"station_id":"","pricing_plan_id":"cebpf4jnsgd1na2vs0mg"},{"bike_id":"f95a2299-afb4-495d-b330-2076edd53232","system_id":"levelo_inurba_marseille","lat":43.33022,"lon":5.39039,"is_reserved":false,"is_disabled":false,"rental_uris":{"android":"levelo://app?vid=f95a2299-afb4-495d-b330-2076edd53232","ios":"levelo://app?vid=f95a2299-afb4-495d-b330-2076edd53232"},"vehicle_type_id":"4","last_reported":1758903147,"current_range_meters":11200,"station_id":"ce4bhr92rcd13ifvqhrg","pricing_plan_id":"cebpf4jnsgd1na2vs0mg"},{"bike_id":"8af06d23-cfa2-4988-bb89-5d4a532d4033","system_id":"levelo_inurba_marseille","lat":43.25497,"lon":5.37657,"is_reserved":false,"is_disabled":false,"rental_uris":{"android":"levelo://app?vid=8af06d23-cfa2-4988-bb89-5d4a532d4033","ios":"levelo://app?vid=8af06d23-cfa2-4988-bb89-5d4a532d4033"},"vehicle_type_id":"4","last_reported":1758903147,"current_range_meters":11600,"station_id":"ce4bhh12rcd13ifvqff0","pricing_plan_id":"cebpf4jnsgd1na2vs0mg"},{"bike_id":"75611fb7-df45-4d9f-9db0-a181136cc424","system_id":"levelo_inurba_marseille","lat":43.21747,"lon":5.34596,"is_reserved":false,"is_disabled":true,"rental_uris":{"android":"levelo://app?vid=75611fb7-df45-4d9f-9db0-a181136cc424","ios":"levelo://app?vid=75611fb7-df45-4d9f-9db0-a181136cc424"},"vehicle_type_id":"4","last_reported":1758903147,"current_range_meters":11600,"station_id":"st_cvj6r9ubvosntc0bgbag","pricing_plan_id":"cebpf4jnsgd1na2vs0mg"},{"bike_id":"5f4c1771-3ea2-496d-9dfd-4cacd704caac","system_id":"levelo_inurba_marseille","lat":43.28604,"lon":5.35103,"is_reserved":false,"is_disabled":false,"rental_uris":{"android":"levelo://app?vid=5f4c1771-3ea2-496d-9dfd-4cacd704caac","ios":"levelo://app?vid=5f4c1771-3ea2-496d-9dfd-4cacd704caac"},"vehicle_type_id":"4","last_reported":1758903147,"current_range_meters":11600,"station_id":"ce4bhch2rcd13ifvqeug","pricing_plan_id":"cebpf4jnsgd1na2vs0mg"},{"bike_id":"28ee5d7a-1783-4e0f-884f-c67349773ece","system_id":"levelo_inurba_marseille","lat":43.29793,"lon":5.40412,"is_reserved":false,"is_disabled":false,"rental_uris":{"android":"levelo://app?vid=28ee5d7a-1783-4e0f-884f-c67349773ece","ios":"levelo://app?vid=28ee5d7a-1783-4e0f-884f-c67349773ece"},"vehicle_type_id":"4","last_reported":1758903147,"current_range_meters":11200,"station_id":"ce4bh112rcd13ifvqd90","pricing_plan_id":"cebpf4jnsgd1na2vs0mg"},{"bike_id":"b0934032-3d3c-44e1-985e-e72b8cee3491","system_id":"levelo_inurba_marseille","lat":43.24645,"lon":5.43169,"is_reserved":false,"is_disabled":false,"rental_uris":{"android":"levelo://app?vid=b0934032-3d3c-44e1-985e-e72b8cee3491","ios":"levelo://app?vid=b0934032-3d3c-44e1-985e-e72b8cee3491"},"vehicle_type_id":"4","last_reported":1758903147,"current_range_meters":11600,"station_id":"st_d2m6c4gdas8pm72e190g","pricing_plan_id":"cebpf4jnsgd1na2vs0mg"},{"bike_id":"b01b5bc6-6834-41fb-be97-f5b6fb7e9ec8","system_id":"levelo_inurba_marseille","lat":43.26303,"lon":5.39838,"is_reserved":false,"is_disabled":false,"rental_uris":{"android":"levelo://app?vid=b01b5bc6-6834-41fb-be97-f5b6fb7e9ec8","ios":"levelo://app?vid=b01b5bc6-6834-41fb-be97-f5b6fb7e9ec8"},"vehicle_type_id":"4","last_reported":1758903147,"current_range_meters":11600,"station_id":"","pricing_plan_id":"cebpf4jnsgd1na2vs0mg"},{"bike_id":"0f426c84-5d0e-4899-8845-2d0d1ed79e35","system_id":"levelo_inurba_marseille","lat":43.24384,"lon":5.37055,"is_reserved":false,"is_disabled":false,"rental_uris":{"android":"levelo://app?vid=0f426c84-5d0e-4899-8845-2d0d1ed79e35","ios":"levelo://app?vid=0f426c84-5d0e-4899-8845-2d0d1ed79e35"},"vehicle_type_id":"4","last_reported":1758903147,"current_range_meters":11600,"station_id":"ce4bhhh2rcd13ifvqfk0","pricing_plan_id":"cebpf4jnsgd1na2vs0mg"},{"bike_id":"c73d0f42-1d6e-4200-9c7f-4707365bac70","system_id":"levelo_inurba_marseille","lat":43.27055,"lon":5.42279,"is_reserved":false,"is_disabled":false,"rental_uris":{"android":"levelo://app?vid=c73d0f42-1d6e-4200-9c7f-4707365bac70","ios":"levelo://app?vid=c73d0f42-1d6e-4200-9c7f-4707365bac70"},"vehicle_type_id":"4","last_reported":1758903147,"current_range_meters":11600,"station_id":"ce4bhk92rcd13ifvqgb0","pricing_plan_id":"cebpf4jnsgd1na2vs0mg"},{"bike_id":"6f819b3a-9da1-4290-94ee-3824b254c67c","system_id":"levelo_inurba_marseille","lat":43.28853,"lon":5.35851,"is_reserved":false,"is_disabled":false,"rental_uris":{"android":"levelo://app?vid=6f819b3a-9da1-4290-94ee-3824b254c67c","ios":"levelo://app?vid=6f819b3a-9da1-4290-94ee-3824b254c67c"},"vehicle_type_id":"4","last_reported":1758903147,"current_range_meters":11600,"station_id":"ce4bhb12rcd13ifvqem0","pricing_plan_id":"cebpf4jnsgd1na2vs0mg"},{"bike_id":"8f706f1a-ec18-47ab-bfbb-7861d458f607","system_id":"levelo_inurba_marseille","lat":43.29522,"lon":5.39047,"is_reserved":false,"is_disabled":false,"rental_uris":{"android":"levelo://app?vid=8f706f1a-ec18-47ab-bfbb-7861d458f607","ios":"levelo://app?vid=8f706f1a-ec18-47ab-bfbb-7861d458f607"},"vehicle_type_id":"4","last_reported":1758903147,"current_range_meters":11600,"station_id":"ce4bh3p2rcd13ifvqdp0","pricing_plan_id":"cebpf4jnsgd1na2vs0mg"},{"bike_id":"a57b3feb-2354-42fe-87fd-e8fcee3a0260","system_id":"levelo_inurba_marseille","lat":43.26953,"lon":5.40241,"is_reserved":false,"is_disabled":false,"rental_uris":{"android":"levelo://app?vid=a57b3feb-2354-42fe-87fd-e8fcee3a0260","ios":"levelo://app?vid=a57b3feb-2354-42fe-87fd-e8fcee3a0260"},"vehicle_type_id":"4","last_reported":1758903147,"current_range_meters":11600,"station_id":"","pricing_plan_id":"cebpf4jnsgd1na2vs0mg"},{"bike_id":"ed9c1b6f-0cc7-47fb-a193-bb02351072ff","system_id":"levelo_inurba_marseille","lat":43.254958,"lon":5.376427,"is_reserved":false,"is_disabled":false,"rental_uris":{"android":"levelo://app?vid=ed9c1b6f-0cc7-47fb-a193-bb02351072ff","ios":"levelo://app?vid=ed9c1b6f-0cc7-47fb-a193-bb02351072ff"},"vehicle_type_id":"4","last_reported":1758903147,"current_range_meters":12000,"station_id":"","pricing_plan_id":"cebpf4jnsgd1na2vs0mg"},{"bike_id":"7266fb39-452a-4e7f-aafa-8725c9c5d955","system_id":"levelo_inurba_marseille","lat":43.27176,"lon":5.40999,"is_reserved":false,"is_disabled":false,"rental_uris":{"android":"levelo://app?vid=7266fb39-452a-4e7f-aafa-8725c9c5d955","ios":"levelo://app?vid=7266fb39-452a-4e7f-aafa-8725c9c5d955"},"vehicle_type_id":"4","last_reported":1758903147,"current_range_meters":12000,"station_id":"ce4bhl12rcd13ifvqgf0","pricing_plan_id":"cebpf4jnsgd1na2vs0mg"},{"bike_id":"abe713d0-d86a-404b-8c3c-7601ece44db8","system_id":"levelo_inurba_marseille","lat":43.27672,"lon":5.38893,"is_reserved":false,"is_disabled":false,"rental_uris":{"android":"levelo://app?vid=abe713d0-d86a-404b-8c3c-7601ece44db8","ios":"levelo://app?vid=abe713d0-d86a-404b-8c3c-7601ece44db8"},"vehicle_type_id":"4","last_reported":1758903147,"current_range_meters":12000,"station_id":"","pricing_plan_id":"cebpf4jnsgd1na2vs0mg"},{"bike_id":"450f9db2-4f81-4cda-9485-e62b3a241398","system_id":"levelo_inurba_marseille","lat":43.30544,"lon":5.36534,"is_reserved":false,"is_disabled":false,"rental_uris":{"android":"levelo://app?vid=450f9db2-4f81-4cda-9485-e62b3a241398","ios":"levelo://app?vid=450f9db2-4f81-4cda-9485-e62b3a241398"},"vehicle_type_id":"4","last_reported":1758903147,"current_range_meters":12000,"station_id":"ce4bgs12rcd13ifvqcag","pricing_plan_id":"cebpf4jnsgd1na2vs0mg"},{"bike_id":"8fb6b312-30ed-4765-90d6-32ed783bc889","system_id":"levelo_inurba_marseille","lat":43.2996,"lon":5.41327,"is_reserved":false,"is_disabled":true,"rental_uris":{"android":"levelo://app?vid=8fb6b312-30ed-4765-90d6-32ed783bc889","ios":"levelo://app?vid=8fb6b312-30ed-4765-90d6-32ed783bc889"},"vehicle_type_id":"4","last_reported":1758903147,"current_range_meters":12000,"station_id":"ce4bhp12rcd13ifvqh9g","pricing_plan_id":"cebpf4jnsgd1na2vs0mg"},{"bike_id":"c975862c-3721-4ac1-a6a4-5b86cf0364aa","system_id":"levelo_inurba_marseille","lat":43.21192,"lon":5.35065,"is_reserved":false,"is_disabled":false,"rental_uris":{"android":"levelo://app?vid=c975862c-3721-4ac1-a6a4-5b86cf0364aa","ios":"levelo://app?vid=c975862c-3721-4ac1-a6a4-5b86cf0364aa"},"vehicle_type_id":"4","last_reported":1758903147,"current_range_meters":12000,"station_id":"st_cvj6sg6p6f1abm77japg","pricing_plan_id":"cebpf4jnsgd1na2vs0mg"},{"bike_id":"a639c491-c436-478a-8d5d-bd2c30b918ff","system_id":"levelo_inurba_marseille","lat":43.2974,"lon":5.37219,"is_reserved":false,"is_disabled":false,"rental_uris":{"android":"levelo://app?vid=a639c491-c436-478a-8d5d-bd2c30b918ff","ios":"levelo://app?vid=a639c491-c436-478a-8d5d-bd2c30b918ff"},"vehicle_type_id":"4","last_reported":1758903147,"current_range_meters":12000,"station_id":"","pricing_plan_id":"cebpf4jnsgd1na2vs0mg"},{"bike_id":"8baeac13-7e80-456d-83aa-12e0372d0df5","system_id":"levelo_inurba_marseille","lat":43.324975,"lon":5.375865,"is_reserved":false,"is_disabled":false,"rental_uris":{"android":"levelo://app?vid=8baeac13-7e80-456d-83aa-12e0372d0df5","ios":"levelo://app?vid=8baeac13-7e80-456d-83aa-12e0372d0df5"},"vehicle_type_id":"4","last_reported":1758903147,"current_range_meters":12000,"station_id":"","pricing_plan_id":"cebpf4jnsgd1na2vs0mg"},{"bike_id":"280349c2-7d75-4732-844a-272770d12d07","system_id":"levelo_inurba_marseille","lat":43.24965,"lon":5.40506,"is_reserved":false,"is_disabled":false,"rental_uris":{"android":"levelo://app?vid=280349c2-7d75-4732-844a-272770d12d07","ios":"levelo://app?vid=280349c2-7d75-4732-844a-272770d12d07"},"vehicle_type_id":"4","last_reported":1758903147,"current_range_meters":12400,"station_id":"st_d2ngiaodas8pm72gd1h0","pricing_plan_id":"cebpf4jnsgd1na2vs0mg"},{"bike_id":"0770d4b1-436d-4cbf-b8ce-db69f37efbc4","system_id":"levelo_inurba_marseille","lat":43.231323,"lon":5.436917,"is_reserved":false,"is_disabled":false,"rental_uris":{"android":"levelo://app?vid=0770d4b1-436d-4cbf-b8ce-db69f37efbc4","ios":"levelo://app?vid=0770d4b1-436d-4cbf-b8ce-db69f37efbc4"},"vehicle_type_id":"4","last_reported":1758903147,"current_range_meters":12400,"station_id":"ce4bhmp2rcd13ifvqgog","pricing_plan_id":"cebpf4jnsgd1na2vs0mg"},{"bike_id":"f5d82c6a-a16a-4ea5-8f46-05c25b3b47a6","system_id":"levelo_inurba_marseille","lat":43.27825,"lon":5.40726,"is_reserved":false,"is_disabled":false,"rental_uris":{"android":"levelo://app?vid=f5d82c6a-a16a-4ea5-8f46-05c25b3b47a6","ios":"levelo://app?vid=f5d82c6a-a16a-4ea5-8f46-05c25b3b47a6"},"vehicle_type_id":"4","last_reported":1758903147,"current_range_meters":12400,"station_id":"ce4bhnh2rcd13ifvqgtg","pricing_plan_id":"cebpf4jnsgd1na2vs0mg"},{"bike_id":"5d944089-7d4d-485d-8e5e-fe9c9b3dd7de","system_id":"levelo_inurba_marseille","lat":43.22557,"lon":5.41621,"is_reserved":false,"is_disabled":false,"rental_uris":{"android":"levelo://app?vid=5d944089-7d4d-485d-8e5e-fe9c9b3dd7de","ios":"levelo://app?vid=5d944089-7d4d-485d-8e5e-fe9c9b3dd7de"},"vehicle_type_id":"4","last_reported":1758903147,"current_range_meters":12400,"station_id":"st_d2o4gvlbi1j2169b742g","pricing_plan_id":"cebpf4jnsgd1na2vs0mg"},{"bike_id":"ac0bb70d-7afa-4829-be2b-e33d03f18a20","system_id":"levelo_inurba_marseille","lat":43.27071,"lon":5.402761,"is_reserved":false,"is_disabled":false,"rental_uris":{"android":"levelo://app?vid=ac0bb70d-7afa-4829-be2b-e33d03f18a20","ios":"levelo://app?vid=ac0bb70d-7afa-4829-be2b-e33d03f18a20"},"vehicle_type_id":"4","last_reported":1758903147,"current_range_meters":12400,"station_id":"ce4bhk92rcd13ifvqgc0","pricing_plan_id":"cebpf4jnsgd1na2vs0mg"},{"bike_id":"6052b6fb-e998-4b61-a341-0704e9ef7ebb","system_id":"levelo_inurba_marseille","lat":43.29171,"lon":5.37144,"is_reserved":false,"is_disabled":false,"rental_uris":{"android":"levelo://app?vid=6052b6fb-e998-4b61-a341-0704e9ef7ebb","ios":"levelo://app?vid=6052b6fb-e998-4b61-a341-0704e9ef7ebb"},"vehicle_type_id":"4","last_reported":1758903147,"current_range_meters":12800,"station_id":"ce4bha92rcd13ifvqeh0","pricing_plan_id":"cebpf4jnsgd1na2vs0mg"},{"bike_id":"df649d25-1f44-4471-8cdd-9566da8ef9b9","system_id":"levelo_inurba_marseille","lat":43.32154,"lon":5.38646,"is_reserved":false,"is_disabled":false,"rental_uris":{"android":"levelo://app?vid=df649d25-1f44-4471-8cdd-9566da8ef9b9","ios":"levelo://app?vid=df649d25-1f44-4471-8cdd-9566da8ef9b9"},"vehicle_type_id":"4","last_reported":1758903147,"current_range_meters":12800,"station_id":"","pricing_plan_id":"cebpf4jnsgd1na2vs0mg"},{"bike_id":"f9e21fc1-be7d-42a8-9eff-6458e73f3db9","system_id":"levelo_inurba_marseille","lat":43.32357,"lon":5.36721,"is_reserved":false,"is_disabled":false,"rental_uris":{"android":"levelo://app?vid=f9e21fc1-be7d-42a8-9eff-6458e73f3db9","ios":"levelo://app?vid=f9e21fc1-be7d-42a8-9eff-6458e73f3db9"},"vehicle_type_id":"4","last_reported":1758903147,"current_range_meters":12800,"station_id":"ce4bhsh2rcd13ifvqi2g","pricing_plan_id":"cebpf4jnsgd1na2vs0mg"},{"bike_id":"8875bdbe-f398-4765-835c-45b69d365d2e","system_id":"levelo_inurba_marseille","lat":43.303298,"lon":5.404348,"is_reserved":false,"is_disabled":false,"rental_uris":{"android":"levelo://app?vid=8875bdbe-f398-4765-835c-45b69d365d2e","ios":"levelo://app?vid=8875bdbe-f398-4765-835c-45b69d365d2e"},"vehicle_type_id":"4","last_reported":1758903147,"current_range_meters":13600,"station_id":"ce4bh012rcd13ifvqd10","pricing_plan_id":"cebpf4jnsgd1na2vs0mg"},{"bike_id":"45e07bae-690f-4ff3-a8bd-511d32841972","system_id":"levelo_inurba_marseille","lat":43.25111,"lon":5.40328,"is_reserved":false,"is_disabled":false,"rental_uris":{"android":"levelo://app?vid=45e07bae-690f-4ff3-a8bd-511d32841972","ios":"levelo://app?vid=45e07bae-690f-4ff3-a8bd-511d32841972"},"vehicle_type_id":"4","last_reported":1758903147,"current_range_meters":13600,"station_id":"ce4bhlh2rcd13ifvqgig","pricing_plan_id":"cebpf4jnsgd1na2vs0mg"},{"bike_id":"fd18a301-a9dd-4600-afce-c6b935fa8b40","system_id":"levelo_inurba_marseille","lat":43.26179,"lon":5.37459,"is_reserved":false,"is_disabled":false,"rental_uris":{"android":"levelo://app?vid=fd18a301-a9dd-4600-afce-c6b935fa8b40","ios":"levelo://app?vid=fd18a301-a9dd-4600-afce-c6b935fa8b40"},"vehicle_type_id":"4","last_reported":1758903147,"current_range_meters":13600,"station_id":"ce4bhgp2rcd13ifvqfc0","pricing_plan_id":"cebpf4jnsgd1na2vs0mg"},{"bike_id":"08292ac0-f4a0-4778-9703-5ac015ee1e3a","system_id":"levelo_inurba_marseille","lat":43.24634,"lon":5.43148,"is_reserved":false,"is_disabled":false,"rental_uris":{"android":"levelo://app?vid=08292ac0-f4a0-4778-9703-5ac015ee1e3a","ios":"levelo://app?vid=08292ac0-f4a0-4778-9703-5ac015ee1e3a"},"vehicle_type_id":"4","last_reported":1758903147,"current_range_meters":13600,"station_id":"st_d2m6c4gdas8pm72e190g","pricing_plan_id":"cebpf4jnsgd1na2vs0mg"},{"bike_id":"0b01e881-a275-45eb-a15a-645add1561c8","system_id":"levelo_inurba_marseille","lat":43.2861,"lon":5.3511,"is_reserved":false,"is_disabled":false,"rental_uris":{"android":"levelo://app?vid=0b01e881-a275-45eb-a15a-645add1561c8","ios":"levelo://app?vid=0b01e881-a275-45eb-a15a-645add1561c8"},"vehicle_type_id":"4","last_reported":1758903147,"current_range_meters":13600,"station_id":"ce4bhch2rcd13ifvqeug","pricing_plan_id":"cebpf4jnsgd1na2vs0mg"},{"bike_id":"f59933d2-584b-4d31-b540-f48162f472e1","system_id":"levelo_inurba_marseille","lat":43.28605,"lon":5.35092,"is_reserved":false,"is_disabled":false,"rental_uris":{"android":"levelo://app?vid=f59933d2-584b-4d31-b540-f48162f472e1","ios":"levelo://app?vid=f59933d2-584b-4d31-b540-f48162f472e1"},"vehicle_type_id":"4","last_reported":1758903147,"current_range_meters":13600,"station_id":"ce4bhch2rcd13ifvqeug","pricing_plan_id":"cebpf4jnsgd1na2vs0mg"},{"bike_id":"08fe2b08-b3fa-43f8-ae73-04061f76318d","system_id":"levelo_inurba_marseille","lat":43.305552,"lon":5.365395,"is_reserved":false,"is_disabled":false,"rental_uris":{"android":"levelo://app?vid=08fe2b08-b3fa-43f8-ae73-04061f76318d","ios":"levelo://app?vid=08fe2b08-b3fa-43f8-ae73-04061f76318d"},"vehicle_type_id":"4","last_reported":1758903147,"current_range_meters":13600,"station_id":"","pricing_plan_id":"cebpf4jnsgd1na2vs0mg"},{"bike_id":"5ed055a6-9710-4bbb-a375-9b0844fec6bf","system_id":"levelo_inurba_marseille","lat":43.243863,"lon":5.370614,"is_reserved":false,"is_disabled":false,"rental_uris":{"android":"levelo://app?vid=5ed055a6-9710-4bbb-a375-9b0844fec6bf","ios":"levelo://app?vid=5ed055a6-9710-4bbb-a375-9b0844fec6bf"},"vehicle_type_id":"4","last_reported":1758903147,"current_range_meters":13600,"station_id":"ce4bhhh2rcd13ifvqfk0","pricing_plan_id":"cebpf4jnsgd1na2vs0mg"},{"bike_id":"10b8d871-07e9-4114-9eb9-6bcce40e7beb","system_id":"levelo_inurba_marseille","lat":43.27045,"lon":5.392226,"is_reserved":false,"is_disabled":false,"rental_uris":{"android":"levelo://app?vid=10b8d871-07e9-4114-9eb9-6bcce40e7beb","ios":"levelo://app?vid=10b8d871-07e9-4114-9eb9-6bcce40e7beb"},"vehicle_type_id":"4","last_reported":1758903147,"current_range_meters":13600,"station_id":"ce4bhe12rcd13ifvqf30","pricing_plan_id":"cebpf4jnsgd1na2vs0mg"},{"bike_id":"fec5b8ed-6d11-4e3b-9e1f-02fe2efa2ffa","system_id":"levelo_inurba_marseille","lat":43.29297,"lon":5.37171,"is_reserved":false,"is_disabled":false,"rental_uris":{"android":"levelo://app?vid=fec5b8ed-6d11-4e3b-9e1f-02fe2efa2ffa","ios":"levelo://app?vid=fec5b8ed-6d11-4e3b-9e1f-02fe2efa2ffa"},"vehicle_type_id":"4","last_reported":1758903147,"current_range_meters":12800,"station_id":"ce4bgh92rcd13ifvqb40","pricing_plan_id":"cebpf4jnsgd1na2vs0mg"},{"bike_id":"9a4f92ed-e086-4038-a651-bbe0613f80bd","system_id":"levelo_inurba_marseille","lat":43.22572,"lon":5.41623,"is_reserved":false,"is_disabled":false,"rental_uris":{"android":"levelo://app?vid=9a4f92ed-e086-4038-a651-bbe0613f80bd","ios":"levelo://app?vid=9a4f92ed-e086-4038-a651-bbe0613f80bd"},"vehicle_type_id":"4","last_reported":1758903147,"current_range_meters":14000,"station_id":"st_d2o4gvlbi1j2169b742g","pricing_plan_id":"cebpf4jnsgd1na2vs0mg"},{"bike_id":"6e45500f-0918-4d5c-9e69-8146e3a26a1a","system_id":"levelo_inurba_marseille","lat":43.267944,"lon":5.394169,"is_reserved":false,"is_disabled":false,"rental_uris":{"android":"levelo://app?vid=6e45500f-0918-4d5c-9e69-8146e3a26a1a","ios":"levelo://app?vid=6e45500f-0918-4d5c-9e69-8146e3a26a1a"},"vehicle_type_id":"4","last_reported":1758903147,"current_range_meters":14000,"station_id":"ce4bhh12rcd13ifvqfg0","pricing_plan_id":"cebpf4jnsgd1na2vs0mg"},{"bike_id":"2e758b38-5549-493c-8969-2eff11757875","system_id":"levelo_inurba_marseille","lat":43.279045,"lon":5.380174,"is_reserved":false,"is_disabled":false,"rental_uris":{"android":"levelo://app?vid=2e758b38-5549-493c-8969-2eff11757875","ios":"levelo://app?vid=2e758b38-5549-493c-8969-2eff11757875"},"vehicle_type_id":"4","last_reported":1758903147,"current_range_meters":14000,"station_id":"ce4bhf92rcd13ifvqf50","pricing_plan_id":"cebpf4jnsgd1na2vs0mg"},{"bike_id":"4407f0c7-f8f2-44c4-b16c-74d5984e3278","system_id":"levelo_inurba_marseille","lat":43.25577,"lon":5.38242,"is_reserved":false,"is_disabled":true,"rental_uris":{"android":"levelo://app?vid=4407f0c7-f8f2-44c4-b16c-74d5984e3278","ios":"levelo://app?vid=4407f0c7-f8f2-44c4-b16c-74d5984e3278"},"vehicle_type_id":"4","last_reported":1758903147,"current_range_meters":14000,"station_id":"ce4bhih2rcd13ifvqfs0","pricing_plan_id":"cebpf4jnsgd1na2vs0mg"},{"bike_id":"ec609583-5d3c-46f4-9f0d-7dd0418a7608","system_id":"levelo_inurba_marseille","lat":43.22925,"lon":5.35383,"is_reserved":false,"is_disabled":false,"rental_uris":{"android":"levelo://app?vid=ec609583-5d3c-46f4-9f0d-7dd0418a7608","ios":"levelo://app?vid=ec609583-5d3c-46f4-9f0d-7dd0418a7608"},"vehicle_type_id":"4","last_reported":1758903147,"current_range_meters":14000,"station_id":"cpo3532slgdg3j2ikp40","pricing_plan_id":"cebpf4jnsgd1na2vs0mg"},{"bike_id":"fee74e98-eb52-4f66-a612-109c75f34aa6","system_id":"levelo_inurba_marseille","lat":43.29595,"lon":5.37942,"is_reserved":false,"is_disabled":false,"rental_uris":{"android":"levelo://app?vid=fee74e98-eb52-4f66-a612-109c75f34aa6","ios":"levelo://app?vid=fee74e98-eb52-4f66-a612-109c75f34aa6"},"vehicle_type_id":"4","last_reported":1758903147,"current_range_meters":14000,"station_id":"","pricing_plan_id":"cebpf4jnsgd1na2vs0mg"},{"bike_id":"ca96a3e0-f7dd-4444-9d87-61fcc21da76d","system_id":"levelo_inurba_marseille","lat":43.24658,"lon":5.38173,"is_reserved":false,"is_disabled":false,"rental_uris":{"android":"levelo://app?vid=ca96a3e0-f7dd-4444-9d87-61fcc21da76d","ios":"levelo://app?vid=ca96a3e0-f7dd-4444-9d87-61fcc21da76d"},"vehicle_type_id":"4","last_reported":1758903147,"current_range_meters":14400,"station_id":"ce4bhih2rcd13ifvqfr0","pricing_plan_id":"cebpf4jnsgd1na2vs0mg"},{"bike_id":"83e2f873-66af-4908-9439-07c06a2b0212","system_id":"levelo_inurba_marseille","lat":43.299624,"lon":5.384915,"is_reserved":false,"is_disabled":false,"rental_uris":{"android":"levelo://app?vid=83e2f873-66af-4908-9439-07c06a2b0212","ios":"levelo://app?vid=83e2f873-66af-4908-9439-07c06a2b0212"},"vehicle_type_id":"4","last_reported":1758903147,"current_range_meters":14400,"station_id":"ce4bgj92rcd13ifvqbd0","pricing_plan_id":"cebpf4jnsgd1na2vs0mg"},{"bike_id":"f626f457-0696-4e32-af9e-687030f53c6d","system_id":"levelo_inurba_marseille","lat":43.33764,"lon":5.37477,"is_reserved":false,"is_disabled":false,"rental_uris":{"android":"levelo://app?vid=f626f457-0696-4e32-af9e-687030f53c6d","ios":"levelo://app?vid=f626f457-0696-4e32-af9e-687030f53c6d"},"vehicle_type_id":"4","last_reported":1758903147,"current_range_meters":14400,"station_id":"","pricing_plan_id":"cebpf4jnsgd1na2vs0mg"},{"bike_id":"6dacd337-663c-4bb9-9da1-b012fa0d2fa0","system_id":"levelo_inurba_marseille","lat":43.30765,"lon":5.37643,"is_reserved":false,"is_disabled":false,"rental_uris":{"android":"levelo://app?vid=6dacd337-663c-4bb9-9da1-b012fa0d2fa0","ios":"levelo://app?vid=6dacd337-663c-4bb9-9da1-b012fa0d2fa0"},"vehicle_type_id":"4","last_reported":1758903147,"current_range_meters":14400,"station_id":"ce4bgv92rcd13ifvqcq0","pricing_plan_id":"cebpf4jnsgd1na2vs0mg"},{"bike_id":"d83db798-4585-4d56-9103-401f9923a77e","system_id":"levelo_inurba_marseille","lat":43.30785,"lon":5.37646,"is_reserved":false,"is_disabled":false,"rental_uris":{"android":"levelo://app?vid=d83db798-4585-4d56-9103-401f9923a77e","ios":"levelo://app?vid=d83db798-4585-4d56-9103-401f9923a77e"},"vehicle_type_id":"4","last_reported":1758903147,"current_range_meters":14400,"station_id":"ce4bgv92rcd13ifvqcq0","pricing_plan_id":"cebpf4jnsgd1na2vs0mg"},{"bike_id":"6b0977a8-c71a-4587-88b3-a1754920bfe4","system_id":"levelo_inurba_marseille","lat":43.29255,"lon":5.38452,"is_reserved":false,"is_disabled":false,"rental_uris":{"android":"levelo://app?vid=6b0977a8-c71a-4587-88b3-a1754920bfe4","ios":"levelo://app?vid=6b0977a8-c71a-4587-88b3-a1754920bfe4"},"vehicle_type_id":"4","last_reported":1758903147,"current_range_meters":14400,"station_id":"ce4bh692rcd13ifvqea0","pricing_plan_id":"cebpf4jnsgd1na2vs0mg"},{"bike_id":"c91aa95c-ae83-4f8a-bef3-89f188e39bfa","system_id":"levelo_inurba_marseille","lat":43.22557,"lon":5.4166,"is_reserved":false,"is_disabled":false,"rental_uris":{"android":"levelo://app?vid=c91aa95c-ae83-4f8a-bef3-89f188e39bfa","ios":"levelo://app?vid=c91aa95c-ae83-4f8a-bef3-89f188e39bfa"},"vehicle_type_id":"4","last_reported":1758903147,"current_range_meters":14400,"station_id":"st_d2o4gvlbi1j2169b742g","pricing_plan_id":"cebpf4jnsgd1na2vs0mg"},{"bike_id":"cc308d4b-781b-48fb-b540-f0f5365dabd7","system_id":"levelo_inurba_marseille","lat":43.30129,"lon":5.39877,"is_reserved":false,"is_disabled":false,"rental_uris":{"android":"levelo://app?vid=cc308d4b-781b-48fb-b540-f0f5365dabd7","ios":"levelo://app?vid=cc308d4b-781b-48fb-b540-f0f5365dabd7"},"vehicle_type_id":"4","last_reported":1758903147,"current_range_meters":14400,"station_id":"ce4bh0h2rcd13ifvqd40","pricing_plan_id":"cebpf4jnsgd1na2vs0mg"},{"bike_id":"3de9ff26-12fd-4eaa-ae1f-e7dae8625fda","system_id":"levelo_inurba_marseille","lat":43.25833,"lon":5.39432,"is_reserved":false,"is_disabled":false,"rental_uris":{"android":"levelo://app?vid=3de9ff26-12fd-4eaa-ae1f-e7dae8625fda","ios":"levelo://app?vid=3de9ff26-12fd-4eaa-ae1f-e7dae8625fda"},"vehicle_type_id":"4","last_reported":1758903147,"current_range_meters":14400,"station_id":"ce4bhip2rcd13ifvqft0","pricing_plan_id":"cebpf4jnsgd1na2vs0mg"},{"bike_id":"caca043d-62fa-409d-9d28-cf0cdfaca1f3","system_id":"levelo_inurba_marseille","lat":43.27364,"lon":5.36233,"is_reserved":false,"is_disabled":false,"rental_uris":{"android":"levelo://app?vid=caca043d-62fa-409d-9d28-cf0cdfaca1f3","ios":"levelo://app?vid=caca043d-62fa-409d-9d28-cf0cdfaca1f3"},"vehicle_type_id":"4","last_reported":1758903147,"current_range_meters":14800,"station_id":"ce4bhbh2rcd13ifvqeo0","pricing_plan_id":"cebpf4jnsgd1na2vs0mg"},{"bike_id":"2b9df694-33bc-43ab-8f94-5e4f9e474bed","system_id":"levelo_inurba_marseille","lat":43.29163,"lon":5.37162,"is_reserved":false,"is_disabled":false,"rental_uris":{"android":"levelo://app?vid=2b9df694-33bc-43ab-8f94-5e4f9e474bed","ios":"levelo://app?vid=2b9df694-33bc-43ab-8f94-5e4f9e474bed"},"vehicle_type_id":"4","last_reported":1758903147,"current_range_meters":14800,"station_id":"ce4bha92rcd13ifvqeh0","pricing_plan_id":"cebpf4jnsgd1na2vs0mg"},{"bike_id":"de3747e9-e37c-4cdb-ad1a-9f67e8a91990","system_id":"levelo_inurba_marseille","lat":43.23178,"lon":5.39996,"is_reserved":false,"is_disabled":false,"rental_uris":{"android":"levelo://app?vid=de3747e9-e37c-4cdb-ad1a-9f67e8a91990","ios":"levelo://app?vid=de3747e9-e37c-4cdb-ad1a-9f67e8a91990"},"vehicle_type_id":"4","last_reported":1758903147,"current_range_meters":14800,"station_id":"ce4bhn12rcd13ifvqgqg","pricing_plan_id":"cebpf4jnsgd1na2vs0mg"},{"bike_id":"2a416e7a-1803-402e-9523-74bfe690bd54","system_id":"levelo_inurba_marseille","lat":43.32365,"lon":5.36767,"is_reserved":false,"is_disabled":false,"rental_uris":{"android":"levelo://app?vid=2a416e7a-1803-402e-9523-74bfe690bd54","ios":"levelo://app?vid=2a416e7a-1803-402e-9523-74bfe690bd54"},"vehicle_type_id":"4","last_reported":1758903147,"current_range_meters":14800,"station_id":"ce4bhsh2rcd13ifvqi2g","pricing_plan_id":"cebpf4jnsgd1na2vs0mg"},{"bike_id":"d1dd0765-487a-43cc-96f3-e34a2c8bcbf9","system_id":"levelo_inurba_marseille","lat":43.30925,"lon":5.40144,"is_reserved":false,"is_disabled":false,"rental_uris":{"android":"levelo://app?vid=d1dd0765-487a-43cc-96f3-e34a2c8bcbf9","ios":"levelo://app?vid=d1dd0765-487a-43cc-96f3-e34a2c8bcbf9"},"vehicle_type_id":"4","last_reported":1758903147,"current_range_meters":14800,"station_id":"ce4bgvp2rcd13ifvqct0","pricing_plan_id":"cebpf4jnsgd1na2vs0mg"},{"bike_id":"cf4f79e4-7898-4cbb-8fea-ed19fab6eadf","system_id":"levelo_inurba_marseille","lat":43.29701,"lon":5.37691,"is_reserved":false,"is_disabled":false,"rental_uris":{"android":"levelo://app?vid=cf4f79e4-7898-4cbb-8fea-ed19fab6eadf","ios":"levelo://app?vid=cf4f79e4-7898-4cbb-8fea-ed19fab6eadf"},"vehicle_type_id":"4","last_reported":1758903147,"current_range_meters":15200,"station_id":"ce4bgkh2rcd13ifvqbl0","pricing_plan_id":"cebpf4jnsgd1na2vs0mg"},{"bike_id":"ca52df4d-ee6b-4a14-87cf-4453a3b3e134","system_id":"levelo_inurba_marseille","lat":43.31325,"lon":5.39689,"is_reserved":false,"is_disabled":false,"rental_uris":{"android":"levelo://app?vid=ca52df4d-ee6b-4a14-87cf-4453a3b3e134","ios":"levelo://app?vid=ca52df4d-ee6b-4a14-87cf-4453a3b3e134"},"vehicle_type_id":"4","last_reported":1758903147,"current_range_meters":15200,"station_id":"ce4bgvp2rcd13ifvqcu0","pricing_plan_id":"cebpf4jnsgd1na2vs0mg"},{"bike_id":"63d52c35-c9c9-44eb-9780-1b2f9145123b","system_id":"levelo_inurba_marseille","lat":43.29627,"lon":5.377037,"is_reserved":false,"is_disabled":false,"rental_uris":{"android":"levelo://app?vid=63d52c35-c9c9-44eb-9780-1b2f9145123b","ios":"levelo://app?vid=63d52c35-c9c9-44eb-9780-1b2f9145123b"},"vehicle_type_id":"4","last_reported":1758903147,"current_range_meters":15200,"station_id":"","pricing_plan_id":"cebpf4jnsgd1na2vs0mg"},{"bike_id":"85782661-163d-4a8b-b5a4-1f0a766faaa2","system_id":"levelo_inurba_marseille","lat":43.24634,"lon":5.43136,"is_reserved":false,"is_disabled":false,"rental_uris":{"android":"levelo://app?vid=85782661-163d-4a8b-b5a4-1f0a766faaa2","ios":"levelo://app?vid=85782661-163d-4a8b-b5a4-1f0a766faaa2"},"vehicle_type_id":"4","last_reported":1758903147,"current_range_meters":15200,"station_id":"st_d2m6c4gdas8pm72e190g","pricing_plan_id":"cebpf4jnsgd1na2vs0mg"},{"bike_id":"0cf264e5-4bd0-4c44-93ce-193cf48705b3","system_id":"levelo_inurba_marseille","lat":43.29164,"lon":5.37156,"is_reserved":false,"is_disabled":false,"rental_uris":{"android":"levelo://app?vid=0cf264e5-4bd0-4c44-93ce-193cf48705b3","ios":"levelo://app?vid=0cf264e5-4bd0-4c44-93ce-193cf48705b3"},"vehicle_type_id":"4","last_reported":1758903147,"current_range_meters":15200,"station_id":"ce4bha92rcd13ifvqeh0","pricing_plan_id":"cebpf4jnsgd1na2vs0mg"},{"bike_id":"9bb4db31-0bf9-4171-bca1-76cb045f53a3","system_id":"levelo_inurba_marseille","lat":43.26924,"lon":5.389081,"is_reserved":false,"is_disabled":true,"rental_uris":{"android":"levelo://app?vid=9bb4db31-0bf9-4171-bca1-76cb045f53a3","ios":"levelo://app?vid=9bb4db31-0bf9-4171-bca1-76cb045f53a3"},"vehicle_type_id":"4","last_reported":1758903147,"current_range_meters":15200,"station_id":"ce4bhhh2rcd13ifvqfl0","pricing_plan_id":"cebpf4jnsgd1na2vs0mg"},{"bike_id":"01bf55f2-4ac6-46f6-8504-3267bf31e1a6","system_id":"levelo_inurba_marseille","lat":43.2973,"lon":5.381787,"is_reserved":false,"is_disabled":false,"rental_uris":{"android":"levelo://app?vid=01bf55f2-4ac6-46f6-8504-3267bf31e1a6","ios":"levelo://app?vid=01bf55f2-4ac6-46f6-8504-3267bf31e1a6"},"vehicle_type_id":"4","last_reported":1758903147,"current_range_meters":15200,"station_id":"","pricing_plan_id":"cebpf4jnsgd1na2vs0mg"},{"bike_id":"2dd03e1c-b74a-4b49-816c-79a24b700b20","system_id":"levelo_inurba_marseille","lat":43.26054,"lon":5.39397,"is_reserved":false,"is_disabled":false,"rental_uris":{"android":"levelo://app?vid=2dd03e1c-b74a-4b49-816c-79a24b700b20","ios":"levelo://app?vid=2dd03e1c-b74a-4b49-816c-79a24b700b20"},"vehicle_type_id":"4","last_reported":1758903147,"current_range_meters":15200,"station_id":"ce4bhh92rcd13ifvqfj0","pricing_plan_id":"cebpf4jnsgd1na2vs0mg"},{"bike_id":"ec348589-ff91-45a4-84f8-96a0dc2abb69","system_id":"levelo_inurba_marseille","lat":43.32724,"lon":5.39256,"is_reserved":false,"is_disabled":false,"rental_uris":{"android":"levelo://app?vid=ec348589-ff91-45a4-84f8-96a0dc2abb69","ios":"levelo://app?vid=ec348589-ff91-45a4-84f8-96a0dc2abb69"},"vehicle_type_id":"4","last_reported":1758903147,"current_range_meters":15200,"station_id":"","pricing_plan_id":"cebpf4jnsgd1na2vs0mg"},{"bike_id":"757558de-9439-41f7-a89a-fb12026d052b","system_id":"levelo_inurba_marseille","lat":43.28716,"lon":5.37912,"is_reserved":false,"is_disabled":false,"rental_uris":{"android":"levelo://app?vid=757558de-9439-41f7-a89a-fb12026d052b","ios":"levelo://app?vid=757558de-9439-41f7-a89a-fb12026d052b"},"vehicle_type_id":"4","last_reported":1758903147,"current_range_meters":16000,"station_id":"ce4bh9p2rcd13ifvqec0","pricing_plan_id":"cebpf4jnsgd1na2vs0mg"},{"bike_id":"8cf842e4-76c1-4a82-ad31-66529da65dba","system_id":"levelo_inurba_marseille","lat":43.267,"lon":5.40236,"is_reserved":false,"is_disabled":false,"rental_uris":{"android":"levelo://app?vid=8cf842e4-76c1-4a82-ad31-66529da65dba","ios":"levelo://app?vid=8cf842e4-76c1-4a82-ad31-66529da65dba"},"vehicle_type_id":"4","last_reported":1758903147,"current_range_meters":16000,"station_id":"","pricing_plan_id":"cebpf4jnsgd1na2vs0mg"},{"bike_id":"b9b0dddb-6873-4634-acbf-dd046b465803","system_id":"levelo_inurba_marseille","lat":43.28617,"lon":5.35104,"is_reserved":false,"is_disabled":false,"rental_uris":{"android":"levelo://app?vid=b9b0dddb-6873-4634-acbf-dd046b465803","ios":"levelo://app?vid=b9b0dddb-6873-4634-acbf-dd046b465803"},"vehicle_type_id":"4","last_reported":1758903147,"current_range_meters":16000,"station_id":"ce4bhch2rcd13ifvqeug","pricing_plan_id":"cebpf4jnsgd1na2vs0mg"},{"bike_id":"ccd0238c-f22b-4335-8f59-1e48ce9c90c2","system_id":"levelo_inurba_marseille","lat":43.246598,"lon":5.381654,"is_reserved":false,"is_disabled":false,"rental_uris":{"android":"levelo://app?vid=ccd0238c-f22b-4335-8f59-1e48ce9c90c2","ios":"levelo://app?vid=ccd0238c-f22b-4335-8f59-1e48ce9c90c2"},"vehicle_type_id":"4","last_reported":1758903147,"current_range_meters":16000,"station_id":"ce4bhih2rcd13ifvqfr0","pricing_plan_id":"cebpf4jnsgd1na2vs0mg"},{"bike_id":"3652de56-c611-41c6-aa03-7fef6136da9d","system_id":"levelo_inurba_marseille","lat":43.24995,"lon":5.38933,"is_reserved":false,"is_disabled":false,"rental_uris":{"android":"levelo://app?vid=3652de56-c611-41c6-aa03-7fef6136da9d","ios":"levelo://app?vid=3652de56-c611-41c6-aa03-7fef6136da9d"},"vehicle_type_id":"4","last_reported":1758903147,"current_range_meters":16000,"station_id":"ce4bhgp2rcd13ifvqfd0","pricing_plan_id":"cebpf4jnsgd1na2vs0mg"},{"bike_id":"15b8abb9-1b82-439d-bef4-2444276aa7c3","system_id":"levelo_inurba_marseille","lat":43.3107,"lon":5.3835,"is_reserved":false,"is_disabled":true,"rental_uris":{"android":"levelo://app?vid=15b8abb9-1b82-439d-bef4-2444276aa7c3","ios":"levelo://app?vid=15b8abb9-1b82-439d-bef4-2444276aa7c3"},"vehicle_type_id":"4","last_reported":1758903147,"current_range_meters":16000,"station_id":"ce4bgv92rcd13ifvqcr0","pricing_plan_id":"cebpf4jnsgd1na2vs0mg"},{"bike_id":"3cca746f-fac4-450b-bb9c-94a2c2908362","system_id":"levelo_inurba_marseille","lat":43.29,"lon":5.37803,"is_reserved":false,"is_disabled":false,"rental_uris":{"android":"levelo://app?vid=3cca746f-fac4-450b-bb9c-94a2c2908362","ios":"levelo://app?vid=3cca746f-fac4-450b-bb9c-94a2c2908362"},"vehicle_type_id":"4","last_reported":1758903147,"current_range_meters":16000,"station_id":"ce4bh9p2rcd13ifvqed0","pricing_plan_id":"cebpf4jnsgd1na2vs0mg"},{"bike_id":"46f9b484-6f08-4ebe-8cac-3f01deda53fc","system_id":"levelo_inurba_marseille","lat":43.32659,"lon":5.40999,"is_reserved":false,"is_disabled":false,"rental_uris":{"android":"levelo://app?vid=46f9b484-6f08-4ebe-8cac-3f01deda53fc","ios":"levelo://app?vid=46f9b484-6f08-4ebe-8cac-3f01deda53fc"},"vehicle_type_id":"4","last_reported":1758903147,"current_range_meters":15200,"station_id":"ce4bhpp2rcd13ifvqhgg","pricing_plan_id":"cebpf4jnsgd1na2vs0mg"},{"bike_id":"bdf98283-e040-4f5f-94a3-6c902d369273","system_id":"levelo_inurba_marseille","lat":43.29725,"lon":5.37718,"is_reserved":false,"is_disabled":true,"rental_uris":{"android":"levelo://app?vid=bdf98283-e040-4f5f-94a3-6c902d369273","ios":"levelo://app?vid=bdf98283-e040-4f5f-94a3-6c902d369273"},"vehicle_type_id":"4","last_reported":1758903147,"current_range_meters":16000,"station_id":"ce4bgkh2rcd13ifvqbl0","pricing_plan_id":"cebpf4jnsgd1na2vs0mg"},{"bike_id":"62529f44-1407-45b5-a57d-0e6b577d523f","system_id":"levelo_inurba_marseille","lat":43.31715,"lon":5.42408,"is_reserved":false,"is_disabled":true,"rental_uris":{"android":"levelo://app?vid=62529f44-1407-45b5-a57d-0e6b577d523f","ios":"levelo://app?vid=62529f44-1407-45b5-a57d-0e6b577d523f"},"vehicle_type_id":"4","last_reported":1758903147,"current_range_meters":16000,"station_id":"ce4bhp92rcd13ifvqhbg","pricing_plan_id":"cebpf4jnsgd1na2vs0mg"},{"bike_id":"d797771b-18c2-46d0-8f08-8f540e16b982","system_id":"levelo_inurba_marseille","lat":43.24381,"lon":5.37062,"is_reserved":false,"is_disabled":false,"rental_uris":{"android":"levelo://app?vid=d797771b-18c2-46d0-8f08-8f540e16b982","ios":"levelo://app?vid=d797771b-18c2-46d0-8f08-8f540e16b982"},"vehicle_type_id":"4","last_reported":1758903147,"current_range_meters":16000,"station_id":"ce4bhhh2rcd13ifvqfk0","pricing_plan_id":"cebpf4jnsgd1na2vs0mg"},{"bike_id":"e9965d7f-c60b-4fbd-96cd-93282f8867aa","system_id":"levelo_inurba_marseille","lat":43.25336,"lon":5.42169,"is_reserved":false,"is_disabled":false,"rental_uris":{"android":"levelo://app?vid=e9965d7f-c60b-4fbd-96cd-93282f8867aa","ios":"levelo://app?vid=e9965d7f-c60b-4fbd-96cd-93282f8867aa"},"vehicle_type_id":"4","last_reported":1758903147,"current_range_meters":16000,"station_id":"st_d2m65c5bi1j21697t3ng","pricing_plan_id":"cebpf4jnsgd1na2vs0mg"},{"bike_id":"3181866a-1952-49fb-b4ea-2e21fdf4bb0b","system_id":"levelo_inurba_marseille","lat":43.29306,"lon":5.3717,"is_reserved":false,"is_disabled":false,"rental_uris":{"android":"levelo://app?vid=3181866a-1952-49fb-b4ea-2e21fdf4bb0b","ios":"levelo://app?vid=3181866a-1952-49fb-b4ea-2e21fdf4bb0b"},"vehicle_type_id":"4","last_reported":1758903147,"current_range_meters":16000,"station_id":"ce4bgh92rcd13ifvqb40","pricing_plan_id":"cebpf4jnsgd1na2vs0mg"},{"bike_id":"ac894387-043b-42ef-96f2-3f279963ad27","system_id":"levelo_inurba_marseille","lat":43.25085,"lon":5.39525,"is_reserved":false,"is_disabled":false,"rental_uris":{"android":"levelo://app?vid=ac894387-043b-42ef-96f2-3f279963ad27","ios":"levelo://app?vid=ac894387-043b-42ef-96f2-3f279963ad27"},"vehicle_type_id":"4","last_reported":1758903147,"current_range_meters":16000,"station_id":"ce4bhm12rcd13ifvqgkg","pricing_plan_id":"cebpf4jnsgd1na2vs0mg"},{"bike_id":"41fbe864-b9c2-4b8a-a22b-e40ee788b52e","system_id":"levelo_inurba_marseille","lat":43.25065,"lon":5.39539,"is_reserved":false,"is_disabled":false,"rental_uris":{"android":"levelo://app?vid=41fbe864-b9c2-4b8a-a22b-e40ee788b52e","ios":"levelo://app?vid=41fbe864-b9c2-4b8a-a22b-e40ee788b52e"},"vehicle_type_id":"4","last_reported":1758903147,"current_range_meters":16000,"station_id":"ce4bhm12rcd13ifvqgkg","pricing_plan_id":"cebpf4jnsgd1na2vs0mg"},{"bike_id":"6451e7e9-719b-4815-b42d-da504fb6cc61","system_id":"levelo_inurba_marseille","lat":43.32102,"lon":5.36768,"is_reserved":false,"is_disabled":false,"rental_uris":{"android":"levelo://app?vid=6451e7e9-719b-4815-b42d-da504fb6cc61","ios":"levelo://app?vid=6451e7e9-719b-4815-b42d-da504fb6cc61"},"vehicle_type_id":"4","last_reported":1758903147,"current_range_meters":16000,"station_id":"ce4bhrh2rcd13ifvqhug","pricing_plan_id":"cebpf4jnsgd1na2vs0mg"},{"bike_id":"7d8d1b6e-f17d-4ea2-aead-408fb9ecc07d","system_id":"levelo_inurba_marseille","lat":43.3171,"lon":5.43707,"is_reserved":false,"is_disabled":false,"rental_uris":{"android":"levelo://app?vid=7d8d1b6e-f17d-4ea2-aead-408fb9ecc07d","ios":"levelo://app?vid=7d8d1b6e-f17d-4ea2-aead-408fb9ecc07d"},"vehicle_type_id":"4","last_reported":1758903147,"current_range_meters":16400,"station_id":"ce4bhp92rcd13ifvqhcg","pricing_plan_id":"cebpf4jnsgd1na2vs0mg"},{"bike_id":"a6187c30-1c11-4309-be70-335b3ca8c646","system_id":"levelo_inurba_marseille","lat":43.21188,"lon":5.35094,"is_reserved":false,"is_disabled":false,"rental_uris":{"android":"levelo://app?vid=a6187c30-1c11-4309-be70-335b3ca8c646","ios":"levelo://app?vid=a6187c30-1c11-4309-be70-335b3ca8c646"},"vehicle_type_id":"4","last_reported":1758903147,"current_range_meters":16400,"station_id":"","pricing_plan_id":"cebpf4jnsgd1na2vs0mg"},{"bike_id":"40671cea-5fa4-4b34-ae7b-b7e5e1035365","system_id":"levelo_inurba_marseille","lat":43.25112,"lon":5.40327,"is_reserved":false,"is_disabled":false,"rental_uris":{"android":"levelo://app?vid=40671cea-5fa4-4b34-ae7b-b7e5e1035365","ios":"levelo://app?vid=40671cea-5fa4-4b34-ae7b-b7e5e1035365"},"vehicle_type_id":"4","last_reported":1758903147,"current_range_meters":16400,"station_id":"ce4bhlh2rcd13ifvqgig","pricing_plan_id":"cebpf4jnsgd1na2vs0mg"},{"bike_id":"8b203e5c-46ad-415e-8c5f-43da909e285e","system_id":"levelo_inurba_marseille","lat":43.240438,"lon":5.377371,"is_reserved":false,"is_disabled":false,"rental_uris":{"android":"levelo://app?vid=8b203e5c-46ad-415e-8c5f-43da909e285e","ios":"levelo://app?vid=8b203e5c-46ad-415e-8c5f-43da909e285e"},"vehicle_type_id":"4","last_reported":1758903147,"current_range_meters":16400,"station_id":"ce4bhnp2rcd13ifvqgvg","pricing_plan_id":"cebpf4jnsgd1na2vs0mg"},{"bike_id":"3e135c76-1113-4013-897b-4b07d534ec56","system_id":"levelo_inurba_marseille","lat":43.24665,"lon":5.38165,"is_reserved":false,"is_disabled":false,"rental_uris":{"android":"levelo://app?vid=3e135c76-1113-4013-897b-4b07d534ec56","ios":"levelo://app?vid=3e135c76-1113-4013-897b-4b07d534ec56"},"vehicle_type_id":"4","last_reported":1758903147,"current_range_meters":16400,"station_id":"ce4bhih2rcd13ifvqfr0","pricing_plan_id":"cebpf4jnsgd1na2vs0mg"},{"bike_id":"fd1364a5-ff73-488a-b72e-592513140002","system_id":"levelo_inurba_marseille","lat":43.25091,"lon":5.3952,"is_reserved":false,"is_disabled":false,"rental_uris":{"android":"levelo://app?vid=fd1364a5-ff73-488a-b72e-592513140002","ios":"levelo://app?vid=fd1364a5-ff73-488a-b72e-592513140002"},"vehicle_type_id":"4","last_reported":1758903147,"current_range_meters":16400,"station_id":"ce4bhm12rcd13ifvqgkg","pricing_plan_id":"cebpf4jnsgd1na2vs0mg"},{"bike_id":"80bdba63-46f3-4274-b0d9-d9711409b6a8","system_id":"levelo_inurba_marseille","lat":43.270752,"lon":5.402497,"is_reserved":false,"is_disabled":false,"rental_uris":{"android":"levelo://app?vid=80bdba63-46f3-4274-b0d9-d9711409b6a8","ios":"levelo://app?vid=80bdba63-46f3-4274-b0d9-d9711409b6a8"},"vehicle_type_id":"4","last_reported":1758903147,"current_range_meters":16400,"station_id":"","pricing_plan_id":"cebpf4jnsgd1na2vs0mg"},{"bike_id":"ee925a9c-c600-454e-8837-0da5956fd25f","system_id":"levelo_inurba_marseille","lat":43.22966,"lon":5.35313,"is_reserved":false,"is_disabled":false,"rental_uris":{"android":"levelo://app?vid=ee925a9c-c600-454e-8837-0da5956fd25f","ios":"levelo://app?vid=ee925a9c-c600-454e-8837-0da5956fd25f"},"vehicle_type_id":"4","last_reported":1758903147,"current_range_meters":16400,"station_id":"cpo3532slgdg3j2ikp40","pricing_plan_id":"cebpf4jnsgd1na2vs0mg"},{"bike_id":"175ed984-4779-4b98-920a-039ca300eaa4","system_id":"levelo_inurba_marseille","lat":43.27281,"lon":5.40802,"is_reserved":false,"is_disabled":false,"rental_uris":{"android":"levelo://app?vid=175ed984-4779-4b98-920a-039ca300eaa4","ios":"levelo://app?vid=175ed984-4779-4b98-920a-039ca300eaa4"},"vehicle_type_id":"4","last_reported":1758903147,"current_range_meters":16800,"station_id":"","pricing_plan_id":"cebpf4jnsgd1na2vs0mg"},{"bike_id":"934ea1ec-b7f6-49a1-9efa-287317d4eb22","system_id":"levelo_inurba_marseille","lat":43.29048,"lon":5.35914,"is_reserved":false,"is_disabled":false,"rental_uris":{"android":"levelo://app?vid=934ea1ec-b7f6-49a1-9efa-287317d4eb22","ios":"levelo://app?vid=934ea1ec-b7f6-49a1-9efa-287317d4eb22"},"vehicle_type_id":"4","last_reported":1758903147,"current_range_meters":16800,"station_id":"","pricing_plan_id":"cebpf4jnsgd1na2vs0mg"},{"bike_id":"e8307af5-12ab-40e7-bc16-4e27104234cb","system_id":"levelo_inurba_marseille","lat":43.302564,"lon":5.392529,"is_reserved":false,"is_disabled":false,"rental_uris":{"android":"levelo://app?vid=e8307af5-12ab-40e7-bc16-4e27104234cb","ios":"levelo://app?vid=e8307af5-12ab-40e7-bc16-4e27104234cb"},"vehicle_type_id":"4","last_reported":1758903147,"current_range_meters":16800,"station_id":"ce4bgkh2rcd13ifvqbk0","pricing_plan_id":"cebpf4jnsgd1na2vs0mg"},{"bike_id":"63c0879c-e69b-4e84-9806-c068fbaee754","system_id":"levelo_inurba_marseille","lat":43.22932,"lon":5.35385,"is_reserved":false,"is_disabled":false,"rental_uris":{"android":"levelo://app?vid=63c0879c-e69b-4e84-9806-c068fbaee754","ios":"levelo://app?vid=63c0879c-e69b-4e84-9806-c068fbaee754"},"vehicle_type_id":"4","last_reported":1758903147,"current_range_meters":16800,"station_id":"cpo3532slgdg3j2ikp40","pricing_plan_id":"cebpf4jnsgd1na2vs0mg"},{"bike_id":"59d1ef66-928a-42ea-809a-869ac3d6f273","system_id":"levelo_inurba_marseille","lat":43.29579,"lon":5.37509,"is_reserved":false,"is_disabled":false,"rental_uris":{"android":"levelo://app?vid=59d1ef66-928a-42ea-809a-869ac3d6f273","ios":"levelo://app?vid=59d1ef66-928a-42ea-809a-869ac3d6f273"},"vehicle_type_id":"4","last_reported":1758903147,"current_range_meters":16800,"station_id":"ce4bgh92rcd13ifvqb50","pricing_plan_id":"cebpf4jnsgd1na2vs0mg"},{"bike_id":"e241dfc8-d7f9-404e-a9fb-70b03889b507","system_id":"levelo_inurba_marseille","lat":43.31333,"lon":5.38487,"is_reserved":false,"is_disabled":true,"rental_uris":{"android":"levelo://app?vid=e241dfc8-d7f9-404e-a9fb-70b03889b507","ios":"levelo://app?vid=e241dfc8-d7f9-404e-a9fb-70b03889b507"},"vehicle_type_id":"4","last_reported":1758903147,"current_range_meters":16800,"station_id":"ce4bgt92rcd13ifvqcf0","pricing_plan_id":"cebpf4jnsgd1na2vs0mg"},{"bike_id":"c2f36b74-26ef-4e09-bf6b-7f373b8673f5","system_id":"levelo_inurba_marseille","lat":43.28618,"lon":5.35116,"is_reserved":false,"is_disabled":false,"rental_uris":{"android":"levelo://app?vid=c2f36b74-26ef-4e09-bf6b-7f373b8673f5","ios":"levelo://app?vid=c2f36b74-26ef-4e09-bf6b-7f373b8673f5"},"vehicle_type_id":"4","last_reported":1758903147,"current_range_meters":17600,"station_id":"ce4bhch2rcd13ifvqeug","pricing_plan_id":"cebpf4jnsgd1na2vs0mg"},{"bike_id":"55070c7b-77d9-4edc-becd-c7c86212c800","system_id":"levelo_inurba_marseille","lat":43.29193,"lon":5.35814,"is_reserved":false,"is_disabled":false,"rental_uris":{"android":"levelo://app?vid=55070c7b-77d9-4edc-becd-c7c86212c800","ios":"levelo://app?vid=55070c7b-77d9-4edc-becd-c7c86212c800"},"vehicle_type_id":"4","last_reported":1758903147,"current_range_meters":17200,"station_id":"ce4bhb12rcd13ifvqel0","pricing_plan_id":"cebpf4jnsgd1na2vs0mg"},{"bike_id":"052c59a7-1cc4-4bbc-97f5-180981a63118","system_id":"levelo_inurba_marseille","lat":43.24629,"lon":5.43162,"is_reserved":false,"is_disabled":false,"rental_uris":{"android":"levelo://app?vid=052c59a7-1cc4-4bbc-97f5-180981a63118","ios":"levelo://app?vid=052c59a7-1cc4-4bbc-97f5-180981a63118"},"vehicle_type_id":"4","last_reported":1758903147,"current_range_meters":17200,"station_id":"st_d2m6c4gdas8pm72e190g","pricing_plan_id":"cebpf4jnsgd1na2vs0mg"},{"bike_id":"afb5f42c-bc92-4753-b8b5-463a6aed8244","system_id":"levelo_inurba_marseille","lat":43.29896,"lon":5.39733,"is_reserved":false,"is_disabled":false,"rental_uris":{"android":"levelo://app?vid=afb5f42c-bc92-4753-b8b5-463a6aed8244","ios":"levelo://app?vid=afb5f42c-bc92-4753-b8b5-463a6aed8244"},"vehicle_type_id":"4","last_reported":1758903147,"current_range_meters":17200,"station_id":"","pricing_plan_id":"cebpf4jnsgd1na2vs0mg"},{"bike_id":"a3319fa0-d851-44f9-9940-ac9263343630","system_id":"levelo_inurba_marseille","lat":43.30581,"lon":5.39355,"is_reserved":false,"is_disabled":false,"rental_uris":{"android":"levelo://app?vid=a3319fa0-d851-44f9-9940-ac9263343630","ios":"levelo://app?vid=a3319fa0-d851-44f9-9940-ac9263343630"},"vehicle_type_id":"4","last_reported":1758903147,"current_range_meters":17600,"station_id":"ce4bh0p2rcd13ifvqd80","pricing_plan_id":"cebpf4jnsgd1na2vs0mg"},{"bike_id":"d55e72cf-944a-4608-8c58-6a41695b302e","system_id":"levelo_inurba_marseille","lat":43.31073,"lon":5.38355,"is_reserved":false,"is_disabled":true,"rental_uris":{"android":"levelo://app?vid=d55e72cf-944a-4608-8c58-6a41695b302e","ios":"levelo://app?vid=d55e72cf-944a-4608-8c58-6a41695b302e"},"vehicle_type_id":"4","last_reported":1758903147,"current_range_meters":17600,"station_id":"ce4bgv92rcd13ifvqcr0","pricing_plan_id":"cebpf4jnsgd1na2vs0mg"},{"bike_id":"c42f0188-b7bf-488e-ab1c-119703479dea","system_id":"levelo_inurba_marseille","lat":43.26182,"lon":5.37924,"is_reserved":false,"is_disabled":false,"rental_uris":{"android":"levelo://app?vid=c42f0188-b7bf-488e-ab1c-119703479dea","ios":"levelo://app?vid=c42f0188-b7bf-488e-ab1c-119703479dea"},"vehicle_type_id":"4","last_reported":1758903147,"current_range_meters":17600,"station_id":"ce4bhjp2rcd13ifvqg90","pricing_plan_id":"cebpf4jnsgd1na2vs0mg"},{"bike_id":"42bc0a00-7424-49ce-bc59-9b4887554cc8","system_id":"levelo_inurba_marseille","lat":43.231769,"lon":5.399933,"is_reserved":false,"is_disabled":false,"rental_uris":{"android":"levelo://app?vid=42bc0a00-7424-49ce-bc59-9b4887554cc8","ios":"levelo://app?vid=42bc0a00-7424-49ce-bc59-9b4887554cc8"},"vehicle_type_id":"4","last_reported":1758903147,"current_range_meters":17600,"station_id":"ce4bhn12rcd13ifvqgqg","pricing_plan_id":"cebpf4jnsgd1na2vs0mg"},