{"last_updated":1728497496,"ttl":60,"version":"2.2","data":{"bikes":[{"bike_id":"b53f77ab-ba1c-4ba1-af64-411b74248eb8","system_id":"levelo_inurba_marseille","lat":43.32369,"lon":5.38935,"is_reserved":false,"is_disabled":false,"rental_uris":{"android":"levelo://app?vid=b53f77ab-ba1c-4ba1-af64-411b74248eb8","ios":"levelo://app?vid=b53f77ab-ba1c-4ba1-af64-411b74248eb8"},"vehicle_type_id":"4","last_reported":1728497496,"current_range_meters":6000,"station_id":"ce4bhqp2rcd13ifvqhog","pricing_plan_id":"cebpf4jnsgd1na2vs0mg"},{"bike_id":"175d0b37-1f62-4442-b865-8d6671b50282","system_id":"levelo_inurba_marseille","lat":43.25117,"lon":5.40322,"is_reserved":false,"is_disabled":false,"rental_uris":{"android":"levelo://app?vid=175d0b37-1f62-4442-b865-8d6671b50282","ios":"levelo://app?vid=175d0b37-1f62-4442-b865-8d6671b50282"},"vehicle_type_id":"4","last_reported":1728497496,"current_range_meters":8800,"station_id":"ce4bhlh2rcd13ifvqgig","pricing_plan_id":"cebpf4jnsgd1na2vs0mg"},{"bike_id":"2b9de801-4944-4b89-ac1e-d0606188b06a","system_id":"levelo_inurba_marseille","lat":43.32189,"lon":5.3922,"is_reserved":false,"is_disabled":false,"rental_uris":{"android":"levelo://app?vid=2b9de801-4944-4b89-ac1e-d0606188b06a","ios":"levelo://app?vid=2b9de801-4944-4b89-ac1e-d0606188b06a"},"vehicle_type_id":"4","last_reported":1728497496,"current_range_meters":30000,"station_id":"","pricing_plan_id":"cebpf4jnsgd1na2vs0mg"},{"bike_id":"6b8918a4-396b-43e5-9a7f-f056357bf660","system_id":"levelo_inurba_marseille","lat":43.230568,"lon":5.354944,"is_reserved":false,"is_disabled":false,"rental_uris":{"android":"levelo://app?vid=6b8918a4-396b-43e5-9a7f-f056357bf660","ios":"levelo://app?vid=6b8918a4-396b-43e5-9a7f-f056357bf660"},"vehicle_type_id":"4","last_reported":1728497496,"current_range_meters":8000,"station_id":"cpo3342slgdg3j2ifvpg","pricing_plan_id":"cebpf4jnsgd1na2vs0mg"},{"bike_id":"0dbefdb0-2913-4a4b-8d6a-5bb583ef6ac9","system_id":"levelo_inurba_marseille","lat":43.30596,"lon":5.39347,"is_reserved":false,"is_disabled":false,"rental_uris":{"android":"levelo://app?vid=0dbefdb0-2913-4a4b-8d6a-5bb583ef6ac9","ios":"levelo://app?vid=0dbefdb0-2913-4a4b-8d6a-5bb583ef6ac9"},"vehicle_type_id":"4","last_reported":1728497496,"current_range_meters":11600,"station_id":"ce4bh0p2rcd13ifvqd80","pricing_plan_id":"cebpf4jnsgd1na2vs0mg"},{"bike_id":"68ff90ea-79a0-4823-b3ec-6513be570b09","system_id":"levelo_inurba_marseille","lat":43.30247,"lon":5.39605,"is_reserved":false,"is_disabled":false,"rental_uris":{"android":"levelo://app?vid=68ff90ea-79a0-4823-b3ec-6513be570b09","ios":"levelo://app?vid=68ff90ea-79a0-4823-b3ec-6513be570b09"},"vehicle_type_id":"4","last_reported":1728497496,"current_range_meters":38400,"station_id":"","pricing_plan_id":"cebpf4jnsgd1na2vs0mg"},{"bike_id":"e937f72a-d1c2-4501-9749-5798cbbd552d","system_id":"levelo_inurba_marseille","lat":43.29872,"lon":5.39729,"is_reserved":false,"is_disabled":false,"rental_uris":{"android":"levelo://app?vid=e937f72a-d1c2-4501-9749-5798cbbd552d","ios":"levelo://app?vid=e937f72a-d1c2-4501-9749-5798cbbd552d"},"vehicle_type_id":"4","last_reported":1728497496,"current_range_meters":32000,"station_id":"ce4bh0h2rcd13ifvqd50","pricing_plan_id":"cebpf4jnsgd1na2vs0mg"},{"bike_id":"a64d00a1-a00e-4ae5-a683-618a8a3970fa","system_id":"levelo_inurba_marseille","lat":43.28935,"lon":5.36645,"is_reserved":false,"is_disabled":false,"rental_uris":{"android":"levelo://app?vid=a64d00a1-a00e-4ae5-a683-618a8a3970fa","ios":"levelo://app?vid=a64d00a1-a00e-4ae5-a683-618a8a3970fa"},"vehicle_type_id":"4","last_reported":1728497496,"current_range_meters":18000,"station_id":"ce4bhap2rcd13ifvqek0","pricing_plan_id":"cebpf4jnsgd1na2vs0mg"},{"bike_id":"cbe360ba-c707-4edc-bfa5-47f82f58a45a","system_id":"levelo_inurba_marseille","lat":43.2925,"lon":5.38452,"is_reserved":false,"is_disabled":false,"rental_uris":{"android":"levelo://app?vid=cbe360ba-c707-4edc-bfa5-47f82f58a45a","ios":"levelo://app?vid=cbe360ba-c707-4edc-bfa5-47f82f58a45a"},"vehicle_type_id":"4","last_reported":1728497496,"current_range_meters":14400,"station_id":"ce4bh692rcd13ifvqea0","pricing_plan_id":"cebpf4jnsgd1na2vs0mg"},{"bike_id":"f74e6377-c0b5-4e10-8194-fc4616df6b74","system_id":"levelo_inurba_marseille","lat":43.24544,"lon":5.3952,"is_reserved":false,"is_disabled":false,"rental_uris":{"android":"levelo://app?vid=f74e6377-c0b5-4e10-8194-fc4616df6b74","ios":"levelo://app?vid=f74e6377-c0b5-4e10-8194-fc4616df6b74"},"vehicle_type_id":"4","last_reported":1728497496,"current_range_meters":38800,"station_id":"ce4bhlp2rcd13ifvqgjg","pricing_plan_id":"cebpf4jnsgd1na2vs0mg"},{"bike_id":"64c9abdc-a744-4b43-9856-a64e8ee5db15","system_id":"levelo_inurba_marseille","lat":43.23063,"lon":5.35496,"is_reserved":false,"is_disabled":false,"rental_uris":{"android":"levelo://app?vid=64c9abdc-a744-4b43-9856-a64e8ee5db15","ios":"levelo://app?vid=64c9abdc-a744-4b43-9856-a64e8ee5db15"},"vehicle_type_id":"4","last_reported":1728497496,"current_range_meters":36800,"station_id":"cpo3342slgdg3j2ifvpg","pricing_plan_id":"cebpf4jnsgd1na2vs0mg"},{"bike_id":"cdc54f35-60ba-419d-9cd7-57190d56bf8c","system_id":"levelo_inurba_marseille","lat":43.28152,"lon":5.42649,"is_reserved":false,"is_disabled":false,"rental_uris":{"android":"levelo://app?vid=cdc54f35-60ba-419d-9cd7-57190d56bf8c","ios":"levelo://app?vid=cdc54f35-60ba-419d-9cd7-57190d56bf8c"},"vehicle_type_id":"4","last_reported":1728497496,"current_range_meters":9600,"station_id":"ce4bhnh2rcd13ifvqgug","pricing_plan_id":"cebpf4jnsgd1na2vs0mg"},{"bike_id":"bb95532b-17bc-482b-ab15-99455c538354","system_id":"levelo_inurba_marseille","lat":43.24179,"lon":5.39719,"is_reserved":false,"is_disabled":false,"rental_uris":{"android":"levelo://app?vid=bb95532b-17bc-482b-ab15-99455c538354","ios":"levelo://app?vid=bb95532b-17bc-482b-ab15-99455c538354"},"vehicle_type_id":"4","last_reported":1728497496,"current_range_meters":38800,"station_id":"ce4bhn12rcd13ifvqgpg","pricing_plan_id":"cebpf4jnsgd1na2vs0mg"},{"bike_id":"c63e83de-f5b0-4819-8f01-392a7912c20e","system_id":"levelo_inurba_marseille","lat":43.25725,"lon":5.41114,"is_reserved":false,"is_disabled":false,"rental_uris":{"android":"levelo://app?vid=c63e83de-f5b0-4819-8f01-392a7912c20e","ios":"levelo://app?vid=c63e83de-f5b0-4819-8f01-392a7912c20e"},"vehicle_type_id":"4","last_reported":1728497496,"current_range_meters":8400,"station_id":"ce4bhkp2rcd13ifvqgd0","pricing_plan_id":"cebpf4jnsgd1na2vs0mg"},{"bike_id":"1dd91bb3-5a6b-4923-8d68-6dfc5ebaf25f","system_id":"levelo_inurba_marseille","lat":43.27936,"lon":5.41054,"is_reserved":false,"is_disabled":false,"rental_uris":{"android":"levelo://app?vid=1dd91bb3-5a6b-4923-8d68-6dfc5ebaf25f","ios":"levelo://app?vid=1dd91bb3-5a6b-4923-8d68-6dfc5ebaf25f"},"vehicle_type_id":"4","last_reported":1728497496,"current_range_meters":24800,"station_id":"ce4bhnp2rcd13ifvqh0g","pricing_plan_id":"cebpf4jnsgd1na2vs0mg"},{"bike_id":"058ef1ff-5858-4a6d-965f-98aeb9455f88","system_id":"levelo_inurba_marseille","lat":43.31751,"lon":5.39021,"is_reserved":false,"is_disabled":false,"rental_uris":{"android":"levelo://app?vid=058ef1ff-5858-4a6d-965f-98aeb9455f88","ios":"levelo://app?vid=058ef1ff-5858-4a6d-965f-98aeb9455f88"},"vehicle_type_id":"4","last_reported":1728497496,"current_range_meters":36800,"station_id":"ce4bhqp2rcd13ifvqhng","pricing_plan_id":"cebpf4jnsgd1na2vs0mg"},{"bike_id":"232f42b6-35a0-49c5-8ea4-e0525dc2a525","system_id":"levelo_inurba_marseille","lat":43.31218,"lon":5.36851,"is_reserved":false,"is_disabled":false,"rental_uris":{"android":"levelo://app?vid=232f42b6-35a0-49c5-8ea4-e0525dc2a525","ios":"levelo://app?vid=232f42b6-35a0-49c5-8ea4-e0525dc2a525"},"vehicle_type_id":"4","last_reported":1728497496,"current_range_meters":28000,"station_id":"ce4bgl92rcd13ifvqbq0","pricing_plan_id":"cebpf4jnsgd1na2vs0mg"},{"bike_id":"08165ec7-bbdb-4ae4-b3fc-1c48a84ee356","system_id":"levelo_inurba_marseille","lat":43.317137,"lon":5.37742,"is_reserved":false,"is_disabled":false,"rental_uris":{"android":"levelo://app?vid=08165ec7-bbdb-4ae4-b3fc-1c48a84ee356","ios":"levelo://app?vid=08165ec7-bbdb-4ae4-b3fc-1c48a84ee356"},"vehicle_type_id":"4","last_reported":1728497496,"current_range_meters":8800,"station_id":"ce4bgth2rcd13ifvqch0","pricing_plan_id":"cebpf4jnsgd1na2vs0mg"},{"bike_id":"0fc1ebfe-0ef8-4da4-9f7b-9fc488cf19bc","system_id":"levelo_inurba_marseille","lat":43.23181,"lon":5.3999,"is_reserved":false,"is_disabled":false,"rental_uris":{"android":"levelo://app?vid=0fc1ebfe-0ef8-4da4-9f7b-9fc488cf19bc","ios":"levelo://app?vid=0fc1ebfe-0ef8-4da4-9f7b-9fc488cf19bc"},"vehicle_type_id":"4","last_reported":1728497496,"current_range_meters":20400,"station_id":"ce4bhn12rcd13ifvqgqg","pricing_plan_id":"cebpf4jnsgd1na2vs0mg"},{"bike_id":"59a20882-e884-470e-b111-32ed424e7cc3","system_id":"levelo_inurba_marseille","lat":43.337304,"lon":5.391853,"is_reserved":false,"is_disabled":false,"rental_uris":{"android":"levelo://app?vid=59a20882-e884-470e-b111-32ed424e7cc3","ios":"levelo://app?vid=59a20882-e884-470e-b111-32ed424e7cc3"},"vehicle_type_id":"4","last_reported":1728497496,"current_range_meters":30000,"station_id":"ce4bhr92rcd13ifvqhsg","pricing_plan_id":"cebpf4jnsgd1na2vs0mg"},{"bike_id":"bae4abde-2130-4494-b798-eb88d6823efb","system_id":"levelo_inurba_marseille","lat":43.30354,"lon":5.41877,"is_reserved":false,"is_disabled":false,"rental_uris":{"android":"levelo://app?vid=bae4abde-2130-4494-b798-eb88d6823efb","ios":"levelo://app?vid=bae4abde-2130-4494-b798-eb88d6823efb"},"vehicle_type_id":"4","last_reported":1728497496,"current_range_meters":12800,"station_id":"ce4bhop2rcd13ifvqh7g","pricing_plan_id":"cebpf4jnsgd1na2vs0mg"},{"bike_id":"77b3f5e8-965b-4f90-a251-15770684e21b","system_id":"levelo_inurba_marseille","lat":43.24176,"lon":5.39726,"is_reserved":false,"is_disabled":false,"rental_uris":{"android":"levelo://app?vid=77b3f5e8-965b-4f90-a251-15770684e21b","ios":"levelo://app?vid=77b3f5e8-965b-4f90-a251-15770684e21b"},"vehicle_type_id":"4","last_reported":1728497496,"current_range_meters":38800,"station_id":"ce4bhn12rcd13ifvqgpg","pricing_plan_id":"cebpf4jnsgd1na2vs0mg"},{"bike_id":"72078f29-e154-4c5b-836a-c7e362ba1f09","system_id":"levelo_inurba_marseille","lat":43.33757,"lon":5.37479,"is_reserved":false,"is_disabled":false,"rental_uris":{"android":"levelo://app?vid=72078f29-e154-4c5b-836a-c7e362ba1f09","ios":"levelo://app?vid=72078f29-e154-4c5b-836a-c7e362ba1f09"},"vehicle_type_id":"4","last_reported":1728497496,"current_range_meters":10800,"station_id":"ce4rr2p2rcd13i802rgg","pricing_plan_id":"cebpf4jnsgd1na2vs0mg"},{"bike_id":"7d7ab187-9965-49a4-bf26-b6ade39671fc","system_id":"levelo_inurba_marseille","lat":43.23196,"lon":5.35553,"is_reserved":false,"is_disabled":false,"rental_uris":{"android":"levelo://app?vid=7d7ab187-9965-49a4-bf26-b6ade39671fc","ios":"levelo://app?vid=7d7ab187-9965-49a4-bf26-b6ade39671fc"},"vehicle_type_id":"4","last_reported":1728497496,"current_range_meters":24000,"station_id":"ce4bhu92rcd13ifvqi70","pricing_plan_id":"cebpf4jnsgd1na2vs0mg"},{"bike_id":"d51f0193-0dff-4957-8877-479daabe2300","system_id":"levelo_inurba_marseille","lat":43.337444,"lon":5.374475,"is_reserved":false,"is_disabled":false,"rental_uris":{"android":"levelo://app?vid=d51f0193-0dff-4957-8877-479daabe2300","ios":"levelo://app?vid=d51f0193-0dff-4957-8877-479daabe2300"},"vehicle_type_id":"4","last_reported":1728497496,"current_range_meters":37600,"station_id":"ce4rr2p2rcd13i802rgg","pricing_plan_id":"cebpf4jnsgd1na2vs0mg"},{"bike_id":"dc80b0e4-e686-4875-9991-4f06e3429d36","system_id":"levelo_inurba_marseille","lat":43.31751,"lon":5.39026,"is_reserved":false,"is_disabled":false,"rental_uris":{"android":"levelo://app?vid=dc80b0e4-e686-4875-9991-4f06e3429d36","ios":"levelo://app?vid=dc80b0e4-e686-4875-9991-4f06e3429d36"},"vehicle_type_id":"4","last_reported":1728497496,"current_range_meters":11600,"station_id":"ce4bhqp2rcd13ifvqhng","pricing_plan_id":"cebpf4jnsgd1na2vs0mg"},{"bike_id":"296004e0-5751-4935-8069-bb51f866a7db","system_id":"levelo_inurba_marseille","lat":43.23189,"lon":5.39985,"is_reserved":false,"is_disabled":false,"rental_uris":{"android":"levelo://app?vid=296004e0-5751-4935-8069-bb51f866a7db","ios":"levelo://app?vid=296004e0-5751-4935-8069-bb51f866a7db"},"vehicle_type_id":"4","last_reported":1728497496,"current_range_meters":38800,"station_id":"ce4bhn12rcd13ifvqgqg","pricing_plan_id":"cebpf4jnsgd1na2vs0mg"},{"bike_id":"b149bf8c-24ec-415d-b234-f0b11661de68","system_id":"levelo_inurba_marseille","lat":43.25076,"lon":5.39521,"is_reserved":false,"is_disabled":false,"rental_uris":{"android":"levelo://app?vid=b149bf8c-24ec-415d-b234-f0b11661de68","ios":"levelo://app?vid=b149bf8c-24ec-415d-b234-f0b11661de68"},"vehicle_type_id":"4","last_reported":1728497496,"current_range_meters":21600,"station_id":"ce4bhm12rcd13ifvqgkg","pricing_plan_id":"cebpf4jnsgd1na2vs0mg"},{"bike_id":"99790e49-88f4-4c42-aa7a-81f1b21ebd42","system_id":"levelo_inurba_marseille","lat":43.2919,"lon":5.35804,"is_reserved":false,"is_disabled":false,"rental_uris":{"android":"levelo://app?vid=99790e49-88f4-4c42-aa7a-81f1b21ebd42","ios":"levelo://app?vid=99790e49-88f4-4c42-aa7a-81f1b21ebd42"},"vehicle_type_id":"4","last_reported":1728497496,"current_range_meters":14400,"station_id":"ce4bhb12rcd13ifvqel0","pricing_plan_id":"cebpf4jnsgd1na2vs0mg"},{"bike_id":"f585ae2c-1587-44c0-bce9-1f9ab9821ed0","system_id":"levelo_inurba_marseille","lat":43.29523,"lon":5.38538,"is_reserved":false,"is_disabled":false,"rental_uris":{"android":"levelo://app?vid=f585ae2c-1587-44c0-bce9-1f9ab9821ed0","ios":"levelo://app?vid=f585ae2c-1587-44c0-bce9-1f9ab9821ed0"},"vehicle_type_id":"4","last_reported":1728497496,"current_range_meters":39200,"station_id":"ce4bgih2rcd13ifvqba0","pricing_plan_id":"cebpf4jnsgd1na2vs0mg"},{"bike_id":"2fe402ef-366f-499d-82eb-2ad1cc4e72b8","system_id":"levelo_inurba_marseille","lat":43.2769,"lon":5.38882,"is_reserved":false,"is_disabled":false,"rental_uris":{"android":"levelo://app?vid=2fe402ef-366f-499d-82eb-2ad1cc4e72b8","ios":"levelo://app?vid=2fe402ef-366f-499d-82eb-2ad1cc4e72b8"},"vehicle_type_id":"4","last_reported":1728497496,"current_range_meters":38800,"station_id":"ce4bhi12rcd13ifvqfo0","pricing_plan_id":"cebpf4jnsgd1na2vs0mg"},{"bike_id":"1a9a3cc6-2502-4c80-8b31-7bb36d7cba31","system_id":"levelo_inurba_marseille","lat":43.22935,"lon":5.35376,"is_reserved":false,"is_disabled":false,"rental_uris":{"android":"levelo://app?vid=1a9a3cc6-2502-4c80-8b31-7bb36d7cba31","ios":"levelo://app?vid=1a9a3cc6-2502-4c80-8b31-7bb36d7cba31"},"vehicle_type_id":"4","last_reported":1728497496,"current_range_meters":38800,"station_id":"cpo3532slgdg3j2ikp40","pricing_plan_id":"cebpf4jnsgd1na2vs0mg"},{"bike_id":"cf0fdee5-1af0-4899-9519-c98f23d2754f","system_id":"levelo_inurba_marseille","lat":43.27418,"lon":5.39415,"is_reserved":false,"is_disabled":false,"rental_uris":{"android":"levelo://app?vid=cf0fdee5-1af0-4899-9519-c98f23d2754f","ios":"levelo://app?vid=cf0fdee5-1af0-4899-9519-c98f23d2754f"},"vehicle_type_id":"4","last_reported":1728497496,"current_range_meters":38800,"station_id":"ce4bhdp2rcd13ifvqf20","pricing_plan_id":"cebpf4jnsgd1na2vs0mg"},{"bike_id":"2177d3d8-d683-4271-bdad-46d4e59106d6","system_id":"levelo_inurba_marseille","lat":43.26798,"lon":5.40273,"is_reserved":false,"is_disabled":false,"rental_uris":{"android":"levelo://app?vid=2177d3d8-d683-4271-bdad-46d4e59106d6","ios":"levelo://app?vid=2177d3d8-d683-4271-bdad-46d4e59106d6"},"vehicle_type_id":"4","last_reported":1728497496,"current_range_meters":30800,"station_id":"ce501612rcd8frsf0b60","pricing_plan_id":"cebpf4jnsgd1na2vs0mg"},{"bike_id":"14cc985f-c073-46c4-bce8-9e5e4ec92403","system_id":"levelo_inurba_marseille","lat":43.32336,"lon":5.40619,"is_reserved":false,"is_disabled":false,"rental_uris":{"android":"levelo://app?vid=14cc985f-c073-46c4-bce8-9e5e4ec92403","ios":"levelo://app?vid=14cc985f-c073-46c4-bce8-9e5e4ec92403"},"vehicle_type_id":"4","last_reported":1728497496,"current_range_meters":7200,"station_id":"ce4bhq92rcd13ifvqhjg","pricing_plan_id":"cebpf4jnsgd1na2vs0mg"},{"bike_id":"b6686461-4b48-4eae-9ce8-8178b8df331b","system_id":"levelo_inurba_marseille","lat":43.24658,"lon":5.38159,"is_reserved":false,"is_disabled":false,"rental_uris":{"android":"levelo://app?vid=b6686461-4b48-4eae-9ce8-8178b8df331b","ios":"levelo://app?vid=b6686461-4b48-4eae-9ce8-8178b8df331b"},"vehicle_type_id":"4","last_reported":1728497496,"current_range_meters":38800,"station_id":"ce4bhih2rcd13ifvqfr0","pricing_plan_id":"cebpf4jnsgd1na2vs0mg"},{"bike_id":"de4d6f18-d2ce-4055-8743-6e0a870efe4e","system_id":"levelo_inurba_marseille","lat":43.25683,"lon":5.41038,"is_reserved":false,"is_disabled":false,"rental_uris":{"android":"levelo://app?vid=de4d6f18-d2ce-4055-8743-6e0a870efe4e","ios":"levelo://app?vid=de4d6f18-d2ce-4055-8743-6e0a870efe4e"},"vehicle_type_id":"4","last_reported":1728497496,"current_range_meters":20800,"station_id":"ce4bhkp2rcd13ifvqgd0","pricing_plan_id":"cebpf4jnsgd1na2vs0mg"},{"bike_id":"63b9cce1-f3d8-4655-b818-f5ae36bee504","system_id":"levelo_inurba_marseille","lat":43.28668,"lon":5.36356,"is_reserved":false,"is_disabled":false,"rental_uris":{"android":"levelo://app?vid=63b9cce1-f3d8-4655-b818-f5ae36bee504","ios":"levelo://app?vid=63b9cce1-f3d8-4655-b818-f5ae36bee504"},"vehicle_type_id":"4","last_reported":1728497496,"current_range_meters":16800,"station_id":"ce4bhah2rcd13ifvqej0","pricing_plan_id":"cebpf4jnsgd1na2vs0mg"},{"bike_id":"8816b392-9314-448e-abc0-04710118262f","system_id":"levelo_inurba_marseille","lat":43.31217,"lon":5.36859,"is_reserved":false,"is_disabled":false,"rental_uris":{"android":"levelo://app?vid=8816b392-9314-448e-abc0-04710118262f","ios":"levelo://app?vid=8816b392-9314-448e-abc0-04710118262f"},"vehicle_type_id":"4","last_reported":1728497496,"current_range_meters":39200,"station_id":"ce4bgl92rcd13ifvqbq0","pricing_plan_id":"cebpf4jnsgd1na2vs0mg"},{"bike_id":"97c98e27-9337-4b4a-ad7d-97e59c330dee","system_id":"levelo_inurba_marseille","lat":43.31324,"lon":5.39699,"is_reserved":false,"is_disabled":false,"rental_uris":{"android":"levelo://app?vid=97c98e27-9337-4b4a-ad7d-97e59c330dee","ios":"levelo://app?vid=97c98e27-9337-4b4a-ad7d-97e59c330dee"},"vehicle_type_id":"4","last_reported":1728497496,"current_range_meters":4800,"station_id":"ce4bgvp2rcd13ifvqcu0","pricing_plan_id":"cebpf4jnsgd1na2vs0mg"},{"bike_id":"99bcda33-5770-419a-aa6b-a6ddbe64561c","system_id":"levelo_inurba_marseille","lat":43.28501,"lon":5.38416,"is_reserved":false,"is_disabled":false,"rental_uris":{"android":"levelo://app?vid=99bcda33-5770-419a-aa6b-a6ddbe64561c","ios":"levelo://app?vid=99bcda33-5770-419a-aa6b-a6ddbe64561c"},"vehicle_type_id":"4","last_reported":1728497496,"current_range_meters":2000,"station_id":"ce4bh512rcd13ifvqe3g","pricing_plan_id":"cebpf4jnsgd1na2vs0mg"},{"bike_id":"41be5fcf-9f4b-425f-8298-427ad3b70a16","system_id":"levelo_inurba_marseille","lat":43.32546,"lon":5.41447,"is_reserved":false,"is_disabled":false,"rental_uris":{"android":"levelo://app?vid=41be5fcf-9f4b-425f-8298-427ad3b70a16","ios":"levelo://app?vid=41be5fcf-9f4b-425f-8298-427ad3b70a16"},"vehicle_type_id":"4","last_reported":1728497496,"current_range_meters":38400,"station_id":"ce4bhq12rcd13ifvqhhg","pricing_plan_id":"cebpf4jnsgd1na2vs0mg"},{"bike_id":"6d49a0ba-db52-4b7d-ba4c-d183ee29ab87","system_id":"levelo_inurba_marseille","lat":43.28561,"lon":5.39495,"is_reserved":false,"is_disabled":false,"rental_uris":{"android":"levelo://app?vid=6d49a0ba-db52-4b7d-ba4c-d183ee29ab87","ios":"levelo://app?vid=6d49a0ba-db52-4b7d-ba4c-d183ee29ab87"},"vehicle_type_id":"4","last_reported":1728497496,"current_range_meters":6800,"station_id":"ce4bh292rcd13ifvqdg0","pricing_plan_id":"cebpf4jnsgd1na2vs0mg"},{"bike_id":"8f90157e-e563-4e6c-9765-f762efdea7de","system_id":"levelo_inurba_marseille","lat":43.289979,"lon":5.356135,"is_reserved":false,"is_disabled":false,"rental_uris":{"android":"levelo://app?vid=8f90157e-e563-4e6c-9765-f762efdea7de","ios":"levelo://app?vid=8f90157e-e563-4e6c-9765-f762efdea7de"},"vehicle_type_id":"4","last_reported":1728497496,"current_range_meters":8000,"station_id":"ce4bhb92rcd13ifvqen0","pricing_plan_id":"cebpf4jnsgd1na2vs0mg"},{"bike_id":"9e7cc07f-11fa-47ce-a906-33436af3da26","system_id":"levelo_inurba_marseille","lat":43.31235,"lon":5.36847,"is_reserved":false,"is_disabled":false,"rental_uris":{"android":"levelo://app?vid=9e7cc07f-11fa-47ce-a906-33436af3da26","ios":"levelo://app?vid=9e7cc07f-11fa-47ce-a906-33436af3da26"},"vehicle_type_id":"4","last_reported":1728497496,"current_range_meters":38400,"station_id":"ce4bgl92rcd13ifvqbq0","pricing_plan_id":"cebpf4jnsgd1na2vs0mg"},{"bike_id":"8513be67-a978-4cfc-9563-19285ed6fe5a","system_id":"levelo_inurba_marseille","lat":43.23196,"lon":5.35544,"is_reserved":false,"is_disabled":false,"rental_uris":{"android":"levelo://app?vid=8513be67-a978-4cfc-9563-19285ed6fe5a","ios":"levelo://app?vid=8513be67-a978-4cfc-9563-19285ed6fe5a"},"vehicle_type_id":"4","last_reported":1728497496,"current_range_meters":10800,"station_id":"ce4bhu92rcd13ifvqi70","pricing_plan_id":"cebpf4jnsgd1na2vs0mg"},{"bike_id":"1197f692-639d-4fb0-ae7f-c285068db770","system_id":"levelo_inurba_marseille","lat":43.25089,"lon":5.39524,"is_reserved":false,"is_disabled":false,"rental_uris":{"android":"levelo://app?vid=1197f692-639d-4fb0-ae7f-c285068db770","ios":"levelo://app?vid=1197f692-639d-4fb0-ae7f-c285068db770"},"vehicle_type_id":"4","last_reported":1728497496,"current_range_meters":26000,"station_id":"ce4bhm12rcd13ifvqgkg","pricing_plan_id":"cebpf4jnsgd1na2vs0mg"},{"bike_id":"922252e8-02c2-4987-8eed-1d6d69073568","system_id":"levelo_inurba_marseille","lat":43.26689,"lon":5.38276,"is_reserved":false,"is_disabled":false,"rental_uris":{"android":"levelo://app?vid=922252e8-02c2-4987-8eed-1d6d69073568","ios":"levelo://app?vid=922252e8-02c2-4987-8eed-1d6d69073568"},"vehicle_type_id":"4","last_reported":1728497496,"current_range_meters":30800,"station_id":"ce4bhg92rcd13ifvqf90","pricing_plan_id":"cebpf4jnsgd1na2vs0mg"},{"bike_id":"c283bee0-b392-40e1-b183-58fab03c3b3d","system_id":"levelo_inurba_marseille","lat":43.284218,"lon":5.34995,"is_reserved":false,"is_disabled":false,"rental_uris":{"android":"levelo://app?vid=c283bee0-b392-40e1-b183-58fab03c3b3d","ios":"levelo://app?vid=c283bee0-b392-40e1-b183-58fab03c3b3d"},"vehicle_type_id":"4","last_reported":1728497496,"current_range_meters":19200,"station_id":"ce4bhbh2rcd13ifvqepg","pricing_plan_id":"cebpf4jnsgd1na2vs0mg"},{"bike_id":"372be48e-0fb3-4336-915a-4d35d755f146","system_id":"levelo_inurba_marseille","lat":43.23177,"lon":5.39995,"is_reserved":false,"is_disabled":false,"rental_uris":{"android":"levelo://app?vid=372be48e-0fb3-4336-915a-4d35d755f146","ios":"levelo://app?vid=372be48e-0fb3-4336-915a-4d35d755f146"},"vehicle_type_id":"4","last_reported":1728497496,"current_range_meters":38800,"station_id":"ce4bhn12rcd13ifvqgqg","pricing_plan_id":"cebpf4jnsgd1na2vs0mg"},{"bike_id":"d1dbaf2b-572c-4148-b502-7f74815fe1c9","system_id":"levelo_inurba_marseille","lat":43.31271,"lon":5.40173,"is_reserved":false,"is_disabled":false,"rental_uris":{"android":"levelo://app?vid=d1dbaf2b-572c-4148-b502-7f74815fe1c9","ios":"levelo://app?vid=d1dbaf2b-572c-4148-b502-7f74815fe1c9"},"vehicle_type_id":"4","last_reported":1728497496,"current_range_meters":9200,"station_id":"ce4bh092rcd13ifvqd30","pricing_plan_id":"cebpf4jnsgd1na2vs0mg"},{"bike_id":"451d9137-70c1-4d30-9e86-76a3abd51511","system_id":"levelo_inurba_marseille","lat":43.29565,"lon":5.37534,"is_reserved":false,"is_disabled":false,"rental_uris":{"android":"levelo://app?vid=451d9137-70c1-4d30-9e86-76a3abd51511","ios":"levelo://app?vid=451d9137-70c1-4d30-9e86-76a3abd51511"},"vehicle_type_id":"4","last_reported":1728497496,"current_range_meters":23200,"station_id":"ce4bgh92rcd13ifvqb50","pricing_plan_id":"cebpf4jnsgd1na2vs0mg"},{"bike_id":"98f7f09e-ef99-4f66-975c-5b0e819b4b48","system_id":"levelo_inurba_marseille","lat":43.26947,"lon":5.4025,"is_reserved":false,"is_disabled":false,"rental_uris":{"android":"levelo://app?vid=98f7f09e-ef99-4f66-975c-5b0e819b4b48","ios":"levelo://app?vid=98f7f09e-ef99-4f66-975c-5b0e819b4b48"},"vehicle_type_id":"4","last_reported":1728497496,"current_range_meters":29600,"station_id":"cjm6bp8fraef2m0cb0m0","pricing_plan_id":"cebpf4jnsgd1na2vs0mg"},{"bike_id":"d38dd870-fb35-4ebe-8242-7b8d175eed8b","system_id":"levelo_inurba_marseille","lat":43.32335,"lon":5.4062,"is_reserved":false,"is_disabled":false,"rental_uris":{"android":"levelo://app?vid=d38dd870-fb35-4ebe-8242-7b8d175eed8b","ios":"levelo://app?vid=d38dd870-fb35-4ebe-8242-7b8d175eed8b"},"vehicle_type_id":"4","last_reported":1728497496,"current_range_meters":10000,"station_id":"ce4bhq92rcd13ifvqhjg","pricing_plan_id":"cebpf4jnsgd1na2vs0mg"},{"bike_id":"7193d9e5-049b-4bc3-bbfa-8aa3d0443cce","system_id":"levelo_inurba_marseille","lat":43.2692,"lon":5.38924,"is_reserved":false,"is_disabled":false,"rental_uris":{"android":"levelo://app?vid=7193d9e5-049b-4bc3-bbfa-8aa3d0443cce","ios":"levelo://app?vid=7193d9e5-049b-4bc3-bbfa-8aa3d0443cce"},"vehicle_type_id":"4","last_reported":1728497496,"current_range_meters":36400,"station_id":"ce4bhhh2rcd13ifvqfl0","pricing_plan_id":"cebpf4jnsgd1na2vs0mg"},{"bike_id":"6c1fac79-5eeb-4b81-914f-5b5776d7dab5","system_id":"levelo_inurba_marseille","lat":43.31219,"lon":5.36875,"is_reserved":false,"is_disabled":false,"rental_uris":{"android":"levelo://app?vid=6c1fac79-5eeb-4b81-914f-5b5776d7dab5","ios":"levelo://app?vid=6c1fac79-5eeb-4b81-914f-5b5776d7dab5"},"vehicle_type_id":"4","last_reported":1728497496,"current_range_meters":39200,"station_id":"ce4bgl92rcd13ifvqbq0","pricing_plan_id":"cebpf4jnsgd1na2vs0mg"},{"bike_id":"2df730a7-89e5-413d-9bed-72b64744a6f2","system_id":"levelo_inurba_marseille","lat":43.22931,"lon":5.35378,"is_reserved":false,"is_disabled":false,"rental_uris":{"android":"levelo://app?vid=2df730a7-89e5-413d-9bed-72b64744a6f2","ios":"levelo://app?vid=2df730a7-89e5-413d-9bed-72b64744a6f2"},"vehicle_type_id":"4","last_reported":1728497496,"current_range_meters":38800,"station_id":"cpo3532slgdg3j2ikp40","pricing_plan_id":"cebpf4jnsgd1na2vs0mg"},{"bike_id":"74dea6e5-f1b2-476b-95da-8353d0ac07f5","system_id":"levelo_inurba_marseille","lat":43.22924,"lon":5.35384,"is_reserved":false,"is_disabled":false,"rental_uris":{"android":"levelo://app?vid=74dea6e5-f1b2-476b-95da-8353d0ac07f5","ios":"levelo://app?vid=74dea6e5-f1b2-476b-95da-8353d0ac07f5"},"vehicle_type_id":"4","last_reported":1728497496,"current_range_meters":38800,"station_id":"cpo3532slgdg3j2ikp40","pricing_plan_id":"cebpf4jnsgd1na2vs0mg"},{"bike_id":"3988724c-5a72-4d8c-bc40-db1cd63dc8b0","system_id":"levelo_inurba_marseille","lat":43.27492,"lon":5.42453,"is_reserved":false,"is_disabled":false,"rental_uris":{"android":"levelo://app?vid=3988724c-5a72-4d8c-bc40-db1cd63dc8b0","ios":"levelo://app?vid=3988724c-5a72-4d8c-bc40-db1cd63dc8b0"},"vehicle_type_id":"4","last_reported":1728497496,"current_range_meters":10000,"station_id":"ce4bhn92rcd13ifvqgrg","pricing_plan_id":"cebpf4jnsgd1na2vs0mg"},{"bike_id":"76693853-0945-4c89-bef0-2171c36f8bc7","system_id":"levelo_inurba_marseille","lat":43.30016,"lon":5.38874,"is_reserved":false,"is_disabled":false,"rental_uris":{"android":"levelo://app?vid=76693853-0945-4c89-bef0-2171c36f8bc7","ios":"levelo://app?vid=76693853-0945-4c89-bef0-2171c36f8bc7"},"vehicle_type_id":"4","last_reported":1728497496,"current_range_meters":7200,"station_id":"ce4bgph2rcd13ifvqc2g","pricing_plan_id":"cebpf4jnsgd1na2vs0mg"},{"bike_id":"29cb1526-8d04-42cd-afd9-4af7c5cbfad4","system_id":"levelo_inurba_marseille","lat":43.23197,"lon":5.35551,"is_reserved":false,"is_disabled":false,"rental_uris":{"android":"levelo://app?vid=29cb1526-8d04-42cd-afd9-4af7c5cbfad4","ios":"levelo://app?vid=29cb1526-8d04-42cd-afd9-4af7c5cbfad4"},"vehicle_type_id":"4","last_reported":1728497496,"current_range_meters":38800,"station_id":"ce4bhu92rcd13ifvqi70","pricing_plan_id":"cebpf4jnsgd1na2vs0mg"},{"bike_id":"983088b0-acdb-4bea-8eb2-f55c3f6ee222","system_id":"levelo_inurba_marseille","lat":43.29165,"lon":5.37152,"is_reserved":false,"is_disabled":false,"rental_uris":{"android":"levelo://app?vid=983088b0-acdb-4bea-8eb2-f55c3f6ee222","ios":"levelo://app?vid=983088b0-acdb-4bea-8eb2-f55c3f6ee222"},"vehicle_type_id":"4","last_reported":1728497496,"current_range_meters":19200,"station_id":"ce4bha92rcd13ifvqeh0","pricing_plan_id":"cebpf4jnsgd1na2vs0mg"},{"bike_id":"62930a7f-74ee-49d2-82a3-62a466b84fb0","system_id":"levelo_inurba_marseille","lat":43.32443,"lon":5.38957,"is_reserved":false,"is_disabled":false,"rental_uris":{"android":"levelo://app?vid=62930a7f-74ee-49d2-82a3-62a466b84fb0","ios":"levelo://app?vid=62930a7f-74ee-49d2-82a3-62a466b84fb0"},"vehicle_type_id":"4","last_reported":1728497496,"current_range_meters":8400,"station_id":"","pricing_plan_id":"cebpf4jnsgd1na2vs0mg"},{"bike_id":"1fba427a-4c3f-47c5-a09c-f395a9e61dc8","system_id":"levelo_inurba_marseille","lat":43.29026,"lon":5.38645,"is_reserved":false,"is_disabled":false,"rental_uris":{"android":"levelo://app?vid=1fba427a-4c3f-47c5-a09c-f395a9e61dc8","ios":"levelo://app?vid=1fba427a-4c3f-47c5-a09c-f395a9e61dc8"},"vehicle_type_id":"4","last_reported":1728497496,"current_range_meters":8400,"station_id":"ce4bh4p2rcd13ifvqe0g","pricing_plan_id":"cebpf4jnsgd1na2vs0mg"},{"bike_id":"0bfa0ee7-df55-48c5-ba71-da82bc4adcc5","system_id":"levelo_inurba_marseille","lat":43.27606,"lon":5.36119,"is_reserved":false,"is_disabled":false,"rental_uris":{"android":"levelo://app?vid=0bfa0ee7-df55-48c5-ba71-da82bc4adcc5","ios":"levelo://app?vid=0bfa0ee7-df55-48c5-ba71-da82bc4adcc5"},"vehicle_type_id":"4","last_reported":1728497496,"current_range_meters":38800,"station_id":"ce4bgj92rcd13ifvqbe0","pricing_plan_id":"cebpf4jnsgd1na2vs0mg"},{"bike_id":"23bc29c4-a5de-4151-b7d0-117c37a9b3f1","system_id":"levelo_inurba_marseille","lat":43.248,"lon":5.37461,"is_reserved":false,"is_disabled":false,"rental_uris":{"android":"levelo://app?vid=23bc29c4-a5de-4151-b7d0-117c37a9b3f1","ios":"levelo://app?vid=23bc29c4-a5de-4151-b7d0-117c37a9b3f1"},"vehicle_type_id":"4","last_reported":1728497496,"current_range_meters":2000,"station_id":"ce4bhgh2rcd13ifvqfb0","pricing_plan_id":"cebpf4jnsgd1na2vs0mg"},{"bike_id":"570573fe-b7fc-4372-a75b-b111a618dd16","system_id":"levelo_inurba_marseille","lat":43.31878,"lon":5.40734,"is_reserved":false,"is_disabled":false,"rental_uris":{"android":"levelo://app?vid=570573fe-b7fc-4372-a75b-b111a618dd16","ios":"levelo://app?vid=570573fe-b7fc-4372-a75b-b111a618dd16"},"vehicle_type_id":"4","last_reported":1728497496,"current_range_meters":15200,"station_id":"ce4bhq12rcd13ifvqhig","pricing_plan_id":"cebpf4jnsgd1na2vs0mg"},{"bike_id":"a18662f8-7c5d-40ed-a87d-88d8a14f8320","system_id":"levelo_inurba_marseille","lat":43.31752,"lon":5.39026,"is_reserved":false,"is_disabled":false,"rental_uris":{"android":"levelo://app?vid=a18662f8-7c5d-40ed-a87d-88d8a14f8320","ios":"levelo://app?vid=a18662f8-7c5d-40ed-a87d-88d8a14f8320"},"vehicle_type_id":"4","last_reported":1728497496,"current_range_meters":27200,"station_id":"ce4bhqp2rcd13ifvqhng","pricing_plan_id":"cebpf4jnsgd1na2vs0mg"},{"bike_id":"ac73cf39-5e0d-41c0-9b62-3d3a6730aa43","system_id":"levelo_inurba_marseille","lat":43.24071,"lon":5.37761,"is_reserved":false,"is_disabled":false,"rental_uris":{"android":"levelo://app?vid=ac73cf39-5e0d-41c0-9b62-3d3a6730aa43","ios":"levelo://app?vid=ac73cf39-5e0d-41c0-9b62-3d3a6730aa43"},"vehicle_type_id":"4","last_reported":1728497496,"current_range_meters":31200,"station_id":"ce4bhnp2rcd13ifvqgvg","pricing_plan_id":"cebpf4jnsgd1na2vs0mg"},{"bike_id":"70436b75-8bd1-4703-980c-7ef5419d4610","system_id":"levelo_inurba_marseille","lat":43.27617,"lon":5.36112,"is_reserved":false,"is_disabled":false,"rental_uris":{"android":"levelo://app?vid=70436b75-8bd1-4703-980c-7ef5419d4610","ios":"levelo://app?vid=70436b75-8bd1-4703-980c-7ef5419d4610"},"vehicle_type_id":"4","last_reported":1728497496,"current_range_meters":11600,"station_id":"ce4bgj92rcd13ifvqbe0","pricing_plan_id":"cebpf4jnsgd1na2vs0mg"},{"bike_id":"5d8a454f-f8d4-4720-b47a-06316a7fbdf9","system_id":"levelo_inurba_marseille","lat":43.25489,"lon":5.37652,"is_reserved":false,"is_disabled":false,"rental_uris":{"android":"levelo://app?vid=5d8a454f-f8d4-4720-b47a-06316a7fbdf9","ios":"levelo://app?vid=5d8a454f-f8d4-4720-b47a-06316a7fbdf9"},"vehicle_type_id":"4","last_reported":1728497496,"current_range_meters":33600,"station_id":"ce4bhh12rcd13ifvqff0","pricing_plan_id":"cebpf4jnsgd1na2vs0mg"},{"bike_id":"d8d9e195-0b53-46b7-a4e3-f2b2c532f4ae","system_id":"levelo_inurba_marseille","lat":43.23197,"lon":5.35549,"is_reserved":false,"is_disabled":false,"rental_uris":{"android":"levelo://app?vid=d8d9e195-0b53-46b7-a4e3-f2b2c532f4ae","ios":"levelo://app?vid=d8d9e195-0b53-46b7-a4e3-f2b2c532f4ae"},"vehicle_type_id":"4","last_reported":1728497496,"current_range_meters":38800,"station_id":"ce4bhu92rcd13ifvqi70","pricing_plan_id":"cebpf4jnsgd1na2vs0mg"},{"bike_id":"1407590e-3626-4654-a5e0-d1874982ddba","system_id":"levelo_inurba_marseille","lat":43.29035,"lon":5.37554,"is_reserved":false,"is_disabled":false,"rental_uris":{"android":"levelo://app?vid=1407590e-3626-4654-a5e0-d1874982ddba","ios":"levelo://app?vid=1407590e-3626-4654-a5e0-d1874982ddba"},"vehicle_type_id":"4","last_reported":1728497496,"current_range_meters":38800,"station_id":"ce4bh692rcd13ifvqe90","pricing_plan_id":"cebpf4jnsgd1na2vs0mg"},{"bike_id":"01978506-6baf-4511-8424-5db49837eb93","system_id":"levelo_inurba_marseille","lat":43.2856,"lon":5.39504,"is_reserved":false,"is_disabled":false,"rental_uris":{"android":"levelo://app?vid=01978506-6baf-4511-8424-5db49837eb93","ios":"levelo://app?vid=01978506-6baf-4511-8424-5db49837eb93"},"vehicle_type_id":"4","last_reported":1728497496,"current_range_meters":38800,"station_id":"ce4bh292rcd13ifvqdg0","pricing_plan_id":"cebpf4jnsgd1na2vs0mg"},{"bike_id":"71f95e9c-4470-472f-ba02-046fd121d57e","system_id":"levelo_inurba_marseille","lat":43.30967,"lon":5.3903,"is_reserved":false,"is_disabled":false,"rental_uris":{"android":"levelo://app?vid=71f95e9c-4470-472f-ba02-046fd121d57e","ios":"levelo://app?vid=71f95e9c-4470-472f-ba02-046fd121d57e"},"vehicle_type_id":"4","last_reported":1728497496,"current_range_meters":12800,"station_id":"ce4bgup2rcd13ifvqco0","pricing_plan_id":"cebpf4jnsgd1na2vs0mg"},{"bike_id":"ef319be7-b059-4e58-9817-2df351ec2abb","system_id":"levelo_inurba_marseille","lat":43.29351,"lon":5.37197,"is_reserved":false,"is_disabled":false,"rental_uris":{"android":"levelo://app?vid=ef319be7-b059-4e58-9817-2df351ec2abb","ios":"levelo://app?vid=ef319be7-b059-4e58-9817-2df351ec2abb"},"vehicle_type_id":"4","last_reported":1728497496,"current_range_meters":28400,"station_id":"ce4bgr92rcd13ifvqc7g","pricing_plan_id":"cebpf4jnsgd1na2vs0mg"},{"bike_id":"f491096e-57f3-4396-8bb4-639ad75364ec","system_id":"levelo_inurba_marseille","lat":43.282122,"lon":5.397203,"is_reserved":false,"is_disabled":false,"rental_uris":{"android":"levelo://app?vid=f491096e-57f3-4396-8bb4-639ad75364ec","ios":"levelo://app?vid=f491096e-57f3-4396-8bb4-639ad75364ec"},"vehicle_type_id":"4","last_reported":1728497496,"current_range_meters":17200,"station_id":"ce4bho12rcd13ifvqh2g","pricing_plan_id":"cebpf4jnsgd1na2vs0mg"},{"bike_id":"3c150316-e8ba-4f0d-9319-e8d2bd0bc57b","system_id":"levelo_inurba_marseille","lat":43.23186,"lon":5.39988,"is_reserved":false,"is_disabled":false,"rental_uris":{"android":"levelo://app?vid=3c150316-e8ba-4f0d-9319-e8d2bd0bc57b","ios":"levelo://app?vid=3c150316-e8ba-4f0d-9319-e8d2bd0bc57b"},"vehicle_type_id":"4","last_reported":1728497496,"current_range_meters":38800,"station_id":"ce4bhn12rcd13ifvqgqg","pricing_plan_id":"cebpf4jnsgd1na2vs0mg"},{"bike_id":"01684108-e829-45c4-ad5e-bf50340a2174","system_id":"levelo_inurba_marseille","lat":43.31109,"lon":5.37782,"is_reserved":false,"is_disabled":false,"rental_uris":{"android":"levelo://app?vid=01684108-e829-45c4-ad5e-bf50340a2174","ios":"levelo://app?vid=01684108-e829-45c4-ad5e-bf50340a2174"},"vehicle_type_id":"4","last_reported":1728497496,"current_range_meters":38000,"station_id":"ce4bgt92rcd13ifvqcg0","pricing_plan_id":"cebpf4jnsgd1na2vs0mg"},{"bike_id":"c7b7f6b1-bdaa-4673-a80a-bed4b8c7f786","system_id":"levelo_inurba_marseille","lat":43.33024,"lon":5.39045,"is_reserved":false,"is_disabled":false,"rental_uris":{"android":"levelo://app?vid=c7b7f6b1-bdaa-4673-a80a-bed4b8c7f786","ios":"levelo://app?vid=c7b7f6b1-bdaa-4673-a80a-bed4b8c7f786"},"vehicle_type_id":"4","last_reported":1728497496,"current_range_meters":26800,"station_id":"ce4bhr92rcd13ifvqhrg","pricing_plan_id":"cebpf4jnsgd1na2vs0mg"},{"bike_id":"f3535bf1-0333-46d7-a760-97c09e07a0d7","system_id":"levelo_inurba_marseille","lat":43.25115,"lon":5.40322,"is_reserved":false,"is_disabled":false,"rental_uris":{"android":"levelo://app?vid=f3535bf1-0333-46d7-a760-97c09e07a0d7","ios":"levelo://app?vid=f3535bf1-0333-46d7-a760-97c09e07a0d7"},"vehicle_type_id":"4","last_reported":1728497496,"current_range_meters":39200,"station_id":"ce4bhlh2rcd13ifvqgig","pricing_plan_id":"cebpf4jnsgd1na2vs0mg"},{"bike_id":"f93d459d-5862-4f2c-b364-47a36d9a58b3","system_id":"levelo_inurba_marseille","lat":43.28929,"lon":5.36641,"is_reserved":false,"is_disabled":false,"rental_uris":{"android":"levelo://app?vid=f93d459d-5862-4f2c-b364-47a36d9a58b3","ios":"levelo://app?vid=f93d459d-5862-4f2c-b364-47a36d9a58b3"},"vehicle_type_id":"4","last_reported":1728497496,"current_range_meters":12800,"station_id":"ce4bhap2rcd13ifvqek0","pricing_plan_id":"cebpf4jnsgd1na2vs0mg"},{"bike_id":"25afecff-8faf-4ca5-beb4-ce74280dcb13","system_id":"levelo_inurba_marseille","lat":43.23194,"lon":5.35552,"is_reserved":false,"is_disabled":false,"rental_uris":{"android":"levelo://app?vid=25afecff-8faf-4ca5-beb4-ce74280dcb13","ios":"levelo://app?vid=25afecff-8faf-4ca5-beb4-ce74280dcb13"},"vehicle_type_id":"4","last_reported":1728497496,"current_range_meters":39200,"station_id":"ce4bhu92rcd13ifvqi70","pricing_plan_id":"cebpf4jnsgd1na2vs0mg"},{"bike_id":"bc5da530-264e-4907-ad43-308cc5fa4656","system_id":"levelo_inurba_marseille","lat":43.33023,"lon":5.39036,"is_reserved":false,"is_disabled":false,"rental_uris":{"android":"levelo://app?vid=bc5da530-264e-4907-ad43-308cc5fa4656","ios":"levelo://app?vid=bc5da530-264e-4907-ad43-308cc5fa4656"},"vehicle_type_id":"4","last_reported":1728497496,"current_range_meters":28400,"station_id":"ce4bhr92rcd13ifvqhrg","pricing_plan_id":"cebpf4jnsgd1na2vs0mg"},{"bike_id":"d3c66845-7b12-47d0-bbbd-1ad4e5453717","system_id":"levelo_inurba_marseille","lat":43.30124,"lon":5.39863,"is_reserved":false,"is_disabled":false,"rental_uris":{"android":"levelo://app?vid=d3c66845-7b12-47d0-bbbd-1ad4e5453717","ios":"levelo://app?vid=d3c66845-7b12-47d0-bbbd-1ad4e5453717"},"vehicle_type_id":"4","last_reported":1728497496,"current_range_meters":2800,"station_id":"ce4bh0h2rcd13ifvqd40","pricing_plan_id":"cebpf4jnsgd1na2vs0mg"},{"bike_id":"0bf0d32f-0b35-45b2-b4ff-0770bd21aaf9","system_id":"levelo_inurba_marseille","lat":43.2743,"lon":5.39426,"is_reserved":false,"is_disabled":false,"rental_uris":{"android":"levelo://app?vid=0bf0d32f-0b35-45b2-b4ff-0770bd21aaf9","ios":"levelo://app?vid=0bf0d32f-0b35-45b2-b4ff-0770bd21aaf9"},"vehicle_type_id":"4","last_reported":1728497496,"current_range_meters":37600,"station_id":"ce4bhdp2rcd13ifvqf20","pricing_plan_id":"cebpf4jnsgd1na2vs0mg"},{"bike_id":"7219fee0-219f-4cfa-8633-b620db7597ae","system_id":"levelo_inurba_marseille","lat":43.29839,"lon":5.37093,"is_reserved":false,"is_disabled":false,"rental_uris":{"android":"levelo://app?vid=7219fee0-219f-4cfa-8633-b620db7597ae","ios":"levelo://app?vid=7219fee0-219f-4cfa-8633-b620db7597ae"},"vehicle_type_id":"4","last_reported":1728497496,"current_range_meters":8400,"station_id":"","pricing_plan_id":"cebpf4jnsgd1na2vs0mg"},{"bike_id":"5bb5ccff-9d74-4b9c-847a-85cec3c254d3","system_id":"levelo_inurba_marseille","lat":43.29609,"lon":5.37725,"is_reserved":false,"is_disabled":false,"rental_uris":{"android":"levelo://app?vid=5bb5ccff-9d74-4b9c-847a-85cec3c254d3","ios":"levelo://app?vid=5bb5ccff-9d74-4b9c-847a-85cec3c254d3"},"vehicle_type_id":"4","last_reported":1728497496,"current_range_meters":4800,"station_id":"ce4bgi92rcd13ifvqb90","pricing_plan_id":"cebpf4jnsgd1na2vs0mg"},{"bike_id":"c74d9bd0-5c1b-48c7-9ad7-a318cfe9f07b","system_id":"levelo_inurba_marseille","lat":43.312683,"lon":5.401883,"is_reserved":false,"is_disabled":false,"rental_uris":{"android":"levelo://app?vid=c74d9bd0-5c1b-48c7-9ad7-a318cfe9f07b","ios":"levelo://app?vid=c74d9bd0-5c1b-48c7-9ad7-a318cfe9f07b"},"vehicle_type_id":"4","last_reported":1728497496,"current_range_meters":9600,"station_id":"ce4bh092rcd13ifvqd30","pricing_plan_id":"cebpf4jnsgd1na2vs0mg"},{"bike_id":"73db8b18-355f-4bf0-a559-5ecd90502446","system_id":"levelo_inurba_marseille","lat":43.2837,"lon":5.38625,"is_reserved":false,"is_disabled":false,"rental_uris":{"android":"levelo://app?vid=73db8b18-355f-4bf0-a559-5ecd90502446","ios":"levelo://app?vid=73db8b18-355f-4bf0-a559-5ecd90502446"},"vehicle_type_id":"4","last_reported":1728497496,"current_range_meters":28000,"station_id":"ce4bh492rcd13ifvqdvg","pricing_plan_id":"cebpf4jnsgd1na2vs0mg"},{"bike_id":"d7229c41-b335-405f-aec7-70b38b01cf1a","system_id":"levelo_inurba_marseille","lat":43.24995,"lon":5.38938,"is_reserved":false,"is_disabled":false,"rental_uris":{"android":"levelo://app?vid=d7229c41-b335-405f-aec7-70b38b01cf1a","ios":"levelo://app?vid=d7229c41-b335-405f-aec7-70b38b01cf1a"},"vehicle_type_id":"4","last_reported":1728497496,"current_range_meters":39200,"station_id":"ce4bhgp2rcd13ifvqfd0","pricing_plan_id":"cebpf4jnsgd1na2vs0mg"},{"bike_id":"c8b6526c-2966-48bd-9ea9-f66649525bf1","system_id":"levelo_inurba_marseille","lat":43.31709,"lon":5.43707,"is_reserved":false,"is_disabled":false,"rental_uris":{"android":"levelo://app?vid=c8b6526c-2966-48bd-9ea9-f66649525bf1","ios":"levelo://app?vid=c8b6526c-2966-48bd-9ea9-f66649525bf1"},"vehicle_type_id":"4","last_reported":1728497496,"current_range_meters":26800,"station_id":"ce4bhp92rcd13ifvqhcg","pricing_plan_id":"cebpf4jnsgd1na2vs0mg"},{"bike_id":"dca7c60b-d25d-4583-83b1-af4390c055f4","system_id":"levelo_inurba_marseille","lat":43.23189,"lon":5.35558,"is_reserved":false,"is_disabled":false,"rental_uris":{"android":"levelo://app?vid=dca7c60b-d25d-4583-83b1-af4390c055f4","ios":"levelo://app?vid=dca7c60b-d25d-4583-83b1-af4390c055f4"},"vehicle_type_id":"4","last_reported":1728497496,"current_range_meters":6800,"station_id":"ce4bhu92rcd13ifvqi70","pricing_plan_id":"cebpf4jnsgd1na2vs0mg"},{"bike_id":"4b75baab-69ac-4913-afde-c13ddb0ad114","system_id":"levelo_inurba_marseille","lat":43.23964,"lon":5.36637,"is_reserved":false,"is_disabled":false,"rental_uris":{"android":"levelo://app?vid=4b75baab-69ac-4913-afde-c13ddb0ad114","ios":"levelo://app?vid=4b75baab-69ac-4913-afde-c13ddb0ad114"},"vehicle_type_id":"4","last_reported":1728497496,"current_range_meters":16400,"station_id":"ce4bhi12rcd13ifvqfp0","pricing_plan_id":"cebpf4jnsgd1na2vs0mg"},{"bike_id":"c44a9d29-b3c7-4572-b300-2868127fc0c9","system_id":"levelo_inurba_marseille","lat":43.30324,"lon":5.40442,"is_reserved":false,"is_disabled":false,"rental_uris":{"android":"levelo://app?vid=c44a9d29-b3c7-4572-b300-2868127fc0c9","ios":"levelo://app?vid=c44a9d29-b3c7-4572-b300-2868127fc0c9"},"vehicle_type_id":"4","last_reported":1728497496,"current_range_meters":2000,"station_id":"ce4bh012rcd13ifvqd10","pricing_plan_id":"cebpf4jnsgd1na2vs0mg"},{"bike_id":"16f2d712-357d-4528-9456-b34e13b5e951","system_id":"levelo_inurba_marseille","lat":43.3233,"lon":5.40628,"is_reserved":false,"is_disabled":false,"rental_uris":{"android":"levelo://app?vid=16f2d712-357d-4528-9456-b34e13b5e951","ios":"levelo://app?vid=16f2d712-357d-4528-9456-b34e13b5e951"},"vehicle_type_id":"4","last_reported":1728497496,"current_range_meters":8400,"station_id":"ce4bhq92rcd13ifvqhjg","pricing_plan_id":"cebpf4jnsgd1na2vs0mg"},{"bike_id":"9430c576-d4f8-4518-9504-d5d0cf07d3a5","system_id":"levelo_inurba_marseille","lat":43.3149,"lon":5.373,"is_reserved":false,"is_disabled":false,"rental_uris":{"android":"levelo://app?vid=9430c576-d4f8-4518-9504-d5d0cf07d3a5","ios":"levelo://app?vid=9430c576-d4f8-4518-9504-d5d0cf07d3a5"},"vehicle_type_id":"4","last_reported":1728497496,"current_range_meters":28400,"station_id":"ce4bgt12rcd13ifvqcd0","pricing_plan_id":"cebpf4jnsgd1na2vs0mg"},{"bike_id":"cd09d217-1702-4dff-baa4-4b96d6df0ca7","system_id":"levelo_inurba_marseille","lat":43.28846,"lon":5.3932,"is_reserved":false,"is_disabled":false,"rental_uris":{"android":"levelo://app?vid=cd09d217-1702-4dff-baa4-4b96d6df0ca7","ios":"levelo://app?vid=cd09d217-1702-4dff-baa4-4b96d6df0ca7"},"vehicle_type_id":"4","last_reported":1728497496,"current_range_meters":8400,"station_id":"ce4bh2p2rcd13ifvqdi0","pricing_plan_id":"cebpf4jnsgd1na2vs0mg"},{"bike_id":"b2a8b4f5-667d-4459-bb6d-2872a8e7f18a","system_id":"levelo_inurba_marseille","lat":43.29164,"lon":5.37158,"is_reserved":false,"is_disabled":false,"rental_uris":{"android":"levelo://app?vid=b2a8b4f5-667d-4459-bb6d-2872a8e7f18a","ios":"levelo://app?vid=b2a8b4f5-667d-4459-bb6d-2872a8e7f18a"},"vehicle_type_id":"4","last_reported":1728497496,"current_range_meters":3600,"station_id":"ce4bha92rcd13ifvqeh0","pricing_plan_id":"cebpf4jnsgd1na2vs0mg"},{"bike_id":"a32fde13-cc24-4fb0-9c7e-1a1852e83e0b","system_id":"levelo_inurba_marseille","lat":43.25819,"lon":5.39443,"is_reserved":false,"is_disabled":false,"rental_uris":{"android":"levelo://app?vid=a32fde13-cc24-4fb0-9c7e-1a1852e83e0b","ios":"levelo://app?vid=a32fde13-cc24-4fb0-9c7e-1a1852e83e0b"},"vehicle_type_id":"4","last_reported":1728497496,"current_range_meters":18000,"station_id":"ce4bhip2rcd13ifvqft0","pricing_plan_id":"cebpf4jnsgd1na2vs0mg"},{"bike_id":"e7319d65-e3b9-4d83-a148-dc26fdd985c4","system_id":"levelo_inurba_marseille","lat":43.27311,"lon":5.3908,"is_reserved":false,"is_disabled":false,"rental_uris":{"android":"levelo://app?vid=e7319d65-e3b9-4d83-a148-dc26fdd985c4","ios":"levelo://app?vid=e7319d65-e3b9-4d83-a148-dc26fdd985c4"},"vehicle_type_id":"4","last_reported":1728497496,"current_range_meters":26800,"station_id":"ce4bhgp2rcd13ifvqfe0","pricing_plan_id":"cebpf4jnsgd1na2vs0mg"},{"bike_id":"73e5476b-e1c9-4a5d-9e10-41361ad16636","system_id":"levelo_inurba_marseille","lat":43.25118,"lon":5.4032,"is_reserved":false,"is_disabled":false,"rental_uris":{"android":"levelo://app?vid=73e5476b-e1c9-4a5d-9e10-41361ad16636","ios":"levelo://app?vid=73e5476b-e1c9-4a5d-9e10-41361ad16636"},"vehicle_type_id":"4","last_reported":1728497496,"current_range_meters":39200,"station_id":"ce4bhlh2rcd13ifvqgig","pricing_plan_id":"cebpf4jnsgd1na2vs0mg"},{"bike_id":"83094c49-8a16-4268-bb3f-b82bc8befb11","system_id":"levelo_inurba_marseille","lat":43.31083,"lon":5.42435,"is_reserved":false,"is_disabled":false,"rental_uris":{"android":"levelo://app?vid=83094c49-8a16-4268-bb3f-b82bc8befb11","ios":"levelo://app?vid=83094c49-8a16-4268-bb3f-b82bc8befb11"},"vehicle_type_id":"4","last_reported":1728497496,"current_range_meters":2800,"station_id":"ce4bhp92rcd13ifvqhag","pricing_plan_id":"cebpf4jnsgd1na2vs0mg"},{"bike_id":"c95532f1-5c18-4cb0-87bb-45967131ed1d","system_id":"levelo_inurba_marseille","lat":43.31221,"lon":5.36858,"is_reserved":false,"is_disabled":false,"rental_uris":{"android":"levelo://app?vid=c95532f1-5c18-4cb0-87bb-45967131ed1d","ios":"levelo://app?vid=c95532f1-5c18-4cb0-87bb-45967131ed1d"},"vehicle_type_id":"4","last_reported":1728497496,"current_range_meters":38800,"station_id":"ce4bgl92rcd13ifvqbq0","pricing_plan_id":"cebpf4jnsgd1na2vs0mg"},{"bike_id":"0c508ed1-7436-433d-8666-4c73261cb881","system_id":"levelo_inurba_marseille","lat":43.263641,"lon":5.378247,"is_reserved":false,"is_disabled":false,"rental_uris":{"android":"levelo://app?vid=0c508ed1-7436-433d-8666-4c73261cb881","ios":"levelo://app?vid=0c508ed1-7436-433d-8666-4c73261cb881"},"vehicle_type_id":"4","last_reported":1728497496,"current_range_meters":39200,"station_id":"ce4bhip2rcd13ifvqft0","pricing_plan_id":"cebpf4jnsgd1na2vs0mg"},{"bike_id":"6be918ff-776e-400a-8dce-92f1e9e50ca6","system_id":"levelo_inurba_marseille","lat":43.30635,"lon":5.40093,"is_reserved":false,"is_disabled":false,"rental_uris":{"android":"levelo://app?vid=6be918ff-776e-400a-8dce-92f1e9e50ca6","ios":"levelo://app?vid=6be918ff-776e-400a-8dce-92f1e9e50ca6"},"vehicle_type_id":"4","last_reported":1728497496,"current_range_meters":33600,"station_id":"ce4bh112rcd13ifvqda0","pricing_plan_id":"cebpf4jnsgd1na2vs0mg"},{"bike_id":"dcf7fa1a-67f6-4cea-a4a2-70c202568816","system_id":"levelo_inurba_marseille","lat":43.24763,"lon":5.4002,"is_reserved":false,"is_disabled":false,"rental_uris":{"android":"levelo://app?vid=dcf7fa1a-67f6-4cea-a4a2-70c202568816","ios":"levelo://app?vid=dcf7fa1a-67f6-4cea-a4a2-70c202568816"},"vehicle_type_id":"4","last_reported":1728497496,"current_range_meters":24800,"station_id":"","pricing_plan_id":"cebpf4jnsgd1na2vs0mg"},{"bike_id":"aa844649-2fcf-494d-8754-0d01c66bfb04","system_id":"levelo_inurba_marseille","lat":43.291656,"lon":5.371492,"is_reserved":false,"is_disabled":false,"rental_uris":{"android":"levelo://app?vid=aa844649-2fcf-494d-8754-0d01c66bfb04","ios":"levelo://app?vid=aa844649-2fcf-494d-8754-0d01c66bfb04"},"vehicle_type_id":"4","last_reported":1728497496,"current_range_meters":2800,"station_id":"ce4bha92rcd13ifvqeh0","pricing_plan_id":"cebpf4jnsgd1na2vs0mg"},{"bike_id":"8ce32ef5-5027-4dda-9620-c63c127ed8b3","system_id":"levelo_inurba_marseille","lat":43.27997,"lon":5.40015,"is_reserved":false,"is_disabled":false,"rental_uris":{"android":"levelo://app?vid=8ce32ef5-5027-4dda-9620-c63c127ed8b3","ios":"levelo://app?vid=8ce32ef5-5027-4dda-9620-c63c127ed8b3"},"vehicle_type_id":"4","last_reported":1728497496,"current_range_meters":8000,"station_id":"ce4bho92rcd13ifvqh4g","pricing_plan_id":"cebpf4jnsgd1na2vs0mg"},{"bike_id":"2312979e-9428-4f63-bdef-77b40f52c2f7","system_id":"levelo_inurba_marseille","lat":43.30792,"lon":5.43528,"is_reserved":false,"is_disabled":false,"rental_uris":{"android":"levelo://app?vid=2312979e-9428-4f63-bdef-77b40f52c2f7","ios":"levelo://app?vid=2312979e-9428-4f63-bdef-77b40f52c2f7"},"vehicle_type_id":"4","last_reported":1728497496,"current_range_meters":24000,"station_id":"ce4bhph2rcd13ifvqheg","pricing_plan_id":"cebpf4jnsgd1na2vs0mg"},{"bike_id":"6caf95ac-909f-41e1-8bc7-0f91444d16fb","system_id":"levelo_inurba_marseille","lat":43.23069,"lon":5.35494,"is_reserved":false,"is_disabled":false,"rental_uris":{"android":"levelo://app?vid=6caf95ac-909f-41e1-8bc7-0f91444d16fb","ios":"levelo://app?vid=6caf95ac-909f-41e1-8bc7-0f91444d16fb"},"vehicle_type_id":"4","last_reported":1728497496,"current_range_meters":16800,"station_id":"cpo3342slgdg3j2ifvpg","pricing_plan_id":"cebpf4jnsgd1na2vs0mg"},{"bike_id":"3fab305b-1728-4a45-9f4f-fb39052b80d2","system_id":"levelo_inurba_marseille","lat":43.25488,"lon":5.3765,"is_reserved":false,"is_disabled":false,"rental_uris":{"android":"levelo://app?vid=3fab305b-1728-4a45-9f4f-fb39052b80d2","ios":"levelo://app?vid=3fab305b-1728-4a45-9f4f-fb39052b80d2"},"vehicle_type_id":"4","last_reported":1728497496,"current_range_meters":36400,"station_id":"ce4bhh12rcd13ifvqff0","pricing_plan_id":"cebpf4jnsgd1na2vs0mg"},{"bike_id":"6897f679-31f5-47bf-94d9-faab9b5e3ef4","system_id":"levelo_inurba_marseille","lat":43.31753,"lon":5.39017,"is_reserved":false,"is_disabled":false,"rental_uris":{"android":"levelo://app?vid=6897f679-31f5-47bf-94d9-faab9b5e3ef4","ios":"levelo://app?vid=6897f679-31f5-47bf-94d9-faab9b5e3ef4"},"vehicle_type_id":"4","last_reported":1728497496,"current_range_meters":22800,"station_id":"ce4bhqp2rcd13ifvqhng","pricing_plan_id":"cebpf4jnsgd1na2vs0mg"},{"bike_id":"cb439072-15f2-4299-919f-ba4b86460e53","system_id":"levelo_inurba_marseille","lat":43.28036,"lon":5.36942,"is_reserved":false,"is_disabled":false,"rental_uris":{"android":"levelo://app?vid=cb439072-15f2-4299-919f-ba4b86460e53","ios":"levelo://app?vid=cb439072-15f2-4299-919f-ba4b86460e53"},"vehicle_type_id":"4","last_reported":1728497496,"current_range_meters":33200,"station_id":"ce4bha12rcd13ifvqef0","pricing_plan_id":"cebpf4jnsgd1na2vs0mg"},{"bike_id":"ede68b2f-f53f-4ad5-a3f5-950bc936b5eb","system_id":"levelo_inurba_marseille","lat":43.33773,"lon":5.37398,"is_reserved":false,"is_disabled":false,"rental_uris":{"android":"levelo://app?vid=ede68b2f-f53f-4ad5-a3f5-950bc936b5eb","ios":"levelo://app?vid=ede68b2f-f53f-4ad5-a3f5-950bc936b5eb"},"vehicle_type_id":"4","last_reported":1728497496,"current_range_meters":32800,"station_id":"","pricing_plan_id":"cebpf4jnsgd1na2vs0mg"},{"bike_id":"c4871719-969c-47b5-8dc2-5b38750b0039","system_id":"levelo_inurba_marseille","lat":43.26962,"lon":5.38635,"is_reserved":false,"is_disabled":false,"rental_uris":{"android":"levelo://app?vid=c4871719-969c-47b5-8dc2-5b38750b0039","ios":"levelo://app?vid=c4871719-969c-47b5-8dc2-5b38750b0039"},"vehicle_type_id":"4","last_reported":1728497496,"current_range_meters":21600,"station_id":"ce4bhh92rcd13ifvqfh0","pricing_plan_id":"cebpf4jnsgd1na2vs0mg"},{"bike_id":"bb2e048a-c55f-4f68-98e0-9f12edc3e4d6","system_id":"levelo_inurba_marseille","lat":43.24172,"lon":5.39735,"is_reserved":false,"is_disabled":false,"rental_uris":{"android":"levelo://app?vid=bb2e048a-c55f-4f68-98e0-9f12edc3e4d6","ios":"levelo://app?vid=bb2e048a-c55f-4f68-98e0-9f12edc3e4d6"},"vehicle_type_id":"4","last_reported":1728497496,"current_range_meters":38800,"station_id":"ce4bhn12rcd13ifvqgpg","pricing_plan_id":"cebpf4jnsgd1na2vs0mg"},{"bike_id":"51ac1468-270a-49d0-8cdb-4ef6fc2d7e71","system_id":"levelo_inurba_marseille","lat":43.33717,"lon":5.39183,"is_reserved":false,"is_disabled":false,"rental_uris":{"android":"levelo://app?vid=51ac1468-270a-49d0-8cdb-4ef6fc2d7e71","ios":"levelo://app?vid=51ac1468-270a-49d0-8cdb-4ef6fc2d7e71"},"vehicle_type_id":"4","last_reported":1728497496,"current_range_meters":17600,"station_id":"ce4bhr92rcd13ifvqhsg","pricing_plan_id":"cebpf4jnsgd1na2vs0mg"},{"bike_id":"5d378526-5716-411b-b4b1-79e697cfb815","system_id":"levelo_inurba_marseille","lat":43.30792,"lon":5.43525,"is_reserved":false,"is_disabled":false,"rental_uris":{"android":"levelo://app?vid=5d378526-5716-411b-b4b1-79e697cfb815","ios":"levelo://app?vid=5d378526-5716-411b-b4b1-79e697cfb815"},"vehicle_type_id":"4","last_reported":1728497496,"current_range_meters":31200,"station_id":"ce4bhph2rcd13ifvqheg","pricing_plan_id":"cebpf4jnsgd1na2vs0mg"},{"bike_id":"ce4c5209-8f14-422f-933b-f32f2f1c85af","system_id":"levelo_inurba_marseille","lat":43.25117,"lon":5.4032,"is_reserved":false,"is_disabled":false,"rental_uris":{"android":"levelo://app?vid=ce4c5209-8f14-422f-933b-f32f2f1c85af","ios":"levelo://app?vid=ce4c5209-8f14-422f-933b-f32f2f1c85af"},"vehicle_type_id":"4","last_reported":1728497496,"current_range_meters":39200,"station_id":"ce4bhlh2rcd13ifvqgig","pricing_plan_id":"cebpf4jnsgd1na2vs0mg"},{"bike_id":"885b6ad9-0995-4c83-bb2b-01ee09830319","system_id":"levelo_inurba_marseille","lat":43.32284,"lon":5.38289,"is_reserved":false,"is_disabled":false,"rental_uris":{"android":"levelo://app?vid=885b6ad9-0995-4c83-bb2b-01ee09830319","ios":"levelo://app?vid=885b6ad9-0995-4c83-bb2b-01ee09830319"},"vehicle_type_id":"4","last_reported":1728497496,"current_range_meters":38000,"station_id":"ce4bhr12rcd13ifvqhqg","pricing_plan_id":"cebpf4jnsgd1na2vs0mg"},{"bike_id":"aabacc43-cc73-4731-814d-c104866a5f86","system_id":"levelo_inurba_marseille","lat":43.29525,"lon":5.39034,"is_reserved":false,"is_disabled":false,"rental_uris":{"android":"levelo://app?vid=aabacc43-cc73-4731-814d-c104866a5f86","ios":"levelo://app?vid=aabacc43-cc73-4731-814d-c104866a5f86"},"vehicle_type_id":"4","last_reported":1728497496,"current_range_meters":17200,"station_id":"ce4bh3p2rcd13ifvqdp0","pricing_plan_id":"cebpf4jnsgd1na2vs0mg"},{"bike_id":"810b32d6-b30c-480b-a6ee-5bd54d112eb8","system_id":"levelo_inurba_marseille","lat":43.33749,"lon":5.37442,"is_reserved":false,"is_disabled":false,"rental_uris":{"android":"levelo://app?vid=810b32d6-b30c-480b-a6ee-5bd54d112eb8","ios":"levelo://app?vid=810b32d6-b30c-480b-a6ee-5bd54d112eb8"},"vehicle_type_id":"4","last_reported":1728497496,"current_range_meters":27200,"station_id":"ce4rr2p2rcd13i802rgg","pricing_plan_id":"cebpf4jnsgd1na2vs0mg"},{"bike_id":"a8981e44-8423-44bb-8289-6f72c8125ec6","system_id":"levelo_inurba_marseille","lat":43.30267,"lon":5.39772,"is_reserved":false,"is_disabled":false,"rental_uris":{"android":"levelo://app?vid=a8981e44-8423-44bb-8289-6f72c8125ec6","ios":"levelo://app?vid=a8981e44-8423-44bb-8289-6f72c8125ec6"},"vehicle_type_id":"4","last_reported":1728497496,"current_range_meters":37600,"station_id":"","pricing_plan_id":"cebpf4jnsgd1na2vs0mg"},{"bike_id":"7f329954-a66e-4f4f-b724-6fb558028a50","system_id":"levelo_inurba_marseille","lat":43.29548,"lon":5.39029,"is_reserved":false,"is_disabled":false,"rental_uris":{"android":"levelo://app?vid=7f329954-a66e-4f4f-b724-6fb558028a50","ios":"levelo://app?vid=7f329954-a66e-4f4f-b724-6fb558028a50"},"vehicle_type_id":"4","last_reported":1728497496,"current_range_meters":7200,"station_id":"ce4bh3p2rcd13ifvqdp0","pricing_plan_id":"cebpf4jnsgd1na2vs0mg"},{"bike_id":"6788304e-a293-4cdd-97ad-484d5208b17d","system_id":"levelo_inurba_marseille","lat":43.27823,"lon":5.40735,"is_reserved":false,"is_disabled":false,"rental_uris":{"android":"levelo://app?vid=6788304e-a293-4cdd-97ad-484d5208b17d","ios":"levelo://app?vid=6788304e-a293-4cdd-97ad-484d5208b17d"},"vehicle_type_id":"4","last_reported":1728497496,"current_range_meters":2800,"station_id":"ce4bhnh2rcd13ifvqgtg","pricing_plan_id":"cebpf4jnsgd1na2vs0mg"},{"bike_id":"88107756-51a2-4ca8-85a1-d6a88080d043","system_id":"levelo_inurba_marseille","lat":43.295471,"lon":5.393997,"is_reserved":false,"is_disabled":false,"rental_uris":{"android":"levelo://app?vid=88107756-51a2-4ca8-85a1-d6a88080d043","ios":"levelo://app?vid=88107756-51a2-4ca8-85a1-d6a88080d043"},"vehicle_type_id":"4","last_reported":1728497496,"current_range_meters":12000,"station_id":"ce4bh292rcd13ifvqdf0","pricing_plan_id":"cebpf4jnsgd1na2vs0mg"},{"bike_id":"fc5f784a-edc3-4432-8e59-2b3b3616918f","system_id":"levelo_inurba_marseille","lat":43.28079,"lon":5.39666,"is_reserved":false,"is_disabled":false,"rental_uris":{"android":"levelo://app?vid=fc5f784a-edc3-4432-8e59-2b3b3616918f","ios":"levelo://app?vid=fc5f784a-edc3-4432-8e59-2b3b3616918f"},"vehicle_type_id":"4","last_reported":1728497496,"current_range_meters":19600,"station_id":"ce4bho12rcd13ifvqh2g","pricing_plan_id":"cebpf4jnsgd1na2vs0mg"},{"bike_id":"5562b9a9-5e2a-4b92-ba2e-f5f9d6c288db","system_id":"levelo_inurba_marseille","lat":43.28838,"lon":5.39314,"is_reserved":false,"is_disabled":false,"rental_uris":{"android":"levelo://app?vid=5562b9a9-5e2a-4b92-ba2e-f5f9d6c288db","ios":"levelo://app?vid=5562b9a9-5e2a-4b92-ba2e-f5f9d6c288db"},"vehicle_type_id":"4","last_reported":1728497496,"current_range_meters":12800,"station_id":"ce4bh2p2rcd13ifvqdi0","pricing_plan_id":"cebpf4jnsgd1na2vs0mg"},{"bike_id":"337603ba-83c5-4153-8211-16da9f17593c","system_id":"levelo_inurba_marseille","lat":43.29572,"lon":5.36751,"is_reserved":false,"is_disabled":false,"rental_uris":{"android":"levelo://app?vid=337603ba-83c5-4153-8211-16da9f17593c","ios":"levelo://app?vid=337603ba-83c5-4153-8211-16da9f17593c"},"vehicle_type_id":"4","last_reported":1728497496,"current_range_meters":37600,"station_id":"ce4bgph2rcd13ifvqc2g","pricing_plan_id":"cebpf4jnsgd1na2vs0mg"},{"bike_id":"af0d6960-4da9-4f27-b03a-925de7b3619b","system_id":"levelo_inurba_marseille","lat":43.29255,"lon":5.38446,"is_reserved":false,"is_disabled":false,"rental_uris":{"android":"levelo://app?vid=af0d6960-4da9-4f27-b03a-925de7b3619b","ios":"levelo://app?vid=af0d6960-4da9-4f27-b03a-925de7b3619b"},"vehicle_type_id":"4","last_reported":1728497496,"current_range_meters":34000,"station_id":"ce4bh692rcd13ifvqea0","pricing_plan_id":"cebpf4jnsgd1na2vs0mg"},{"bike_id":"85a048f8-8505-46d4-9d20-ae725d292ea2","system_id":"levelo_inurba_marseille","lat":43.3126,"lon":5.40174,"is_reserved":false,"is_disabled":false,"rental_uris":{"android":"levelo://app?vid=85a048f8-8505-46d4-9d20-ae725d292ea2","ios":"levelo://app?vid=85a048f8-8505-46d4-9d20-ae725d292ea2"},"vehicle_type_id":"4","last_reported":1728497496,"current_range_meters":35600,"station_id":"ce4bh092rcd13ifvqd30","pricing_plan_id":"cebpf4jnsgd1na2vs0mg"},{"bike_id":"2b6a13d8-46d2-4f07-b0c9-8aa09e713bdb","system_id":"levelo_inurba_marseille","lat":43.2548,"lon":5.37661,"is_reserved":false,"is_disabled":false,"rental_uris":{"android":"levelo://app?vid=2b6a13d8-46d2-4f07-b0c9-8aa09e713bdb","ios":"levelo://app?vid=2b6a13d8-46d2-4f07-b0c9-8aa09e713bdb"},"vehicle_type_id":"4","last_reported":1728497496,"current_range_meters":39200,"station_id":"ce4bhh12rcd13ifvqff0","pricing_plan_id":"cebpf4jnsgd1na2vs0mg"},{"bike_id":"88a2001f-3d05-45fa-8ce2-7b6503335a54","system_id":"levelo_inurba_marseille","lat":43.3266,"lon":5.40989,"is_reserved":false,"is_disabled":false,"rental_uris":{"android":"levelo://app?vid=88a2001f-3d05-45fa-8ce2-7b6503335a54","ios":"levelo://app?vid=88a2001f-3d05-45fa-8ce2-7b6503335a54"},"vehicle_type_id":"4","last_reported":1728497496,"current_range_meters":19200,"station_id":"ce4bhpp2rcd13ifvqhgg","pricing_plan_id":"cebpf4jnsgd1na2vs0mg"},{"bike_id":"c2dbdf24-83b9-4d66-80b0-4eee816c4194","system_id":"levelo_inurba_marseille","lat":43.27811,"lon":5.40711,"is_reserved":false,"is_disabled":false,"rental_uris":{"android":"levelo://app?vid=c2dbdf24-83b9-4d66-80b0-4eee816c4194","ios":"levelo://app?vid=c2dbdf24-83b9-4d66-80b0-4eee816c4194"},"vehicle_type_id":"4","last_reported":1728497496,"current_range_meters":38000,"station_id":"ce4bhnh2rcd13ifvqgtg","pricing_plan_id":"cebpf4jnsgd1na2vs0mg"},{"bike_id":"4ef6cb29-b4e2-4a86-8366-b663783a230b","system_id":"levelo_inurba_marseille","lat":43.309379,"lon":5.390319,"is_reserved":false,"is_disabled":false,"rental_uris":{"android":"levelo://app?vid=4ef6cb29-b4e2-4a86-8366-b663783a230b","ios":"levelo://app?vid=4ef6cb29-b4e2-4a86-8366-b663783a230b"},"vehicle_type_id":"4","last_reported":1728497496,"current_range_meters":9600,"station_id":"ce4bgup2rcd13ifvqco0","pricing_plan_id":"cebpf4jnsgd1na2vs0mg"},{"bike_id":"dcbd1fbb-7615-41d7-84bc-a4b8aef1dc67","system_id":"levelo_inurba_marseille","lat":43.25487,"lon":5.37647,"is_reserved":false,"is_disabled":false,"rental_uris":{"android":"levelo://app?vid=dcbd1fbb-7615-41d7-84bc-a4b8aef1dc67","ios":"levelo://app?vid=dcbd1fbb-7615-41d7-84bc-a4b8aef1dc67"},"vehicle_type_id":"4","last_reported":1728497496,"current_range_meters":3200,"station_id":"ce4bhh12rcd13ifvqff0","pricing_plan_id":"cebpf4jnsgd1na2vs0mg"},{"bike_id":"115f99b9-4f17-436d-b64b-539a809a91f1","system_id":"levelo_inurba_marseille","lat":43.33017,"lon":5.39041,"is_reserved":false,"is_disabled":false,"rental_uris":{"android":"levelo://app?vid=115f99b9-4f17-436d-b64b-539a809a91f1","ios":"levelo://app?vid=115f99b9-4f17-436d-b64b-539a809a91f1"},"vehicle_type_id":"4","last_reported":1728497496,"current_range_meters":38000,"station_id":"ce4bhr92rcd13ifvqhrg","pricing_plan_id":"cebpf4jnsgd1na2vs0mg"},{"bike_id":"fa968d63-2fc6-42fd-9640-d67bdbc24a6e","system_id":"levelo_inurba_marseille","lat":43.28978,"lon":5.3783,"is_reserved":false,"is_disabled":false,"rental_uris":{"android":"levelo://app?vid=fa968d63-2fc6-42fd-9640-d67bdbc24a6e","ios":"levelo://app?vid=fa968d63-2fc6-42fd-9640-d67bdbc24a6e"},"vehicle_type_id":"4","last_reported":1728497496,"current_range_meters":3200,"station_id":"ce4bh9p2rcd13ifvqed0","pricing_plan_id":"cebpf4jnsgd1na2vs0mg"},{"bike_id":"b4e3873d-b92a-4ac1-a3d6-78a8e17b362a","system_id":"levelo_inurba_marseille","lat":43.252185,"lon":5.386683,"is_reserved":false,"is_disabled":false,"rental_uris":{"android":"levelo://app?vid=b4e3873d-b92a-4ac1-a3d6-78a8e17b362a","ios":"levelo://app?vid=b4e3873d-b92a-4ac1-a3d6-78a8e17b362a"},"vehicle_type_id":"4","last_reported":1728497496,"current_range_meters":16800,"station_id":"","pricing_plan_id":"cebpf4jnsgd1na2vs0mg"},{"bike_id":"5c1a8458-a3a4-4acf-a609-5cf70095ff7a","system_id":"levelo_inurba_marseille","lat":43.24987,"lon":5.38938,"is_reserved":false,"is_disabled":false,"rental_uris":{"android":"levelo://app?vid=5c1a8458-a3a4-4acf-a609-5cf70095ff7a","ios":"levelo://app?vid=5c1a8458-a3a4-4acf-a609-5cf70095ff7a"},"vehicle_type_id":"4","last_reported":1728497496,"current_range_meters":38800,"station_id":"ce4bhgp2rcd13ifvqfd0","pricing_plan_id":"cebpf4jnsgd1na2vs0mg"},{"bike_id":"4745caff-0453-478a-8963-025636bcb912","system_id":"levelo_inurba_marseille","lat":43.33023,"lon":5.39046,"is_reserved":false,"is_disabled":false,"rental_uris":{"android":"levelo://app?vid=4745caff-0453-478a-8963-025636bcb912","ios":"levelo://app?vid=4745caff-0453-478a-8963-025636bcb912"},"vehicle_type_id":"4","last_reported":1728497496,"current_range_meters":18800,"station_id":"ce4bhr92rcd13ifvqhrg","pricing_plan_id":"cebpf4jnsgd1na2vs0mg"},{"bike_id":"5313992a-f6d1-4718-902d-743fe30c7e96","system_id":"levelo_inurba_marseille","lat":43.24654,"lon":5.38896,"is_reserved":false,"is_disabled":false,"rental_uris":{"android":"levelo://app?vid=5313992a-f6d1-4718-902d-743fe30c7e96","ios":"levelo://app?vid=5313992a-f6d1-4718-902d-743fe30c7e96"},"vehicle_type_id":"4","last_reported":1728497496,"current_range_meters":38800,"station_id":"ce4bhg12rcd13ifvqf60","pricing_plan_id":"cebpf4jnsgd1na2vs0mg"},{"bike_id":"f4d415e0-2685-42d4-a659-b6ec9758beec","system_id":"levelo_inurba_marseille","lat":43.29179,"lon":5.38315,"is_reserved":false,"is_disabled":false,"rental_uris":{"android":"levelo://app?vid=f4d415e0-2685-42d4-a659-b6ec9758beec","ios":"levelo://app?vid=f4d415e0-2685-42d4-a659-b6ec9758beec"},"vehicle_type_id":"4","last_reported":1728497496,"current_range_meters":23200,"station_id":"ce4bhap2rcd13ifvqek0","pricing_plan_id":"cebpf4jnsgd1na2vs0mg"},{"bike_id":"c7c14194-942a-4587-8081-7a7d73164080","system_id":"levelo_inurba_marseille","lat":43.30957,"lon":5.39035,"is_reserved":false,"is_disabled":false,"rental_uris":{"android":"levelo://app?vid=c7c14194-942a-4587-8081-7a7d73164080","ios":"levelo://app?vid=c7c14194-942a-4587-8081-7a7d73164080"},"vehicle_type_id":"4","last_reported":1728497496,"current_range_meters":38800,"station_id":"ce4bgup2rcd13ifvqco0","pricing_plan_id":"cebpf4jnsgd1na2vs0mg"},{"bike_id":"8354a8b4-0bb4-486f-a513-c998f3fa2bd6","system_id":"levelo_inurba_marseille","lat":43.29014,"lon":5.38136,"is_reserved":false,"is_disabled":false,"rental_uris":{"android":"levelo://app?vid=8354a8b4-0bb4-486f-a513-c998f3fa2bd6","ios":"levelo://app?vid=8354a8b4-0bb4-486f-a513-c998f3fa2bd6"},"vehicle_type_id":"4","last_reported":1728497496,"current_range_meters":34800,"station_id":"ce4bh4p2rcd13ifvqe1g","pricing_plan_id":"cebpf4jnsgd1na2vs0mg"},{"bike_id":"bb8c49f9-d140-4d9b-93d7-4c09ebd18449","system_id":"levelo_inurba_marseille","lat":43.28463,"lon":5.35899,"is_reserved":false,"is_disabled":false,"rental_uris":{"android":"levelo://app?vid=bb8c49f9-d140-4d9b-93d7-4c09ebd18449","ios":"levelo://app?vid=bb8c49f9-d140-4d9b-93d7-4c09ebd18449"},"vehicle_type_id":"4","last_reported":1728497496,"current_range_meters":21600,"station_id":"ce4bhah2rcd13ifvqei0","pricing_plan_id":"cebpf4jnsgd1na2vs0mg"},{"bike_id":"d43d2650-7535-4b06-8bb0-1c42ba159214","system_id":"levelo_inurba_marseille","lat":43.31118,"lon":5.37772,"is_reserved":false,"is_disabled":false,"rental_uris":{"android":"levelo://app?vid=d43d2650-7535-4b06-8bb0-1c42ba159214","ios":"levelo://app?vid=d43d2650-7535-4b06-8bb0-1c42ba159214"},"vehicle_type_id":"4","last_reported":1728497496,"current_range_meters":38800,"station_id":"ce4bgt92rcd13ifvqcg0","pricing_plan_id":"cebpf4jnsgd1na2vs0mg"},{"bike_id":"7b1bf317-3623-49e6-8469-a0ef982989f1","system_id":"levelo_inurba_marseille","lat":43.24995,"lon":5.38938,"is_reserved":false,"is_disabled":false,"rental_uris":{"android":"levelo://app?vid=7b1bf317-3623-49e6-8469-a0ef982989f1","ios":"levelo://app?vid=7b1bf317-3623-49e6-8469-a0ef982989f1"},"vehicle_type_id":"4","last_reported":1728497496,"current_range_meters":39200,"station_id":"ce4bhgp2rcd13ifvqfd0","pricing_plan_id":"cebpf4jnsgd1na2vs0mg"},{"bike_id":"daa16d99-18dc-4e00-9061-db4889c92d04","system_id":"levelo_inurba_marseille","lat":43.29418,"lon":5.38622,"is_reserved":false,"is_disabled":false,"rental_uris":{"android":"levelo://app?vid=daa16d99-18dc-4e00-9061-db4889c92d04","ios":"levelo://app?vid=daa16d99-18dc-4e00-9061-db4889c92d04"},"vehicle_type_id":"4","last_reported":1728497496,"current_range_meters":6000,"station_id":"ce4bh2h2rcd13ifvqdh0","pricing_plan_id":"cebpf4jnsgd1na2vs0mg"},{"bike_id":"81d49c0c-b020-45f2-8d81-6459353c9809","system_id":"levelo_inurba_marseille","lat":43.31744,"lon":5.39022,"is_reserved":false,"is_disabled":false,"rental_uris":{"android":"levelo://app?vid=81d49c0c-b020-45f2-8d81-6459353c9809","ios":"levelo://app?vid=81d49c0c-b020-45f2-8d81-6459353c9809"},"vehicle_type_id":"4","last_reported":1728497496,"current_range_meters":22400,"station_id":"ce4bhqp2rcd13ifvqhng","pricing_plan_id":"cebpf4jnsgd1na2vs0mg"},{"bike_id":"e754530e-bf56-451b-b874-fc03b0022e3f","system_id":"levelo_inurba_marseille","lat":43.289662,"lon":5.376145,"is_reserved":false,"is_disabled":false,"rental_uris":{"android":"levelo://app?vid=e754530e-bf56-451b-b874-fc03b0022e3f","ios":"levelo://app?vid=e754530e-bf56-451b-b874-fc03b0022e3f"},"vehicle_type_id":"4","last_reported":1728497496,"current_range_meters":400,"station_id":"ce4bh692rcd13ifvqe90","pricing_plan_id":"cebpf4jnsgd1na2vs0mg"},{"bike_id":"92ed4025-32d2-43d5-8e60-e3c0ef293359","system_id":"levelo_inurba_marseille","lat":43.32289,"lon":5.38269,"is_reserved":false,"is_disabled":false,"rental_uris":{"android":"levelo://app?vid=92ed4025-32d2-43d5-8e60-e3c0ef293359","ios":"levelo://app?vid=92ed4025-32d2-43d5-8e60-e3c0ef293359"},"vehicle_type_id":"4","last_reported":1728497496,"current_range_meters":8800,"station_id":"ce4bhr12rcd13ifvqhqg","pricing_plan_id":"cebpf4jnsgd1na2vs0mg"},{"bike_id":"8523fe4d-2d7b-4a96-a923-b96c618938bb","system_id":"levelo_inurba_marseille","lat":43.32337,"lon":5.40621,"is_reserved":false,"is_disabled":false,"rental_uris":{"android":"levelo://app?vid=8523fe4d-2d7b-4a96-a923-b96c618938bb","ios":"levelo://app?vid=8523fe4d-2d7b-4a96-a923-b96c618938bb"},"vehicle_type_id":"4","last_reported":1728497496,"current_range_meters":36800,"station_id":"ce4bhq92rcd13ifvqhjg","pricing_plan_id":"cebpf4jnsgd1na2vs0mg"},{"bike_id":"cb732625-ec41-44c0-b27e-8dc52e27c7b4","system_id":"levelo_inurba_marseille","lat":43.295066,"lon":5.374974,"is_reserved":false,"is_disabled":false,"rental_uris":{"android":"levelo://app?vid=cb732625-ec41-44c0-b27e-8dc52e27c7b4","ios":"levelo://app?vid=cb732625-ec41-44c0-b27e-8dc52e27c7b4"},"vehicle_type_id":"4","last_reported":1728497496,"current_range_meters":19200,"station_id":"ce4bgkp2rcd13ifvqbmg","pricing_plan_id":"cebpf4jnsgd1na2vs0mg"},{"bike_id":"576e423f-ac45-4f0f-abc4-c5de3f2f8f2c","system_id":"levelo_inurba_marseille","lat":43.31331,"lon":5.39702,"is_reserved":false,"is_disabled":false,"rental_uris":{"android":"levelo://app?vid=576e423f-ac45-4f0f-abc4-c5de3f2f8f2c","ios":"levelo://app?vid=576e423f-ac45-4f0f-abc4-c5de3f2f8f2c"},"vehicle_type_id":"4","last_reported":1728497496,"current_range_meters":38000,"station_id":"ce4bgvp2rcd13ifvqcu0","pricing_plan_id":"cebpf4jnsgd1na2vs0mg"},{"bike_id":"2a23f37b-af60-4159-a89b-da995e88f9d5","system_id":"levelo_inurba_marseille","lat":43.30955,"lon":5.39032,"is_reserved":false,"is_disabled":false,"rental_uris":{"android":"levelo://app?vid=2a23f37b-af60-4159-a89b-da995e88f9d5","ios":"levelo://app?vid=2a23f37b-af60-4159-a89b-da995e88f9d5"},"vehicle_type_id":"4","last_reported":1728497496,"current_range_meters":38800,"station_id":"ce4bgup2rcd13ifvqco0","pricing_plan_id":"cebpf4jnsgd1na2vs0mg"},{"bike_id":"ae351c70-5a83-4ec1-8f94-93f8214110e0","system_id":"levelo_inurba_marseille","lat":43.24668,"lon":5.38171,"is_reserved":false,"is_disabled":false,"rental_uris":{"android":"levelo://app?vid=ae351c70-5a83-4ec1-8f94-93f8214110e0","ios":"levelo://app?vid=ae351c70-5a83-4ec1-8f94-93f8214110e0"},"vehicle_type_id":"4","last_reported":1728497496,"current_range_meters":7200,"station_id":"ce4bhih2rcd13ifvqfr0","pricing_plan_id":"cebpf4jnsgd1na2vs0mg"},{"bike_id":"2bc5f93b-b1d3-4403-8433-9d873dfb16de","system_id":"levelo_inurba_marseille","lat":43.25108,"lon":5.40335,"is_reserved":false,"is_disabled":false,"rental_uris":{"android":"levelo://app?vid=2bc5f93b-b1d3-4403-8433-9d873dfb16de","ios":"levelo://app?vid=2bc5f93b-b1d3-4403-8433-9d873dfb16de"},"vehicle_type_id":"4","last_reported":1728497496,"current_range_meters":39200,"station_id":"ce4bhlh2rcd13ifvqgig","pricing_plan_id":"cebpf4jnsgd1na2vs0mg"},{"bike_id":"43e09d60-4b6a-4bdd-955b-21c86e33d38d","system_id":"levelo_inurba_marseille","lat":43.2454,"lon":5.39531,"is_reserved":false,"is_disabled":false,"rental_uris":{"android":"levelo://app?vid=43e09d60-4b6a-4bdd-955b-21c86e33d38d","ios":"levelo://app?vid=43e09d60-4b6a-4bdd-955b-21c86e33d38d"},"vehicle_type_id":"4","last_reported":1728497496,"current_range_meters":38800,"station_id":"ce4bhlp2rcd13ifvqgjg","pricing_plan_id":"cebpf4jnsgd1na2vs0mg"},{"bike_id":"b475dfe8-6c89-4597-9704-9f74d4d063ba","system_id":"levelo_inurba_marseille","lat":43.23198,"lon":5.35559,"is_reserved":false,"is_disabled":false,"rental_uris":{"android":"levelo://app?vid=b475dfe8-6c89-4597-9704-9f74d4d063ba","ios":"levelo://app?vid=b475dfe8-6c89-4597-9704-9f74d4d063ba"},"vehicle_type_id":"4","last_reported":1728497496,"current_range_meters":38000,"station_id":"ce4bhu92rcd13ifvqi70","pricing_plan_id":"cebpf4jnsgd1na2vs0mg"},{"bike_id":"77e2d85d-a0bb-4ca1-9858-8f41e1584409","system_id":"levelo_inurba_marseille","lat":43.30799,"lon":5.43534,"is_reserved":false,"is_disabled":false,"rental_uris":{"android":"levelo://app?vid=77e2d85d-a0bb-4ca1-9858-8f41e1584409","ios":"levelo://app?vid=77e2d85d-a0bb-4ca1-9858-8f41e1584409"},"vehicle_type_id":"4","last_reported":1728497496,"current_range_meters":22000,"station_id":"ce4bhph2rcd13ifvqheg","pricing_plan_id":"cebpf4jnsgd1na2vs0mg"},{"bike_id":"803f2c7c-3d8f-42d5-8e93-8c35357a1751","system_id":"levelo_inurba_marseille","lat":43.307678,"lon":5.381533,"is_reserved":false,"is_disabled":false,"rental_uris":{"android":"levelo://app?vid=803f2c7c-3d8f-42d5-8e93-8c35357a1751","ios":"levelo://app?vid=803f2c7c-3d8f-42d5-8e93-8c35357a1751"},"vehicle_type_id":"4","last_reported":1728497496,"current_range_meters":39200,"station_id":"ce4bgt12rcd13ifvqce0","pricing_plan_id":"cebpf4jnsgd1na2vs0mg"},{"bike_id":"4bca65e7-f083-4a86-bb95-67042f0cf645","system_id":"levelo_inurba_marseille","lat":43.31333,"lon":5.39697,"is_reserved":false,"is_disabled":false,"rental_uris":{"android":"levelo://app?vid=4bca65e7-f083-4a86-bb95-67042f0cf645","ios":"levelo://app?vid=4bca65e7-f083-4a86-bb95-67042f0cf645"},"vehicle_type_id":"4","last_reported":1728497496,"current_range_meters":6000,"station_id":"ce4bgvp2rcd13ifvqcu0","pricing_plan_id":"cebpf4jnsgd1na2vs0mg"},{"bike_id":"d330b914-918c-42ec-912a-817e02ab2d2a","system_id":"levelo_inurba_marseille","lat":43.27618,"lon":5.3612,"is_reserved":false,"is_disabled":false,"rental_uris":{"android":"levelo://app?vid=d330b914-918c-42ec-912a-817e02ab2d2a","ios":"levelo://app?vid=d330b914-918c-42ec-912a-817e02ab2d2a"},"vehicle_type_id":"4","last_reported":1728497496,"current_range_meters":24800,"station_id":"ce4bgj92rcd13ifvqbe0","pricing_plan_id":"cebpf4jnsgd1na2vs0mg"},{"bike_id":"db169a6d-41db-4ab5-bcc9-c041f75042bc","system_id":"levelo_inurba_marseille","lat":43.306366,"lon":5.374209,"is_reserved":false,"is_disabled":false,"rental_uris":{"android":"levelo://app?vid=db169a6d-41db-4ab5-bcc9-c041f75042bc","ios":"levelo://app?vid=db169a6d-41db-4ab5-bcc9-c041f75042bc"},"vehicle_type_id":"4","last_reported":1728497496,"current_range_meters":24400,"station_id":"ce4bgqh2rcd13ifvqc4g","pricing_plan_id":"cebpf4jnsgd1na2vs0mg"},{"bike_id":"da802ed2-1594-4eec-aeb2-055d0b4882f4","system_id":"levelo_inurba_marseille","lat":43.28932,"lon":5.36648,"is_reserved":false,"is_disabled":false,"rental_uris":{"android":"levelo://app?vid=da802ed2-1594-4eec-aeb2-055d0b4882f4","ios":"levelo://app?vid=da802ed2-1594-4eec-aeb2-055d0b4882f4"},"vehicle_type_id":"4","last_reported":1728497496,"current_range_meters":4400,"station_id":"ce4bhap2rcd13ifvqek0","pricing_plan_id":"cebpf4jnsgd1na2vs0mg"},{"bike_id":"51440785-2105-4fe8-9ced-61f3b7fe58f6","system_id":"levelo_inurba_marseille","lat":43.33772,"lon":5.37452,"is_reserved":false,"is_disabled":false,"rental_uris":{"android":"levelo://app?vid=51440785-2105-4fe8-9ced-61f3b7fe58f6","ios":"levelo://app?vid=51440785-2105-4fe8-9ced-61f3b7fe58f6"},"vehicle_type_id":"4","last_reported":1728497496,"current_range_meters":36000,"station_id":"","pricing_plan_id":"cebpf4jnsgd1na2vs0mg"},{"bike_id":"a368d76e-e9c1-467f-82cb-b9fe018668fa","system_id":"levelo_inurba_marseille","lat":43.33759,"lon":5.37448,"is_reserved":false,"is_disabled":false,"rental_uris":{"android":"levelo://app?vid=a368d76e-e9c1-467f-82cb-b9fe018668fa","ios":"levelo://app?vid=a368d76e-e9c1-467f-82cb-b9fe018668fa"},"vehicle_type_id":"4","last_reported":1728497496,"current_range_meters":36400,"station_id":"ce4rr2p2rcd13i802rgg","pricing_plan_id":"cebpf4jnsgd1na2vs0mg"},{"bike_id":"be3c8c4f-6baf-45cd-9e47-8ca15886b09d","system_id":"levelo_inurba_marseille","lat":43.3107,"lon":5.38343,"is_reserved":false,"is_disabled":false,"rental_uris":{"android":"levelo://app?vid=be3c8c4f-6baf-45cd-9e47-8ca15886b09d","ios":"levelo://app?vid=be3c8c4f-6baf-45cd-9e47-8ca15886b09d"},"vehicle_type_id":"4","last_reported":1728497496,"current_range_meters":38800,"station_id":"ce4bgv92rcd13ifvqcr0","pricing_plan_id":"cebpf4jnsgd1na2vs0mg"},{"bike_id":"bf4255f4-da68-4f68-88f8-67b5d01b3922","system_id":"levelo_inurba_marseille","lat":43.29171,"lon":5.37161,"is_reserved":false,"is_disabled":false,"rental_uris":{"android":"levelo://app?vid=bf4255f4-da68-4f68-88f8-67b5d01b3922","ios":"levelo://app?vid=bf4255f4-da68-4f68-88f8-67b5d01b3922"},"vehicle_type_id":"4","last_reported":1728497496,"current_range_meters":8800,"station_id":"ce4bha92rcd13ifvqeh0","pricing_plan_id":"cebpf4jnsgd1na2vs0mg"},{"bike_id":"1c034d1a-afec-4b9e-882c-ff4d7b8c8e9c","system_id":"levelo_inurba_marseille","lat":43.33746,"lon":5.37449,"is_reserved":false,"is_disabled":false,"rental_uris":{"android":"levelo://app?vid=1c034d1a-afec-4b9e-882c-ff4d7b8c8e9c","ios":"levelo://app?vid=1c034d1a-afec-4b9e-882c-ff4d7b8c8e9c"},"vehicle_type_id":"4","last_reported":1728497496,"current_range_meters":23200,"station_id":"ce4rr2p2rcd13i802rgg","pricing_plan_id":"cebpf4jnsgd1na2vs0mg"},{"bike_id":"3e3c199b-5889-41b5-8ef3-932feffcfbb0","system_id":"levelo_inurba_marseille","lat":43.23058,"lon":5.35489,"is_reserved":false,"is_disabled":false,"rental_uris":{"android":"levelo://app?vid=3e3c199b-5889-41b5-8ef3-932feffcfbb0","ios":"levelo://app?vid=3e3c199b-5889-41b5-8ef3-932feffcfbb0"},"vehicle_type_id":"4","last_reported":1728497496,"current_range_meters":24800,"station_id":"cpo3342slgdg3j2ifvpg","pricing_plan_id":"cebpf4jnsgd1na2vs0mg"},{"bike_id":"e6d2804d-9556-44f4-9f2e-b800b6f146a8","system_id":"levelo_inurba_marseille","lat":43.24386,"lon":5.3706,"is_reserved":false,"is_disabled":false,"rental_uris":{"android":"levelo://app?vid=e6d2804d-9556-44f4-9f2e-b800b6f146a8","ios":"levelo://app?vid=e6d2804d-9556-44f4-9f2e-b800b6f146a8"},"vehicle_type_id":"4","last_reported":1728497496,"current_range_meters":10000,"station_id":"ce4bhhh2rcd13ifvqfk0","pricing_plan_id":"cebpf4jnsgd1na2vs0mg"},{"bike_id":"f1626240-4835-47d1-952e-84da926f6812","system_id":"levelo_inurba_marseille","lat":43.24659,"lon":5.38175,"is_reserved":false,"is_disabled":false,"rental_uris":{"android":"levelo://app?vid=f1626240-4835-47d1-952e-84da926f6812","ios":"levelo://app?vid=f1626240-4835-47d1-952e-84da926f6812"},"vehicle_type_id":"4","last_reported":1728497496,"current_range_meters":38400,"station_id":"ce4bhih2rcd13ifvqfr0","pricing_plan_id":"cebpf4jnsgd1na2vs0mg"},{"bike_id":"8fe6168f-b3a6-4c04-9d97-ce0de7ef1dd5","system_id":"levelo_inurba_marseille","lat":43.28508,"lon":5.38404,"is_reserved":false,"is_disabled":false,"rental_uris":{"android":"levelo://app?vid=8fe6168f-b3a6-4c04-9d97-ce0de7ef1dd5","ios":"levelo://app?vid=8fe6168f-b3a6-4c04-9d97-ce0de7ef1dd5"},"vehicle_type_id":"4","last_reported":1728497496,"current_range_meters":22000,"station_id":"ce4bh512rcd13ifvqe3g","pricing_plan_id":"cebpf4jnsgd1na2vs0mg"},{"bike_id":"7fcb7e36-0d26-41d0-ac04-a56646146102","system_id":"levelo_inurba_marseille","lat":43.22933,"lon":5.35379,"is_reserved":false,"is_disabled":false,"rental_uris":{"android":"levelo://app?vid=7fcb7e36-0d26-41d0-ac04-a56646146102","ios":"levelo://app?vid=7fcb7e36-0d26-41d0-ac04-a56646146102"},"vehicle_type_id":"4","last_reported":1728497496,"current_range_meters":15200,"station_id":"cpo3532slgdg3j2ikp40","pricing_plan_id":"cebpf4jnsgd1na2vs0mg"},{"bike_id":"14f7e575-b24d-47e4-a21e-1dc429b4e4c6","system_id":"levelo_inurba_marseille","lat":43.31753,"lon":5.39026,"is_reserved":false,"is_disabled":false,"rental_uris":{"android":"levelo://app?vid=14f7e575-b24d-47e4-a21e-1dc429b4e4c6","ios":"levelo://app?vid=14f7e575-b24d-47e4-a21e-1dc429b4e4c6"},"vehicle_type_id":"4","last_reported":1728497496,"current_range_meters":15200,"station_id":"ce4bhqp2rcd13ifvqhng","pricing_plan_id":"cebpf4jnsgd1na2vs0mg"},{"bike_id":"6e86a937-faa6-4a87-8c77-df79f3cb591f","system_id":"levelo_inurba_marseille","lat":43.29519,"lon":5.39052,"is_reserved":false,"is_disabled":false,"rental_uris":{"android":"levelo://app?vid=6e86a937-faa6-4a87-8c77-df79f3cb591f","ios":"levelo://app?vid=6e86a937-faa6-4a87-8c77-df79f3cb591f"},"vehicle_type_id":"4","last_reported":1728497496,"current_range_meters":5600,"station_id":"ce4bh3p2rcd13ifvqdp0","pricing_plan_id":"cebpf4jnsgd1na2vs0mg"},{"bike_id":"80da131f-82f3-4ccf-9828-2be20f45f192","system_id":"levelo_inurba_marseille","lat":43.28306,"lon":5.40165,"is_reserved":false,"is_disabled":false,"rental_uris":{"android":"levelo://app?vid=80da131f-82f3-4ccf-9828-2be20f45f192","ios":"levelo://app?vid=80da131f-82f3-4ccf-9828-2be20f45f192"},"vehicle_type_id":"4","last_reported":1728497496,"current_range_meters":38800,"station_id":"","pricing_plan_id":"cebpf4jnsgd1na2vs0mg"},{"bike_id":"c121f1bc-4e90-4968-bc70-b16b384e50c2","system_id":"levelo_inurba_marseille","lat":43.27179,"lon":5.40998,"is_reserved":false,"is_disabled":false,"rental_uris":{"android":"levelo://app?vid=c121f1bc-4e90-4968-bc70-b16b384e50c2","ios":"levelo://app?vid=c121f1bc-4e90-4968-bc70-b16b384e50c2"},"vehicle_type_id":"4","last_reported":1728497496,"current_range_meters":28400,"station_id":"ce4bhl12rcd13ifvqgf0","pricing_plan_id":"cebpf4jnsgd1na2vs0mg"},{"bike_id":"2e4e52ae-7a22-488f-b24f-6c734df05ab9","system_id":"levelo_inurba_marseille","lat":43.23191,"lon":5.3555,"is_reserved":false,"is_disabled":false,"rental_uris":{"android":"levelo://app?vid=2e4e52ae-7a22-488f-b24f-6c734df05ab9","ios":"levelo://app?vid=2e4e52ae-7a22-488f-b24f-6c734df05ab9"},"vehicle_type_id":"4","last_reported":1728497496,"current_range_meters":32000,"station_id":"ce4bhu92rcd13ifvqi70","pricing_plan_id":"cebpf4jnsgd1na2vs0mg"},{"bike_id":"7ae8331c-ff2e-402f-8b12-e9912d0758b5","system_id":"levelo_inurba_marseille","lat":43.31723,"lon":5.42404,"is_reserved":false,"is_disabled":false,"rental_uris":{"android":"levelo://app?vid=7ae8331c-ff2e-402f-8b12-e9912d0758b5","ios":"levelo://app?vid=7ae8331c-ff2e-402f-8b12-e9912d0758b5"},"vehicle_type_id":"4","last_reported":1728497496,"current_range_meters":34800,"station_id":"ce4bhp92rcd13ifvqhbg","pricing_plan_id":"cebpf4jnsgd1na2vs0mg"},{"bike_id":"59c893c5-1149-42f6-b12c-e879ba247010","system_id":"levelo_inurba_marseille","lat":43.337444,"lon":5.374475,"is_reserved":false,"is_disabled":false,"rental_uris":{"android":"levelo://app?vid=59c893c5-1149-42f6-b12c-e879ba247010","ios":"levelo://app?vid=59c893c5-1149-42f6-b12c-e879ba247010"},"vehicle_type_id":"4","last_reported":1728497496,"current_range_meters":35600,"station_id":"","pricing_plan_id":"cebpf4jnsgd1na2vs0mg"},{"bike_id":"f12ac68d-1d58-4d95-84a5-28943168a2f8","system_id":"levelo_inurba_marseille","lat":43.3153,"lon":5.38044,"is_reserved":false,"is_disabled":false,"rental_uris":{"android":"levelo://app?vid=f12ac68d-1d58-4d95-84a5-28943168a2f8","ios":"levelo://app?vid=f12ac68d-1d58-4d95-84a5-28943168a2f8"},"vehicle_type_id":"4","last_reported":1728497496,"current_range_meters":29600,"station_id":"ce4bhsp2rcd13ifvqi50","pricing_plan_id":"cebpf4jnsgd1na2vs0mg"},{"bike_id":"9edf3d99-8902-4c14-a3bf-37d825aee8ee","system_id":"levelo_inurba_marseille","lat":43.31157,"lon":5.38733,"is_reserved":false,"is_disabled":false,"rental_uris":{"android":"levelo://app?vid=9edf3d99-8902-4c14-a3bf-37d825aee8ee","ios":"levelo://app?vid=9edf3d99-8902-4c14-a3bf-37d825aee8ee"},"vehicle_type_id":"4","last_reported":1728497496,"current_range_meters":28400,"station_id":"ce4bgv12rcd13ifvqcp0","pricing_plan_id":"cebpf4jnsgd1na2vs0mg"},{"bike_id":"8ee7eab9-1270-4e3f-9727-0377a612973c","system_id":"levelo_inurba_marseille","lat":43.24997,"lon":5.38941,"is_reserved":false,"is_disabled":false,"rental_uris":{"android":"levelo://app?vid=8ee7eab9-1270-4e3f-9727-0377a612973c","ios":"levelo://app?vid=8ee7eab9-1270-4e3f-9727-0377a612973c"},"vehicle_type_id":"4","last_reported":1728497496,"current_range_meters":39200,"station_id":"ce4bhgp2rcd13ifvqfd0","pricing_plan_id":"cebpf4jnsgd1na2vs0mg"},{"bike_id":"dc495036-479f-4f0d-a031-62911c10a975","system_id":"levelo_inurba_marseille","lat":43.23191,"lon":5.35555,"is_reserved":false,"is_disabled":false,"rental_uris":{"android":"levelo://app?vid=dc495036-479f-4f0d-a031-62911c10a975","ios":"levelo://app?vid=dc495036-479f-4f0d-a031-62911c10a975"},"vehicle_type_id":"4","last_reported":1728497496,"current_range_meters":8000,"station_id":"ce4bhu92rcd13ifvqi70","pricing_plan_id":"cebpf4jnsgd1na2vs0mg"},{"bike_id":"64c44035-88df-465f-9357-10662e4e2289","system_id":"levelo_inurba_marseille","lat":43.31323,"lon":5.39694,"is_reserved":false,"is_disabled":false,"rental_uris":{"android":"levelo://app?vid=64c44035-88df-465f-9357-10662e4e2289","ios":"levelo://app?vid=64c44035-88df-465f-9357-10662e4e2289"},"vehicle_type_id":"4","last_reported":1728497496,"current_range_meters":23200,"station_id":"ce4bgvp2rcd13ifvqcu0","pricing_plan_id":"cebpf4jnsgd1na2vs0mg"},{"bike_id":"575e9efc-2e3e-41e0-82cd-69b3c2bee70e","system_id":"levelo_inurba_marseille","lat":43.29779,"lon":5.39362,"is_reserved":false,"is_disabled":false,"rental_uris":{"android":"levelo://app?vid=575e9efc-2e3e-41e0-82cd-69b3c2bee70e","ios":"levelo://app?vid=575e9efc-2e3e-41e0-82cd-69b3c2bee70e"},"vehicle_type_id":"4","last_reported":1728497496,"current_range_meters":27200,"station_id":"chh1huq6cuj3fo74tm60","pricing_plan_id":"cebpf4jnsgd1na2vs0mg"},{"bike_id":"a2234040-f8e7-4a6e-889a-08e53722aa41","system_id":"levelo_inurba_marseille","lat":43.25116,"lon":5.40318,"is_reserved":false,"is_disabled":false,"rental_uris":{"android":"levelo://app?vid=a2234040-f8e7-4a6e-889a-08e53722aa41","ios":"levelo://app?vid=a2234040-f8e7-4a6e-889a-08e53722aa41"},"vehicle_type_id":"4","last_reported":1728497496,"current_range_meters":39200,"station_id":"ce4bhlh2rcd13ifvqgig","pricing_plan_id":"cebpf4jnsgd1na2vs0mg"},{"bike_id":"2c5f01a2-78d5-453f-8e21-329290c6856f","system_id":"levelo_inurba_marseille","lat":43.28626,"lon":5.35124,"is_reserved":false,"is_disabled":false,"rental_uris":{"android":"levelo://app?vid=2c5f01a2-78d5-453f-8e21-329290c6856f","ios":"levelo://app?vid=2c5f01a2-78d5-453f-8e21-329290c6856f"},"vehicle_type_id":"4","last_reported":1728497496,"current_range_meters":36000,"station_id":"ce4bhch2rcd13ifvqeug","pricing_plan_id":"cebpf4jnsgd1na2vs0mg"},{"bike_id":"c3c31d12-52b1-45c1-a79d-2b64b1656a37","system_id":"levelo_inurba_marseille","lat":43.30799,"lon":5.43537,"is_reserved":false,"is_disabled":false,"rental_uris":{"android":"levelo://app?vid=c3c31d12-52b1-45c1-a79d-2b64b1656a37","ios":"levelo://app?vid=c3c31d12-52b1-45c1-a79d-2b64b1656a37"},"vehicle_type_id":"4","last_reported":1728497496,"current_range_meters":21600,"station_id":"ce4bhph2rcd13ifvqheg","pricing_plan_id":"cebpf4jnsgd1na2vs0mg"},{"bike_id":"1abedf1c-c274-4219-9a69-4f170de6e459","system_id":"levelo_inurba_marseille","lat":43.2319,"lon":5.35556,"is_reserved":false,"is_disabled":false,"rental_uris":{"android":"levelo://app?vid=1abedf1c-c274-4219-9a69-4f170de6e459","ios":"levelo://app?vid=1abedf1c-c274-4219-9a69-4f170de6e459"},"vehicle_type_id":"4","last_reported":1728497496,"current_range_meters":38800,"station_id":"ce4bhu92rcd13ifvqi70","pricing_plan_id":"cebpf4jnsgd1na2vs0mg"},{"bike_id":"e67b3dca-b2d8-4b67-953c-12b2fe953105","system_id":"levelo_inurba_marseille","lat":43.24661,"lon":5.38173,"is_reserved":false,"is_disabled":false,"rental_uris":{"android":"levelo://app?vid=e67b3dca-b2d8-4b67-953c-12b2fe953105","ios":"levelo://app?vid=e67b3dca-b2d8-4b67-953c-12b2fe953105"},"vehicle_type_id":"4","last_reported":1728497496,"current_range_meters":38800,"station_id":"ce4bhih2rcd13ifvqfr0","pricing_plan_id":"cebpf4jnsgd1na2vs0mg"},{"bike_id":"11863676-ef88-444f-84ac-cab465bfca94","system_id":"levelo_inurba_marseille","lat":43.31745,"lon":5.3903,"is_reserved":false,"is_disabled":false,"rental_uris":{"android":"levelo://app?vid=11863676-ef88-444f-84ac-cab465bfca94","ios":"levelo://app?vid=11863676-ef88-444f-84ac-cab465bfca94"},"vehicle_type_id":"4","last_reported":1728497496,"current_range_meters":38800,"station_id":"ce4bhqp2rcd13ifvqhng","pricing_plan_id":"cebpf4jnsgd1na2vs0mg"},{"bike_id":"8e2c58e3-6e77-413b-88cd-d849ada1bf7f","system_id":"levelo_inurba_marseille","lat":43.290359,"lon":5.399984,"is_reserved":false,"is_disabled":false,"rental_uris":{"android":"levelo://app?vid=8e2c58e3-6e77-413b-88cd-d849ada1bf7f","ios":"levelo://app?vid=8e2c58e3-6e77-413b-88cd-d849ada1bf7f"},"vehicle_type_id":"4","last_reported":1728497496,"current_range_meters":24000,"station_id":"ce4bh3h2rcd13ifvqdn0","pricing_plan_id":"cebpf4jnsgd1na2vs0mg"},{"bike_id":"5c124aab-26d5-4188-b332-7f660b962a35","system_id":"levelo_inurba_marseille","lat":43.33025,"lon":5.39046,"is_reserved":false,"is_disabled":false,"rental_uris":{"android":"levelo://app?vid=5c124aab-26d5-4188-b332-7f660b962a35","ios":"levelo://app?vid=5c124aab-26d5-4188-b332-7f660b962a35"},"vehicle_type_id":"4","last_reported":1728497496,"current_range_meters":26800,"station_id":"ce4bhr92rcd13ifvqhrg","pricing_plan_id":"cebpf4jnsgd1na2vs0mg"},{"bike_id":"e8325acd-8ff4-470b-8e27-26045a2a6261","system_id":"levelo_inurba_marseille","lat":43.23054,"lon":5.35495,"is_reserved":false,"is_disabled":false,"rental_uris":{"android":"levelo://app?vid=e8325acd-8ff4-470b-8e27-26045a2a6261","ios":"levelo://app?vid=e8325acd-8ff4-470b-8e27-26045a2a6261"},"vehicle_type_id":"4","last_reported":1728497496,"current_range_meters":25600,"station_id":"cpo3342slgdg3j2ifvpg","pricing_plan_id":"cebpf4jnsgd1na2vs0mg"},{"bike_id":"74dda7af-a4ab-46fd-8c59-53010d3fec68","system_id":"levelo_inurba_marseille","lat":43.23193,"lon":5.35555,"is_reserved":false,"is_disabled":false,"rental_uris":{"android":"levelo://app?vid=74dda7af-a4ab-46fd-8c59-53010d3fec68","ios":"levelo://app?vid=74dda7af-a4ab-46fd-8c59-53010d3fec68"},"vehicle_type_id":"4","last_reported":1728497496,"current_range_meters":35200,"station_id":"ce4bhu92rcd13ifvqi70","pricing_plan_id":"cebpf4jnsgd1na2vs0mg"},{"bike_id":"a87b0ae6-361d-463f-982b-484f11dae15a","system_id":"levelo_inurba_marseille","lat":43.32073,"lon":5.38184,"is_reserved":false,"is_disabled":false,"rental_uris":{"android":"levelo://app?vid=a87b0ae6-361d-463f-982b-484f11dae15a","ios":"levelo://app?vid=a87b0ae6-361d-463f-982b-484f11dae15a"},"vehicle_type_id":"4","last_reported":1728497496,"current_range_meters":9200,"station_id":"","pricing_plan_id":"cebpf4jnsgd1na2vs0mg"},{"bike_id":"42b60fff-85c1-495c-8493-b58482f8a826","system_id":"levelo_inurba_marseille","lat":43.316621,"lon":5.404417,"is_reserved":false,"is_disabled":false,"rental_uris":{"android":"levelo://app?vid=42b60fff-85c1-495c-8493-b58482f8a826","ios":"levelo://app?vid=42b60fff-85c1-495c-8493-b58482f8a826"},"vehicle_type_id":"4","last_reported":1728497496,"current_range_meters":18000,"station_id":"ce4bh012rcd13ifvqd00","pricing_plan_id":"cebpf4jnsgd1na2vs0mg"},{"bike_id":"fb60a0b9-4da1-43dc-b9d1-e2de60e169fa","system_id":"levelo_inurba_marseille","lat":43.28933,"lon":5.36665,"is_reserved":false,"is_disabled":false,"rental_uris":{"android":"levelo://app?vid=fb60a0b9-4da1-43dc-b9d1-e2de60e169fa","ios":"levelo://app?vid=fb60a0b9-4da1-43dc-b9d1-e2de60e169fa"},"vehicle_type_id":"4","last_reported":1728497496,"current_range_meters":6800,"station_id":"ce4bhap2rcd13ifvqek0","pricing_plan_id":"cebpf4jnsgd1na2vs0mg"},{"bike_id":"ab2ef9b9-b70c-4414-9870-a02311b50f86","system_id":"levelo_inurba_marseille","lat":43.28611,"lon":5.3511,"is_reserved":false,"is_disabled":false,"rental_uris":{"android":"levelo://app?vid=ab2ef9b9-b70c-4414-9870-a02311b50f86","ios":"levelo://app?vid=ab2ef9b9-b70c-4414-9870-a02311b50f86"},"vehicle_type_id":"4","last_reported":1728497496,"current_range_meters":8400,"station_id":"ce4bhch2rcd13ifvqeug","pricing_plan_id":"cebpf4jnsgd1na2vs0mg"},{"bike_id":"5f9565c7-bab8-4db8-a61c-318a5edc0601","system_id":"levelo_inurba_marseille","lat":43.29089,"lon":5.38126,"is_reserved":false,"is_disabled":false,"rental_uris":{"android":"levelo://app?vid=5f9565c7-bab8-4db8-a61c-318a5edc0601","ios":"levelo://app?vid=5f9565c7-bab8-4db8-a61c-318a5edc0601"},"vehicle_type_id":"4","last_reported":1728497496,"current_range_meters":14800,"station_id":"ce4bh512rcd13ifvqe2g","pricing_plan_id":"cebpf4jnsgd1na2vs0mg"},{"bike_id":"5f445a2b-96e4-4ecc-b7cb-ef006e3e85d4","system_id":"levelo_inurba_marseille","lat":43.28836,"lon":5.393,"is_reserved":false,"is_disabled":false,"rental_uris":{"android":"levelo://app?vid=5f445a2b-96e4-4ecc-b7cb-ef006e3e85d4","ios":"levelo://app?vid=5f445a2b-96e4-4ecc-b7cb-ef006e3e85d4"},"vehicle_type_id":"4","last_reported":1728497496,"current_range_meters":9600,"station_id":"ce4bh2p2rcd13ifvqdi0","pricing_plan_id":"cebpf4jnsgd1na2vs0mg"},{"bike_id":"afd65a1d-c3e9-4faf-b7af-2c3a555f7e3b","system_id":"levelo_inurba_marseille","lat":43.27988,"lon":5.41662,"is_reserved":false,"is_disabled":false,"rental_uris":{"android":"levelo://app?vid=afd65a1d-c3e9-4faf-b7af-2c3a555f7e3b","ios":"levelo://app?vid=afd65a1d-c3e9-4faf-b7af-2c3a555f7e3b"},"vehicle_type_id":"4","last_reported":1728497496,"current_range_meters":29600,"station_id":"ce4bho12rcd13ifvqh1g","pricing_plan_id":"cebpf4jnsgd1na2vs0mg"},{"bike_id":"91ba7005-b3ef-494c-907e-d614383befba","system_id":"levelo_inurba_marseille","lat":43.29363,"lon":5.37864,"is_reserved":false,"is_disabled":false,"rental_uris":{"android":"levelo://app?vid=91ba7005-b3ef-494c-907e-d614383befba","ios":"levelo://app?vid=91ba7005-b3ef-494c-907e-d614383befba"},"vehicle_type_id":"4","last_reported":1728497496,"current_range_meters":20400,"station_id":"ce4bgjh2rcd13ifvqbf0","pricing_plan_id":"cebpf4jnsgd1na2vs0mg"},{"bike_id":"210b4273-5f23-473d-8f53-da9f17004ff0","system_id":"levelo_inurba_marseille","lat":43.30339,"lon":5.38605,"is_reserved":false,"is_disabled":false,"rental_uris":{"android":"levelo://app?vid=210b4273-5f23-473d-8f53-da9f17004ff0","ios":"levelo://app?vid=210b4273-5f23-473d-8f53-da9f17004ff0"},"vehicle_type_id":"4","last_reported":1728497496,"current_range_meters":23200,"station_id":"ce4bghh2rcd13ifvqb60","pricing_plan_id":"cebpf4jnsgd1na2vs0mg"},{"bike_id":"f1eb7cd9-1aca-47a9-b64c-a1d6731fa31d","system_id":"levelo_inurba_marseille","lat":43.29185,"lon":5.35816,"is_reserved":false,"is_disabled":false,"rental_uris":{"android":"levelo://app?vid=f1eb7cd9-1aca-47a9-b64c-a1d6731fa31d","ios":"levelo://app?vid=f1eb7cd9-1aca-47a9-b64c-a1d6731fa31d"},"vehicle_type_id":"4","last_reported":1728497496,"current_range_meters":12400,"station_id":"ce4bhb12rcd13ifvqel0","pricing_plan_id":"cebpf4jnsgd1na2vs0mg"},{"bike_id":"177175df-04ca-49e6-9e18-eedffa4bd18b","system_id":"levelo_inurba_marseille","lat":43.24646,"lon":5.3889,"is_reserved":false,"is_disabled":false,"rental_uris":{"android":"levelo://app?vid=177175df-04ca-49e6-9e18-eedffa4bd18b","ios":"levelo://app?vid=177175df-04ca-49e6-9e18-eedffa4bd18b"},"vehicle_type_id":"4","last_reported":1728497496,"current_range_meters":39200,"station_id":"ce4bhg12rcd13ifvqf60","pricing_plan_id":"cebpf4jnsgd1na2vs0mg"},{"bike_id":"fbfecab9-671f-45b0-9194-a7b2a9c09610","system_id":"levelo_inurba_marseille","lat":43.33024,"lon":5.39042,"is_reserved":false,"is_disabled":false,"rental_uris":{"android":"levelo://app?vid=fbfecab9-671f-45b0-9194-a7b2a9c09610","ios":"levelo://app?vid=fbfecab9-671f-45b0-9194-a7b2a9c09610"},"vehicle_type_id":"4","last_reported":1728497496,"current_range_meters":32000,"station_id":"ce4bhr92rcd13ifvqhrg","pricing_plan_id":"cebpf4jnsgd1na2vs0mg"},{"bike_id":"c44a8777-4c5f-4c50-bbfa-6d4f6a1abc87","system_id":"levelo_inurba_marseille","lat":43.22931,"lon":5.35383,"is_reserved":false,"is_disabled":false,"rental_uris":{"android":"levelo://app?vid=c44a8777-4c5f-4c50-bbfa-6d4f6a1abc87","ios":"levelo://app?vid=c44a8777-4c5f-4c50-bbfa-6d4f6a1abc87"},"vehicle_type_id":"4","last_reported":1728497496,"current_range_meters":38800,"station_id":"cpo3532slgdg3j2ikp40","pricing_plan_id":"cebpf4jnsgd1na2vs0mg"},{"bike_id":"a94a9070-410f-405b-8607-a4596c1cd274","system_id":"levelo_inurba_marseille","lat":43.31492,"lon":5.37303,"is_reserved":false,"is_disabled":false,"rental_uris":{"android":"levelo://app?vid=a94a9070-410f-405b-8607-a4596c1cd274","ios":"levelo://app?vid=a94a9070-410f-405b-8607-a4596c1cd274"},"vehicle_type_id":"4","last_reported":1728497496,"current_range_meters":11600,"station_id":"ce4bgt12rcd13ifvqcd0","pricing_plan_id":"cebpf4jnsgd1na2vs0mg"},{"bike_id":"1ed98a41-3d0e-4e25-8127-c947d602e512","system_id":"levelo_inurba_marseille","lat":43.31363,"lon":5.38501,"is_reserved":false,"is_disabled":false,"rental_uris":{"android":"levelo://app?vid=1ed98a41-3d0e-4e25-8127-c947d602e512","ios":"levelo://app?vid=1ed98a41-3d0e-4e25-8127-c947d602e512"},"vehicle_type_id":"4","last_reported":1728497496,"current_range_meters":400,"station_id":"ce4bgt92rcd13ifvqcf0","pricing_plan_id":"cebpf4jnsgd1na2vs0mg"},{"bike_id":"c2d283c7-d079-403b-b6b5-3c26120e6b38","system_id":"levelo_inurba_marseille","lat":43.28096,"lon":5.37848,"is_reserved":false,"is_disabled":false,"rental_uris":{"android":"levelo://app?vid=c2d283c7-d079-403b-b6b5-3c26120e6b38","ios":"levelo://app?vid=c2d283c7-d079-403b-b6b5-3c26120e6b38"},"vehicle_type_id":"4","last_reported":1728497496,"current_range_meters":36000,"station_id":"ce4bha12rcd13ifvqee0","pricing_plan_id":"cebpf4jnsgd1na2vs0mg"},{"bike_id":"fd1a4446-8b7f-4c43-a7dc-719b62781bae","system_id":"levelo_inurba_marseille","lat":43.28861,"lon":5.35858,"is_reserved":false,"is_disabled":false,"rental_uris":{"android":"levelo://app?vid=fd1a4446-8b7f-4c43-a7dc-719b62781bae","ios":"levelo://app?vid=fd1a4446-8b7f-4c43-a7dc-719b62781bae"},"vehicle_type_id":"4","last_reported":1728497496,"current_range_meters":12800,"station_id":"ce4bhb12rcd13ifvqem0","pricing_plan_id":"cebpf4jnsgd1na2vs0mg"},{"bike_id":"d731fdba-2ca8-4e64-afb0-f3f3a59e3fc6","system_id":"levelo_inurba_marseille","lat":43.30635,"lon":5.4008,"is_reserved":false,"is_disabled":false,"rental_uris":{"android":"levelo://app?vid=d731fdba-2ca8-4e64-afb0-f3f3a59e3fc6","ios":"levelo://app?vid=d731fdba-2ca8-4e64-afb0-f3f3a59e3fc6"},"vehicle_type_id":"4","last_reported":1728497496,"current_range_meters":22800,"station_id":"ce4bh112rcd13ifvqda0","pricing_plan_id":"cebpf4jnsgd1na2vs0mg"},{"bike_id":"f0194a4a-d953-430e-b1a0-be90f681535e","system_id":"levelo_inurba_marseille","lat":43.23186,"lon":5.3998,"is_reserved":false,"is_disabled":false,"rental_uris":{"android":"levelo://app?vid=f0194a4a-d953-430e-b1a0-be90f681535e","ios":"levelo://app?vid=f0194a4a-d953-430e-b1a0-be90f681535e"},"vehicle_type_id":"4","last_reported":1728497496,"current_range_meters":39200,"station_id":"ce4bhn12rcd13ifvqgqg","pricing_plan_id":"cebpf4jnsgd1na2vs0mg"},