{"last_updated":1741480888,"ttl":60,"version":"2.2","data":{"bikes":[{"bike_id":"e3565dcf-4d34-49d7-919b-1234920ea466","system_id":"levelo_inurba_marseille","lat":43.33746,"lon":5.3745,"is_reserved":false,"is_disabled":false,"rental_uris":{"android":"levelo://app?vid=e3565dcf-4d34-49d7-919b-1234920ea466","ios":"levelo://app?vid=e3565dcf-4d34-49d7-919b-1234920ea466"},"vehicle_type_id":"4","last_reported":1741480889,"current_range_meters":33600,"station_id":"","pricing_plan_id":"cebpf4jnsgd1na2vs0mg"},{"bike_id":"84fd8a9d-d33c-4402-bbe4-001e62a7f660","system_id":"levelo_inurba_marseille","lat":43.26577,"lon":5.39878,"is_reserved":false,"is_disabled":true,"rental_uris":{"android":"levelo://app?vid=84fd8a9d-d33c-4402-bbe4-001e62a7f660","ios":"levelo://app?vid=84fd8a9d-d33c-4402-bbe4-001e62a7f660"},"vehicle_type_id":"4","last_reported":1741480889,"current_range_meters":0,"station_id":"","pricing_plan_id":"cebpf4jnsgd1na2vs0mg"},{"bike_id":"ee1d2ad1-36ca-49dd-a328-f2a9a9994ecb","system_id":"levelo_inurba_marseille","lat":43.310869,"lon":5.38131,"is_reserved":false,"is_disabled":true,"rental_uris":{"android":"levelo://app?vid=ee1d2ad1-36ca-49dd-a328-f2a9a9994ecb","ios":"levelo://app?vid=ee1d2ad1-36ca-49dd-a328-f2a9a9994ecb"},"vehicle_type_id":"4","last_reported":1741480889,"current_range_meters":0,"station_id":"","pricing_plan_id":"cebpf4jnsgd1na2vs0mg"},{"bike_id":"d3a119e8-7e67-4942-9d75-fb9c23bb6669","system_id":"levelo_inurba_marseille","lat":43.28132,"lon":5.43004,"is_reserved":false,"is_disabled":true,"rental_uris":{"android":"levelo://app?vid=d3a119e8-7e67-4942-9d75-fb9c23bb6669","ios":"levelo://app?vid=d3a119e8-7e67-4942-9d75-fb9c23bb6669"},"vehicle_type_id":"4","last_reported":1741480889,"current_range_meters":0,"station_id":"","pricing_plan_id":"cebpf4jnsgd1na2vs0mg"},{"bike_id":"b50fa2d4-accd-4f93-9200-8176d7ca2493","system_id":"levelo_inurba_marseille","lat":43.26871,"lon":5.39296,"is_reserved":false,"is_disabled":true,"rental_uris":{"android":"levelo://app?vid=b50fa2d4-accd-4f93-9200-8176d7ca2493","ios":"levelo://app?vid=b50fa2d4-accd-4f93-9200-8176d7ca2493"},"vehicle_type_id":"4","last_reported":1741480889,"current_range_meters":0,"station_id":"","pricing_plan_id":"cebpf4jnsgd1na2vs0mg"},{"bike_id":"e79f7522-8ecc-4c4d-acad-bbcf547a0aa8","system_id":"levelo_inurba_marseille","lat":43.2771,"lon":5.43049,"is_reserved":false,"is_disabled":true,"rental_uris":{"android":"levelo://app?vid=e79f7522-8ecc-4c4d-acad-bbcf547a0aa8","ios":"levelo://app?vid=e79f7522-8ecc-4c4d-acad-bbcf547a0aa8"},"vehicle_type_id":"4","last_reported":1741480889,"current_range_meters":0,"station_id":"","pricing_plan_id":"cebpf4jnsgd1na2vs0mg"},{"bike_id":"4a17d1b8-749f-4ead-8e77-3be80208c84b","system_id":"levelo_inurba_marseille","lat":43.28104,"lon":5.39863,"is_reserved":false,"is_disabled":true,"rental_uris":{"android":"levelo://app?vid=4a17d1b8-749f-4ead-8e77-3be80208c84b","ios":"levelo://app?vid=4a17d1b8-749f-4ead-8e77-3be80208c84b"},"vehicle_type_id":"4","last_reported":1741480889,"current_range_meters":0,"station_id":"","pricing_plan_id":"cebpf4jnsgd1na2vs0mg"},{"bike_id":"9c2a65ea-f853-4980-96dd-92ca8e872fcd","system_id":"levelo_inurba_marseille","lat":43.24889,"lon":5.40899,"is_reserved":false,"is_disabled":true,"rental_uris":{"android":"levelo://app?vid=9c2a65ea-f853-4980-96dd-92ca8e872fcd","ios":"levelo://app?vid=9c2a65ea-f853-4980-96dd-92ca8e872fcd"},"vehicle_type_id":"4","last_reported":1741480889,"current_range_meters":0,"station_id":"","pricing_plan_id":"cebpf4jnsgd1na2vs0mg"},{"bike_id":"36f02774-fa29-4984-8eb9-4a292436c6f8","system_id":"levelo_inurba_marseille","lat":43.30938,"lon":5.40142,"is_reserved":false,"is_disabled":true,"rental_uris":{"android":"levelo://app?vid=36f02774-fa29-4984-8eb9-4a292436c6f8","ios":"levelo://app?vid=36f02774-fa29-4984-8eb9-4a292436c6f8"},"vehicle_type_id":"4","last_reported":1741480889,"current_range_meters":0,"station_id":"ce4bgvp2rcd13ifvqct0","pricing_plan_id":"cebpf4jnsgd1na2vs0mg"},{"bike_id":"e892d7f4-f334-487b-a472-451a2a7c13c0","system_id":"levelo_inurba_marseille","lat":43.30882,"lon":5.39602,"is_reserved":false,"is_disabled":true,"rental_uris":{"android":"levelo://app?vid=e892d7f4-f334-487b-a472-451a2a7c13c0","ios":"levelo://app?vid=e892d7f4-f334-487b-a472-451a2a7c13c0"},"vehicle_type_id":"4","last_reported":1741480889,"current_range_meters":0,"station_id":"ce4bh012rcd13ifvqcv0","pricing_plan_id":"cebpf4jnsgd1na2vs0mg"},{"bike_id":"35dde313-d02f-4dff-87a8-60c7577bbb0c","system_id":"levelo_inurba_marseille","lat":43.28619,"lon":5.35109,"is_reserved":false,"is_disabled":true,"rental_uris":{"android":"levelo://app?vid=35dde313-d02f-4dff-87a8-60c7577bbb0c","ios":"levelo://app?vid=35dde313-d02f-4dff-87a8-60c7577bbb0c"},"vehicle_type_id":"4","last_reported":1741480889,"current_range_meters":0,"station_id":"ce4bhch2rcd13ifvqeug","pricing_plan_id":"cebpf4jnsgd1na2vs0mg"},{"bike_id":"1522e784-172d-42e6-89a8-4c823de6cc9f","system_id":"levelo_inurba_marseille","lat":43.26676,"lon":5.38264,"is_reserved":false,"is_disabled":true,"rental_uris":{"android":"levelo://app?vid=1522e784-172d-42e6-89a8-4c823de6cc9f","ios":"levelo://app?vid=1522e784-172d-42e6-89a8-4c823de6cc9f"},"vehicle_type_id":"4","last_reported":1741480889,"current_range_meters":0,"station_id":"ce4bhg92rcd13ifvqf90","pricing_plan_id":"cebpf4jnsgd1na2vs0mg"},{"bike_id":"70a89c63-9bd0-4fb3-85ba-2f223adefe72","system_id":"levelo_inurba_marseille","lat":43.23965,"lon":5.3663,"is_reserved":false,"is_disabled":true,"rental_uris":{"android":"levelo://app?vid=70a89c63-9bd0-4fb3-85ba-2f223adefe72","ios":"levelo://app?vid=70a89c63-9bd0-4fb3-85ba-2f223adefe72"},"vehicle_type_id":"4","last_reported":1741480889,"current_range_meters":0,"station_id":"ce4bhi12rcd13ifvqfp0","pricing_plan_id":"cebpf4jnsgd1na2vs0mg"},{"bike_id":"4cd6b98a-d54e-4330-96a5-5b20bee35b6e","system_id":"levelo_inurba_marseille","lat":43.25924,"lon":5.40867,"is_reserved":false,"is_disabled":true,"rental_uris":{"android":"levelo://app?vid=4cd6b98a-d54e-4330-96a5-5b20bee35b6e","ios":"levelo://app?vid=4cd6b98a-d54e-4330-96a5-5b20bee35b6e"},"vehicle_type_id":"4","last_reported":1741480889,"current_range_meters":0,"station_id":"ce4bhm92rcd13ifvqglg","pricing_plan_id":"cebpf4jnsgd1na2vs0mg"},{"bike_id":"e2e78bce-3bcf-4bf2-9719-5393acb7fad8","system_id":"levelo_inurba_marseille","lat":43.30325,"lon":5.40432,"is_reserved":false,"is_disabled":true,"rental_uris":{"android":"levelo://app?vid=e2e78bce-3bcf-4bf2-9719-5393acb7fad8","ios":"levelo://app?vid=e2e78bce-3bcf-4bf2-9719-5393acb7fad8"},"vehicle_type_id":"4","last_reported":1741480889,"current_range_meters":400,"station_id":"ce4bh012rcd13ifvqd10","pricing_plan_id":"cebpf4jnsgd1na2vs0mg"},{"bike_id":"6aa84d2f-eff4-4c35-b3ee-3e12e8fa1f09","system_id":"levelo_inurba_marseille","lat":43.27371,"lon":5.36266,"is_reserved":false,"is_disabled":true,"rental_uris":{"android":"levelo://app?vid=6aa84d2f-eff4-4c35-b3ee-3e12e8fa1f09","ios":"levelo://app?vid=6aa84d2f-eff4-4c35-b3ee-3e12e8fa1f09"},"vehicle_type_id":"4","last_reported":1741480889,"current_range_meters":400,"station_id":"ce4bhbh2rcd13ifvqeo0","pricing_plan_id":"cebpf4jnsgd1na2vs0mg"},{"bike_id":"e24533c9-2437-41a8-b09c-6207ae63a4af","system_id":"levelo_inurba_marseille","lat":43.26027,"lon":5.37573,"is_reserved":false,"is_disabled":true,"rental_uris":{"android":"levelo://app?vid=e24533c9-2437-41a8-b09c-6207ae63a4af","ios":"levelo://app?vid=e24533c9-2437-41a8-b09c-6207ae63a4af"},"vehicle_type_id":"4","last_reported":1741480889,"current_range_meters":400,"station_id":"ce4bhgh2rcd13ifvqfa0","pricing_plan_id":"cebpf4jnsgd1na2vs0mg"},{"bike_id":"68b29e10-5b3a-41cc-bb96-a86582232f18","system_id":"levelo_inurba_marseille","lat":43.27166,"lon":5.40989,"is_reserved":false,"is_disabled":true,"rental_uris":{"android":"levelo://app?vid=68b29e10-5b3a-41cc-bb96-a86582232f18","ios":"levelo://app?vid=68b29e10-5b3a-41cc-bb96-a86582232f18"},"vehicle_type_id":"4","last_reported":1741480889,"current_range_meters":400,"station_id":"ce4bhl12rcd13ifvqgf0","pricing_plan_id":"cebpf4jnsgd1na2vs0mg"},{"bike_id":"eb5ecd65-6d70-4e61-889b-53f0b04d55cc","system_id":"levelo_inurba_marseille","lat":43.28159,"lon":5.42643,"is_reserved":false,"is_disabled":true,"rental_uris":{"android":"levelo://app?vid=eb5ecd65-6d70-4e61-889b-53f0b04d55cc","ios":"levelo://app?vid=eb5ecd65-6d70-4e61-889b-53f0b04d55cc"},"vehicle_type_id":"4","last_reported":1741480889,"current_range_meters":400,"station_id":"ce4bhnh2rcd13ifvqgug","pricing_plan_id":"cebpf4jnsgd1na2vs0mg"},{"bike_id":"43bc5e18-7bfb-4e30-b758-942e653f0d5a","system_id":"levelo_inurba_marseille","lat":43.24633,"lon":5.40269,"is_reserved":false,"is_disabled":true,"rental_uris":{"android":"levelo://app?vid=43bc5e18-7bfb-4e30-b758-942e653f0d5a","ios":"levelo://app?vid=43bc5e18-7bfb-4e30-b758-942e653f0d5a"},"vehicle_type_id":"4","last_reported":1741480889,"current_range_meters":800,"station_id":"","pricing_plan_id":"cebpf4jnsgd1na2vs0mg"},{"bike_id":"117fb39d-f9c0-4829-9f17-f70cd3374e3a","system_id":"levelo_inurba_marseille","lat":43.24691,"lon":5.40103,"is_reserved":false,"is_disabled":true,"rental_uris":{"android":"levelo://app?vid=117fb39d-f9c0-4829-9f17-f70cd3374e3a","ios":"levelo://app?vid=117fb39d-f9c0-4829-9f17-f70cd3374e3a"},"vehicle_type_id":"4","last_reported":1741480889,"current_range_meters":800,"station_id":"","pricing_plan_id":"cebpf4jnsgd1na2vs0mg"},{"bike_id":"53ba06d6-3b6c-4f49-bc80-8f7e1937ded3","system_id":"levelo_inurba_marseille","lat":43.27903,"lon":5.41255,"is_reserved":false,"is_disabled":true,"rental_uris":{"android":"levelo://app?vid=53ba06d6-3b6c-4f49-bc80-8f7e1937ded3","ios":"levelo://app?vid=53ba06d6-3b6c-4f49-bc80-8f7e1937ded3"},"vehicle_type_id":"4","last_reported":1741480889,"current_range_meters":1200,"station_id":"","pricing_plan_id":"cebpf4jnsgd1na2vs0mg"},{"bike_id":"c8fa0f2e-ee22-4dc5-bd5f-15b32c4e876f","system_id":"levelo_inurba_marseille","lat":43.29805,"lon":5.40407,"is_reserved":false,"is_disabled":true,"rental_uris":{"android":"levelo://app?vid=c8fa0f2e-ee22-4dc5-bd5f-15b32c4e876f","ios":"levelo://app?vid=c8fa0f2e-ee22-4dc5-bd5f-15b32c4e876f"},"vehicle_type_id":"4","last_reported":1741480889,"current_range_meters":1200,"station_id":"ce4bh112rcd13ifvqd90","pricing_plan_id":"cebpf4jnsgd1na2vs0mg"},{"bike_id":"98e60829-f81a-4fc7-beb0-5c1fe349f961","system_id":"levelo_inurba_marseille","lat":43.28023,"lon":5.36942,"is_reserved":false,"is_disabled":true,"rental_uris":{"android":"levelo://app?vid=98e60829-f81a-4fc7-beb0-5c1fe349f961","ios":"levelo://app?vid=98e60829-f81a-4fc7-beb0-5c1fe349f961"},"vehicle_type_id":"4","last_reported":1741480889,"current_range_meters":1200,"station_id":"ce4bha12rcd13ifvqef0","pricing_plan_id":"cebpf4jnsgd1na2vs0mg"},{"bike_id":"0f637d6f-79f8-4f82-9beb-659c54ae18b4","system_id":"levelo_inurba_marseille","lat":43.26198,"lon":5.40441,"is_reserved":false,"is_disabled":true,"rental_uris":{"android":"levelo://app?vid=0f637d6f-79f8-4f82-9beb-659c54ae18b4","ios":"levelo://app?vid=0f637d6f-79f8-4f82-9beb-659c54ae18b4"},"vehicle_type_id":"4","last_reported":1741480889,"current_range_meters":1200,"station_id":"ce4bhmh2rcd13ifvqgmg","pricing_plan_id":"cebpf4jnsgd1na2vs0mg"},{"bike_id":"35ab0076-b362-4dcd-84ac-74dbeca74279","system_id":"levelo_inurba_marseille","lat":43.324798,"lon":5.365701,"is_reserved":false,"is_disabled":true,"rental_uris":{"android":"levelo://app?vid=35ab0076-b362-4dcd-84ac-74dbeca74279","ios":"levelo://app?vid=35ab0076-b362-4dcd-84ac-74dbeca74279"},"vehicle_type_id":"4","last_reported":1741480889,"current_range_meters":1200,"station_id":"ce4bhs12rcd13ifvqhvg","pricing_plan_id":"cebpf4jnsgd1na2vs0mg"},{"bike_id":"15f6dc98-cadc-4ebf-bbad-9d868c80b860","system_id":"levelo_inurba_marseille","lat":43.28703,"lon":5.374,"is_reserved":false,"is_disabled":true,"rental_uris":{"android":"levelo://app?vid=15f6dc98-cadc-4ebf-bbad-9d868c80b860","ios":"levelo://app?vid=15f6dc98-cadc-4ebf-bbad-9d868c80b860"},"vehicle_type_id":"4","last_reported":1741480889,"current_range_meters":1600,"station_id":"ce4bh3p2rcd13ifvqdq0","pricing_plan_id":"cebpf4jnsgd1na2vs0mg"},{"bike_id":"40fffde5-0995-47b2-b8e4-c8f9b93e400c","system_id":"levelo_inurba_marseille","lat":43.26228,"lon":5.40458,"is_reserved":false,"is_disabled":true,"rental_uris":{"android":"levelo://app?vid=40fffde5-0995-47b2-b8e4-c8f9b93e400c","ios":"levelo://app?vid=40fffde5-0995-47b2-b8e4-c8f9b93e400c"},"vehicle_type_id":"4","last_reported":1741480889,"current_range_meters":1600,"station_id":"ce4bhmh2rcd13ifvqgmg","pricing_plan_id":"cebpf4jnsgd1na2vs0mg"},{"bike_id":"ee2884a8-c4a1-4c64-8d17-2c01b9b2b1f5","system_id":"levelo_inurba_marseille","lat":43.31112,"lon":5.37771,"is_reserved":false,"is_disabled":true,"rental_uris":{"android":"levelo://app?vid=ee2884a8-c4a1-4c64-8d17-2c01b9b2b1f5","ios":"levelo://app?vid=ee2884a8-c4a1-4c64-8d17-2c01b9b2b1f5"},"vehicle_type_id":"4","last_reported":1741480889,"current_range_meters":2000,"station_id":"ce4bgt92rcd13ifvqcg0","pricing_plan_id":"cebpf4jnsgd1na2vs0mg"},{"bike_id":"2c94db0e-8305-4b74-a325-aaa35000f593","system_id":"levelo_inurba_marseille","lat":43.29557,"lon":5.42289,"is_reserved":false,"is_disabled":true,"rental_uris":{"android":"levelo://app?vid=2c94db0e-8305-4b74-a325-aaa35000f593","ios":"levelo://app?vid=2c94db0e-8305-4b74-a325-aaa35000f593"},"vehicle_type_id":"4","last_reported":1741480889,"current_range_meters":2000,"station_id":"ce4bhph2rcd13ifvqhdg","pricing_plan_id":"cebpf4jnsgd1na2vs0mg"},{"bike_id":"adc20c0b-ebf2-4baf-9000-b7330c20c251","system_id":"levelo_inurba_marseille","lat":43.22929,"lon":5.35379,"is_reserved":false,"is_disabled":true,"rental_uris":{"android":"levelo://app?vid=adc20c0b-ebf2-4baf-9000-b7330c20c251","ios":"levelo://app?vid=adc20c0b-ebf2-4baf-9000-b7330c20c251"},"vehicle_type_id":"4","last_reported":1741480889,"current_range_meters":2000,"station_id":"cpo3532slgdg3j2ikp40","pricing_plan_id":"cebpf4jnsgd1na2vs0mg"},{"bike_id":"3e0cbd30-7915-4087-9ee3-7c218dc6529e","system_id":"levelo_inurba_marseille","lat":43.31357,"lon":5.38497,"is_reserved":false,"is_disabled":false,"rental_uris":{"android":"levelo://app?vid=3e0cbd30-7915-4087-9ee3-7c218dc6529e","ios":"levelo://app?vid=3e0cbd30-7915-4087-9ee3-7c218dc6529e"},"vehicle_type_id":"4","last_reported":1741480889,"current_range_meters":2800,"station_id":"ce4bgt92rcd13ifvqcf0","pricing_plan_id":"cebpf4jnsgd1na2vs0mg"},{"bike_id":"9f9cafc3-498c-4d91-8ace-1d7c5f3a5652","system_id":"levelo_inurba_marseille","lat":43.30918,"lon":5.40161,"is_reserved":false,"is_disabled":false,"rental_uris":{"android":"levelo://app?vid=9f9cafc3-498c-4d91-8ace-1d7c5f3a5652","ios":"levelo://app?vid=9f9cafc3-498c-4d91-8ace-1d7c5f3a5652"},"vehicle_type_id":"4","last_reported":1741480889,"current_range_meters":2800,"station_id":"ce4bgvp2rcd13ifvqct0","pricing_plan_id":"cebpf4jnsgd1na2vs0mg"},{"bike_id":"cb79ce2c-e357-4042-9f4a-4509d9a625bd","system_id":"levelo_inurba_marseille","lat":43.26567,"lon":5.39023,"is_reserved":false,"is_disabled":false,"rental_uris":{"android":"levelo://app?vid=cb79ce2c-e357-4042-9f4a-4509d9a625bd","ios":"levelo://app?vid=cb79ce2c-e357-4042-9f4a-4509d9a625bd"},"vehicle_type_id":"4","last_reported":1741480889,"current_range_meters":2800,"station_id":"ce4bhe12rcd13ifvqf30","pricing_plan_id":"cebpf4jnsgd1na2vs0mg"},{"bike_id":"4ed10b44-88a8-4dec-99db-545daad23c1c","system_id":"levelo_inurba_marseille","lat":43.23962,"lon":5.36642,"is_reserved":false,"is_disabled":false,"rental_uris":{"android":"levelo://app?vid=4ed10b44-88a8-4dec-99db-545daad23c1c","ios":"levelo://app?vid=4ed10b44-88a8-4dec-99db-545daad23c1c"},"vehicle_type_id":"4","last_reported":1741480889,"current_range_meters":2800,"station_id":"ce4bhi12rcd13ifvqfp0","pricing_plan_id":"cebpf4jnsgd1na2vs0mg"},{"bike_id":"a7024237-6081-436a-9901-0108781ed04e","system_id":"levelo_inurba_marseille","lat":43.2587,"lon":5.39893,"is_reserved":false,"is_disabled":false,"rental_uris":{"android":"levelo://app?vid=a7024237-6081-436a-9901-0108781ed04e","ios":"levelo://app?vid=a7024237-6081-436a-9901-0108781ed04e"},"vehicle_type_id":"4","last_reported":1741480889,"current_range_meters":2800,"station_id":"ce4bhl92rcd13ifvqghg","pricing_plan_id":"cebpf4jnsgd1na2vs0mg"},{"bike_id":"f39cbcc0-37f9-400f-b45b-396f3ab07095","system_id":"levelo_inurba_marseille","lat":43.28442,"lon":5.39212,"is_reserved":false,"is_disabled":false,"rental_uris":{"android":"levelo://app?vid=f39cbcc0-37f9-400f-b45b-396f3ab07095","ios":"levelo://app?vid=f39cbcc0-37f9-400f-b45b-396f3ab07095"},"vehicle_type_id":"4","last_reported":1741480889,"current_range_meters":2800,"station_id":"ce4bhoh2rcd13ifvqh5g","pricing_plan_id":"cebpf4jnsgd1na2vs0mg"},{"bike_id":"6e5c1ec0-55c7-428f-ab14-fe8ef478e880","system_id":"levelo_inurba_marseille","lat":43.32071,"lon":5.40132,"is_reserved":false,"is_disabled":false,"rental_uris":{"android":"levelo://app?vid=6e5c1ec0-55c7-428f-ab14-fe8ef478e880","ios":"levelo://app?vid=6e5c1ec0-55c7-428f-ab14-fe8ef478e880"},"vehicle_type_id":"4","last_reported":1741480889,"current_range_meters":3200,"station_id":"","pricing_plan_id":"cebpf4jnsgd1na2vs0mg"},{"bike_id":"db361612-8186-4e1c-a8a1-a778740c3e27","system_id":"levelo_inurba_marseille","lat":43.260623,"lon":5.393963,"is_reserved":false,"is_disabled":false,"rental_uris":{"android":"levelo://app?vid=db361612-8186-4e1c-a8a1-a778740c3e27","ios":"levelo://app?vid=db361612-8186-4e1c-a8a1-a778740c3e27"},"vehicle_type_id":"4","last_reported":1741480889,"current_range_meters":3200,"station_id":"ce4bhh92rcd13ifvqfj0","pricing_plan_id":"cebpf4jnsgd1na2vs0mg"},{"bike_id":"0e9f3cf8-d34b-4863-b10a-c8d430770840","system_id":"levelo_inurba_marseille","lat":43.31711,"lon":5.43712,"is_reserved":false,"is_disabled":false,"rental_uris":{"android":"levelo://app?vid=0e9f3cf8-d34b-4863-b10a-c8d430770840","ios":"levelo://app?vid=0e9f3cf8-d34b-4863-b10a-c8d430770840"},"vehicle_type_id":"4","last_reported":1741480889,"current_range_meters":3200,"station_id":"ce4bhp92rcd13ifvqhcg","pricing_plan_id":"cebpf4jnsgd1na2vs0mg"},{"bike_id":"5d4e4574-6498-4372-afcd-f02df8652fd1","system_id":"levelo_inurba_marseille","lat":43.25716,"lon":5.4111,"is_reserved":false,"is_disabled":false,"rental_uris":{"android":"levelo://app?vid=5d4e4574-6498-4372-afcd-f02df8652fd1","ios":"levelo://app?vid=5d4e4574-6498-4372-afcd-f02df8652fd1"},"vehicle_type_id":"4","last_reported":1741480889,"current_range_meters":3600,"station_id":"ce4bhkp2rcd13ifvqgd0","pricing_plan_id":"cebpf4jnsgd1na2vs0mg"},{"bike_id":"2b5f401c-b596-44a7-88ab-196b44e26a9b","system_id":"levelo_inurba_marseille","lat":43.25106,"lon":5.40338,"is_reserved":false,"is_disabled":false,"rental_uris":{"android":"levelo://app?vid=2b5f401c-b596-44a7-88ab-196b44e26a9b","ios":"levelo://app?vid=2b5f401c-b596-44a7-88ab-196b44e26a9b"},"vehicle_type_id":"4","last_reported":1741480889,"current_range_meters":3600,"station_id":"ce4bhlh2rcd13ifvqgig","pricing_plan_id":"cebpf4jnsgd1na2vs0mg"},{"bike_id":"247b4340-3338-49f7-b20d-e36de088bbb8","system_id":"levelo_inurba_marseille","lat":43.29208,"lon":5.42663,"is_reserved":false,"is_disabled":false,"rental_uris":{"android":"levelo://app?vid=247b4340-3338-49f7-b20d-e36de088bbb8","ios":"levelo://app?vid=247b4340-3338-49f7-b20d-e36de088bbb8"},"vehicle_type_id":"4","last_reported":1741480889,"current_range_meters":4000,"station_id":"","pricing_plan_id":"cebpf4jnsgd1na2vs0mg"},{"bike_id":"677908b8-a9a1-4b12-9cae-c0935e56cf0c","system_id":"levelo_inurba_marseille","lat":43.3002,"lon":5.3862,"is_reserved":false,"is_disabled":false,"rental_uris":{"android":"levelo://app?vid=677908b8-a9a1-4b12-9cae-c0935e56cf0c","ios":"levelo://app?vid=677908b8-a9a1-4b12-9cae-c0935e56cf0c"},"vehicle_type_id":"4","last_reported":1741480889,"current_range_meters":4000,"station_id":"","pricing_plan_id":"cebpf4jnsgd1na2vs0mg"},{"bike_id":"ed8dc3dc-a4a6-430b-be93-fa513b3eba50","system_id":"levelo_inurba_marseille","lat":43.29969,"lon":5.36517,"is_reserved":false,"is_disabled":false,"rental_uris":{"android":"levelo://app?vid=ed8dc3dc-a4a6-430b-be93-fa513b3eba50","ios":"levelo://app?vid=ed8dc3dc-a4a6-430b-be93-fa513b3eba50"},"vehicle_type_id":"4","last_reported":1741480889,"current_range_meters":4400,"station_id":"ce4bgm92rcd13ifvqbr0","pricing_plan_id":"cebpf4jnsgd1na2vs0mg"},{"bike_id":"8e6bf23f-7469-408c-84aa-30899262dcd4","system_id":"levelo_inurba_marseille","lat":43.29005,"lon":5.35613,"is_reserved":false,"is_disabled":false,"rental_uris":{"android":"levelo://app?vid=8e6bf23f-7469-408c-84aa-30899262dcd4","ios":"levelo://app?vid=8e6bf23f-7469-408c-84aa-30899262dcd4"},"vehicle_type_id":"4","last_reported":1741480889,"current_range_meters":4400,"station_id":"ce4bhb92rcd13ifvqen0","pricing_plan_id":"cebpf4jnsgd1na2vs0mg"},{"bike_id":"187a23bd-addd-4cdc-9763-bcfaec40c35a","system_id":"levelo_inurba_marseille","lat":43.251168,"lon":5.40331,"is_reserved":false,"is_disabled":false,"rental_uris":{"android":"levelo://app?vid=187a23bd-addd-4cdc-9763-bcfaec40c35a","ios":"levelo://app?vid=187a23bd-addd-4cdc-9763-bcfaec40c35a"},"vehicle_type_id":"4","last_reported":1741480889,"current_range_meters":4400,"station_id":"ce4bhlh2rcd13ifvqgig","pricing_plan_id":"cebpf4jnsgd1na2vs0mg"},{"bike_id":"8310cde6-c1e7-4f34-9185-55193707cf9d","system_id":"levelo_inurba_marseille","lat":43.278235,"lon":5.407147,"is_reserved":false,"is_disabled":false,"rental_uris":{"android":"levelo://app?vid=8310cde6-c1e7-4f34-9185-55193707cf9d","ios":"levelo://app?vid=8310cde6-c1e7-4f34-9185-55193707cf9d"},"vehicle_type_id":"4","last_reported":1741480889,"current_range_meters":4400,"station_id":"ce4bhnh2rcd13ifvqgtg","pricing_plan_id":"cebpf4jnsgd1na2vs0mg"},{"bike_id":"60e1fe0f-c1dd-449c-85d9-a3dd616d061a","system_id":"levelo_inurba_marseille","lat":43.23195,"lon":5.3555,"is_reserved":false,"is_disabled":false,"rental_uris":{"android":"levelo://app?vid=60e1fe0f-c1dd-449c-85d9-a3dd616d061a","ios":"levelo://app?vid=60e1fe0f-c1dd-449c-85d9-a3dd616d061a"},"vehicle_type_id":"4","last_reported":1741480889,"current_range_meters":4400,"station_id":"ce4bhu92rcd13ifvqi70","pricing_plan_id":"cebpf4jnsgd1na2vs0mg"},{"bike_id":"78dd0279-c270-48af-857c-971f5461b139","system_id":"levelo_inurba_marseille","lat":43.31745,"lon":5.37804,"is_reserved":false,"is_disabled":false,"rental_uris":{"android":"levelo://app?vid=78dd0279-c270-48af-857c-971f5461b139","ios":"levelo://app?vid=78dd0279-c270-48af-857c-971f5461b139"},"vehicle_type_id":"4","last_reported":1741480889,"current_range_meters":4800,"station_id":"ce4bgth2rcd13ifvqch0","pricing_plan_id":"cebpf4jnsgd1na2vs0mg"},{"bike_id":"f59ea73a-44ad-439f-b555-3f5188f19722","system_id":"levelo_inurba_marseille","lat":43.30886,"lon":5.39622,"is_reserved":false,"is_disabled":false,"rental_uris":{"android":"levelo://app?vid=f59ea73a-44ad-439f-b555-3f5188f19722","ios":"levelo://app?vid=f59ea73a-44ad-439f-b555-3f5188f19722"},"vehicle_type_id":"4","last_reported":1741480889,"current_range_meters":4800,"station_id":"ce4bh012rcd13ifvqcv0","pricing_plan_id":"cebpf4jnsgd1na2vs0mg"},{"bike_id":"9f22fbb6-a380-4b54-b337-75d43e2de561","system_id":"levelo_inurba_marseille","lat":43.251,"lon":5.39484,"is_reserved":false,"is_disabled":false,"rental_uris":{"android":"levelo://app?vid=9f22fbb6-a380-4b54-b337-75d43e2de561","ios":"levelo://app?vid=9f22fbb6-a380-4b54-b337-75d43e2de561"},"vehicle_type_id":"4","last_reported":1741480889,"current_range_meters":4800,"station_id":"ce4bhm12rcd13ifvqgkg","pricing_plan_id":"cebpf4jnsgd1na2vs0mg"},{"bike_id":"82e849d5-e006-4a19-9415-e48d295e72fe","system_id":"levelo_inurba_marseille","lat":43.3054,"lon":5.36959,"is_reserved":false,"is_disabled":false,"rental_uris":{"android":"levelo://app?vid=82e849d5-e006-4a19-9415-e48d295e72fe","ios":"levelo://app?vid=82e849d5-e006-4a19-9415-e48d295e72fe"},"vehicle_type_id":"4","last_reported":1741480889,"current_range_meters":5600,"station_id":"","pricing_plan_id":"cebpf4jnsgd1na2vs0mg"},{"bike_id":"30ff2b2c-ac62-459f-a073-56ce497ca15e","system_id":"levelo_inurba_marseille","lat":43.27998,"lon":5.40009,"is_reserved":false,"is_disabled":false,"rental_uris":{"android":"levelo://app?vid=30ff2b2c-ac62-459f-a073-56ce497ca15e","ios":"levelo://app?vid=30ff2b2c-ac62-459f-a073-56ce497ca15e"},"vehicle_type_id":"4","last_reported":1741480889,"current_range_meters":5600,"station_id":"ce4bho92rcd13ifvqh4g","pricing_plan_id":"cebpf4jnsgd1na2vs0mg"},{"bike_id":"e90bc0ed-0c32-4446-84db-87cf53deb2fe","system_id":"levelo_inurba_marseille","lat":43.30248,"lon":5.40052,"is_reserved":false,"is_disabled":false,"rental_uris":{"android":"levelo://app?vid=e90bc0ed-0c32-4446-84db-87cf53deb2fe","ios":"levelo://app?vid=e90bc0ed-0c32-4446-84db-87cf53deb2fe"},"vehicle_type_id":"4","last_reported":1741480889,"current_range_meters":6000,"station_id":"ce4bgvh2rcd13ifvqcs0","pricing_plan_id":"cebpf4jnsgd1na2vs0mg"},{"bike_id":"26c4b043-dbbc-4921-ade9-14900c7a9ee0","system_id":"levelo_inurba_marseille","lat":43.28458,"lon":5.35887,"is_reserved":false,"is_disabled":false,"rental_uris":{"android":"levelo://app?vid=26c4b043-dbbc-4921-ade9-14900c7a9ee0","ios":"levelo://app?vid=26c4b043-dbbc-4921-ade9-14900c7a9ee0"},"vehicle_type_id":"4","last_reported":1741480889,"current_range_meters":6000,"station_id":"ce4bhah2rcd13ifvqei0","pricing_plan_id":"cebpf4jnsgd1na2vs0mg"},{"bike_id":"1bdea02f-5577-4c9b-b138-f3b633bd2dfe","system_id":"levelo_inurba_marseille","lat":43.24812,"lon":5.3746,"is_reserved":false,"is_disabled":false,"rental_uris":{"android":"levelo://app?vid=1bdea02f-5577-4c9b-b138-f3b633bd2dfe","ios":"levelo://app?vid=1bdea02f-5577-4c9b-b138-f3b633bd2dfe"},"vehicle_type_id":"4","last_reported":1741480889,"current_range_meters":6000,"station_id":"ce4bhgh2rcd13ifvqfb0","pricing_plan_id":"cebpf4jnsgd1na2vs0mg"},{"bike_id":"cd5acaa0-228e-4d82-982b-7e2b3b040929","system_id":"levelo_inurba_marseille","lat":43.23978,"lon":5.36601,"is_reserved":false,"is_disabled":false,"rental_uris":{"android":"levelo://app?vid=cd5acaa0-228e-4d82-982b-7e2b3b040929","ios":"levelo://app?vid=cd5acaa0-228e-4d82-982b-7e2b3b040929"},"vehicle_type_id":"4","last_reported":1741480889,"current_range_meters":6000,"station_id":"ce4bhi12rcd13ifvqfp0","pricing_plan_id":"cebpf4jnsgd1na2vs0mg"},{"bike_id":"25305dbe-974d-481a-8296-0926ee678627","system_id":"levelo_inurba_marseille","lat":43.240781,"lon":5.377583,"is_reserved":false,"is_disabled":false,"rental_uris":{"android":"levelo://app?vid=25305dbe-974d-481a-8296-0926ee678627","ios":"levelo://app?vid=25305dbe-974d-481a-8296-0926ee678627"},"vehicle_type_id":"4","last_reported":1741480889,"current_range_meters":6000,"station_id":"ce4bhnp2rcd13ifvqgvg","pricing_plan_id":"cebpf4jnsgd1na2vs0mg"},{"bike_id":"ea95a086-d532-4cf8-aa42-e0b6aad21615","system_id":"levelo_inurba_marseille","lat":43.29555,"lon":5.42282,"is_reserved":false,"is_disabled":false,"rental_uris":{"android":"levelo://app?vid=ea95a086-d532-4cf8-aa42-e0b6aad21615","ios":"levelo://app?vid=ea95a086-d532-4cf8-aa42-e0b6aad21615"},"vehicle_type_id":"4","last_reported":1741480889,"current_range_meters":6000,"station_id":"ce4bhph2rcd13ifvqhdg","pricing_plan_id":"cebpf4jnsgd1na2vs0mg"},{"bike_id":"60fba7df-4520-4d63-9c5b-9a7a002cedfb","system_id":"levelo_inurba_marseille","lat":43.28045,"lon":5.39123,"is_reserved":false,"is_disabled":false,"rental_uris":{"android":"levelo://app?vid=60fba7df-4520-4d63-9c5b-9a7a002cedfb","ios":"levelo://app?vid=60fba7df-4520-4d63-9c5b-9a7a002cedfb"},"vehicle_type_id":"4","last_reported":1741480889,"current_range_meters":6400,"station_id":"","pricing_plan_id":"cebpf4jnsgd1na2vs0mg"},{"bike_id":"95fb3256-ac0e-4e1a-8b12-c22f969c5f66","system_id":"levelo_inurba_marseille","lat":43.308865,"lon":5.396525,"is_reserved":false,"is_disabled":false,"rental_uris":{"android":"levelo://app?vid=95fb3256-ac0e-4e1a-8b12-c22f969c5f66","ios":"levelo://app?vid=95fb3256-ac0e-4e1a-8b12-c22f969c5f66"},"vehicle_type_id":"4","last_reported":1741480889,"current_range_meters":6400,"station_id":"ce4bh012rcd13ifvqcv0","pricing_plan_id":"cebpf4jnsgd1na2vs0mg"},{"bike_id":"bc41c0cb-14ac-4434-8339-ee5c868c7365","system_id":"levelo_inurba_marseille","lat":43.28728,"lon":5.37937,"is_reserved":false,"is_disabled":false,"rental_uris":{"android":"levelo://app?vid=bc41c0cb-14ac-4434-8339-ee5c868c7365","ios":"levelo://app?vid=bc41c0cb-14ac-4434-8339-ee5c868c7365"},"vehicle_type_id":"4","last_reported":1741480889,"current_range_meters":6400,"station_id":"ce4bh9p2rcd13ifvqec0","pricing_plan_id":"cebpf4jnsgd1na2vs0mg"},{"bike_id":"533a5def-3aea-4854-83d6-7571594b3a81","system_id":"levelo_inurba_marseille","lat":43.29227,"lon":5.3608,"is_reserved":false,"is_disabled":false,"rental_uris":{"android":"levelo://app?vid=533a5def-3aea-4854-83d6-7571594b3a81","ios":"levelo://app?vid=533a5def-3aea-4854-83d6-7571594b3a81"},"vehicle_type_id":"4","last_reported":1741480889,"current_range_meters":6400,"station_id":"ce4bhbh2rcd13ifvqeqg","pricing_plan_id":"cebpf4jnsgd1na2vs0mg"},{"bike_id":"f013849c-7d49-458b-bb0a-c50a4e852ef6","system_id":"levelo_inurba_marseille","lat":43.23961,"lon":5.36638,"is_reserved":false,"is_disabled":false,"rental_uris":{"android":"levelo://app?vid=f013849c-7d49-458b-bb0a-c50a4e852ef6","ios":"levelo://app?vid=f013849c-7d49-458b-bb0a-c50a4e852ef6"},"vehicle_type_id":"4","last_reported":1741480889,"current_range_meters":6400,"station_id":"ce4bhi12rcd13ifvqfp0","pricing_plan_id":"cebpf4jnsgd1na2vs0mg"},{"bike_id":"04027f9f-3617-4d0f-8003-b61a82d55757","system_id":"levelo_inurba_marseille","lat":43.27817,"lon":5.40695,"is_reserved":false,"is_disabled":false,"rental_uris":{"android":"levelo://app?vid=04027f9f-3617-4d0f-8003-b61a82d55757","ios":"levelo://app?vid=04027f9f-3617-4d0f-8003-b61a82d55757"},"vehicle_type_id":"4","last_reported":1741480889,"current_range_meters":6400,"station_id":"ce4bhnh2rcd13ifvqgtg","pricing_plan_id":"cebpf4jnsgd1na2vs0mg"},{"bike_id":"4cc5c768-97d6-4527-b038-ce2ac02a21d3","system_id":"levelo_inurba_marseille","lat":43.33009,"lon":5.39017,"is_reserved":false,"is_disabled":false,"rental_uris":{"android":"levelo://app?vid=4cc5c768-97d6-4527-b038-ce2ac02a21d3","ios":"levelo://app?vid=4cc5c768-97d6-4527-b038-ce2ac02a21d3"},"vehicle_type_id":"4","last_reported":1741480889,"current_range_meters":6400,"station_id":"ce4bhr92rcd13ifvqhrg","pricing_plan_id":"cebpf4jnsgd1na2vs0mg"},{"bike_id":"33bf21ac-44f3-4960-913c-36cb885e2d58","system_id":"levelo_inurba_marseille","lat":43.29262,"lon":5.3764,"is_reserved":false,"is_disabled":false,"rental_uris":{"android":"levelo://app?vid=33bf21ac-44f3-4960-913c-36cb885e2d58","ios":"levelo://app?vid=33bf21ac-44f3-4960-913c-36cb885e2d58"},"vehicle_type_id":"4","last_reported":1741480889,"current_range_meters":6800,"station_id":"ce4bgi12rcd13ifvqb80","pricing_plan_id":"cebpf4jnsgd1na2vs0mg"},{"bike_id":"d04764b2-721c-4149-b1b8-42d1c3ceb1a5","system_id":"levelo_inurba_marseille","lat":43.31375,"lon":5.38494,"is_reserved":false,"is_disabled":false,"rental_uris":{"android":"levelo://app?vid=d04764b2-721c-4149-b1b8-42d1c3ceb1a5","ios":"levelo://app?vid=d04764b2-721c-4149-b1b8-42d1c3ceb1a5"},"vehicle_type_id":"4","last_reported":1741480889,"current_range_meters":6800,"station_id":"ce4bgt92rcd13ifvqcf0","pricing_plan_id":"cebpf4jnsgd1na2vs0mg"},{"bike_id":"2fe3fa9d-c136-4274-aa2d-ddbc2f5c56d4","system_id":"levelo_inurba_marseille","lat":43.2756,"lon":5.39702,"is_reserved":false,"is_disabled":false,"rental_uris":{"android":"levelo://app?vid=2fe3fa9d-c136-4274-aa2d-ddbc2f5c56d4","ios":"levelo://app?vid=2fe3fa9d-c136-4274-aa2d-ddbc2f5c56d4"},"vehicle_type_id":"4","last_reported":1741480889,"current_range_meters":7200,"station_id":"","pricing_plan_id":"cebpf4jnsgd1na2vs0mg"},{"bike_id":"53bd1732-d8ff-41a5-8f1b-42274afdde26","system_id":"levelo_inurba_marseille","lat":43.29366,"lon":5.42829,"is_reserved":false,"is_disabled":false,"rental_uris":{"android":"levelo://app?vid=53bd1732-d8ff-41a5-8f1b-42274afdde26","ios":"levelo://app?vid=53bd1732-d8ff-41a5-8f1b-42274afdde26"},"vehicle_type_id":"4","last_reported":1741480889,"current_range_meters":7200,"station_id":"","pricing_plan_id":"cebpf4jnsgd1na2vs0mg"},{"bike_id":"83c30ce6-d287-45bf-b3e2-8a24662ca825","system_id":"levelo_inurba_marseille","lat":43.30782,"lon":5.38123,"is_reserved":false,"is_disabled":false,"rental_uris":{"android":"levelo://app?vid=83c30ce6-d287-45bf-b3e2-8a24662ca825","ios":"levelo://app?vid=83c30ce6-d287-45bf-b3e2-8a24662ca825"},"vehicle_type_id":"4","last_reported":1741480889,"current_range_meters":7200,"station_id":"ce4bgt12rcd13ifvqce0","pricing_plan_id":"cebpf4jnsgd1na2vs0mg"},{"bike_id":"f4906724-26b5-4110-ba77-718f0f26dd92","system_id":"levelo_inurba_marseille","lat":43.31379,"lon":5.38487,"is_reserved":false,"is_disabled":false,"rental_uris":{"android":"levelo://app?vid=f4906724-26b5-4110-ba77-718f0f26dd92","ios":"levelo://app?vid=f4906724-26b5-4110-ba77-718f0f26dd92"},"vehicle_type_id":"4","last_reported":1741480889,"current_range_meters":7200,"station_id":"ce4bgt92rcd13ifvqcf0","pricing_plan_id":"cebpf4jnsgd1na2vs0mg"},{"bike_id":"765e68a5-c232-4d35-ae9e-183d3ec2adea","system_id":"levelo_inurba_marseille","lat":43.29259,"lon":5.409012,"is_reserved":false,"is_disabled":false,"rental_uris":{"android":"levelo://app?vid=765e68a5-c232-4d35-ae9e-183d3ec2adea","ios":"levelo://app?vid=765e68a5-c232-4d35-ae9e-183d3ec2adea"},"vehicle_type_id":"4","last_reported":1741480889,"current_range_meters":7200,"station_id":"ce4bh192rcd13ifvqdc0","pricing_plan_id":"cebpf4jnsgd1na2vs0mg"},{"bike_id":"626884ee-8f0e-46ef-8d6f-9e0f568a332a","system_id":"levelo_inurba_marseille","lat":43.28605,"lon":5.36437,"is_reserved":false,"is_disabled":false,"rental_uris":{"android":"levelo://app?vid=626884ee-8f0e-46ef-8d6f-9e0f568a332a","ios":"levelo://app?vid=626884ee-8f0e-46ef-8d6f-9e0f568a332a"},"vehicle_type_id":"4","last_reported":1741480889,"current_range_meters":7200,"station_id":"ce4bhah2rcd13ifvqej0","pricing_plan_id":"cebpf4jnsgd1na2vs0mg"},{"bike_id":"8b76a81a-4c10-4e7b-ab15-0f6dad2b5137","system_id":"levelo_inurba_marseille","lat":43.26565,"lon":5.37286,"is_reserved":false,"is_disabled":false,"rental_uris":{"android":"levelo://app?vid=8b76a81a-4c10-4e7b-ab15-0f6dad2b5137","ios":"levelo://app?vid=8b76a81a-4c10-4e7b-ab15-0f6dad2b5137"},"vehicle_type_id":"4","last_reported":1741480889,"current_range_meters":7200,"station_id":"ce4bhg12rcd13ifvqf70","pricing_plan_id":"cebpf4jnsgd1na2vs0mg"},{"bike_id":"17d07e8b-6cde-466a-a776-9e95dfe1fdb0","system_id":"levelo_inurba_marseille","lat":43.27065,"lon":5.42276,"is_reserved":false,"is_disabled":false,"rental_uris":{"android":"levelo://app?vid=17d07e8b-6cde-466a-a776-9e95dfe1fdb0","ios":"levelo://app?vid=17d07e8b-6cde-466a-a776-9e95dfe1fdb0"},"vehicle_type_id":"4","last_reported":1741480889,"current_range_meters":7200,"station_id":"ce4bhk92rcd13ifvqgb0","pricing_plan_id":"cebpf4jnsgd1na2vs0mg"},{"bike_id":"8968ebf0-976e-4199-a05d-0b5eb90e8fa7","system_id":"levelo_inurba_marseille","lat":43.25719,"lon":5.41097,"is_reserved":false,"is_disabled":false,"rental_uris":{"android":"levelo://app?vid=8968ebf0-976e-4199-a05d-0b5eb90e8fa7","ios":"levelo://app?vid=8968ebf0-976e-4199-a05d-0b5eb90e8fa7"},"vehicle_type_id":"4","last_reported":1741480889,"current_range_meters":7200,"station_id":"ce4bhkp2rcd13ifvqgd0","pricing_plan_id":"cebpf4jnsgd1na2vs0mg"},{"bike_id":"6d0356cd-03ed-4a8b-97c7-0e2dd8952c4d","system_id":"levelo_inurba_marseille","lat":43.31713,"lon":5.43709,"is_reserved":false,"is_disabled":false,"rental_uris":{"android":"levelo://app?vid=6d0356cd-03ed-4a8b-97c7-0e2dd8952c4d","ios":"levelo://app?vid=6d0356cd-03ed-4a8b-97c7-0e2dd8952c4d"},"vehicle_type_id":"4","last_reported":1741480889,"current_range_meters":7200,"station_id":"ce4bhp92rcd13ifvqhcg","pricing_plan_id":"cebpf4jnsgd1na2vs0mg"},{"bike_id":"21dda7ec-58bd-4ec5-b46b-7fc383d9774f","system_id":"levelo_inurba_marseille","lat":43.32051,"lon":5.41546,"is_reserved":false,"is_disabled":false,"rental_uris":{"android":"levelo://app?vid=21dda7ec-58bd-4ec5-b46b-7fc383d9774f","ios":"levelo://app?vid=21dda7ec-58bd-4ec5-b46b-7fc383d9774f"},"vehicle_type_id":"4","last_reported":1741480889,"current_range_meters":7200,"station_id":"ce4bhq92rcd13ifvqhkg","pricing_plan_id":"cebpf4jnsgd1na2vs0mg"},{"bike_id":"b6d4299b-4fdb-4612-927d-2e81bbe91b45","system_id":"levelo_inurba_marseille","lat":43.32105,"lon":5.36772,"is_reserved":false,"is_disabled":false,"rental_uris":{"android":"levelo://app?vid=b6d4299b-4fdb-4612-927d-2e81bbe91b45","ios":"levelo://app?vid=b6d4299b-4fdb-4612-927d-2e81bbe91b45"},"vehicle_type_id":"4","last_reported":1741480889,"current_range_meters":7200,"station_id":"ce4bhrh2rcd13ifvqhug","pricing_plan_id":"cebpf4jnsgd1na2vs0mg"},{"bike_id":"06577ee2-bd0c-4739-8f68-e18a6a94f884","system_id":"levelo_inurba_marseille","lat":43.23199,"lon":5.35549,"is_reserved":false,"is_disabled":false,"rental_uris":{"android":"levelo://app?vid=06577ee2-bd0c-4739-8f68-e18a6a94f884","ios":"levelo://app?vid=06577ee2-bd0c-4739-8f68-e18a6a94f884"},"vehicle_type_id":"4","last_reported":1741480889,"current_range_meters":7200,"station_id":"ce4bhu92rcd13ifvqi70","pricing_plan_id":"cebpf4jnsgd1na2vs0mg"},{"bike_id":"a8f484f1-d47f-4ef2-b175-70c6757421df","system_id":"levelo_inurba_marseille","lat":43.30534,"lon":5.36952,"is_reserved":false,"is_disabled":false,"rental_uris":{"android":"levelo://app?vid=a8f484f1-d47f-4ef2-b175-70c6757421df","ios":"levelo://app?vid=a8f484f1-d47f-4ef2-b175-70c6757421df"},"vehicle_type_id":"4","last_reported":1741480889,"current_range_meters":8000,"station_id":"","pricing_plan_id":"cebpf4jnsgd1na2vs0mg"},{"bike_id":"c40c13ce-fdbb-4f52-b2d8-1005d4c9277b","system_id":"levelo_inurba_marseille","lat":43.25406,"lon":5.41896,"is_reserved":false,"is_disabled":false,"rental_uris":{"android":"levelo://app?vid=c40c13ce-fdbb-4f52-b2d8-1005d4c9277b","ios":"levelo://app?vid=c40c13ce-fdbb-4f52-b2d8-1005d4c9277b"},"vehicle_type_id":"4","last_reported":1741480889,"current_range_meters":8000,"station_id":"","pricing_plan_id":"cebpf4jnsgd1na2vs0mg"},{"bike_id":"1efa829b-5cdd-4ff4-92b6-823aec4dee37","system_id":"levelo_inurba_marseille","lat":43.296,"lon":5.380917,"is_reserved":false,"is_disabled":false,"rental_uris":{"android":"levelo://app?vid=1efa829b-5cdd-4ff4-92b6-823aec4dee37","ios":"levelo://app?vid=1efa829b-5cdd-4ff4-92b6-823aec4dee37"},"vehicle_type_id":"4","last_reported":1741480889,"current_range_meters":8000,"station_id":"ce4bgrp2rcd13ifvqc9g","pricing_plan_id":"cebpf4jnsgd1na2vs0mg"},{"bike_id":"271b9580-7db4-4949-aec3-e8c596beb552","system_id":"levelo_inurba_marseille","lat":43.31116,"lon":5.37764,"is_reserved":false,"is_disabled":false,"rental_uris":{"android":"levelo://app?vid=271b9580-7db4-4949-aec3-e8c596beb552","ios":"levelo://app?vid=271b9580-7db4-4949-aec3-e8c596beb552"},"vehicle_type_id":"4","last_reported":1741480889,"current_range_meters":8000,"station_id":"ce4bgt92rcd13ifvqcg0","pricing_plan_id":"cebpf4jnsgd1na2vs0mg"},{"bike_id":"b9f50795-762b-415e-beef-6809359ba11c","system_id":"levelo_inurba_marseille","lat":43.3173,"lon":5.37766,"is_reserved":false,"is_disabled":false,"rental_uris":{"android":"levelo://app?vid=b9f50795-762b-415e-beef-6809359ba11c","ios":"levelo://app?vid=b9f50795-762b-415e-beef-6809359ba11c"},"vehicle_type_id":"4","last_reported":1741480889,"current_range_meters":8000,"station_id":"ce4bgth2rcd13ifvqch0","pricing_plan_id":"cebpf4jnsgd1na2vs0mg"},{"bike_id":"f75c4c52-97ad-48e8-a249-d274046fcd82","system_id":"levelo_inurba_marseille","lat":43.29023,"lon":5.38134,"is_reserved":false,"is_disabled":false,"rental_uris":{"android":"levelo://app?vid=f75c4c52-97ad-48e8-a249-d274046fcd82","ios":"levelo://app?vid=f75c4c52-97ad-48e8-a249-d274046fcd82"},"vehicle_type_id":"4","last_reported":1741480889,"current_range_meters":8000,"station_id":"ce4bh4p2rcd13ifvqe1g","pricing_plan_id":"cebpf4jnsgd1na2vs0mg"},{"bike_id":"b0fab22e-e6d7-4978-96bf-c765be6151ef","system_id":"levelo_inurba_marseille","lat":43.28448,"lon":5.35887,"is_reserved":false,"is_disabled":false,"rental_uris":{"android":"levelo://app?vid=b0fab22e-e6d7-4978-96bf-c765be6151ef","ios":"levelo://app?vid=b0fab22e-e6d7-4978-96bf-c765be6151ef"},"vehicle_type_id":"4","last_reported":1741480889,"current_range_meters":8000,"station_id":"ce4bhah2rcd13ifvqei0","pricing_plan_id":"cebpf4jnsgd1na2vs0mg"},{"bike_id":"7d295ec4-9c0e-4850-9c53-dd65645b97b2","system_id":"levelo_inurba_marseille","lat":43.26067,"lon":5.39391,"is_reserved":false,"is_disabled":false,"rental_uris":{"android":"levelo://app?vid=7d295ec4-9c0e-4850-9c53-dd65645b97b2","ios":"levelo://app?vid=7d295ec4-9c0e-4850-9c53-dd65645b97b2"},"vehicle_type_id":"4","last_reported":1741480889,"current_range_meters":8000,"station_id":"ce4bhh92rcd13ifvqfj0","pricing_plan_id":"cebpf4jnsgd1na2vs0mg"},{"bike_id":"b4ec2170-59cc-4751-981a-ecabaa90ce87","system_id":"levelo_inurba_marseille","lat":43.25116,"lon":5.4033,"is_reserved":false,"is_disabled":false,"rental_uris":{"android":"levelo://app?vid=b4ec2170-59cc-4751-981a-ecabaa90ce87","ios":"levelo://app?vid=b4ec2170-59cc-4751-981a-ecabaa90ce87"},"vehicle_type_id":"4","last_reported":1741480889,"current_range_meters":8000,"station_id":"ce4bhlh2rcd13ifvqgig","pricing_plan_id":"cebpf4jnsgd1na2vs0mg"},{"bike_id":"cb0d4d15-0ce0-4061-8a04-93bcbe80bd0f","system_id":"levelo_inurba_marseille","lat":43.259442,"lon":5.409029,"is_reserved":false,"is_disabled":false,"rental_uris":{"android":"levelo://app?vid=cb0d4d15-0ce0-4061-8a04-93bcbe80bd0f","ios":"levelo://app?vid=cb0d4d15-0ce0-4061-8a04-93bcbe80bd0f"},"vehicle_type_id":"4","last_reported":1741480889,"current_range_meters":8000,"station_id":"ce4bhm92rcd13ifvqglg","pricing_plan_id":"cebpf4jnsgd1na2vs0mg"},{"bike_id":"dd387d75-9a08-4822-b869-17a32635f565","system_id":"levelo_inurba_marseille","lat":43.28565,"lon":5.39497,"is_reserved":false,"is_disabled":false,"rental_uris":{"android":"levelo://app?vid=dd387d75-9a08-4822-b869-17a32635f565","ios":"levelo://app?vid=dd387d75-9a08-4822-b869-17a32635f565"},"vehicle_type_id":"4","last_reported":1741480889,"current_range_meters":8400,"station_id":"ce4bh292rcd13ifvqdg0","pricing_plan_id":"cebpf4jnsgd1na2vs0mg"},{"bike_id":"dc3b7e50-0ca9-4aea-9a47-232d24ba0afe","system_id":"levelo_inurba_marseille","lat":43.29572,"lon":5.3997,"is_reserved":false,"is_disabled":false,"rental_uris":{"android":"levelo://app?vid=dc3b7e50-0ca9-4aea-9a47-232d24ba0afe","ios":"levelo://app?vid=dc3b7e50-0ca9-4aea-9a47-232d24ba0afe"},"vehicle_type_id":"4","last_reported":1741480889,"current_range_meters":8400,"station_id":"ce4bh312rcd13ifvqdj0","pricing_plan_id":"cebpf4jnsgd1na2vs0mg"},{"bike_id":"2f0c724b-bb76-4a4c-8862-0d82bf790fbd","system_id":"levelo_inurba_marseille","lat":43.26559,"lon":5.39024,"is_reserved":false,"is_disabled":false,"rental_uris":{"android":"levelo://app?vid=2f0c724b-bb76-4a4c-8862-0d82bf790fbd","ios":"levelo://app?vid=2f0c724b-bb76-4a4c-8862-0d82bf790fbd"},"vehicle_type_id":"4","last_reported":1741480889,"current_range_meters":8400,"station_id":"ce4bhe12rcd13ifvqf30","pricing_plan_id":"cebpf4jnsgd1na2vs0mg"},{"bike_id":"d729c7f4-89ec-407d-beb1-2e2d40d550c1","system_id":"levelo_inurba_marseille","lat":43.27171,"lon":5.40995,"is_reserved":false,"is_disabled":false,"rental_uris":{"android":"levelo://app?vid=d729c7f4-89ec-407d-beb1-2e2d40d550c1","ios":"levelo://app?vid=d729c7f4-89ec-407d-beb1-2e2d40d550c1"},"vehicle_type_id":"4","last_reported":1741480889,"current_range_meters":8400,"station_id":"ce4bhl12rcd13ifvqgf0","pricing_plan_id":"cebpf4jnsgd1na2vs0mg"},{"bike_id":"2ebd15c7-5740-46e8-a559-6418d4a20edd","system_id":"levelo_inurba_marseille","lat":43.28731,"lon":5.39952,"is_reserved":false,"is_disabled":false,"rental_uris":{"android":"levelo://app?vid=2ebd15c7-5740-46e8-a559-6418d4a20edd","ios":"levelo://app?vid=2ebd15c7-5740-46e8-a559-6418d4a20edd"},"vehicle_type_id":"4","last_reported":1741480889,"current_range_meters":8400,"station_id":"ce4bho92rcd13ifvqh3g","pricing_plan_id":"cebpf4jnsgd1na2vs0mg"},{"bike_id":"af994541-1012-4c1c-a30c-dbecf6f36882","system_id":"levelo_inurba_marseille","lat":43.29558,"lon":5.42278,"is_reserved":false,"is_disabled":false,"rental_uris":{"android":"levelo://app?vid=af994541-1012-4c1c-a30c-dbecf6f36882","ios":"levelo://app?vid=af994541-1012-4c1c-a30c-dbecf6f36882"},"vehicle_type_id":"4","last_reported":1741480889,"current_range_meters":8400,"station_id":"ce4bhph2rcd13ifvqhdg","pricing_plan_id":"cebpf4jnsgd1na2vs0mg"},{"bike_id":"8061010c-0a2a-4149-9b9c-8feec9bf1e55","system_id":"levelo_inurba_marseille","lat":43.30897,"lon":5.37189,"is_reserved":false,"is_disabled":false,"rental_uris":{"android":"levelo://app?vid=8061010c-0a2a-4149-9b9c-8feec9bf1e55","ios":"levelo://app?vid=8061010c-0a2a-4149-9b9c-8feec9bf1e55"},"vehicle_type_id":"4","last_reported":1741480889,"current_range_meters":8800,"station_id":"","pricing_plan_id":"cebpf4jnsgd1na2vs0mg"},{"bike_id":"2e3c60b3-f5fc-40b6-b347-86b0b4f3ee6e","system_id":"levelo_inurba_marseille","lat":43.23226,"lon":5.39957,"is_reserved":false,"is_disabled":false,"rental_uris":{"android":"levelo://app?vid=2e3c60b3-f5fc-40b6-b347-86b0b4f3ee6e","ios":"levelo://app?vid=2e3c60b3-f5fc-40b6-b347-86b0b4f3ee6e"},"vehicle_type_id":"4","last_reported":1741480889,"current_range_meters":8800,"station_id":"","pricing_plan_id":"cebpf4jnsgd1na2vs0mg"},{"bike_id":"4535af30-838a-436f-9c39-afb86353063f","system_id":"levelo_inurba_marseille","lat":43.30164,"lon":5.39981,"is_reserved":false,"is_disabled":false,"rental_uris":{"android":"levelo://app?vid=4535af30-838a-436f-9c39-afb86353063f","ios":"levelo://app?vid=4535af30-838a-436f-9c39-afb86353063f"},"vehicle_type_id":"4","last_reported":1741480889,"current_range_meters":8800,"station_id":"","pricing_plan_id":"cebpf4jnsgd1na2vs0mg"},{"bike_id":"e2f0b9ec-4e7f-4be6-ba0b-ea951e669535","system_id":"levelo_inurba_marseille","lat":43.30899,"lon":5.37198,"is_reserved":false,"is_disabled":false,"rental_uris":{"android":"levelo://app?vid=e2f0b9ec-4e7f-4be6-ba0b-ea951e669535","ios":"levelo://app?vid=e2f0b9ec-4e7f-4be6-ba0b-ea951e669535"},"vehicle_type_id":"4","last_reported":1741480889,"current_range_meters":8800,"station_id":"ce4bguh2rcd13ifvqckg","pricing_plan_id":"cebpf4jnsgd1na2vs0mg"},{"bike_id":"89846120-624d-4233-a515-bdc69e3f3ab7","system_id":"levelo_inurba_marseille","lat":43.30329,"lon":5.4044,"is_reserved":false,"is_disabled":false,"rental_uris":{"android":"levelo://app?vid=89846120-624d-4233-a515-bdc69e3f3ab7","ios":"levelo://app?vid=89846120-624d-4233-a515-bdc69e3f3ab7"},"vehicle_type_id":"4","last_reported":1741480889,"current_range_meters":8800,"station_id":"ce4bh012rcd13ifvqd10","pricing_plan_id":"cebpf4jnsgd1na2vs0mg"},{"bike_id":"ba577cb9-da27-4c5b-9ad8-ff9175ffa62f","system_id":"levelo_inurba_marseille","lat":43.30151,"lon":5.39867,"is_reserved":false,"is_disabled":false,"rental_uris":{"android":"levelo://app?vid=ba577cb9-da27-4c5b-9ad8-ff9175ffa62f","ios":"levelo://app?vid=ba577cb9-da27-4c5b-9ad8-ff9175ffa62f"},"vehicle_type_id":"4","last_reported":1741480889,"current_range_meters":8800,"station_id":"ce4bh0h2rcd13ifvqd40","pricing_plan_id":"cebpf4jnsgd1na2vs0mg"},{"bike_id":"28a222b8-ee91-4818-b3f4-9fc2f0d905f9","system_id":"levelo_inurba_marseille","lat":43.30089,"lon":5.39086,"is_reserved":false,"is_disabled":false,"rental_uris":{"android":"levelo://app?vid=28a222b8-ee91-4818-b3f4-9fc2f0d905f9","ios":"levelo://app?vid=28a222b8-ee91-4818-b3f4-9fc2f0d905f9"},"vehicle_type_id":"4","last_reported":1741480889,"current_range_meters":8800,"station_id":"ce4bh192rcd13ifvqdb0","pricing_plan_id":"cebpf4jnsgd1na2vs0mg"},{"bike_id":"d399c68f-4683-4187-95d7-e32ffde3c66c","system_id":"levelo_inurba_marseille","lat":43.25074,"lon":5.39517,"is_reserved":false,"is_disabled":false,"rental_uris":{"android":"levelo://app?vid=d399c68f-4683-4187-95d7-e32ffde3c66c","ios":"levelo://app?vid=d399c68f-4683-4187-95d7-e32ffde3c66c"},"vehicle_type_id":"4","last_reported":1741480889,"current_range_meters":8800,"station_id":"ce4bhm12rcd13ifvqgkg","pricing_plan_id":"cebpf4jnsgd1na2vs0mg"},{"bike_id":"42aedb88-473c-4518-8d54-dc991a6234b1","system_id":"levelo_inurba_marseille","lat":43.27824,"lon":5.40729,"is_reserved":false,"is_disabled":false,"rental_uris":{"android":"levelo://app?vid=42aedb88-473c-4518-8d54-dc991a6234b1","ios":"levelo://app?vid=42aedb88-473c-4518-8d54-dc991a6234b1"},"vehicle_type_id":"4","last_reported":1741480889,"current_range_meters":8800,"station_id":"ce4bhnh2rcd13ifvqgtg","pricing_plan_id":"cebpf4jnsgd1na2vs0mg"},{"bike_id":"e4bd2c36-555f-4bad-ae17-7623a44e9165","system_id":"levelo_inurba_marseille","lat":43.31351,"lon":5.38325,"is_reserved":false,"is_disabled":false,"rental_uris":{"android":"levelo://app?vid=e4bd2c36-555f-4bad-ae17-7623a44e9165","ios":"levelo://app?vid=e4bd2c36-555f-4bad-ae17-7623a44e9165"},"vehicle_type_id":"4","last_reported":1741480889,"current_range_meters":9200,"station_id":"","pricing_plan_id":"cebpf4jnsgd1na2vs0mg"},{"bike_id":"7ec53467-50c4-4bb5-a169-20c3550b7851","system_id":"levelo_inurba_marseille","lat":43.3018,"lon":5.3662,"is_reserved":false,"is_disabled":false,"rental_uris":{"android":"levelo://app?vid=7ec53467-50c4-4bb5-a169-20c3550b7851","ios":"levelo://app?vid=7ec53467-50c4-4bb5-a169-20c3550b7851"},"vehicle_type_id":"4","last_reported":1741480889,"current_range_meters":9200,"station_id":"ce4bgrh2rcd13ifvqc8g","pricing_plan_id":"cebpf4jnsgd1na2vs0mg"},{"bike_id":"e33dac95-281a-4fd5-ab6d-7ca26ffc6df5","system_id":"levelo_inurba_marseille","lat":43.248,"lon":5.37458,"is_reserved":false,"is_disabled":false,"rental_uris":{"android":"levelo://app?vid=e33dac95-281a-4fd5-ab6d-7ca26ffc6df5","ios":"levelo://app?vid=e33dac95-281a-4fd5-ab6d-7ca26ffc6df5"},"vehicle_type_id":"4","last_reported":1741480889,"current_range_meters":9200,"station_id":"ce4bhgh2rcd13ifvqfb0","pricing_plan_id":"cebpf4jnsgd1na2vs0mg"},{"bike_id":"a09c8ff5-5301-49fa-a163-45c742aebbbf","system_id":"levelo_inurba_marseille","lat":43.29899,"lon":5.43671,"is_reserved":false,"is_disabled":false,"rental_uris":{"android":"levelo://app?vid=a09c8ff5-5301-49fa-a163-45c742aebbbf","ios":"levelo://app?vid=a09c8ff5-5301-49fa-a163-45c742aebbbf"},"vehicle_type_id":"4","last_reported":1741480889,"current_range_meters":9200,"station_id":"ce4bhpp2rcd13ifvqhfg","pricing_plan_id":"cebpf4jnsgd1na2vs0mg"},{"bike_id":"b2c2514d-58df-4080-9acc-0a3325c87525","system_id":"levelo_inurba_marseille","lat":43.32371,"lon":5.36763,"is_reserved":false,"is_disabled":false,"rental_uris":{"android":"levelo://app?vid=b2c2514d-58df-4080-9acc-0a3325c87525","ios":"levelo://app?vid=b2c2514d-58df-4080-9acc-0a3325c87525"},"vehicle_type_id":"4","last_reported":1741480889,"current_range_meters":9200,"station_id":"ce4bhsh2rcd13ifvqi2g","pricing_plan_id":"cebpf4jnsgd1na2vs0mg"},{"bike_id":"ab66da5b-f0e9-439e-9ff7-184a96ef1430","system_id":"levelo_inurba_marseille","lat":43.32371,"lon":5.3676,"is_reserved":false,"is_disabled":false,"rental_uris":{"android":"levelo://app?vid=ab66da5b-f0e9-439e-9ff7-184a96ef1430","ios":"levelo://app?vid=ab66da5b-f0e9-439e-9ff7-184a96ef1430"},"vehicle_type_id":"4","last_reported":1741480889,"current_range_meters":9200,"station_id":"ce4bhsh2rcd13ifvqi2g","pricing_plan_id":"cebpf4jnsgd1na2vs0mg"},{"bike_id":"5355ed1f-6874-4553-9f3e-dcfeb5b3752c","system_id":"levelo_inurba_marseille","lat":43.33052,"lon":5.4082,"is_reserved":false,"is_disabled":false,"rental_uris":{"android":"levelo://app?vid=5355ed1f-6874-4553-9f3e-dcfeb5b3752c","ios":"levelo://app?vid=5355ed1f-6874-4553-9f3e-dcfeb5b3752c"},"vehicle_type_id":"4","last_reported":1741480889,"current_range_meters":9600,"station_id":"","pricing_plan_id":"cebpf4jnsgd1na2vs0mg"},{"bike_id":"30e7968e-2fb8-49ae-80fd-815bd979d78a","system_id":"levelo_inurba_marseille","lat":43.30474,"lon":5.37904,"is_reserved":false,"is_disabled":false,"rental_uris":{"android":"levelo://app?vid=30e7968e-2fb8-49ae-80fd-815bd979d78a","ios":"levelo://app?vid=30e7968e-2fb8-49ae-80fd-815bd979d78a"},"vehicle_type_id":"4","last_reported":1741480889,"current_range_meters":9600,"station_id":"ce4bgup2rcd13ifvqcn0","pricing_plan_id":"cebpf4jnsgd1na2vs0mg"},{"bike_id":"ad284fdb-e6f9-4c5a-9e2c-c44130087410","system_id":"levelo_inurba_marseille","lat":43.23181,"lon":5.39986,"is_reserved":false,"is_disabled":false,"rental_uris":{"android":"levelo://app?vid=ad284fdb-e6f9-4c5a-9e2c-c44130087410","ios":"levelo://app?vid=ad284fdb-e6f9-4c5a-9e2c-c44130087410"},"vehicle_type_id":"4","last_reported":1741480889,"current_range_meters":9600,"station_id":"ce4bhn12rcd13ifvqgqg","pricing_plan_id":"cebpf4jnsgd1na2vs0mg"},{"bike_id":"8c48953b-4c44-4322-93ed-5007a58895e4","system_id":"levelo_inurba_marseille","lat":43.28696,"lon":5.39977,"is_reserved":false,"is_disabled":false,"rental_uris":{"android":"levelo://app?vid=8c48953b-4c44-4322-93ed-5007a58895e4","ios":"levelo://app?vid=8c48953b-4c44-4322-93ed-5007a58895e4"},"vehicle_type_id":"4","last_reported":1741480889,"current_range_meters":9600,"station_id":"ce4bho92rcd13ifvqh3g","pricing_plan_id":"cebpf4jnsgd1na2vs0mg"},{"bike_id":"8bb6425b-70df-448e-831f-1c5eca38a887","system_id":"levelo_inurba_marseille","lat":43.29302,"lon":5.37453,"is_reserved":false,"is_disabled":false,"rental_uris":{"android":"levelo://app?vid=8bb6425b-70df-448e-831f-1c5eca38a887","ios":"levelo://app?vid=8bb6425b-70df-448e-831f-1c5eca38a887"},"vehicle_type_id":"4","last_reported":1741480889,"current_range_meters":10000,"station_id":"ce4bgi12rcd13ifvqb70","pricing_plan_id":"cebpf4jnsgd1na2vs0mg"},{"bike_id":"58e2d297-8c60-46e9-9753-4f52f6b89aa7","system_id":"levelo_inurba_marseille","lat":43.29254,"lon":5.40892,"is_reserved":false,"is_disabled":false,"rental_uris":{"android":"levelo://app?vid=58e2d297-8c60-46e9-9753-4f52f6b89aa7","ios":"levelo://app?vid=58e2d297-8c60-46e9-9753-4f52f6b89aa7"},"vehicle_type_id":"4","last_reported":1741480889,"current_range_meters":10000,"station_id":"ce4bh192rcd13ifvqdc0","pricing_plan_id":"cebpf4jnsgd1na2vs0mg"},{"bike_id":"021ac3cc-1975-45cc-bfff-4cec191aed0a","system_id":"levelo_inurba_marseille","lat":43.29521,"lon":5.39403,"is_reserved":false,"is_disabled":false,"rental_uris":{"android":"levelo://app?vid=021ac3cc-1975-45cc-bfff-4cec191aed0a","ios":"levelo://app?vid=021ac3cc-1975-45cc-bfff-4cec191aed0a"},"vehicle_type_id":"4","last_reported":1741480889,"current_range_meters":10000,"station_id":"ce4bh292rcd13ifvqdf0","pricing_plan_id":"cebpf4jnsgd1na2vs0mg"},{"bike_id":"1d6e1d7c-fde1-4caf-a728-b3ddc99bf769","system_id":"levelo_inurba_marseille","lat":43.28687,"lon":5.37407,"is_reserved":false,"is_disabled":false,"rental_uris":{"android":"levelo://app?vid=1d6e1d7c-fde1-4caf-a728-b3ddc99bf769","ios":"levelo://app?vid=1d6e1d7c-fde1-4caf-a728-b3ddc99bf769"},"vehicle_type_id":"4","last_reported":1741480889,"current_range_meters":10000,"station_id":"ce4bh3p2rcd13ifvqdq0","pricing_plan_id":"cebpf4jnsgd1na2vs0mg"},{"bike_id":"98ac5909-b49c-44d3-8467-4d7a4da61169","system_id":"levelo_inurba_marseille","lat":43.268088,"lon":5.402759,"is_reserved":false,"is_disabled":false,"rental_uris":{"android":"levelo://app?vid=98ac5909-b49c-44d3-8467-4d7a4da61169","ios":"levelo://app?vid=98ac5909-b49c-44d3-8467-4d7a4da61169"},"vehicle_type_id":"4","last_reported":1741480889,"current_range_meters":10000,"station_id":"ce4bh5p2rcd13ifvqe4g","pricing_plan_id":"cebpf4jnsgd1na2vs0mg"},{"bike_id":"d3db5e48-c2af-4fca-8501-f777455dba21","system_id":"levelo_inurba_marseille","lat":43.25002,"lon":5.38924,"is_reserved":false,"is_disabled":false,"rental_uris":{"android":"levelo://app?vid=d3db5e48-c2af-4fca-8501-f777455dba21","ios":"levelo://app?vid=d3db5e48-c2af-4fca-8501-f777455dba21"},"vehicle_type_id":"4","last_reported":1741480889,"current_range_meters":10000,"station_id":"ce4bhgp2rcd13ifvqfd0","pricing_plan_id":"cebpf4jnsgd1na2vs0mg"},{"bike_id":"19bbe8da-d7df-496e-a677-cbaab925cf5e","system_id":"levelo_inurba_marseille","lat":43.24882,"lon":5.42522,"is_reserved":false,"is_disabled":false,"rental_uris":{"android":"levelo://app?vid=19bbe8da-d7df-496e-a677-cbaab925cf5e","ios":"levelo://app?vid=19bbe8da-d7df-496e-a677-cbaab925cf5e"},"vehicle_type_id":"4","last_reported":1741480889,"current_range_meters":10800,"station_id":"","pricing_plan_id":"cebpf4jnsgd1na2vs0mg"},{"bike_id":"d4d80517-15f5-40ba-adfb-dbbe2bf1cada","system_id":"levelo_inurba_marseille","lat":43.29038,"lon":5.43676,"is_reserved":false,"is_disabled":false,"rental_uris":{"android":"levelo://app?vid=d4d80517-15f5-40ba-adfb-dbbe2bf1cada","ios":"levelo://app?vid=d4d80517-15f5-40ba-adfb-dbbe2bf1cada"},"vehicle_type_id":"4","last_reported":1741480889,"current_range_meters":10800,"station_id":"","pricing_plan_id":"cebpf4jnsgd1na2vs0mg"},{"bike_id":"656d293f-5934-4370-b08e-381a870557d5","system_id":"levelo_inurba_marseille","lat":43.29777,"lon":5.37112,"is_reserved":false,"is_disabled":false,"rental_uris":{"android":"levelo://app?vid=656d293f-5934-4370-b08e-381a870557d5","ios":"levelo://app?vid=656d293f-5934-4370-b08e-381a870557d5"},"vehicle_type_id":"4","last_reported":1741480889,"current_range_meters":10800,"station_id":"ce4bgop2rcd13ifvqc1g","pricing_plan_id":"cebpf4jnsgd1na2vs0mg"},{"bike_id":"7407f4d2-05d9-4a3d-b567-bdb9818234b5","system_id":"levelo_inurba_marseille","lat":43.27998,"lon":5.40393,"is_reserved":false,"is_disabled":false,"rental_uris":{"android":"levelo://app?vid=7407f4d2-05d9-4a3d-b567-bdb9818234b5","ios":"levelo://app?vid=7407f4d2-05d9-4a3d-b567-bdb9818234b5"},"vehicle_type_id":"4","last_reported":1741480889,"current_range_meters":10800,"station_id":"ce4bh2p2rcd13ifvqdi0","pricing_plan_id":"cebpf4jnsgd1na2vs0mg"},{"bike_id":"63349a4f-6b7e-43a2-b332-93f161d3117f","system_id":"levelo_inurba_marseille","lat":43.29568,"lon":5.39972,"is_reserved":false,"is_disabled":false,"rental_uris":{"android":"levelo://app?vid=63349a4f-6b7e-43a2-b332-93f161d3117f","ios":"levelo://app?vid=63349a4f-6b7e-43a2-b332-93f161d3117f"},"vehicle_type_id":"4","last_reported":1741480889,"current_range_meters":10800,"station_id":"ce4bh312rcd13ifvqdj0","pricing_plan_id":"cebpf4jnsgd1na2vs0mg"},{"bike_id":"97687e68-be46-4713-8e56-6dcec5493f0a","system_id":"levelo_inurba_marseille","lat":43.24805,"lon":5.37451,"is_reserved":false,"is_disabled":false,"rental_uris":{"android":"levelo://app?vid=97687e68-be46-4713-8e56-6dcec5493f0a","ios":"levelo://app?vid=97687e68-be46-4713-8e56-6dcec5493f0a"},"vehicle_type_id":"4","last_reported":1741480889,"current_range_meters":10800,"station_id":"ce4bhgh2rcd13ifvqfb0","pricing_plan_id":"cebpf4jnsgd1na2vs0mg"},{"bike_id":"565fac05-172c-4b9b-92f1-8fa35566d080","system_id":"levelo_inurba_marseille","lat":43.25751,"lon":5.41116,"is_reserved":false,"is_disabled":false,"rental_uris":{"android":"levelo://app?vid=565fac05-172c-4b9b-92f1-8fa35566d080","ios":"levelo://app?vid=565fac05-172c-4b9b-92f1-8fa35566d080"},"vehicle_type_id":"4","last_reported":1741480889,"current_range_meters":10800,"station_id":"ce4bhkp2rcd13ifvqgd0","pricing_plan_id":"cebpf4jnsgd1na2vs0mg"},{"bike_id":"2ccee320-67e8-4dc3-b761-19553b6bcc0d","system_id":"levelo_inurba_marseille","lat":43.25719,"lon":5.41116,"is_reserved":false,"is_disabled":false,"rental_uris":{"android":"levelo://app?vid=2ccee320-67e8-4dc3-b761-19553b6bcc0d","ios":"levelo://app?vid=2ccee320-67e8-4dc3-b761-19553b6bcc0d"},"vehicle_type_id":"4","last_reported":1741480889,"current_range_meters":10800,"station_id":"ce4bhkp2rcd13ifvqgd0","pricing_plan_id":"cebpf4jnsgd1na2vs0mg"},{"bike_id":"e5e118b0-32a8-4ef3-b6d1-b7487133ba19","system_id":"levelo_inurba_marseille","lat":43.28147,"lon":5.42666,"is_reserved":false,"is_disabled":false,"rental_uris":{"android":"levelo://app?vid=e5e118b0-32a8-4ef3-b6d1-b7487133ba19","ios":"levelo://app?vid=e5e118b0-32a8-4ef3-b6d1-b7487133ba19"},"vehicle_type_id":"4","last_reported":1741480889,"current_range_meters":10800,"station_id":"ce4bhnh2rcd13ifvqgug","pricing_plan_id":"cebpf4jnsgd1na2vs0mg"},{"bike_id":"0e698c9d-47bc-4045-944d-ecfd6b2414bc","system_id":"levelo_inurba_marseille","lat":43.31069,"lon":5.42445,"is_reserved":false,"is_disabled":false,"rental_uris":{"android":"levelo://app?vid=0e698c9d-47bc-4045-944d-ecfd6b2414bc","ios":"levelo://app?vid=0e698c9d-47bc-4045-944d-ecfd6b2414bc"},"vehicle_type_id":"4","last_reported":1741480889,"current_range_meters":10800,"station_id":"ce4bhp92rcd13ifvqhag","pricing_plan_id":"cebpf4jnsgd1na2vs0mg"},{"bike_id":"65bc7032-3d69-47f4-a3fb-90ada1f7b1d3","system_id":"levelo_inurba_marseille","lat":43.31753,"lon":5.39018,"is_reserved":false,"is_disabled":false,"rental_uris":{"android":"levelo://app?vid=65bc7032-3d69-47f4-a3fb-90ada1f7b1d3","ios":"levelo://app?vid=65bc7032-3d69-47f4-a3fb-90ada1f7b1d3"},"vehicle_type_id":"4","last_reported":1741480889,"current_range_meters":10800,"station_id":"ce4bhqp2rcd13ifvqhng","pricing_plan_id":"cebpf4jnsgd1na2vs0mg"},{"bike_id":"2236d601-a90c-40b9-b0d8-4842123bb09f","system_id":"levelo_inurba_marseille","lat":43.30929,"lon":5.40139,"is_reserved":false,"is_disabled":false,"rental_uris":{"android":"levelo://app?vid=2236d601-a90c-40b9-b0d8-4842123bb09f","ios":"levelo://app?vid=2236d601-a90c-40b9-b0d8-4842123bb09f"},"vehicle_type_id":"4","last_reported":1741480889,"current_range_meters":11200,"station_id":"ce4bgvp2rcd13ifvqct0","pricing_plan_id":"cebpf4jnsgd1na2vs0mg"},{"bike_id":"4ad7b95c-9bb3-43a7-a832-088f747b81f2","system_id":"levelo_inurba_marseille","lat":43.28703,"lon":5.37401,"is_reserved":false,"is_disabled":false,"rental_uris":{"android":"levelo://app?vid=4ad7b95c-9bb3-43a7-a832-088f747b81f2","ios":"levelo://app?vid=4ad7b95c-9bb3-43a7-a832-088f747b81f2"},"vehicle_type_id":"4","last_reported":1741480889,"current_range_meters":11200,"station_id":"ce4bh3p2rcd13ifvqdq0","pricing_plan_id":"cebpf4jnsgd1na2vs0mg"},{"bike_id":"630ee3ac-755c-4fc8-b307-146cffb3a5af","system_id":"levelo_inurba_marseille","lat":43.29938,"lon":5.39156,"is_reserved":false,"is_disabled":false,"rental_uris":{"android":"levelo://app?vid=630ee3ac-755c-4fc8-b307-146cffb3a5af","ios":"levelo://app?vid=630ee3ac-755c-4fc8-b307-146cffb3a5af"},"vehicle_type_id":"4","last_reported":1741480889,"current_range_meters":11600,"station_id":"","pricing_plan_id":"cebpf4jnsgd1na2vs0mg"},{"bike_id":"bc055fb7-3f22-40f5-bef5-6dbb6683ea72","system_id":"levelo_inurba_marseille","lat":43.28615,"lon":5.35104,"is_reserved":false,"is_disabled":false,"rental_uris":{"android":"levelo://app?vid=bc055fb7-3f22-40f5-bef5-6dbb6683ea72","ios":"levelo://app?vid=bc055fb7-3f22-40f5-bef5-6dbb6683ea72"},"vehicle_type_id":"4","last_reported":1741480889,"current_range_meters":11600,"station_id":"ce4bhch2rcd13ifvqeug","pricing_plan_id":"cebpf4jnsgd1na2vs0mg"},{"bike_id":"d3bf52cf-21e4-44e7-b9af-03abdb680e52","system_id":"levelo_inurba_marseille","lat":43.28712,"lon":5.39973,"is_reserved":false,"is_disabled":false,"rental_uris":{"android":"levelo://app?vid=d3bf52cf-21e4-44e7-b9af-03abdb680e52","ios":"levelo://app?vid=d3bf52cf-21e4-44e7-b9af-03abdb680e52"},"vehicle_type_id":"4","last_reported":1741480889,"current_range_meters":11600,"station_id":"ce4bho92rcd13ifvqh3g","pricing_plan_id":"cebpf4jnsgd1na2vs0mg"},{"bike_id":"bbf62d9f-22e8-446b-b3ab-fed286c04dd7","system_id":"levelo_inurba_marseille","lat":43.30876,"lon":5.37224,"is_reserved":false,"is_disabled":false,"rental_uris":{"android":"levelo://app?vid=bbf62d9f-22e8-446b-b3ab-fed286c04dd7","ios":"levelo://app?vid=bbf62d9f-22e8-446b-b3ab-fed286c04dd7"},"vehicle_type_id":"4","last_reported":1741480889,"current_range_meters":12000,"station_id":"ce4bguh2rcd13ifvqckg","pricing_plan_id":"cebpf4jnsgd1na2vs0mg"},{"bike_id":"ac2efbb8-87f5-4e67-91b6-6982ed970754","system_id":"levelo_inurba_marseille","lat":43.25109,"lon":5.40336,"is_reserved":false,"is_disabled":false,"rental_uris":{"android":"levelo://app?vid=ac2efbb8-87f5-4e67-91b6-6982ed970754","ios":"levelo://app?vid=ac2efbb8-87f5-4e67-91b6-6982ed970754"},"vehicle_type_id":"4","last_reported":1741480889,"current_range_meters":12000,"station_id":"ce4bhlh2rcd13ifvqgig","pricing_plan_id":"cebpf4jnsgd1na2vs0mg"},{"bike_id":"e4862560-8b14-41f0-b4ab-304f0c05b04a","system_id":"levelo_inurba_marseille","lat":43.25093,"lon":5.39513,"is_reserved":false,"is_disabled":false,"rental_uris":{"android":"levelo://app?vid=e4862560-8b14-41f0-b4ab-304f0c05b04a","ios":"levelo://app?vid=e4862560-8b14-41f0-b4ab-304f0c05b04a"},"vehicle_type_id":"4","last_reported":1741480889,"current_range_meters":12000,"station_id":"ce4bhm12rcd13ifvqgkg","pricing_plan_id":"cebpf4jnsgd1na2vs0mg"},{"bike_id":"61e388e0-88e8-4998-828e-6cf2d929078c","system_id":"levelo_inurba_marseille","lat":43.32101,"lon":5.368,"is_reserved":false,"is_disabled":false,"rental_uris":{"android":"levelo://app?vid=61e388e0-88e8-4998-828e-6cf2d929078c","ios":"levelo://app?vid=61e388e0-88e8-4998-828e-6cf2d929078c"},"vehicle_type_id":"4","last_reported":1741480889,"current_range_meters":12000,"station_id":"ce4bhrh2rcd13ifvqhug","pricing_plan_id":"cebpf4jnsgd1na2vs0mg"},{"bike_id":"80d3b236-a42c-4c12-b109-c19930a96559","system_id":"levelo_inurba_marseille","lat":43.31224,"lon":5.36859,"is_reserved":false,"is_disabled":false,"rental_uris":{"android":"levelo://app?vid=80d3b236-a42c-4c12-b109-c19930a96559","ios":"levelo://app?vid=80d3b236-a42c-4c12-b109-c19930a96559"},"vehicle_type_id":"4","last_reported":1741480889,"current_range_meters":12400,"station_id":"ce4bgl92rcd13ifvqbq0","pricing_plan_id":"cebpf4jnsgd1na2vs0mg"},{"bike_id":"055052ca-4e4e-4329-b89b-23999b9a45f1","system_id":"levelo_inurba_marseille","lat":43.28709,"lon":5.3739,"is_reserved":false,"is_disabled":false,"rental_uris":{"android":"levelo://app?vid=055052ca-4e4e-4329-b89b-23999b9a45f1","ios":"levelo://app?vid=055052ca-4e4e-4329-b89b-23999b9a45f1"},"vehicle_type_id":"4","last_reported":1741480889,"current_range_meters":12400,"station_id":"ce4bh3p2rcd13ifvqdq0","pricing_plan_id":"cebpf4jnsgd1na2vs0mg"},{"bike_id":"f5d27d01-effc-4a0c-b4ac-2b42b750aca5","system_id":"levelo_inurba_marseille","lat":43.24548,"lon":5.39522,"is_reserved":false,"is_disabled":false,"rental_uris":{"android":"levelo://app?vid=f5d27d01-effc-4a0c-b4ac-2b42b750aca5","ios":"levelo://app?vid=f5d27d01-effc-4a0c-b4ac-2b42b750aca5"},"vehicle_type_id":"4","last_reported":1741480889,"current_range_meters":12400,"station_id":"ce4bhlp2rcd13ifvqgjg","pricing_plan_id":"cebpf4jnsgd1na2vs0mg"},{"bike_id":"1882bff9-3a4a-48a1-ae14-1aea4af61a78","system_id":"levelo_inurba_marseille","lat":43.32278,"lon":5.38291,"is_reserved":false,"is_disabled":false,"rental_uris":{"android":"levelo://app?vid=1882bff9-3a4a-48a1-ae14-1aea4af61a78","ios":"levelo://app?vid=1882bff9-3a4a-48a1-ae14-1aea4af61a78"},"vehicle_type_id":"4","last_reported":1741480889,"current_range_meters":12400,"station_id":"ce4bhr12rcd13ifvqhqg","pricing_plan_id":"cebpf4jnsgd1na2vs0mg"},{"bike_id":"d7f0e08b-6dac-45ba-bfe3-5ddc58fa3790","system_id":"levelo_inurba_marseille","lat":43.28423,"lon":5.37515,"is_reserved":false,"is_disabled":false,"rental_uris":{"android":"levelo://app?vid=d7f0e08b-6dac-45ba-bfe3-5ddc58fa3790","ios":"levelo://app?vid=d7f0e08b-6dac-45ba-bfe3-5ddc58fa3790"},"vehicle_type_id":"4","last_reported":1741480889,"current_range_meters":12800,"station_id":"ce4bh412rcd13ifvqds0","pricing_plan_id":"cebpf4jnsgd1na2vs0mg"},{"bike_id":"6677efb2-86ce-4bc4-8b94-b5847beaa181","system_id":"levelo_inurba_marseille","lat":43.29231,"lon":5.36071,"is_reserved":false,"is_disabled":false,"rental_uris":{"android":"levelo://app?vid=6677efb2-86ce-4bc4-8b94-b5847beaa181","ios":"levelo://app?vid=6677efb2-86ce-4bc4-8b94-b5847beaa181"},"vehicle_type_id":"4","last_reported":1741480889,"current_range_meters":12800,"station_id":"ce4bhbh2rcd13ifvqeqg","pricing_plan_id":"cebpf4jnsgd1na2vs0mg"},{"bike_id":"4c5d8bb4-3d1e-4689-9d72-361d8d376cce","system_id":"levelo_inurba_marseille","lat":43.24814,"lon":5.37457,"is_reserved":false,"is_disabled":false,"rental_uris":{"android":"levelo://app?vid=4c5d8bb4-3d1e-4689-9d72-361d8d376cce","ios":"levelo://app?vid=4c5d8bb4-3d1e-4689-9d72-361d8d376cce"},"vehicle_type_id":"4","last_reported":1741480889,"current_range_meters":12800,"station_id":"ce4bhgh2rcd13ifvqfb0","pricing_plan_id":"cebpf4jnsgd1na2vs0mg"},{"bike_id":"83464d8d-da01-48ab-a574-6841c0f43d0f","system_id":"levelo_inurba_marseille","lat":43.27941,"lon":5.41038,"is_reserved":false,"is_disabled":false,"rental_uris":{"android":"levelo://app?vid=83464d8d-da01-48ab-a574-6841c0f43d0f","ios":"levelo://app?vid=83464d8d-da01-48ab-a574-6841c0f43d0f"},"vehicle_type_id":"4","last_reported":1741480889,"current_range_meters":12800,"station_id":"ce4bhnp2rcd13ifvqh0g","pricing_plan_id":"cebpf4jnsgd1na2vs0mg"},{"bike_id":"2d61ec87-0577-43ad-a521-fdb089acfcf2","system_id":"levelo_inurba_marseille","lat":43.30952,"lon":5.39034,"is_reserved":false,"is_disabled":false,"rental_uris":{"android":"levelo://app?vid=2d61ec87-0577-43ad-a521-fdb089acfcf2","ios":"levelo://app?vid=2d61ec87-0577-43ad-a521-fdb089acfcf2"},"vehicle_type_id":"4","last_reported":1741480889,"current_range_meters":14000,"station_id":"ce4bgup2rcd13ifvqco0","pricing_plan_id":"cebpf4jnsgd1na2vs0mg"},{"bike_id":"c5f7b0ef-b3bd-4311-bf5d-0e9e0cdd3fee","system_id":"levelo_inurba_marseille","lat":43.32447,"lon":5.36578,"is_reserved":false,"is_disabled":false,"rental_uris":{"android":"levelo://app?vid=c5f7b0ef-b3bd-4311-bf5d-0e9e0cdd3fee","ios":"levelo://app?vid=c5f7b0ef-b3bd-4311-bf5d-0e9e0cdd3fee"},"vehicle_type_id":"4","last_reported":1741480889,"current_range_meters":14000,"station_id":"ce4bhs12rcd13ifvqhvg","pricing_plan_id":"cebpf4jnsgd1na2vs0mg"},{"bike_id":"e9dab2ce-7c7d-40d2-82aa-ed5c703d86fd","system_id":"levelo_inurba_marseille","lat":43.32123,"lon":5.36773,"is_reserved":false,"is_disabled":false,"rental_uris":{"android":"levelo://app?vid=e9dab2ce-7c7d-40d2-82aa-ed5c703d86fd","ios":"levelo://app?vid=e9dab2ce-7c7d-40d2-82aa-ed5c703d86fd"},"vehicle_type_id":"4","last_reported":1741480889,"current_range_meters":14400,"station_id":"ce4bhrh2rcd13ifvqhug","pricing_plan_id":"cebpf4jnsgd1na2vs0mg"},{"bike_id":"deb81f77-c6e9-45d2-b680-8c00a5704cb4","system_id":"levelo_inurba_marseille","lat":43.32121,"lon":5.36764,"is_reserved":false,"is_disabled":false,"rental_uris":{"android":"levelo://app?vid=deb81f77-c6e9-45d2-b680-8c00a5704cb4","ios":"levelo://app?vid=deb81f77-c6e9-45d2-b680-8c00a5704cb4"},"vehicle_type_id":"4","last_reported":1741480889,"current_range_meters":14400,"station_id":"ce4bhrh2rcd13ifvqhug","pricing_plan_id":"cebpf4jnsgd1na2vs0mg"},{"bike_id":"f7b9a431-cef0-47cd-aa60-d241d5be9eb1","system_id":"levelo_inurba_marseille","lat":43.30785,"lon":5.38125,"is_reserved":false,"is_disabled":false,"rental_uris":{"android":"levelo://app?vid=f7b9a431-cef0-47cd-aa60-d241d5be9eb1","ios":"levelo://app?vid=f7b9a431-cef0-47cd-aa60-d241d5be9eb1"},"vehicle_type_id":"4","last_reported":1741480889,"current_range_meters":14800,"station_id":"ce4bgt12rcd13ifvqce0","pricing_plan_id":"cebpf4jnsgd1na2vs0mg"},{"bike_id":"1c481fb0-d338-447e-9ac4-5d0e02692c73","system_id":"levelo_inurba_marseille","lat":43.25492,"lon":5.37672,"is_reserved":false,"is_disabled":false,"rental_uris":{"android":"levelo://app?vid=1c481fb0-d338-447e-9ac4-5d0e02692c73","ios":"levelo://app?vid=1c481fb0-d338-447e-9ac4-5d0e02692c73"},"vehicle_type_id":"4","last_reported":1741480889,"current_range_meters":14800,"station_id":"ce4bhh12rcd13ifvqff0","pricing_plan_id":"cebpf4jnsgd1na2vs0mg"},{"bike_id":"e46cf736-affa-40c7-8ac1-bc28457426be","system_id":"levelo_inurba_marseille","lat":43.292603,"lon":5.38448,"is_reserved":false,"is_disabled":false,"rental_uris":{"android":"levelo://app?vid=e46cf736-affa-40c7-8ac1-bc28457426be","ios":"levelo://app?vid=e46cf736-affa-40c7-8ac1-bc28457426be"},"vehicle_type_id":"4","last_reported":1741480889,"current_range_meters":15200,"station_id":"","pricing_plan_id":"cebpf4jnsgd1na2vs0mg"},{"bike_id":"4ec03c93-9227-443b-853e-eb5304e66583","system_id":"levelo_inurba_marseille","lat":43.25001,"lon":5.38937,"is_reserved":false,"is_disabled":false,"rental_uris":{"android":"levelo://app?vid=4ec03c93-9227-443b-853e-eb5304e66583","ios":"levelo://app?vid=4ec03c93-9227-443b-853e-eb5304e66583"},"vehicle_type_id":"4","last_reported":1741480889,"current_range_meters":15200,"station_id":"ce4bhgp2rcd13ifvqfd0","pricing_plan_id":"cebpf4jnsgd1na2vs0mg"},{"bike_id":"8f713295-0a4f-4e55-a36e-d8d0e2dbe285","system_id":"levelo_inurba_marseille","lat":43.29786,"lon":5.39358,"is_reserved":false,"is_disabled":false,"rental_uris":{"android":"levelo://app?vid=8f713295-0a4f-4e55-a36e-d8d0e2dbe285","ios":"levelo://app?vid=8f713295-0a4f-4e55-a36e-d8d0e2dbe285"},"vehicle_type_id":"4","last_reported":1741480889,"current_range_meters":15200,"station_id":"chh1huq6cuj3fo74tm60","pricing_plan_id":"cebpf4jnsgd1na2vs0mg"},{"bike_id":"6503f83c-089e-443d-9c4d-c5c9fa6b70ea","system_id":"levelo_inurba_marseille","lat":43.25682,"lon":5.41089,"is_reserved":false,"is_disabled":false,"rental_uris":{"android":"levelo://app?vid=6503f83c-089e-443d-9c4d-c5c9fa6b70ea","ios":"levelo://app?vid=6503f83c-089e-443d-9c4d-c5c9fa6b70ea"},"vehicle_type_id":"4","last_reported":1741480889,"current_range_meters":16000,"station_id":"ce4bhkp2rcd13ifvqgd0","pricing_plan_id":"cebpf4jnsgd1na2vs0mg"},{"bike_id":"6332f21c-b735-409b-8f12-ffcec3dc9b39","system_id":"levelo_inurba_marseille","lat":43.23203,"lon":5.39981,"is_reserved":false,"is_disabled":false,"rental_uris":{"android":"levelo://app?vid=6332f21c-b735-409b-8f12-ffcec3dc9b39","ios":"levelo://app?vid=6332f21c-b735-409b-8f12-ffcec3dc9b39"},"vehicle_type_id":"4","last_reported":1741480889,"current_range_meters":16000,"station_id":"ce4bhn12rcd13ifvqgqg","pricing_plan_id":"cebpf4jnsgd1na2vs0mg"},{"bike_id":"b7dbd81c-ca41-4403-b3b8-c89e3ddb5bdb","system_id":"levelo_inurba_marseille","lat":43.31458,"lon":5.37576,"is_reserved":false,"is_disabled":false,"rental_uris":{"android":"levelo://app?vid=b7dbd81c-ca41-4403-b3b8-c89e3ddb5bdb","ios":"levelo://app?vid=b7dbd81c-ca41-4403-b3b8-c89e3ddb5bdb"},"vehicle_type_id":"4","last_reported":1741480889,"current_range_meters":16400,"station_id":"","pricing_plan_id":"cebpf4jnsgd1na2vs0mg"},{"bike_id":"fe0ec737-5a80-48e8-adfe-00e47b1c2424","system_id":"levelo_inurba_marseille","lat":43.31164,"lon":5.38724,"is_reserved":false,"is_disabled":false,"rental_uris":{"android":"levelo://app?vid=fe0ec737-5a80-48e8-adfe-00e47b1c2424","ios":"levelo://app?vid=fe0ec737-5a80-48e8-adfe-00e47b1c2424"},"vehicle_type_id":"4","last_reported":1741480889,"current_range_meters":16400,"station_id":"ce4bgv12rcd13ifvqcp0","pricing_plan_id":"cebpf4jnsgd1na2vs0mg"},{"bike_id":"c3632eda-883e-447f-9053-aacd5ac0b1e8","system_id":"levelo_inurba_marseille","lat":43.28431,"lon":5.37518,"is_reserved":false,"is_disabled":false,"rental_uris":{"android":"levelo://app?vid=c3632eda-883e-447f-9053-aacd5ac0b1e8","ios":"levelo://app?vid=c3632eda-883e-447f-9053-aacd5ac0b1e8"},"vehicle_type_id":"4","last_reported":1741480889,"current_range_meters":16400,"station_id":"ce4bh412rcd13ifvqds0","pricing_plan_id":"cebpf4jnsgd1na2vs0mg"},{"bike_id":"c80c4f38-3ca5-4ae9-abe0-0492e8424c10","system_id":"levelo_inurba_marseille","lat":43.28262,"lon":5.35061,"is_reserved":false,"is_disabled":false,"rental_uris":{"android":"levelo://app?vid=c80c4f38-3ca5-4ae9-abe0-0492e8424c10","ios":"levelo://app?vid=c80c4f38-3ca5-4ae9-abe0-0492e8424c10"},"vehicle_type_id":"4","last_reported":1741480889,"current_range_meters":16400,"station_id":"ce4bhbp2rcd13ifvqerg","pricing_plan_id":"cebpf4jnsgd1na2vs0mg"},{"bike_id":"95a9099a-60dc-480d-ab0b-ec9e3943d5e5","system_id":"levelo_inurba_marseille","lat":43.24631,"lon":5.389,"is_reserved":false,"is_disabled":false,"rental_uris":{"android":"levelo://app?vid=95a9099a-60dc-480d-ab0b-ec9e3943d5e5","ios":"levelo://app?vid=95a9099a-60dc-480d-ab0b-ec9e3943d5e5"},"vehicle_type_id":"4","last_reported":1741480889,"current_range_meters":16400,"station_id":"ce4bhg12rcd13ifvqf60","pricing_plan_id":"cebpf4jnsgd1na2vs0mg"},{"bike_id":"67fc845a-4e54-4c1c-8b59-aae9c41867a4","system_id":"levelo_inurba_marseille","lat":43.27074,"lon":5.42281,"is_reserved":false,"is_disabled":false,"rental_uris":{"android":"levelo://app?vid=67fc845a-4e54-4c1c-8b59-aae9c41867a4","ios":"levelo://app?vid=67fc845a-4e54-4c1c-8b59-aae9c41867a4"},"vehicle_type_id":"4","last_reported":1741480889,"current_range_meters":16400,"station_id":"ce4bhk92rcd13ifvqgb0","pricing_plan_id":"cebpf4jnsgd1na2vs0mg"},{"bike_id":"5ed2dd89-a937-49df-801e-4fd381bacc70","system_id":"levelo_inurba_marseille","lat":43.251173,"lon":5.403205,"is_reserved":false,"is_disabled":false,"rental_uris":{"android":"levelo://app?vid=5ed2dd89-a937-49df-801e-4fd381bacc70","ios":"levelo://app?vid=5ed2dd89-a937-49df-801e-4fd381bacc70"},"vehicle_type_id":"4","last_reported":1741480889,"current_range_meters":16400,"station_id":"ce4bhlh2rcd13ifvqgig","pricing_plan_id":"cebpf4jnsgd1na2vs0mg"},{"bike_id":"784c0414-6aa2-4751-9997-f2902912b1e2","system_id":"levelo_inurba_marseille","lat":43.31088,"lon":5.42435,"is_reserved":false,"is_disabled":false,"rental_uris":{"android":"levelo://app?vid=784c0414-6aa2-4751-9997-f2902912b1e2","ios":"levelo://app?vid=784c0414-6aa2-4751-9997-f2902912b1e2"},"vehicle_type_id":"4","last_reported":1741480889,"current_range_meters":16400,"station_id":"ce4bhp92rcd13ifvqhag","pricing_plan_id":"cebpf4jnsgd1na2vs0mg"},{"bike_id":"1d81b766-707a-4a34-a0f0-4e3c081c31b4","system_id":"levelo_inurba_marseille","lat":43.29555,"lon":5.4229,"is_reserved":false,"is_disabled":false,"rental_uris":{"android":"levelo://app?vid=1d81b766-707a-4a34-a0f0-4e3c081c31b4","ios":"levelo://app?vid=1d81b766-707a-4a34-a0f0-4e3c081c31b4"},"vehicle_type_id":"4","last_reported":1741480889,"current_range_meters":16400,"station_id":"ce4bhph2rcd13ifvqhdg","pricing_plan_id":"cebpf4jnsgd1na2vs0mg"},{"bike_id":"eaf1a163-e377-4bc2-a834-eef0e6f56450","system_id":"levelo_inurba_marseille","lat":43.323651,"lon":5.388907,"is_reserved":false,"is_disabled":false,"rental_uris":{"android":"levelo://app?vid=eaf1a163-e377-4bc2-a834-eef0e6f56450","ios":"levelo://app?vid=eaf1a163-e377-4bc2-a834-eef0e6f56450"},"vehicle_type_id":"4","last_reported":1741480889,"current_range_meters":16400,"station_id":"ce4bhqp2rcd13ifvqhog","pricing_plan_id":"cebpf4jnsgd1na2vs0mg"},{"bike_id":"3ee918a1-dec5-45d2-b71d-4196ba8832d0","system_id":"levelo_inurba_marseille","lat":43.31532,"lon":5.3803,"is_reserved":false,"is_disabled":false,"rental_uris":{"android":"levelo://app?vid=3ee918a1-dec5-45d2-b71d-4196ba8832d0","ios":"levelo://app?vid=3ee918a1-dec5-45d2-b71d-4196ba8832d0"},"vehicle_type_id":"4","last_reported":1741480889,"current_range_meters":16400,"station_id":"ce4bhsp2rcd13ifvqi50","pricing_plan_id":"cebpf4jnsgd1na2vs0mg"},{"bike_id":"1f72adc6-3d1a-4fad-a905-cb9dcd596e26","system_id":"levelo_inurba_marseille","lat":43.23835,"lon":5.43568,"is_reserved":false,"is_disabled":false,"rental_uris":{"android":"levelo://app?vid=1f72adc6-3d1a-4fad-a905-cb9dcd596e26","ios":"levelo://app?vid=1f72adc6-3d1a-4fad-a905-cb9dcd596e26"},"vehicle_type_id":"4","last_reported":1741480889,"current_range_meters":16800,"station_id":"","pricing_plan_id":"cebpf4jnsgd1na2vs0mg"},{"bike_id":"07e7bc44-5fe4-4df5-8935-6b57fd8ba280","system_id":"levelo_inurba_marseille","lat":43.31365,"lon":5.38494,"is_reserved":false,"is_disabled":false,"rental_uris":{"android":"levelo://app?vid=07e7bc44-5fe4-4df5-8935-6b57fd8ba280","ios":"levelo://app?vid=07e7bc44-5fe4-4df5-8935-6b57fd8ba280"},"vehicle_type_id":"4","last_reported":1741480889,"current_range_meters":16800,"station_id":"ce4bgt92rcd13ifvqcf0","pricing_plan_id":"cebpf4jnsgd1na2vs0mg"},{"bike_id":"1ffe0839-d6b0-49e0-a58b-164465fcccd9","system_id":"levelo_inurba_marseille","lat":43.24651,"lon":5.38898,"is_reserved":false,"is_disabled":false,"rental_uris":{"android":"levelo://app?vid=1ffe0839-d6b0-49e0-a58b-164465fcccd9","ios":"levelo://app?vid=1ffe0839-d6b0-49e0-a58b-164465fcccd9"},"vehicle_type_id":"4","last_reported":1741480889,"current_range_meters":16800,"station_id":"ce4bhg12rcd13ifvqf60","pricing_plan_id":"cebpf4jnsgd1na2vs0mg"},{"bike_id":"3a874f96-3384-4ea3-a8cc-a9c6cf342824","system_id":"levelo_inurba_marseille","lat":43.33606,"lon":5.41016,"is_reserved":false,"is_disabled":false,"rental_uris":{"android":"levelo://app?vid=3a874f96-3384-4ea3-a8cc-a9c6cf342824","ios":"levelo://app?vid=3a874f96-3384-4ea3-a8cc-a9c6cf342824"},"vehicle_type_id":"4","last_reported":1741480889,"current_range_meters":16800,"station_id":"ce4bhqh2rcd13ifvqhmg","pricing_plan_id":"cebpf4jnsgd1na2vs0mg"},{"bike_id":"7f08542c-3622-4bee-8852-d0974c0ec085","system_id":"levelo_inurba_marseille","lat":43.24143,"lon":5.36402,"is_reserved":false,"is_disabled":false,"rental_uris":{"android":"levelo://app?vid=7f08542c-3622-4bee-8852-d0974c0ec085","ios":"levelo://app?vid=7f08542c-3622-4bee-8852-d0974c0ec085"},"vehicle_type_id":"4","last_reported":1741480889,"current_range_meters":16800,"station_id":"cpo36qri1sfpv3e86is0","pricing_plan_id":"cebpf4jnsgd1na2vs0mg"},{"bike_id":"4e988b79-546d-4039-b5f6-8f94585d4ef4","system_id":"levelo_inurba_marseille","lat":43.33497,"lon":5.36061,"is_reserved":false,"is_disabled":false,"rental_uris":{"android":"levelo://app?vid=4e988b79-546d-4039-b5f6-8f94585d4ef4","ios":"levelo://app?vid=4e988b79-546d-4039-b5f6-8f94585d4ef4"},"vehicle_type_id":"4","last_reported":1741480889,"current_range_meters":17200,"station_id":"","pricing_plan_id":"cebpf4jnsgd1na2vs0mg"},{"bike_id":"de5e9f86-f674-4c5a-9fc3-493aa3f843db","system_id":"levelo_inurba_marseille","lat":43.31193,"lon":5.36858,"is_reserved":false,"is_disabled":false,"rental_uris":{"android":"levelo://app?vid=de5e9f86-f674-4c5a-9fc3-493aa3f843db","ios":"levelo://app?vid=de5e9f86-f674-4c5a-9fc3-493aa3f843db"},"vehicle_type_id":"4","last_reported":1741480889,"current_range_meters":17200,"station_id":"ce4bgl92rcd13ifvqbq0","pricing_plan_id":"cebpf4jnsgd1na2vs0mg"},{"bike_id":"ae6d9bec-5fbb-450c-8eaa-314b7537f20e","system_id":"levelo_inurba_marseille","lat":43.31223,"lon":5.36849,"is_reserved":false,"is_disabled":false,"rental_uris":{"android":"levelo://app?vid=ae6d9bec-5fbb-450c-8eaa-314b7537f20e","ios":"levelo://app?vid=ae6d9bec-5fbb-450c-8eaa-314b7537f20e"},"vehicle_type_id":"4","last_reported":1741480889,"current_range_meters":17200,"station_id":"ce4bgl92rcd13ifvqbq0","pricing_plan_id":"cebpf4jnsgd1na2vs0mg"},{"bike_id":"2625e2de-e602-4034-9e8f-f16492a7ae33","system_id":"levelo_inurba_marseille","lat":43.30802,"lon":5.38152,"is_reserved":false,"is_disabled":false,"rental_uris":{"android":"levelo://app?vid=2625e2de-e602-4034-9e8f-f16492a7ae33","ios":"levelo://app?vid=2625e2de-e602-4034-9e8f-f16492a7ae33"},"vehicle_type_id":"4","last_reported":1741480889,"current_range_meters":17200,"station_id":"ce4bgt12rcd13ifvqce0","pricing_plan_id":"cebpf4jnsgd1na2vs0mg"},{"bike_id":"6ab49633-31ff-493d-975d-9cc6e91db37b","system_id":"levelo_inurba_marseille","lat":43.31067,"lon":5.383582,"is_reserved":false,"is_disabled":false,"rental_uris":{"android":"levelo://app?vid=6ab49633-31ff-493d-975d-9cc6e91db37b","ios":"levelo://app?vid=6ab49633-31ff-493d-975d-9cc6e91db37b"},"vehicle_type_id":"4","last_reported":1741480889,"current_range_meters":17200,"station_id":"ce4bgv92rcd13ifvqcr0","pricing_plan_id":"cebpf4jnsgd1na2vs0mg"},{"bike_id":"460fba6e-200a-47c8-b2f5-706bc60f8bec","system_id":"levelo_inurba_marseille","lat":43.31273,"lon":5.40166,"is_reserved":false,"is_disabled":false,"rental_uris":{"android":"levelo://app?vid=460fba6e-200a-47c8-b2f5-706bc60f8bec","ios":"levelo://app?vid=460fba6e-200a-47c8-b2f5-706bc60f8bec"},"vehicle_type_id":"4","last_reported":1741480889,"current_range_meters":17200,"station_id":"ce4bh092rcd13ifvqd30","pricing_plan_id":"cebpf4jnsgd1na2vs0mg"},{"bike_id":"1e73a6d4-cafa-4d0e-a199-044cb07df4a3","system_id":"levelo_inurba_marseille","lat":43.28932,"lon":5.38399,"is_reserved":false,"is_disabled":false,"rental_uris":{"android":"levelo://app?vid=1e73a6d4-cafa-4d0e-a199-044cb07df4a3","ios":"levelo://app?vid=1e73a6d4-cafa-4d0e-a199-044cb07df4a3"},"vehicle_type_id":"4","last_reported":1741480889,"current_range_meters":17200,"station_id":"ce4bh612rcd13ifvqe6g","pricing_plan_id":"cebpf4jnsgd1na2vs0mg"},{"bike_id":"915944e9-10c5-4d53-9ead-9e1be2ace020","system_id":"levelo_inurba_marseille","lat":43.28096,"lon":5.37837,"is_reserved":false,"is_disabled":false,"rental_uris":{"android":"levelo://app?vid=915944e9-10c5-4d53-9ead-9e1be2ace020","ios":"levelo://app?vid=915944e9-10c5-4d53-9ead-9e1be2ace020"},"vehicle_type_id":"4","last_reported":1741480889,"current_range_meters":17200,"station_id":"ce4bha12rcd13ifvqee0","pricing_plan_id":"cebpf4jnsgd1na2vs0mg"},{"bike_id":"f7e9d69a-ac85-4222-a1bf-8df37e9d37dd","system_id":"levelo_inurba_marseille","lat":43.2902,"lon":5.37915,"is_reserved":false,"is_disabled":false,"rental_uris":{"android":"levelo://app?vid=f7e9d69a-ac85-4222-a1bf-8df37e9d37dd","ios":"levelo://app?vid=f7e9d69a-ac85-4222-a1bf-8df37e9d37dd"},"vehicle_type_id":"4","last_reported":1741480889,"current_range_meters":17200,"station_id":"ce4bhah2rcd13ifvqei0","pricing_plan_id":"cebpf4jnsgd1na2vs0mg"},{"bike_id":"8579e54f-565e-4025-a73c-88723bee831d","system_id":"levelo_inurba_marseille","lat":43.23166,"lon":5.39988,"is_reserved":false,"is_disabled":false,"rental_uris":{"android":"levelo://app?vid=8579e54f-565e-4025-a73c-88723bee831d","ios":"levelo://app?vid=8579e54f-565e-4025-a73c-88723bee831d"},"vehicle_type_id":"4","last_reported":1741480889,"current_range_meters":17200,"station_id":"ce4bhn12rcd13ifvqgqg","pricing_plan_id":"cebpf4jnsgd1na2vs0mg"},{"bike_id":"3ea18906-e024-4970-a3d5-a574f6a060cc","system_id":"levelo_inurba_marseille","lat":43.29557,"lon":5.42292,"is_reserved":false,"is_disabled":false,"rental_uris":{"android":"levelo://app?vid=3ea18906-e024-4970-a3d5-a574f6a060cc","ios":"levelo://app?vid=3ea18906-e024-4970-a3d5-a574f6a060cc"},"vehicle_type_id":"4","last_reported":1741480889,"current_range_meters":17200,"station_id":"ce4bhph2rcd13ifvqhdg","pricing_plan_id":"cebpf4jnsgd1na2vs0mg"},{"bike_id":"3ed0c8ba-c7f7-40d8-9403-a3f96d6af6b9","system_id":"levelo_inurba_marseille","lat":43.32366,"lon":5.36773,"is_reserved":false,"is_disabled":false,"rental_uris":{"android":"levelo://app?vid=3ed0c8ba-c7f7-40d8-9403-a3f96d6af6b9","ios":"levelo://app?vid=3ed0c8ba-c7f7-40d8-9403-a3f96d6af6b9"},"vehicle_type_id":"4","last_reported":1741480889,"current_range_meters":17200,"station_id":"ce4bhsh2rcd13ifvqi2g","pricing_plan_id":"cebpf4jnsgd1na2vs0mg"},{"bike_id":"6028b89f-a52b-4c91-babc-85b01bf292e5","system_id":"levelo_inurba_marseille","lat":43.31316,"lon":5.37343,"is_reserved":false,"is_disabled":false,"rental_uris":{"android":"levelo://app?vid=6028b89f-a52b-4c91-babc-85b01bf292e5","ios":"levelo://app?vid=6028b89f-a52b-4c91-babc-85b01bf292e5"},"vehicle_type_id":"4","last_reported":1741480889,"current_range_meters":17600,"station_id":"","pricing_plan_id":"cebpf4jnsgd1na2vs0mg"},{"bike_id":"8e2f0c34-9204-4590-a1f9-b5adc3a69576","system_id":"levelo_inurba_marseille","lat":43.30446,"lon":5.38885,"is_reserved":false,"is_disabled":false,"rental_uris":{"android":"levelo://app?vid=8e2f0c34-9204-4590-a1f9-b5adc3a69576","ios":"levelo://app?vid=8e2f0c34-9204-4590-a1f9-b5adc3a69576"},"vehicle_type_id":"4","last_reported":1741480889,"current_range_meters":17600,"station_id":"ce4bgk12rcd13ifvqbi0","pricing_plan_id":"cebpf4jnsgd1na2vs0mg"},{"bike_id":"1af8f30f-7c6d-4ebe-b78d-698eba1b02d0","system_id":"levelo_inurba_marseille","lat":43.31357,"lon":5.38504,"is_reserved":false,"is_disabled":false,"rental_uris":{"android":"levelo://app?vid=1af8f30f-7c6d-4ebe-b78d-698eba1b02d0","ios":"levelo://app?vid=1af8f30f-7c6d-4ebe-b78d-698eba1b02d0"},"vehicle_type_id":"4","last_reported":1741480889,"current_range_meters":17600,"station_id":"ce4bgt92rcd13ifvqcf0","pricing_plan_id":"cebpf4jnsgd1na2vs0mg"},{"bike_id":"9624e301-963f-4a66-ac66-a5d54d985329","system_id":"levelo_inurba_marseille","lat":43.31359,"lon":5.38494,"is_reserved":false,"is_disabled":false,"rental_uris":{"android":"levelo://app?vid=9624e301-963f-4a66-ac66-a5d54d985329","ios":"levelo://app?vid=9624e301-963f-4a66-ac66-a5d54d985329"},"vehicle_type_id":"4","last_reported":1741480889,"current_range_meters":17600,"station_id":"ce4bgt92rcd13ifvqcf0","pricing_plan_id":"cebpf4jnsgd1na2vs0mg"},{"bike_id":"ebb2d58b-982f-41cd-b65c-668035c69ec1","system_id":"levelo_inurba_marseille","lat":43.30903,"lon":5.37175,"is_reserved":false,"is_disabled":false,"rental_uris":{"android":"levelo://app?vid=ebb2d58b-982f-41cd-b65c-668035c69ec1","ios":"levelo://app?vid=ebb2d58b-982f-41cd-b65c-668035c69ec1"},"vehicle_type_id":"4","last_reported":1741480889,"current_range_meters":17600,"station_id":"ce4bguh2rcd13ifvqckg","pricing_plan_id":"cebpf4jnsgd1na2vs0mg"},{"bike_id":"c59cfede-72d5-4c07-aa0e-b184c85be70a","system_id":"levelo_inurba_marseille","lat":43.25087,"lon":5.39531,"is_reserved":false,"is_disabled":false,"rental_uris":{"android":"levelo://app?vid=c59cfede-72d5-4c07-aa0e-b184c85be70a","ios":"levelo://app?vid=c59cfede-72d5-4c07-aa0e-b184c85be70a"},"vehicle_type_id":"4","last_reported":1741480889,"current_range_meters":17600,"station_id":"ce4bhm12rcd13ifvqgkg","pricing_plan_id":"cebpf4jnsgd1na2vs0mg"},{"bike_id":"4b4a6ffe-a49b-4583-8dda-3e699f98820c","system_id":"levelo_inurba_marseille","lat":43.30539,"lon":5.38431,"is_reserved":false,"is_disabled":false,"rental_uris":{"android":"levelo://app?vid=4b4a6ffe-a49b-4583-8dda-3e699f98820c","ios":"levelo://app?vid=4b4a6ffe-a49b-4583-8dda-3e699f98820c"},"vehicle_type_id":"4","last_reported":1741480889,"current_range_meters":18000,"station_id":"ce4bgg92rcd13ifvqb30","pricing_plan_id":"cebpf4jnsgd1na2vs0mg"},{"bike_id":"4fdb4367-69f1-4a6d-9389-e26be0310107","system_id":"levelo_inurba_marseille","lat":43.30537,"lon":5.36699,"is_reserved":false,"is_disabled":false,"rental_uris":{"android":"levelo://app?vid=4fdb4367-69f1-4a6d-9389-e26be0310107","ios":"levelo://app?vid=4fdb4367-69f1-4a6d-9389-e26be0310107"},"vehicle_type_id":"4","last_reported":1741480889,"current_range_meters":18000,"station_id":"ce4bgrp2rcd13ifvqc9g","pricing_plan_id":"cebpf4jnsgd1na2vs0mg"},{"bike_id":"555400b7-81ac-40d7-a73f-3af12566d2f6","system_id":"levelo_inurba_marseille","lat":43.30437,"lon":5.39741,"is_reserved":false,"is_disabled":false,"rental_uris":{"android":"levelo://app?vid=555400b7-81ac-40d7-a73f-3af12566d2f6","ios":"levelo://app?vid=555400b7-81ac-40d7-a73f-3af12566d2f6"},"vehicle_type_id":"4","last_reported":1741480889,"current_range_meters":18000,"station_id":"ce4bh092rcd13ifvqd20","pricing_plan_id":"cebpf4jnsgd1na2vs0mg"},{"bike_id":"cb099e8b-f0e4-47f3-b89b-55df2495a9b0","system_id":"levelo_inurba_marseille","lat":43.29013,"lon":5.35606,"is_reserved":false,"is_disabled":false,"rental_uris":{"android":"levelo://app?vid=cb099e8b-f0e4-47f3-b89b-55df2495a9b0","ios":"levelo://app?vid=cb099e8b-f0e4-47f3-b89b-55df2495a9b0"},"vehicle_type_id":"4","last_reported":1741480889,"current_range_meters":18000,"station_id":"ce4bhb92rcd13ifvqen0","pricing_plan_id":"cebpf4jnsgd1na2vs0mg"},{"bike_id":"35b6c8dd-c1b8-4970-bb1c-0f0396b333a1","system_id":"levelo_inurba_marseille","lat":43.25754,"lon":5.41082,"is_reserved":false,"is_disabled":false,"rental_uris":{"android":"levelo://app?vid=35b6c8dd-c1b8-4970-bb1c-0f0396b333a1","ios":"levelo://app?vid=35b6c8dd-c1b8-4970-bb1c-0f0396b333a1"},"vehicle_type_id":"4","last_reported":1741480889,"current_range_meters":18000,"station_id":"ce4bhkp2rcd13ifvqgd0","pricing_plan_id":"cebpf4jnsgd1na2vs0mg"},{"bike_id":"ff101450-e33d-471f-82d2-bff5a93a57d1","system_id":"levelo_inurba_marseille","lat":43.2511,"lon":5.40325,"is_reserved":false,"is_disabled":false,"rental_uris":{"android":"levelo://app?vid=ff101450-e33d-471f-82d2-bff5a93a57d1","ios":"levelo://app?vid=ff101450-e33d-471f-82d2-bff5a93a57d1"},"vehicle_type_id":"4","last_reported":1741480889,"current_range_meters":18000,"station_id":"ce4bhlh2rcd13ifvqgig","pricing_plan_id":"cebpf4jnsgd1na2vs0mg"},{"bike_id":"a8bb64b8-2046-4306-aef5-456a1d6ae0f5","system_id":"levelo_inurba_marseille","lat":43.30815,"lon":5.43537,"is_reserved":false,"is_disabled":false,"rental_uris":{"android":"levelo://app?vid=a8bb64b8-2046-4306-aef5-456a1d6ae0f5","ios":"levelo://app?vid=a8bb64b8-2046-4306-aef5-456a1d6ae0f5"},"vehicle_type_id":"4","last_reported":1741480889,"current_range_meters":18000,"station_id":"ce4bhph2rcd13ifvqheg","pricing_plan_id":"cebpf4jnsgd1na2vs0mg"},{"bike_id":"158e535f-825e-4468-93be-62b6e673c923","system_id":"levelo_inurba_marseille","lat":43.26184,"lon":5.42074,"is_reserved":false,"is_disabled":false,"rental_uris":{"android":"levelo://app?vid=158e535f-825e-4468-93be-62b6e673c923","ios":"levelo://app?vid=158e535f-825e-4468-93be-62b6e673c923"},"vehicle_type_id":"4","last_reported":1741480889,"current_range_meters":18800,"station_id":"","pricing_plan_id":"cebpf4jnsgd1na2vs0mg"},{"bike_id":"f5e5357b-b502-47fb-8353-4c0a68cdcdcf","system_id":"levelo_inurba_marseille","lat":43.31345,"lon":5.38508,"is_reserved":false,"is_disabled":false,"rental_uris":{"android":"levelo://app?vid=f5e5357b-b502-47fb-8353-4c0a68cdcdcf","ios":"levelo://app?vid=f5e5357b-b502-47fb-8353-4c0a68cdcdcf"},"vehicle_type_id":"4","last_reported":1741480889,"current_range_meters":18800,"station_id":"ce4bgt92rcd13ifvqcf0","pricing_plan_id":"cebpf4jnsgd1na2vs0mg"},{"bike_id":"034f586e-2d21-42ac-8d2c-107a31260273","system_id":"levelo_inurba_marseille","lat":43.30945,"lon":5.39026,"is_reserved":false,"is_disabled":false,"rental_uris":{"android":"levelo://app?vid=034f586e-2d21-42ac-8d2c-107a31260273","ios":"levelo://app?vid=034f586e-2d21-42ac-8d2c-107a31260273"},"vehicle_type_id":"4","last_reported":1741480889,"current_range_meters":18800,"station_id":"ce4bgup2rcd13ifvqco0","pricing_plan_id":"cebpf4jnsgd1na2vs0mg"},{"bike_id":"deb1a752-b748-4252-aba0-74f6bf022fd1","system_id":"levelo_inurba_marseille","lat":43.28623,"lon":5.35098,"is_reserved":false,"is_disabled":false,"rental_uris":{"android":"levelo://app?vid=deb1a752-b748-4252-aba0-74f6bf022fd1","ios":"levelo://app?vid=deb1a752-b748-4252-aba0-74f6bf022fd1"},"vehicle_type_id":"4","last_reported":1741480889,"current_range_meters":18800,"station_id":"ce4bhch2rcd13ifvqeug","pricing_plan_id":"cebpf4jnsgd1na2vs0mg"},{"bike_id":"a5c5ade0-6f33-45a7-beaf-3545d30425b1","system_id":"levelo_inurba_marseille","lat":43.24059,"lon":5.37698,"is_reserved":false,"is_disabled":false,"rental_uris":{"android":"levelo://app?vid=a5c5ade0-6f33-45a7-beaf-3545d30425b1","ios":"levelo://app?vid=a5c5ade0-6f33-45a7-beaf-3545d30425b1"},"vehicle_type_id":"4","last_reported":1741480889,"current_range_meters":19200,"station_id":"","pricing_plan_id":"cebpf4jnsgd1na2vs0mg"},{"bike_id":"375b0e4e-46b2-4f14-9005-cd1590755e2d","system_id":"levelo_inurba_marseille","lat":43.29252,"lon":5.409,"is_reserved":false,"is_disabled":false,"rental_uris":{"android":"levelo://app?vid=375b0e4e-46b2-4f14-9005-cd1590755e2d","ios":"levelo://app?vid=375b0e4e-46b2-4f14-9005-cd1590755e2d"},"vehicle_type_id":"4","last_reported":1741480889,"current_range_meters":19200,"station_id":"ce4bh192rcd13ifvqdc0","pricing_plan_id":"cebpf4jnsgd1na2vs0mg"},{"bike_id":"b2db6827-a92c-422a-8218-be62b1e92cd3","system_id":"levelo_inurba_marseille","lat":43.29183,"lon":5.35702,"is_reserved":false,"is_disabled":false,"rental_uris":{"android":"levelo://app?vid=b2db6827-a92c-422a-8218-be62b1e92cd3","ios":"levelo://app?vid=b2db6827-a92c-422a-8218-be62b1e92cd3"},"vehicle_type_id":"4","last_reported":1741480889,"current_range_meters":19200,"station_id":"ce4bhb92rcd13ifvqen0","pricing_plan_id":"cebpf4jnsgd1na2vs0mg"},{"bike_id":"e1464fd1-88dd-4217-9b48-8798f8d7a4bc","system_id":"levelo_inurba_marseille","lat":43.244,"lon":5.37063,"is_reserved":false,"is_disabled":false,"rental_uris":{"android":"levelo://app?vid=e1464fd1-88dd-4217-9b48-8798f8d7a4bc","ios":"levelo://app?vid=e1464fd1-88dd-4217-9b48-8798f8d7a4bc"},"vehicle_type_id":"4","last_reported":1741480889,"current_range_meters":19200,"station_id":"ce4bhhh2rcd13ifvqfk0","pricing_plan_id":"cebpf4jnsgd1na2vs0mg"},{"bike_id":"6c7acd0e-d950-476c-9eb3-046468b88ffd","system_id":"levelo_inurba_marseille","lat":43.246636,"lon":5.381661,"is_reserved":false,"is_disabled":false,"rental_uris":{"android":"levelo://app?vid=6c7acd0e-d950-476c-9eb3-046468b88ffd","ios":"levelo://app?vid=6c7acd0e-d950-476c-9eb3-046468b88ffd"},"vehicle_type_id":"4","last_reported":1741480889,"current_range_meters":19200,"station_id":"ce4bhih2rcd13ifvqfr0","pricing_plan_id":"cebpf4jnsgd1na2vs0mg"},{"bike_id":"aacce901-d8dc-4ae4-9842-db7141d6d2a7","system_id":"levelo_inurba_marseille","lat":43.27061,"lon":5.42271,"is_reserved":false,"is_disabled":false,"rental_uris":{"android":"levelo://app?vid=aacce901-d8dc-4ae4-9842-db7141d6d2a7","ios":"levelo://app?vid=aacce901-d8dc-4ae4-9842-db7141d6d2a7"},"vehicle_type_id":"4","last_reported":1741480889,"current_range_meters":19200,"station_id":"ce4bhk92rcd13ifvqgb0","pricing_plan_id":"cebpf4jnsgd1na2vs0mg"},{"bike_id":"979b0e12-19bd-4394-8b98-332e21f24fbc","system_id":"levelo_inurba_marseille","lat":43.2512,"lon":5.40311,"is_reserved":false,"is_disabled":false,"rental_uris":{"android":"levelo://app?vid=979b0e12-19bd-4394-8b98-332e21f24fbc","ios":"levelo://app?vid=979b0e12-19bd-4394-8b98-332e21f24fbc"},"vehicle_type_id":"4","last_reported":1741480889,"current_range_meters":19200,"station_id":"ce4bhlh2rcd13ifvqgig","pricing_plan_id":"cebpf4jnsgd1na2vs0mg"},{"bike_id":"c1c80c13-20cb-44f5-aa30-5c8aedb294e8","system_id":"levelo_inurba_marseille","lat":43.321023,"lon":5.367656,"is_reserved":false,"is_disabled":false,"rental_uris":{"android":"levelo://app?vid=c1c80c13-20cb-44f5-aa30-5c8aedb294e8","ios":"levelo://app?vid=c1c80c13-20cb-44f5-aa30-5c8aedb294e8"},"vehicle_type_id":"4","last_reported":1741480889,"current_range_meters":19200,"station_id":"ce4bhrh2rcd13ifvqhug","pricing_plan_id":"cebpf4jnsgd1na2vs0mg"},{"bike_id":"b651660b-2682-410c-8445-7275258b0005","system_id":"levelo_inurba_marseille","lat":43.30305,"lon":5.369,"is_reserved":false,"is_disabled":false,"rental_uris":{"android":"levelo://app?vid=b651660b-2682-410c-8445-7275258b0005","ios":"levelo://app?vid=b651660b-2682-410c-8445-7275258b0005"},"vehicle_type_id":"4","last_reported":1741480889,"current_range_meters":19600,"station_id":"ce4bgqh2rcd13ifvqc5g","pricing_plan_id":"cebpf4jnsgd1na2vs0mg"},{"bike_id":"31be18c0-85c8-4629-bb13-aac4925d8604","system_id":"levelo_inurba_marseille","lat":43.28094,"lon":5.37845,"is_reserved":false,"is_disabled":false,"rental_uris":{"android":"levelo://app?vid=31be18c0-85c8-4629-bb13-aac4925d8604","ios":"levelo://app?vid=31be18c0-85c8-4629-bb13-aac4925d8604"},"vehicle_type_id":"4","last_reported":1741480889,"current_range_meters":19600,"station_id":"ce4bha12rcd13ifvqee0","pricing_plan_id":"cebpf4jnsgd1na2vs0mg"},{"bike_id":"8db12307-83c5-4ab1-8e4e-b5f471f883f6","system_id":"levelo_inurba_marseille","lat":43.25078,"lon":5.39503,"is_reserved":false,"is_disabled":false,"rental_uris":{"android":"levelo://app?vid=8db12307-83c5-4ab1-8e4e-b5f471f883f6","ios":"levelo://app?vid=8db12307-83c5-4ab1-8e4e-b5f471f883f6"},"vehicle_type_id":"4","last_reported":1741480889,"current_range_meters":19600,"station_id":"ce4bhm12rcd13ifvqgkg","pricing_plan_id":"cebpf4jnsgd1na2vs0mg"},{"bike_id":"cf004579-4f8d-4cd8-a62d-d464daaee95b","system_id":"levelo_inurba_marseille","lat":43.3135,"lon":5.38503,"is_reserved":false,"is_disabled":false,"rental_uris":{"android":"levelo://app?vid=cf004579-4f8d-4cd8-a62d-d464daaee95b","ios":"levelo://app?vid=cf004579-4f8d-4cd8-a62d-d464daaee95b"},"vehicle_type_id":"4","last_reported":1741480889,"current_range_meters":20000,"station_id":"ce4bgt92rcd13ifvqcf0","pricing_plan_id":"cebpf4jnsgd1na2vs0mg"},{"bike_id":"ba710653-d8f6-41f3-b0bb-22d5ba691a2d","system_id":"levelo_inurba_marseille","lat":43.31364,"lon":5.38495,"is_reserved":false,"is_disabled":false,"rental_uris":{"android":"levelo://app?vid=ba710653-d8f6-41f3-b0bb-22d5ba691a2d","ios":"levelo://app?vid=ba710653-d8f6-41f3-b0bb-22d5ba691a2d"},"vehicle_type_id":"4","last_reported":1741480889,"current_range_meters":20000,"station_id":"ce4bgt92rcd13ifvqcf0","pricing_plan_id":"cebpf4jnsgd1na2vs0mg"},{"bike_id":"9ba7aa05-ea75-4612-87dd-bd354c971bc2","system_id":"levelo_inurba_marseille","lat":43.30253,"lon":5.40078,"is_reserved":false,"is_disabled":false,"rental_uris":{"android":"levelo://app?vid=9ba7aa05-ea75-4612-87dd-bd354c971bc2","ios":"levelo://app?vid=9ba7aa05-ea75-4612-87dd-bd354c971bc2"},