{"last_updated":1744118457,"ttl":60,"version":"2.2","data":{"bikes":[{"bike_id":"56c7453a-4b90-4606-af9f-a42180c4ae62","system_id":"levelo_inurba_marseille","lat":43.257213,"lon":5.411142,"is_reserved":false,"is_disabled":false,"rental_uris":{"android":"levelo://app?vid=56c7453a-4b90-4606-af9f-a42180c4ae62","ios":"levelo://app?vid=56c7453a-4b90-4606-af9f-a42180c4ae62"},"vehicle_type_id":"4","last_reported":1744118457,"current_range_meters":2800,"station_id":"ce4bhkp2rcd13ifvqgd0","pricing_plan_id":"cebpf4jnsgd1na2vs0mg"},{"bike_id":"c2bc4f67-9f47-4f71-87da-d4cbbdb5604a","system_id":"levelo_inurba_marseille","lat":43.3053,"lon":5.3649,"is_reserved":false,"is_disabled":false,"rental_uris":{"android":"levelo://app?vid=c2bc4f67-9f47-4f71-87da-d4cbbdb5604a","ios":"levelo://app?vid=c2bc4f67-9f47-4f71-87da-d4cbbdb5604a"},"vehicle_type_id":"4","last_reported":1744118457,"current_range_meters":2800,"station_id":"ce4bgs12rcd13ifvqcag","pricing_plan_id":"cebpf4jnsgd1na2vs0mg"},{"bike_id":"4006e533-8af3-4b63-8a78-bf7c3c700c21","system_id":"levelo_inurba_marseille","lat":43.292,"lon":5.35814,"is_reserved":false,"is_disabled":false,"rental_uris":{"android":"levelo://app?vid=4006e533-8af3-4b63-8a78-bf7c3c700c21","ios":"levelo://app?vid=4006e533-8af3-4b63-8a78-bf7c3c700c21"},"vehicle_type_id":"4","last_reported":1744118457,"current_range_meters":2800,"station_id":"ce4bhb12rcd13ifvqel0","pricing_plan_id":"cebpf4jnsgd1na2vs0mg"},{"bike_id":"e89b5c3a-b4c2-454e-8d42-f553a67bb2fd","system_id":"levelo_inurba_marseille","lat":43.27956,"lon":5.4103,"is_reserved":false,"is_disabled":false,"rental_uris":{"android":"levelo://app?vid=e89b5c3a-b4c2-454e-8d42-f553a67bb2fd","ios":"levelo://app?vid=e89b5c3a-b4c2-454e-8d42-f553a67bb2fd"},"vehicle_type_id":"4","last_reported":1744118457,"current_range_meters":2800,"station_id":"ce4bhnp2rcd13ifvqh0g","pricing_plan_id":"cebpf4jnsgd1na2vs0mg"},{"bike_id":"8aa9ab5b-8732-4b2b-9310-c4ed15561758","system_id":"levelo_inurba_marseille","lat":43.26958,"lon":5.38638,"is_reserved":false,"is_disabled":false,"rental_uris":{"android":"levelo://app?vid=8aa9ab5b-8732-4b2b-9310-c4ed15561758","ios":"levelo://app?vid=8aa9ab5b-8732-4b2b-9310-c4ed15561758"},"vehicle_type_id":"4","last_reported":1744118457,"current_range_meters":2800,"station_id":"ce4bhh92rcd13ifvqfh0","pricing_plan_id":"cebpf4jnsgd1na2vs0mg"},{"bike_id":"19224d95-e048-4cbb-8884-43e0e6b3db9b","system_id":"levelo_inurba_marseille","lat":43.29892,"lon":5.39754,"is_reserved":false,"is_disabled":true,"rental_uris":{"android":"levelo://app?vid=19224d95-e048-4cbb-8884-43e0e6b3db9b","ios":"levelo://app?vid=19224d95-e048-4cbb-8884-43e0e6b3db9b"},"vehicle_type_id":"4","last_reported":1744118457,"current_range_meters":3200,"station_id":"ce4bh0h2rcd13ifvqd50","pricing_plan_id":"cebpf4jnsgd1na2vs0mg"},{"bike_id":"294589a8-b6ef-40ee-9b05-140db50ed2c2","system_id":"levelo_inurba_marseille","lat":43.29932,"lon":5.36543,"is_reserved":false,"is_disabled":false,"rental_uris":{"android":"levelo://app?vid=294589a8-b6ef-40ee-9b05-140db50ed2c2","ios":"levelo://app?vid=294589a8-b6ef-40ee-9b05-140db50ed2c2"},"vehicle_type_id":"4","last_reported":1744118457,"current_range_meters":3600,"station_id":"ce4bgm92rcd13ifvqbr0","pricing_plan_id":"cebpf4jnsgd1na2vs0mg"},{"bike_id":"a959694d-18ce-4d80-917f-23c91ed81065","system_id":"levelo_inurba_marseille","lat":43.29904,"lon":5.43669,"is_reserved":false,"is_disabled":true,"rental_uris":{"android":"levelo://app?vid=a959694d-18ce-4d80-917f-23c91ed81065","ios":"levelo://app?vid=a959694d-18ce-4d80-917f-23c91ed81065"},"vehicle_type_id":"4","last_reported":1744118457,"current_range_meters":3600,"station_id":"ce4bhpp2rcd13ifvqhfg","pricing_plan_id":"cebpf4jnsgd1na2vs0mg"},{"bike_id":"df6d8b6f-3711-4c00-a369-0a99531533fc","system_id":"levelo_inurba_marseille","lat":43.3229,"lon":5.38275,"is_reserved":false,"is_disabled":false,"rental_uris":{"android":"levelo://app?vid=df6d8b6f-3711-4c00-a369-0a99531533fc","ios":"levelo://app?vid=df6d8b6f-3711-4c00-a369-0a99531533fc"},"vehicle_type_id":"4","last_reported":1744118457,"current_range_meters":3600,"station_id":"ce4bhr12rcd13ifvqhqg","pricing_plan_id":"cebpf4jnsgd1na2vs0mg"},{"bike_id":"83967f2c-1d96-494a-907f-0a4ceb9dcf48","system_id":"levelo_inurba_marseille","lat":43.29078,"lon":5.37165,"is_reserved":false,"is_disabled":false,"rental_uris":{"android":"levelo://app?vid=83967f2c-1d96-494a-907f-0a4ceb9dcf48","ios":"levelo://app?vid=83967f2c-1d96-494a-907f-0a4ceb9dcf48"},"vehicle_type_id":"4","last_reported":1744118457,"current_range_meters":3600,"station_id":"ce4bh5p2rcd13ifvqe4g","pricing_plan_id":"cebpf4jnsgd1na2vs0mg"},{"bike_id":"bf3ff4c6-4648-4a71-bc43-63f8baa546ff","system_id":"levelo_inurba_marseille","lat":43.29197,"lon":5.35798,"is_reserved":false,"is_disabled":false,"rental_uris":{"android":"levelo://app?vid=bf3ff4c6-4648-4a71-bc43-63f8baa546ff","ios":"levelo://app?vid=bf3ff4c6-4648-4a71-bc43-63f8baa546ff"},"vehicle_type_id":"4","last_reported":1744118457,"current_range_meters":4000,"station_id":"ce4bhb12rcd13ifvqel0","pricing_plan_id":"cebpf4jnsgd1na2vs0mg"},{"bike_id":"25f19322-3940-48f6-9994-30b1cf35b098","system_id":"levelo_inurba_marseille","lat":43.28609,"lon":5.35113,"is_reserved":false,"is_disabled":false,"rental_uris":{"android":"levelo://app?vid=25f19322-3940-48f6-9994-30b1cf35b098","ios":"levelo://app?vid=25f19322-3940-48f6-9994-30b1cf35b098"},"vehicle_type_id":"4","last_reported":1744118457,"current_range_meters":4000,"station_id":"ce4bhch2rcd13ifvqeug","pricing_plan_id":"cebpf4jnsgd1na2vs0mg"},{"bike_id":"45ebc1e7-63ae-412d-9826-c9d41f7a11b9","system_id":"levelo_inurba_marseille","lat":43.25117,"lon":5.40325,"is_reserved":false,"is_disabled":false,"rental_uris":{"android":"levelo://app?vid=45ebc1e7-63ae-412d-9826-c9d41f7a11b9","ios":"levelo://app?vid=45ebc1e7-63ae-412d-9826-c9d41f7a11b9"},"vehicle_type_id":"4","last_reported":1744118457,"current_range_meters":4000,"station_id":"ce4bhlh2rcd13ifvqgig","pricing_plan_id":"cebpf4jnsgd1na2vs0mg"},{"bike_id":"252e6c12-3e63-49da-b6ab-9d85406b6d2d","system_id":"levelo_inurba_marseille","lat":43.284198,"lon":5.349741,"is_reserved":false,"is_disabled":false,"rental_uris":{"android":"levelo://app?vid=252e6c12-3e63-49da-b6ab-9d85406b6d2d","ios":"levelo://app?vid=252e6c12-3e63-49da-b6ab-9d85406b6d2d"},"vehicle_type_id":"4","last_reported":1744118457,"current_range_meters":4400,"station_id":"ce4bhbh2rcd13ifvqepg","pricing_plan_id":"cebpf4jnsgd1na2vs0mg"},{"bike_id":"e4937fbf-feae-4491-8738-42d2a4fa8526","system_id":"levelo_inurba_marseille","lat":43.26214,"lon":5.37441,"is_reserved":false,"is_disabled":false,"rental_uris":{"android":"levelo://app?vid=e4937fbf-feae-4491-8738-42d2a4fa8526","ios":"levelo://app?vid=e4937fbf-feae-4491-8738-42d2a4fa8526"},"vehicle_type_id":"4","last_reported":1744118457,"current_range_meters":4400,"station_id":"ce4bhgp2rcd13ifvqfc0","pricing_plan_id":"cebpf4jnsgd1na2vs0mg"},{"bike_id":"d7a72460-9a7f-4ef4-bb87-7f5a8a046614","system_id":"levelo_inurba_marseille","lat":43.290931,"lon":5.3813,"is_reserved":false,"is_disabled":false,"rental_uris":{"android":"levelo://app?vid=d7a72460-9a7f-4ef4-bb87-7f5a8a046614","ios":"levelo://app?vid=d7a72460-9a7f-4ef4-bb87-7f5a8a046614"},"vehicle_type_id":"4","last_reported":1744118457,"current_range_meters":4400,"station_id":"ce4bh512rcd13ifvqe2g","pricing_plan_id":"cebpf4jnsgd1na2vs0mg"},{"bike_id":"8a38320c-a733-4cf5-8c8e-152497fe8f8f","system_id":"levelo_inurba_marseille","lat":43.28153,"lon":5.42634,"is_reserved":false,"is_disabled":false,"rental_uris":{"android":"levelo://app?vid=8a38320c-a733-4cf5-8c8e-152497fe8f8f","ios":"levelo://app?vid=8a38320c-a733-4cf5-8c8e-152497fe8f8f"},"vehicle_type_id":"4","last_reported":1744118457,"current_range_meters":4800,"station_id":"ce4bhnh2rcd13ifvqgug","pricing_plan_id":"cebpf4jnsgd1na2vs0mg"},{"bike_id":"f3b83e8a-c65f-4f5d-8899-2b84c089f530","system_id":"levelo_inurba_marseille","lat":43.32114,"lon":5.36776,"is_reserved":false,"is_disabled":false,"rental_uris":{"android":"levelo://app?vid=f3b83e8a-c65f-4f5d-8899-2b84c089f530","ios":"levelo://app?vid=f3b83e8a-c65f-4f5d-8899-2b84c089f530"},"vehicle_type_id":"4","last_reported":1744118457,"current_range_meters":4800,"station_id":"ce4bhrh2rcd13ifvqhug","pricing_plan_id":"cebpf4jnsgd1na2vs0mg"},{"bike_id":"61893dcc-15fb-4f7c-af77-17af6c89efb2","system_id":"levelo_inurba_marseille","lat":43.31486,"lon":5.37292,"is_reserved":false,"is_disabled":false,"rental_uris":{"android":"levelo://app?vid=61893dcc-15fb-4f7c-af77-17af6c89efb2","ios":"levelo://app?vid=61893dcc-15fb-4f7c-af77-17af6c89efb2"},"vehicle_type_id":"4","last_reported":1744118457,"current_range_meters":4800,"station_id":"ce4bgt12rcd13ifvqcd0","pricing_plan_id":"cebpf4jnsgd1na2vs0mg"},{"bike_id":"d1f1d6ca-4a3d-43a0-87c5-efc74806423f","system_id":"levelo_inurba_marseille","lat":43.303115,"lon":5.368679,"is_reserved":false,"is_disabled":false,"rental_uris":{"android":"levelo://app?vid=d1f1d6ca-4a3d-43a0-87c5-efc74806423f","ios":"levelo://app?vid=d1f1d6ca-4a3d-43a0-87c5-efc74806423f"},"vehicle_type_id":"4","last_reported":1744118457,"current_range_meters":5600,"station_id":"ce4bgqh2rcd13ifvqc5g","pricing_plan_id":"cebpf4jnsgd1na2vs0mg"},{"bike_id":"cfa3bbaa-948a-4165-a405-2c27ba938e08","system_id":"levelo_inurba_marseille","lat":43.24639,"lon":5.38907,"is_reserved":false,"is_disabled":false,"rental_uris":{"android":"levelo://app?vid=cfa3bbaa-948a-4165-a405-2c27ba938e08","ios":"levelo://app?vid=cfa3bbaa-948a-4165-a405-2c27ba938e08"},"vehicle_type_id":"4","last_reported":1744118457,"current_range_meters":5600,"station_id":"ce4bhg12rcd13ifvqf60","pricing_plan_id":"cebpf4jnsgd1na2vs0mg"},{"bike_id":"73276e73-379c-4215-bfe8-0a4cdf26f8fb","system_id":"levelo_inurba_marseille","lat":43.27374,"lon":5.36245,"is_reserved":false,"is_disabled":false,"rental_uris":{"android":"levelo://app?vid=73276e73-379c-4215-bfe8-0a4cdf26f8fb","ios":"levelo://app?vid=73276e73-379c-4215-bfe8-0a4cdf26f8fb"},"vehicle_type_id":"4","last_reported":1744118457,"current_range_meters":5600,"station_id":"ce4bhbh2rcd13ifvqeo0","pricing_plan_id":"cebpf4jnsgd1na2vs0mg"},{"bike_id":"8a448da3-f2bf-452e-9d9b-2744c32371e4","system_id":"levelo_inurba_marseille","lat":43.293149,"lon":5.378538,"is_reserved":false,"is_disabled":false,"rental_uris":{"android":"levelo://app?vid=8a448da3-f2bf-452e-9d9b-2744c32371e4","ios":"levelo://app?vid=8a448da3-f2bf-452e-9d9b-2744c32371e4"},"vehicle_type_id":"4","last_reported":1744118457,"current_range_meters":5600,"station_id":"ce4bh012rcd13ifvqcv0","pricing_plan_id":"cebpf4jnsgd1na2vs0mg"},{"bike_id":"3e3172b1-ade3-45cb-9056-a68fd5861276","system_id":"levelo_inurba_marseille","lat":43.28618,"lon":5.3511,"is_reserved":false,"is_disabled":false,"rental_uris":{"android":"levelo://app?vid=3e3172b1-ade3-45cb-9056-a68fd5861276","ios":"levelo://app?vid=3e3172b1-ade3-45cb-9056-a68fd5861276"},"vehicle_type_id":"4","last_reported":1744118457,"current_range_meters":6000,"station_id":"ce4bhch2rcd13ifvqeug","pricing_plan_id":"cebpf4jnsgd1na2vs0mg"},{"bike_id":"7bedfaa4-50b3-4638-b2ad-d17d9860a23d","system_id":"levelo_inurba_marseille","lat":43.26515,"lon":5.39535,"is_reserved":false,"is_disabled":false,"rental_uris":{"android":"levelo://app?vid=7bedfaa4-50b3-4638-b2ad-d17d9860a23d","ios":"levelo://app?vid=7bedfaa4-50b3-4638-b2ad-d17d9860a23d"},"vehicle_type_id":"4","last_reported":1744118457,"current_range_meters":6000,"station_id":"ce4bhi12rcd13ifvqfq0","pricing_plan_id":"cebpf4jnsgd1na2vs0mg"},{"bike_id":"abf828e0-bebc-4654-bc93-1d92f449deee","system_id":"levelo_inurba_marseille","lat":43.32357,"lon":5.36759,"is_reserved":false,"is_disabled":false,"rental_uris":{"android":"levelo://app?vid=abf828e0-bebc-4654-bc93-1d92f449deee","ios":"levelo://app?vid=abf828e0-bebc-4654-bc93-1d92f449deee"},"vehicle_type_id":"4","last_reported":1744118457,"current_range_meters":6000,"station_id":"ce4bhsh2rcd13ifvqi2g","pricing_plan_id":"cebpf4jnsgd1na2vs0mg"},{"bike_id":"323f192d-ea8f-4896-973d-0fbfc89b345d","system_id":"levelo_inurba_marseille","lat":43.336148,"lon":5.410422,"is_reserved":false,"is_disabled":false,"rental_uris":{"android":"levelo://app?vid=323f192d-ea8f-4896-973d-0fbfc89b345d","ios":"levelo://app?vid=323f192d-ea8f-4896-973d-0fbfc89b345d"},"vehicle_type_id":"4","last_reported":1744118457,"current_range_meters":6000,"station_id":"ce4bhq92rcd13ifvqhkg","pricing_plan_id":"cebpf4jnsgd1na2vs0mg"},{"bike_id":"5f9e12f0-ba4c-4743-999a-9666a4915415","system_id":"levelo_inurba_marseille","lat":43.28106,"lon":5.37836,"is_reserved":false,"is_disabled":false,"rental_uris":{"android":"levelo://app?vid=5f9e12f0-ba4c-4743-999a-9666a4915415","ios":"levelo://app?vid=5f9e12f0-ba4c-4743-999a-9666a4915415"},"vehicle_type_id":"4","last_reported":1744118457,"current_range_meters":6400,"station_id":"ce4bha12rcd13ifvqee0","pricing_plan_id":"cebpf4jnsgd1na2vs0mg"},{"bike_id":"1d77c305-e838-4b27-b38c-d211adb0991a","system_id":"levelo_inurba_marseille","lat":43.25125,"lon":5.4031,"is_reserved":false,"is_disabled":false,"rental_uris":{"android":"levelo://app?vid=1d77c305-e838-4b27-b38c-d211adb0991a","ios":"levelo://app?vid=1d77c305-e838-4b27-b38c-d211adb0991a"},"vehicle_type_id":"4","last_reported":1744118457,"current_range_meters":6000,"station_id":"ce4bhlh2rcd13ifvqgig","pricing_plan_id":"cebpf4jnsgd1na2vs0mg"},{"bike_id":"7ae1c95c-1e2c-400a-8efd-618212ebe707","system_id":"levelo_inurba_marseille","lat":43.31718,"lon":5.3776,"is_reserved":false,"is_disabled":false,"rental_uris":{"android":"levelo://app?vid=7ae1c95c-1e2c-400a-8efd-618212ebe707","ios":"levelo://app?vid=7ae1c95c-1e2c-400a-8efd-618212ebe707"},"vehicle_type_id":"4","last_reported":1744118457,"current_range_meters":6400,"station_id":"ce4bgth2rcd13ifvqch0","pricing_plan_id":"cebpf4jnsgd1na2vs0mg"},{"bike_id":"cc057f14-b1e1-4dee-b107-8741c01c5964","system_id":"levelo_inurba_marseille","lat":43.32113,"lon":5.36786,"is_reserved":false,"is_disabled":true,"rental_uris":{"android":"levelo://app?vid=cc057f14-b1e1-4dee-b107-8741c01c5964","ios":"levelo://app?vid=cc057f14-b1e1-4dee-b107-8741c01c5964"},"vehicle_type_id":"4","last_reported":1744118457,"current_range_meters":6400,"station_id":"ce4bhrh2rcd13ifvqhug","pricing_plan_id":"cebpf4jnsgd1na2vs0mg"},{"bike_id":"1bd13a7d-0679-4e49-80f4-6344c093eaf2","system_id":"levelo_inurba_marseille","lat":43.25579,"lon":5.38234,"is_reserved":false,"is_disabled":false,"rental_uris":{"android":"levelo://app?vid=1bd13a7d-0679-4e49-80f4-6344c093eaf2","ios":"levelo://app?vid=1bd13a7d-0679-4e49-80f4-6344c093eaf2"},"vehicle_type_id":"4","last_reported":1744118457,"current_range_meters":6800,"station_id":"ce4bhih2rcd13ifvqfs0","pricing_plan_id":"cebpf4jnsgd1na2vs0mg"},{"bike_id":"159779cf-52bd-4b36-a130-092d2c35fb4d","system_id":"levelo_inurba_marseille","lat":43.27377,"lon":5.36248,"is_reserved":false,"is_disabled":false,"rental_uris":{"android":"levelo://app?vid=159779cf-52bd-4b36-a130-092d2c35fb4d","ios":"levelo://app?vid=159779cf-52bd-4b36-a130-092d2c35fb4d"},"vehicle_type_id":"4","last_reported":1744118457,"current_range_meters":6800,"station_id":"ce4bhbh2rcd13ifvqeo0","pricing_plan_id":"cebpf4jnsgd1na2vs0mg"},{"bike_id":"87bda883-ac94-49fc-94c2-3a86e52b4f97","system_id":"levelo_inurba_marseille","lat":43.30728,"lon":5.38338,"is_reserved":false,"is_disabled":false,"rental_uris":{"android":"levelo://app?vid=87bda883-ac94-49fc-94c2-3a86e52b4f97","ios":"levelo://app?vid=87bda883-ac94-49fc-94c2-3a86e52b4f97"},"vehicle_type_id":"4","last_reported":1744118457,"current_range_meters":6800,"station_id":"","pricing_plan_id":"cebpf4jnsgd1na2vs0mg"},{"bike_id":"cd577a70-1285-4212-be14-c738c01c14c9","system_id":"levelo_inurba_marseille","lat":43.33734,"lon":5.39184,"is_reserved":false,"is_disabled":false,"rental_uris":{"android":"levelo://app?vid=cd577a70-1285-4212-be14-c738c01c14c9","ios":"levelo://app?vid=cd577a70-1285-4212-be14-c738c01c14c9"},"vehicle_type_id":"4","last_reported":1744118457,"current_range_meters":6800,"station_id":"ce4bhr92rcd13ifvqhsg","pricing_plan_id":"cebpf4jnsgd1na2vs0mg"},{"bike_id":"a83576b9-dcf6-4690-9ef4-b96f488a4df0","system_id":"levelo_inurba_marseille","lat":43.282645,"lon":5.350648,"is_reserved":false,"is_disabled":false,"rental_uris":{"android":"levelo://app?vid=a83576b9-dcf6-4690-9ef4-b96f488a4df0","ios":"levelo://app?vid=a83576b9-dcf6-4690-9ef4-b96f488a4df0"},"vehicle_type_id":"4","last_reported":1744118457,"current_range_meters":6800,"station_id":"ce4bh4p2rcd13ifvqe0g","pricing_plan_id":"cebpf4jnsgd1na2vs0mg"},{"bike_id":"9f58fe17-7445-4171-ab8a-b7da8864df25","system_id":"levelo_inurba_marseille","lat":43.29895,"lon":5.43647,"is_reserved":false,"is_disabled":false,"rental_uris":{"android":"levelo://app?vid=9f58fe17-7445-4171-ab8a-b7da8864df25","ios":"levelo://app?vid=9f58fe17-7445-4171-ab8a-b7da8864df25"},"vehicle_type_id":"4","last_reported":1744118457,"current_range_meters":6800,"station_id":"ce4bhpp2rcd13ifvqhfg","pricing_plan_id":"cebpf4jnsgd1na2vs0mg"},{"bike_id":"e1e3e4d7-821d-4134-a13a-280ec3f9cbaa","system_id":"levelo_inurba_marseille","lat":43.32359,"lon":5.3676,"is_reserved":false,"is_disabled":false,"rental_uris":{"android":"levelo://app?vid=e1e3e4d7-821d-4134-a13a-280ec3f9cbaa","ios":"levelo://app?vid=e1e3e4d7-821d-4134-a13a-280ec3f9cbaa"},"vehicle_type_id":"4","last_reported":1744118457,"current_range_meters":6800,"station_id":"ce4bhsh2rcd13ifvqi2g","pricing_plan_id":"cebpf4jnsgd1na2vs0mg"},{"bike_id":"68a7da11-b211-47bc-9d67-46c2d4a20d9c","system_id":"levelo_inurba_marseille","lat":43.29963,"lon":5.41322,"is_reserved":false,"is_disabled":false,"rental_uris":{"android":"levelo://app?vid=68a7da11-b211-47bc-9d67-46c2d4a20d9c","ios":"levelo://app?vid=68a7da11-b211-47bc-9d67-46c2d4a20d9c"},"vehicle_type_id":"4","last_reported":1744118457,"current_range_meters":6800,"station_id":"ce4bhp12rcd13ifvqh9g","pricing_plan_id":"cebpf4jnsgd1na2vs0mg"},{"bike_id":"ecbc4673-3113-4e24-8cd6-a563cecac563","system_id":"levelo_inurba_marseille","lat":43.29965,"lon":5.37168,"is_reserved":false,"is_disabled":false,"rental_uris":{"android":"levelo://app?vid=ecbc4673-3113-4e24-8cd6-a563cecac563","ios":"levelo://app?vid=ecbc4673-3113-4e24-8cd6-a563cecac563"},"vehicle_type_id":"4","last_reported":1744118457,"current_range_meters":7200,"station_id":"ce4bgr92rcd13ifvqc7g","pricing_plan_id":"cebpf4jnsgd1na2vs0mg"},{"bike_id":"8ec975fe-3df2-4571-aed2-a8fd3471b0e8","system_id":"levelo_inurba_marseille","lat":43.27812,"lon":5.40714,"is_reserved":false,"is_disabled":false,"rental_uris":{"android":"levelo://app?vid=8ec975fe-3df2-4571-aed2-a8fd3471b0e8","ios":"levelo://app?vid=8ec975fe-3df2-4571-aed2-a8fd3471b0e8"},"vehicle_type_id":"4","last_reported":1744118457,"current_range_meters":7200,"station_id":"ce4bhnh2rcd13ifvqgtg","pricing_plan_id":"cebpf4jnsgd1na2vs0mg"},{"bike_id":"3495f4b7-3731-4f1f-90a4-517f7714daf1","system_id":"levelo_inurba_marseille","lat":43.267814,"lon":5.394132,"is_reserved":false,"is_disabled":false,"rental_uris":{"android":"levelo://app?vid=3495f4b7-3731-4f1f-90a4-517f7714daf1","ios":"levelo://app?vid=3495f4b7-3731-4f1f-90a4-517f7714daf1"},"vehicle_type_id":"4","last_reported":1744118457,"current_range_meters":7200,"station_id":"ce4bh2p2rcd13ifvqdi0","pricing_plan_id":"cebpf4jnsgd1na2vs0mg"},{"bike_id":"278a03e2-f017-468a-921a-cf55062a69ca","system_id":"levelo_inurba_marseille","lat":43.30963,"lon":5.3904,"is_reserved":false,"is_disabled":false,"rental_uris":{"android":"levelo://app?vid=278a03e2-f017-468a-921a-cf55062a69ca","ios":"levelo://app?vid=278a03e2-f017-468a-921a-cf55062a69ca"},"vehicle_type_id":"4","last_reported":1744118457,"current_range_meters":7200,"station_id":"ce4bgup2rcd13ifvqco0","pricing_plan_id":"cebpf4jnsgd1na2vs0mg"},{"bike_id":"d1d3d353-b4c0-42d1-a9fa-6dc52075c4c2","system_id":"levelo_inurba_marseille","lat":43.27372,"lon":5.36245,"is_reserved":false,"is_disabled":false,"rental_uris":{"android":"levelo://app?vid=d1d3d353-b4c0-42d1-a9fa-6dc52075c4c2","ios":"levelo://app?vid=d1d3d353-b4c0-42d1-a9fa-6dc52075c4c2"},"vehicle_type_id":"4","last_reported":1744118457,"current_range_meters":7200,"station_id":"ce4bhbh2rcd13ifvqeo0","pricing_plan_id":"cebpf4jnsgd1na2vs0mg"},{"bike_id":"9972aee6-4470-443a-8e14-c2078bb91c0d","system_id":"levelo_inurba_marseille","lat":43.31693,"lon":5.37745,"is_reserved":false,"is_disabled":false,"rental_uris":{"android":"levelo://app?vid=9972aee6-4470-443a-8e14-c2078bb91c0d","ios":"levelo://app?vid=9972aee6-4470-443a-8e14-c2078bb91c0d"},"vehicle_type_id":"4","last_reported":1744118457,"current_range_meters":6800,"station_id":"ce4bgth2rcd13ifvqch0","pricing_plan_id":"cebpf4jnsgd1na2vs0mg"},{"bike_id":"99786a82-8176-47e4-b9e6-e152240743fd","system_id":"levelo_inurba_marseille","lat":43.30138,"lon":5.3741,"is_reserved":false,"is_disabled":false,"rental_uris":{"android":"levelo://app?vid=99786a82-8176-47e4-b9e6-e152240743fd","ios":"levelo://app?vid=99786a82-8176-47e4-b9e6-e152240743fd"},"vehicle_type_id":"4","last_reported":1744118457,"current_range_meters":8000,"station_id":"ce4bgs92rcd13ifvqcc0","pricing_plan_id":"cebpf4jnsgd1na2vs0mg"},{"bike_id":"a6093dbc-a7c6-404f-906d-e5410b791e91","system_id":"levelo_inurba_marseille","lat":43.273804,"lon":5.362567,"is_reserved":false,"is_disabled":false,"rental_uris":{"android":"levelo://app?vid=a6093dbc-a7c6-404f-906d-e5410b791e91","ios":"levelo://app?vid=a6093dbc-a7c6-404f-906d-e5410b791e91"},"vehicle_type_id":"4","last_reported":1744118457,"current_range_meters":8000,"station_id":"ce4bhbh2rcd13ifvqeo0","pricing_plan_id":"cebpf4jnsgd1na2vs0mg"},{"bike_id":"f5a8fb88-3e1a-4ba1-a8e6-9c7e5eddde11","system_id":"levelo_inurba_marseille","lat":43.27563,"lon":5.38416,"is_reserved":false,"is_disabled":false,"rental_uris":{"android":"levelo://app?vid=f5a8fb88-3e1a-4ba1-a8e6-9c7e5eddde11","ios":"levelo://app?vid=f5a8fb88-3e1a-4ba1-a8e6-9c7e5eddde11"},"vehicle_type_id":"4","last_reported":1744118457,"current_range_meters":8000,"station_id":"ce4bhh92rcd13ifvqfi0","pricing_plan_id":"cebpf4jnsgd1na2vs0mg"},{"bike_id":"8577463a-a6de-4b81-8a91-723c0ff02281","system_id":"levelo_inurba_marseille","lat":43.24648,"lon":5.38909,"is_reserved":false,"is_disabled":false,"rental_uris":{"android":"levelo://app?vid=8577463a-a6de-4b81-8a91-723c0ff02281","ios":"levelo://app?vid=8577463a-a6de-4b81-8a91-723c0ff02281"},"vehicle_type_id":"4","last_reported":1744118457,"current_range_meters":8000,"station_id":"ce4bhg12rcd13ifvqf60","pricing_plan_id":"cebpf4jnsgd1na2vs0mg"},{"bike_id":"428301dd-e7b7-41d7-bde1-387d772dedf1","system_id":"levelo_inurba_marseille","lat":43.28255,"lon":5.35077,"is_reserved":false,"is_disabled":false,"rental_uris":{"android":"levelo://app?vid=428301dd-e7b7-41d7-bde1-387d772dedf1","ios":"levelo://app?vid=428301dd-e7b7-41d7-bde1-387d772dedf1"},"vehicle_type_id":"4","last_reported":1744118457,"current_range_meters":8000,"station_id":"ce4bhbp2rcd13ifvqerg","pricing_plan_id":"cebpf4jnsgd1na2vs0mg"},{"bike_id":"ccc91753-ffb6-49f2-a611-1cab910cd5a7","system_id":"levelo_inurba_marseille","lat":43.28693,"lon":5.3741,"is_reserved":false,"is_disabled":false,"rental_uris":{"android":"levelo://app?vid=ccc91753-ffb6-49f2-a611-1cab910cd5a7","ios":"levelo://app?vid=ccc91753-ffb6-49f2-a611-1cab910cd5a7"},"vehicle_type_id":"4","last_reported":1744118457,"current_range_meters":8000,"station_id":"ce4bh3p2rcd13ifvqdq0","pricing_plan_id":"cebpf4jnsgd1na2vs0mg"},{"bike_id":"10abc5b5-d7c8-46d7-8fc7-2334b8e6761c","system_id":"levelo_inurba_marseille","lat":43.2513,"lon":5.40307,"is_reserved":false,"is_disabled":false,"rental_uris":{"android":"levelo://app?vid=10abc5b5-d7c8-46d7-8fc7-2334b8e6761c","ios":"levelo://app?vid=10abc5b5-d7c8-46d7-8fc7-2334b8e6761c"},"vehicle_type_id":"4","last_reported":1744118457,"current_range_meters":8000,"station_id":"ce4bhlh2rcd13ifvqgig","pricing_plan_id":"cebpf4jnsgd1na2vs0mg"},{"bike_id":"3cbad1fb-d71d-4e4f-90fa-c1465f9f9b65","system_id":"levelo_inurba_marseille","lat":43.21197,"lon":5.3508,"is_reserved":false,"is_disabled":true,"rental_uris":{"android":"levelo://app?vid=3cbad1fb-d71d-4e4f-90fa-c1465f9f9b65","ios":"levelo://app?vid=3cbad1fb-d71d-4e4f-90fa-c1465f9f9b65"},"vehicle_type_id":"4","last_reported":1744118457,"current_range_meters":8000,"station_id":"st_cvj6sg6p6f1abm77japg","pricing_plan_id":"cebpf4jnsgd1na2vs0mg"},{"bike_id":"4fe21798-e4d1-4985-bc15-6a7a89cb6541","system_id":"levelo_inurba_marseille","lat":43.21198,"lon":5.35067,"is_reserved":false,"is_disabled":false,"rental_uris":{"android":"levelo://app?vid=4fe21798-e4d1-4985-bc15-6a7a89cb6541","ios":"levelo://app?vid=4fe21798-e4d1-4985-bc15-6a7a89cb6541"},"vehicle_type_id":"4","last_reported":1744118457,"current_range_meters":8000,"station_id":"st_cvj6sg6p6f1abm77japg","pricing_plan_id":"cebpf4jnsgd1na2vs0mg"},{"bike_id":"9fd9afcf-8606-4db3-b765-345a62705d71","system_id":"levelo_inurba_marseille","lat":43.27365,"lon":5.36252,"is_reserved":false,"is_disabled":false,"rental_uris":{"android":"levelo://app?vid=9fd9afcf-8606-4db3-b765-345a62705d71","ios":"levelo://app?vid=9fd9afcf-8606-4db3-b765-345a62705d71"},"vehicle_type_id":"4","last_reported":1744118457,"current_range_meters":8400,"station_id":"ce4bhbh2rcd13ifvqeo0","pricing_plan_id":"cebpf4jnsgd1na2vs0mg"},{"bike_id":"7e2bfb3c-422b-4033-ada7-8c5491c48bc9","system_id":"levelo_inurba_marseille","lat":43.25082,"lon":5.39511,"is_reserved":false,"is_disabled":false,"rental_uris":{"android":"levelo://app?vid=7e2bfb3c-422b-4033-ada7-8c5491c48bc9","ios":"levelo://app?vid=7e2bfb3c-422b-4033-ada7-8c5491c48bc9"},"vehicle_type_id":"4","last_reported":1744118457,"current_range_meters":8400,"station_id":"ce4bhm12rcd13ifvqgkg","pricing_plan_id":"cebpf4jnsgd1na2vs0mg"},{"bike_id":"f78f7a73-9ca4-4728-87d9-d2f45c399222","system_id":"levelo_inurba_marseille","lat":43.2417,"lon":5.364,"is_reserved":false,"is_disabled":false,"rental_uris":{"android":"levelo://app?vid=f78f7a73-9ca4-4728-87d9-d2f45c399222","ios":"levelo://app?vid=f78f7a73-9ca4-4728-87d9-d2f45c399222"},"vehicle_type_id":"4","last_reported":1744118457,"current_range_meters":8400,"station_id":"cpo36qri1sfpv3e86is0","pricing_plan_id":"cebpf4jnsgd1na2vs0mg"},{"bike_id":"3f9df73e-e4a2-4ad1-98bd-9d91dda5ee53","system_id":"levelo_inurba_marseille","lat":43.29184,"lon":5.35795,"is_reserved":false,"is_disabled":false,"rental_uris":{"android":"levelo://app?vid=3f9df73e-e4a2-4ad1-98bd-9d91dda5ee53","ios":"levelo://app?vid=3f9df73e-e4a2-4ad1-98bd-9d91dda5ee53"},"vehicle_type_id":"4","last_reported":1744118457,"current_range_meters":8400,"station_id":"ce4bhb12rcd13ifvqel0","pricing_plan_id":"cebpf4jnsgd1na2vs0mg"},{"bike_id":"ecef8e9e-03dc-4612-b74e-b978f92e2873","system_id":"levelo_inurba_marseille","lat":43.30098,"lon":5.39087,"is_reserved":false,"is_disabled":true,"rental_uris":{"android":"levelo://app?vid=ecef8e9e-03dc-4612-b74e-b978f92e2873","ios":"levelo://app?vid=ecef8e9e-03dc-4612-b74e-b978f92e2873"},"vehicle_type_id":"4","last_reported":1744118457,"current_range_meters":8400,"station_id":"ce4bh192rcd13ifvqdb0","pricing_plan_id":"cebpf4jnsgd1na2vs0mg"},{"bike_id":"cf350222-2d93-4318-a820-870a23d03c0c","system_id":"levelo_inurba_marseille","lat":43.30375,"lon":5.42489,"is_reserved":false,"is_disabled":false,"rental_uris":{"android":"levelo://app?vid=cf350222-2d93-4318-a820-870a23d03c0c","ios":"levelo://app?vid=cf350222-2d93-4318-a820-870a23d03c0c"},"vehicle_type_id":"4","last_reported":1744118457,"current_range_meters":8400,"station_id":"ce4bhoh2rcd13ifvqh6g","pricing_plan_id":"cebpf4jnsgd1na2vs0mg"},{"bike_id":"f54ed993-fedb-455c-8329-424ac8299963","system_id":"levelo_inurba_marseille","lat":43.32363,"lon":5.36767,"is_reserved":false,"is_disabled":false,"rental_uris":{"android":"levelo://app?vid=f54ed993-fedb-455c-8329-424ac8299963","ios":"levelo://app?vid=f54ed993-fedb-455c-8329-424ac8299963"},"vehicle_type_id":"4","last_reported":1744118457,"current_range_meters":8400,"station_id":"ce4bhsh2rcd13ifvqi2g","pricing_plan_id":"cebpf4jnsgd1na2vs0mg"},{"bike_id":"99de66ac-209a-4a69-8246-1dcd6189e334","system_id":"levelo_inurba_marseille","lat":43.31074,"lon":5.38361,"is_reserved":false,"is_disabled":false,"rental_uris":{"android":"levelo://app?vid=99de66ac-209a-4a69-8246-1dcd6189e334","ios":"levelo://app?vid=99de66ac-209a-4a69-8246-1dcd6189e334"},"vehicle_type_id":"4","last_reported":1744118457,"current_range_meters":8400,"station_id":"ce4bgv92rcd13ifvqcr0","pricing_plan_id":"cebpf4jnsgd1na2vs0mg"},{"bike_id":"4e8a2606-e558-4053-8509-41caab244876","system_id":"levelo_inurba_marseille","lat":43.291718,"lon":5.371578,"is_reserved":false,"is_disabled":false,"rental_uris":{"android":"levelo://app?vid=4e8a2606-e558-4053-8509-41caab244876","ios":"levelo://app?vid=4e8a2606-e558-4053-8509-41caab244876"},"vehicle_type_id":"4","last_reported":1744118457,"current_range_meters":8400,"station_id":"ce4bha92rcd13ifvqeh0","pricing_plan_id":"cebpf4jnsgd1na2vs0mg"},{"bike_id":"a1214fb6-ec32-4f6d-b480-2c868d210d82","system_id":"levelo_inurba_marseille","lat":43.23195,"lon":5.35553,"is_reserved":false,"is_disabled":false,"rental_uris":{"android":"levelo://app?vid=a1214fb6-ec32-4f6d-b480-2c868d210d82","ios":"levelo://app?vid=a1214fb6-ec32-4f6d-b480-2c868d210d82"},"vehicle_type_id":"4","last_reported":1744118457,"current_range_meters":8400,"station_id":"ce4bhu92rcd13ifvqi70","pricing_plan_id":"cebpf4jnsgd1na2vs0mg"},{"bike_id":"444a5f07-09c5-40f5-8d58-60f1f25c67b9","system_id":"levelo_inurba_marseille","lat":43.319919,"lon":5.381485,"is_reserved":false,"is_disabled":false,"rental_uris":{"android":"levelo://app?vid=444a5f07-09c5-40f5-8d58-60f1f25c67b9","ios":"levelo://app?vid=444a5f07-09c5-40f5-8d58-60f1f25c67b9"},"vehicle_type_id":"4","last_reported":1744118457,"current_range_meters":8400,"station_id":"ce4bhr12rcd13ifvqhpg","pricing_plan_id":"cebpf4jnsgd1na2vs0mg"},{"bike_id":"a8325997-11f1-478b-875d-411927d7002a","system_id":"levelo_inurba_marseille","lat":43.29413,"lon":5.38625,"is_reserved":false,"is_disabled":false,"rental_uris":{"android":"levelo://app?vid=a8325997-11f1-478b-875d-411927d7002a","ios":"levelo://app?vid=a8325997-11f1-478b-875d-411927d7002a"},"vehicle_type_id":"4","last_reported":1744118457,"current_range_meters":8000,"station_id":"ce4bh2h2rcd13ifvqdh0","pricing_plan_id":"cebpf4jnsgd1na2vs0mg"},{"bike_id":"3576b946-70b3-456f-a60a-d98e227f015c","system_id":"levelo_inurba_marseille","lat":43.30101,"lon":5.38228,"is_reserved":false,"is_disabled":false,"rental_uris":{"android":"levelo://app?vid=3576b946-70b3-456f-a60a-d98e227f015c","ios":"levelo://app?vid=3576b946-70b3-456f-a60a-d98e227f015c"},"vehicle_type_id":"4","last_reported":1744118457,"current_range_meters":8800,"station_id":"ce4bgup2rcd13ifvqcn0","pricing_plan_id":"cebpf4jnsgd1na2vs0mg"},{"bike_id":"02f5f556-9aca-41a9-928c-e217b6392b4b","system_id":"levelo_inurba_marseille","lat":43.31827,"lon":5.43511,"is_reserved":false,"is_disabled":false,"rental_uris":{"android":"levelo://app?vid=02f5f556-9aca-41a9-928c-e217b6392b4b","ios":"levelo://app?vid=02f5f556-9aca-41a9-928c-e217b6392b4b"},"vehicle_type_id":"4","last_reported":1744118457,"current_range_meters":8800,"station_id":"","pricing_plan_id":"cebpf4jnsgd1na2vs0mg"},{"bike_id":"f39be6f5-2f69-4c37-b021-559d20b299a4","system_id":"levelo_inurba_marseille","lat":43.30009,"lon":5.37645,"is_reserved":false,"is_disabled":false,"rental_uris":{"android":"levelo://app?vid=f39be6f5-2f69-4c37-b021-559d20b299a4","ios":"levelo://app?vid=f39be6f5-2f69-4c37-b021-559d20b299a4"},"vehicle_type_id":"4","last_reported":1744118457,"current_range_meters":8800,"station_id":"","pricing_plan_id":"cebpf4jnsgd1na2vs0mg"},{"bike_id":"2e9000dc-6400-4918-a994-dd60039ca96d","system_id":"levelo_inurba_marseille","lat":43.32015,"lon":5.38133,"is_reserved":false,"is_disabled":true,"rental_uris":{"android":"levelo://app?vid=2e9000dc-6400-4918-a994-dd60039ca96d","ios":"levelo://app?vid=2e9000dc-6400-4918-a994-dd60039ca96d"},"vehicle_type_id":"4","last_reported":1744118457,"current_range_meters":8800,"station_id":"ce4bhr12rcd13ifvqhpg","pricing_plan_id":"cebpf4jnsgd1na2vs0mg"},{"bike_id":"1ee9267b-f744-446a-8cd4-058aefc00413","system_id":"levelo_inurba_marseille","lat":43.27495,"lon":5.42479,"is_reserved":false,"is_disabled":false,"rental_uris":{"android":"levelo://app?vid=1ee9267b-f744-446a-8cd4-058aefc00413","ios":"levelo://app?vid=1ee9267b-f744-446a-8cd4-058aefc00413"},"vehicle_type_id":"4","last_reported":1744118457,"current_range_meters":8800,"station_id":"ce4bhn92rcd13ifvqgrg","pricing_plan_id":"cebpf4jnsgd1na2vs0mg"},{"bike_id":"872aa9a6-e67f-4e81-a400-771a7b489872","system_id":"levelo_inurba_marseille","lat":43.30298,"lon":5.39181,"is_reserved":false,"is_disabled":false,"rental_uris":{"android":"levelo://app?vid=872aa9a6-e67f-4e81-a400-771a7b489872","ios":"levelo://app?vid=872aa9a6-e67f-4e81-a400-771a7b489872"},"vehicle_type_id":"4","last_reported":1744118457,"current_range_meters":9200,"station_id":"ce4bgkh2rcd13ifvqbk0","pricing_plan_id":"cebpf4jnsgd1na2vs0mg"},{"bike_id":"a6e96eb9-a766-450a-82dd-91071a4300cb","system_id":"levelo_inurba_marseille","lat":43.27377,"lon":5.36259,"is_reserved":false,"is_disabled":false,"rental_uris":{"android":"levelo://app?vid=a6e96eb9-a766-450a-82dd-91071a4300cb","ios":"levelo://app?vid=a6e96eb9-a766-450a-82dd-91071a4300cb"},"vehicle_type_id":"4","last_reported":1744118457,"current_range_meters":9200,"station_id":"ce4bhbh2rcd13ifvqeo0","pricing_plan_id":"cebpf4jnsgd1na2vs0mg"},{"bike_id":"bce3b7d7-8df0-440c-998e-cc24185f3553","system_id":"levelo_inurba_marseille","lat":43.28343,"lon":5.38106,"is_reserved":false,"is_disabled":false,"rental_uris":{"android":"levelo://app?vid=bce3b7d7-8df0-440c-998e-cc24185f3553","ios":"levelo://app?vid=bce3b7d7-8df0-440c-998e-cc24185f3553"},"vehicle_type_id":"4","last_reported":1744118457,"current_range_meters":9200,"station_id":"ce4bh412rcd13ifvqdr0","pricing_plan_id":"cebpf4jnsgd1na2vs0mg"},{"bike_id":"91af7c49-4122-4f83-a08d-fc084211eb7b","system_id":"levelo_inurba_marseille","lat":43.31377,"lon":5.36698,"is_reserved":false,"is_disabled":false,"rental_uris":{"android":"levelo://app?vid=91af7c49-4122-4f83-a08d-fc084211eb7b","ios":"levelo://app?vid=91af7c49-4122-4f83-a08d-fc084211eb7b"},"vehicle_type_id":"4","last_reported":1744118457,"current_range_meters":9200,"station_id":"ce4bgr92rcd13ifvqc6g","pricing_plan_id":"cebpf4jnsgd1na2vs0mg"},{"bike_id":"1001ae64-a73b-446f-a6d4-10572f184601","system_id":"levelo_inurba_marseille","lat":43.29959,"lon":5.41323,"is_reserved":false,"is_disabled":false,"rental_uris":{"android":"levelo://app?vid=1001ae64-a73b-446f-a6d4-10572f184601","ios":"levelo://app?vid=1001ae64-a73b-446f-a6d4-10572f184601"},"vehicle_type_id":"4","last_reported":1744118457,"current_range_meters":8800,"station_id":"ce4bhp12rcd13ifvqh9g","pricing_plan_id":"cebpf4jnsgd1na2vs0mg"},{"bike_id":"351b921a-1463-4cf6-859d-ca5bd51a6e76","system_id":"levelo_inurba_marseille","lat":43.31718,"lon":5.42394,"is_reserved":false,"is_disabled":false,"rental_uris":{"android":"levelo://app?vid=351b921a-1463-4cf6-859d-ca5bd51a6e76","ios":"levelo://app?vid=351b921a-1463-4cf6-859d-ca5bd51a6e76"},"vehicle_type_id":"4","last_reported":1744118457,"current_range_meters":9200,"station_id":"ce4bhp92rcd13ifvqhbg","pricing_plan_id":"cebpf4jnsgd1na2vs0mg"},{"bike_id":"e9dcab82-42b3-4679-ab30-390f6ff4e996","system_id":"levelo_inurba_marseille","lat":43.26227,"lon":5.40455,"is_reserved":false,"is_disabled":false,"rental_uris":{"android":"levelo://app?vid=e9dcab82-42b3-4679-ab30-390f6ff4e996","ios":"levelo://app?vid=e9dcab82-42b3-4679-ab30-390f6ff4e996"},"vehicle_type_id":"4","last_reported":1744118457,"current_range_meters":9200,"station_id":"ce4bhmh2rcd13ifvqgmg","pricing_plan_id":"cebpf4jnsgd1na2vs0mg"},{"bike_id":"49e0cbb5-0f11-4cb1-a039-dec692cb761b","system_id":"levelo_inurba_marseille","lat":43.28617,"lon":5.35106,"is_reserved":false,"is_disabled":false,"rental_uris":{"android":"levelo://app?vid=49e0cbb5-0f11-4cb1-a039-dec692cb761b","ios":"levelo://app?vid=49e0cbb5-0f11-4cb1-a039-dec692cb761b"},"vehicle_type_id":"4","last_reported":1744118457,"current_range_meters":9200,"station_id":"ce4bhch2rcd13ifvqeug","pricing_plan_id":"cebpf4jnsgd1na2vs0mg"},{"bike_id":"87a87dec-62c7-4997-abc5-edbb5fae5b64","system_id":"levelo_inurba_marseille","lat":43.2804,"lon":5.3695,"is_reserved":false,"is_disabled":false,"rental_uris":{"android":"levelo://app?vid=87a87dec-62c7-4997-abc5-edbb5fae5b64","ios":"levelo://app?vid=87a87dec-62c7-4997-abc5-edbb5fae5b64"},"vehicle_type_id":"4","last_reported":1744118457,"current_range_meters":9200,"station_id":"ce4bha12rcd13ifvqef0","pricing_plan_id":"cebpf4jnsgd1na2vs0mg"},{"bike_id":"dff0c398-5457-4c82-99b9-071db8607d47","system_id":"levelo_inurba_marseille","lat":43.25675,"lon":5.41909,"is_reserved":false,"is_disabled":false,"rental_uris":{"android":"levelo://app?vid=dff0c398-5457-4c82-99b9-071db8607d47","ios":"levelo://app?vid=dff0c398-5457-4c82-99b9-071db8607d47"},"vehicle_type_id":"4","last_reported":1744118457,"current_range_meters":9600,"station_id":"","pricing_plan_id":"cebpf4jnsgd1na2vs0mg"},{"bike_id":"f17ce36f-e80a-4732-89e2-7a7dfab19d87","system_id":"levelo_inurba_marseille","lat":43.2991,"lon":5.43673,"is_reserved":false,"is_disabled":false,"rental_uris":{"android":"levelo://app?vid=f17ce36f-e80a-4732-89e2-7a7dfab19d87","ios":"levelo://app?vid=f17ce36f-e80a-4732-89e2-7a7dfab19d87"},"vehicle_type_id":"4","last_reported":1744118457,"current_range_meters":9600,"station_id":"ce4bhpp2rcd13ifvqhfg","pricing_plan_id":"cebpf4jnsgd1na2vs0mg"},{"bike_id":"82f28cf6-556c-431d-a12b-bd3ce5fc2f28","system_id":"levelo_inurba_marseille","lat":43.27501,"lon":5.37767,"is_reserved":false,"is_disabled":false,"rental_uris":{"android":"levelo://app?vid=82f28cf6-556c-431d-a12b-bd3ce5fc2f28","ios":"levelo://app?vid=82f28cf6-556c-431d-a12b-bd3ce5fc2f28"},"vehicle_type_id":"4","last_reported":1744118457,"current_range_meters":9600,"station_id":"","pricing_plan_id":"cebpf4jnsgd1na2vs0mg"},{"bike_id":"462484fb-7399-4810-a9af-37dc48881c50","system_id":"levelo_inurba_marseille","lat":43.269548,"lon":5.386341,"is_reserved":false,"is_disabled":false,"rental_uris":{"android":"levelo://app?vid=462484fb-7399-4810-a9af-37dc48881c50","ios":"levelo://app?vid=462484fb-7399-4810-a9af-37dc48881c50"},"vehicle_type_id":"4","last_reported":1744118457,"current_range_meters":9600,"station_id":"ce4bhh12rcd13ifvqff0","pricing_plan_id":"cebpf4jnsgd1na2vs0mg"},{"bike_id":"89771962-fe60-4144-a8a6-39dd0f7b9fb3","system_id":"levelo_inurba_marseille","lat":43.2121,"lon":5.3508,"is_reserved":false,"is_disabled":false,"rental_uris":{"android":"levelo://app?vid=89771962-fe60-4144-a8a6-39dd0f7b9fb3","ios":"levelo://app?vid=89771962-fe60-4144-a8a6-39dd0f7b9fb3"},"vehicle_type_id":"4","last_reported":1744118457,"current_range_meters":9600,"station_id":"st_cvj6sg6p6f1abm77japg","pricing_plan_id":"cebpf4jnsgd1na2vs0mg"},{"bike_id":"d233a718-7551-423c-8cfb-9c4eaf95825c","system_id":"levelo_inurba_marseille","lat":43.2975,"lon":5.37704,"is_reserved":false,"is_disabled":false,"rental_uris":{"android":"levelo://app?vid=d233a718-7551-423c-8cfb-9c4eaf95825c","ios":"levelo://app?vid=d233a718-7551-423c-8cfb-9c4eaf95825c"},"vehicle_type_id":"4","last_reported":1744118457,"current_range_meters":9600,"station_id":"ce4bgkh2rcd13ifvqbl0","pricing_plan_id":"cebpf4jnsgd1na2vs0mg"},{"bike_id":"5b9a0cce-c827-460d-9bf9-d7ca7b028300","system_id":"levelo_inurba_marseille","lat":43.27204,"lon":5.39187,"is_reserved":false,"is_disabled":false,"rental_uris":{"android":"levelo://app?vid=5b9a0cce-c827-460d-9bf9-d7ca7b028300","ios":"levelo://app?vid=5b9a0cce-c827-460d-9bf9-d7ca7b028300"},"vehicle_type_id":"4","last_reported":1744118457,"current_range_meters":9600,"station_id":"ce4bhhp2rcd13ifvqfm0","pricing_plan_id":"cebpf4jnsgd1na2vs0mg"},{"bike_id":"70810d3e-9936-4863-b211-84f880613e88","system_id":"levelo_inurba_marseille","lat":43.31275,"lon":5.37264,"is_reserved":false,"is_disabled":false,"rental_uris":{"android":"levelo://app?vid=70810d3e-9936-4863-b211-84f880613e88","ios":"levelo://app?vid=70810d3e-9936-4863-b211-84f880613e88"},"vehicle_type_id":"4","last_reported":1744118457,"current_range_meters":9600,"station_id":"","pricing_plan_id":"cebpf4jnsgd1na2vs0mg"},{"bike_id":"91280ebd-28ba-47b5-bd60-b9f91a82422d","system_id":"levelo_inurba_marseille","lat":43.32359,"lon":5.36752,"is_reserved":false,"is_disabled":false,"rental_uris":{"android":"levelo://app?vid=91280ebd-28ba-47b5-bd60-b9f91a82422d","ios":"levelo://app?vid=91280ebd-28ba-47b5-bd60-b9f91a82422d"},"vehicle_type_id":"4","last_reported":1744118457,"current_range_meters":9600,"station_id":"ce4bhsh2rcd13ifvqi2g","pricing_plan_id":"cebpf4jnsgd1na2vs0mg"},{"bike_id":"f4d11403-b451-465f-9722-1ace0a3227f2","system_id":"levelo_inurba_marseille","lat":43.23154,"lon":5.43719,"is_reserved":false,"is_disabled":false,"rental_uris":{"android":"levelo://app?vid=f4d11403-b451-465f-9722-1ace0a3227f2","ios":"levelo://app?vid=f4d11403-b451-465f-9722-1ace0a3227f2"},"vehicle_type_id":"4","last_reported":1744118457,"current_range_meters":9600,"station_id":"ce4bhmp2rcd13ifvqgog","pricing_plan_id":"cebpf4jnsgd1na2vs0mg"},{"bike_id":"742f54b2-85b7-41c4-88ce-007c83254924","system_id":"levelo_inurba_marseille","lat":43.24805,"lon":5.37456,"is_reserved":false,"is_disabled":false,"rental_uris":{"android":"levelo://app?vid=742f54b2-85b7-41c4-88ce-007c83254924","ios":"levelo://app?vid=742f54b2-85b7-41c4-88ce-007c83254924"},"vehicle_type_id":"4","last_reported":1744118457,"current_range_meters":9600,"station_id":"ce4bhgh2rcd13ifvqfb0","pricing_plan_id":"cebpf4jnsgd1na2vs0mg"},{"bike_id":"3b1eca4f-2318-4296-a243-408004d43f47","system_id":"levelo_inurba_marseille","lat":43.30546,"lon":5.36559,"is_reserved":false,"is_disabled":false,"rental_uris":{"android":"levelo://app?vid=3b1eca4f-2318-4296-a243-408004d43f47","ios":"levelo://app?vid=3b1eca4f-2318-4296-a243-408004d43f47"},"vehicle_type_id":"4","last_reported":1744118457,"current_range_meters":10000,"station_id":"ce4bgs12rcd13ifvqcag","pricing_plan_id":"cebpf4jnsgd1na2vs0mg"},{"bike_id":"ffd30803-8261-40db-9bfc-be1e30350a56","system_id":"levelo_inurba_marseille","lat":43.28108,"lon":5.37835,"is_reserved":false,"is_disabled":false,"rental_uris":{"android":"levelo://app?vid=ffd30803-8261-40db-9bfc-be1e30350a56","ios":"levelo://app?vid=ffd30803-8261-40db-9bfc-be1e30350a56"},"vehicle_type_id":"4","last_reported":1744118457,"current_range_meters":10000,"station_id":"ce4bha12rcd13ifvqee0","pricing_plan_id":"cebpf4jnsgd1na2vs0mg"},{"bike_id":"9ac9af85-4dc6-400a-be7c-ac8d41f329f3","system_id":"levelo_inurba_marseille","lat":43.29922,"lon":5.37495,"is_reserved":false,"is_disabled":false,"rental_uris":{"android":"levelo://app?vid=9ac9af85-4dc6-400a-be7c-ac8d41f329f3","ios":"levelo://app?vid=9ac9af85-4dc6-400a-be7c-ac8d41f329f3"},"vehicle_type_id":"4","last_reported":1744118457,"current_range_meters":10000,"station_id":"ce4bgjh2rcd13ifvqbg0","pricing_plan_id":"cebpf4jnsgd1na2vs0mg"},{"bike_id":"168e9058-a0e0-4967-9942-c5c7953a5cec","system_id":"levelo_inurba_marseille","lat":43.23194,"lon":5.35554,"is_reserved":false,"is_disabled":false,"rental_uris":{"android":"levelo://app?vid=168e9058-a0e0-4967-9942-c5c7953a5cec","ios":"levelo://app?vid=168e9058-a0e0-4967-9942-c5c7953a5cec"},"vehicle_type_id":"4","last_reported":1744118457,"current_range_meters":10000,"station_id":"ce4bhu92rcd13ifvqi70","pricing_plan_id":"cebpf4jnsgd1na2vs0mg"},{"bike_id":"42a2a0dd-e073-46d3-a004-33e2e45e3038","system_id":"levelo_inurba_marseille","lat":43.34164,"lon":5.40917,"is_reserved":false,"is_disabled":false,"rental_uris":{"android":"levelo://app?vid=42a2a0dd-e073-46d3-a004-33e2e45e3038","ios":"levelo://app?vid=42a2a0dd-e073-46d3-a004-33e2e45e3038"},"vehicle_type_id":"4","last_reported":1744118457,"current_range_meters":10800,"station_id":"ce4bhqh2rcd13ifvqhlg","pricing_plan_id":"cebpf4jnsgd1na2vs0mg"},{"bike_id":"dbf25181-7087-4d19-b165-a51d187ab120","system_id":"levelo_inurba_marseille","lat":43.30315,"lon":5.36884,"is_reserved":false,"is_disabled":false,"rental_uris":{"android":"levelo://app?vid=dbf25181-7087-4d19-b165-a51d187ab120","ios":"levelo://app?vid=dbf25181-7087-4d19-b165-a51d187ab120"},"vehicle_type_id":"4","last_reported":1744118457,"current_range_meters":10800,"station_id":"ce4bgqh2rcd13ifvqc5g","pricing_plan_id":"cebpf4jnsgd1na2vs0mg"},{"bike_id":"f2f8031e-8acf-441f-a6b8-4b845409031c","system_id":"levelo_inurba_marseille","lat":43.27366,"lon":5.36247,"is_reserved":false,"is_disabled":false,"rental_uris":{"android":"levelo://app?vid=f2f8031e-8acf-441f-a6b8-4b845409031c","ios":"levelo://app?vid=f2f8031e-8acf-441f-a6b8-4b845409031c"},"vehicle_type_id":"4","last_reported":1744118457,"current_range_meters":10800,"station_id":"ce4bhbh2rcd13ifvqeo0","pricing_plan_id":"cebpf4jnsgd1na2vs0mg"},{"bike_id":"a613de97-0090-4415-bf45-b9a7dfc2a534","system_id":"levelo_inurba_marseille","lat":43.24168,"lon":5.36407,"is_reserved":false,"is_disabled":false,"rental_uris":{"android":"levelo://app?vid=a613de97-0090-4415-bf45-b9a7dfc2a534","ios":"levelo://app?vid=a613de97-0090-4415-bf45-b9a7dfc2a534"},"vehicle_type_id":"4","last_reported":1744118457,"current_range_meters":10800,"station_id":"cpo36qri1sfpv3e86is0","pricing_plan_id":"cebpf4jnsgd1na2vs0mg"},{"bike_id":"1c16ce55-fc77-44db-8b14-5e0e03e28ace","system_id":"levelo_inurba_marseille","lat":43.2842,"lon":5.3497,"is_reserved":false,"is_disabled":false,"rental_uris":{"android":"levelo://app?vid=1c16ce55-fc77-44db-8b14-5e0e03e28ace","ios":"levelo://app?vid=1c16ce55-fc77-44db-8b14-5e0e03e28ace"},"vehicle_type_id":"4","last_reported":1744118457,"current_range_meters":10800,"station_id":"ce4bhbh2rcd13ifvqepg","pricing_plan_id":"cebpf4jnsgd1na2vs0mg"},{"bike_id":"0d22e488-9025-41db-8ee9-e3e86c1b53c6","system_id":"levelo_inurba_marseille","lat":43.283995,"lon":5.34975,"is_reserved":false,"is_disabled":false,"rental_uris":{"android":"levelo://app?vid=0d22e488-9025-41db-8ee9-e3e86c1b53c6","ios":"levelo://app?vid=0d22e488-9025-41db-8ee9-e3e86c1b53c6"},"vehicle_type_id":"4","last_reported":1744118457,"current_range_meters":10800,"station_id":"ce4bh292rcd13ifvqdg0","pricing_plan_id":"cebpf4jnsgd1na2vs0mg"},{"bike_id":"4ca953f7-e27d-44c3-946e-d6f994ec3d0b","system_id":"levelo_inurba_marseille","lat":43.292,"lon":5.35805,"is_reserved":false,"is_disabled":false,"rental_uris":{"android":"levelo://app?vid=4ca953f7-e27d-44c3-946e-d6f994ec3d0b","ios":"levelo://app?vid=4ca953f7-e27d-44c3-946e-d6f994ec3d0b"},"vehicle_type_id":"4","last_reported":1744118457,"current_range_meters":10800,"station_id":"ce4bhb12rcd13ifvqel0","pricing_plan_id":"cebpf4jnsgd1na2vs0mg"},{"bike_id":"a6244c43-f289-465a-a70b-bd519fbe945b","system_id":"levelo_inurba_marseille","lat":43.28149,"lon":5.42652,"is_reserved":false,"is_disabled":false,"rental_uris":{"android":"levelo://app?vid=a6244c43-f289-465a-a70b-bd519fbe945b","ios":"levelo://app?vid=a6244c43-f289-465a-a70b-bd519fbe945b"},"vehicle_type_id":"4","last_reported":1744118457,"current_range_meters":10800,"station_id":"ce4bhnh2rcd13ifvqgug","pricing_plan_id":"cebpf4jnsgd1na2vs0mg"},{"bike_id":"cf1ff944-6ec6-45c5-ad6f-1a6c9a1154b0","system_id":"levelo_inurba_marseille","lat":43.30903,"lon":5.36859,"is_reserved":false,"is_disabled":false,"rental_uris":{"android":"levelo://app?vid=cf1ff944-6ec6-45c5-ad6f-1a6c9a1154b0","ios":"levelo://app?vid=cf1ff944-6ec6-45c5-ad6f-1a6c9a1154b0"},"vehicle_type_id":"4","last_reported":1744118457,"current_range_meters":10800,"station_id":"ce4bgn92rcd13ifvqbvg","pricing_plan_id":"cebpf4jnsgd1na2vs0mg"},{"bike_id":"f112afad-80fc-46d8-94fc-cdee3a579e6d","system_id":"levelo_inurba_marseille","lat":43.29074,"lon":5.37156,"is_reserved":false,"is_disabled":false,"rental_uris":{"android":"levelo://app?vid=f112afad-80fc-46d8-94fc-cdee3a579e6d","ios":"levelo://app?vid=f112afad-80fc-46d8-94fc-cdee3a579e6d"},"vehicle_type_id":"4","last_reported":1744118457,"current_range_meters":11200,"station_id":"ce4bh5p2rcd13ifvqe4g","pricing_plan_id":"cebpf4jnsgd1na2vs0mg"},{"bike_id":"0748ce16-1dbb-4683-afb9-eabebbdfd5a5","system_id":"levelo_inurba_marseille","lat":43.29225,"lon":5.39967,"is_reserved":false,"is_disabled":false,"rental_uris":{"android":"levelo://app?vid=0748ce16-1dbb-4683-afb9-eabebbdfd5a5","ios":"levelo://app?vid=0748ce16-1dbb-4683-afb9-eabebbdfd5a5"},"vehicle_type_id":"4","last_reported":1744118457,"current_range_meters":11200,"station_id":"","pricing_plan_id":"cebpf4jnsgd1na2vs0mg"},{"bike_id":"0aa02c49-cbb3-4907-a588-f754056f3ba8","system_id":"levelo_inurba_marseille","lat":43.30795,"lon":5.38146,"is_reserved":false,"is_disabled":true,"rental_uris":{"android":"levelo://app?vid=0aa02c49-cbb3-4907-a588-f754056f3ba8","ios":"levelo://app?vid=0aa02c49-cbb3-4907-a588-f754056f3ba8"},"vehicle_type_id":"4","last_reported":1744118457,"current_range_meters":11200,"station_id":"ce4bgt12rcd13ifvqce0","pricing_plan_id":"cebpf4jnsgd1na2vs0mg"},{"bike_id":"14031425-56fe-4d59-8635-56f17d050a85","system_id":"levelo_inurba_marseille","lat":43.21743,"lon":5.3461,"is_reserved":false,"is_disabled":false,"rental_uris":{"android":"levelo://app?vid=14031425-56fe-4d59-8635-56f17d050a85","ios":"levelo://app?vid=14031425-56fe-4d59-8635-56f17d050a85"},"vehicle_type_id":"4","last_reported":1744118457,"current_range_meters":11200,"station_id":"st_cvj6r9ubvosntc0bgbag","pricing_plan_id":"cebpf4jnsgd1na2vs0mg"},{"bike_id":"83a176d9-cf67-44f4-ae2b-7d5da7971ade","system_id":"levelo_inurba_marseille","lat":43.29977,"lon":5.37181,"is_reserved":false,"is_disabled":false,"rental_uris":{"android":"levelo://app?vid=83a176d9-cf67-44f4-ae2b-7d5da7971ade","ios":"levelo://app?vid=83a176d9-cf67-44f4-ae2b-7d5da7971ade"},"vehicle_type_id":"4","last_reported":1744118457,"current_range_meters":11200,"station_id":"ce4bgr92rcd13ifvqc7g","pricing_plan_id":"cebpf4jnsgd1na2vs0mg"},{"bike_id":"f5a1cd1b-e744-408c-b818-d509102bafb0","system_id":"levelo_inurba_marseille","lat":43.26028,"lon":5.3754,"is_reserved":false,"is_disabled":false,"rental_uris":{"android":"levelo://app?vid=f5a1cd1b-e744-408c-b818-d509102bafb0","ios":"levelo://app?vid=f5a1cd1b-e744-408c-b818-d509102bafb0"},"vehicle_type_id":"4","last_reported":1744118457,"current_range_meters":11200,"station_id":"ce4bhgh2rcd13ifvqfa0","pricing_plan_id":"cebpf4jnsgd1na2vs0mg"},{"bike_id":"4af48280-972e-4331-a42c-8ad0c9df46e1","system_id":"levelo_inurba_marseille","lat":43.27361,"lon":5.36231,"is_reserved":false,"is_disabled":false,"rental_uris":{"android":"levelo://app?vid=4af48280-972e-4331-a42c-8ad0c9df46e1","ios":"levelo://app?vid=4af48280-972e-4331-a42c-8ad0c9df46e1"},"vehicle_type_id":"4","last_reported":1744118457,"current_range_meters":11200,"station_id":"ce4bhbh2rcd13ifvqeo0","pricing_plan_id":"cebpf4jnsgd1na2vs0mg"},{"bike_id":"68d1cc33-0218-451e-8e10-d32225c21263","system_id":"levelo_inurba_marseille","lat":43.23154,"lon":5.43682,"is_reserved":false,"is_disabled":true,"rental_uris":{"android":"levelo://app?vid=68d1cc33-0218-451e-8e10-d32225c21263","ios":"levelo://app?vid=68d1cc33-0218-451e-8e10-d32225c21263"},"vehicle_type_id":"4","last_reported":1744118457,"current_range_meters":11200,"station_id":"ce4bhmp2rcd13ifvqgog","pricing_plan_id":"cebpf4jnsgd1na2vs0mg"},{"bike_id":"4bacdaaa-7fb4-452a-b873-94dd24624c9a","system_id":"levelo_inurba_marseille","lat":43.314008,"lon":5.366886,"is_reserved":false,"is_disabled":false,"rental_uris":{"android":"levelo://app?vid=4bacdaaa-7fb4-452a-b873-94dd24624c9a","ios":"levelo://app?vid=4bacdaaa-7fb4-452a-b873-94dd24624c9a"},"vehicle_type_id":"4","last_reported":1744118457,"current_range_meters":11200,"station_id":"ce4bgr92rcd13ifvqc6g","pricing_plan_id":"cebpf4jnsgd1na2vs0mg"},{"bike_id":"1156812b-0144-40e5-9704-b83822215915","system_id":"levelo_inurba_marseille","lat":43.292003,"lon":5.358024,"is_reserved":false,"is_disabled":false,"rental_uris":{"android":"levelo://app?vid=1156812b-0144-40e5-9704-b83822215915","ios":"levelo://app?vid=1156812b-0144-40e5-9704-b83822215915"},"vehicle_type_id":"4","last_reported":1744118457,"current_range_meters":11600,"station_id":"ce4bhb12rcd13ifvqel0","pricing_plan_id":"cebpf4jnsgd1na2vs0mg"},{"bike_id":"618a37e2-f6e2-4c60-b0f8-cd81b37822fc","system_id":"levelo_inurba_marseille","lat":43.295167,"lon":5.375092,"is_reserved":false,"is_disabled":false,"rental_uris":{"android":"levelo://app?vid=618a37e2-f6e2-4c60-b0f8-cd81b37822fc","ios":"levelo://app?vid=618a37e2-f6e2-4c60-b0f8-cd81b37822fc"},"vehicle_type_id":"4","last_reported":1744118457,"current_range_meters":11600,"station_id":"ce4bgkp2rcd13ifvqbmg","pricing_plan_id":"cebpf4jnsgd1na2vs0mg"},{"bike_id":"8707e44c-dd0e-413f-87fc-7b5f1f4409c1","system_id":"levelo_inurba_marseille","lat":43.28855,"lon":5.35864,"is_reserved":false,"is_disabled":false,"rental_uris":{"android":"levelo://app?vid=8707e44c-dd0e-413f-87fc-7b5f1f4409c1","ios":"levelo://app?vid=8707e44c-dd0e-413f-87fc-7b5f1f4409c1"},"vehicle_type_id":"4","last_reported":1744118457,"current_range_meters":11600,"station_id":"ce4bhb12rcd13ifvqem0","pricing_plan_id":"cebpf4jnsgd1na2vs0mg"},{"bike_id":"5f11688d-b62b-4562-ac08-c3ff1e4d72a1","system_id":"levelo_inurba_marseille","lat":43.28157,"lon":5.42647,"is_reserved":false,"is_disabled":false,"rental_uris":{"android":"levelo://app?vid=5f11688d-b62b-4562-ac08-c3ff1e4d72a1","ios":"levelo://app?vid=5f11688d-b62b-4562-ac08-c3ff1e4d72a1"},"vehicle_type_id":"4","last_reported":1744118457,"current_range_meters":11200,"station_id":"ce4bhnh2rcd13ifvqgug","pricing_plan_id":"cebpf4jnsgd1na2vs0mg"},{"bike_id":"ee22328b-554a-4b1a-b84c-e86b9e5143a2","system_id":"levelo_inurba_marseille","lat":43.2738,"lon":5.3626,"is_reserved":false,"is_disabled":false,"rental_uris":{"android":"levelo://app?vid=ee22328b-554a-4b1a-b84c-e86b9e5143a2","ios":"levelo://app?vid=ee22328b-554a-4b1a-b84c-e86b9e5143a2"},"vehicle_type_id":"4","last_reported":1744118457,"current_range_meters":11600,"station_id":"ce4bhbh2rcd13ifvqeo0","pricing_plan_id":"cebpf4jnsgd1na2vs0mg"},{"bike_id":"43a6e851-c3b6-44f5-a2ca-e63489086d6e","system_id":"levelo_inurba_marseille","lat":43.21741,"lon":5.34612,"is_reserved":false,"is_disabled":false,"rental_uris":{"android":"levelo://app?vid=43a6e851-c3b6-44f5-a2ca-e63489086d6e","ios":"levelo://app?vid=43a6e851-c3b6-44f5-a2ca-e63489086d6e"},"vehicle_type_id":"4","last_reported":1744118457,"current_range_meters":11600,"station_id":"st_cvj6r9ubvosntc0bgbag","pricing_plan_id":"cebpf4jnsgd1na2vs0mg"},{"bike_id":"65fcbb35-f94c-4eda-8aae-880ee014924c","system_id":"levelo_inurba_marseille","lat":43.23128,"lon":5.43772,"is_reserved":false,"is_disabled":false,"rental_uris":{"android":"levelo://app?vid=65fcbb35-f94c-4eda-8aae-880ee014924c","ios":"levelo://app?vid=65fcbb35-f94c-4eda-8aae-880ee014924c"},"vehicle_type_id":"4","last_reported":1744118457,"current_range_meters":11600,"station_id":"","pricing_plan_id":"cebpf4jnsgd1na2vs0mg"},{"bike_id":"ffca35fb-9f06-4972-a98a-693002aa2868","system_id":"levelo_inurba_marseille","lat":43.29404,"lon":5.3859,"is_reserved":false,"is_disabled":false,"rental_uris":{"android":"levelo://app?vid=ffca35fb-9f06-4972-a98a-693002aa2868","ios":"levelo://app?vid=ffca35fb-9f06-4972-a98a-693002aa2868"},"vehicle_type_id":"4","last_reported":1744118457,"current_range_meters":11600,"station_id":"ce4bh2h2rcd13ifvqdh0","pricing_plan_id":"cebpf4jnsgd1na2vs0mg"},{"bike_id":"8fa57195-54aa-4647-9471-15c741dc1f00","system_id":"levelo_inurba_marseille","lat":43.29044,"lon":5.35914,"is_reserved":false,"is_disabled":false,"rental_uris":{"android":"levelo://app?vid=8fa57195-54aa-4647-9471-15c741dc1f00","ios":"levelo://app?vid=8fa57195-54aa-4647-9471-15c741dc1f00"},"vehicle_type_id":"4","last_reported":1744118457,"current_range_meters":11600,"station_id":"ce4bha92rcd13ifvqeg0","pricing_plan_id":"cebpf4jnsgd1na2vs0mg"},{"bike_id":"93e3fd92-d65f-4f36-ba40-a3e5476ebc87","system_id":"levelo_inurba_marseille","lat":43.30672,"lon":5.3657,"is_reserved":false,"is_disabled":false,"rental_uris":{"android":"levelo://app?vid=93e3fd92-d65f-4f36-ba40-a3e5476ebc87","ios":"levelo://app?vid=93e3fd92-d65f-4f36-ba40-a3e5476ebc87"},"vehicle_type_id":"4","last_reported":1744118457,"current_range_meters":12000,"station_id":"","pricing_plan_id":"cebpf4jnsgd1na2vs0mg"},{"bike_id":"311ffc55-dc15-4f2b-8075-3136d92a3444","system_id":"levelo_inurba_marseille","lat":43.21194,"lon":5.35071,"is_reserved":false,"is_disabled":false,"rental_uris":{"android":"levelo://app?vid=311ffc55-dc15-4f2b-8075-3136d92a3444","ios":"levelo://app?vid=311ffc55-dc15-4f2b-8075-3136d92a3444"},"vehicle_type_id":"4","last_reported":1744118457,"current_range_meters":12000,"station_id":"st_cvj6sg6p6f1abm77japg","pricing_plan_id":"cebpf4jnsgd1na2vs0mg"},{"bike_id":"5b808185-0a5a-48a8-8a34-81f7ce536aa8","system_id":"levelo_inurba_marseille","lat":43.2841,"lon":5.34979,"is_reserved":false,"is_disabled":false,"rental_uris":{"android":"levelo://app?vid=5b808185-0a5a-48a8-8a34-81f7ce536aa8","ios":"levelo://app?vid=5b808185-0a5a-48a8-8a34-81f7ce536aa8"},"vehicle_type_id":"4","last_reported":1744118457,"current_range_meters":12000,"station_id":"ce4bhbh2rcd13ifvqepg","pricing_plan_id":"cebpf4jnsgd1na2vs0mg"},{"bike_id":"8a7b9c87-c990-4f84-a408-582712cfad54","system_id":"levelo_inurba_marseille","lat":43.29916,"lon":5.37483,"is_reserved":false,"is_disabled":false,"rental_uris":{"android":"levelo://app?vid=8a7b9c87-c990-4f84-a408-582712cfad54","ios":"levelo://app?vid=8a7b9c87-c990-4f84-a408-582712cfad54"},"vehicle_type_id":"4","last_reported":1744118457,"current_range_meters":12000,"station_id":"ce4bgjh2rcd13ifvqbg0","pricing_plan_id":"cebpf4jnsgd1na2vs0mg"},{"bike_id":"e01eadc0-c3c2-48f6-8253-f241e5cace41","system_id":"levelo_inurba_marseille","lat":43.241516,"lon":5.364118,"is_reserved":false,"is_disabled":false,"rental_uris":{"android":"levelo://app?vid=e01eadc0-c3c2-48f6-8253-f241e5cace41","ios":"levelo://app?vid=e01eadc0-c3c2-48f6-8253-f241e5cace41"},"vehicle_type_id":"4","last_reported":1744118457,"current_range_meters":12000,"station_id":"cpo36qri1sfpv3e86is0","pricing_plan_id":"cebpf4jnsgd1na2vs0mg"},{"bike_id":"2a2bd6cc-71a0-48aa-b164-79cda08fe0c8","system_id":"levelo_inurba_marseille","lat":43.27379,"lon":5.36256,"is_reserved":false,"is_disabled":false,"rental_uris":{"android":"levelo://app?vid=2a2bd6cc-71a0-48aa-b164-79cda08fe0c8","ios":"levelo://app?vid=2a2bd6cc-71a0-48aa-b164-79cda08fe0c8"},"vehicle_type_id":"4","last_reported":1744118457,"current_range_meters":12400,"station_id":"ce4bhbh2rcd13ifvqeo0","pricing_plan_id":"cebpf4jnsgd1na2vs0mg"},{"bike_id":"3c0bc8e6-e01a-4c86-9548-0adc3597e1cc","system_id":"levelo_inurba_marseille","lat":43.24165,"lon":5.36398,"is_reserved":false,"is_disabled":false,"rental_uris":{"android":"levelo://app?vid=3c0bc8e6-e01a-4c86-9548-0adc3597e1cc","ios":"levelo://app?vid=3c0bc8e6-e01a-4c86-9548-0adc3597e1cc"},"vehicle_type_id":"4","last_reported":1744118457,"current_range_meters":12400,"station_id":"cpo36qri1sfpv3e86is0","pricing_plan_id":"cebpf4jnsgd1na2vs0mg"},{"bike_id":"1ca7d0c4-b7aa-4350-ad9f-4e24c2ba029a","system_id":"levelo_inurba_marseille","lat":43.30376,"lon":5.42486,"is_reserved":false,"is_disabled":true,"rental_uris":{"android":"levelo://app?vid=1ca7d0c4-b7aa-4350-ad9f-4e24c2ba029a","ios":"levelo://app?vid=1ca7d0c4-b7aa-4350-ad9f-4e24c2ba029a"},"vehicle_type_id":"4","last_reported":1744118457,"current_range_meters":12400,"station_id":"ce4bhoh2rcd13ifvqh6g","pricing_plan_id":"cebpf4jnsgd1na2vs0mg"},{"bike_id":"8fc21efd-0067-48f1-bcf3-65915481e4fa","system_id":"levelo_inurba_marseille","lat":43.2707,"lon":5.42277,"is_reserved":false,"is_disabled":false,"rental_uris":{"android":"levelo://app?vid=8fc21efd-0067-48f1-bcf3-65915481e4fa","ios":"levelo://app?vid=8fc21efd-0067-48f1-bcf3-65915481e4fa"},"vehicle_type_id":"4","last_reported":1744118457,"current_range_meters":12400,"station_id":"ce4bhk92rcd13ifvqgb0","pricing_plan_id":"cebpf4jnsgd1na2vs0mg"},{"bike_id":"08f9c0c8-8b33-4578-8a03-20f44d582241","system_id":"levelo_inurba_marseille","lat":43.30616,"lon":5.37181,"is_reserved":false,"is_disabled":false,"rental_uris":{"android":"levelo://app?vid=08f9c0c8-8b33-4578-8a03-20f44d582241","ios":"levelo://app?vid=08f9c0c8-8b33-4578-8a03-20f44d582241"},"vehicle_type_id":"4","last_reported":1744118457,"current_range_meters":12400,"station_id":"ce4bgqh2rcd13ifvqc4g","pricing_plan_id":"cebpf4jnsgd1na2vs0mg"},{"bike_id":"1beb47fb-f287-4516-a530-277403222a68","system_id":"levelo_inurba_marseille","lat":43.21748,"lon":5.34607,"is_reserved":false,"is_disabled":false,"rental_uris":{"android":"levelo://app?vid=1beb47fb-f287-4516-a530-277403222a68","ios":"levelo://app?vid=1beb47fb-f287-4516-a530-277403222a68"},"vehicle_type_id":"4","last_reported":1744118457,"current_range_meters":12400,"station_id":"","pricing_plan_id":"cebpf4jnsgd1na2vs0mg"},{"bike_id":"79f7c742-7a07-41c2-8d72-e26332499f67","system_id":"levelo_inurba_marseille","lat":43.28415,"lon":5.34996,"is_reserved":false,"is_disabled":false,"rental_uris":{"android":"levelo://app?vid=79f7c742-7a07-41c2-8d72-e26332499f67","ios":"levelo://app?vid=79f7c742-7a07-41c2-8d72-e26332499f67"},"vehicle_type_id":"4","last_reported":1744118457,"current_range_meters":12400,"station_id":"ce4bhbh2rcd13ifvqepg","pricing_plan_id":"cebpf4jnsgd1na2vs0mg"},{"bike_id":"7e38575f-a06e-4842-8493-5986bfafd4b8","system_id":"levelo_inurba_marseille","lat":43.30914,"lon":5.36839,"is_reserved":false,"is_disabled":false,"rental_uris":{"android":"levelo://app?vid=7e38575f-a06e-4842-8493-5986bfafd4b8","ios":"levelo://app?vid=7e38575f-a06e-4842-8493-5986bfafd4b8"},"vehicle_type_id":"4","last_reported":1744118457,"current_range_meters":12800,"station_id":"ce4bgn92rcd13ifvqbvg","pricing_plan_id":"cebpf4jnsgd1na2vs0mg"},{"bike_id":"326bb666-b75c-470a-bfe8-80e30aedf7fe","system_id":"levelo_inurba_marseille","lat":43.269905,"lon":5.392614,"is_reserved":false,"is_disabled":false,"rental_uris":{"android":"levelo://app?vid=326bb666-b75c-470a-bfe8-80e30aedf7fe","ios":"levelo://app?vid=326bb666-b75c-470a-bfe8-80e30aedf7fe"},"vehicle_type_id":"4","last_reported":1744118457,"current_range_meters":12800,"station_id":"ce4bh312rcd13ifvqdk0","pricing_plan_id":"cebpf4jnsgd1na2vs0mg"},{"bike_id":"c1ddebc7-049c-4ced-aa40-8db9d35457a2","system_id":"levelo_inurba_marseille","lat":43.31225,"lon":5.36866,"is_reserved":false,"is_disabled":false,"rental_uris":{"android":"levelo://app?vid=c1ddebc7-049c-4ced-aa40-8db9d35457a2","ios":"levelo://app?vid=c1ddebc7-049c-4ced-aa40-8db9d35457a2"},"vehicle_type_id":"4","last_reported":1744118457,"current_range_meters":12400,"station_id":"ce4bgl92rcd13ifvqbq0","pricing_plan_id":"cebpf4jnsgd1na2vs0mg"},{"bike_id":"37956fe4-5744-431d-afa2-d35a2b0e9346","system_id":"levelo_inurba_marseille","lat":43.31374,"lon":5.36686,"is_reserved":false,"is_disabled":false,"rental_uris":{"android":"levelo://app?vid=37956fe4-5744-431d-afa2-d35a2b0e9346","ios":"levelo://app?vid=37956fe4-5744-431d-afa2-d35a2b0e9346"},"vehicle_type_id":"4","last_reported":1744118457,"current_range_meters":12800,"station_id":"ce4bgr92rcd13ifvqc6g","pricing_plan_id":"cebpf4jnsgd1na2vs0mg"},{"bike_id":"af8dcfef-fdfa-48f5-baa4-02f9f174094d","system_id":"levelo_inurba_marseille","lat":43.29169,"lon":5.37159,"is_reserved":false,"is_disabled":false,"rental_uris":{"android":"levelo://app?vid=af8dcfef-fdfa-48f5-baa4-02f9f174094d","ios":"levelo://app?vid=af8dcfef-fdfa-48f5-baa4-02f9f174094d"},"vehicle_type_id":"4","last_reported":1744118457,"current_range_meters":12800,"station_id":"ce4bha92rcd13ifvqeh0","pricing_plan_id":"cebpf4jnsgd1na2vs0mg"},{"bike_id":"1c742ca1-3de1-4f3a-a7e8-0f2bb31fecde","system_id":"levelo_inurba_marseille","lat":43.28329,"lon":5.38643,"is_reserved":false,"is_disabled":false,"rental_uris":{"android":"levelo://app?vid=1c742ca1-3de1-4f3a-a7e8-0f2bb31fecde","ios":"levelo://app?vid=1c742ca1-3de1-4f3a-a7e8-0f2bb31fecde"},"vehicle_type_id":"4","last_reported":1744118457,"current_range_meters":12800,"station_id":"ce4bh492rcd13ifvqdvg","pricing_plan_id":"cebpf4jnsgd1na2vs0mg"},{"bike_id":"b397701f-0d3d-44bf-ab3e-3ccc7e74fb2e","system_id":"levelo_inurba_marseille","lat":43.2642,"lon":5.42324,"is_reserved":false,"is_disabled":false,"rental_uris":{"android":"levelo://app?vid=b397701f-0d3d-44bf-ab3e-3ccc7e74fb2e","ios":"levelo://app?vid=b397701f-0d3d-44bf-ab3e-3ccc7e74fb2e"},"vehicle_type_id":"4","last_reported":1744118457,"current_range_meters":12800,"station_id":"","pricing_plan_id":"cebpf4jnsgd1na2vs0mg"},{"bike_id":"34145812-0e18-49d8-ba9c-ca44c922ead0","system_id":"levelo_inurba_marseille","lat":43.248089,"lon":5.374599,"is_reserved":false,"is_disabled":false,"rental_uris":{"android":"levelo://app?vid=34145812-0e18-49d8-ba9c-ca44c922ead0","ios":"levelo://app?vid=34145812-0e18-49d8-ba9c-ca44c922ead0"},"vehicle_type_id":"4","last_reported":1744118457,"current_range_meters":13600,"station_id":"ce4bhgh2rcd13ifvqfb0","pricing_plan_id":"cebpf4jnsgd1na2vs0mg"},{"bike_id":"56ee759a-b574-4911-9e6e-32e32e9ade9a","system_id":"levelo_inurba_marseille","lat":43.28623,"lon":5.35106,"is_reserved":false,"is_disabled":false,"rental_uris":{"android":"levelo://app?vid=56ee759a-b574-4911-9e6e-32e32e9ade9a","ios":"levelo://app?vid=56ee759a-b574-4911-9e6e-32e32e9ade9a"},"vehicle_type_id":"4","last_reported":1744118457,"current_range_meters":13600,"station_id":"ce4bhch2rcd13ifvqeug","pricing_plan_id":"cebpf4jnsgd1na2vs0mg"},{"bike_id":"7cc05a6f-f6d3-4115-b0dc-3e32cdace27e","system_id":"levelo_inurba_marseille","lat":43.27372,"lon":5.36262,"is_reserved":false,"is_disabled":false,"rental_uris":{"android":"levelo://app?vid=7cc05a6f-f6d3-4115-b0dc-3e32cdace27e","ios":"levelo://app?vid=7cc05a6f-f6d3-4115-b0dc-3e32cdace27e"},"vehicle_type_id":"4","last_reported":1744118457,"current_range_meters":13600,"station_id":"ce4bhbh2rcd13ifvqeo0","pricing_plan_id":"cebpf4jnsgd1na2vs0mg"},{"bike_id":"fcba2fad-8717-4251-93ef-1b115b919533","system_id":"levelo_inurba_marseille","lat":43.27372,"lon":5.3626,"is_reserved":false,"is_disabled":false,"rental_uris":{"android":"levelo://app?vid=fcba2fad-8717-4251-93ef-1b115b919533","ios":"levelo://app?vid=fcba2fad-8717-4251-93ef-1b115b919533"},"vehicle_type_id":"4","last_reported":1744118457,"current_range_meters":13600,"station_id":"ce4bhbh2rcd13ifvqeo0","pricing_plan_id":"cebpf4jnsgd1na2vs0mg"},{"bike_id":"3b7ee1d6-18a1-436c-80ef-0981adce94e9","system_id":"levelo_inurba_marseille","lat":43.28699,"lon":5.37375,"is_reserved":false,"is_disabled":false,"rental_uris":{"android":"levelo://app?vid=3b7ee1d6-18a1-436c-80ef-0981adce94e9","ios":"levelo://app?vid=3b7ee1d6-18a1-436c-80ef-0981adce94e9"},"vehicle_type_id":"4","last_reported":1744118457,"current_range_meters":14000,"station_id":"ce4bh3p2rcd13ifvqdq0","pricing_plan_id":"cebpf4jnsgd1na2vs0mg"},{"bike_id":"12e26cec-275e-4bf1-8d01-ca30334b54f5","system_id":"levelo_inurba_marseille","lat":43.275571,"lon":5.384371,"is_reserved":false,"is_disabled":false,"rental_uris":{"android":"levelo://app?vid=12e26cec-275e-4bf1-8d01-ca30334b54f5","ios":"levelo://app?vid=12e26cec-275e-4bf1-8d01-ca30334b54f5"},"vehicle_type_id":"4","last_reported":1744118457,"current_range_meters":14000,"station_id":"ce4bhh92rcd13ifvqfi0","pricing_plan_id":"cebpf4jnsgd1na2vs0mg"},{"bike_id":"583aff7a-d1eb-475d-b0a5-743049ce2944","system_id":"levelo_inurba_marseille","lat":43.29176,"lon":5.35794,"is_reserved":false,"is_disabled":false,"rental_uris":{"android":"levelo://app?vid=583aff7a-d1eb-475d-b0a5-743049ce2944","ios":"levelo://app?vid=583aff7a-d1eb-475d-b0a5-743049ce2944"},"vehicle_type_id":"4","last_reported":1744118457,"current_range_meters":14000,"station_id":"ce4bhb12rcd13ifvqel0","pricing_plan_id":"cebpf4jnsgd1na2vs0mg"},{"bike_id":"0f3e1ef3-97ad-416c-afc2-fbd14b0a2b66","system_id":"levelo_inurba_marseille","lat":43.26027,"lon":5.37551,"is_reserved":false,"is_disabled":false,"rental_uris":{"android":"levelo://app?vid=0f3e1ef3-97ad-416c-afc2-fbd14b0a2b66","ios":"levelo://app?vid=0f3e1ef3-97ad-416c-afc2-fbd14b0a2b66"},"vehicle_type_id":"4","last_reported":1744118457,"current_range_meters":14000,"station_id":"ce4bhgh2rcd13ifvqfa0","pricing_plan_id":"cebpf4jnsgd1na2vs0mg"},{"bike_id":"d8e2a9e6-3388-4f3c-9b28-e32a52e64aed","system_id":"levelo_inurba_marseille","lat":43.28378,"lon":5.38626,"is_reserved":false,"is_disabled":false,"rental_uris":{"android":"levelo://app?vid=d8e2a9e6-3388-4f3c-9b28-e32a52e64aed","ios":"levelo://app?vid=d8e2a9e6-3388-4f3c-9b28-e32a52e64aed"},"vehicle_type_id":"4","last_reported":1744118457,"current_range_meters":14400,"station_id":"ce4bh492rcd13ifvqdvg","pricing_plan_id":"cebpf4jnsgd1na2vs0mg"},{"bike_id":"e369bf82-6cc6-437c-90e2-7dde304cbc2f","system_id":"levelo_inurba_marseille","lat":43.24164,"lon":5.36398,"is_reserved":false,"is_disabled":false,"rental_uris":{"android":"levelo://app?vid=e369bf82-6cc6-437c-90e2-7dde304cbc2f","ios":"levelo://app?vid=e369bf82-6cc6-437c-90e2-7dde304cbc2f"},"vehicle_type_id":"4","last_reported":1744118457,"current_range_meters":14400,"station_id":"cpo36qri1sfpv3e86is0","pricing_plan_id":"cebpf4jnsgd1na2vs0mg"},{"bike_id":"d9a00655-9937-4e00-82fd-08f0f84632ce","system_id":"levelo_inurba_marseille","lat":43.28371,"lon":5.38636,"is_reserved":false,"is_disabled":false,"rental_uris":{"android":"levelo://app?vid=d9a00655-9937-4e00-82fd-08f0f84632ce","ios":"levelo://app?vid=d9a00655-9937-4e00-82fd-08f0f84632ce"},"vehicle_type_id":"4","last_reported":1744118457,"current_range_meters":14400,"station_id":"ce4bh492rcd13ifvqdvg","pricing_plan_id":"cebpf4jnsgd1na2vs0mg"},{"bike_id":"852819f8-8577-46de-b1fa-432b264e47e4","system_id":"levelo_inurba_marseille","lat":43.24176,"lon":5.39739,"is_reserved":false,"is_disabled":false,"rental_uris":{"android":"levelo://app?vid=852819f8-8577-46de-b1fa-432b264e47e4","ios":"levelo://app?vid=852819f8-8577-46de-b1fa-432b264e47e4"},"vehicle_type_id":"4","last_reported":1744118457,"current_range_meters":14800,"station_id":"ce4bhn12rcd13ifvqgpg","pricing_plan_id":"cebpf4jnsgd1na2vs0mg"},{"bike_id":"c7a7cb72-094c-45dd-b3f0-e9ee814fbe54","system_id":"levelo_inurba_marseille","lat":43.22609,"lon":5.34833,"is_reserved":false,"is_disabled":false,"rental_uris":{"android":"levelo://app?vid=c7a7cb72-094c-45dd-b3f0-e9ee814fbe54","ios":"levelo://app?vid=c7a7cb72-094c-45dd-b3f0-e9ee814fbe54"},"vehicle_type_id":"4","last_reported":1744118457,"current_range_meters":14800,"station_id":"","pricing_plan_id":"cebpf4jnsgd1na2vs0mg"},{"bike_id":"938af3aa-4626-4b76-ab6f-c46a6f371448","system_id":"levelo_inurba_marseille","lat":43.21176,"lon":5.35059,"is_reserved":false,"is_disabled":false,"rental_uris":{"android":"levelo://app?vid=938af3aa-4626-4b76-ab6f-c46a6f371448","ios":"levelo://app?vid=938af3aa-4626-4b76-ab6f-c46a6f371448"},"vehicle_type_id":"4","last_reported":1744118457,"current_range_meters":14800,"station_id":"st_cvj6sg6p6f1abm77japg","pricing_plan_id":"cebpf4jnsgd1na2vs0mg"},{"bike_id":"8c33120b-fb8a-43fc-b964-011265f7c0c0","system_id":"levelo_inurba_marseille","lat":43.28612,"lon":5.351,"is_reserved":false,"is_disabled":false,"rental_uris":{"android":"levelo://app?vid=8c33120b-fb8a-43fc-b964-011265f7c0c0","ios":"levelo://app?vid=8c33120b-fb8a-43fc-b964-011265f7c0c0"},"vehicle_type_id":"4","last_reported":1744118457,"current_range_meters":15200,"station_id":"ce4bhch2rcd13ifvqeug","pricing_plan_id":"cebpf4jnsgd1na2vs0mg"},{"bike_id":"212262bf-83e8-4d7f-b43a-a3bd0d945ece","system_id":"levelo_inurba_marseille","lat":43.27206,"lon":5.41004,"is_reserved":false,"is_disabled":false,"rental_uris":{"android":"levelo://app?vid=212262bf-83e8-4d7f-b43a-a3bd0d945ece","ios":"levelo://app?vid=212262bf-83e8-4d7f-b43a-a3bd0d945ece"},"vehicle_type_id":"4","last_reported":1744118457,"current_range_meters":15200,"station_id":"ce4bhl12rcd13ifvqgf0","pricing_plan_id":"cebpf4jnsgd1na2vs0mg"},{"bike_id":"f45067cc-be62-48e0-a0bb-4ffbb6a9128d","system_id":"levelo_inurba_marseille","lat":43.279571,"lon":5.38751,"is_reserved":false,"is_disabled":false,"rental_uris":{"android":"levelo://app?vid=f45067cc-be62-48e0-a0bb-4ffbb6a9128d","ios":"levelo://app?vid=f45067cc-be62-48e0-a0bb-4ffbb6a9128d"},"vehicle_type_id":"4","last_reported":1744118457,"current_range_meters":16000,"station_id":"ce4bhg12rcd13ifvqf80","pricing_plan_id":"cebpf4jnsgd1na2vs0mg"},{"bike_id":"748d9fcc-75df-4b82-a50f-d9451ac1ca58","system_id":"levelo_inurba_marseille","lat":43.2418,"lon":5.39733,"is_reserved":false,"is_disabled":false,"rental_uris":{"android":"levelo://app?vid=748d9fcc-75df-4b82-a50f-d9451ac1ca58","ios":"levelo://app?vid=748d9fcc-75df-4b82-a50f-d9451ac1ca58"},"vehicle_type_id":"4","last_reported":1744118457,"current_range_meters":16000,"station_id":"ce4bhn12rcd13ifvqgpg","pricing_plan_id":"cebpf4jnsgd1na2vs0mg"},{"bike_id":"e24c6fd3-f9cb-40c7-9e57-dd2c20540e9b","system_id":"levelo_inurba_marseille","lat":43.31728,"lon":5.42393,"is_reserved":false,"is_disabled":false,"rental_uris":{"android":"levelo://app?vid=e24c6fd3-f9cb-40c7-9e57-dd2c20540e9b","ios":"levelo://app?vid=e24c6fd3-f9cb-40c7-9e57-dd2c20540e9b"},"vehicle_type_id":"4","last_reported":1744118457,"current_range_meters":16000,"station_id":"ce4bhp92rcd13ifvqhbg","pricing_plan_id":"cebpf4jnsgd1na2vs0mg"},{"bike_id":"b3eaef5b-dac9-4f1e-aa7e-dd808d1ba556","system_id":"levelo_inurba_marseille","lat":43.31416,"lon":5.36781,"is_reserved":false,"is_disabled":false,"rental_uris":{"android":"levelo://app?vid=b3eaef5b-dac9-4f1e-aa7e-dd808d1ba556","ios":"levelo://app?vid=b3eaef5b-dac9-4f1e-aa7e-dd808d1ba556"},"vehicle_type_id":"4","last_reported":1744118457,"current_range_meters":16000,"station_id":"","pricing_plan_id":"cebpf4jnsgd1na2vs0mg"},{"bike_id":"f803935a-7a8a-4d2b-826e-9d542705b391","system_id":"levelo_inurba_marseille","lat":43.28412,"lon":5.349835,"is_reserved":false,"is_disabled":false,"rental_uris":{"android":"levelo://app?vid=f803935a-7a8a-4d2b-826e-9d542705b391","ios":"levelo://app?vid=f803935a-7a8a-4d2b-826e-9d542705b391"},"vehicle_type_id":"4","last_reported":1744118457,"current_range_meters":16000,"station_id":"ce4bhbh2rcd13ifvqepg","pricing_plan_id":"cebpf4jnsgd1na2vs0mg"},{"bike_id":"1ecfe663-d5de-455c-92ba-44abbcf46bc4","system_id":"levelo_inurba_marseille","lat":43.27948,"lon":5.41049,"is_reserved":false,"is_disabled":false,"rental_uris":{"android":"levelo://app?vid=1ecfe663-d5de-455c-92ba-44abbcf46bc4","ios":"levelo://app?vid=1ecfe663-d5de-455c-92ba-44abbcf46bc4"},"vehicle_type_id":"4","last_reported":1744118457,"current_range_meters":16000,"station_id":"ce4bhnp2rcd13ifvqh0g","pricing_plan_id":"cebpf4jnsgd1na2vs0mg"},{"bike_id":"d220da27-bb5e-4ca4-b262-16736cac0246","system_id":"levelo_inurba_marseille","lat":43.284192,"lon":5.349835,"is_reserved":false,"is_disabled":false,"rental_uris":{"android":"levelo://app?vid=d220da27-bb5e-4ca4-b262-16736cac0246","ios":"levelo://app?vid=d220da27-bb5e-4ca4-b262-16736cac0246"},"vehicle_type_id":"4","last_reported":1744118457,"current_range_meters":16400,"station_id":"ce4bhbh2rcd13ifvqepg","pricing_plan_id":"cebpf4jnsgd1na2vs0mg"},{"bike_id":"ffd23061-d90c-47a4-89fb-f1646bcdff1c","system_id":"levelo_inurba_marseille","lat":43.270672,"lon":5.422804,"is_reserved":false,"is_disabled":false,"rental_uris":{"android":"levelo://app?vid=ffd23061-d90c-47a4-89fb-f1646bcdff1c","ios":"levelo://app?vid=ffd23061-d90c-47a4-89fb-f1646bcdff1c"},"vehicle_type_id":"4","last_reported":1744118457,"current_range_meters":16400,"station_id":"ce4bhk92rcd13ifvqgb0","pricing_plan_id":"cebpf4jnsgd1na2vs0mg"},{"bike_id":"f7ff1ebd-5356-4afa-9917-9c09b46ced83","system_id":"levelo_inurba_marseille","lat":43.29976,"lon":5.37179,"is_reserved":false,"is_disabled":false,"rental_uris":{"android":"levelo://app?vid=f7ff1ebd-5356-4afa-9917-9c09b46ced83","ios":"levelo://app?vid=f7ff1ebd-5356-4afa-9917-9c09b46ced83"},"vehicle_type_id":"4","last_reported":1744118457,"current_range_meters":16400,"station_id":"ce4bgr92rcd13ifvqc7g","pricing_plan_id":"cebpf4jnsgd1na2vs0mg"},{"bike_id":"92c822fe-ff9f-4023-a7a2-fe479a6e58f0","system_id":"levelo_inurba_marseille","lat":43.30508,"lon":5.36575,"is_reserved":false,"is_disabled":false,"rental_uris":{"android":"levelo://app?vid=92c822fe-ff9f-4023-a7a2-fe479a6e58f0","ios":"levelo://app?vid=92c822fe-ff9f-4023-a7a2-fe479a6e58f0"},"vehicle_type_id":"4","last_reported":1744118457,"current_range_meters":16400,"station_id":"ce4bgs12rcd13ifvqcag","pricing_plan_id":"cebpf4jnsgd1na2vs0mg"},{"bike_id":"f72f75a5-43f0-45ff-942a-fd3cc84b7d49","system_id":"levelo_inurba_marseille","lat":43.27377,"lon":5.36263,"is_reserved":false,"is_disabled":false,"rental_uris":{"android":"levelo://app?vid=f72f75a5-43f0-45ff-942a-fd3cc84b7d49","ios":"levelo://app?vid=f72f75a5-43f0-45ff-942a-fd3cc84b7d49"},"vehicle_type_id":"4","last_reported":1744118457,"current_range_meters":16400,"station_id":"ce4bhbh2rcd13ifvqeo0","pricing_plan_id":"cebpf4jnsgd1na2vs0mg"},{"bike_id":"0e861616-91dc-4cbf-90d1-ebc87b436544","system_id":"levelo_inurba_marseille","lat":43.26679,"lon":5.38273,"is_reserved":false,"is_disabled":false,"rental_uris":{"android":"levelo://app?vid=0e861616-91dc-4cbf-90d1-ebc87b436544","ios":"levelo://app?vid=0e861616-91dc-4cbf-90d1-ebc87b436544"},"vehicle_type_id":"4","last_reported":1744118457,"current_range_meters":16400,"station_id":"ce4bhg92rcd13ifvqf90","pricing_plan_id":"cebpf4jnsgd1na2vs0mg"},{"bike_id":"8de911fb-750c-45f4-afe3-d7903f67d759","system_id":"levelo_inurba_marseille","lat":43.28421,"lon":5.34943,"is_reserved":false,"is_disabled":false,"rental_uris":{"android":"levelo://app?vid=8de911fb-750c-45f4-afe3-d7903f67d759","ios":"levelo://app?vid=8de911fb-750c-45f4-afe3-d7903f67d759"},"vehicle_type_id":"4","last_reported":1744118457,"current_range_meters":16400,"station_id":"ce4bhbh2rcd13ifvqepg","pricing_plan_id":"cebpf4jnsgd1na2vs0mg"},{"bike_id":"a5bf324b-6624-46c7-92fc-6d1fd408e910","system_id":"levelo_inurba_marseille","lat":43.25496,"lon":5.37648,"is_reserved":false,"is_disabled":false,"rental_uris":{"android":"levelo://app?vid=a5bf324b-6624-46c7-92fc-6d1fd408e910","ios":"levelo://app?vid=a5bf324b-6624-46c7-92fc-6d1fd408e910"},"vehicle_type_id":"4","last_reported":1744118457,"current_range_meters":16800,"station_id":"ce4bhh12rcd13ifvqff0","pricing_plan_id":"cebpf4jnsgd1na2vs0mg"},{"bike_id":"fa8852e0-62ef-47bd-a664-05ff3f59b709","system_id":"levelo_inurba_marseille","lat":43.28269,"lon":5.35103,"is_reserved":false,"is_disabled":false,"rental_uris":{"android":"levelo://app?vid=fa8852e0-62ef-47bd-a664-05ff3f59b709","ios":"levelo://app?vid=fa8852e0-62ef-47bd-a664-05ff3f59b709"},"vehicle_type_id":"4","last_reported":1744118457,"current_range_meters":16800,"station_id":"ce4bhbp2rcd13ifvqerg","pricing_plan_id":"cebpf4jnsgd1na2vs0mg"},{"bike_id":"85a76ecc-4c66-47d9-b042-bbda4482e9a2","system_id":"levelo_inurba_marseille","lat":43.28041,"lon":5.3694,"is_reserved":false,"is_disabled":false,"rental_uris":{"android":"levelo://app?vid=85a76ecc-4c66-47d9-b042-bbda4482e9a2","ios":"levelo://app?vid=85a76ecc-4c66-47d9-b042-bbda4482e9a2"},"vehicle_type_id":"4","last_reported":1744118457,"current_range_meters":16800,"station_id":"ce4bha12rcd13ifvqef0","pricing_plan_id":"cebpf4jnsgd1na2vs0mg"},{"bike_id":"e3a075bc-c2a0-4881-9d1f-7180b41b96ab","system_id":"levelo_inurba_marseille","lat":43.29197,"lon":5.35804,"is_reserved":false,"is_disabled":false,"rental_uris":{"android":"levelo://app?vid=e3a075bc-c2a0-4881-9d1f-7180b41b96ab","ios":"levelo://app?vid=e3a075bc-c2a0-4881-9d1f-7180b41b96ab"},"vehicle_type_id":"4","last_reported":1744118457,"current_range_meters":16800,"station_id":"ce4bhb12rcd13ifvqel0","pricing_plan_id":"cebpf4jnsgd1na2vs0mg"},{"bike_id":"88612524-8167-4fa9-ae7c-9dd44def2836","system_id":"levelo_inurba_marseille","lat":43.26054,"lon":5.39407,"is_reserved":false,"is_disabled":false,"rental_uris":{"android":"levelo://app?vid=88612524-8167-4fa9-ae7c-9dd44def2836","ios":"levelo://app?vid=88612524-8167-4fa9-ae7c-9dd44def2836"},"vehicle_type_id":"4","last_reported":1744118457,"current_range_meters":16800,"station_id":"ce4bhh92rcd13ifvqfj0","pricing_plan_id":"cebpf4jnsgd1na2vs0mg"},{"bike_id":"6457813b-91c8-4881-a63f-4f6ecbd16b2f","system_id":"levelo_inurba_marseille","lat":43.28613,"lon":5.35104,"is_reserved":false,"is_disabled":false,"rental_uris":{"android":"levelo://app?vid=6457813b-91c8-4881-a63f-4f6ecbd16b2f","ios":"levelo://app?vid=6457813b-91c8-4881-a63f-4f6ecbd16b2f"},"vehicle_type_id":"4","last_reported":1744118457,"current_range_meters":17200,"station_id":"ce4bhch2rcd13ifvqeug","pricing_plan_id":"cebpf4jnsgd1na2vs0mg"},{"bike_id":"dbfa32e4-24da-4d08-a578-195394b3cd2f","system_id":"levelo_inurba_marseille","lat":43.32366,"lon":5.36757,"is_reserved":false,"is_disabled":false,"rental_uris":{"android":"levelo://app?vid=dbfa32e4-24da-4d08-a578-195394b3cd2f","ios":"levelo://app?vid=dbfa32e4-24da-4d08-a578-195394b3cd2f"},"vehicle_type_id":"4","last_reported":1744118457,"current_range_meters":17200,"station_id":"ce4bhsh2rcd13ifvqi2g","pricing_plan_id":"cebpf4jnsgd1na2vs0mg"},{"bike_id":"d46e5bcc-bebe-4e68-85ae-1b5c7bda16d2","system_id":"levelo_inurba_marseille","lat":43.2549,"lon":5.37649,"is_reserved":false,"is_disabled":false,"rental_uris":{"android":"levelo://app?vid=d46e5bcc-bebe-4e68-85ae-1b5c7bda16d2","ios":"levelo://app?vid=d46e5bcc-bebe-4e68-85ae-1b5c7bda16d2"},"vehicle_type_id":"4","last_reported":1744118457,"current_range_meters":17200,"station_id":"ce4bhh12rcd13ifvqff0","pricing_plan_id":"cebpf4jnsgd1na2vs0mg"},{"bike_id":"d5c0918c-4021-4f5a-a2cb-a74b493b3636","system_id":"levelo_inurba_marseille","lat":43.24163,"lon":5.36419,"is_reserved":false,"is_disabled":false,"rental_uris":{"android":"levelo://app?vid=d5c0918c-4021-4f5a-a2cb-a74b493b3636","ios":"levelo://app?vid=d5c0918c-4021-4f5a-a2cb-a74b493b3636"},"vehicle_type_id":"4","last_reported":1744118457,"current_range_meters":17200,"station_id":"cpo36qri1sfpv3e86is0","pricing_plan_id":"cebpf4jnsgd1na2vs0mg"},{"bike_id":"751f49c6-0d4c-4ae9-887d-988223464eb0","system_id":"levelo_inurba_marseille","lat":43.25829,"lon":5.3942,"is_reserved":false,"is_disabled":false,"rental_uris":{"android":"levelo://app?vid=751f49c6-0d4c-4ae9-887d-988223464eb0","ios":"levelo://app?vid=751f49c6-0d4c-4ae9-887d-988223464eb0"},"vehicle_type_id":"4","last_reported":1744118457,"current_range_meters":17200,"station_id":"ce4bhip2rcd13ifvqft0","pricing_plan_id":"cebpf4jnsgd1na2vs0mg"},{"bike_id":"a39ff9c3-8391-4246-bc08-bfe789d104d3","system_id":"levelo_inurba_marseille","lat":43.31219,"lon":5.36861,"is_reserved":false,"is_disabled":false,"rental_uris":{"android":"levelo://app?vid=a39ff9c3-8391-4246-bc08-bfe789d104d3","ios":"levelo://app?vid=a39ff9c3-8391-4246-bc08-bfe789d104d3"},"vehicle_type_id":"4","last_reported":1744118457,"current_range_meters":17200,"station_id":"ce4bgl92rcd13ifvqbq0","pricing_plan_id":"cebpf4jnsgd1na2vs0mg"},{"bike_id":"5273534c-3473-4abd-9c4b-e677a5c1499a","system_id":"levelo_inurba_marseille","lat":43.29037,"lon":5.36962,"is_reserved":false,"is_disabled":false,"rental_uris":{"android":"levelo://app?vid=5273534c-3473-4abd-9c4b-e677a5c1499a","ios":"levelo://app?vid=5273534c-3473-4abd-9c4b-e677a5c1499a"},"vehicle_type_id":"4","last_reported":1744118457,"current_range_meters":17200,"station_id":"","pricing_plan_id":"cebpf4jnsgd1na2vs0mg"},{"bike_id":"df9edebf-c777-4f30-bf47-25151b4b19e8","system_id":"levelo_inurba_marseille","lat":43.295251,"lon":5.390466,"is_reserved":false,"is_disabled":false,"rental_uris":{"android":"levelo://app?vid=df9edebf-c777-4f30-bf47-25151b4b19e8","ios":"levelo://app?vid=df9edebf-c777-4f30-bf47-25151b4b19e8"},"vehicle_type_id":"4","last_reported":1744118457,"current_range_meters":17600,"station_id":"ce4bh3p2rcd13ifvqdp0","pricing_plan_id":"cebpf4jnsgd1na2vs0mg"},{"bike_id":"1e099cf5-9456-4ac3-8d36-9153ce8a87f2","system_id":"levelo_inurba_marseille","lat":43.2957,"lon":5.39974,"is_reserved":false,"is_disabled":true,"rental_uris":{"android":"levelo://app?vid=1e099cf5-9456-4ac3-8d36-9153ce8a87f2","ios":"levelo://app?vid=1e099cf5-9456-4ac3-8d36-9153ce8a87f2"},"vehicle_type_id":"4","last_reported":1744118457,"current_range_meters":17600,"station_id":"ce4bh312rcd13ifvqdj0","pricing_plan_id":"cebpf4jnsgd1na2vs0mg"},{"bike_id":"27768073-dde6-48e9-bf13-e40e2934834a","system_id":"levelo_inurba_marseille","lat":43.24188,"lon":5.39747,"is_reserved":false,"is_disabled":false,"rental_uris":{"android":"levelo://app?vid=27768073-dde6-48e9-bf13-e40e2934834a","ios":"levelo://app?vid=27768073-dde6-48e9-bf13-e40e2934834a"},"vehicle_type_id":"4","last_reported":1744118457,"current_range_meters":17600,"station_id":"ce4bhn12rcd13ifvqgpg","pricing_plan_id":"cebpf4jnsgd1na2vs0mg"},{"bike_id":"a9ce02d2-2081-43e3-b401-9fedc6f7b84a","system_id":"levelo_inurba_marseille","lat":43.28999,"lon":5.35615,"is_reserved":false,"is_disabled":false,"rental_uris":{"android":"levelo://app?vid=a9ce02d2-2081-43e3-b401-9fedc6f7b84a","ios":"levelo://app?vid=a9ce02d2-2081-43e3-b401-9fedc6f7b84a"},"vehicle_type_id":"4","last_reported":1744118457,"current_range_meters":17600,"station_id":"ce4bhb92rcd13ifvqen0","pricing_plan_id":"cebpf4jnsgd1na2vs0mg"},{"bike_id":"ad0ffa71-34fe-45a7-bf4c-e33cb25ec4af","system_id":"levelo_inurba_marseille","lat":43.30545,"lon":5.36682,"is_reserved":false,"is_disabled":false,"rental_uris":{"android":"levelo://app?vid=ad0ffa71-34fe-45a7-bf4c-e33cb25ec4af","ios":"levelo://app?vid=ad0ffa71-34fe-45a7-bf4c-e33cb25ec4af"},"vehicle_type_id":"4","last_reported":1744118457,"current_range_meters":17600,"station_id":"ce4bgrp2rcd13ifvqc9g","pricing_plan_id":"cebpf4jnsgd1na2vs0mg"},{"bike_id":"33586a7c-f52a-4f7d-9e96-bb7e2cca08c4","system_id":"levelo_inurba_marseille","lat":43.28616,"lon":5.35101,"is_reserved":false,"is_disabled":false,"rental_uris":{"android":"levelo://app?vid=33586a7c-f52a-4f7d-9e96-bb7e2cca08c4","ios":"levelo://app?vid=33586a7c-f52a-4f7d-9e96-bb7e2cca08c4"},"vehicle_type_id":"4","last_reported":1744118457,"current_range_meters":17600,"station_id":"ce4bhch2rcd13ifvqeug","pricing_plan_id":"cebpf4jnsgd1na2vs0mg"},{"bike_id":"1507eb6f-c3a1-464b-9789-376a9dd30e05","system_id":"levelo_inurba_marseille","lat":43.2931,"lon":5.37169,"is_reserved":false,"is_disabled":false,"rental_uris":{"android":"levelo://app?vid=1507eb6f-c3a1-464b-9789-376a9dd30e05","ios":"levelo://app?vid=1507eb6f-c3a1-464b-9789-376a9dd30e05"},"vehicle_type_id":"4","last_reported":1744118457,"current_range_meters":17600,"station_id":"ce4bgh92rcd13ifvqb40","pricing_plan_id":"cebpf4jnsgd1na2vs0mg"},{"bike_id":"6995c95e-e12f-499b-a4fc-347df14b734e","system_id":"levelo_inurba_marseille","lat":43.28616,"lon":5.35106,"is_reserved":false,"is_disabled":false,"rental_uris":{"android":"levelo://app?vid=6995c95e-e12f-499b-a4fc-347df14b734e","ios":"levelo://app?vid=6995c95e-e12f-499b-a4fc-347df14b734e"},"vehicle_type_id":"4","last_reported":1744118457,"current_range_meters":17600,"station_id":"ce4bhch2rcd13ifvqeug","pricing_plan_id":"cebpf4jnsgd1na2vs0mg"},{"bike_id":"81e702f7-3627-4343-b728-a95dcc1b560f","system_id":"levelo_inurba_marseille","lat":43.32469,"lon":5.36543,"is_reserved":false,"is_disabled":false,"rental_uris":{"android":"levelo://app?vid=81e702f7-3627-4343-b728-a95dcc1b560f","ios":"levelo://app?vid=81e702f7-3627-4343-b728-a95dcc1b560f"},"vehicle_type_id":"4","last_reported":1744118457,"current_range_meters":17600,"station_id":"ce4bhs12rcd13ifvqhvg","pricing_plan_id":"cebpf4jnsgd1na2vs0mg"},{"bike_id":"475188f2-5fc2-458b-a101-5bb4c1362466","system_id":"levelo_inurba_marseille","lat":43.33722,"lon":5.39208,"is_reserved":false,"is_disabled":false,"rental_uris":{"android":"levelo://app?vid=475188f2-5fc2-458b-a101-5bb4c1362466","ios":"levelo://app?vid=475188f2-5fc2-458b-a101-5bb4c1362466"},"vehicle_type_id":"4","last_reported":1744118457,"current_range_meters":18000,"station_id":"ce4bhr92rcd13ifvqhsg","pricing_plan_id":"cebpf4jnsgd1na2vs0mg"},{"bike_id":"02a22138-b424-4865-9b67-fe88fe2fea9a","system_id":"levelo_inurba_marseille","lat":43.248079,"lon":5.374572,"is_reserved":false,"is_disabled":false,"rental_uris":{"android":"levelo://app?vid=02a22138-b424-4865-9b67-fe88fe2fea9a","ios":"levelo://app?vid=02a22138-b424-4865-9b67-fe88fe2fea9a"},"vehicle_type_id":"4","last_reported":1744118457,"current_range_meters":18000,"station_id":"ce4bhgh2rcd13ifvqfb0","pricing_plan_id":"cebpf4jnsgd1na2vs0mg"},{"bike_id":"8da7e182-e861-4dc8-b9db-124368a227c9","system_id":"levelo_inurba_marseille","lat":43.32984,"lon":5.39039,"is_reserved":false,"is_disabled":false,"rental_uris":{"android":"levelo://app?vid=8da7e182-e861-4dc8-b9db-124368a227c9","ios":"levelo://app?vid=8da7e182-e861-4dc8-b9db-124368a227c9"},"vehicle_type_id":"4","last_reported":1744118457,"current_range_meters":18000,"station_id":"ce4bhr92rcd13ifvqhrg","pricing_plan_id":"cebpf4jnsgd1na2vs0mg"},{"bike_id":"d66a8634-f740-4817-a472-47ae6c94e172","system_id":"levelo_inurba_marseille","lat":43.28946,"lon":5.36403,"is_reserved":false,"is_disabled":false,"rental_uris":{"android":"levelo://app?vid=d66a8634-f740-4817-a472-47ae6c94e172","ios":"levelo://app?vid=d66a8634-f740-4817-a472-47ae6c94e172"},"vehicle_type_id":"4","last_reported":1744118457,"current_range_meters":17600,"station_id":"ce4bhc92rcd13ifvqetg","pricing_plan_id":"cebpf4jnsgd1na2vs0mg"},{"bike_id":"52dfef30-eef0-4dd6-a138-a48c8dcc2c3a","system_id":"levelo_inurba_marseille","lat":43.304,"lon":5.4277,"is_reserved":false,"is_disabled":true,"rental_uris":{"android":"levelo://app?vid=52dfef30-eef0-4dd6-a138-a48c8dcc2c3a","ios":"levelo://app?vid=52dfef30-eef0-4dd6-a138-a48c8dcc2c3a"},"vehicle_type_id":"4","last_reported":1744118457,"current_range_meters":18000,"station_id":"","pricing_plan_id":"cebpf4jnsgd1na2vs0mg"},{"bike_id":"b37944fb-f9c1-4c8e-ac3a-9da227afb433","system_id":"levelo_inurba_marseille","lat":43.307983,"lon":5.381411,"is_reserved":false,"is_disabled":true,"rental_uris":{"android":"levelo://app?vid=b37944fb-f9c1-4c8e-ac3a-9da227afb433","ios":"levelo://app?vid=b37944fb-f9c1-4c8e-ac3a-9da227afb433"},"vehicle_type_id":"4","last_reported":1744118457,"current_range_meters":18000,"station_id":"ce4bgt12rcd13ifvqce0","pricing_plan_id":"cebpf4jnsgd1na2vs0mg"},{"bike_id":"9f2d0244-f31e-4b70-a107-9fcab4aa7eae","system_id":"levelo_inurba_marseille","lat":43.27381,"lon":5.36261,"is_reserved":false,"is_disabled":false,"rental_uris":{"android":"levelo://app?vid=9f2d0244-f31e-4b70-a107-9fcab4aa7eae","ios":"levelo://app?vid=9f2d0244-f31e-4b70-a107-9fcab4aa7eae"},"vehicle_type_id":"4","last_reported":1744118457,"current_range_meters":18000,"station_id":"ce4bhbh2rcd13ifvqeo0","pricing_plan_id":"cebpf4jnsgd1na2vs0mg"},{"bike_id":"9b037c0e-68e8-413d-9e6f-c325a966579e","system_id":"levelo_inurba_marseille","lat":43.30552,"lon":5.36554,"is_reserved":false,"is_disabled":false,"rental_uris":{"android":"levelo://app?vid=9b037c0e-68e8-413d-9e6f-c325a966579e","ios":"levelo://app?vid=9b037c0e-68e8-413d-9e6f-c325a966579e"},"vehicle_type_id":"4","last_reported":1744118457,"current_range_meters":18800,"station_id":"ce4bgs12rcd13ifvqcag","pricing_plan_id":"cebpf4jnsgd1na2vs0mg"},{"bike_id":"917918aa-95e0-49a4-8732-8e772cc60c59","system_id":"levelo_inurba_marseille","lat":43.22506,"lon":5.34784,"is_reserved":false,"is_disabled":false,"rental_uris":{"android":"levelo://app?vid=917918aa-95e0-49a4-8732-8e772cc60c59","ios":"levelo://app?vid=917918aa-95e0-49a4-8732-8e772cc60c59"},"vehicle_type_id":"4","last_reported":1744118457,"current_range_meters":18800,"station_id":"st_cvj5dfep6f1abm77gieg","pricing_plan_id":"cebpf4jnsgd1na2vs0mg"},{"bike_id":"5d666951-aef9-42ae-93fc-25b14a96582d","system_id":"levelo_inurba_marseille","lat":43.27952,"lon":5.41051,"is_reserved":false,"is_disabled":false,"rental_uris":{"android":"levelo://app?vid=5d666951-aef9-42ae-93fc-25b14a96582d","ios":"levelo://app?vid=5d666951-aef9-42ae-93fc-25b14a96582d"},"vehicle_type_id":"4","last_reported":1744118457,"current_range_meters":18800,"station_id":"ce4bhnp2rcd13ifvqh0g","pricing_plan_id":"cebpf4jnsgd1na2vs0mg"},{"bike_id":"d1ab4a48-3ebf-4448-991f-741c70a9cfa1","system_id":"levelo_inurba_marseille","lat":43.28417,"lon":5.34991,"is_reserved":false,"is_disabled":false,"rental_uris":{"android":"levelo://app?vid=d1ab4a48-3ebf-4448-991f-741c70a9cfa1","ios":"levelo://app?vid=d1ab4a48-3ebf-4448-991f-741c70a9cfa1"},"vehicle_type_id":"4","last_reported":1744118457,"current_range_meters":18800,"station_id":"ce4bhbh2rcd13ifvqepg","pricing_plan_id":"cebpf4jnsgd1na2vs0mg"},{"bike_id":"6e5ac126-c372-4a39-b836-bcab5ad1f2e7","system_id":"levelo_inurba_marseille","lat":43.24171,"lon":5.36404,"is_reserved":false,"is_disabled":false,"rental_uris":{"android":"levelo://app?vid=6e5ac126-c372-4a39-b836-bcab5ad1f2e7","ios":"levelo://app?vid=6e5ac126-c372-4a39-b836-bcab5ad1f2e7"},"vehicle_type_id":"4","last_reported":1744118457,"current_range_meters":19200,"station_id":"cpo36qri1sfpv3e86is0","pricing_plan_id":"cebpf4jnsgd1na2vs0mg"},{"bike_id":"ffa44d8b-2d4b-416a-a68e-6f2cf44e1fea","system_id":"levelo_inurba_marseille","lat":43.27374,"lon":5.36262,"is_reserved":false,"is_disabled":false,"rental_uris":{"android":"levelo://app?vid=ffa44d8b-2d4b-416a-a68e-6f2cf44e1fea","ios":"levelo://app?vid=ffa44d8b-2d4b-416a-a68e-6f2cf44e1fea"},"vehicle_type_id":"4","last_reported":1744118457,"current_range_meters":19200,"station_id":"ce4bhbh2rcd13ifvqeo0","pricing_plan_id":"cebpf4jnsgd1na2vs0mg"},{"bike_id":"4818a333-e2d7-4f15-b301-c1332126dbfb","system_id":"levelo_inurba_marseille","lat":43.30914,"lon":5.3685,"is_reserved":false,"is_disabled":false,"rental_uris":{"android":"levelo://app?vid=4818a333-e2d7-4f15-b301-c1332126dbfb","ios":"levelo://app?vid=4818a333-e2d7-4f15-b301-c1332126dbfb"},"vehicle_type_id":"4","last_reported":1744118457,"current_range_meters":19200,"station_id":"ce4bgn92rcd13ifvqbvg","pricing_plan_id":"cebpf4jnsgd1na2vs0mg"},{"bike_id":"d7b2134e-575c-40f1-9b3b-0ad40ab4b220","system_id":"levelo_inurba_marseille","lat":43.298384,"lon":5.436844,"is_reserved":false,"is_disabled":false,"rental_uris":{"android":"levelo://app?vid=d7b2134e-575c-40f1-9b3b-0ad40ab4b220","ios":"levelo://app?vid=d7b2134e-575c-40f1-9b3b-0ad40ab4b220"},"vehicle_type_id":"4","last_reported":1744118457,"current_range_meters":19200,"station_id":"","pricing_plan_id":"cebpf4jnsgd1na2vs0mg"},{"bike_id":"43eb2d79-be0b-4fd0-a988-778df5e44531","system_id":"levelo_inurba_marseille","lat":43.231522,"lon":5.437096,"is_reserved":false,"is_disabled":false,"rental_uris":{"android":"levelo://app?vid=43eb2d79-be0b-4fd0-a988-778df5e44531","ios":"levelo://app?vid=43eb2d79-be0b-4fd0-a988-778df5e44531"},"vehicle_type_id":"4","last_reported":1744118457,"current_range_meters":19200,"station_id":"ce4bhmp2rcd13ifvqgog","pricing_plan_id":"cebpf4jnsgd1na2vs0mg"},{"bike_id":"529ccc17-6d9d-483e-8dc2-a5cecb53ca56","system_id":"levelo_inurba_marseille","lat":43.3373,"lon":5.3919,"is_reserved":false,"is_disabled":false,"rental_uris":{"android":"levelo://app?vid=529ccc17-6d9d-483e-8dc2-a5cecb53ca56","ios":"levelo://app?vid=529ccc17-6d9d-483e-8dc2-a5cecb53ca56"},"vehicle_type_id":"4","last_reported":1744118457,"current_range_meters":19200,"station_id":"ce4bhr92rcd13ifvqhsg","pricing_plan_id":"cebpf4jnsgd1na2vs0mg"},{"bike_id":"52211bc8-bafc-4966-8660-97691fa220af","system_id":"levelo_inurba_marseille","lat":43.27379,"lon":5.36256,"is_reserved":false,"is_disabled":false,"rental_uris":{"android":"levelo://app?vid=52211bc8-bafc-4966-8660-97691fa220af","ios":"levelo://app?vid=52211bc8-bafc-4966-8660-97691fa220af"},"vehicle_type_id":"4","last_reported":1744118457,"current_range_meters":19200,"station_id":"ce4bhbh2rcd13ifvqeo0","pricing_plan_id":"cebpf4jnsgd1na2vs0mg"},{"bike_id":"880027bb-9f9b-4b2e-a2f3-fdef38af9f2c","system_id":"levelo_inurba_marseille","lat":43.29443,"lon":5.39756,"is_reserved":false,"is_disabled":false,"rental_uris":{"android":"levelo://app?vid=880027bb-9f9b-4b2e-a2f3-fdef38af9f2c","ios":"levelo://app?vid=880027bb-9f9b-4b2e-a2f3-fdef38af9f2c"},"vehicle_type_id":"4","last_reported":1744118457,"current_range_meters":19200,"station_id":"ce4bh3h2rcd13ifvqdo0","pricing_plan_id":"cebpf4jnsgd1na2vs0mg"},{"bike_id":"6b68cb44-2214-4363-bbfb-6597cc95cf8e","system_id":"levelo_inurba_marseille","lat":43.27363,"lon":5.36248,"is_reserved":false,"is_disabled":false,"rental_uris":{"android":"levelo://app?vid=6b68cb44-2214-4363-bbfb-6597cc95cf8e","ios":"levelo://app?vid=6b68cb44-2214-4363-bbfb-6597cc95cf8e"},"vehicle_type_id":"4","last_reported":1744118457,"current_range_meters":19600,"station_id":"ce4bhbh2rcd13ifvqeo0","pricing_plan_id":"cebpf4jnsgd1na2vs0mg"},{"bike_id":"6203e229-0cc3-49df-833a-35fdbb680915","system_id":"levelo_inurba_marseille","lat":43.27061,"lon":5.40251,"is_reserved":false,"is_disabled":false,"rental_uris":{"android":"levelo://app?vid=6203e229-0cc3-49df-833a-35fdbb680915","ios":"levelo://app?vid=6203e229-0cc3-49df-833a-35fdbb680915"},"vehicle_type_id":"4","last_reported":1744118457,"current_range_meters":19600,"station_id":"ce4bhk92rcd13ifvqgc0","pricing_plan_id":"cebpf4jnsgd1na2vs0mg"},{"bike_id":"1c847153-94c1-43ae-841d-ed1885c3844f","system_id":"levelo_inurba_marseille","lat":43.28704,"lon":5.37935,"is_reserved":false,"is_disabled":false,"rental_uris":{"android":"levelo://app?vid=1c847153-94c1-43ae-841d-ed1885c3844f","ios":"levelo://app?vid=1c847153-94c1-43ae-841d-ed1885c3844f"},"vehicle_type_id":"4","last_reported":1744118457,"current_range_meters":19600,"station_id":"ce4bh9p2rcd13ifvqec0","pricing_plan_id":"cebpf4jnsgd1na2vs0mg"},{"bike_id":"c1c63035-c83b-4419-8cbf-133778d95125","system_id":"levelo_inurba_marseille","lat":43.297854,"lon":5.39357,"is_reserved":false,"is_disabled":true,"rental_uris":{"android":"levelo://app?vid=c1c63035-c83b-4419-8cbf-133778d95125","ios":"levelo://app?vid=c1c63035-c83b-4419-8cbf-133778d95125"},"vehicle_type_id":"4","last_reported":1744118457,"current_range_meters":19600,"station_id":"chh1huq6cuj3fo74tm60","pricing_plan_id":"cebpf4jnsgd1na2vs0mg"},{"bike_id":"6278194a-3064-41bd-8565-b8ff44b1552d","system_id":"levelo_inurba_marseille","lat":43.295365,"lon":5.385501,"is_reserved":false,"is_disabled":true,"rental_uris":{"android":"levelo://app?vid=6278194a-3064-41bd-8565-b8ff44b1552d","ios":"levelo://app?vid=6278194a-3064-41bd-8565-b8ff44b1552d"},"vehicle_type_id":"4","last_reported":1744118457,"current_range_meters":19600,"station_id":"ce4bgih2rcd13ifvqba0","pricing_plan_id":"cebpf4jnsgd1na2vs0mg"},{"bike_id":"c3bfa1d0-e3e4-4fd7-a09f-ee48bee02c4f","system_id":"levelo_inurba_marseille","lat":43.24807,"lon":5.3746,"is_reserved":false,"is_disabled":false,"rental_uris":{"android":"levelo://app?vid=c3bfa1d0-e3e4-4fd7-a09f-ee48bee02c4f","ios":"levelo://app?vid=c3bfa1d0-e3e4-4fd7-a09f-ee48bee02c4f"},"vehicle_type_id":"4","last_reported":1744118457,"current_range_meters":19600,"station_id":"ce4bhgh2rcd13ifvqfb0","pricing_plan_id":"cebpf4jnsgd1na2vs0mg"},{"bike_id":"83d71aae-c276-4581-b045-e01e481a11b6","system_id":"levelo_inurba_marseille","lat":43.2176,"lon":5.34601,"is_reserved":false,"is_disabled":false,"rental_uris":{"android":"levelo://app?vid=83d71aae-c276-4581-b045-e01e481a11b6","ios":"levelo://app?vid=83d71aae-c276-4581-b045-e01e481a11b6"},"vehicle_type_id":"4","last_reported":1744118457,"current_range_meters":19600,"station_id":"st_cvj6r9ubvosntc0bgbag","pricing_plan_id":"cebpf4jnsgd1na2vs0mg"},{"bike_id":"5d200865-e82d-47ff-b057-2f1ef512d668","system_id":"levelo_inurba_marseille","lat":43.26019,"lon":5.37539,"is_reserved":false,"is_disabled":false,"rental_uris":{"android":"levelo://app?vid=5d200865-e82d-47ff-b057-2f1ef512d668","ios":"levelo://app?vid=5d200865-e82d-47ff-b057-2f1ef512d668"},"vehicle_type_id":"4","last_reported":1744118457,"current_range_meters":19600,"station_id":"ce4bhgh2rcd13ifvqfa0","pricing_plan_id":"cebpf4jnsgd1na2vs0mg"},{"bike_id":"c384a7b3-7415-4d9e-9bfa-6a0267d78cac","system_id":"levelo_inurba_marseille","lat":43.28272,"lon":5.35083,"is_reserved":false,"is_disabled":false,"rental_uris":{"android":"levelo://app?vid=c384a7b3-7415-4d9e-9bfa-6a0267d78cac","ios":"levelo://app?vid=c384a7b3-7415-4d9e-9bfa-6a0267d78cac"},"vehicle_type_id":"4","last_reported":1744118457,"current_range_meters":20000,"station_id":"ce4bhbp2rcd13ifvqerg","pricing_plan_id":"cebpf4jnsgd1na2vs0mg"},