{"last_updated":1726927624,"ttl":30,"version":"2.2","data":{"bikes":[{"bike_id":"cf6a4bc0-56e7-43c0-abb2-e2b3da951201","system_id":"levelo_inurba_marseille","lat":43.28,"lon":5.40012,"is_reserved":false,"is_disabled":false,"rental_uris":{"android":"levelo://app?vid=cf6a4bc0-56e7-43c0-abb2-e2b3da951201","ios":"levelo://app?vid=cf6a4bc0-56e7-43c0-abb2-e2b3da951201"},"vehicle_type_id":"4","last_reported":1726927624,"current_range_meters":38800,"station_id":"ce4bho92rcd13ifvqh4g","pricing_plan_id":"cebpf4jnsgd1na2vs0mg"},{"bike_id":"9b521226-1222-420c-85eb-7da1ff3a9204","system_id":"levelo_inurba_marseille","lat":43.22934,"lon":5.35377,"is_reserved":false,"is_disabled":false,"rental_uris":{"android":"levelo://app?vid=9b521226-1222-420c-85eb-7da1ff3a9204","ios":"levelo://app?vid=9b521226-1222-420c-85eb-7da1ff3a9204"},"vehicle_type_id":"4","last_reported":1726927624,"current_range_meters":27600,"station_id":"cpo3532slgdg3j2ikp40","pricing_plan_id":"cebpf4jnsgd1na2vs0mg"},{"bike_id":"8d1377de-9bd8-4c80-938d-d8cb28b5c55c","system_id":"levelo_inurba_marseille","lat":43.27184,"lon":5.40993,"is_reserved":false,"is_disabled":false,"rental_uris":{"android":"levelo://app?vid=8d1377de-9bd8-4c80-938d-d8cb28b5c55c","ios":"levelo://app?vid=8d1377de-9bd8-4c80-938d-d8cb28b5c55c"},"vehicle_type_id":"4","last_reported":1726927624,"current_range_meters":9600,"station_id":"ce4bhl12rcd13ifvqgf0","pricing_plan_id":"cebpf4jnsgd1na2vs0mg"},{"bike_id":"8fd9734f-3a4c-4d28-96b3-4f708b613cfc","system_id":"levelo_inurba_marseille","lat":43.288472,"lon":5.393169,"is_reserved":false,"is_disabled":false,"rental_uris":{"android":"levelo://app?vid=8fd9734f-3a4c-4d28-96b3-4f708b613cfc","ios":"levelo://app?vid=8fd9734f-3a4c-4d28-96b3-4f708b613cfc"},"vehicle_type_id":"4","last_reported":1726927624,"current_range_meters":31200,"station_id":"ce4bh2p2rcd13ifvqdi0","pricing_plan_id":"cebpf4jnsgd1na2vs0mg"},{"bike_id":"b657b1c7-5510-4c47-abb7-e756725f1cf9","system_id":"levelo_inurba_marseille","lat":43.28426,"lon":5.34992,"is_reserved":false,"is_disabled":false,"rental_uris":{"android":"levelo://app?vid=b657b1c7-5510-4c47-abb7-e756725f1cf9","ios":"levelo://app?vid=b657b1c7-5510-4c47-abb7-e756725f1cf9"},"vehicle_type_id":"4","last_reported":1726927624,"current_range_meters":17600,"station_id":"ce4bhbh2rcd13ifvqepg","pricing_plan_id":"cebpf4jnsgd1na2vs0mg"},{"bike_id":"71651ac6-0b76-4019-b34f-072820ef1ca3","system_id":"levelo_inurba_marseille","lat":43.26031,"lon":5.37548,"is_reserved":false,"is_disabled":false,"rental_uris":{"android":"levelo://app?vid=71651ac6-0b76-4019-b34f-072820ef1ca3","ios":"levelo://app?vid=71651ac6-0b76-4019-b34f-072820ef1ca3"},"vehicle_type_id":"4","last_reported":1726927624,"current_range_meters":27200,"station_id":"ce4bhgh2rcd13ifvqfa0","pricing_plan_id":"cebpf4jnsgd1na2vs0mg"},{"bike_id":"b4a3cb57-97d4-4563-aba5-8106ce884bf8","system_id":"levelo_inurba_marseille","lat":43.3095,"lon":5.39033,"is_reserved":false,"is_disabled":false,"rental_uris":{"android":"levelo://app?vid=b4a3cb57-97d4-4563-aba5-8106ce884bf8","ios":"levelo://app?vid=b4a3cb57-97d4-4563-aba5-8106ce884bf8"},"vehicle_type_id":"4","last_reported":1726927624,"current_range_meters":6800,"station_id":"ce4bgup2rcd13ifvqco0","pricing_plan_id":"cebpf4jnsgd1na2vs0mg"},{"bike_id":"a102afbc-3ec3-41dd-b50f-9d9de306dc75","system_id":"levelo_inurba_marseille","lat":43.33025,"lon":5.39045,"is_reserved":false,"is_disabled":false,"rental_uris":{"android":"levelo://app?vid=a102afbc-3ec3-41dd-b50f-9d9de306dc75","ios":"levelo://app?vid=a102afbc-3ec3-41dd-b50f-9d9de306dc75"},"vehicle_type_id":"4","last_reported":1726927624,"current_range_meters":29600,"station_id":"ce4bhr92rcd13ifvqhrg","pricing_plan_id":"cebpf4jnsgd1na2vs0mg"},{"bike_id":"1c1f8ee9-c074-43f9-9240-1d1b20b432d2","system_id":"levelo_inurba_marseille","lat":43.32056,"lon":5.41539,"is_reserved":false,"is_disabled":false,"rental_uris":{"android":"levelo://app?vid=1c1f8ee9-c074-43f9-9240-1d1b20b432d2","ios":"levelo://app?vid=1c1f8ee9-c074-43f9-9240-1d1b20b432d2"},"vehicle_type_id":"4","last_reported":1726927624,"current_range_meters":30000,"station_id":"ce4bhq92rcd13ifvqhkg","pricing_plan_id":"cebpf4jnsgd1na2vs0mg"},{"bike_id":"4c88d2eb-1a35-4be5-bc33-684e431dfe37","system_id":"levelo_inurba_marseille","lat":43.28658,"lon":5.38659,"is_reserved":false,"is_disabled":false,"rental_uris":{"android":"levelo://app?vid=4c88d2eb-1a35-4be5-bc33-684e431dfe37","ios":"levelo://app?vid=4c88d2eb-1a35-4be5-bc33-684e431dfe37"},"vehicle_type_id":"4","last_reported":1726927624,"current_range_meters":34800,"station_id":"ce4bh492rcd13ifvqdug","pricing_plan_id":"cebpf4jnsgd1na2vs0mg"},{"bike_id":"952727d5-10c0-49c8-a6ee-a4efa34b8c23","system_id":"levelo_inurba_marseille","lat":43.23969,"lon":5.36634,"is_reserved":false,"is_disabled":false,"rental_uris":{"android":"levelo://app?vid=952727d5-10c0-49c8-a6ee-a4efa34b8c23","ios":"levelo://app?vid=952727d5-10c0-49c8-a6ee-a4efa34b8c23"},"vehicle_type_id":"4","last_reported":1726927624,"current_range_meters":38800,"station_id":"ce4bhi12rcd13ifvqfp0","pricing_plan_id":"cebpf4jnsgd1na2vs0mg"},{"bike_id":"11b07735-41fe-46db-9b01-e7149e08e197","system_id":"levelo_inurba_marseille","lat":43.2826,"lon":5.35064,"is_reserved":false,"is_disabled":false,"rental_uris":{"android":"levelo://app?vid=11b07735-41fe-46db-9b01-e7149e08e197","ios":"levelo://app?vid=11b07735-41fe-46db-9b01-e7149e08e197"},"vehicle_type_id":"4","last_reported":1726927624,"current_range_meters":24400,"station_id":"ce4bhbp2rcd13ifvqerg","pricing_plan_id":"cebpf4jnsgd1na2vs0mg"},{"bike_id":"a5f98ca6-9bdc-420c-9181-260ed255b4f1","system_id":"levelo_inurba_marseille","lat":43.28618,"lon":5.35107,"is_reserved":false,"is_disabled":false,"rental_uris":{"android":"levelo://app?vid=a5f98ca6-9bdc-420c-9181-260ed255b4f1","ios":"levelo://app?vid=a5f98ca6-9bdc-420c-9181-260ed255b4f1"},"vehicle_type_id":"4","last_reported":1726927624,"current_range_meters":8000,"station_id":"ce4bhch2rcd13ifvqeug","pricing_plan_id":"cebpf4jnsgd1na2vs0mg"},{"bike_id":"0d7cf228-7ef4-44b7-9805-fcaeff1b65d4","system_id":"levelo_inurba_marseille","lat":43.28725,"lon":5.36077,"is_reserved":false,"is_disabled":false,"rental_uris":{"android":"levelo://app?vid=0d7cf228-7ef4-44b7-9805-fcaeff1b65d4","ios":"levelo://app?vid=0d7cf228-7ef4-44b7-9805-fcaeff1b65d4"},"vehicle_type_id":"4","last_reported":1726927624,"current_range_meters":32400,"station_id":"cki0cbj6b192h4jlfktg","pricing_plan_id":"cebpf4jnsgd1na2vs0mg"},{"bike_id":"3cea86a1-9a58-478d-b244-957f4139aef0","system_id":"levelo_inurba_marseille","lat":43.33602,"lon":5.41028,"is_reserved":false,"is_disabled":false,"rental_uris":{"android":"levelo://app?vid=3cea86a1-9a58-478d-b244-957f4139aef0","ios":"levelo://app?vid=3cea86a1-9a58-478d-b244-957f4139aef0"},"vehicle_type_id":"4","last_reported":1726927624,"current_range_meters":38800,"station_id":"ce4bhqh2rcd13ifvqhmg","pricing_plan_id":"cebpf4jnsgd1na2vs0mg"},{"bike_id":"1457cd33-d188-4386-afb7-8fd83a806367","system_id":"levelo_inurba_marseille","lat":43.26213,"lon":5.37441,"is_reserved":false,"is_disabled":false,"rental_uris":{"android":"levelo://app?vid=1457cd33-d188-4386-afb7-8fd83a806367","ios":"levelo://app?vid=1457cd33-d188-4386-afb7-8fd83a806367"},"vehicle_type_id":"4","last_reported":1726927624,"current_range_meters":4400,"station_id":"ce4bhgp2rcd13ifvqfc0","pricing_plan_id":"cebpf4jnsgd1na2vs0mg"},{"bike_id":"7305e097-fa56-4e8c-b7c3-772deb6569c0","system_id":"levelo_inurba_marseille","lat":43.25578,"lon":5.38228,"is_reserved":false,"is_disabled":false,"rental_uris":{"android":"levelo://app?vid=7305e097-fa56-4e8c-b7c3-772deb6569c0","ios":"levelo://app?vid=7305e097-fa56-4e8c-b7c3-772deb6569c0"},"vehicle_type_id":"4","last_reported":1726927624,"current_range_meters":29600,"station_id":"ce4bhih2rcd13ifvqfs0","pricing_plan_id":"cebpf4jnsgd1na2vs0mg"},{"bike_id":"0c5cc1de-fd56-4e04-8008-5bbbcbdab187","system_id":"levelo_inurba_marseille","lat":43.29847,"lon":5.36276,"is_reserved":false,"is_disabled":false,"rental_uris":{"android":"levelo://app?vid=0c5cc1de-fd56-4e04-8008-5bbbcbdab187","ios":"levelo://app?vid=0c5cc1de-fd56-4e04-8008-5bbbcbdab187"},"vehicle_type_id":"4","last_reported":1726927624,"current_range_meters":24800,"station_id":"ce4bgpp2rcd13ifvqc3g","pricing_plan_id":"cebpf4jnsgd1na2vs0mg"},{"bike_id":"c9e21436-caec-41cf-8484-be6be98df0ff","system_id":"levelo_inurba_marseille","lat":43.260252,"lon":5.375721,"is_reserved":false,"is_disabled":false,"rental_uris":{"android":"levelo://app?vid=c9e21436-caec-41cf-8484-be6be98df0ff","ios":"levelo://app?vid=c9e21436-caec-41cf-8484-be6be98df0ff"},"vehicle_type_id":"4","last_reported":1726927624,"current_range_meters":6800,"station_id":"ce4bhgh2rcd13ifvqfa0","pricing_plan_id":"cebpf4jnsgd1na2vs0mg"},{"bike_id":"df63e28f-cd57-48d1-89d0-dbc144c9c1f9","system_id":"levelo_inurba_marseille","lat":43.23187,"lon":5.39985,"is_reserved":false,"is_disabled":false,"rental_uris":{"android":"levelo://app?vid=df63e28f-cd57-48d1-89d0-dbc144c9c1f9","ios":"levelo://app?vid=df63e28f-cd57-48d1-89d0-dbc144c9c1f9"},"vehicle_type_id":"4","last_reported":1726927624,"current_range_meters":17200,"station_id":"ce4bhn12rcd13ifvqgqg","pricing_plan_id":"cebpf4jnsgd1na2vs0mg"},{"bike_id":"27f41fdd-9b65-495a-83cb-6765305799e4","system_id":"levelo_inurba_marseille","lat":43.28278,"lon":5.35066,"is_reserved":false,"is_disabled":false,"rental_uris":{"android":"levelo://app?vid=27f41fdd-9b65-495a-83cb-6765305799e4","ios":"levelo://app?vid=27f41fdd-9b65-495a-83cb-6765305799e4"},"vehicle_type_id":"4","last_reported":1726927624,"current_range_meters":23200,"station_id":"ce4bhbp2rcd13ifvqerg","pricing_plan_id":"cebpf4jnsgd1na2vs0mg"},{"bike_id":"68f67285-8779-44bc-9be8-a128beb13601","system_id":"levelo_inurba_marseille","lat":43.31224,"lon":5.36854,"is_reserved":false,"is_disabled":false,"rental_uris":{"android":"levelo://app?vid=68f67285-8779-44bc-9be8-a128beb13601","ios":"levelo://app?vid=68f67285-8779-44bc-9be8-a128beb13601"},"vehicle_type_id":"4","last_reported":1726927624,"current_range_meters":36800,"station_id":"ce4bgl92rcd13ifvqbq0","pricing_plan_id":"cebpf4jnsgd1na2vs0mg"},{"bike_id":"9c2c2616-b8d8-44b1-9bc6-4e75381528ec","system_id":"levelo_inurba_marseille","lat":43.284729,"lon":5.358919,"is_reserved":false,"is_disabled":false,"rental_uris":{"android":"levelo://app?vid=9c2c2616-b8d8-44b1-9bc6-4e75381528ec","ios":"levelo://app?vid=9c2c2616-b8d8-44b1-9bc6-4e75381528ec"},"vehicle_type_id":"4","last_reported":1726927624,"current_range_meters":38400,"station_id":"ce4bhah2rcd13ifvqei0","pricing_plan_id":"cebpf4jnsgd1na2vs0mg"},{"bike_id":"889e28e2-6f1c-4ea5-b22c-b546f4c54f82","system_id":"levelo_inurba_marseille","lat":43.28619,"lon":5.35103,"is_reserved":false,"is_disabled":false,"rental_uris":{"android":"levelo://app?vid=889e28e2-6f1c-4ea5-b22c-b546f4c54f82","ios":"levelo://app?vid=889e28e2-6f1c-4ea5-b22c-b546f4c54f82"},"vehicle_type_id":"4","last_reported":1726927624,"current_range_meters":25200,"station_id":"ce4bhch2rcd13ifvqeug","pricing_plan_id":"cebpf4jnsgd1na2vs0mg"},{"bike_id":"69869ca4-d90d-4d98-af04-e1db1c9aa2ee","system_id":"levelo_inurba_marseille","lat":43.26205,"lon":5.3745,"is_reserved":false,"is_disabled":false,"rental_uris":{"android":"levelo://app?vid=69869ca4-d90d-4d98-af04-e1db1c9aa2ee","ios":"levelo://app?vid=69869ca4-d90d-4d98-af04-e1db1c9aa2ee"},"vehicle_type_id":"4","last_reported":1726927624,"current_range_meters":13600,"station_id":"ce4bhgp2rcd13ifvqfc0","pricing_plan_id":"cebpf4jnsgd1na2vs0mg"},{"bike_id":"14cba0ea-4932-4120-ba2f-1e13201aa231","system_id":"levelo_inurba_marseille","lat":43.33765,"lon":5.37444,"is_reserved":false,"is_disabled":false,"rental_uris":{"android":"levelo://app?vid=14cba0ea-4932-4120-ba2f-1e13201aa231","ios":"levelo://app?vid=14cba0ea-4932-4120-ba2f-1e13201aa231"},"vehicle_type_id":"4","last_reported":1726927624,"current_range_meters":34800,"station_id":"","pricing_plan_id":"cebpf4jnsgd1na2vs0mg"},{"bike_id":"f7799aa3-45ee-4987-a997-9d3e2d59c3ac","system_id":"levelo_inurba_marseille","lat":43.337444,"lon":5.374475,"is_reserved":false,"is_disabled":false,"rental_uris":{"android":"levelo://app?vid=f7799aa3-45ee-4987-a997-9d3e2d59c3ac","ios":"levelo://app?vid=f7799aa3-45ee-4987-a997-9d3e2d59c3ac"},"vehicle_type_id":"4","last_reported":1726927624,"current_range_meters":22400,"station_id":"ce4bgr92rcd13ifvqc6g","pricing_plan_id":"cebpf4jnsgd1na2vs0mg"},{"bike_id":"978d14f3-f583-4bbe-8db9-ce887ad5d209","system_id":"levelo_inurba_marseille","lat":43.2439,"lon":5.37062,"is_reserved":false,"is_disabled":false,"rental_uris":{"android":"levelo://app?vid=978d14f3-f583-4bbe-8db9-ce887ad5d209","ios":"levelo://app?vid=978d14f3-f583-4bbe-8db9-ce887ad5d209"},"vehicle_type_id":"4","last_reported":1726927624,"current_range_meters":17600,"station_id":"ce4bhhh2rcd13ifvqfk0","pricing_plan_id":"cebpf4jnsgd1na2vs0mg"},{"bike_id":"632b4d5c-2cfb-46bf-a0f5-fc63d213e57c","system_id":"levelo_inurba_marseille","lat":43.28272,"lon":5.35067,"is_reserved":false,"is_disabled":false,"rental_uris":{"android":"levelo://app?vid=632b4d5c-2cfb-46bf-a0f5-fc63d213e57c","ios":"levelo://app?vid=632b4d5c-2cfb-46bf-a0f5-fc63d213e57c"},"vehicle_type_id":"4","last_reported":1726927624,"current_range_meters":3200,"station_id":"ce4bhbp2rcd13ifvqerg","pricing_plan_id":"cebpf4jnsgd1na2vs0mg"},{"bike_id":"dcfa61cb-3094-4b19-ad9d-9136319442f0","system_id":"levelo_inurba_marseille","lat":43.28607,"lon":5.35101,"is_reserved":false,"is_disabled":false,"rental_uris":{"android":"levelo://app?vid=dcfa61cb-3094-4b19-ad9d-9136319442f0","ios":"levelo://app?vid=dcfa61cb-3094-4b19-ad9d-9136319442f0"},"vehicle_type_id":"4","last_reported":1726927624,"current_range_meters":34800,"station_id":"ce4bhch2rcd13ifvqeug","pricing_plan_id":"cebpf4jnsgd1na2vs0mg"},{"bike_id":"2a7db943-6265-4479-9604-043d344eb7a6","system_id":"levelo_inurba_marseille","lat":43.30277,"lon":5.38397,"is_reserved":false,"is_disabled":false,"rental_uris":{"android":"levelo://app?vid=2a7db943-6265-4479-9604-043d344eb7a6","ios":"levelo://app?vid=2a7db943-6265-4479-9604-043d344eb7a6"},"vehicle_type_id":"4","last_reported":1726927624,"current_range_meters":22800,"station_id":"","pricing_plan_id":"cebpf4jnsgd1na2vs0mg"},{"bike_id":"7ea69a81-db69-4fa5-9dda-a410ff39cd73","system_id":"levelo_inurba_marseille","lat":43.2619,"lon":5.37442,"is_reserved":false,"is_disabled":false,"rental_uris":{"android":"levelo://app?vid=7ea69a81-db69-4fa5-9dda-a410ff39cd73","ios":"levelo://app?vid=7ea69a81-db69-4fa5-9dda-a410ff39cd73"},"vehicle_type_id":"4","last_reported":1726927624,"current_range_meters":36800,"station_id":"ce4bhgp2rcd13ifvqfc0","pricing_plan_id":"cebpf4jnsgd1na2vs0mg"},{"bike_id":"feef65fd-70ed-4c2a-ab1c-62060f564852","system_id":"levelo_inurba_marseille","lat":43.2668,"lon":5.38277,"is_reserved":false,"is_disabled":false,"rental_uris":{"android":"levelo://app?vid=feef65fd-70ed-4c2a-ab1c-62060f564852","ios":"levelo://app?vid=feef65fd-70ed-4c2a-ab1c-62060f564852"},"vehicle_type_id":"4","last_reported":1726927624,"current_range_meters":25200,"station_id":"ce4bhg92rcd13ifvqf90","pricing_plan_id":"cebpf4jnsgd1na2vs0mg"},{"bike_id":"675df9d8-41b0-40b6-8303-35d0d5a1cee6","system_id":"levelo_inurba_marseille","lat":43.239639,"lon":5.366209,"is_reserved":false,"is_disabled":false,"rental_uris":{"android":"levelo://app?vid=675df9d8-41b0-40b6-8303-35d0d5a1cee6","ios":"levelo://app?vid=675df9d8-41b0-40b6-8303-35d0d5a1cee6"},"vehicle_type_id":"4","last_reported":1726927624,"current_range_meters":23200,"station_id":"ce4bhkp2rcd13ifvqgd0","pricing_plan_id":"cebpf4jnsgd1na2vs0mg"},{"bike_id":"e256458b-f8d9-4ac4-a530-9bfb323c8021","system_id":"levelo_inurba_marseille","lat":43.28418,"lon":5.34977,"is_reserved":false,"is_disabled":false,"rental_uris":{"android":"levelo://app?vid=e256458b-f8d9-4ac4-a530-9bfb323c8021","ios":"levelo://app?vid=e256458b-f8d9-4ac4-a530-9bfb323c8021"},"vehicle_type_id":"4","last_reported":1726927624,"current_range_meters":33200,"station_id":"ce4bhbh2rcd13ifvqepg","pricing_plan_id":"cebpf4jnsgd1na2vs0mg"},{"bike_id":"edfb1ff5-b81b-4225-8da9-100a9115b1e3","system_id":"levelo_inurba_marseille","lat":43.29735,"lon":5.36561,"is_reserved":false,"is_disabled":false,"rental_uris":{"android":"levelo://app?vid=edfb1ff5-b81b-4225-8da9-100a9115b1e3","ios":"levelo://app?vid=edfb1ff5-b81b-4225-8da9-100a9115b1e3"},"vehicle_type_id":"4","last_reported":1726927624,"current_range_meters":8400,"station_id":"","pricing_plan_id":"cebpf4jnsgd1na2vs0mg"},{"bike_id":"fa1b13ae-438e-4aa4-bfb7-748ed28cb45a","system_id":"levelo_inurba_marseille","lat":43.28104,"lon":5.37829,"is_reserved":false,"is_disabled":false,"rental_uris":{"android":"levelo://app?vid=fa1b13ae-438e-4aa4-bfb7-748ed28cb45a","ios":"levelo://app?vid=fa1b13ae-438e-4aa4-bfb7-748ed28cb45a"},"vehicle_type_id":"4","last_reported":1726927624,"current_range_meters":30400,"station_id":"ce4bha12rcd13ifvqee0","pricing_plan_id":"cebpf4jnsgd1na2vs0mg"},{"bike_id":"726e72f4-672b-4ff0-924e-fccc1966a093","system_id":"levelo_inurba_marseille","lat":43.282623,"lon":5.350541,"is_reserved":false,"is_disabled":false,"rental_uris":{"android":"levelo://app?vid=726e72f4-672b-4ff0-924e-fccc1966a093","ios":"levelo://app?vid=726e72f4-672b-4ff0-924e-fccc1966a093"},"vehicle_type_id":"4","last_reported":1726927624,"current_range_meters":36800,"station_id":"ce4bhbp2rcd13ifvqerg","pricing_plan_id":"cebpf4jnsgd1na2vs0mg"},{"bike_id":"5eb9dac7-32e3-456b-b155-2457bd953ccf","system_id":"levelo_inurba_marseille","lat":43.28411,"lon":5.34988,"is_reserved":false,"is_disabled":false,"rental_uris":{"android":"levelo://app?vid=5eb9dac7-32e3-456b-b155-2457bd953ccf","ios":"levelo://app?vid=5eb9dac7-32e3-456b-b155-2457bd953ccf"},"vehicle_type_id":"4","last_reported":1726927624,"current_range_meters":38800,"station_id":"ce4bhbh2rcd13ifvqepg","pricing_plan_id":"cebpf4jnsgd1na2vs0mg"},{"bike_id":"f584e41b-3fbd-49aa-959e-bcd823fafb03","system_id":"levelo_inurba_marseille","lat":43.239624,"lon":5.366261,"is_reserved":false,"is_disabled":false,"rental_uris":{"android":"levelo://app?vid=f584e41b-3fbd-49aa-959e-bcd823fafb03","ios":"levelo://app?vid=f584e41b-3fbd-49aa-959e-bcd823fafb03"},"vehicle_type_id":"4","last_reported":1726927624,"current_range_meters":14800,"station_id":"ce4bhi12rcd13ifvqfp0","pricing_plan_id":"cebpf4jnsgd1na2vs0mg"},{"bike_id":"bd6456aa-7882-4ecb-b6d6-c1e08b9e8174","system_id":"levelo_inurba_marseille","lat":43.25577,"lon":5.38235,"is_reserved":false,"is_disabled":false,"rental_uris":{"android":"levelo://app?vid=bd6456aa-7882-4ecb-b6d6-c1e08b9e8174","ios":"levelo://app?vid=bd6456aa-7882-4ecb-b6d6-c1e08b9e8174"},"vehicle_type_id":"4","last_reported":1726927624,"current_range_meters":25600,"station_id":"ce4bhih2rcd13ifvqfs0","pricing_plan_id":"cebpf4jnsgd1na2vs0mg"},{"bike_id":"8fd70697-883c-4670-8851-8ec60548abbc","system_id":"levelo_inurba_marseille","lat":43.2293,"lon":5.35376,"is_reserved":false,"is_disabled":false,"rental_uris":{"android":"levelo://app?vid=8fd70697-883c-4670-8851-8ec60548abbc","ios":"levelo://app?vid=8fd70697-883c-4670-8851-8ec60548abbc"},"vehicle_type_id":"4","last_reported":1726927624,"current_range_meters":15200,"station_id":"cpo3532slgdg3j2ikp40","pricing_plan_id":"cebpf4jnsgd1na2vs0mg"},{"bike_id":"bf03865e-9944-4f40-bf02-6028a7d0a9c4","system_id":"levelo_inurba_marseille","lat":43.28266,"lon":5.35074,"is_reserved":false,"is_disabled":false,"rental_uris":{"android":"levelo://app?vid=bf03865e-9944-4f40-bf02-6028a7d0a9c4","ios":"levelo://app?vid=bf03865e-9944-4f40-bf02-6028a7d0a9c4"},"vehicle_type_id":"4","last_reported":1726927624,"current_range_meters":27200,"station_id":"ce4bhbp2rcd13ifvqerg","pricing_plan_id":"cebpf4jnsgd1na2vs0mg"},{"bike_id":"68493ef2-4be8-4921-86a3-65ef355a06e7","system_id":"levelo_inurba_marseille","lat":43.304808,"lon":5.379484,"is_reserved":false,"is_disabled":false,"rental_uris":{"android":"levelo://app?vid=68493ef2-4be8-4921-86a3-65ef355a06e7","ios":"levelo://app?vid=68493ef2-4be8-4921-86a3-65ef355a06e7"},"vehicle_type_id":"4","last_reported":1726927624,"current_range_meters":33200,"station_id":"ce4bgv12rcd13ifvqcp0","pricing_plan_id":"cebpf4jnsgd1na2vs0mg"},{"bike_id":"f7ad2e7a-a575-4361-994a-0ff95a85d018","system_id":"levelo_inurba_marseille","lat":43.30632,"lon":5.37186,"is_reserved":false,"is_disabled":false,"rental_uris":{"android":"levelo://app?vid=f7ad2e7a-a575-4361-994a-0ff95a85d018","ios":"levelo://app?vid=f7ad2e7a-a575-4361-994a-0ff95a85d018"},"vehicle_type_id":"4","last_reported":1726927624,"current_range_meters":38800,"station_id":"ce4bgqh2rcd13ifvqc4g","pricing_plan_id":"cebpf4jnsgd1na2vs0mg"},{"bike_id":"041bbe10-cb23-4faa-832a-4b87adc0d468","system_id":"levelo_inurba_marseille","lat":43.33778,"lon":5.37428,"is_reserved":false,"is_disabled":false,"rental_uris":{"android":"levelo://app?vid=041bbe10-cb23-4faa-832a-4b87adc0d468","ios":"levelo://app?vid=041bbe10-cb23-4faa-832a-4b87adc0d468"},"vehicle_type_id":"4","last_reported":1726927624,"current_range_meters":18800,"station_id":"","pricing_plan_id":"cebpf4jnsgd1na2vs0mg"},{"bike_id":"b3a8c7f7-badb-48bc-af6d-f19b0bac6f65","system_id":"levelo_inurba_marseille","lat":43.31327,"lon":5.39693,"is_reserved":false,"is_disabled":false,"rental_uris":{"android":"levelo://app?vid=b3a8c7f7-badb-48bc-af6d-f19b0bac6f65","ios":"levelo://app?vid=b3a8c7f7-badb-48bc-af6d-f19b0bac6f65"},"vehicle_type_id":"4","last_reported":1726927624,"current_range_meters":20000,"station_id":"ce4bgvp2rcd13ifvqcu0","pricing_plan_id":"cebpf4jnsgd1na2vs0mg"},{"bike_id":"c839c5b6-c700-4148-9427-6f6c3691baa7","system_id":"levelo_inurba_marseille","lat":43.23971,"lon":5.36627,"is_reserved":false,"is_disabled":false,"rental_uris":{"android":"levelo://app?vid=c839c5b6-c700-4148-9427-6f6c3691baa7","ios":"levelo://app?vid=c839c5b6-c700-4148-9427-6f6c3691baa7"},"vehicle_type_id":"4","last_reported":1726927624,"current_range_meters":25200,"station_id":"ce4bhi12rcd13ifvqfp0","pricing_plan_id":"cebpf4jnsgd1na2vs0mg"},{"bike_id":"cfbe31e7-5a87-4099-8820-b4f232b6e8dc","system_id":"levelo_inurba_marseille","lat":43.304321,"lon":5.388896,"is_reserved":false,"is_disabled":false,"rental_uris":{"android":"levelo://app?vid=cfbe31e7-5a87-4099-8820-b4f232b6e8dc","ios":"levelo://app?vid=cfbe31e7-5a87-4099-8820-b4f232b6e8dc"},"vehicle_type_id":"4","last_reported":1726927624,"current_range_meters":32000,"station_id":"ce4bgk12rcd13ifvqbi0","pricing_plan_id":"cebpf4jnsgd1na2vs0mg"},{"bike_id":"ddd62945-5e38-4436-85c7-9fd50db5f5e5","system_id":"levelo_inurba_marseille","lat":43.25501,"lon":5.37651,"is_reserved":false,"is_disabled":false,"rental_uris":{"android":"levelo://app?vid=ddd62945-5e38-4436-85c7-9fd50db5f5e5","ios":"levelo://app?vid=ddd62945-5e38-4436-85c7-9fd50db5f5e5"},"vehicle_type_id":"4","last_reported":1726927624,"current_range_meters":17600,"station_id":"ce4bhh12rcd13ifvqff0","pricing_plan_id":"cebpf4jnsgd1na2vs0mg"},{"bike_id":"386d7d39-d9a0-4f2f-9dfa-7b382234f940","system_id":"levelo_inurba_marseille","lat":43.23197,"lon":5.35559,"is_reserved":false,"is_disabled":false,"rental_uris":{"android":"levelo://app?vid=386d7d39-d9a0-4f2f-9dfa-7b382234f940","ios":"levelo://app?vid=386d7d39-d9a0-4f2f-9dfa-7b382234f940"},"vehicle_type_id":"4","last_reported":1726927624,"current_range_meters":20000,"station_id":"ce4bhu92rcd13ifvqi70","pricing_plan_id":"cebpf4jnsgd1na2vs0mg"},{"bike_id":"5419b1bf-d37c-4076-a34c-52ede101758e","system_id":"levelo_inurba_marseille","lat":43.337444,"lon":5.374475,"is_reserved":false,"is_disabled":false,"rental_uris":{"android":"levelo://app?vid=5419b1bf-d37c-4076-a34c-52ede101758e","ios":"levelo://app?vid=5419b1bf-d37c-4076-a34c-52ede101758e"},"vehicle_type_id":"4","last_reported":1726927624,"current_range_meters":32400,"station_id":"","pricing_plan_id":"cebpf4jnsgd1na2vs0mg"},{"bike_id":"1574c81b-59fc-4bf3-a3e5-e337bc1b272f","system_id":"levelo_inurba_marseille","lat":43.28268,"lon":5.3506,"is_reserved":false,"is_disabled":false,"rental_uris":{"android":"levelo://app?vid=1574c81b-59fc-4bf3-a3e5-e337bc1b272f","ios":"levelo://app?vid=1574c81b-59fc-4bf3-a3e5-e337bc1b272f"},"vehicle_type_id":"4","last_reported":1726927624,"current_range_meters":9600,"station_id":"ce4bhbp2rcd13ifvqerg","pricing_plan_id":"cebpf4jnsgd1na2vs0mg"},{"bike_id":"da9dd67c-abc2-4859-b89e-c27139de6bb9","system_id":"levelo_inurba_marseille","lat":43.27376,"lon":5.36256,"is_reserved":false,"is_disabled":false,"rental_uris":{"android":"levelo://app?vid=da9dd67c-abc2-4859-b89e-c27139de6bb9","ios":"levelo://app?vid=da9dd67c-abc2-4859-b89e-c27139de6bb9"},"vehicle_type_id":"4","last_reported":1726927624,"current_range_meters":24000,"station_id":"ce4bhbh2rcd13ifvqeo0","pricing_plan_id":"cebpf4jnsgd1na2vs0mg"},{"bike_id":"a712fa7e-e29b-4907-9dbc-02299af20910","system_id":"levelo_inurba_marseille","lat":43.30795,"lon":5.43533,"is_reserved":false,"is_disabled":false,"rental_uris":{"android":"levelo://app?vid=a712fa7e-e29b-4907-9dbc-02299af20910","ios":"levelo://app?vid=a712fa7e-e29b-4907-9dbc-02299af20910"},"vehicle_type_id":"4","last_reported":1726927624,"current_range_meters":35600,"station_id":"ce4bhph2rcd13ifvqheg","pricing_plan_id":"cebpf4jnsgd1na2vs0mg"},{"bike_id":"cf18dd0e-617e-4c63-889c-6195f92155ab","system_id":"levelo_inurba_marseille","lat":43.26216,"lon":5.37438,"is_reserved":false,"is_disabled":false,"rental_uris":{"android":"levelo://app?vid=cf18dd0e-617e-4c63-889c-6195f92155ab","ios":"levelo://app?vid=cf18dd0e-617e-4c63-889c-6195f92155ab"},"vehicle_type_id":"4","last_reported":1726927624,"current_range_meters":14000,"station_id":"ce4bhgp2rcd13ifvqfc0","pricing_plan_id":"cebpf4jnsgd1na2vs0mg"},{"bike_id":"bd4441b2-40ed-4228-9b84-bcbd8e6fbf65","system_id":"levelo_inurba_marseille","lat":43.28156,"lon":5.42644,"is_reserved":false,"is_disabled":false,"rental_uris":{"android":"levelo://app?vid=bd4441b2-40ed-4228-9b84-bcbd8e6fbf65","ios":"levelo://app?vid=bd4441b2-40ed-4228-9b84-bcbd8e6fbf65"},"vehicle_type_id":"4","last_reported":1726927624,"current_range_meters":11600,"station_id":"ce4bhnh2rcd13ifvqgug","pricing_plan_id":"cebpf4jnsgd1na2vs0mg"},{"bike_id":"c45588ba-d620-4246-b609-48fbbaec0786","system_id":"levelo_inurba_marseille","lat":43.27371,"lon":5.36262,"is_reserved":false,"is_disabled":false,"rental_uris":{"android":"levelo://app?vid=c45588ba-d620-4246-b609-48fbbaec0786","ios":"levelo://app?vid=c45588ba-d620-4246-b609-48fbbaec0786"},"vehicle_type_id":"4","last_reported":1726927624,"current_range_meters":19600,"station_id":"ce4bhbh2rcd13ifvqeo0","pricing_plan_id":"cebpf4jnsgd1na2vs0mg"},{"bike_id":"9b8550a5-ba3c-452e-98fa-864d659b5d88","system_id":"levelo_inurba_marseille","lat":43.26213,"lon":5.37443,"is_reserved":false,"is_disabled":false,"rental_uris":{"android":"levelo://app?vid=9b8550a5-ba3c-452e-98fa-864d659b5d88","ios":"levelo://app?vid=9b8550a5-ba3c-452e-98fa-864d659b5d88"},"vehicle_type_id":"4","last_reported":1726927624,"current_range_meters":30800,"station_id":"ce4bhgp2rcd13ifvqfc0","pricing_plan_id":"cebpf4jnsgd1na2vs0mg"},{"bike_id":"6e2fd8fb-799c-468d-a60b-38d2bf81aa37","system_id":"levelo_inurba_marseille","lat":43.2396,"lon":5.36618,"is_reserved":false,"is_disabled":false,"rental_uris":{"android":"levelo://app?vid=6e2fd8fb-799c-468d-a60b-38d2bf81aa37","ios":"levelo://app?vid=6e2fd8fb-799c-468d-a60b-38d2bf81aa37"},"vehicle_type_id":"4","last_reported":1726927624,"current_range_meters":38800,"station_id":"ce4bhi12rcd13ifvqfp0","pricing_plan_id":"cebpf4jnsgd1na2vs0mg"},{"bike_id":"f379a85a-a0f4-4147-9ef1-34a89f012069","system_id":"levelo_inurba_marseille","lat":43.24174,"lon":5.364,"is_reserved":false,"is_disabled":false,"rental_uris":{"android":"levelo://app?vid=f379a85a-a0f4-4147-9ef1-34a89f012069","ios":"levelo://app?vid=f379a85a-a0f4-4147-9ef1-34a89f012069"},"vehicle_type_id":"4","last_reported":1726927624,"current_range_meters":12000,"station_id":"cpo36qri1sfpv3e86is0","pricing_plan_id":"cebpf4jnsgd1na2vs0mg"},{"bike_id":"7ccc499f-63f1-4a72-b7c8-4b3b2437d268","system_id":"levelo_inurba_marseille","lat":43.25005,"lon":5.38916,"is_reserved":false,"is_disabled":false,"rental_uris":{"android":"levelo://app?vid=7ccc499f-63f1-4a72-b7c8-4b3b2437d268","ios":"levelo://app?vid=7ccc499f-63f1-4a72-b7c8-4b3b2437d268"},"vehicle_type_id":"4","last_reported":1726927624,"current_range_meters":28000,"station_id":"ce4bhgp2rcd13ifvqfd0","pricing_plan_id":"cebpf4jnsgd1na2vs0mg"},{"bike_id":"f7b75827-bfbc-4df4-b0c8-739b09895720","system_id":"levelo_inurba_marseille","lat":43.26203,"lon":5.3793,"is_reserved":false,"is_disabled":false,"rental_uris":{"android":"levelo://app?vid=f7b75827-bfbc-4df4-b0c8-739b09895720","ios":"levelo://app?vid=f7b75827-bfbc-4df4-b0c8-739b09895720"},"vehicle_type_id":"4","last_reported":1726927624,"current_range_meters":8000,"station_id":"ce4bhjp2rcd13ifvqg90","pricing_plan_id":"cebpf4jnsgd1na2vs0mg"},{"bike_id":"199be06c-27e4-4f03-9213-e585390a9a69","system_id":"levelo_inurba_marseille","lat":43.29849,"lon":5.36277,"is_reserved":false,"is_disabled":false,"rental_uris":{"android":"levelo://app?vid=199be06c-27e4-4f03-9213-e585390a9a69","ios":"levelo://app?vid=199be06c-27e4-4f03-9213-e585390a9a69"},"vehicle_type_id":"4","last_reported":1726927624,"current_range_meters":37600,"station_id":"ce4bgpp2rcd13ifvqc3g","pricing_plan_id":"cebpf4jnsgd1na2vs0mg"},{"bike_id":"d4faec2d-96af-435f-b8cd-9378df32df1d","system_id":"levelo_inurba_marseille","lat":43.29837,"lon":5.362675,"is_reserved":false,"is_disabled":false,"rental_uris":{"android":"levelo://app?vid=d4faec2d-96af-435f-b8cd-9378df32df1d","ios":"levelo://app?vid=d4faec2d-96af-435f-b8cd-9378df32df1d"},"vehicle_type_id":"4","last_reported":1726927624,"current_range_meters":9600,"station_id":"ce4bgpp2rcd13ifvqc3g","pricing_plan_id":"cebpf4jnsgd1na2vs0mg"},{"bike_id":"47382161-6549-4529-a84d-42d3bdfc17bc","system_id":"levelo_inurba_marseille","lat":43.24172,"lon":5.36401,"is_reserved":false,"is_disabled":false,"rental_uris":{"android":"levelo://app?vid=47382161-6549-4529-a84d-42d3bdfc17bc","ios":"levelo://app?vid=47382161-6549-4529-a84d-42d3bdfc17bc"},"vehicle_type_id":"4","last_reported":1726927624,"current_range_meters":17600,"station_id":"cpo36qri1sfpv3e86is0","pricing_plan_id":"cebpf4jnsgd1na2vs0mg"},{"bike_id":"1882e088-dbc7-4bd1-b9f9-7e1acf1aaac4","system_id":"levelo_inurba_marseille","lat":43.31076,"lon":5.38352,"is_reserved":false,"is_disabled":false,"rental_uris":{"android":"levelo://app?vid=1882e088-dbc7-4bd1-b9f9-7e1acf1aaac4","ios":"levelo://app?vid=1882e088-dbc7-4bd1-b9f9-7e1acf1aaac4"},"vehicle_type_id":"4","last_reported":1726927624,"current_range_meters":27200,"station_id":"ce4bgv92rcd13ifvqcr0","pricing_plan_id":"cebpf4jnsgd1na2vs0mg"},{"bike_id":"149779fc-bc45-458a-857f-33707eedaf6a","system_id":"levelo_inurba_marseille","lat":43.23195,"lon":5.35547,"is_reserved":false,"is_disabled":false,"rental_uris":{"android":"levelo://app?vid=149779fc-bc45-458a-857f-33707eedaf6a","ios":"levelo://app?vid=149779fc-bc45-458a-857f-33707eedaf6a"},"vehicle_type_id":"4","last_reported":1726927624,"current_range_meters":20400,"station_id":"ce4bhu92rcd13ifvqi70","pricing_plan_id":"cebpf4jnsgd1na2vs0mg"},{"bike_id":"5c360384-0a70-4290-a35d-e592090e1deb","system_id":"levelo_inurba_marseille","lat":43.25723,"lon":5.41111,"is_reserved":false,"is_disabled":false,"rental_uris":{"android":"levelo://app?vid=5c360384-0a70-4290-a35d-e592090e1deb","ios":"levelo://app?vid=5c360384-0a70-4290-a35d-e592090e1deb"},"vehicle_type_id":"4","last_reported":1726927624,"current_range_meters":38800,"station_id":"ce4bhkp2rcd13ifvqgd0","pricing_plan_id":"cebpf4jnsgd1na2vs0mg"},{"bike_id":"fed8c839-0a36-4c56-b81a-9c57493854f5","system_id":"levelo_inurba_marseille","lat":43.23192,"lon":5.35563,"is_reserved":false,"is_disabled":false,"rental_uris":{"android":"levelo://app?vid=fed8c839-0a36-4c56-b81a-9c57493854f5","ios":"levelo://app?vid=fed8c839-0a36-4c56-b81a-9c57493854f5"},"vehicle_type_id":"4","last_reported":1726927624,"current_range_meters":2000,"station_id":"ce4bhu92rcd13ifvqi70","pricing_plan_id":"cebpf4jnsgd1na2vs0mg"},{"bike_id":"82a02fcf-4a8f-4fce-85fc-b672d0b9c6f6","system_id":"levelo_inurba_marseille","lat":43.30794,"lon":5.38151,"is_reserved":false,"is_disabled":false,"rental_uris":{"android":"levelo://app?vid=82a02fcf-4a8f-4fce-85fc-b672d0b9c6f6","ios":"levelo://app?vid=82a02fcf-4a8f-4fce-85fc-b672d0b9c6f6"},"vehicle_type_id":"4","last_reported":1726927624,"current_range_meters":6400,"station_id":"ce4bgt12rcd13ifvqce0","pricing_plan_id":"cebpf4jnsgd1na2vs0mg"},{"bike_id":"1ed4e0c7-d3f8-4751-a217-b53cf45cffb8","system_id":"levelo_inurba_marseille","lat":43.2827,"lon":5.35064,"is_reserved":false,"is_disabled":false,"rental_uris":{"android":"levelo://app?vid=1ed4e0c7-d3f8-4751-a217-b53cf45cffb8","ios":"levelo://app?vid=1ed4e0c7-d3f8-4751-a217-b53cf45cffb8"},"vehicle_type_id":"4","last_reported":1726927624,"current_range_meters":3600,"station_id":"ce4bhbp2rcd13ifvqerg","pricing_plan_id":"cebpf4jnsgd1na2vs0mg"},{"bike_id":"3ba8b077-d55a-4178-b9d9-1d2b4cacbdb5","system_id":"levelo_inurba_marseille","lat":43.284163,"lon":5.349726,"is_reserved":false,"is_disabled":false,"rental_uris":{"android":"levelo://app?vid=3ba8b077-d55a-4178-b9d9-1d2b4cacbdb5","ios":"levelo://app?vid=3ba8b077-d55a-4178-b9d9-1d2b4cacbdb5"},"vehicle_type_id":"4","last_reported":1726927624,"current_range_meters":13600,"station_id":"ce4bhbh2rcd13ifvqepg","pricing_plan_id":"cebpf4jnsgd1na2vs0mg"},{"bike_id":"fda9acf4-d5c2-4ae6-ae92-6bed8fd5bcdc","system_id":"levelo_inurba_marseille","lat":43.2762,"lon":5.36108,"is_reserved":false,"is_disabled":false,"rental_uris":{"android":"levelo://app?vid=fda9acf4-d5c2-4ae6-ae92-6bed8fd5bcdc","ios":"levelo://app?vid=fda9acf4-d5c2-4ae6-ae92-6bed8fd5bcdc"},"vehicle_type_id":"4","last_reported":1726927624,"current_range_meters":10800,"station_id":"ce4bgj92rcd13ifvqbe0","pricing_plan_id":"cebpf4jnsgd1na2vs0mg"},{"bike_id":"604c9531-be4f-4974-bfe2-bd7828d7386f","system_id":"levelo_inurba_marseille","lat":43.29897,"lon":5.43673,"is_reserved":false,"is_disabled":false,"rental_uris":{"android":"levelo://app?vid=604c9531-be4f-4974-bfe2-bd7828d7386f","ios":"levelo://app?vid=604c9531-be4f-4974-bfe2-bd7828d7386f"},"vehicle_type_id":"4","last_reported":1726927624,"current_range_meters":24000,"station_id":"ce4bhpp2rcd13ifvqhfg","pricing_plan_id":"cebpf4jnsgd1na2vs0mg"},{"bike_id":"cdeaf82d-a939-4484-a3f0-4852a1e0e697","system_id":"levelo_inurba_marseille","lat":43.30958,"lon":5.39034,"is_reserved":false,"is_disabled":false,"rental_uris":{"android":"levelo://app?vid=cdeaf82d-a939-4484-a3f0-4852a1e0e697","ios":"levelo://app?vid=cdeaf82d-a939-4484-a3f0-4852a1e0e697"},"vehicle_type_id":"4","last_reported":1726927624,"current_range_meters":8800,"station_id":"ce4bgvh2rcd13ifvqcs0","pricing_plan_id":"cebpf4jnsgd1na2vs0mg"},{"bike_id":"4ba1a88c-faa8-43ec-ad8a-188386b84a7a","system_id":"levelo_inurba_marseille","lat":43.28579,"lon":5.3949,"is_reserved":false,"is_disabled":false,"rental_uris":{"android":"levelo://app?vid=4ba1a88c-faa8-43ec-ad8a-188386b84a7a","ios":"levelo://app?vid=4ba1a88c-faa8-43ec-ad8a-188386b84a7a"},"vehicle_type_id":"4","last_reported":1726927624,"current_range_meters":8400,"station_id":"ce4bh292rcd13ifvqdg0","pricing_plan_id":"cebpf4jnsgd1na2vs0mg"},{"bike_id":"e9f714fa-1d05-42df-9ecd-4171744ee136","system_id":"levelo_inurba_marseille","lat":43.28407,"lon":5.34995,"is_reserved":false,"is_disabled":false,"rental_uris":{"android":"levelo://app?vid=e9f714fa-1d05-42df-9ecd-4171744ee136","ios":"levelo://app?vid=e9f714fa-1d05-42df-9ecd-4171744ee136"},"vehicle_type_id":"4","last_reported":1726927624,"current_range_meters":32000,"station_id":"ce4bhbh2rcd13ifvqepg","pricing_plan_id":"cebpf4jnsgd1na2vs0mg"},{"bike_id":"d414398a-c2f5-4147-98fd-421b864558c6","system_id":"levelo_inurba_marseille","lat":43.23964,"lon":5.36624,"is_reserved":false,"is_disabled":false,"rental_uris":{"android":"levelo://app?vid=d414398a-c2f5-4147-98fd-421b864558c6","ios":"levelo://app?vid=d414398a-c2f5-4147-98fd-421b864558c6"},"vehicle_type_id":"4","last_reported":1726927624,"current_range_meters":18000,"station_id":"ce4bhi12rcd13ifvqfp0","pricing_plan_id":"cebpf4jnsgd1na2vs0mg"},{"bike_id":"31294d2d-4104-49e5-bebb-a59499b5b4d9","system_id":"levelo_inurba_marseille","lat":43.25584,"lon":5.38232,"is_reserved":false,"is_disabled":false,"rental_uris":{"android":"levelo://app?vid=31294d2d-4104-49e5-bebb-a59499b5b4d9","ios":"levelo://app?vid=31294d2d-4104-49e5-bebb-a59499b5b4d9"},"vehicle_type_id":"4","last_reported":1726927624,"current_range_meters":36000,"station_id":"ce4bhih2rcd13ifvqfs0","pricing_plan_id":"cebpf4jnsgd1na2vs0mg"},{"bike_id":"3128352e-59f6-4ffd-a030-848c0e81ba1c","system_id":"levelo_inurba_marseille","lat":43.27318,"lon":5.39082,"is_reserved":false,"is_disabled":false,"rental_uris":{"android":"levelo://app?vid=3128352e-59f6-4ffd-a030-848c0e81ba1c","ios":"levelo://app?vid=3128352e-59f6-4ffd-a030-848c0e81ba1c"},"vehicle_type_id":"4","last_reported":1726927624,"current_range_meters":30800,"station_id":"ce4bhgp2rcd13ifvqfe0","pricing_plan_id":"cebpf4jnsgd1na2vs0mg"},{"bike_id":"a8d42cf3-65fd-4e73-93d7-47142c435399","system_id":"levelo_inurba_marseille","lat":43.34338,"lon":5.41056,"is_reserved":false,"is_disabled":false,"rental_uris":{"android":"levelo://app?vid=a8d42cf3-65fd-4e73-93d7-47142c435399","ios":"levelo://app?vid=a8d42cf3-65fd-4e73-93d7-47142c435399"},"vehicle_type_id":"4","last_reported":1726927624,"current_range_meters":36000,"station_id":"","pricing_plan_id":"cebpf4jnsgd1na2vs0mg"},{"bike_id":"201d7071-9ccf-4a9a-9f0b-bbaa4304419f","system_id":"levelo_inurba_marseille","lat":43.29849,"lon":5.36273,"is_reserved":false,"is_disabled":false,"rental_uris":{"android":"levelo://app?vid=201d7071-9ccf-4a9a-9f0b-bbaa4304419f","ios":"levelo://app?vid=201d7071-9ccf-4a9a-9f0b-bbaa4304419f"},"vehicle_type_id":"4","last_reported":1726927624,"current_range_meters":27600,"station_id":"ce4bgpp2rcd13ifvqc3g","pricing_plan_id":"cebpf4jnsgd1na2vs0mg"},{"bike_id":"fe61791c-21d9-4b25-a0b8-c74c8e3b9350","system_id":"levelo_inurba_marseille","lat":43.22933,"lon":5.35377,"is_reserved":false,"is_disabled":false,"rental_uris":{"android":"levelo://app?vid=fe61791c-21d9-4b25-a0b8-c74c8e3b9350","ios":"levelo://app?vid=fe61791c-21d9-4b25-a0b8-c74c8e3b9350"},"vehicle_type_id":"4","last_reported":1726927624,"current_range_meters":28800,"station_id":"cpo3532slgdg3j2ikp40","pricing_plan_id":"cebpf4jnsgd1na2vs0mg"},{"bike_id":"33a4fb1c-ac48-4b44-8303-cde5aea18c9f","system_id":"levelo_inurba_marseille","lat":43.308655,"lon":5.391648,"is_reserved":false,"is_disabled":false,"rental_uris":{"android":"levelo://app?vid=33a4fb1c-ac48-4b44-8303-cde5aea18c9f","ios":"levelo://app?vid=33a4fb1c-ac48-4b44-8303-cde5aea18c9f"},"vehicle_type_id":"4","last_reported":1726927624,"current_range_meters":2000,"station_id":"ce4bgvp2rcd13ifvqcu0","pricing_plan_id":"cebpf4jnsgd1na2vs0mg"},{"bike_id":"0f095951-83e2-4482-bea5-76ef753c85e4","system_id":"levelo_inurba_marseille","lat":43.29847,"lon":5.36283,"is_reserved":false,"is_disabled":false,"rental_uris":{"android":"levelo://app?vid=0f095951-83e2-4482-bea5-76ef753c85e4","ios":"levelo://app?vid=0f095951-83e2-4482-bea5-76ef753c85e4"},"vehicle_type_id":"4","last_reported":1726927624,"current_range_meters":28800,"station_id":"ce4bgpp2rcd13ifvqc3g","pricing_plan_id":"cebpf4jnsgd1na2vs0mg"},{"bike_id":"7db34aab-bb83-4943-a5a0-93955f52a4ec","system_id":"levelo_inurba_marseille","lat":43.33717,"lon":5.39185,"is_reserved":false,"is_disabled":false,"rental_uris":{"android":"levelo://app?vid=7db34aab-bb83-4943-a5a0-93955f52a4ec","ios":"levelo://app?vid=7db34aab-bb83-4943-a5a0-93955f52a4ec"},"vehicle_type_id":"4","last_reported":1726927624,"current_range_meters":37600,"station_id":"ce4bhr92rcd13ifvqhsg","pricing_plan_id":"cebpf4jnsgd1na2vs0mg"},{"bike_id":"cf5481a7-836c-4ea1-946f-aca44959e18a","system_id":"levelo_inurba_marseille","lat":43.240662,"lon":5.377675,"is_reserved":false,"is_disabled":false,"rental_uris":{"android":"levelo://app?vid=cf5481a7-836c-4ea1-946f-aca44959e18a","ios":"levelo://app?vid=cf5481a7-836c-4ea1-946f-aca44959e18a"},"vehicle_type_id":"4","last_reported":1726927624,"current_range_meters":8800,"station_id":"ce4bhnp2rcd13ifvqgvg","pricing_plan_id":"cebpf4jnsgd1na2vs0mg"},{"bike_id":"3562367e-ea7c-4df2-8d11-85f32152a5ba","system_id":"levelo_inurba_marseille","lat":43.28109,"lon":5.37843,"is_reserved":false,"is_disabled":false,"rental_uris":{"android":"levelo://app?vid=3562367e-ea7c-4df2-8d11-85f32152a5ba","ios":"levelo://app?vid=3562367e-ea7c-4df2-8d11-85f32152a5ba"},"vehicle_type_id":"4","last_reported":1726927624,"current_range_meters":19200,"station_id":"ce4bha12rcd13ifvqee0","pricing_plan_id":"cebpf4jnsgd1na2vs0mg"},{"bike_id":"ae8725c2-5e55-4377-9c0d-a264c4cb4c72","system_id":"levelo_inurba_marseille","lat":43.29791,"lon":5.381,"is_reserved":false,"is_disabled":false,"rental_uris":{"android":"levelo://app?vid=ae8725c2-5e55-4377-9c0d-a264c4cb4c72","ios":"levelo://app?vid=ae8725c2-5e55-4377-9c0d-a264c4cb4c72"},"vehicle_type_id":"4","last_reported":1726927624,"current_range_meters":22800,"station_id":"ce4bgip2rcd13ifvqbb0","pricing_plan_id":"cebpf4jnsgd1na2vs0mg"},{"bike_id":"e23da34f-4d84-42d6-ad66-74a1d13a6bdf","system_id":"levelo_inurba_marseille","lat":43.30875,"lon":5.39646,"is_reserved":false,"is_disabled":false,"rental_uris":{"android":"levelo://app?vid=e23da34f-4d84-42d6-ad66-74a1d13a6bdf","ios":"levelo://app?vid=e23da34f-4d84-42d6-ad66-74a1d13a6bdf"},"vehicle_type_id":"4","last_reported":1726927624,"current_range_meters":30800,"station_id":"ce4bh012rcd13ifvqcv0","pricing_plan_id":"cebpf4jnsgd1na2vs0mg"},{"bike_id":"7b7cf89d-5325-4d4a-8061-5cf0c5bab16f","system_id":"levelo_inurba_marseille","lat":43.26192,"lon":5.37451,"is_reserved":false,"is_disabled":false,"rental_uris":{"android":"levelo://app?vid=7b7cf89d-5325-4d4a-8061-5cf0c5bab16f","ios":"levelo://app?vid=7b7cf89d-5325-4d4a-8061-5cf0c5bab16f"},"vehicle_type_id":"4","last_reported":1726927624,"current_range_meters":30800,"station_id":"","pricing_plan_id":"cebpf4jnsgd1na2vs0mg"},{"bike_id":"c89f2ec8-f079-4090-a948-a93079f4b8b0","system_id":"levelo_inurba_marseille","lat":43.26057,"lon":5.39398,"is_reserved":false,"is_disabled":false,"rental_uris":{"android":"levelo://app?vid=c89f2ec8-f079-4090-a948-a93079f4b8b0","ios":"levelo://app?vid=c89f2ec8-f079-4090-a948-a93079f4b8b0"},"vehicle_type_id":"4","last_reported":1726927624,"current_range_meters":28400,"station_id":"ce4bhh92rcd13ifvqfj0","pricing_plan_id":"cebpf4jnsgd1na2vs0mg"},{"bike_id":"fe02eabb-a2b4-4ea9-918d-8498504a82a3","system_id":"levelo_inurba_marseille","lat":43.26193,"lon":5.37445,"is_reserved":false,"is_disabled":false,"rental_uris":{"android":"levelo://app?vid=fe02eabb-a2b4-4ea9-918d-8498504a82a3","ios":"levelo://app?vid=fe02eabb-a2b4-4ea9-918d-8498504a82a3"},"vehicle_type_id":"4","last_reported":1726927624,"current_range_meters":12800,"station_id":"ce4bhgp2rcd13ifvqfc0","pricing_plan_id":"cebpf4jnsgd1na2vs0mg"},{"bike_id":"5962f768-e8af-4e06-ae9b-2ed607933472","system_id":"levelo_inurba_marseille","lat":43.32672,"lon":5.40983,"is_reserved":false,"is_disabled":false,"rental_uris":{"android":"levelo://app?vid=5962f768-e8af-4e06-ae9b-2ed607933472","ios":"levelo://app?vid=5962f768-e8af-4e06-ae9b-2ed607933472"},"vehicle_type_id":"4","last_reported":1726927624,"current_range_meters":2800,"station_id":"ce4bhpp2rcd13ifvqhgg","pricing_plan_id":"cebpf4jnsgd1na2vs0mg"},{"bike_id":"afaab830-46a4-4c2c-9890-6708827d00b5","system_id":"levelo_inurba_marseille","lat":43.28416,"lon":5.34992,"is_reserved":false,"is_disabled":false,"rental_uris":{"android":"levelo://app?vid=afaab830-46a4-4c2c-9890-6708827d00b5","ios":"levelo://app?vid=afaab830-46a4-4c2c-9890-6708827d00b5"},"vehicle_type_id":"4","last_reported":1726927624,"current_range_meters":24800,"station_id":"ce4bhbh2rcd13ifvqepg","pricing_plan_id":"cebpf4jnsgd1na2vs0mg"},{"bike_id":"0f12fabc-b031-450f-a6e9-5f13b770cd39","system_id":"levelo_inurba_marseille","lat":43.24666,"lon":5.38165,"is_reserved":false,"is_disabled":false,"rental_uris":{"android":"levelo://app?vid=0f12fabc-b031-450f-a6e9-5f13b770cd39","ios":"levelo://app?vid=0f12fabc-b031-450f-a6e9-5f13b770cd39"},"vehicle_type_id":"4","last_reported":1726927624,"current_range_meters":3600,"station_id":"ce4bhih2rcd13ifvqfr0","pricing_plan_id":"cebpf4jnsgd1na2vs0mg"},{"bike_id":"02676d95-59a3-4a5b-97ad-901d146f0e19","system_id":"levelo_inurba_marseille","lat":43.24547,"lon":5.39521,"is_reserved":false,"is_disabled":false,"rental_uris":{"android":"levelo://app?vid=02676d95-59a3-4a5b-97ad-901d146f0e19","ios":"levelo://app?vid=02676d95-59a3-4a5b-97ad-901d146f0e19"},"vehicle_type_id":"4","last_reported":1726927624,"current_range_meters":6800,"station_id":"ce4bhlp2rcd13ifvqgjg","pricing_plan_id":"cebpf4jnsgd1na2vs0mg"},{"bike_id":"146ac5f2-7c1e-46d5-9347-54e9005d3585","system_id":"levelo_inurba_marseille","lat":43.26938,"lon":5.40249,"is_reserved":false,"is_disabled":false,"rental_uris":{"android":"levelo://app?vid=146ac5f2-7c1e-46d5-9347-54e9005d3585","ios":"levelo://app?vid=146ac5f2-7c1e-46d5-9347-54e9005d3585"},"vehicle_type_id":"4","last_reported":1726927624,"current_range_meters":38800,"station_id":"cjm6bp8fraef2m0cb0m0","pricing_plan_id":"cebpf4jnsgd1na2vs0mg"},{"bike_id":"758784b8-11ee-4455-bac8-4de89f174b65","system_id":"levelo_inurba_marseille","lat":43.31178,"lon":5.38716,"is_reserved":false,"is_disabled":false,"rental_uris":{"android":"levelo://app?vid=758784b8-11ee-4455-bac8-4de89f174b65","ios":"levelo://app?vid=758784b8-11ee-4455-bac8-4de89f174b65"},"vehicle_type_id":"4","last_reported":1726927624,"current_range_meters":34000,"station_id":"ce4bgv12rcd13ifvqcp0","pricing_plan_id":"cebpf4jnsgd1na2vs0mg"},{"bike_id":"7b9dd459-340b-4978-bfb0-6c163a5263e8","system_id":"levelo_inurba_marseille","lat":43.23191,"lon":5.35546,"is_reserved":false,"is_disabled":false,"rental_uris":{"android":"levelo://app?vid=7b9dd459-340b-4978-bfb0-6c163a5263e8","ios":"levelo://app?vid=7b9dd459-340b-4978-bfb0-6c163a5263e8"},"vehicle_type_id":"4","last_reported":1726927624,"current_range_meters":38800,"station_id":"ce4bhu92rcd13ifvqi70","pricing_plan_id":"cebpf4jnsgd1na2vs0mg"},{"bike_id":"7b838af5-fb46-4844-a9f5-9a622a0326a3","system_id":"levelo_inurba_marseille","lat":43.31329,"lon":5.36705,"is_reserved":false,"is_disabled":false,"rental_uris":{"android":"levelo://app?vid=7b838af5-fb46-4844-a9f5-9a622a0326a3","ios":"levelo://app?vid=7b838af5-fb46-4844-a9f5-9a622a0326a3"},"vehicle_type_id":"4","last_reported":1726927624,"current_range_meters":38800,"station_id":"ce4bgr92rcd13ifvqc6g","pricing_plan_id":"cebpf4jnsgd1na2vs0mg"},{"bike_id":"cbee5b47-3529-4297-bf7e-7abd88e69aa3","system_id":"levelo_inurba_marseille","lat":43.24392,"lon":5.37062,"is_reserved":false,"is_disabled":false,"rental_uris":{"android":"levelo://app?vid=cbee5b47-3529-4297-bf7e-7abd88e69aa3","ios":"levelo://app?vid=cbee5b47-3529-4297-bf7e-7abd88e69aa3"},"vehicle_type_id":"4","last_reported":1726927624,"current_range_meters":34800,"station_id":"ce4bhhh2rcd13ifvqfk0","pricing_plan_id":"cebpf4jnsgd1na2vs0mg"},{"bike_id":"71aa8592-ddf7-4343-aed4-c00d3433340f","system_id":"levelo_inurba_marseille","lat":43.337444,"lon":5.374475,"is_reserved":false,"is_disabled":false,"rental_uris":{"android":"levelo://app?vid=71aa8592-ddf7-4343-aed4-c00d3433340f","ios":"levelo://app?vid=71aa8592-ddf7-4343-aed4-c00d3433340f"},"vehicle_type_id":"4","last_reported":1726927624,"current_range_meters":35600,"station_id":"","pricing_plan_id":"cebpf4jnsgd1na2vs0mg"},{"bike_id":"3740c6df-06cd-419b-9ae6-b8d9e5eff548","system_id":"levelo_inurba_marseille","lat":43.2753,"lon":5.40935,"is_reserved":false,"is_disabled":false,"rental_uris":{"android":"levelo://app?vid=3740c6df-06cd-419b-9ae6-b8d9e5eff548","ios":"levelo://app?vid=3740c6df-06cd-419b-9ae6-b8d9e5eff548"},"vehicle_type_id":"4","last_reported":1726927624,"current_range_meters":17600,"station_id":"","pricing_plan_id":"cebpf4jnsgd1na2vs0mg"},{"bike_id":"56afc466-4e2b-4282-8cb5-97c2b1d8a91e","system_id":"levelo_inurba_marseille","lat":43.26215,"lon":5.37441,"is_reserved":false,"is_disabled":false,"rental_uris":{"android":"levelo://app?vid=56afc466-4e2b-4282-8cb5-97c2b1d8a91e","ios":"levelo://app?vid=56afc466-4e2b-4282-8cb5-97c2b1d8a91e"},"vehicle_type_id":"4","last_reported":1726927624,"current_range_meters":38800,"station_id":"ce4bhgp2rcd13ifvqfc0","pricing_plan_id":"cebpf4jnsgd1na2vs0mg"},{"bike_id":"0b8c603b-dd7e-41e3-a2f3-46d73db38756","system_id":"levelo_inurba_marseille","lat":43.28419,"lon":5.34995,"is_reserved":false,"is_disabled":false,"rental_uris":{"android":"levelo://app?vid=0b8c603b-dd7e-41e3-a2f3-46d73db38756","ios":"levelo://app?vid=0b8c603b-dd7e-41e3-a2f3-46d73db38756"},"vehicle_type_id":"4","last_reported":1726927624,"current_range_meters":25600,"station_id":"ce4bhbh2rcd13ifvqepg","pricing_plan_id":"cebpf4jnsgd1na2vs0mg"},{"bike_id":"53a580e2-e76b-439b-8305-6be63b4cd5da","system_id":"levelo_inurba_marseille","lat":43.28424,"lon":5.34987,"is_reserved":false,"is_disabled":false,"rental_uris":{"android":"levelo://app?vid=53a580e2-e76b-439b-8305-6be63b4cd5da","ios":"levelo://app?vid=53a580e2-e76b-439b-8305-6be63b4cd5da"},"vehicle_type_id":"4","last_reported":1726927624,"current_range_meters":25600,"station_id":"ce4bhbh2rcd13ifvqepg","pricing_plan_id":"cebpf4jnsgd1na2vs0mg"},{"bike_id":"828ba5db-9ddd-4aab-9aa9-833dfd3a77b1","system_id":"levelo_inurba_marseille","lat":43.24805,"lon":5.37456,"is_reserved":false,"is_disabled":false,"rental_uris":{"android":"levelo://app?vid=828ba5db-9ddd-4aab-9aa9-833dfd3a77b1","ios":"levelo://app?vid=828ba5db-9ddd-4aab-9aa9-833dfd3a77b1"},"vehicle_type_id":"4","last_reported":1726927624,"current_range_meters":31200,"station_id":"ce4bhgh2rcd13ifvqfb0","pricing_plan_id":"cebpf4jnsgd1na2vs0mg"},{"bike_id":"cb82932c-0473-4e4d-b32b-4921f70fbb41","system_id":"levelo_inurba_marseille","lat":43.28614,"lon":5.35098,"is_reserved":false,"is_disabled":false,"rental_uris":{"android":"levelo://app?vid=cb82932c-0473-4e4d-b32b-4921f70fbb41","ios":"levelo://app?vid=cb82932c-0473-4e4d-b32b-4921f70fbb41"},"vehicle_type_id":"4","last_reported":1726927624,"current_range_meters":21600,"station_id":"ce4bhch2rcd13ifvqeug","pricing_plan_id":"cebpf4jnsgd1na2vs0mg"},{"bike_id":"bb77777d-90bb-42a8-bb53-86e3a00001ad","system_id":"levelo_inurba_marseille","lat":43.23152,"lon":5.43707,"is_reserved":false,"is_disabled":false,"rental_uris":{"android":"levelo://app?vid=bb77777d-90bb-42a8-bb53-86e3a00001ad","ios":"levelo://app?vid=bb77777d-90bb-42a8-bb53-86e3a00001ad"},"vehicle_type_id":"4","last_reported":1726927624,"current_range_meters":38800,"station_id":"ce4bhmp2rcd13ifvqgog","pricing_plan_id":"cebpf4jnsgd1na2vs0mg"},{"bike_id":"fd5ed5c2-acd9-4fd1-af58-ff9c0f3e0954","system_id":"levelo_inurba_marseille","lat":43.28844,"lon":5.39356,"is_reserved":false,"is_disabled":false,"rental_uris":{"android":"levelo://app?vid=fd5ed5c2-acd9-4fd1-af58-ff9c0f3e0954","ios":"levelo://app?vid=fd5ed5c2-acd9-4fd1-af58-ff9c0f3e0954"},"vehicle_type_id":"4","last_reported":1726927624,"current_range_meters":29600,"station_id":"ce4bh2p2rcd13ifvqdi0","pricing_plan_id":"cebpf4jnsgd1na2vs0mg"},{"bike_id":"8bcac8b8-3997-446d-87c0-0a15e83cfd3d","system_id":"levelo_inurba_marseille","lat":43.28155,"lon":5.42642,"is_reserved":false,"is_disabled":false,"rental_uris":{"android":"levelo://app?vid=8bcac8b8-3997-446d-87c0-0a15e83cfd3d","ios":"levelo://app?vid=8bcac8b8-3997-446d-87c0-0a15e83cfd3d"},"vehicle_type_id":"4","last_reported":1726927624,"current_range_meters":20800,"station_id":"ce4bhnh2rcd13ifvqgug","pricing_plan_id":"cebpf4jnsgd1na2vs0mg"},{"bike_id":"1dd34be8-3aed-456a-8b58-40b330a20374","system_id":"levelo_inurba_marseille","lat":43.23957,"lon":5.36625,"is_reserved":false,"is_disabled":false,"rental_uris":{"android":"levelo://app?vid=1dd34be8-3aed-456a-8b58-40b330a20374","ios":"levelo://app?vid=1dd34be8-3aed-456a-8b58-40b330a20374"},"vehicle_type_id":"4","last_reported":1726927624,"current_range_meters":36000,"station_id":"ce4bhi12rcd13ifvqfp0","pricing_plan_id":"cebpf4jnsgd1na2vs0mg"},{"bike_id":"59d9b6b8-cd3e-4dbb-a706-44f7cd8085fb","system_id":"levelo_inurba_marseille","lat":43.30888,"lon":5.3963,"is_reserved":false,"is_disabled":false,"rental_uris":{"android":"levelo://app?vid=59d9b6b8-cd3e-4dbb-a706-44f7cd8085fb","ios":"levelo://app?vid=59d9b6b8-cd3e-4dbb-a706-44f7cd8085fb"},"vehicle_type_id":"4","last_reported":1726927624,"current_range_meters":22800,"station_id":"ce4bh012rcd13ifvqcv0","pricing_plan_id":"cebpf4jnsgd1na2vs0mg"},{"bike_id":"c8171a91-453b-4f10-8684-f9ddcdcd88d3","system_id":"levelo_inurba_marseille","lat":43.289382,"lon":5.396307,"is_reserved":false,"is_disabled":false,"rental_uris":{"android":"levelo://app?vid=c8171a91-453b-4f10-8684-f9ddcdcd88d3","ios":"levelo://app?vid=c8171a91-453b-4f10-8684-f9ddcdcd88d3"},"vehicle_type_id":"4","last_reported":1726927624,"current_range_meters":4800,"station_id":"ce4bh3h2rcd13ifvqdn0","pricing_plan_id":"cebpf4jnsgd1na2vs0mg"},{"bike_id":"4f6cd953-65f5-4d4f-a052-70118d864e1d","system_id":"levelo_inurba_marseille","lat":43.29897,"lon":5.43671,"is_reserved":false,"is_disabled":false,"rental_uris":{"android":"levelo://app?vid=4f6cd953-65f5-4d4f-a052-70118d864e1d","ios":"levelo://app?vid=4f6cd953-65f5-4d4f-a052-70118d864e1d"},"vehicle_type_id":"4","last_reported":1726927624,"current_range_meters":8400,"station_id":"ce4bhpp2rcd13ifvqhfg","pricing_plan_id":"cebpf4jnsgd1na2vs0mg"},{"bike_id":"5dfabd8f-4e62-4a12-95a7-9c8a084ab7ab","system_id":"levelo_inurba_marseille","lat":43.24649,"lon":5.38883,"is_reserved":false,"is_disabled":false,"rental_uris":{"android":"levelo://app?vid=5dfabd8f-4e62-4a12-95a7-9c8a084ab7ab","ios":"levelo://app?vid=5dfabd8f-4e62-4a12-95a7-9c8a084ab7ab"},"vehicle_type_id":"4","last_reported":1726927624,"current_range_meters":4000,"station_id":"ce4bhg12rcd13ifvqf60","pricing_plan_id":"cebpf4jnsgd1na2vs0mg"},{"bike_id":"78beca1b-c8a3-40b4-8c4f-b01a1acf30b5","system_id":"levelo_inurba_marseille","lat":43.34143,"lon":5.40913,"is_reserved":false,"is_disabled":false,"rental_uris":{"android":"levelo://app?vid=78beca1b-c8a3-40b4-8c4f-b01a1acf30b5","ios":"levelo://app?vid=78beca1b-c8a3-40b4-8c4f-b01a1acf30b5"},"vehicle_type_id":"4","last_reported":1726927624,"current_range_meters":10000,"station_id":"ce4bhqh2rcd13ifvqhlg","pricing_plan_id":"cebpf4jnsgd1na2vs0mg"},{"bike_id":"f86bcbf4-fb48-4f96-8fda-87a65c3a0bf1","system_id":"levelo_inurba_marseille","lat":43.33765,"lon":5.37425,"is_reserved":false,"is_disabled":false,"rental_uris":{"android":"levelo://app?vid=f86bcbf4-fb48-4f96-8fda-87a65c3a0bf1","ios":"levelo://app?vid=f86bcbf4-fb48-4f96-8fda-87a65c3a0bf1"},"vehicle_type_id":"4","last_reported":1726927624,"current_range_meters":16000,"station_id":"","pricing_plan_id":"cebpf4jnsgd1na2vs0mg"},{"bike_id":"75c275d1-ae86-4aa0-9372-fc5d7d0017c9","system_id":"levelo_inurba_marseille","lat":43.28409,"lon":5.34988,"is_reserved":false,"is_disabled":false,"rental_uris":{"android":"levelo://app?vid=75c275d1-ae86-4aa0-9372-fc5d7d0017c9","ios":"levelo://app?vid=75c275d1-ae86-4aa0-9372-fc5d7d0017c9"},"vehicle_type_id":"4","last_reported":1726927624,"current_range_meters":9200,"station_id":"ce4bhbh2rcd13ifvqepg","pricing_plan_id":"cebpf4jnsgd1na2vs0mg"},{"bike_id":"c919cd9a-c9fb-4572-ac0c-97f80a66c128","system_id":"levelo_inurba_marseille","lat":43.22928,"lon":5.35376,"is_reserved":false,"is_disabled":false,"rental_uris":{"android":"levelo://app?vid=c919cd9a-c9fb-4572-ac0c-97f80a66c128","ios":"levelo://app?vid=c919cd9a-c9fb-4572-ac0c-97f80a66c128"},"vehicle_type_id":"4","last_reported":1726927624,"current_range_meters":5600,"station_id":"cpo3532slgdg3j2ikp40","pricing_plan_id":"cebpf4jnsgd1na2vs0mg"},{"bike_id":"a0427d3b-696f-437f-9225-09aa06dd8e61","system_id":"levelo_inurba_marseille","lat":43.295571,"lon":5.422942,"is_reserved":false,"is_disabled":false,"rental_uris":{"android":"levelo://app?vid=a0427d3b-696f-437f-9225-09aa06dd8e61","ios":"levelo://app?vid=a0427d3b-696f-437f-9225-09aa06dd8e61"},"vehicle_type_id":"4","last_reported":1726927624,"current_range_meters":14000,"station_id":"ce4bhph2rcd13ifvqhdg","pricing_plan_id":"cebpf4jnsgd1na2vs0mg"},{"bike_id":"aba48e36-8d36-477c-8249-588c835cdb8a","system_id":"levelo_inurba_marseille","lat":43.2606,"lon":5.39397,"is_reserved":false,"is_disabled":false,"rental_uris":{"android":"levelo://app?vid=aba48e36-8d36-477c-8249-588c835cdb8a","ios":"levelo://app?vid=aba48e36-8d36-477c-8249-588c835cdb8a"},"vehicle_type_id":"4","last_reported":1726927624,"current_range_meters":7200,"station_id":"ce4bhgh2rcd13ifvqfa0","pricing_plan_id":"cebpf4jnsgd1na2vs0mg"},{"bike_id":"e3a1c1ba-10cb-4e2b-a994-cf23183ef734","system_id":"levelo_inurba_marseille","lat":43.29449,"lon":5.39748,"is_reserved":false,"is_disabled":false,"rental_uris":{"android":"levelo://app?vid=e3a1c1ba-10cb-4e2b-a994-cf23183ef734","ios":"levelo://app?vid=e3a1c1ba-10cb-4e2b-a994-cf23183ef734"},"vehicle_type_id":"4","last_reported":1726927624,"current_range_meters":21600,"station_id":"ce4bh3h2rcd13ifvqdo0","pricing_plan_id":"cebpf4jnsgd1na2vs0mg"},{"bike_id":"612f8825-af75-4595-a617-6107af8196ae","system_id":"levelo_inurba_marseille","lat":43.23154,"lon":5.43712,"is_reserved":false,"is_disabled":false,"rental_uris":{"android":"levelo://app?vid=612f8825-af75-4595-a617-6107af8196ae","ios":"levelo://app?vid=612f8825-af75-4595-a617-6107af8196ae"},"vehicle_type_id":"4","last_reported":1726927624,"current_range_meters":22400,"station_id":"ce4bhmp2rcd13ifvqgog","pricing_plan_id":"cebpf4jnsgd1na2vs0mg"},{"bike_id":"f1667844-02c5-458c-a5ed-5c4b71abb172","system_id":"levelo_inurba_marseille","lat":43.33754,"lon":5.37428,"is_reserved":false,"is_disabled":false,"rental_uris":{"android":"levelo://app?vid=f1667844-02c5-458c-a5ed-5c4b71abb172","ios":"levelo://app?vid=f1667844-02c5-458c-a5ed-5c4b71abb172"},"vehicle_type_id":"4","last_reported":1726927624,"current_range_meters":12800,"station_id":"","pricing_plan_id":"cebpf4jnsgd1na2vs0mg"},{"bike_id":"99eeafe6-366f-429a-b8f8-8a504a89203b","system_id":"levelo_inurba_marseille","lat":43.28497,"lon":5.35595,"is_reserved":false,"is_disabled":false,"rental_uris":{"android":"levelo://app?vid=99eeafe6-366f-429a-b8f8-8a504a89203b","ios":"levelo://app?vid=99eeafe6-366f-429a-b8f8-8a504a89203b"},"vehicle_type_id":"4","last_reported":1726927624,"current_range_meters":32000,"station_id":"","pricing_plan_id":"cebpf4jnsgd1na2vs0mg"},{"bike_id":"d33947f1-f932-44f2-b587-5b9d877a68ad","system_id":"levelo_inurba_marseille","lat":43.28418,"lon":5.34989,"is_reserved":false,"is_disabled":false,"rental_uris":{"android":"levelo://app?vid=d33947f1-f932-44f2-b587-5b9d877a68ad","ios":"levelo://app?vid=d33947f1-f932-44f2-b587-5b9d877a68ad"},"vehicle_type_id":"4","last_reported":1726927624,"current_range_meters":9200,"station_id":"ce4bhbh2rcd13ifvqepg","pricing_plan_id":"cebpf4jnsgd1na2vs0mg"},{"bike_id":"29058ff5-4d24-4c57-9c80-3c616b905bac","system_id":"levelo_inurba_marseille","lat":43.29547,"lon":5.42282,"is_reserved":false,"is_disabled":false,"rental_uris":{"android":"levelo://app?vid=29058ff5-4d24-4c57-9c80-3c616b905bac","ios":"levelo://app?vid=29058ff5-4d24-4c57-9c80-3c616b905bac"},"vehicle_type_id":"4","last_reported":1726927624,"current_range_meters":37600,"station_id":"ce4bhph2rcd13ifvqhdg","pricing_plan_id":"cebpf4jnsgd1na2vs0mg"},{"bike_id":"ebbfb9e4-e3da-4b77-abdf-c23580edaeba","system_id":"levelo_inurba_marseille","lat":43.26194,"lon":5.37448,"is_reserved":false,"is_disabled":false,"rental_uris":{"android":"levelo://app?vid=ebbfb9e4-e3da-4b77-abdf-c23580edaeba","ios":"levelo://app?vid=ebbfb9e4-e3da-4b77-abdf-c23580edaeba"},"vehicle_type_id":"4","last_reported":1726927624,"current_range_meters":26000,"station_id":"ce4bhgp2rcd13ifvqfc0","pricing_plan_id":"cebpf4jnsgd1na2vs0mg"},{"bike_id":"537dea15-29c9-43d5-99b1-fb66cbbcb6b3","system_id":"levelo_inurba_marseille","lat":43.30955,"lon":5.39034,"is_reserved":false,"is_disabled":false,"rental_uris":{"android":"levelo://app?vid=537dea15-29c9-43d5-99b1-fb66cbbcb6b3","ios":"levelo://app?vid=537dea15-29c9-43d5-99b1-fb66cbbcb6b3"},"vehicle_type_id":"4","last_reported":1726927624,"current_range_meters":17200,"station_id":"ce4bgup2rcd13ifvqco0","pricing_plan_id":"cebpf4jnsgd1na2vs0mg"},{"bike_id":"bce83964-771d-421d-a795-c2b376c5b9dc","system_id":"levelo_inurba_marseille","lat":43.23196,"lon":5.3555,"is_reserved":false,"is_disabled":false,"rental_uris":{"android":"levelo://app?vid=bce83964-771d-421d-a795-c2b376c5b9dc","ios":"levelo://app?vid=bce83964-771d-421d-a795-c2b376c5b9dc"},"vehicle_type_id":"4","last_reported":1726927624,"current_range_meters":18000,"station_id":"ce4bhu92rcd13ifvqi70","pricing_plan_id":"cebpf4jnsgd1na2vs0mg"},{"bike_id":"70e763f5-9d12-479e-9b10-8847cc055c86","system_id":"levelo_inurba_marseille","lat":43.30421,"lon":5.41276,"is_reserved":false,"is_disabled":false,"rental_uris":{"android":"levelo://app?vid=70e763f5-9d12-479e-9b10-8847cc055c86","ios":"levelo://app?vid=70e763f5-9d12-479e-9b10-8847cc055c86"},"vehicle_type_id":"4","last_reported":1726927624,"current_range_meters":38800,"station_id":"ce4bhop2rcd13ifvqh8g","pricing_plan_id":"cebpf4jnsgd1na2vs0mg"},{"bike_id":"f22c4413-a948-4396-9c39-d47f741aaf78","system_id":"levelo_inurba_marseille","lat":43.24813,"lon":5.37459,"is_reserved":false,"is_disabled":false,"rental_uris":{"android":"levelo://app?vid=f22c4413-a948-4396-9c39-d47f741aaf78","ios":"levelo://app?vid=f22c4413-a948-4396-9c39-d47f741aaf78"},"vehicle_type_id":"4","last_reported":1726927624,"current_range_meters":38800,"station_id":"ce4bhgh2rcd13ifvqfb0","pricing_plan_id":"cebpf4jnsgd1na2vs0mg"},{"bike_id":"c6193385-61c9-4f7e-91d9-2050d2fdbe74","system_id":"levelo_inurba_marseille","lat":43.29837,"lon":5.36261,"is_reserved":false,"is_disabled":false,"rental_uris":{"android":"levelo://app?vid=c6193385-61c9-4f7e-91d9-2050d2fdbe74","ios":"levelo://app?vid=c6193385-61c9-4f7e-91d9-2050d2fdbe74"},"vehicle_type_id":"4","last_reported":1726927624,"current_range_meters":19200,"station_id":"ce4bgpp2rcd13ifvqc3g","pricing_plan_id":"cebpf4jnsgd1na2vs0mg"},{"bike_id":"8ed0edca-3ff5-4683-83cb-cce0d7736e51","system_id":"levelo_inurba_marseille","lat":43.24078,"lon":5.37748,"is_reserved":false,"is_disabled":false,"rental_uris":{"android":"levelo://app?vid=8ed0edca-3ff5-4683-83cb-cce0d7736e51","ios":"levelo://app?vid=8ed0edca-3ff5-4683-83cb-cce0d7736e51"},"vehicle_type_id":"4","last_reported":1726927624,"current_range_meters":38000,"station_id":"ce4bhnp2rcd13ifvqgvg","pricing_plan_id":"cebpf4jnsgd1na2vs0mg"},{"bike_id":"3646f607-1b0a-4416-96ab-0e8597b215f2","system_id":"levelo_inurba_marseille","lat":43.297116,"lon":5.366063,"is_reserved":false,"is_disabled":false,"rental_uris":{"android":"levelo://app?vid=3646f607-1b0a-4416-96ab-0e8597b215f2","ios":"levelo://app?vid=3646f607-1b0a-4416-96ab-0e8597b215f2"},"vehicle_type_id":"4","last_reported":1726927624,"current_range_meters":12000,"station_id":"ce4bgn12rcd13ifvqbt0","pricing_plan_id":"cebpf4jnsgd1na2vs0mg"},{"bike_id":"97037d84-e295-44c1-a8b6-b2863f316212","system_id":"levelo_inurba_marseille","lat":43.29262,"lon":5.3684,"is_reserved":false,"is_disabled":false,"rental_uris":{"android":"levelo://app?vid=97037d84-e295-44c1-a8b6-b2863f316212","ios":"levelo://app?vid=97037d84-e295-44c1-a8b6-b2863f316212"},"vehicle_type_id":"4","last_reported":1726927624,"current_range_meters":30400,"station_id":"ce4bhbp2rcd13ifvqesg","pricing_plan_id":"cebpf4jnsgd1na2vs0mg"},{"bike_id":"8a69b7df-017d-4e46-a48c-fdd119ff6ab1","system_id":"levelo_inurba_marseille","lat":43.2466,"lon":5.38167,"is_reserved":false,"is_disabled":false,"rental_uris":{"android":"levelo://app?vid=8a69b7df-017d-4e46-a48c-fdd119ff6ab1","ios":"levelo://app?vid=8a69b7df-017d-4e46-a48c-fdd119ff6ab1"},"vehicle_type_id":"4","last_reported":1726927624,"current_range_meters":38000,"station_id":"ce4bhih2rcd13ifvqfr0","pricing_plan_id":"cebpf4jnsgd1na2vs0mg"},{"bike_id":"da4508dc-41c0-4202-9324-2a4c11586e5c","system_id":"levelo_inurba_marseille","lat":43.23194,"lon":5.35556,"is_reserved":false,"is_disabled":false,"rental_uris":{"android":"levelo://app?vid=da4508dc-41c0-4202-9324-2a4c11586e5c","ios":"levelo://app?vid=da4508dc-41c0-4202-9324-2a4c11586e5c"},"vehicle_type_id":"4","last_reported":1726927624,"current_range_meters":30400,"station_id":"ce4bhu92rcd13ifvqi70","pricing_plan_id":"cebpf4jnsgd1na2vs0mg"},{"bike_id":"4c846cc8-c036-4a92-b077-3e5d17a67c30","system_id":"levelo_inurba_marseille","lat":43.31728,"lon":5.42394,"is_reserved":false,"is_disabled":false,"rental_uris":{"android":"levelo://app?vid=4c846cc8-c036-4a92-b077-3e5d17a67c30","ios":"levelo://app?vid=4c846cc8-c036-4a92-b077-3e5d17a67c30"},"vehicle_type_id":"4","last_reported":1726927624,"current_range_meters":28800,"station_id":"ce4bhp92rcd13ifvqhbg","pricing_plan_id":"cebpf4jnsgd1na2vs0mg"},{"bike_id":"57c61f8c-633b-4326-a545-184ec4592023","system_id":"levelo_inurba_marseille","lat":43.32487,"lon":5.36568,"is_reserved":false,"is_disabled":false,"rental_uris":{"android":"levelo://app?vid=57c61f8c-633b-4326-a545-184ec4592023","ios":"levelo://app?vid=57c61f8c-633b-4326-a545-184ec4592023"},"vehicle_type_id":"4","last_reported":1726927624,"current_range_meters":19200,"station_id":"ce4bhs12rcd13ifvqhvg","pricing_plan_id":"cebpf4jnsgd1na2vs0mg"},{"bike_id":"fb2b63d9-4a26-4602-9a57-d2caab531ee7","system_id":"levelo_inurba_marseille","lat":43.3372,"lon":5.39182,"is_reserved":false,"is_disabled":false,"rental_uris":{"android":"levelo://app?vid=fb2b63d9-4a26-4602-9a57-d2caab531ee7","ios":"levelo://app?vid=fb2b63d9-4a26-4602-9a57-d2caab531ee7"},"vehicle_type_id":"4","last_reported":1726927624,"current_range_meters":38400,"station_id":"ce4bhr92rcd13ifvqhsg","pricing_plan_id":"cebpf4jnsgd1na2vs0mg"},{"bike_id":"2e31119d-c49b-4c6f-8d35-fe5f19d3606b","system_id":"levelo_inurba_marseille","lat":43.26208,"lon":5.37441,"is_reserved":false,"is_disabled":false,"rental_uris":{"android":"levelo://app?vid=2e31119d-c49b-4c6f-8d35-fe5f19d3606b","ios":"levelo://app?vid=2e31119d-c49b-4c6f-8d35-fe5f19d3606b"},"vehicle_type_id":"4","last_reported":1726927624,"current_range_meters":23200,"station_id":"ce4bhgp2rcd13ifvqfc0","pricing_plan_id":"cebpf4jnsgd1na2vs0mg"},{"bike_id":"c6f8dd90-ddb5-45a1-ac25-f595659003c8","system_id":"levelo_inurba_marseille","lat":43.33768,"lon":5.37424,"is_reserved":false,"is_disabled":false,"rental_uris":{"android":"levelo://app?vid=c6f8dd90-ddb5-45a1-ac25-f595659003c8","ios":"levelo://app?vid=c6f8dd90-ddb5-45a1-ac25-f595659003c8"},"vehicle_type_id":"4","last_reported":1726927624,"current_range_meters":23200,"station_id":"","pricing_plan_id":"cebpf4jnsgd1na2vs0mg"},{"bike_id":"d67de829-9067-49be-8911-7a901af28990","system_id":"levelo_inurba_marseille","lat":43.23963,"lon":5.36629,"is_reserved":false,"is_disabled":false,"rental_uris":{"android":"levelo://app?vid=d67de829-9067-49be-8911-7a901af28990","ios":"levelo://app?vid=d67de829-9067-49be-8911-7a901af28990"},"vehicle_type_id":"4","last_reported":1726927624,"current_range_meters":16000,"station_id":"ce4bhi12rcd13ifvqfp0","pricing_plan_id":"cebpf4jnsgd1na2vs0mg"},{"bike_id":"99eb0d4e-3943-46a7-af3c-e24c6b0bb817","system_id":"levelo_inurba_marseille","lat":43.272068,"lon":5.391897,"is_reserved":false,"is_disabled":false,"rental_uris":{"android":"levelo://app?vid=99eb0d4e-3943-46a7-af3c-e24c6b0bb817","ios":"levelo://app?vid=99eb0d4e-3943-46a7-af3c-e24c6b0bb817"},"vehicle_type_id":"4","last_reported":1726927624,"current_range_meters":33200,"station_id":"ce4bhgp2rcd13ifvqfd0","pricing_plan_id":"cebpf4jnsgd1na2vs0mg"},{"bike_id":"1d229b25-199a-4cb3-95ab-aa92a671ab38","system_id":"levelo_inurba_marseille","lat":43.31878,"lon":5.40742,"is_reserved":false,"is_disabled":false,"rental_uris":{"android":"levelo://app?vid=1d229b25-199a-4cb3-95ab-aa92a671ab38","ios":"levelo://app?vid=1d229b25-199a-4cb3-95ab-aa92a671ab38"},"vehicle_type_id":"4","last_reported":1726927624,"current_range_meters":22000,"station_id":"ce4bhq12rcd13ifvqhig","pricing_plan_id":"cebpf4jnsgd1na2vs0mg"},{"bike_id":"37b4d91c-680c-4b33-9efb-a8108a521c29","system_id":"levelo_inurba_marseille","lat":43.29007,"lon":5.35616,"is_reserved":false,"is_disabled":false,"rental_uris":{"android":"levelo://app?vid=37b4d91c-680c-4b33-9efb-a8108a521c29","ios":"levelo://app?vid=37b4d91c-680c-4b33-9efb-a8108a521c29"},"vehicle_type_id":"4","last_reported":1726927624,"current_range_meters":27200,"station_id":"ce4bgj92rcd13ifvqbe0","pricing_plan_id":"cebpf4jnsgd1na2vs0mg"},{"bike_id":"b6d7bbd4-6f24-4d67-845e-b63f11d91161","system_id":"levelo_inurba_marseille","lat":43.290374,"lon":5.375779,"is_reserved":false,"is_disabled":false,"rental_uris":{"android":"levelo://app?vid=b6d7bbd4-6f24-4d67-845e-b63f11d91161","ios":"levelo://app?vid=b6d7bbd4-6f24-4d67-845e-b63f11d91161"},"vehicle_type_id":"4","last_reported":1726927624,"current_range_meters":11600,"station_id":"ce4bh692rcd13ifvqe90","pricing_plan_id":"cebpf4jnsgd1na2vs0mg"},{"bike_id":"b869f1ae-f37d-464a-8d18-0fd8cd3f314c","system_id":"levelo_inurba_marseille","lat":43.29166,"lon":5.40625,"is_reserved":false,"is_disabled":false,"rental_uris":{"android":"levelo://app?vid=b869f1ae-f37d-464a-8d18-0fd8cd3f314c","ios":"levelo://app?vid=b869f1ae-f37d-464a-8d18-0fd8cd3f314c"},"vehicle_type_id":"4","last_reported":1726927624,"current_range_meters":3200,"station_id":"","pricing_plan_id":"cebpf4jnsgd1na2vs0mg"},{"bike_id":"62f58743-bf48-4d3c-8a8c-228cae14b5f3","system_id":"levelo_inurba_marseille","lat":43.29594,"lon":5.38103,"is_reserved":false,"is_disabled":false,"rental_uris":{"android":"levelo://app?vid=62f58743-bf48-4d3c-8a8c-228cae14b5f3","ios":"levelo://app?vid=62f58743-bf48-4d3c-8a8c-228cae14b5f3"},"vehicle_type_id":"4","last_reported":1726927624,"current_range_meters":28800,"station_id":"ce4bgl12rcd13ifvqbo0","pricing_plan_id":"cebpf4jnsgd1na2vs0mg"},{"bike_id":"a59a88ce-616d-46fe-8ebf-7b37657fca69","system_id":"levelo_inurba_marseille","lat":43.269592,"lon":5.386414,"is_reserved":false,"is_disabled":false,"rental_uris":{"android":"levelo://app?vid=a59a88ce-616d-46fe-8ebf-7b37657fca69","ios":"levelo://app?vid=a59a88ce-616d-46fe-8ebf-7b37657fca69"},"vehicle_type_id":"4","last_reported":1726927624,"current_range_meters":24000,"station_id":"ce4bhh92rcd13ifvqfh0","pricing_plan_id":"cebpf4jnsgd1na2vs0mg"},{"bike_id":"fa690805-233a-4a70-a9f3-33f1b67cdb1f","system_id":"levelo_inurba_marseille","lat":43.3229,"lon":5.38258,"is_reserved":false,"is_disabled":false,"rental_uris":{"android":"levelo://app?vid=fa690805-233a-4a70-a9f3-33f1b67cdb1f","ios":"levelo://app?vid=fa690805-233a-4a70-a9f3-33f1b67cdb1f"},"vehicle_type_id":"4","last_reported":1726927624,"current_range_meters":11600,"station_id":"ce4bhr12rcd13ifvqhqg","pricing_plan_id":"cebpf4jnsgd1na2vs0mg"},{"bike_id":"e6e94b3c-3884-4ce1-aa97-ac67511e53d2","system_id":"levelo_inurba_marseille","lat":43.28269,"lon":5.35077,"is_reserved":false,"is_disabled":false,"rental_uris":{"android":"levelo://app?vid=e6e94b3c-3884-4ce1-aa97-ac67511e53d2","ios":"levelo://app?vid=e6e94b3c-3884-4ce1-aa97-ac67511e53d2"},"vehicle_type_id":"4","last_reported":1726927624,"current_range_meters":38800,"station_id":"ce4bhbp2rcd13ifvqerg","pricing_plan_id":"cebpf4jnsgd1na2vs0mg"},{"bike_id":"58928c39-f40f-4d14-8df5-fd3d58f85d25","system_id":"levelo_inurba_marseille","lat":43.28151,"lon":5.4264,"is_reserved":false,"is_disabled":false,"rental_uris":{"android":"levelo://app?vid=58928c39-f40f-4d14-8df5-fd3d58f85d25","ios":"levelo://app?vid=58928c39-f40f-4d14-8df5-fd3d58f85d25"},"vehicle_type_id":"4","last_reported":1726927624,"current_range_meters":34000,"station_id":"ce4bhnh2rcd13ifvqgug","pricing_plan_id":"cebpf4jnsgd1na2vs0mg"},{"bike_id":"62f1d812-b187-4e30-bc61-6d57cf6ede42","system_id":"levelo_inurba_marseille","lat":43.25004,"lon":5.38927,"is_reserved":false,"is_disabled":false,"rental_uris":{"android":"levelo://app?vid=62f1d812-b187-4e30-bc61-6d57cf6ede42","ios":"levelo://app?vid=62f1d812-b187-4e30-bc61-6d57cf6ede42"},"vehicle_type_id":"4","last_reported":1726927624,"current_range_meters":38800,"station_id":"ce4bhgp2rcd13ifvqfd0","pricing_plan_id":"cebpf4jnsgd1na2vs0mg"},{"bike_id":"7a69a206-59d7-4338-b1fb-7a4c9f69082f","system_id":"levelo_inurba_marseille","lat":43.23967,"lon":5.3663,"is_reserved":false,"is_disabled":false,"rental_uris":{"android":"levelo://app?vid=7a69a206-59d7-4338-b1fb-7a4c9f69082f","ios":"levelo://app?vid=7a69a206-59d7-4338-b1fb-7a4c9f69082f"},"vehicle_type_id":"4","last_reported":1726927624,"current_range_meters":12400,"station_id":"ce4bhi12rcd13ifvqfp0","pricing_plan_id":"cebpf4jnsgd1na2vs0mg"},{"bike_id":"5538791c-46ef-4dd6-bb61-9569d67885c3","system_id":"levelo_inurba_marseille","lat":43.28411,"lon":5.34979,"is_reserved":false,"is_disabled":false,"rental_uris":{"android":"levelo://app?vid=5538791c-46ef-4dd6-bb61-9569d67885c3","ios":"levelo://app?vid=5538791c-46ef-4dd6-bb61-9569d67885c3"},"vehicle_type_id":"4","last_reported":1726927624,"current_range_meters":18800,"station_id":"ce4bhbh2rcd13ifvqepg","pricing_plan_id":"cebpf4jnsgd1na2vs0mg"},{"bike_id":"8e6f7f69-54c8-47a8-ae0f-6428c21a6866","system_id":"levelo_inurba_marseille","lat":43.31684,"lon":5.40475,"is_reserved":false,"is_disabled":false,"rental_uris":{"android":"levelo://app?vid=8e6f7f69-54c8-47a8-ae0f-6428c21a6866","ios":"levelo://app?vid=8e6f7f69-54c8-47a8-ae0f-6428c21a6866"},"vehicle_type_id":"4","last_reported":1726927624,"current_range_meters":30000,"station_id":"ce4bh012rcd13ifvqd00","pricing_plan_id":"cebpf4jnsgd1na2vs0mg"},{"bike_id":"b2763354-ec6c-4733-8de6-6c4493759ae9","system_id":"levelo_inurba_marseille","lat":43.29064,"lon":5.40163,"is_reserved":false,"is_disabled":false,"rental_uris":{"android":"levelo://app?vid=b2763354-ec6c-4733-8de6-6c4493759ae9","ios":"levelo://app?vid=b2763354-ec6c-4733-8de6-6c4493759ae9"},"vehicle_type_id":"4","last_reported":1726927624,"current_range_meters":14400,"station_id":"","pricing_plan_id":"cebpf4jnsgd1na2vs0mg"},{"bike_id":"68138f84-0b3c-4ab2-a43a-bf940dc06daa","system_id":"levelo_inurba_marseille","lat":43.24394,"lon":5.37059,"is_reserved":false,"is_disabled":false,"rental_uris":{"android":"levelo://app?vid=68138f84-0b3c-4ab2-a43a-bf940dc06daa","ios":"levelo://app?vid=68138f84-0b3c-4ab2-a43a-bf940dc06daa"},"vehicle_type_id":"4","last_reported":1726927624,"current_range_meters":27200,"station_id":"ce4bhhh2rcd13ifvqfk0","pricing_plan_id":"cebpf4jnsgd1na2vs0mg"},{"bike_id":"51029524-acb0-4d68-8a1b-9913d629eebd","system_id":"levelo_inurba_marseille","lat":43.26206,"lon":5.3746,"is_reserved":false,"is_disabled":false,"rental_uris":{"android":"levelo://app?vid=51029524-acb0-4d68-8a1b-9913d629eebd","ios":"levelo://app?vid=51029524-acb0-4d68-8a1b-9913d629eebd"},"vehicle_type_id":"4","last_reported":1726927624,"current_range_meters":25200,"station_id":"ce4bhgp2rcd13ifvqfc0","pricing_plan_id":"cebpf4jnsgd1na2vs0mg"},{"bike_id":"064ed7f0-11de-4fcb-a3ea-e47ced8aaa94","system_id":"levelo_inurba_marseille","lat":43.29272,"lon":5.36848,"is_reserved":false,"is_disabled":false,"rental_uris":{"android":"levelo://app?vid=064ed7f0-11de-4fcb-a3ea-e47ced8aaa94","ios":"levelo://app?vid=064ed7f0-11de-4fcb-a3ea-e47ced8aaa94"},"vehicle_type_id":"4","last_reported":1726927624,"current_range_meters":22800,"station_id":"ce4bhbp2rcd13ifvqesg","pricing_plan_id":"cebpf4jnsgd1na2vs0mg"},{"bike_id":"e347d3e6-2d53-4776-bd3a-352af3fa9b74","system_id":"levelo_inurba_marseille","lat":43.28966,"lon":5.37823,"is_reserved":false,"is_disabled":false,"rental_uris":{"android":"levelo://app?vid=e347d3e6-2d53-4776-bd3a-352af3fa9b74","ios":"levelo://app?vid=e347d3e6-2d53-4776-bd3a-352af3fa9b74"},"vehicle_type_id":"4","last_reported":1726927624,"current_range_meters":23200,"station_id":"ce4bh9p2rcd13ifvqed0","pricing_plan_id":"cebpf4jnsgd1na2vs0mg"},{"bike_id":"9afa8ee8-94e8-41c6-9a29-8b61cd534def","system_id":"levelo_inurba_marseille","lat":43.31225,"lon":5.36854,"is_reserved":false,"is_disabled":false,"rental_uris":{"android":"levelo://app?vid=9afa8ee8-94e8-41c6-9a29-8b61cd534def","ios":"levelo://app?vid=9afa8ee8-94e8-41c6-9a29-8b61cd534def"},"vehicle_type_id":"4","last_reported":1726927624,"current_range_meters":32000,"station_id":"ce4bgl92rcd13ifvqbq0","pricing_plan_id":"cebpf4jnsgd1na2vs0mg"},{"bike_id":"a274e0c7-2cd6-46f3-a3bf-39ede52b8000","system_id":"levelo_inurba_marseille","lat":43.299835,"lon":5.371859,"is_reserved":false,"is_disabled":false,"rental_uris":{"android":"levelo://app?vid=a274e0c7-2cd6-46f3-a3bf-39ede52b8000","ios":"levelo://app?vid=a274e0c7-2cd6-46f3-a3bf-39ede52b8000"},"vehicle_type_id":"4","last_reported":1726927624,"current_range_meters":28800,"station_id":"ce4bh4p2rcd13ifvqe1g","pricing_plan_id":"cebpf4jnsgd1na2vs0mg"},{"bike_id":"c2c9a555-6ec8-4b92-b33e-073571605c93","system_id":"levelo_inurba_marseille","lat":43.23194,"lon":5.35547,"is_reserved":false,"is_disabled":false,"rental_uris":{"android":"levelo://app?vid=c2c9a555-6ec8-4b92-b33e-073571605c93","ios":"levelo://app?vid=c2c9a555-6ec8-4b92-b33e-073571605c93"},"vehicle_type_id":"4","last_reported":1726927624,"current_range_meters":20400,"station_id":"ce4bhu92rcd13ifvqi70","pricing_plan_id":"cebpf4jnsgd1na2vs0mg"},{"bike_id":"55825df2-7169-40c3-b34a-148fef6ebe50","system_id":"levelo_inurba_marseille","lat":43.23957,"lon":5.36626,"is_reserved":false,"is_disabled":false,"rental_uris":{"android":"levelo://app?vid=55825df2-7169-40c3-b34a-148fef6ebe50","ios":"levelo://app?vid=55825df2-7169-40c3-b34a-148fef6ebe50"},"vehicle_type_id":"4","last_reported":1726927624,"current_range_meters":10000,"station_id":"ce4bhi12rcd13ifvqfp0","pricing_plan_id":"cebpf4jnsgd1na2vs0mg"},{"bike_id":"aaa5c187-dedb-40a2-a249-8f2117fe26cf","system_id":"levelo_inurba_marseille","lat":43.23204,"lon":5.35556,"is_reserved":false,"is_disabled":false,"rental_uris":{"android":"levelo://app?vid=aaa5c187-dedb-40a2-a249-8f2117fe26cf","ios":"levelo://app?vid=aaa5c187-dedb-40a2-a249-8f2117fe26cf"},"vehicle_type_id":"4","last_reported":1726927624,"current_range_meters":38000,"station_id":"ce4bhu92rcd13ifvqi70","pricing_plan_id":"cebpf4jnsgd1na2vs0mg"},{"bike_id":"34a7738f-a4b7-40e4-8650-f12c006b7159","system_id":"levelo_inurba_marseille","lat":43.29004,"lon":5.35618,"is_reserved":false,"is_disabled":false,"rental_uris":{"android":"levelo://app?vid=34a7738f-a4b7-40e4-8650-f12c006b7159","ios":"levelo://app?vid=34a7738f-a4b7-40e4-8650-f12c006b7159"},"vehicle_type_id":"4","last_reported":1726927624,"current_range_meters":13600,"station_id":"ce4bhb92rcd13ifvqen0","pricing_plan_id":"cebpf4jnsgd1na2vs0mg"},{"bike_id":"ecee3ef6-6351-4e0e-9e8c-d941697fb0f6","system_id":"levelo_inurba_marseille","lat":43.26557,"lon":5.3728,"is_reserved":false,"is_disabled":false,"rental_uris":{"android":"levelo://app?vid=ecee3ef6-6351-4e0e-9e8c-d941697fb0f6","ios":"levelo://app?vid=ecee3ef6-6351-4e0e-9e8c-d941697fb0f6"},"vehicle_type_id":"4","last_reported":1726927624,"current_range_meters":18000,"station_id":"ce4bhg12rcd13ifvqf70","pricing_plan_id":"cebpf4jnsgd1na2vs0mg"},{"bike_id":"14568d97-c1b1-45fd-a569-0552371fdadd","system_id":"levelo_inurba_marseille","lat":43.25009,"lon":5.3891,"is_reserved":false,"is_disabled":false,"rental_uris":{"android":"levelo://app?vid=14568d97-c1b1-45fd-a569-0552371fdadd","ios":"levelo://app?vid=14568d97-c1b1-45fd-a569-0552371fdadd"},"vehicle_type_id":"4","last_reported":1726927624,"current_range_meters":34000,"station_id":"ce4bhgp2rcd13ifvqfd0","pricing_plan_id":"cebpf4jnsgd1na2vs0mg"},{"bike_id":"43c988a6-42c7-4b4d-81e4-873686ab3d7c","system_id":"levelo_inurba_marseille","lat":43.24999,"lon":5.38931,"is_reserved":false,"is_disabled":false,"rental_uris":{"android":"levelo://app?vid=43c988a6-42c7-4b4d-81e4-873686ab3d7c","ios":"levelo://app?vid=43c988a6-42c7-4b4d-81e4-873686ab3d7c"},"vehicle_type_id":"4","last_reported":1726927624,"current_range_meters":27600,"station_id":"ce4bhgp2rcd13ifvqfd0","pricing_plan_id":"cebpf4jnsgd1na2vs0mg"},{"bike_id":"fe1167ba-6ab7-4e7a-baf9-110b508f8703","system_id":"levelo_inurba_marseille","lat":43.26194,"lon":5.37455,"is_reserved":false,"is_disabled":false,"rental_uris":{"android":"levelo://app?vid=fe1167ba-6ab7-4e7a-baf9-110b508f8703","ios":"levelo://app?vid=fe1167ba-6ab7-4e7a-baf9-110b508f8703"},"vehicle_type_id":"4","last_reported":1726927624,"current_range_meters":2000,"station_id":"ce4bhgp2rcd13ifvqfc0","pricing_plan_id":"cebpf4jnsgd1na2vs0mg"},{"bike_id":"878b134b-cd15-450d-8f96-6480b40fb6be","system_id":"levelo_inurba_marseille","lat":43.26223,"lon":5.37435,"is_reserved":false,"is_disabled":false,"rental_uris":{"android":"levelo://app?vid=878b134b-cd15-450d-8f96-6480b40fb6be","ios":"levelo://app?vid=878b134b-cd15-450d-8f96-6480b40fb6be"},"vehicle_type_id":"4","last_reported":1726927624,"current_range_meters":29600,"station_id":"ce4bhgp2rcd13ifvqfc0","pricing_plan_id":"cebpf4jnsgd1na2vs0mg"},{"bike_id":"900347c5-438d-4579-bd66-1b4b5a7a7d3c","system_id":"levelo_inurba_marseille","lat":43.2987,"lon":5.38911,"is_reserved":false,"is_disabled":false,"rental_uris":{"android":"levelo://app?vid=900347c5-438d-4579-bd66-1b4b5a7a7d3c","ios":"levelo://app?vid=900347c5-438d-4579-bd66-1b4b5a7a7d3c"},"vehicle_type_id":"4","last_reported":1726927624,"current_range_meters":21600,"station_id":"ce4bh392rcd13ifvqdl0","pricing_plan_id":"cebpf4jnsgd1na2vs0mg"},{"bike_id":"e7622aba-ff24-4b88-93ac-6b67d54105ba","system_id":"levelo_inurba_marseille","lat":43.337444,"lon":5.374475,"is_reserved":false,"is_disabled":false,"rental_uris":{"android":"levelo://app?vid=e7622aba-ff24-4b88-93ac-6b67d54105ba","ios":"levelo://app?vid=e7622aba-ff24-4b88-93ac-6b67d54105ba"},"vehicle_type_id":"4","last_reported":1726927624,"current_range_meters":22800,"station_id":"ce4bgr92rcd13ifvqc6g","pricing_plan_id":"cebpf4jnsgd1na2vs0mg"},{"bike_id":"79ebbec3-5179-4eef-90e5-160d03451e51","system_id":"levelo_inurba_marseille","lat":43.290549,"lon":5.375594,"is_reserved":false,"is_disabled":false,"rental_uris":{"android":"levelo://app?vid=79ebbec3-5179-4eef-90e5-160d03451e51","ios":"levelo://app?vid=79ebbec3-5179-4eef-90e5-160d03451e51"},"vehicle_type_id":"4","last_reported":1726927624,"current_range_meters":38800,"station_id":"ce4bh692rcd13ifvqe90","pricing_plan_id":"cebpf4jnsgd1na2vs0mg"},{"bike_id":"6131a768-1584-4c8a-af25-ff651d2038f3","system_id":"levelo_inurba_marseille","lat":43.3377,"lon":5.37428,"is_reserved":false,"is_disabled":false,"rental_uris":{"android":"levelo://app?vid=6131a768-1584-4c8a-af25-ff651d2038f3","ios":"levelo://app?vid=6131a768-1584-4c8a-af25-ff651d2038f3"},"vehicle_type_id":"4","last_reported":1726927624,"current_range_meters":23200,"station_id":"","pricing_plan_id":"cebpf4jnsgd1na2vs0mg"},{"bike_id":"598539f9-f8b2-4ce4-bc29-852a23adc8f1","system_id":"levelo_inurba_marseille","lat":43.23193,"lon":5.35556,"is_reserved":false,"is_disabled":false,"rental_uris":{"android":"levelo://app?vid=598539f9-f8b2-4ce4-bc29-852a23adc8f1","ios":"levelo://app?vid=598539f9-f8b2-4ce4-bc29-852a23adc8f1"},"vehicle_type_id":"4","last_reported":1726927624,"current_range_meters":7200,"station_id":"ce4bhu92rcd13ifvqi70","pricing_plan_id":"cebpf4jnsgd1na2vs0mg"},{"bike_id":"93a8a1f2-1dcf-4433-acb7-43017603b044","system_id":"levelo_inurba_marseille","lat":43.29895,"lon":5.43661,"is_reserved":false,"is_disabled":false,"rental_uris":{"android":"levelo://app?vid=93a8a1f2-1dcf-4433-acb7-43017603b044","ios":"levelo://app?vid=93a8a1f2-1dcf-4433-acb7-43017603b044"},"vehicle_type_id":"4","last_reported":1726927624,"current_range_meters":35600,"station_id":"ce4bhpp2rcd13ifvqhfg","pricing_plan_id":"cebpf4jnsgd1na2vs0mg"},{"bike_id":"2b35edc0-f969-4162-8d5c-3d9b3e70e5c1","system_id":"levelo_inurba_marseille","lat":43.26212,"lon":5.37444,"is_reserved":false,"is_disabled":false,"rental_uris":{"android":"levelo://app?vid=2b35edc0-f969-4162-8d5c-3d9b3e70e5c1","ios":"levelo://app?vid=2b35edc0-f969-4162-8d5c-3d9b3e70e5c1"},"vehicle_type_id":"4","last_reported":1726927624,"current_range_meters":11600,"station_id":"ce4bhgp2rcd13ifvqfc0","pricing_plan_id":"cebpf4jnsgd1na2vs0mg"},{"bike_id":"31444d97-ada7-4c14-9ccc-e8d8f546def7","system_id":"levelo_inurba_marseille","lat":43.2693,"lon":5.36654,"is_reserved":false,"is_disabled":false,"rental_uris":{"android":"levelo://app?vid=31444d97-ada7-4c14-9ccc-e8d8f546def7","ios":"levelo://app?vid=31444d97-ada7-4c14-9ccc-e8d8f546def7"},"vehicle_type_id":"4","last_reported":1726927624,"current_range_meters":9200,"station_id":"","pricing_plan_id":"cebpf4jnsgd1na2vs0mg"},{"bike_id":"dba86510-8a57-4a3e-ab1b-1aa3170b68a5","system_id":"levelo_inurba_marseille","lat":43.28614,"lon":5.35102,"is_reserved":false,"is_disabled":false,"rental_uris":{"android":"levelo://app?vid=dba86510-8a57-4a3e-ab1b-1aa3170b68a5","ios":"levelo://app?vid=dba86510-8a57-4a3e-ab1b-1aa3170b68a5"},"vehicle_type_id":"4","last_reported":1726927624,"current_range_meters":2000,"station_id":"ce4bhch2rcd13ifvqeug","pricing_plan_id":"cebpf4jnsgd1na2vs0mg"},{"bike_id":"f52f8d59-062e-4196-b574-09febdfff3cf","system_id":"levelo_inurba_marseille","lat":43.23966,"lon":5.36623,"is_reserved":false,"is_disabled":false,"rental_uris":{"android":"levelo://app?vid=f52f8d59-062e-4196-b574-09febdfff3cf","ios":"levelo://app?vid=f52f8d59-062e-4196-b574-09febdfff3cf"},"vehicle_type_id":"4","last_reported":1726927624,"current_range_meters":19200,"station_id":"ce4bhi12rcd13ifvqfp0","pricing_plan_id":"cebpf4jnsgd1na2vs0mg"},{"bike_id":"c493c6c9-e963-4afd-b9f7-c43efd534103","system_id":"levelo_inurba_marseille","lat":43.25586,"lon":5.38242,"is_reserved":false,"is_disabled":false,"rental_uris":{"android":"levelo://app?vid=c493c6c9-e963-4afd-b9f7-c43efd534103","ios":"levelo://app?vid=c493c6c9-e963-4afd-b9f7-c43efd534103"},"vehicle_type_id":"4","last_reported":1726927624,"current_range_meters":10000,"station_id":"ce4bhih2rcd13ifvqfs0","pricing_plan_id":"cebpf4jnsgd1na2vs0mg"},{"bike_id":"33a84032-4156-434e-8a9d-58e15e23e00e","system_id":"levelo_inurba_marseille","lat":43.30201,"lon":5.39457,"is_reserved":false,"is_disabled":false,"rental_uris":{"android":"levelo://app?vid=33a84032-4156-434e-8a9d-58e15e23e00e","ios":"levelo://app?vid=33a84032-4156-434e-8a9d-58e15e23e00e"},"vehicle_type_id":"4","last_reported":1726927624,"current_range_meters":38800,"station_id":"ce4bh0p2rcd13ifvqd70","pricing_plan_id":"cebpf4jnsgd1na2vs0mg"},{"bike_id":"fc310a25-dc2d-4c56-a987-6d115e7de426","system_id":"levelo_inurba_marseille","lat":43.26546,"lon":5.37299,"is_reserved":false,"is_disabled":false,"rental_uris":{"android":"levelo://app?vid=fc310a25-dc2d-4c56-a987-6d115e7de426","ios":"levelo://app?vid=fc310a25-dc2d-4c56-a987-6d115e7de426"},"vehicle_type_id":"4","last_reported":1726927624,"current_range_meters":38000,"station_id":"ce4bhg12rcd13ifvqf70","pricing_plan_id":"cebpf4jnsgd1na2vs0mg"},{"bike_id":"d323bc23-4105-4d98-87ab-fb3899c88f8a","system_id":"levelo_inurba_marseille","lat":43.23197,"lon":5.35559,"is_reserved":false,"is_disabled":false,"rental_uris":{"android":"levelo://app?vid=d323bc23-4105-4d98-87ab-fb3899c88f8a","ios":"levelo://app?vid=d323bc23-4105-4d98-87ab-fb3899c88f8a"},"vehicle_type_id":"4","last_reported":1726927624,"current_range_meters":36800,"station_id":"ce4bhu92rcd13ifvqi70","pricing_plan_id":"cebpf4jnsgd1na2vs0mg"},{"bike_id":"7ce389fc-44a5-40c5-a768-878d4f4b4600","system_id":"levelo_inurba_marseille","lat":43.28619,"lon":5.35101,"is_reserved":false,"is_disabled":false,"rental_uris":{"android":"levelo://app?vid=7ce389fc-44a5-40c5-a768-878d4f4b4600","ios":"levelo://app?vid=7ce389fc-44a5-40c5-a768-878d4f4b4600"},"vehicle_type_id":"4","last_reported":1726927624,"current_range_meters":38400,"station_id":"ce4bhch2rcd13ifvqeug","pricing_plan_id":"cebpf4jnsgd1na2vs0mg"},{"bike_id":"08ef62b0-668a-4d2c-ab69-64dccdae6cdb","system_id":"levelo_inurba_marseille","lat":43.32481,"lon":5.36556,"is_reserved":false,"is_disabled":false,"rental_uris":{"android":"levelo://app?vid=08ef62b0-668a-4d2c-ab69-64dccdae6cdb","ios":"levelo://app?vid=08ef62b0-668a-4d2c-ab69-64dccdae6cdb"},"vehicle_type_id":"4","last_reported":1726927624,"current_range_meters":38800,"station_id":"ce4bhs12rcd13ifvqhvg","pricing_plan_id":"cebpf4jnsgd1na2vs0mg"},{"bike_id":"d868928e-8e51-401b-aef6-b4bc636f61f3","system_id":"levelo_inurba_marseille","lat":43.28409,"lon":5.34984,"is_reserved":false,"is_disabled":false,"rental_uris":{"android":"levelo://app?vid=d868928e-8e51-401b-aef6-b4bc636f61f3","ios":"levelo://app?vid=d868928e-8e51-401b-aef6-b4bc636f61f3"},"vehicle_type_id":"4","last_reported":1726927624,"current_range_meters":38800,"station_id":"ce4bhbh2rcd13ifvqepg","pricing_plan_id":"cebpf4jnsgd1na2vs0mg"},{"bike_id":"04d381aa-5718-4e55-8972-16989902fba5","system_id":"levelo_inurba_marseille","lat":43.30801,"lon":5.43516,"is_reserved":false,"is_disabled":false,"rental_uris":{"android":"levelo://app?vid=04d381aa-5718-4e55-8972-16989902fba5","ios":"levelo://app?vid=04d381aa-5718-4e55-8972-16989902fba5"},"vehicle_type_id":"4","last_reported":1726927624,"current_range_meters":10000,"station_id":"ce4bhph2rcd13ifvqheg","pricing_plan_id":"cebpf4jnsgd1na2vs0mg"},{"bike_id":"7af306d6-babb-4f29-9589-626cf44ed9dd","system_id":"levelo_inurba_marseille","lat":43.22933,"lon":5.35376,"is_reserved":false,"is_disabled":false,"rental_uris":{"android":"levelo://app?vid=7af306d6-babb-4f29-9589-626cf44ed9dd","ios":"levelo://app?vid=7af306d6-babb-4f29-9589-626cf44ed9dd"},"vehicle_type_id":"4","last_reported":1726927624,"current_range_meters":19200,"station_id":"cpo3532slgdg3j2ikp40","pricing_plan_id":"cebpf4jnsgd1na2vs0mg"},{"bike_id":"e15c7d64-6023-49f7-85e0-3f467f80b666","system_id":"levelo_inurba_marseille","lat":43.28266,"lon":5.35073,"is_reserved":false,"is_disabled":false,"rental_uris":{"android":"levelo://app?vid=e15c7d64-6023-49f7-85e0-3f467f80b666","ios":"levelo://app?vid=e15c7d64-6023-49f7-85e0-3f467f80b666"},"vehicle_type_id":"4","last_reported":1726927624,"current_range_meters":6400,"station_id":"ce4bhbp2rcd13ifvqerg","pricing_plan_id":"cebpf4jnsgd1na2vs0mg"},{"bike_id":"5db6b119-ff30-46bc-a7f8-b1a2f1b6661f","system_id":"levelo_inurba_marseille","lat":43.28619,"lon":5.35106,"is_reserved":false,"is_disabled":false,"rental_uris":{"android":"levelo://app?vid=5db6b119-ff30-46bc-a7f8-b1a2f1b6661f","ios":"levelo://app?vid=5db6b119-ff30-46bc-a7f8-b1a2f1b6661f"},"vehicle_type_id":"4","last_reported":1726927624,"current_range_meters":10800,"station_id":"ce4bhch2rcd13ifvqeug","pricing_plan_id":"cebpf4jnsgd1na2vs0mg"},{"bike_id":"301d6320-b522-44fb-8f13-9de7a3abbba7","system_id":"levelo_inurba_marseille","lat":43.3046,"lon":5.37902,"is_reserved":false,"is_disabled":false,"rental_uris":{"android":"levelo://app?vid=301d6320-b522-44fb-8f13-9de7a3abbba7","ios":"levelo://app?vid=301d6320-b522-44fb-8f13-9de7a3abbba7"},"vehicle_type_id":"4","last_reported":1726927624,"current_range_meters":38000,"station_id":"ce4bgup2rcd13ifvqcn0","pricing_plan_id":"cebpf4jnsgd1na2vs0mg"},{"bike_id":"3a4d8d24-fb50-48a3-8b55-7ad1fd006f87","system_id":"levelo_inurba_marseille","lat":43.29518,"lon":5.37506,"is_reserved":false,"is_disabled":false,"rental_uris":{"android":"levelo://app?vid=3a4d8d24-fb50-48a3-8b55-7ad1fd006f87","ios":"levelo://app?vid=3a4d8d24-fb50-48a3-8b55-7ad1fd006f87"},"vehicle_type_id":"4","last_reported":1726927624,"current_range_meters":23200,"station_id":"ce4bgkp2rcd13ifvqbmg","pricing_plan_id":"cebpf4jnsgd1na2vs0mg"},{"bike_id":"bb9f4703-56e9-4687-8d0f-3fc6a57549ad","system_id":"levelo_inurba_marseille","lat":43.28419,"lon":5.3499,"is_reserved":false,"is_disabled":false,"rental_uris":{"android":"levelo://app?vid=bb9f4703-56e9-4687-8d0f-3fc6a57549ad","ios":"levelo://app?vid=bb9f4703-56e9-4687-8d0f-3fc6a57549ad"},"vehicle_type_id":"4","last_reported":1726927624,"current_range_meters":34000,"station_id":"ce4bhbh2rcd13ifvqepg","pricing_plan_id":"cebpf4jnsgd1na2vs0mg"},{"bike_id":"166676af-a4c0-417b-b0f1-0cf23535ec82","system_id":"levelo_inurba_marseille","lat":43.23143,"lon":5.43725,"is_reserved":false,"is_disabled":false,"rental_uris":{"android":"levelo://app?vid=166676af-a4c0-417b-b0f1-0cf23535ec82","ios":"levelo://app?vid=166676af-a4c0-417b-b0f1-0cf23535ec82"},"vehicle_type_id":"4","last_reported":1726927624,"current_range_meters":16800,"station_id":"ce4bhmp2rcd13ifvqgog","pricing_plan_id":"cebpf4jnsgd1na2vs0mg"},{"bike_id":"32ecd4a5-6a6e-4685-ae24-d272b98d1ca3","system_id":"levelo_inurba_marseille","lat":43.23959,"lon":5.36627,"is_reserved":false,"is_disabled":false,"rental_uris":{"android":"levelo://app?vid=32ecd4a5-6a6e-4685-ae24-d272b98d1ca3","ios":"levelo://app?vid=32ecd4a5-6a6e-4685-ae24-d272b98d1ca3"},"vehicle_type_id":"4","last_reported":1726927624,"current_range_meters":8400,"station_id":"ce4bhi12rcd13ifvqfp0","pricing_plan_id":"cebpf4jnsgd1na2vs0mg"},{"bike_id":"5e78fb85-e163-454f-b47f-06d0c000c116","system_id":"levelo_inurba_marseille","lat":43.29032,"lon":5.38836,"is_reserved":false,"is_disabled":false,"rental_uris":{"android":"levelo://app?vid=5e78fb85-e163-454f-b47f-06d0c000c116","ios":"levelo://app?vid=5e78fb85-e163-454f-b47f-06d0c000c116"},"vehicle_type_id":"4","last_reported":1726927624,"current_range_meters":20000,"station_id":"","pricing_plan_id":"cebpf4jnsgd1na2vs0mg"},{"bike_id":"ed673f7b-206c-457f-8632-aa66c3195fa3","system_id":"levelo_inurba_marseille","lat":43.2466,"lon":5.38161,"is_reserved":false,"is_disabled":false,"rental_uris":{"android":"levelo://app?vid=ed673f7b-206c-457f-8632-aa66c3195fa3","ios":"levelo://app?vid=ed673f7b-206c-457f-8632-aa66c3195fa3"},"vehicle_type_id":"4","last_reported":1726927624,"current_range_meters":27200,"station_id":"ce4bhih2rcd13ifvqfr0","pricing_plan_id":"cebpf4jnsgd1na2vs0mg"},{"bike_id":"9353f79e-131d-42a9-b599-ca59d2fdaf55","system_id":"levelo_inurba_marseille","lat":43.28419,"lon":5.34989,"is_reserved":false,"is_disabled":false,"rental_uris":{"android":"levelo://app?vid=9353f79e-131d-42a9-b599-ca59d2fdaf55","ios":"levelo://app?vid=9353f79e-131d-42a9-b599-ca59d2fdaf55"},"vehicle_type_id":"4","last_reported":1726927624,"current_range_meters":38800,"station_id":"ce4bhbh2rcd13ifvqepg","pricing_plan_id":"cebpf4jnsgd1na2vs0mg"},{"bike_id":"aee5ba14-e490-4edf-bb03-02716d75e455","system_id":"levelo_inurba_marseille","lat":43.299652,"lon":5.384723,"is_reserved":false,"is_disabled":false,"rental_uris":{"android":"levelo://app?vid=aee5ba14-e490-4edf-bb03-02716d75e455","ios":"levelo://app?vid=aee5ba14-e490-4edf-bb03-02716d75e455"},"vehicle_type_id":"4","last_reported":1726927624,"current_range_meters":2800,"station_id":"ce4bgj92rcd13ifvqbd0","pricing_plan_id":"cebpf4jnsgd1na2vs0mg"},{"bike_id":"8c31e471-7d43-49b9-b052-72f6de1be083","system_id":"levelo_inurba_marseille","lat":43.2315,"lon":5.43714,"is_reserved":false,"is_disabled":false,"rental_uris":{"android":"levelo://app?vid=8c31e471-7d43-49b9-b052-72f6de1be083","ios":"levelo://app?vid=8c31e471-7d43-49b9-b052-72f6de1be083"},"vehicle_type_id":"4","last_reported":1726927624,"current_range_meters":13600,"station_id":"ce4bhmp2rcd13ifvqgog","pricing_plan_id":"cebpf4jnsgd1na2vs0mg"},{"bike_id":"33226ba3-22a7-4790-a085-bc725273ee9b","system_id":"levelo_inurba_marseille","lat":43.27169,"lon":5.40984,"is_reserved":false,"is_disabled":false,"rental_uris":{"android":"levelo://app?vid=33226ba3-22a7-4790-a085-bc725273ee9b","ios":"levelo://app?vid=33226ba3-22a7-4790-a085-bc725273ee9b"},"vehicle_type_id":"4","last_reported":1726927624,"current_range_meters":38800,"station_id":"ce4bhl12rcd13ifvqgf0","pricing_plan_id":"cebpf4jnsgd1na2vs0mg"},{"bike_id":"eec029a4-5d6a-4189-92d7-59abda84f6d0","system_id":"levelo_inurba_marseille","lat":43.30548,"lon":5.36531,"is_reserved":false,"is_disabled":false,"rental_uris":{"android":"levelo://app?vid=eec029a4-5d6a-4189-92d7-59abda84f6d0","ios":"levelo://app?vid=eec029a4-5d6a-4189-92d7-59abda84f6d0"},"vehicle_type_id":"4","last_reported":1726927624,"current_range_meters":25600,"station_id":"ce4bgs12rcd13ifvqcag","pricing_plan_id":"cebpf4jnsgd1na2vs0mg"},{"bike_id":"214cfb97-a448-4740-965f-ebd29bdd7fba","system_id":"levelo_inurba_marseille","lat":43.26209,"lon":5.37443,"is_reserved":false,"is_disabled":false,"rental_uris":{"android":"levelo://app?vid=214cfb97-a448-4740-965f-ebd29bdd7fba","ios":"levelo://app?vid=214cfb97-a448-4740-965f-ebd29bdd7fba"},"vehicle_type_id":"4","last_reported":1726927624,"current_range_meters":35600,"station_id":"ce4bhgp2rcd13ifvqfc0","pricing_plan_id":"cebpf4jnsgd1na2vs0mg"},{"bike_id":"814ae790-5a27-4940-8261-634d78a1e81e","system_id":"levelo_inurba_marseille","lat":43.26806,"lon":5.40271,"is_reserved":false,"is_disabled":false,"rental_uris":{"android":"levelo://app?vid=814ae790-5a27-4940-8261-634d78a1e81e","ios":"levelo://app?vid=814ae790-5a27-4940-8261-634d78a1e81e"},"vehicle_type_id":"4","last_reported":1726927624,"current_range_meters":35200,"station_id":"ce501612rcd8frsf0b60","pricing_plan_id":"cebpf4jnsgd1na2vs0mg"},{"bike_id":"156cc6b8-6dc3-4531-9452-78a33b5eb4cc","system_id":"levelo_inurba_marseille","lat":43.24381,"lon":5.37051,"is_reserved":false,"is_disabled":false,"rental_uris":{"android":"levelo://app?vid=156cc6b8-6dc3-4531-9452-78a33b5eb4cc","ios":"levelo://app?vid=156cc6b8-6dc3-4531-9452-78a33b5eb4cc"},"vehicle_type_id":"4","last_reported":1726927624,"current_range_meters":38800,"station_id":"ce4bhhh2rcd13ifvqfk0","pricing_plan_id":"cebpf4jnsgd1na2vs0mg"},{"bike_id":"2566c0ae-1c71-4495-979b-0da1eff04e98","system_id":"levelo_inurba_marseille","lat":43.286102,"lon":5.351013,"is_reserved":false,"is_disabled":false,"rental_uris":{"android":"levelo://app?vid=2566c0ae-1c71-4495-979b-0da1eff04e98","ios":"levelo://app?vid=2566c0ae-1c71-4495-979b-0da1eff04e98"},"vehicle_type_id":"4","last_reported":1726927624,"current_range_meters":28400,"station_id":"ce4bhch2rcd13ifvqeug","pricing_plan_id":"cebpf4jnsgd1na2vs0mg"},{"bike_id":"9f4af464-0b69-4dfa-88ae-2bdb51744f3d","system_id":"levelo_inurba_marseille","lat":43.24993,"lon":5.38936,"is_reserved":false,"is_disabled":false,"rental_uris":{"android":"levelo://app?vid=9f4af464-0b69-4dfa-88ae-2bdb51744f3d","ios":"levelo://app?vid=9f4af464-0b69-4dfa-88ae-2bdb51744f3d"},"vehicle_type_id":"4","last_reported":1726927624,"current_range_meters":6000,"station_id":"ce4bhgp2rcd13ifvqfd0","pricing_plan_id":"cebpf4jnsgd1na2vs0mg"},{"bike_id":"723f4231-b600-4ba6-9141-d4ea3e477676","system_id":"levelo_inurba_marseille","lat":43.30125,"lon":5.39867,"is_reserved":false,"is_disabled":false,"rental_uris":{"android":"levelo://app?vid=723f4231-b600-4ba6-9141-d4ea3e477676","ios":"levelo://app?vid=723f4231-b600-4ba6-9141-d4ea3e477676"},"vehicle_type_id":"4","last_reported":1726927624,"current_range_meters":30400,"station_id":"ce4bh0h2rcd13ifvqd40","pricing_plan_id":"cebpf4jnsgd1na2vs0mg"},{"bike_id":"82f1750a-4ad3-443a-a10b-bbf4bb0c4148","system_id":"levelo_inurba_marseille","lat":43.26211,"lon":5.37929,"is_reserved":false,"is_disabled":false,"rental_uris":{"android":"levelo://app?vid=82f1750a-4ad3-443a-a10b-bbf4bb0c4148","ios":"levelo://app?vid=82f1750a-4ad3-443a-a10b-bbf4bb0c4148"},"vehicle_type_id":"4","last_reported":1726927624,"current_range_meters":6000,"station_id":"ce4bhjp2rcd13ifvqg90","pricing_plan_id":"cebpf4jnsgd1na2vs0mg"},{"bike_id":"f887ea9e-2eb7-415d-8387-97784d78b680","system_id":"levelo_inurba_marseille","lat":43.23971,"lon":5.36622,"is_reserved":false,"is_disabled":false,"rental_uris":{"android":"levelo://app?vid=f887ea9e-2eb7-415d-8387-97784d78b680","ios":"levelo://app?vid=f887ea9e-2eb7-415d-8387-97784d78b680"},"vehicle_type_id":"4","last_reported":1726927624,"current_range_meters":26800,"station_id":"ce4bhi12rcd13ifvqfp0","pricing_plan_id":"cebpf4jnsgd1na2vs0mg"},{"bike_id":"c6e1c15f-5580-46b3-80fa-115f9ec14ff2","system_id":"levelo_inurba_marseille","lat":43.27628,"lon":5.36102,"is_reserved":false,"is_disabled":false,"rental_uris":{"android":"levelo://app?vid=c6e1c15f-5580-46b3-80fa-115f9ec14ff2","ios":"levelo://app?vid=c6e1c15f-5580-46b3-80fa-115f9ec14ff2"},"vehicle_type_id":"4","last_reported":1726927624,"current_range_meters":2000,"station_id":"ce4bgj92rcd13ifvqbe0","pricing_plan_id":"cebpf4jnsgd1na2vs0mg"},