{"last_updated":1728644870,"ttl":60,"version":"2.2","data":{"bikes":[{"bike_id":"f605b493-7483-4140-8c09-56647acb946a","system_id":"levelo_inurba_marseille","lat":43.27616,"lon":5.36105,"is_reserved":false,"is_disabled":false,"rental_uris":{"android":"levelo://app?vid=f605b493-7483-4140-8c09-56647acb946a","ios":"levelo://app?vid=f605b493-7483-4140-8c09-56647acb946a"},"vehicle_type_id":"4","last_reported":1728644871,"current_range_meters":14400,"station_id":"ce4bgj92rcd13ifvqbe0","pricing_plan_id":"cebpf4jnsgd1na2vs0mg"},{"bike_id":"991f6f9a-5382-45f9-a74c-770f85ba1db6","system_id":"levelo_inurba_marseille","lat":43.27835,"lon":5.3921,"is_reserved":false,"is_disabled":false,"rental_uris":{"android":"levelo://app?vid=991f6f9a-5382-45f9-a74c-770f85ba1db6","ios":"levelo://app?vid=991f6f9a-5382-45f9-a74c-770f85ba1db6"},"vehicle_type_id":"4","last_reported":1728644871,"current_range_meters":36800,"station_id":"ce4bhjp2rcd13ifvqga0","pricing_plan_id":"cebpf4jnsgd1na2vs0mg"},{"bike_id":"e3f3e566-80cf-41dc-96c8-0a2433c0a1b4","system_id":"levelo_inurba_marseille","lat":43.26555,"lon":5.37284,"is_reserved":false,"is_disabled":false,"rental_uris":{"android":"levelo://app?vid=e3f3e566-80cf-41dc-96c8-0a2433c0a1b4","ios":"levelo://app?vid=e3f3e566-80cf-41dc-96c8-0a2433c0a1b4"},"vehicle_type_id":"4","last_reported":1728644871,"current_range_meters":30800,"station_id":"ce4bhg12rcd13ifvqf70","pricing_plan_id":"cebpf4jnsgd1na2vs0mg"},{"bike_id":"c34082b9-8125-4e21-96ba-89284316e611","system_id":"levelo_inurba_marseille","lat":43.23154,"lon":5.43701,"is_reserved":false,"is_disabled":false,"rental_uris":{"android":"levelo://app?vid=c34082b9-8125-4e21-96ba-89284316e611","ios":"levelo://app?vid=c34082b9-8125-4e21-96ba-89284316e611"},"vehicle_type_id":"4","last_reported":1728644871,"current_range_meters":33600,"station_id":"ce4bhmp2rcd13ifvqgog","pricing_plan_id":"cebpf4jnsgd1na2vs0mg"},{"bike_id":"6b905015-0ce8-4496-801e-5ecf06c1c6f9","system_id":"levelo_inurba_marseille","lat":43.30425,"lon":5.3975,"is_reserved":false,"is_disabled":false,"rental_uris":{"android":"levelo://app?vid=6b905015-0ce8-4496-801e-5ecf06c1c6f9","ios":"levelo://app?vid=6b905015-0ce8-4496-801e-5ecf06c1c6f9"},"vehicle_type_id":"4","last_reported":1728644871,"current_range_meters":36400,"station_id":"ce4bh092rcd13ifvqd20","pricing_plan_id":"cebpf4jnsgd1na2vs0mg"},{"bike_id":"51dd5005-a195-4642-bd5f-8cbea71cb3b3","system_id":"levelo_inurba_marseille","lat":43.22927,"lon":5.35375,"is_reserved":false,"is_disabled":false,"rental_uris":{"android":"levelo://app?vid=51dd5005-a195-4642-bd5f-8cbea71cb3b3","ios":"levelo://app?vid=51dd5005-a195-4642-bd5f-8cbea71cb3b3"},"vehicle_type_id":"4","last_reported":1728644871,"current_range_meters":6400,"station_id":"cpo3532slgdg3j2ikp40","pricing_plan_id":"cebpf4jnsgd1na2vs0mg"},{"bike_id":"a5d548da-45b8-4cae-bd13-c1b9ca9f25c4","system_id":"levelo_inurba_marseille","lat":43.29634,"lon":5.40621,"is_reserved":false,"is_disabled":false,"rental_uris":{"android":"levelo://app?vid=a5d548da-45b8-4cae-bd13-c1b9ca9f25c4","ios":"levelo://app?vid=a5d548da-45b8-4cae-bd13-c1b9ca9f25c4"},"vehicle_type_id":"4","last_reported":1728644871,"current_range_meters":28400,"station_id":"ce4bh0h2rcd13ifvqd60","pricing_plan_id":"cebpf4jnsgd1na2vs0mg"},{"bike_id":"909dec24-6910-4d20-a793-b725fc699599","system_id":"levelo_inurba_marseille","lat":43.28353,"lon":5.38103,"is_reserved":false,"is_disabled":false,"rental_uris":{"android":"levelo://app?vid=909dec24-6910-4d20-a793-b725fc699599","ios":"levelo://app?vid=909dec24-6910-4d20-a793-b725fc699599"},"vehicle_type_id":"4","last_reported":1728644871,"current_range_meters":26800,"station_id":"ce4bh412rcd13ifvqdr0","pricing_plan_id":"cebpf4jnsgd1na2vs0mg"},{"bike_id":"321fec6d-1cec-44aa-81a6-2152695e2b72","system_id":"levelo_inurba_marseille","lat":43.32663,"lon":5.40982,"is_reserved":false,"is_disabled":false,"rental_uris":{"android":"levelo://app?vid=321fec6d-1cec-44aa-81a6-2152695e2b72","ios":"levelo://app?vid=321fec6d-1cec-44aa-81a6-2152695e2b72"},"vehicle_type_id":"4","last_reported":1728644871,"current_range_meters":34800,"station_id":"ce4bhpp2rcd13ifvqhgg","pricing_plan_id":"cebpf4jnsgd1na2vs0mg"},{"bike_id":"c76cc71b-d7e6-4f02-95dd-558dff9825f0","system_id":"levelo_inurba_marseille","lat":43.30482,"lon":5.37911,"is_reserved":false,"is_disabled":false,"rental_uris":{"android":"levelo://app?vid=c76cc71b-d7e6-4f02-95dd-558dff9825f0","ios":"levelo://app?vid=c76cc71b-d7e6-4f02-95dd-558dff9825f0"},"vehicle_type_id":"4","last_reported":1728644871,"current_range_meters":38800,"station_id":"ce4bgup2rcd13ifvqcn0","pricing_plan_id":"cebpf4jnsgd1na2vs0mg"},{"bike_id":"4f1ac9db-36fd-4126-b3cc-b859636a6a29","system_id":"levelo_inurba_marseille","lat":43.22928,"lon":5.35375,"is_reserved":false,"is_disabled":false,"rental_uris":{"android":"levelo://app?vid=4f1ac9db-36fd-4126-b3cc-b859636a6a29","ios":"levelo://app?vid=4f1ac9db-36fd-4126-b3cc-b859636a6a29"},"vehicle_type_id":"4","last_reported":1728644871,"current_range_meters":12800,"station_id":"cpo3532slgdg3j2ikp40","pricing_plan_id":"cebpf4jnsgd1na2vs0mg"},{"bike_id":"0b2c3b3c-7052-4733-8351-d6e6d74b50db","system_id":"levelo_inurba_marseille","lat":43.2572,"lon":5.41107,"is_reserved":false,"is_disabled":false,"rental_uris":{"android":"levelo://app?vid=0b2c3b3c-7052-4733-8351-d6e6d74b50db","ios":"levelo://app?vid=0b2c3b3c-7052-4733-8351-d6e6d74b50db"},"vehicle_type_id":"4","last_reported":1728644871,"current_range_meters":30000,"station_id":"ce4bhkp2rcd13ifvqgd0","pricing_plan_id":"cebpf4jnsgd1na2vs0mg"},{"bike_id":"4467b12f-f4e9-4f00-b440-80e1eb47234c","system_id":"levelo_inurba_marseille","lat":43.29688,"lon":5.3729,"is_reserved":false,"is_disabled":false,"rental_uris":{"android":"levelo://app?vid=4467b12f-f4e9-4f00-b440-80e1eb47234c","ios":"levelo://app?vid=4467b12f-f4e9-4f00-b440-80e1eb47234c"},"vehicle_type_id":"4","last_reported":1728644871,"current_range_meters":14800,"station_id":"ce4bgk12rcd13ifvqbj0","pricing_plan_id":"cebpf4jnsgd1na2vs0mg"},{"bike_id":"1b24cac1-3c1f-4bf7-9714-0eec9f771fa3","system_id":"levelo_inurba_marseille","lat":43.231506,"lon":5.437042,"is_reserved":false,"is_disabled":false,"rental_uris":{"android":"levelo://app?vid=1b24cac1-3c1f-4bf7-9714-0eec9f771fa3","ios":"levelo://app?vid=1b24cac1-3c1f-4bf7-9714-0eec9f771fa3"},"vehicle_type_id":"4","last_reported":1728644871,"current_range_meters":23200,"station_id":"ce4bhmp2rcd13ifvqgog","pricing_plan_id":"cebpf4jnsgd1na2vs0mg"},{"bike_id":"ce6f7f09-2782-4711-9fd5-6d6a2965fd8d","system_id":"levelo_inurba_marseille","lat":43.24647,"lon":5.38894,"is_reserved":false,"is_disabled":false,"rental_uris":{"android":"levelo://app?vid=ce6f7f09-2782-4711-9fd5-6d6a2965fd8d","ios":"levelo://app?vid=ce6f7f09-2782-4711-9fd5-6d6a2965fd8d"},"vehicle_type_id":"4","last_reported":1728644871,"current_range_meters":19600,"station_id":"ce4bhg12rcd13ifvqf60","pricing_plan_id":"cebpf4jnsgd1na2vs0mg"},{"bike_id":"418bad21-cf7d-4a9e-9cb5-74767d38c59f","system_id":"levelo_inurba_marseille","lat":43.2718,"lon":5.40999,"is_reserved":false,"is_disabled":false,"rental_uris":{"android":"levelo://app?vid=418bad21-cf7d-4a9e-9cb5-74767d38c59f","ios":"levelo://app?vid=418bad21-cf7d-4a9e-9cb5-74767d38c59f"},"vehicle_type_id":"4","last_reported":1728644871,"current_range_meters":18000,"station_id":"ce4bhl12rcd13ifvqgf0","pricing_plan_id":"cebpf4jnsgd1na2vs0mg"},{"bike_id":"7e07121e-7968-487b-96e4-ba8bf9090d89","system_id":"levelo_inurba_marseille","lat":43.26556,"lon":5.37282,"is_reserved":false,"is_disabled":false,"rental_uris":{"android":"levelo://app?vid=7e07121e-7968-487b-96e4-ba8bf9090d89","ios":"levelo://app?vid=7e07121e-7968-487b-96e4-ba8bf9090d89"},"vehicle_type_id":"4","last_reported":1728644871,"current_range_meters":24400,"station_id":"ce4bhg12rcd13ifvqf70","pricing_plan_id":"cebpf4jnsgd1na2vs0mg"},{"bike_id":"5ce2a66a-b949-4239-ae17-6ee1644fc5f2","system_id":"levelo_inurba_marseille","lat":43.25489,"lon":5.37637,"is_reserved":false,"is_disabled":false,"rental_uris":{"android":"levelo://app?vid=5ce2a66a-b949-4239-ae17-6ee1644fc5f2","ios":"levelo://app?vid=5ce2a66a-b949-4239-ae17-6ee1644fc5f2"},"vehicle_type_id":"4","last_reported":1728644871,"current_range_meters":14800,"station_id":"ce4bhh12rcd13ifvqff0","pricing_plan_id":"cebpf4jnsgd1na2vs0mg"},{"bike_id":"6cb2fd54-0aca-4f7d-aadb-bc057dc4fb59","system_id":"levelo_inurba_marseille","lat":43.23067,"lon":5.35487,"is_reserved":false,"is_disabled":false,"rental_uris":{"android":"levelo://app?vid=6cb2fd54-0aca-4f7d-aadb-bc057dc4fb59","ios":"levelo://app?vid=6cb2fd54-0aca-4f7d-aadb-bc057dc4fb59"},"vehicle_type_id":"4","last_reported":1728644871,"current_range_meters":28400,"station_id":"cpo3342slgdg3j2ifvpg","pricing_plan_id":"cebpf4jnsgd1na2vs0mg"},{"bike_id":"24723a4a-158c-4589-b52e-1ed450fcf688","system_id":"levelo_inurba_marseille","lat":43.2952,"lon":5.39044,"is_reserved":false,"is_disabled":false,"rental_uris":{"android":"levelo://app?vid=24723a4a-158c-4589-b52e-1ed450fcf688","ios":"levelo://app?vid=24723a4a-158c-4589-b52e-1ed450fcf688"},"vehicle_type_id":"4","last_reported":1728644871,"current_range_meters":8800,"station_id":"ce4bh3p2rcd13ifvqdp0","pricing_plan_id":"cebpf4jnsgd1na2vs0mg"},{"bike_id":"c6660b4f-7151-420a-a248-abc8862bb2df","system_id":"levelo_inurba_marseille","lat":43.308838,"lon":5.396521,"is_reserved":false,"is_disabled":false,"rental_uris":{"android":"levelo://app?vid=c6660b4f-7151-420a-a248-abc8862bb2df","ios":"levelo://app?vid=c6660b4f-7151-420a-a248-abc8862bb2df"},"vehicle_type_id":"4","last_reported":1728644871,"current_range_meters":24000,"station_id":"ce4bh0p2rcd13ifvqd80","pricing_plan_id":"cebpf4jnsgd1na2vs0mg"},{"bike_id":"f84a0cc9-776a-4125-b376-7011f80af618","system_id":"levelo_inurba_marseille","lat":43.261936,"lon":5.374423,"is_reserved":false,"is_disabled":false,"rental_uris":{"android":"levelo://app?vid=f84a0cc9-776a-4125-b376-7011f80af618","ios":"levelo://app?vid=f84a0cc9-776a-4125-b376-7011f80af618"},"vehicle_type_id":"4","last_reported":1728644871,"current_range_meters":22800,"station_id":"ce4bhgp2rcd13ifvqfc0","pricing_plan_id":"cebpf4jnsgd1na2vs0mg"},{"bike_id":"1aeb4897-70a0-4551-a71d-42119fc01eed","system_id":"levelo_inurba_marseille","lat":43.25869,"lon":5.39902,"is_reserved":false,"is_disabled":false,"rental_uris":{"android":"levelo://app?vid=1aeb4897-70a0-4551-a71d-42119fc01eed","ios":"levelo://app?vid=1aeb4897-70a0-4551-a71d-42119fc01eed"},"vehicle_type_id":"4","last_reported":1728644871,"current_range_meters":35600,"station_id":"ce4bhl92rcd13ifvqghg","pricing_plan_id":"cebpf4jnsgd1na2vs0mg"},{"bike_id":"aad4ba15-a0fe-47fa-8fff-67cc39415385","system_id":"levelo_inurba_marseille","lat":43.25498,"lon":5.37647,"is_reserved":false,"is_disabled":false,"rental_uris":{"android":"levelo://app?vid=aad4ba15-a0fe-47fa-8fff-67cc39415385","ios":"levelo://app?vid=aad4ba15-a0fe-47fa-8fff-67cc39415385"},"vehicle_type_id":"4","last_reported":1728644871,"current_range_meters":16000,"station_id":"ce4bhh12rcd13ifvqff0","pricing_plan_id":"cebpf4jnsgd1na2vs0mg"},{"bike_id":"25e898a2-24bf-4046-917f-65647a044f37","system_id":"levelo_inurba_marseille","lat":43.31495,"lon":5.37309,"is_reserved":false,"is_disabled":false,"rental_uris":{"android":"levelo://app?vid=25e898a2-24bf-4046-917f-65647a044f37","ios":"levelo://app?vid=25e898a2-24bf-4046-917f-65647a044f37"},"vehicle_type_id":"4","last_reported":1728644871,"current_range_meters":24800,"station_id":"ce4bgt12rcd13ifvqcd0","pricing_plan_id":"cebpf4jnsgd1na2vs0mg"},{"bike_id":"d13ae539-f376-423c-8ddf-67683c45f65e","system_id":"levelo_inurba_marseille","lat":43.27814,"lon":5.40707,"is_reserved":false,"is_disabled":false,"rental_uris":{"android":"levelo://app?vid=d13ae539-f376-423c-8ddf-67683c45f65e","ios":"levelo://app?vid=d13ae539-f376-423c-8ddf-67683c45f65e"},"vehicle_type_id":"4","last_reported":1728644871,"current_range_meters":28000,"station_id":"ce4bhnh2rcd13ifvqgtg","pricing_plan_id":"cebpf4jnsgd1na2vs0mg"},{"bike_id":"34ce14c0-f173-4074-8103-4e09e52b3938","system_id":"levelo_inurba_marseille","lat":43.26199,"lon":5.37931,"is_reserved":false,"is_disabled":false,"rental_uris":{"android":"levelo://app?vid=34ce14c0-f173-4074-8103-4e09e52b3938","ios":"levelo://app?vid=34ce14c0-f173-4074-8103-4e09e52b3938"},"vehicle_type_id":"4","last_reported":1728644871,"current_range_meters":38800,"station_id":"ce4bhjp2rcd13ifvqg90","pricing_plan_id":"cebpf4jnsgd1na2vs0mg"},{"bike_id":"d9b06b41-1f31-4bc0-8225-03c6fa52b2a4","system_id":"levelo_inurba_marseille","lat":43.28466,"lon":5.35882,"is_reserved":false,"is_disabled":false,"rental_uris":{"android":"levelo://app?vid=d9b06b41-1f31-4bc0-8225-03c6fa52b2a4","ios":"levelo://app?vid=d9b06b41-1f31-4bc0-8225-03c6fa52b2a4"},"vehicle_type_id":"4","last_reported":1728644871,"current_range_meters":18800,"station_id":"ce4bhah2rcd13ifvqei0","pricing_plan_id":"cebpf4jnsgd1na2vs0mg"},{"bike_id":"062d297b-6518-449b-bf04-2e658888342d","system_id":"levelo_inurba_marseille","lat":43.304505,"lon":5.379017,"is_reserved":false,"is_disabled":false,"rental_uris":{"android":"levelo://app?vid=062d297b-6518-449b-bf04-2e658888342d","ios":"levelo://app?vid=062d297b-6518-449b-bf04-2e658888342d"},"vehicle_type_id":"4","last_reported":1728644871,"current_range_meters":9600,"station_id":"ce4bgup2rcd13ifvqcn0","pricing_plan_id":"cebpf4jnsgd1na2vs0mg"},{"bike_id":"e308c361-2a31-418f-b7b8-04fa69e4b074","system_id":"levelo_inurba_marseille","lat":43.23188,"lon":5.39988,"is_reserved":false,"is_disabled":false,"rental_uris":{"android":"levelo://app?vid=e308c361-2a31-418f-b7b8-04fa69e4b074","ios":"levelo://app?vid=e308c361-2a31-418f-b7b8-04fa69e4b074"},"vehicle_type_id":"4","last_reported":1728644871,"current_range_meters":24400,"station_id":"ce4bhn12rcd13ifvqgqg","pricing_plan_id":"cebpf4jnsgd1na2vs0mg"},{"bike_id":"3d28e407-78b0-4910-80a4-994e71ca33cb","system_id":"levelo_inurba_marseille","lat":43.28432,"lon":5.39178,"is_reserved":false,"is_disabled":false,"rental_uris":{"android":"levelo://app?vid=3d28e407-78b0-4910-80a4-994e71ca33cb","ios":"levelo://app?vid=3d28e407-78b0-4910-80a4-994e71ca33cb"},"vehicle_type_id":"4","last_reported":1728644871,"current_range_meters":10800,"station_id":"ce4bhoh2rcd13ifvqh5g","pricing_plan_id":"cebpf4jnsgd1na2vs0mg"},{"bike_id":"cff5374c-aa07-46df-a0b1-ce6c4e44bddd","system_id":"levelo_inurba_marseille","lat":43.26687,"lon":5.38269,"is_reserved":false,"is_disabled":false,"rental_uris":{"android":"levelo://app?vid=cff5374c-aa07-46df-a0b1-ce6c4e44bddd","ios":"levelo://app?vid=cff5374c-aa07-46df-a0b1-ce6c4e44bddd"},"vehicle_type_id":"4","last_reported":1728644871,"current_range_meters":28800,"station_id":"ce4bhg92rcd13ifvqf90","pricing_plan_id":"cebpf4jnsgd1na2vs0mg"},{"bike_id":"ab6715d3-dce1-4306-a0a6-e8d3286a6451","system_id":"levelo_inurba_marseille","lat":43.30138,"lon":5.39865,"is_reserved":false,"is_disabled":false,"rental_uris":{"android":"levelo://app?vid=ab6715d3-dce1-4306-a0a6-e8d3286a6451","ios":"levelo://app?vid=ab6715d3-dce1-4306-a0a6-e8d3286a6451"},"vehicle_type_id":"4","last_reported":1728644871,"current_range_meters":28400,"station_id":"ce4bh0h2rcd13ifvqd40","pricing_plan_id":"cebpf4jnsgd1na2vs0mg"},{"bike_id":"731eb746-3f2f-46cd-9a4f-0344f5baccf3","system_id":"levelo_inurba_marseille","lat":43.29568,"lon":5.3751,"is_reserved":false,"is_disabled":false,"rental_uris":{"android":"levelo://app?vid=731eb746-3f2f-46cd-9a4f-0344f5baccf3","ios":"levelo://app?vid=731eb746-3f2f-46cd-9a4f-0344f5baccf3"},"vehicle_type_id":"4","last_reported":1728644871,"current_range_meters":28000,"station_id":"ce4bgh92rcd13ifvqb50","pricing_plan_id":"cebpf4jnsgd1na2vs0mg"},{"bike_id":"e05e04f4-e651-424c-a6aa-8f864e46be12","system_id":"levelo_inurba_marseille","lat":43.2843,"lon":5.34985,"is_reserved":false,"is_disabled":false,"rental_uris":{"android":"levelo://app?vid=e05e04f4-e651-424c-a6aa-8f864e46be12","ios":"levelo://app?vid=e05e04f4-e651-424c-a6aa-8f864e46be12"},"vehicle_type_id":"4","last_reported":1728644871,"current_range_meters":6000,"station_id":"ce4bhbh2rcd13ifvqepg","pricing_plan_id":"cebpf4jnsgd1na2vs0mg"},{"bike_id":"c11c3f05-8265-4d00-b052-e772b5cd8c0a","system_id":"levelo_inurba_marseille","lat":43.30945,"lon":5.39032,"is_reserved":false,"is_disabled":false,"rental_uris":{"android":"levelo://app?vid=c11c3f05-8265-4d00-b052-e772b5cd8c0a","ios":"levelo://app?vid=c11c3f05-8265-4d00-b052-e772b5cd8c0a"},"vehicle_type_id":"4","last_reported":1728644871,"current_range_meters":8000,"station_id":"ce4bgup2rcd13ifvqco0","pricing_plan_id":"cebpf4jnsgd1na2vs0mg"},{"bike_id":"a0efacd8-e569-45d0-a5c7-9ef3274c0675","system_id":"levelo_inurba_marseille","lat":43.23154,"lon":5.43702,"is_reserved":false,"is_disabled":false,"rental_uris":{"android":"levelo://app?vid=a0efacd8-e569-45d0-a5c7-9ef3274c0675","ios":"levelo://app?vid=a0efacd8-e569-45d0-a5c7-9ef3274c0675"},"vehicle_type_id":"4","last_reported":1728644871,"current_range_meters":26800,"station_id":"ce4bhmp2rcd13ifvqgog","pricing_plan_id":"cebpf4jnsgd1na2vs0mg"},{"bike_id":"9f1d00cc-b20d-4df4-945b-9367ef123217","system_id":"levelo_inurba_marseille","lat":43.27812,"lon":5.40708,"is_reserved":false,"is_disabled":false,"rental_uris":{"android":"levelo://app?vid=9f1d00cc-b20d-4df4-945b-9367ef123217","ios":"levelo://app?vid=9f1d00cc-b20d-4df4-945b-9367ef123217"},"vehicle_type_id":"4","last_reported":1728644871,"current_range_meters":19600,"station_id":"ce4bhnh2rcd13ifvqgtg","pricing_plan_id":"cebpf4jnsgd1na2vs0mg"},{"bike_id":"0e50b1a9-5b5b-425a-b7a5-0f784e28ba59","system_id":"levelo_inurba_marseille","lat":43.26683,"lon":5.38273,"is_reserved":false,"is_disabled":false,"rental_uris":{"android":"levelo://app?vid=0e50b1a9-5b5b-425a-b7a5-0f784e28ba59","ios":"levelo://app?vid=0e50b1a9-5b5b-425a-b7a5-0f784e28ba59"},"vehicle_type_id":"4","last_reported":1728644871,"current_range_meters":8800,"station_id":"ce4bhg92rcd13ifvqf90","pricing_plan_id":"cebpf4jnsgd1na2vs0mg"},{"bike_id":"1f414c8b-63c3-44b5-9ced-9e0bb0817876","system_id":"levelo_inurba_marseille","lat":43.23186,"lon":5.39989,"is_reserved":false,"is_disabled":false,"rental_uris":{"android":"levelo://app?vid=1f414c8b-63c3-44b5-9ced-9e0bb0817876","ios":"levelo://app?vid=1f414c8b-63c3-44b5-9ced-9e0bb0817876"},"vehicle_type_id":"4","last_reported":1728644871,"current_range_meters":8800,"station_id":"ce4bhn12rcd13ifvqgqg","pricing_plan_id":"cebpf4jnsgd1na2vs0mg"},{"bike_id":"a06837fa-9ff1-4f74-afc0-03a893a16aa0","system_id":"levelo_inurba_marseille","lat":43.30592,"lon":5.39356,"is_reserved":false,"is_disabled":false,"rental_uris":{"android":"levelo://app?vid=a06837fa-9ff1-4f74-afc0-03a893a16aa0","ios":"levelo://app?vid=a06837fa-9ff1-4f74-afc0-03a893a16aa0"},"vehicle_type_id":"4","last_reported":1728644871,"current_range_meters":20400,"station_id":"ce4bh0p2rcd13ifvqd80","pricing_plan_id":"cebpf4jnsgd1na2vs0mg"},{"bike_id":"f232f81f-230c-45ad-b01a-daea87379d72","system_id":"levelo_inurba_marseille","lat":43.28423,"lon":5.34982,"is_reserved":false,"is_disabled":false,"rental_uris":{"android":"levelo://app?vid=f232f81f-230c-45ad-b01a-daea87379d72","ios":"levelo://app?vid=f232f81f-230c-45ad-b01a-daea87379d72"},"vehicle_type_id":"4","last_reported":1728644871,"current_range_meters":10800,"station_id":"ce4bhbh2rcd13ifvqepg","pricing_plan_id":"cebpf4jnsgd1na2vs0mg"},{"bike_id":"38301329-0b74-465e-9271-796bf31aca0e","system_id":"levelo_inurba_marseille","lat":43.301331,"lon":5.398452,"is_reserved":false,"is_disabled":false,"rental_uris":{"android":"levelo://app?vid=38301329-0b74-465e-9271-796bf31aca0e","ios":"levelo://app?vid=38301329-0b74-465e-9271-796bf31aca0e"},"vehicle_type_id":"4","last_reported":1728644871,"current_range_meters":26800,"station_id":"ce4bh0h2rcd13ifvqd40","pricing_plan_id":"cebpf4jnsgd1na2vs0mg"},{"bike_id":"bb05b76b-1b77-430d-836c-97702e444672","system_id":"levelo_inurba_marseille","lat":43.29268,"lon":5.40897,"is_reserved":false,"is_disabled":false,"rental_uris":{"android":"levelo://app?vid=bb05b76b-1b77-430d-836c-97702e444672","ios":"levelo://app?vid=bb05b76b-1b77-430d-836c-97702e444672"},"vehicle_type_id":"4","last_reported":1728644871,"current_range_meters":27600,"station_id":"ce4bh192rcd13ifvqdc0","pricing_plan_id":"cebpf4jnsgd1na2vs0mg"},{"bike_id":"eda8e4a1-28b7-48fa-9514-5817bdc72d7c","system_id":"levelo_inurba_marseille","lat":43.29161,"lon":5.37166,"is_reserved":false,"is_disabled":false,"rental_uris":{"android":"levelo://app?vid=eda8e4a1-28b7-48fa-9514-5817bdc72d7c","ios":"levelo://app?vid=eda8e4a1-28b7-48fa-9514-5817bdc72d7c"},"vehicle_type_id":"4","last_reported":1728644871,"current_range_meters":12400,"station_id":"ce4bha92rcd13ifvqeh0","pricing_plan_id":"cebpf4jnsgd1na2vs0mg"},{"bike_id":"9319ad28-5bd9-4d45-a601-513ada31e4ba","system_id":"levelo_inurba_marseille","lat":43.28473,"lon":5.3588,"is_reserved":false,"is_disabled":false,"rental_uris":{"android":"levelo://app?vid=9319ad28-5bd9-4d45-a601-513ada31e4ba","ios":"levelo://app?vid=9319ad28-5bd9-4d45-a601-513ada31e4ba"},"vehicle_type_id":"4","last_reported":1728644871,"current_range_meters":32000,"station_id":"ce4bhah2rcd13ifvqei0","pricing_plan_id":"cebpf4jnsgd1na2vs0mg"},{"bike_id":"c4c93f34-128e-4af1-a3c5-46d82d2220f0","system_id":"levelo_inurba_marseille","lat":43.27621,"lon":5.3611,"is_reserved":false,"is_disabled":false,"rental_uris":{"android":"levelo://app?vid=c4c93f34-128e-4af1-a3c5-46d82d2220f0","ios":"levelo://app?vid=c4c93f34-128e-4af1-a3c5-46d82d2220f0"},"vehicle_type_id":"4","last_reported":1728644871,"current_range_meters":39200,"station_id":"ce4bgj92rcd13ifvqbe0","pricing_plan_id":"cebpf4jnsgd1na2vs0mg"},{"bike_id":"aa790d9f-4a10-4c3d-a2db-37343788ecf5","system_id":"levelo_inurba_marseille","lat":43.29219,"lon":5.36055,"is_reserved":false,"is_disabled":false,"rental_uris":{"android":"levelo://app?vid=aa790d9f-4a10-4c3d-a2db-37343788ecf5","ios":"levelo://app?vid=aa790d9f-4a10-4c3d-a2db-37343788ecf5"},"vehicle_type_id":"4","last_reported":1728644871,"current_range_meters":38000,"station_id":"ce4bhbh2rcd13ifvqeqg","pricing_plan_id":"cebpf4jnsgd1na2vs0mg"},{"bike_id":"c2709d8c-182c-4c66-9678-32143d413767","system_id":"levelo_inurba_marseille","lat":43.22934,"lon":5.35381,"is_reserved":false,"is_disabled":false,"rental_uris":{"android":"levelo://app?vid=c2709d8c-182c-4c66-9678-32143d413767","ios":"levelo://app?vid=c2709d8c-182c-4c66-9678-32143d413767"},"vehicle_type_id":"4","last_reported":1728644871,"current_range_meters":31200,"station_id":"cpo3532slgdg3j2ikp40","pricing_plan_id":"cebpf4jnsgd1na2vs0mg"},{"bike_id":"3cfd67f5-55ee-44cc-84bd-71b03c8e0c59","system_id":"levelo_inurba_marseille","lat":43.31538,"lon":5.38035,"is_reserved":false,"is_disabled":false,"rental_uris":{"android":"levelo://app?vid=3cfd67f5-55ee-44cc-84bd-71b03c8e0c59","ios":"levelo://app?vid=3cfd67f5-55ee-44cc-84bd-71b03c8e0c59"},"vehicle_type_id":"4","last_reported":1728644871,"current_range_meters":36800,"station_id":"ce4bhsp2rcd13ifvqi50","pricing_plan_id":"cebpf4jnsgd1na2vs0mg"},{"bike_id":"8b3b1af1-5331-4163-962b-2d6eb80a6110","system_id":"levelo_inurba_marseille","lat":43.29933,"lon":5.36542,"is_reserved":false,"is_disabled":false,"rental_uris":{"android":"levelo://app?vid=8b3b1af1-5331-4163-962b-2d6eb80a6110","ios":"levelo://app?vid=8b3b1af1-5331-4163-962b-2d6eb80a6110"},"vehicle_type_id":"4","last_reported":1728644871,"current_range_meters":18800,"station_id":"ce4bgm92rcd13ifvqbr0","pricing_plan_id":"cebpf4jnsgd1na2vs0mg"},{"bike_id":"ec34c4fa-c532-4c4a-b25c-44887bdf6964","system_id":"levelo_inurba_marseille","lat":43.23968,"lon":5.36625,"is_reserved":false,"is_disabled":false,"rental_uris":{"android":"levelo://app?vid=ec34c4fa-c532-4c4a-b25c-44887bdf6964","ios":"levelo://app?vid=ec34c4fa-c532-4c4a-b25c-44887bdf6964"},"vehicle_type_id":"4","last_reported":1728644871,"current_range_meters":27600,"station_id":"ce4bhi12rcd13ifvqfp0","pricing_plan_id":"cebpf4jnsgd1na2vs0mg"},{"bike_id":"3b3c5333-f864-41b4-bfe7-7417d6a89a62","system_id":"levelo_inurba_marseille","lat":43.33024,"lon":5.39037,"is_reserved":false,"is_disabled":false,"rental_uris":{"android":"levelo://app?vid=3b3c5333-f864-41b4-bfe7-7417d6a89a62","ios":"levelo://app?vid=3b3c5333-f864-41b4-bfe7-7417d6a89a62"},"vehicle_type_id":"4","last_reported":1728644871,"current_range_meters":25200,"station_id":"ce4bhr92rcd13ifvqhrg","pricing_plan_id":"cebpf4jnsgd1na2vs0mg"},{"bike_id":"843e8910-1929-496a-bc6c-734abbe1836f","system_id":"levelo_inurba_marseille","lat":43.31084,"lon":5.42429,"is_reserved":false,"is_disabled":false,"rental_uris":{"android":"levelo://app?vid=843e8910-1929-496a-bc6c-734abbe1836f","ios":"levelo://app?vid=843e8910-1929-496a-bc6c-734abbe1836f"},"vehicle_type_id":"4","last_reported":1728644871,"current_range_meters":26000,"station_id":"ce4bhp92rcd13ifvqhag","pricing_plan_id":"cebpf4jnsgd1na2vs0mg"},{"bike_id":"ed53c3a3-64cf-42c5-ba33-1b7d69b6ede7","system_id":"levelo_inurba_marseille","lat":43.2481,"lon":5.3746,"is_reserved":false,"is_disabled":false,"rental_uris":{"android":"levelo://app?vid=ed53c3a3-64cf-42c5-ba33-1b7d69b6ede7","ios":"levelo://app?vid=ed53c3a3-64cf-42c5-ba33-1b7d69b6ede7"},"vehicle_type_id":"4","last_reported":1728644871,"current_range_meters":38800,"station_id":"ce4bhgh2rcd13ifvqfb0","pricing_plan_id":"cebpf4jnsgd1na2vs0mg"},{"bike_id":"14b07fed-aacd-4f67-bc2e-4b35e6570c46","system_id":"levelo_inurba_marseille","lat":43.29218,"lon":5.39992,"is_reserved":false,"is_disabled":false,"rental_uris":{"android":"levelo://app?vid=14b07fed-aacd-4f67-bc2e-4b35e6570c46","ios":"levelo://app?vid=14b07fed-aacd-4f67-bc2e-4b35e6570c46"},"vehicle_type_id":"4","last_reported":1728644871,"current_range_meters":8800,"station_id":"","pricing_plan_id":"cebpf4jnsgd1na2vs0mg"},{"bike_id":"5b3614c5-92d0-461d-8227-9601ae65a726","system_id":"levelo_inurba_marseille","lat":43.30838,"lon":5.368014,"is_reserved":false,"is_disabled":false,"rental_uris":{"android":"levelo://app?vid=5b3614c5-92d0-461d-8227-9601ae65a726","ios":"levelo://app?vid=5b3614c5-92d0-461d-8227-9601ae65a726"},"vehicle_type_id":"4","last_reported":1728644871,"current_range_meters":35200,"station_id":"ce4bgn92rcd13ifvqbvg","pricing_plan_id":"cebpf4jnsgd1na2vs0mg"},{"bike_id":"9dede6fa-581f-43f2-bf59-19a81581c626","system_id":"levelo_inurba_marseille","lat":43.31485,"lon":5.37304,"is_reserved":false,"is_disabled":false,"rental_uris":{"android":"levelo://app?vid=9dede6fa-581f-43f2-bf59-19a81581c626","ios":"levelo://app?vid=9dede6fa-581f-43f2-bf59-19a81581c626"},"vehicle_type_id":"4","last_reported":1728644871,"current_range_meters":19200,"station_id":"ce4bgt12rcd13ifvqcd0","pricing_plan_id":"cebpf4jnsgd1na2vs0mg"},{"bike_id":"15d17ad8-8082-42ca-9529-21626d10a661","system_id":"levelo_inurba_marseille","lat":43.29895,"lon":5.4366,"is_reserved":false,"is_disabled":false,"rental_uris":{"android":"levelo://app?vid=15d17ad8-8082-42ca-9529-21626d10a661","ios":"levelo://app?vid=15d17ad8-8082-42ca-9529-21626d10a661"},"vehicle_type_id":"4","last_reported":1728644871,"current_range_meters":26800,"station_id":"ce4bhpp2rcd13ifvqhfg","pricing_plan_id":"cebpf4jnsgd1na2vs0mg"},{"bike_id":"2f5f3f97-7515-4583-a368-fc4adf2cf4d5","system_id":"levelo_inurba_marseille","lat":43.34143,"lon":5.40899,"is_reserved":false,"is_disabled":false,"rental_uris":{"android":"levelo://app?vid=2f5f3f97-7515-4583-a368-fc4adf2cf4d5","ios":"levelo://app?vid=2f5f3f97-7515-4583-a368-fc4adf2cf4d5"},"vehicle_type_id":"4","last_reported":1728644871,"current_range_meters":27600,"station_id":"ce4bhqh2rcd13ifvqhlg","pricing_plan_id":"cebpf4jnsgd1na2vs0mg"},{"bike_id":"159fc0ab-1217-40d4-8969-b6ecd1d545c1","system_id":"levelo_inurba_marseille","lat":43.23179,"lon":5.39989,"is_reserved":false,"is_disabled":false,"rental_uris":{"android":"levelo://app?vid=159fc0ab-1217-40d4-8969-b6ecd1d545c1","ios":"levelo://app?vid=159fc0ab-1217-40d4-8969-b6ecd1d545c1"},"vehicle_type_id":"4","last_reported":1728644871,"current_range_meters":24000,"station_id":"ce4bhn12rcd13ifvqgqg","pricing_plan_id":"cebpf4jnsgd1na2vs0mg"},{"bike_id":"09972149-90d5-4132-b4e1-ca66e00e02e0","system_id":"levelo_inurba_marseille","lat":43.31713,"lon":5.43709,"is_reserved":false,"is_disabled":false,"rental_uris":{"android":"levelo://app?vid=09972149-90d5-4132-b4e1-ca66e00e02e0","ios":"levelo://app?vid=09972149-90d5-4132-b4e1-ca66e00e02e0"},"vehicle_type_id":"4","last_reported":1728644871,"current_range_meters":3200,"station_id":"ce4bhp92rcd13ifvqhcg","pricing_plan_id":"cebpf4jnsgd1na2vs0mg"},{"bike_id":"30e5f0c1-a8ce-4008-a16d-48c87d9b3ca6","system_id":"levelo_inurba_marseille","lat":43.33781,"lon":5.37427,"is_reserved":false,"is_disabled":false,"rental_uris":{"android":"levelo://app?vid=30e5f0c1-a8ce-4008-a16d-48c87d9b3ca6","ios":"levelo://app?vid=30e5f0c1-a8ce-4008-a16d-48c87d9b3ca6"},"vehicle_type_id":"4","last_reported":1728644871,"current_range_meters":38800,"station_id":"","pricing_plan_id":"cebpf4jnsgd1na2vs0mg"},{"bike_id":"310932bb-4d41-4338-b641-d104a4f02ce6","system_id":"levelo_inurba_marseille","lat":43.30601,"lon":5.37222,"is_reserved":false,"is_disabled":false,"rental_uris":{"android":"levelo://app?vid=310932bb-4d41-4338-b641-d104a4f02ce6","ios":"levelo://app?vid=310932bb-4d41-4338-b641-d104a4f02ce6"},"vehicle_type_id":"4","last_reported":1728644871,"current_range_meters":22000,"station_id":"ce4bgqh2rcd13ifvqc4g","pricing_plan_id":"cebpf4jnsgd1na2vs0mg"},{"bike_id":"71afc88c-f31a-4d35-8f41-3a6da9afe2a7","system_id":"levelo_inurba_marseille","lat":43.33726,"lon":5.39187,"is_reserved":false,"is_disabled":false,"rental_uris":{"android":"levelo://app?vid=71afc88c-f31a-4d35-8f41-3a6da9afe2a7","ios":"levelo://app?vid=71afc88c-f31a-4d35-8f41-3a6da9afe2a7"},"vehicle_type_id":"4","last_reported":1728644871,"current_range_meters":28800,"station_id":"ce4bhr92rcd13ifvqhsg","pricing_plan_id":"cebpf4jnsgd1na2vs0mg"},{"bike_id":"50aa4af7-94b4-48c9-959d-eeec3eaec001","system_id":"levelo_inurba_marseille","lat":43.23189,"lon":5.35541,"is_reserved":false,"is_disabled":false,"rental_uris":{"android":"levelo://app?vid=50aa4af7-94b4-48c9-959d-eeec3eaec001","ios":"levelo://app?vid=50aa4af7-94b4-48c9-959d-eeec3eaec001"},"vehicle_type_id":"4","last_reported":1728644871,"current_range_meters":36800,"station_id":"ce4bhu92rcd13ifvqi70","pricing_plan_id":"cebpf4jnsgd1na2vs0mg"},{"bike_id":"13be9339-28a5-41e6-a135-1e1170bad19f","system_id":"levelo_inurba_marseille","lat":43.33022,"lon":5.39042,"is_reserved":false,"is_disabled":false,"rental_uris":{"android":"levelo://app?vid=13be9339-28a5-41e6-a135-1e1170bad19f","ios":"levelo://app?vid=13be9339-28a5-41e6-a135-1e1170bad19f"},"vehicle_type_id":"4","last_reported":1728644871,"current_range_meters":28000,"station_id":"ce4bhr92rcd13ifvqhrg","pricing_plan_id":"cebpf4jnsgd1na2vs0mg"},{"bike_id":"4d0a39a3-d6c0-42b9-a4c9-f31a67360faa","system_id":"levelo_inurba_marseille","lat":43.28723,"lon":5.37945,"is_reserved":false,"is_disabled":false,"rental_uris":{"android":"levelo://app?vid=4d0a39a3-d6c0-42b9-a4c9-f31a67360faa","ios":"levelo://app?vid=4d0a39a3-d6c0-42b9-a4c9-f31a67360faa"},"vehicle_type_id":"4","last_reported":1728644871,"current_range_meters":20400,"station_id":"ce4bh9p2rcd13ifvqec0","pricing_plan_id":"cebpf4jnsgd1na2vs0mg"},{"bike_id":"e0d88dd2-4232-4f50-bde1-fba6faf83ffd","system_id":"levelo_inurba_marseille","lat":43.23965,"lon":5.36634,"is_reserved":false,"is_disabled":false,"rental_uris":{"android":"levelo://app?vid=e0d88dd2-4232-4f50-bde1-fba6faf83ffd","ios":"levelo://app?vid=e0d88dd2-4232-4f50-bde1-fba6faf83ffd"},"vehicle_type_id":"4","last_reported":1728644871,"current_range_meters":15200,"station_id":"ce4bhi12rcd13ifvqfp0","pricing_plan_id":"cebpf4jnsgd1na2vs0mg"},{"bike_id":"e78251a7-1b20-4e2f-bd9d-b431a65e58b0","system_id":"levelo_inurba_marseille","lat":43.23146,"lon":5.43716,"is_reserved":false,"is_disabled":false,"rental_uris":{"android":"levelo://app?vid=e78251a7-1b20-4e2f-bd9d-b431a65e58b0","ios":"levelo://app?vid=e78251a7-1b20-4e2f-bd9d-b431a65e58b0"},"vehicle_type_id":"4","last_reported":1728644871,"current_range_meters":17200,"station_id":"ce4bhmp2rcd13ifvqgog","pricing_plan_id":"cebpf4jnsgd1na2vs0mg"},{"bike_id":"dd9caef2-82b7-4968-b286-5855ed4ef21d","system_id":"levelo_inurba_marseille","lat":43.29536,"lon":5.38538,"is_reserved":false,"is_disabled":false,"rental_uris":{"android":"levelo://app?vid=dd9caef2-82b7-4968-b286-5855ed4ef21d","ios":"levelo://app?vid=dd9caef2-82b7-4968-b286-5855ed4ef21d"},"vehicle_type_id":"4","last_reported":1728644871,"current_range_meters":20400,"station_id":"ce4bgih2rcd13ifvqba0","pricing_plan_id":"cebpf4jnsgd1na2vs0mg"},{"bike_id":"84c30ed3-60f2-43c6-a6ef-72b2abd8f6b1","system_id":"levelo_inurba_marseille","lat":43.26687,"lon":5.38265,"is_reserved":false,"is_disabled":false,"rental_uris":{"android":"levelo://app?vid=84c30ed3-60f2-43c6-a6ef-72b2abd8f6b1","ios":"levelo://app?vid=84c30ed3-60f2-43c6-a6ef-72b2abd8f6b1"},"vehicle_type_id":"4","last_reported":1728644871,"current_range_meters":33200,"station_id":"ce4bhg92rcd13ifvqf90","pricing_plan_id":"cebpf4jnsgd1na2vs0mg"},{"bike_id":"3d819519-2feb-41f9-9ba5-7980c2cc54aa","system_id":"levelo_inurba_marseille","lat":43.30541,"lon":5.36528,"is_reserved":false,"is_disabled":false,"rental_uris":{"android":"levelo://app?vid=3d819519-2feb-41f9-9ba5-7980c2cc54aa","ios":"levelo://app?vid=3d819519-2feb-41f9-9ba5-7980c2cc54aa"},"vehicle_type_id":"4","last_reported":1728644871,"current_range_meters":39200,"station_id":"ce4bgs12rcd13ifvqcag","pricing_plan_id":"cebpf4jnsgd1na2vs0mg"},{"bike_id":"c6938137-c0d6-4ace-b751-67f074547a5a","system_id":"levelo_inurba_marseille","lat":43.23151,"lon":5.43711,"is_reserved":false,"is_disabled":false,"rental_uris":{"android":"levelo://app?vid=c6938137-c0d6-4ace-b751-67f074547a5a","ios":"levelo://app?vid=c6938137-c0d6-4ace-b751-67f074547a5a"},"vehicle_type_id":"4","last_reported":1728644871,"current_range_meters":14800,"station_id":"ce4bhmp2rcd13ifvqgog","pricing_plan_id":"cebpf4jnsgd1na2vs0mg"},{"bike_id":"bdaa1208-35b0-4213-8197-f8b39fffb54d","system_id":"levelo_inurba_marseille","lat":43.29308,"lon":5.37163,"is_reserved":false,"is_disabled":false,"rental_uris":{"android":"levelo://app?vid=bdaa1208-35b0-4213-8197-f8b39fffb54d","ios":"levelo://app?vid=bdaa1208-35b0-4213-8197-f8b39fffb54d"},"vehicle_type_id":"4","last_reported":1728644871,"current_range_meters":28800,"station_id":"ce4bgh92rcd13ifvqb40","pricing_plan_id":"cebpf4jnsgd1na2vs0mg"},{"bike_id":"87929928-96a9-4ba5-89e8-dfc0e1c77350","system_id":"levelo_inurba_marseille","lat":43.29979,"lon":5.37181,"is_reserved":false,"is_disabled":false,"rental_uris":{"android":"levelo://app?vid=87929928-96a9-4ba5-89e8-dfc0e1c77350","ios":"levelo://app?vid=87929928-96a9-4ba5-89e8-dfc0e1c77350"},"vehicle_type_id":"4","last_reported":1728644871,"current_range_meters":30400,"station_id":"ce4bgr92rcd13ifvqc7g","pricing_plan_id":"cebpf4jnsgd1na2vs0mg"},{"bike_id":"47717afc-4238-43f1-b35b-a62124556ff4","system_id":"levelo_inurba_marseille","lat":43.25866,"lon":5.39892,"is_reserved":false,"is_disabled":false,"rental_uris":{"android":"levelo://app?vid=47717afc-4238-43f1-b35b-a62124556ff4","ios":"levelo://app?vid=47717afc-4238-43f1-b35b-a62124556ff4"},"vehicle_type_id":"4","last_reported":1728644871,"current_range_meters":9200,"station_id":"ce4bhl92rcd13ifvqghg","pricing_plan_id":"cebpf4jnsgd1na2vs0mg"},{"bike_id":"86ba210b-c1f8-4bf0-a289-4545ee97cc42","system_id":"levelo_inurba_marseille","lat":43.29539,"lon":5.38542,"is_reserved":false,"is_disabled":false,"rental_uris":{"android":"levelo://app?vid=86ba210b-c1f8-4bf0-a289-4545ee97cc42","ios":"levelo://app?vid=86ba210b-c1f8-4bf0-a289-4545ee97cc42"},"vehicle_type_id":"4","last_reported":1728644871,"current_range_meters":18800,"station_id":"ce4bgih2rcd13ifvqba0","pricing_plan_id":"cebpf4jnsgd1na2vs0mg"},{"bike_id":"cea95fcd-5510-4e29-a295-74e45d2353a1","system_id":"levelo_inurba_marseille","lat":43.2862,"lon":5.35099,"is_reserved":false,"is_disabled":false,"rental_uris":{"android":"levelo://app?vid=cea95fcd-5510-4e29-a295-74e45d2353a1","ios":"levelo://app?vid=cea95fcd-5510-4e29-a295-74e45d2353a1"},"vehicle_type_id":"4","last_reported":1728644871,"current_range_meters":7200,"station_id":"ce4bhch2rcd13ifvqeug","pricing_plan_id":"cebpf4jnsgd1na2vs0mg"},{"bike_id":"216aa91e-5922-4a44-be04-19c3f60fe1cb","system_id":"levelo_inurba_marseille","lat":43.29515,"lon":5.37502,"is_reserved":false,"is_disabled":false,"rental_uris":{"android":"levelo://app?vid=216aa91e-5922-4a44-be04-19c3f60fe1cb","ios":"levelo://app?vid=216aa91e-5922-4a44-be04-19c3f60fe1cb"},"vehicle_type_id":"4","last_reported":1728644871,"current_range_meters":10800,"station_id":"ce4bgkp2rcd13ifvqbmg","pricing_plan_id":"cebpf4jnsgd1na2vs0mg"},{"bike_id":"b5792f84-5eda-438b-bec9-809992be418f","system_id":"levelo_inurba_marseille","lat":43.28163,"lon":5.40459,"is_reserved":false,"is_disabled":false,"rental_uris":{"android":"levelo://app?vid=b5792f84-5eda-438b-bec9-809992be418f","ios":"levelo://app?vid=b5792f84-5eda-438b-bec9-809992be418f"},"vehicle_type_id":"4","last_reported":1728644871,"current_range_meters":22400,"station_id":"ce4bhnh2rcd13ifvqgug","pricing_plan_id":"cebpf4jnsgd1na2vs0mg"},{"bike_id":"684d88b2-eb8c-4e05-ae37-d1d8a22b101a","system_id":"levelo_inurba_marseille","lat":43.23148,"lon":5.43723,"is_reserved":false,"is_disabled":false,"rental_uris":{"android":"levelo://app?vid=684d88b2-eb8c-4e05-ae37-d1d8a22b101a","ios":"levelo://app?vid=684d88b2-eb8c-4e05-ae37-d1d8a22b101a"},"vehicle_type_id":"4","last_reported":1728644871,"current_range_meters":29600,"station_id":"ce4bhmp2rcd13ifvqgog","pricing_plan_id":"cebpf4jnsgd1na2vs0mg"},{"bike_id":"ff68b789-7173-415f-860f-fb58c1b9d01d","system_id":"levelo_inurba_marseille","lat":43.22929,"lon":5.3538,"is_reserved":false,"is_disabled":false,"rental_uris":{"android":"levelo://app?vid=ff68b789-7173-415f-860f-fb58c1b9d01d","ios":"levelo://app?vid=ff68b789-7173-415f-860f-fb58c1b9d01d"},"vehicle_type_id":"4","last_reported":1728644871,"current_range_meters":31200,"station_id":"cpo3532slgdg3j2ikp40","pricing_plan_id":"cebpf4jnsgd1na2vs0mg"},{"bike_id":"c1ed1047-b51b-4381-92b1-7cab501bd0f7","system_id":"levelo_inurba_marseille","lat":43.27372,"lon":5.36269,"is_reserved":false,"is_disabled":false,"rental_uris":{"android":"levelo://app?vid=c1ed1047-b51b-4381-92b1-7cab501bd0f7","ios":"levelo://app?vid=c1ed1047-b51b-4381-92b1-7cab501bd0f7"},"vehicle_type_id":"4","last_reported":1728644871,"current_range_meters":22000,"station_id":"ce4bhbh2rcd13ifvqeo0","pricing_plan_id":"cebpf4jnsgd1na2vs0mg"},{"bike_id":"11ed2bc4-99e4-42ab-8911-f3374fcced68","system_id":"levelo_inurba_marseille","lat":43.27179,"lon":5.40989,"is_reserved":false,"is_disabled":false,"rental_uris":{"android":"levelo://app?vid=11ed2bc4-99e4-42ab-8911-f3374fcced68","ios":"levelo://app?vid=11ed2bc4-99e4-42ab-8911-f3374fcced68"},"vehicle_type_id":"4","last_reported":1728644871,"current_range_meters":36800,"station_id":"ce4bhl12rcd13ifvqgf0","pricing_plan_id":"cebpf4jnsgd1na2vs0mg"},{"bike_id":"6cb5b02c-2401-484a-8b7d-b4d2106d6b08","system_id":"levelo_inurba_marseille","lat":43.2319,"lon":5.35554,"is_reserved":false,"is_disabled":false,"rental_uris":{"android":"levelo://app?vid=6cb5b02c-2401-484a-8b7d-b4d2106d6b08","ios":"levelo://app?vid=6cb5b02c-2401-484a-8b7d-b4d2106d6b08"},"vehicle_type_id":"4","last_reported":1728644871,"current_range_meters":36400,"station_id":"ce4bhu92rcd13ifvqi70","pricing_plan_id":"cebpf4jnsgd1na2vs0mg"},{"bike_id":"9a6e35ae-22db-4f8b-aad0-29004369ffe0","system_id":"levelo_inurba_marseille","lat":43.30589,"lon":5.39358,"is_reserved":false,"is_disabled":false,"rental_uris":{"android":"levelo://app?vid=9a6e35ae-22db-4f8b-aad0-29004369ffe0","ios":"levelo://app?vid=9a6e35ae-22db-4f8b-aad0-29004369ffe0"},"vehicle_type_id":"4","last_reported":1728644871,"current_range_meters":10000,"station_id":"ce4bh0p2rcd13ifvqd80","pricing_plan_id":"cebpf4jnsgd1na2vs0mg"},{"bike_id":"c417019c-5367-4191-a213-8153b6c2ea08","system_id":"levelo_inurba_marseille","lat":43.32476,"lon":5.36572,"is_reserved":false,"is_disabled":false,"rental_uris":{"android":"levelo://app?vid=c417019c-5367-4191-a213-8153b6c2ea08","ios":"levelo://app?vid=c417019c-5367-4191-a213-8153b6c2ea08"},"vehicle_type_id":"4","last_reported":1728644871,"current_range_meters":25600,"station_id":"ce4bhs12rcd13ifvqhvg","pricing_plan_id":"cebpf4jnsgd1na2vs0mg"},{"bike_id":"44c4e2cb-0dae-4c90-ac01-ffed0976125e","system_id":"levelo_inurba_marseille","lat":43.28272,"lon":5.35064,"is_reserved":false,"is_disabled":false,"rental_uris":{"android":"levelo://app?vid=44c4e2cb-0dae-4c90-ac01-ffed0976125e","ios":"levelo://app?vid=44c4e2cb-0dae-4c90-ac01-ffed0976125e"},"vehicle_type_id":"4","last_reported":1728644871,"current_range_meters":34000,"station_id":"ce4bhbp2rcd13ifvqerg","pricing_plan_id":"cebpf4jnsgd1na2vs0mg"},{"bike_id":"1ce8beed-970c-4962-9d45-4aa05720b83c","system_id":"levelo_inurba_marseille","lat":43.29569,"lon":5.37513,"is_reserved":false,"is_disabled":false,"rental_uris":{"android":"levelo://app?vid=1ce8beed-970c-4962-9d45-4aa05720b83c","ios":"levelo://app?vid=1ce8beed-970c-4962-9d45-4aa05720b83c"},"vehicle_type_id":"4","last_reported":1728644871,"current_range_meters":8400,"station_id":"ce4bgh92rcd13ifvqb50","pricing_plan_id":"cebpf4jnsgd1na2vs0mg"},{"bike_id":"70e8d9e5-8396-4d7d-be39-1fc17a440db7","system_id":"levelo_inurba_marseille","lat":43.3361,"lon":5.41019,"is_reserved":false,"is_disabled":false,"rental_uris":{"android":"levelo://app?vid=70e8d9e5-8396-4d7d-be39-1fc17a440db7","ios":"levelo://app?vid=70e8d9e5-8396-4d7d-be39-1fc17a440db7"},"vehicle_type_id":"4","last_reported":1728644871,"current_range_meters":38800,"station_id":"ce4bhqh2rcd13ifvqhmg","pricing_plan_id":"cebpf4jnsgd1na2vs0mg"},{"bike_id":"ac975a99-947c-44b2-8c20-bedd2ae6720b","system_id":"levelo_inurba_marseille","lat":43.3053,"lon":5.36531,"is_reserved":false,"is_disabled":false,"rental_uris":{"android":"levelo://app?vid=ac975a99-947c-44b2-8c20-bedd2ae6720b","ios":"levelo://app?vid=ac975a99-947c-44b2-8c20-bedd2ae6720b"},"vehicle_type_id":"4","last_reported":1728644871,"current_range_meters":36000,"station_id":"ce4bgs12rcd13ifvqcag","pricing_plan_id":"cebpf4jnsgd1na2vs0mg"},{"bike_id":"7feda03c-1689-4827-a0fb-310bf8a90726","system_id":"levelo_inurba_marseille","lat":43.24995,"lon":5.38926,"is_reserved":false,"is_disabled":false,"rental_uris":{"android":"levelo://app?vid=7feda03c-1689-4827-a0fb-310bf8a90726","ios":"levelo://app?vid=7feda03c-1689-4827-a0fb-310bf8a90726"},"vehicle_type_id":"4","last_reported":1728644871,"current_range_meters":38800,"station_id":"ce4bhgp2rcd13ifvqfd0","pricing_plan_id":"cebpf4jnsgd1na2vs0mg"},{"bike_id":"c1b429da-9701-48e6-8996-31db6c3ba515","system_id":"levelo_inurba_marseille","lat":43.30605,"lon":5.37215,"is_reserved":false,"is_disabled":false,"rental_uris":{"android":"levelo://app?vid=c1b429da-9701-48e6-8996-31db6c3ba515","ios":"levelo://app?vid=c1b429da-9701-48e6-8996-31db6c3ba515"},"vehicle_type_id":"4","last_reported":1728644871,"current_range_meters":38800,"station_id":"ce4bgqh2rcd13ifvqc4g","pricing_plan_id":"cebpf4jnsgd1na2vs0mg"},{"bike_id":"f80c2e75-b47f-4161-9783-8454957aba75","system_id":"levelo_inurba_marseille","lat":43.32108,"lon":5.36767,"is_reserved":false,"is_disabled":false,"rental_uris":{"android":"levelo://app?vid=f80c2e75-b47f-4161-9783-8454957aba75","ios":"levelo://app?vid=f80c2e75-b47f-4161-9783-8454957aba75"},"vehicle_type_id":"4","last_reported":1728644871,"current_range_meters":4800,"station_id":"ce4bhrh2rcd13ifvqhug","pricing_plan_id":"cebpf4jnsgd1na2vs0mg"},{"bike_id":"38fe728d-f1b8-477e-9548-f5cba45dee68","system_id":"levelo_inurba_marseille","lat":43.31715,"lon":5.37745,"is_reserved":false,"is_disabled":false,"rental_uris":{"android":"levelo://app?vid=38fe728d-f1b8-477e-9548-f5cba45dee68","ios":"levelo://app?vid=38fe728d-f1b8-477e-9548-f5cba45dee68"},"vehicle_type_id":"4","last_reported":1728644871,"current_range_meters":35200,"station_id":"ce4bgth2rcd13ifvqch0","pricing_plan_id":"cebpf4jnsgd1na2vs0mg"},{"bike_id":"4a5817ae-02b5-4d49-8295-c5071d86a890","system_id":"levelo_inurba_marseille","lat":43.27056,"lon":5.4026,"is_reserved":false,"is_disabled":false,"rental_uris":{"android":"levelo://app?vid=4a5817ae-02b5-4d49-8295-c5071d86a890","ios":"levelo://app?vid=4a5817ae-02b5-4d49-8295-c5071d86a890"},"vehicle_type_id":"4","last_reported":1728644871,"current_range_meters":4000,"station_id":"ce4bhk92rcd13ifvqgc0","pricing_plan_id":"cebpf4jnsgd1na2vs0mg"},{"bike_id":"6c0741b6-6969-432a-8d99-aa19d4dac481","system_id":"levelo_inurba_marseille","lat":43.27813,"lon":5.40712,"is_reserved":false,"is_disabled":false,"rental_uris":{"android":"levelo://app?vid=6c0741b6-6969-432a-8d99-aa19d4dac481","ios":"levelo://app?vid=6c0741b6-6969-432a-8d99-aa19d4dac481"},"vehicle_type_id":"4","last_reported":1728644871,"current_range_meters":30400,"station_id":"ce4bhnh2rcd13ifvqgtg","pricing_plan_id":"cebpf4jnsgd1na2vs0mg"},{"bike_id":"a9a9c221-5070-4158-8cfd-fdde4b98e8f7","system_id":"levelo_inurba_marseille","lat":43.23184,"lon":5.39978,"is_reserved":false,"is_disabled":false,"rental_uris":{"android":"levelo://app?vid=a9a9c221-5070-4158-8cfd-fdde4b98e8f7","ios":"levelo://app?vid=a9a9c221-5070-4158-8cfd-fdde4b98e8f7"},"vehicle_type_id":"4","last_reported":1728644871,"current_range_meters":16400,"station_id":"ce4bhn12rcd13ifvqgqg","pricing_plan_id":"cebpf4jnsgd1na2vs0mg"},{"bike_id":"2e97f527-708a-4c55-b890-8ca23195552d","system_id":"levelo_inurba_marseille","lat":43.30099,"lon":5.39072,"is_reserved":false,"is_disabled":false,"rental_uris":{"android":"levelo://app?vid=2e97f527-708a-4c55-b890-8ca23195552d","ios":"levelo://app?vid=2e97f527-708a-4c55-b890-8ca23195552d"},"vehicle_type_id":"4","last_reported":1728644871,"current_range_meters":20000,"station_id":"ce4bh192rcd13ifvqdb0","pricing_plan_id":"cebpf4jnsgd1na2vs0mg"},{"bike_id":"16e14eef-d9f9-4ac8-994a-43d73b6ef4d3","system_id":"levelo_inurba_marseille","lat":43.29579,"lon":5.3674,"is_reserved":false,"is_disabled":false,"rental_uris":{"android":"levelo://app?vid=16e14eef-d9f9-4ac8-994a-43d73b6ef4d3","ios":"levelo://app?vid=16e14eef-d9f9-4ac8-994a-43d73b6ef4d3"},"vehicle_type_id":"4","last_reported":1728644871,"current_range_meters":30000,"station_id":"ce4bgph2rcd13ifvqc2g","pricing_plan_id":"cebpf4jnsgd1na2vs0mg"},{"bike_id":"b933402b-d1ca-49a8-bbf7-fb19281d941c","system_id":"levelo_inurba_marseille","lat":43.23197,"lon":5.35548,"is_reserved":false,"is_disabled":false,"rental_uris":{"android":"levelo://app?vid=b933402b-d1ca-49a8-bbf7-fb19281d941c","ios":"levelo://app?vid=b933402b-d1ca-49a8-bbf7-fb19281d941c"},"vehicle_type_id":"4","last_reported":1728644871,"current_range_meters":27600,"station_id":"ce4bhu92rcd13ifvqi70","pricing_plan_id":"cebpf4jnsgd1na2vs0mg"},{"bike_id":"f5025c91-10ce-417c-b0cc-aa63fb454c26","system_id":"levelo_inurba_marseille","lat":43.24654,"lon":5.38894,"is_reserved":false,"is_disabled":false,"rental_uris":{"android":"levelo://app?vid=f5025c91-10ce-417c-b0cc-aa63fb454c26","ios":"levelo://app?vid=f5025c91-10ce-417c-b0cc-aa63fb454c26"},"vehicle_type_id":"4","last_reported":1728644871,"current_range_meters":35600,"station_id":"ce4bhg12rcd13ifvqf60","pricing_plan_id":"cebpf4jnsgd1na2vs0mg"},{"bike_id":"c2aa5632-0343-4f3e-bf1c-87dfcffb0325","system_id":"levelo_inurba_marseille","lat":43.3133,"lon":5.39691,"is_reserved":false,"is_disabled":false,"rental_uris":{"android":"levelo://app?vid=c2aa5632-0343-4f3e-bf1c-87dfcffb0325","ios":"levelo://app?vid=c2aa5632-0343-4f3e-bf1c-87dfcffb0325"},"vehicle_type_id":"4","last_reported":1728644871,"current_range_meters":36800,"station_id":"ce4bgvp2rcd13ifvqcu0","pricing_plan_id":"cebpf4jnsgd1na2vs0mg"},{"bike_id":"bd4eb39d-7ecc-47fc-8de0-343d09284c2c","system_id":"levelo_inurba_marseille","lat":43.304226,"lon":5.412895,"is_reserved":false,"is_disabled":false,"rental_uris":{"android":"levelo://app?vid=bd4eb39d-7ecc-47fc-8de0-343d09284c2c","ios":"levelo://app?vid=bd4eb39d-7ecc-47fc-8de0-343d09284c2c"},"vehicle_type_id":"4","last_reported":1728644871,"current_range_meters":37600,"station_id":"ce4bhph2rcd13ifvqhdg","pricing_plan_id":"cebpf4jnsgd1na2vs0mg"},{"bike_id":"1bf39129-7013-4caa-8d33-ef279b792ee7","system_id":"levelo_inurba_marseille","lat":43.25579,"lon":5.38228,"is_reserved":false,"is_disabled":false,"rental_uris":{"android":"levelo://app?vid=1bf39129-7013-4caa-8d33-ef279b792ee7","ios":"levelo://app?vid=1bf39129-7013-4caa-8d33-ef279b792ee7"},"vehicle_type_id":"4","last_reported":1728644871,"current_range_meters":7200,"station_id":"ce4bhih2rcd13ifvqfs0","pricing_plan_id":"cebpf4jnsgd1na2vs0mg"},{"bike_id":"e8c9ea8c-3980-46cb-9769-f7b652c0b420","system_id":"levelo_inurba_marseille","lat":43.291993,"lon":5.35792,"is_reserved":false,"is_disabled":false,"rental_uris":{"android":"levelo://app?vid=e8c9ea8c-3980-46cb-9769-f7b652c0b420","ios":"levelo://app?vid=e8c9ea8c-3980-46cb-9769-f7b652c0b420"},"vehicle_type_id":"4","last_reported":1728644871,"current_range_meters":19200,"station_id":"ce4bhb12rcd13ifvqel0","pricing_plan_id":"cebpf4jnsgd1na2vs0mg"},{"bike_id":"25f5ad3f-b338-4c25-bbde-1e49cca3a07c","system_id":"levelo_inurba_marseille","lat":43.2782,"lon":5.4071,"is_reserved":false,"is_disabled":false,"rental_uris":{"android":"levelo://app?vid=25f5ad3f-b338-4c25-bbde-1e49cca3a07c","ios":"levelo://app?vid=25f5ad3f-b338-4c25-bbde-1e49cca3a07c"},"vehicle_type_id":"4","last_reported":1728644871,"current_range_meters":33200,"station_id":"ce4bhnh2rcd13ifvqgtg","pricing_plan_id":"cebpf4jnsgd1na2vs0mg"},{"bike_id":"370d5e73-8009-4a4a-9d22-fdbcc470efb3","system_id":"levelo_inurba_marseille","lat":43.30528,"lon":5.38311,"is_reserved":false,"is_disabled":false,"rental_uris":{"android":"levelo://app?vid=370d5e73-8009-4a4a-9d22-fdbcc470efb3","ios":"levelo://app?vid=370d5e73-8009-4a4a-9d22-fdbcc470efb3"},"vehicle_type_id":"4","last_reported":1728644871,"current_range_meters":20800,"station_id":"ce4bgv92rcd13ifvqcq0","pricing_plan_id":"cebpf4jnsgd1na2vs0mg"},{"bike_id":"200fa36c-b527-4335-bcda-d8d96a20d2b7","system_id":"levelo_inurba_marseille","lat":43.29794,"lon":5.404,"is_reserved":false,"is_disabled":false,"rental_uris":{"android":"levelo://app?vid=200fa36c-b527-4335-bcda-d8d96a20d2b7","ios":"levelo://app?vid=200fa36c-b527-4335-bcda-d8d96a20d2b7"},"vehicle_type_id":"4","last_reported":1728644871,"current_range_meters":30000,"station_id":"ce4bh112rcd13ifvqd90","pricing_plan_id":"cebpf4jnsgd1na2vs0mg"},{"bike_id":"1430f6f2-73dd-42ca-8307-5f209eb4a512","system_id":"levelo_inurba_marseille","lat":43.29456,"lon":5.376265,"is_reserved":false,"is_disabled":false,"rental_uris":{"android":"levelo://app?vid=1430f6f2-73dd-42ca-8307-5f209eb4a512","ios":"levelo://app?vid=1430f6f2-73dd-42ca-8307-5f209eb4a512"},"vehicle_type_id":"4","last_reported":1728644871,"current_range_meters":7200,"station_id":"","pricing_plan_id":"cebpf4jnsgd1na2vs0mg"},{"bike_id":"053452f1-16e1-4339-8716-cb7197d48a45","system_id":"levelo_inurba_marseille","lat":43.25112,"lon":5.40323,"is_reserved":false,"is_disabled":false,"rental_uris":{"android":"levelo://app?vid=053452f1-16e1-4339-8716-cb7197d48a45","ios":"levelo://app?vid=053452f1-16e1-4339-8716-cb7197d48a45"},"vehicle_type_id":"4","last_reported":1728644871,"current_range_meters":3200,"station_id":"ce4bhlh2rcd13ifvqgig","pricing_plan_id":"cebpf4jnsgd1na2vs0mg"},{"bike_id":"a36d0849-febc-40bd-a1bc-74f6b94bc0bc","system_id":"levelo_inurba_marseille","lat":43.24179,"lon":5.3973,"is_reserved":false,"is_disabled":false,"rental_uris":{"android":"levelo://app?vid=a36d0849-febc-40bd-a1bc-74f6b94bc0bc","ios":"levelo://app?vid=a36d0849-febc-40bd-a1bc-74f6b94bc0bc"},"vehicle_type_id":"4","last_reported":1728644871,"current_range_meters":6800,"station_id":"ce4bhn12rcd13ifvqgpg","pricing_plan_id":"cebpf4jnsgd1na2vs0mg"},{"bike_id":"354752fb-97f0-4c64-ac28-e7cb9e6dbe7b","system_id":"levelo_inurba_marseille","lat":43.29794,"lon":5.40396,"is_reserved":false,"is_disabled":false,"rental_uris":{"android":"levelo://app?vid=354752fb-97f0-4c64-ac28-e7cb9e6dbe7b","ios":"levelo://app?vid=354752fb-97f0-4c64-ac28-e7cb9e6dbe7b"},"vehicle_type_id":"4","last_reported":1728644871,"current_range_meters":28800,"station_id":"ce4bh112rcd13ifvqd90","pricing_plan_id":"cebpf4jnsgd1na2vs0mg"},{"bike_id":"484a4c63-4ef1-4433-b27a-9a9ca5ad2f9a","system_id":"levelo_inurba_marseille","lat":43.22932,"lon":5.35371,"is_reserved":false,"is_disabled":false,"rental_uris":{"android":"levelo://app?vid=484a4c63-4ef1-4433-b27a-9a9ca5ad2f9a","ios":"levelo://app?vid=484a4c63-4ef1-4433-b27a-9a9ca5ad2f9a"},"vehicle_type_id":"4","last_reported":1728644871,"current_range_meters":16800,"station_id":"cpo3532slgdg3j2ikp40","pricing_plan_id":"cebpf4jnsgd1na2vs0mg"},{"bike_id":"1e73b0a8-b633-4a13-86d6-38b9cdd50cf8","system_id":"levelo_inurba_marseille","lat":43.29014,"lon":5.38129,"is_reserved":false,"is_disabled":false,"rental_uris":{"android":"levelo://app?vid=1e73b0a8-b633-4a13-86d6-38b9cdd50cf8","ios":"levelo://app?vid=1e73b0a8-b633-4a13-86d6-38b9cdd50cf8"},"vehicle_type_id":"4","last_reported":1728644871,"current_range_meters":8000,"station_id":"ce4bh4p2rcd13ifvqe1g","pricing_plan_id":"cebpf4jnsgd1na2vs0mg"},{"bike_id":"f1939519-06af-4c84-8267-d0d27494a2bd","system_id":"levelo_inurba_marseille","lat":43.295227,"lon":5.380332,"is_reserved":false,"is_disabled":false,"rental_uris":{"android":"levelo://app?vid=f1939519-06af-4c84-8267-d0d27494a2bd","ios":"levelo://app?vid=f1939519-06af-4c84-8267-d0d27494a2bd"},"vehicle_type_id":"4","last_reported":1728644871,"current_range_meters":36400,"station_id":"ce4bh5p2rcd13ifvqe4g","pricing_plan_id":"cebpf4jnsgd1na2vs0mg"},{"bike_id":"890b8847-1693-4160-88f7-f99654adee24","system_id":"levelo_inurba_marseille","lat":43.3032,"lon":5.40436,"is_reserved":false,"is_disabled":false,"rental_uris":{"android":"levelo://app?vid=890b8847-1693-4160-88f7-f99654adee24","ios":"levelo://app?vid=890b8847-1693-4160-88f7-f99654adee24"},"vehicle_type_id":"4","last_reported":1728644871,"current_range_meters":5600,"station_id":"ce4bh012rcd13ifvqd10","pricing_plan_id":"cebpf4jnsgd1na2vs0mg"},{"bike_id":"74b27da4-26dc-4d81-bfd8-5592759e388d","system_id":"levelo_inurba_marseille","lat":43.31498,"lon":5.37287,"is_reserved":false,"is_disabled":false,"rental_uris":{"android":"levelo://app?vid=74b27da4-26dc-4d81-bfd8-5592759e388d","ios":"levelo://app?vid=74b27da4-26dc-4d81-bfd8-5592759e388d"},"vehicle_type_id":"4","last_reported":1728644871,"current_range_meters":28400,"station_id":"ce4bgt12rcd13ifvqcd0","pricing_plan_id":"cebpf4jnsgd1na2vs0mg"},{"bike_id":"77d13cda-27f2-4024-8daa-784aa417f74a","system_id":"levelo_inurba_marseille","lat":43.23185,"lon":5.39976,"is_reserved":false,"is_disabled":false,"rental_uris":{"android":"levelo://app?vid=77d13cda-27f2-4024-8daa-784aa417f74a","ios":"levelo://app?vid=77d13cda-27f2-4024-8daa-784aa417f74a"},"vehicle_type_id":"4","last_reported":1728644871,"current_range_meters":14400,"station_id":"ce4bhn12rcd13ifvqgqg","pricing_plan_id":"cebpf4jnsgd1na2vs0mg"},{"bike_id":"544afb48-1f79-4020-a327-5b6a2938dd06","system_id":"levelo_inurba_marseille","lat":43.24644,"lon":5.38897,"is_reserved":false,"is_disabled":false,"rental_uris":{"android":"levelo://app?vid=544afb48-1f79-4020-a327-5b6a2938dd06","ios":"levelo://app?vid=544afb48-1f79-4020-a327-5b6a2938dd06"},"vehicle_type_id":"4","last_reported":1728644871,"current_range_meters":25200,"station_id":"ce4bhg12rcd13ifvqf60","pricing_plan_id":"cebpf4jnsgd1na2vs0mg"},{"bike_id":"08e8db86-408a-4074-90e9-fb8776800079","system_id":"levelo_inurba_marseille","lat":43.29302,"lon":5.37461,"is_reserved":false,"is_disabled":false,"rental_uris":{"android":"levelo://app?vid=08e8db86-408a-4074-90e9-fb8776800079","ios":"levelo://app?vid=08e8db86-408a-4074-90e9-fb8776800079"},"vehicle_type_id":"4","last_reported":1728644871,"current_range_meters":4800,"station_id":"ce4bgi12rcd13ifvqb70","pricing_plan_id":"cebpf4jnsgd1na2vs0mg"},{"bike_id":"d2742ca4-d6d4-4439-9b5d-96b5605f95bb","system_id":"levelo_inurba_marseille","lat":43.27492,"lon":5.42451,"is_reserved":false,"is_disabled":false,"rental_uris":{"android":"levelo://app?vid=d2742ca4-d6d4-4439-9b5d-96b5605f95bb","ios":"levelo://app?vid=d2742ca4-d6d4-4439-9b5d-96b5605f95bb"},"vehicle_type_id":"4","last_reported":1728644871,"current_range_meters":10800,"station_id":"ce4bhn92rcd13ifvqgrg","pricing_plan_id":"cebpf4jnsgd1na2vs0mg"},{"bike_id":"de1b9930-e636-46d5-bc4b-40e16bee5c28","system_id":"levelo_inurba_marseille","lat":43.2826,"lon":5.3505,"is_reserved":false,"is_disabled":false,"rental_uris":{"android":"levelo://app?vid=de1b9930-e636-46d5-bc4b-40e16bee5c28","ios":"levelo://app?vid=de1b9930-e636-46d5-bc4b-40e16bee5c28"},"vehicle_type_id":"4","last_reported":1728644871,"current_range_meters":25600,"station_id":"ce4bhbp2rcd13ifvqerg","pricing_plan_id":"cebpf4jnsgd1na2vs0mg"},{"bike_id":"ccc52937-a071-4c0c-8005-6c415e29a5ec","system_id":"levelo_inurba_marseille","lat":43.29682,"lon":5.3729,"is_reserved":false,"is_disabled":false,"rental_uris":{"android":"levelo://app?vid=ccc52937-a071-4c0c-8005-6c415e29a5ec","ios":"levelo://app?vid=ccc52937-a071-4c0c-8005-6c415e29a5ec"},"vehicle_type_id":"4","last_reported":1728644871,"current_range_meters":20400,"station_id":"ce4bgk12rcd13ifvqbj0","pricing_plan_id":"cebpf4jnsgd1na2vs0mg"},{"bike_id":"1a77e98a-356c-44c1-a180-5d2a812667a3","system_id":"levelo_inurba_marseille","lat":43.29811,"lon":5.38084,"is_reserved":false,"is_disabled":false,"rental_uris":{"android":"levelo://app?vid=1a77e98a-356c-44c1-a180-5d2a812667a3","ios":"levelo://app?vid=1a77e98a-356c-44c1-a180-5d2a812667a3"},"vehicle_type_id":"4","last_reported":1728644871,"current_range_meters":39200,"station_id":"ce4bgip2rcd13ifvqbb0","pricing_plan_id":"cebpf4jnsgd1na2vs0mg"},{"bike_id":"3d3d46fd-62ae-415a-bc82-a452fb120f50","system_id":"levelo_inurba_marseille","lat":43.30531,"lon":5.36701,"is_reserved":false,"is_disabled":false,"rental_uris":{"android":"levelo://app?vid=3d3d46fd-62ae-415a-bc82-a452fb120f50","ios":"levelo://app?vid=3d3d46fd-62ae-415a-bc82-a452fb120f50"},"vehicle_type_id":"4","last_reported":1728644871,"current_range_meters":39200,"station_id":"ce4bgrp2rcd13ifvqc9g","pricing_plan_id":"cebpf4jnsgd1na2vs0mg"},{"bike_id":"c9891c71-957b-4684-8a7c-2388d91cdced","system_id":"levelo_inurba_marseille","lat":43.32367,"lon":5.38881,"is_reserved":false,"is_disabled":false,"rental_uris":{"android":"levelo://app?vid=c9891c71-957b-4684-8a7c-2388d91cdced","ios":"levelo://app?vid=c9891c71-957b-4684-8a7c-2388d91cdced"},"vehicle_type_id":"4","last_reported":1728644871,"current_range_meters":2800,"station_id":"ce4bhqp2rcd13ifvqhog","pricing_plan_id":"cebpf4jnsgd1na2vs0mg"},{"bike_id":"07573ff7-7c48-4a5f-9bd0-2a3f2b9d68d5","system_id":"levelo_inurba_marseille","lat":43.22929,"lon":5.35373,"is_reserved":false,"is_disabled":false,"rental_uris":{"android":"levelo://app?vid=07573ff7-7c48-4a5f-9bd0-2a3f2b9d68d5","ios":"levelo://app?vid=07573ff7-7c48-4a5f-9bd0-2a3f2b9d68d5"},"vehicle_type_id":"4","last_reported":1728644871,"current_range_meters":14400,"station_id":"cpo3532slgdg3j2ikp40","pricing_plan_id":"cebpf4jnsgd1na2vs0mg"},{"bike_id":"5a5649e8-a9bc-4d0f-be41-ed6fc56a9baf","system_id":"levelo_inurba_marseille","lat":43.22925,"lon":5.35374,"is_reserved":false,"is_disabled":false,"rental_uris":{"android":"levelo://app?vid=5a5649e8-a9bc-4d0f-be41-ed6fc56a9baf","ios":"levelo://app?vid=5a5649e8-a9bc-4d0f-be41-ed6fc56a9baf"},"vehicle_type_id":"4","last_reported":1728644871,"current_range_meters":37600,"station_id":"cpo3532slgdg3j2ikp40","pricing_plan_id":"cebpf4jnsgd1na2vs0mg"},{"bike_id":"f1f5206c-1454-4bd6-ad35-1c5faeebcb5b","system_id":"levelo_inurba_marseille","lat":43.28453,"lon":5.35888,"is_reserved":false,"is_disabled":false,"rental_uris":{"android":"levelo://app?vid=f1f5206c-1454-4bd6-ad35-1c5faeebcb5b","ios":"levelo://app?vid=f1f5206c-1454-4bd6-ad35-1c5faeebcb5b"},"vehicle_type_id":"4","last_reported":1728644871,"current_range_meters":38800,"station_id":"ce4bhah2rcd13ifvqei0","pricing_plan_id":"cebpf4jnsgd1na2vs0mg"},{"bike_id":"104dce3b-2862-44f7-bb64-f1cb1800c635","system_id":"levelo_inurba_marseille","lat":43.336041,"lon":5.410301,"is_reserved":false,"is_disabled":false,"rental_uris":{"android":"levelo://app?vid=104dce3b-2862-44f7-bb64-f1cb1800c635","ios":"levelo://app?vid=104dce3b-2862-44f7-bb64-f1cb1800c635"},"vehicle_type_id":"4","last_reported":1728644871,"current_range_meters":39200,"station_id":"ce4bhqh2rcd13ifvqhmg","pricing_plan_id":"cebpf4jnsgd1na2vs0mg"},{"bike_id":"ecb98033-157e-4ffe-bfd6-61ff6a0df075","system_id":"levelo_inurba_marseille","lat":43.29274,"lon":5.36845,"is_reserved":false,"is_disabled":false,"rental_uris":{"android":"levelo://app?vid=ecb98033-157e-4ffe-bfd6-61ff6a0df075","ios":"levelo://app?vid=ecb98033-157e-4ffe-bfd6-61ff6a0df075"},"vehicle_type_id":"4","last_reported":1728644871,"current_range_meters":22000,"station_id":"ce4bhbp2rcd13ifvqesg","pricing_plan_id":"cebpf4jnsgd1na2vs0mg"},{"bike_id":"fea68042-6912-4946-948b-ae6c942d18e2","system_id":"levelo_inurba_marseille","lat":43.25001,"lon":5.38928,"is_reserved":false,"is_disabled":false,"rental_uris":{"android":"levelo://app?vid=fea68042-6912-4946-948b-ae6c942d18e2","ios":"levelo://app?vid=fea68042-6912-4946-948b-ae6c942d18e2"},"vehicle_type_id":"4","last_reported":1728644871,"current_range_meters":26800,"station_id":"ce4bhgp2rcd13ifvqfd0","pricing_plan_id":"cebpf4jnsgd1na2vs0mg"},{"bike_id":"902ad807-4876-46e3-bafa-e1fe60d33574","system_id":"levelo_inurba_marseille","lat":43.3009,"lon":5.39071,"is_reserved":false,"is_disabled":false,"rental_uris":{"android":"levelo://app?vid=902ad807-4876-46e3-bafa-e1fe60d33574","ios":"levelo://app?vid=902ad807-4876-46e3-bafa-e1fe60d33574"},"vehicle_type_id":"4","last_reported":1728644871,"current_range_meters":25600,"station_id":"ce4bh192rcd13ifvqdb0","pricing_plan_id":"cebpf4jnsgd1na2vs0mg"},{"bike_id":"8fb2b431-bcb9-46ba-80fb-e26e84592fc5","system_id":"levelo_inurba_marseille","lat":43.23188,"lon":5.35553,"is_reserved":false,"is_disabled":false,"rental_uris":{"android":"levelo://app?vid=8fb2b431-bcb9-46ba-80fb-e26e84592fc5","ios":"levelo://app?vid=8fb2b431-bcb9-46ba-80fb-e26e84592fc5"},"vehicle_type_id":"4","last_reported":1728644871,"current_range_meters":36800,"station_id":"ce4bhu92rcd13ifvqi70","pricing_plan_id":"cebpf4jnsgd1na2vs0mg"},{"bike_id":"5e9c45ac-ce1f-40ec-9e31-f9a94e25f6a4","system_id":"levelo_inurba_marseille","lat":43.291687,"lon":5.371543,"is_reserved":false,"is_disabled":false,"rental_uris":{"android":"levelo://app?vid=5e9c45ac-ce1f-40ec-9e31-f9a94e25f6a4","ios":"levelo://app?vid=5e9c45ac-ce1f-40ec-9e31-f9a94e25f6a4"},"vehicle_type_id":"4","last_reported":1728644871,"current_range_meters":3600,"station_id":"ce4bha92rcd13ifvqeh0","pricing_plan_id":"cebpf4jnsgd1na2vs0mg"},{"bike_id":"71bf12b9-53bf-475d-8944-39a6a6a9faef","system_id":"levelo_inurba_marseille","lat":43.28271,"lon":5.35056,"is_reserved":false,"is_disabled":false,"rental_uris":{"android":"levelo://app?vid=71bf12b9-53bf-475d-8944-39a6a6a9faef","ios":"levelo://app?vid=71bf12b9-53bf-475d-8944-39a6a6a9faef"},"vehicle_type_id":"4","last_reported":1728644871,"current_range_meters":9200,"station_id":"ce4bhbp2rcd13ifvqerg","pricing_plan_id":"cebpf4jnsgd1na2vs0mg"},{"bike_id":"5b1bcf1d-5b4e-43cb-a4b4-e63f74478ce6","system_id":"levelo_inurba_marseille","lat":43.31485,"lon":5.37305,"is_reserved":false,"is_disabled":false,"rental_uris":{"android":"levelo://app?vid=5b1bcf1d-5b4e-43cb-a4b4-e63f74478ce6","ios":"levelo://app?vid=5b1bcf1d-5b4e-43cb-a4b4-e63f74478ce6"},"vehicle_type_id":"4","last_reported":1728644871,"current_range_meters":37600,"station_id":"ce4bgt12rcd13ifvqcd0","pricing_plan_id":"cebpf4jnsgd1na2vs0mg"},{"bike_id":"c0e43a28-21ff-41f9-aa22-b99127a51954","system_id":"levelo_inurba_marseille","lat":43.30336,"lon":5.40429,"is_reserved":false,"is_disabled":false,"rental_uris":{"android":"levelo://app?vid=c0e43a28-21ff-41f9-aa22-b99127a51954","ios":"levelo://app?vid=c0e43a28-21ff-41f9-aa22-b99127a51954"},"vehicle_type_id":"4","last_reported":1728644871,"current_range_meters":38800,"station_id":"ce4bh012rcd13ifvqd10","pricing_plan_id":"cebpf4jnsgd1na2vs0mg"},{"bike_id":"6be05873-dd0b-4c53-bcb4-24bd7dd83f75","system_id":"levelo_inurba_marseille","lat":43.265717,"lon":5.390256,"is_reserved":false,"is_disabled":false,"rental_uris":{"android":"levelo://app?vid=6be05873-dd0b-4c53-bcb4-24bd7dd83f75","ios":"levelo://app?vid=6be05873-dd0b-4c53-bcb4-24bd7dd83f75"},"vehicle_type_id":"4","last_reported":1728644871,"current_range_meters":38400,"station_id":"ce4bhe12rcd13ifvqf30","pricing_plan_id":"cebpf4jnsgd1na2vs0mg"},{"bike_id":"5ef9788b-9ad6-43a1-a1d5-3a61fbedeabf","system_id":"levelo_inurba_marseille","lat":43.30591,"lon":5.39353,"is_reserved":false,"is_disabled":false,"rental_uris":{"android":"levelo://app?vid=5ef9788b-9ad6-43a1-a1d5-3a61fbedeabf","ios":"levelo://app?vid=5ef9788b-9ad6-43a1-a1d5-3a61fbedeabf"},"vehicle_type_id":"4","last_reported":1728644871,"current_range_meters":14400,"station_id":"ce4bh0p2rcd13ifvqd80","pricing_plan_id":"cebpf4jnsgd1na2vs0mg"},{"bike_id":"b8108a46-3630-44b1-a8b9-7cc0c20dfd78","system_id":"levelo_inurba_marseille","lat":43.292694,"lon":5.384463,"is_reserved":false,"is_disabled":false,"rental_uris":{"android":"levelo://app?vid=b8108a46-3630-44b1-a8b9-7cc0c20dfd78","ios":"levelo://app?vid=b8108a46-3630-44b1-a8b9-7cc0c20dfd78"},"vehicle_type_id":"4","last_reported":1728644871,"current_range_meters":6800,"station_id":"ce4bguh2rcd13ifvqcj0","pricing_plan_id":"cebpf4jnsgd1na2vs0mg"},{"bike_id":"f5bce057-b973-41b3-aab6-57819ac20c1d","system_id":"levelo_inurba_marseille","lat":43.31274,"lon":5.40168,"is_reserved":false,"is_disabled":false,"rental_uris":{"android":"levelo://app?vid=f5bce057-b973-41b3-aab6-57819ac20c1d","ios":"levelo://app?vid=f5bce057-b973-41b3-aab6-57819ac20c1d"},"vehicle_type_id":"4","last_reported":1728644871,"current_range_meters":9600,"station_id":"ce4bh092rcd13ifvqd30","pricing_plan_id":"cebpf4jnsgd1na2vs0mg"},{"bike_id":"edc976c4-a61b-4651-bb75-035f1fe9cfc3","system_id":"levelo_inurba_marseille","lat":43.23149,"lon":5.43724,"is_reserved":false,"is_disabled":false,"rental_uris":{"android":"levelo://app?vid=edc976c4-a61b-4651-bb75-035f1fe9cfc3","ios":"levelo://app?vid=edc976c4-a61b-4651-bb75-035f1fe9cfc3"},"vehicle_type_id":"4","last_reported":1728644871,"current_range_meters":16800,"station_id":"ce4bhmp2rcd13ifvqgog","pricing_plan_id":"cebpf4jnsgd1na2vs0mg"},{"bike_id":"77323a1c-d46d-45a1-8f9d-65b32704258e","system_id":"levelo_inurba_marseille","lat":43.33608,"lon":5.41035,"is_reserved":false,"is_disabled":false,"rental_uris":{"android":"levelo://app?vid=77323a1c-d46d-45a1-8f9d-65b32704258e","ios":"levelo://app?vid=77323a1c-d46d-45a1-8f9d-65b32704258e"},"vehicle_type_id":"4","last_reported":1728644871,"current_range_meters":10800,"station_id":"ce4bhqh2rcd13ifvqhmg","pricing_plan_id":"cebpf4jnsgd1na2vs0mg"},{"bike_id":"3ad2d4df-6578-4fe4-ba47-66942feeb37d","system_id":"levelo_inurba_marseille","lat":43.23151,"lon":5.43711,"is_reserved":false,"is_disabled":false,"rental_uris":{"android":"levelo://app?vid=3ad2d4df-6578-4fe4-ba47-66942feeb37d","ios":"levelo://app?vid=3ad2d4df-6578-4fe4-ba47-66942feeb37d"},"vehicle_type_id":"4","last_reported":1728644871,"current_range_meters":28800,"station_id":"ce4bhmp2rcd13ifvqgog","pricing_plan_id":"cebpf4jnsgd1na2vs0mg"},{"bike_id":"cff8b1f1-6585-4027-9748-31607689b25f","system_id":"levelo_inurba_marseille","lat":43.2582,"lon":5.39437,"is_reserved":false,"is_disabled":false,"rental_uris":{"android":"levelo://app?vid=cff8b1f1-6585-4027-9748-31607689b25f","ios":"levelo://app?vid=cff8b1f1-6585-4027-9748-31607689b25f"},"vehicle_type_id":"4","last_reported":1728644871,"current_range_meters":9600,"station_id":"ce4bhip2rcd13ifvqft0","pricing_plan_id":"cebpf4jnsgd1na2vs0mg"},{"bike_id":"8b519f3b-11fc-4007-bef5-5e0986822adc","system_id":"levelo_inurba_marseille","lat":43.29967,"lon":5.37171,"is_reserved":false,"is_disabled":false,"rental_uris":{"android":"levelo://app?vid=8b519f3b-11fc-4007-bef5-5e0986822adc","ios":"levelo://app?vid=8b519f3b-11fc-4007-bef5-5e0986822adc"},"vehicle_type_id":"4","last_reported":1728644871,"current_range_meters":14800,"station_id":"ce4bgr92rcd13ifvqc7g","pricing_plan_id":"cebpf4jnsgd1na2vs0mg"},{"bike_id":"66fedb71-c1bd-4a17-9aca-39f2e94b16e3","system_id":"levelo_inurba_marseille","lat":43.31752,"lon":5.39013,"is_reserved":false,"is_disabled":false,"rental_uris":{"android":"levelo://app?vid=66fedb71-c1bd-4a17-9aca-39f2e94b16e3","ios":"levelo://app?vid=66fedb71-c1bd-4a17-9aca-39f2e94b16e3"},"vehicle_type_id":"4","last_reported":1728644871,"current_range_meters":20800,"station_id":"ce4bhqp2rcd13ifvqhng","pricing_plan_id":"cebpf4jnsgd1na2vs0mg"},{"bike_id":"1a0a914e-c03c-4520-afaf-a123e6cafc5a","system_id":"levelo_inurba_marseille","lat":43.2678,"lon":5.39418,"is_reserved":false,"is_disabled":false,"rental_uris":{"android":"levelo://app?vid=1a0a914e-c03c-4520-afaf-a123e6cafc5a","ios":"levelo://app?vid=1a0a914e-c03c-4520-afaf-a123e6cafc5a"},"vehicle_type_id":"4","last_reported":1728644871,"current_range_meters":24800,"station_id":"ce4bhh12rcd13ifvqfg0","pricing_plan_id":"cebpf4jnsgd1na2vs0mg"},{"bike_id":"20515aae-ad06-45fb-90ca-9179cbce0bfa","system_id":"levelo_inurba_marseille","lat":43.29192,"lon":5.39313,"is_reserved":false,"is_disabled":false,"rental_uris":{"android":"levelo://app?vid=20515aae-ad06-45fb-90ca-9179cbce0bfa","ios":"levelo://app?vid=20515aae-ad06-45fb-90ca-9179cbce0bfa"},"vehicle_type_id":"4","last_reported":1728644871,"current_range_meters":26800,"station_id":"ce4bh192rcd13ifvqdd0","pricing_plan_id":"cebpf4jnsgd1na2vs0mg"},{"bike_id":"a16567ee-8663-415e-88a2-3a019332e0dc","system_id":"levelo_inurba_marseille","lat":43.25581,"lon":5.38229,"is_reserved":false,"is_disabled":false,"rental_uris":{"android":"levelo://app?vid=a16567ee-8663-415e-88a2-3a019332e0dc","ios":"levelo://app?vid=a16567ee-8663-415e-88a2-3a019332e0dc"},"vehicle_type_id":"4","last_reported":1728644871,"current_range_meters":28400,"station_id":"ce4bhih2rcd13ifvqfs0","pricing_plan_id":"cebpf4jnsgd1na2vs0mg"},{"bike_id":"2b8badaf-10ab-41b0-a149-46d40700f535","system_id":"levelo_inurba_marseille","lat":43.27813,"lon":5.40716,"is_reserved":false,"is_disabled":false,"rental_uris":{"android":"levelo://app?vid=2b8badaf-10ab-41b0-a149-46d40700f535","ios":"levelo://app?vid=2b8badaf-10ab-41b0-a149-46d40700f535"},"vehicle_type_id":"4","last_reported":1728644871,"current_range_meters":28000,"station_id":"ce4bhnh2rcd13ifvqgtg","pricing_plan_id":"cebpf4jnsgd1na2vs0mg"},{"bike_id":"2d6b34e7-38b9-4382-8bb4-f923bcf86327","system_id":"levelo_inurba_marseille","lat":43.28265,"lon":5.35062,"is_reserved":false,"is_disabled":false,"rental_uris":{"android":"levelo://app?vid=2d6b34e7-38b9-4382-8bb4-f923bcf86327","ios":"levelo://app?vid=2d6b34e7-38b9-4382-8bb4-f923bcf86327"},"vehicle_type_id":"4","last_reported":1728644871,"current_range_meters":35600,"station_id":"ce4bhbp2rcd13ifvqerg","pricing_plan_id":"cebpf4jnsgd1na2vs0mg"},{"bike_id":"358fda18-0b7c-4258-a5fc-a803fe7e30b1","system_id":"levelo_inurba_marseille","lat":43.28264,"lon":5.35049,"is_reserved":false,"is_disabled":false,"rental_uris":{"android":"levelo://app?vid=358fda18-0b7c-4258-a5fc-a803fe7e30b1","ios":"levelo://app?vid=358fda18-0b7c-4258-a5fc-a803fe7e30b1"},"vehicle_type_id":"4","last_reported":1728644871,"current_range_meters":38800,"station_id":"ce4bhbp2rcd13ifvqerg","pricing_plan_id":"cebpf4jnsgd1na2vs0mg"},{"bike_id":"a2950d36-1e50-4e12-984e-d21bd4747aee","system_id":"levelo_inurba_marseille","lat":43.2695,"lon":5.38618,"is_reserved":false,"is_disabled":false,"rental_uris":{"android":"levelo://app?vid=a2950d36-1e50-4e12-984e-d21bd4747aee","ios":"levelo://app?vid=a2950d36-1e50-4e12-984e-d21bd4747aee"},"vehicle_type_id":"4","last_reported":1728644871,"current_range_meters":9200,"station_id":"ce4bhe12rcd13ifvqf30","pricing_plan_id":"cebpf4jnsgd1na2vs0mg"},{"bike_id":"866026d9-f486-472b-8422-aa308d45f74e","system_id":"levelo_inurba_marseille","lat":43.33755,"lon":5.37457,"is_reserved":false,"is_disabled":false,"rental_uris":{"android":"levelo://app?vid=866026d9-f486-472b-8422-aa308d45f74e","ios":"levelo://app?vid=866026d9-f486-472b-8422-aa308d45f74e"},"vehicle_type_id":"4","last_reported":1728644871,"current_range_meters":26800,"station_id":"","pricing_plan_id":"cebpf4jnsgd1na2vs0mg"},{"bike_id":"9b1c9d31-699f-48c4-a4c5-022bb4f21971","system_id":"levelo_inurba_marseille","lat":43.2315,"lon":5.43706,"is_reserved":false,"is_disabled":false,"rental_uris":{"android":"levelo://app?vid=9b1c9d31-699f-48c4-a4c5-022bb4f21971","ios":"levelo://app?vid=9b1c9d31-699f-48c4-a4c5-022bb4f21971"},"vehicle_type_id":"4","last_reported":1728644871,"current_range_meters":28800,"station_id":"ce4bhmp2rcd13ifvqgog","pricing_plan_id":"cebpf4jnsgd1na2vs0mg"},{"bike_id":"aa75c41c-1391-4d5a-b0ad-fb29c317877d","system_id":"levelo_inurba_marseille","lat":43.23063,"lon":5.35493,"is_reserved":false,"is_disabled":false,"rental_uris":{"android":"levelo://app?vid=aa75c41c-1391-4d5a-b0ad-fb29c317877d","ios":"levelo://app?vid=aa75c41c-1391-4d5a-b0ad-fb29c317877d"},"vehicle_type_id":"4","last_reported":1728644871,"current_range_meters":6800,"station_id":"cpo3342slgdg3j2ifvpg","pricing_plan_id":"cebpf4jnsgd1na2vs0mg"},{"bike_id":"81ea2e88-152f-407f-a209-df02eb42dc31","system_id":"levelo_inurba_marseille","lat":43.29022,"lon":5.38636,"is_reserved":false,"is_disabled":false,"rental_uris":{"android":"levelo://app?vid=81ea2e88-152f-407f-a209-df02eb42dc31","ios":"levelo://app?vid=81ea2e88-152f-407f-a209-df02eb42dc31"},"vehicle_type_id":"4","last_reported":1728644871,"current_range_meters":31200,"station_id":"ce4bh4p2rcd13ifvqe0g","pricing_plan_id":"cebpf4jnsgd1na2vs0mg"},{"bike_id":"d73c1368-95bf-4e55-a629-95aec02737ee","system_id":"levelo_inurba_marseille","lat":43.286987,"lon":5.399827,"is_reserved":false,"is_disabled":false,"rental_uris":{"android":"levelo://app?vid=d73c1368-95bf-4e55-a629-95aec02737ee","ios":"levelo://app?vid=d73c1368-95bf-4e55-a629-95aec02737ee"},"vehicle_type_id":"4","last_reported":1728644871,"current_range_meters":22000,"station_id":"ce4bhah2rcd13ifvqei0","pricing_plan_id":"cebpf4jnsgd1na2vs0mg"},{"bike_id":"728a1779-71a6-4798-bb19-0bc5c5a73f18","system_id":"levelo_inurba_marseille","lat":43.25113,"lon":5.40322,"is_reserved":false,"is_disabled":false,"rental_uris":{"android":"levelo://app?vid=728a1779-71a6-4798-bb19-0bc5c5a73f18","ios":"levelo://app?vid=728a1779-71a6-4798-bb19-0bc5c5a73f18"},"vehicle_type_id":"4","last_reported":1728644871,"current_range_meters":25600,"station_id":"ce4bhlh2rcd13ifvqgig","pricing_plan_id":"cebpf4jnsgd1na2vs0mg"},{"bike_id":"3bd04d24-eb1f-4c1a-9b06-8a083056d297","system_id":"levelo_inurba_marseille","lat":43.25864,"lon":5.39892,"is_reserved":false,"is_disabled":false,"rental_uris":{"android":"levelo://app?vid=3bd04d24-eb1f-4c1a-9b06-8a083056d297","ios":"levelo://app?vid=3bd04d24-eb1f-4c1a-9b06-8a083056d297"},"vehicle_type_id":"4","last_reported":1728644871,"current_range_meters":16800,"station_id":"ce4bhl92rcd13ifvqghg","pricing_plan_id":"cebpf4jnsgd1na2vs0mg"},{"bike_id":"4a654ca0-0597-4246-945c-1b9fe510e7ab","system_id":"levelo_inurba_marseille","lat":43.25733,"lon":5.41099,"is_reserved":false,"is_disabled":false,"rental_uris":{"android":"levelo://app?vid=4a654ca0-0597-4246-945c-1b9fe510e7ab","ios":"levelo://app?vid=4a654ca0-0597-4246-945c-1b9fe510e7ab"},"vehicle_type_id":"4","last_reported":1728644871,"current_range_meters":31200,"station_id":"ce4bhkp2rcd13ifvqgd0","pricing_plan_id":"cebpf4jnsgd1na2vs0mg"},{"bike_id":"215f7dd5-6c27-420c-899f-dd33221146a7","system_id":"levelo_inurba_marseille","lat":43.2315,"lon":5.43709,"is_reserved":false,"is_disabled":false,"rental_uris":{"android":"levelo://app?vid=215f7dd5-6c27-420c-899f-dd33221146a7","ios":"levelo://app?vid=215f7dd5-6c27-420c-899f-dd33221146a7"},"vehicle_type_id":"4","last_reported":1728644871,"current_range_meters":6800,"station_id":"ce4bhmp2rcd13ifvqgog","pricing_plan_id":"cebpf4jnsgd1na2vs0mg"},{"bike_id":"d4e7c199-5b07-4cc4-b4e1-e0fc91d98728","system_id":"levelo_inurba_marseille","lat":43.25586,"lon":5.38225,"is_reserved":false,"is_disabled":false,"rental_uris":{"android":"levelo://app?vid=d4e7c199-5b07-4cc4-b4e1-e0fc91d98728","ios":"levelo://app?vid=d4e7c199-5b07-4cc4-b4e1-e0fc91d98728"},"vehicle_type_id":"4","last_reported":1728644871,"current_range_meters":37600,"station_id":"ce4bhih2rcd13ifvqfs0","pricing_plan_id":"cebpf4jnsgd1na2vs0mg"},{"bike_id":"b1009450-6152-462c-a724-90df51eeb6db","system_id":"levelo_inurba_marseille","lat":43.32382,"lon":5.38917,"is_reserved":false,"is_disabled":false,"rental_uris":{"android":"levelo://app?vid=b1009450-6152-462c-a724-90df51eeb6db","ios":"levelo://app?vid=b1009450-6152-462c-a724-90df51eeb6db"},"vehicle_type_id":"4","last_reported":1728644871,"current_range_meters":6000,"station_id":"ce4bhqp2rcd13ifvqhog","pricing_plan_id":"cebpf4jnsgd1na2vs0mg"},{"bike_id":"e7ff8a71-08f6-4d85-81cd-23e686b45531","system_id":"levelo_inurba_marseille","lat":43.23196,"lon":5.35553,"is_reserved":false,"is_disabled":false,"rental_uris":{"android":"levelo://app?vid=e7ff8a71-08f6-4d85-81cd-23e686b45531","ios":"levelo://app?vid=e7ff8a71-08f6-4d85-81cd-23e686b45531"},"vehicle_type_id":"4","last_reported":1728644871,"current_range_meters":25600,"station_id":"ce4bhu92rcd13ifvqi70","pricing_plan_id":"cebpf4jnsgd1na2vs0mg"},{"bike_id":"19f5f42a-6adc-4145-8932-c12d978bc3e8","system_id":"levelo_inurba_marseille","lat":43.29853,"lon":5.36288,"is_reserved":false,"is_disabled":false,"rental_uris":{"android":"levelo://app?vid=19f5f42a-6adc-4145-8932-c12d978bc3e8","ios":"levelo://app?vid=19f5f42a-6adc-4145-8932-c12d978bc3e8"},"vehicle_type_id":"4","last_reported":1728644871,"current_range_meters":13600,"station_id":"ce4bgpp2rcd13ifvqc3g","pricing_plan_id":"cebpf4jnsgd1na2vs0mg"},{"bike_id":"e57eee6e-49c8-4cfb-a61d-0bf39603ab36","system_id":"levelo_inurba_marseille","lat":43.25501,"lon":5.37646,"is_reserved":false,"is_disabled":false,"rental_uris":{"android":"levelo://app?vid=e57eee6e-49c8-4cfb-a61d-0bf39603ab36","ios":"levelo://app?vid=e57eee6e-49c8-4cfb-a61d-0bf39603ab36"},"vehicle_type_id":"4","last_reported":1728644871,"current_range_meters":10000,"station_id":"ce4bhh12rcd13ifvqff0","pricing_plan_id":"cebpf4jnsgd1na2vs0mg"},{"bike_id":"7f90043b-f7c5-430a-9a74-fbd642d57ea8","system_id":"levelo_inurba_marseille","lat":43.30593,"lon":5.39355,"is_reserved":false,"is_disabled":false,"rental_uris":{"android":"levelo://app?vid=7f90043b-f7c5-430a-9a74-fbd642d57ea8","ios":"levelo://app?vid=7f90043b-f7c5-430a-9a74-fbd642d57ea8"},"vehicle_type_id":"4","last_reported":1728644871,"current_range_meters":4400,"station_id":"ce4bh0p2rcd13ifvqd80","pricing_plan_id":"cebpf4jnsgd1na2vs0mg"},{"bike_id":"d15bb18b-7ad1-41e5-b85b-98d3de42750c","system_id":"levelo_inurba_marseille","lat":43.29898,"lon":5.43671,"is_reserved":false,"is_disabled":false,"rental_uris":{"android":"levelo://app?vid=d15bb18b-7ad1-41e5-b85b-98d3de42750c","ios":"levelo://app?vid=d15bb18b-7ad1-41e5-b85b-98d3de42750c"},"vehicle_type_id":"4","last_reported":1728644871,"current_range_meters":26000,"station_id":"ce4bhpp2rcd13ifvqhfg","pricing_plan_id":"cebpf4jnsgd1na2vs0mg"},{"bike_id":"117b2261-268a-43ab-b2a2-06d9319c10bf","system_id":"levelo_inurba_marseille","lat":43.28663,"lon":5.38683,"is_reserved":false,"is_disabled":false,"rental_uris":{"android":"levelo://app?vid=117b2261-268a-43ab-b2a2-06d9319c10bf","ios":"levelo://app?vid=117b2261-268a-43ab-b2a2-06d9319c10bf"},"vehicle_type_id":"4","last_reported":1728644871,"current_range_meters":26000,"station_id":"ce4bh492rcd13ifvqdug","pricing_plan_id":"cebpf4jnsgd1na2vs0mg"},{"bike_id":"40045de8-fd60-4fca-9ce9-2b61e854b4cf","system_id":"levelo_inurba_marseille","lat":43.28098,"lon":5.37836,"is_reserved":false,"is_disabled":false,"rental_uris":{"android":"levelo://app?vid=40045de8-fd60-4fca-9ce9-2b61e854b4cf","ios":"levelo://app?vid=40045de8-fd60-4fca-9ce9-2b61e854b4cf"},"vehicle_type_id":"4","last_reported":1728644871,"current_range_meters":17200,"station_id":"ce4bha12rcd13ifvqee0","pricing_plan_id":"cebpf4jnsgd1na2vs0mg"},{"bike_id":"65ea635f-9bef-40c1-8f75-29e1372bce6f","system_id":"levelo_inurba_marseille","lat":43.28271,"lon":5.35059,"is_reserved":false,"is_disabled":false,"rental_uris":{"android":"levelo://app?vid=65ea635f-9bef-40c1-8f75-29e1372bce6f","ios":"levelo://app?vid=65ea635f-9bef-40c1-8f75-29e1372bce6f"},"vehicle_type_id":"4","last_reported":1728644871,"current_range_meters":8000,"station_id":"ce4bhbp2rcd13ifvqerg","pricing_plan_id":"cebpf4jnsgd1na2vs0mg"},{"bike_id":"4fd525ae-d66c-4419-8176-3cf07a3c2361","system_id":"levelo_inurba_marseille","lat":43.2679,"lon":5.39414,"is_reserved":false,"is_disabled":false,"rental_uris":{"android":"levelo://app?vid=4fd525ae-d66c-4419-8176-3cf07a3c2361","ios":"levelo://app?vid=4fd525ae-d66c-4419-8176-3cf07a3c2361"},"vehicle_type_id":"4","last_reported":1728644871,"current_range_meters":18800,"station_id":"ce4bhh12rcd13ifvqfg0","pricing_plan_id":"cebpf4jnsgd1na2vs0mg"},{"bike_id":"697179ec-19d4-47b1-a5c5-aed19302354f","system_id":"levelo_inurba_marseille","lat":43.256487,"lon":5.37664,"is_reserved":false,"is_disabled":false,"rental_uris":{"android":"levelo://app?vid=697179ec-19d4-47b1-a5c5-aed19302354f","ios":"levelo://app?vid=697179ec-19d4-47b1-a5c5-aed19302354f"},"vehicle_type_id":"4","last_reported":1728644871,"current_range_meters":9200,"station_id":"ce4bhh12rcd13ifvqff0","pricing_plan_id":"cebpf4jnsgd1na2vs0mg"},{"bike_id":"b8a87ab0-d055-4a8f-adad-dfa9d208369b","system_id":"levelo_inurba_marseille","lat":43.33759,"lon":5.3744,"is_reserved":false,"is_disabled":false,"rental_uris":{"android":"levelo://app?vid=b8a87ab0-d055-4a8f-adad-dfa9d208369b","ios":"levelo://app?vid=b8a87ab0-d055-4a8f-adad-dfa9d208369b"},"vehicle_type_id":"4","last_reported":1728644871,"current_range_meters":30000,"station_id":"","pricing_plan_id":"cebpf4jnsgd1na2vs0mg"},{"bike_id":"e8b356b2-207d-449d-9811-d5deb7267288","system_id":"levelo_inurba_marseille","lat":43.27051,"lon":5.40262,"is_reserved":false,"is_disabled":false,"rental_uris":{"android":"levelo://app?vid=e8b356b2-207d-449d-9811-d5deb7267288","ios":"levelo://app?vid=e8b356b2-207d-449d-9811-d5deb7267288"},"vehicle_type_id":"4","last_reported":1728644871,"current_range_meters":24000,"station_id":"ce4bhk92rcd13ifvqgc0","pricing_plan_id":"cebpf4jnsgd1na2vs0mg"},{"bike_id":"d231b127-94f8-449b-83a7-ee4aaad7be0a","system_id":"levelo_inurba_marseille","lat":43.29196,"lon":5.35806,"is_reserved":false,"is_disabled":false,"rental_uris":{"android":"levelo://app?vid=d231b127-94f8-449b-83a7-ee4aaad7be0a","ios":"levelo://app?vid=d231b127-94f8-449b-83a7-ee4aaad7be0a"},"vehicle_type_id":"4","last_reported":1728644871,"current_range_meters":27200,"station_id":"ce4bhb12rcd13ifvqel0","pricing_plan_id":"cebpf4jnsgd1na2vs0mg"},{"bike_id":"35089e37-fe4b-437d-9568-5904e5f3ad1a","system_id":"levelo_inurba_marseille","lat":43.26567,"lon":5.39006,"is_reserved":false,"is_disabled":false,"rental_uris":{"android":"levelo://app?vid=35089e37-fe4b-437d-9568-5904e5f3ad1a","ios":"levelo://app?vid=35089e37-fe4b-437d-9568-5904e5f3ad1a"},"vehicle_type_id":"4","last_reported":1728644871,"current_range_meters":25200,"station_id":"ce4bhe12rcd13ifvqf30","pricing_plan_id":"cebpf4jnsgd1na2vs0mg"},{"bike_id":"00bf1a3f-3e8d-4c3d-92a5-926c9b916720","system_id":"levelo_inurba_marseille","lat":43.2991,"lon":5.38141,"is_reserved":false,"is_disabled":false,"rental_uris":{"android":"levelo://app?vid=00bf1a3f-3e8d-4c3d-92a5-926c9b916720","ios":"levelo://app?vid=00bf1a3f-3e8d-4c3d-92a5-926c9b916720"},"vehicle_type_id":"4","last_reported":1728644871,"current_range_meters":16400,"station_id":"ce4bgj12rcd13ifvqbc0","pricing_plan_id":"cebpf4jnsgd1na2vs0mg"},{"bike_id":"b3a4c503-3f0b-4831-93cd-884712e78b73","system_id":"levelo_inurba_marseille","lat":43.29847,"lon":5.36275,"is_reserved":false,"is_disabled":false,"rental_uris":{"android":"levelo://app?vid=b3a4c503-3f0b-4831-93cd-884712e78b73","ios":"levelo://app?vid=b3a4c503-3f0b-4831-93cd-884712e78b73"},"vehicle_type_id":"4","last_reported":1728644871,"current_range_meters":38800,"station_id":"ce4bgpp2rcd13ifvqc3g","pricing_plan_id":"cebpf4jnsgd1na2vs0mg"},{"bike_id":"8d11e67c-3a87-46fd-9bd8-bc49ab1bed58","system_id":"levelo_inurba_marseille","lat":43.32287,"lon":5.3826,"is_reserved":false,"is_disabled":false,"rental_uris":{"android":"levelo://app?vid=8d11e67c-3a87-46fd-9bd8-bc49ab1bed58","ios":"levelo://app?vid=8d11e67c-3a87-46fd-9bd8-bc49ab1bed58"},"vehicle_type_id":"4","last_reported":1728644871,"current_range_meters":22000,"station_id":"ce4bhr12rcd13ifvqhqg","pricing_plan_id":"cebpf4jnsgd1na2vs0mg"},{"bike_id":"7793cff3-7f6f-40f8-bf84-1924a2a42bc4","system_id":"levelo_inurba_marseille","lat":43.25503,"lon":5.3765,"is_reserved":false,"is_disabled":false,"rental_uris":{"android":"levelo://app?vid=7793cff3-7f6f-40f8-bf84-1924a2a42bc4","ios":"levelo://app?vid=7793cff3-7f6f-40f8-bf84-1924a2a42bc4"},"vehicle_type_id":"4","last_reported":1728644871,"current_range_meters":30800,"station_id":"ce4bhh12rcd13ifvqff0","pricing_plan_id":"cebpf4jnsgd1na2vs0mg"},{"bike_id":"ce04f614-a320-42df-8776-6146f8ec634d","system_id":"levelo_inurba_marseille","lat":43.25578,"lon":5.38223,"is_reserved":false,"is_disabled":false,"rental_uris":{"android":"levelo://app?vid=ce04f614-a320-42df-8776-6146f8ec634d","ios":"levelo://app?vid=ce04f614-a320-42df-8776-6146f8ec634d"},"vehicle_type_id":"4","last_reported":1728644871,"current_range_meters":37600,"station_id":"ce4bhih2rcd13ifvqfs0","pricing_plan_id":"cebpf4jnsgd1na2vs0mg"},{"bike_id":"0ab53b6b-297a-467c-b37f-98c0175b4471","system_id":"levelo_inurba_marseille","lat":43.30195,"lon":5.36615,"is_reserved":false,"is_disabled":false,"rental_uris":{"android":"levelo://app?vid=0ab53b6b-297a-467c-b37f-98c0175b4471","ios":"levelo://app?vid=0ab53b6b-297a-467c-b37f-98c0175b4471"},"vehicle_type_id":"4","last_reported":1728644871,"current_range_meters":8400,"station_id":"ce4bgrh2rcd13ifvqc8g","pricing_plan_id":"cebpf4jnsgd1na2vs0mg"},{"bike_id":"57c5b202-4d22-4168-b24f-1961bfc4e5db","system_id":"levelo_inurba_marseille","lat":43.28268,"lon":5.35058,"is_reserved":false,"is_disabled":false,"rental_uris":{"android":"levelo://app?vid=57c5b202-4d22-4168-b24f-1961bfc4e5db","ios":"levelo://app?vid=57c5b202-4d22-4168-b24f-1961bfc4e5db"},"vehicle_type_id":"4","last_reported":1728644871,"current_range_meters":14400,"station_id":"ce4bhbp2rcd13ifvqerg","pricing_plan_id":"cebpf4jnsgd1na2vs0mg"},{"bike_id":"af638009-4058-4d4d-b292-0f3897ee7d13","system_id":"levelo_inurba_marseille","lat":43.28706,"lon":5.39994,"is_reserved":false,"is_disabled":false,"rental_uris":{"android":"levelo://app?vid=af638009-4058-4d4d-b292-0f3897ee7d13","ios":"levelo://app?vid=af638009-4058-4d4d-b292-0f3897ee7d13"},"vehicle_type_id":"4","last_reported":1728644871,"current_range_meters":28400,"station_id":"ce4bho92rcd13ifvqh3g","pricing_plan_id":"cebpf4jnsgd1na2vs0mg"},{"bike_id":"b80698e7-90a1-4f2a-9ea3-440e9b272f25","system_id":"levelo_inurba_marseille","lat":43.25106,"lon":5.40326,"is_reserved":false,"is_disabled":false,"rental_uris":{"android":"levelo://app?vid=b80698e7-90a1-4f2a-9ea3-440e9b272f25","ios":"levelo://app?vid=b80698e7-90a1-4f2a-9ea3-440e9b272f25"},"vehicle_type_id":"4","last_reported":1728644871,"current_range_meters":18800,"station_id":"ce4bhlh2rcd13ifvqgig","pricing_plan_id":"cebpf4jnsgd1na2vs0mg"},{"bike_id":"daef4da9-299f-44c7-9f2d-e3efccaca3f3","system_id":"levelo_inurba_marseille","lat":43.29024,"lon":5.38137,"is_reserved":false,"is_disabled":false,"rental_uris":{"android":"levelo://app?vid=daef4da9-299f-44c7-9f2d-e3efccaca3f3","ios":"levelo://app?vid=daef4da9-299f-44c7-9f2d-e3efccaca3f3"},"vehicle_type_id":"4","last_reported":1728644871,"current_range_meters":32800,"station_id":"ce4bh4p2rcd13ifvqe1g","pricing_plan_id":"cebpf4jnsgd1na2vs0mg"},{"bike_id":"b7693a38-4d29-4f94-9f45-9449b5324b14","system_id":"levelo_inurba_marseille","lat":43.2512,"lon":5.4032,"is_reserved":false,"is_disabled":false,"rental_uris":{"android":"levelo://app?vid=b7693a38-4d29-4f94-9f45-9449b5324b14","ios":"levelo://app?vid=b7693a38-4d29-4f94-9f45-9449b5324b14"},"vehicle_type_id":"4","last_reported":1728644871,"current_range_meters":33600,"station_id":"ce4bhlh2rcd13ifvqgig","pricing_plan_id":"cebpf4jnsgd1na2vs0mg"},{"bike_id":"86399c9b-cf0c-4b00-9f5f-a4d8bd639b5d","system_id":"levelo_inurba_marseille","lat":43.26552,"lon":5.37287,"is_reserved":false,"is_disabled":false,"rental_uris":{"android":"levelo://app?vid=86399c9b-cf0c-4b00-9f5f-a4d8bd639b5d","ios":"levelo://app?vid=86399c9b-cf0c-4b00-9f5f-a4d8bd639b5d"},"vehicle_type_id":"4","last_reported":1728644871,"current_range_meters":34800,"station_id":"ce4bhg12rcd13ifvqf70","pricing_plan_id":"cebpf4jnsgd1na2vs0mg"},{"bike_id":"03fae58b-ca4f-4bca-84fa-17afbc870934","system_id":"levelo_inurba_marseille","lat":43.26933,"lon":5.4026,"is_reserved":false,"is_disabled":false,"rental_uris":{"android":"levelo://app?vid=03fae58b-ca4f-4bca-84fa-17afbc870934","ios":"levelo://app?vid=03fae58b-ca4f-4bca-84fa-17afbc870934"},"vehicle_type_id":"4","last_reported":1728644871,"current_range_meters":35600,"station_id":"cjm6bp8fraef2m0cb0m0","pricing_plan_id":"cebpf4jnsgd1na2vs0mg"},{"bike_id":"173405a9-617c-4cfe-98b4-0a18d00e6daf","system_id":"levelo_inurba_marseille","lat":43.23149,"lon":5.43722,"is_reserved":false,"is_disabled":false,"rental_uris":{"android":"levelo://app?vid=173405a9-617c-4cfe-98b4-0a18d00e6daf","ios":"levelo://app?vid=173405a9-617c-4cfe-98b4-0a18d00e6daf"},"vehicle_type_id":"4","last_reported":1728644871,"current_range_meters":22400,"station_id":"ce4bhmp2rcd13ifvqgog","pricing_plan_id":"cebpf4jnsgd1na2vs0mg"},{"bike_id":"4258e283-c9b2-4abb-b0da-fbaa438577cb","system_id":"levelo_inurba_marseille","lat":43.23156,"lon":5.43701,"is_reserved":false,"is_disabled":false,"rental_uris":{"android":"levelo://app?vid=4258e283-c9b2-4abb-b0da-fbaa438577cb","ios":"levelo://app?vid=4258e283-c9b2-4abb-b0da-fbaa438577cb"},"vehicle_type_id":"4","last_reported":1728644871,"current_range_meters":6400,"station_id":"ce4bhmp2rcd13ifvqgog","pricing_plan_id":"cebpf4jnsgd1na2vs0mg"},{"bike_id":"cb257378-68a1-44f9-a594-23fe6ddc6793","system_id":"levelo_inurba_marseille","lat":43.23157,"lon":5.43701,"is_reserved":false,"is_disabled":false,"rental_uris":{"android":"levelo://app?vid=cb257378-68a1-44f9-a594-23fe6ddc6793","ios":"levelo://app?vid=cb257378-68a1-44f9-a594-23fe6ddc6793"},"vehicle_type_id":"4","last_reported":1728644871,"current_range_meters":12800,"station_id":"ce4bhmp2rcd13ifvqgog","pricing_plan_id":"cebpf4jnsgd1na2vs0mg"},{"bike_id":"07eeb2c1-3398-4823-8a1e-cd310fd9f68b","system_id":"levelo_inurba_marseille","lat":43.29364,"lon":5.37838,"is_reserved":false,"is_disabled":false,"rental_uris":{"android":"levelo://app?vid=07eeb2c1-3398-4823-8a1e-cd310fd9f68b","ios":"levelo://app?vid=07eeb2c1-3398-4823-8a1e-cd310fd9f68b"},"vehicle_type_id":"4","last_reported":1728644871,"current_range_meters":36800,"station_id":"ce4bgjh2rcd13ifvqbf0","pricing_plan_id":"cebpf4jnsgd1na2vs0mg"},{"bike_id":"c56d4574-0a9a-496b-9886-318c8bb01916","system_id":"levelo_inurba_marseille","lat":43.30537,"lon":5.38415,"is_reserved":false,"is_disabled":false,"rental_uris":{"android":"levelo://app?vid=c56d4574-0a9a-496b-9886-318c8bb01916","ios":"levelo://app?vid=c56d4574-0a9a-496b-9886-318c8bb01916"},"vehicle_type_id":"4","last_reported":1728644871,"current_range_meters":38800,"station_id":"ce4bgg92rcd13ifvqb30","pricing_plan_id":"cebpf4jnsgd1na2vs0mg"},{"bike_id":"d3515cc2-9931-4d17-a2b9-231072d9e4d2","system_id":"levelo_inurba_marseille","lat":43.23193,"lon":5.35541,"is_reserved":false,"is_disabled":false,"rental_uris":{"android":"levelo://app?vid=d3515cc2-9931-4d17-a2b9-231072d9e4d2","ios":"levelo://app?vid=d3515cc2-9931-4d17-a2b9-231072d9e4d2"},"vehicle_type_id":"4","last_reported":1728644871,"current_range_meters":24000,"station_id":"ce4bhu92rcd13ifvqi70","pricing_plan_id":"cebpf4jnsgd1na2vs0mg"},{"bike_id":"7f691c21-3799-41de-8072-54b4e963753f","system_id":"levelo_inurba_marseille","lat":43.30459,"lon":5.37902,"is_reserved":false,"is_disabled":false,"rental_uris":{"android":"levelo://app?vid=7f691c21-3799-41de-8072-54b4e963753f","ios":"levelo://app?vid=7f691c21-3799-41de-8072-54b4e963753f"},"vehicle_type_id":"4","last_reported":1728644871,"current_range_meters":38800,"station_id":"ce4bgup2rcd13ifvqcn0","pricing_plan_id":"cebpf4jnsgd1na2vs0mg"},{"bike_id":"5e9b747e-82e9-4343-9a7e-19f72fd473f0","system_id":"levelo_inurba_marseille","lat":43.23151,"lon":5.43704,"is_reserved":false,"is_disabled":false,"rental_uris":{"android":"levelo://app?vid=5e9b747e-82e9-4343-9a7e-19f72fd473f0","ios":"levelo://app?vid=5e9b747e-82e9-4343-9a7e-19f72fd473f0"},"vehicle_type_id":"4","last_reported":1728644871,"current_range_meters":20400,"station_id":"ce4bhmp2rcd13ifvqgog","pricing_plan_id":"cebpf4jnsgd1na2vs0mg"},{"bike_id":"42c58507-4efb-4724-96f7-31b2e55784d3","system_id":"levelo_inurba_marseille","lat":43.33016,"lon":5.39046,"is_reserved":false,"is_disabled":false,"rental_uris":{"android":"levelo://app?vid=42c58507-4efb-4724-96f7-31b2e55784d3","ios":"levelo://app?vid=42c58507-4efb-4724-96f7-31b2e55784d3"},"vehicle_type_id":"4","last_reported":1728644871,"current_range_meters":20000,"station_id":"ce4bhr92rcd13ifvqhrg","pricing_plan_id":"cebpf4jnsgd1na2vs0mg"},{"bike_id":"a1f2dfcd-11ba-48f1-96a0-8b812c0e6b1b","system_id":"levelo_inurba_marseille","lat":43.29968,"lon":5.3717,"is_reserved":false,"is_disabled":false,"rental_uris":{"android":"levelo://app?vid=a1f2dfcd-11ba-48f1-96a0-8b812c0e6b1b","ios":"levelo://app?vid=a1f2dfcd-11ba-48f1-96a0-8b812c0e6b1b"},"vehicle_type_id":"4","last_reported":1728644871,"current_range_meters":28000,"station_id":"ce4bgr92rcd13ifvqc7g","pricing_plan_id":"cebpf4jnsgd1na2vs0mg"},{"bike_id":"25602f57-ff0d-49d8-ad9e-a6a839f82830","system_id":"levelo_inurba_marseille","lat":43.29312,"lon":5.37177,"is_reserved":false,"is_disabled":false,"rental_uris":{"android":"levelo://app?vid=25602f57-ff0d-49d8-ad9e-a6a839f82830","ios":"levelo://app?vid=25602f57-ff0d-49d8-ad9e-a6a839f82830"},"vehicle_type_id":"4","last_reported":1728644871,"current_range_meters":38800,"station_id":"ce4bgh92rcd13ifvqb40","pricing_plan_id":"cebpf4jnsgd1na2vs0mg"},{"bike_id":"89cc514c-72bf-4729-b215-03a77c277cb8","system_id":"levelo_inurba_marseille","lat":43.31455,"lon":5.39218,"is_reserved":false,"is_disabled":false,"rental_uris":{"android":"levelo://app?vid=89cc514c-72bf-4729-b215-03a77c277cb8","ios":"levelo://app?vid=89cc514c-72bf-4729-b215-03a77c277cb8"},"vehicle_type_id":"4","last_reported":1728644871,"current_range_meters":6000,"station_id":"ce4bhqp2rcd13ifvqhng","pricing_plan_id":"cebpf4jnsgd1na2vs0mg"},{"bike_id":"8eecb571-3ca2-46a8-8993-72de21bb9426","system_id":"levelo_inurba_marseille","lat":43.28356,"lon":5.38104,"is_reserved":false,"is_disabled":false,"rental_uris":{"android":"levelo://app?vid=8eecb571-3ca2-46a8-8993-72de21bb9426","ios":"levelo://app?vid=8eecb571-3ca2-46a8-8993-72de21bb9426"},"vehicle_type_id":"4","last_reported":1728644871,"current_range_meters":7200,"station_id":"ce4bh412rcd13ifvqdr0","pricing_plan_id":"cebpf4jnsgd1na2vs0mg"},{"bike_id":"c6c8142f-92aa-44b1-832a-d9b7de23f3e9","system_id":"levelo_inurba_marseille","lat":43.337255,"lon":5.39182,"is_reserved":false,"is_disabled":false,"rental_uris":{"android":"levelo://app?vid=c6c8142f-92aa-44b1-832a-d9b7de23f3e9","ios":"levelo://app?vid=c6c8142f-92aa-44b1-832a-d9b7de23f3e9"},"vehicle_type_id":"4","last_reported":1728644871,"current_range_meters":26800,"station_id":"ce4bhr92rcd13ifvqhsg","pricing_plan_id":"cebpf4jnsgd1na2vs0mg"},{"bike_id":"e9074a87-d53d-44e0-bb77-4fe33bdcf2eb","system_id":"levelo_inurba_marseille","lat":43.32107,"lon":5.36772,"is_reserved":false,"is_disabled":false,"rental_uris":{"android":"levelo://app?vid=e9074a87-d53d-44e0-bb77-4fe33bdcf2eb","ios":"levelo://app?vid=e9074a87-d53d-44e0-bb77-4fe33bdcf2eb"},"vehicle_type_id":"4","last_reported":1728644871,"current_range_meters":25200,"station_id":"ce4bhrh2rcd13ifvqhug","pricing_plan_id":"cebpf4jnsgd1na2vs0mg"},{"bike_id":"34b3f1cd-c3e3-4ff6-9714-48c4b7b6cb65","system_id":"levelo_inurba_marseille","lat":43.28355,"lon":5.38094,"is_reserved":false,"is_disabled":false,"rental_uris":{"android":"levelo://app?vid=34b3f1cd-c3e3-4ff6-9714-48c4b7b6cb65","ios":"levelo://app?vid=34b3f1cd-c3e3-4ff6-9714-48c4b7b6cb65"},"vehicle_type_id":"4","last_reported":1728644871,"current_range_meters":8400,"station_id":"ce4bh412rcd13ifvqdr0","pricing_plan_id":"cebpf4jnsgd1na2vs0mg"},{"bike_id":"74d126d1-7ad1-4cb6-b86c-1895cb16b0f7","system_id":"levelo_inurba_marseille","lat":43.284391,"lon":5.392108,"is_reserved":false,"is_disabled":false,"rental_uris":{"android":"levelo://app?vid=74d126d1-7ad1-4cb6-b86c-1895cb16b0f7","ios":"levelo://app?vid=74d126d1-7ad1-4cb6-b86c-1895cb16b0f7"},"vehicle_type_id":"4","last_reported":1728644871,"current_range_meters":19600,"station_id":"ce4bh392rcd13ifvqdm0","pricing_plan_id":"cebpf4jnsgd1na2vs0mg"},{"bike_id":"0b9c722e-3e8d-4661-b7ac-19523c3162ca","system_id":"levelo_inurba_marseille","lat":43.26548,"lon":5.39015,"is_reserved":false,"is_disabled":false,"rental_uris":{"android":"levelo://app?vid=0b9c722e-3e8d-4661-b7ac-19523c3162ca","ios":"levelo://app?vid=0b9c722e-3e8d-4661-b7ac-19523c3162ca"},"vehicle_type_id":"4","last_reported":1728644871,"current_range_meters":24400,"station_id":"ce4bhe12rcd13ifvqf30","pricing_plan_id":"cebpf4jnsgd1na2vs0mg"},{"bike_id":"4743b9e8-f447-41c5-b9b7-eb7c4a9cfa4f","system_id":"levelo_inurba_marseille","lat":43.30149,"lon":5.38082,"is_reserved":false,"is_disabled":false,"rental_uris":{"android":"levelo://app?vid=4743b9e8-f447-41c5-b9b7-eb7c4a9cfa4f","ios":"levelo://app?vid=4743b9e8-f447-41c5-b9b7-eb7c4a9cfa4f"},"vehicle_type_id":"4","last_reported":1728644871,"current_range_meters":25200,"station_id":"ce4bgjp2rcd13ifvqbh0","pricing_plan_id":"cebpf4jnsgd1na2vs0mg"},{"bike_id":"41532910-a5e1-4813-b109-787a806f3bc0","system_id":"levelo_inurba_marseille","lat":43.29608,"lon":5.38105,"is_reserved":false,"is_disabled":false,"rental_uris":{"android":"levelo://app?vid=41532910-a5e1-4813-b109-787a806f3bc0","ios":"levelo://app?vid=41532910-a5e1-4813-b109-787a806f3bc0"},"vehicle_type_id":"4","last_reported":1728644871,"current_range_meters":38000,"station_id":"ce4bgl12rcd13ifvqbo0","pricing_plan_id":"cebpf4jnsgd1na2vs0mg"},{"bike_id":"575c2cbb-9d86-44dc-acac-d6f346510bda","system_id":"levelo_inurba_marseille","lat":43.260581,"lon":5.393981,"is_reserved":false,"is_disabled":false,"rental_uris":{"android":"levelo://app?vid=575c2cbb-9d86-44dc-acac-d6f346510bda","ios":"levelo://app?vid=575c2cbb-9d86-44dc-acac-d6f346510bda"},"vehicle_type_id":"4","last_reported":1728644871,"current_range_meters":2800,"station_id":"ce4bhh92rcd13ifvqfj0","pricing_plan_id":"cebpf4jnsgd1na2vs0mg"},{"bike_id":"5118bbf6-b515-45dc-bd91-51991d9c4e12","system_id":"levelo_inurba_marseille","lat":43.28729,"lon":5.37936,"is_reserved":false,"is_disabled":false,"rental_uris":{"android":"levelo://app?vid=5118bbf6-b515-45dc-bd91-51991d9c4e12","ios":"levelo://app?vid=5118bbf6-b515-45dc-bd91-51991d9c4e12"},"vehicle_type_id":"4","last_reported":1728644871,"current_range_meters":16800,"station_id":"ce4bh9p2rcd13ifvqec0","pricing_plan_id":"cebpf4jnsgd1na2vs0mg"},{"bike_id":"c462ac31-e294-4267-bc1b-a4f664716350","system_id":"levelo_inurba_marseille","lat":43.23191,"lon":5.35542,"is_reserved":false,"is_disabled":false,"rental_uris":{"android":"levelo://app?vid=c462ac31-e294-4267-bc1b-a4f664716350","ios":"levelo://app?vid=c462ac31-e294-4267-bc1b-a4f664716350"},"vehicle_type_id":"4","last_reported":1728644871,"current_range_meters":27200,"station_id":"ce4bhu92rcd13ifvqi70","pricing_plan_id":"cebpf4jnsgd1na2vs0mg"},{"bike_id":"c62e99e2-f747-4f40-b0d8-388eb1d91d26","system_id":"levelo_inurba_marseille","lat":43.30536,"lon":5.38411,"is_reserved":false,"is_disabled":false,"rental_uris":{"android":"levelo://app?vid=c62e99e2-f747-4f40-b0d8-388eb1d91d26","ios":"levelo://app?vid=c62e99e2-f747-4f40-b0d8-388eb1d91d26"},"vehicle_type_id":"4","last_reported":1728644871,"current_range_meters":31200,"station_id":"ce4bgg92rcd13ifvqb30","pricing_plan_id":"cebpf4jnsgd1na2vs0mg"},