{"last_updated":1724778446,"ttl":30,"version":"2.2","data":{"bikes":[{"bike_id":"5f0b9d92-72db-4fbe-887c-7733c48a8a33","system_id":"levelo_inurba_marseille","lat":43.31437,"lon":5.37376,"is_reserved":false,"is_disabled":false,"rental_uris":{"android":"levelo://app?vid=5f0b9d92-72db-4fbe-887c-7733c48a8a33","ios":"levelo://app?vid=5f0b9d92-72db-4fbe-887c-7733c48a8a33"},"vehicle_type_id":"4","last_reported":1724778447,"current_range_meters":0,"station_id":"","pricing_plan_id":"cebpf4jnsgd1na2vs0mg"},{"bike_id":"86c504d3-7597-4396-a00c-53614dcdfb1d","system_id":"levelo_inurba_marseille","lat":43.30551,"lon":5.367,"is_reserved":false,"is_disabled":false,"rental_uris":{"android":"levelo://app?vid=86c504d3-7597-4396-a00c-53614dcdfb1d","ios":"levelo://app?vid=86c504d3-7597-4396-a00c-53614dcdfb1d"},"vehicle_type_id":"4","last_reported":1724778447,"current_range_meters":23600,"station_id":"ce4bgrp2rcd13ifvqc9g","pricing_plan_id":"cebpf4jnsgd1na2vs0mg"},{"bike_id":"5e76f0d3-e73c-43b6-82a3-cf77617b1265","system_id":"levelo_inurba_marseille","lat":43.30543,"lon":5.36705,"is_reserved":false,"is_disabled":false,"rental_uris":{"android":"levelo://app?vid=5e76f0d3-e73c-43b6-82a3-cf77617b1265","ios":"levelo://app?vid=5e76f0d3-e73c-43b6-82a3-cf77617b1265"},"vehicle_type_id":"4","last_reported":1724778447,"current_range_meters":0,"station_id":"ce4bgrp2rcd13ifvqc9g","pricing_plan_id":"cebpf4jnsgd1na2vs0mg"},{"bike_id":"4153fb2a-434e-4e40-a7a9-082321ab92d4","system_id":"levelo_inurba_marseille","lat":43.305714,"lon":5.365633,"is_reserved":false,"is_disabled":false,"rental_uris":{"android":"levelo://app?vid=4153fb2a-434e-4e40-a7a9-082321ab92d4","ios":"levelo://app?vid=4153fb2a-434e-4e40-a7a9-082321ab92d4"},"vehicle_type_id":"4","last_reported":1724778447,"current_range_meters":22800,"station_id":"ce4bgs12rcd13ifvqcag","pricing_plan_id":"cebpf4jnsgd1na2vs0mg"},{"bike_id":"49448ed5-98e1-4b9b-89ad-aa9c33a546cf","system_id":"levelo_inurba_marseille","lat":43.305714,"lon":5.365633,"is_reserved":false,"is_disabled":false,"rental_uris":{"android":"levelo://app?vid=49448ed5-98e1-4b9b-89ad-aa9c33a546cf","ios":"levelo://app?vid=49448ed5-98e1-4b9b-89ad-aa9c33a546cf"},"vehicle_type_id":"4","last_reported":1724778447,"current_range_meters":18000,"station_id":"ce4bgs12rcd13ifvqcag","pricing_plan_id":"cebpf4jnsgd1na2vs0mg"},{"bike_id":"f20fd4a4-a12f-43a0-be29-ddcd6f7d66a8","system_id":"levelo_inurba_marseille","lat":43.305989,"lon":5.37225,"is_reserved":false,"is_disabled":false,"rental_uris":{"android":"levelo://app?vid=f20fd4a4-a12f-43a0-be29-ddcd6f7d66a8","ios":"levelo://app?vid=f20fd4a4-a12f-43a0-be29-ddcd6f7d66a8"},"vehicle_type_id":"4","last_reported":1724778447,"current_range_meters":9200,"station_id":"ce4bgqh2rcd13ifvqc4g","pricing_plan_id":"cebpf4jnsgd1na2vs0mg"},{"bike_id":"15b57157-ec30-4b6f-bb85-504e91e38f2c","system_id":"levelo_inurba_marseille","lat":43.305989,"lon":5.37225,"is_reserved":false,"is_disabled":false,"rental_uris":{"android":"levelo://app?vid=15b57157-ec30-4b6f-bb85-504e91e38f2c","ios":"levelo://app?vid=15b57157-ec30-4b6f-bb85-504e91e38f2c"},"vehicle_type_id":"4","last_reported":1724778447,"current_range_meters":0,"station_id":"ce4bgqh2rcd13ifvqc4g","pricing_plan_id":"cebpf4jnsgd1na2vs0mg"},{"bike_id":"99473172-8cbc-4715-ae44-5ca18c901fe4","system_id":"levelo_inurba_marseille","lat":43.305989,"lon":5.37225,"is_reserved":false,"is_disabled":false,"rental_uris":{"android":"levelo://app?vid=99473172-8cbc-4715-ae44-5ca18c901fe4","ios":"levelo://app?vid=99473172-8cbc-4715-ae44-5ca18c901fe4"},"vehicle_type_id":"4","last_reported":1724778447,"current_range_meters":15600,"station_id":"ce4bgqh2rcd13ifvqc4g","pricing_plan_id":"cebpf4jnsgd1na2vs0mg"},{"bike_id":"af5fc61d-20c7-4996-9726-2891ad58f7b9","system_id":"levelo_inurba_marseille","lat":43.305989,"lon":5.37225,"is_reserved":false,"is_disabled":false,"rental_uris":{"android":"levelo://app?vid=af5fc61d-20c7-4996-9726-2891ad58f7b9","ios":"levelo://app?vid=af5fc61d-20c7-4996-9726-2891ad58f7b9"},"vehicle_type_id":"4","last_reported":1724778447,"current_range_meters":13200,"station_id":"ce4bgqh2rcd13ifvqc4g","pricing_plan_id":"cebpf4jnsgd1na2vs0mg"},{"bike_id":"119f26c3-3f84-401c-9b26-da7f2bd01f93","system_id":"levelo_inurba_marseille","lat":43.305989,"lon":5.37225,"is_reserved":false,"is_disabled":false,"rental_uris":{"android":"levelo://app?vid=119f26c3-3f84-401c-9b26-da7f2bd01f93","ios":"levelo://app?vid=119f26c3-3f84-401c-9b26-da7f2bd01f93"},"vehicle_type_id":"4","last_reported":1724778447,"current_range_meters":3600,"station_id":"ce4bgqh2rcd13ifvqc4g","pricing_plan_id":"cebpf4jnsgd1na2vs0mg"},{"bike_id":"d1fadfbc-f8da-4dd5-9207-166f60fa002c","system_id":"levelo_inurba_marseille","lat":43.307945,"lon":5.376487,"is_reserved":false,"is_disabled":false,"rental_uris":{"android":"levelo://app?vid=d1fadfbc-f8da-4dd5-9207-166f60fa002c","ios":"levelo://app?vid=d1fadfbc-f8da-4dd5-9207-166f60fa002c"},"vehicle_type_id":"4","last_reported":1724778447,"current_range_meters":4000,"station_id":"ce4bgv92rcd13ifvqcq0","pricing_plan_id":"cebpf4jnsgd1na2vs0mg"},{"bike_id":"907aebc9-1377-4891-87a4-ed1e7b9b614e","system_id":"levelo_inurba_marseille","lat":43.307945,"lon":5.376487,"is_reserved":false,"is_disabled":false,"rental_uris":{"android":"levelo://app?vid=907aebc9-1377-4891-87a4-ed1e7b9b614e","ios":"levelo://app?vid=907aebc9-1377-4891-87a4-ed1e7b9b614e"},"vehicle_type_id":"4","last_reported":1724778447,"current_range_meters":27600,"station_id":"ce4bgv92rcd13ifvqcq0","pricing_plan_id":"cebpf4jnsgd1na2vs0mg"},{"bike_id":"ab187593-0014-471f-b47c-aca9dbbb64fb","system_id":"levelo_inurba_marseille","lat":43.31704,"lon":5.37739,"is_reserved":false,"is_disabled":false,"rental_uris":{"android":"levelo://app?vid=ab187593-0014-471f-b47c-aca9dbbb64fb","ios":"levelo://app?vid=ab187593-0014-471f-b47c-aca9dbbb64fb"},"vehicle_type_id":"4","last_reported":1724778447,"current_range_meters":8800,"station_id":"ce4bgth2rcd13ifvqch0","pricing_plan_id":"cebpf4jnsgd1na2vs0mg"},{"bike_id":"fb95aa2f-b185-4679-919d-4d340d7744ce","system_id":"levelo_inurba_marseille","lat":43.317137,"lon":5.377353,"is_reserved":false,"is_disabled":false,"rental_uris":{"android":"levelo://app?vid=fb95aa2f-b185-4679-919d-4d340d7744ce","ios":"levelo://app?vid=fb95aa2f-b185-4679-919d-4d340d7744ce"},"vehicle_type_id":"4","last_reported":1724778447,"current_range_meters":26400,"station_id":"ce4bgth2rcd13ifvqch0","pricing_plan_id":"cebpf4jnsgd1na2vs0mg"},{"bike_id":"b8199820-c7a1-4a3e-b382-2b728cccfead","system_id":"levelo_inurba_marseille","lat":43.317075,"lon":5.377367,"is_reserved":false,"is_disabled":false,"rental_uris":{"android":"levelo://app?vid=b8199820-c7a1-4a3e-b382-2b728cccfead","ios":"levelo://app?vid=b8199820-c7a1-4a3e-b382-2b728cccfead"},"vehicle_type_id":"4","last_reported":1724778447,"current_range_meters":31600,"station_id":"ce4bgth2rcd13ifvqch0","pricing_plan_id":"cebpf4jnsgd1na2vs0mg"},{"bike_id":"f3cc3a63-b22b-4fff-87fd-027ad62defdc","system_id":"levelo_inurba_marseille","lat":43.317193,"lon":5.377523,"is_reserved":false,"is_disabled":false,"rental_uris":{"android":"levelo://app?vid=f3cc3a63-b22b-4fff-87fd-027ad62defdc","ios":"levelo://app?vid=f3cc3a63-b22b-4fff-87fd-027ad62defdc"},"vehicle_type_id":"4","last_reported":1724778447,"current_range_meters":31200,"station_id":"ce4bgth2rcd13ifvqch0","pricing_plan_id":"cebpf4jnsgd1na2vs0mg"},{"bike_id":"76396786-201d-4f53-9bb5-aab4100bf121","system_id":"levelo_inurba_marseille","lat":43.279742,"lon":5.38744,"is_reserved":false,"is_disabled":false,"rental_uris":{"android":"levelo://app?vid=76396786-201d-4f53-9bb5-aab4100bf121","ios":"levelo://app?vid=76396786-201d-4f53-9bb5-aab4100bf121"},"vehicle_type_id":"4","last_reported":1724778447,"current_range_meters":14400,"station_id":"ce4bhg12rcd13ifvqf80","pricing_plan_id":"cebpf4jnsgd1na2vs0mg"},{"bike_id":"17971ef2-47a4-4aa3-976c-8219d4869aec","system_id":"levelo_inurba_marseille","lat":43.315289,"lon":5.380349,"is_reserved":false,"is_disabled":false,"rental_uris":{"android":"levelo://app?vid=17971ef2-47a4-4aa3-976c-8219d4869aec","ios":"levelo://app?vid=17971ef2-47a4-4aa3-976c-8219d4869aec"},"vehicle_type_id":"4","last_reported":1724778447,"current_range_meters":30000,"station_id":"ce4bhsp2rcd13ifvqi50","pricing_plan_id":"cebpf4jnsgd1na2vs0mg"},{"bike_id":"ce787067-f331-4930-91ca-636188b0d781","system_id":"levelo_inurba_marseille","lat":43.301939,"lon":5.366286,"is_reserved":false,"is_disabled":false,"rental_uris":{"android":"levelo://app?vid=ce787067-f331-4930-91ca-636188b0d781","ios":"levelo://app?vid=ce787067-f331-4930-91ca-636188b0d781"},"vehicle_type_id":"4","last_reported":1724778447,"current_range_meters":24400,"station_id":"ce4bgrh2rcd13ifvqc8g","pricing_plan_id":"cebpf4jnsgd1na2vs0mg"},{"bike_id":"fb4eac20-657b-40ae-b53d-b321fba67372","system_id":"levelo_inurba_marseille","lat":43.308012,"lon":5.381511,"is_reserved":false,"is_disabled":false,"rental_uris":{"android":"levelo://app?vid=fb4eac20-657b-40ae-b53d-b321fba67372","ios":"levelo://app?vid=fb4eac20-657b-40ae-b53d-b321fba67372"},"vehicle_type_id":"4","last_reported":1724778447,"current_range_meters":1200,"station_id":"ce4bgt12rcd13ifvqce0","pricing_plan_id":"cebpf4jnsgd1na2vs0mg"},{"bike_id":"682bc26d-740a-41f5-9c00-6ad09cfa2f30","system_id":"levelo_inurba_marseille","lat":43.308012,"lon":5.381511,"is_reserved":false,"is_disabled":false,"rental_uris":{"android":"levelo://app?vid=682bc26d-740a-41f5-9c00-6ad09cfa2f30","ios":"levelo://app?vid=682bc26d-740a-41f5-9c00-6ad09cfa2f30"},"vehicle_type_id":"4","last_reported":1724778447,"current_range_meters":11600,"station_id":"ce4bgt12rcd13ifvqce0","pricing_plan_id":"cebpf4jnsgd1na2vs0mg"},{"bike_id":"81cf7e8d-2200-4a4c-a6db-5594467ea0c8","system_id":"levelo_inurba_marseille","lat":43.324771,"lon":5.36557,"is_reserved":false,"is_disabled":false,"rental_uris":{"android":"levelo://app?vid=81cf7e8d-2200-4a4c-a6db-5594467ea0c8","ios":"levelo://app?vid=81cf7e8d-2200-4a4c-a6db-5594467ea0c8"},"vehicle_type_id":"4","last_reported":1724778447,"current_range_meters":0,"station_id":"ce4bhs12rcd13ifvqhvg","pricing_plan_id":"cebpf4jnsgd1na2vs0mg"},{"bike_id":"44533536-edf4-4c37-a921-fdc24f2ae83a","system_id":"levelo_inurba_marseille","lat":43.324771,"lon":5.36557,"is_reserved":false,"is_disabled":false,"rental_uris":{"android":"levelo://app?vid=44533536-edf4-4c37-a921-fdc24f2ae83a","ios":"levelo://app?vid=44533536-edf4-4c37-a921-fdc24f2ae83a"},"vehicle_type_id":"4","last_reported":1724778447,"current_range_meters":10400,"station_id":"ce4bhs12rcd13ifvqhvg","pricing_plan_id":"cebpf4jnsgd1na2vs0mg"},{"bike_id":"bab85eb8-3ac9-435b-81b1-8a704e719df8","system_id":"levelo_inurba_marseille","lat":43.3248,"lon":5.36559,"is_reserved":false,"is_disabled":false,"rental_uris":{"android":"levelo://app?vid=bab85eb8-3ac9-435b-81b1-8a704e719df8","ios":"levelo://app?vid=bab85eb8-3ac9-435b-81b1-8a704e719df8"},"vehicle_type_id":"4","last_reported":1724778447,"current_range_meters":23600,"station_id":"ce4bhs12rcd13ifvqhvg","pricing_plan_id":"cebpf4jnsgd1na2vs0mg"},{"bike_id":"7f278697-1b9a-4f3e-aad4-a206e9aff6b1","system_id":"levelo_inurba_marseille","lat":43.324771,"lon":5.36557,"is_reserved":false,"is_disabled":false,"rental_uris":{"android":"levelo://app?vid=7f278697-1b9a-4f3e-aad4-a206e9aff6b1","ios":"levelo://app?vid=7f278697-1b9a-4f3e-aad4-a206e9aff6b1"},"vehicle_type_id":"4","last_reported":1724778447,"current_range_meters":31200,"station_id":"ce4bhs12rcd13ifvqhvg","pricing_plan_id":"cebpf4jnsgd1na2vs0mg"},{"bike_id":"7cda7f10-7fae-4c87-95c7-87a923ff1fde","system_id":"levelo_inurba_marseille","lat":43.324771,"lon":5.36557,"is_reserved":false,"is_disabled":false,"rental_uris":{"android":"levelo://app?vid=7cda7f10-7fae-4c87-95c7-87a923ff1fde","ios":"levelo://app?vid=7cda7f10-7fae-4c87-95c7-87a923ff1fde"},"vehicle_type_id":"4","last_reported":1724778447,"current_range_meters":31600,"station_id":"ce4bhs12rcd13ifvqhvg","pricing_plan_id":"cebpf4jnsgd1na2vs0mg"},{"bike_id":"b26496fe-9057-40fb-90ee-9c2cd4a4725d","system_id":"levelo_inurba_marseille","lat":43.324771,"lon":5.36557,"is_reserved":false,"is_disabled":false,"rental_uris":{"android":"levelo://app?vid=b26496fe-9057-40fb-90ee-9c2cd4a4725d","ios":"levelo://app?vid=b26496fe-9057-40fb-90ee-9c2cd4a4725d"},"vehicle_type_id":"4","last_reported":1724778447,"current_range_meters":6400,"station_id":"ce4bhs12rcd13ifvqhvg","pricing_plan_id":"cebpf4jnsgd1na2vs0mg"},{"bike_id":"2b765485-1106-4db8-b84e-499dcd954f72","system_id":"levelo_inurba_marseille","lat":43.324771,"lon":5.36557,"is_reserved":false,"is_disabled":false,"rental_uris":{"android":"levelo://app?vid=2b765485-1106-4db8-b84e-499dcd954f72","ios":"levelo://app?vid=2b765485-1106-4db8-b84e-499dcd954f72"},"vehicle_type_id":"4","last_reported":1724778447,"current_range_meters":18000,"station_id":"ce4bhs12rcd13ifvqhvg","pricing_plan_id":"cebpf4jnsgd1na2vs0mg"},{"bike_id":"73448fa1-0385-49a8-b450-7e78e2edd320","system_id":"levelo_inurba_marseille","lat":43.310804,"lon":5.38359,"is_reserved":false,"is_disabled":false,"rental_uris":{"android":"levelo://app?vid=73448fa1-0385-49a8-b450-7e78e2edd320","ios":"levelo://app?vid=73448fa1-0385-49a8-b450-7e78e2edd320"},"vehicle_type_id":"4","last_reported":1724778447,"current_range_meters":11600,"station_id":"ce4bgv92rcd13ifvqcr0","pricing_plan_id":"cebpf4jnsgd1na2vs0mg"},{"bike_id":"ff2e2f17-e53a-4360-9800-37c28492171b","system_id":"levelo_inurba_marseille","lat":43.319667,"lon":5.3815,"is_reserved":false,"is_disabled":false,"rental_uris":{"android":"levelo://app?vid=ff2e2f17-e53a-4360-9800-37c28492171b","ios":"levelo://app?vid=ff2e2f17-e53a-4360-9800-37c28492171b"},"vehicle_type_id":"4","last_reported":1724778447,"current_range_meters":6000,"station_id":"ce4bhr12rcd13ifvqhpg","pricing_plan_id":"cebpf4jnsgd1na2vs0mg"},{"bike_id":"117cda6a-1261-45f1-aa8c-f5aabee24375","system_id":"levelo_inurba_marseille","lat":43.32537,"lon":5.36403,"is_reserved":false,"is_disabled":false,"rental_uris":{"android":"levelo://app?vid=117cda6a-1261-45f1-aa8c-f5aabee24375","ios":"levelo://app?vid=117cda6a-1261-45f1-aa8c-f5aabee24375"},"vehicle_type_id":"4","last_reported":1724778447,"current_range_meters":5600,"station_id":"","pricing_plan_id":"cebpf4jnsgd1na2vs0mg"},{"bike_id":"3a25802f-cc39-4e81-82f1-5318bfc3abd8","system_id":"levelo_inurba_marseille","lat":43.319935,"lon":5.381699,"is_reserved":false,"is_disabled":false,"rental_uris":{"android":"levelo://app?vid=3a25802f-cc39-4e81-82f1-5318bfc3abd8","ios":"levelo://app?vid=3a25802f-cc39-4e81-82f1-5318bfc3abd8"},"vehicle_type_id":"4","last_reported":1724778447,"current_range_meters":8000,"station_id":"ce4bhr12rcd13ifvqhpg","pricing_plan_id":"cebpf4jnsgd1na2vs0mg"},{"bike_id":"3fb5a105-8a1d-4421-99d2-79fa30219c96","system_id":"levelo_inurba_marseille","lat":43.319935,"lon":5.381699,"is_reserved":false,"is_disabled":false,"rental_uris":{"android":"levelo://app?vid=3fb5a105-8a1d-4421-99d2-79fa30219c96","ios":"levelo://app?vid=3fb5a105-8a1d-4421-99d2-79fa30219c96"},"vehicle_type_id":"4","last_reported":1724778447,"current_range_meters":3600,"station_id":"ce4bhr12rcd13ifvqhpg","pricing_plan_id":"cebpf4jnsgd1na2vs0mg"},{"bike_id":"036cbf12-9e2e-474d-902f-6e6414bc7365","system_id":"levelo_inurba_marseille","lat":43.313571,"lon":5.384829,"is_reserved":false,"is_disabled":false,"rental_uris":{"android":"levelo://app?vid=036cbf12-9e2e-474d-902f-6e6414bc7365","ios":"levelo://app?vid=036cbf12-9e2e-474d-902f-6e6414bc7365"},"vehicle_type_id":"4","last_reported":1724778447,"current_range_meters":400,"station_id":"ce4bgt92rcd13ifvqcf0","pricing_plan_id":"cebpf4jnsgd1na2vs0mg"},{"bike_id":"4aa158c0-0b14-4acc-8b0e-b0473e31e9d8","system_id":"levelo_inurba_marseille","lat":43.299222,"lon":5.365554,"is_reserved":false,"is_disabled":false,"rental_uris":{"android":"levelo://app?vid=4aa158c0-0b14-4acc-8b0e-b0473e31e9d8","ios":"levelo://app?vid=4aa158c0-0b14-4acc-8b0e-b0473e31e9d8"},"vehicle_type_id":"4","last_reported":1724778447,"current_range_meters":2400,"station_id":"ce4bgm92rcd13ifvqbr0","pricing_plan_id":"cebpf4jnsgd1na2vs0mg"},{"bike_id":"bdf7c807-73bd-4082-b554-09456d9711ba","system_id":"levelo_inurba_marseille","lat":43.299222,"lon":5.365554,"is_reserved":false,"is_disabled":false,"rental_uris":{"android":"levelo://app?vid=bdf7c807-73bd-4082-b554-09456d9711ba","ios":"levelo://app?vid=bdf7c807-73bd-4082-b554-09456d9711ba"},"vehicle_type_id":"4","last_reported":1724778447,"current_range_meters":23200,"station_id":"ce4bgm92rcd13ifvqbr0","pricing_plan_id":"cebpf4jnsgd1na2vs0mg"},{"bike_id":"4ace56d7-e807-4c93-ac93-1e76f22eabb1","system_id":"levelo_inurba_marseille","lat":43.29892,"lon":5.36326,"is_reserved":false,"is_disabled":false,"rental_uris":{"android":"levelo://app?vid=4ace56d7-e807-4c93-ac93-1e76f22eabb1","ios":"levelo://app?vid=4ace56d7-e807-4c93-ac93-1e76f22eabb1"},"vehicle_type_id":"4","last_reported":1724778447,"current_range_meters":24000,"station_id":"","pricing_plan_id":"cebpf4jnsgd1na2vs0mg"},{"bike_id":"226287ea-776f-4854-b904-72a067b7121d","system_id":"levelo_inurba_marseille","lat":43.298433,"lon":5.362774,"is_reserved":false,"is_disabled":false,"rental_uris":{"android":"levelo://app?vid=226287ea-776f-4854-b904-72a067b7121d","ios":"levelo://app?vid=226287ea-776f-4854-b904-72a067b7121d"},"vehicle_type_id":"4","last_reported":1724778447,"current_range_meters":30000,"station_id":"ce4bgpp2rcd13ifvqc3g","pricing_plan_id":"cebpf4jnsgd1na2vs0mg"},{"bike_id":"2be7e143-a90a-478e-a20e-e5b8ddd41d70","system_id":"levelo_inurba_marseille","lat":43.311593,"lon":5.386877,"is_reserved":false,"is_disabled":false,"rental_uris":{"android":"levelo://app?vid=2be7e143-a90a-478e-a20e-e5b8ddd41d70","ios":"levelo://app?vid=2be7e143-a90a-478e-a20e-e5b8ddd41d70"},"vehicle_type_id":"4","last_reported":1724778447,"current_range_meters":19600,"station_id":"ce4bgv12rcd13ifvqcp0","pricing_plan_id":"cebpf4jnsgd1na2vs0mg"},{"bike_id":"2a499e06-918a-49ab-896a-ad1b082a377e","system_id":"levelo_inurba_marseille","lat":43.298433,"lon":5.362774,"is_reserved":false,"is_disabled":false,"rental_uris":{"android":"levelo://app?vid=2a499e06-918a-49ab-896a-ad1b082a377e","ios":"levelo://app?vid=2a499e06-918a-49ab-896a-ad1b082a377e"},"vehicle_type_id":"4","last_reported":1724778447,"current_range_meters":24800,"station_id":"ce4bgpp2rcd13ifvqc3g","pricing_plan_id":"cebpf4jnsgd1na2vs0mg"},{"bike_id":"837a0b9b-e781-4c95-8370-cf1b95dc04ed","system_id":"levelo_inurba_marseille","lat":43.305364,"lon":5.384119,"is_reserved":false,"is_disabled":false,"rental_uris":{"android":"levelo://app?vid=837a0b9b-e781-4c95-8370-cf1b95dc04ed","ios":"levelo://app?vid=837a0b9b-e781-4c95-8370-cf1b95dc04ed"},"vehicle_type_id":"4","last_reported":1724778447,"current_range_meters":16400,"station_id":"ce4bgg92rcd13ifvqb30","pricing_plan_id":"cebpf4jnsgd1na2vs0mg"},{"bike_id":"92264296-2441-47b9-8e33-05fd65d09963","system_id":"levelo_inurba_marseille","lat":43.298433,"lon":5.362774,"is_reserved":false,"is_disabled":false,"rental_uris":{"android":"levelo://app?vid=92264296-2441-47b9-8e33-05fd65d09963","ios":"levelo://app?vid=92264296-2441-47b9-8e33-05fd65d09963"},"vehicle_type_id":"4","last_reported":1724778447,"current_range_meters":16000,"station_id":"ce4bgpp2rcd13ifvqc3g","pricing_plan_id":"cebpf4jnsgd1na2vs0mg"},{"bike_id":"c3a71e58-8c35-4163-afdb-8924d5e60be0","system_id":"levelo_inurba_marseille","lat":43.298433,"lon":5.362774,"is_reserved":false,"is_disabled":false,"rental_uris":{"android":"levelo://app?vid=c3a71e58-8c35-4163-afdb-8924d5e60be0","ios":"levelo://app?vid=c3a71e58-8c35-4163-afdb-8924d5e60be0"},"vehicle_type_id":"4","last_reported":1724778447,"current_range_meters":31200,"station_id":"ce4bgpp2rcd13ifvqc3g","pricing_plan_id":"cebpf4jnsgd1na2vs0mg"},{"bike_id":"3838bc6a-4475-48fc-8a7e-76dbc892c2eb","system_id":"levelo_inurba_marseille","lat":43.298433,"lon":5.362774,"is_reserved":false,"is_disabled":false,"rental_uris":{"android":"levelo://app?vid=3838bc6a-4475-48fc-8a7e-76dbc892c2eb","ios":"levelo://app?vid=3838bc6a-4475-48fc-8a7e-76dbc892c2eb"},"vehicle_type_id":"4","last_reported":1724778447,"current_range_meters":13600,"station_id":"ce4bgpp2rcd13ifvqc3g","pricing_plan_id":"cebpf4jnsgd1na2vs0mg"},{"bike_id":"50783cc4-d1e3-4c95-8e94-faf10140f81b","system_id":"levelo_inurba_marseille","lat":43.298433,"lon":5.362774,"is_reserved":false,"is_disabled":false,"rental_uris":{"android":"levelo://app?vid=50783cc4-d1e3-4c95-8e94-faf10140f81b","ios":"levelo://app?vid=50783cc4-d1e3-4c95-8e94-faf10140f81b"},"vehicle_type_id":"4","last_reported":1724778447,"current_range_meters":28800,"station_id":"ce4bgpp2rcd13ifvqc3g","pricing_plan_id":"cebpf4jnsgd1na2vs0mg"},{"bike_id":"bc6abc6c-59b3-4303-9a11-75678bdc11f6","system_id":"levelo_inurba_marseille","lat":43.299243,"lon":5.37481,"is_reserved":false,"is_disabled":false,"rental_uris":{"android":"levelo://app?vid=bc6abc6c-59b3-4303-9a11-75678bdc11f6","ios":"levelo://app?vid=bc6abc6c-59b3-4303-9a11-75678bdc11f6"},"vehicle_type_id":"4","last_reported":1724778447,"current_range_meters":11200,"station_id":"ce4bgjh2rcd13ifvqbg0","pricing_plan_id":"cebpf4jnsgd1na2vs0mg"},{"bike_id":"68827ba6-01ad-4ef3-9f6e-e3bb0b3722aa","system_id":"levelo_inurba_marseille","lat":43.301417,"lon":5.3809,"is_reserved":false,"is_disabled":false,"rental_uris":{"android":"levelo://app?vid=68827ba6-01ad-4ef3-9f6e-e3bb0b3722aa","ios":"levelo://app?vid=68827ba6-01ad-4ef3-9f6e-e3bb0b3722aa"},"vehicle_type_id":"4","last_reported":1724778447,"current_range_meters":16800,"station_id":"ce4bgjp2rcd13ifvqbh0","pricing_plan_id":"cebpf4jnsgd1na2vs0mg"},{"bike_id":"f6b9ace6-3737-4222-91df-ee116891ba40","system_id":"levelo_inurba_marseille","lat":43.30157,"lon":5.38105,"is_reserved":false,"is_disabled":false,"rental_uris":{"android":"levelo://app?vid=f6b9ace6-3737-4222-91df-ee116891ba40","ios":"levelo://app?vid=f6b9ace6-3737-4222-91df-ee116891ba40"},"vehicle_type_id":"4","last_reported":1724778447,"current_range_meters":28400,"station_id":"ce4bgjp2rcd13ifvqbh0","pricing_plan_id":"cebpf4jnsgd1na2vs0mg"},{"bike_id":"90d37695-c612-4384-92d0-977df80ac5dd","system_id":"levelo_inurba_marseille","lat":43.32292,"lon":5.38259,"is_reserved":false,"is_disabled":false,"rental_uris":{"android":"levelo://app?vid=90d37695-c612-4384-92d0-977df80ac5dd","ios":"levelo://app?vid=90d37695-c612-4384-92d0-977df80ac5dd"},"vehicle_type_id":"4","last_reported":1724778447,"current_range_meters":8400,"station_id":"ce4bhr12rcd13ifvqhqg","pricing_plan_id":"cebpf4jnsgd1na2vs0mg"},{"bike_id":"6620c18c-e539-494a-b633-92cac3f2bd47","system_id":"levelo_inurba_marseille","lat":43.32294,"lon":5.38263,"is_reserved":false,"is_disabled":false,"rental_uris":{"android":"levelo://app?vid=6620c18c-e539-494a-b633-92cac3f2bd47","ios":"levelo://app?vid=6620c18c-e539-494a-b633-92cac3f2bd47"},"vehicle_type_id":"4","last_reported":1724778447,"current_range_meters":15600,"station_id":"ce4bhr12rcd13ifvqhqg","pricing_plan_id":"cebpf4jnsgd1na2vs0mg"},{"bike_id":"d343f4d6-a817-4274-ad88-7258888eb58f","system_id":"levelo_inurba_marseille","lat":43.322872,"lon":5.382756,"is_reserved":false,"is_disabled":false,"rental_uris":{"android":"levelo://app?vid=d343f4d6-a817-4274-ad88-7258888eb58f","ios":"levelo://app?vid=d343f4d6-a817-4274-ad88-7258888eb58f"},"vehicle_type_id":"4","last_reported":1724778447,"current_range_meters":2800,"station_id":"ce4bhr12rcd13ifvqhqg","pricing_plan_id":"cebpf4jnsgd1na2vs0mg"},{"bike_id":"dbca6fde-3192-418f-93d8-4c6e1e5aa9df","system_id":"levelo_inurba_marseille","lat":43.32335,"lon":5.38215,"is_reserved":false,"is_disabled":false,"rental_uris":{"android":"levelo://app?vid=dbca6fde-3192-418f-93d8-4c6e1e5aa9df","ios":"levelo://app?vid=dbca6fde-3192-418f-93d8-4c6e1e5aa9df"},"vehicle_type_id":"4","last_reported":1724778447,"current_range_meters":10400,"station_id":"","pricing_plan_id":"cebpf4jnsgd1na2vs0mg"},{"bike_id":"bf7cb799-f8ce-4d14-90e5-cb327682dbd4","system_id":"levelo_inurba_marseille","lat":43.29713,"lon":5.36615,"is_reserved":false,"is_disabled":false,"rental_uris":{"android":"levelo://app?vid=bf7cb799-f8ce-4d14-90e5-cb327682dbd4","ios":"levelo://app?vid=bf7cb799-f8ce-4d14-90e5-cb327682dbd4"},"vehicle_type_id":"4","last_reported":1724778447,"current_range_meters":0,"station_id":"","pricing_plan_id":"cebpf4jnsgd1na2vs0mg"},{"bike_id":"ef288442-5e8f-439c-a064-6f7f5550ae07","system_id":"levelo_inurba_marseille","lat":43.29712,"lon":5.36608,"is_reserved":false,"is_disabled":false,"rental_uris":{"android":"levelo://app?vid=ef288442-5e8f-439c-a064-6f7f5550ae07","ios":"levelo://app?vid=ef288442-5e8f-439c-a064-6f7f5550ae07"},"vehicle_type_id":"4","last_reported":1724778447,"current_range_meters":18400,"station_id":"ce4bgn12rcd13ifvqbt0","pricing_plan_id":"cebpf4jnsgd1na2vs0mg"},{"bike_id":"1e255c36-ec09-4ff5-853b-0669fbff0c3e","system_id":"levelo_inurba_marseille","lat":43.297163,"lon":5.365866,"is_reserved":false,"is_disabled":false,"rental_uris":{"android":"levelo://app?vid=1e255c36-ec09-4ff5-853b-0669fbff0c3e","ios":"levelo://app?vid=1e255c36-ec09-4ff5-853b-0669fbff0c3e"},"vehicle_type_id":"4","last_reported":1724778447,"current_range_meters":0,"station_id":"ce4bgn12rcd13ifvqbt0","pricing_plan_id":"cebpf4jnsgd1na2vs0mg"},{"bike_id":"a9488722-3590-43d8-96dd-603ef28053e8","system_id":"levelo_inurba_marseille","lat":43.297163,"lon":5.365866,"is_reserved":false,"is_disabled":false,"rental_uris":{"android":"levelo://app?vid=a9488722-3590-43d8-96dd-603ef28053e8","ios":"levelo://app?vid=a9488722-3590-43d8-96dd-603ef28053e8"},"vehicle_type_id":"4","last_reported":1724778447,"current_range_meters":8400,"station_id":"ce4bgn12rcd13ifvqbt0","pricing_plan_id":"cebpf4jnsgd1na2vs0mg"},{"bike_id":"1d67eddc-7477-4657-854c-1b32a8c1f178","system_id":"levelo_inurba_marseille","lat":43.297163,"lon":5.365866,"is_reserved":false,"is_disabled":false,"rental_uris":{"android":"levelo://app?vid=1d67eddc-7477-4657-854c-1b32a8c1f178","ios":"levelo://app?vid=1d67eddc-7477-4657-854c-1b32a8c1f178"},"vehicle_type_id":"4","last_reported":1724778447,"current_range_meters":0,"station_id":"ce4bgn12rcd13ifvqbt0","pricing_plan_id":"cebpf4jnsgd1na2vs0mg"},{"bike_id":"4a7aaac8-4954-40f0-b389-d3d5fd9a1e2e","system_id":"levelo_inurba_marseille","lat":43.297163,"lon":5.365866,"is_reserved":false,"is_disabled":false,"rental_uris":{"android":"levelo://app?vid=4a7aaac8-4954-40f0-b389-d3d5fd9a1e2e","ios":"levelo://app?vid=4a7aaac8-4954-40f0-b389-d3d5fd9a1e2e"},"vehicle_type_id":"4","last_reported":1724778447,"current_range_meters":9600,"station_id":"ce4bgn12rcd13ifvqbt0","pricing_plan_id":"cebpf4jnsgd1na2vs0mg"},{"bike_id":"ba97f9fe-d7f3-4026-a318-9dd3702aa5ff","system_id":"levelo_inurba_marseille","lat":43.29669,"lon":5.36144,"is_reserved":false,"is_disabled":false,"rental_uris":{"android":"levelo://app?vid=ba97f9fe-d7f3-4026-a318-9dd3702aa5ff","ios":"levelo://app?vid=ba97f9fe-d7f3-4026-a318-9dd3702aa5ff"},"vehicle_type_id":"4","last_reported":1724778447,"current_range_meters":19200,"station_id":"","pricing_plan_id":"cebpf4jnsgd1na2vs0mg"},{"bike_id":"fc575167-0850-4e9b-8579-5ccba30e10fa","system_id":"levelo_inurba_marseille","lat":43.296131,"lon":5.370791,"is_reserved":false,"is_disabled":false,"rental_uris":{"android":"levelo://app?vid=fc575167-0850-4e9b-8579-5ccba30e10fa","ios":"levelo://app?vid=fc575167-0850-4e9b-8579-5ccba30e10fa"},"vehicle_type_id":"4","last_reported":1724778447,"current_range_meters":12000,"station_id":"ce4bgnh2rcd13ifvqc0g","pricing_plan_id":"cebpf4jnsgd1na2vs0mg"},{"bike_id":"121cf7af-9a6f-41d1-a7eb-35d965a2b801","system_id":"levelo_inurba_marseille","lat":43.296131,"lon":5.370791,"is_reserved":false,"is_disabled":false,"rental_uris":{"android":"levelo://app?vid=121cf7af-9a6f-41d1-a7eb-35d965a2b801","ios":"levelo://app?vid=121cf7af-9a6f-41d1-a7eb-35d965a2b801"},"vehicle_type_id":"4","last_reported":1724778447,"current_range_meters":0,"station_id":"ce4bgnh2rcd13ifvqc0g","pricing_plan_id":"cebpf4jnsgd1na2vs0mg"},{"bike_id":"61d8da9c-7083-4bb3-a840-ab2e8930b158","system_id":"levelo_inurba_marseille","lat":43.29573,"lon":5.367355,"is_reserved":false,"is_disabled":false,"rental_uris":{"android":"levelo://app?vid=61d8da9c-7083-4bb3-a840-ab2e8930b158","ios":"levelo://app?vid=61d8da9c-7083-4bb3-a840-ab2e8930b158"},"vehicle_type_id":"4","last_reported":1724778447,"current_range_meters":24400,"station_id":"ce4bgph2rcd13ifvqc2g","pricing_plan_id":"cebpf4jnsgd1na2vs0mg"},{"bike_id":"515138fe-5f61-4ff9-a54f-35cc7e549517","system_id":"levelo_inurba_marseille","lat":43.2958,"lon":5.36744,"is_reserved":false,"is_disabled":false,"rental_uris":{"android":"levelo://app?vid=515138fe-5f61-4ff9-a54f-35cc7e549517","ios":"levelo://app?vid=515138fe-5f61-4ff9-a54f-35cc7e549517"},"vehicle_type_id":"4","last_reported":1724778447,"current_range_meters":27600,"station_id":"ce4bgph2rcd13ifvqc2g","pricing_plan_id":"cebpf4jnsgd1na2vs0mg"},{"bike_id":"1805e3ab-7fdf-44b2-a5ea-4538b30179cd","system_id":"levelo_inurba_marseille","lat":43.29573,"lon":5.367355,"is_reserved":false,"is_disabled":false,"rental_uris":{"android":"levelo://app?vid=1805e3ab-7fdf-44b2-a5ea-4538b30179cd","ios":"levelo://app?vid=1805e3ab-7fdf-44b2-a5ea-4538b30179cd"},"vehicle_type_id":"4","last_reported":1724778447,"current_range_meters":8000,"station_id":"ce4bgph2rcd13ifvqc2g","pricing_plan_id":"cebpf4jnsgd1na2vs0mg"},{"bike_id":"1b4a2dc3-062c-4a2c-a1a7-912c531f59cc","system_id":"levelo_inurba_marseille","lat":43.29906,"lon":5.38131,"is_reserved":false,"is_disabled":false,"rental_uris":{"android":"levelo://app?vid=1b4a2dc3-062c-4a2c-a1a7-912c531f59cc","ios":"levelo://app?vid=1b4a2dc3-062c-4a2c-a1a7-912c531f59cc"},"vehicle_type_id":"4","last_reported":1724778447,"current_range_meters":9600,"station_id":"ce4bgj12rcd13ifvqbc0","pricing_plan_id":"cebpf4jnsgd1na2vs0mg"},{"bike_id":"9a5a1bfd-6c60-4cc8-8823-5cfb71e0d7ee","system_id":"levelo_inurba_marseille","lat":43.2991,"lon":5.38152,"is_reserved":false,"is_disabled":false,"rental_uris":{"android":"levelo://app?vid=9a5a1bfd-6c60-4cc8-8823-5cfb71e0d7ee","ios":"levelo://app?vid=9a5a1bfd-6c60-4cc8-8823-5cfb71e0d7ee"},"vehicle_type_id":"4","last_reported":1724778447,"current_range_meters":0,"station_id":"ce4bgj12rcd13ifvqbc0","pricing_plan_id":"cebpf4jnsgd1na2vs0mg"},{"bike_id":"7cbdcd3c-4508-42de-9a23-0c9dfec396c2","system_id":"levelo_inurba_marseille","lat":43.296921,"lon":5.376579,"is_reserved":false,"is_disabled":false,"rental_uris":{"android":"levelo://app?vid=7cbdcd3c-4508-42de-9a23-0c9dfec396c2","ios":"levelo://app?vid=7cbdcd3c-4508-42de-9a23-0c9dfec396c2"},"vehicle_type_id":"4","last_reported":1724778447,"current_range_meters":0,"station_id":"ce4bgkh2rcd13ifvqbl0","pricing_plan_id":"cebpf4jnsgd1na2vs0mg"},{"bike_id":"d24b6c64-c668-4106-9e30-ca45f27c1e35","system_id":"levelo_inurba_marseille","lat":43.296921,"lon":5.376579,"is_reserved":false,"is_disabled":false,"rental_uris":{"android":"levelo://app?vid=d24b6c64-c668-4106-9e30-ca45f27c1e35","ios":"levelo://app?vid=d24b6c64-c668-4106-9e30-ca45f27c1e35"},"vehicle_type_id":"4","last_reported":1724778447,"current_range_meters":7600,"station_id":"ce4bgkh2rcd13ifvqbl0","pricing_plan_id":"cebpf4jnsgd1na2vs0mg"},{"bike_id":"a2ba2de1-3c1c-49e1-96c3-5bb436a09514","system_id":"levelo_inurba_marseille","lat":43.296935,"lon":5.376544,"is_reserved":false,"is_disabled":false,"rental_uris":{"android":"levelo://app?vid=a2ba2de1-3c1c-49e1-96c3-5bb436a09514","ios":"levelo://app?vid=a2ba2de1-3c1c-49e1-96c3-5bb436a09514"},"vehicle_type_id":"4","last_reported":1724778447,"current_range_meters":10400,"station_id":"ce4bgkh2rcd13ifvqbl0","pricing_plan_id":"cebpf4jnsgd1na2vs0mg"},{"bike_id":"06117520-b0f0-4b94-a802-518591df3f63","system_id":"levelo_inurba_marseille","lat":43.317557,"lon":5.390173,"is_reserved":false,"is_disabled":false,"rental_uris":{"android":"levelo://app?vid=06117520-b0f0-4b94-a802-518591df3f63","ios":"levelo://app?vid=06117520-b0f0-4b94-a802-518591df3f63"},"vehicle_type_id":"4","last_reported":1724778447,"current_range_meters":20000,"station_id":"ce4bhqp2rcd13ifvqhng","pricing_plan_id":"cebpf4jnsgd1na2vs0mg"},{"bike_id":"facbd3a6-7fb0-4d1e-a963-7668313eadcb","system_id":"levelo_inurba_marseille","lat":43.317591,"lon":5.3902,"is_reserved":false,"is_disabled":false,"rental_uris":{"android":"levelo://app?vid=facbd3a6-7fb0-4d1e-a963-7668313eadcb","ios":"levelo://app?vid=facbd3a6-7fb0-4d1e-a963-7668313eadcb"},"vehicle_type_id":"4","last_reported":1724778447,"current_range_meters":28400,"station_id":"ce4bhqp2rcd13ifvqhng","pricing_plan_id":"cebpf4jnsgd1na2vs0mg"},{"bike_id":"b687b5a9-a38a-4d18-a7eb-d145e0e2cc88","system_id":"levelo_inurba_marseille","lat":43.31763,"lon":5.39021,"is_reserved":false,"is_disabled":false,"rental_uris":{"android":"levelo://app?vid=b687b5a9-a38a-4d18-a7eb-d145e0e2cc88","ios":"levelo://app?vid=b687b5a9-a38a-4d18-a7eb-d145e0e2cc88"},"vehicle_type_id":"4","last_reported":1724778447,"current_range_meters":26800,"station_id":"ce4bhqp2rcd13ifvqhng","pricing_plan_id":"cebpf4jnsgd1na2vs0mg"},{"bike_id":"a2fc1bca-0c39-4218-b0db-539b07bfb06d","system_id":"levelo_inurba_marseille","lat":43.298037,"lon":5.381066,"is_reserved":false,"is_disabled":false,"rental_uris":{"android":"levelo://app?vid=a2fc1bca-0c39-4218-b0db-539b07bfb06d","ios":"levelo://app?vid=a2fc1bca-0c39-4218-b0db-539b07bfb06d"},"vehicle_type_id":"4","last_reported":1724778447,"current_range_meters":22000,"station_id":"ce4bgip2rcd13ifvqbb0","pricing_plan_id":"cebpf4jnsgd1na2vs0mg"},{"bike_id":"c2853eca-da6e-4a44-9f22-cabb571d3041","system_id":"levelo_inurba_marseille","lat":43.304278,"lon":5.388868,"is_reserved":false,"is_disabled":false,"rental_uris":{"android":"levelo://app?vid=c2853eca-da6e-4a44-9f22-cabb571d3041","ios":"levelo://app?vid=c2853eca-da6e-4a44-9f22-cabb571d3041"},"vehicle_type_id":"4","last_reported":1724778447,"current_range_meters":6000,"station_id":"ce4bgk12rcd13ifvqbi0","pricing_plan_id":"cebpf4jnsgd1na2vs0mg"},{"bike_id":"79a075b4-8786-4b7f-abca-8acd7092f0d7","system_id":"levelo_inurba_marseille","lat":43.295748,"lon":5.37522,"is_reserved":false,"is_disabled":false,"rental_uris":{"android":"levelo://app?vid=79a075b4-8786-4b7f-abca-8acd7092f0d7","ios":"levelo://app?vid=79a075b4-8786-4b7f-abca-8acd7092f0d7"},"vehicle_type_id":"4","last_reported":1724778447,"current_range_meters":21200,"station_id":"ce4bgh92rcd13ifvqb50","pricing_plan_id":"cebpf4jnsgd1na2vs0mg"},{"bike_id":"39da440c-fc45-45b8-b649-936a2706c410","system_id":"levelo_inurba_marseille","lat":43.304274,"lon":5.388873,"is_reserved":false,"is_disabled":false,"rental_uris":{"android":"levelo://app?vid=39da440c-fc45-45b8-b649-936a2706c410","ios":"levelo://app?vid=39da440c-fc45-45b8-b649-936a2706c410"},"vehicle_type_id":"4","last_reported":1724778447,"current_range_meters":4000,"station_id":"ce4bgk12rcd13ifvqbi0","pricing_plan_id":"cebpf4jnsgd1na2vs0mg"},{"bike_id":"2d16b552-c207-4a91-96b6-f4f6d99724af","system_id":"levelo_inurba_marseille","lat":43.296277,"lon":5.377108,"is_reserved":false,"is_disabled":false,"rental_uris":{"android":"levelo://app?vid=2d16b552-c207-4a91-96b6-f4f6d99724af","ios":"levelo://app?vid=2d16b552-c207-4a91-96b6-f4f6d99724af"},"vehicle_type_id":"4","last_reported":1724778447,"current_range_meters":6000,"station_id":"ce4bgi92rcd13ifvqb90","pricing_plan_id":"cebpf4jnsgd1na2vs0mg"},{"bike_id":"1193396b-9abf-4914-95a2-6879828ecb9a","system_id":"levelo_inurba_marseille","lat":43.296263,"lon":5.377094,"is_reserved":false,"is_disabled":false,"rental_uris":{"android":"levelo://app?vid=1193396b-9abf-4914-95a2-6879828ecb9a","ios":"levelo://app?vid=1193396b-9abf-4914-95a2-6879828ecb9a"},"vehicle_type_id":"4","last_reported":1724778447,"current_range_meters":24000,"station_id":"ce4bgi92rcd13ifvqb90","pricing_plan_id":"cebpf4jnsgd1na2vs0mg"},{"bike_id":"018d141a-601a-463d-9059-3a5d0cb2215c","system_id":"levelo_inurba_marseille","lat":43.296263,"lon":5.377094,"is_reserved":false,"is_disabled":false,"rental_uris":{"android":"levelo://app?vid=018d141a-601a-463d-9059-3a5d0cb2215c","ios":"levelo://app?vid=018d141a-601a-463d-9059-3a5d0cb2215c"},"vehicle_type_id":"4","last_reported":1724778447,"current_range_meters":19200,"station_id":"ce4bgi92rcd13ifvqb90","pricing_plan_id":"cebpf4jnsgd1na2vs0mg"},{"bike_id":"e9bc492a-1d1c-4662-a529-28d81fda7fad","system_id":"levelo_inurba_marseille","lat":43.299707,"lon":5.384859,"is_reserved":false,"is_disabled":false,"rental_uris":{"android":"levelo://app?vid=e9bc492a-1d1c-4662-a529-28d81fda7fad","ios":"levelo://app?vid=e9bc492a-1d1c-4662-a529-28d81fda7fad"},"vehicle_type_id":"4","last_reported":1724778447,"current_range_meters":12000,"station_id":"ce4bgj92rcd13ifvqbd0","pricing_plan_id":"cebpf4jnsgd1na2vs0mg"},{"bike_id":"b1970f76-da6d-489a-8c19-b9a46e40ccda","system_id":"levelo_inurba_marseille","lat":43.295279,"lon":5.375048,"is_reserved":false,"is_disabled":false,"rental_uris":{"android":"levelo://app?vid=b1970f76-da6d-489a-8c19-b9a46e40ccda","ios":"levelo://app?vid=b1970f76-da6d-489a-8c19-b9a46e40ccda"},"vehicle_type_id":"4","last_reported":1724778447,"current_range_meters":29600,"station_id":"ce4bgkp2rcd13ifvqbmg","pricing_plan_id":"cebpf4jnsgd1na2vs0mg"},{"bike_id":"fa3cbe1c-ea58-4a65-bfcb-4a42d64fda1b","system_id":"levelo_inurba_marseille","lat":43.299724,"lon":5.384848,"is_reserved":false,"is_disabled":false,"rental_uris":{"android":"levelo://app?vid=fa3cbe1c-ea58-4a65-bfcb-4a42d64fda1b","ios":"levelo://app?vid=fa3cbe1c-ea58-4a65-bfcb-4a42d64fda1b"},"vehicle_type_id":"4","last_reported":1724778447,"current_range_meters":12000,"station_id":"ce4bgj92rcd13ifvqbd0","pricing_plan_id":"cebpf4jnsgd1na2vs0mg"},{"bike_id":"0c78df30-c259-4f2c-9ea3-322a60c46155","system_id":"levelo_inurba_marseille","lat":43.299707,"lon":5.384859,"is_reserved":false,"is_disabled":false,"rental_uris":{"android":"levelo://app?vid=0c78df30-c259-4f2c-9ea3-322a60c46155","ios":"levelo://app?vid=0c78df30-c259-4f2c-9ea3-322a60c46155"},"vehicle_type_id":"4","last_reported":1724778447,"current_range_meters":0,"station_id":"ce4bgj92rcd13ifvqbd0","pricing_plan_id":"cebpf4jnsgd1na2vs0mg"},{"bike_id":"2adfe107-668b-44d1-adaf-6237f6babf3a","system_id":"levelo_inurba_marseille","lat":43.2997,"lon":5.384817,"is_reserved":false,"is_disabled":false,"rental_uris":{"android":"levelo://app?vid=2adfe107-668b-44d1-adaf-6237f6babf3a","ios":"levelo://app?vid=2adfe107-668b-44d1-adaf-6237f6babf3a"},"vehicle_type_id":"4","last_reported":1724778447,"current_range_meters":0,"station_id":"ce4bgj92rcd13ifvqbd0","pricing_plan_id":"cebpf4jnsgd1na2vs0mg"},{"bike_id":"2564816f-ea44-41a1-816b-2159d09f2d88","system_id":"levelo_inurba_marseille","lat":43.29971,"lon":5.38489,"is_reserved":false,"is_disabled":false,"rental_uris":{"android":"levelo://app?vid=2564816f-ea44-41a1-816b-2159d09f2d88","ios":"levelo://app?vid=2564816f-ea44-41a1-816b-2159d09f2d88"},"vehicle_type_id":"4","last_reported":1724778447,"current_range_meters":0,"station_id":"ce4bgj92rcd13ifvqbd0","pricing_plan_id":"cebpf4jnsgd1na2vs0mg"},{"bike_id":"4b05a227-c6a6-4ac3-bfdd-1848aa1db33d","system_id":"levelo_inurba_marseille","lat":43.29526,"lon":5.37514,"is_reserved":false,"is_disabled":false,"rental_uris":{"android":"levelo://app?vid=4b05a227-c6a6-4ac3-bfdd-1848aa1db33d","ios":"levelo://app?vid=4b05a227-c6a6-4ac3-bfdd-1848aa1db33d"},"vehicle_type_id":"4","last_reported":1724778447,"current_range_meters":20400,"station_id":"ce4bgkp2rcd13ifvqbmg","pricing_plan_id":"cebpf4jnsgd1na2vs0mg"},{"bike_id":"c47c678e-a48c-465d-b976-ad5a14e4541f","system_id":"levelo_inurba_marseille","lat":43.299717,"lon":5.384845,"is_reserved":false,"is_disabled":false,"rental_uris":{"android":"levelo://app?vid=c47c678e-a48c-465d-b976-ad5a14e4541f","ios":"levelo://app?vid=c47c678e-a48c-465d-b976-ad5a14e4541f"},"vehicle_type_id":"4","last_reported":1724778447,"current_range_meters":11200,"station_id":"ce4bgj92rcd13ifvqbd0","pricing_plan_id":"cebpf4jnsgd1na2vs0mg"},{"bike_id":"27346c20-73c9-4b89-b042-efd5f0635d6a","system_id":"levelo_inurba_marseille","lat":43.299717,"lon":5.384845,"is_reserved":false,"is_disabled":false,"rental_uris":{"android":"levelo://app?vid=27346c20-73c9-4b89-b042-efd5f0635d6a","ios":"levelo://app?vid=27346c20-73c9-4b89-b042-efd5f0635d6a"},"vehicle_type_id":"4","last_reported":1724778447,"current_range_meters":1600,"station_id":"ce4bgj92rcd13ifvqbd0","pricing_plan_id":"cebpf4jnsgd1na2vs0mg"},{"bike_id":"14976e6b-a33d-458f-8087-5d1ae4e2e73f","system_id":"levelo_inurba_marseille","lat":43.299717,"lon":5.384845,"is_reserved":false,"is_disabled":false,"rental_uris":{"android":"levelo://app?vid=14976e6b-a33d-458f-8087-5d1ae4e2e73f","ios":"levelo://app?vid=14976e6b-a33d-458f-8087-5d1ae4e2e73f"},"vehicle_type_id":"4","last_reported":1724778447,"current_range_meters":23600,"station_id":"ce4bgj92rcd13ifvqbd0","pricing_plan_id":"cebpf4jnsgd1na2vs0mg"},{"bike_id":"52d086cb-a110-4939-a671-5a51021e4145","system_id":"levelo_inurba_marseille","lat":43.29517,"lon":5.3751,"is_reserved":false,"is_disabled":false,"rental_uris":{"android":"levelo://app?vid=52d086cb-a110-4939-a671-5a51021e4145","ios":"levelo://app?vid=52d086cb-a110-4939-a671-5a51021e4145"},"vehicle_type_id":"4","last_reported":1724778447,"current_range_meters":0,"station_id":"ce4bgkp2rcd13ifvqbmg","pricing_plan_id":"cebpf4jnsgd1na2vs0mg"},{"bike_id":"00497f98-ba39-4e77-a8d3-5e1d638146e4","system_id":"levelo_inurba_marseille","lat":43.301396,"lon":5.387812,"is_reserved":false,"is_disabled":false,"rental_uris":{"android":"levelo://app?vid=00497f98-ba39-4e77-a8d3-5e1d638146e4","ios":"levelo://app?vid=00497f98-ba39-4e77-a8d3-5e1d638146e4"},"vehicle_type_id":"4","last_reported":1724778447,"current_range_meters":0,"station_id":"ce4bghh2rcd13ifvqb60","pricing_plan_id":"cebpf4jnsgd1na2vs0mg"},{"bike_id":"92783a0f-977b-483b-aa89-d5f7902ccb4d","system_id":"levelo_inurba_marseille","lat":43.301396,"lon":5.387812,"is_reserved":false,"is_disabled":false,"rental_uris":{"android":"levelo://app?vid=92783a0f-977b-483b-aa89-d5f7902ccb4d","ios":"levelo://app?vid=92783a0f-977b-483b-aa89-d5f7902ccb4d"},"vehicle_type_id":"4","last_reported":1724778447,"current_range_meters":21200,"station_id":"ce4bghh2rcd13ifvqb60","pricing_plan_id":"cebpf4jnsgd1na2vs0mg"},{"bike_id":"39ac763f-ac53-4788-bf9a-7715198e0466","system_id":"levelo_inurba_marseille","lat":43.301396,"lon":5.387812,"is_reserved":false,"is_disabled":false,"rental_uris":{"android":"levelo://app?vid=39ac763f-ac53-4788-bf9a-7715198e0466","ios":"levelo://app?vid=39ac763f-ac53-4788-bf9a-7715198e0466"},"vehicle_type_id":"4","last_reported":1724778447,"current_range_meters":19200,"station_id":"ce4bghh2rcd13ifvqb60","pricing_plan_id":"cebpf4jnsgd1na2vs0mg"},{"bike_id":"14e9ff80-9ba6-4945-8a43-a3177ed5aa0d","system_id":"levelo_inurba_marseille","lat":43.32367,"lon":5.388836,"is_reserved":false,"is_disabled":false,"rental_uris":{"android":"levelo://app?vid=14e9ff80-9ba6-4945-8a43-a3177ed5aa0d","ios":"levelo://app?vid=14e9ff80-9ba6-4945-8a43-a3177ed5aa0d"},"vehicle_type_id":"4","last_reported":1724778447,"current_range_meters":10800,"station_id":"ce4bhqp2rcd13ifvqhog","pricing_plan_id":"cebpf4jnsgd1na2vs0mg"},{"bike_id":"9f9c9a6b-a09a-4196-868c-350569c63aa7","system_id":"levelo_inurba_marseille","lat":43.294314,"lon":5.397498,"is_reserved":false,"is_disabled":false,"rental_uris":{"android":"levelo://app?vid=9f9c9a6b-a09a-4196-868c-350569c63aa7","ios":"levelo://app?vid=9f9c9a6b-a09a-4196-868c-350569c63aa7"},"vehicle_type_id":"4","last_reported":1724778447,"current_range_meters":23200,"station_id":"ce4bh3h2rcd13ifvqdo0","pricing_plan_id":"cebpf4jnsgd1na2vs0mg"},{"bike_id":"6fb1374a-234a-4a36-846e-5b54582a2d57","system_id":"levelo_inurba_marseille","lat":43.32367,"lon":5.388836,"is_reserved":false,"is_disabled":false,"rental_uris":{"android":"levelo://app?vid=6fb1374a-234a-4a36-846e-5b54582a2d57","ios":"levelo://app?vid=6fb1374a-234a-4a36-846e-5b54582a2d57"},"vehicle_type_id":"4","last_reported":1724778447,"current_range_meters":13200,"station_id":"ce4bhqp2rcd13ifvqhog","pricing_plan_id":"cebpf4jnsgd1na2vs0mg"},{"bike_id":"e5589cd9-2c09-4000-af1f-4b53a93e81b4","system_id":"levelo_inurba_marseille","lat":43.32367,"lon":5.388836,"is_reserved":false,"is_disabled":false,"rental_uris":{"android":"levelo://app?vid=e5589cd9-2c09-4000-af1f-4b53a93e81b4","ios":"levelo://app?vid=e5589cd9-2c09-4000-af1f-4b53a93e81b4"},"vehicle_type_id":"4","last_reported":1724778447,"current_range_meters":30000,"station_id":"ce4bhqp2rcd13ifvqhog","pricing_plan_id":"cebpf4jnsgd1na2vs0mg"},{"bike_id":"01491de9-678c-4b65-91ff-e6d3c409956b","system_id":"levelo_inurba_marseille","lat":43.32367,"lon":5.388836,"is_reserved":false,"is_disabled":false,"rental_uris":{"android":"levelo://app?vid=01491de9-678c-4b65-91ff-e6d3c409956b","ios":"levelo://app?vid=01491de9-678c-4b65-91ff-e6d3c409956b"},"vehicle_type_id":"4","last_reported":1724778447,"current_range_meters":6800,"station_id":"ce4bhqp2rcd13ifvqhog","pricing_plan_id":"cebpf4jnsgd1na2vs0mg"},{"bike_id":"f1d1c9f9-40d3-4e46-ace4-fbcaebdfc48a","system_id":"levelo_inurba_marseille","lat":43.29602,"lon":5.381084,"is_reserved":false,"is_disabled":false,"rental_uris":{"android":"levelo://app?vid=f1d1c9f9-40d3-4e46-ace4-fbcaebdfc48a","ios":"levelo://app?vid=f1d1c9f9-40d3-4e46-ace4-fbcaebdfc48a"},"vehicle_type_id":"4","last_reported":1724778447,"current_range_meters":8000,"station_id":"ce4bgl12rcd13ifvqbo0","pricing_plan_id":"cebpf4jnsgd1na2vs0mg"},{"bike_id":"9dd452fc-b636-4aff-b7bc-3e5711b6f6ca","system_id":"levelo_inurba_marseille","lat":43.29602,"lon":5.381084,"is_reserved":false,"is_disabled":false,"rental_uris":{"android":"levelo://app?vid=9dd452fc-b636-4aff-b7bc-3e5711b6f6ca","ios":"levelo://app?vid=9dd452fc-b636-4aff-b7bc-3e5711b6f6ca"},"vehicle_type_id":"4","last_reported":1724778447,"current_range_meters":1600,"station_id":"ce4bgl12rcd13ifvqbo0","pricing_plan_id":"cebpf4jnsgd1na2vs0mg"},{"bike_id":"d58cd254-df72-4a70-b5f1-7dbcf1e0fba5","system_id":"levelo_inurba_marseille","lat":43.29602,"lon":5.381084,"is_reserved":false,"is_disabled":false,"rental_uris":{"android":"levelo://app?vid=d58cd254-df72-4a70-b5f1-7dbcf1e0fba5","ios":"levelo://app?vid=d58cd254-df72-4a70-b5f1-7dbcf1e0fba5"},"vehicle_type_id":"4","last_reported":1724778447,"current_range_meters":20400,"station_id":"ce4bgl12rcd13ifvqbo0","pricing_plan_id":"cebpf4jnsgd1na2vs0mg"},{"bike_id":"c0bb4a30-c81f-4838-849d-1b7fa70572ff","system_id":"levelo_inurba_marseille","lat":43.29304,"lon":5.37166,"is_reserved":false,"is_disabled":false,"rental_uris":{"android":"levelo://app?vid=c0bb4a30-c81f-4838-849d-1b7fa70572ff","ios":"levelo://app?vid=c0bb4a30-c81f-4838-849d-1b7fa70572ff"},"vehicle_type_id":"4","last_reported":1724778447,"current_range_meters":0,"station_id":"ce4bgh92rcd13ifvqb40","pricing_plan_id":"cebpf4jnsgd1na2vs0mg"},{"bike_id":"b7b9cea8-9030-49e3-a7de-6d9b1e215523","system_id":"levelo_inurba_marseille","lat":43.293009,"lon":5.374584,"is_reserved":false,"is_disabled":false,"rental_uris":{"android":"levelo://app?vid=b7b9cea8-9030-49e3-a7de-6d9b1e215523","ios":"levelo://app?vid=b7b9cea8-9030-49e3-a7de-6d9b1e215523"},"vehicle_type_id":"4","last_reported":1724778447,"current_range_meters":14400,"station_id":"ce4bgi12rcd13ifvqb70","pricing_plan_id":"cebpf4jnsgd1na2vs0mg"},{"bike_id":"100ad80b-dad2-41dd-b1e2-91852aca8fda","system_id":"levelo_inurba_marseille","lat":43.293009,"lon":5.374584,"is_reserved":false,"is_disabled":false,"rental_uris":{"android":"levelo://app?vid=100ad80b-dad2-41dd-b1e2-91852aca8fda","ios":"levelo://app?vid=100ad80b-dad2-41dd-b1e2-91852aca8fda"},"vehicle_type_id":"4","last_reported":1724778447,"current_range_meters":0,"station_id":"ce4bgi12rcd13ifvqb70","pricing_plan_id":"cebpf4jnsgd1na2vs0mg"},{"bike_id":"c5840adc-a000-4972-acb2-895f10d1f27a","system_id":"levelo_inurba_marseille","lat":43.293009,"lon":5.374584,"is_reserved":false,"is_disabled":false,"rental_uris":{"android":"levelo://app?vid=c5840adc-a000-4972-acb2-895f10d1f27a","ios":"levelo://app?vid=c5840adc-a000-4972-acb2-895f10d1f27a"},"vehicle_type_id":"4","last_reported":1724778447,"current_range_meters":0,"station_id":"ce4bgi12rcd13ifvqb70","pricing_plan_id":"cebpf4jnsgd1na2vs0mg"},{"bike_id":"34e6a5a7-0684-4cf2-83e2-eda5ba3b0eb3","system_id":"levelo_inurba_marseille","lat":43.30301,"lon":5.39205,"is_reserved":false,"is_disabled":false,"rental_uris":{"android":"levelo://app?vid=34e6a5a7-0684-4cf2-83e2-eda5ba3b0eb3","ios":"levelo://app?vid=34e6a5a7-0684-4cf2-83e2-eda5ba3b0eb3"},"vehicle_type_id":"4","last_reported":1724778447,"current_range_meters":0,"station_id":"ce4bgkh2rcd13ifvqbk0","pricing_plan_id":"cebpf4jnsgd1na2vs0mg"},{"bike_id":"e549140e-7655-43f6-93a4-d913fefd4248","system_id":"levelo_inurba_marseille","lat":43.30304,"lon":5.39209,"is_reserved":false,"is_disabled":false,"rental_uris":{"android":"levelo://app?vid=e549140e-7655-43f6-93a4-d913fefd4248","ios":"levelo://app?vid=e549140e-7655-43f6-93a4-d913fefd4248"},"vehicle_type_id":"4","last_reported":1724778447,"current_range_meters":0,"station_id":"ce4bgkh2rcd13ifvqbk0","pricing_plan_id":"cebpf4jnsgd1na2vs0mg"},{"bike_id":"317e7d29-4753-4c21-80b7-77872606286c","system_id":"levelo_inurba_marseille","lat":43.302992,"lon":5.392136,"is_reserved":false,"is_disabled":false,"rental_uris":{"android":"levelo://app?vid=317e7d29-4753-4c21-80b7-77872606286c","ios":"levelo://app?vid=317e7d29-4753-4c21-80b7-77872606286c"},"vehicle_type_id":"4","last_reported":1724778447,"current_range_meters":8800,"station_id":"ce4bgkh2rcd13ifvqbk0","pricing_plan_id":"cebpf4jnsgd1na2vs0mg"},{"bike_id":"088d1026-551f-4aa5-8adf-79bdd594337f","system_id":"levelo_inurba_marseille","lat":43.30294,"lon":5.39211,"is_reserved":false,"is_disabled":false,"rental_uris":{"android":"levelo://app?vid=088d1026-551f-4aa5-8adf-79bdd594337f","ios":"levelo://app?vid=088d1026-551f-4aa5-8adf-79bdd594337f"},"vehicle_type_id":"4","last_reported":1724778447,"current_range_meters":2000,"station_id":"ce4bgkh2rcd13ifvqbk0","pricing_plan_id":"cebpf4jnsgd1na2vs0mg"},{"bike_id":"be481ec0-d263-42f9-ae67-5982c3a90354","system_id":"levelo_inurba_marseille","lat":43.302992,"lon":5.392136,"is_reserved":false,"is_disabled":false,"rental_uris":{"android":"levelo://app?vid=be481ec0-d263-42f9-ae67-5982c3a90354","ios":"levelo://app?vid=be481ec0-d263-42f9-ae67-5982c3a90354"},"vehicle_type_id":"4","last_reported":1724778447,"current_range_meters":9600,"station_id":"ce4bgkh2rcd13ifvqbk0","pricing_plan_id":"cebpf4jnsgd1na2vs0mg"},{"bike_id":"86405432-1d86-4cd2-80fa-a2b13557c484","system_id":"levelo_inurba_marseille","lat":43.302992,"lon":5.392136,"is_reserved":false,"is_disabled":false,"rental_uris":{"android":"levelo://app?vid=86405432-1d86-4cd2-80fa-a2b13557c484","ios":"levelo://app?vid=86405432-1d86-4cd2-80fa-a2b13557c484"},"vehicle_type_id":"4","last_reported":1724778447,"current_range_meters":16000,"station_id":"ce4bgkh2rcd13ifvqbk0","pricing_plan_id":"cebpf4jnsgd1na2vs0mg"},{"bike_id":"d9157b50-4c81-4458-918b-4d85acf257e6","system_id":"levelo_inurba_marseille","lat":43.30085,"lon":5.390856,"is_reserved":false,"is_disabled":false,"rental_uris":{"android":"levelo://app?vid=d9157b50-4c81-4458-918b-4d85acf257e6","ios":"levelo://app?vid=d9157b50-4c81-4458-918b-4d85acf257e6"},"vehicle_type_id":"4","last_reported":1724778447,"current_range_meters":25600,"station_id":"ce4bh192rcd13ifvqdb0","pricing_plan_id":"cebpf4jnsgd1na2vs0mg"},{"bike_id":"ed6b0e18-cd78-48b2-a4c8-16bd8c8e945a","system_id":"levelo_inurba_marseille","lat":43.292311,"lon":5.360731,"is_reserved":false,"is_disabled":false,"rental_uris":{"android":"levelo://app?vid=ed6b0e18-cd78-48b2-a4c8-16bd8c8e945a","ios":"levelo://app?vid=ed6b0e18-cd78-48b2-a4c8-16bd8c8e945a"},"vehicle_type_id":"4","last_reported":1724778447,"current_range_meters":0,"station_id":"ce4bhbh2rcd13ifvqeqg","pricing_plan_id":"cebpf4jnsgd1na2vs0mg"},{"bike_id":"78f3658e-cc3b-4ef8-bc36-004a9af3f46c","system_id":"levelo_inurba_marseille","lat":43.292311,"lon":5.360731,"is_reserved":false,"is_disabled":false,"rental_uris":{"android":"levelo://app?vid=78f3658e-cc3b-4ef8-bc36-004a9af3f46c","ios":"levelo://app?vid=78f3658e-cc3b-4ef8-bc36-004a9af3f46c"},"vehicle_type_id":"4","last_reported":1724778447,"current_range_meters":5200,"station_id":"ce4bhbh2rcd13ifvqeqg","pricing_plan_id":"cebpf4jnsgd1na2vs0mg"},{"bike_id":"92c7b953-43ee-43df-ad6a-198ac64b5e51","system_id":"levelo_inurba_marseille","lat":43.292311,"lon":5.360731,"is_reserved":false,"is_disabled":false,"rental_uris":{"android":"levelo://app?vid=92c7b953-43ee-43df-ad6a-198ac64b5e51","ios":"levelo://app?vid=92c7b953-43ee-43df-ad6a-198ac64b5e51"},"vehicle_type_id":"4","last_reported":1724778447,"current_range_meters":2800,"station_id":"ce4bhbh2rcd13ifvqeqg","pricing_plan_id":"cebpf4jnsgd1na2vs0mg"},{"bike_id":"3d9d4af7-1bfa-4cbe-815a-1c4f46d9069d","system_id":"levelo_inurba_marseille","lat":43.292311,"lon":5.360731,"is_reserved":false,"is_disabled":false,"rental_uris":{"android":"levelo://app?vid=3d9d4af7-1bfa-4cbe-815a-1c4f46d9069d","ios":"levelo://app?vid=3d9d4af7-1bfa-4cbe-815a-1c4f46d9069d"},"vehicle_type_id":"4","last_reported":1724778447,"current_range_meters":12000,"station_id":"ce4bhbh2rcd13ifvqeqg","pricing_plan_id":"cebpf4jnsgd1na2vs0mg"},{"bike_id":"5e86a2a8-99d7-46f2-b1e4-b2b2ded19bf0","system_id":"levelo_inurba_marseille","lat":43.2922,"lon":5.36065,"is_reserved":false,"is_disabled":false,"rental_uris":{"android":"levelo://app?vid=5e86a2a8-99d7-46f2-b1e4-b2b2ded19bf0","ios":"levelo://app?vid=5e86a2a8-99d7-46f2-b1e4-b2b2ded19bf0"},"vehicle_type_id":"4","last_reported":1724778447,"current_range_meters":0,"station_id":"ce4bhbh2rcd13ifvqeqg","pricing_plan_id":"cebpf4jnsgd1na2vs0mg"},{"bike_id":"abfc13dd-4ba6-46c8-ba77-29fe1fa3a658","system_id":"levelo_inurba_marseille","lat":43.298764,"lon":5.388973,"is_reserved":false,"is_disabled":false,"rental_uris":{"android":"levelo://app?vid=abfc13dd-4ba6-46c8-ba77-29fe1fa3a658","ios":"levelo://app?vid=abfc13dd-4ba6-46c8-ba77-29fe1fa3a658"},"vehicle_type_id":"4","last_reported":1724778447,"current_range_meters":1200,"station_id":"ce4bh392rcd13ifvqdl0","pricing_plan_id":"cebpf4jnsgd1na2vs0mg"},{"bike_id":"aeece60c-27ef-4280-8634-d36f30bcf75c","system_id":"levelo_inurba_marseille","lat":43.298764,"lon":5.388973,"is_reserved":false,"is_disabled":false,"rental_uris":{"android":"levelo://app?vid=aeece60c-27ef-4280-8634-d36f30bcf75c","ios":"levelo://app?vid=aeece60c-27ef-4280-8634-d36f30bcf75c"},"vehicle_type_id":"4","last_reported":1724778447,"current_range_meters":7200,"station_id":"ce4bh392rcd13ifvqdl0","pricing_plan_id":"cebpf4jnsgd1na2vs0mg"},{"bike_id":"59aec263-3427-4373-b927-28eac8d2ad2c","system_id":"levelo_inurba_marseille","lat":43.292311,"lon":5.360731,"is_reserved":false,"is_disabled":false,"rental_uris":{"android":"levelo://app?vid=59aec263-3427-4373-b927-28eac8d2ad2c","ios":"levelo://app?vid=59aec263-3427-4373-b927-28eac8d2ad2c"},"vehicle_type_id":"4","last_reported":1724778447,"current_range_meters":24000,"station_id":"ce4bhbh2rcd13ifvqeqg","pricing_plan_id":"cebpf4jnsgd1na2vs0mg"},{"bike_id":"13995e3b-75bb-492e-bf2d-2415b2d56026","system_id":"levelo_inurba_marseille","lat":43.298764,"lon":5.388973,"is_reserved":false,"is_disabled":false,"rental_uris":{"android":"levelo://app?vid=13995e3b-75bb-492e-bf2d-2415b2d56026","ios":"levelo://app?vid=13995e3b-75bb-492e-bf2d-2415b2d56026"},"vehicle_type_id":"4","last_reported":1724778447,"current_range_meters":24000,"station_id":"ce4bh392rcd13ifvqdl0","pricing_plan_id":"cebpf4jnsgd1na2vs0mg"},{"bike_id":"7070b70e-7416-4989-b44f-f17b98d3f151","system_id":"levelo_inurba_marseille","lat":43.298764,"lon":5.388973,"is_reserved":false,"is_disabled":false,"rental_uris":{"android":"levelo://app?vid=7070b70e-7416-4989-b44f-f17b98d3f151","ios":"levelo://app?vid=7070b70e-7416-4989-b44f-f17b98d3f151"},"vehicle_type_id":"4","last_reported":1724778447,"current_range_meters":7200,"station_id":"ce4bh392rcd13ifvqdl0","pricing_plan_id":"cebpf4jnsgd1na2vs0mg"},{"bike_id":"1673bad8-2d88-405d-8bae-8d69d4aa87ae","system_id":"levelo_inurba_marseille","lat":43.29874,"lon":5.38895,"is_reserved":false,"is_disabled":false,"rental_uris":{"android":"levelo://app?vid=1673bad8-2d88-405d-8bae-8d69d4aa87ae","ios":"levelo://app?vid=1673bad8-2d88-405d-8bae-8d69d4aa87ae"},"vehicle_type_id":"4","last_reported":1724778447,"current_range_meters":0,"station_id":"ce4bh392rcd13ifvqdl0","pricing_plan_id":"cebpf4jnsgd1na2vs0mg"},{"bike_id":"4ab1e4d4-0051-4d4a-a4a0-9348737d1ad5","system_id":"levelo_inurba_marseille","lat":43.298764,"lon":5.388973,"is_reserved":false,"is_disabled":false,"rental_uris":{"android":"levelo://app?vid=4ab1e4d4-0051-4d4a-a4a0-9348737d1ad5","ios":"levelo://app?vid=4ab1e4d4-0051-4d4a-a4a0-9348737d1ad5"},"vehicle_type_id":"4","last_reported":1724778447,"current_range_meters":19200,"station_id":"ce4bh392rcd13ifvqdl0","pricing_plan_id":"cebpf4jnsgd1na2vs0mg"},{"bike_id":"3a2e2d80-0562-44a8-b48d-3e2aba510a3c","system_id":"levelo_inurba_marseille","lat":43.298764,"lon":5.388973,"is_reserved":false,"is_disabled":false,"rental_uris":{"android":"levelo://app?vid=3a2e2d80-0562-44a8-b48d-3e2aba510a3c","ios":"levelo://app?vid=3a2e2d80-0562-44a8-b48d-3e2aba510a3c"},"vehicle_type_id":"4","last_reported":1724778447,"current_range_meters":15200,"station_id":"ce4bh392rcd13ifvqdl0","pricing_plan_id":"cebpf4jnsgd1na2vs0mg"},{"bike_id":"94d138f2-e413-4dcd-b571-5b5d147c9843","system_id":"levelo_inurba_marseille","lat":43.292005,"lon":5.357875,"is_reserved":false,"is_disabled":false,"rental_uris":{"android":"levelo://app?vid=94d138f2-e413-4dcd-b571-5b5d147c9843","ios":"levelo://app?vid=94d138f2-e413-4dcd-b571-5b5d147c9843"},"vehicle_type_id":"4","last_reported":1724778447,"current_range_meters":4000,"station_id":"ce4bhb12rcd13ifvqel0","pricing_plan_id":"cebpf4jnsgd1na2vs0mg"},{"bike_id":"4506975d-278f-4c7d-b51c-61c44281fbf0","system_id":"levelo_inurba_marseille","lat":43.292005,"lon":5.357875,"is_reserved":false,"is_disabled":false,"rental_uris":{"android":"levelo://app?vid=4506975d-278f-4c7d-b51c-61c44281fbf0","ios":"levelo://app?vid=4506975d-278f-4c7d-b51c-61c44281fbf0"},"vehicle_type_id":"4","last_reported":1724778447,"current_range_meters":26800,"station_id":"ce4bhb12rcd13ifvqel0","pricing_plan_id":"cebpf4jnsgd1na2vs0mg"},{"bike_id":"334d7592-7952-499b-808a-dcf150a7e4ed","system_id":"levelo_inurba_marseille","lat":43.292005,"lon":5.357875,"is_reserved":false,"is_disabled":false,"rental_uris":{"android":"levelo://app?vid=334d7592-7952-499b-808a-dcf150a7e4ed","ios":"levelo://app?vid=334d7592-7952-499b-808a-dcf150a7e4ed"},"vehicle_type_id":"4","last_reported":1724778447,"current_range_meters":28800,"station_id":"ce4bhb12rcd13ifvqel0","pricing_plan_id":"cebpf4jnsgd1na2vs0mg"},{"bike_id":"10c9397a-20c9-42b7-b03f-ad1b2b796b19","system_id":"levelo_inurba_marseille","lat":43.292005,"lon":5.357875,"is_reserved":false,"is_disabled":false,"rental_uris":{"android":"levelo://app?vid=10c9397a-20c9-42b7-b03f-ad1b2b796b19","ios":"levelo://app?vid=10c9397a-20c9-42b7-b03f-ad1b2b796b19"},"vehicle_type_id":"4","last_reported":1724778447,"current_range_meters":24400,"station_id":"ce4bhb12rcd13ifvqel0","pricing_plan_id":"cebpf4jnsgd1na2vs0mg"},{"bike_id":"2f847520-b498-4b92-bf0b-682652d5ce95","system_id":"levelo_inurba_marseille","lat":43.292005,"lon":5.357875,"is_reserved":false,"is_disabled":false,"rental_uris":{"android":"levelo://app?vid=2f847520-b498-4b92-bf0b-682652d5ce95","ios":"levelo://app?vid=2f847520-b498-4b92-bf0b-682652d5ce95"},"vehicle_type_id":"4","last_reported":1724778447,"current_range_meters":2800,"station_id":"ce4bhb12rcd13ifvqel0","pricing_plan_id":"cebpf4jnsgd1na2vs0mg"},{"bike_id":"1b805807-6057-414f-9eb2-427c1cf3cde3","system_id":"levelo_inurba_marseille","lat":43.292005,"lon":5.357875,"is_reserved":false,"is_disabled":false,"rental_uris":{"android":"levelo://app?vid=1b805807-6057-414f-9eb2-427c1cf3cde3","ios":"levelo://app?vid=1b805807-6057-414f-9eb2-427c1cf3cde3"},"vehicle_type_id":"4","last_reported":1724778447,"current_range_meters":17600,"station_id":"ce4bhb12rcd13ifvqel0","pricing_plan_id":"cebpf4jnsgd1na2vs0mg"},{"bike_id":"a0f439af-c84f-4a9d-b79a-8abc11678814","system_id":"levelo_inurba_marseille","lat":43.29193,"lon":5.35802,"is_reserved":false,"is_disabled":false,"rental_uris":{"android":"levelo://app?vid=a0f439af-c84f-4a9d-b79a-8abc11678814","ios":"levelo://app?vid=a0f439af-c84f-4a9d-b79a-8abc11678814"},"vehicle_type_id":"4","last_reported":1724778447,"current_range_meters":27600,"station_id":"ce4bhb12rcd13ifvqel0","pricing_plan_id":"cebpf4jnsgd1na2vs0mg"},{"bike_id":"3ab130f3-17d0-4489-9c67-ff7018257b70","system_id":"levelo_inurba_marseille","lat":43.313291,"lon":5.396838,"is_reserved":false,"is_disabled":false,"rental_uris":{"android":"levelo://app?vid=3ab130f3-17d0-4489-9c67-ff7018257b70","ios":"levelo://app?vid=3ab130f3-17d0-4489-9c67-ff7018257b70"},"vehicle_type_id":"4","last_reported":1724778447,"current_range_meters":24400,"station_id":"ce4bgvp2rcd13ifvqcu0","pricing_plan_id":"cebpf4jnsgd1na2vs0mg"},{"bike_id":"7acfc564-07a0-4acf-86cd-8d7e2785f8b5","system_id":"levelo_inurba_marseille","lat":43.313291,"lon":5.396838,"is_reserved":false,"is_disabled":false,"rental_uris":{"android":"levelo://app?vid=7acfc564-07a0-4acf-86cd-8d7e2785f8b5","ios":"levelo://app?vid=7acfc564-07a0-4acf-86cd-8d7e2785f8b5"},"vehicle_type_id":"4","last_reported":1724778447,"current_range_meters":400,"station_id":"ce4bgvp2rcd13ifvqcu0","pricing_plan_id":"cebpf4jnsgd1na2vs0mg"},{"bike_id":"58e295b0-4db7-4439-982d-f697e1d8381a","system_id":"levelo_inurba_marseille","lat":43.31331,"lon":5.39691,"is_reserved":false,"is_disabled":false,"rental_uris":{"android":"levelo://app?vid=58e295b0-4db7-4439-982d-f697e1d8381a","ios":"levelo://app?vid=58e295b0-4db7-4439-982d-f697e1d8381a"},"vehicle_type_id":"4","last_reported":1724778447,"current_range_meters":0,"station_id":"ce4bgvp2rcd13ifvqcu0","pricing_plan_id":"cebpf4jnsgd1na2vs0mg"},{"bike_id":"6e3988fe-2c71-4040-9f02-97fe576787e8","system_id":"levelo_inurba_marseille","lat":43.313291,"lon":5.396838,"is_reserved":false,"is_disabled":false,"rental_uris":{"android":"levelo://app?vid=6e3988fe-2c71-4040-9f02-97fe576787e8","ios":"levelo://app?vid=6e3988fe-2c71-4040-9f02-97fe576787e8"},"vehicle_type_id":"4","last_reported":1724778447,"current_range_meters":19600,"station_id":"ce4bgvp2rcd13ifvqcu0","pricing_plan_id":"cebpf4jnsgd1na2vs0mg"},{"bike_id":"f50f0348-1997-4f98-af34-8536a1f167e3","system_id":"levelo_inurba_marseille","lat":43.33424,"lon":5.36135,"is_reserved":false,"is_disabled":false,"rental_uris":{"android":"levelo://app?vid=f50f0348-1997-4f98-af34-8536a1f167e3","ios":"levelo://app?vid=f50f0348-1997-4f98-af34-8536a1f167e3"},"vehicle_type_id":"4","last_reported":1724778447,"current_range_meters":5600,"station_id":"","pricing_plan_id":"cebpf4jnsgd1na2vs0mg"},{"bike_id":"c4865581-2c03-46d0-8fd3-9a569fd2560f","system_id":"levelo_inurba_marseille","lat":43.313291,"lon":5.396838,"is_reserved":false,"is_disabled":false,"rental_uris":{"android":"levelo://app?vid=c4865581-2c03-46d0-8fd3-9a569fd2560f","ios":"levelo://app?vid=c4865581-2c03-46d0-8fd3-9a569fd2560f"},"vehicle_type_id":"4","last_reported":1724778447,"current_range_meters":19200,"station_id":"ce4bgvp2rcd13ifvqcu0","pricing_plan_id":"cebpf4jnsgd1na2vs0mg"},{"bike_id":"c662d865-8fed-4a6c-9f0a-63e98a10df82","system_id":"levelo_inurba_marseille","lat":43.313291,"lon":5.396838,"is_reserved":false,"is_disabled":false,"rental_uris":{"android":"levelo://app?vid=c662d865-8fed-4a6c-9f0a-63e98a10df82","ios":"levelo://app?vid=c662d865-8fed-4a6c-9f0a-63e98a10df82"},"vehicle_type_id":"4","last_reported":1724778447,"current_range_meters":24800,"station_id":"ce4bgvp2rcd13ifvqcu0","pricing_plan_id":"cebpf4jnsgd1na2vs0mg"},{"bike_id":"edda318e-96ea-425f-af2e-6162fa844b72","system_id":"levelo_inurba_marseille","lat":43.309047,"lon":5.396551,"is_reserved":false,"is_disabled":false,"rental_uris":{"android":"levelo://app?vid=edda318e-96ea-425f-af2e-6162fa844b72","ios":"levelo://app?vid=edda318e-96ea-425f-af2e-6162fa844b72"},"vehicle_type_id":"4","last_reported":1724778447,"current_range_meters":8800,"station_id":"ce4bh012rcd13ifvqcv0","pricing_plan_id":"cebpf4jnsgd1na2vs0mg"},{"bike_id":"1edfb4dd-2d90-4ae8-bf85-3b23728c646a","system_id":"levelo_inurba_marseille","lat":43.309047,"lon":5.396551,"is_reserved":false,"is_disabled":false,"rental_uris":{"android":"levelo://app?vid=1edfb4dd-2d90-4ae8-bf85-3b23728c646a","ios":"levelo://app?vid=1edfb4dd-2d90-4ae8-bf85-3b23728c646a"},"vehicle_type_id":"4","last_reported":1724778447,"current_range_meters":9200,"station_id":"ce4bh012rcd13ifvqcv0","pricing_plan_id":"cebpf4jnsgd1na2vs0mg"},{"bike_id":"0b4da5bb-1de7-4800-b08f-50b10474db3a","system_id":"levelo_inurba_marseille","lat":43.29529,"lon":5.385581,"is_reserved":false,"is_disabled":false,"rental_uris":{"android":"levelo://app?vid=0b4da5bb-1de7-4800-b08f-50b10474db3a","ios":"levelo://app?vid=0b4da5bb-1de7-4800-b08f-50b10474db3a"},"vehicle_type_id":"4","last_reported":1724778447,"current_range_meters":30400,"station_id":"ce4bgih2rcd13ifvqba0","pricing_plan_id":"cebpf4jnsgd1na2vs0mg"},{"bike_id":"7f50ca83-ceb5-425e-8607-bbddb4c85158","system_id":"levelo_inurba_marseille","lat":43.29529,"lon":5.385581,"is_reserved":false,"is_disabled":false,"rental_uris":{"android":"levelo://app?vid=7f50ca83-ceb5-425e-8607-bbddb4c85158","ios":"levelo://app?vid=7f50ca83-ceb5-425e-8607-bbddb4c85158"},"vehicle_type_id":"4","last_reported":1724778447,"current_range_meters":4800,"station_id":"ce4bgih2rcd13ifvqba0","pricing_plan_id":"cebpf4jnsgd1na2vs0mg"},{"bike_id":"198e2fb3-150c-482c-b9e7-b136f0067d4f","system_id":"levelo_inurba_marseille","lat":43.29529,"lon":5.385581,"is_reserved":false,"is_disabled":false,"rental_uris":{"android":"levelo://app?vid=198e2fb3-150c-482c-b9e7-b136f0067d4f","ios":"levelo://app?vid=198e2fb3-150c-482c-b9e7-b136f0067d4f"},"vehicle_type_id":"4","last_reported":1724778447,"current_range_meters":0,"station_id":"ce4bgih2rcd13ifvqba0","pricing_plan_id":"cebpf4jnsgd1na2vs0mg"},{"bike_id":"db6fb437-37a2-4893-8992-b247d8b72a6a","system_id":"levelo_inurba_marseille","lat":43.29529,"lon":5.385581,"is_reserved":false,"is_disabled":false,"rental_uris":{"android":"levelo://app?vid=db6fb437-37a2-4893-8992-b247d8b72a6a","ios":"levelo://app?vid=db6fb437-37a2-4893-8992-b247d8b72a6a"},"vehicle_type_id":"4","last_reported":1724778447,"current_range_meters":17200,"station_id":"ce4bgih2rcd13ifvqba0","pricing_plan_id":"cebpf4jnsgd1na2vs0mg"},{"bike_id":"9f0a15cf-8c5c-439a-a5bc-25bf781e14d7","system_id":"levelo_inurba_marseille","lat":43.29529,"lon":5.385581,"is_reserved":false,"is_disabled":false,"rental_uris":{"android":"levelo://app?vid=9f0a15cf-8c5c-439a-a5bc-25bf781e14d7","ios":"levelo://app?vid=9f0a15cf-8c5c-439a-a5bc-25bf781e14d7"},"vehicle_type_id":"4","last_reported":1724778447,"current_range_meters":16000,"station_id":"ce4bgih2rcd13ifvqba0","pricing_plan_id":"cebpf4jnsgd1na2vs0mg"},{"bike_id":"dc2425ee-9907-424e-8f3c-603b3b06ca93","system_id":"levelo_inurba_marseille","lat":43.29529,"lon":5.385581,"is_reserved":false,"is_disabled":false,"rental_uris":{"android":"levelo://app?vid=dc2425ee-9907-424e-8f3c-603b3b06ca93","ios":"levelo://app?vid=dc2425ee-9907-424e-8f3c-603b3b06ca93"},"vehicle_type_id":"4","last_reported":1724778447,"current_range_meters":800,"station_id":"ce4bgih2rcd13ifvqba0","pricing_plan_id":"cebpf4jnsgd1na2vs0mg"},{"bike_id":"fe29b990-a82f-4e4f-8745-2b30512a482f","system_id":"levelo_inurba_marseille","lat":43.29529,"lon":5.385581,"is_reserved":false,"is_disabled":false,"rental_uris":{"android":"levelo://app?vid=fe29b990-a82f-4e4f-8745-2b30512a482f","ios":"levelo://app?vid=fe29b990-a82f-4e4f-8745-2b30512a482f"},"vehicle_type_id":"4","last_reported":1724778447,"current_range_meters":8000,"station_id":"ce4bgih2rcd13ifvqba0","pricing_plan_id":"cebpf4jnsgd1na2vs0mg"},{"bike_id":"b49f7862-6b60-403a-941d-f000939a6d4f","system_id":"levelo_inurba_marseille","lat":43.29529,"lon":5.385581,"is_reserved":false,"is_disabled":false,"rental_uris":{"android":"levelo://app?vid=b49f7862-6b60-403a-941d-f000939a6d4f","ios":"levelo://app?vid=b49f7862-6b60-403a-941d-f000939a6d4f"},"vehicle_type_id":"4","last_reported":1724778447,"current_range_meters":25600,"station_id":"ce4bgih2rcd13ifvqba0","pricing_plan_id":"cebpf4jnsgd1na2vs0mg"},{"bike_id":"20421417-487f-4bb8-b852-145581168df2","system_id":"levelo_inurba_marseille","lat":43.29529,"lon":5.385581,"is_reserved":false,"is_disabled":false,"rental_uris":{"android":"levelo://app?vid=20421417-487f-4bb8-b852-145581168df2","ios":"levelo://app?vid=20421417-487f-4bb8-b852-145581168df2"},"vehicle_type_id":"4","last_reported":1724778447,"current_range_meters":4400,"station_id":"ce4bgih2rcd13ifvqba0","pricing_plan_id":"cebpf4jnsgd1na2vs0mg"},{"bike_id":"861baa65-0737-4614-8238-8c46fb39b51d","system_id":"levelo_inurba_marseille","lat":43.29192,"lon":5.356766,"is_reserved":false,"is_disabled":false,"rental_uris":{"android":"levelo://app?vid=861baa65-0737-4614-8238-8c46fb39b51d","ios":"levelo://app?vid=861baa65-0737-4614-8238-8c46fb39b51d"},"vehicle_type_id":"4","last_reported":1724778447,"current_range_meters":22000,"station_id":"","pricing_plan_id":"cebpf4jnsgd1na2vs0mg"},{"bike_id":"d3cac7dc-9f58-4847-9bce-d858e15c7ed5","system_id":"levelo_inurba_marseille","lat":43.290779,"lon":5.371482,"is_reserved":false,"is_disabled":false,"rental_uris":{"android":"levelo://app?vid=d3cac7dc-9f58-4847-9bce-d858e15c7ed5","ios":"levelo://app?vid=d3cac7dc-9f58-4847-9bce-d858e15c7ed5"},"vehicle_type_id":"4","last_reported":1724778447,"current_range_meters":0,"station_id":"ce4bh5p2rcd13ifvqe4g","pricing_plan_id":"cebpf4jnsgd1na2vs0mg"},{"bike_id":"9b63b843-99ba-4fe3-b7ea-8307be122e2e","system_id":"levelo_inurba_marseille","lat":43.307405,"lon":5.397215,"is_reserved":false,"is_disabled":false,"rental_uris":{"android":"levelo://app?vid=9b63b843-99ba-4fe3-b7ea-8307be122e2e","ios":"levelo://app?vid=9b63b843-99ba-4fe3-b7ea-8307be122e2e"},"vehicle_type_id":"4","last_reported":1724778447,"current_range_meters":24400,"station_id":"","pricing_plan_id":"cebpf4jnsgd1na2vs0mg"},{"bike_id":"1c395965-8b19-49ad-9ce2-f1c3388aee2f","system_id":"levelo_inurba_marseille","lat":43.294973,"lon":5.386297,"is_reserved":false,"is_disabled":false,"rental_uris":{"android":"levelo://app?vid=1c395965-8b19-49ad-9ce2-f1c3388aee2f","ios":"levelo://app?vid=1c395965-8b19-49ad-9ce2-f1c3388aee2f"},"vehicle_type_id":"4","last_reported":1724778447,"current_range_meters":11200,"station_id":"","pricing_plan_id":"cebpf4jnsgd1na2vs0mg"},{"bike_id":"716f911e-20c6-4959-b523-13ce4eb02d23","system_id":"levelo_inurba_marseille","lat":43.290631,"lon":5.359244,"is_reserved":false,"is_disabled":false,"rental_uris":{"android":"levelo://app?vid=716f911e-20c6-4959-b523-13ce4eb02d23","ios":"levelo://app?vid=716f911e-20c6-4959-b523-13ce4eb02d23"},"vehicle_type_id":"4","last_reported":1724778447,"current_range_meters":20000,"station_id":"ce4bha92rcd13ifvqeg0","pricing_plan_id":"cebpf4jnsgd1na2vs0mg"},{"bike_id":"4882883a-ef48-49f1-b5b7-95823a2a8969","system_id":"levelo_inurba_marseille","lat":43.290631,"lon":5.359244,"is_reserved":false,"is_disabled":false,"rental_uris":{"android":"levelo://app?vid=4882883a-ef48-49f1-b5b7-95823a2a8969","ios":"levelo://app?vid=4882883a-ef48-49f1-b5b7-95823a2a8969"},"vehicle_type_id":"4","last_reported":1724778447,"current_range_meters":31600,"station_id":"ce4bha92rcd13ifvqeg0","pricing_plan_id":"cebpf4jnsgd1na2vs0mg"},{"bike_id":"c048d07f-d302-4759-9b4e-d7600d30c880","system_id":"levelo_inurba_marseille","lat":43.290624,"lon":5.359245,"is_reserved":false,"is_disabled":false,"rental_uris":{"android":"levelo://app?vid=c048d07f-d302-4759-9b4e-d7600d30c880","ios":"levelo://app?vid=c048d07f-d302-4759-9b4e-d7600d30c880"},"vehicle_type_id":"4","last_reported":1724778447,"current_range_meters":2800,"station_id":"ce4bha92rcd13ifvqeg0","pricing_plan_id":"cebpf4jnsgd1na2vs0mg"},{"bike_id":"3e0b5e10-53bc-425d-b0be-37c4d1a94565","system_id":"levelo_inurba_marseille","lat":43.32461,"lon":5.394,"is_reserved":false,"is_disabled":false,"rental_uris":{"android":"levelo://app?vid=3e0b5e10-53bc-425d-b0be-37c4d1a94565","ios":"levelo://app?vid=3e0b5e10-53bc-425d-b0be-37c4d1a94565"},"vehicle_type_id":"4","last_reported":1724778447,"current_range_meters":1200,"station_id":"","pricing_plan_id":"cebpf4jnsgd1na2vs0mg"},{"bike_id":"faba35ab-56ea-4023-a9a9-bdc7151753bd","system_id":"levelo_inurba_marseille","lat":43.290624,"lon":5.359245,"is_reserved":false,"is_disabled":false,"rental_uris":{"android":"levelo://app?vid=faba35ab-56ea-4023-a9a9-bdc7151753bd","ios":"levelo://app?vid=faba35ab-56ea-4023-a9a9-bdc7151753bd"},"vehicle_type_id":"4","last_reported":1724778447,"current_range_meters":24800,"station_id":"ce4bha92rcd13ifvqeg0","pricing_plan_id":"cebpf4jnsgd1na2vs0mg"},{"bike_id":"33d9eb92-a417-4e0d-a76d-8a79e58c3b17","system_id":"levelo_inurba_marseille","lat":43.290631,"lon":5.359244,"is_reserved":false,"is_disabled":false,"rental_uris":{"android":"levelo://app?vid=33d9eb92-a417-4e0d-a76d-8a79e58c3b17","ios":"levelo://app?vid=33d9eb92-a417-4e0d-a76d-8a79e58c3b17"},"vehicle_type_id":"4","last_reported":1724778447,"current_range_meters":17600,"station_id":"ce4bha92rcd13ifvqeg0","pricing_plan_id":"cebpf4jnsgd1na2vs0mg"},{"bike_id":"f0ef176b-851a-419d-a319-72c97858d306","system_id":"levelo_inurba_marseille","lat":43.290631,"lon":5.359244,"is_reserved":false,"is_disabled":false,"rental_uris":{"android":"levelo://app?vid=f0ef176b-851a-419d-a319-72c97858d306","ios":"levelo://app?vid=f0ef176b-851a-419d-a319-72c97858d306"},"vehicle_type_id":"4","last_reported":1724778447,"current_range_meters":10000,"station_id":"ce4bha92rcd13ifvqeg0","pricing_plan_id":"cebpf4jnsgd1na2vs0mg"},{"bike_id":"a65caa33-7e14-4ba5-9a00-545c54808c4c","system_id":"levelo_inurba_marseille","lat":43.290631,"lon":5.359244,"is_reserved":false,"is_disabled":false,"rental_uris":{"android":"levelo://app?vid=a65caa33-7e14-4ba5-9a00-545c54808c4c","ios":"levelo://app?vid=a65caa33-7e14-4ba5-9a00-545c54808c4c"},"vehicle_type_id":"4","last_reported":1724778447,"current_range_meters":4400,"station_id":"ce4bha92rcd13ifvqeg0","pricing_plan_id":"cebpf4jnsgd1na2vs0mg"},{"bike_id":"40a30a6e-3ccd-42cc-899f-1be25fbbca52","system_id":"levelo_inurba_marseille","lat":43.32555,"lon":5.39344,"is_reserved":false,"is_disabled":false,"rental_uris":{"android":"levelo://app?vid=40a30a6e-3ccd-42cc-899f-1be25fbbca52","ios":"levelo://app?vid=40a30a6e-3ccd-42cc-899f-1be25fbbca52"},"vehicle_type_id":"4","last_reported":1724778447,"current_range_meters":3600,"station_id":"","pricing_plan_id":"cebpf4jnsgd1na2vs0mg"},{"bike_id":"203ff837-8c23-4b7d-aa51-2a9f2f625ded","system_id":"levelo_inurba_marseille","lat":43.290319,"lon":5.375732,"is_reserved":false,"is_disabled":false,"rental_uris":{"android":"levelo://app?vid=203ff837-8c23-4b7d-aa51-2a9f2f625ded","ios":"levelo://app?vid=203ff837-8c23-4b7d-aa51-2a9f2f625ded"},"vehicle_type_id":"4","last_reported":1724778447,"current_range_meters":1600,"station_id":"ce4bh692rcd13ifvqe90","pricing_plan_id":"cebpf4jnsgd1na2vs0mg"},{"bike_id":"020bf667-299e-4cd4-96bd-056e82b6cd3c","system_id":"levelo_inurba_marseille","lat":43.294153,"lon":5.386305,"is_reserved":false,"is_disabled":false,"rental_uris":{"android":"levelo://app?vid=020bf667-299e-4cd4-96bd-056e82b6cd3c","ios":"levelo://app?vid=020bf667-299e-4cd4-96bd-056e82b6cd3c"},"vehicle_type_id":"4","last_reported":1724778447,"current_range_meters":2400,"station_id":"ce4bh2h2rcd13ifvqdh0","pricing_plan_id":"cebpf4jnsgd1na2vs0mg"},{"bike_id":"f42b63d3-17cd-4974-80f9-d46dd48165ab","system_id":"levelo_inurba_marseille","lat":43.294153,"lon":5.386305,"is_reserved":false,"is_disabled":false,"rental_uris":{"android":"levelo://app?vid=f42b63d3-17cd-4974-80f9-d46dd48165ab","ios":"levelo://app?vid=f42b63d3-17cd-4974-80f9-d46dd48165ab"},"vehicle_type_id":"4","last_reported":1724778447,"current_range_meters":15600,"station_id":"ce4bh2h2rcd13ifvqdh0","pricing_plan_id":"cebpf4jnsgd1na2vs0mg"},{"bike_id":"3bbbb2df-d41a-46c2-9593-0170a09207e7","system_id":"levelo_inurba_marseille","lat":43.294162,"lon":5.386292,"is_reserved":false,"is_disabled":false,"rental_uris":{"android":"levelo://app?vid=3bbbb2df-d41a-46c2-9593-0170a09207e7","ios":"levelo://app?vid=3bbbb2df-d41a-46c2-9593-0170a09207e7"},"vehicle_type_id":"4","last_reported":1724778447,"current_range_meters":4800,"station_id":"ce4bh2h2rcd13ifvqdh0","pricing_plan_id":"cebpf4jnsgd1na2vs0mg"},{"bike_id":"6497f1c1-5248-458f-be02-d78d27a3506b","system_id":"levelo_inurba_marseille","lat":43.294153,"lon":5.386305,"is_reserved":false,"is_disabled":false,"rental_uris":{"android":"levelo://app?vid=6497f1c1-5248-458f-be02-d78d27a3506b","ios":"levelo://app?vid=6497f1c1-5248-458f-be02-d78d27a3506b"},"vehicle_type_id":"4","last_reported":1724778447,"current_range_meters":2800,"station_id":"ce4bh2h2rcd13ifvqdh0","pricing_plan_id":"cebpf4jnsgd1na2vs0mg"},{"bike_id":"da16311b-5074-4ab7-a89c-cd196905c6e3","system_id":"levelo_inurba_marseille","lat":43.294162,"lon":5.386292,"is_reserved":false,"is_disabled":false,"rental_uris":{"android":"levelo://app?vid=da16311b-5074-4ab7-a89c-cd196905c6e3","ios":"levelo://app?vid=da16311b-5074-4ab7-a89c-cd196905c6e3"},"vehicle_type_id":"4","last_reported":1724778447,"current_range_meters":6400,"station_id":"ce4bh2h2rcd13ifvqdh0","pricing_plan_id":"cebpf4jnsgd1na2vs0mg"},{"bike_id":"6121a4a8-1bf6-45bf-82ca-9f9a488bd84c","system_id":"levelo_inurba_marseille","lat":43.294162,"lon":5.386292,"is_reserved":false,"is_disabled":false,"rental_uris":{"android":"levelo://app?vid=6121a4a8-1bf6-45bf-82ca-9f9a488bd84c","ios":"levelo://app?vid=6121a4a8-1bf6-45bf-82ca-9f9a488bd84c"},"vehicle_type_id":"4","last_reported":1724778447,"current_range_meters":22000,"station_id":"ce4bh2h2rcd13ifvqdh0","pricing_plan_id":"cebpf4jnsgd1na2vs0mg"},{"bike_id":"0cabd58e-f552-4dea-b475-7d77e266d725","system_id":"levelo_inurba_marseille","lat":43.294153,"lon":5.386305,"is_reserved":false,"is_disabled":false,"rental_uris":{"android":"levelo://app?vid=0cabd58e-f552-4dea-b475-7d77e266d725","ios":"levelo://app?vid=0cabd58e-f552-4dea-b475-7d77e266d725"},"vehicle_type_id":"4","last_reported":1724778447,"current_range_meters":8000,"station_id":"ce4bh2h2rcd13ifvqdh0","pricing_plan_id":"cebpf4jnsgd1na2vs0mg"},{"bike_id":"7a240e8d-546c-47fd-8778-a31480c64785","system_id":"levelo_inurba_marseille","lat":43.289468,"lon":5.363719,"is_reserved":false,"is_disabled":false,"rental_uris":{"android":"levelo://app?vid=7a240e8d-546c-47fd-8778-a31480c64785","ios":"levelo://app?vid=7a240e8d-546c-47fd-8778-a31480c64785"},"vehicle_type_id":"4","last_reported":1724778447,"current_range_meters":29600,"station_id":"ce4bhc92rcd13ifvqetg","pricing_plan_id":"cebpf4jnsgd1na2vs0mg"},{"bike_id":"6c4d1c57-d8bf-4888-9217-5ce44d3e5443","system_id":"levelo_inurba_marseille","lat":43.28939,"lon":5.36395,"is_reserved":false,"is_disabled":false,"rental_uris":{"android":"levelo://app?vid=6c4d1c57-d8bf-4888-9217-5ce44d3e5443","ios":"levelo://app?vid=6c4d1c57-d8bf-4888-9217-5ce44d3e5443"},"vehicle_type_id":"4","last_reported":1724778447,"current_range_meters":6400,"station_id":"ce4bhc92rcd13ifvqetg","pricing_plan_id":"cebpf4jnsgd1na2vs0mg"},{"bike_id":"2beffa11-1c7e-49fe-b2b3-87577c974a58","system_id":"levelo_inurba_marseille","lat":43.289184,"lon":5.366408,"is_reserved":false,"is_disabled":false,"rental_uris":{"android":"levelo://app?vid=2beffa11-1c7e-49fe-b2b3-87577c974a58","ios":"levelo://app?vid=2beffa11-1c7e-49fe-b2b3-87577c974a58"},"vehicle_type_id":"4","last_reported":1724778447,"current_range_meters":7600,"station_id":"ce4bhap2rcd13ifvqek0","pricing_plan_id":"cebpf4jnsgd1na2vs0mg"},{"bike_id":"5afe7929-2a9c-4083-90a5-e98e75cb4a8c","system_id":"levelo_inurba_marseille","lat":43.297807,"lon":5.393533,"is_reserved":false,"is_disabled":false,"rental_uris":{"android":"levelo://app?vid=5afe7929-2a9c-4083-90a5-e98e75cb4a8c","ios":"levelo://app?vid=5afe7929-2a9c-4083-90a5-e98e75cb4a8c"},"vehicle_type_id":"4","last_reported":1724778447,"current_range_meters":1200,"station_id":"chh1huq6cuj3fo74tm60","pricing_plan_id":"cebpf4jnsgd1na2vs0mg"},{"bike_id":"6fbfdfa0-583f-4d9f-9933-3013a6ebe7e0","system_id":"levelo_inurba_marseille","lat":43.292642,"lon":5.384254,"is_reserved":false,"is_disabled":false,"rental_uris":{"android":"levelo://app?vid=6fbfdfa0-583f-4d9f-9933-3013a6ebe7e0","ios":"levelo://app?vid=6fbfdfa0-583f-4d9f-9933-3013a6ebe7e0"},"vehicle_type_id":"4","last_reported":1724778447,"current_range_meters":2800,"station_id":"ce4bh692rcd13ifvqea0","pricing_plan_id":"cebpf4jnsgd1na2vs0mg"},{"bike_id":"9e145a23-e128-4818-bb0e-72f9ad3b922c","system_id":"levelo_inurba_marseille","lat":43.304274,"lon":5.397513,"is_reserved":false,"is_disabled":false,"rental_uris":{"android":"levelo://app?vid=9e145a23-e128-4818-bb0e-72f9ad3b922c","ios":"levelo://app?vid=9e145a23-e128-4818-bb0e-72f9ad3b922c"},"vehicle_type_id":"4","last_reported":1724778447,"current_range_meters":22000,"station_id":"ce4bh092rcd13ifvqd20","pricing_plan_id":"cebpf4jnsgd1na2vs0mg"},{"bike_id":"c04b5c66-fbd5-4b99-9390-6fb4680f9f26","system_id":"levelo_inurba_marseille","lat":43.292644,"lon":5.384257,"is_reserved":false,"is_disabled":false,"rental_uris":{"android":"levelo://app?vid=c04b5c66-fbd5-4b99-9390-6fb4680f9f26","ios":"levelo://app?vid=c04b5c66-fbd5-4b99-9390-6fb4680f9f26"},"vehicle_type_id":"4","last_reported":1724778447,"current_range_meters":2400,"station_id":"ce4bh692rcd13ifvqea0","pricing_plan_id":"cebpf4jnsgd1na2vs0mg"},{"bike_id":"1686ce8b-7014-4e01-9b23-138a3a0dfa7f","system_id":"levelo_inurba_marseille","lat":43.292272,"lon":5.383525,"is_reserved":false,"is_disabled":false,"rental_uris":{"android":"levelo://app?vid=1686ce8b-7014-4e01-9b23-138a3a0dfa7f","ios":"levelo://app?vid=1686ce8b-7014-4e01-9b23-138a3a0dfa7f"},"vehicle_type_id":"4","last_reported":1724778447,"current_range_meters":16400,"station_id":"","pricing_plan_id":"cebpf4jnsgd1na2vs0mg"},{"bike_id":"d26e0a53-289a-458e-8bda-228764484759","system_id":"levelo_inurba_marseille","lat":43.29267,"lon":5.38443,"is_reserved":false,"is_disabled":false,"rental_uris":{"android":"levelo://app?vid=d26e0a53-289a-458e-8bda-228764484759","ios":"levelo://app?vid=d26e0a53-289a-458e-8bda-228764484759"},"vehicle_type_id":"4","last_reported":1724778447,"current_range_meters":22800,"station_id":"ce4bh692rcd13ifvqea0","pricing_plan_id":"cebpf4jnsgd1na2vs0mg"},{"bike_id":"b6e3d47b-d10d-4208-af1f-e83bed000816","system_id":"levelo_inurba_marseille","lat":43.2926,"lon":5.3843,"is_reserved":false,"is_disabled":false,"rental_uris":{"android":"levelo://app?vid=b6e3d47b-d10d-4208-af1f-e83bed000816","ios":"levelo://app?vid=b6e3d47b-d10d-4208-af1f-e83bed000816"},"vehicle_type_id":"4","last_reported":1724778447,"current_range_meters":20800,"station_id":"ce4bh692rcd13ifvqea0","pricing_plan_id":"cebpf4jnsgd1na2vs0mg"},{"bike_id":"6d230489-f86c-4d64-a99e-e2241ef61c52","system_id":"levelo_inurba_marseille","lat":43.29263,"lon":5.38437,"is_reserved":false,"is_disabled":false,"rental_uris":{"android":"levelo://app?vid=6d230489-f86c-4d64-a99e-e2241ef61c52","ios":"levelo://app?vid=6d230489-f86c-4d64-a99e-e2241ef61c52"},"vehicle_type_id":"4","last_reported":1724778447,"current_range_meters":1200,"station_id":"ce4bh692rcd13ifvqea0","pricing_plan_id":"cebpf4jnsgd1na2vs0mg"},{"bike_id":"48325ec0-3423-4ec6-8219-ced5148321db","system_id":"levelo_inurba_marseille","lat":43.29266,"lon":5.38445,"is_reserved":false,"is_disabled":false,"rental_uris":{"android":"levelo://app?vid=48325ec0-3423-4ec6-8219-ced5148321db","ios":"levelo://app?vid=48325ec0-3423-4ec6-8219-ced5148321db"},"vehicle_type_id":"4","last_reported":1724778447,"current_range_meters":19600,"station_id":"ce4bh692rcd13ifvqea0","pricing_plan_id":"cebpf4jnsgd1na2vs0mg"},{"bike_id":"0527a011-61d9-44fa-83c0-f579ae65dafc","system_id":"levelo_inurba_marseille","lat":43.29264,"lon":5.38443,"is_reserved":false,"is_disabled":false,"rental_uris":{"android":"levelo://app?vid=0527a011-61d9-44fa-83c0-f579ae65dafc","ios":"levelo://app?vid=0527a011-61d9-44fa-83c0-f579ae65dafc"},"vehicle_type_id":"4","last_reported":1724778447,"current_range_meters":11600,"station_id":"ce4bh692rcd13ifvqea0","pricing_plan_id":"cebpf4jnsgd1na2vs0mg"},{"bike_id":"136d589d-275f-4b8a-a447-e5644196bb51","system_id":"levelo_inurba_marseille","lat":43.292644,"lon":5.384257,"is_reserved":false,"is_disabled":false,"rental_uris":{"android":"levelo://app?vid=136d589d-275f-4b8a-a447-e5644196bb51","ios":"levelo://app?vid=136d589d-275f-4b8a-a447-e5644196bb51"},"vehicle_type_id":"4","last_reported":1724778447,"current_range_meters":25600,"station_id":"ce4bh692rcd13ifvqea0","pricing_plan_id":"cebpf4jnsgd1na2vs0mg"},{"bike_id":"367215f0-3142-4cd5-8b40-5586df781ad5","system_id":"levelo_inurba_marseille","lat":43.292642,"lon":5.384254,"is_reserved":false,"is_disabled":false,"rental_uris":{"android":"levelo://app?vid=367215f0-3142-4cd5-8b40-5586df781ad5","ios":"levelo://app?vid=367215f0-3142-4cd5-8b40-5586df781ad5"},"vehicle_type_id":"4","last_reported":1724778447,"current_range_meters":15600,"station_id":"ce4bh692rcd13ifvqea0","pricing_plan_id":"cebpf4jnsgd1na2vs0mg"},{"bike_id":"4e96f193-179b-45df-979c-51d4a6d46dbb","system_id":"levelo_inurba_marseille","lat":43.29263,"lon":5.38447,"is_reserved":false,"is_disabled":false,"rental_uris":{"android":"levelo://app?vid=4e96f193-179b-45df-979c-51d4a6d46dbb","ios":"levelo://app?vid=4e96f193-179b-45df-979c-51d4a6d46dbb"},"vehicle_type_id":"4","last_reported":1724778447,"current_range_meters":21600,"station_id":"ce4bh692rcd13ifvqea0","pricing_plan_id":"cebpf4jnsgd1na2vs0mg"},{"bike_id":"9ab09fc6-128f-4a6a-a45f-71fccbc29eff","system_id":"levelo_inurba_marseille","lat":43.29257,"lon":5.38436,"is_reserved":false,"is_disabled":false,"rental_uris":{"android":"levelo://app?vid=9ab09fc6-128f-4a6a-a45f-71fccbc29eff","ios":"levelo://app?vid=9ab09fc6-128f-4a6a-a45f-71fccbc29eff"},"vehicle_type_id":"4","last_reported":1724778447,"current_range_meters":1200,"station_id":"ce4bh692rcd13ifvqea0","pricing_plan_id":"cebpf4jnsgd1na2vs0mg"},{"bike_id":"c6563c74-ba4f-400b-b50c-9838818f3e73","system_id":"levelo_inurba_marseille","lat":43.29259,"lon":5.38443,"is_reserved":false,"is_disabled":false,"rental_uris":{"android":"levelo://app?vid=c6563c74-ba4f-400b-b50c-9838818f3e73","ios":"levelo://app?vid=c6563c74-ba4f-400b-b50c-9838818f3e73"},"vehicle_type_id":"4","last_reported":1724778447,"current_range_meters":0,"station_id":"ce4bh692rcd13ifvqea0","pricing_plan_id":"cebpf4jnsgd1na2vs0mg"},{"bike_id":"61caa385-0946-443c-806d-45d97391c7fc","system_id":"levelo_inurba_marseille","lat":43.29257,"lon":5.38439,"is_reserved":false,"is_disabled":false,"rental_uris":{"android":"levelo://app?vid=61caa385-0946-443c-806d-45d97391c7fc","ios":"levelo://app?vid=61caa385-0946-443c-806d-45d97391c7fc"},"vehicle_type_id":"4","last_reported":1724778447,"current_range_meters":0,"station_id":"ce4bh692rcd13ifvqea0","pricing_plan_id":"cebpf4jnsgd1na2vs0mg"},{"bike_id":"05661e11-4e24-479d-b7f2-cf6036b7a975","system_id":"levelo_inurba_marseille","lat":43.2926,"lon":5.38447,"is_reserved":false,"is_disabled":false,"rental_uris":{"android":"levelo://app?vid=05661e11-4e24-479d-b7f2-cf6036b7a975","ios":"levelo://app?vid=05661e11-4e24-479d-b7f2-cf6036b7a975"},"vehicle_type_id":"4","last_reported":1724778447,"current_range_meters":30000,"station_id":"ce4bh692rcd13ifvqea0","pricing_plan_id":"cebpf4jnsgd1na2vs0mg"},{"bike_id":"9471c9ad-da82-4a88-8781-e2e8368c5f27","system_id":"levelo_inurba_marseille","lat":43.290104,"lon":5.356111,"is_reserved":false,"is_disabled":false,"rental_uris":{"android":"levelo://app?vid=9471c9ad-da82-4a88-8781-e2e8368c5f27","ios":"levelo://app?vid=9471c9ad-da82-4a88-8781-e2e8368c5f27"},"vehicle_type_id":"4","last_reported":1724778447,"current_range_meters":800,"station_id":"ce4bhb92rcd13ifvqen0","pricing_plan_id":"cebpf4jnsgd1na2vs0mg"},{"bike_id":"3b4db3e9-daea-4294-a4bd-62534ffbc5d0","system_id":"levelo_inurba_marseille","lat":43.290103,"lon":5.356114,"is_reserved":false,"is_disabled":false,"rental_uris":{"android":"levelo://app?vid=3b4db3e9-daea-4294-a4bd-62534ffbc5d0","ios":"levelo://app?vid=3b4db3e9-daea-4294-a4bd-62534ffbc5d0"},"vehicle_type_id":"4","last_reported":1724778447,"current_range_meters":3600,"station_id":"ce4bhb92rcd13ifvqen0","pricing_plan_id":"cebpf4jnsgd1na2vs0mg"},{"bike_id":"3c167146-db6a-4bf8-96df-3e311ef0f5bc","system_id":"levelo_inurba_marseille","lat":43.290104,"lon":5.356111,"is_reserved":false,"is_disabled":false,"rental_uris":{"android":"levelo://app?vid=3c167146-db6a-4bf8-96df-3e311ef0f5bc","ios":"levelo://app?vid=3c167146-db6a-4bf8-96df-3e311ef0f5bc"},"vehicle_type_id":"4","last_reported":1724778447,"current_range_meters":7200,"station_id":"ce4bhb92rcd13ifvqen0","pricing_plan_id":"cebpf4jnsgd1na2vs0mg"},{"bike_id":"41803376-47c1-439d-85c4-28b57e2199bf","system_id":"levelo_inurba_marseille","lat":43.290087,"lon":5.35606,"is_reserved":false,"is_disabled":false,"rental_uris":{"android":"levelo://app?vid=41803376-47c1-439d-85c4-28b57e2199bf","ios":"levelo://app?vid=41803376-47c1-439d-85c4-28b57e2199bf"},"vehicle_type_id":"4","last_reported":1724778447,"current_range_meters":6000,"station_id":"ce4bhb92rcd13ifvqen0","pricing_plan_id":"cebpf4jnsgd1na2vs0mg"},{"bike_id":"36b8a08a-ece6-431e-a4af-271672036028","system_id":"levelo_inurba_marseille","lat":43.290104,"lon":5.356111,"is_reserved":false,"is_disabled":false,"rental_uris":{"android":"levelo://app?vid=36b8a08a-ece6-431e-a4af-271672036028","ios":"levelo://app?vid=36b8a08a-ece6-431e-a4af-271672036028"},"vehicle_type_id":"4","last_reported":1724778447,"current_range_meters":7600,"station_id":"ce4bhb92rcd13ifvqen0","pricing_plan_id":"cebpf4jnsgd1na2vs0mg"},{"bike_id":"bf2c72e9-8f87-418e-9062-de8080181159","system_id":"levelo_inurba_marseille","lat":43.290103,"lon":5.356114,"is_reserved":false,"is_disabled":false,"rental_uris":{"android":"levelo://app?vid=bf2c72e9-8f87-418e-9062-de8080181159","ios":"levelo://app?vid=bf2c72e9-8f87-418e-9062-de8080181159"},"vehicle_type_id":"4","last_reported":1724778447,"current_range_meters":12400,"station_id":"ce4bhb92rcd13ifvqen0","pricing_plan_id":"cebpf4jnsgd1na2vs0mg"},{"bike_id":"7f95547a-1d8b-4857-a0b3-295b7b61b829","system_id":"levelo_inurba_marseille","lat":43.290103,"lon":5.356114,"is_reserved":false,"is_disabled":false,"rental_uris":{"android":"levelo://app?vid=7f95547a-1d8b-4857-a0b3-295b7b61b829","ios":"levelo://app?vid=7f95547a-1d8b-4857-a0b3-295b7b61b829"},"vehicle_type_id":"4","last_reported":1724778447,"current_range_meters":23600,"station_id":"ce4bhb92rcd13ifvqen0","pricing_plan_id":"cebpf4jnsgd1na2vs0mg"},{"bike_id":"adf8aa61-9c80-4d4f-8a3c-4b3c7d6677af","system_id":"levelo_inurba_marseille","lat":43.290104,"lon":5.356111,"is_reserved":false,"is_disabled":false,"rental_uris":{"android":"levelo://app?vid=adf8aa61-9c80-4d4f-8a3c-4b3c7d6677af","ios":"levelo://app?vid=adf8aa61-9c80-4d4f-8a3c-4b3c7d6677af"},"vehicle_type_id":"4","last_reported":1724778447,"current_range_meters":31600,"station_id":"ce4bhb92rcd13ifvqen0","pricing_plan_id":"cebpf4jnsgd1na2vs0mg"},{"bike_id":"54290ec2-83a9-46f3-872d-740344aca8f8","system_id":"levelo_inurba_marseille","lat":43.290104,"lon":5.356111,"is_reserved":false,"is_disabled":false,"rental_uris":{"android":"levelo://app?vid=54290ec2-83a9-46f3-872d-740344aca8f8","ios":"levelo://app?vid=54290ec2-83a9-46f3-872d-740344aca8f8"},"vehicle_type_id":"4","last_reported":1724778447,"current_range_meters":0,"station_id":"ce4bhb92rcd13ifvqen0","pricing_plan_id":"cebpf4jnsgd1na2vs0mg"},{"bike_id":"2a3efb46-6573-4611-99be-a34eb347ebdd","system_id":"levelo_inurba_marseille","lat":43.29004,"lon":5.35616,"is_reserved":false,"is_disabled":false,"rental_uris":{"android":"levelo://app?vid=2a3efb46-6573-4611-99be-a34eb347ebdd","ios":"levelo://app?vid=2a3efb46-6573-4611-99be-a34eb347ebdd"},"vehicle_type_id":"4","last_reported":1724778447,"current_range_meters":10000,"station_id":"ce4bhb92rcd13ifvqen0","pricing_plan_id":"cebpf4jnsgd1na2vs0mg"},{"bike_id":"ffe4bef2-ee91-442b-9d2d-c50bf0af91fd","system_id":"levelo_inurba_marseille","lat":43.29003,"lon":5.35617,"is_reserved":false,"is_disabled":false,"rental_uris":{"android":"levelo://app?vid=ffe4bef2-ee91-442b-9d2d-c50bf0af91fd","ios":"levelo://app?vid=ffe4bef2-ee91-442b-9d2d-c50bf0af91fd"},"vehicle_type_id":"4","last_reported":1724778447,"current_range_meters":16800,"station_id":"ce4bhb92rcd13ifvqen0","pricing_plan_id":"cebpf4jnsgd1na2vs0mg"},{"bike_id":"5cc1b2ff-464e-4f2d-8848-9f60dbbc1e12","system_id":"levelo_inurba_marseille","lat":43.29003,"lon":5.35612,"is_reserved":false,"is_disabled":false,"rental_uris":{"android":"levelo://app?vid=5cc1b2ff-464e-4f2d-8848-9f60dbbc1e12","ios":"levelo://app?vid=5cc1b2ff-464e-4f2d-8848-9f60dbbc1e12"},"vehicle_type_id":"4","last_reported":1724778447,"current_range_meters":19600,"station_id":"ce4bhb92rcd13ifvqen0","pricing_plan_id":"cebpf4jnsgd1na2vs0mg"},{"bike_id":"9060a034-2afa-4b22-a025-de5bc0357fb5","system_id":"levelo_inurba_marseille","lat":43.28998,"lon":5.35605,"is_reserved":false,"is_disabled":false,"rental_uris":{"android":"levelo://app?vid=9060a034-2afa-4b22-a025-de5bc0357fb5","ios":"levelo://app?vid=9060a034-2afa-4b22-a025-de5bc0357fb5"},"vehicle_type_id":"4","last_reported":1724778447,"current_range_meters":3600,"station_id":"ce4bhb92rcd13ifvqen0","pricing_plan_id":"cebpf4jnsgd1na2vs0mg"},{"bike_id":"b7823221-958b-4560-afcd-6074fb36e4de","system_id":"levelo_inurba_marseille","lat":43.28996,"lon":5.35611,"is_reserved":false,"is_disabled":false,"rental_uris":{"android":"levelo://app?vid=b7823221-958b-4560-afcd-6074fb36e4de","ios":"levelo://app?vid=b7823221-958b-4560-afcd-6074fb36e4de"},"vehicle_type_id":"4","last_reported":1724778447,"current_range_meters":30400,"station_id":"ce4bhb92rcd13ifvqen0","pricing_plan_id":"cebpf4jnsgd1na2vs0mg"},{"bike_id":"d1196f85-017e-4cc4-9025-7c1bf57905c3","system_id":"levelo_inurba_marseille","lat":43.290995,"lon":5.381361,"is_reserved":false,"is_disabled":false,"rental_uris":{"android":"levelo://app?vid=d1196f85-017e-4cc4-9025-7c1bf57905c3","ios":"levelo://app?vid=d1196f85-017e-4cc4-9025-7c1bf57905c3"},"vehicle_type_id":"4","last_reported":1724778447,"current_range_meters":15600,"station_id":"ce4bh512rcd13ifvqe2g","pricing_plan_id":"cebpf4jnsgd1na2vs0mg"},{"bike_id":"abd4082e-a5a1-481b-99f7-c883a2cd47a7","system_id":"levelo_inurba_marseille","lat":43.295169,"lon":5.390426,"is_reserved":false,"is_disabled":false,"rental_uris":{"android":"levelo://app?vid=abd4082e-a5a1-481b-99f7-c883a2cd47a7","ios":"levelo://app?vid=abd4082e-a5a1-481b-99f7-c883a2cd47a7"},"vehicle_type_id":"4","last_reported":1724778447,"current_range_meters":24000,"station_id":"ce4bh3p2rcd13ifvqdp0","pricing_plan_id":"cebpf4jnsgd1na2vs0mg"},{"bike_id":"9c318a3a-0731-43bc-a291-7046db1cb865","system_id":"levelo_inurba_marseille","lat":43.295169,"lon":5.390426,"is_reserved":false,"is_disabled":false,"rental_uris":{"android":"levelo://app?vid=9c318a3a-0731-43bc-a291-7046db1cb865","ios":"levelo://app?vid=9c318a3a-0731-43bc-a291-7046db1cb865"},"vehicle_type_id":"4","last_reported":1724778447,"current_range_meters":2000,"station_id":"ce4bh3p2rcd13ifvqdp0","pricing_plan_id":"cebpf4jnsgd1na2vs0mg"},{"bike_id":"a8826a54-9e65-4d16-b38b-ad9ca8de9e19","system_id":"levelo_inurba_marseille","lat":43.297807,"lon":5.393533,"is_reserved":false,"is_disabled":false,"rental_uris":{"android":"levelo://app?vid=a8826a54-9e65-4d16-b38b-ad9ca8de9e19","ios":"levelo://app?vid=a8826a54-9e65-4d16-b38b-ad9ca8de9e19"},"vehicle_type_id":"4","last_reported":1724778447,"current_range_meters":22800,"station_id":"chh1huq6cuj3fo74tm60","pricing_plan_id":"cebpf4jnsgd1na2vs0mg"},{"bike_id":"cb81b81f-06c7-4f80-8d2d-8b8ee960d138","system_id":"levelo_inurba_marseille","lat":43.297815,"lon":5.393548,"is_reserved":false,"is_disabled":false,"rental_uris":{"android":"levelo://app?vid=cb81b81f-06c7-4f80-8d2d-8b8ee960d138","ios":"levelo://app?vid=cb81b81f-06c7-4f80-8d2d-8b8ee960d138"},"vehicle_type_id":"4","last_reported":1724778447,"current_range_meters":19600,"station_id":"chh1huq6cuj3fo74tm60","pricing_plan_id":"cebpf4jnsgd1na2vs0mg"},{"bike_id":"bcd4b530-1cc3-45d6-a198-fa1c3afe3167","system_id":"levelo_inurba_marseille","lat":43.295169,"lon":5.390426,"is_reserved":false,"is_disabled":false,"rental_uris":{"android":"levelo://app?vid=bcd4b530-1cc3-45d6-a198-fa1c3afe3167","ios":"levelo://app?vid=bcd4b530-1cc3-45d6-a198-fa1c3afe3167"},"vehicle_type_id":"4","last_reported":1724778447,"current_range_meters":9600,"station_id":"ce4bh3p2rcd13ifvqdp0","pricing_plan_id":"cebpf4jnsgd1na2vs0mg"},{"bike_id":"db76d8a1-aad0-4399-ba0e-54a7f1134ae2","system_id":"levelo_inurba_marseille","lat":43.297807,"lon":5.393533,"is_reserved":false,"is_disabled":false,"rental_uris":{"android":"levelo://app?vid=db76d8a1-aad0-4399-ba0e-54a7f1134ae2","ios":"levelo://app?vid=db76d8a1-aad0-4399-ba0e-54a7f1134ae2"},"vehicle_type_id":"4","last_reported":1724778447,"current_range_meters":9200,"station_id":"chh1huq6cuj3fo74tm60","pricing_plan_id":"cebpf4jnsgd1na2vs0mg"},{"bike_id":"3f973919-3680-40d5-b940-025c148994b8","system_id":"levelo_inurba_marseille","lat":43.330442,"lon":5.389148,"is_reserved":false,"is_disabled":false,"rental_uris":{"android":"levelo://app?vid=3f973919-3680-40d5-b940-025c148994b8","ios":"levelo://app?vid=3f973919-3680-40d5-b940-025c148994b8"},"vehicle_type_id":"4","last_reported":1724778447,"current_range_meters":8000,"station_id":"ce4bhr92rcd13ifvqhrg","pricing_plan_id":"cebpf4jnsgd1na2vs0mg"},{"bike_id":"5507bded-0c16-412e-b113-3962e8e4bafa","system_id":"levelo_inurba_marseille","lat":43.33025,"lon":5.39031,"is_reserved":false,"is_disabled":false,"rental_uris":{"android":"levelo://app?vid=5507bded-0c16-412e-b113-3962e8e4bafa","ios":"levelo://app?vid=5507bded-0c16-412e-b113-3962e8e4bafa"},"vehicle_type_id":"4","last_reported":1724778447,"current_range_meters":18400,"station_id":"ce4bhr92rcd13ifvqhrg","pricing_plan_id":"cebpf4jnsgd1na2vs0mg"},{"bike_id":"0953af60-ff1a-4ed1-8f71-26149678acb5","system_id":"levelo_inurba_marseille","lat":43.295169,"lon":5.390426,"is_reserved":false,"is_disabled":false,"rental_uris":{"android":"levelo://app?vid=0953af60-ff1a-4ed1-8f71-26149678acb5","ios":"levelo://app?vid=0953af60-ff1a-4ed1-8f71-26149678acb5"},"vehicle_type_id":"4","last_reported":1724778447,"current_range_meters":3600,"station_id":"ce4bh3p2rcd13ifvqdp0","pricing_plan_id":"cebpf4jnsgd1na2vs0mg"},{"bike_id":"d8fe47b2-49f4-41a4-b713-d2624dcaa034","system_id":"levelo_inurba_marseille","lat":43.33023,"lon":5.39038,"is_reserved":false,"is_disabled":false,"rental_uris":{"android":"levelo://app?vid=d8fe47b2-49f4-41a4-b713-d2624dcaa034","ios":"levelo://app?vid=d8fe47b2-49f4-41a4-b713-d2624dcaa034"},"vehicle_type_id":"4","last_reported":1724778447,"current_range_meters":18800,"station_id":"ce4bhr92rcd13ifvqhrg","pricing_plan_id":"cebpf4jnsgd1na2vs0mg"},{"bike_id":"a770b7a1-bfe3-4d9a-be16-2c48b2e4d8f3","system_id":"levelo_inurba_marseille","lat":43.33026,"lon":5.39034,"is_reserved":false,"is_disabled":false,"rental_uris":{"android":"levelo://app?vid=a770b7a1-bfe3-4d9a-be16-2c48b2e4d8f3","ios":"levelo://app?vid=a770b7a1-bfe3-4d9a-be16-2c48b2e4d8f3"},"vehicle_type_id":"4","last_reported":1724778447,"current_range_meters":3200,"station_id":"ce4bhr92rcd13ifvqhrg","pricing_plan_id":"cebpf4jnsgd1na2vs0mg"},{"bike_id":"6a6a7fd2-61ee-4a7c-a129-31def9c4c6ae","system_id":"levelo_inurba_marseille","lat":43.33025,"lon":5.39037,"is_reserved":false,"is_disabled":false,"rental_uris":{"android":"levelo://app?vid=6a6a7fd2-61ee-4a7c-a129-31def9c4c6ae","ios":"levelo://app?vid=6a6a7fd2-61ee-4a7c-a129-31def9c4c6ae"},"vehicle_type_id":"4","last_reported":1724778447,"current_range_meters":22800,"station_id":"ce4bhr92rcd13ifvqhrg","pricing_plan_id":"cebpf4jnsgd1na2vs0mg"},{"bike_id":"cbc02aa3-b464-4a9f-b000-105a564842f2","system_id":"levelo_inurba_marseille","lat":43.295169,"lon":5.390426,"is_reserved":false,"is_disabled":false,"rental_uris":{"android":"levelo://app?vid=cbc02aa3-b464-4a9f-b000-105a564842f2","ios":"levelo://app?vid=cbc02aa3-b464-4a9f-b000-105a564842f2"},"vehicle_type_id":"4","last_reported":1724778447,"current_range_meters":2800,"station_id":"ce4bh3p2rcd13ifvqdp0","pricing_plan_id":"cebpf4jnsgd1na2vs0mg"},