{"last_updated":1728569334,"ttl":60,"version":"2.2","data":{"bikes":[{"bike_id":"a3ba4c20-9c74-4a73-9a27-ce9f0c53e311","system_id":"levelo_inurba_marseille","lat":43.29094,"lon":5.38147,"is_reserved":false,"is_disabled":false,"rental_uris":{"android":"levelo://app?vid=a3ba4c20-9c74-4a73-9a27-ce9f0c53e311","ios":"levelo://app?vid=a3ba4c20-9c74-4a73-9a27-ce9f0c53e311"},"vehicle_type_id":"4","last_reported":1728569334,"current_range_meters":38800,"station_id":"ce4bh512rcd13ifvqe2g","pricing_plan_id":"cebpf4jnsgd1na2vs0mg"},{"bike_id":"ddb9679b-c37e-4bea-beb9-d80ba93eccb3","system_id":"levelo_inurba_marseille","lat":43.30184,"lon":5.366,"is_reserved":false,"is_disabled":false,"rental_uris":{"android":"levelo://app?vid=ddb9679b-c37e-4bea-beb9-d80ba93eccb3","ios":"levelo://app?vid=ddb9679b-c37e-4bea-beb9-d80ba93eccb3"},"vehicle_type_id":"4","last_reported":1728569334,"current_range_meters":9200,"station_id":"ce4bgrh2rcd13ifvqc8g","pricing_plan_id":"cebpf4jnsgd1na2vs0mg"},{"bike_id":"342a1f50-2f95-49d3-a407-54ad2fd07c5b","system_id":"levelo_inurba_marseille","lat":43.29005,"lon":5.3561,"is_reserved":false,"is_disabled":false,"rental_uris":{"android":"levelo://app?vid=342a1f50-2f95-49d3-a407-54ad2fd07c5b","ios":"levelo://app?vid=342a1f50-2f95-49d3-a407-54ad2fd07c5b"},"vehicle_type_id":"4","last_reported":1728569334,"current_range_meters":38800,"station_id":"ce4bhb92rcd13ifvqen0","pricing_plan_id":"cebpf4jnsgd1na2vs0mg"},{"bike_id":"fc61c697-0405-4d7e-bb40-cfe30b19f812","system_id":"levelo_inurba_marseille","lat":43.26552,"lon":5.37286,"is_reserved":false,"is_disabled":false,"rental_uris":{"android":"levelo://app?vid=fc61c697-0405-4d7e-bb40-cfe30b19f812","ios":"levelo://app?vid=fc61c697-0405-4d7e-bb40-cfe30b19f812"},"vehicle_type_id":"4","last_reported":1728569334,"current_range_meters":7200,"station_id":"ce4bhg12rcd13ifvqf70","pricing_plan_id":"cebpf4jnsgd1na2vs0mg"},{"bike_id":"69e77010-a535-4398-8159-24f48f4c7d15","system_id":"levelo_inurba_marseille","lat":43.23065,"lon":5.35489,"is_reserved":false,"is_disabled":false,"rental_uris":{"android":"levelo://app?vid=69e77010-a535-4398-8159-24f48f4c7d15","ios":"levelo://app?vid=69e77010-a535-4398-8159-24f48f4c7d15"},"vehicle_type_id":"4","last_reported":1728569334,"current_range_meters":2800,"station_id":"cpo3342slgdg3j2ifvpg","pricing_plan_id":"cebpf4jnsgd1na2vs0mg"},{"bike_id":"88fdfdd6-484a-4d1f-b406-2d619f38c49c","system_id":"levelo_inurba_marseille","lat":43.29934,"lon":5.36534,"is_reserved":false,"is_disabled":false,"rental_uris":{"android":"levelo://app?vid=88fdfdd6-484a-4d1f-b406-2d619f38c49c","ios":"levelo://app?vid=88fdfdd6-484a-4d1f-b406-2d619f38c49c"},"vehicle_type_id":"4","last_reported":1728569334,"current_range_meters":38000,"station_id":"ce4bgm92rcd13ifvqbr0","pricing_plan_id":"cebpf4jnsgd1na2vs0mg"},{"bike_id":"a150ccfc-b2ad-4e52-ad49-b5b8f02ce534","system_id":"levelo_inurba_marseille","lat":43.25584,"lon":5.38236,"is_reserved":false,"is_disabled":false,"rental_uris":{"android":"levelo://app?vid=a150ccfc-b2ad-4e52-ad49-b5b8f02ce534","ios":"levelo://app?vid=a150ccfc-b2ad-4e52-ad49-b5b8f02ce534"},"vehicle_type_id":"4","last_reported":1728569334,"current_range_meters":14000,"station_id":"ce4bhih2rcd13ifvqfs0","pricing_plan_id":"cebpf4jnsgd1na2vs0mg"},{"bike_id":"6bfd4af9-f820-4cc4-a220-f0656ea4c165","system_id":"levelo_inurba_marseille","lat":43.28265,"lon":5.35057,"is_reserved":false,"is_disabled":false,"rental_uris":{"android":"levelo://app?vid=6bfd4af9-f820-4cc4-a220-f0656ea4c165","ios":"levelo://app?vid=6bfd4af9-f820-4cc4-a220-f0656ea4c165"},"vehicle_type_id":"4","last_reported":1728569334,"current_range_meters":12400,"station_id":"ce4bhbp2rcd13ifvqerg","pricing_plan_id":"cebpf4jnsgd1na2vs0mg"},{"bike_id":"3fd14905-1003-49c4-b541-fb3cac153eaa","system_id":"levelo_inurba_marseille","lat":43.32476,"lon":5.36561,"is_reserved":false,"is_disabled":false,"rental_uris":{"android":"levelo://app?vid=3fd14905-1003-49c4-b541-fb3cac153eaa","ios":"levelo://app?vid=3fd14905-1003-49c4-b541-fb3cac153eaa"},"vehicle_type_id":"4","last_reported":1728569334,"current_range_meters":35200,"station_id":"ce4bhs12rcd13ifvqhvg","pricing_plan_id":"cebpf4jnsgd1na2vs0mg"},{"bike_id":"cccffc50-9a0b-4734-a27f-d6a731c161b9","system_id":"levelo_inurba_marseille","lat":43.26493,"lon":5.39545,"is_reserved":false,"is_disabled":false,"rental_uris":{"android":"levelo://app?vid=cccffc50-9a0b-4734-a27f-d6a731c161b9","ios":"levelo://app?vid=cccffc50-9a0b-4734-a27f-d6a731c161b9"},"vehicle_type_id":"4","last_reported":1728569334,"current_range_meters":26000,"station_id":"ce4bhi12rcd13ifvqfq0","pricing_plan_id":"cebpf4jnsgd1na2vs0mg"},{"bike_id":"b6238d41-ee15-425a-90f4-5765634a5d7f","system_id":"levelo_inurba_marseille","lat":43.23151,"lon":5.43711,"is_reserved":false,"is_disabled":false,"rental_uris":{"android":"levelo://app?vid=b6238d41-ee15-425a-90f4-5765634a5d7f","ios":"levelo://app?vid=b6238d41-ee15-425a-90f4-5765634a5d7f"},"vehicle_type_id":"4","last_reported":1728569334,"current_range_meters":38800,"station_id":"ce4bhmp2rcd13ifvqgog","pricing_plan_id":"cebpf4jnsgd1na2vs0mg"},{"bike_id":"91f9ac4e-26b4-4a3e-8d1b-584047d9b6a3","system_id":"levelo_inurba_marseille","lat":43.23146,"lon":5.4372,"is_reserved":false,"is_disabled":false,"rental_uris":{"android":"levelo://app?vid=91f9ac4e-26b4-4a3e-8d1b-584047d9b6a3","ios":"levelo://app?vid=91f9ac4e-26b4-4a3e-8d1b-584047d9b6a3"},"vehicle_type_id":"4","last_reported":1728569334,"current_range_meters":16800,"station_id":"ce4bhmp2rcd13ifvqgog","pricing_plan_id":"cebpf4jnsgd1na2vs0mg"},{"bike_id":"296d1880-4a03-4d23-a9cc-51df04a4af16","system_id":"levelo_inurba_marseille","lat":43.26197,"lon":5.37448,"is_reserved":false,"is_disabled":false,"rental_uris":{"android":"levelo://app?vid=296d1880-4a03-4d23-a9cc-51df04a4af16","ios":"levelo://app?vid=296d1880-4a03-4d23-a9cc-51df04a4af16"},"vehicle_type_id":"4","last_reported":1728569334,"current_range_meters":36000,"station_id":"ce4bhgp2rcd13ifvqfc0","pricing_plan_id":"cebpf4jnsgd1na2vs0mg"},{"bike_id":"6cb2fd54-0aca-4f7d-aadb-bc057dc4fb59","system_id":"levelo_inurba_marseille","lat":43.23063,"lon":5.35492,"is_reserved":false,"is_disabled":false,"rental_uris":{"android":"levelo://app?vid=6cb2fd54-0aca-4f7d-aadb-bc057dc4fb59","ios":"levelo://app?vid=6cb2fd54-0aca-4f7d-aadb-bc057dc4fb59"},"vehicle_type_id":"4","last_reported":1728569334,"current_range_meters":32800,"station_id":"cpo3342slgdg3j2ifvpg","pricing_plan_id":"cebpf4jnsgd1na2vs0mg"},{"bike_id":"e64e9239-b2a9-4d0d-aa5b-87282e9e0776","system_id":"levelo_inurba_marseille","lat":43.28854,"lon":5.35858,"is_reserved":false,"is_disabled":false,"rental_uris":{"android":"levelo://app?vid=e64e9239-b2a9-4d0d-aa5b-87282e9e0776","ios":"levelo://app?vid=e64e9239-b2a9-4d0d-aa5b-87282e9e0776"},"vehicle_type_id":"4","last_reported":1728569334,"current_range_meters":14400,"station_id":"ce4bhb12rcd13ifvqem0","pricing_plan_id":"cebpf4jnsgd1na2vs0mg"},{"bike_id":"3bf4f886-d9b1-4861-8267-59b3e6d9f630","system_id":"levelo_inurba_marseille","lat":43.28152,"lon":5.4265,"is_reserved":false,"is_disabled":false,"rental_uris":{"android":"levelo://app?vid=3bf4f886-d9b1-4861-8267-59b3e6d9f630","ios":"levelo://app?vid=3bf4f886-d9b1-4861-8267-59b3e6d9f630"},"vehicle_type_id":"4","last_reported":1728569334,"current_range_meters":8000,"station_id":"ce4bhnh2rcd13ifvqgug","pricing_plan_id":"cebpf4jnsgd1na2vs0mg"},{"bike_id":"a08d7d69-b9a8-4315-bf66-be3c9c1a46e1","system_id":"levelo_inurba_marseille","lat":43.31532,"lon":5.380411,"is_reserved":false,"is_disabled":false,"rental_uris":{"android":"levelo://app?vid=a08d7d69-b9a8-4315-bf66-be3c9c1a46e1","ios":"levelo://app?vid=a08d7d69-b9a8-4315-bf66-be3c9c1a46e1"},"vehicle_type_id":"4","last_reported":1728569334,"current_range_meters":18800,"station_id":"ce4bhsp2rcd13ifvqi50","pricing_plan_id":"cebpf4jnsgd1na2vs0mg"},{"bike_id":"582402ca-1970-483c-9c3e-4b14a51c1083","system_id":"levelo_inurba_marseille","lat":43.28352,"lon":5.38107,"is_reserved":false,"is_disabled":false,"rental_uris":{"android":"levelo://app?vid=582402ca-1970-483c-9c3e-4b14a51c1083","ios":"levelo://app?vid=582402ca-1970-483c-9c3e-4b14a51c1083"},"vehicle_type_id":"4","last_reported":1728569334,"current_range_meters":38800,"station_id":"ce4bh412rcd13ifvqdr0","pricing_plan_id":"cebpf4jnsgd1na2vs0mg"},{"bike_id":"bb9660c4-5ff2-4378-ae13-750f1e53b810","system_id":"levelo_inurba_marseille","lat":43.30954,"lon":5.39035,"is_reserved":false,"is_disabled":false,"rental_uris":{"android":"levelo://app?vid=bb9660c4-5ff2-4378-ae13-750f1e53b810","ios":"levelo://app?vid=bb9660c4-5ff2-4378-ae13-750f1e53b810"},"vehicle_type_id":"4","last_reported":1728569334,"current_range_meters":38800,"station_id":"ce4bgup2rcd13ifvqco0","pricing_plan_id":"cebpf4jnsgd1na2vs0mg"},{"bike_id":"cfe9fbc1-1d26-4e4e-a6a8-bed106055ea0","system_id":"levelo_inurba_marseille","lat":43.25113,"lon":5.40321,"is_reserved":false,"is_disabled":false,"rental_uris":{"android":"levelo://app?vid=cfe9fbc1-1d26-4e4e-a6a8-bed106055ea0","ios":"levelo://app?vid=cfe9fbc1-1d26-4e4e-a6a8-bed106055ea0"},"vehicle_type_id":"4","last_reported":1728569334,"current_range_meters":20000,"station_id":"ce4bhlh2rcd13ifvqgig","pricing_plan_id":"cebpf4jnsgd1na2vs0mg"},{"bike_id":"3e2c2673-e35c-4f73-b01a-83db872c550a","system_id":"levelo_inurba_marseille","lat":43.29005,"lon":5.35623,"is_reserved":false,"is_disabled":false,"rental_uris":{"android":"levelo://app?vid=3e2c2673-e35c-4f73-b01a-83db872c550a","ios":"levelo://app?vid=3e2c2673-e35c-4f73-b01a-83db872c550a"},"vehicle_type_id":"4","last_reported":1728569334,"current_range_meters":13600,"station_id":"ce4bhb92rcd13ifvqen0","pricing_plan_id":"cebpf4jnsgd1na2vs0mg"},{"bike_id":"81d9c9e9-e0d5-424f-91b7-cd58673e35cc","system_id":"levelo_inurba_marseille","lat":43.28852,"lon":5.35843,"is_reserved":false,"is_disabled":false,"rental_uris":{"android":"levelo://app?vid=81d9c9e9-e0d5-424f-91b7-cd58673e35cc","ios":"levelo://app?vid=81d9c9e9-e0d5-424f-91b7-cd58673e35cc"},"vehicle_type_id":"4","last_reported":1728569334,"current_range_meters":35200,"station_id":"ce4bhb12rcd13ifvqem0","pricing_plan_id":"cebpf4jnsgd1na2vs0mg"},{"bike_id":"fe1386ee-6194-4218-a1fa-d1785afff62e","system_id":"levelo_inurba_marseille","lat":43.2681,"lon":5.40262,"is_reserved":false,"is_disabled":false,"rental_uris":{"android":"levelo://app?vid=fe1386ee-6194-4218-a1fa-d1785afff62e","ios":"levelo://app?vid=fe1386ee-6194-4218-a1fa-d1785afff62e"},"vehicle_type_id":"4","last_reported":1728569334,"current_range_meters":33200,"station_id":"ce501612rcd8frsf0b60","pricing_plan_id":"cebpf4jnsgd1na2vs0mg"},{"bike_id":"0696bcda-3c4b-4fc6-a52a-646387bd3f39","system_id":"levelo_inurba_marseille","lat":43.31322,"lon":5.39686,"is_reserved":false,"is_disabled":false,"rental_uris":{"android":"levelo://app?vid=0696bcda-3c4b-4fc6-a52a-646387bd3f39","ios":"levelo://app?vid=0696bcda-3c4b-4fc6-a52a-646387bd3f39"},"vehicle_type_id":"4","last_reported":1728569334,"current_range_meters":14000,"station_id":"ce4bgvp2rcd13ifvqcu0","pricing_plan_id":"cebpf4jnsgd1na2vs0mg"},{"bike_id":"809de639-a249-4730-9001-387c144bca21","system_id":"levelo_inurba_marseille","lat":43.26031,"lon":5.37547,"is_reserved":false,"is_disabled":false,"rental_uris":{"android":"levelo://app?vid=809de639-a249-4730-9001-387c144bca21","ios":"levelo://app?vid=809de639-a249-4730-9001-387c144bca21"},"vehicle_type_id":"4","last_reported":1728569334,"current_range_meters":38800,"station_id":"ce4bhgh2rcd13ifvqfa0","pricing_plan_id":"cebpf4jnsgd1na2vs0mg"},{"bike_id":"e872fc30-3c57-4a83-b46e-c9748d4c279a","system_id":"levelo_inurba_marseille","lat":43.33731,"lon":5.39191,"is_reserved":false,"is_disabled":false,"rental_uris":{"android":"levelo://app?vid=e872fc30-3c57-4a83-b46e-c9748d4c279a","ios":"levelo://app?vid=e872fc30-3c57-4a83-b46e-c9748d4c279a"},"vehicle_type_id":"4","last_reported":1728569334,"current_range_meters":25600,"station_id":"ce4bhr92rcd13ifvqhsg","pricing_plan_id":"cebpf4jnsgd1na2vs0mg"},{"bike_id":"8fd52a26-edb1-4575-bac7-84ab2b847ac9","system_id":"levelo_inurba_marseille","lat":43.251038,"lon":5.403209,"is_reserved":false,"is_disabled":false,"rental_uris":{"android":"levelo://app?vid=8fd52a26-edb1-4575-bac7-84ab2b847ac9","ios":"levelo://app?vid=8fd52a26-edb1-4575-bac7-84ab2b847ac9"},"vehicle_type_id":"4","last_reported":1728569334,"current_range_meters":12800,"station_id":"ce4bhlh2rcd13ifvqgig","pricing_plan_id":"cebpf4jnsgd1na2vs0mg"},{"bike_id":"2bb7dedb-f9bf-4c59-891d-c9267e0971a3","system_id":"levelo_inurba_marseille","lat":43.33754,"lon":5.37473,"is_reserved":false,"is_disabled":false,"rental_uris":{"android":"levelo://app?vid=2bb7dedb-f9bf-4c59-891d-c9267e0971a3","ios":"levelo://app?vid=2bb7dedb-f9bf-4c59-891d-c9267e0971a3"},"vehicle_type_id":"4","last_reported":1728569334,"current_range_meters":20000,"station_id":"","pricing_plan_id":"cebpf4jnsgd1na2vs0mg"},{"bike_id":"2e2dbf09-f1d3-4705-9b9b-9a39adb89592","system_id":"levelo_inurba_marseille","lat":43.31889,"lon":5.40735,"is_reserved":false,"is_disabled":false,"rental_uris":{"android":"levelo://app?vid=2e2dbf09-f1d3-4705-9b9b-9a39adb89592","ios":"levelo://app?vid=2e2dbf09-f1d3-4705-9b9b-9a39adb89592"},"vehicle_type_id":"4","last_reported":1728569334,"current_range_meters":18000,"station_id":"ce4bhq12rcd13ifvqhig","pricing_plan_id":"cebpf4jnsgd1na2vs0mg"},{"bike_id":"1724a986-206e-44c4-acc6-99c3f365633c","system_id":"levelo_inurba_marseille","lat":43.23185,"lon":5.35547,"is_reserved":false,"is_disabled":false,"rental_uris":{"android":"levelo://app?vid=1724a986-206e-44c4-acc6-99c3f365633c","ios":"levelo://app?vid=1724a986-206e-44c4-acc6-99c3f365633c"},"vehicle_type_id":"4","last_reported":1728569334,"current_range_meters":18000,"station_id":"ce4bhu92rcd13ifvqi70","pricing_plan_id":"cebpf4jnsgd1na2vs0mg"},{"bike_id":"3238f254-9098-40b2-b36d-fd654bad7784","system_id":"levelo_inurba_marseille","lat":43.28271,"lon":5.35075,"is_reserved":false,"is_disabled":false,"rental_uris":{"android":"levelo://app?vid=3238f254-9098-40b2-b36d-fd654bad7784","ios":"levelo://app?vid=3238f254-9098-40b2-b36d-fd654bad7784"},"vehicle_type_id":"4","last_reported":1728569334,"current_range_meters":25200,"station_id":"ce4bhbp2rcd13ifvqerg","pricing_plan_id":"cebpf4jnsgd1na2vs0mg"},{"bike_id":"c245575d-cabc-429f-a684-5c79021eb0ec","system_id":"levelo_inurba_marseille","lat":43.33756,"lon":5.37441,"is_reserved":false,"is_disabled":false,"rental_uris":{"android":"levelo://app?vid=c245575d-cabc-429f-a684-5c79021eb0ec","ios":"levelo://app?vid=c245575d-cabc-429f-a684-5c79021eb0ec"},"vehicle_type_id":"4","last_reported":1728569334,"current_range_meters":34800,"station_id":"","pricing_plan_id":"cebpf4jnsgd1na2vs0mg"},{"bike_id":"c0e8ad54-848c-4ac6-8ab7-3d1bc244b658","system_id":"levelo_inurba_marseille","lat":43.28457,"lon":5.35886,"is_reserved":false,"is_disabled":false,"rental_uris":{"android":"levelo://app?vid=c0e8ad54-848c-4ac6-8ab7-3d1bc244b658","ios":"levelo://app?vid=c0e8ad54-848c-4ac6-8ab7-3d1bc244b658"},"vehicle_type_id":"4","last_reported":1728569334,"current_range_meters":2000,"station_id":"ce4bhah2rcd13ifvqei0","pricing_plan_id":"cebpf4jnsgd1na2vs0mg"},{"bike_id":"a76ce426-c15e-429e-a703-154566c40993","system_id":"levelo_inurba_marseille","lat":43.34144,"lon":5.40897,"is_reserved":false,"is_disabled":false,"rental_uris":{"android":"levelo://app?vid=a76ce426-c15e-429e-a703-154566c40993","ios":"levelo://app?vid=a76ce426-c15e-429e-a703-154566c40993"},"vehicle_type_id":"4","last_reported":1728569334,"current_range_meters":24800,"station_id":"ce4bhqh2rcd13ifvqhlg","pricing_plan_id":"cebpf4jnsgd1na2vs0mg"},{"bike_id":"9db4d985-7949-4b7f-b898-6a0ca7ba3693","system_id":"levelo_inurba_marseille","lat":43.337444,"lon":5.374475,"is_reserved":false,"is_disabled":false,"rental_uris":{"android":"levelo://app?vid=9db4d985-7949-4b7f-b898-6a0ca7ba3693","ios":"levelo://app?vid=9db4d985-7949-4b7f-b898-6a0ca7ba3693"},"vehicle_type_id":"4","last_reported":1728569334,"current_range_meters":36400,"station_id":"ce4rr2p2rcd13i802rgg","pricing_plan_id":"cebpf4jnsgd1na2vs0mg"},{"bike_id":"8e3e4fe1-c69a-4053-aabd-16f1558ae447","system_id":"levelo_inurba_marseille","lat":43.26223,"lon":5.37439,"is_reserved":false,"is_disabled":false,"rental_uris":{"android":"levelo://app?vid=8e3e4fe1-c69a-4053-aabd-16f1558ae447","ios":"levelo://app?vid=8e3e4fe1-c69a-4053-aabd-16f1558ae447"},"vehicle_type_id":"4","last_reported":1728569334,"current_range_meters":14400,"station_id":"","pricing_plan_id":"cebpf4jnsgd1na2vs0mg"},{"bike_id":"c4ac309e-be14-40fe-8e42-41d71e378c32","system_id":"levelo_inurba_marseille","lat":43.31726,"lon":5.42394,"is_reserved":false,"is_disabled":false,"rental_uris":{"android":"levelo://app?vid=c4ac309e-be14-40fe-8e42-41d71e378c32","ios":"levelo://app?vid=c4ac309e-be14-40fe-8e42-41d71e378c32"},"vehicle_type_id":"4","last_reported":1728569334,"current_range_meters":38000,"station_id":"ce4bhp92rcd13ifvqhbg","pricing_plan_id":"cebpf4jnsgd1na2vs0mg"},{"bike_id":"47599fab-79da-461f-89fd-43d1d10b8a6d","system_id":"levelo_inurba_marseille","lat":43.23156,"lon":5.4371,"is_reserved":false,"is_disabled":false,"rental_uris":{"android":"levelo://app?vid=47599fab-79da-461f-89fd-43d1d10b8a6d","ios":"levelo://app?vid=47599fab-79da-461f-89fd-43d1d10b8a6d"},"vehicle_type_id":"4","last_reported":1728569334,"current_range_meters":38800,"station_id":"ce4bhmp2rcd13ifvqgog","pricing_plan_id":"cebpf4jnsgd1na2vs0mg"},{"bike_id":"670924a3-866f-4db1-9ad2-28b2bb737a3b","system_id":"levelo_inurba_marseille","lat":43.2897,"lon":5.37839,"is_reserved":false,"is_disabled":false,"rental_uris":{"android":"levelo://app?vid=670924a3-866f-4db1-9ad2-28b2bb737a3b","ios":"levelo://app?vid=670924a3-866f-4db1-9ad2-28b2bb737a3b"},"vehicle_type_id":"4","last_reported":1728569334,"current_range_meters":32000,"station_id":"ce4bh9p2rcd13ifvqed0","pricing_plan_id":"cebpf4jnsgd1na2vs0mg"},{"bike_id":"c2709d8c-182c-4c66-9678-32143d413767","system_id":"levelo_inurba_marseille","lat":43.22936,"lon":5.35378,"is_reserved":false,"is_disabled":false,"rental_uris":{"android":"levelo://app?vid=c2709d8c-182c-4c66-9678-32143d413767","ios":"levelo://app?vid=c2709d8c-182c-4c66-9678-32143d413767"},"vehicle_type_id":"4","last_reported":1728569334,"current_range_meters":36400,"station_id":"cpo3532slgdg3j2ikp40","pricing_plan_id":"cebpf4jnsgd1na2vs0mg"},{"bike_id":"ec63c6e9-432c-4339-881b-b1c70a7e2cfb","system_id":"levelo_inurba_marseille","lat":43.28271,"lon":5.35069,"is_reserved":false,"is_disabled":false,"rental_uris":{"android":"levelo://app?vid=ec63c6e9-432c-4339-881b-b1c70a7e2cfb","ios":"levelo://app?vid=ec63c6e9-432c-4339-881b-b1c70a7e2cfb"},"vehicle_type_id":"4","last_reported":1728569334,"current_range_meters":10800,"station_id":"ce4bhbp2rcd13ifvqerg","pricing_plan_id":"cebpf4jnsgd1na2vs0mg"},{"bike_id":"15e60342-2492-4d11-bdc8-7431e6ce324c","system_id":"levelo_inurba_marseille","lat":43.23965,"lon":5.36624,"is_reserved":false,"is_disabled":false,"rental_uris":{"android":"levelo://app?vid=15e60342-2492-4d11-bdc8-7431e6ce324c","ios":"levelo://app?vid=15e60342-2492-4d11-bdc8-7431e6ce324c"},"vehicle_type_id":"4","last_reported":1728569334,"current_range_meters":20400,"station_id":"ce4bhi12rcd13ifvqfp0","pricing_plan_id":"cebpf4jnsgd1na2vs0mg"},{"bike_id":"d1cfcc97-b14b-4e07-a523-eee13fc73b0b","system_id":"levelo_inurba_marseille","lat":43.24663,"lon":5.3817,"is_reserved":false,"is_disabled":false,"rental_uris":{"android":"levelo://app?vid=d1cfcc97-b14b-4e07-a523-eee13fc73b0b","ios":"levelo://app?vid=d1cfcc97-b14b-4e07-a523-eee13fc73b0b"},"vehicle_type_id":"4","last_reported":1728569334,"current_range_meters":37600,"station_id":"ce4bhih2rcd13ifvqfr0","pricing_plan_id":"cebpf4jnsgd1na2vs0mg"},{"bike_id":"6275f824-c0e3-4bb5-bd73-911d14f1aa67","system_id":"levelo_inurba_marseille","lat":43.30426,"lon":5.4129,"is_reserved":false,"is_disabled":false,"rental_uris":{"android":"levelo://app?vid=6275f824-c0e3-4bb5-bd73-911d14f1aa67","ios":"levelo://app?vid=6275f824-c0e3-4bb5-bd73-911d14f1aa67"},"vehicle_type_id":"4","last_reported":1728569334,"current_range_meters":17200,"station_id":"ce4bhop2rcd13ifvqh8g","pricing_plan_id":"cebpf4jnsgd1na2vs0mg"},{"bike_id":"0bccb057-3cde-4f20-9336-4702803d8757","system_id":"levelo_inurba_marseille","lat":43.271423,"lon":5.390122,"is_reserved":false,"is_disabled":false,"rental_uris":{"android":"levelo://app?vid=0bccb057-3cde-4f20-9336-4702803d8757","ios":"levelo://app?vid=0bccb057-3cde-4f20-9336-4702803d8757"},"vehicle_type_id":"4","last_reported":1728569334,"current_range_meters":8800,"station_id":"ce4bhhp2rcd13ifvqfm0","pricing_plan_id":"cebpf4jnsgd1na2vs0mg"},{"bike_id":"ceb649a7-d416-4396-914f-b686fe3c2789","system_id":"levelo_inurba_marseille","lat":43.2767,"lon":5.38885,"is_reserved":false,"is_disabled":false,"rental_uris":{"android":"levelo://app?vid=ceb649a7-d416-4396-914f-b686fe3c2789","ios":"levelo://app?vid=ceb649a7-d416-4396-914f-b686fe3c2789"},"vehicle_type_id":"4","last_reported":1728569334,"current_range_meters":32000,"station_id":"ce4bhi12rcd13ifvqfo0","pricing_plan_id":"cebpf4jnsgd1na2vs0mg"},{"bike_id":"fbbe3235-8c0b-4edf-a1a6-309c6ca80858","system_id":"levelo_inurba_marseille","lat":43.29297,"lon":5.37458,"is_reserved":false,"is_disabled":false,"rental_uris":{"android":"levelo://app?vid=fbbe3235-8c0b-4edf-a1a6-309c6ca80858","ios":"levelo://app?vid=fbbe3235-8c0b-4edf-a1a6-309c6ca80858"},"vehicle_type_id":"4","last_reported":1728569334,"current_range_meters":19600,"station_id":"ce4bgi12rcd13ifvqb70","pricing_plan_id":"cebpf4jnsgd1na2vs0mg"},{"bike_id":"13d715de-b35b-4444-8387-bc657f2f3ac4","system_id":"levelo_inurba_marseille","lat":43.30321,"lon":5.36925,"is_reserved":false,"is_disabled":false,"rental_uris":{"android":"levelo://app?vid=13d715de-b35b-4444-8387-bc657f2f3ac4","ios":"levelo://app?vid=13d715de-b35b-4444-8387-bc657f2f3ac4"},"vehicle_type_id":"4","last_reported":1728569334,"current_range_meters":27600,"station_id":"ce4bgqh2rcd13ifvqc5g","pricing_plan_id":"cebpf4jnsgd1na2vs0mg"},{"bike_id":"1a2732f5-0e07-4d34-9dd8-d51c3595b94e","system_id":"levelo_inurba_marseille","lat":43.30462,"lon":5.379,"is_reserved":false,"is_disabled":false,"rental_uris":{"android":"levelo://app?vid=1a2732f5-0e07-4d34-9dd8-d51c3595b94e","ios":"levelo://app?vid=1a2732f5-0e07-4d34-9dd8-d51c3595b94e"},"vehicle_type_id":"4","last_reported":1728569334,"current_range_meters":6400,"station_id":"ce4bgup2rcd13ifvqcn0","pricing_plan_id":"cebpf4jnsgd1na2vs0mg"},{"bike_id":"f92a9fb8-9f73-4cf9-bc9b-2bdf5b520248","system_id":"levelo_inurba_marseille","lat":43.32543,"lon":5.41445,"is_reserved":false,"is_disabled":false,"rental_uris":{"android":"levelo://app?vid=f92a9fb8-9f73-4cf9-bc9b-2bdf5b520248","ios":"levelo://app?vid=f92a9fb8-9f73-4cf9-bc9b-2bdf5b520248"},"vehicle_type_id":"4","last_reported":1728569334,"current_range_meters":38800,"station_id":"ce4bhq12rcd13ifvqhhg","pricing_plan_id":"cebpf4jnsgd1na2vs0mg"},{"bike_id":"4c57c060-1d66-4150-a400-d403f0d4484f","system_id":"levelo_inurba_marseille","lat":43.32645,"lon":5.41001,"is_reserved":false,"is_disabled":false,"rental_uris":{"android":"levelo://app?vid=4c57c060-1d66-4150-a400-d403f0d4484f","ios":"levelo://app?vid=4c57c060-1d66-4150-a400-d403f0d4484f"},"vehicle_type_id":"4","last_reported":1728569334,"current_range_meters":3200,"station_id":"ce4bhpp2rcd13ifvqhgg","pricing_plan_id":"cebpf4jnsgd1na2vs0mg"},{"bike_id":"11a5c22c-56d6-4eab-a5c5-a0c833d9f0f7","system_id":"levelo_inurba_marseille","lat":43.29526,"lon":5.37501,"is_reserved":false,"is_disabled":false,"rental_uris":{"android":"levelo://app?vid=11a5c22c-56d6-4eab-a5c5-a0c833d9f0f7","ios":"levelo://app?vid=11a5c22c-56d6-4eab-a5c5-a0c833d9f0f7"},"vehicle_type_id":"4","last_reported":1728569334,"current_range_meters":18800,"station_id":"ce4bgkp2rcd13ifvqbmg","pricing_plan_id":"cebpf4jnsgd1na2vs0mg"},{"bike_id":"50aa4af7-94b4-48c9-959d-eeec3eaec001","system_id":"levelo_inurba_marseille","lat":43.2319,"lon":5.35544,"is_reserved":false,"is_disabled":false,"rental_uris":{"android":"levelo://app?vid=50aa4af7-94b4-48c9-959d-eeec3eaec001","ios":"levelo://app?vid=50aa4af7-94b4-48c9-959d-eeec3eaec001"},"vehicle_type_id":"4","last_reported":1728569334,"current_range_meters":7200,"station_id":"ce4bhu92rcd13ifvqi70","pricing_plan_id":"cebpf4jnsgd1na2vs0mg"},{"bike_id":"6647b19e-4ec7-41f2-b19d-54c9e09a2ada","system_id":"levelo_inurba_marseille","lat":43.27834,"lon":5.39206,"is_reserved":false,"is_disabled":false,"rental_uris":{"android":"levelo://app?vid=6647b19e-4ec7-41f2-b19d-54c9e09a2ada","ios":"levelo://app?vid=6647b19e-4ec7-41f2-b19d-54c9e09a2ada"},"vehicle_type_id":"4","last_reported":1728569334,"current_range_meters":10800,"station_id":"ce4bhjp2rcd13ifvqga0","pricing_plan_id":"cebpf4jnsgd1na2vs0mg"},{"bike_id":"5fcb97b9-d425-4a7f-9ed0-6de30a7d55a1","system_id":"levelo_inurba_marseille","lat":43.24804,"lon":5.37461,"is_reserved":false,"is_disabled":false,"rental_uris":{"android":"levelo://app?vid=5fcb97b9-d425-4a7f-9ed0-6de30a7d55a1","ios":"levelo://app?vid=5fcb97b9-d425-4a7f-9ed0-6de30a7d55a1"},"vehicle_type_id":"4","last_reported":1728569334,"current_range_meters":38800,"station_id":"ce4bhgh2rcd13ifvqfb0","pricing_plan_id":"cebpf4jnsgd1na2vs0mg"},{"bike_id":"e3e25626-2016-4c0c-bc89-45a13f5c2aec","system_id":"levelo_inurba_marseille","lat":43.26211,"lon":5.37442,"is_reserved":false,"is_disabled":false,"rental_uris":{"android":"levelo://app?vid=e3e25626-2016-4c0c-bc89-45a13f5c2aec","ios":"levelo://app?vid=e3e25626-2016-4c0c-bc89-45a13f5c2aec"},"vehicle_type_id":"4","last_reported":1728569334,"current_range_meters":19200,"station_id":"ce4bhgp2rcd13ifvqfc0","pricing_plan_id":"cebpf4jnsgd1na2vs0mg"},{"bike_id":"4b8a1e95-529d-41bd-a282-0883c7c9fac8","system_id":"levelo_inurba_marseille","lat":43.3127,"lon":5.40159,"is_reserved":false,"is_disabled":false,"rental_uris":{"android":"levelo://app?vid=4b8a1e95-529d-41bd-a282-0883c7c9fac8","ios":"levelo://app?vid=4b8a1e95-529d-41bd-a282-0883c7c9fac8"},"vehicle_type_id":"4","last_reported":1728569334,"current_range_meters":6400,"station_id":"ce4bh092rcd13ifvqd30","pricing_plan_id":"cebpf4jnsgd1na2vs0mg"},{"bike_id":"8ff85569-6842-4b35-9084-e606c83c94d1","system_id":"levelo_inurba_marseille","lat":43.30911,"lon":5.36848,"is_reserved":false,"is_disabled":false,"rental_uris":{"android":"levelo://app?vid=8ff85569-6842-4b35-9084-e606c83c94d1","ios":"levelo://app?vid=8ff85569-6842-4b35-9084-e606c83c94d1"},"vehicle_type_id":"4","last_reported":1728569334,"current_range_meters":13600,"station_id":"ce4bgn92rcd13ifvqbvg","pricing_plan_id":"cebpf4jnsgd1na2vs0mg"},{"bike_id":"27119b2c-0155-43be-b9ea-3639682fca07","system_id":"levelo_inurba_marseille","lat":43.25586,"lon":5.38224,"is_reserved":false,"is_disabled":false,"rental_uris":{"android":"levelo://app?vid=27119b2c-0155-43be-b9ea-3639682fca07","ios":"levelo://app?vid=27119b2c-0155-43be-b9ea-3639682fca07"},"vehicle_type_id":"4","last_reported":1728569334,"current_range_meters":8800,"station_id":"ce4bhih2rcd13ifvqfs0","pricing_plan_id":"cebpf4jnsgd1na2vs0mg"},{"bike_id":"1eda9a62-3980-4c15-b6d5-579365675c4b","system_id":"levelo_inurba_marseille","lat":43.29033,"lon":5.37775,"is_reserved":false,"is_disabled":false,"rental_uris":{"android":"levelo://app?vid=1eda9a62-3980-4c15-b6d5-579365675c4b","ios":"levelo://app?vid=1eda9a62-3980-4c15-b6d5-579365675c4b"},"vehicle_type_id":"4","last_reported":1728569334,"current_range_meters":14800,"station_id":"ce4bhbh2rcd13ifvqepg","pricing_plan_id":"cebpf4jnsgd1na2vs0mg"},{"bike_id":"52799f7c-437d-4392-9ce1-0dc74f861eb0","system_id":"levelo_inurba_marseille","lat":43.28462,"lon":5.35886,"is_reserved":false,"is_disabled":false,"rental_uris":{"android":"levelo://app?vid=52799f7c-437d-4392-9ce1-0dc74f861eb0","ios":"levelo://app?vid=52799f7c-437d-4392-9ce1-0dc74f861eb0"},"vehicle_type_id":"4","last_reported":1728569334,"current_range_meters":15200,"station_id":"ce4bhah2rcd13ifvqei0","pricing_plan_id":"cebpf4jnsgd1na2vs0mg"},{"bike_id":"fe11f599-04a7-4673-9188-65494a76438c","system_id":"levelo_inurba_marseille","lat":43.29267,"lon":5.38453,"is_reserved":false,"is_disabled":false,"rental_uris":{"android":"levelo://app?vid=fe11f599-04a7-4673-9188-65494a76438c","ios":"levelo://app?vid=fe11f599-04a7-4673-9188-65494a76438c"},"vehicle_type_id":"4","last_reported":1728569334,"current_range_meters":23200,"station_id":"ce4bh692rcd13ifvqea0","pricing_plan_id":"cebpf4jnsgd1na2vs0mg"},{"bike_id":"ff68b789-7173-415f-860f-fb58c1b9d01d","system_id":"levelo_inurba_marseille","lat":43.22928,"lon":5.35376,"is_reserved":false,"is_disabled":false,"rental_uris":{"android":"levelo://app?vid=ff68b789-7173-415f-860f-fb58c1b9d01d","ios":"levelo://app?vid=ff68b789-7173-415f-860f-fb58c1b9d01d"},"vehicle_type_id":"4","last_reported":1728569334,"current_range_meters":36400,"station_id":"cpo3532slgdg3j2ikp40","pricing_plan_id":"cebpf4jnsgd1na2vs0mg"},{"bike_id":"e1f91e55-59ca-485d-bb8b-69feee6668b4","system_id":"levelo_inurba_marseille","lat":43.30325,"lon":5.36909,"is_reserved":false,"is_disabled":false,"rental_uris":{"android":"levelo://app?vid=e1f91e55-59ca-485d-bb8b-69feee6668b4","ios":"levelo://app?vid=e1f91e55-59ca-485d-bb8b-69feee6668b4"},"vehicle_type_id":"4","last_reported":1728569334,"current_range_meters":14000,"station_id":"ce4bgqh2rcd13ifvqc5g","pricing_plan_id":"cebpf4jnsgd1na2vs0mg"},{"bike_id":"924a9ed1-ca4e-44c4-a003-5955b143b28c","system_id":"levelo_inurba_marseille","lat":43.23185,"lon":5.35536,"is_reserved":false,"is_disabled":false,"rental_uris":{"android":"levelo://app?vid=924a9ed1-ca4e-44c4-a003-5955b143b28c","ios":"levelo://app?vid=924a9ed1-ca4e-44c4-a003-5955b143b28c"},"vehicle_type_id":"4","last_reported":1728569334,"current_range_meters":9600,"station_id":"ce4bhu92rcd13ifvqi70","pricing_plan_id":"cebpf4jnsgd1na2vs0mg"},{"bike_id":"afe4f386-d128-44aa-8a43-daaeec387de3","system_id":"levelo_inurba_marseille","lat":43.30605,"lon":5.37234,"is_reserved":false,"is_disabled":false,"rental_uris":{"android":"levelo://app?vid=afe4f386-d128-44aa-8a43-daaeec387de3","ios":"levelo://app?vid=afe4f386-d128-44aa-8a43-daaeec387de3"},"vehicle_type_id":"4","last_reported":1728569334,"current_range_meters":14000,"station_id":"ce4bgqh2rcd13ifvqc4g","pricing_plan_id":"cebpf4jnsgd1na2vs0mg"},{"bike_id":"b6819a21-fee3-4b6d-9e5e-0ed5a919f1e3","system_id":"levelo_inurba_marseille","lat":43.30893,"lon":5.39656,"is_reserved":false,"is_disabled":false,"rental_uris":{"android":"levelo://app?vid=b6819a21-fee3-4b6d-9e5e-0ed5a919f1e3","ios":"levelo://app?vid=b6819a21-fee3-4b6d-9e5e-0ed5a919f1e3"},"vehicle_type_id":"4","last_reported":1728569334,"current_range_meters":37600,"station_id":"ce4bh012rcd13ifvqcv0","pricing_plan_id":"cebpf4jnsgd1na2vs0mg"},{"bike_id":"fc34a4c2-5dda-43dc-8c76-0302a62a6427","system_id":"levelo_inurba_marseille","lat":43.23191,"lon":5.35558,"is_reserved":false,"is_disabled":false,"rental_uris":{"android":"levelo://app?vid=fc34a4c2-5dda-43dc-8c76-0302a62a6427","ios":"levelo://app?vid=fc34a4c2-5dda-43dc-8c76-0302a62a6427"},"vehicle_type_id":"4","last_reported":1728569334,"current_range_meters":36000,"station_id":"ce4bhu92rcd13ifvqi70","pricing_plan_id":"cebpf4jnsgd1na2vs0mg"},{"bike_id":"4fd1e273-2f0a-4442-a842-eb9efb389977","system_id":"levelo_inurba_marseille","lat":43.26574,"lon":5.39013,"is_reserved":false,"is_disabled":false,"rental_uris":{"android":"levelo://app?vid=4fd1e273-2f0a-4442-a842-eb9efb389977","ios":"levelo://app?vid=4fd1e273-2f0a-4442-a842-eb9efb389977"},"vehicle_type_id":"4","last_reported":1728569334,"current_range_meters":16000,"station_id":"ce4bhe12rcd13ifvqf30","pricing_plan_id":"cebpf4jnsgd1na2vs0mg"},{"bike_id":"8c8a0ee1-3ab0-407d-b80f-5a93c65fda5f","system_id":"levelo_inurba_marseille","lat":43.27376,"lon":5.36242,"is_reserved":false,"is_disabled":false,"rental_uris":{"android":"levelo://app?vid=8c8a0ee1-3ab0-407d-b80f-5a93c65fda5f","ios":"levelo://app?vid=8c8a0ee1-3ab0-407d-b80f-5a93c65fda5f"},"vehicle_type_id":"4","last_reported":1728569334,"current_range_meters":28800,"station_id":"ce4bhbh2rcd13ifvqeo0","pricing_plan_id":"cebpf4jnsgd1na2vs0mg"},{"bike_id":"b43e010f-69ea-40f6-9796-119442586a51","system_id":"levelo_inurba_marseille","lat":43.31334,"lon":5.39702,"is_reserved":false,"is_disabled":false,"rental_uris":{"android":"levelo://app?vid=b43e010f-69ea-40f6-9796-119442586a51","ios":"levelo://app?vid=b43e010f-69ea-40f6-9796-119442586a51"},"vehicle_type_id":"4","last_reported":1728569334,"current_range_meters":9200,"station_id":"ce4bgvp2rcd13ifvqcu0","pricing_plan_id":"cebpf4jnsgd1na2vs0mg"},{"bike_id":"f925f1f4-39e5-49bb-8e44-f683fd7b61f6","system_id":"levelo_inurba_marseille","lat":43.25864,"lon":5.39901,"is_reserved":false,"is_disabled":false,"rental_uris":{"android":"levelo://app?vid=f925f1f4-39e5-49bb-8e44-f683fd7b61f6","ios":"levelo://app?vid=f925f1f4-39e5-49bb-8e44-f683fd7b61f6"},"vehicle_type_id":"4","last_reported":1728569334,"current_range_meters":8400,"station_id":"ce4bhl92rcd13ifvqghg","pricing_plan_id":"cebpf4jnsgd1na2vs0mg"},{"bike_id":"a2142b55-300e-4189-8adc-47f1831b04ff","system_id":"levelo_inurba_marseille","lat":43.27986,"lon":5.4166,"is_reserved":false,"is_disabled":false,"rental_uris":{"android":"levelo://app?vid=a2142b55-300e-4189-8adc-47f1831b04ff","ios":"levelo://app?vid=a2142b55-300e-4189-8adc-47f1831b04ff"},"vehicle_type_id":"4","last_reported":1728569334,"current_range_meters":27600,"station_id":"ce4bho12rcd13ifvqh1g","pricing_plan_id":"cebpf4jnsgd1na2vs0mg"},{"bike_id":"f79eb05f-10e9-4660-a955-ace7b6c62509","system_id":"levelo_inurba_marseille","lat":43.29908,"lon":5.37472,"is_reserved":false,"is_disabled":false,"rental_uris":{"android":"levelo://app?vid=f79eb05f-10e9-4660-a955-ace7b6c62509","ios":"levelo://app?vid=f79eb05f-10e9-4660-a955-ace7b6c62509"},"vehicle_type_id":"4","last_reported":1728569334,"current_range_meters":38800,"station_id":"ce4bgjh2rcd13ifvqbg0","pricing_plan_id":"cebpf4jnsgd1na2vs0mg"},{"bike_id":"b88acc46-208f-442f-82c2-468418a3d08f","system_id":"levelo_inurba_marseille","lat":43.33721,"lon":5.39179,"is_reserved":false,"is_disabled":false,"rental_uris":{"android":"levelo://app?vid=b88acc46-208f-442f-82c2-468418a3d08f","ios":"levelo://app?vid=b88acc46-208f-442f-82c2-468418a3d08f"},"vehicle_type_id":"4","last_reported":1728569334,"current_range_meters":35600,"station_id":"ce4bhr92rcd13ifvqhsg","pricing_plan_id":"cebpf4jnsgd1na2vs0mg"},{"bike_id":"e98b69c0-4610-402d-9c18-6e5b08293835","system_id":"levelo_inurba_marseille","lat":43.2693,"lon":5.38913,"is_reserved":false,"is_disabled":false,"rental_uris":{"android":"levelo://app?vid=e98b69c0-4610-402d-9c18-6e5b08293835","ios":"levelo://app?vid=e98b69c0-4610-402d-9c18-6e5b08293835"},"vehicle_type_id":"4","last_reported":1728569334,"current_range_meters":19600,"station_id":"ce4bhhh2rcd13ifvqfl0","pricing_plan_id":"cebpf4jnsgd1na2vs0mg"},{"bike_id":"396156cd-4f15-4895-9ae4-aeea856ca80d","system_id":"levelo_inurba_marseille","lat":43.25866,"lon":5.39896,"is_reserved":false,"is_disabled":false,"rental_uris":{"android":"levelo://app?vid=396156cd-4f15-4895-9ae4-aeea856ca80d","ios":"levelo://app?vid=396156cd-4f15-4895-9ae4-aeea856ca80d"},"vehicle_type_id":"4","last_reported":1728569334,"current_range_meters":6800,"station_id":"ce4bhl92rcd13ifvqghg","pricing_plan_id":"cebpf4jnsgd1na2vs0mg"},{"bike_id":"4e4e7083-89bd-4f48-a4f6-01f4a7d2fcc0","system_id":"levelo_inurba_marseille","lat":43.3415,"lon":5.40908,"is_reserved":false,"is_disabled":false,"rental_uris":{"android":"levelo://app?vid=4e4e7083-89bd-4f48-a4f6-01f4a7d2fcc0","ios":"levelo://app?vid=4e4e7083-89bd-4f48-a4f6-01f4a7d2fcc0"},"vehicle_type_id":"4","last_reported":1728569334,"current_range_meters":38400,"station_id":"ce4bhqh2rcd13ifvqhlg","pricing_plan_id":"cebpf4jnsgd1na2vs0mg"},{"bike_id":"c28acb4e-6934-486d-9f1c-8f5cfe164ce9","system_id":"levelo_inurba_marseille","lat":43.25722,"lon":5.41117,"is_reserved":false,"is_disabled":false,"rental_uris":{"android":"levelo://app?vid=c28acb4e-6934-486d-9f1c-8f5cfe164ce9","ios":"levelo://app?vid=c28acb4e-6934-486d-9f1c-8f5cfe164ce9"},"vehicle_type_id":"4","last_reported":1728569334,"current_range_meters":24400,"station_id":"ce4bhkp2rcd13ifvqgd0","pricing_plan_id":"cebpf4jnsgd1na2vs0mg"},{"bike_id":"26d36b70-a380-4576-bb68-227c2890cab6","system_id":"levelo_inurba_marseille","lat":43.28377,"lon":5.38644,"is_reserved":false,"is_disabled":false,"rental_uris":{"android":"levelo://app?vid=26d36b70-a380-4576-bb68-227c2890cab6","ios":"levelo://app?vid=26d36b70-a380-4576-bb68-227c2890cab6"},"vehicle_type_id":"4","last_reported":1728569334,"current_range_meters":38000,"station_id":"ce4bh492rcd13ifvqdvg","pricing_plan_id":"cebpf4jnsgd1na2vs0mg"},{"bike_id":"53f93bfa-24c5-4899-b6c7-326e2930e5fc","system_id":"levelo_inurba_marseille","lat":43.2668,"lon":5.38262,"is_reserved":false,"is_disabled":false,"rental_uris":{"android":"levelo://app?vid=53f93bfa-24c5-4899-b6c7-326e2930e5fc","ios":"levelo://app?vid=53f93bfa-24c5-4899-b6c7-326e2930e5fc"},"vehicle_type_id":"4","last_reported":1728569334,"current_range_meters":14000,"station_id":"ce4bhg92rcd13ifvqf90","pricing_plan_id":"cebpf4jnsgd1na2vs0mg"},{"bike_id":"46f3565b-c947-41b1-ac9c-41f46878b5bc","system_id":"levelo_inurba_marseille","lat":43.29852,"lon":5.36282,"is_reserved":false,"is_disabled":false,"rental_uris":{"android":"levelo://app?vid=46f3565b-c947-41b1-ac9c-41f46878b5bc","ios":"levelo://app?vid=46f3565b-c947-41b1-ac9c-41f46878b5bc"},"vehicle_type_id":"4","last_reported":1728569334,"current_range_meters":30000,"station_id":"ce4bgpp2rcd13ifvqc3g","pricing_plan_id":"cebpf4jnsgd1na2vs0mg"},{"bike_id":"aa3ddc57-3baf-4cf5-95db-2129a84df61b","system_id":"levelo_inurba_marseille","lat":43.24392,"lon":5.37063,"is_reserved":false,"is_disabled":false,"rental_uris":{"android":"levelo://app?vid=aa3ddc57-3baf-4cf5-95db-2129a84df61b","ios":"levelo://app?vid=aa3ddc57-3baf-4cf5-95db-2129a84df61b"},"vehicle_type_id":"4","last_reported":1728569334,"current_range_meters":28000,"station_id":"ce4bhhh2rcd13ifvqfk0","pricing_plan_id":"cebpf4jnsgd1na2vs0mg"},{"bike_id":"f90ca49f-87e5-4ffa-83bf-89fbe4726d17","system_id":"levelo_inurba_marseille","lat":43.23194,"lon":5.35541,"is_reserved":false,"is_disabled":false,"rental_uris":{"android":"levelo://app?vid=f90ca49f-87e5-4ffa-83bf-89fbe4726d17","ios":"levelo://app?vid=f90ca49f-87e5-4ffa-83bf-89fbe4726d17"},"vehicle_type_id":"4","last_reported":1728569334,"current_range_meters":35600,"station_id":"ce4bhu92rcd13ifvqi70","pricing_plan_id":"cebpf4jnsgd1na2vs0mg"},{"bike_id":"acd8f3d9-dce3-4650-a614-d497a21e91d7","system_id":"levelo_inurba_marseille","lat":43.30533,"lon":5.36716,"is_reserved":false,"is_disabled":false,"rental_uris":{"android":"levelo://app?vid=acd8f3d9-dce3-4650-a614-d497a21e91d7","ios":"levelo://app?vid=acd8f3d9-dce3-4650-a614-d497a21e91d7"},"vehicle_type_id":"4","last_reported":1728569334,"current_range_meters":28400,"station_id":"ce4bgrp2rcd13ifvqc9g","pricing_plan_id":"cebpf4jnsgd1na2vs0mg"},{"bike_id":"bf2d418b-078b-4a59-a0d9-ad2451b61c28","system_id":"levelo_inurba_marseille","lat":43.28943,"lon":5.48105,"is_reserved":false,"is_disabled":false,"rental_uris":{"android":"levelo://app?vid=bf2d418b-078b-4a59-a0d9-ad2451b61c28","ios":"levelo://app?vid=bf2d418b-078b-4a59-a0d9-ad2451b61c28"},"vehicle_type_id":"4","last_reported":1728569334,"current_range_meters":9600,"station_id":"","pricing_plan_id":"cebpf4jnsgd1na2vs0mg"},{"bike_id":"e6d60376-2324-477a-a75a-0319be655fcc","system_id":"levelo_inurba_marseille","lat":43.2928,"lon":5.40116,"is_reserved":false,"is_disabled":false,"rental_uris":{"android":"levelo://app?vid=e6d60376-2324-477a-a75a-0319be655fcc","ios":"levelo://app?vid=e6d60376-2324-477a-a75a-0319be655fcc"},"vehicle_type_id":"4","last_reported":1728569334,"current_range_meters":38000,"station_id":"ce4bh312rcd13ifvqdk0","pricing_plan_id":"cebpf4jnsgd1na2vs0mg"},{"bike_id":"d539f034-4797-458b-aec0-5fb362638467","system_id":"levelo_inurba_marseille","lat":43.30145,"lon":5.39872,"is_reserved":false,"is_disabled":false,"rental_uris":{"android":"levelo://app?vid=d539f034-4797-458b-aec0-5fb362638467","ios":"levelo://app?vid=d539f034-4797-458b-aec0-5fb362638467"},"vehicle_type_id":"4","last_reported":1728569334,"current_range_meters":10800,"station_id":"ce4bh0h2rcd13ifvqd40","pricing_plan_id":"cebpf4jnsgd1na2vs0mg"},{"bike_id":"3cf6c230-2735-44a8-84cf-d46bc6ce4052","system_id":"levelo_inurba_marseille","lat":43.28273,"lon":5.35065,"is_reserved":false,"is_disabled":false,"rental_uris":{"android":"levelo://app?vid=3cf6c230-2735-44a8-84cf-d46bc6ce4052","ios":"levelo://app?vid=3cf6c230-2735-44a8-84cf-d46bc6ce4052"},"vehicle_type_id":"4","last_reported":1728569334,"current_range_meters":31200,"station_id":"ce4bhbp2rcd13ifvqerg","pricing_plan_id":"cebpf4jnsgd1na2vs0mg"},{"bike_id":"cceef627-f0da-47c6-bb3f-905accdc9cbe","system_id":"levelo_inurba_marseille","lat":43.29284,"lon":5.36859,"is_reserved":false,"is_disabled":false,"rental_uris":{"android":"levelo://app?vid=cceef627-f0da-47c6-bb3f-905accdc9cbe","ios":"levelo://app?vid=cceef627-f0da-47c6-bb3f-905accdc9cbe"},"vehicle_type_id":"4","last_reported":1728569334,"current_range_meters":23200,"station_id":"ce4bhbp2rcd13ifvqesg","pricing_plan_id":"cebpf4jnsgd1na2vs0mg"},{"bike_id":"7a6d7abb-9d7d-4444-ac0a-5e050e01ab5f","system_id":"levelo_inurba_marseille","lat":43.27992,"lon":5.41665,"is_reserved":false,"is_disabled":false,"rental_uris":{"android":"levelo://app?vid=7a6d7abb-9d7d-4444-ac0a-5e050e01ab5f","ios":"levelo://app?vid=7a6d7abb-9d7d-4444-ac0a-5e050e01ab5f"},"vehicle_type_id":"4","last_reported":1728569334,"current_range_meters":30800,"station_id":"ce4bho12rcd13ifvqh1g","pricing_plan_id":"cebpf4jnsgd1na2vs0mg"},{"bike_id":"36ca7fe2-813a-4d4c-a42b-042ca1176651","system_id":"levelo_inurba_marseille","lat":43.305939,"lon":5.372,"is_reserved":false,"is_disabled":false,"rental_uris":{"android":"levelo://app?vid=36ca7fe2-813a-4d4c-a42b-042ca1176651","ios":"levelo://app?vid=36ca7fe2-813a-4d4c-a42b-042ca1176651"},"vehicle_type_id":"4","last_reported":1728569334,"current_range_meters":35600,"station_id":"ce4bgqh2rcd13ifvqc4g","pricing_plan_id":"cebpf4jnsgd1na2vs0mg"},{"bike_id":"aa0f20b2-0d1a-43c8-b535-acfb6ee7d2dc","system_id":"levelo_inurba_marseille","lat":43.301017,"lon":5.390837,"is_reserved":false,"is_disabled":false,"rental_uris":{"android":"levelo://app?vid=aa0f20b2-0d1a-43c8-b535-acfb6ee7d2dc","ios":"levelo://app?vid=aa0f20b2-0d1a-43c8-b535-acfb6ee7d2dc"},"vehicle_type_id":"4","last_reported":1728569334,"current_range_meters":38400,"station_id":"ce4bh192rcd13ifvqdb0","pricing_plan_id":"cebpf4jnsgd1na2vs0mg"},{"bike_id":"7ab59404-0f9c-4115-af81-559d90050e74","system_id":"levelo_inurba_marseille","lat":43.23067,"lon":5.35491,"is_reserved":false,"is_disabled":false,"rental_uris":{"android":"levelo://app?vid=7ab59404-0f9c-4115-af81-559d90050e74","ios":"levelo://app?vid=7ab59404-0f9c-4115-af81-559d90050e74"},"vehicle_type_id":"4","last_reported":1728569334,"current_range_meters":12000,"station_id":"cpo3342slgdg3j2ifvpg","pricing_plan_id":"cebpf4jnsgd1na2vs0mg"},{"bike_id":"c21efc11-bc1c-43d8-88e3-48d7f04e546e","system_id":"levelo_inurba_marseille","lat":43.341422,"lon":5.409128,"is_reserved":false,"is_disabled":false,"rental_uris":{"android":"levelo://app?vid=c21efc11-bc1c-43d8-88e3-48d7f04e546e","ios":"levelo://app?vid=c21efc11-bc1c-43d8-88e3-48d7f04e546e"},"vehicle_type_id":"4","last_reported":1728569334,"current_range_meters":27200,"station_id":"ce4bhqh2rcd13ifvqhlg","pricing_plan_id":"cebpf4jnsgd1na2vs0mg"},{"bike_id":"7353a7c6-fb0d-460d-b553-d3c728fe847e","system_id":"levelo_inurba_marseille","lat":43.29963,"lon":5.38499,"is_reserved":false,"is_disabled":false,"rental_uris":{"android":"levelo://app?vid=7353a7c6-fb0d-460d-b553-d3c728fe847e","ios":"levelo://app?vid=7353a7c6-fb0d-460d-b553-d3c728fe847e"},"vehicle_type_id":"4","last_reported":1728569334,"current_range_meters":3200,"station_id":"ce4bgj92rcd13ifvqbd0","pricing_plan_id":"cebpf4jnsgd1na2vs0mg"},{"bike_id":"c05175af-25e3-4d0d-83fc-c1fdd8a6928b","system_id":"levelo_inurba_marseille","lat":43.28613,"lon":5.35105,"is_reserved":false,"is_disabled":false,"rental_uris":{"android":"levelo://app?vid=c05175af-25e3-4d0d-83fc-c1fdd8a6928b","ios":"levelo://app?vid=c05175af-25e3-4d0d-83fc-c1fdd8a6928b"},"vehicle_type_id":"4","last_reported":1728569334,"current_range_meters":35200,"station_id":"ce4bhch2rcd13ifvqeug","pricing_plan_id":"cebpf4jnsgd1na2vs0mg"},{"bike_id":"e11e0c24-c0bc-4f88-a7ac-f1998192b6ec","system_id":"levelo_inurba_marseille","lat":43.31065,"lon":5.38349,"is_reserved":false,"is_disabled":false,"rental_uris":{"android":"levelo://app?vid=e11e0c24-c0bc-4f88-a7ac-f1998192b6ec","ios":"levelo://app?vid=e11e0c24-c0bc-4f88-a7ac-f1998192b6ec"},"vehicle_type_id":"4","last_reported":1728569334,"current_range_meters":19600,"station_id":"ce4bgv92rcd13ifvqcr0","pricing_plan_id":"cebpf4jnsgd1na2vs0mg"},{"bike_id":"b3e9416b-3c96-4d10-978b-bd0136109af7","system_id":"levelo_inurba_marseille","lat":43.30797,"lon":5.43523,"is_reserved":false,"is_disabled":false,"rental_uris":{"android":"levelo://app?vid=b3e9416b-3c96-4d10-978b-bd0136109af7","ios":"levelo://app?vid=b3e9416b-3c96-4d10-978b-bd0136109af7"},"vehicle_type_id":"4","last_reported":1728569334,"current_range_meters":11200,"station_id":"ce4bhph2rcd13ifvqheg","pricing_plan_id":"cebpf4jnsgd1na2vs0mg"},{"bike_id":"f3745e67-3a3c-448b-ab46-cd97aef94aaf","system_id":"levelo_inurba_marseille","lat":43.3229,"lon":5.38272,"is_reserved":false,"is_disabled":false,"rental_uris":{"android":"levelo://app?vid=f3745e67-3a3c-448b-ab46-cd97aef94aaf","ios":"levelo://app?vid=f3745e67-3a3c-448b-ab46-cd97aef94aaf"},"vehicle_type_id":"4","last_reported":1728569334,"current_range_meters":36400,"station_id":"ce4bhr12rcd13ifvqhqg","pricing_plan_id":"cebpf4jnsgd1na2vs0mg"},{"bike_id":"6621e1af-9ca0-463c-a3ad-f651030b0dd3","system_id":"levelo_inurba_marseille","lat":43.23193,"lon":5.35549,"is_reserved":false,"is_disabled":false,"rental_uris":{"android":"levelo://app?vid=6621e1af-9ca0-463c-a3ad-f651030b0dd3","ios":"levelo://app?vid=6621e1af-9ca0-463c-a3ad-f651030b0dd3"},"vehicle_type_id":"4","last_reported":1728569334,"current_range_meters":36400,"station_id":"ce4bhu92rcd13ifvqi70","pricing_plan_id":"cebpf4jnsgd1na2vs0mg"},{"bike_id":"7c5e5b46-415e-48f9-a7e9-7abd8697d8e4","system_id":"levelo_inurba_marseille","lat":43.32046,"lon":5.4155,"is_reserved":false,"is_disabled":false,"rental_uris":{"android":"levelo://app?vid=7c5e5b46-415e-48f9-a7e9-7abd8697d8e4","ios":"levelo://app?vid=7c5e5b46-415e-48f9-a7e9-7abd8697d8e4"},"vehicle_type_id":"4","last_reported":1728569334,"current_range_meters":36400,"station_id":"ce4bhq92rcd13ifvqhkg","pricing_plan_id":"cebpf4jnsgd1na2vs0mg"},{"bike_id":"6556a0e8-ba62-4f2d-a3b3-7f4eadf93364","system_id":"levelo_inurba_marseille","lat":43.30542,"lon":5.36697,"is_reserved":false,"is_disabled":false,"rental_uris":{"android":"levelo://app?vid=6556a0e8-ba62-4f2d-a3b3-7f4eadf93364","ios":"levelo://app?vid=6556a0e8-ba62-4f2d-a3b3-7f4eadf93364"},"vehicle_type_id":"4","last_reported":1728569334,"current_range_meters":38400,"station_id":"ce4bgrp2rcd13ifvqc9g","pricing_plan_id":"cebpf4jnsgd1na2vs0mg"},{"bike_id":"05c75186-5f0f-4ec8-9cf5-d280530ba69b","system_id":"levelo_inurba_marseille","lat":43.32367,"lon":5.38886,"is_reserved":false,"is_disabled":false,"rental_uris":{"android":"levelo://app?vid=05c75186-5f0f-4ec8-9cf5-d280530ba69b","ios":"levelo://app?vid=05c75186-5f0f-4ec8-9cf5-d280530ba69b"},"vehicle_type_id":"4","last_reported":1728569334,"current_range_meters":32000,"station_id":"ce4bhqp2rcd13ifvqhog","pricing_plan_id":"cebpf4jnsgd1na2vs0mg"},{"bike_id":"d536ef4b-b253-4bee-9285-eb782f8f6cab","system_id":"levelo_inurba_marseille","lat":43.32609,"lon":5.41024,"is_reserved":false,"is_disabled":false,"rental_uris":{"android":"levelo://app?vid=d536ef4b-b253-4bee-9285-eb782f8f6cab","ios":"levelo://app?vid=d536ef4b-b253-4bee-9285-eb782f8f6cab"},"vehicle_type_id":"4","last_reported":1728569334,"current_range_meters":30800,"station_id":"ce4bhpp2rcd13ifvqhgg","pricing_plan_id":"cebpf4jnsgd1na2vs0mg"},{"bike_id":"5c59208d-7cc8-4d18-97aa-5b2f019839a8","system_id":"levelo_inurba_marseille","lat":43.25728,"lon":5.41111,"is_reserved":false,"is_disabled":false,"rental_uris":{"android":"levelo://app?vid=5c59208d-7cc8-4d18-97aa-5b2f019839a8","ios":"levelo://app?vid=5c59208d-7cc8-4d18-97aa-5b2f019839a8"},"vehicle_type_id":"4","last_reported":1728569334,"current_range_meters":38400,"station_id":"ce4bhkp2rcd13ifvqgd0","pricing_plan_id":"cebpf4jnsgd1na2vs0mg"},{"bike_id":"ad8b9f41-1b49-4d1d-ba73-841c25c0a24b","system_id":"levelo_inurba_marseille","lat":43.30933,"lon":5.40149,"is_reserved":false,"is_disabled":false,"rental_uris":{"android":"levelo://app?vid=ad8b9f41-1b49-4d1d-ba73-841c25c0a24b","ios":"levelo://app?vid=ad8b9f41-1b49-4d1d-ba73-841c25c0a24b"},"vehicle_type_id":"4","last_reported":1728569334,"current_range_meters":38800,"station_id":"ce4bgvp2rcd13ifvqct0","pricing_plan_id":"cebpf4jnsgd1na2vs0mg"},{"bike_id":"e4f25001-ab83-46de-aceb-d566b264240e","system_id":"levelo_inurba_marseille","lat":43.24807,"lon":5.37451,"is_reserved":false,"is_disabled":false,"rental_uris":{"android":"levelo://app?vid=e4f25001-ab83-46de-aceb-d566b264240e","ios":"levelo://app?vid=e4f25001-ab83-46de-aceb-d566b264240e"},"vehicle_type_id":"4","last_reported":1728569334,"current_range_meters":10000,"station_id":"ce4bhgh2rcd13ifvqfb0","pricing_plan_id":"cebpf4jnsgd1na2vs0mg"},{"bike_id":"d35acba1-0c57-41bc-9156-a2180b8a1a82","system_id":"levelo_inurba_marseille","lat":43.33721,"lon":5.39184,"is_reserved":false,"is_disabled":false,"rental_uris":{"android":"levelo://app?vid=d35acba1-0c57-41bc-9156-a2180b8a1a82","ios":"levelo://app?vid=d35acba1-0c57-41bc-9156-a2180b8a1a82"},"vehicle_type_id":"4","last_reported":1728569334,"current_range_meters":35200,"station_id":"ce4bhr92rcd13ifvqhsg","pricing_plan_id":"cebpf4jnsgd1na2vs0mg"},{"bike_id":"dc0f5ca1-63e8-4fdb-bfe1-f386a2a9a3ac","system_id":"levelo_inurba_marseille","lat":43.27201,"lon":5.39177,"is_reserved":false,"is_disabled":false,"rental_uris":{"android":"levelo://app?vid=dc0f5ca1-63e8-4fdb-bfe1-f386a2a9a3ac","ios":"levelo://app?vid=dc0f5ca1-63e8-4fdb-bfe1-f386a2a9a3ac"},"vehicle_type_id":"4","last_reported":1728569334,"current_range_meters":39200,"station_id":"ce4bhhp2rcd13ifvqfm0","pricing_plan_id":"cebpf4jnsgd1na2vs0mg"},{"bike_id":"46824399-b4f3-429a-bfef-c93fcf32b7ef","system_id":"levelo_inurba_marseille","lat":43.30089,"lon":5.39071,"is_reserved":false,"is_disabled":false,"rental_uris":{"android":"levelo://app?vid=46824399-b4f3-429a-bfef-c93fcf32b7ef","ios":"levelo://app?vid=46824399-b4f3-429a-bfef-c93fcf32b7ef"},"vehicle_type_id":"4","last_reported":1728569334,"current_range_meters":6800,"station_id":"ce4bgth2rcd13ifvqch0","pricing_plan_id":"cebpf4jnsgd1na2vs0mg"},{"bike_id":"68a0cd13-11ac-49bc-bde1-92ef187e689d","system_id":"levelo_inurba_marseille","lat":43.29699,"lon":5.36607,"is_reserved":false,"is_disabled":false,"rental_uris":{"android":"levelo://app?vid=68a0cd13-11ac-49bc-bde1-92ef187e689d","ios":"levelo://app?vid=68a0cd13-11ac-49bc-bde1-92ef187e689d"},"vehicle_type_id":"4","last_reported":1728569334,"current_range_meters":36000,"station_id":"ce4bgn12rcd13ifvqbt0","pricing_plan_id":"cebpf4jnsgd1na2vs0mg"},{"bike_id":"d530fe26-4ca3-40ce-a084-5e8e8e17cdd1","system_id":"levelo_inurba_marseille","lat":43.28447,"lon":5.39208,"is_reserved":false,"is_disabled":false,"rental_uris":{"android":"levelo://app?vid=d530fe26-4ca3-40ce-a084-5e8e8e17cdd1","ios":"levelo://app?vid=d530fe26-4ca3-40ce-a084-5e8e8e17cdd1"},"vehicle_type_id":"4","last_reported":1728569334,"current_range_meters":19600,"station_id":"ce4bhoh2rcd13ifvqh5g","pricing_plan_id":"cebpf4jnsgd1na2vs0mg"},{"bike_id":"8034954c-a6c8-46de-8165-a51114fd0886","system_id":"levelo_inurba_marseille","lat":43.29857,"lon":5.36286,"is_reserved":false,"is_disabled":false,"rental_uris":{"android":"levelo://app?vid=8034954c-a6c8-46de-8165-a51114fd0886","ios":"levelo://app?vid=8034954c-a6c8-46de-8165-a51114fd0886"},"vehicle_type_id":"4","last_reported":1728569334,"current_range_meters":20000,"station_id":"ce4bgpp2rcd13ifvqc3g","pricing_plan_id":"cebpf4jnsgd1na2vs0mg"},{"bike_id":"81135374-e8c7-4d8b-9363-0cdfa412c521","system_id":"levelo_inurba_marseille","lat":43.29012,"lon":5.35614,"is_reserved":false,"is_disabled":false,"rental_uris":{"android":"levelo://app?vid=81135374-e8c7-4d8b-9363-0cdfa412c521","ios":"levelo://app?vid=81135374-e8c7-4d8b-9363-0cdfa412c521"},"vehicle_type_id":"4","last_reported":1728569334,"current_range_meters":24400,"station_id":"ce4bhb92rcd13ifvqen0","pricing_plan_id":"cebpf4jnsgd1na2vs0mg"},{"bike_id":"0a914b9b-1fcc-4758-a91b-1f2a11f6cf7a","system_id":"levelo_inurba_marseille","lat":43.27192,"lon":5.40995,"is_reserved":false,"is_disabled":false,"rental_uris":{"android":"levelo://app?vid=0a914b9b-1fcc-4758-a91b-1f2a11f6cf7a","ios":"levelo://app?vid=0a914b9b-1fcc-4758-a91b-1f2a11f6cf7a"},"vehicle_type_id":"4","last_reported":1728569334,"current_range_meters":16400,"station_id":"ce4bhl12rcd13ifvqgf0","pricing_plan_id":"cebpf4jnsgd1na2vs0mg"},{"bike_id":"0260ea70-100f-4754-8723-99015eb8d25f","system_id":"levelo_inurba_marseille","lat":43.30605,"lon":5.36737,"is_reserved":false,"is_disabled":false,"rental_uris":{"android":"levelo://app?vid=0260ea70-100f-4754-8723-99015eb8d25f","ios":"levelo://app?vid=0260ea70-100f-4754-8723-99015eb8d25f"},"vehicle_type_id":"4","last_reported":1728569334,"current_range_meters":36800,"station_id":"","pricing_plan_id":"cebpf4jnsgd1na2vs0mg"},{"bike_id":"8665fe75-7b1c-4b25-955b-a02aa16eff4b","system_id":"levelo_inurba_marseille","lat":43.287988,"lon":5.363547,"is_reserved":false,"is_disabled":false,"rental_uris":{"android":"levelo://app?vid=8665fe75-7b1c-4b25-955b-a02aa16eff4b","ios":"levelo://app?vid=8665fe75-7b1c-4b25-955b-a02aa16eff4b"},"vehicle_type_id":"4","last_reported":1728569334,"current_range_meters":17200,"station_id":"","pricing_plan_id":"cebpf4jnsgd1na2vs0mg"},{"bike_id":"7c8269d7-3d49-4995-9446-32dd48e54ecd","system_id":"levelo_inurba_marseille","lat":43.31996,"lon":5.38164,"is_reserved":false,"is_disabled":false,"rental_uris":{"android":"levelo://app?vid=7c8269d7-3d49-4995-9446-32dd48e54ecd","ios":"levelo://app?vid=7c8269d7-3d49-4995-9446-32dd48e54ecd"},"vehicle_type_id":"4","last_reported":1728569334,"current_range_meters":35200,"station_id":"ce4bhr12rcd13ifvqhpg","pricing_plan_id":"cebpf4jnsgd1na2vs0mg"},{"bike_id":"4ac2644f-eb6f-4e1a-9929-c4c04dcc8777","system_id":"levelo_inurba_marseille","lat":43.32104,"lon":5.36768,"is_reserved":false,"is_disabled":false,"rental_uris":{"android":"levelo://app?vid=4ac2644f-eb6f-4e1a-9929-c4c04dcc8777","ios":"levelo://app?vid=4ac2644f-eb6f-4e1a-9929-c4c04dcc8777"},"vehicle_type_id":"4","last_reported":1728569334,"current_range_meters":38800,"station_id":"ce4bhrh2rcd13ifvqhug","pricing_plan_id":"cebpf4jnsgd1na2vs0mg"},{"bike_id":"48158b6e-aa15-46fa-b108-be5bdb7a3a31","system_id":"levelo_inurba_marseille","lat":43.33748,"lon":5.37459,"is_reserved":false,"is_disabled":false,"rental_uris":{"android":"levelo://app?vid=48158b6e-aa15-46fa-b108-be5bdb7a3a31","ios":"levelo://app?vid=48158b6e-aa15-46fa-b108-be5bdb7a3a31"},"vehicle_type_id":"4","last_reported":1728569334,"current_range_meters":28000,"station_id":"","pricing_plan_id":"cebpf4jnsgd1na2vs0mg"},{"bike_id":"e8780318-009b-469d-b55a-34e595c1644d","system_id":"levelo_inurba_marseille","lat":43.30639,"lon":5.40075,"is_reserved":false,"is_disabled":false,"rental_uris":{"android":"levelo://app?vid=e8780318-009b-469d-b55a-34e595c1644d","ios":"levelo://app?vid=e8780318-009b-469d-b55a-34e595c1644d"},"vehicle_type_id":"4","last_reported":1728569334,"current_range_meters":38000,"station_id":"ce4bh112rcd13ifvqda0","pricing_plan_id":"cebpf4jnsgd1na2vs0mg"},{"bike_id":"e2dedf1c-7e55-45e6-8fb6-1039ae9ab85a","system_id":"levelo_inurba_marseille","lat":43.24394,"lon":5.37058,"is_reserved":false,"is_disabled":false,"rental_uris":{"android":"levelo://app?vid=e2dedf1c-7e55-45e6-8fb6-1039ae9ab85a","ios":"levelo://app?vid=e2dedf1c-7e55-45e6-8fb6-1039ae9ab85a"},"vehicle_type_id":"4","last_reported":1728569334,"current_range_meters":38800,"station_id":"ce4bhhh2rcd13ifvqfk0","pricing_plan_id":"cebpf4jnsgd1na2vs0mg"},{"bike_id":"86696e7a-c73b-4dd8-9ac1-97921c6f346e","system_id":"levelo_inurba_marseille","lat":43.30914,"lon":5.36843,"is_reserved":false,"is_disabled":false,"rental_uris":{"android":"levelo://app?vid=86696e7a-c73b-4dd8-9ac1-97921c6f346e","ios":"levelo://app?vid=86696e7a-c73b-4dd8-9ac1-97921c6f346e"},"vehicle_type_id":"4","last_reported":1728569334,"current_range_meters":8400,"station_id":"ce4bgn92rcd13ifvqbvg","pricing_plan_id":"cebpf4jnsgd1na2vs0mg"},{"bike_id":"d8a07f81-f14f-44c5-8303-4be4ba55631a","system_id":"levelo_inurba_marseille","lat":43.30186,"lon":5.36624,"is_reserved":false,"is_disabled":false,"rental_uris":{"android":"levelo://app?vid=d8a07f81-f14f-44c5-8303-4be4ba55631a","ios":"levelo://app?vid=d8a07f81-f14f-44c5-8303-4be4ba55631a"},"vehicle_type_id":"4","last_reported":1728569334,"current_range_meters":3200,"station_id":"ce4bgrh2rcd13ifvqc8g","pricing_plan_id":"cebpf4jnsgd1na2vs0mg"},{"bike_id":"fbee0c7d-9644-40cf-9261-4975b07ed7ba","system_id":"levelo_inurba_marseille","lat":43.2843,"lon":5.34991,"is_reserved":false,"is_disabled":false,"rental_uris":{"android":"levelo://app?vid=fbee0c7d-9644-40cf-9261-4975b07ed7ba","ios":"levelo://app?vid=fbee0c7d-9644-40cf-9261-4975b07ed7ba"},"vehicle_type_id":"4","last_reported":1728569334,"current_range_meters":18800,"station_id":"ce4bhbh2rcd13ifvqepg","pricing_plan_id":"cebpf4jnsgd1na2vs0mg"},{"bike_id":"50bf9abb-ec0b-42bd-8289-23924b129c5a","system_id":"levelo_inurba_marseille","lat":43.3137,"lon":5.38494,"is_reserved":false,"is_disabled":false,"rental_uris":{"android":"levelo://app?vid=50bf9abb-ec0b-42bd-8289-23924b129c5a","ios":"levelo://app?vid=50bf9abb-ec0b-42bd-8289-23924b129c5a"},"vehicle_type_id":"4","last_reported":1728569334,"current_range_meters":39200,"station_id":"ce4bgt92rcd13ifvqcf0","pricing_plan_id":"cebpf4jnsgd1na2vs0mg"},{"bike_id":"042d40df-663c-4fbd-897f-7f92e90e5f5c","system_id":"levelo_inurba_marseille","lat":43.299316,"lon":5.376147,"is_reserved":false,"is_disabled":false,"rental_uris":{"android":"levelo://app?vid=042d40df-663c-4fbd-897f-7f92e90e5f5c","ios":"levelo://app?vid=042d40df-663c-4fbd-897f-7f92e90e5f5c"},"vehicle_type_id":"4","last_reported":1728569334,"current_range_meters":6000,"station_id":"ce4bgjh2rcd13ifvqbg0","pricing_plan_id":"cebpf4jnsgd1na2vs0mg"},{"bike_id":"fc3f0547-89f3-45ed-b216-20a87ce42cb7","system_id":"levelo_inurba_marseille","lat":43.23147,"lon":5.43713,"is_reserved":false,"is_disabled":false,"rental_uris":{"android":"levelo://app?vid=fc3f0547-89f3-45ed-b216-20a87ce42cb7","ios":"levelo://app?vid=fc3f0547-89f3-45ed-b216-20a87ce42cb7"},"vehicle_type_id":"4","last_reported":1728569334,"current_range_meters":24400,"station_id":"ce4bhmp2rcd13ifvqgog","pricing_plan_id":"cebpf4jnsgd1na2vs0mg"},{"bike_id":"6c3cc9b2-be4e-45bf-a8be-71c6d03d163f","system_id":"levelo_inurba_marseille","lat":43.33229,"lon":5.3646,"is_reserved":false,"is_disabled":false,"rental_uris":{"android":"levelo://app?vid=6c3cc9b2-be4e-45bf-a8be-71c6d03d163f","ios":"levelo://app?vid=6c3cc9b2-be4e-45bf-a8be-71c6d03d163f"},"vehicle_type_id":"4","last_reported":1728569334,"current_range_meters":18000,"station_id":"","pricing_plan_id":"cebpf4jnsgd1na2vs0mg"},{"bike_id":"a2a47222-7e28-4885-9a2d-93f84247e3d0","system_id":"levelo_inurba_marseille","lat":43.30421,"lon":5.41294,"is_reserved":false,"is_disabled":false,"rental_uris":{"android":"levelo://app?vid=a2a47222-7e28-4885-9a2d-93f84247e3d0","ios":"levelo://app?vid=a2a47222-7e28-4885-9a2d-93f84247e3d0"},"vehicle_type_id":"4","last_reported":1728569334,"current_range_meters":38800,"station_id":"ce4bhop2rcd13ifvqh8g","pricing_plan_id":"cebpf4jnsgd1na2vs0mg"},{"bike_id":"aa75c41c-1391-4d5a-b0ad-fb29c317877d","system_id":"levelo_inurba_marseille","lat":43.23063,"lon":5.35498,"is_reserved":false,"is_disabled":false,"rental_uris":{"android":"levelo://app?vid=aa75c41c-1391-4d5a-b0ad-fb29c317877d","ios":"levelo://app?vid=aa75c41c-1391-4d5a-b0ad-fb29c317877d"},"vehicle_type_id":"4","last_reported":1728569334,"current_range_meters":11200,"station_id":"cpo3342slgdg3j2ifvpg","pricing_plan_id":"cebpf4jnsgd1na2vs0mg"},{"bike_id":"4c8e231d-8d09-43dd-a56c-bb27fa390b8e","system_id":"levelo_inurba_marseille","lat":43.30897,"lon":5.39652,"is_reserved":false,"is_disabled":false,"rental_uris":{"android":"levelo://app?vid=4c8e231d-8d09-43dd-a56c-bb27fa390b8e","ios":"levelo://app?vid=4c8e231d-8d09-43dd-a56c-bb27fa390b8e"},"vehicle_type_id":"4","last_reported":1728569334,"current_range_meters":38000,"station_id":"ce4bh012rcd13ifvqcv0","pricing_plan_id":"cebpf4jnsgd1na2vs0mg"},{"bike_id":"3aefde4b-63b0-4ae2-a72d-9d1aa68380d5","system_id":"levelo_inurba_marseille","lat":43.3058,"lon":5.39346,"is_reserved":false,"is_disabled":false,"rental_uris":{"android":"levelo://app?vid=3aefde4b-63b0-4ae2-a72d-9d1aa68380d5","ios":"levelo://app?vid=3aefde4b-63b0-4ae2-a72d-9d1aa68380d5"},"vehicle_type_id":"4","last_reported":1728569334,"current_range_meters":30000,"station_id":"","pricing_plan_id":"cebpf4jnsgd1na2vs0mg"},{"bike_id":"f91a1892-7a48-4f4e-9778-d65df225b133","system_id":"levelo_inurba_marseille","lat":43.31358,"lon":5.38488,"is_reserved":false,"is_disabled":false,"rental_uris":{"android":"levelo://app?vid=f91a1892-7a48-4f4e-9778-d65df225b133","ios":"levelo://app?vid=f91a1892-7a48-4f4e-9778-d65df225b133"},"vehicle_type_id":"4","last_reported":1728569334,"current_range_meters":28800,"station_id":"ce4bgt92rcd13ifvqcf0","pricing_plan_id":"cebpf4jnsgd1na2vs0mg"},{"bike_id":"567ccd09-b3eb-41fa-b032-c2861411111d","system_id":"levelo_inurba_marseille","lat":43.31362,"lon":5.3849,"is_reserved":false,"is_disabled":false,"rental_uris":{"android":"levelo://app?vid=567ccd09-b3eb-41fa-b032-c2861411111d","ios":"levelo://app?vid=567ccd09-b3eb-41fa-b032-c2861411111d"},"vehicle_type_id":"4","last_reported":1728569334,"current_range_meters":28400,"station_id":"ce4bgt92rcd13ifvqcf0","pricing_plan_id":"cebpf4jnsgd1na2vs0mg"},{"bike_id":"aa432f15-7fb6-49b7-a585-f66d14fdaaf6","system_id":"levelo_inurba_marseille","lat":43.2731,"lon":5.39078,"is_reserved":false,"is_disabled":false,"rental_uris":{"android":"levelo://app?vid=aa432f15-7fb6-49b7-a585-f66d14fdaaf6","ios":"levelo://app?vid=aa432f15-7fb6-49b7-a585-f66d14fdaaf6"},"vehicle_type_id":"4","last_reported":1728569334,"current_range_meters":8800,"station_id":"ce4bhgp2rcd13ifvqfe0","pricing_plan_id":"cebpf4jnsgd1na2vs0mg"},{"bike_id":"97de9bdc-a1c4-400a-88f2-721adcfb96fb","system_id":"levelo_inurba_marseille","lat":43.32656,"lon":5.40992,"is_reserved":false,"is_disabled":false,"rental_uris":{"android":"levelo://app?vid=97de9bdc-a1c4-400a-88f2-721adcfb96fb","ios":"levelo://app?vid=97de9bdc-a1c4-400a-88f2-721adcfb96fb"},"vehicle_type_id":"4","last_reported":1728569334,"current_range_meters":24000,"station_id":"ce4bhpp2rcd13ifvqhgg","pricing_plan_id":"cebpf4jnsgd1na2vs0mg"},{"bike_id":"f726cc47-6f60-43aa-abee-81f91235bfa9","system_id":"levelo_inurba_marseille","lat":43.28709,"lon":5.37943,"is_reserved":false,"is_disabled":false,"rental_uris":{"android":"levelo://app?vid=f726cc47-6f60-43aa-abee-81f91235bfa9","ios":"levelo://app?vid=f726cc47-6f60-43aa-abee-81f91235bfa9"},"vehicle_type_id":"4","last_reported":1728569334,"current_range_meters":38800,"station_id":"ce4bh9p2rcd13ifvqec0","pricing_plan_id":"cebpf4jnsgd1na2vs0mg"},{"bike_id":"8e5a5c48-53fa-4d6b-bebb-1b55ed5fc5a4","system_id":"levelo_inurba_marseille","lat":43.29941,"lon":5.3862,"is_reserved":false,"is_disabled":false,"rental_uris":{"android":"levelo://app?vid=8e5a5c48-53fa-4d6b-bebb-1b55ed5fc5a4","ios":"levelo://app?vid=8e5a5c48-53fa-4d6b-bebb-1b55ed5fc5a4"},"vehicle_type_id":"4","last_reported":1728569334,"current_range_meters":6800,"station_id":"ce4bh0h2rcd13ifvqd40","pricing_plan_id":"cebpf4jnsgd1na2vs0mg"},{"bike_id":"b23acee4-5720-4575-91af-11c4e23edb2d","system_id":"levelo_inurba_marseille","lat":43.337444,"lon":5.374475,"is_reserved":false,"is_disabled":false,"rental_uris":{"android":"levelo://app?vid=b23acee4-5720-4575-91af-11c4e23edb2d","ios":"levelo://app?vid=b23acee4-5720-4575-91af-11c4e23edb2d"},"vehicle_type_id":"4","last_reported":1728569334,"current_range_meters":38800,"station_id":"ce4bhbh2rcd13ifvqepg","pricing_plan_id":"cebpf4jnsgd1na2vs0mg"},{"bike_id":"3ebf6c1a-8f4f-4d40-b6b6-3f0fc1ecc23b","system_id":"levelo_inurba_marseille","lat":43.29908,"lon":5.38511,"is_reserved":false,"is_disabled":false,"rental_uris":{"android":"levelo://app?vid=3ebf6c1a-8f4f-4d40-b6b6-3f0fc1ecc23b","ios":"levelo://app?vid=3ebf6c1a-8f4f-4d40-b6b6-3f0fc1ecc23b"},"vehicle_type_id":"4","last_reported":1728569334,"current_range_meters":15200,"station_id":"ce4bgr92rcd13ifvqc7g","pricing_plan_id":"cebpf4jnsgd1na2vs0mg"},{"bike_id":"62f352ec-e233-4d7f-8753-6a5615214777","system_id":"levelo_inurba_marseille","lat":43.32283,"lon":5.3827,"is_reserved":false,"is_disabled":false,"rental_uris":{"android":"levelo://app?vid=62f352ec-e233-4d7f-8753-6a5615214777","ios":"levelo://app?vid=62f352ec-e233-4d7f-8753-6a5615214777"},"vehicle_type_id":"4","last_reported":1728569334,"current_range_meters":39200,"station_id":"ce4bhr12rcd13ifvqhqg","pricing_plan_id":"cebpf4jnsgd1na2vs0mg"},{"bike_id":"b17246ce-edc5-45f0-8e01-ee103eb253df","system_id":"levelo_inurba_marseille","lat":43.26055,"lon":5.39374,"is_reserved":false,"is_disabled":false,"rental_uris":{"android":"levelo://app?vid=b17246ce-edc5-45f0-8e01-ee103eb253df","ios":"levelo://app?vid=b17246ce-edc5-45f0-8e01-ee103eb253df"},"vehicle_type_id":"4","last_reported":1728569334,"current_range_meters":8800,"station_id":"ce4bhh92rcd13ifvqfj0","pricing_plan_id":"cebpf4jnsgd1na2vs0mg"},{"bike_id":"7ba972ed-e865-44ad-82b9-b2b196e803a2","system_id":"levelo_inurba_marseille","lat":43.28659,"lon":5.36346,"is_reserved":false,"is_disabled":false,"rental_uris":{"android":"levelo://app?vid=7ba972ed-e865-44ad-82b9-b2b196e803a2","ios":"levelo://app?vid=7ba972ed-e865-44ad-82b9-b2b196e803a2"},"vehicle_type_id":"4","last_reported":1728569334,"current_range_meters":17200,"station_id":"ce4bhah2rcd13ifvqej0","pricing_plan_id":"cebpf4jnsgd1na2vs0mg"},{"bike_id":"4934ad06-f2af-498b-b87d-8b9f9bdbded3","system_id":"levelo_inurba_marseille","lat":43.27177,"lon":5.40984,"is_reserved":false,"is_disabled":false,"rental_uris":{"android":"levelo://app?vid=4934ad06-f2af-498b-b87d-8b9f9bdbded3","ios":"levelo://app?vid=4934ad06-f2af-498b-b87d-8b9f9bdbded3"},"vehicle_type_id":"4","last_reported":1728569334,"current_range_meters":6800,"station_id":"ce4bhl12rcd13ifvqgf0","pricing_plan_id":"cebpf4jnsgd1na2vs0mg"},{"bike_id":"b1f38acf-776d-4838-b6e0-c501dba57819","system_id":"levelo_inurba_marseille","lat":43.30143,"lon":5.37422,"is_reserved":false,"is_disabled":false,"rental_uris":{"android":"levelo://app?vid=b1f38acf-776d-4838-b6e0-c501dba57819","ios":"levelo://app?vid=b1f38acf-776d-4838-b6e0-c501dba57819"},"vehicle_type_id":"4","last_reported":1728569334,"current_range_meters":38800,"station_id":"ce4bgs92rcd13ifvqcc0","pricing_plan_id":"cebpf4jnsgd1na2vs0mg"},{"bike_id":"c552d467-40ef-4b19-bd51-c8163fc5ab77","system_id":"levelo_inurba_marseille","lat":43.30428,"lon":5.39751,"is_reserved":false,"is_disabled":false,"rental_uris":{"android":"levelo://app?vid=c552d467-40ef-4b19-bd51-c8163fc5ab77","ios":"levelo://app?vid=c552d467-40ef-4b19-bd51-c8163fc5ab77"},"vehicle_type_id":"4","last_reported":1728569334,"current_range_meters":16000,"station_id":"ce4bh092rcd13ifvqd20","pricing_plan_id":"cebpf4jnsgd1na2vs0mg"},{"bike_id":"d7cad08c-c7b3-4d54-8a46-4c1b6c8da952","system_id":"levelo_inurba_marseille","lat":43.30306,"lon":5.36903,"is_reserved":false,"is_disabled":false,"rental_uris":{"android":"levelo://app?vid=d7cad08c-c7b3-4d54-8a46-4c1b6c8da952","ios":"levelo://app?vid=d7cad08c-c7b3-4d54-8a46-4c1b6c8da952"},"vehicle_type_id":"4","last_reported":1728569334,"current_range_meters":20800,"station_id":"ce4bgqh2rcd13ifvqc5g","pricing_plan_id":"cebpf4jnsgd1na2vs0mg"},{"bike_id":"66c2234f-5994-45f3-9770-3902baaef51b","system_id":"levelo_inurba_marseille","lat":43.337444,"lon":5.374475,"is_reserved":false,"is_disabled":false,"rental_uris":{"android":"levelo://app?vid=66c2234f-5994-45f3-9770-3902baaef51b","ios":"levelo://app?vid=66c2234f-5994-45f3-9770-3902baaef51b"},"vehicle_type_id":"4","last_reported":1728569334,"current_range_meters":36000,"station_id":"","pricing_plan_id":"cebpf4jnsgd1na2vs0mg"},{"bike_id":"2dc1d4f2-bffe-419c-b07d-2f2347a2e109","system_id":"levelo_inurba_marseille","lat":43.23157,"lon":5.43704,"is_reserved":false,"is_disabled":false,"rental_uris":{"android":"levelo://app?vid=2dc1d4f2-bffe-419c-b07d-2f2347a2e109","ios":"levelo://app?vid=2dc1d4f2-bffe-419c-b07d-2f2347a2e109"},"vehicle_type_id":"4","last_reported":1728569334,"current_range_meters":18000,"station_id":"ce4bhmp2rcd13ifvqgog","pricing_plan_id":"cebpf4jnsgd1na2vs0mg"},{"bike_id":"28f14564-5a47-4bc5-a509-d99bcaace2f7","system_id":"levelo_inurba_marseille","lat":43.23157,"lon":5.43704,"is_reserved":false,"is_disabled":false,"rental_uris":{"android":"levelo://app?vid=28f14564-5a47-4bc5-a509-d99bcaace2f7","ios":"levelo://app?vid=28f14564-5a47-4bc5-a509-d99bcaace2f7"},"vehicle_type_id":"4","last_reported":1728569334,"current_range_meters":11600,"station_id":"ce4bhmp2rcd13ifvqgog","pricing_plan_id":"cebpf4jnsgd1na2vs0mg"},{"bike_id":"789aac11-cc9d-48a9-ba75-fa69bb8593e1","system_id":"levelo_inurba_marseille","lat":43.24807,"lon":5.37459,"is_reserved":false,"is_disabled":false,"rental_uris":{"android":"levelo://app?vid=789aac11-cc9d-48a9-ba75-fa69bb8593e1","ios":"levelo://app?vid=789aac11-cc9d-48a9-ba75-fa69bb8593e1"},"vehicle_type_id":"4","last_reported":1728569334,"current_range_meters":23200,"station_id":"ce4bhgh2rcd13ifvqfb0","pricing_plan_id":"cebpf4jnsgd1na2vs0mg"},{"bike_id":"ca7c9272-ccc0-4323-8bab-29bcedceaaf8","system_id":"levelo_inurba_marseille","lat":43.29417,"lon":5.38622,"is_reserved":false,"is_disabled":false,"rental_uris":{"android":"levelo://app?vid=ca7c9272-ccc0-4323-8bab-29bcedceaaf8","ios":"levelo://app?vid=ca7c9272-ccc0-4323-8bab-29bcedceaaf8"},"vehicle_type_id":"4","last_reported":1728569334,"current_range_meters":26000,"station_id":"ce4bh2h2rcd13ifvqdh0","pricing_plan_id":"cebpf4jnsgd1na2vs0mg"},{"bike_id":"1a861540-d3c9-4bb4-a079-2f8292e51f83","system_id":"levelo_inurba_marseille","lat":43.31887,"lon":5.40738,"is_reserved":false,"is_disabled":false,"rental_uris":{"android":"levelo://app?vid=1a861540-d3c9-4bb4-a079-2f8292e51f83","ios":"levelo://app?vid=1a861540-d3c9-4bb4-a079-2f8292e51f83"},"vehicle_type_id":"4","last_reported":1728569334,"current_range_meters":8000,"station_id":"ce4bhq12rcd13ifvqhig","pricing_plan_id":"cebpf4jnsgd1na2vs0mg"},{"bike_id":"dac30887-1265-4f81-af52-bde8a9dcbecc","system_id":"levelo_inurba_marseille","lat":43.32484,"lon":5.36565,"is_reserved":false,"is_disabled":false,"rental_uris":{"android":"levelo://app?vid=dac30887-1265-4f81-af52-bde8a9dcbecc","ios":"levelo://app?vid=dac30887-1265-4f81-af52-bde8a9dcbecc"},"vehicle_type_id":"4","last_reported":1728569334,"current_range_meters":21600,"station_id":"ce4bhs12rcd13ifvqhvg","pricing_plan_id":"cebpf4jnsgd1na2vs0mg"},{"bike_id":"03ad01d0-07b1-4e81-8b89-4ff8d70c69b2","system_id":"levelo_inurba_marseille","lat":43.24811,"lon":5.37457,"is_reserved":false,"is_disabled":false,"rental_uris":{"android":"levelo://app?vid=03ad01d0-07b1-4e81-8b89-4ff8d70c69b2","ios":"levelo://app?vid=03ad01d0-07b1-4e81-8b89-4ff8d70c69b2"},"vehicle_type_id":"4","last_reported":1728569334,"current_range_meters":38800,"station_id":"ce4bhgh2rcd13ifvqfb0","pricing_plan_id":"cebpf4jnsgd1na2vs0mg"},{"bike_id":"70f34df8-2125-4a99-92b3-d7e920ba0d45","system_id":"levelo_inurba_marseille","lat":43.29911,"lon":5.37482,"is_reserved":false,"is_disabled":false,"rental_uris":{"android":"levelo://app?vid=70f34df8-2125-4a99-92b3-d7e920ba0d45","ios":"levelo://app?vid=70f34df8-2125-4a99-92b3-d7e920ba0d45"},"vehicle_type_id":"4","last_reported":1728569334,"current_range_meters":16000,"station_id":"ce4bgjh2rcd13ifvqbg0","pricing_plan_id":"cebpf4jnsgd1na2vs0mg"},{"bike_id":"3ae18fed-f345-4ef0-8ed2-3540202f3e73","system_id":"levelo_inurba_marseille","lat":43.33753,"lon":5.37448,"is_reserved":false,"is_disabled":false,"rental_uris":{"android":"levelo://app?vid=3ae18fed-f345-4ef0-8ed2-3540202f3e73","ios":"levelo://app?vid=3ae18fed-f345-4ef0-8ed2-3540202f3e73"},"vehicle_type_id":"4","last_reported":1728569334,"current_range_meters":34000,"station_id":"ce4rr2p2rcd13i802rgg","pricing_plan_id":"cebpf4jnsgd1na2vs0mg"},{"bike_id":"70dce404-2ce3-44df-8c0a-4fe12bc179e5","system_id":"levelo_inurba_marseille","lat":43.25869,"lon":5.39898,"is_reserved":false,"is_disabled":false,"rental_uris":{"android":"levelo://app?vid=70dce404-2ce3-44df-8c0a-4fe12bc179e5","ios":"levelo://app?vid=70dce404-2ce3-44df-8c0a-4fe12bc179e5"},"vehicle_type_id":"4","last_reported":1728569334,"current_range_meters":8800,"station_id":"ce4bhl92rcd13ifvqghg","pricing_plan_id":"cebpf4jnsgd1na2vs0mg"},{"bike_id":"99d66301-10cb-48d7-8f69-dbf04f54b39e","system_id":"levelo_inurba_marseille","lat":43.23065,"lon":5.35493,"is_reserved":false,"is_disabled":false,"rental_uris":{"android":"levelo://app?vid=99d66301-10cb-48d7-8f69-dbf04f54b39e","ios":"levelo://app?vid=99d66301-10cb-48d7-8f69-dbf04f54b39e"},"vehicle_type_id":"4","last_reported":1728569334,"current_range_meters":24800,"station_id":"cpo3342slgdg3j2ifvpg","pricing_plan_id":"cebpf4jnsgd1na2vs0mg"},{"bike_id":"f52ce87a-2bb8-4e6a-b67e-46c28008b1ab","system_id":"levelo_inurba_marseille","lat":43.30462,"lon":5.37906,"is_reserved":false,"is_disabled":false,"rental_uris":{"android":"levelo://app?vid=f52ce87a-2bb8-4e6a-b67e-46c28008b1ab","ios":"levelo://app?vid=f52ce87a-2bb8-4e6a-b67e-46c28008b1ab"},"vehicle_type_id":"4","last_reported":1728569334,"current_range_meters":38000,"station_id":"ce4bgup2rcd13ifvqcn0","pricing_plan_id":"cebpf4jnsgd1na2vs0mg"},{"bike_id":"cf59ad89-cd24-48d5-9b1d-15c2caf3cdfb","system_id":"levelo_inurba_marseille","lat":43.30954,"lon":5.39042,"is_reserved":false,"is_disabled":false,"rental_uris":{"android":"levelo://app?vid=cf59ad89-cd24-48d5-9b1d-15c2caf3cdfb","ios":"levelo://app?vid=cf59ad89-cd24-48d5-9b1d-15c2caf3cdfb"},"vehicle_type_id":"4","last_reported":1728569334,"current_range_meters":19600,"station_id":"ce4bgup2rcd13ifvqco0","pricing_plan_id":"cebpf4jnsgd1na2vs0mg"},{"bike_id":"82fa316c-c572-475f-9f58-b9f9b04a21f5","system_id":"levelo_inurba_marseille","lat":43.31718,"lon":5.42394,"is_reserved":false,"is_disabled":false,"rental_uris":{"android":"levelo://app?vid=82fa316c-c572-475f-9f58-b9f9b04a21f5","ios":"levelo://app?vid=82fa316c-c572-475f-9f58-b9f9b04a21f5"},"vehicle_type_id":"4","last_reported":1728569334,"current_range_meters":8400,"station_id":"ce4bhp92rcd13ifvqhbg","pricing_plan_id":"cebpf4jnsgd1na2vs0mg"},{"bike_id":"47b907fa-9497-47c6-b524-47a227a5865f","system_id":"levelo_inurba_marseille","lat":43.305506,"lon":5.3653,"is_reserved":false,"is_disabled":false,"rental_uris":{"android":"levelo://app?vid=47b907fa-9497-47c6-b524-47a227a5865f","ios":"levelo://app?vid=47b907fa-9497-47c6-b524-47a227a5865f"},"vehicle_type_id":"4","last_reported":1728569334,"current_range_meters":38800,"station_id":"ce4bgs12rcd13ifvqcag","pricing_plan_id":"cebpf4jnsgd1na2vs0mg"},{"bike_id":"dbb3003c-5711-4250-81df-04ecce1c8095","system_id":"levelo_inurba_marseille","lat":43.294174,"lon":5.386454,"is_reserved":false,"is_disabled":false,"rental_uris":{"android":"levelo://app?vid=dbb3003c-5711-4250-81df-04ecce1c8095","ios":"levelo://app?vid=dbb3003c-5711-4250-81df-04ecce1c8095"},"vehicle_type_id":"4","last_reported":1728569334,"current_range_meters":38400,"station_id":"","pricing_plan_id":"cebpf4jnsgd1na2vs0mg"},{"bike_id":"c9c8c97a-afd8-4aa9-8c85-3961b0e66ce8","system_id":"levelo_inurba_marseille","lat":43.30925,"lon":5.40133,"is_reserved":false,"is_disabled":false,"rental_uris":{"android":"levelo://app?vid=c9c8c97a-afd8-4aa9-8c85-3961b0e66ce8","ios":"levelo://app?vid=c9c8c97a-afd8-4aa9-8c85-3961b0e66ce8"},"vehicle_type_id":"4","last_reported":1728569334,"current_range_meters":38000,"station_id":"ce4bgvp2rcd13ifvqct0","pricing_plan_id":"cebpf4jnsgd1na2vs0mg"},{"bike_id":"20c905c9-8c75-410f-be04-368942b49a89","system_id":"levelo_inurba_marseille","lat":43.29002,"lon":5.35607,"is_reserved":false,"is_disabled":false,"rental_uris":{"android":"levelo://app?vid=20c905c9-8c75-410f-be04-368942b49a89","ios":"levelo://app?vid=20c905c9-8c75-410f-be04-368942b49a89"},"vehicle_type_id":"4","last_reported":1728569334,"current_range_meters":38800,"station_id":"ce4bhb92rcd13ifvqen0","pricing_plan_id":"cebpf4jnsgd1na2vs0mg"},{"bike_id":"147d423d-4d72-4060-9dc3-e24777760c80","system_id":"levelo_inurba_marseille","lat":43.32052,"lon":5.41533,"is_reserved":false,"is_disabled":false,"rental_uris":{"android":"levelo://app?vid=147d423d-4d72-4060-9dc3-e24777760c80","ios":"levelo://app?vid=147d423d-4d72-4060-9dc3-e24777760c80"},"vehicle_type_id":"4","last_reported":1728569334,"current_range_meters":20000,"station_id":"ce4bhq92rcd13ifvqhkg","pricing_plan_id":"cebpf4jnsgd1na2vs0mg"},{"bike_id":"0d616978-f5e6-49ce-94a5-19c6c56a53ac","system_id":"levelo_inurba_marseille","lat":43.34147,"lon":5.40906,"is_reserved":false,"is_disabled":false,"rental_uris":{"android":"levelo://app?vid=0d616978-f5e6-49ce-94a5-19c6c56a53ac","ios":"levelo://app?vid=0d616978-f5e6-49ce-94a5-19c6c56a53ac"},"vehicle_type_id":"4","last_reported":1728569334,"current_range_meters":8000,"station_id":"ce4bhqh2rcd13ifvqhlg","pricing_plan_id":"cebpf4jnsgd1na2vs0mg"},{"bike_id":"f3bb2223-8524-4fbe-8631-88821bef4fcc","system_id":"levelo_inurba_marseille","lat":43.30186,"lon":5.36621,"is_reserved":false,"is_disabled":false,"rental_uris":{"android":"levelo://app?vid=f3bb2223-8524-4fbe-8631-88821bef4fcc","ios":"levelo://app?vid=f3bb2223-8524-4fbe-8631-88821bef4fcc"},"vehicle_type_id":"4","last_reported":1728569334,"current_range_meters":22800,"station_id":"ce4bgrh2rcd13ifvqc8g","pricing_plan_id":"cebpf4jnsgd1na2vs0mg"},{"bike_id":"5c30a82d-88df-45f9-b63c-284d45f326aa","system_id":"levelo_inurba_marseille","lat":43.296,"lon":5.381,"is_reserved":false,"is_disabled":false,"rental_uris":{"android":"levelo://app?vid=5c30a82d-88df-45f9-b63c-284d45f326aa","ios":"levelo://app?vid=5c30a82d-88df-45f9-b63c-284d45f326aa"},"vehicle_type_id":"4","last_reported":1728569334,"current_range_meters":7200,"station_id":"ce4bgl12rcd13ifvqbo0","pricing_plan_id":"cebpf4jnsgd1na2vs0mg"},{"bike_id":"4e1efc57-b490-4dd9-9a2b-3c62a9bbddeb","system_id":"levelo_inurba_marseille","lat":43.27374,"lon":5.36253,"is_reserved":false,"is_disabled":false,"rental_uris":{"android":"levelo://app?vid=4e1efc57-b490-4dd9-9a2b-3c62a9bbddeb","ios":"levelo://app?vid=4e1efc57-b490-4dd9-9a2b-3c62a9bbddeb"},"vehicle_type_id":"4","last_reported":1728569334,"current_range_meters":16000,"station_id":"ce4bhbh2rcd13ifvqeo0","pricing_plan_id":"cebpf4jnsgd1na2vs0mg"},{"bike_id":"62ad8d70-4a2b-48b6-af93-92adb09dc81e","system_id":"levelo_inurba_marseille","lat":43.2648,"lon":5.39558,"is_reserved":false,"is_disabled":false,"rental_uris":{"android":"levelo://app?vid=62ad8d70-4a2b-48b6-af93-92adb09dc81e","ios":"levelo://app?vid=62ad8d70-4a2b-48b6-af93-92adb09dc81e"},"vehicle_type_id":"4","last_reported":1728569334,"current_range_meters":9600,"station_id":"ce4bhi12rcd13ifvqfq0","pricing_plan_id":"cebpf4jnsgd1na2vs0mg"},{"bike_id":"6dff985c-80eb-4efe-8c44-88a82401dd6a","system_id":"levelo_inurba_marseille","lat":43.33024,"lon":5.3904,"is_reserved":false,"is_disabled":false,"rental_uris":{"android":"levelo://app?vid=6dff985c-80eb-4efe-8c44-88a82401dd6a","ios":"levelo://app?vid=6dff985c-80eb-4efe-8c44-88a82401dd6a"},"vehicle_type_id":"4","last_reported":1728569334,"current_range_meters":8800,"station_id":"ce4bhr92rcd13ifvqhrg","pricing_plan_id":"cebpf4jnsgd1na2vs0mg"},{"bike_id":"aed7ba20-f7e4-4fdb-a1c3-ec5f5e2d8f8b","system_id":"levelo_inurba_marseille","lat":43.26563,"lon":5.38989,"is_reserved":false,"is_disabled":false,"rental_uris":{"android":"levelo://app?vid=aed7ba20-f7e4-4fdb-a1c3-ec5f5e2d8f8b","ios":"levelo://app?vid=aed7ba20-f7e4-4fdb-a1c3-ec5f5e2d8f8b"},"vehicle_type_id":"4","last_reported":1728569334,"current_range_meters":24400,"station_id":"ce4bhe12rcd13ifvqf30","pricing_plan_id":"cebpf4jnsgd1na2vs0mg"},{"bike_id":"27dbf793-2ca2-4c4a-b172-d5e3fdbcd84b","system_id":"levelo_inurba_marseille","lat":43.31706,"lon":5.37715,"is_reserved":false,"is_disabled":false,"rental_uris":{"android":"levelo://app?vid=27dbf793-2ca2-4c4a-b172-d5e3fdbcd84b","ios":"levelo://app?vid=27dbf793-2ca2-4c4a-b172-d5e3fdbcd84b"},"vehicle_type_id":"4","last_reported":1728569334,"current_range_meters":36800,"station_id":"ce4bgth2rcd13ifvqch0","pricing_plan_id":"cebpf4jnsgd1na2vs0mg"},{"bike_id":"045293ba-c187-4f12-9a34-856702e3db1d","system_id":"levelo_inurba_marseille","lat":43.324158,"lon":5.362669,"is_reserved":false,"is_disabled":false,"rental_uris":{"android":"levelo://app?vid=045293ba-c187-4f12-9a34-856702e3db1d","ios":"levelo://app?vid=045293ba-c187-4f12-9a34-856702e3db1d"},"vehicle_type_id":"4","last_reported":1728569334,"current_range_meters":28000,"station_id":"ce4bgqh2rcd13ifvqc5g","pricing_plan_id":"cebpf4jnsgd1na2vs0mg"},{"bike_id":"8680631a-ba75-4356-a180-9aa700548a13","system_id":"levelo_inurba_marseille","lat":43.30212,"lon":5.39465,"is_reserved":false,"is_disabled":false,"rental_uris":{"android":"levelo://app?vid=8680631a-ba75-4356-a180-9aa700548a13","ios":"levelo://app?vid=8680631a-ba75-4356-a180-9aa700548a13"},"vehicle_type_id":"4","last_reported":1728569334,"current_range_meters":5600,"station_id":"ce4bh0p2rcd13ifvqd70","pricing_plan_id":"cebpf4jnsgd1na2vs0mg"},{"bike_id":"b038e78e-b789-4ba6-bf03-6c68d348c828","system_id":"levelo_inurba_marseille","lat":43.29905,"lon":5.37464,"is_reserved":false,"is_disabled":false,"rental_uris":{"android":"levelo://app?vid=b038e78e-b789-4ba6-bf03-6c68d348c828","ios":"levelo://app?vid=b038e78e-b789-4ba6-bf03-6c68d348c828"},"vehicle_type_id":"4","last_reported":1728569334,"current_range_meters":9600,"station_id":"ce4bgjh2rcd13ifvqbg0","pricing_plan_id":"cebpf4jnsgd1na2vs0mg"},{"bike_id":"280e2dcc-d007-42ad-b022-622596981983","system_id":"levelo_inurba_marseille","lat":43.30956,"lon":5.39018,"is_reserved":false,"is_disabled":false,"rental_uris":{"android":"levelo://app?vid=280e2dcc-d007-42ad-b022-622596981983","ios":"levelo://app?vid=280e2dcc-d007-42ad-b022-622596981983"},"vehicle_type_id":"4","last_reported":1728569334,"current_range_meters":38800,"station_id":"ce4bgup2rcd13ifvqco0","pricing_plan_id":"cebpf4jnsgd1na2vs0mg"},{"bike_id":"1ae2ab72-a100-426a-bdff-9a5aec036875","system_id":"levelo_inurba_marseille","lat":43.29008,"lon":5.35604,"is_reserved":false,"is_disabled":false,"rental_uris":{"android":"levelo://app?vid=1ae2ab72-a100-426a-bdff-9a5aec036875","ios":"levelo://app?vid=1ae2ab72-a100-426a-bdff-9a5aec036875"},"vehicle_type_id":"4","last_reported":1728569334,"current_range_meters":20000,"station_id":"ce4bhb92rcd13ifvqen0","pricing_plan_id":"cebpf4jnsgd1na2vs0mg"},{"bike_id":"076e89c4-c7d3-4fd4-8d59-4d9f62e6778f","system_id":"levelo_inurba_marseille","lat":43.3228,"lon":5.38274,"is_reserved":false,"is_disabled":false,"rental_uris":{"android":"levelo://app?vid=076e89c4-c7d3-4fd4-8d59-4d9f62e6778f","ios":"levelo://app?vid=076e89c4-c7d3-4fd4-8d59-4d9f62e6778f"},"vehicle_type_id":"4","last_reported":1728569334,"current_range_meters":34800,"station_id":"ce4bhr12rcd13ifvqhqg","pricing_plan_id":"cebpf4jnsgd1na2vs0mg"},{"bike_id":"b2a8f130-4719-4e56-b18a-eef941f1b0bd","system_id":"levelo_inurba_marseille","lat":43.26783,"lon":5.39418,"is_reserved":false,"is_disabled":false,"rental_uris":{"android":"levelo://app?vid=b2a8f130-4719-4e56-b18a-eef941f1b0bd","ios":"levelo://app?vid=b2a8f130-4719-4e56-b18a-eef941f1b0bd"},"vehicle_type_id":"4","last_reported":1728569334,"current_range_meters":36800,"station_id":"ce4bhh12rcd13ifvqfg0","pricing_plan_id":"cebpf4jnsgd1na2vs0mg"},{"bike_id":"c7c56f7a-5102-4e1a-8633-faac677ed3c6","system_id":"levelo_inurba_marseille","lat":43.23195,"lon":5.35551,"is_reserved":false,"is_disabled":false,"rental_uris":{"android":"levelo://app?vid=c7c56f7a-5102-4e1a-8633-faac677ed3c6","ios":"levelo://app?vid=c7c56f7a-5102-4e1a-8633-faac677ed3c6"},"vehicle_type_id":"4","last_reported":1728569334,"current_range_meters":25200,"station_id":"ce4bhu92rcd13ifvqi70","pricing_plan_id":"cebpf4jnsgd1na2vs0mg"},{"bike_id":"a6951866-dd34-4812-8a24-4a7c121cfa8d","system_id":"levelo_inurba_marseille","lat":43.32288,"lon":5.38268,"is_reserved":false,"is_disabled":false,"rental_uris":{"android":"levelo://app?vid=a6951866-dd34-4812-8a24-4a7c121cfa8d","ios":"levelo://app?vid=a6951866-dd34-4812-8a24-4a7c121cfa8d"},"vehicle_type_id":"4","last_reported":1728569334,"current_range_meters":38800,"station_id":"ce4bhr12rcd13ifvqhqg","pricing_plan_id":"cebpf4jnsgd1na2vs0mg"},{"bike_id":"336590e0-dcb5-4fa7-a022-56648f3e3d79","system_id":"levelo_inurba_marseille","lat":43.30208,"lon":5.3947,"is_reserved":false,"is_disabled":false,"rental_uris":{"android":"levelo://app?vid=336590e0-dcb5-4fa7-a022-56648f3e3d79","ios":"levelo://app?vid=336590e0-dcb5-4fa7-a022-56648f3e3d79"},"vehicle_type_id":"4","last_reported":1728569334,"current_range_meters":24000,"station_id":"ce4bh0p2rcd13ifvqd70","pricing_plan_id":"cebpf4jnsgd1na2vs0mg"},{"bike_id":"6653552f-34b4-4c35-aea5-61e5d85c0cce","system_id":"levelo_inurba_marseille","lat":43.27175,"lon":5.40996,"is_reserved":false,"is_disabled":false,"rental_uris":{"android":"levelo://app?vid=6653552f-34b4-4c35-aea5-61e5d85c0cce","ios":"levelo://app?vid=6653552f-34b4-4c35-aea5-61e5d85c0cce"},"vehicle_type_id":"4","last_reported":1728569334,"current_range_meters":11200,"station_id":"ce4bhl12rcd13ifvqgf0","pricing_plan_id":"cebpf4jnsgd1na2vs0mg"},{"bike_id":"b5e67651-d326-4a04-af51-8f147f2e1715","system_id":"levelo_inurba_marseille","lat":43.34145,"lon":5.40905,"is_reserved":false,"is_disabled":false,"rental_uris":{"android":"levelo://app?vid=b5e67651-d326-4a04-af51-8f147f2e1715","ios":"levelo://app?vid=b5e67651-d326-4a04-af51-8f147f2e1715"},"vehicle_type_id":"4","last_reported":1728569334,"current_range_meters":9200,"station_id":"ce4bhqh2rcd13ifvqhlg","pricing_plan_id":"cebpf4jnsgd1na2vs0mg"},{"bike_id":"c8d49aeb-37a9-4025-99b6-7576a1da9782","system_id":"levelo_inurba_marseille","lat":43.32333,"lon":5.40622,"is_reserved":false,"is_disabled":false,"rental_uris":{"android":"levelo://app?vid=c8d49aeb-37a9-4025-99b6-7576a1da9782","ios":"levelo://app?vid=c8d49aeb-37a9-4025-99b6-7576a1da9782"},"vehicle_type_id":"4","last_reported":1728569334,"current_range_meters":24400,"station_id":"ce4bhq92rcd13ifvqhjg","pricing_plan_id":"cebpf4jnsgd1na2vs0mg"},{"bike_id":"e71aba9c-5669-4a85-b897-e0fa81b67693","system_id":"levelo_inurba_marseille","lat":43.27177,"lon":5.40994,"is_reserved":false,"is_disabled":false,"rental_uris":{"android":"levelo://app?vid=e71aba9c-5669-4a85-b897-e0fa81b67693","ios":"levelo://app?vid=e71aba9c-5669-4a85-b897-e0fa81b67693"},"vehicle_type_id":"4","last_reported":1728569334,"current_range_meters":4800,"station_id":"ce4bhl12rcd13ifvqgf0","pricing_plan_id":"cebpf4jnsgd1na2vs0mg"},{"bike_id":"daa275ea-ac44-47b4-ac61-333e5afbc9ef","system_id":"levelo_inurba_marseille","lat":43.31718,"lon":5.42393,"is_reserved":false,"is_disabled":false,"rental_uris":{"android":"levelo://app?vid=daa275ea-ac44-47b4-ac61-333e5afbc9ef","ios":"levelo://app?vid=daa275ea-ac44-47b4-ac61-333e5afbc9ef"},"vehicle_type_id":"4","last_reported":1728569334,"current_range_meters":23200,"station_id":"ce4bhp92rcd13ifvqhbg","pricing_plan_id":"cebpf4jnsgd1na2vs0mg"},{"bike_id":"ccc7dd97-dc80-4c47-bd0b-ac5c9e9d5102","system_id":"levelo_inurba_marseille","lat":43.30135,"lon":5.37414,"is_reserved":false,"is_disabled":false,"rental_uris":{"android":"levelo://app?vid=ccc7dd97-dc80-4c47-bd0b-ac5c9e9d5102","ios":"levelo://app?vid=ccc7dd97-dc80-4c47-bd0b-ac5c9e9d5102"},"vehicle_type_id":"4","last_reported":1728569334,"current_range_meters":38800,"station_id":"ce4bgs92rcd13ifvqcc0","pricing_plan_id":"cebpf4jnsgd1na2vs0mg"},{"bike_id":"2053fa7d-2ee1-41e1-9342-60dad8706f40","system_id":"levelo_inurba_marseille","lat":43.24484,"lon":5.37433,"is_reserved":false,"is_disabled":false,"rental_uris":{"android":"levelo://app?vid=2053fa7d-2ee1-41e1-9342-60dad8706f40","ios":"levelo://app?vid=2053fa7d-2ee1-41e1-9342-60dad8706f40"},"vehicle_type_id":"4","last_reported":1728569334,"current_range_meters":28800,"station_id":"","pricing_plan_id":"cebpf4jnsgd1na2vs0mg"},{"bike_id":"a2ea0748-d71f-4c64-8f65-a6389c49fefc","system_id":"levelo_inurba_marseille","lat":43.26202,"lon":5.37927,"is_reserved":false,"is_disabled":false,"rental_uris":{"android":"levelo://app?vid=a2ea0748-d71f-4c64-8f65-a6389c49fefc","ios":"levelo://app?vid=a2ea0748-d71f-4c64-8f65-a6389c49fefc"},"vehicle_type_id":"4","last_reported":1728569334,"current_range_meters":31200,"station_id":"ce4bhjp2rcd13ifvqg90","pricing_plan_id":"cebpf4jnsgd1na2vs0mg"},{"bike_id":"9cf3db70-1431-4372-b452-2d0770d0c15d","system_id":"levelo_inurba_marseille","lat":43.23194,"lon":5.35553,"is_reserved":false,"is_disabled":false,"rental_uris":{"android":"levelo://app?vid=9cf3db70-1431-4372-b452-2d0770d0c15d","ios":"levelo://app?vid=9cf3db70-1431-4372-b452-2d0770d0c15d"},"vehicle_type_id":"4","last_reported":1728569334,"current_range_meters":36000,"station_id":"ce4bhu92rcd13ifvqi70","pricing_plan_id":"cebpf4jnsgd1na2vs0mg"},{"bike_id":"27b2b588-5bcc-4f07-8dcb-e39a84a5743e","system_id":"levelo_inurba_marseille","lat":43.30645,"lon":5.40096,"is_reserved":false,"is_disabled":false,"rental_uris":{"android":"levelo://app?vid=27b2b588-5bcc-4f07-8dcb-e39a84a5743e","ios":"levelo://app?vid=27b2b588-5bcc-4f07-8dcb-e39a84a5743e"},"vehicle_type_id":"4","last_reported":1728569334,"current_range_meters":6800,"station_id":"ce4bh112rcd13ifvqda0","pricing_plan_id":"cebpf4jnsgd1na2vs0mg"},{"bike_id":"53ad6bad-1741-4b7a-8557-ce2d18913176","system_id":"levelo_inurba_marseille","lat":43.31062,"lon":5.38342,"is_reserved":false,"is_disabled":false,"rental_uris":{"android":"levelo://app?vid=53ad6bad-1741-4b7a-8557-ce2d18913176","ios":"levelo://app?vid=53ad6bad-1741-4b7a-8557-ce2d18913176"},"vehicle_type_id":"4","last_reported":1728569334,"current_range_meters":19600,"station_id":"ce4bgv92rcd13ifvqcr0","pricing_plan_id":"cebpf4jnsgd1na2vs0mg"},{"bike_id":"800704c5-22ff-4987-bcce-5fb01ce1f78c","system_id":"levelo_inurba_marseille","lat":43.28422,"lon":5.34984,"is_reserved":false,"is_disabled":false,"rental_uris":{"android":"levelo://app?vid=800704c5-22ff-4987-bcce-5fb01ce1f78c","ios":"levelo://app?vid=800704c5-22ff-4987-bcce-5fb01ce1f78c"},"vehicle_type_id":"4","last_reported":1728569334,"current_range_meters":38800,"station_id":"ce4bhbh2rcd13ifvqepg","pricing_plan_id":"cebpf4jnsgd1na2vs0mg"},{"bike_id":"3c25dded-f8d5-4193-a336-9fad641c4aac","system_id":"levelo_inurba_marseille","lat":43.33766,"lon":5.37447,"is_reserved":false,"is_disabled":false,"rental_uris":{"android":"levelo://app?vid=3c25dded-f8d5-4193-a336-9fad641c4aac","ios":"levelo://app?vid=3c25dded-f8d5-4193-a336-9fad641c4aac"},"vehicle_type_id":"4","last_reported":1728569334,"current_range_meters":16400,"station_id":"","pricing_plan_id":"cebpf4jnsgd1na2vs0mg"},{"bike_id":"3c1b3443-ef85-4b7b-b108-e2bbd4402aa3","system_id":"levelo_inurba_marseille","lat":43.30535,"lon":5.38436,"is_reserved":false,"is_disabled":false,"rental_uris":{"android":"levelo://app?vid=3c1b3443-ef85-4b7b-b108-e2bbd4402aa3","ios":"levelo://app?vid=3c1b3443-ef85-4b7b-b108-e2bbd4402aa3"},"vehicle_type_id":"4","last_reported":1728569334,"current_range_meters":14000,"station_id":"ce4bgg92rcd13ifvqb30","pricing_plan_id":"cebpf4jnsgd1na2vs0mg"},{"bike_id":"c45c4812-ee99-4f30-8c10-331993c489db","system_id":"levelo_inurba_marseille","lat":43.24163,"lon":5.36401,"is_reserved":false,"is_disabled":false,"rental_uris":{"android":"levelo://app?vid=c45c4812-ee99-4f30-8c10-331993c489db","ios":"levelo://app?vid=c45c4812-ee99-4f30-8c10-331993c489db"},"vehicle_type_id":"4","last_reported":1728569334,"current_range_meters":9600,"station_id":"cpo36qri1sfpv3e86is0","pricing_plan_id":"cebpf4jnsgd1na2vs0mg"},{"bike_id":"9079b268-4532-4938-9d2d-abdc5ca906dd","system_id":"levelo_inurba_marseille","lat":43.2985,"lon":5.36282,"is_reserved":false,"is_disabled":false,"rental_uris":{"android":"levelo://app?vid=9079b268-4532-4938-9d2d-abdc5ca906dd","ios":"levelo://app?vid=9079b268-4532-4938-9d2d-abdc5ca906dd"},"vehicle_type_id":"4","last_reported":1728569334,"current_range_meters":27600,"station_id":"ce4bgpp2rcd13ifvqc3g","pricing_plan_id":"cebpf4jnsgd1na2vs0mg"},{"bike_id":"39e16725-10f2-4b9c-8577-03e21af7cfa9","system_id":"levelo_inurba_marseille","lat":43.30885,"lon":5.39658,"is_reserved":false,"is_disabled":false,"rental_uris":{"android":"levelo://app?vid=39e16725-10f2-4b9c-8577-03e21af7cfa9","ios":"levelo://app?vid=39e16725-10f2-4b9c-8577-03e21af7cfa9"},"vehicle_type_id":"4","last_reported":1728569334,"current_range_meters":27600,"station_id":"ce4bh012rcd13ifvqcv0","pricing_plan_id":"cebpf4jnsgd1na2vs0mg"},{"bike_id":"d1430022-6b9a-4199-a305-84a3818e0305","system_id":"levelo_inurba_marseille","lat":43.28999,"lon":5.35613,"is_reserved":false,"is_disabled":false,"rental_uris":{"android":"levelo://app?vid=d1430022-6b9a-4199-a305-84a3818e0305","ios":"levelo://app?vid=d1430022-6b9a-4199-a305-84a3818e0305"},"vehicle_type_id":"4","last_reported":1728569334,"current_range_meters":23200,"station_id":"ce4bhb92rcd13ifvqen0","pricing_plan_id":"cebpf4jnsgd1na2vs0mg"},{"bike_id":"7975faaf-f260-41c7-87cd-147b9a3b3ebf","system_id":"levelo_inurba_marseille","lat":43.23057,"lon":5.3549,"is_reserved":false,"is_disabled":false,"rental_uris":{"android":"levelo://app?vid=7975faaf-f260-41c7-87cd-147b9a3b3ebf","ios":"levelo://app?vid=7975faaf-f260-41c7-87cd-147b9a3b3ebf"},"vehicle_type_id":"4","last_reported":1728569334,"current_range_meters":19600,"station_id":"cpo3342slgdg3j2ifvpg","pricing_plan_id":"cebpf4jnsgd1na2vs0mg"},{"bike_id":"605ec988-c841-4eb4-8d9e-4d3b0724f3ed","system_id":"levelo_inurba_marseille","lat":43.30534,"lon":5.36537,"is_reserved":false,"is_disabled":false,"rental_uris":{"android":"levelo://app?vid=605ec988-c841-4eb4-8d9e-4d3b0724f3ed","ios":"levelo://app?vid=605ec988-c841-4eb4-8d9e-4d3b0724f3ed"},"vehicle_type_id":"4","last_reported":1728569334,"current_range_meters":6000,"station_id":"ce4bgs12rcd13ifvqcag","pricing_plan_id":"cebpf4jnsgd1na2vs0mg"},{"bike_id":"e2dbd352-0617-4b0a-a708-07d554e99653","system_id":"levelo_inurba_marseille","lat":43.24812,"lon":5.37456,"is_reserved":false,"is_disabled":false,"rental_uris":{"android":"levelo://app?vid=e2dbd352-0617-4b0a-a708-07d554e99653","ios":"levelo://app?vid=e2dbd352-0617-4b0a-a708-07d554e99653"},"vehicle_type_id":"4","last_reported":1728569334,"current_range_meters":10000,"station_id":"ce4bhgh2rcd13ifvqfb0","pricing_plan_id":"cebpf4jnsgd1na2vs0mg"},{"bike_id":"703d5faf-e8f5-42e8-a15c-36acb1ae64d2","system_id":"levelo_inurba_marseille","lat":43.22932,"lon":5.35382,"is_reserved":false,"is_disabled":false,"rental_uris":{"android":"levelo://app?vid=703d5faf-e8f5-42e8-a15c-36acb1ae64d2","ios":"levelo://app?vid=703d5faf-e8f5-42e8-a15c-36acb1ae64d2"},"vehicle_type_id":"4","last_reported":1728569334,"current_range_meters":8800,"station_id":"cpo3532slgdg3j2ikp40","pricing_plan_id":"cebpf4jnsgd1na2vs0mg"},{"bike_id":"4b65e5e5-d568-4114-bfd6-70b281240118","system_id":"levelo_inurba_marseille","lat":43.31718,"lon":5.42401,"is_reserved":false,"is_disabled":false,"rental_uris":{"android":"levelo://app?vid=4b65e5e5-d568-4114-bfd6-70b281240118","ios":"levelo://app?vid=4b65e5e5-d568-4114-bfd6-70b281240118"},"vehicle_type_id":"4","last_reported":1728569334,"current_range_meters":11600,"station_id":"ce4bhp92rcd13ifvqhbg","pricing_plan_id":"cebpf4jnsgd1na2vs0mg"},{"bike_id":"c99a15ef-d9e1-47b6-9751-35ab6f6a0e0c","system_id":"levelo_inurba_marseille","lat":43.28435,"lon":5.39192,"is_reserved":false,"is_disabled":false,"rental_uris":{"android":"levelo://app?vid=c99a15ef-d9e1-47b6-9751-35ab6f6a0e0c","ios":"levelo://app?vid=c99a15ef-d9e1-47b6-9751-35ab6f6a0e0c"},"vehicle_type_id":"4","last_reported":1728569334,"current_range_meters":35200,"station_id":"ce4bhoh2rcd13ifvqh5g","pricing_plan_id":"cebpf4jnsgd1na2vs0mg"},{"bike_id":"e2bb9133-05e6-45b3-9cdf-adab19c67cfe","system_id":"levelo_inurba_marseille","lat":43.29844,"lon":5.36259,"is_reserved":false,"is_disabled":false,"rental_uris":{"android":"levelo://app?vid=e2bb9133-05e6-45b3-9cdf-adab19c67cfe","ios":"levelo://app?vid=e2bb9133-05e6-45b3-9cdf-adab19c67cfe"},"vehicle_type_id":"4","last_reported":1728569334,"current_range_meters":38000,"station_id":"ce4bgpp2rcd13ifvqc3g","pricing_plan_id":"cebpf4jnsgd1na2vs0mg"},{"bike_id":"7b8f213f-3b93-4877-8839-2890acc1a34a","system_id":"levelo_inurba_marseille","lat":43.29623,"lon":5.37168,"is_reserved":false,"is_disabled":false,"rental_uris":{"android":"levelo://app?vid=7b8f213f-3b93-4877-8839-2890acc1a34a","ios":"levelo://app?vid=7b8f213f-3b93-4877-8839-2890acc1a34a"},"vehicle_type_id":"4","last_reported":1728569334,"current_range_meters":38800,"station_id":"ce4bgnh2rcd13ifvqc0g","pricing_plan_id":"cebpf4jnsgd1na2vs0mg"},{"bike_id":"fc1df656-5ace-4257-9aa7-ae6cc024a943","system_id":"levelo_inurba_marseille","lat":43.25362,"lon":5.42152,"is_reserved":false,"is_disabled":false,"rental_uris":{"android":"levelo://app?vid=fc1df656-5ace-4257-9aa7-ae6cc024a943","ios":"levelo://app?vid=fc1df656-5ace-4257-9aa7-ae6cc024a943"},"vehicle_type_id":"4","last_reported":1728569334,"current_range_meters":18000,"station_id":"ce4bhl12rcd13ifvqgf0","pricing_plan_id":"cebpf4jnsgd1na2vs0mg"},{"bike_id":"238b7c0b-5484-43a6-a3dd-04539419efe5","system_id":"levelo_inurba_marseille","lat":43.3013,"lon":5.38778,"is_reserved":false,"is_disabled":false,"rental_uris":{"android":"levelo://app?vid=238b7c0b-5484-43a6-a3dd-04539419efe5","ios":"levelo://app?vid=238b7c0b-5484-43a6-a3dd-04539419efe5"},"vehicle_type_id":"4","last_reported":1728569334,"current_range_meters":37600,"station_id":"ce4bghh2rcd13ifvqb60","pricing_plan_id":"cebpf4jnsgd1na2vs0mg"},{"bike_id":"2945ae68-8736-4155-8dcf-fa944029acb7","system_id":"levelo_inurba_marseille","lat":43.30805,"lon":5.43515,"is_reserved":false,"is_disabled":false,"rental_uris":{"android":"levelo://app?vid=2945ae68-8736-4155-8dcf-fa944029acb7","ios":"levelo://app?vid=2945ae68-8736-4155-8dcf-fa944029acb7"},"vehicle_type_id":"4","last_reported":1728569334,"current_range_meters":38800,"station_id":"ce4bhph2rcd13ifvqheg","pricing_plan_id":"cebpf4jnsgd1na2vs0mg"},{"bike_id":"32b7e550-1d43-44f8-b9be-3dc89d8a539f","system_id":"levelo_inurba_marseille","lat":43.32291,"lon":5.38263,"is_reserved":false,"is_disabled":false,"rental_uris":{"android":"levelo://app?vid=32b7e550-1d43-44f8-b9be-3dc89d8a539f","ios":"levelo://app?vid=32b7e550-1d43-44f8-b9be-3dc89d8a539f"},"vehicle_type_id":"4","last_reported":1728569334,"current_range_meters":22800,"station_id":"ce4bhr12rcd13ifvqhqg","pricing_plan_id":"cebpf4jnsgd1na2vs0mg"},{"bike_id":"a42c4aaf-176f-4aeb-9799-e3f962514a37","system_id":"levelo_inurba_marseille","lat":43.26568,"lon":5.39003,"is_reserved":false,"is_disabled":false,"rental_uris":{"android":"levelo://app?vid=a42c4aaf-176f-4aeb-9799-e3f962514a37","ios":"levelo://app?vid=a42c4aaf-176f-4aeb-9799-e3f962514a37"},"vehicle_type_id":"4","last_reported":1728569334,"current_range_meters":28000,"station_id":"ce4bhe12rcd13ifvqf30","pricing_plan_id":"cebpf4jnsgd1na2vs0mg"},{"bike_id":"e7b49636-cefa-450a-ba52-4d5362cb1c52","system_id":"levelo_inurba_marseille","lat":43.23193,"lon":5.3555,"is_reserved":false,"is_disabled":false,"rental_uris":{"android":"levelo://app?vid=e7b49636-cefa-450a-ba52-4d5362cb1c52","ios":"levelo://app?vid=e7b49636-cefa-450a-ba52-4d5362cb1c52"},"vehicle_type_id":"4","last_reported":1728569334,"current_range_meters":28000,"station_id":"ce4bhu92rcd13ifvqi70","pricing_plan_id":"cebpf4jnsgd1na2vs0mg"},