{"last_updated":1750961727,"ttl":60,"version":"2.2","data":{"bikes":[{"bike_id":"3da29fb8-fc97-44c6-b9ac-31dd456b2fd4","system_id":"levelo_inurba_marseille","lat":43.33771,"lon":5.37424,"is_reserved":false,"is_disabled":true,"rental_uris":{"android":"levelo://app?vid=3da29fb8-fc97-44c6-b9ac-31dd456b2fd4","ios":"levelo://app?vid=3da29fb8-fc97-44c6-b9ac-31dd456b2fd4"},"vehicle_type_id":"4","last_reported":1750961727,"current_range_meters":0,"station_id":"","pricing_plan_id":"cebpf4jnsgd1na2vs0mg"},{"bike_id":"01861ad8-a8d7-4be6-816e-651927c87584","system_id":"levelo_inurba_marseille","lat":43.33751,"lon":5.37456,"is_reserved":false,"is_disabled":true,"rental_uris":{"android":"levelo://app?vid=01861ad8-a8d7-4be6-816e-651927c87584","ios":"levelo://app?vid=01861ad8-a8d7-4be6-816e-651927c87584"},"vehicle_type_id":"4","last_reported":1750961727,"current_range_meters":0,"station_id":"","pricing_plan_id":"cebpf4jnsgd1na2vs0mg"},{"bike_id":"307719d8-858f-4aa2-9777-bb1fd3e52674","system_id":"levelo_inurba_marseille","lat":43.26218,"lon":5.37047,"is_reserved":false,"is_disabled":true,"rental_uris":{"android":"levelo://app?vid=307719d8-858f-4aa2-9777-bb1fd3e52674","ios":"levelo://app?vid=307719d8-858f-4aa2-9777-bb1fd3e52674"},"vehicle_type_id":"4","last_reported":1750961727,"current_range_meters":0,"station_id":"","pricing_plan_id":"cebpf4jnsgd1na2vs0mg"},{"bike_id":"7180eb66-32d6-448f-a560-f49c74e30b4e","system_id":"levelo_inurba_marseille","lat":43.27631,"lon":5.42231,"is_reserved":false,"is_disabled":true,"rental_uris":{"android":"levelo://app?vid=7180eb66-32d6-448f-a560-f49c74e30b4e","ios":"levelo://app?vid=7180eb66-32d6-448f-a560-f49c74e30b4e"},"vehicle_type_id":"4","last_reported":1750961727,"current_range_meters":0,"station_id":"","pricing_plan_id":"cebpf4jnsgd1na2vs0mg"},{"bike_id":"c36c7d7a-6f51-4c58-9930-bd4712cf3b3b","system_id":"levelo_inurba_marseille","lat":43.292236,"lon":5.360625,"is_reserved":false,"is_disabled":true,"rental_uris":{"android":"levelo://app?vid=c36c7d7a-6f51-4c58-9930-bd4712cf3b3b","ios":"levelo://app?vid=c36c7d7a-6f51-4c58-9930-bd4712cf3b3b"},"vehicle_type_id":"4","last_reported":1750961727,"current_range_meters":0,"station_id":"","pricing_plan_id":"cebpf4jnsgd1na2vs0mg"},{"bike_id":"a147e67d-e0b1-425e-bbda-ae9524df353e","system_id":"levelo_inurba_marseille","lat":43.337541,"lon":5.374577,"is_reserved":false,"is_disabled":true,"rental_uris":{"android":"levelo://app?vid=a147e67d-e0b1-425e-bbda-ae9524df353e","ios":"levelo://app?vid=a147e67d-e0b1-425e-bbda-ae9524df353e"},"vehicle_type_id":"4","last_reported":1750961727,"current_range_meters":0,"station_id":"","pricing_plan_id":"cebpf4jnsgd1na2vs0mg"},{"bike_id":"128de48f-b252-4b23-8dbb-c3ee928423f3","system_id":"levelo_inurba_marseille","lat":43.28671,"lon":5.36074,"is_reserved":false,"is_disabled":true,"rental_uris":{"android":"levelo://app?vid=128de48f-b252-4b23-8dbb-c3ee928423f3","ios":"levelo://app?vid=128de48f-b252-4b23-8dbb-c3ee928423f3"},"vehicle_type_id":"4","last_reported":1750961727,"current_range_meters":0,"station_id":"","pricing_plan_id":"cebpf4jnsgd1na2vs0mg"},{"bike_id":"be6544fb-6c1c-4292-b44a-7843b5c7fb9c","system_id":"levelo_inurba_marseille","lat":43.31663,"lon":5.41366,"is_reserved":false,"is_disabled":true,"rental_uris":{"android":"levelo://app?vid=be6544fb-6c1c-4292-b44a-7843b5c7fb9c","ios":"levelo://app?vid=be6544fb-6c1c-4292-b44a-7843b5c7fb9c"},"vehicle_type_id":"4","last_reported":1750961727,"current_range_meters":0,"station_id":"","pricing_plan_id":"cebpf4jnsgd1na2vs0mg"},{"bike_id":"4d064f95-6dcb-4234-9e98-7c70fbb74351","system_id":"levelo_inurba_marseille","lat":43.337444,"lon":5.374475,"is_reserved":false,"is_disabled":true,"rental_uris":{"android":"levelo://app?vid=4d064f95-6dcb-4234-9e98-7c70fbb74351","ios":"levelo://app?vid=4d064f95-6dcb-4234-9e98-7c70fbb74351"},"vehicle_type_id":"4","last_reported":1750961727,"current_range_meters":0,"station_id":"","pricing_plan_id":"cebpf4jnsgd1na2vs0mg"},{"bike_id":"f9fe50af-414e-4fb0-9603-6bbf2b1dbbb6","system_id":"levelo_inurba_marseille","lat":43.27613,"lon":5.361009,"is_reserved":false,"is_disabled":true,"rental_uris":{"android":"levelo://app?vid=f9fe50af-414e-4fb0-9603-6bbf2b1dbbb6","ios":"levelo://app?vid=f9fe50af-414e-4fb0-9603-6bbf2b1dbbb6"},"vehicle_type_id":"4","last_reported":1750961727,"current_range_meters":0,"station_id":"","pricing_plan_id":"cebpf4jnsgd1na2vs0mg"},{"bike_id":"06b961c7-f3ce-4c1c-a618-db74d23ebaea","system_id":"levelo_inurba_marseille","lat":43.28881,"lon":5.37859,"is_reserved":false,"is_disabled":true,"rental_uris":{"android":"levelo://app?vid=06b961c7-f3ce-4c1c-a618-db74d23ebaea","ios":"levelo://app?vid=06b961c7-f3ce-4c1c-a618-db74d23ebaea"},"vehicle_type_id":"4","last_reported":1750961727,"current_range_meters":0,"station_id":"","pricing_plan_id":"cebpf4jnsgd1na2vs0mg"},{"bike_id":"d6609b4f-333b-43c1-9ebe-8726f5e76e88","system_id":"levelo_inurba_marseille","lat":43.337444,"lon":5.374475,"is_reserved":false,"is_disabled":true,"rental_uris":{"android":"levelo://app?vid=d6609b4f-333b-43c1-9ebe-8726f5e76e88","ios":"levelo://app?vid=d6609b4f-333b-43c1-9ebe-8726f5e76e88"},"vehicle_type_id":"4","last_reported":1750961727,"current_range_meters":0,"station_id":"","pricing_plan_id":"cebpf4jnsgd1na2vs0mg"},{"bike_id":"3583f331-6c0b-49be-9913-9dde300034d9","system_id":"levelo_inurba_marseille","lat":43.246343,"lon":5.402013,"is_reserved":false,"is_disabled":true,"rental_uris":{"android":"levelo://app?vid=3583f331-6c0b-49be-9913-9dde300034d9","ios":"levelo://app?vid=3583f331-6c0b-49be-9913-9dde300034d9"},"vehicle_type_id":"4","last_reported":1750961727,"current_range_meters":0,"station_id":"","pricing_plan_id":"cebpf4jnsgd1na2vs0mg"},{"bike_id":"e5f6dcdd-df66-4b22-941f-11515331f369","system_id":"levelo_inurba_marseille","lat":43.26248,"lon":5.37421,"is_reserved":false,"is_disabled":true,"rental_uris":{"android":"levelo://app?vid=e5f6dcdd-df66-4b22-941f-11515331f369","ios":"levelo://app?vid=e5f6dcdd-df66-4b22-941f-11515331f369"},"vehicle_type_id":"4","last_reported":1750961727,"current_range_meters":0,"station_id":"","pricing_plan_id":"cebpf4jnsgd1na2vs0mg"},{"bike_id":"b17b6606-336a-4606-9b65-af139c49de26","system_id":"levelo_inurba_marseille","lat":43.25675,"lon":5.42676,"is_reserved":false,"is_disabled":true,"rental_uris":{"android":"levelo://app?vid=b17b6606-336a-4606-9b65-af139c49de26","ios":"levelo://app?vid=b17b6606-336a-4606-9b65-af139c49de26"},"vehicle_type_id":"4","last_reported":1750961727,"current_range_meters":0,"station_id":"","pricing_plan_id":"cebpf4jnsgd1na2vs0mg"},{"bike_id":"79bf4da0-05ec-4b61-b034-b3a8b163f2e8","system_id":"levelo_inurba_marseille","lat":43.3095,"lon":5.40832,"is_reserved":false,"is_disabled":true,"rental_uris":{"android":"levelo://app?vid=79bf4da0-05ec-4b61-b034-b3a8b163f2e8","ios":"levelo://app?vid=79bf4da0-05ec-4b61-b034-b3a8b163f2e8"},"vehicle_type_id":"4","last_reported":1750961727,"current_range_meters":0,"station_id":"","pricing_plan_id":"cebpf4jnsgd1na2vs0mg"},{"bike_id":"9d3724b1-0dc8-4689-9d6a-55005a9503cb","system_id":"levelo_inurba_marseille","lat":43.28618,"lon":5.42814,"is_reserved":false,"is_disabled":true,"rental_uris":{"android":"levelo://app?vid=9d3724b1-0dc8-4689-9d6a-55005a9503cb","ios":"levelo://app?vid=9d3724b1-0dc8-4689-9d6a-55005a9503cb"},"vehicle_type_id":"4","last_reported":1750961727,"current_range_meters":0,"station_id":"","pricing_plan_id":"cebpf4jnsgd1na2vs0mg"},{"bike_id":"57d36b2b-f367-4135-96a7-2d4e06698ced","system_id":"levelo_inurba_marseille","lat":43.268081,"lon":5.40276,"is_reserved":false,"is_disabled":true,"rental_uris":{"android":"levelo://app?vid=57d36b2b-f367-4135-96a7-2d4e06698ced","ios":"levelo://app?vid=57d36b2b-f367-4135-96a7-2d4e06698ced"},"vehicle_type_id":"4","last_reported":1750961727,"current_range_meters":0,"station_id":"","pricing_plan_id":"cebpf4jnsgd1na2vs0mg"},{"bike_id":"77a1c230-cdad-4fe2-8ee7-52f0b5ad7442","system_id":"levelo_inurba_marseille","lat":43.29892,"lon":5.38353,"is_reserved":false,"is_disabled":true,"rental_uris":{"android":"levelo://app?vid=77a1c230-cdad-4fe2-8ee7-52f0b5ad7442","ios":"levelo://app?vid=77a1c230-cdad-4fe2-8ee7-52f0b5ad7442"},"vehicle_type_id":"4","last_reported":1750961727,"current_range_meters":0,"station_id":"","pricing_plan_id":"cebpf4jnsgd1na2vs0mg"},{"bike_id":"75b4dd3d-6c33-4cea-b284-21a35aac4b1f","system_id":"levelo_inurba_marseille","lat":43.29479,"lon":5.38673,"is_reserved":false,"is_disabled":true,"rental_uris":{"android":"levelo://app?vid=75b4dd3d-6c33-4cea-b284-21a35aac4b1f","ios":"levelo://app?vid=75b4dd3d-6c33-4cea-b284-21a35aac4b1f"},"vehicle_type_id":"4","last_reported":1750961727,"current_range_meters":0,"station_id":"","pricing_plan_id":"cebpf4jnsgd1na2vs0mg"},{"bike_id":"6aeca325-d2a8-4eb5-97a2-b0dc2f823dc3","system_id":"levelo_inurba_marseille","lat":43.286133,"lon":5.351087,"is_reserved":false,"is_disabled":true,"rental_uris":{"android":"levelo://app?vid=6aeca325-d2a8-4eb5-97a2-b0dc2f823dc3","ios":"levelo://app?vid=6aeca325-d2a8-4eb5-97a2-b0dc2f823dc3"},"vehicle_type_id":"4","last_reported":1750961727,"current_range_meters":0,"station_id":"ce4bgih2rcd13ifvqba0","pricing_plan_id":"cebpf4jnsgd1na2vs0mg"},{"bike_id":"16c07501-c577-4d1f-bf53-b6bd70040bfe","system_id":"levelo_inurba_marseille","lat":43.30315,"lon":5.39193,"is_reserved":false,"is_disabled":true,"rental_uris":{"android":"levelo://app?vid=16c07501-c577-4d1f-bf53-b6bd70040bfe","ios":"levelo://app?vid=16c07501-c577-4d1f-bf53-b6bd70040bfe"},"vehicle_type_id":"4","last_reported":1750961727,"current_range_meters":0,"station_id":"ce4bgkh2rcd13ifvqbk0","pricing_plan_id":"cebpf4jnsgd1na2vs0mg"},{"bike_id":"d5688f42-1ef3-4ffa-86a2-8180255a6f73","system_id":"levelo_inurba_marseille","lat":43.303734,"lon":5.378851,"is_reserved":false,"is_disabled":true,"rental_uris":{"android":"levelo://app?vid=d5688f42-1ef3-4ffa-86a2-8180255a6f73","ios":"levelo://app?vid=d5688f42-1ef3-4ffa-86a2-8180255a6f73"},"vehicle_type_id":"4","last_reported":1750961727,"current_range_meters":0,"station_id":"ce4bgup2rcd13ifvqcn0","pricing_plan_id":"cebpf4jnsgd1na2vs0mg"},{"bike_id":"73eb0603-c04f-4c6f-a43b-110d9daeef2d","system_id":"levelo_inurba_marseille","lat":43.28499,"lon":5.38423,"is_reserved":false,"is_disabled":true,"rental_uris":{"android":"levelo://app?vid=73eb0603-c04f-4c6f-a43b-110d9daeef2d","ios":"levelo://app?vid=73eb0603-c04f-4c6f-a43b-110d9daeef2d"},"vehicle_type_id":"4","last_reported":1750961727,"current_range_meters":0,"station_id":"ce4bh512rcd13ifvqe3g","pricing_plan_id":"cebpf4jnsgd1na2vs0mg"},{"bike_id":"85d108d3-a324-4570-a943-b481857546de","system_id":"levelo_inurba_marseille","lat":43.29208,"lon":5.35802,"is_reserved":false,"is_disabled":true,"rental_uris":{"android":"levelo://app?vid=85d108d3-a324-4570-a943-b481857546de","ios":"levelo://app?vid=85d108d3-a324-4570-a943-b481857546de"},"vehicle_type_id":"4","last_reported":1750961727,"current_range_meters":0,"station_id":"ce4bhb12rcd13ifvqel0","pricing_plan_id":"cebpf4jnsgd1na2vs0mg"},{"bike_id":"8345e11e-9c5a-49de-8794-58ef2b7c9716","system_id":"levelo_inurba_marseille","lat":43.290088,"lon":5.356128,"is_reserved":false,"is_disabled":true,"rental_uris":{"android":"levelo://app?vid=8345e11e-9c5a-49de-8794-58ef2b7c9716","ios":"levelo://app?vid=8345e11e-9c5a-49de-8794-58ef2b7c9716"},"vehicle_type_id":"4","last_reported":1750961727,"current_range_meters":0,"station_id":"ce4bhb92rcd13ifvqen0","pricing_plan_id":"cebpf4jnsgd1na2vs0mg"},{"bike_id":"dc0751da-8bbc-495d-a579-d1980b237e3f","system_id":"levelo_inurba_marseille","lat":43.273677,"lon":5.362487,"is_reserved":false,"is_disabled":true,"rental_uris":{"android":"levelo://app?vid=dc0751da-8bbc-495d-a579-d1980b237e3f","ios":"levelo://app?vid=dc0751da-8bbc-495d-a579-d1980b237e3f"},"vehicle_type_id":"4","last_reported":1750961727,"current_range_meters":0,"station_id":"ce4bhbh2rcd13ifvqeo0","pricing_plan_id":"cebpf4jnsgd1na2vs0mg"},{"bike_id":"f70e68e7-20da-4754-881a-9568161ae4f4","system_id":"levelo_inurba_marseille","lat":43.284088,"lon":5.349762,"is_reserved":false,"is_disabled":true,"rental_uris":{"android":"levelo://app?vid=f70e68e7-20da-4754-881a-9568161ae4f4","ios":"levelo://app?vid=f70e68e7-20da-4754-881a-9568161ae4f4"},"vehicle_type_id":"4","last_reported":1750961727,"current_range_meters":0,"station_id":"ce4bhbh2rcd13ifvqepg","pricing_plan_id":"cebpf4jnsgd1na2vs0mg"},{"bike_id":"d7337be1-4bd4-4f7a-95dd-2f57b3ff725a","system_id":"levelo_inurba_marseille","lat":43.284198,"lon":5.34999,"is_reserved":false,"is_disabled":true,"rental_uris":{"android":"levelo://app?vid=d7337be1-4bd4-4f7a-95dd-2f57b3ff725a","ios":"levelo://app?vid=d7337be1-4bd4-4f7a-95dd-2f57b3ff725a"},"vehicle_type_id":"4","last_reported":1750961727,"current_range_meters":0,"station_id":"ce4bhbh2rcd13ifvqepg","pricing_plan_id":"cebpf4jnsgd1na2vs0mg"},{"bike_id":"d55c40cd-db17-471a-ae28-f701e8845a99","system_id":"levelo_inurba_marseille","lat":43.28269,"lon":5.35065,"is_reserved":false,"is_disabled":true,"rental_uris":{"android":"levelo://app?vid=d55c40cd-db17-471a-ae28-f701e8845a99","ios":"levelo://app?vid=d55c40cd-db17-471a-ae28-f701e8845a99"},"vehicle_type_id":"4","last_reported":1750961727,"current_range_meters":0,"station_id":"ce4bhbp2rcd13ifvqerg","pricing_plan_id":"cebpf4jnsgd1na2vs0mg"},{"bike_id":"04dd6e4b-ef98-4717-81db-88fc96038852","system_id":"levelo_inurba_marseille","lat":43.286133,"lon":5.351114,"is_reserved":false,"is_disabled":true,"rental_uris":{"android":"levelo://app?vid=04dd6e4b-ef98-4717-81db-88fc96038852","ios":"levelo://app?vid=04dd6e4b-ef98-4717-81db-88fc96038852"},"vehicle_type_id":"4","last_reported":1750961727,"current_range_meters":0,"station_id":"ce4bhch2rcd13ifvqeug","pricing_plan_id":"cebpf4jnsgd1na2vs0mg"},{"bike_id":"02bbb8f0-e2e5-45e2-9a2b-1866f456a0a5","system_id":"levelo_inurba_marseille","lat":43.26562,"lon":5.37282,"is_reserved":false,"is_disabled":true,"rental_uris":{"android":"levelo://app?vid=02bbb8f0-e2e5-45e2-9a2b-1866f456a0a5","ios":"levelo://app?vid=02bbb8f0-e2e5-45e2-9a2b-1866f456a0a5"},"vehicle_type_id":"4","last_reported":1750961727,"current_range_meters":0,"station_id":"ce4bhg12rcd13ifvqf70","pricing_plan_id":"cebpf4jnsgd1na2vs0mg"},{"bike_id":"a0fa2221-2d94-42e7-9151-a7ce722488dd","system_id":"levelo_inurba_marseille","lat":43.261907,"lon":5.374493,"is_reserved":false,"is_disabled":true,"rental_uris":{"android":"levelo://app?vid=a0fa2221-2d94-42e7-9151-a7ce722488dd","ios":"levelo://app?vid=a0fa2221-2d94-42e7-9151-a7ce722488dd"},"vehicle_type_id":"4","last_reported":1750961727,"current_range_meters":0,"station_id":"ce4bhgp2rcd13ifvqfc0","pricing_plan_id":"cebpf4jnsgd1na2vs0mg"},{"bike_id":"39845b90-bafd-4e87-801a-c088d997f92e","system_id":"levelo_inurba_marseille","lat":43.255081,"lon":5.3765,"is_reserved":false,"is_disabled":true,"rental_uris":{"android":"levelo://app?vid=39845b90-bafd-4e87-801a-c088d997f92e","ios":"levelo://app?vid=39845b90-bafd-4e87-801a-c088d997f92e"},"vehicle_type_id":"4","last_reported":1750961727,"current_range_meters":0,"station_id":"ce4bhh12rcd13ifvqff0","pricing_plan_id":"cebpf4jnsgd1na2vs0mg"},{"bike_id":"75388b8d-8d90-4759-a7d5-ebd067a58b4f","system_id":"levelo_inurba_marseille","lat":43.26945,"lon":5.3892,"is_reserved":false,"is_disabled":true,"rental_uris":{"android":"levelo://app?vid=75388b8d-8d90-4759-a7d5-ebd067a58b4f","ios":"levelo://app?vid=75388b8d-8d90-4759-a7d5-ebd067a58b4f"},"vehicle_type_id":"4","last_reported":1750961727,"current_range_meters":0,"station_id":"ce4bhhh2rcd13ifvqfl0","pricing_plan_id":"cebpf4jnsgd1na2vs0mg"},{"bike_id":"bb81fe8b-b8f8-46be-a707-0857bdaf9c4c","system_id":"levelo_inurba_marseille","lat":43.299392,"lon":5.365583,"is_reserved":false,"is_disabled":true,"rental_uris":{"android":"levelo://app?vid=bb81fe8b-b8f8-46be-a707-0857bdaf9c4c","ios":"levelo://app?vid=bb81fe8b-b8f8-46be-a707-0857bdaf9c4c"},"vehicle_type_id":"4","last_reported":1750961727,"current_range_meters":0,"station_id":"ce4bhi12rcd13ifvqfo0","pricing_plan_id":"cebpf4jnsgd1na2vs0mg"},{"bike_id":"6ed4e6c8-d5aa-4017-bc13-4e06f309498f","system_id":"levelo_inurba_marseille","lat":43.262679,"lon":5.378623,"is_reserved":false,"is_disabled":true,"rental_uris":{"android":"levelo://app?vid=6ed4e6c8-d5aa-4017-bc13-4e06f309498f","ios":"levelo://app?vid=6ed4e6c8-d5aa-4017-bc13-4e06f309498f"},"vehicle_type_id":"4","last_reported":1750961727,"current_range_meters":0,"station_id":"ce4bhjp2rcd13ifvqg90","pricing_plan_id":"cebpf4jnsgd1na2vs0mg"},{"bike_id":"104df9e1-487f-40c9-875f-d63ca63b8609","system_id":"levelo_inurba_marseille","lat":43.258666,"lon":5.398954,"is_reserved":false,"is_disabled":true,"rental_uris":{"android":"levelo://app?vid=104df9e1-487f-40c9-875f-d63ca63b8609","ios":"levelo://app?vid=104df9e1-487f-40c9-875f-d63ca63b8609"},"vehicle_type_id":"4","last_reported":1750961727,"current_range_meters":0,"station_id":"ce4bhl92rcd13ifvqghg","pricing_plan_id":"cebpf4jnsgd1na2vs0mg"},{"bike_id":"9bcb52f2-5dca-43c9-bc4c-89160d81e048","system_id":"levelo_inurba_marseille","lat":43.2511,"lon":5.40322,"is_reserved":false,"is_disabled":true,"rental_uris":{"android":"levelo://app?vid=9bcb52f2-5dca-43c9-bc4c-89160d81e048","ios":"levelo://app?vid=9bcb52f2-5dca-43c9-bc4c-89160d81e048"},"vehicle_type_id":"4","last_reported":1750961727,"current_range_meters":0,"station_id":"ce4bhlh2rcd13ifvqgig","pricing_plan_id":"cebpf4jnsgd1na2vs0mg"},{"bike_id":"01ad2112-1a6e-4e87-a406-3d7338c4ea8c","system_id":"levelo_inurba_marseille","lat":43.23152,"lon":5.43718,"is_reserved":false,"is_disabled":true,"rental_uris":{"android":"levelo://app?vid=01ad2112-1a6e-4e87-a406-3d7338c4ea8c","ios":"levelo://app?vid=01ad2112-1a6e-4e87-a406-3d7338c4ea8c"},"vehicle_type_id":"4","last_reported":1750961727,"current_range_meters":0,"station_id":"ce4bhmp2rcd13ifvqgog","pricing_plan_id":"cebpf4jnsgd1na2vs0mg"},{"bike_id":"9f91fe82-e110-4d82-98d2-5b37a1a59e63","system_id":"levelo_inurba_marseille","lat":43.24079,"lon":5.377608,"is_reserved":false,"is_disabled":true,"rental_uris":{"android":"levelo://app?vid=9f91fe82-e110-4d82-98d2-5b37a1a59e63","ios":"levelo://app?vid=9f91fe82-e110-4d82-98d2-5b37a1a59e63"},"vehicle_type_id":"4","last_reported":1750961727,"current_range_meters":0,"station_id":"ce4bhnp2rcd13ifvqgvg","pricing_plan_id":"cebpf4jnsgd1na2vs0mg"},{"bike_id":"69523e2c-588f-47d6-8721-954b8ffb060b","system_id":"levelo_inurba_marseille","lat":43.337246,"lon":5.391814,"is_reserved":false,"is_disabled":true,"rental_uris":{"android":"levelo://app?vid=69523e2c-588f-47d6-8721-954b8ffb060b","ios":"levelo://app?vid=69523e2c-588f-47d6-8721-954b8ffb060b"},"vehicle_type_id":"4","last_reported":1750961727,"current_range_meters":0,"station_id":"ce4bhr92rcd13ifvqhsg","pricing_plan_id":"cebpf4jnsgd1na2vs0mg"},{"bike_id":"d47140b6-cf8c-42f4-a759-63be41faffd5","system_id":"levelo_inurba_marseille","lat":43.29788,"lon":5.39332,"is_reserved":false,"is_disabled":true,"rental_uris":{"android":"levelo://app?vid=d47140b6-cf8c-42f4-a759-63be41faffd5","ios":"levelo://app?vid=d47140b6-cf8c-42f4-a759-63be41faffd5"},"vehicle_type_id":"4","last_reported":1750961727,"current_range_meters":0,"station_id":"chh1huq6cuj3fo74tm60","pricing_plan_id":"cebpf4jnsgd1na2vs0mg"},{"bike_id":"39cfbb69-aa12-49eb-9a3e-fd7da06b966b","system_id":"levelo_inurba_marseille","lat":43.24098,"lon":5.36292,"is_reserved":false,"is_disabled":true,"rental_uris":{"android":"levelo://app?vid=39cfbb69-aa12-49eb-9a3e-fd7da06b966b","ios":"levelo://app?vid=39cfbb69-aa12-49eb-9a3e-fd7da06b966b"},"vehicle_type_id":"4","last_reported":1750961727,"current_range_meters":0,"station_id":"cpo36qri1sfpv3e86is0","pricing_plan_id":"cebpf4jnsgd1na2vs0mg"},{"bike_id":"5a3dab73-c126-4de6-a97f-f9ca71f0b35f","system_id":"levelo_inurba_marseille","lat":43.2175,"lon":5.34605,"is_reserved":false,"is_disabled":true,"rental_uris":{"android":"levelo://app?vid=5a3dab73-c126-4de6-a97f-f9ca71f0b35f","ios":"levelo://app?vid=5a3dab73-c126-4de6-a97f-f9ca71f0b35f"},"vehicle_type_id":"4","last_reported":1750961727,"current_range_meters":0,"station_id":"st_cvj6r9ubvosntc0bgbag","pricing_plan_id":"cebpf4jnsgd1na2vs0mg"},{"bike_id":"17ed368e-eed2-48ff-8745-6c11391a9645","system_id":"levelo_inurba_marseille","lat":43.276855,"lon":5.36166,"is_reserved":false,"is_disabled":true,"rental_uris":{"android":"levelo://app?vid=17ed368e-eed2-48ff-8745-6c11391a9645","ios":"levelo://app?vid=17ed368e-eed2-48ff-8745-6c11391a9645"},"vehicle_type_id":"4","last_reported":1750961727,"current_range_meters":400,"station_id":"","pricing_plan_id":"cebpf4jnsgd1na2vs0mg"},{"bike_id":"eb5cf4cc-b2ab-426c-8c6a-15d8316b4b97","system_id":"levelo_inurba_marseille","lat":43.304251,"lon":5.39741,"is_reserved":false,"is_disabled":true,"rental_uris":{"android":"levelo://app?vid=eb5cf4cc-b2ab-426c-8c6a-15d8316b4b97","ios":"levelo://app?vid=eb5cf4cc-b2ab-426c-8c6a-15d8316b4b97"},"vehicle_type_id":"4","last_reported":1750961727,"current_range_meters":400,"station_id":"ce4bh092rcd13ifvqd20","pricing_plan_id":"cebpf4jnsgd1na2vs0mg"},{"bike_id":"a249c3ca-df9f-4082-8437-5d32361b2d9f","system_id":"levelo_inurba_marseille","lat":43.282824,"lon":5.350758,"is_reserved":false,"is_disabled":true,"rental_uris":{"android":"levelo://app?vid=a249c3ca-df9f-4082-8437-5d32361b2d9f","ios":"levelo://app?vid=a249c3ca-df9f-4082-8437-5d32361b2d9f"},"vehicle_type_id":"4","last_reported":1750961727,"current_range_meters":400,"station_id":"ce4bhbp2rcd13ifvqerg","pricing_plan_id":"cebpf4jnsgd1na2vs0mg"},{"bike_id":"9adf8ff4-ddb4-4742-aa95-e6d81eba491a","system_id":"levelo_inurba_marseille","lat":43.239638,"lon":5.366203,"is_reserved":false,"is_disabled":true,"rental_uris":{"android":"levelo://app?vid=9adf8ff4-ddb4-4742-aa95-e6d81eba491a","ios":"levelo://app?vid=9adf8ff4-ddb4-4742-aa95-e6d81eba491a"},"vehicle_type_id":"4","last_reported":1750961727,"current_range_meters":400,"station_id":"ce4bhi12rcd13ifvqfp0","pricing_plan_id":"cebpf4jnsgd1na2vs0mg"},{"bike_id":"9a895eea-5a48-4f15-a9f5-9d9af9d14b7e","system_id":"levelo_inurba_marseille","lat":43.268053,"lon":5.402739,"is_reserved":false,"is_disabled":true,"rental_uris":{"android":"levelo://app?vid=9a895eea-5a48-4f15-a9f5-9d9af9d14b7e","ios":"levelo://app?vid=9a895eea-5a48-4f15-a9f5-9d9af9d14b7e"},"vehicle_type_id":"4","last_reported":1750961727,"current_range_meters":400,"station_id":"ce501612rcd8frsf0b60","pricing_plan_id":"cebpf4jnsgd1na2vs0mg"},{"bike_id":"2f3a283c-d0ba-46d1-90f2-cae5d5aee163","system_id":"levelo_inurba_marseille","lat":43.30333,"lon":5.40441,"is_reserved":false,"is_disabled":true,"rental_uris":{"android":"levelo://app?vid=2f3a283c-d0ba-46d1-90f2-cae5d5aee163","ios":"levelo://app?vid=2f3a283c-d0ba-46d1-90f2-cae5d5aee163"},"vehicle_type_id":"4","last_reported":1750961727,"current_range_meters":800,"station_id":"ce4bh012rcd13ifvqd10","pricing_plan_id":"cebpf4jnsgd1na2vs0mg"},{"bike_id":"c5a143d8-6cf6-4daf-a0ff-9241ce58dc61","system_id":"levelo_inurba_marseille","lat":43.29802,"lon":5.40405,"is_reserved":false,"is_disabled":true,"rental_uris":{"android":"levelo://app?vid=c5a143d8-6cf6-4daf-a0ff-9241ce58dc61","ios":"levelo://app?vid=c5a143d8-6cf6-4daf-a0ff-9241ce58dc61"},"vehicle_type_id":"4","last_reported":1750961727,"current_range_meters":800,"station_id":"ce4bh112rcd13ifvqd90","pricing_plan_id":"cebpf4jnsgd1na2vs0mg"},{"bike_id":"81b47f8b-2103-4ad8-bc4b-5b02da8bb746","system_id":"levelo_inurba_marseille","lat":43.28936,"lon":5.38403,"is_reserved":false,"is_disabled":true,"rental_uris":{"android":"levelo://app?vid=81b47f8b-2103-4ad8-bc4b-5b02da8bb746","ios":"levelo://app?vid=81b47f8b-2103-4ad8-bc4b-5b02da8bb746"},"vehicle_type_id":"4","last_reported":1750961727,"current_range_meters":800,"station_id":"ce4bh612rcd13ifvqe6g","pricing_plan_id":"cebpf4jnsgd1na2vs0mg"},{"bike_id":"80787987-9568-4f28-9066-4ef3b9ca52c7","system_id":"levelo_inurba_marseille","lat":43.282815,"lon":5.350735,"is_reserved":false,"is_disabled":true,"rental_uris":{"android":"levelo://app?vid=80787987-9568-4f28-9066-4ef3b9ca52c7","ios":"levelo://app?vid=80787987-9568-4f28-9066-4ef3b9ca52c7"},"vehicle_type_id":"4","last_reported":1750961727,"current_range_meters":800,"station_id":"ce4bhbp2rcd13ifvqerg","pricing_plan_id":"cebpf4jnsgd1na2vs0mg"},{"bike_id":"cc0f946d-0afb-4630-a9a5-89ff1dcaeb27","system_id":"levelo_inurba_marseille","lat":43.2707,"lon":5.40258,"is_reserved":false,"is_disabled":true,"rental_uris":{"android":"levelo://app?vid=cc0f946d-0afb-4630-a9a5-89ff1dcaeb27","ios":"levelo://app?vid=cc0f946d-0afb-4630-a9a5-89ff1dcaeb27"},"vehicle_type_id":"4","last_reported":1750961727,"current_range_meters":800,"station_id":"ce4bhk92rcd13ifvqgc0","pricing_plan_id":"cebpf4jnsgd1na2vs0mg"},{"bike_id":"9fadf070-1086-4b7b-a999-d69cb737ac07","system_id":"levelo_inurba_marseille","lat":43.21759,"lon":5.34603,"is_reserved":false,"is_disabled":true,"rental_uris":{"android":"levelo://app?vid=9fadf070-1086-4b7b-a999-d69cb737ac07","ios":"levelo://app?vid=9fadf070-1086-4b7b-a999-d69cb737ac07"},"vehicle_type_id":"4","last_reported":1750961727,"current_range_meters":800,"station_id":"st_cvj6r9ubvosntc0bgbag","pricing_plan_id":"cebpf4jnsgd1na2vs0mg"},{"bike_id":"a60d6ced-0776-4b38-99c6-83a946162eea","system_id":"levelo_inurba_marseille","lat":43.291977,"lon":5.35797,"is_reserved":false,"is_disabled":true,"rental_uris":{"android":"levelo://app?vid=a60d6ced-0776-4b38-99c6-83a946162eea","ios":"levelo://app?vid=a60d6ced-0776-4b38-99c6-83a946162eea"},"vehicle_type_id":"4","last_reported":1750961727,"current_range_meters":1200,"station_id":"ce4bhb12rcd13ifvqel0","pricing_plan_id":"cebpf4jnsgd1na2vs0mg"},{"bike_id":"6ee75614-0dea-4f37-ae07-9dd6df035592","system_id":"levelo_inurba_marseille","lat":43.292206,"lon":5.360585,"is_reserved":false,"is_disabled":true,"rental_uris":{"android":"levelo://app?vid=6ee75614-0dea-4f37-ae07-9dd6df035592","ios":"levelo://app?vid=6ee75614-0dea-4f37-ae07-9dd6df035592"},"vehicle_type_id":"4","last_reported":1750961727,"current_range_meters":1200,"station_id":"ce4bhbh2rcd13ifvqeqg","pricing_plan_id":"cebpf4jnsgd1na2vs0mg"},{"bike_id":"f0de499c-1b82-47e5-80a1-25f72546f958","system_id":"levelo_inurba_marseille","lat":43.28277,"lon":5.3506,"is_reserved":false,"is_disabled":true,"rental_uris":{"android":"levelo://app?vid=f0de499c-1b82-47e5-80a1-25f72546f958","ios":"levelo://app?vid=f0de499c-1b82-47e5-80a1-25f72546f958"},"vehicle_type_id":"4","last_reported":1750961727,"current_range_meters":1200,"station_id":"ce4bhbp2rcd13ifvqerg","pricing_plan_id":"cebpf4jnsgd1na2vs0mg"},{"bike_id":"df9543df-647f-4c82-892b-59258f578a94","system_id":"levelo_inurba_marseille","lat":43.28628,"lon":5.35102,"is_reserved":false,"is_disabled":true,"rental_uris":{"android":"levelo://app?vid=df9543df-647f-4c82-892b-59258f578a94","ios":"levelo://app?vid=df9543df-647f-4c82-892b-59258f578a94"},"vehicle_type_id":"4","last_reported":1750961727,"current_range_meters":1200,"station_id":"ce4bhch2rcd13ifvqeug","pricing_plan_id":"cebpf4jnsgd1na2vs0mg"},{"bike_id":"f8efaa45-c043-49c3-bf87-3d5e2b054b52","system_id":"levelo_inurba_marseille","lat":43.303814,"lon":5.418766,"is_reserved":false,"is_disabled":true,"rental_uris":{"android":"levelo://app?vid=f8efaa45-c043-49c3-bf87-3d5e2b054b52","ios":"levelo://app?vid=f8efaa45-c043-49c3-bf87-3d5e2b054b52"},"vehicle_type_id":"4","last_reported":1750961727,"current_range_meters":1200,"station_id":"ce4bhop2rcd13ifvqh7g","pricing_plan_id":"cebpf4jnsgd1na2vs0mg"},{"bike_id":"3be721e3-98e1-427d-9e15-72157887f327","system_id":"levelo_inurba_marseille","lat":43.31883,"lon":5.40737,"is_reserved":false,"is_disabled":true,"rental_uris":{"android":"levelo://app?vid=3be721e3-98e1-427d-9e15-72157887f327","ios":"levelo://app?vid=3be721e3-98e1-427d-9e15-72157887f327"},"vehicle_type_id":"4","last_reported":1750961727,"current_range_meters":1200,"station_id":"ce4bhq12rcd13ifvqhig","pricing_plan_id":"cebpf4jnsgd1na2vs0mg"},{"bike_id":"44402d6f-2aaf-4740-b215-1f054e0f872e","system_id":"levelo_inurba_marseille","lat":43.296173,"lon":5.371549,"is_reserved":false,"is_disabled":true,"rental_uris":{"android":"levelo://app?vid=44402d6f-2aaf-4740-b215-1f054e0f872e","ios":"levelo://app?vid=44402d6f-2aaf-4740-b215-1f054e0f872e"},"vehicle_type_id":"4","last_reported":1750961727,"current_range_meters":1600,"station_id":"ce4bgnh2rcd13ifvqc0g","pricing_plan_id":"cebpf4jnsgd1na2vs0mg"},{"bike_id":"55e6e4c6-7951-4338-a3a9-8abf91d6b88b","system_id":"levelo_inurba_marseille","lat":43.267548,"lon":5.383829,"is_reserved":false,"is_disabled":true,"rental_uris":{"android":"levelo://app?vid=55e6e4c6-7951-4338-a3a9-8abf91d6b88b","ios":"levelo://app?vid=55e6e4c6-7951-4338-a3a9-8abf91d6b88b"},"vehicle_type_id":"4","last_reported":1750961727,"current_range_meters":1600,"station_id":"ce4bhg92rcd13ifvqf90","pricing_plan_id":"cebpf4jnsgd1na2vs0mg"},{"bike_id":"ac5afade-2597-48a3-9220-5380e1a6ce3e","system_id":"levelo_inurba_marseille","lat":43.282715,"lon":5.350605,"is_reserved":false,"is_disabled":true,"rental_uris":{"android":"levelo://app?vid=ac5afade-2597-48a3-9220-5380e1a6ce3e","ios":"levelo://app?vid=ac5afade-2597-48a3-9220-5380e1a6ce3e"},"vehicle_type_id":"4","last_reported":1750961727,"current_range_meters":2000,"station_id":"","pricing_plan_id":"cebpf4jnsgd1na2vs0mg"},{"bike_id":"f5fbb3b9-3ae0-4824-b5e5-80a15e63ffbd","system_id":"levelo_inurba_marseille","lat":43.31494,"lon":5.3731,"is_reserved":false,"is_disabled":true,"rental_uris":{"android":"levelo://app?vid=f5fbb3b9-3ae0-4824-b5e5-80a15e63ffbd","ios":"levelo://app?vid=f5fbb3b9-3ae0-4824-b5e5-80a15e63ffbd"},"vehicle_type_id":"4","last_reported":1750961727,"current_range_meters":2000,"station_id":"ce4bgt12rcd13ifvqcd0","pricing_plan_id":"cebpf4jnsgd1na2vs0mg"},{"bike_id":"314fb3af-5332-45f5-9afb-d79371e804cc","system_id":"levelo_inurba_marseille","lat":43.28418,"lon":5.34989,"is_reserved":false,"is_disabled":true,"rental_uris":{"android":"levelo://app?vid=314fb3af-5332-45f5-9afb-d79371e804cc","ios":"levelo://app?vid=314fb3af-5332-45f5-9afb-d79371e804cc"},"vehicle_type_id":"4","last_reported":1750961727,"current_range_meters":2000,"station_id":"ce4bhbh2rcd13ifvqepg","pricing_plan_id":"cebpf4jnsgd1na2vs0mg"},{"bike_id":"fab1d419-50dd-49d4-ac46-342f2df3b531","system_id":"levelo_inurba_marseille","lat":43.30317,"lon":5.36909,"is_reserved":false,"is_disabled":false,"rental_uris":{"android":"levelo://app?vid=fab1d419-50dd-49d4-ac46-342f2df3b531","ios":"levelo://app?vid=fab1d419-50dd-49d4-ac46-342f2df3b531"},"vehicle_type_id":"4","last_reported":1750961727,"current_range_meters":2800,"station_id":"ce4bgqh2rcd13ifvqc5g","pricing_plan_id":"cebpf4jnsgd1na2vs0mg"},{"bike_id":"fedaf5fe-3789-4112-afb4-0ecbcd2610e8","system_id":"levelo_inurba_marseille","lat":43.292236,"lon":5.360486,"is_reserved":false,"is_disabled":false,"rental_uris":{"android":"levelo://app?vid=fedaf5fe-3789-4112-afb4-0ecbcd2610e8","ios":"levelo://app?vid=fedaf5fe-3789-4112-afb4-0ecbcd2610e8"},"vehicle_type_id":"4","last_reported":1750961727,"current_range_meters":2800,"station_id":"ce4bhbh2rcd13ifvqeqg","pricing_plan_id":"cebpf4jnsgd1na2vs0mg"},{"bike_id":"bca9df12-055b-40b6-999a-06a5d7a68dd9","system_id":"levelo_inurba_marseille","lat":43.24813,"lon":5.37457,"is_reserved":false,"is_disabled":false,"rental_uris":{"android":"levelo://app?vid=bca9df12-055b-40b6-999a-06a5d7a68dd9","ios":"levelo://app?vid=bca9df12-055b-40b6-999a-06a5d7a68dd9"},"vehicle_type_id":"4","last_reported":1750961727,"current_range_meters":2800,"station_id":"ce4bhgh2rcd13ifvqfb0","pricing_plan_id":"cebpf4jnsgd1na2vs0mg"},{"bike_id":"fb146c61-8609-4362-bc9e-7fda2055a098","system_id":"levelo_inurba_marseille","lat":43.336071,"lon":5.410351,"is_reserved":false,"is_disabled":false,"rental_uris":{"android":"levelo://app?vid=fb146c61-8609-4362-bc9e-7fda2055a098","ios":"levelo://app?vid=fb146c61-8609-4362-bc9e-7fda2055a098"},"vehicle_type_id":"4","last_reported":1750961727,"current_range_meters":2800,"station_id":"ce4bhqh2rcd13ifvqhmg","pricing_plan_id":"cebpf4jnsgd1na2vs0mg"},{"bike_id":"3ed7fa32-6c6b-472e-82f0-0cb8627ff890","system_id":"levelo_inurba_marseille","lat":43.293028,"lon":5.374614,"is_reserved":false,"is_disabled":false,"rental_uris":{"android":"levelo://app?vid=3ed7fa32-6c6b-472e-82f0-0cb8627ff890","ios":"levelo://app?vid=3ed7fa32-6c6b-472e-82f0-0cb8627ff890"},"vehicle_type_id":"4","last_reported":1750961727,"current_range_meters":3200,"station_id":"ce4bgi12rcd13ifvqb70","pricing_plan_id":"cebpf4jnsgd1na2vs0mg"},{"bike_id":"60bdd9ef-de22-49f7-a361-49d28ca8f06c","system_id":"levelo_inurba_marseille","lat":43.28948,"lon":5.36389,"is_reserved":false,"is_disabled":false,"rental_uris":{"android":"levelo://app?vid=60bdd9ef-de22-49f7-a361-49d28ca8f06c","ios":"levelo://app?vid=60bdd9ef-de22-49f7-a361-49d28ca8f06c"},"vehicle_type_id":"4","last_reported":1750961727,"current_range_meters":3200,"station_id":"ce4bhc92rcd13ifvqetg","pricing_plan_id":"cebpf4jnsgd1na2vs0mg"},{"bike_id":"cbe60da3-dee9-49b6-8842-f709fd596d1b","system_id":"levelo_inurba_marseille","lat":43.28417,"lon":5.34991,"is_reserved":false,"is_disabled":false,"rental_uris":{"android":"levelo://app?vid=cbe60da3-dee9-49b6-8842-f709fd596d1b","ios":"levelo://app?vid=cbe60da3-dee9-49b6-8842-f709fd596d1b"},"vehicle_type_id":"4","last_reported":1750961727,"current_range_meters":3600,"station_id":"","pricing_plan_id":"cebpf4jnsgd1na2vs0mg"},{"bike_id":"46d8741f-234f-4144-8360-683fa9e63c4e","system_id":"levelo_inurba_marseille","lat":43.29581,"lon":5.36742,"is_reserved":false,"is_disabled":false,"rental_uris":{"android":"levelo://app?vid=46d8741f-234f-4144-8360-683fa9e63c4e","ios":"levelo://app?vid=46d8741f-234f-4144-8360-683fa9e63c4e"},"vehicle_type_id":"4","last_reported":1750961727,"current_range_meters":3600,"station_id":"ce4bgph2rcd13ifvqc2g","pricing_plan_id":"cebpf4jnsgd1na2vs0mg"},{"bike_id":"982d4fa8-3b53-4775-bd8a-306aa144d0e0","system_id":"levelo_inurba_marseille","lat":43.29844,"lon":5.36266,"is_reserved":false,"is_disabled":false,"rental_uris":{"android":"levelo://app?vid=982d4fa8-3b53-4775-bd8a-306aa144d0e0","ios":"levelo://app?vid=982d4fa8-3b53-4775-bd8a-306aa144d0e0"},"vehicle_type_id":"4","last_reported":1750961727,"current_range_meters":3600,"station_id":"ce4bgpp2rcd13ifvqc3g","pricing_plan_id":"cebpf4jnsgd1na2vs0mg"},{"bike_id":"b3904493-79b8-4293-88bc-beea68325cce","system_id":"levelo_inurba_marseille","lat":43.313565,"lon":5.384933,"is_reserved":false,"is_disabled":false,"rental_uris":{"android":"levelo://app?vid=b3904493-79b8-4293-88bc-beea68325cce","ios":"levelo://app?vid=b3904493-79b8-4293-88bc-beea68325cce"},"vehicle_type_id":"4","last_reported":1750961727,"current_range_meters":3600,"station_id":"ce4bgt92rcd13ifvqcf0","pricing_plan_id":"cebpf4jnsgd1na2vs0mg"},{"bike_id":"c8c0490e-2fa6-4b43-884f-f0b9eab8bd25","system_id":"levelo_inurba_marseille","lat":43.27381,"lon":5.36256,"is_reserved":false,"is_disabled":false,"rental_uris":{"android":"levelo://app?vid=c8c0490e-2fa6-4b43-884f-f0b9eab8bd25","ios":"levelo://app?vid=c8c0490e-2fa6-4b43-884f-f0b9eab8bd25"},"vehicle_type_id":"4","last_reported":1750961727,"current_range_meters":3600,"station_id":"ce4bhbh2rcd13ifvqeo0","pricing_plan_id":"cebpf4jnsgd1na2vs0mg"},{"bike_id":"e361a166-9474-4661-8db4-bfb262a5b40d","system_id":"levelo_inurba_marseille","lat":43.294426,"lon":5.381945,"is_reserved":false,"is_disabled":false,"rental_uris":{"android":"levelo://app?vid=e361a166-9474-4661-8db4-bfb262a5b40d","ios":"levelo://app?vid=e361a166-9474-4661-8db4-bfb262a5b40d"},"vehicle_type_id":"4","last_reported":1750961727,"current_range_meters":4000,"station_id":"","pricing_plan_id":"cebpf4jnsgd1na2vs0mg"},{"bike_id":"76e917e0-1efa-4800-adc1-9e069f71a780","system_id":"levelo_inurba_marseille","lat":43.28421,"lon":5.34986,"is_reserved":false,"is_disabled":false,"rental_uris":{"android":"levelo://app?vid=76e917e0-1efa-4800-adc1-9e069f71a780","ios":"levelo://app?vid=76e917e0-1efa-4800-adc1-9e069f71a780"},"vehicle_type_id":"4","last_reported":1750961727,"current_range_meters":4000,"station_id":"ce4bhbh2rcd13ifvqepg","pricing_plan_id":"cebpf4jnsgd1na2vs0mg"},{"bike_id":"ed9e2935-4832-46a7-a87a-8d8102f842ce","system_id":"levelo_inurba_marseille","lat":43.240782,"lon":5.3775,"is_reserved":false,"is_disabled":false,"rental_uris":{"android":"levelo://app?vid=ed9e2935-4832-46a7-a87a-8d8102f842ce","ios":"levelo://app?vid=ed9e2935-4832-46a7-a87a-8d8102f842ce"},"vehicle_type_id":"4","last_reported":1750961727,"current_range_meters":4000,"station_id":"ce4bhnp2rcd13ifvqgvg","pricing_plan_id":"cebpf4jnsgd1na2vs0mg"},{"bike_id":"67a5051a-b32e-408a-8389-c22b54eb81f6","system_id":"levelo_inurba_marseille","lat":43.33012,"lon":5.45596,"is_reserved":false,"is_disabled":false,"rental_uris":{"android":"levelo://app?vid=67a5051a-b32e-408a-8389-c22b54eb81f6","ios":"levelo://app?vid=67a5051a-b32e-408a-8389-c22b54eb81f6"},"vehicle_type_id":"4","last_reported":1750961727,"current_range_meters":4400,"station_id":"","pricing_plan_id":"cebpf4jnsgd1na2vs0mg"},{"bike_id":"fcfb7829-f897-4576-a33c-932a643868c5","system_id":"levelo_inurba_marseille","lat":43.29016,"lon":5.35624,"is_reserved":false,"is_disabled":false,"rental_uris":{"android":"levelo://app?vid=fcfb7829-f897-4576-a33c-932a643868c5","ios":"levelo://app?vid=fcfb7829-f897-4576-a33c-932a643868c5"},"vehicle_type_id":"4","last_reported":1750961727,"current_range_meters":4400,"station_id":"ce4bhb92rcd13ifvqen0","pricing_plan_id":"cebpf4jnsgd1na2vs0mg"},{"bike_id":"692fe5b3-25c1-4fd8-ba5e-4abe90ed23d1","system_id":"levelo_inurba_marseille","lat":43.26195,"lon":5.374476,"is_reserved":false,"is_disabled":false,"rental_uris":{"android":"levelo://app?vid=692fe5b3-25c1-4fd8-ba5e-4abe90ed23d1","ios":"levelo://app?vid=692fe5b3-25c1-4fd8-ba5e-4abe90ed23d1"},"vehicle_type_id":"4","last_reported":1750961727,"current_range_meters":4400,"station_id":"ce4bhg12rcd13ifvqf80","pricing_plan_id":"cebpf4jnsgd1na2vs0mg"},{"bike_id":"771dbdf9-5181-4b78-958c-c84e52dadd9c","system_id":"levelo_inurba_marseille","lat":43.255798,"lon":5.382266,"is_reserved":false,"is_disabled":false,"rental_uris":{"android":"levelo://app?vid=771dbdf9-5181-4b78-958c-c84e52dadd9c","ios":"levelo://app?vid=771dbdf9-5181-4b78-958c-c84e52dadd9c"},"vehicle_type_id":"4","last_reported":1750961727,"current_range_meters":4800,"station_id":"","pricing_plan_id":"cebpf4jnsgd1na2vs0mg"},{"bike_id":"d72cdba4-8379-46b6-bca7-cd185e6f3da3","system_id":"levelo_inurba_marseille","lat":43.31898,"lon":5.40739,"is_reserved":false,"is_disabled":false,"rental_uris":{"android":"levelo://app?vid=d72cdba4-8379-46b6-bca7-cd185e6f3da3","ios":"levelo://app?vid=d72cdba4-8379-46b6-bca7-cd185e6f3da3"},"vehicle_type_id":"4","last_reported":1750961727,"current_range_meters":4800,"station_id":"ce4bhq12rcd13ifvqhig","pricing_plan_id":"cebpf4jnsgd1na2vs0mg"},{"bike_id":"8ac37f42-19d9-4a6c-978b-70abf2d2e5af","system_id":"levelo_inurba_marseille","lat":43.29519,"lon":5.393987,"is_reserved":false,"is_disabled":false,"rental_uris":{"android":"levelo://app?vid=8ac37f42-19d9-4a6c-978b-70abf2d2e5af","ios":"levelo://app?vid=8ac37f42-19d9-4a6c-978b-70abf2d2e5af"},"vehicle_type_id":"4","last_reported":1750961727,"current_range_meters":5600,"station_id":"ce4bh292rcd13ifvqdf0","pricing_plan_id":"cebpf4jnsgd1na2vs0mg"},{"bike_id":"f675c5e9-7513-4d61-ab86-50cc3d1ec537","system_id":"levelo_inurba_marseille","lat":43.2827,"lon":5.35066,"is_reserved":false,"is_disabled":false,"rental_uris":{"android":"levelo://app?vid=f675c5e9-7513-4d61-ab86-50cc3d1ec537","ios":"levelo://app?vid=f675c5e9-7513-4d61-ab86-50cc3d1ec537"},"vehicle_type_id":"4","last_reported":1750961727,"current_range_meters":5600,"station_id":"ce4bhbp2rcd13ifvqerg","pricing_plan_id":"cebpf4jnsgd1na2vs0mg"},{"bike_id":"fc8cb606-91f9-44c6-8248-dac2b3ba437b","system_id":"levelo_inurba_marseille","lat":43.271755,"lon":5.409995,"is_reserved":false,"is_disabled":false,"rental_uris":{"android":"levelo://app?vid=fc8cb606-91f9-44c6-8248-dac2b3ba437b","ios":"levelo://app?vid=fc8cb606-91f9-44c6-8248-dac2b3ba437b"},"vehicle_type_id":"4","last_reported":1750961727,"current_range_meters":6000,"station_id":"ce4bhk92rcd13ifvqgb0","pricing_plan_id":"cebpf4jnsgd1na2vs0mg"},{"bike_id":"85aebb63-1277-49af-91e5-22f2d655e266","system_id":"levelo_inurba_marseille","lat":43.299022,"lon":5.436748,"is_reserved":false,"is_disabled":false,"rental_uris":{"android":"levelo://app?vid=85aebb63-1277-49af-91e5-22f2d655e266","ios":"levelo://app?vid=85aebb63-1277-49af-91e5-22f2d655e266"},"vehicle_type_id":"4","last_reported":1750961727,"current_range_meters":6400,"station_id":"","pricing_plan_id":"cebpf4jnsgd1na2vs0mg"},{"bike_id":"ef6d5a21-1f08-43d7-b584-b9a7d52ce4c8","system_id":"levelo_inurba_marseille","lat":43.30187,"lon":5.39207,"is_reserved":false,"is_disabled":false,"rental_uris":{"android":"levelo://app?vid=ef6d5a21-1f08-43d7-b584-b9a7d52ce4c8","ios":"levelo://app?vid=ef6d5a21-1f08-43d7-b584-b9a7d52ce4c8"},"vehicle_type_id":"4","last_reported":1750961727,"current_range_meters":6400,"station_id":"","pricing_plan_id":"cebpf4jnsgd1na2vs0mg"},{"bike_id":"aeec095b-29df-4741-8ee7-eee48aef29d3","system_id":"levelo_inurba_marseille","lat":43.28434,"lon":5.34995,"is_reserved":false,"is_disabled":false,"rental_uris":{"android":"levelo://app?vid=aeec095b-29df-4741-8ee7-eee48aef29d3","ios":"levelo://app?vid=aeec095b-29df-4741-8ee7-eee48aef29d3"},"vehicle_type_id":"4","last_reported":1750961727,"current_range_meters":6400,"station_id":"ce4bhbh2rcd13ifvqepg","pricing_plan_id":"cebpf4jnsgd1na2vs0mg"},{"bike_id":"1bcc60d2-c204-4f59-8fa3-23d012734e1a","system_id":"levelo_inurba_marseille","lat":43.24071,"lon":5.37762,"is_reserved":false,"is_disabled":false,"rental_uris":{"android":"levelo://app?vid=1bcc60d2-c204-4f59-8fa3-23d012734e1a","ios":"levelo://app?vid=1bcc60d2-c204-4f59-8fa3-23d012734e1a"},"vehicle_type_id":"4","last_reported":1750961727,"current_range_meters":6400,"station_id":"ce4bhnp2rcd13ifvqgvg","pricing_plan_id":"cebpf4jnsgd1na2vs0mg"},{"bike_id":"35b14479-4a4d-4383-83de-c7fea66894b3","system_id":"levelo_inurba_marseille","lat":43.299037,"lon":5.436789,"is_reserved":false,"is_disabled":false,"rental_uris":{"android":"levelo://app?vid=35b14479-4a4d-4383-83de-c7fea66894b3","ios":"levelo://app?vid=35b14479-4a4d-4383-83de-c7fea66894b3"},"vehicle_type_id":"4","last_reported":1750961727,"current_range_meters":6400,"station_id":"ce4bhpp2rcd13ifvqhfg","pricing_plan_id":"cebpf4jnsgd1na2vs0mg"},{"bike_id":"ee6077bb-192b-4d19-9ae8-eb45f5c1c36c","system_id":"levelo_inurba_marseille","lat":43.34185,"lon":5.40886,"is_reserved":false,"is_disabled":false,"rental_uris":{"android":"levelo://app?vid=ee6077bb-192b-4d19-9ae8-eb45f5c1c36c","ios":"levelo://app?vid=ee6077bb-192b-4d19-9ae8-eb45f5c1c36c"},"vehicle_type_id":"4","last_reported":1750961727,"current_range_meters":6400,"station_id":"ce4bhqh2rcd13ifvqhlg","pricing_plan_id":"cebpf4jnsgd1na2vs0mg"},{"bike_id":"af112b62-19de-41d4-b8d7-e14d0172315d","system_id":"levelo_inurba_marseille","lat":43.32696,"lon":5.39259,"is_reserved":false,"is_disabled":false,"rental_uris":{"android":"levelo://app?vid=af112b62-19de-41d4-b8d7-e14d0172315d","ios":"levelo://app?vid=af112b62-19de-41d4-b8d7-e14d0172315d"},"vehicle_type_id":"4","last_reported":1750961727,"current_range_meters":7200,"station_id":"","pricing_plan_id":"cebpf4jnsgd1na2vs0mg"},{"bike_id":"b0b81c58-b288-4576-8a9b-b4a6cddce1f4","system_id":"levelo_inurba_marseille","lat":43.30916,"lon":5.36841,"is_reserved":false,"is_disabled":false,"rental_uris":{"android":"levelo://app?vid=b0b81c58-b288-4576-8a9b-b4a6cddce1f4","ios":"levelo://app?vid=b0b81c58-b288-4576-8a9b-b4a6cddce1f4"},"vehicle_type_id":"4","last_reported":1750961727,"current_range_meters":7200,"station_id":"ce4bgn92rcd13ifvqbvg","pricing_plan_id":"cebpf4jnsgd1na2vs0mg"},{"bike_id":"ec1a49d6-90c1-47d0-b4d6-162843cbac84","system_id":"levelo_inurba_marseille","lat":43.26483,"lon":5.3955,"is_reserved":false,"is_disabled":false,"rental_uris":{"android":"levelo://app?vid=ec1a49d6-90c1-47d0-b4d6-162843cbac84","ios":"levelo://app?vid=ec1a49d6-90c1-47d0-b4d6-162843cbac84"},"vehicle_type_id":"4","last_reported":1750961727,"current_range_meters":7200,"station_id":"ce4bhi12rcd13ifvqfq0","pricing_plan_id":"cebpf4jnsgd1na2vs0mg"},{"bike_id":"4fb9d374-60cb-4de2-9bd5-7d213408423d","system_id":"levelo_inurba_marseille","lat":43.31571,"lon":5.376167,"is_reserved":false,"is_disabled":false,"rental_uris":{"android":"levelo://app?vid=4fb9d374-60cb-4de2-9bd5-7d213408423d","ios":"levelo://app?vid=4fb9d374-60cb-4de2-9bd5-7d213408423d"},"vehicle_type_id":"4","last_reported":1750961727,"current_range_meters":8000,"station_id":"ce4bgth2rcd13ifvqch0","pricing_plan_id":"cebpf4jnsgd1na2vs0mg"},{"bike_id":"f45a901b-d04b-467c-8b6b-dacc075fda65","system_id":"levelo_inurba_marseille","lat":43.26557,"lon":5.37283,"is_reserved":false,"is_disabled":false,"rental_uris":{"android":"levelo://app?vid=f45a901b-d04b-467c-8b6b-dacc075fda65","ios":"levelo://app?vid=f45a901b-d04b-467c-8b6b-dacc075fda65"},"vehicle_type_id":"4","last_reported":1750961727,"current_range_meters":8000,"station_id":"ce4bhg12rcd13ifvqf70","pricing_plan_id":"cebpf4jnsgd1na2vs0mg"},{"bike_id":"91b41ec3-af7e-4f67-abb2-f8745137a7fe","system_id":"levelo_inurba_marseille","lat":43.26038,"lon":5.37545,"is_reserved":false,"is_disabled":false,"rental_uris":{"android":"levelo://app?vid=91b41ec3-af7e-4f67-abb2-f8745137a7fe","ios":"levelo://app?vid=91b41ec3-af7e-4f67-abb2-f8745137a7fe"},"vehicle_type_id":"4","last_reported":1750961727,"current_range_meters":8000,"station_id":"ce4bhgh2rcd13ifvqfa0","pricing_plan_id":"cebpf4jnsgd1na2vs0mg"},{"bike_id":"d6f28a1f-adcc-46e2-8f23-daf189c02a59","system_id":"levelo_inurba_marseille","lat":43.29894,"lon":5.43684,"is_reserved":false,"is_disabled":false,"rental_uris":{"android":"levelo://app?vid=d6f28a1f-adcc-46e2-8f23-daf189c02a59","ios":"levelo://app?vid=d6f28a1f-adcc-46e2-8f23-daf189c02a59"},"vehicle_type_id":"4","last_reported":1750961727,"current_range_meters":8000,"station_id":"ce4bhpp2rcd13ifvqhfg","pricing_plan_id":"cebpf4jnsgd1na2vs0mg"},{"bike_id":"26a14eba-87a9-47b8-9607-30bd0042d428","system_id":"levelo_inurba_marseille","lat":43.31477,"lon":5.3942,"is_reserved":false,"is_disabled":false,"rental_uris":{"android":"levelo://app?vid=26a14eba-87a9-47b8-9607-30bd0042d428","ios":"levelo://app?vid=26a14eba-87a9-47b8-9607-30bd0042d428"},"vehicle_type_id":"4","last_reported":1750961727,"current_range_meters":8400,"station_id":"","pricing_plan_id":"cebpf4jnsgd1na2vs0mg"},{"bike_id":"09b4244d-d690-47a8-9de3-4c5ccaca5dbe","system_id":"levelo_inurba_marseille","lat":43.31716,"lon":5.43707,"is_reserved":false,"is_disabled":false,"rental_uris":{"android":"levelo://app?vid=09b4244d-d690-47a8-9de3-4c5ccaca5dbe","ios":"levelo://app?vid=09b4244d-d690-47a8-9de3-4c5ccaca5dbe"},"vehicle_type_id":"4","last_reported":1750961727,"current_range_meters":8400,"station_id":"ce4bhp92rcd13ifvqhcg","pricing_plan_id":"cebpf4jnsgd1na2vs0mg"},{"bike_id":"e31dc41a-74b1-4471-8bd1-334e677119d5","system_id":"levelo_inurba_marseille","lat":43.295625,"lon":5.422902,"is_reserved":false,"is_disabled":false,"rental_uris":{"android":"levelo://app?vid=e31dc41a-74b1-4471-8bd1-334e677119d5","ios":"levelo://app?vid=e31dc41a-74b1-4471-8bd1-334e677119d5"},"vehicle_type_id":"4","last_reported":1750961727,"current_range_meters":8400,"station_id":"ce4bhph2rcd13ifvqhdg","pricing_plan_id":"cebpf4jnsgd1na2vs0mg"},{"bike_id":"4d60d264-c96e-46a1-8d4d-38b6141f87fa","system_id":"levelo_inurba_marseille","lat":43.273805,"lon":5.362602,"is_reserved":false,"is_disabled":false,"rental_uris":{"android":"levelo://app?vid=4d60d264-c96e-46a1-8d4d-38b6141f87fa","ios":"levelo://app?vid=4d60d264-c96e-46a1-8d4d-38b6141f87fa"},"vehicle_type_id":"4","last_reported":1750961727,"current_range_meters":8800,"station_id":"ce4bhbh2rcd13ifvqeo0","pricing_plan_id":"cebpf4jnsgd1na2vs0mg"},{"bike_id":"c62457bf-727e-486a-b221-beee912e9230","system_id":"levelo_inurba_marseille","lat":43.28442,"lon":5.34992,"is_reserved":false,"is_disabled":false,"rental_uris":{"android":"levelo://app?vid=c62457bf-727e-486a-b221-beee912e9230","ios":"levelo://app?vid=c62457bf-727e-486a-b221-beee912e9230"},"vehicle_type_id":"4","last_reported":1750961727,"current_range_meters":8800,"station_id":"ce4bhbh2rcd13ifvqepg","pricing_plan_id":"cebpf4jnsgd1na2vs0mg"},{"bike_id":"e2f5b300-4a63-4778-aada-c29a8a0ea1e8","system_id":"levelo_inurba_marseille","lat":43.32803,"lon":5.39202,"is_reserved":false,"is_disabled":false,"rental_uris":{"android":"levelo://app?vid=e2f5b300-4a63-4778-aada-c29a8a0ea1e8","ios":"levelo://app?vid=e2f5b300-4a63-4778-aada-c29a8a0ea1e8"},"vehicle_type_id":"4","last_reported":1750961727,"current_range_meters":9200,"station_id":"","pricing_plan_id":"cebpf4jnsgd1na2vs0mg"},{"bike_id":"ca975740-45d9-40a0-bbd1-87567337002a","system_id":"levelo_inurba_marseille","lat":43.27418,"lon":5.36193,"is_reserved":false,"is_disabled":false,"rental_uris":{"android":"levelo://app?vid=ca975740-45d9-40a0-bbd1-87567337002a","ios":"levelo://app?vid=ca975740-45d9-40a0-bbd1-87567337002a"},"vehicle_type_id":"4","last_reported":1750961727,"current_range_meters":9200,"station_id":"","pricing_plan_id":"cebpf4jnsgd1na2vs0mg"},{"bike_id":"aa0c9fca-78c3-4285-a567-a5068c256cad","system_id":"levelo_inurba_marseille","lat":43.28458,"lon":5.35888,"is_reserved":false,"is_disabled":false,"rental_uris":{"android":"levelo://app?vid=aa0c9fca-78c3-4285-a567-a5068c256cad","ios":"levelo://app?vid=aa0c9fca-78c3-4285-a567-a5068c256cad"},"vehicle_type_id":"4","last_reported":1750961727,"current_range_meters":9200,"station_id":"ce4bhah2rcd13ifvqei0","pricing_plan_id":"cebpf4jnsgd1na2vs0mg"},{"bike_id":"b1e5ccfc-0c7b-43b5-8830-bff084ec37d6","system_id":"levelo_inurba_marseille","lat":43.28427,"lon":5.34998,"is_reserved":false,"is_disabled":false,"rental_uris":{"android":"levelo://app?vid=b1e5ccfc-0c7b-43b5-8830-bff084ec37d6","ios":"levelo://app?vid=b1e5ccfc-0c7b-43b5-8830-bff084ec37d6"},"vehicle_type_id":"4","last_reported":1750961727,"current_range_meters":9200,"station_id":"ce4bhbh2rcd13ifvqepg","pricing_plan_id":"cebpf4jnsgd1na2vs0mg"},{"bike_id":"728763c0-d06f-4c88-a093-908b9fab8883","system_id":"levelo_inurba_marseille","lat":43.28279,"lon":5.35078,"is_reserved":false,"is_disabled":false,"rental_uris":{"android":"levelo://app?vid=728763c0-d06f-4c88-a093-908b9fab8883","ios":"levelo://app?vid=728763c0-d06f-4c88-a093-908b9fab8883"},"vehicle_type_id":"4","last_reported":1750961727,"current_range_meters":9200,"station_id":"ce4bhbp2rcd13ifvqerg","pricing_plan_id":"cebpf4jnsgd1na2vs0mg"},{"bike_id":"dee39e43-6ad4-42d7-9b25-223edd1cbb51","system_id":"levelo_inurba_marseille","lat":43.27428,"lon":5.39417,"is_reserved":false,"is_disabled":false,"rental_uris":{"android":"levelo://app?vid=dee39e43-6ad4-42d7-9b25-223edd1cbb51","ios":"levelo://app?vid=dee39e43-6ad4-42d7-9b25-223edd1cbb51"},"vehicle_type_id":"4","last_reported":1750961727,"current_range_meters":9200,"station_id":"ce4bhdp2rcd13ifvqf20","pricing_plan_id":"cebpf4jnsgd1na2vs0mg"},{"bike_id":"2542c489-a174-41a0-bb3c-f1cfe1776531","system_id":"levelo_inurba_marseille","lat":43.23197,"lon":5.35553,"is_reserved":false,"is_disabled":false,"rental_uris":{"android":"levelo://app?vid=2542c489-a174-41a0-bb3c-f1cfe1776531","ios":"levelo://app?vid=2542c489-a174-41a0-bb3c-f1cfe1776531"},"vehicle_type_id":"4","last_reported":1750961727,"current_range_meters":9200,"station_id":"ce4bhu92rcd13ifvqi70","pricing_plan_id":"cebpf4jnsgd1na2vs0mg"},{"bike_id":"a567bfd3-0bb7-479e-ab9e-7833b81ff58a","system_id":"levelo_inurba_marseille","lat":43.24808,"lon":5.37388,"is_reserved":false,"is_disabled":false,"rental_uris":{"android":"levelo://app?vid=a567bfd3-0bb7-479e-ab9e-7833b81ff58a","ios":"levelo://app?vid=a567bfd3-0bb7-479e-ab9e-7833b81ff58a"},"vehicle_type_id":"4","last_reported":1750961727,"current_range_meters":9600,"station_id":"","pricing_plan_id":"cebpf4jnsgd1na2vs0mg"},{"bike_id":"aecf2846-2de2-4295-b62c-ae1cdaab204f","system_id":"levelo_inurba_marseille","lat":43.23192,"lon":5.35559,"is_reserved":false,"is_disabled":false,"rental_uris":{"android":"levelo://app?vid=aecf2846-2de2-4295-b62c-ae1cdaab204f","ios":"levelo://app?vid=aecf2846-2de2-4295-b62c-ae1cdaab204f"},"vehicle_type_id":"4","last_reported":1750961727,"current_range_meters":9600,"station_id":"ce4bhu92rcd13ifvqi70","pricing_plan_id":"cebpf4jnsgd1na2vs0mg"},{"bike_id":"f6ea66d9-a120-487c-a0ab-bdad67c4b5bb","system_id":"levelo_inurba_marseille","lat":43.21752,"lon":5.34601,"is_reserved":false,"is_disabled":false,"rental_uris":{"android":"levelo://app?vid=f6ea66d9-a120-487c-a0ab-bdad67c4b5bb","ios":"levelo://app?vid=f6ea66d9-a120-487c-a0ab-bdad67c4b5bb"},"vehicle_type_id":"4","last_reported":1750961727,"current_range_meters":9600,"station_id":"st_cvj6r9ubvosntc0bgbag","pricing_plan_id":"cebpf4jnsgd1na2vs0mg"},{"bike_id":"a157c2cc-6e5e-4352-9361-f4409cffce30","system_id":"levelo_inurba_marseille","lat":43.3134,"lon":5.39693,"is_reserved":false,"is_disabled":false,"rental_uris":{"android":"levelo://app?vid=a157c2cc-6e5e-4352-9361-f4409cffce30","ios":"levelo://app?vid=a157c2cc-6e5e-4352-9361-f4409cffce30"},"vehicle_type_id":"4","last_reported":1750961727,"current_range_meters":10000,"station_id":"ce4bgvp2rcd13ifvqcu0","pricing_plan_id":"cebpf4jnsgd1na2vs0mg"},{"bike_id":"ca864eaf-9fb0-40dc-b11e-62af1b6c8ba9","system_id":"levelo_inurba_marseille","lat":43.28415,"lon":5.34987,"is_reserved":false,"is_disabled":false,"rental_uris":{"android":"levelo://app?vid=ca864eaf-9fb0-40dc-b11e-62af1b6c8ba9","ios":"levelo://app?vid=ca864eaf-9fb0-40dc-b11e-62af1b6c8ba9"},"vehicle_type_id":"4","last_reported":1750961727,"current_range_meters":10000,"station_id":"ce4bhbh2rcd13ifvqepg","pricing_plan_id":"cebpf4jnsgd1na2vs0mg"},{"bike_id":"d2efa476-5a17-4705-b8d6-6c781a6c2e2c","system_id":"levelo_inurba_marseille","lat":43.21756,"lon":5.34598,"is_reserved":false,"is_disabled":false,"rental_uris":{"android":"levelo://app?vid=d2efa476-5a17-4705-b8d6-6c781a6c2e2c","ios":"levelo://app?vid=d2efa476-5a17-4705-b8d6-6c781a6c2e2c"},"vehicle_type_id":"4","last_reported":1750961727,"current_range_meters":10000,"station_id":"st_cvj6r9ubvosntc0bgbag","pricing_plan_id":"cebpf4jnsgd1na2vs0mg"},{"bike_id":"a9d25cad-d480-4c75-aec5-3969f1a4e6c7","system_id":"levelo_inurba_marseille","lat":43.3294,"lon":5.39023,"is_reserved":false,"is_disabled":false,"rental_uris":{"android":"levelo://app?vid=a9d25cad-d480-4c75-aec5-3969f1a4e6c7","ios":"levelo://app?vid=a9d25cad-d480-4c75-aec5-3969f1a4e6c7"},"vehicle_type_id":"4","last_reported":1750961727,"current_range_meters":10800,"station_id":"","pricing_plan_id":"cebpf4jnsgd1na2vs0mg"},{"bike_id":"b177b72a-a80a-4a1c-966a-f7d095ab0ef4","system_id":"levelo_inurba_marseille","lat":43.28421,"lon":5.34985,"is_reserved":false,"is_disabled":false,"rental_uris":{"android":"levelo://app?vid=b177b72a-a80a-4a1c-966a-f7d095ab0ef4","ios":"levelo://app?vid=b177b72a-a80a-4a1c-966a-f7d095ab0ef4"},"vehicle_type_id":"4","last_reported":1750961727,"current_range_meters":10800,"station_id":"ce4bhbh2rcd13ifvqepg","pricing_plan_id":"cebpf4jnsgd1na2vs0mg"},{"bike_id":"d9297bcb-258f-4cc8-965a-128f8c5dbf4f","system_id":"levelo_inurba_marseille","lat":43.286133,"lon":5.351064,"is_reserved":false,"is_disabled":false,"rental_uris":{"android":"levelo://app?vid=d9297bcb-258f-4cc8-965a-128f8c5dbf4f","ios":"levelo://app?vid=d9297bcb-258f-4cc8-965a-128f8c5dbf4f"},"vehicle_type_id":"4","last_reported":1750961727,"current_range_meters":10800,"station_id":"ce4bhch2rcd13ifvqeug","pricing_plan_id":"cebpf4jnsgd1na2vs0mg"},{"bike_id":"f47876d7-9c85-474e-92c5-7a242e08b67c","system_id":"levelo_inurba_marseille","lat":43.3055,"lon":5.37559,"is_reserved":false,"is_disabled":false,"rental_uris":{"android":"levelo://app?vid=f47876d7-9c85-474e-92c5-7a242e08b67c","ios":"levelo://app?vid=f47876d7-9c85-474e-92c5-7a242e08b67c"},"vehicle_type_id":"4","last_reported":1750961727,"current_range_meters":11200,"station_id":"","pricing_plan_id":"cebpf4jnsgd1na2vs0mg"},{"bike_id":"36f5d16f-2d64-42b1-ba17-18f2e0d079ce","system_id":"levelo_inurba_marseille","lat":43.30133,"lon":5.39866,"is_reserved":false,"is_disabled":false,"rental_uris":{"android":"levelo://app?vid=36f5d16f-2d64-42b1-ba17-18f2e0d079ce","ios":"levelo://app?vid=36f5d16f-2d64-42b1-ba17-18f2e0d079ce"},"vehicle_type_id":"4","last_reported":1750961727,"current_range_meters":11200,"station_id":"ce4bh0h2rcd13ifvqd40","pricing_plan_id":"cebpf4jnsgd1na2vs0mg"},{"bike_id":"0416ac4c-baec-4494-81d1-9feeabcd656e","system_id":"levelo_inurba_marseille","lat":43.28471,"lon":5.35888,"is_reserved":false,"is_disabled":false,"rental_uris":{"android":"levelo://app?vid=0416ac4c-baec-4494-81d1-9feeabcd656e","ios":"levelo://app?vid=0416ac4c-baec-4494-81d1-9feeabcd656e"},"vehicle_type_id":"4","last_reported":1750961727,"current_range_meters":11200,"station_id":"ce4bhah2rcd13ifvqei0","pricing_plan_id":"cebpf4jnsgd1na2vs0mg"},{"bike_id":"c37cbde7-1416-4344-9532-d787450f99c8","system_id":"levelo_inurba_marseille","lat":43.317274,"lon":5.423939,"is_reserved":false,"is_disabled":false,"rental_uris":{"android":"levelo://app?vid=c37cbde7-1416-4344-9532-d787450f99c8","ios":"levelo://app?vid=c37cbde7-1416-4344-9532-d787450f99c8"},"vehicle_type_id":"4","last_reported":1750961727,"current_range_meters":11200,"station_id":"ce4bhp92rcd13ifvqhbg","pricing_plan_id":"cebpf4jnsgd1na2vs0mg"},{"bike_id":"bad4c4c6-4963-497a-a02d-6e8543004f74","system_id":"levelo_inurba_marseille","lat":43.31692,"lon":5.40474,"is_reserved":false,"is_disabled":false,"rental_uris":{"android":"levelo://app?vid=bad4c4c6-4963-497a-a02d-6e8543004f74","ios":"levelo://app?vid=bad4c4c6-4963-497a-a02d-6e8543004f74"},"vehicle_type_id":"4","last_reported":1750961727,"current_range_meters":11600,"station_id":"ce4bh012rcd13ifvqd00","pricing_plan_id":"cebpf4jnsgd1na2vs0mg"},{"bike_id":"8cf2be3a-dfd2-4822-bd4a-0334fc19b8e1","system_id":"levelo_inurba_marseille","lat":43.291382,"lon":5.392069,"is_reserved":false,"is_disabled":false,"rental_uris":{"android":"levelo://app?vid=8cf2be3a-dfd2-4822-bd4a-0334fc19b8e1","ios":"levelo://app?vid=8cf2be3a-dfd2-4822-bd4a-0334fc19b8e1"},"vehicle_type_id":"4","last_reported":1750961727,"current_range_meters":11600,"station_id":"ce4bh192rcd13ifvqdd0","pricing_plan_id":"cebpf4jnsgd1na2vs0mg"},{"bike_id":"55a4e06d-384b-42e9-a5c7-7c2276f13b7f","system_id":"levelo_inurba_marseille","lat":43.28437,"lon":5.34984,"is_reserved":false,"is_disabled":false,"rental_uris":{"android":"levelo://app?vid=55a4e06d-384b-42e9-a5c7-7c2276f13b7f","ios":"levelo://app?vid=55a4e06d-384b-42e9-a5c7-7c2276f13b7f"},"vehicle_type_id":"4","last_reported":1750961727,"current_range_meters":11600,"station_id":"ce4bhbh2rcd13ifvqepg","pricing_plan_id":"cebpf4jnsgd1na2vs0mg"},{"bike_id":"c71cfed7-4d3e-4c3d-8aa1-cc19ad040911","system_id":"levelo_inurba_marseille","lat":43.28415,"lon":5.34994,"is_reserved":false,"is_disabled":false,"rental_uris":{"android":"levelo://app?vid=c71cfed7-4d3e-4c3d-8aa1-cc19ad040911","ios":"levelo://app?vid=c71cfed7-4d3e-4c3d-8aa1-cc19ad040911"},"vehicle_type_id":"4","last_reported":1750961727,"current_range_meters":11600,"station_id":"ce4bhbh2rcd13ifvqepg","pricing_plan_id":"cebpf4jnsgd1na2vs0mg"},{"bike_id":"20e862bb-3fc5-44c7-9d80-0e8bcceac300","system_id":"levelo_inurba_marseille","lat":43.28423,"lon":5.34986,"is_reserved":false,"is_disabled":false,"rental_uris":{"android":"levelo://app?vid=20e862bb-3fc5-44c7-9d80-0e8bcceac300","ios":"levelo://app?vid=20e862bb-3fc5-44c7-9d80-0e8bcceac300"},"vehicle_type_id":"4","last_reported":1750961727,"current_range_meters":11600,"station_id":"ce4bhbh2rcd13ifvqepg","pricing_plan_id":"cebpf4jnsgd1na2vs0mg"},{"bike_id":"466d6a98-a18f-49c4-96c5-9b80965dc1d9","system_id":"levelo_inurba_marseille","lat":43.28427,"lon":5.34985,"is_reserved":false,"is_disabled":false,"rental_uris":{"android":"levelo://app?vid=466d6a98-a18f-49c4-96c5-9b80965dc1d9","ios":"levelo://app?vid=466d6a98-a18f-49c4-96c5-9b80965dc1d9"},"vehicle_type_id":"4","last_reported":1750961727,"current_range_meters":11600,"station_id":"ce4bhbh2rcd13ifvqepg","pricing_plan_id":"cebpf4jnsgd1na2vs0mg"},{"bike_id":"5c63c08b-3b93-421b-905d-fb8163956050","system_id":"levelo_inurba_marseille","lat":43.28279,"lon":5.35069,"is_reserved":false,"is_disabled":false,"rental_uris":{"android":"levelo://app?vid=5c63c08b-3b93-421b-905d-fb8163956050","ios":"levelo://app?vid=5c63c08b-3b93-421b-905d-fb8163956050"},"vehicle_type_id":"4","last_reported":1750961727,"current_range_meters":11600,"station_id":"ce4bhbp2rcd13ifvqerg","pricing_plan_id":"cebpf4jnsgd1na2vs0mg"},{"bike_id":"de348812-3071-4ab8-983e-5a107c7ae50d","system_id":"levelo_inurba_marseille","lat":43.28268,"lon":5.35057,"is_reserved":false,"is_disabled":false,"rental_uris":{"android":"levelo://app?vid=de348812-3071-4ab8-983e-5a107c7ae50d","ios":"levelo://app?vid=de348812-3071-4ab8-983e-5a107c7ae50d"},"vehicle_type_id":"4","last_reported":1750961727,"current_range_meters":11600,"station_id":"ce4bhbp2rcd13ifvqerg","pricing_plan_id":"cebpf4jnsgd1na2vs0mg"},{"bike_id":"80784a67-7f1b-4e95-868b-7e2f6afe7d00","system_id":"levelo_inurba_marseille","lat":43.23965,"lon":5.36627,"is_reserved":false,"is_disabled":false,"rental_uris":{"android":"levelo://app?vid=80784a67-7f1b-4e95-868b-7e2f6afe7d00","ios":"levelo://app?vid=80784a67-7f1b-4e95-868b-7e2f6afe7d00"},"vehicle_type_id":"4","last_reported":1750961727,"current_range_meters":11600,"station_id":"ce4bhi12rcd13ifvqfp0","pricing_plan_id":"cebpf4jnsgd1na2vs0mg"},{"bike_id":"04980fb9-360c-402f-bc50-0376390bdfdc","system_id":"levelo_inurba_marseille","lat":43.250444,"lon":5.39691,"is_reserved":false,"is_disabled":false,"rental_uris":{"android":"levelo://app?vid=04980fb9-360c-402f-bc50-0376390bdfdc","ios":"levelo://app?vid=04980fb9-360c-402f-bc50-0376390bdfdc"},"vehicle_type_id":"4","last_reported":1750961727,"current_range_meters":11600,"station_id":"ce4bhl92rcd13ifvqghg","pricing_plan_id":"cebpf4jnsgd1na2vs0mg"},{"bike_id":"fce33d1a-bdd4-48e6-9054-13e5b400ab54","system_id":"levelo_inurba_marseille","lat":43.23198,"lon":5.35554,"is_reserved":false,"is_disabled":false,"rental_uris":{"android":"levelo://app?vid=fce33d1a-bdd4-48e6-9054-13e5b400ab54","ios":"levelo://app?vid=fce33d1a-bdd4-48e6-9054-13e5b400ab54"},"vehicle_type_id":"4","last_reported":1750961727,"current_range_meters":11600,"station_id":"ce4bhu92rcd13ifvqi70","pricing_plan_id":"cebpf4jnsgd1na2vs0mg"},{"bike_id":"b2f65b77-6c4d-463a-b12d-03ec0ed31397","system_id":"levelo_inurba_marseille","lat":43.21754,"lon":5.34602,"is_reserved":false,"is_disabled":false,"rental_uris":{"android":"levelo://app?vid=b2f65b77-6c4d-463a-b12d-03ec0ed31397","ios":"levelo://app?vid=b2f65b77-6c4d-463a-b12d-03ec0ed31397"},"vehicle_type_id":"4","last_reported":1750961727,"current_range_meters":11600,"station_id":"st_cvj6r9ubvosntc0bgbag","pricing_plan_id":"cebpf4jnsgd1na2vs0mg"},{"bike_id":"69a9b7bf-69b2-47a2-8bc4-bb00821e8199","system_id":"levelo_inurba_marseille","lat":43.21176,"lon":5.35077,"is_reserved":false,"is_disabled":false,"rental_uris":{"android":"levelo://app?vid=69a9b7bf-69b2-47a2-8bc4-bb00821e8199","ios":"levelo://app?vid=69a9b7bf-69b2-47a2-8bc4-bb00821e8199"},"vehicle_type_id":"4","last_reported":1750961727,"current_range_meters":11600,"station_id":"st_cvj6sg6p6f1abm77japg","pricing_plan_id":"cebpf4jnsgd1na2vs0mg"},{"bike_id":"94e84186-d780-461a-b647-8d1cf3f036ad","system_id":"levelo_inurba_marseille","lat":43.31698,"lon":5.37733,"is_reserved":false,"is_disabled":false,"rental_uris":{"android":"levelo://app?vid=94e84186-d780-461a-b647-8d1cf3f036ad","ios":"levelo://app?vid=94e84186-d780-461a-b647-8d1cf3f036ad"},"vehicle_type_id":"4","last_reported":1750961727,"current_range_meters":12000,"station_id":"ce4bgth2rcd13ifvqch0","pricing_plan_id":"cebpf4jnsgd1na2vs0mg"},{"bike_id":"5d97ba86-e06d-4a4a-8b00-a18d8279549a","system_id":"levelo_inurba_marseille","lat":43.28437,"lon":5.34984,"is_reserved":false,"is_disabled":false,"rental_uris":{"android":"levelo://app?vid=5d97ba86-e06d-4a4a-8b00-a18d8279549a","ios":"levelo://app?vid=5d97ba86-e06d-4a4a-8b00-a18d8279549a"},"vehicle_type_id":"4","last_reported":1750961727,"current_range_meters":12000,"station_id":"ce4bhbh2rcd13ifvqepg","pricing_plan_id":"cebpf4jnsgd1na2vs0mg"},{"bike_id":"d7479aa3-ac15-4d60-b907-70a0bfb7dd09","system_id":"levelo_inurba_marseille","lat":43.28424,"lon":5.34966,"is_reserved":false,"is_disabled":false,"rental_uris":{"android":"levelo://app?vid=d7479aa3-ac15-4d60-b907-70a0bfb7dd09","ios":"levelo://app?vid=d7479aa3-ac15-4d60-b907-70a0bfb7dd09"},"vehicle_type_id":"4","last_reported":1750961727,"current_range_meters":12000,"station_id":"ce4bhbh2rcd13ifvqepg","pricing_plan_id":"cebpf4jnsgd1na2vs0mg"},{"bike_id":"9a32d4b0-b9b2-4fd5-8d1b-b2810d6cbab5","system_id":"levelo_inurba_marseille","lat":43.23064,"lon":5.35489,"is_reserved":false,"is_disabled":false,"rental_uris":{"android":"levelo://app?vid=9a32d4b0-b9b2-4fd5-8d1b-b2810d6cbab5","ios":"levelo://app?vid=9a32d4b0-b9b2-4fd5-8d1b-b2810d6cbab5"},"vehicle_type_id":"4","last_reported":1750961727,"current_range_meters":12000,"station_id":"cpo3342slgdg3j2ifvpg","pricing_plan_id":"cebpf4jnsgd1na2vs0mg"},{"bike_id":"8d23cb97-ce39-4f24-bd0e-979f506c4b3d","system_id":"levelo_inurba_marseille","lat":43.284119,"lon":5.349717,"is_reserved":false,"is_disabled":false,"rental_uris":{"android":"levelo://app?vid=8d23cb97-ce39-4f24-bd0e-979f506c4b3d","ios":"levelo://app?vid=8d23cb97-ce39-4f24-bd0e-979f506c4b3d"},"vehicle_type_id":"4","last_reported":1750961727,"current_range_meters":12400,"station_id":"","pricing_plan_id":"cebpf4jnsgd1na2vs0mg"},{"bike_id":"13dc15c9-6d10-4db1-a86b-e514fc370c9d","system_id":"levelo_inurba_marseille","lat":43.271719,"lon":5.410008,"is_reserved":false,"is_disabled":false,"rental_uris":{"android":"levelo://app?vid=13dc15c9-6d10-4db1-a86b-e514fc370c9d","ios":"levelo://app?vid=13dc15c9-6d10-4db1-a86b-e514fc370c9d"},"vehicle_type_id":"4","last_reported":1750961727,"current_range_meters":12400,"station_id":"","pricing_plan_id":"cebpf4jnsgd1na2vs0mg"},{"bike_id":"13eb5bb4-3336-4003-98fe-2708471a5111","system_id":"levelo_inurba_marseille","lat":43.2828,"lon":5.35069,"is_reserved":false,"is_disabled":false,"rental_uris":{"android":"levelo://app?vid=13eb5bb4-3336-4003-98fe-2708471a5111","ios":"levelo://app?vid=13eb5bb4-3336-4003-98fe-2708471a5111"},"vehicle_type_id":"4","last_reported":1750961727,"current_range_meters":12400,"station_id":"ce4bhbp2rcd13ifvqerg","pricing_plan_id":"cebpf4jnsgd1na2vs0mg"},{"bike_id":"120ada64-bae1-46af-8491-3b716a3c4a28","system_id":"levelo_inurba_marseille","lat":43.28285,"lon":5.35067,"is_reserved":false,"is_disabled":false,"rental_uris":{"android":"levelo://app?vid=120ada64-bae1-46af-8491-3b716a3c4a28","ios":"levelo://app?vid=120ada64-bae1-46af-8491-3b716a3c4a28"},"vehicle_type_id":"4","last_reported":1750961727,"current_range_meters":12400,"station_id":"ce4bhbp2rcd13ifvqerg","pricing_plan_id":"cebpf4jnsgd1na2vs0mg"},{"bike_id":"c9d9e0de-1232-409a-967b-6332b1eac0de","system_id":"levelo_inurba_marseille","lat":43.248034,"lon":5.374581,"is_reserved":false,"is_disabled":false,"rental_uris":{"android":"levelo://app?vid=c9d9e0de-1232-409a-967b-6332b1eac0de","ios":"levelo://app?vid=c9d9e0de-1232-409a-967b-6332b1eac0de"},"vehicle_type_id":"4","last_reported":1750961727,"current_range_meters":12400,"station_id":"ce4bhgh2rcd13ifvqfb0","pricing_plan_id":"cebpf4jnsgd1na2vs0mg"},{"bike_id":"815111af-68ba-4028-ad9a-be913bce4aab","system_id":"levelo_inurba_marseille","lat":43.23232,"lon":5.35551,"is_reserved":false,"is_disabled":false,"rental_uris":{"android":"levelo://app?vid=815111af-68ba-4028-ad9a-be913bce4aab","ios":"levelo://app?vid=815111af-68ba-4028-ad9a-be913bce4aab"},"vehicle_type_id":"4","last_reported":1750961727,"current_range_meters":12400,"station_id":"ce4bhu92rcd13ifvqi70","pricing_plan_id":"cebpf4jnsgd1na2vs0mg"},{"bike_id":"4b8da722-ee9e-48a4-a5e5-3a8a10364708","system_id":"levelo_inurba_marseille","lat":43.31229,"lon":5.37815,"is_reserved":false,"is_disabled":false,"rental_uris":{"android":"levelo://app?vid=4b8da722-ee9e-48a4-a5e5-3a8a10364708","ios":"levelo://app?vid=4b8da722-ee9e-48a4-a5e5-3a8a10364708"},"vehicle_type_id":"4","last_reported":1750961727,"current_range_meters":12800,"station_id":"","pricing_plan_id":"cebpf4jnsgd1na2vs0mg"},{"bike_id":"c680f4e8-fe4f-47aa-92f2-9268a744ffc3","system_id":"levelo_inurba_marseille","lat":43.30539,"lon":5.36549,"is_reserved":false,"is_disabled":false,"rental_uris":{"android":"levelo://app?vid=c680f4e8-fe4f-47aa-92f2-9268a744ffc3","ios":"levelo://app?vid=c680f4e8-fe4f-47aa-92f2-9268a744ffc3"},"vehicle_type_id":"4","last_reported":1750961727,"current_range_meters":12800,"station_id":"ce4bgs12rcd13ifvqcag","pricing_plan_id":"cebpf4jnsgd1na2vs0mg"},{"bike_id":"0433d07c-1684-4c8b-a727-7cbeba4c3cb1","system_id":"levelo_inurba_marseille","lat":43.28275,"lon":5.35061,"is_reserved":false,"is_disabled":false,"rental_uris":{"android":"levelo://app?vid=0433d07c-1684-4c8b-a727-7cbeba4c3cb1","ios":"levelo://app?vid=0433d07c-1684-4c8b-a727-7cbeba4c3cb1"},"vehicle_type_id":"4","last_reported":1750961727,"current_range_meters":12800,"station_id":"ce4bhbp2rcd13ifvqerg","pricing_plan_id":"cebpf4jnsgd1na2vs0mg"},{"bike_id":"ab2924ed-31af-4037-abc7-5172ca0993b6","system_id":"levelo_inurba_marseille","lat":43.28153,"lon":5.42632,"is_reserved":false,"is_disabled":false,"rental_uris":{"android":"levelo://app?vid=ab2924ed-31af-4037-abc7-5172ca0993b6","ios":"levelo://app?vid=ab2924ed-31af-4037-abc7-5172ca0993b6"},"vehicle_type_id":"4","last_reported":1750961727,"current_range_meters":12800,"station_id":"ce4bhnh2rcd13ifvqgug","pricing_plan_id":"cebpf4jnsgd1na2vs0mg"},{"bike_id":"1362567a-b52c-4a28-9fbf-d02017e8a17c","system_id":"levelo_inurba_marseille","lat":43.32338,"lon":5.40607,"is_reserved":false,"is_disabled":false,"rental_uris":{"android":"levelo://app?vid=1362567a-b52c-4a28-9fbf-d02017e8a17c","ios":"levelo://app?vid=1362567a-b52c-4a28-9fbf-d02017e8a17c"},"vehicle_type_id":"4","last_reported":1750961727,"current_range_meters":12800,"station_id":"ce4bhq92rcd13ifvqhjg","pricing_plan_id":"cebpf4jnsgd1na2vs0mg"},{"bike_id":"38ee6c99-ed1c-4320-bb3c-b1d717388b30","system_id":"levelo_inurba_marseille","lat":43.22943,"lon":5.35353,"is_reserved":false,"is_disabled":false,"rental_uris":{"android":"levelo://app?vid=38ee6c99-ed1c-4320-bb3c-b1d717388b30","ios":"levelo://app?vid=38ee6c99-ed1c-4320-bb3c-b1d717388b30"},"vehicle_type_id":"4","last_reported":1750961727,"current_range_meters":12800,"station_id":"cpo3532slgdg3j2ikp40","pricing_plan_id":"cebpf4jnsgd1na2vs0mg"},{"bike_id":"49e1cd48-9fe5-47f4-9f75-a7df6e2dcc0d","system_id":"levelo_inurba_marseille","lat":43.262081,"lon":5.374447,"is_reserved":false,"is_disabled":false,"rental_uris":{"android":"levelo://app?vid=49e1cd48-9fe5-47f4-9f75-a7df6e2dcc0d","ios":"levelo://app?vid=49e1cd48-9fe5-47f4-9f75-a7df6e2dcc0d"},"vehicle_type_id":"4","last_reported":1750961727,"current_range_meters":13600,"station_id":"","pricing_plan_id":"cebpf4jnsgd1na2vs0mg"},{"bike_id":"b1bc10bb-6dc2-401a-955a-0d8f83b7c4d8","system_id":"levelo_inurba_marseille","lat":43.27384,"lon":5.36254,"is_reserved":false,"is_disabled":false,"rental_uris":{"android":"levelo://app?vid=b1bc10bb-6dc2-401a-955a-0d8f83b7c4d8","ios":"levelo://app?vid=b1bc10bb-6dc2-401a-955a-0d8f83b7c4d8"},"vehicle_type_id":"4","last_reported":1750961727,"current_range_meters":13600,"station_id":"ce4bhbh2rcd13ifvqeo0","pricing_plan_id":"cebpf4jnsgd1na2vs0mg"},{"bike_id":"aa2de43a-7630-4d90-8efb-f65bfda6d7ab","system_id":"levelo_inurba_marseille","lat":43.28276,"lon":5.35066,"is_reserved":false,"is_disabled":false,"rental_uris":{"android":"levelo://app?vid=aa2de43a-7630-4d90-8efb-f65bfda6d7ab","ios":"levelo://app?vid=aa2de43a-7630-4d90-8efb-f65bfda6d7ab"},"vehicle_type_id":"4","last_reported":1750961727,"current_range_meters":13600,"station_id":"ce4bhbp2rcd13ifvqerg","pricing_plan_id":"cebpf4jnsgd1na2vs0mg"},{"bike_id":"d2541864-294e-4fa8-8ed4-da3902bb58d5","system_id":"levelo_inurba_marseille","lat":43.22934,"lon":5.35403,"is_reserved":false,"is_disabled":false,"rental_uris":{"android":"levelo://app?vid=d2541864-294e-4fa8-8ed4-da3902bb58d5","ios":"levelo://app?vid=d2541864-294e-4fa8-8ed4-da3902bb58d5"},"vehicle_type_id":"4","last_reported":1750961727,"current_range_meters":13600,"station_id":"cpo3532slgdg3j2ikp40","pricing_plan_id":"cebpf4jnsgd1na2vs0mg"},{"bike_id":"86ebd8a7-7d30-43b6-953e-6107b0f77710","system_id":"levelo_inurba_marseille","lat":43.33431,"lon":5.40067,"is_reserved":false,"is_disabled":false,"rental_uris":{"android":"levelo://app?vid=86ebd8a7-7d30-43b6-953e-6107b0f77710","ios":"levelo://app?vid=86ebd8a7-7d30-43b6-953e-6107b0f77710"},"vehicle_type_id":"4","last_reported":1750961727,"current_range_meters":14000,"station_id":"","pricing_plan_id":"cebpf4jnsgd1na2vs0mg"},{"bike_id":"2bd6ef1e-5de5-4874-b144-caf9c6f3a1ed","system_id":"levelo_inurba_marseille","lat":43.27616,"lon":5.36105,"is_reserved":false,"is_disabled":false,"rental_uris":{"android":"levelo://app?vid=2bd6ef1e-5de5-4874-b144-caf9c6f3a1ed","ios":"levelo://app?vid=2bd6ef1e-5de5-4874-b144-caf9c6f3a1ed"},"vehicle_type_id":"4","last_reported":1750961727,"current_range_meters":14000,"station_id":"ce4bgj92rcd13ifvqbe0","pricing_plan_id":"cebpf4jnsgd1na2vs0mg"},{"bike_id":"c2e24164-a9b7-425d-a588-5325e191257c","system_id":"levelo_inurba_marseille","lat":43.2737,"lon":5.36246,"is_reserved":false,"is_disabled":false,"rental_uris":{"android":"levelo://app?vid=c2e24164-a9b7-425d-a588-5325e191257c","ios":"levelo://app?vid=c2e24164-a9b7-425d-a588-5325e191257c"},"vehicle_type_id":"4","last_reported":1750961727,"current_range_meters":14000,"station_id":"ce4bhbh2rcd13ifvqeo0","pricing_plan_id":"cebpf4jnsgd1na2vs0mg"},{"bike_id":"92312870-cf79-463d-8038-5e4cf929c120","system_id":"levelo_inurba_marseille","lat":43.2739,"lon":5.36254,"is_reserved":false,"is_disabled":false,"rental_uris":{"android":"levelo://app?vid=92312870-cf79-463d-8038-5e4cf929c120","ios":"levelo://app?vid=92312870-cf79-463d-8038-5e4cf929c120"},"vehicle_type_id":"4","last_reported":1750961727,"current_range_meters":14000,"station_id":"ce4bhbh2rcd13ifvqeo0","pricing_plan_id":"cebpf4jnsgd1na2vs0mg"},{"bike_id":"8ffc8053-f173-43ce-a541-05ff9e95b5e2","system_id":"levelo_inurba_marseille","lat":43.273779,"lon":5.362573,"is_reserved":false,"is_disabled":false,"rental_uris":{"android":"levelo://app?vid=8ffc8053-f173-43ce-a541-05ff9e95b5e2","ios":"levelo://app?vid=8ffc8053-f173-43ce-a541-05ff9e95b5e2"},"vehicle_type_id":"4","last_reported":1750961727,"current_range_meters":14000,"station_id":"ce4bhbh2rcd13ifvqeo0","pricing_plan_id":"cebpf4jnsgd1na2vs0mg"},{"bike_id":"b7291367-c2df-4031-b941-cdffd45b9be4","system_id":"levelo_inurba_marseille","lat":43.25827,"lon":5.394369,"is_reserved":false,"is_disabled":false,"rental_uris":{"android":"levelo://app?vid=b7291367-c2df-4031-b941-cdffd45b9be4","ios":"levelo://app?vid=b7291367-c2df-4031-b941-cdffd45b9be4"},"vehicle_type_id":"4","last_reported":1750961727,"current_range_meters":14000,"station_id":"ce4bhip2rcd13ifvqft0","pricing_plan_id":"cebpf4jnsgd1na2vs0mg"},{"bike_id":"15a571d0-02d8-43fb-8dad-b628f0c3c9eb","system_id":"levelo_inurba_marseille","lat":43.2509,"lon":5.39517,"is_reserved":false,"is_disabled":false,"rental_uris":{"android":"levelo://app?vid=15a571d0-02d8-43fb-8dad-b628f0c3c9eb","ios":"levelo://app?vid=15a571d0-02d8-43fb-8dad-b628f0c3c9eb"},"vehicle_type_id":"4","last_reported":1750961727,"current_range_meters":14000,"station_id":"ce4bhm12rcd13ifvqgkg","pricing_plan_id":"cebpf4jnsgd1na2vs0mg"},{"bike_id":"384f70ce-c687-493b-8529-b5d267c98ce7","system_id":"levelo_inurba_marseille","lat":43.245266,"lon":5.375642,"is_reserved":false,"is_disabled":false,"rental_uris":{"android":"levelo://app?vid=384f70ce-c687-493b-8529-b5d267c98ce7","ios":"levelo://app?vid=384f70ce-c687-493b-8529-b5d267c98ce7"},"vehicle_type_id":"4","last_reported":1750961727,"current_range_meters":14000,"station_id":"ce4bhm12rcd13ifvqgkg","pricing_plan_id":"cebpf4jnsgd1na2vs0mg"},{"bike_id":"ebce0d60-1d33-488b-9a6e-5aca7954dd83","system_id":"levelo_inurba_marseille","lat":43.32541,"lon":5.41438,"is_reserved":false,"is_disabled":false,"rental_uris":{"android":"levelo://app?vid=ebce0d60-1d33-488b-9a6e-5aca7954dd83","ios":"levelo://app?vid=ebce0d60-1d33-488b-9a6e-5aca7954dd83"},"vehicle_type_id":"4","last_reported":1750961727,"current_range_meters":14000,"station_id":"ce4bhq12rcd13ifvqhhg","pricing_plan_id":"cebpf4jnsgd1na2vs0mg"},{"bike_id":"277d6f3a-b9b5-4d88-bf0d-6c597782848e","system_id":"levelo_inurba_marseille","lat":43.23217,"lon":5.35554,"is_reserved":false,"is_disabled":false,"rental_uris":{"android":"levelo://app?vid=277d6f3a-b9b5-4d88-bf0d-6c597782848e","ios":"levelo://app?vid=277d6f3a-b9b5-4d88-bf0d-6c597782848e"},"vehicle_type_id":"4","last_reported":1750961727,"current_range_meters":14000,"station_id":"ce4bhu92rcd13ifvqi70","pricing_plan_id":"cebpf4jnsgd1na2vs0mg"},{"bike_id":"89370fcb-f9de-4adb-9f57-cf0314f916aa","system_id":"levelo_inurba_marseille","lat":43.29204,"lon":5.35805,"is_reserved":false,"is_disabled":false,"rental_uris":{"android":"levelo://app?vid=89370fcb-f9de-4adb-9f57-cf0314f916aa","ios":"levelo://app?vid=89370fcb-f9de-4adb-9f57-cf0314f916aa"},"vehicle_type_id":"4","last_reported":1750961727,"current_range_meters":14400,"station_id":"ce4bhb12rcd13ifvqel0","pricing_plan_id":"cebpf4jnsgd1na2vs0mg"},{"bike_id":"87330fc2-ae81-4346-b789-01199179c850","system_id":"levelo_inurba_marseille","lat":43.261937,"lon":5.374466,"is_reserved":false,"is_disabled":false,"rental_uris":{"android":"levelo://app?vid=87330fc2-ae81-4346-b789-01199179c850","ios":"levelo://app?vid=87330fc2-ae81-4346-b789-01199179c850"},"vehicle_type_id":"4","last_reported":1750961727,"current_range_meters":14400,"station_id":"ce4bhbh2rcd13ifvqeo0","pricing_plan_id":"cebpf4jnsgd1na2vs0mg"},{"bike_id":"439b48a3-3e7f-43d7-af7a-e30721457f90","system_id":"levelo_inurba_marseille","lat":43.28428,"lon":5.3499,"is_reserved":false,"is_disabled":false,"rental_uris":{"android":"levelo://app?vid=439b48a3-3e7f-43d7-af7a-e30721457f90","ios":"levelo://app?vid=439b48a3-3e7f-43d7-af7a-e30721457f90"},"vehicle_type_id":"4","last_reported":1750961727,"current_range_meters":14400,"station_id":"ce4bhbh2rcd13ifvqepg","pricing_plan_id":"cebpf4jnsgd1na2vs0mg"},{"bike_id":"fd4a43c3-b2ac-4e28-8cec-b0d850bbaf4f","system_id":"levelo_inurba_marseille","lat":43.28279,"lon":5.35069,"is_reserved":false,"is_disabled":false,"rental_uris":{"android":"levelo://app?vid=fd4a43c3-b2ac-4e28-8cec-b0d850bbaf4f","ios":"levelo://app?vid=fd4a43c3-b2ac-4e28-8cec-b0d850bbaf4f"},"vehicle_type_id":"4","last_reported":1750961727,"current_range_meters":14400,"station_id":"ce4bhbp2rcd13ifvqerg","pricing_plan_id":"cebpf4jnsgd1na2vs0mg"},{"bike_id":"069769d6-ff22-4af5-b365-c4988cb7ba67","system_id":"levelo_inurba_marseille","lat":43.28653,"lon":5.35074,"is_reserved":false,"is_disabled":false,"rental_uris":{"android":"levelo://app?vid=069769d6-ff22-4af5-b365-c4988cb7ba67","ios":"levelo://app?vid=069769d6-ff22-4af5-b365-c4988cb7ba67"},"vehicle_type_id":"4","last_reported":1750961727,"current_range_meters":14400,"station_id":"ce4bhch2rcd13ifvqeug","pricing_plan_id":"cebpf4jnsgd1na2vs0mg"},{"bike_id":"afbe1348-2136-41e0-9862-803a43115a37","system_id":"levelo_inurba_marseille","lat":43.24391,"lon":5.370635,"is_reserved":false,"is_disabled":false,"rental_uris":{"android":"levelo://app?vid=afbe1348-2136-41e0-9862-803a43115a37","ios":"levelo://app?vid=afbe1348-2136-41e0-9862-803a43115a37"},"vehicle_type_id":"4","last_reported":1750961727,"current_range_meters":14400,"station_id":"ce4bhhh2rcd13ifvqfk0","pricing_plan_id":"cebpf4jnsgd1na2vs0mg"},{"bike_id":"33ff2acc-5b55-48de-9529-81b3c60dbff0","system_id":"levelo_inurba_marseille","lat":43.30906,"lon":5.37298,"is_reserved":false,"is_disabled":false,"rental_uris":{"android":"levelo://app?vid=33ff2acc-5b55-48de-9529-81b3c60dbff0","ios":"levelo://app?vid=33ff2acc-5b55-48de-9529-81b3c60dbff0"},"vehicle_type_id":"4","last_reported":1750961727,"current_range_meters":14800,"station_id":"","pricing_plan_id":"cebpf4jnsgd1na2vs0mg"},{"bike_id":"7a6d7990-86a0-44ed-9847-a3f1e456c5af","system_id":"levelo_inurba_marseille","lat":43.28423,"lon":5.34983,"is_reserved":false,"is_disabled":false,"rental_uris":{"android":"levelo://app?vid=7a6d7990-86a0-44ed-9847-a3f1e456c5af","ios":"levelo://app?vid=7a6d7990-86a0-44ed-9847-a3f1e456c5af"},"vehicle_type_id":"4","last_reported":1750961727,"current_range_meters":14800,"station_id":"ce4bhbh2rcd13ifvqepg","pricing_plan_id":"cebpf4jnsgd1na2vs0mg"},{"bike_id":"8ff7feb7-1f0e-4247-b891-92216b025fbf","system_id":"levelo_inurba_marseille","lat":43.2784,"lon":5.39205,"is_reserved":false,"is_disabled":false,"rental_uris":{"android":"levelo://app?vid=8ff7feb7-1f0e-4247-b891-92216b025fbf","ios":"levelo://app?vid=8ff7feb7-1f0e-4247-b891-92216b025fbf"},"vehicle_type_id":"4","last_reported":1750961727,"current_range_meters":14800,"station_id":"ce4bhjp2rcd13ifvqga0","pricing_plan_id":"cebpf4jnsgd1na2vs0mg"},{"bike_id":"a6ad5b7b-d66e-4123-9134-11ab5bd6d056","system_id":"levelo_inurba_marseille","lat":43.31762,"lon":5.3901,"is_reserved":false,"is_disabled":false,"rental_uris":{"android":"levelo://app?vid=a6ad5b7b-d66e-4123-9134-11ab5bd6d056","ios":"levelo://app?vid=a6ad5b7b-d66e-4123-9134-11ab5bd6d056"},"vehicle_type_id":"4","last_reported":1750961727,"current_range_meters":14800,"station_id":"ce4bhqp2rcd13ifvqhng","pricing_plan_id":"cebpf4jnsgd1na2vs0mg"},{"bike_id":"ff4b79b3-0403-48e4-b08b-b29f6eaaf3dd","system_id":"levelo_inurba_marseille","lat":43.28606,"lon":5.37055,"is_reserved":false,"is_disabled":false,"rental_uris":{"android":"levelo://app?vid=ff4b79b3-0403-48e4-b08b-b29f6eaaf3dd","ios":"levelo://app?vid=ff4b79b3-0403-48e4-b08b-b29f6eaaf3dd"},"vehicle_type_id":"4","last_reported":1750961727,"current_range_meters":14800,"station_id":"ce4bht12rcd13ifvqi60","pricing_plan_id":"cebpf4jnsgd1na2vs0mg"},{"bike_id":"797bc19d-43c8-4deb-94fb-eed04577d386","system_id":"levelo_inurba_marseille","lat":43.29255,"lon":5.38438,"is_reserved":false,"is_disabled":false,"rental_uris":{"android":"levelo://app?vid=797bc19d-43c8-4deb-94fb-eed04577d386","ios":"levelo://app?vid=797bc19d-43c8-4deb-94fb-eed04577d386"},"vehicle_type_id":"4","last_reported":1750961727,"current_range_meters":15200,"station_id":"ce4bh692rcd13ifvqea0","pricing_plan_id":"cebpf4jnsgd1na2vs0mg"},{"bike_id":"fbc21918-e934-4498-8849-9b15a1d590bf","system_id":"levelo_inurba_marseille","lat":43.28284,"lon":5.3507,"is_reserved":false,"is_disabled":false,"rental_uris":{"android":"levelo://app?vid=fbc21918-e934-4498-8849-9b15a1d590bf","ios":"levelo://app?vid=fbc21918-e934-4498-8849-9b15a1d590bf"},"vehicle_type_id":"4","last_reported":1750961727,"current_range_meters":15200,"station_id":"ce4bhbp2rcd13ifvqerg","pricing_plan_id":"cebpf4jnsgd1na2vs0mg"},{"bike_id":"3fda70df-e1b8-4091-b66f-211bb0339eb3","system_id":"levelo_inurba_marseille","lat":43.23204,"lon":5.35546,"is_reserved":false,"is_disabled":false,"rental_uris":{"android":"levelo://app?vid=3fda70df-e1b8-4091-b66f-211bb0339eb3","ios":"levelo://app?vid=3fda70df-e1b8-4091-b66f-211bb0339eb3"},"vehicle_type_id":"4","last_reported":1750961727,"current_range_meters":15200,"station_id":"ce4bhu92rcd13ifvqi70","pricing_plan_id":"cebpf4jnsgd1na2vs0mg"},{"bike_id":"ab875138-c754-4b3b-82d7-2da5a11b45cf","system_id":"levelo_inurba_marseille","lat":43.2175,"lon":5.34585,"is_reserved":false,"is_disabled":false,"rental_uris":{"android":"levelo://app?vid=ab875138-c754-4b3b-82d7-2da5a11b45cf","ios":"levelo://app?vid=ab875138-c754-4b3b-82d7-2da5a11b45cf"},"vehicle_type_id":"4","last_reported":1750961727,"current_range_meters":15200,"station_id":"st_cvj6r9ubvosntc0bgbag","pricing_plan_id":"cebpf4jnsgd1na2vs0mg"},{"bike_id":"7d0bdbe0-5b2f-444e-9458-8cdabd14ebea","system_id":"levelo_inurba_marseille","lat":43.2761,"lon":5.36098,"is_reserved":false,"is_disabled":false,"rental_uris":{"android":"levelo://app?vid=7d0bdbe0-5b2f-444e-9458-8cdabd14ebea","ios":"levelo://app?vid=7d0bdbe0-5b2f-444e-9458-8cdabd14ebea"},"vehicle_type_id":"4","last_reported":1750961727,"current_range_meters":16000,"station_id":"ce4bgj92rcd13ifvqbe0","pricing_plan_id":"cebpf4jnsgd1na2vs0mg"},{"bike_id":"520b2c46-2bf1-4fd2-9fca-b32997429572","system_id":"levelo_inurba_marseille","lat":43.28435,"lon":5.34982,"is_reserved":false,"is_disabled":false,"rental_uris":{"android":"levelo://app?vid=520b2c46-2bf1-4fd2-9fca-b32997429572","ios":"levelo://app?vid=520b2c46-2bf1-4fd2-9fca-b32997429572"},"vehicle_type_id":"4","last_reported":1750961727,"current_range_meters":16000,"station_id":"ce4bhbh2rcd13ifvqepg","pricing_plan_id":"cebpf4jnsgd1na2vs0mg"},{"bike_id":"00dd56d8-e1b2-4672-bc22-05410cbb86ff","system_id":"levelo_inurba_marseille","lat":43.28295,"lon":5.3506,"is_reserved":false,"is_disabled":false,"rental_uris":{"android":"levelo://app?vid=00dd56d8-e1b2-4672-bc22-05410cbb86ff","ios":"levelo://app?vid=00dd56d8-e1b2-4672-bc22-05410cbb86ff"},"vehicle_type_id":"4","last_reported":1750961727,"current_range_meters":16000,"station_id":"ce4bhbp2rcd13ifvqerg","pricing_plan_id":"cebpf4jnsgd1na2vs0mg"},{"bike_id":"cb5f876d-e9b2-42e9-92e4-ef5625e37cdf","system_id":"levelo_inurba_marseille","lat":43.24809,"lon":5.37454,"is_reserved":false,"is_disabled":false,"rental_uris":{"android":"levelo://app?vid=cb5f876d-e9b2-42e9-92e4-ef5625e37cdf","ios":"levelo://app?vid=cb5f876d-e9b2-42e9-92e4-ef5625e37cdf"},"vehicle_type_id":"4","last_reported":1750961727,"current_range_meters":16000,"station_id":"ce4bhgh2rcd13ifvqfb0","pricing_plan_id":"cebpf4jnsgd1na2vs0mg"},{"bike_id":"50a2b5fb-a76f-4eb3-8ca4-fd3bcdec36ba","system_id":"levelo_inurba_marseille","lat":43.235608,"lon":5.361169,"is_reserved":false,"is_disabled":false,"rental_uris":{"android":"levelo://app?vid=50a2b5fb-a76f-4eb3-8ca4-fd3bcdec36ba","ios":"levelo://app?vid=50a2b5fb-a76f-4eb3-8ca4-fd3bcdec36ba"},"vehicle_type_id":"4","last_reported":1750961727,"current_range_meters":16400,"station_id":"","pricing_plan_id":"cebpf4jnsgd1na2vs0mg"},{"bike_id":"b0af48a6-b9ec-483a-8f13-94ef0cc2491d","system_id":"levelo_inurba_marseille","lat":43.27376,"lon":5.362457,"is_reserved":false,"is_disabled":false,"rental_uris":{"android":"levelo://app?vid=b0af48a6-b9ec-483a-8f13-94ef0cc2491d","ios":"levelo://app?vid=b0af48a6-b9ec-483a-8f13-94ef0cc2491d"},"vehicle_type_id":"4","last_reported":1750961727,"current_range_meters":16400,"station_id":"ce4bhbh2rcd13ifvqeo0","pricing_plan_id":"cebpf4jnsgd1na2vs0mg"},{"bike_id":"dc813e88-f334-44d3-bcb6-92e879333600","system_id":"levelo_inurba_marseille","lat":43.284113,"lon":5.349808,"is_reserved":false,"is_disabled":false,"rental_uris":{"android":"levelo://app?vid=dc813e88-f334-44d3-bcb6-92e879333600","ios":"levelo://app?vid=dc813e88-f334-44d3-bcb6-92e879333600"},"vehicle_type_id":"4","last_reported":1750961727,"current_range_meters":16400,"station_id":"ce4bhbh2rcd13ifvqepg","pricing_plan_id":"cebpf4jnsgd1na2vs0mg"},{"bike_id":"541e7df5-ad85-4271-902b-ff2f4ba41623","system_id":"levelo_inurba_marseille","lat":43.28419,"lon":5.34984,"is_reserved":false,"is_disabled":false,"rental_uris":{"android":"levelo://app?vid=541e7df5-ad85-4271-902b-ff2f4ba41623","ios":"levelo://app?vid=541e7df5-ad85-4271-902b-ff2f4ba41623"},"vehicle_type_id":"4","last_reported":1750961727,"current_range_meters":16400,"station_id":"ce4bhbh2rcd13ifvqepg","pricing_plan_id":"cebpf4jnsgd1na2vs0mg"},{"bike_id":"1b2b4005-5f9b-4aaf-9e25-595cba5569e1","system_id":"levelo_inurba_marseille","lat":43.28287,"lon":5.3507,"is_reserved":false,"is_disabled":false,"rental_uris":{"android":"levelo://app?vid=1b2b4005-5f9b-4aaf-9e25-595cba5569e1","ios":"levelo://app?vid=1b2b4005-5f9b-4aaf-9e25-595cba5569e1"},"vehicle_type_id":"4","last_reported":1750961727,"current_range_meters":16400,"station_id":"ce4bhbp2rcd13ifvqerg","pricing_plan_id":"cebpf4jnsgd1na2vs0mg"},{"bike_id":"8c7207ad-097a-4d64-9eee-11af24557f53","system_id":"levelo_inurba_marseille","lat":43.270744,"lon":5.422772,"is_reserved":false,"is_disabled":false,"rental_uris":{"android":"levelo://app?vid=8c7207ad-097a-4d64-9eee-11af24557f53","ios":"levelo://app?vid=8c7207ad-097a-4d64-9eee-11af24557f53"},"vehicle_type_id":"4","last_reported":1750961727,"current_range_meters":16400,"station_id":"ce4bhk92rcd13ifvqgb0","pricing_plan_id":"cebpf4jnsgd1na2vs0mg"},{"bike_id":"0888cab8-d7cf-4f4a-80ba-e27525df4df3","system_id":"levelo_inurba_marseille","lat":43.24072,"lon":5.37758,"is_reserved":false,"is_disabled":false,"rental_uris":{"android":"levelo://app?vid=0888cab8-d7cf-4f4a-80ba-e27525df4df3","ios":"levelo://app?vid=0888cab8-d7cf-4f4a-80ba-e27525df4df3"},"vehicle_type_id":"4","last_reported":1750961727,"current_range_meters":16400,"station_id":"ce4bhnp2rcd13ifvqgvg","pricing_plan_id":"cebpf4jnsgd1na2vs0mg"},{"bike_id":"f1ff4f78-6d1b-435f-8777-a24085f5b111","system_id":"levelo_inurba_marseille","lat":43.23195,"lon":5.35552,"is_reserved":false,"is_disabled":false,"rental_uris":{"android":"levelo://app?vid=f1ff4f78-6d1b-435f-8777-a24085f5b111","ios":"levelo://app?vid=f1ff4f78-6d1b-435f-8777-a24085f5b111"},"vehicle_type_id":"4","last_reported":1750961727,"current_range_meters":16400,"station_id":"ce4bhu92rcd13ifvqi70","pricing_plan_id":"cebpf4jnsgd1na2vs0mg"},{"bike_id":"348936c8-7c8d-4b8a-988e-b0a979920804","system_id":"levelo_inurba_marseille","lat":43.21194,"lon":5.35062,"is_reserved":false,"is_disabled":false,"rental_uris":{"android":"levelo://app?vid=348936c8-7c8d-4b8a-988e-b0a979920804","ios":"levelo://app?vid=348936c8-7c8d-4b8a-988e-b0a979920804"},"vehicle_type_id":"4","last_reported":1750961727,"current_range_meters":16400,"station_id":"st_cvj6sg6p6f1abm77japg","pricing_plan_id":"cebpf4jnsgd1na2vs0mg"},{"bike_id":"6ac8d651-e7bc-4e7e-b7a5-559dd1c258cc","system_id":"levelo_inurba_marseille","lat":43.28414,"lon":5.34985,"is_reserved":false,"is_disabled":false,"rental_uris":{"android":"levelo://app?vid=6ac8d651-e7bc-4e7e-b7a5-559dd1c258cc","ios":"levelo://app?vid=6ac8d651-e7bc-4e7e-b7a5-559dd1c258cc"},"vehicle_type_id":"4","last_reported":1750961727,"current_range_meters":16800,"station_id":"ce4bhbh2rcd13ifvqepg","pricing_plan_id":"cebpf4jnsgd1na2vs0mg"},{"bike_id":"0d7f89c8-6fcf-4589-9cf1-80321a7b87fc","system_id":"levelo_inurba_marseille","lat":43.28445,"lon":5.39196,"is_reserved":false,"is_disabled":false,"rental_uris":{"android":"levelo://app?vid=0d7f89c8-6fcf-4589-9cf1-80321a7b87fc","ios":"levelo://app?vid=0d7f89c8-6fcf-4589-9cf1-80321a7b87fc"},"vehicle_type_id":"4","last_reported":1750961727,"current_range_meters":16800,"station_id":"ce4bhoh2rcd13ifvqh5g","pricing_plan_id":"cebpf4jnsgd1na2vs0mg"},{"bike_id":"ccf3bd3e-8cf9-4961-b9dc-bddd5adcdf0d","system_id":"levelo_inurba_marseille","lat":43.31364,"lon":5.38495,"is_reserved":false,"is_disabled":false,"rental_uris":{"android":"levelo://app?vid=ccf3bd3e-8cf9-4961-b9dc-bddd5adcdf0d","ios":"levelo://app?vid=ccf3bd3e-8cf9-4961-b9dc-bddd5adcdf0d"},"vehicle_type_id":"4","last_reported":1750961727,"current_range_meters":17200,"station_id":"ce4bgt92rcd13ifvqcf0","pricing_plan_id":"cebpf4jnsgd1na2vs0mg"},{"bike_id":"02f9ef03-5487-4eaf-936d-44039451fd6e","system_id":"levelo_inurba_marseille","lat":43.273748,"lon":5.362595,"is_reserved":false,"is_disabled":false,"rental_uris":{"android":"levelo://app?vid=02f9ef03-5487-4eaf-936d-44039451fd6e","ios":"levelo://app?vid=02f9ef03-5487-4eaf-936d-44039451fd6e"},"vehicle_type_id":"4","last_reported":1750961727,"current_range_meters":17200,"station_id":"ce4bhbh2rcd13ifvqeo0","pricing_plan_id":"cebpf4jnsgd1na2vs0mg"},{"bike_id":"c65c7bf3-5825-4298-ac27-d84f6583e13b","system_id":"levelo_inurba_marseille","lat":43.28432,"lon":5.35009,"is_reserved":false,"is_disabled":false,"rental_uris":{"android":"levelo://app?vid=c65c7bf3-5825-4298-ac27-d84f6583e13b","ios":"levelo://app?vid=c65c7bf3-5825-4298-ac27-d84f6583e13b"},"vehicle_type_id":"4","last_reported":1750961727,"current_range_meters":17200,"station_id":"ce4bhbh2rcd13ifvqepg","pricing_plan_id":"cebpf4jnsgd1na2vs0mg"},{"bike_id":"de9bfc90-1ea1-4e7a-a64b-3acd74367471","system_id":"levelo_inurba_marseille","lat":43.28424,"lon":5.34976,"is_reserved":false,"is_disabled":false,"rental_uris":{"android":"levelo://app?vid=de9bfc90-1ea1-4e7a-a64b-3acd74367471","ios":"levelo://app?vid=de9bfc90-1ea1-4e7a-a64b-3acd74367471"},"vehicle_type_id":"4","last_reported":1750961727,"current_range_meters":17200,"station_id":"ce4bhbh2rcd13ifvqepg","pricing_plan_id":"cebpf4jnsgd1na2vs0mg"},{"bike_id":"790e9783-3dd5-42d1-8fef-4d46edd292e6","system_id":"levelo_inurba_marseille","lat":43.284063,"lon":5.349852,"is_reserved":false,"is_disabled":false,"rental_uris":{"android":"levelo://app?vid=790e9783-3dd5-42d1-8fef-4d46edd292e6","ios":"levelo://app?vid=790e9783-3dd5-42d1-8fef-4d46edd292e6"},"vehicle_type_id":"4","last_reported":1750961727,"current_range_meters":17200,"station_id":"ce4bhbh2rcd13ifvqepg","pricing_plan_id":"cebpf4jnsgd1na2vs0mg"},{"bike_id":"8d78bf36-f1c3-41a4-95fd-e6d4a1c1d57c","system_id":"levelo_inurba_marseille","lat":43.28434,"lon":5.34988,"is_reserved":false,"is_disabled":false,"rental_uris":{"android":"levelo://app?vid=8d78bf36-f1c3-41a4-95fd-e6d4a1c1d57c","ios":"levelo://app?vid=8d78bf36-f1c3-41a4-95fd-e6d4a1c1d57c"},"vehicle_type_id":"4","last_reported":1750961727,"current_range_meters":17600,"station_id":"ce4bhbh2rcd13ifvqepg","pricing_plan_id":"cebpf4jnsgd1na2vs0mg"},{"bike_id":"40b19a43-7568-4070-8cfa-6d78b27578ba","system_id":"levelo_inurba_marseille","lat":43.254751,"lon":5.3765,"is_reserved":false,"is_disabled":false,"rental_uris":{"android":"levelo://app?vid=40b19a43-7568-4070-8cfa-6d78b27578ba","ios":"levelo://app?vid=40b19a43-7568-4070-8cfa-6d78b27578ba"},"vehicle_type_id":"4","last_reported":1750961727,"current_range_meters":17600,"station_id":"ce4bhh12rcd13ifvqff0","pricing_plan_id":"cebpf4jnsgd1na2vs0mg"},{"bike_id":"d0a8908a-397f-4bdd-8c3f-19cb4de751e8","system_id":"levelo_inurba_marseille","lat":43.31086,"lon":5.4243,"is_reserved":false,"is_disabled":false,"rental_uris":{"android":"levelo://app?vid=d0a8908a-397f-4bdd-8c3f-19cb4de751e8","ios":"levelo://app?vid=d0a8908a-397f-4bdd-8c3f-19cb4de751e8"},"vehicle_type_id":"4","last_reported":1750961727,"current_range_meters":17600,"station_id":"ce4bhp92rcd13ifvqhag","pricing_plan_id":"cebpf4jnsgd1na2vs0mg"},{"bike_id":"9d043ca6-e9d3-4bf0-a898-473de0644f93","system_id":"levelo_inurba_marseille","lat":43.21198,"lon":5.35054,"is_reserved":false,"is_disabled":false,"rental_uris":{"android":"levelo://app?vid=9d043ca6-e9d3-4bf0-a898-473de0644f93","ios":"levelo://app?vid=9d043ca6-e9d3-4bf0-a898-473de0644f93"},"vehicle_type_id":"4","last_reported":1750961727,"current_range_meters":17600,"station_id":"st_cvj6sg6p6f1abm77japg","pricing_plan_id":"cebpf4jnsgd1na2vs0mg"},{"bike_id":"d25c92ba-9c07-4124-b372-b971bba7515e","system_id":"levelo_inurba_marseille","lat":43.250004,"lon":5.389368,"is_reserved":false,"is_disabled":false,"rental_uris":{"android":"levelo://app?vid=d25c92ba-9c07-4124-b372-b971bba7515e","ios":"levelo://app?vid=d25c92ba-9c07-4124-b372-b971bba7515e"},"vehicle_type_id":"4","last_reported":1750961727,"current_range_meters":18000,"station_id":"","pricing_plan_id":"cebpf4jnsgd1na2vs0mg"},{"bike_id":"a788843a-f92b-48da-8330-c14b3fe86254","system_id":"levelo_inurba_marseille","lat":43.28426,"lon":5.34984,"is_reserved":false,"is_disabled":false,"rental_uris":{"android":"levelo://app?vid=a788843a-f92b-48da-8330-c14b3fe86254","ios":"levelo://app?vid=a788843a-f92b-48da-8330-c14b3fe86254"},"vehicle_type_id":"4","last_reported":1750961727,"current_range_meters":18000,"station_id":"ce4bhbh2rcd13ifvqepg","pricing_plan_id":"cebpf4jnsgd1na2vs0mg"},{"bike_id":"ea9ac434-f5f0-463f-869d-742629fb9516","system_id":"levelo_inurba_marseille","lat":43.28274,"lon":5.35065,"is_reserved":false,"is_disabled":false,"rental_uris":{"android":"levelo://app?vid=ea9ac434-f5f0-463f-869d-742629fb9516","ios":"levelo://app?vid=ea9ac434-f5f0-463f-869d-742629fb9516"},"vehicle_type_id":"4","last_reported":1750961727,"current_range_meters":18000,"station_id":"ce4bhbp2rcd13ifvqerg","pricing_plan_id":"cebpf4jnsgd1na2vs0mg"},{"bike_id":"9d8c196d-82ac-45f6-892b-c9baada56e67","system_id":"levelo_inurba_marseille","lat":43.23189,"lon":5.35562,"is_reserved":false,"is_disabled":false,"rental_uris":{"android":"levelo://app?vid=9d8c196d-82ac-45f6-892b-c9baada56e67","ios":"levelo://app?vid=9d8c196d-82ac-45f6-892b-c9baada56e67"},"vehicle_type_id":"4","last_reported":1750961727,"current_range_meters":18000,"station_id":"ce4bhu92rcd13ifvqi70","pricing_plan_id":"cebpf4jnsgd1na2vs0mg"},{"bike_id":"2cefe4c4-7926-46e5-9eb5-dc374030f814","system_id":"levelo_inurba_marseille","lat":43.21755,"lon":5.34597,"is_reserved":false,"is_disabled":false,"rental_uris":{"android":"levelo://app?vid=2cefe4c4-7926-46e5-9eb5-dc374030f814","ios":"levelo://app?vid=2cefe4c4-7926-46e5-9eb5-dc374030f814"},"vehicle_type_id":"4","last_reported":1750961727,"current_range_meters":18000,"station_id":"st_cvj6r9ubvosntc0bgbag","pricing_plan_id":"cebpf4jnsgd1na2vs0mg"},{"bike_id":"904141fe-9e98-4493-afb6-75ac795528cf","system_id":"levelo_inurba_marseille","lat":43.21757,"lon":5.34604,"is_reserved":false,"is_disabled":false,"rental_uris":{"android":"levelo://app?vid=904141fe-9e98-4493-afb6-75ac795528cf","ios":"levelo://app?vid=904141fe-9e98-4493-afb6-75ac795528cf"},"vehicle_type_id":"4","last_reported":1750961727,"current_range_meters":18000,"station_id":"st_cvj6r9ubvosntc0bgbag","pricing_plan_id":"cebpf4jnsgd1na2vs0mg"},{"bike_id":"37243060-4231-4916-9fed-fa7e9205f858","system_id":"levelo_inurba_marseille","lat":43.246498,"lon":5.381414,"is_reserved":false,"is_disabled":false,"rental_uris":{"android":"levelo://app?vid=37243060-4231-4916-9fed-fa7e9205f858","ios":"levelo://app?vid=37243060-4231-4916-9fed-fa7e9205f858"},"vehicle_type_id":"4","last_reported":1750961727,"current_range_meters":18800,"station_id":"","pricing_plan_id":"cebpf4jnsgd1na2vs0mg"},{"bike_id":"9e464341-919d-4cc4-a28b-cf57333c6349","system_id":"levelo_inurba_marseille","lat":43.313566,"lon":5.384875,"is_reserved":false,"is_disabled":false,"rental_uris":{"android":"levelo://app?vid=9e464341-919d-4cc4-a28b-cf57333c6349","ios":"levelo://app?vid=9e464341-919d-4cc4-a28b-cf57333c6349"},"vehicle_type_id":"4","last_reported":1750961727,"current_range_meters":18800,"station_id":"ce4bgt92rcd13ifvqcf0","pricing_plan_id":"cebpf4jnsgd1na2vs0mg"},{"bike_id":"99dd48fd-b09e-4b76-b957-04244b2c9e97","system_id":"levelo_inurba_marseille","lat":43.28647,"lon":5.35062,"is_reserved":false,"is_disabled":false,"rental_uris":{"android":"levelo://app?vid=99dd48fd-b09e-4b76-b957-04244b2c9e97","ios":"levelo://app?vid=99dd48fd-b09e-4b76-b957-04244b2c9e97"},"vehicle_type_id":"4","last_reported":1750961727,"current_range_meters":18800,"station_id":"ce4bhch2rcd13ifvqeug","pricing_plan_id":"cebpf4jnsgd1na2vs0mg"},{"bike_id":"4adb3fa8-3485-46f7-bdef-b699cb73b336","system_id":"levelo_inurba_marseille","lat":43.26192,"lon":5.37448,"is_reserved":false,"is_disabled":false,"rental_uris":{"android":"levelo://app?vid=4adb3fa8-3485-46f7-bdef-b699cb73b336","ios":"levelo://app?vid=4adb3fa8-3485-46f7-bdef-b699cb73b336"},"vehicle_type_id":"4","last_reported":1750961727,"current_range_meters":18800,"station_id":"ce4bhgp2rcd13ifvqfc0","pricing_plan_id":"cebpf4jnsgd1na2vs0mg"},{"bike_id":"2b66f08a-36aa-4838-a3b1-f4fbb0554f5d","system_id":"levelo_inurba_marseille","lat":43.30353,"lon":5.41876,"is_reserved":false,"is_disabled":false,"rental_uris":{"android":"levelo://app?vid=2b66f08a-36aa-4838-a3b1-f4fbb0554f5d","ios":"levelo://app?vid=2b66f08a-36aa-4838-a3b1-f4fbb0554f5d"},"vehicle_type_id":"4","last_reported":1750961727,"current_range_meters":18800,"station_id":"ce4bhop2rcd13ifvqh7g","pricing_plan_id":"cebpf4jnsgd1na2vs0mg"},{"bike_id":"f0660e74-2121-4e45-bfae-883516082190","system_id":"levelo_inurba_marseille","lat":43.24173,"lon":5.36386,"is_reserved":false,"is_disabled":false,"rental_uris":{"android":"levelo://app?vid=f0660e74-2121-4e45-bfae-883516082190","ios":"levelo://app?vid=f0660e74-2121-4e45-bfae-883516082190"},"vehicle_type_id":"4","last_reported":1750961727,"current_range_meters":18800,"station_id":"cpo36qri1sfpv3e86is0","pricing_plan_id":"cebpf4jnsgd1na2vs0mg"},