{"last_updated":1698862125,"ttl":30,"version":"2.2","data":{"bikes":[{"bike_id":"8314e796-9871-406f-8cbe-2b57fe1fa58a","system_id":"levelo_inurba_marseille","lat":43.305989,"lon":5.37225,"is_reserved":false,"is_disabled":false,"rental_uris":{"android":"levelo://app?vid=8314e796-9871-406f-8cbe-2b57fe1fa58a","ios":"levelo://app?vid=8314e796-9871-406f-8cbe-2b57fe1fa58a"},"vehicle_type_id":"4","last_reported":1698862125,"current_range_meters":25200,"station_id":"ce4bgqh2rcd13ifvqc4g","pricing_plan_id":"free"},{"bike_id":"6671b94f-52a3-420b-8358-926cbbb38f2a","system_id":"levelo_inurba_marseille","lat":43.312239,"lon":5.368562,"is_reserved":false,"is_disabled":false,"rental_uris":{"android":"levelo://app?vid=6671b94f-52a3-420b-8358-926cbbb38f2a","ios":"levelo://app?vid=6671b94f-52a3-420b-8358-926cbbb38f2a"},"vehicle_type_id":"4","last_reported":1698862125,"current_range_meters":0,"station_id":"ce4bgl92rcd13ifvqbq0","pricing_plan_id":"free"},{"bike_id":"aa247b73-c9dd-46cb-8e4d-dc2ace9afbae","system_id":"levelo_inurba_marseille","lat":43.30912,"lon":5.36853,"is_reserved":false,"is_disabled":false,"rental_uris":{"android":"levelo://app?vid=aa247b73-c9dd-46cb-8e4d-dc2ace9afbae","ios":"levelo://app?vid=aa247b73-c9dd-46cb-8e4d-dc2ace9afbae"},"vehicle_type_id":"4","last_reported":1698862125,"current_range_meters":30000,"station_id":"ce4bgn92rcd13ifvqbvg","pricing_plan_id":"free"},{"bike_id":"b1cb48cb-22d4-4cd4-97b0-038c1cf723b7","system_id":"levelo_inurba_marseille","lat":43.315186,"lon":5.371432,"is_reserved":false,"is_disabled":false,"rental_uris":{"android":"levelo://app?vid=b1cb48cb-22d4-4cd4-97b0-038c1cf723b7","ios":"levelo://app?vid=b1cb48cb-22d4-4cd4-97b0-038c1cf723b7"},"vehicle_type_id":"4","last_reported":1698862125,"current_range_meters":3200,"station_id":"","pricing_plan_id":"free"},{"bike_id":"ccb8c974-7f1d-488e-ad6f-b8694d5c2aba","system_id":"levelo_inurba_marseille","lat":43.30837,"lon":5.36834,"is_reserved":false,"is_disabled":false,"rental_uris":{"android":"levelo://app?vid=ccb8c974-7f1d-488e-ad6f-b8694d5c2aba","ios":"levelo://app?vid=ccb8c974-7f1d-488e-ad6f-b8694d5c2aba"},"vehicle_type_id":"4","last_reported":1698862125,"current_range_meters":31200,"station_id":"ce4bhs92rcd13ifvqi0g","pricing_plan_id":"free"},{"bike_id":"85da458d-2f4b-4e43-9399-836e354ccb2e","system_id":"levelo_inurba_marseille","lat":43.314811,"lon":5.373104,"is_reserved":false,"is_disabled":false,"rental_uris":{"android":"levelo://app?vid=85da458d-2f4b-4e43-9399-836e354ccb2e","ios":"levelo://app?vid=85da458d-2f4b-4e43-9399-836e354ccb2e"},"vehicle_type_id":"4","last_reported":1698862125,"current_range_meters":17600,"station_id":"ce4bgt12rcd13ifvqcd0","pricing_plan_id":"free"},{"bike_id":"30714fd4-f918-45eb-9bff-3dc290137306","system_id":"levelo_inurba_marseille","lat":43.309039,"lon":5.371797,"is_reserved":false,"is_disabled":false,"rental_uris":{"android":"levelo://app?vid=30714fd4-f918-45eb-9bff-3dc290137306","ios":"levelo://app?vid=30714fd4-f918-45eb-9bff-3dc290137306"},"vehicle_type_id":"4","last_reported":1698862125,"current_range_meters":400,"station_id":"ce4bguh2rcd13ifvqckg","pricing_plan_id":"free"},{"bike_id":"a8e65735-7c7a-4478-a5e5-851bdce97e68","system_id":"levelo_inurba_marseille","lat":43.315199,"lon":5.373239,"is_reserved":false,"is_disabled":false,"rental_uris":{"android":"levelo://app?vid=a8e65735-7c7a-4478-a5e5-851bdce97e68","ios":"levelo://app?vid=a8e65735-7c7a-4478-a5e5-851bdce97e68"},"vehicle_type_id":"4","last_reported":1698862125,"current_range_meters":2000,"station_id":"ce4bgt12rcd13ifvqcd0","pricing_plan_id":"free"},{"bike_id":"7f6d1821-d960-4aa5-81c2-8064a10d310c","system_id":"levelo_inurba_marseille","lat":43.318544,"lon":5.368914,"is_reserved":false,"is_disabled":false,"rental_uris":{"android":"levelo://app?vid=7f6d1821-d960-4aa5-81c2-8064a10d310c","ios":"levelo://app?vid=7f6d1821-d960-4aa5-81c2-8064a10d310c"},"vehicle_type_id":"4","last_reported":1698862125,"current_range_meters":13600,"station_id":"","pricing_plan_id":"free"},{"bike_id":"0169273f-c54f-4cf4-b50d-88c9618f517c","system_id":"levelo_inurba_marseille","lat":43.313296,"lon":5.376158,"is_reserved":false,"is_disabled":false,"rental_uris":{"android":"levelo://app?vid=0169273f-c54f-4cf4-b50d-88c9618f517c","ios":"levelo://app?vid=0169273f-c54f-4cf4-b50d-88c9618f517c"},"vehicle_type_id":"4","last_reported":1698862125,"current_range_meters":16400,"station_id":"ce4bgv92rcd13ifvqcq0","pricing_plan_id":"free"},{"bike_id":"0e4c0056-2856-4fbc-8a7c-8b81cb014de0","system_id":"levelo_inurba_marseille","lat":43.30536,"lon":5.36719,"is_reserved":false,"is_disabled":false,"rental_uris":{"android":"levelo://app?vid=0e4c0056-2856-4fbc-8a7c-8b81cb014de0","ios":"levelo://app?vid=0e4c0056-2856-4fbc-8a7c-8b81cb014de0"},"vehicle_type_id":"4","last_reported":1698862125,"current_range_meters":23600,"station_id":"ce4bgrp2rcd13ifvqc9g","pricing_plan_id":"free"},{"bike_id":"f252b071-dddd-4e5f-ad07-506846af6d1a","system_id":"levelo_inurba_marseille","lat":43.305706,"lon":5.365654,"is_reserved":false,"is_disabled":false,"rental_uris":{"android":"levelo://app?vid=f252b071-dddd-4e5f-ad07-506846af6d1a","ios":"levelo://app?vid=f252b071-dddd-4e5f-ad07-506846af6d1a"},"vehicle_type_id":"4","last_reported":1698862125,"current_range_meters":18000,"station_id":"ce4bgs12rcd13ifvqcag","pricing_plan_id":"free"},{"bike_id":"cd31bea2-0b0c-4793-82f1-6f80a38aee04","system_id":"levelo_inurba_marseille","lat":43.305989,"lon":5.37225,"is_reserved":false,"is_disabled":false,"rental_uris":{"android":"levelo://app?vid=cd31bea2-0b0c-4793-82f1-6f80a38aee04","ios":"levelo://app?vid=cd31bea2-0b0c-4793-82f1-6f80a38aee04"},"vehicle_type_id":"4","last_reported":1698862125,"current_range_meters":23200,"station_id":"ce4bgqh2rcd13ifvqc4g","pricing_plan_id":"free"},{"bike_id":"cde09343-cb34-42b4-bd82-ba3dc99ca7a9","system_id":"levelo_inurba_marseille","lat":43.319338,"lon":5.372622,"is_reserved":false,"is_disabled":false,"rental_uris":{"android":"levelo://app?vid=cde09343-cb34-42b4-bd82-ba3dc99ca7a9","ios":"levelo://app?vid=cde09343-cb34-42b4-bd82-ba3dc99ca7a9"},"vehicle_type_id":"4","last_reported":1698862125,"current_range_meters":20000,"station_id":"ce4bhqp2rcd13ifvqhng","pricing_plan_id":"free"},{"bike_id":"d85457ef-b6fc-406a-b67e-d864455167d1","system_id":"levelo_inurba_marseille","lat":43.305989,"lon":5.37225,"is_reserved":false,"is_disabled":false,"rental_uris":{"android":"levelo://app?vid=d85457ef-b6fc-406a-b67e-d864455167d1","ios":"levelo://app?vid=d85457ef-b6fc-406a-b67e-d864455167d1"},"vehicle_type_id":"4","last_reported":1698862125,"current_range_meters":22000,"station_id":"ce4bgqh2rcd13ifvqc4g","pricing_plan_id":"free"},{"bike_id":"9495317d-c356-4f4c-aac7-791dcd364958","system_id":"levelo_inurba_marseille","lat":43.305989,"lon":5.37225,"is_reserved":false,"is_disabled":false,"rental_uris":{"android":"levelo://app?vid=9495317d-c356-4f4c-aac7-791dcd364958","ios":"levelo://app?vid=9495317d-c356-4f4c-aac7-791dcd364958"},"vehicle_type_id":"4","last_reported":1698862125,"current_range_meters":11200,"station_id":"ce4bgqh2rcd13ifvqc4g","pricing_plan_id":"free"},{"bike_id":"3fba445f-b387-4c30-a908-3d72cfda95e2","system_id":"levelo_inurba_marseille","lat":43.305989,"lon":5.37225,"is_reserved":false,"is_disabled":false,"rental_uris":{"android":"levelo://app?vid=3fba445f-b387-4c30-a908-3d72cfda95e2","ios":"levelo://app?vid=3fba445f-b387-4c30-a908-3d72cfda95e2"},"vehicle_type_id":"4","last_reported":1698862125,"current_range_meters":26800,"station_id":"ce4bgqh2rcd13ifvqc4g","pricing_plan_id":"free"},{"bike_id":"f04bad49-d48c-428d-b71b-3b6251a5a103","system_id":"levelo_inurba_marseille","lat":43.320135,"lon":5.37137,"is_reserved":false,"is_disabled":false,"rental_uris":{"android":"levelo://app?vid=f04bad49-d48c-428d-b71b-3b6251a5a103","ios":"levelo://app?vid=f04bad49-d48c-428d-b71b-3b6251a5a103"},"vehicle_type_id":"4","last_reported":1698862125,"current_range_meters":15200,"station_id":"","pricing_plan_id":"free"},{"bike_id":"3c4d5313-91ca-4b30-b3b5-013ad1d5db50","system_id":"levelo_inurba_marseille","lat":43.31128,"lon":5.37814,"is_reserved":false,"is_disabled":false,"rental_uris":{"android":"levelo://app?vid=3c4d5313-91ca-4b30-b3b5-013ad1d5db50","ios":"levelo://app?vid=3c4d5313-91ca-4b30-b3b5-013ad1d5db50"},"vehicle_type_id":"4","last_reported":1698862125,"current_range_meters":6800,"station_id":"ce4bgth2rcd13ifvqch0","pricing_plan_id":"free"},{"bike_id":"b373dc13-64a6-4599-8072-791892ca6961","system_id":"levelo_inurba_marseille","lat":43.317293,"lon":5.376492,"is_reserved":false,"is_disabled":false,"rental_uris":{"android":"levelo://app?vid=b373dc13-64a6-4599-8072-791892ca6961","ios":"levelo://app?vid=b373dc13-64a6-4599-8072-791892ca6961"},"vehicle_type_id":"4","last_reported":1698862125,"current_range_meters":30800,"station_id":"ce4bgth2rcd13ifvqch0","pricing_plan_id":"free"},{"bike_id":"895ba7bc-6e64-4af6-a4ec-b23014fa1e30","system_id":"levelo_inurba_marseille","lat":43.320641,"lon":5.371249,"is_reserved":false,"is_disabled":false,"rental_uris":{"android":"levelo://app?vid=895ba7bc-6e64-4af6-a4ec-b23014fa1e30","ios":"levelo://app?vid=895ba7bc-6e64-4af6-a4ec-b23014fa1e30"},"vehicle_type_id":"4","last_reported":1698862125,"current_range_meters":8000,"station_id":"","pricing_plan_id":"free"},{"bike_id":"c59c65d2-f987-45df-a8c0-e528fb5c6f0e","system_id":"levelo_inurba_marseille","lat":43.320738,"lon":5.371319,"is_reserved":false,"is_disabled":false,"rental_uris":{"android":"levelo://app?vid=c59c65d2-f987-45df-a8c0-e528fb5c6f0e","ios":"levelo://app?vid=c59c65d2-f987-45df-a8c0-e528fb5c6f0e"},"vehicle_type_id":"4","last_reported":1698862125,"current_range_meters":30000,"station_id":"","pricing_plan_id":"free"},{"bike_id":"2409e9a6-7a94-44a7-9b32-c8d37818d2a0","system_id":"levelo_inurba_marseille","lat":43.321024,"lon":5.371359,"is_reserved":false,"is_disabled":false,"rental_uris":{"android":"levelo://app?vid=2409e9a6-7a94-44a7-9b32-c8d37818d2a0","ios":"levelo://app?vid=2409e9a6-7a94-44a7-9b32-c8d37818d2a0"},"vehicle_type_id":"4","last_reported":1698862125,"current_range_meters":6000,"station_id":"","pricing_plan_id":"free"},{"bike_id":"c2c16bf4-e7a3-4174-af1b-5af4f0b786dc","system_id":"levelo_inurba_marseille","lat":43.317075,"lon":5.377367,"is_reserved":false,"is_disabled":false,"rental_uris":{"android":"levelo://app?vid=c2c16bf4-e7a3-4174-af1b-5af4f0b786dc","ios":"levelo://app?vid=c2c16bf4-e7a3-4174-af1b-5af4f0b786dc"},"vehicle_type_id":"4","last_reported":1698862125,"current_range_meters":13600,"station_id":"ce4bgth2rcd13ifvqch0","pricing_plan_id":"free"},{"bike_id":"94532069-2d9e-4691-af35-3d0dda465b07","system_id":"levelo_inurba_marseille","lat":43.30085,"lon":5.390856,"is_reserved":false,"is_disabled":false,"rental_uris":{"android":"levelo://app?vid=94532069-2d9e-4691-af35-3d0dda465b07","ios":"levelo://app?vid=94532069-2d9e-4691-af35-3d0dda465b07"},"vehicle_type_id":"4","last_reported":1698862125,"current_range_meters":0,"station_id":"ce4bh192rcd13ifvqdb0","pricing_plan_id":"free"},{"bike_id":"a3f9c8a8-6926-40dd-adc3-aabdd195365b","system_id":"levelo_inurba_marseille","lat":43.303046,"lon":5.368981,"is_reserved":false,"is_disabled":false,"rental_uris":{"android":"levelo://app?vid=a3f9c8a8-6926-40dd-adc3-aabdd195365b","ios":"levelo://app?vid=a3f9c8a8-6926-40dd-adc3-aabdd195365b"},"vehicle_type_id":"4","last_reported":1698862125,"current_range_meters":10000,"station_id":"ce4bgqh2rcd13ifvqc5g","pricing_plan_id":"free"},{"bike_id":"70b3d615-d436-4280-a400-be8fa077fd75","system_id":"levelo_inurba_marseille","lat":43.315398,"lon":5.38027,"is_reserved":false,"is_disabled":false,"rental_uris":{"android":"levelo://app?vid=70b3d615-d436-4280-a400-be8fa077fd75","ios":"levelo://app?vid=70b3d615-d436-4280-a400-be8fa077fd75"},"vehicle_type_id":"4","last_reported":1698862125,"current_range_meters":7200,"station_id":"ce4bhsp2rcd13ifvqi50","pricing_plan_id":"free"},{"bike_id":"0ea9e7a4-c3e5-479b-bd7a-1a4719726cd4","system_id":"levelo_inurba_marseille","lat":43.310135,"lon":5.380716,"is_reserved":false,"is_disabled":false,"rental_uris":{"android":"levelo://app?vid=0ea9e7a4-c3e5-479b-bd7a-1a4719726cd4","ios":"levelo://app?vid=0ea9e7a4-c3e5-479b-bd7a-1a4719726cd4"},"vehicle_type_id":"4","last_reported":1698862125,"current_range_meters":23200,"station_id":"","pricing_plan_id":"free"},{"bike_id":"e55adaa8-b754-4939-ab10-a36530890f1b","system_id":"levelo_inurba_marseille","lat":43.30866,"lon":5.3808,"is_reserved":false,"is_disabled":false,"rental_uris":{"android":"levelo://app?vid=e55adaa8-b754-4939-ab10-a36530890f1b","ios":"levelo://app?vid=e55adaa8-b754-4939-ab10-a36530890f1b"},"vehicle_type_id":"4","last_reported":1698862125,"current_range_meters":0,"station_id":"ce4bgt12rcd13ifvqcd0","pricing_plan_id":"free"},{"bike_id":"3499ba68-7326-4b25-82cf-712573471460","system_id":"levelo_inurba_marseille","lat":43.308012,"lon":5.381511,"is_reserved":false,"is_disabled":false,"rental_uris":{"android":"levelo://app?vid=3499ba68-7326-4b25-82cf-712573471460","ios":"levelo://app?vid=3499ba68-7326-4b25-82cf-712573471460"},"vehicle_type_id":"4","last_reported":1698862125,"current_range_meters":6800,"station_id":"ce4bgt12rcd13ifvqce0","pricing_plan_id":"free"},{"bike_id":"e3f253a1-9788-4492-938f-39b642fbd881","system_id":"levelo_inurba_marseille","lat":43.3245,"lon":5.36788,"is_reserved":false,"is_disabled":false,"rental_uris":{"android":"levelo://app?vid=e3f253a1-9788-4492-938f-39b642fbd881","ios":"levelo://app?vid=e3f253a1-9788-4492-938f-39b642fbd881"},"vehicle_type_id":"4","last_reported":1698862125,"current_range_meters":0,"station_id":"","pricing_plan_id":"free"},{"bike_id":"ccc3e998-a69f-4046-83f8-e6ad59719048","system_id":"levelo_inurba_marseille","lat":43.32481,"lon":5.36564,"is_reserved":false,"is_disabled":false,"rental_uris":{"android":"levelo://app?vid=ccc3e998-a69f-4046-83f8-e6ad59719048","ios":"levelo://app?vid=ccc3e998-a69f-4046-83f8-e6ad59719048"},"vehicle_type_id":"4","last_reported":1698862125,"current_range_meters":17600,"station_id":"ce4bhs12rcd13ifvqhvg","pricing_plan_id":"free"},{"bike_id":"5c5d54bc-93f0-4de2-93a5-ae10d222f432","system_id":"levelo_inurba_marseille","lat":43.31991,"lon":5.38159,"is_reserved":false,"is_disabled":false,"rental_uris":{"android":"levelo://app?vid=5c5d54bc-93f0-4de2-93a5-ae10d222f432","ios":"levelo://app?vid=5c5d54bc-93f0-4de2-93a5-ae10d222f432"},"vehicle_type_id":"4","last_reported":1698862125,"current_range_meters":26400,"station_id":"ce4bhr12rcd13ifvqhpg","pricing_plan_id":"free"},{"bike_id":"e8584f7f-3a22-4191-9ecd-5314ed574e4e","system_id":"levelo_inurba_marseille","lat":43.31998,"lon":5.38158,"is_reserved":false,"is_disabled":false,"rental_uris":{"android":"levelo://app?vid=e8584f7f-3a22-4191-9ecd-5314ed574e4e","ios":"levelo://app?vid=e8584f7f-3a22-4191-9ecd-5314ed574e4e"},"vehicle_type_id":"4","last_reported":1698862125,"current_range_meters":23600,"station_id":"ce4bhr12rcd13ifvqhpg","pricing_plan_id":"free"},{"bike_id":"6bd45040-de05-41c4-adfc-6ef18840934f","system_id":"levelo_inurba_marseille","lat":43.31996,"lon":5.38165,"is_reserved":false,"is_disabled":false,"rental_uris":{"android":"levelo://app?vid=6bd45040-de05-41c4-adfc-6ef18840934f","ios":"levelo://app?vid=6bd45040-de05-41c4-adfc-6ef18840934f"},"vehicle_type_id":"4","last_reported":1698862125,"current_range_meters":23200,"station_id":"ce4bhr12rcd13ifvqhpg","pricing_plan_id":"free"},{"bike_id":"fc2bdc05-550a-468c-8430-2c2ddcb113d3","system_id":"levelo_inurba_marseille","lat":43.31996,"lon":5.38166,"is_reserved":false,"is_disabled":false,"rental_uris":{"android":"levelo://app?vid=fc2bdc05-550a-468c-8430-2c2ddcb113d3","ios":"levelo://app?vid=fc2bdc05-550a-468c-8430-2c2ddcb113d3"},"vehicle_type_id":"4","last_reported":1698862125,"current_range_meters":2400,"station_id":"ce4bhr12rcd13ifvqhpg","pricing_plan_id":"free"},{"bike_id":"ac4fdfce-e9b2-4c54-8d63-aa304cd718c0","system_id":"levelo_inurba_marseille","lat":43.313571,"lon":5.384829,"is_reserved":false,"is_disabled":false,"rental_uris":{"android":"levelo://app?vid=ac4fdfce-e9b2-4c54-8d63-aa304cd718c0","ios":"levelo://app?vid=ac4fdfce-e9b2-4c54-8d63-aa304cd718c0"},"vehicle_type_id":"4","last_reported":1698862125,"current_range_meters":14000,"station_id":"ce4bgt92rcd13ifvqcf0","pricing_plan_id":"free"},{"bike_id":"95eaa5e0-8605-4b8f-8e02-4a71dde6ea04","system_id":"levelo_inurba_marseille","lat":43.313571,"lon":5.384829,"is_reserved":false,"is_disabled":false,"rental_uris":{"android":"levelo://app?vid=95eaa5e0-8605-4b8f-8e02-4a71dde6ea04","ios":"levelo://app?vid=95eaa5e0-8605-4b8f-8e02-4a71dde6ea04"},"vehicle_type_id":"4","last_reported":1698862125,"current_range_meters":0,"station_id":"ce4bgt92rcd13ifvqcf0","pricing_plan_id":"free"},{"bike_id":"56889da1-9a8b-4cce-962d-884101c03910","system_id":"levelo_inurba_marseille","lat":43.313571,"lon":5.384829,"is_reserved":false,"is_disabled":false,"rental_uris":{"android":"levelo://app?vid=56889da1-9a8b-4cce-962d-884101c03910","ios":"levelo://app?vid=56889da1-9a8b-4cce-962d-884101c03910"},"vehicle_type_id":"4","last_reported":1698862125,"current_range_meters":10000,"station_id":"ce4bgt92rcd13ifvqcf0","pricing_plan_id":"free"},{"bike_id":"5e861182-8453-456d-8baf-0cb45befd3c1","system_id":"levelo_inurba_marseille","lat":43.313571,"lon":5.384829,"is_reserved":false,"is_disabled":false,"rental_uris":{"android":"levelo://app?vid=5e861182-8453-456d-8baf-0cb45befd3c1","ios":"levelo://app?vid=5e861182-8453-456d-8baf-0cb45befd3c1"},"vehicle_type_id":"4","last_reported":1698862125,"current_range_meters":21600,"station_id":"ce4bgt92rcd13ifvqcf0","pricing_plan_id":"free"},{"bike_id":"08fff6e5-3bc8-46f1-aa5f-1d7cbd38f725","system_id":"levelo_inurba_marseille","lat":43.299724,"lon":5.371829,"is_reserved":false,"is_disabled":false,"rental_uris":{"android":"levelo://app?vid=08fff6e5-3bc8-46f1-aa5f-1d7cbd38f725","ios":"levelo://app?vid=08fff6e5-3bc8-46f1-aa5f-1d7cbd38f725"},"vehicle_type_id":"4","last_reported":1698862125,"current_range_meters":10000,"station_id":"ce4bgr92rcd13ifvqc7g","pricing_plan_id":"free"},{"bike_id":"8fae20e7-7b4a-4601-b073-d85affe795b5","system_id":"levelo_inurba_marseille","lat":43.299724,"lon":5.371829,"is_reserved":false,"is_disabled":false,"rental_uris":{"android":"levelo://app?vid=8fae20e7-7b4a-4601-b073-d85affe795b5","ios":"levelo://app?vid=8fae20e7-7b4a-4601-b073-d85affe795b5"},"vehicle_type_id":"4","last_reported":1698862125,"current_range_meters":4800,"station_id":"ce4bgr92rcd13ifvqc7g","pricing_plan_id":"free"},{"bike_id":"5ba66772-20b6-408d-a6c3-0df1cd4bb678","system_id":"levelo_inurba_marseille","lat":43.3264,"lon":5.367334,"is_reserved":false,"is_disabled":false,"rental_uris":{"android":"levelo://app?vid=5ba66772-20b6-408d-a6c3-0df1cd4bb678","ios":"levelo://app?vid=5ba66772-20b6-408d-a6c3-0df1cd4bb678"},"vehicle_type_id":"4","last_reported":1698862125,"current_range_meters":1600,"station_id":"","pricing_plan_id":"free"},{"bike_id":"d6d30e03-2ad8-467f-86c9-b0c411cc3b08","system_id":"levelo_inurba_marseille","lat":43.298433,"lon":5.362774,"is_reserved":false,"is_disabled":false,"rental_uris":{"android":"levelo://app?vid=d6d30e03-2ad8-467f-86c9-b0c411cc3b08","ios":"levelo://app?vid=d6d30e03-2ad8-467f-86c9-b0c411cc3b08"},"vehicle_type_id":"4","last_reported":1698862125,"current_range_meters":21200,"station_id":"ce4bgpp2rcd13ifvqc3g","pricing_plan_id":"free"},{"bike_id":"c8370e6f-207e-489a-accb-55481c123728","system_id":"levelo_inurba_marseille","lat":43.305364,"lon":5.384119,"is_reserved":false,"is_disabled":false,"rental_uris":{"android":"levelo://app?vid=c8370e6f-207e-489a-accb-55481c123728","ios":"levelo://app?vid=c8370e6f-207e-489a-accb-55481c123728"},"vehicle_type_id":"4","last_reported":1698862125,"current_range_meters":22400,"station_id":"ce4bgg92rcd13ifvqb30","pricing_plan_id":"free"},{"bike_id":"9580c233-682d-4611-80cc-a3034934886e","system_id":"levelo_inurba_marseille","lat":43.305364,"lon":5.384119,"is_reserved":false,"is_disabled":false,"rental_uris":{"android":"levelo://app?vid=9580c233-682d-4611-80cc-a3034934886e","ios":"levelo://app?vid=9580c233-682d-4611-80cc-a3034934886e"},"vehicle_type_id":"4","last_reported":1698862125,"current_range_meters":29200,"station_id":"ce4bgg92rcd13ifvqb30","pricing_plan_id":"free"},{"bike_id":"d6258c65-6dd7-419d-abf8-175a388e4db3","system_id":"levelo_inurba_marseille","lat":43.298433,"lon":5.362774,"is_reserved":false,"is_disabled":false,"rental_uris":{"android":"levelo://app?vid=d6258c65-6dd7-419d-abf8-175a388e4db3","ios":"levelo://app?vid=d6258c65-6dd7-419d-abf8-175a388e4db3"},"vehicle_type_id":"4","last_reported":1698862125,"current_range_meters":29200,"station_id":"ce4bgpp2rcd13ifvqc3g","pricing_plan_id":"free"},{"bike_id":"f79e6a82-1635-4deb-a922-f408f19877c7","system_id":"levelo_inurba_marseille","lat":43.29922,"lon":5.37458,"is_reserved":false,"is_disabled":false,"rental_uris":{"android":"levelo://app?vid=f79e6a82-1635-4deb-a922-f408f19877c7","ios":"levelo://app?vid=f79e6a82-1635-4deb-a922-f408f19877c7"},"vehicle_type_id":"4","last_reported":1698862125,"current_range_meters":400,"station_id":"ce4bgjh2rcd13ifvqbg0","pricing_plan_id":"free"},{"bike_id":"ab8f9367-dff7-461f-885a-dc227528cbdd","system_id":"levelo_inurba_marseille","lat":43.299243,"lon":5.374807,"is_reserved":false,"is_disabled":false,"rental_uris":{"android":"levelo://app?vid=ab8f9367-dff7-461f-885a-dc227528cbdd","ios":"levelo://app?vid=ab8f9367-dff7-461f-885a-dc227528cbdd"},"vehicle_type_id":"4","last_reported":1698862125,"current_range_meters":23600,"station_id":"ce4bgjh2rcd13ifvqbg0","pricing_plan_id":"free"},{"bike_id":"b9a37074-a6f7-4aaa-ab4d-687cad905926","system_id":"levelo_inurba_marseille","lat":43.311722,"lon":5.387247,"is_reserved":false,"is_disabled":false,"rental_uris":{"android":"levelo://app?vid=b9a37074-a6f7-4aaa-ab4d-687cad905926","ios":"levelo://app?vid=b9a37074-a6f7-4aaa-ab4d-687cad905926"},"vehicle_type_id":"4","last_reported":1698862125,"current_range_meters":25600,"station_id":"ce4bgv12rcd13ifvqcp0","pricing_plan_id":"free"},{"bike_id":"91aff326-79fd-451a-a4c7-5d66e058ff5d","system_id":"levelo_inurba_marseille","lat":43.297794,"lon":5.370888,"is_reserved":false,"is_disabled":false,"rental_uris":{"android":"levelo://app?vid=91aff326-79fd-451a-a4c7-5d66e058ff5d","ios":"levelo://app?vid=91aff326-79fd-451a-a4c7-5d66e058ff5d"},"vehicle_type_id":"4","last_reported":1698862125,"current_range_meters":1600,"station_id":"ce4bgop2rcd13ifvqc1g","pricing_plan_id":"free"},{"bike_id":"77517251-8f7f-4690-9799-720556007538","system_id":"levelo_inurba_marseille","lat":43.322872,"lon":5.382756,"is_reserved":false,"is_disabled":false,"rental_uris":{"android":"levelo://app?vid=77517251-8f7f-4690-9799-720556007538","ios":"levelo://app?vid=77517251-8f7f-4690-9799-720556007538"},"vehicle_type_id":"4","last_reported":1698862125,"current_range_meters":28800,"station_id":"ce4bhr12rcd13ifvqhqg","pricing_plan_id":"free"},{"bike_id":"c5ed7283-fe1c-4357-baf0-91caaceb6b0a","system_id":"levelo_inurba_marseille","lat":43.328371,"lon":5.366912,"is_reserved":false,"is_disabled":false,"rental_uris":{"android":"levelo://app?vid=c5ed7283-fe1c-4357-baf0-91caaceb6b0a","ios":"levelo://app?vid=c5ed7283-fe1c-4357-baf0-91caaceb6b0a"},"vehicle_type_id":"4","last_reported":1698862125,"current_range_meters":10000,"station_id":"ce4bhs92rcd13ifvqi0g","pricing_plan_id":"free"},{"bike_id":"617067a8-d20d-4feb-acd8-3a67554bcbcd","system_id":"levelo_inurba_marseille","lat":43.328371,"lon":5.366912,"is_reserved":false,"is_disabled":false,"rental_uris":{"android":"levelo://app?vid=617067a8-d20d-4feb-acd8-3a67554bcbcd","ios":"levelo://app?vid=617067a8-d20d-4feb-acd8-3a67554bcbcd"},"vehicle_type_id":"4","last_reported":1698862125,"current_range_meters":21200,"station_id":"ce4bhs92rcd13ifvqi0g","pricing_plan_id":"free"},{"bike_id":"f49fe1b5-ffc3-4d67-866b-1aeaf0481f33","system_id":"levelo_inurba_marseille","lat":43.297163,"lon":5.365866,"is_reserved":false,"is_disabled":false,"rental_uris":{"android":"levelo://app?vid=f49fe1b5-ffc3-4d67-866b-1aeaf0481f33","ios":"levelo://app?vid=f49fe1b5-ffc3-4d67-866b-1aeaf0481f33"},"vehicle_type_id":"4","last_reported":1698862125,"current_range_meters":12800,"station_id":"ce4bgn12rcd13ifvqbt0","pricing_plan_id":"free"},{"bike_id":"cb52edfd-4649-40b1-a892-b690a866bfbf","system_id":"levelo_inurba_marseille","lat":43.29711,"lon":5.36609,"is_reserved":false,"is_disabled":false,"rental_uris":{"android":"levelo://app?vid=cb52edfd-4649-40b1-a892-b690a866bfbf","ios":"levelo://app?vid=cb52edfd-4649-40b1-a892-b690a866bfbf"},"vehicle_type_id":"4","last_reported":1698862125,"current_range_meters":4400,"station_id":"ce4bgn12rcd13ifvqbt0","pricing_plan_id":"free"},{"bike_id":"746f26fb-1e61-4aaa-a76d-168f63a7e31e","system_id":"levelo_inurba_marseille","lat":43.297163,"lon":5.365866,"is_reserved":false,"is_disabled":false,"rental_uris":{"android":"levelo://app?vid=746f26fb-1e61-4aaa-a76d-168f63a7e31e","ios":"levelo://app?vid=746f26fb-1e61-4aaa-a76d-168f63a7e31e"},"vehicle_type_id":"4","last_reported":1698862125,"current_range_meters":31600,"station_id":"ce4bgn12rcd13ifvqbt0","pricing_plan_id":"free"},{"bike_id":"84845f98-48d8-4fac-b5ec-bf76512f7ed1","system_id":"levelo_inurba_marseille","lat":43.297163,"lon":5.365866,"is_reserved":false,"is_disabled":false,"rental_uris":{"android":"levelo://app?vid=84845f98-48d8-4fac-b5ec-bf76512f7ed1","ios":"levelo://app?vid=84845f98-48d8-4fac-b5ec-bf76512f7ed1"},"vehicle_type_id":"4","last_reported":1698862125,"current_range_meters":13600,"station_id":"ce4bgn12rcd13ifvqbt0","pricing_plan_id":"free"},{"bike_id":"dbad2752-0ffd-429b-8517-18df9f3e5ac1","system_id":"levelo_inurba_marseille","lat":43.297163,"lon":5.365866,"is_reserved":false,"is_disabled":false,"rental_uris":{"android":"levelo://app?vid=dbad2752-0ffd-429b-8517-18df9f3e5ac1","ios":"levelo://app?vid=dbad2752-0ffd-429b-8517-18df9f3e5ac1"},"vehicle_type_id":"4","last_reported":1698862125,"current_range_meters":17600,"station_id":"ce4bgn12rcd13ifvqbt0","pricing_plan_id":"free"},{"bike_id":"b1140f58-43d9-44e9-8712-515376f86917","system_id":"levelo_inurba_marseille","lat":43.297163,"lon":5.365866,"is_reserved":false,"is_disabled":false,"rental_uris":{"android":"levelo://app?vid=b1140f58-43d9-44e9-8712-515376f86917","ios":"levelo://app?vid=b1140f58-43d9-44e9-8712-515376f86917"},"vehicle_type_id":"4","last_reported":1698862125,"current_range_meters":31200,"station_id":"ce4bgn12rcd13ifvqbt0","pricing_plan_id":"free"},{"bike_id":"5608e479-58b8-4829-9743-2aa9d3c40bbc","system_id":"levelo_inurba_marseille","lat":43.297163,"lon":5.365866,"is_reserved":false,"is_disabled":false,"rental_uris":{"android":"levelo://app?vid=5608e479-58b8-4829-9743-2aa9d3c40bbc","ios":"levelo://app?vid=5608e479-58b8-4829-9743-2aa9d3c40bbc"},"vehicle_type_id":"4","last_reported":1698862125,"current_range_meters":20800,"station_id":"ce4bgn12rcd13ifvqbt0","pricing_plan_id":"free"},{"bike_id":"d0ab3e9e-a9ff-4b32-8ce2-ded417d0c2df","system_id":"levelo_inurba_marseille","lat":43.328354,"lon":5.362096,"is_reserved":false,"is_disabled":false,"rental_uris":{"android":"levelo://app?vid=d0ab3e9e-a9ff-4b32-8ce2-ded417d0c2df","ios":"levelo://app?vid=d0ab3e9e-a9ff-4b32-8ce2-ded417d0c2df"},"vehicle_type_id":"4","last_reported":1698862125,"current_range_meters":31200,"station_id":"","pricing_plan_id":"free"},{"bike_id":"a85ea2f1-b11c-432c-acef-4d11871cee58","system_id":"levelo_inurba_marseille","lat":43.32868,"lon":5.36351,"is_reserved":false,"is_disabled":false,"rental_uris":{"android":"levelo://app?vid=a85ea2f1-b11c-432c-acef-4d11871cee58","ios":"levelo://app?vid=a85ea2f1-b11c-432c-acef-4d11871cee58"},"vehicle_type_id":"4","last_reported":1698862125,"current_range_meters":2800,"station_id":"","pricing_plan_id":"free"},{"bike_id":"67bb7dbe-50ea-4249-bc98-d0ad4814b4a6","system_id":"levelo_inurba_marseille","lat":43.321453,"lon":5.385595,"is_reserved":false,"is_disabled":false,"rental_uris":{"android":"levelo://app?vid=67bb7dbe-50ea-4249-bc98-d0ad4814b4a6","ios":"levelo://app?vid=67bb7dbe-50ea-4249-bc98-d0ad4814b4a6"},"vehicle_type_id":"4","last_reported":1698862125,"current_range_meters":29600,"station_id":"","pricing_plan_id":"free"},{"bike_id":"e5bd3a62-0abf-442a-93fc-87798c35e738","system_id":"levelo_inurba_marseille","lat":43.2968,"lon":5.37291,"is_reserved":false,"is_disabled":false,"rental_uris":{"android":"levelo://app?vid=e5bd3a62-0abf-442a-93fc-87798c35e738","ios":"levelo://app?vid=e5bd3a62-0abf-442a-93fc-87798c35e738"},"vehicle_type_id":"4","last_reported":1698862125,"current_range_meters":27600,"station_id":"ce4bgk12rcd13ifvqbj0","pricing_plan_id":"free"},{"bike_id":"95de5542-6169-4cc9-ac6c-3d5eadba97c0","system_id":"levelo_inurba_marseille","lat":43.321014,"lon":5.386549,"is_reserved":false,"is_disabled":false,"rental_uris":{"android":"levelo://app?vid=95de5542-6169-4cc9-ac6c-3d5eadba97c0","ios":"levelo://app?vid=95de5542-6169-4cc9-ac6c-3d5eadba97c0"},"vehicle_type_id":"4","last_reported":1698862125,"current_range_meters":28800,"station_id":"","pricing_plan_id":"free"},{"bike_id":"bdd0a65b-a329-488e-925a-6b2d2912cadc","system_id":"levelo_inurba_marseille","lat":43.2968,"lon":5.37291,"is_reserved":false,"is_disabled":false,"rental_uris":{"android":"levelo://app?vid=bdd0a65b-a329-488e-925a-6b2d2912cadc","ios":"levelo://app?vid=bdd0a65b-a329-488e-925a-6b2d2912cadc"},"vehicle_type_id":"4","last_reported":1698862125,"current_range_meters":9200,"station_id":"ce4bgk12rcd13ifvqbj0","pricing_plan_id":"free"},{"bike_id":"ac64cfce-5505-455a-9537-62af5dd3a90a","system_id":"levelo_inurba_marseille","lat":43.32355,"lon":5.38416,"is_reserved":false,"is_disabled":false,"rental_uris":{"android":"levelo://app?vid=ac64cfce-5505-455a-9537-62af5dd3a90a","ios":"levelo://app?vid=ac64cfce-5505-455a-9537-62af5dd3a90a"},"vehicle_type_id":"4","last_reported":1698862125,"current_range_meters":29600,"station_id":"","pricing_plan_id":"free"},{"bike_id":"5456c99f-fa9f-4110-8924-bb6d619edbee","system_id":"levelo_inurba_marseille","lat":43.329316,"lon":5.365055,"is_reserved":false,"is_disabled":false,"rental_uris":{"android":"levelo://app?vid=5456c99f-fa9f-4110-8924-bb6d619edbee","ios":"levelo://app?vid=5456c99f-fa9f-4110-8924-bb6d619edbee"},"vehicle_type_id":"4","last_reported":1698862125,"current_range_meters":31200,"station_id":"","pricing_plan_id":"free"},{"bike_id":"6640d67d-4bc4-49a3-b369-3c3f092ce5f4","system_id":"levelo_inurba_marseille","lat":43.296638,"lon":5.372894,"is_reserved":false,"is_disabled":false,"rental_uris":{"android":"levelo://app?vid=6640d67d-4bc4-49a3-b369-3c3f092ce5f4","ios":"levelo://app?vid=6640d67d-4bc4-49a3-b369-3c3f092ce5f4"},"vehicle_type_id":"4","last_reported":1698862125,"current_range_meters":24400,"station_id":"ce4bgk12rcd13ifvqbj0","pricing_plan_id":"free"},{"bike_id":"770aa8b0-74e4-477c-8cc4-fd5d552902a6","system_id":"levelo_inurba_marseille","lat":43.321356,"lon":5.386662,"is_reserved":false,"is_disabled":false,"rental_uris":{"android":"levelo://app?vid=770aa8b0-74e4-477c-8cc4-fd5d552902a6","ios":"levelo://app?vid=770aa8b0-74e4-477c-8cc4-fd5d552902a6"},"vehicle_type_id":"4","last_reported":1698862125,"current_range_meters":10400,"station_id":"ce4bhqp2rcd13ifvqhog","pricing_plan_id":"free"},{"bike_id":"5a3e4389-a6dc-483b-abd6-709292f6e071","system_id":"levelo_inurba_marseille","lat":43.29589,"lon":5.367106,"is_reserved":false,"is_disabled":false,"rental_uris":{"android":"levelo://app?vid=5a3e4389-a6dc-483b-abd6-709292f6e071","ios":"levelo://app?vid=5a3e4389-a6dc-483b-abd6-709292f6e071"},"vehicle_type_id":"4","last_reported":1698862125,"current_range_meters":26800,"station_id":"ce4bgph2rcd13ifvqc2g","pricing_plan_id":"free"},{"bike_id":"1c8d7e78-c7ad-4304-87d6-ced91ed12d72","system_id":"levelo_inurba_marseille","lat":43.296131,"lon":5.370773,"is_reserved":false,"is_disabled":false,"rental_uris":{"android":"levelo://app?vid=1c8d7e78-c7ad-4304-87d6-ced91ed12d72","ios":"levelo://app?vid=1c8d7e78-c7ad-4304-87d6-ced91ed12d72"},"vehicle_type_id":"4","last_reported":1698862125,"current_range_meters":24000,"station_id":"ce4bgnh2rcd13ifvqc0g","pricing_plan_id":"free"},{"bike_id":"cd34fdcf-b142-45c8-b660-a491ad499c9b","system_id":"levelo_inurba_marseille","lat":43.29644,"lon":5.37588,"is_reserved":false,"is_disabled":false,"rental_uris":{"android":"levelo://app?vid=cd34fdcf-b142-45c8-b660-a491ad499c9b","ios":"levelo://app?vid=cd34fdcf-b142-45c8-b660-a491ad499c9b"},"vehicle_type_id":"4","last_reported":1698862125,"current_range_meters":24400,"station_id":"","pricing_plan_id":"free"},{"bike_id":"c9428514-9197-4976-812b-d61139ef9187","system_id":"levelo_inurba_marseille","lat":43.322881,"lon":5.387252,"is_reserved":false,"is_disabled":false,"rental_uris":{"android":"levelo://app?vid=c9428514-9197-4976-812b-d61139ef9187","ios":"levelo://app?vid=c9428514-9197-4976-812b-d61139ef9187"},"vehicle_type_id":"4","last_reported":1698862125,"current_range_meters":13600,"station_id":"","pricing_plan_id":"free"},{"bike_id":"101eb540-5570-4435-866f-914e6d0b664c","system_id":"levelo_inurba_marseille","lat":43.326447,"lon":5.382996,"is_reserved":false,"is_disabled":false,"rental_uris":{"android":"levelo://app?vid=101eb540-5570-4435-866f-914e6d0b664c","ios":"levelo://app?vid=101eb540-5570-4435-866f-914e6d0b664c"},"vehicle_type_id":"4","last_reported":1698862125,"current_range_meters":5200,"station_id":"","pricing_plan_id":"free"},{"bike_id":"5c2480c2-7a3b-44a7-ac50-a1363fe26dc4","system_id":"levelo_inurba_marseille","lat":43.2968,"lon":5.37291,"is_reserved":false,"is_disabled":false,"rental_uris":{"android":"levelo://app?vid=5c2480c2-7a3b-44a7-ac50-a1363fe26dc4","ios":"levelo://app?vid=5c2480c2-7a3b-44a7-ac50-a1363fe26dc4"},"vehicle_type_id":"4","last_reported":1698862125,"current_range_meters":16000,"station_id":"ce4bgk12rcd13ifvqbj0","pricing_plan_id":"free"},{"bike_id":"aea58923-4930-490d-86eb-20c63bc0cab6","system_id":"levelo_inurba_marseille","lat":43.304278,"lon":5.388868,"is_reserved":false,"is_disabled":false,"rental_uris":{"android":"levelo://app?vid=aea58923-4930-490d-86eb-20c63bc0cab6","ios":"levelo://app?vid=aea58923-4930-490d-86eb-20c63bc0cab6"},"vehicle_type_id":"4","last_reported":1698862125,"current_range_meters":2800,"station_id":"ce4bgk12rcd13ifvqbi0","pricing_plan_id":"free"},{"bike_id":"23e9bf2a-89bb-4c09-9068-f3ae0cff7a89","system_id":"levelo_inurba_marseille","lat":43.295748,"lon":5.37522,"is_reserved":false,"is_disabled":false,"rental_uris":{"android":"levelo://app?vid=23e9bf2a-89bb-4c09-9068-f3ae0cff7a89","ios":"levelo://app?vid=23e9bf2a-89bb-4c09-9068-f3ae0cff7a89"},"vehicle_type_id":"4","last_reported":1698862125,"current_range_meters":21200,"station_id":"ce4bgh92rcd13ifvqb50","pricing_plan_id":"free"},{"bike_id":"012095ee-d335-43f3-8388-d6a284b2fdbd","system_id":"levelo_inurba_marseille","lat":43.304278,"lon":5.388868,"is_reserved":false,"is_disabled":false,"rental_uris":{"android":"levelo://app?vid=012095ee-d335-43f3-8388-d6a284b2fdbd","ios":"levelo://app?vid=012095ee-d335-43f3-8388-d6a284b2fdbd"},"vehicle_type_id":"4","last_reported":1698862125,"current_range_meters":20000,"station_id":"ce4bgk12rcd13ifvqbi0","pricing_plan_id":"free"},{"bike_id":"254bfd4c-454e-4b14-93bd-401115b77713","system_id":"levelo_inurba_marseille","lat":43.295748,"lon":5.37522,"is_reserved":false,"is_disabled":false,"rental_uris":{"android":"levelo://app?vid=254bfd4c-454e-4b14-93bd-401115b77713","ios":"levelo://app?vid=254bfd4c-454e-4b14-93bd-401115b77713"},"vehicle_type_id":"4","last_reported":1698862125,"current_range_meters":24800,"station_id":"ce4bgh92rcd13ifvqb50","pricing_plan_id":"free"},{"bike_id":"8ee97888-b455-4fa2-8198-038beb2b373f","system_id":"levelo_inurba_marseille","lat":43.304274,"lon":5.388873,"is_reserved":false,"is_disabled":false,"rental_uris":{"android":"levelo://app?vid=8ee97888-b455-4fa2-8198-038beb2b373f","ios":"levelo://app?vid=8ee97888-b455-4fa2-8198-038beb2b373f"},"vehicle_type_id":"4","last_reported":1698862125,"current_range_meters":6000,"station_id":"ce4bgk12rcd13ifvqbi0","pricing_plan_id":"free"},{"bike_id":"228db192-8536-4c06-8c98-aab2ea68c202","system_id":"levelo_inurba_marseille","lat":43.299707,"lon":5.384859,"is_reserved":false,"is_disabled":false,"rental_uris":{"android":"levelo://app?vid=228db192-8536-4c06-8c98-aab2ea68c202","ios":"levelo://app?vid=228db192-8536-4c06-8c98-aab2ea68c202"},"vehicle_type_id":"4","last_reported":1698862125,"current_range_meters":26000,"station_id":"ce4bgj92rcd13ifvqbd0","pricing_plan_id":"free"},{"bike_id":"6fd4e87f-ff50-4d5f-a2a5-6047b407270c","system_id":"levelo_inurba_marseille","lat":43.299707,"lon":5.384859,"is_reserved":false,"is_disabled":false,"rental_uris":{"android":"levelo://app?vid=6fd4e87f-ff50-4d5f-a2a5-6047b407270c","ios":"levelo://app?vid=6fd4e87f-ff50-4d5f-a2a5-6047b407270c"},"vehicle_type_id":"4","last_reported":1698862125,"current_range_meters":1200,"station_id":"ce4bgj92rcd13ifvqbd0","pricing_plan_id":"free"},{"bike_id":"bf9484a3-cee9-4c60-8739-4479aa02b30c","system_id":"levelo_inurba_marseille","lat":43.299707,"lon":5.384859,"is_reserved":false,"is_disabled":false,"rental_uris":{"android":"levelo://app?vid=bf9484a3-cee9-4c60-8739-4479aa02b30c","ios":"levelo://app?vid=bf9484a3-cee9-4c60-8739-4479aa02b30c"},"vehicle_type_id":"4","last_reported":1698862125,"current_range_meters":20000,"station_id":"ce4bgj92rcd13ifvqbd0","pricing_plan_id":"free"},{"bike_id":"4b10b81e-a17b-409b-b246-b287686329cb","system_id":"levelo_inurba_marseille","lat":43.299707,"lon":5.384859,"is_reserved":false,"is_disabled":false,"rental_uris":{"android":"levelo://app?vid=4b10b81e-a17b-409b-b246-b287686329cb","ios":"levelo://app?vid=4b10b81e-a17b-409b-b246-b287686329cb"},"vehicle_type_id":"4","last_reported":1698862125,"current_range_meters":15200,"station_id":"ce4bgj92rcd13ifvqbd0","pricing_plan_id":"free"},{"bike_id":"1f580447-7b2c-4630-9a51-33e28281b372","system_id":"levelo_inurba_marseille","lat":43.329065,"lon":5.379814,"is_reserved":false,"is_disabled":false,"rental_uris":{"android":"levelo://app?vid=1f580447-7b2c-4630-9a51-33e28281b372","ios":"levelo://app?vid=1f580447-7b2c-4630-9a51-33e28281b372"},"vehicle_type_id":"4","last_reported":1698862125,"current_range_meters":26800,"station_id":"","pricing_plan_id":"free"},{"bike_id":"20c4f12b-0a9a-4572-97d9-11ad813f6bc0","system_id":"levelo_inurba_marseille","lat":43.323595,"lon":5.388244,"is_reserved":false,"is_disabled":false,"rental_uris":{"android":"levelo://app?vid=20c4f12b-0a9a-4572-97d9-11ad813f6bc0","ios":"levelo://app?vid=20c4f12b-0a9a-4572-97d9-11ad813f6bc0"},"vehicle_type_id":"4","last_reported":1698862125,"current_range_meters":0,"station_id":"","pricing_plan_id":"free"},{"bike_id":"1575422b-f99f-4525-ab00-681f712b3765","system_id":"levelo_inurba_marseille","lat":43.323686,"lon":5.388833,"is_reserved":false,"is_disabled":false,"rental_uris":{"android":"levelo://app?vid=1575422b-f99f-4525-ab00-681f712b3765","ios":"levelo://app?vid=1575422b-f99f-4525-ab00-681f712b3765"},"vehicle_type_id":"4","last_reported":1698862125,"current_range_meters":14000,"station_id":"","pricing_plan_id":"free"},{"bike_id":"10fb769c-fad7-4216-960a-88a664befb7d","system_id":"levelo_inurba_marseille","lat":43.296057,"lon":5.381063,"is_reserved":false,"is_disabled":false,"rental_uris":{"android":"levelo://app?vid=10fb769c-fad7-4216-960a-88a664befb7d","ios":"levelo://app?vid=10fb769c-fad7-4216-960a-88a664befb7d"},"vehicle_type_id":"4","last_reported":1698862125,"current_range_meters":3600,"station_id":"ce4bgl12rcd13ifvqbo0","pricing_plan_id":"free"},{"bike_id":"a70452e0-72c4-4cf6-89d6-3ee5bc86b442","system_id":"levelo_inurba_marseille","lat":43.29606,"lon":5.38112,"is_reserved":false,"is_disabled":false,"rental_uris":{"android":"levelo://app?vid=a70452e0-72c4-4cf6-89d6-3ee5bc86b442","ios":"levelo://app?vid=a70452e0-72c4-4cf6-89d6-3ee5bc86b442"},"vehicle_type_id":"4","last_reported":1698862125,"current_range_meters":7600,"station_id":"ce4bgl12rcd13ifvqbo0","pricing_plan_id":"free"},{"bike_id":"06809662-abcb-4a7d-a0ed-9a14c2217437","system_id":"levelo_inurba_marseille","lat":43.29591,"lon":5.38091,"is_reserved":false,"is_disabled":false,"rental_uris":{"android":"levelo://app?vid=06809662-abcb-4a7d-a0ed-9a14c2217437","ios":"levelo://app?vid=06809662-abcb-4a7d-a0ed-9a14c2217437"},"vehicle_type_id":"4","last_reported":1698862125,"current_range_meters":29600,"station_id":"ce4bgl12rcd13ifvqbo0","pricing_plan_id":"free"},{"bike_id":"6d754ba7-fcda-4f58-8adb-def315bb323c","system_id":"levelo_inurba_marseille","lat":43.293259,"lon":5.371586,"is_reserved":false,"is_disabled":false,"rental_uris":{"android":"levelo://app?vid=6d754ba7-fcda-4f58-8adb-def315bb323c","ios":"levelo://app?vid=6d754ba7-fcda-4f58-8adb-def315bb323c"},"vehicle_type_id":"4","last_reported":1698862125,"current_range_meters":17600,"station_id":"ce4bgh92rcd13ifvqb40","pricing_plan_id":"free"},{"bike_id":"ae64d0cf-2fb9-44d9-a3e0-23e9b6fc9370","system_id":"levelo_inurba_marseille","lat":43.292749,"lon":5.368402,"is_reserved":false,"is_disabled":false,"rental_uris":{"android":"levelo://app?vid=ae64d0cf-2fb9-44d9-a3e0-23e9b6fc9370","ios":"levelo://app?vid=ae64d0cf-2fb9-44d9-a3e0-23e9b6fc9370"},"vehicle_type_id":"4","last_reported":1698862125,"current_range_meters":15200,"station_id":"ce4bhbp2rcd13ifvqesg","pricing_plan_id":"free"},{"bike_id":"4fdc59b3-ca0a-4231-ba6d-d042898c3859","system_id":"levelo_inurba_marseille","lat":43.29277,"lon":5.3684,"is_reserved":false,"is_disabled":false,"rental_uris":{"android":"levelo://app?vid=4fdc59b3-ca0a-4231-ba6d-d042898c3859","ios":"levelo://app?vid=4fdc59b3-ca0a-4231-ba6d-d042898c3859"},"vehicle_type_id":"4","last_reported":1698862125,"current_range_meters":8800,"station_id":"ce4bhbp2rcd13ifvqesg","pricing_plan_id":"free"},{"bike_id":"e5e2ef3b-95ba-44a4-85f5-6373d8ddee81","system_id":"levelo_inurba_marseille","lat":43.293259,"lon":5.371586,"is_reserved":false,"is_disabled":false,"rental_uris":{"android":"levelo://app?vid=e5e2ef3b-95ba-44a4-85f5-6373d8ddee81","ios":"levelo://app?vid=e5e2ef3b-95ba-44a4-85f5-6373d8ddee81"},"vehicle_type_id":"4","last_reported":1698862125,"current_range_meters":24400,"station_id":"ce4bgh92rcd13ifvqb40","pricing_plan_id":"free"},{"bike_id":"e1fac8ec-0d04-4618-ab1f-c4c9a2280e72","system_id":"levelo_inurba_marseille","lat":43.318501,"lon":5.393853,"is_reserved":false,"is_disabled":false,"rental_uris":{"android":"levelo://app?vid=e1fac8ec-0d04-4618-ab1f-c4c9a2280e72","ios":"levelo://app?vid=e1fac8ec-0d04-4618-ab1f-c4c9a2280e72"},"vehicle_type_id":"4","last_reported":1698862125,"current_range_meters":6800,"station_id":"","pricing_plan_id":"free"},{"bike_id":"7be0a80b-aa67-4602-8945-52dd11622a5e","system_id":"levelo_inurba_marseille","lat":43.293009,"lon":5.374584,"is_reserved":false,"is_disabled":false,"rental_uris":{"android":"levelo://app?vid=7be0a80b-aa67-4602-8945-52dd11622a5e","ios":"levelo://app?vid=7be0a80b-aa67-4602-8945-52dd11622a5e"},"vehicle_type_id":"4","last_reported":1698862125,"current_range_meters":20800,"station_id":"ce4bgi12rcd13ifvqb70","pricing_plan_id":"free"},{"bike_id":"f6c1b055-b689-4cc6-b0d3-71a4e6cc788e","system_id":"levelo_inurba_marseille","lat":43.2936,"lon":5.37835,"is_reserved":false,"is_disabled":false,"rental_uris":{"android":"levelo://app?vid=f6c1b055-b689-4cc6-b0d3-71a4e6cc788e","ios":"levelo://app?vid=f6c1b055-b689-4cc6-b0d3-71a4e6cc788e"},"vehicle_type_id":"4","last_reported":1698862125,"current_range_meters":26800,"station_id":"ce4bgjh2rcd13ifvqbf0","pricing_plan_id":"free"},{"bike_id":"806207b2-0d3e-4e92-81bf-1015fbc7f3c0","system_id":"levelo_inurba_marseille","lat":43.2936,"lon":5.37835,"is_reserved":false,"is_disabled":false,"rental_uris":{"android":"levelo://app?vid=806207b2-0d3e-4e92-81bf-1015fbc7f3c0","ios":"levelo://app?vid=806207b2-0d3e-4e92-81bf-1015fbc7f3c0"},"vehicle_type_id":"4","last_reported":1698862125,"current_range_meters":13200,"station_id":"ce4bgjh2rcd13ifvqbf0","pricing_plan_id":"free"},{"bike_id":"ecd5fcfb-e675-41c4-803e-df009ca85e60","system_id":"levelo_inurba_marseille","lat":43.30985,"lon":5.39538,"is_reserved":false,"is_disabled":false,"rental_uris":{"android":"levelo://app?vid=ecd5fcfb-e675-41c4-803e-df009ca85e60","ios":"levelo://app?vid=ecd5fcfb-e675-41c4-803e-df009ca85e60"},"vehicle_type_id":"4","last_reported":1698862125,"current_range_meters":26800,"station_id":"","pricing_plan_id":"free"},{"bike_id":"19c6a747-2c99-4010-b332-dde9560cd96e","system_id":"levelo_inurba_marseille","lat":43.29263,"lon":5.37636,"is_reserved":false,"is_disabled":false,"rental_uris":{"android":"levelo://app?vid=19c6a747-2c99-4010-b332-dde9560cd96e","ios":"levelo://app?vid=19c6a747-2c99-4010-b332-dde9560cd96e"},"vehicle_type_id":"4","last_reported":1698862125,"current_range_meters":27600,"station_id":"ce4bgi12rcd13ifvqb80","pricing_plan_id":"free"},{"bike_id":"0e8233d2-0d57-470f-8c07-e9f753046a4f","system_id":"levelo_inurba_marseille","lat":43.33217,"lon":5.3788,"is_reserved":false,"is_disabled":false,"rental_uris":{"android":"levelo://app?vid=0e8233d2-0d57-470f-8c07-e9f753046a4f","ios":"levelo://app?vid=0e8233d2-0d57-470f-8c07-e9f753046a4f"},"vehicle_type_id":"4","last_reported":1698862125,"current_range_meters":23600,"station_id":"","pricing_plan_id":"free"},{"bike_id":"d797f1e6-f3ca-4ad7-8b56-5ed6191da53c","system_id":"levelo_inurba_marseille","lat":43.292663,"lon":5.376389,"is_reserved":false,"is_disabled":false,"rental_uris":{"android":"levelo://app?vid=d797f1e6-f3ca-4ad7-8b56-5ed6191da53c","ios":"levelo://app?vid=d797f1e6-f3ca-4ad7-8b56-5ed6191da53c"},"vehicle_type_id":"4","last_reported":1698862125,"current_range_meters":29600,"station_id":"ce4bgi12rcd13ifvqb80","pricing_plan_id":"free"},{"bike_id":"e7e9149c-36d9-4f41-a943-3c5cf66d94bd","system_id":"levelo_inurba_marseille","lat":43.291716,"lon":5.371473,"is_reserved":false,"is_disabled":false,"rental_uris":{"android":"levelo://app?vid=e7e9149c-36d9-4f41-a943-3c5cf66d94bd","ios":"levelo://app?vid=e7e9149c-36d9-4f41-a943-3c5cf66d94bd"},"vehicle_type_id":"4","last_reported":1698862125,"current_range_meters":0,"station_id":"ce4bha92rcd13ifvqeh0","pricing_plan_id":"free"},{"bike_id":"df9accc6-4514-468b-af7a-0d5b771dab20","system_id":"levelo_inurba_marseille","lat":43.291675,"lon":5.371583,"is_reserved":false,"is_disabled":false,"rental_uris":{"android":"levelo://app?vid=df9accc6-4514-468b-af7a-0d5b771dab20","ios":"levelo://app?vid=df9accc6-4514-468b-af7a-0d5b771dab20"},"vehicle_type_id":"4","last_reported":1698862125,"current_range_meters":12800,"station_id":"ce4bha92rcd13ifvqeh0","pricing_plan_id":"free"},{"bike_id":"8cad218d-09f9-4fac-b1a7-f638c7f23869","system_id":"levelo_inurba_marseille","lat":43.275625,"lon":5.384392,"is_reserved":false,"is_disabled":false,"rental_uris":{"android":"levelo://app?vid=8cad218d-09f9-4fac-b1a7-f638c7f23869","ios":"levelo://app?vid=8cad218d-09f9-4fac-b1a7-f638c7f23869"},"vehicle_type_id":"4","last_reported":1698862125,"current_range_meters":10800,"station_id":"ce4bhh92rcd13ifvqfi0","pricing_plan_id":"free"},{"bike_id":"abe8613b-a292-4a82-908f-5a50d5be4b95","system_id":"levelo_inurba_marseille","lat":43.313291,"lon":5.396838,"is_reserved":false,"is_disabled":false,"rental_uris":{"android":"levelo://app?vid=abe8613b-a292-4a82-908f-5a50d5be4b95","ios":"levelo://app?vid=abe8613b-a292-4a82-908f-5a50d5be4b95"},"vehicle_type_id":"4","last_reported":1698862125,"current_range_meters":19600,"station_id":"ce4bgvp2rcd13ifvqcu0","pricing_plan_id":"free"},{"bike_id":"77d7fc57-4782-49e2-9f40-411cf64809e9","system_id":"levelo_inurba_marseille","lat":43.31331,"lon":5.39691,"is_reserved":false,"is_disabled":false,"rental_uris":{"android":"levelo://app?vid=77d7fc57-4782-49e2-9f40-411cf64809e9","ios":"levelo://app?vid=77d7fc57-4782-49e2-9f40-411cf64809e9"},"vehicle_type_id":"4","last_reported":1698862125,"current_range_meters":3600,"station_id":"ce4bgvp2rcd13ifvqcu0","pricing_plan_id":"free"},{"bike_id":"f48382b4-0bcc-4746-a433-52c7b90625fd","system_id":"levelo_inurba_marseille","lat":43.3088,"lon":5.39648,"is_reserved":false,"is_disabled":false,"rental_uris":{"android":"levelo://app?vid=f48382b4-0bcc-4746-a433-52c7b90625fd","ios":"levelo://app?vid=f48382b4-0bcc-4746-a433-52c7b90625fd"},"vehicle_type_id":"4","last_reported":1698862125,"current_range_meters":0,"station_id":"ce4bh012rcd13ifvqcv0","pricing_plan_id":"free"},{"bike_id":"a21c1ec1-3208-4fb6-ace6-0950b8f0e4b0","system_id":"levelo_inurba_marseille","lat":43.31323,"lon":5.39698,"is_reserved":false,"is_disabled":false,"rental_uris":{"android":"levelo://app?vid=a21c1ec1-3208-4fb6-ace6-0950b8f0e4b0","ios":"levelo://app?vid=a21c1ec1-3208-4fb6-ace6-0950b8f0e4b0"},"vehicle_type_id":"4","last_reported":1698862125,"current_range_meters":31200,"station_id":"ce4bgvp2rcd13ifvqcu0","pricing_plan_id":"free"},{"bike_id":"04abfb2b-385f-4bdd-babe-58439c13e188","system_id":"levelo_inurba_marseille","lat":43.290779,"lon":5.371482,"is_reserved":false,"is_disabled":false,"rental_uris":{"android":"levelo://app?vid=04abfb2b-385f-4bdd-babe-58439c13e188","ios":"levelo://app?vid=04abfb2b-385f-4bdd-babe-58439c13e188"},"vehicle_type_id":"4","last_reported":1698862125,"current_range_meters":4400,"station_id":"ce4bh5p2rcd13ifvqe4g","pricing_plan_id":"free"},{"bike_id":"80bedf8e-3ab7-4c53-833f-0709802c4523","system_id":"levelo_inurba_marseille","lat":43.290779,"lon":5.371482,"is_reserved":false,"is_disabled":false,"rental_uris":{"android":"levelo://app?vid=80bedf8e-3ab7-4c53-833f-0709802c4523","ios":"levelo://app?vid=80bedf8e-3ab7-4c53-833f-0709802c4523"},"vehicle_type_id":"4","last_reported":1698862125,"current_range_meters":1600,"station_id":"ce4bh5p2rcd13ifvqe4g","pricing_plan_id":"free"},{"bike_id":"816aae8e-caa2-4cc7-b132-56a8390ca366","system_id":"levelo_inurba_marseille","lat":43.290779,"lon":5.371482,"is_reserved":false,"is_disabled":false,"rental_uris":{"android":"levelo://app?vid=816aae8e-caa2-4cc7-b132-56a8390ca366","ios":"levelo://app?vid=816aae8e-caa2-4cc7-b132-56a8390ca366"},"vehicle_type_id":"4","last_reported":1698862125,"current_range_meters":3600,"station_id":"ce4bh5p2rcd13ifvqe4g","pricing_plan_id":"free"},{"bike_id":"d7558508-123e-42cf-bfe3-3ad452e2d933","system_id":"levelo_inurba_marseille","lat":43.32038,"lon":5.39596,"is_reserved":false,"is_disabled":false,"rental_uris":{"android":"levelo://app?vid=d7558508-123e-42cf-bfe3-3ad452e2d933","ios":"levelo://app?vid=d7558508-123e-42cf-bfe3-3ad452e2d933"},"vehicle_type_id":"4","last_reported":1698862125,"current_range_meters":21600,"station_id":"","pricing_plan_id":"free"},{"bike_id":"544defc5-9935-4dcc-8f7a-4b06ecf73c63","system_id":"levelo_inurba_marseille","lat":43.302008,"lon":5.394694,"is_reserved":false,"is_disabled":false,"rental_uris":{"android":"levelo://app?vid=544defc5-9935-4dcc-8f7a-4b06ecf73c63","ios":"levelo://app?vid=544defc5-9935-4dcc-8f7a-4b06ecf73c63"},"vehicle_type_id":"4","last_reported":1698862125,"current_range_meters":16800,"station_id":"ce4bh0p2rcd13ifvqd70","pricing_plan_id":"free"},{"bike_id":"0d9fdd53-de3a-47e3-86ea-03293119ce27","system_id":"levelo_inurba_marseille","lat":43.30207,"lon":5.39467,"is_reserved":false,"is_disabled":false,"rental_uris":{"android":"levelo://app?vid=0d9fdd53-de3a-47e3-86ea-03293119ce27","ios":"levelo://app?vid=0d9fdd53-de3a-47e3-86ea-03293119ce27"},"vehicle_type_id":"4","last_reported":1698862125,"current_range_meters":0,"station_id":"ce4bh0p2rcd13ifvqd70","pricing_plan_id":"free"},{"bike_id":"20a48344-a46a-4ce9-99b3-32d3a3a4028b","system_id":"levelo_inurba_marseille","lat":43.30204,"lon":5.3947,"is_reserved":false,"is_disabled":false,"rental_uris":{"android":"levelo://app?vid=20a48344-a46a-4ce9-99b3-32d3a3a4028b","ios":"levelo://app?vid=20a48344-a46a-4ce9-99b3-32d3a3a4028b"},"vehicle_type_id":"4","last_reported":1698862125,"current_range_meters":20000,"station_id":"ce4bh0p2rcd13ifvqd70","pricing_plan_id":"free"},{"bike_id":"c3f886d6-05a3-40c6-86a1-a93682081c41","system_id":"levelo_inurba_marseille","lat":43.290327,"lon":5.375711,"is_reserved":false,"is_disabled":false,"rental_uris":{"android":"levelo://app?vid=c3f886d6-05a3-40c6-86a1-a93682081c41","ios":"levelo://app?vid=c3f886d6-05a3-40c6-86a1-a93682081c41"},"vehicle_type_id":"4","last_reported":1698862125,"current_range_meters":22000,"station_id":"ce4bh692rcd13ifvqe90","pricing_plan_id":"free"},{"bike_id":"75ecdb20-95bf-4f8f-b9eb-de7f42718145","system_id":"levelo_inurba_marseille","lat":43.290327,"lon":5.375711,"is_reserved":false,"is_disabled":false,"rental_uris":{"android":"levelo://app?vid=75ecdb20-95bf-4f8f-b9eb-de7f42718145","ios":"levelo://app?vid=75ecdb20-95bf-4f8f-b9eb-de7f42718145"},"vehicle_type_id":"4","last_reported":1698862125,"current_range_meters":20800,"station_id":"ce4bh692rcd13ifvqe90","pricing_plan_id":"free"},{"bike_id":"e10fbe88-8699-4c3b-848f-3ac279425a9f","system_id":"levelo_inurba_marseille","lat":43.290327,"lon":5.375711,"is_reserved":false,"is_disabled":false,"rental_uris":{"android":"levelo://app?vid=e10fbe88-8699-4c3b-848f-3ac279425a9f","ios":"levelo://app?vid=e10fbe88-8699-4c3b-848f-3ac279425a9f"},"vehicle_type_id":"4","last_reported":1698862125,"current_range_meters":20000,"station_id":"ce4bh692rcd13ifvqe90","pricing_plan_id":"free"},{"bike_id":"2673d0d1-ce00-4082-aca6-d8ca2d803bbe","system_id":"levelo_inurba_marseille","lat":43.290327,"lon":5.375711,"is_reserved":false,"is_disabled":false,"rental_uris":{"android":"levelo://app?vid=2673d0d1-ce00-4082-aca6-d8ca2d803bbe","ios":"levelo://app?vid=2673d0d1-ce00-4082-aca6-d8ca2d803bbe"},"vehicle_type_id":"4","last_reported":1698862125,"current_range_meters":29200,"station_id":"ce4bh692rcd13ifvqe90","pricing_plan_id":"free"},{"bike_id":"8ab6fb82-6a96-4b4a-851c-dc83984a07df","system_id":"levelo_inurba_marseille","lat":43.290327,"lon":5.375711,"is_reserved":false,"is_disabled":false,"rental_uris":{"android":"levelo://app?vid=8ab6fb82-6a96-4b4a-851c-dc83984a07df","ios":"levelo://app?vid=8ab6fb82-6a96-4b4a-851c-dc83984a07df"},"vehicle_type_id":"4","last_reported":1698862125,"current_range_meters":0,"station_id":"ce4bh692rcd13ifvqe90","pricing_plan_id":"free"},{"bike_id":"a28c9334-f7a0-41f1-8a3d-c7514c1af3ce","system_id":"levelo_inurba_marseille","lat":43.29417,"lon":5.38632,"is_reserved":false,"is_disabled":false,"rental_uris":{"android":"levelo://app?vid=a28c9334-f7a0-41f1-8a3d-c7514c1af3ce","ios":"levelo://app?vid=a28c9334-f7a0-41f1-8a3d-c7514c1af3ce"},"vehicle_type_id":"4","last_reported":1698862125,"current_range_meters":0,"station_id":"ce4bh2h2rcd13ifvqdh0","pricing_plan_id":"free"},{"bike_id":"6314664d-36c7-41ad-a6eb-ff4f7d5beeef","system_id":"levelo_inurba_marseille","lat":43.29418,"lon":5.38637,"is_reserved":false,"is_disabled":false,"rental_uris":{"android":"levelo://app?vid=6314664d-36c7-41ad-a6eb-ff4f7d5beeef","ios":"levelo://app?vid=6314664d-36c7-41ad-a6eb-ff4f7d5beeef"},"vehicle_type_id":"4","last_reported":1698862125,"current_range_meters":0,"station_id":"ce4bh2h2rcd13ifvqdh0","pricing_plan_id":"free"},{"bike_id":"c1b1b545-52b0-4c98-a01b-df561c723f9d","system_id":"levelo_inurba_marseille","lat":43.290327,"lon":5.375711,"is_reserved":false,"is_disabled":false,"rental_uris":{"android":"levelo://app?vid=c1b1b545-52b0-4c98-a01b-df561c723f9d","ios":"levelo://app?vid=c1b1b545-52b0-4c98-a01b-df561c723f9d"},"vehicle_type_id":"4","last_reported":1698862125,"current_range_meters":8800,"station_id":"ce4bh692rcd13ifvqe90","pricing_plan_id":"free"},{"bike_id":"ff85581d-fadf-4aae-9472-8cedd7a42161","system_id":"levelo_inurba_marseille","lat":43.290327,"lon":5.375711,"is_reserved":false,"is_disabled":false,"rental_uris":{"android":"levelo://app?vid=ff85581d-fadf-4aae-9472-8cedd7a42161","ios":"levelo://app?vid=ff85581d-fadf-4aae-9472-8cedd7a42161"},"vehicle_type_id":"4","last_reported":1698862125,"current_range_meters":10400,"station_id":"ce4bh692rcd13ifvqe90","pricing_plan_id":"free"},{"bike_id":"923cc1d4-db53-4cf7-a93b-883f2cba6d15","system_id":"levelo_inurba_marseille","lat":43.290327,"lon":5.375711,"is_reserved":false,"is_disabled":false,"rental_uris":{"android":"levelo://app?vid=923cc1d4-db53-4cf7-a93b-883f2cba6d15","ios":"levelo://app?vid=923cc1d4-db53-4cf7-a93b-883f2cba6d15"},"vehicle_type_id":"4","last_reported":1698862125,"current_range_meters":27600,"station_id":"ce4bh692rcd13ifvqe90","pricing_plan_id":"free"},{"bike_id":"05d17238-c3ef-4e32-ba72-834220bdd562","system_id":"levelo_inurba_marseille","lat":43.289363,"lon":5.366339,"is_reserved":false,"is_disabled":false,"rental_uris":{"android":"levelo://app?vid=05d17238-c3ef-4e32-ba72-834220bdd562","ios":"levelo://app?vid=05d17238-c3ef-4e32-ba72-834220bdd562"},"vehicle_type_id":"4","last_reported":1698862125,"current_range_meters":6800,"station_id":"ce4bhap2rcd13ifvqek0","pricing_plan_id":"free"},{"bike_id":"40453d18-5edb-4de7-9b8a-3adacb0c1694","system_id":"levelo_inurba_marseille","lat":43.290327,"lon":5.375711,"is_reserved":false,"is_disabled":false,"rental_uris":{"android":"levelo://app?vid=40453d18-5edb-4de7-9b8a-3adacb0c1694","ios":"levelo://app?vid=40453d18-5edb-4de7-9b8a-3adacb0c1694"},"vehicle_type_id":"4","last_reported":1698862125,"current_range_meters":15600,"station_id":"ce4bh692rcd13ifvqe90","pricing_plan_id":"free"},{"bike_id":"73f4cc2b-6c25-437f-9080-2ed2a03952bd","system_id":"levelo_inurba_marseille","lat":43.292642,"lon":5.384254,"is_reserved":false,"is_disabled":false,"rental_uris":{"android":"levelo://app?vid=73f4cc2b-6c25-437f-9080-2ed2a03952bd","ios":"levelo://app?vid=73f4cc2b-6c25-437f-9080-2ed2a03952bd"},"vehicle_type_id":"4","last_reported":1698862125,"current_range_meters":1600,"station_id":"ce4bh692rcd13ifvqea0","pricing_plan_id":"free"},{"bike_id":"30cf2300-fccd-41a7-a7c1-3dcb63ef56f3","system_id":"levelo_inurba_marseille","lat":43.304284,"lon":5.397418,"is_reserved":false,"is_disabled":false,"rental_uris":{"android":"levelo://app?vid=30cf2300-fccd-41a7-a7c1-3dcb63ef56f3","ios":"levelo://app?vid=30cf2300-fccd-41a7-a7c1-3dcb63ef56f3"},"vehicle_type_id":"4","last_reported":1698862125,"current_range_meters":16800,"station_id":"ce4bh092rcd13ifvqd20","pricing_plan_id":"free"},{"bike_id":"bc45e619-bed0-4522-bea6-2d0aeaee2a23","system_id":"levelo_inurba_marseille","lat":43.292644,"lon":5.384257,"is_reserved":false,"is_disabled":false,"rental_uris":{"android":"levelo://app?vid=bc45e619-bed0-4522-bea6-2d0aeaee2a23","ios":"levelo://app?vid=bc45e619-bed0-4522-bea6-2d0aeaee2a23"},"vehicle_type_id":"4","last_reported":1698862125,"current_range_meters":26400,"station_id":"ce4bh692rcd13ifvqea0","pricing_plan_id":"free"},{"bike_id":"d1804a67-0bce-4242-bf0f-d067ee09ec38","system_id":"levelo_inurba_marseille","lat":43.29267,"lon":5.38446,"is_reserved":false,"is_disabled":false,"rental_uris":{"android":"levelo://app?vid=d1804a67-0bce-4242-bf0f-d067ee09ec38","ios":"levelo://app?vid=d1804a67-0bce-4242-bf0f-d067ee09ec38"},"vehicle_type_id":"4","last_reported":1698862125,"current_range_meters":22000,"station_id":"ce4bh692rcd13ifvqea0","pricing_plan_id":"free"},{"bike_id":"da7e683f-15db-40f0-8938-99323bea9f7c","system_id":"levelo_inurba_marseille","lat":43.292642,"lon":5.384254,"is_reserved":false,"is_disabled":false,"rental_uris":{"android":"levelo://app?vid=da7e683f-15db-40f0-8938-99323bea9f7c","ios":"levelo://app?vid=da7e683f-15db-40f0-8938-99323bea9f7c"},"vehicle_type_id":"4","last_reported":1698862125,"current_range_meters":17600,"station_id":"ce4bh692rcd13ifvqea0","pricing_plan_id":"free"},{"bike_id":"ffed85e2-9977-4d36-8c1b-938bbdf760fa","system_id":"levelo_inurba_marseille","lat":43.292642,"lon":5.384254,"is_reserved":false,"is_disabled":false,"rental_uris":{"android":"levelo://app?vid=ffed85e2-9977-4d36-8c1b-938bbdf760fa","ios":"levelo://app?vid=ffed85e2-9977-4d36-8c1b-938bbdf760fa"},"vehicle_type_id":"4","last_reported":1698862125,"current_range_meters":20400,"station_id":"ce4bh692rcd13ifvqea0","pricing_plan_id":"free"},{"bike_id":"835ea621-ba27-447c-a156-5fb8b92893f8","system_id":"levelo_inurba_marseille","lat":43.292642,"lon":5.384254,"is_reserved":false,"is_disabled":false,"rental_uris":{"android":"levelo://app?vid=835ea621-ba27-447c-a156-5fb8b92893f8","ios":"levelo://app?vid=835ea621-ba27-447c-a156-5fb8b92893f8"},"vehicle_type_id":"4","last_reported":1698862125,"current_range_meters":11600,"station_id":"ce4bh692rcd13ifvqea0","pricing_plan_id":"free"},{"bike_id":"68596458-fadc-4419-a415-e51c5a690833","system_id":"levelo_inurba_marseille","lat":43.292644,"lon":5.384257,"is_reserved":false,"is_disabled":false,"rental_uris":{"android":"levelo://app?vid=68596458-fadc-4419-a415-e51c5a690833","ios":"levelo://app?vid=68596458-fadc-4419-a415-e51c5a690833"},"vehicle_type_id":"4","last_reported":1698862125,"current_range_meters":4000,"station_id":"ce4bh692rcd13ifvqea0","pricing_plan_id":"free"},{"bike_id":"9d339a6b-8d28-480e-bc3c-d64d12c7eb19","system_id":"levelo_inurba_marseille","lat":43.330436,"lon":5.389174,"is_reserved":false,"is_disabled":false,"rental_uris":{"android":"levelo://app?vid=9d339a6b-8d28-480e-bc3c-d64d12c7eb19","ios":"levelo://app?vid=9d339a6b-8d28-480e-bc3c-d64d12c7eb19"},"vehicle_type_id":"4","last_reported":1698862125,"current_range_meters":20800,"station_id":"ce4bhr92rcd13ifvqhrg","pricing_plan_id":"free"},{"bike_id":"ccae8abb-a981-4a5b-955e-5f8102e88f71","system_id":"levelo_inurba_marseille","lat":43.330442,"lon":5.389148,"is_reserved":false,"is_disabled":false,"rental_uris":{"android":"levelo://app?vid=ccae8abb-a981-4a5b-955e-5f8102e88f71","ios":"levelo://app?vid=ccae8abb-a981-4a5b-955e-5f8102e88f71"},"vehicle_type_id":"4","last_reported":1698862125,"current_range_meters":5200,"station_id":"ce4bhr92rcd13ifvqhrg","pricing_plan_id":"free"},{"bike_id":"68d6f48b-6bfe-483c-9c29-1b4f9efa4832","system_id":"levelo_inurba_marseille","lat":43.33044,"lon":5.38924,"is_reserved":false,"is_disabled":false,"rental_uris":{"android":"levelo://app?vid=68d6f48b-6bfe-483c-9c29-1b4f9efa4832","ios":"levelo://app?vid=68d6f48b-6bfe-483c-9c29-1b4f9efa4832"},"vehicle_type_id":"4","last_reported":1698862125,"current_range_meters":8000,"station_id":"ce4bhr92rcd13ifvqhrg","pricing_plan_id":"free"},{"bike_id":"b6e8df47-e2cb-416b-a15e-da6be0c47393","system_id":"levelo_inurba_marseille","lat":43.290995,"lon":5.381361,"is_reserved":false,"is_disabled":false,"rental_uris":{"android":"levelo://app?vid=b6e8df47-e2cb-416b-a15e-da6be0c47393","ios":"levelo://app?vid=b6e8df47-e2cb-416b-a15e-da6be0c47393"},"vehicle_type_id":"4","last_reported":1698862125,"current_range_meters":26400,"station_id":"ce4bh512rcd13ifvqe2g","pricing_plan_id":"free"},{"bike_id":"0bba11fd-03d5-4c20-8512-dbf8b625e54a","system_id":"levelo_inurba_marseille","lat":43.290995,"lon":5.381361,"is_reserved":false,"is_disabled":false,"rental_uris":{"android":"levelo://app?vid=0bba11fd-03d5-4c20-8512-dbf8b625e54a","ios":"levelo://app?vid=0bba11fd-03d5-4c20-8512-dbf8b625e54a"},"vehicle_type_id":"4","last_reported":1698862125,"current_range_meters":28400,"station_id":"ce4bh512rcd13ifvqe2g","pricing_plan_id":"free"},{"bike_id":"ff7f9739-5001-4ab9-919c-f6555f7061d6","system_id":"levelo_inurba_marseille","lat":43.330544,"lon":5.389589,"is_reserved":false,"is_disabled":false,"rental_uris":{"android":"levelo://app?vid=ff7f9739-5001-4ab9-919c-f6555f7061d6","ios":"levelo://app?vid=ff7f9739-5001-4ab9-919c-f6555f7061d6"},"vehicle_type_id":"4","last_reported":1698862125,"current_range_meters":29600,"station_id":"","pricing_plan_id":"free"},{"bike_id":"fd1422f7-7045-4ed1-99fa-e27cfb2a9539","system_id":"levelo_inurba_marseille","lat":43.289743,"lon":5.378304,"is_reserved":false,"is_disabled":false,"rental_uris":{"android":"levelo://app?vid=fd1422f7-7045-4ed1-99fa-e27cfb2a9539","ios":"levelo://app?vid=fd1422f7-7045-4ed1-99fa-e27cfb2a9539"},"vehicle_type_id":"4","last_reported":1698862125,"current_range_meters":26000,"station_id":"ce4bh9p2rcd13ifvqed0","pricing_plan_id":"free"},{"bike_id":"e0d713cd-ec81-44ec-8ba4-571dd76a2b05","system_id":"levelo_inurba_marseille","lat":43.295169,"lon":5.390426,"is_reserved":false,"is_disabled":false,"rental_uris":{"android":"levelo://app?vid=e0d713cd-ec81-44ec-8ba4-571dd76a2b05","ios":"levelo://app?vid=e0d713cd-ec81-44ec-8ba4-571dd76a2b05"},"vehicle_type_id":"4","last_reported":1698862125,"current_range_meters":12000,"station_id":"ce4bh3p2rcd13ifvqdp0","pricing_plan_id":"free"},{"bike_id":"25d68a96-2789-46df-9631-7ba988f784e7","system_id":"levelo_inurba_marseille","lat":43.290995,"lon":5.381361,"is_reserved":false,"is_disabled":false,"rental_uris":{"android":"levelo://app?vid=25d68a96-2789-46df-9631-7ba988f784e7","ios":"levelo://app?vid=25d68a96-2789-46df-9631-7ba988f784e7"},"vehicle_type_id":"4","last_reported":1698862125,"current_range_meters":1600,"station_id":"ce4bh512rcd13ifvqe2g","pricing_plan_id":"free"},{"bike_id":"c8fc11fa-15da-46e8-9b85-ef395caf0736","system_id":"levelo_inurba_marseille","lat":43.29788,"lon":5.39351,"is_reserved":false,"is_disabled":false,"rental_uris":{"android":"levelo://app?vid=c8fc11fa-15da-46e8-9b85-ef395caf0736","ios":"levelo://app?vid=c8fc11fa-15da-46e8-9b85-ef395caf0736"},"vehicle_type_id":"4","last_reported":1698862125,"current_range_meters":20000,"station_id":"chh1huq6cuj3fo74tm60","pricing_plan_id":"free"},{"bike_id":"713c8405-1854-4e8a-b757-c6d5657e7dcc","system_id":"levelo_inurba_marseille","lat":43.29779,"lon":5.3935,"is_reserved":false,"is_disabled":false,"rental_uris":{"android":"levelo://app?vid=713c8405-1854-4e8a-b757-c6d5657e7dcc","ios":"levelo://app?vid=713c8405-1854-4e8a-b757-c6d5657e7dcc"},"vehicle_type_id":"4","last_reported":1698862125,"current_range_meters":0,"station_id":"chh1huq6cuj3fo74tm60","pricing_plan_id":"free"},{"bike_id":"39849072-8e06-43ec-bda5-5c6c911a0c3a","system_id":"levelo_inurba_marseille","lat":43.29783,"lon":5.39359,"is_reserved":false,"is_disabled":false,"rental_uris":{"android":"levelo://app?vid=39849072-8e06-43ec-bda5-5c6c911a0c3a","ios":"levelo://app?vid=39849072-8e06-43ec-bda5-5c6c911a0c3a"},"vehicle_type_id":"4","last_reported":1698862125,"current_range_meters":26400,"station_id":"chh1huq6cuj3fo74tm60","pricing_plan_id":"free"},{"bike_id":"d03a7f4b-77c5-4ca0-8dff-259b8ba5d312","system_id":"levelo_inurba_marseille","lat":43.31271,"lon":5.40173,"is_reserved":false,"is_disabled":false,"rental_uris":{"android":"levelo://app?vid=d03a7f4b-77c5-4ca0-8dff-259b8ba5d312","ios":"levelo://app?vid=d03a7f4b-77c5-4ca0-8dff-259b8ba5d312"},"vehicle_type_id":"4","last_reported":1698862125,"current_range_meters":15200,"station_id":"ce4bh092rcd13ifvqd30","pricing_plan_id":"free"},{"bike_id":"5f85a6f7-5970-4ca6-af3e-b5fb4e81f29b","system_id":"levelo_inurba_marseille","lat":43.33743,"lon":5.37472,"is_reserved":false,"is_disabled":false,"rental_uris":{"android":"levelo://app?vid=5f85a6f7-5970-4ca6-af3e-b5fb4e81f29b","ios":"levelo://app?vid=5f85a6f7-5970-4ca6-af3e-b5fb4e81f29b"},"vehicle_type_id":"4","last_reported":1698862125,"current_range_meters":30400,"station_id":"","pricing_plan_id":"free"},{"bike_id":"46c111b4-b42c-4d6d-9f71-8d617c695a9d","system_id":"levelo_inurba_marseille","lat":43.33748,"lon":5.37462,"is_reserved":false,"is_disabled":false,"rental_uris":{"android":"levelo://app?vid=46c111b4-b42c-4d6d-9f71-8d617c695a9d","ios":"levelo://app?vid=46c111b4-b42c-4d6d-9f71-8d617c695a9d"},"vehicle_type_id":"4","last_reported":1698862125,"current_range_meters":28400,"station_id":"","pricing_plan_id":"free"},{"bike_id":"8552ceb6-f85b-421a-98c9-dc0fa68526ab","system_id":"levelo_inurba_marseille","lat":43.309371,"lon":5.401449,"is_reserved":false,"is_disabled":false,"rental_uris":{"android":"levelo://app?vid=8552ceb6-f85b-421a-98c9-dc0fa68526ab","ios":"levelo://app?vid=8552ceb6-f85b-421a-98c9-dc0fa68526ab"},"vehicle_type_id":"4","last_reported":1698862125,"current_range_meters":21600,"station_id":"ce4bgvp2rcd13ifvqct0","pricing_plan_id":"free"},{"bike_id":"9f4a0eac-5964-432a-b185-a82f5fcd2d79","system_id":"levelo_inurba_marseille","lat":43.30642,"lon":5.401031,"is_reserved":false,"is_disabled":false,"rental_uris":{"android":"levelo://app?vid=9f4a0eac-5964-432a-b185-a82f5fcd2d79","ios":"levelo://app?vid=9f4a0eac-5964-432a-b185-a82f5fcd2d79"},"vehicle_type_id":"4","last_reported":1698862125,"current_range_meters":14000,"station_id":"ce4bh112rcd13ifvqda0","pricing_plan_id":"free"},{"bike_id":"a37f68da-0572-41aa-970e-900cc2783cbb","system_id":"levelo_inurba_marseille","lat":43.301117,"lon":5.398795,"is_reserved":false,"is_disabled":false,"rental_uris":{"android":"levelo://app?vid=a37f68da-0572-41aa-970e-900cc2783cbb","ios":"levelo://app?vid=a37f68da-0572-41aa-970e-900cc2783cbb"},"vehicle_type_id":"4","last_reported":1698862125,"current_range_meters":22400,"station_id":"ce4bh0h2rcd13ifvqd40","pricing_plan_id":"free"},{"bike_id":"9c7774e6-40ab-4d2d-bf68-837032cc6a81","system_id":"levelo_inurba_marseille","lat":43.30134,"lon":5.39868,"is_reserved":false,"is_disabled":false,"rental_uris":{"android":"levelo://app?vid=9c7774e6-40ab-4d2d-bf68-837032cc6a81","ios":"levelo://app?vid=9c7774e6-40ab-4d2d-bf68-837032cc6a81"},"vehicle_type_id":"4","last_reported":1698862125,"current_range_meters":21600,"station_id":"ce4bh0h2rcd13ifvqd40","pricing_plan_id":"free"},{"bike_id":"6003d317-0dbe-4593-a026-cc4aba36f02e","system_id":"levelo_inurba_marseille","lat":43.298732,"lon":5.397336,"is_reserved":false,"is_disabled":false,"rental_uris":{"android":"levelo://app?vid=6003d317-0dbe-4593-a026-cc4aba36f02e","ios":"levelo://app?vid=6003d317-0dbe-4593-a026-cc4aba36f02e"},"vehicle_type_id":"4","last_reported":1698862125,"current_range_meters":21600,"station_id":"ce4bh0h2rcd13ifvqd50","pricing_plan_id":"free"},{"bike_id":"cbdf42d8-9f70-4aa5-b532-ff5b62e62aef","system_id":"levelo_inurba_marseille","lat":43.286591,"lon":5.363346,"is_reserved":false,"is_disabled":false,"rental_uris":{"android":"levelo://app?vid=cbdf42d8-9f70-4aa5-b532-ff5b62e62aef","ios":"levelo://app?vid=cbdf42d8-9f70-4aa5-b532-ff5b62e62aef"},"vehicle_type_id":"4","last_reported":1698862125,"current_range_meters":20800,"station_id":"ce4bhah2rcd13ifvqej0","pricing_plan_id":"free"},{"bike_id":"20bd0b9b-9e3b-4430-85b1-3e6c5f330307","system_id":"levelo_inurba_marseille","lat":43.295194,"lon":5.39397,"is_reserved":false,"is_disabled":false,"rental_uris":{"android":"levelo://app?vid=20bd0b9b-9e3b-4430-85b1-3e6c5f330307","ios":"levelo://app?vid=20bd0b9b-9e3b-4430-85b1-3e6c5f330307"},"vehicle_type_id":"4","last_reported":1698862125,"current_range_meters":16000,"station_id":"ce4bh292rcd13ifvqdf0","pricing_plan_id":"free"},{"bike_id":"b0fd90ce-a37f-4cea-8912-bb771d1c21c0","system_id":"levelo_inurba_marseille","lat":43.295194,"lon":5.39397,"is_reserved":false,"is_disabled":false,"rental_uris":{"android":"levelo://app?vid=b0fd90ce-a37f-4cea-8912-bb771d1c21c0","ios":"levelo://app?vid=b0fd90ce-a37f-4cea-8912-bb771d1c21c0"},"vehicle_type_id":"4","last_reported":1698862125,"current_range_meters":10800,"station_id":"ce4bh292rcd13ifvqdf0","pricing_plan_id":"free"},{"bike_id":"f0e4ad3d-74aa-4909-826e-b21bf5760925","system_id":"levelo_inurba_marseille","lat":43.29514,"lon":5.39401,"is_reserved":false,"is_disabled":false,"rental_uris":{"android":"levelo://app?vid=f0e4ad3d-74aa-4909-826e-b21bf5760925","ios":"levelo://app?vid=f0e4ad3d-74aa-4909-826e-b21bf5760925"},"vehicle_type_id":"4","last_reported":1698862125,"current_range_meters":4800,"station_id":"ce4bh292rcd13ifvqdf0","pricing_plan_id":"free"},{"bike_id":"1cbc75fd-5b68-4591-9485-460939f1daff","system_id":"levelo_inurba_marseille","lat":43.29518,"lon":5.39407,"is_reserved":false,"is_disabled":false,"rental_uris":{"android":"levelo://app?vid=1cbc75fd-5b68-4591-9485-460939f1daff","ios":"levelo://app?vid=1cbc75fd-5b68-4591-9485-460939f1daff"},"vehicle_type_id":"4","last_reported":1698862125,"current_range_meters":0,"station_id":"ce4bh292rcd13ifvqdf0","pricing_plan_id":"free"},{"bike_id":"bd5917bf-5029-4737-b25f-6b451b459e68","system_id":"levelo_inurba_marseille","lat":43.28939,"lon":5.38412,"is_reserved":false,"is_disabled":false,"rental_uris":{"android":"levelo://app?vid=bd5917bf-5029-4737-b25f-6b451b459e68","ios":"levelo://app?vid=bd5917bf-5029-4737-b25f-6b451b459e68"},"vehicle_type_id":"4","last_reported":1698862125,"current_range_meters":27600,"station_id":"ce4bh612rcd13ifvqe6g","pricing_plan_id":"free"},{"bike_id":"efa2bc81-4d30-4ff3-a57e-7d3dac523dfd","system_id":"levelo_inurba_marseille","lat":43.295194,"lon":5.39397,"is_reserved":false,"is_disabled":false,"rental_uris":{"android":"levelo://app?vid=efa2bc81-4d30-4ff3-a57e-7d3dac523dfd","ios":"levelo://app?vid=efa2bc81-4d30-4ff3-a57e-7d3dac523dfd"},"vehicle_type_id":"4","last_reported":1698862125,"current_range_meters":14000,"station_id":"ce4bh292rcd13ifvqdf0","pricing_plan_id":"free"},{"bike_id":"df3ef998-72e2-4a32-bf5a-241f373be2db","system_id":"levelo_inurba_marseille","lat":43.29026,"lon":5.38631,"is_reserved":false,"is_disabled":false,"rental_uris":{"android":"levelo://app?vid=df3ef998-72e2-4a32-bf5a-241f373be2db","ios":"levelo://app?vid=df3ef998-72e2-4a32-bf5a-241f373be2db"},"vehicle_type_id":"4","last_reported":1698862125,"current_range_meters":24400,"station_id":"ce4bh4p2rcd13ifvqe0g","pricing_plan_id":"free"},{"bike_id":"3b6e6113-b940-415e-829e-52b2f5f279f8","system_id":"levelo_inurba_marseille","lat":43.289307,"lon":5.38406,"is_reserved":false,"is_disabled":false,"rental_uris":{"android":"levelo://app?vid=3b6e6113-b940-415e-829e-52b2f5f279f8","ios":"levelo://app?vid=3b6e6113-b940-415e-829e-52b2f5f279f8"},"vehicle_type_id":"4","last_reported":1698862125,"current_range_meters":16400,"station_id":"ce4bh612rcd13ifvqe6g","pricing_plan_id":"free"},{"bike_id":"3864acbb-a70d-4535-8127-9865eb98fbe1","system_id":"levelo_inurba_marseille","lat":43.30245,"lon":5.40081,"is_reserved":false,"is_disabled":false,"rental_uris":{"android":"levelo://app?vid=3864acbb-a70d-4535-8127-9865eb98fbe1","ios":"levelo://app?vid=3864acbb-a70d-4535-8127-9865eb98fbe1"},"vehicle_type_id":"4","last_reported":1698862125,"current_range_meters":15200,"station_id":"ce4bgvh2rcd13ifvqcs0","pricing_plan_id":"free"},{"bike_id":"af561225-c068-4c99-a799-080c8947334f","system_id":"levelo_inurba_marseille","lat":43.302759,"lon":5.400793,"is_reserved":false,"is_disabled":false,"rental_uris":{"android":"levelo://app?vid=af561225-c068-4c99-a799-080c8947334f","ios":"levelo://app?vid=af561225-c068-4c99-a799-080c8947334f"},"vehicle_type_id":"4","last_reported":1698862125,"current_range_meters":23200,"station_id":"ce4bgvh2rcd13ifvqcs0","pricing_plan_id":"free"},{"bike_id":"4ba75a17-df6e-4c46-a9e7-f8553f9f429d","system_id":"levelo_inurba_marseille","lat":43.302759,"lon":5.400793,"is_reserved":false,"is_disabled":false,"rental_uris":{"android":"levelo://app?vid=4ba75a17-df6e-4c46-a9e7-f8553f9f429d","ios":"levelo://app?vid=4ba75a17-df6e-4c46-a9e7-f8553f9f429d"},"vehicle_type_id":"4","last_reported":1698862125,"current_range_meters":20400,"station_id":"ce4bgvh2rcd13ifvqcs0","pricing_plan_id":"free"},{"bike_id":"4b09bab3-9a69-4243-b24c-8cf80bb582bb","system_id":"levelo_inurba_marseille","lat":43.286039,"lon":5.370679,"is_reserved":false,"is_disabled":false,"rental_uris":{"android":"levelo://app?vid=4b09bab3-9a69-4243-b24c-8cf80bb582bb","ios":"levelo://app?vid=4b09bab3-9a69-4243-b24c-8cf80bb582bb"},"vehicle_type_id":"4","last_reported":1698862125,"current_range_meters":31200,"station_id":"ce4bht12rcd13ifvqi60","pricing_plan_id":"free"},{"bike_id":"dfcc5b38-0d3a-4eab-a846-e1685257aa14","system_id":"levelo_inurba_marseille","lat":43.286039,"lon":5.370679,"is_reserved":false,"is_disabled":false,"rental_uris":{"android":"levelo://app?vid=dfcc5b38-0d3a-4eab-a846-e1685257aa14","ios":"levelo://app?vid=dfcc5b38-0d3a-4eab-a846-e1685257aa14"},"vehicle_type_id":"4","last_reported":1698862125,"current_range_meters":18000,"station_id":"ce4bht12rcd13ifvqi60","pricing_plan_id":"free"},{"bike_id":"8a959baf-ca0d-4733-a881-9d6f12297e64","system_id":"levelo_inurba_marseille","lat":43.286039,"lon":5.370681,"is_reserved":false,"is_disabled":false,"rental_uris":{"android":"levelo://app?vid=8a959baf-ca0d-4733-a881-9d6f12297e64","ios":"levelo://app?vid=8a959baf-ca0d-4733-a881-9d6f12297e64"},"vehicle_type_id":"4","last_reported":1698862125,"current_range_meters":22800,"station_id":"ce4bht12rcd13ifvqi60","pricing_plan_id":"free"},{"bike_id":"0ccea0c9-658b-4c56-8755-a1663009fe79","system_id":"levelo_inurba_marseille","lat":43.286039,"lon":5.370681,"is_reserved":false,"is_disabled":false,"rental_uris":{"android":"levelo://app?vid=0ccea0c9-658b-4c56-8755-a1663009fe79","ios":"levelo://app?vid=0ccea0c9-658b-4c56-8755-a1663009fe79"},"vehicle_type_id":"4","last_reported":1698862125,"current_range_meters":24400,"station_id":"ce4bht12rcd13ifvqi60","pricing_plan_id":"free"},{"bike_id":"b087465e-f7f4-4d96-8507-64b416f3ccd5","system_id":"levelo_inurba_marseille","lat":43.287113,"lon":5.379404,"is_reserved":false,"is_disabled":false,"rental_uris":{"android":"levelo://app?vid=b087465e-f7f4-4d96-8507-64b416f3ccd5","ios":"levelo://app?vid=b087465e-f7f4-4d96-8507-64b416f3ccd5"},"vehicle_type_id":"4","last_reported":1698862125,"current_range_meters":28400,"station_id":"ce4bh9p2rcd13ifvqec0","pricing_plan_id":"free"},{"bike_id":"23d1f069-6ba2-4f46-881f-1900bc19d307","system_id":"levelo_inurba_marseille","lat":43.316517,"lon":5.404375,"is_reserved":false,"is_disabled":false,"rental_uris":{"android":"levelo://app?vid=23d1f069-6ba2-4f46-881f-1900bc19d307","ios":"levelo://app?vid=23d1f069-6ba2-4f46-881f-1900bc19d307"},"vehicle_type_id":"4","last_reported":1698862125,"current_range_meters":28000,"station_id":"ce4bh012rcd13ifvqd00","pricing_plan_id":"free"},{"bike_id":"06e6651a-2f3f-4195-9c63-a4ad51093620","system_id":"levelo_inurba_marseille","lat":43.31646,"lon":5.40436,"is_reserved":false,"is_disabled":false,"rental_uris":{"android":"levelo://app?vid=06e6651a-2f3f-4195-9c63-a4ad51093620","ios":"levelo://app?vid=06e6651a-2f3f-4195-9c63-a4ad51093620"},"vehicle_type_id":"4","last_reported":1698862125,"current_range_meters":0,"station_id":"ce4bh012rcd13ifvqd00","pricing_plan_id":"free"},{"bike_id":"0c14a55d-4db4-4c76-ae42-67cd4283c024","system_id":"levelo_inurba_marseille","lat":43.31647,"lon":5.40438,"is_reserved":false,"is_disabled":false,"rental_uris":{"android":"levelo://app?vid=0c14a55d-4db4-4c76-ae42-67cd4283c024","ios":"levelo://app?vid=0c14a55d-4db4-4c76-ae42-67cd4283c024"},"vehicle_type_id":"4","last_reported":1698862125,"current_range_meters":0,"station_id":"ce4bh012rcd13ifvqd00","pricing_plan_id":"free"},{"bike_id":"48b95a55-89ed-46e4-9db0-bd39b87cc4d9","system_id":"levelo_inurba_marseille","lat":43.308442,"lon":5.405045,"is_reserved":false,"is_disabled":false,"rental_uris":{"android":"levelo://app?vid=48b95a55-89ed-46e4-9db0-bd39b87cc4d9","ios":"levelo://app?vid=48b95a55-89ed-46e4-9db0-bd39b87cc4d9"},"vehicle_type_id":"4","last_reported":1698862125,"current_range_meters":22000,"station_id":"","pricing_plan_id":"free"},{"bike_id":"0c3c2bca-1b19-4837-a7ec-fa79b7e23030","system_id":"levelo_inurba_marseille","lat":43.291994,"lon":5.392907,"is_reserved":false,"is_disabled":false,"rental_uris":{"android":"levelo://app?vid=0c3c2bca-1b19-4837-a7ec-fa79b7e23030","ios":"levelo://app?vid=0c3c2bca-1b19-4837-a7ec-fa79b7e23030"},"vehicle_type_id":"4","last_reported":1698862125,"current_range_meters":14000,"station_id":"ce4bh192rcd13ifvqdd0","pricing_plan_id":"free"},{"bike_id":"c6a5e3eb-1751-4fb5-b041-07f5bd7702f1","system_id":"levelo_inurba_marseille","lat":43.291994,"lon":5.392907,"is_reserved":false,"is_disabled":false,"rental_uris":{"android":"levelo://app?vid=c6a5e3eb-1751-4fb5-b041-07f5bd7702f1","ios":"levelo://app?vid=c6a5e3eb-1751-4fb5-b041-07f5bd7702f1"},"vehicle_type_id":"4","last_reported":1698862125,"current_range_meters":24000,"station_id":"ce4bh192rcd13ifvqdd0","pricing_plan_id":"free"},{"bike_id":"4b656d96-ea32-4c00-95e8-a7179ff33fea","system_id":"levelo_inurba_marseille","lat":43.291994,"lon":5.392907,"is_reserved":false,"is_disabled":false,"rental_uris":{"android":"levelo://app?vid=4b656d96-ea32-4c00-95e8-a7179ff33fea","ios":"levelo://app?vid=4b656d96-ea32-4c00-95e8-a7179ff33fea"},"vehicle_type_id":"4","last_reported":1698862125,"current_range_meters":24000,"station_id":"ce4bh192rcd13ifvqdd0","pricing_plan_id":"free"},{"bike_id":"a154fc9b-725c-4656-be34-c340bb5063d0","system_id":"levelo_inurba_marseille","lat":43.291994,"lon":5.392907,"is_reserved":false,"is_disabled":false,"rental_uris":{"android":"levelo://app?vid=a154fc9b-725c-4656-be34-c340bb5063d0","ios":"levelo://app?vid=a154fc9b-725c-4656-be34-c340bb5063d0"},"vehicle_type_id":"4","last_reported":1698862125,"current_range_meters":21200,"station_id":"ce4bh192rcd13ifvqdd0","pricing_plan_id":"free"},{"bike_id":"b93b8146-be91-4b46-bf15-b0e3558e611f","system_id":"levelo_inurba_marseille","lat":43.284534,"lon":5.358662,"is_reserved":false,"is_disabled":false,"rental_uris":{"android":"levelo://app?vid=b93b8146-be91-4b46-bf15-b0e3558e611f","ios":"levelo://app?vid=b93b8146-be91-4b46-bf15-b0e3558e611f"},"vehicle_type_id":"4","last_reported":1698862125,"current_range_meters":4800,"station_id":"ce4bhah2rcd13ifvqei0","pricing_plan_id":"free"},{"bike_id":"016822d8-a04f-4d89-a854-147e6a5af864","system_id":"levelo_inurba_marseille","lat":43.284534,"lon":5.358662,"is_reserved":false,"is_disabled":false,"rental_uris":{"android":"levelo://app?vid=016822d8-a04f-4d89-a854-147e6a5af864","ios":"levelo://app?vid=016822d8-a04f-4d89-a854-147e6a5af864"},"vehicle_type_id":"4","last_reported":1698862125,"current_range_meters":21600,"station_id":"ce4bhah2rcd13ifvqei0","pricing_plan_id":"free"},{"bike_id":"2f6b9087-f2a5-40df-a548-6bd1bc46f62e","system_id":"levelo_inurba_marseille","lat":43.284534,"lon":5.358662,"is_reserved":false,"is_disabled":false,"rental_uris":{"android":"levelo://app?vid=2f6b9087-f2a5-40df-a548-6bd1bc46f62e","ios":"levelo://app?vid=2f6b9087-f2a5-40df-a548-6bd1bc46f62e"},"vehicle_type_id":"4","last_reported":1698862125,"current_range_meters":21200,"station_id":"ce4bhah2rcd13ifvqei0","pricing_plan_id":"free"},{"bike_id":"d48a5de5-a52e-40a4-b8d1-61334c937902","system_id":"levelo_inurba_marseille","lat":43.28455,"lon":5.3589,"is_reserved":false,"is_disabled":false,"rental_uris":{"android":"levelo://app?vid=d48a5de5-a52e-40a4-b8d1-61334c937902","ios":"levelo://app?vid=d48a5de5-a52e-40a4-b8d1-61334c937902"},"vehicle_type_id":"4","last_reported":1698862125,"current_range_meters":14000,"station_id":"ce4bhah2rcd13ifvqei0","pricing_plan_id":"free"},{"bike_id":"e4b12577-bc89-4231-a3c9-95e3e82bf523","system_id":"levelo_inurba_marseille","lat":43.284534,"lon":5.358662,"is_reserved":false,"is_disabled":false,"rental_uris":{"android":"levelo://app?vid=e4b12577-bc89-4231-a3c9-95e3e82bf523","ios":"levelo://app?vid=e4b12577-bc89-4231-a3c9-95e3e82bf523"},"vehicle_type_id":"4","last_reported":1698862125,"current_range_meters":10400,"station_id":"ce4bhah2rcd13ifvqei0","pricing_plan_id":"free"},{"bike_id":"84415e72-224a-4e20-be6c-1d71c0447e24","system_id":"levelo_inurba_marseille","lat":43.284534,"lon":5.358662,"is_reserved":false,"is_disabled":false,"rental_uris":{"android":"levelo://app?vid=84415e72-224a-4e20-be6c-1d71c0447e24","ios":"levelo://app?vid=84415e72-224a-4e20-be6c-1d71c0447e24"},"vehicle_type_id":"4","last_reported":1698862125,"current_range_meters":24400,"station_id":"ce4bhah2rcd13ifvqei0","pricing_plan_id":"free"},{"bike_id":"dc92d09f-2505-4c6a-b27f-d8788cb1eaea","system_id":"levelo_inurba_marseille","lat":43.283998,"lon":5.375062,"is_reserved":false,"is_disabled":false,"rental_uris":{"android":"levelo://app?vid=dc92d09f-2505-4c6a-b27f-d8788cb1eaea","ios":"levelo://app?vid=dc92d09f-2505-4c6a-b27f-d8788cb1eaea"},"vehicle_type_id":"4","last_reported":1698862125,"current_range_meters":14800,"station_id":"ce4bh412rcd13ifvqds0","pricing_plan_id":"free"},{"bike_id":"4c70e5fd-5bd9-4d41-ac07-46789895a0de","system_id":"levelo_inurba_marseille","lat":43.295713,"lon":5.399639,"is_reserved":false,"is_disabled":false,"rental_uris":{"android":"levelo://app?vid=4c70e5fd-5bd9-4d41-ac07-46789895a0de","ios":"levelo://app?vid=4c70e5fd-5bd9-4d41-ac07-46789895a0de"},"vehicle_type_id":"4","last_reported":1698862125,"current_range_meters":6400,"station_id":"ce4bh312rcd13ifvqdj0","pricing_plan_id":"free"},{"bike_id":"a2e90655-ccb4-4912-ae4d-d5e726f4d2eb","system_id":"levelo_inurba_marseille","lat":43.295713,"lon":5.399639,"is_reserved":false,"is_disabled":false,"rental_uris":{"android":"levelo://app?vid=a2e90655-ccb4-4912-ae4d-d5e726f4d2eb","ios":"levelo://app?vid=a2e90655-ccb4-4912-ae4d-d5e726f4d2eb"},"vehicle_type_id":"4","last_reported":1698862125,"current_range_meters":10000,"station_id":"ce4bh312rcd13ifvqdj0","pricing_plan_id":"free"},{"bike_id":"1447eb8b-7c33-4483-8635-a23765a5cf77","system_id":"levelo_inurba_marseille","lat":43.295667,"lon":5.3996,"is_reserved":false,"is_disabled":false,"rental_uris":{"android":"levelo://app?vid=1447eb8b-7c33-4483-8635-a23765a5cf77","ios":"levelo://app?vid=1447eb8b-7c33-4483-8635-a23765a5cf77"},"vehicle_type_id":"4","last_reported":1698862125,"current_range_meters":17200,"station_id":"ce4bh312rcd13ifvqdj0","pricing_plan_id":"free"},{"bike_id":"14b66391-4e53-41a0-b867-3b7a9e4deb84","system_id":"levelo_inurba_marseille","lat":43.295713,"lon":5.399639,"is_reserved":false,"is_disabled":false,"rental_uris":{"android":"levelo://app?vid=14b66391-4e53-41a0-b867-3b7a9e4deb84","ios":"levelo://app?vid=14b66391-4e53-41a0-b867-3b7a9e4deb84"},"vehicle_type_id":"4","last_reported":1698862125,"current_range_meters":21200,"station_id":"ce4bh312rcd13ifvqdj0","pricing_plan_id":"free"},{"bike_id":"cd7a6288-f6b2-4279-97d1-ca0f45013c0b","system_id":"levelo_inurba_marseille","lat":43.295713,"lon":5.399639,"is_reserved":false,"is_disabled":false,"rental_uris":{"android":"levelo://app?vid=cd7a6288-f6b2-4279-97d1-ca0f45013c0b","ios":"levelo://app?vid=cd7a6288-f6b2-4279-97d1-ca0f45013c0b"},"vehicle_type_id":"4","last_reported":1698862125,"current_range_meters":5200,"station_id":"ce4bh312rcd13ifvqdj0","pricing_plan_id":"free"},{"bike_id":"b18b9438-1ca3-4f40-ad1e-7ac78ab2612a","system_id":"levelo_inurba_marseille","lat":43.283998,"lon":5.375062,"is_reserved":false,"is_disabled":false,"rental_uris":{"android":"levelo://app?vid=b18b9438-1ca3-4f40-ad1e-7ac78ab2612a","ios":"levelo://app?vid=b18b9438-1ca3-4f40-ad1e-7ac78ab2612a"},"vehicle_type_id":"4","last_reported":1698862125,"current_range_meters":0,"station_id":"ce4bh412rcd13ifvqds0","pricing_plan_id":"free"},{"bike_id":"b55cc2d7-4515-4efd-98d7-ed6c012b0f67","system_id":"levelo_inurba_marseille","lat":43.295713,"lon":5.399639,"is_reserved":false,"is_disabled":false,"rental_uris":{"android":"levelo://app?vid=b55cc2d7-4515-4efd-98d7-ed6c012b0f67","ios":"levelo://app?vid=b55cc2d7-4515-4efd-98d7-ed6c012b0f67"},"vehicle_type_id":"4","last_reported":1698862125,"current_range_meters":13200,"station_id":"ce4bh312rcd13ifvqdj0","pricing_plan_id":"free"},{"bike_id":"13a16033-19f6-4ace-bbe6-8b1e24774d73","system_id":"levelo_inurba_marseille","lat":43.28677,"lon":5.386618,"is_reserved":false,"is_disabled":false,"rental_uris":{"android":"levelo://app?vid=13a16033-19f6-4ace-bbe6-8b1e24774d73","ios":"levelo://app?vid=13a16033-19f6-4ace-bbe6-8b1e24774d73"},"vehicle_type_id":"4","last_reported":1698862125,"current_range_meters":3600,"station_id":"ce4bh492rcd13ifvqdug","pricing_plan_id":"free"},{"bike_id":"821b4f5f-8b8b-49d8-8410-98ecf646aec4","system_id":"levelo_inurba_marseille","lat":43.33717,"lon":5.391857,"is_reserved":false,"is_disabled":false,"rental_uris":{"android":"levelo://app?vid=821b4f5f-8b8b-49d8-8410-98ecf646aec4","ios":"levelo://app?vid=821b4f5f-8b8b-49d8-8410-98ecf646aec4"},"vehicle_type_id":"4","last_reported":1698862125,"current_range_meters":29600,"station_id":"ce4bhr92rcd13ifvqhsg","pricing_plan_id":"free"},{"bike_id":"f7fbd5cf-8a23-48de-b9c0-0cce0d078592","system_id":"levelo_inurba_marseille","lat":43.284787,"lon":5.384116,"is_reserved":false,"is_disabled":false,"rental_uris":{"android":"levelo://app?vid=f7fbd5cf-8a23-48de-b9c0-0cce0d078592","ios":"levelo://app?vid=f7fbd5cf-8a23-48de-b9c0-0cce0d078592"},"vehicle_type_id":"4","last_reported":1698862125,"current_range_meters":12800,"station_id":"ce4bh512rcd13ifvqe3g","pricing_plan_id":"free"},{"bike_id":"5e0e7368-7334-4308-842f-925387588de1","system_id":"levelo_inurba_marseille","lat":43.337168,"lon":5.391825,"is_reserved":false,"is_disabled":false,"rental_uris":{"android":"levelo://app?vid=5e0e7368-7334-4308-842f-925387588de1","ios":"levelo://app?vid=5e0e7368-7334-4308-842f-925387588de1"},"vehicle_type_id":"4","last_reported":1698862125,"current_range_meters":23200,"station_id":"ce4bhr92rcd13ifvqhsg","pricing_plan_id":"free"},{"bike_id":"23474051-5c48-4a11-93c8-b4068ae0c8a7","system_id":"levelo_inurba_marseille","lat":43.28517,"lon":5.38478,"is_reserved":false,"is_disabled":false,"rental_uris":{"android":"levelo://app?vid=23474051-5c48-4a11-93c8-b4068ae0c8a7","ios":"levelo://app?vid=23474051-5c48-4a11-93c8-b4068ae0c8a7"},"vehicle_type_id":"4","last_reported":1698862125,"current_range_meters":6800,"station_id":"","pricing_plan_id":"free"},{"bike_id":"4a1bf455-2bbe-41fc-b18a-adb96c3ae735","system_id":"levelo_inurba_marseille","lat":43.323464,"lon":5.406297,"is_reserved":false,"is_disabled":false,"rental_uris":{"android":"levelo://app?vid=4a1bf455-2bbe-41fc-b18a-adb96c3ae735","ios":"levelo://app?vid=4a1bf455-2bbe-41fc-b18a-adb96c3ae735"},"vehicle_type_id":"4","last_reported":1698862125,"current_range_meters":29200,"station_id":"ce4bhq92rcd13ifvqhjg","pricing_plan_id":"free"},{"bike_id":"8dcf7710-9093-4e59-a11e-1ca34a1e5c87","system_id":"levelo_inurba_marseille","lat":43.284787,"lon":5.384116,"is_reserved":false,"is_disabled":false,"rental_uris":{"android":"levelo://app?vid=8dcf7710-9093-4e59-a11e-1ca34a1e5c87","ios":"levelo://app?vid=8dcf7710-9093-4e59-a11e-1ca34a1e5c87"},"vehicle_type_id":"4","last_reported":1698862125,"current_range_meters":12400,"station_id":"ce4bh512rcd13ifvqe3g","pricing_plan_id":"free"},{"bike_id":"c45aaa47-c3e7-439d-a330-d384642524e9","system_id":"levelo_inurba_marseille","lat":43.284793,"lon":5.384119,"is_reserved":false,"is_disabled":false,"rental_uris":{"android":"levelo://app?vid=c45aaa47-c3e7-439d-a330-d384642524e9","ios":"levelo://app?vid=c45aaa47-c3e7-439d-a330-d384642524e9"},"vehicle_type_id":"4","last_reported":1698862125,"current_range_meters":26400,"station_id":"ce4bh512rcd13ifvqe3g","pricing_plan_id":"free"},{"bike_id":"3af9c5f3-2e91-47bd-98bc-33eb2d61ace0","system_id":"levelo_inurba_marseille","lat":43.284793,"lon":5.384119,"is_reserved":false,"is_disabled":false,"rental_uris":{"android":"levelo://app?vid=3af9c5f3-2e91-47bd-98bc-33eb2d61ace0","ios":"levelo://app?vid=3af9c5f3-2e91-47bd-98bc-33eb2d61ace0"},"vehicle_type_id":"4","last_reported":1698862125,"current_range_meters":0,"station_id":"ce4bh512rcd13ifvqe3g","pricing_plan_id":"free"},{"bike_id":"932c1e29-2b50-40f3-bd6b-eb567df836b4","system_id":"levelo_inurba_marseille","lat":43.284793,"lon":5.384119,"is_reserved":false,"is_disabled":false,"rental_uris":{"android":"levelo://app?vid=932c1e29-2b50-40f3-bd6b-eb567df836b4","ios":"levelo://app?vid=932c1e29-2b50-40f3-bd6b-eb567df836b4"},"vehicle_type_id":"4","last_reported":1698862125,"current_range_meters":12800,"station_id":"ce4bh512rcd13ifvqe3g","pricing_plan_id":"free"},{"bike_id":"b3df90db-5b1d-4144-aae3-3bb7436d857c","system_id":"levelo_inurba_marseille","lat":43.284793,"lon":5.384119,"is_reserved":false,"is_disabled":false,"rental_uris":{"android":"levelo://app?vid=b3df90db-5b1d-4144-aae3-3bb7436d857c","ios":"levelo://app?vid=b3df90db-5b1d-4144-aae3-3bb7436d857c"},"vehicle_type_id":"4","last_reported":1698862125,"current_range_meters":16400,"station_id":"ce4bh512rcd13ifvqe3g","pricing_plan_id":"free"},{"bike_id":"cd41403b-3499-4d83-a147-bec989179e8f","system_id":"levelo_inurba_marseille","lat":43.284793,"lon":5.384119,"is_reserved":false,"is_disabled":false,"rental_uris":{"android":"levelo://app?vid=cd41403b-3499-4d83-a147-bec989179e8f","ios":"levelo://app?vid=cd41403b-3499-4d83-a147-bec989179e8f"},"vehicle_type_id":"4","last_reported":1698862125,"current_range_meters":26000,"station_id":"ce4bh512rcd13ifvqe3g","pricing_plan_id":"free"},{"bike_id":"6a02563d-4abe-4c93-93df-03890a966ad6","system_id":"levelo_inurba_marseille","lat":43.297946,"lon":5.404063,"is_reserved":false,"is_disabled":false,"rental_uris":{"android":"levelo://app?vid=6a02563d-4abe-4c93-93df-03890a966ad6","ios":"levelo://app?vid=6a02563d-4abe-4c93-93df-03890a966ad6"},"vehicle_type_id":"4","last_reported":1698862125,"current_range_meters":26400,"station_id":"ce4bh112rcd13ifvqd90","pricing_plan_id":"free"},{"bike_id":"f31bdf22-c35f-40a5-b3d6-97aa82f0c249","system_id":"levelo_inurba_marseille","lat":43.284787,"lon":5.384116,"is_reserved":false,"is_disabled":false,"rental_uris":{"android":"levelo://app?vid=f31bdf22-c35f-40a5-b3d6-97aa82f0c249","ios":"levelo://app?vid=f31bdf22-c35f-40a5-b3d6-97aa82f0c249"},"vehicle_type_id":"4","last_reported":1698862125,"current_range_meters":19200,"station_id":"ce4bh512rcd13ifvqe3g","pricing_plan_id":"free"},{"bike_id":"19213ec8-d5c4-409e-8085-9b9e2f3c7c80","system_id":"levelo_inurba_marseille","lat":43.297946,"lon":5.404063,"is_reserved":false,"is_disabled":false,"rental_uris":{"android":"levelo://app?vid=19213ec8-d5c4-409e-8085-9b9e2f3c7c80","ios":"levelo://app?vid=19213ec8-d5c4-409e-8085-9b9e2f3c7c80"},"vehicle_type_id":"4","last_reported":1698862125,"current_range_meters":11200,"station_id":"ce4bh112rcd13ifvqd90","pricing_plan_id":"free"},{"bike_id":"12f96225-3631-4ac5-b43a-72c10b7ee13f","system_id":"levelo_inurba_marseille","lat":43.297946,"lon":5.404063,"is_reserved":false,"is_disabled":false,"rental_uris":{"android":"levelo://app?vid=12f96225-3631-4ac5-b43a-72c10b7ee13f","ios":"levelo://app?vid=12f96225-3631-4ac5-b43a-72c10b7ee13f"},"vehicle_type_id":"4","last_reported":1698862125,"current_range_meters":17600,"station_id":"ce4bh112rcd13ifvqd90","pricing_plan_id":"free"},{"bike_id":"2f666bbb-190f-4291-ade2-95e2c0cfd815","system_id":"levelo_inurba_marseille","lat":43.325281,"lon":5.405683,"is_reserved":false,"is_disabled":false,"rental_uris":{"android":"levelo://app?vid=2f666bbb-190f-4291-ade2-95e2c0cfd815","ios":"levelo://app?vid=2f666bbb-190f-4291-ade2-95e2c0cfd815"},"vehicle_type_id":"4","last_reported":1698862125,"current_range_meters":2000,"station_id":"","pricing_plan_id":"free"},{"bike_id":"2318753d-474e-471d-a486-bdb6798da776","system_id":"levelo_inurba_marseille","lat":43.28727,"lon":5.36078,"is_reserved":false,"is_disabled":false,"rental_uris":{"android":"levelo://app?vid=2318753d-474e-471d-a486-bdb6798da776","ios":"levelo://app?vid=2318753d-474e-471d-a486-bdb6798da776"},"vehicle_type_id":"4","last_reported":1698862125,"current_range_meters":16400,"station_id":"cki0cbj6b192h4jlfktg","pricing_plan_id":"free"},{"bike_id":"7aa585b3-44ce-4e93-876e-57ea17aeb0e3","system_id":"levelo_inurba_marseille","lat":43.283498,"lon":5.380948,"is_reserved":false,"is_disabled":false,"rental_uris":{"android":"levelo://app?vid=7aa585b3-44ce-4e93-876e-57ea17aeb0e3","ios":"levelo://app?vid=7aa585b3-44ce-4e93-876e-57ea17aeb0e3"},"vehicle_type_id":"4","last_reported":1698862125,"current_range_meters":20400,"station_id":"ce4bh412rcd13ifvqdr0","pricing_plan_id":"free"},{"bike_id":"14c47446-aefe-4f74-995e-65c22fab9626","system_id":"levelo_inurba_marseille","lat":43.28933,"lon":5.39627,"is_reserved":false,"is_disabled":false,"rental_uris":{"android":"levelo://app?vid=14c47446-aefe-4f74-995e-65c22fab9626","ios":"levelo://app?vid=14c47446-aefe-4f74-995e-65c22fab9626"},"vehicle_type_id":"4","last_reported":1698862125,"current_range_meters":31200,"station_id":"ce4bh3h2rcd13ifvqdn0","pricing_plan_id":"free"},{"bike_id":"049c4d42-658f-40b8-910a-18b75d942bea","system_id":"levelo_inurba_marseille","lat":43.292724,"lon":5.401131,"is_reserved":false,"is_disabled":false,"rental_uris":{"android":"levelo://app?vid=049c4d42-658f-40b8-910a-18b75d942bea","ios":"levelo://app?vid=049c4d42-658f-40b8-910a-18b75d942bea"},"vehicle_type_id":"4","last_reported":1698862125,"current_range_meters":12000,"station_id":"ce4bh312rcd13ifvqdk0","pricing_plan_id":"free"},{"bike_id":"70a0143e-1f35-44bd-8630-b360133c5fd1","system_id":"levelo_inurba_marseille","lat":43.282744,"lon":5.350533,"is_reserved":false,"is_disabled":false,"rental_uris":{"android":"levelo://app?vid=70a0143e-1f35-44bd-8630-b360133c5fd1","ios":"levelo://app?vid=70a0143e-1f35-44bd-8630-b360133c5fd1"},"vehicle_type_id":"4","last_reported":1698862125,"current_range_meters":13200,"station_id":"ce4bhbp2rcd13ifvqerg","pricing_plan_id":"free"},{"bike_id":"924d7d01-0120-4c47-998f-8b3d7f96b767","system_id":"levelo_inurba_marseille","lat":43.282744,"lon":5.350533,"is_reserved":false,"is_disabled":false,"rental_uris":{"android":"levelo://app?vid=924d7d01-0120-4c47-998f-8b3d7f96b767","ios":"levelo://app?vid=924d7d01-0120-4c47-998f-8b3d7f96b767"},"vehicle_type_id":"4","last_reported":1698862125,"current_range_meters":13200,"station_id":"ce4bhbp2rcd13ifvqerg","pricing_plan_id":"free"},{"bike_id":"b2c4dbee-2042-496d-9f56-e9f1e64ec28f","system_id":"levelo_inurba_marseille","lat":43.2826,"lon":5.35068,"is_reserved":false,"is_disabled":false,"rental_uris":{"android":"levelo://app?vid=b2c4dbee-2042-496d-9f56-e9f1e64ec28f","ios":"levelo://app?vid=b2c4dbee-2042-496d-9f56-e9f1e64ec28f"},"vehicle_type_id":"4","last_reported":1698862125,"current_range_meters":29600,"station_id":"ce4bhbp2rcd13ifvqerg","pricing_plan_id":"free"},{"bike_id":"53a3d42e-b9f4-466f-88f6-00114300b3a3","system_id":"levelo_inurba_marseille","lat":43.28039,"lon":5.36939,"is_reserved":false,"is_disabled":false,"rental_uris":{"android":"levelo://app?vid=53a3d42e-b9f4-466f-88f6-00114300b3a3","ios":"levelo://app?vid=53a3d42e-b9f4-466f-88f6-00114300b3a3"},"vehicle_type_id":"4","last_reported":1698862125,"current_range_meters":19600,"station_id":"ce4bha12rcd13ifvqef0","pricing_plan_id":"free"},{"bike_id":"ad764aea-2d0a-4689-8f99-5a07f44b1244","system_id":"levelo_inurba_marseille","lat":43.280382,"lon":5.369291,"is_reserved":false,"is_disabled":false,"rental_uris":{"android":"levelo://app?vid=ad764aea-2d0a-4689-8f99-5a07f44b1244","ios":"levelo://app?vid=ad764aea-2d0a-4689-8f99-5a07f44b1244"},"vehicle_type_id":"4","last_reported":1698862125,"current_range_meters":23600,"station_id":"ce4bha12rcd13ifvqef0","pricing_plan_id":"free"},{"bike_id":"6d90e54e-549f-4796-aa12-ef650c55a3f1","system_id":"levelo_inurba_marseille","lat":43.280382,"lon":5.369291,"is_reserved":false,"is_disabled":false,"rental_uris":{"android":"levelo://app?vid=6d90e54e-549f-4796-aa12-ef650c55a3f1","ios":"levelo://app?vid=6d90e54e-549f-4796-aa12-ef650c55a3f1"},"vehicle_type_id":"4","last_reported":1698862125,"current_range_meters":31200,"station_id":"ce4bha12rcd13ifvqef0","pricing_plan_id":"free"},{"bike_id":"87da8818-9439-4faa-ae4c-3e9adebf1813","system_id":"levelo_inurba_marseille","lat":43.28039,"lon":5.369297,"is_reserved":false,"is_disabled":false,"rental_uris":{"android":"levelo://app?vid=87da8818-9439-4faa-ae4c-3e9adebf1813","ios":"levelo://app?vid=87da8818-9439-4faa-ae4c-3e9adebf1813"},"vehicle_type_id":"4","last_reported":1698862125,"current_range_meters":31200,"station_id":"ce4bha12rcd13ifvqef0","pricing_plan_id":"free"},{"bike_id":"838d8e81-c6e9-41e0-ada5-f239306cce71","system_id":"levelo_inurba_marseille","lat":43.28033,"lon":5.36944,"is_reserved":false,"is_disabled":false,"rental_uris":{"android":"levelo://app?vid=838d8e81-c6e9-41e0-ada5-f239306cce71","ios":"levelo://app?vid=838d8e81-c6e9-41e0-ada5-f239306cce71"},"vehicle_type_id":"4","last_reported":1698862125,"current_range_meters":14000,"station_id":"ce4bha12rcd13ifvqef0","pricing_plan_id":"free"},{"bike_id":"4849935e-d320-49c5-9fc8-2fce6dab09e3","system_id":"levelo_inurba_marseille","lat":43.28031,"lon":5.36941,"is_reserved":false,"is_disabled":false,"rental_uris":{"android":"levelo://app?vid=4849935e-d320-49c5-9fc8-2fce6dab09e3","ios":"levelo://app?vid=4849935e-d320-49c5-9fc8-2fce6dab09e3"},"vehicle_type_id":"4","last_reported":1698862125,"current_range_meters":12800,"station_id":"ce4bha12rcd13ifvqef0","pricing_plan_id":"free"},