{"last_updated":1756307458,"ttl":60,"version":"2.2","data":{"bikes":[{"bike_id":"236f1a17-bd84-4b8e-977f-7df7d8cf402c","system_id":"levelo_inurba_marseille","lat":43.30797,"lon":5.435228,"is_reserved":false,"is_disabled":true,"rental_uris":{"android":"levelo://app?vid=236f1a17-bd84-4b8e-977f-7df7d8cf402c","ios":"levelo://app?vid=236f1a17-bd84-4b8e-977f-7df7d8cf402c"},"vehicle_type_id":"4","last_reported":1756307458,"current_range_meters":2800,"station_id":"ce4bhph2rcd13ifvqheg","pricing_plan_id":"cebpf4jnsgd1na2vs0mg"},{"bike_id":"217a5ffd-1098-4e3f-bca4-afdeffff4bab","system_id":"levelo_inurba_marseille","lat":43.292667,"lon":5.408957,"is_reserved":false,"is_disabled":false,"rental_uris":{"android":"levelo://app?vid=217a5ffd-1098-4e3f-bca4-afdeffff4bab","ios":"levelo://app?vid=217a5ffd-1098-4e3f-bca4-afdeffff4bab"},"vehicle_type_id":"4","last_reported":1756307458,"current_range_meters":2800,"station_id":"ce4bh192rcd13ifvqdc0","pricing_plan_id":"cebpf4jnsgd1na2vs0mg"},{"bike_id":"5a7793d3-4a4b-4114-8317-bac6a8d216f8","system_id":"levelo_inurba_marseille","lat":43.29019,"lon":5.38636,"is_reserved":false,"is_disabled":false,"rental_uris":{"android":"levelo://app?vid=5a7793d3-4a4b-4114-8317-bac6a8d216f8","ios":"levelo://app?vid=5a7793d3-4a4b-4114-8317-bac6a8d216f8"},"vehicle_type_id":"4","last_reported":1756307458,"current_range_meters":2800,"station_id":"ce4bh4p2rcd13ifvqe0g","pricing_plan_id":"cebpf4jnsgd1na2vs0mg"},{"bike_id":"5952d60e-eda6-4650-aad4-6376002e4cf6","system_id":"levelo_inurba_marseille","lat":43.32108,"lon":5.36781,"is_reserved":false,"is_disabled":false,"rental_uris":{"android":"levelo://app?vid=5952d60e-eda6-4650-aad4-6376002e4cf6","ios":"levelo://app?vid=5952d60e-eda6-4650-aad4-6376002e4cf6"},"vehicle_type_id":"4","last_reported":1756307458,"current_range_meters":2800,"station_id":"ce4bhrh2rcd13ifvqhug","pricing_plan_id":"cebpf4jnsgd1na2vs0mg"},{"bike_id":"e82bf6a0-1ed9-46e2-972b-dcf75baf8100","system_id":"levelo_inurba_marseille","lat":43.26885,"lon":5.36852,"is_reserved":false,"is_disabled":false,"rental_uris":{"android":"levelo://app?vid=e82bf6a0-1ed9-46e2-972b-dcf75baf8100","ios":"levelo://app?vid=e82bf6a0-1ed9-46e2-972b-dcf75baf8100"},"vehicle_type_id":"4","last_reported":1756307458,"current_range_meters":3600,"station_id":"","pricing_plan_id":"cebpf4jnsgd1na2vs0mg"},{"bike_id":"f6bd5b86-eb54-487c-8a4e-3da908b177ef","system_id":"levelo_inurba_marseille","lat":43.29743,"lon":5.37123,"is_reserved":false,"is_disabled":false,"rental_uris":{"android":"levelo://app?vid=f6bd5b86-eb54-487c-8a4e-3da908b177ef","ios":"levelo://app?vid=f6bd5b86-eb54-487c-8a4e-3da908b177ef"},"vehicle_type_id":"4","last_reported":1756307458,"current_range_meters":3200,"station_id":"ce4bgop2rcd13ifvqc1g","pricing_plan_id":"cebpf4jnsgd1na2vs0mg"},{"bike_id":"47c31cb9-1e97-4717-854b-50e432efc1af","system_id":"levelo_inurba_marseille","lat":43.30205,"lon":5.39464,"is_reserved":false,"is_disabled":false,"rental_uris":{"android":"levelo://app?vid=47c31cb9-1e97-4717-854b-50e432efc1af","ios":"levelo://app?vid=47c31cb9-1e97-4717-854b-50e432efc1af"},"vehicle_type_id":"4","last_reported":1756307458,"current_range_meters":2800,"station_id":"ce4bh0p2rcd13ifvqd70","pricing_plan_id":"cebpf4jnsgd1na2vs0mg"},{"bike_id":"03be758f-3e6d-4c72-8876-95a4359600d6","system_id":"levelo_inurba_marseille","lat":43.33761,"lon":5.37495,"is_reserved":false,"is_disabled":false,"rental_uris":{"android":"levelo://app?vid=03be758f-3e6d-4c72-8876-95a4359600d6","ios":"levelo://app?vid=03be758f-3e6d-4c72-8876-95a4359600d6"},"vehicle_type_id":"4","last_reported":1756307458,"current_range_meters":3200,"station_id":"","pricing_plan_id":"cebpf4jnsgd1na2vs0mg"},{"bike_id":"121bba5a-a89e-42d2-9e34-16c6a9949200","system_id":"levelo_inurba_marseille","lat":43.26957,"lon":5.38631,"is_reserved":false,"is_disabled":false,"rental_uris":{"android":"levelo://app?vid=121bba5a-a89e-42d2-9e34-16c6a9949200","ios":"levelo://app?vid=121bba5a-a89e-42d2-9e34-16c6a9949200"},"vehicle_type_id":"4","last_reported":1756307458,"current_range_meters":3200,"station_id":"ce4bhh92rcd13ifvqfh0","pricing_plan_id":"cebpf4jnsgd1na2vs0mg"},{"bike_id":"cdc16155-3ebb-4553-b06b-132f84b604f9","system_id":"levelo_inurba_marseille","lat":43.28397,"lon":5.37518,"is_reserved":false,"is_disabled":false,"rental_uris":{"android":"levelo://app?vid=cdc16155-3ebb-4553-b06b-132f84b604f9","ios":"levelo://app?vid=cdc16155-3ebb-4553-b06b-132f84b604f9"},"vehicle_type_id":"4","last_reported":1756307458,"current_range_meters":3600,"station_id":"ce4bh412rcd13ifvqds0","pricing_plan_id":"cebpf4jnsgd1na2vs0mg"},{"bike_id":"70d49569-971e-452b-a39f-6c78dc5cee4f","system_id":"levelo_inurba_marseille","lat":43.31759,"lon":5.39012,"is_reserved":false,"is_disabled":false,"rental_uris":{"android":"levelo://app?vid=70d49569-971e-452b-a39f-6c78dc5cee4f","ios":"levelo://app?vid=70d49569-971e-452b-a39f-6c78dc5cee4f"},"vehicle_type_id":"4","last_reported":1756307458,"current_range_meters":3600,"station_id":"ce4bhqp2rcd13ifvqhng","pricing_plan_id":"cebpf4jnsgd1na2vs0mg"},{"bike_id":"08ab2678-03b5-4eff-8eba-4566bfec7cb4","system_id":"levelo_inurba_marseille","lat":43.29576,"lon":5.37511,"is_reserved":false,"is_disabled":false,"rental_uris":{"android":"levelo://app?vid=08ab2678-03b5-4eff-8eba-4566bfec7cb4","ios":"levelo://app?vid=08ab2678-03b5-4eff-8eba-4566bfec7cb4"},"vehicle_type_id":"4","last_reported":1756307458,"current_range_meters":4000,"station_id":"ce4bgh92rcd13ifvqb50","pricing_plan_id":"cebpf4jnsgd1na2vs0mg"},{"bike_id":"f72ddfdd-8960-4bd0-9028-9e7d12560eb1","system_id":"levelo_inurba_marseille","lat":43.305991,"lon":5.372247,"is_reserved":false,"is_disabled":false,"rental_uris":{"android":"levelo://app?vid=f72ddfdd-8960-4bd0-9028-9e7d12560eb1","ios":"levelo://app?vid=f72ddfdd-8960-4bd0-9028-9e7d12560eb1"},"vehicle_type_id":"4","last_reported":1756307458,"current_range_meters":4000,"station_id":"ce4bgqh2rcd13ifvqc4g","pricing_plan_id":"cebpf4jnsgd1na2vs0mg"},{"bike_id":"3eac56bc-d8c1-4e8f-8ad1-b1a56b2344fe","system_id":"levelo_inurba_marseille","lat":43.29234,"lon":5.3606,"is_reserved":false,"is_disabled":false,"rental_uris":{"android":"levelo://app?vid=3eac56bc-d8c1-4e8f-8ad1-b1a56b2344fe","ios":"levelo://app?vid=3eac56bc-d8c1-4e8f-8ad1-b1a56b2344fe"},"vehicle_type_id":"4","last_reported":1756307458,"current_range_meters":1600,"station_id":"ce4bhbh2rcd13ifvqeqg","pricing_plan_id":"cebpf4jnsgd1na2vs0mg"},{"bike_id":"b46639d3-0e19-46be-a590-754abfdbb7c9","system_id":"levelo_inurba_marseille","lat":43.295337,"lon":5.38546,"is_reserved":false,"is_disabled":true,"rental_uris":{"android":"levelo://app?vid=b46639d3-0e19-46be-a590-754abfdbb7c9","ios":"levelo://app?vid=b46639d3-0e19-46be-a590-754abfdbb7c9"},"vehicle_type_id":"4","last_reported":1756307458,"current_range_meters":4400,"station_id":"ce4bgih2rcd13ifvqba0","pricing_plan_id":"cebpf4jnsgd1na2vs0mg"},{"bike_id":"1f865916-94c2-4eb6-9ab9-6b42ea1a26b8","system_id":"levelo_inurba_marseille","lat":43.27995,"lon":5.40013,"is_reserved":false,"is_disabled":false,"rental_uris":{"android":"levelo://app?vid=1f865916-94c2-4eb6-9ab9-6b42ea1a26b8","ios":"levelo://app?vid=1f865916-94c2-4eb6-9ab9-6b42ea1a26b8"},"vehicle_type_id":"4","last_reported":1756307458,"current_range_meters":4800,"station_id":"ce4bho92rcd13ifvqh4g","pricing_plan_id":"cebpf4jnsgd1na2vs0mg"},{"bike_id":"791279b8-9161-4849-807e-df9fbb4db423","system_id":"levelo_inurba_marseille","lat":43.32106,"lon":5.36771,"is_reserved":false,"is_disabled":false,"rental_uris":{"android":"levelo://app?vid=791279b8-9161-4849-807e-df9fbb4db423","ios":"levelo://app?vid=791279b8-9161-4849-807e-df9fbb4db423"},"vehicle_type_id":"4","last_reported":1756307458,"current_range_meters":4800,"station_id":"ce4bhrh2rcd13ifvqhug","pricing_plan_id":"cebpf4jnsgd1na2vs0mg"},{"bike_id":"7a20c53a-d8fc-4397-8e33-e2c69a670fb4","system_id":"levelo_inurba_marseille","lat":43.29254,"lon":5.40902,"is_reserved":false,"is_disabled":false,"rental_uris":{"android":"levelo://app?vid=7a20c53a-d8fc-4397-8e33-e2c69a670fb4","ios":"levelo://app?vid=7a20c53a-d8fc-4397-8e33-e2c69a670fb4"},"vehicle_type_id":"4","last_reported":1756307458,"current_range_meters":4800,"station_id":"ce4bh192rcd13ifvqdc0","pricing_plan_id":"cebpf4jnsgd1na2vs0mg"},{"bike_id":"2f4e8b28-6095-4b3f-ae0a-f9f0c872541a","system_id":"levelo_inurba_marseille","lat":43.29035,"lon":5.37571,"is_reserved":false,"is_disabled":false,"rental_uris":{"android":"levelo://app?vid=2f4e8b28-6095-4b3f-ae0a-f9f0c872541a","ios":"levelo://app?vid=2f4e8b28-6095-4b3f-ae0a-f9f0c872541a"},"vehicle_type_id":"4","last_reported":1756307458,"current_range_meters":5600,"station_id":"ce4bh692rcd13ifvqe90","pricing_plan_id":"cebpf4jnsgd1na2vs0mg"},{"bike_id":"3add44d8-49b4-46c3-a778-11b696c2bd26","system_id":"levelo_inurba_marseille","lat":43.21207,"lon":5.35042,"is_reserved":false,"is_disabled":false,"rental_uris":{"android":"levelo://app?vid=3add44d8-49b4-46c3-a778-11b696c2bd26","ios":"levelo://app?vid=3add44d8-49b4-46c3-a778-11b696c2bd26"},"vehicle_type_id":"4","last_reported":1756307458,"current_range_meters":5600,"station_id":"st_cvj6sg6p6f1abm77japg","pricing_plan_id":"cebpf4jnsgd1na2vs0mg"},{"bike_id":"f38e18ed-4189-402b-ac9a-f19201406f39","system_id":"levelo_inurba_marseille","lat":43.27559,"lon":5.38397,"is_reserved":false,"is_disabled":false,"rental_uris":{"android":"levelo://app?vid=f38e18ed-4189-402b-ac9a-f19201406f39","ios":"levelo://app?vid=f38e18ed-4189-402b-ac9a-f19201406f39"},"vehicle_type_id":"4","last_reported":1756307458,"current_range_meters":6000,"station_id":"ce4bhh92rcd13ifvqfi0","pricing_plan_id":"cebpf4jnsgd1na2vs0mg"},{"bike_id":"cae9e503-97b9-421a-a2dd-4058a984c08e","system_id":"levelo_inurba_marseille","lat":43.21761,"lon":5.34597,"is_reserved":false,"is_disabled":false,"rental_uris":{"android":"levelo://app?vid=cae9e503-97b9-421a-a2dd-4058a984c08e","ios":"levelo://app?vid=cae9e503-97b9-421a-a2dd-4058a984c08e"},"vehicle_type_id":"4","last_reported":1756307458,"current_range_meters":6000,"station_id":"st_cvj6r9ubvosntc0bgbag","pricing_plan_id":"cebpf4jnsgd1na2vs0mg"},{"bike_id":"edc4c588-4db1-4b48-bddb-0eba1d72ba9f","system_id":"levelo_inurba_marseille","lat":43.2119,"lon":5.35072,"is_reserved":false,"is_disabled":false,"rental_uris":{"android":"levelo://app?vid=edc4c588-4db1-4b48-bddb-0eba1d72ba9f","ios":"levelo://app?vid=edc4c588-4db1-4b48-bddb-0eba1d72ba9f"},"vehicle_type_id":"4","last_reported":1756307458,"current_range_meters":6000,"station_id":"st_cvj6sg6p6f1abm77japg","pricing_plan_id":"cebpf4jnsgd1na2vs0mg"},{"bike_id":"595d5e35-f81a-4776-ac35-73bfb6897d1a","system_id":"levelo_inurba_marseille","lat":43.31534,"lon":5.38033,"is_reserved":false,"is_disabled":false,"rental_uris":{"android":"levelo://app?vid=595d5e35-f81a-4776-ac35-73bfb6897d1a","ios":"levelo://app?vid=595d5e35-f81a-4776-ac35-73bfb6897d1a"},"vehicle_type_id":"4","last_reported":1756307458,"current_range_meters":6000,"station_id":"ce4bhsp2rcd13ifvqi50","pricing_plan_id":"cebpf4jnsgd1na2vs0mg"},{"bike_id":"3acb746e-7b8d-4544-a397-92a762de22fd","system_id":"levelo_inurba_marseille","lat":43.27177,"lon":5.40991,"is_reserved":false,"is_disabled":false,"rental_uris":{"android":"levelo://app?vid=3acb746e-7b8d-4544-a397-92a762de22fd","ios":"levelo://app?vid=3acb746e-7b8d-4544-a397-92a762de22fd"},"vehicle_type_id":"4","last_reported":1756307458,"current_range_meters":6000,"station_id":"ce4bhl12rcd13ifvqgf0","pricing_plan_id":"cebpf4jnsgd1na2vs0mg"},{"bike_id":"2915d694-34cc-4112-b189-6ed4586eed8c","system_id":"levelo_inurba_marseille","lat":43.24176,"lon":5.36405,"is_reserved":false,"is_disabled":false,"rental_uris":{"android":"levelo://app?vid=2915d694-34cc-4112-b189-6ed4586eed8c","ios":"levelo://app?vid=2915d694-34cc-4112-b189-6ed4586eed8c"},"vehicle_type_id":"4","last_reported":1756307458,"current_range_meters":6400,"station_id":"cpo36qri1sfpv3e86is0","pricing_plan_id":"cebpf4jnsgd1na2vs0mg"},{"bike_id":"95d2e177-6c6c-4608-b1f1-ff651bf795ca","system_id":"levelo_inurba_marseille","lat":43.26551,"lon":5.37292,"is_reserved":false,"is_disabled":true,"rental_uris":{"android":"levelo://app?vid=95d2e177-6c6c-4608-b1f1-ff651bf795ca","ios":"levelo://app?vid=95d2e177-6c6c-4608-b1f1-ff651bf795ca"},"vehicle_type_id":"4","last_reported":1756307458,"current_range_meters":6400,"station_id":"ce4bhg12rcd13ifvqf70","pricing_plan_id":"cebpf4jnsgd1na2vs0mg"},{"bike_id":"9eddc19c-4d66-4671-81a8-5ffa7a68db07","system_id":"levelo_inurba_marseille","lat":43.21185,"lon":5.35076,"is_reserved":false,"is_disabled":false,"rental_uris":{"android":"levelo://app?vid=9eddc19c-4d66-4671-81a8-5ffa7a68db07","ios":"levelo://app?vid=9eddc19c-4d66-4671-81a8-5ffa7a68db07"},"vehicle_type_id":"4","last_reported":1756307458,"current_range_meters":6400,"station_id":"st_cvj6sg6p6f1abm77japg","pricing_plan_id":"cebpf4jnsgd1na2vs0mg"},{"bike_id":"7d6d2371-795d-4d3d-877d-43fc9f6a237c","system_id":"levelo_inurba_marseille","lat":43.2953,"lon":5.38551,"is_reserved":false,"is_disabled":false,"rental_uris":{"android":"levelo://app?vid=7d6d2371-795d-4d3d-877d-43fc9f6a237c","ios":"levelo://app?vid=7d6d2371-795d-4d3d-877d-43fc9f6a237c"},"vehicle_type_id":"4","last_reported":1756307458,"current_range_meters":6800,"station_id":"ce4bgih2rcd13ifvqba0","pricing_plan_id":"cebpf4jnsgd1na2vs0mg"},{"bike_id":"d2ea3b4e-d4f4-41ba-86de-e383d52e7f57","system_id":"levelo_inurba_marseille","lat":43.28267,"lon":5.35064,"is_reserved":false,"is_disabled":false,"rental_uris":{"android":"levelo://app?vid=d2ea3b4e-d4f4-41ba-86de-e383d52e7f57","ios":"levelo://app?vid=d2ea3b4e-d4f4-41ba-86de-e383d52e7f57"},"vehicle_type_id":"4","last_reported":1756307458,"current_range_meters":6800,"station_id":"ce4bhbp2rcd13ifvqerg","pricing_plan_id":"cebpf4jnsgd1na2vs0mg"},{"bike_id":"c81a38d7-fa70-4fc4-a73c-deff8e03d779","system_id":"levelo_inurba_marseille","lat":43.30304,"lon":5.392042,"is_reserved":false,"is_disabled":false,"rental_uris":{"android":"levelo://app?vid=c81a38d7-fa70-4fc4-a73c-deff8e03d779","ios":"levelo://app?vid=c81a38d7-fa70-4fc4-a73c-deff8e03d779"},"vehicle_type_id":"4","last_reported":1756307458,"current_range_meters":6800,"station_id":"ce4bgkh2rcd13ifvqbk0","pricing_plan_id":"cebpf4jnsgd1na2vs0mg"},{"bike_id":"2732b203-8d34-41ae-80bd-b4f151d77aad","system_id":"levelo_inurba_marseille","lat":43.30248,"lon":5.40538,"is_reserved":false,"is_disabled":false,"rental_uris":{"android":"levelo://app?vid=2732b203-8d34-41ae-80bd-b4f151d77aad","ios":"levelo://app?vid=2732b203-8d34-41ae-80bd-b4f151d77aad"},"vehicle_type_id":"4","last_reported":1756307458,"current_range_meters":7200,"station_id":"","pricing_plan_id":"cebpf4jnsgd1na2vs0mg"},{"bike_id":"41d649be-ebec-4c0c-905c-b9cdcb5521f9","system_id":"levelo_inurba_marseille","lat":43.31468,"lon":5.37272,"is_reserved":false,"is_disabled":false,"rental_uris":{"android":"levelo://app?vid=41d649be-ebec-4c0c-905c-b9cdcb5521f9","ios":"levelo://app?vid=41d649be-ebec-4c0c-905c-b9cdcb5521f9"},"vehicle_type_id":"4","last_reported":1756307458,"current_range_meters":7200,"station_id":"ce4bgt12rcd13ifvqcd0","pricing_plan_id":"cebpf4jnsgd1na2vs0mg"},{"bike_id":"fd3264d9-d6d9-41c6-bdae-fe1f328ad6ea","system_id":"levelo_inurba_marseille","lat":43.274215,"lon":5.394227,"is_reserved":false,"is_disabled":false,"rental_uris":{"android":"levelo://app?vid=fd3264d9-d6d9-41c6-bdae-fe1f328ad6ea","ios":"levelo://app?vid=fd3264d9-d6d9-41c6-bdae-fe1f328ad6ea"},"vehicle_type_id":"4","last_reported":1756307458,"current_range_meters":7200,"station_id":"ce4bhdp2rcd13ifvqf20","pricing_plan_id":"cebpf4jnsgd1na2vs0mg"},{"bike_id":"8994e1f8-a036-45eb-b480-c72ea1ba4c36","system_id":"levelo_inurba_marseille","lat":43.27419,"lon":5.39388,"is_reserved":false,"is_disabled":false,"rental_uris":{"android":"levelo://app?vid=8994e1f8-a036-45eb-b480-c72ea1ba4c36","ios":"levelo://app?vid=8994e1f8-a036-45eb-b480-c72ea1ba4c36"},"vehicle_type_id":"4","last_reported":1756307458,"current_range_meters":7200,"station_id":"ce4bhdp2rcd13ifvqf20","pricing_plan_id":"cebpf4jnsgd1na2vs0mg"},{"bike_id":"3235a8e4-0285-41ed-a073-4267b3ce62ac","system_id":"levelo_inurba_marseille","lat":43.27072,"lon":5.42283,"is_reserved":false,"is_disabled":false,"rental_uris":{"android":"levelo://app?vid=3235a8e4-0285-41ed-a073-4267b3ce62ac","ios":"levelo://app?vid=3235a8e4-0285-41ed-a073-4267b3ce62ac"},"vehicle_type_id":"4","last_reported":1756307458,"current_range_meters":8000,"station_id":"ce4bhk92rcd13ifvqgb0","pricing_plan_id":"cebpf4jnsgd1na2vs0mg"},{"bike_id":"e58ac187-acf2-469f-a4a9-acd3f4c5158e","system_id":"levelo_inurba_marseille","lat":43.28266,"lon":5.35057,"is_reserved":false,"is_disabled":false,"rental_uris":{"android":"levelo://app?vid=e58ac187-acf2-469f-a4a9-acd3f4c5158e","ios":"levelo://app?vid=e58ac187-acf2-469f-a4a9-acd3f4c5158e"},"vehicle_type_id":"4","last_reported":1756307458,"current_range_meters":8000,"station_id":"ce4bhbp2rcd13ifvqerg","pricing_plan_id":"cebpf4jnsgd1na2vs0mg"},{"bike_id":"0d502687-08ef-4491-8893-8a03d8688be8","system_id":"levelo_inurba_marseille","lat":43.29636,"lon":5.361,"is_reserved":false,"is_disabled":false,"rental_uris":{"android":"levelo://app?vid=0d502687-08ef-4491-8893-8a03d8688be8","ios":"levelo://app?vid=0d502687-08ef-4491-8893-8a03d8688be8"},"vehicle_type_id":"4","last_reported":1756307458,"current_range_meters":8000,"station_id":"","pricing_plan_id":"cebpf4jnsgd1na2vs0mg"},{"bike_id":"adf2858a-f6b9-45fb-b2e7-8d1012726fd7","system_id":"levelo_inurba_marseille","lat":43.2176,"lon":5.34578,"is_reserved":false,"is_disabled":false,"rental_uris":{"android":"levelo://app?vid=adf2858a-f6b9-45fb-b2e7-8d1012726fd7","ios":"levelo://app?vid=adf2858a-f6b9-45fb-b2e7-8d1012726fd7"},"vehicle_type_id":"4","last_reported":1756307458,"current_range_meters":8000,"station_id":"","pricing_plan_id":"cebpf4jnsgd1na2vs0mg"},{"bike_id":"b4355a8b-6620-41c5-aaa4-2b969fb59e8f","system_id":"levelo_inurba_marseille","lat":43.26184,"lon":5.37437,"is_reserved":false,"is_disabled":true,"rental_uris":{"android":"levelo://app?vid=b4355a8b-6620-41c5-aaa4-2b969fb59e8f","ios":"levelo://app?vid=b4355a8b-6620-41c5-aaa4-2b969fb59e8f"},"vehicle_type_id":"4","last_reported":1756307458,"current_range_meters":8000,"station_id":"ce4bhgp2rcd13ifvqfc0","pricing_plan_id":"cebpf4jnsgd1na2vs0mg"},{"bike_id":"5bd97bf2-681a-44b8-9da4-6a386f7ab9cc","system_id":"levelo_inurba_marseille","lat":43.28,"lon":5.4001,"is_reserved":false,"is_disabled":false,"rental_uris":{"android":"levelo://app?vid=5bd97bf2-681a-44b8-9da4-6a386f7ab9cc","ios":"levelo://app?vid=5bd97bf2-681a-44b8-9da4-6a386f7ab9cc"},"vehicle_type_id":"4","last_reported":1756307458,"current_range_meters":8000,"station_id":"ce4bho92rcd13ifvqh4g","pricing_plan_id":"cebpf4jnsgd1na2vs0mg"},{"bike_id":"b70678e7-8078-4bc7-b563-6ff92f59e289","system_id":"levelo_inurba_marseille","lat":43.31426,"lon":5.37323,"is_reserved":false,"is_disabled":false,"rental_uris":{"android":"levelo://app?vid=b70678e7-8078-4bc7-b563-6ff92f59e289","ios":"levelo://app?vid=b70678e7-8078-4bc7-b563-6ff92f59e289"},"vehicle_type_id":"4","last_reported":1756307458,"current_range_meters":8400,"station_id":"","pricing_plan_id":"cebpf4jnsgd1na2vs0mg"},{"bike_id":"77857df5-b615-45ce-b15b-429026e3795d","system_id":"levelo_inurba_marseille","lat":43.299658,"lon":5.40086,"is_reserved":false,"is_disabled":false,"rental_uris":{"android":"levelo://app?vid=77857df5-b615-45ce-b15b-429026e3795d","ios":"levelo://app?vid=77857df5-b615-45ce-b15b-429026e3795d"},"vehicle_type_id":"4","last_reported":1756307458,"current_range_meters":8400,"station_id":"ce4bh0h2rcd13ifvqd40","pricing_plan_id":"cebpf4jnsgd1na2vs0mg"},{"bike_id":"62a2e4a3-34e8-4936-ba8c-9d719ba46973","system_id":"levelo_inurba_marseille","lat":43.273273,"lon":5.391006,"is_reserved":false,"is_disabled":true,"rental_uris":{"android":"levelo://app?vid=62a2e4a3-34e8-4936-ba8c-9d719ba46973","ios":"levelo://app?vid=62a2e4a3-34e8-4936-ba8c-9d719ba46973"},"vehicle_type_id":"4","last_reported":1756307458,"current_range_meters":8400,"station_id":"ce4bhgp2rcd13ifvqfe0","pricing_plan_id":"cebpf4jnsgd1na2vs0mg"},{"bike_id":"7ceff262-46d1-4512-b0b4-5a4eae167167","system_id":"levelo_inurba_marseille","lat":43.305747,"lon":5.367325,"is_reserved":false,"is_disabled":false,"rental_uris":{"android":"levelo://app?vid=7ceff262-46d1-4512-b0b4-5a4eae167167","ios":"levelo://app?vid=7ceff262-46d1-4512-b0b4-5a4eae167167"},"vehicle_type_id":"4","last_reported":1756307458,"current_range_meters":8400,"station_id":"ce4bgrp2rcd13ifvqc9g","pricing_plan_id":"cebpf4jnsgd1na2vs0mg"},{"bike_id":"69a01144-4cb0-4f43-b8a7-d8bba1210d75","system_id":"levelo_inurba_marseille","lat":43.315781,"lon":5.374529,"is_reserved":false,"is_disabled":false,"rental_uris":{"android":"levelo://app?vid=69a01144-4cb0-4f43-b8a7-d8bba1210d75","ios":"levelo://app?vid=69a01144-4cb0-4f43-b8a7-d8bba1210d75"},"vehicle_type_id":"4","last_reported":1756307458,"current_range_meters":8400,"station_id":"","pricing_plan_id":"cebpf4jnsgd1na2vs0mg"},{"bike_id":"0f2017f4-e5c1-46a2-a7d8-e957ce265a72","system_id":"levelo_inurba_marseille","lat":43.23607,"lon":5.36169,"is_reserved":false,"is_disabled":false,"rental_uris":{"android":"levelo://app?vid=0f2017f4-e5c1-46a2-a7d8-e957ce265a72","ios":"levelo://app?vid=0f2017f4-e5c1-46a2-a7d8-e957ce265a72"},"vehicle_type_id":"4","last_reported":1756307458,"current_range_meters":8800,"station_id":"","pricing_plan_id":"cebpf4jnsgd1na2vs0mg"},{"bike_id":"51842e17-ef10-4624-a23e-c8a182427991","system_id":"levelo_inurba_marseille","lat":43.31628,"lon":5.38191,"is_reserved":false,"is_disabled":false,"rental_uris":{"android":"levelo://app?vid=51842e17-ef10-4624-a23e-c8a182427991","ios":"levelo://app?vid=51842e17-ef10-4624-a23e-c8a182427991"},"vehicle_type_id":"4","last_reported":1756307458,"current_range_meters":8800,"station_id":"","pricing_plan_id":"cebpf4jnsgd1na2vs0mg"},{"bike_id":"4f563ae6-fbe8-4a82-baf8-6d4bbb3bb58d","system_id":"levelo_inurba_marseille","lat":43.30534,"lon":5.36705,"is_reserved":false,"is_disabled":false,"rental_uris":{"android":"levelo://app?vid=4f563ae6-fbe8-4a82-baf8-6d4bbb3bb58d","ios":"levelo://app?vid=4f563ae6-fbe8-4a82-baf8-6d4bbb3bb58d"},"vehicle_type_id":"4","last_reported":1756307458,"current_range_meters":9200,"station_id":"ce4bgrp2rcd13ifvqc9g","pricing_plan_id":"cebpf4jnsgd1na2vs0mg"},{"bike_id":"9ae192d4-a295-47c7-bf48-bf450af8e9b3","system_id":"levelo_inurba_marseille","lat":43.28266,"lon":5.35058,"is_reserved":false,"is_disabled":false,"rental_uris":{"android":"levelo://app?vid=9ae192d4-a295-47c7-bf48-bf450af8e9b3","ios":"levelo://app?vid=9ae192d4-a295-47c7-bf48-bf450af8e9b3"},"vehicle_type_id":"4","last_reported":1756307458,"current_range_meters":9200,"station_id":"ce4bhbp2rcd13ifvqerg","pricing_plan_id":"cebpf4jnsgd1na2vs0mg"},{"bike_id":"919403d1-9d41-4322-8f42-253c1dba9d3b","system_id":"levelo_inurba_marseille","lat":43.21751,"lon":5.346,"is_reserved":false,"is_disabled":false,"rental_uris":{"android":"levelo://app?vid=919403d1-9d41-4322-8f42-253c1dba9d3b","ios":"levelo://app?vid=919403d1-9d41-4322-8f42-253c1dba9d3b"},"vehicle_type_id":"4","last_reported":1756307458,"current_range_meters":9200,"station_id":"st_cvj6r9ubvosntc0bgbag","pricing_plan_id":"cebpf4jnsgd1na2vs0mg"},{"bike_id":"23c09b6a-8163-465b-b420-f35a21f356ca","system_id":"levelo_inurba_marseille","lat":43.28867,"lon":5.39308,"is_reserved":false,"is_disabled":true,"rental_uris":{"android":"levelo://app?vid=23c09b6a-8163-465b-b420-f35a21f356ca","ios":"levelo://app?vid=23c09b6a-8163-465b-b420-f35a21f356ca"},"vehicle_type_id":"4","last_reported":1756307458,"current_range_meters":9200,"station_id":"ce4bh2p2rcd13ifvqdi0","pricing_plan_id":"cebpf4jnsgd1na2vs0mg"},{"bike_id":"39002f5b-a23e-4630-90a0-e2481b8443c4","system_id":"levelo_inurba_marseille","lat":43.25006,"lon":5.389113,"is_reserved":false,"is_disabled":true,"rental_uris":{"android":"levelo://app?vid=39002f5b-a23e-4630-90a0-e2481b8443c4","ios":"levelo://app?vid=39002f5b-a23e-4630-90a0-e2481b8443c4"},"vehicle_type_id":"4","last_reported":1756307458,"current_range_meters":9600,"station_id":"","pricing_plan_id":"cebpf4jnsgd1na2vs0mg"},{"bike_id":"00f7766a-a965-4911-b058-9fa3a24c1018","system_id":"levelo_inurba_marseille","lat":43.299026,"lon":5.436657,"is_reserved":false,"is_disabled":false,"rental_uris":{"android":"levelo://app?vid=00f7766a-a965-4911-b058-9fa3a24c1018","ios":"levelo://app?vid=00f7766a-a965-4911-b058-9fa3a24c1018"},"vehicle_type_id":"4","last_reported":1756307458,"current_range_meters":9600,"station_id":"ce4bhpp2rcd13ifvqhfg","pricing_plan_id":"cebpf4jnsgd1na2vs0mg"},{"bike_id":"c73d9183-822c-4a14-a8c1-53bf72c04baf","system_id":"levelo_inurba_marseille","lat":43.29437,"lon":5.43204,"is_reserved":false,"is_disabled":false,"rental_uris":{"android":"levelo://app?vid=c73d9183-822c-4a14-a8c1-53bf72c04baf","ios":"levelo://app?vid=c73d9183-822c-4a14-a8c1-53bf72c04baf"},"vehicle_type_id":"4","last_reported":1756307458,"current_range_meters":9600,"station_id":"","pricing_plan_id":"cebpf4jnsgd1na2vs0mg"},{"bike_id":"9cfc72ab-cc25-444d-87c4-0bac4da183fd","system_id":"levelo_inurba_marseille","lat":43.28668,"lon":5.38658,"is_reserved":false,"is_disabled":false,"rental_uris":{"android":"levelo://app?vid=9cfc72ab-cc25-444d-87c4-0bac4da183fd","ios":"levelo://app?vid=9cfc72ab-cc25-444d-87c4-0bac4da183fd"},"vehicle_type_id":"4","last_reported":1756307458,"current_range_meters":10000,"station_id":"ce4bh492rcd13ifvqdug","pricing_plan_id":"cebpf4jnsgd1na2vs0mg"},{"bike_id":"a6ef8657-5b8a-423b-993f-c3df43dec0a0","system_id":"levelo_inurba_marseille","lat":43.326998,"lon":5.392208,"is_reserved":false,"is_disabled":false,"rental_uris":{"android":"levelo://app?vid=a6ef8657-5b8a-423b-993f-c3df43dec0a0","ios":"levelo://app?vid=a6ef8657-5b8a-423b-993f-c3df43dec0a0"},"vehicle_type_id":"4","last_reported":1756307458,"current_range_meters":9600,"station_id":"","pricing_plan_id":"cebpf4jnsgd1na2vs0mg"},{"bike_id":"eb22dec0-bfff-46be-ac9e-3150673df06e","system_id":"levelo_inurba_marseille","lat":43.262113,"lon":5.374333,"is_reserved":false,"is_disabled":true,"rental_uris":{"android":"levelo://app?vid=eb22dec0-bfff-46be-ac9e-3150673df06e","ios":"levelo://app?vid=eb22dec0-bfff-46be-ac9e-3150673df06e"},"vehicle_type_id":"4","last_reported":1756307458,"current_range_meters":9600,"station_id":"ce4bhgp2rcd13ifvqfc0","pricing_plan_id":"cebpf4jnsgd1na2vs0mg"},{"bike_id":"06a3863c-8b88-49ef-8e2e-77ee33a024ff","system_id":"levelo_inurba_marseille","lat":43.24649,"lon":5.38165,"is_reserved":false,"is_disabled":false,"rental_uris":{"android":"levelo://app?vid=06a3863c-8b88-49ef-8e2e-77ee33a024ff","ios":"levelo://app?vid=06a3863c-8b88-49ef-8e2e-77ee33a024ff"},"vehicle_type_id":"4","last_reported":1756307458,"current_range_meters":9600,"station_id":"ce4bhih2rcd13ifvqfr0","pricing_plan_id":"cebpf4jnsgd1na2vs0mg"},{"bike_id":"c5bb2b69-41ed-4000-ba58-1680e55aa1fa","system_id":"levelo_inurba_marseille","lat":43.28929,"lon":5.36635,"is_reserved":false,"is_disabled":false,"rental_uris":{"android":"levelo://app?vid=c5bb2b69-41ed-4000-ba58-1680e55aa1fa","ios":"levelo://app?vid=c5bb2b69-41ed-4000-ba58-1680e55aa1fa"},"vehicle_type_id":"4","last_reported":1756307458,"current_range_meters":9600,"station_id":"ce4bhap2rcd13ifvqek0","pricing_plan_id":"cebpf4jnsgd1na2vs0mg"},{"bike_id":"9626e99f-b39b-41dc-947f-7c87eb330bb4","system_id":"levelo_inurba_marseille","lat":43.24076,"lon":5.37757,"is_reserved":false,"is_disabled":false,"rental_uris":{"android":"levelo://app?vid=9626e99f-b39b-41dc-947f-7c87eb330bb4","ios":"levelo://app?vid=9626e99f-b39b-41dc-947f-7c87eb330bb4"},"vehicle_type_id":"4","last_reported":1756307458,"current_range_meters":9600,"station_id":"ce4bhnp2rcd13ifvqgvg","pricing_plan_id":"cebpf4jnsgd1na2vs0mg"},{"bike_id":"1d7023ef-959e-48df-b075-0a4bd90cc9ae","system_id":"levelo_inurba_marseille","lat":43.27365,"lon":5.36253,"is_reserved":false,"is_disabled":true,"rental_uris":{"android":"levelo://app?vid=1d7023ef-959e-48df-b075-0a4bd90cc9ae","ios":"levelo://app?vid=1d7023ef-959e-48df-b075-0a4bd90cc9ae"},"vehicle_type_id":"4","last_reported":1756307458,"current_range_meters":10000,"station_id":"ce4bhbh2rcd13ifvqeo0","pricing_plan_id":"cebpf4jnsgd1na2vs0mg"},{"bike_id":"f5028764-de55-43f5-8b3f-454a212ed035","system_id":"levelo_inurba_marseille","lat":43.32061,"lon":5.41531,"is_reserved":false,"is_disabled":false,"rental_uris":{"android":"levelo://app?vid=f5028764-de55-43f5-8b3f-454a212ed035","ios":"levelo://app?vid=f5028764-de55-43f5-8b3f-454a212ed035"},"vehicle_type_id":"4","last_reported":1756307458,"current_range_meters":10000,"station_id":"ce4bhq92rcd13ifvqhkg","pricing_plan_id":"cebpf4jnsgd1na2vs0mg"},{"bike_id":"1546df9e-d1cb-482b-8d1f-d121540fd829","system_id":"levelo_inurba_marseille","lat":43.21187,"lon":5.35069,"is_reserved":false,"is_disabled":false,"rental_uris":{"android":"levelo://app?vid=1546df9e-d1cb-482b-8d1f-d121540fd829","ios":"levelo://app?vid=1546df9e-d1cb-482b-8d1f-d121540fd829"},"vehicle_type_id":"4","last_reported":1756307458,"current_range_meters":10000,"station_id":"st_cvj6sg6p6f1abm77japg","pricing_plan_id":"cebpf4jnsgd1na2vs0mg"},{"bike_id":"d932c61e-0563-4621-a9e4-dd4ae63879d9","system_id":"levelo_inurba_marseille","lat":43.2958,"lon":5.36746,"is_reserved":false,"is_disabled":false,"rental_uris":{"android":"levelo://app?vid=d932c61e-0563-4621-a9e4-dd4ae63879d9","ios":"levelo://app?vid=d932c61e-0563-4621-a9e4-dd4ae63879d9"},"vehicle_type_id":"4","last_reported":1756307458,"current_range_meters":10800,"station_id":"ce4bgph2rcd13ifvqc2g","pricing_plan_id":"cebpf4jnsgd1na2vs0mg"},{"bike_id":"524e5764-f633-4819-9b1d-e08eca3b69a4","system_id":"levelo_inurba_marseille","lat":43.25976,"lon":5.37472,"is_reserved":false,"is_disabled":false,"rental_uris":{"android":"levelo://app?vid=524e5764-f633-4819-9b1d-e08eca3b69a4","ios":"levelo://app?vid=524e5764-f633-4819-9b1d-e08eca3b69a4"},"vehicle_type_id":"4","last_reported":1756307458,"current_range_meters":10800,"station_id":"","pricing_plan_id":"cebpf4jnsgd1na2vs0mg"},{"bike_id":"97612e4f-ef22-440d-8309-f86f3130f029","system_id":"levelo_inurba_marseille","lat":43.29255,"lon":5.37608,"is_reserved":false,"is_disabled":false,"rental_uris":{"android":"levelo://app?vid=97612e4f-ef22-440d-8309-f86f3130f029","ios":"levelo://app?vid=97612e4f-ef22-440d-8309-f86f3130f029"},"vehicle_type_id":"4","last_reported":1756307458,"current_range_meters":10800,"station_id":"ce4bgi12rcd13ifvqb80","pricing_plan_id":"cebpf4jnsgd1na2vs0mg"},{"bike_id":"777a8c83-aed8-4881-84b6-34465956e738","system_id":"levelo_inurba_marseille","lat":43.25774,"lon":5.410549,"is_reserved":false,"is_disabled":false,"rental_uris":{"android":"levelo://app?vid=777a8c83-aed8-4881-84b6-34465956e738","ios":"levelo://app?vid=777a8c83-aed8-4881-84b6-34465956e738"},"vehicle_type_id":"4","last_reported":1756307458,"current_range_meters":10800,"station_id":"","pricing_plan_id":"cebpf4jnsgd1na2vs0mg"},{"bike_id":"e337d582-364a-4312-af91-67d0c81052aa","system_id":"levelo_inurba_marseille","lat":43.32521,"lon":5.36474,"is_reserved":false,"is_disabled":false,"rental_uris":{"android":"levelo://app?vid=e337d582-364a-4312-af91-67d0c81052aa","ios":"levelo://app?vid=e337d582-364a-4312-af91-67d0c81052aa"},"vehicle_type_id":"4","last_reported":1756307458,"current_range_meters":10800,"station_id":"","pricing_plan_id":"cebpf4jnsgd1na2vs0mg"},{"bike_id":"d97476e8-c014-42b7-97e3-eec7f4d817d9","system_id":"levelo_inurba_marseille","lat":43.27451,"lon":5.39403,"is_reserved":false,"is_disabled":false,"rental_uris":{"android":"levelo://app?vid=d97476e8-c014-42b7-97e3-eec7f4d817d9","ios":"levelo://app?vid=d97476e8-c014-42b7-97e3-eec7f4d817d9"},"vehicle_type_id":"4","last_reported":1756307458,"current_range_meters":10800,"station_id":"ce4bho92rcd13ifvqh4g","pricing_plan_id":"cebpf4jnsgd1na2vs0mg"},{"bike_id":"b445b1e9-41f4-42a8-bf84-ebb6b16cc85d","system_id":"levelo_inurba_marseille","lat":43.274265,"lon":5.394281,"is_reserved":false,"is_disabled":false,"rental_uris":{"android":"levelo://app?vid=b445b1e9-41f4-42a8-bf84-ebb6b16cc85d","ios":"levelo://app?vid=b445b1e9-41f4-42a8-bf84-ebb6b16cc85d"},"vehicle_type_id":"4","last_reported":1756307458,"current_range_meters":11200,"station_id":"","pricing_plan_id":"cebpf4jnsgd1na2vs0mg"},{"bike_id":"b93b207e-cec3-497e-a858-017df2c2c58a","system_id":"levelo_inurba_marseille","lat":43.25505,"lon":5.37638,"is_reserved":false,"is_disabled":false,"rental_uris":{"android":"levelo://app?vid=b93b207e-cec3-497e-a858-017df2c2c58a","ios":"levelo://app?vid=b93b207e-cec3-497e-a858-017df2c2c58a"},"vehicle_type_id":"4","last_reported":1756307458,"current_range_meters":11200,"station_id":"ce4bhh12rcd13ifvqff0","pricing_plan_id":"cebpf4jnsgd1na2vs0mg"},{"bike_id":"5bce688b-fc81-4596-8277-b66f54be87c1","system_id":"levelo_inurba_marseille","lat":43.33768,"lon":5.37438,"is_reserved":false,"is_disabled":false,"rental_uris":{"android":"levelo://app?vid=5bce688b-fc81-4596-8277-b66f54be87c1","ios":"levelo://app?vid=5bce688b-fc81-4596-8277-b66f54be87c1"},"vehicle_type_id":"4","last_reported":1756307458,"current_range_meters":11200,"station_id":"","pricing_plan_id":"cebpf4jnsgd1na2vs0mg"},{"bike_id":"632ea8a6-96e2-4378-91dd-5e32b8ae7248","system_id":"levelo_inurba_marseille","lat":43.24389,"lon":5.37049,"is_reserved":false,"is_disabled":false,"rental_uris":{"android":"levelo://app?vid=632ea8a6-96e2-4378-91dd-5e32b8ae7248","ios":"levelo://app?vid=632ea8a6-96e2-4378-91dd-5e32b8ae7248"},"vehicle_type_id":"4","last_reported":1756307458,"current_range_meters":10800,"station_id":"ce4bhhh2rcd13ifvqfk0","pricing_plan_id":"cebpf4jnsgd1na2vs0mg"},{"bike_id":"d412a35a-8223-4ec4-a0a7-626a0ccec697","system_id":"levelo_inurba_marseille","lat":43.26027,"lon":5.37551,"is_reserved":false,"is_disabled":false,"rental_uris":{"android":"levelo://app?vid=d412a35a-8223-4ec4-a0a7-626a0ccec697","ios":"levelo://app?vid=d412a35a-8223-4ec4-a0a7-626a0ccec697"},"vehicle_type_id":"4","last_reported":1756307458,"current_range_meters":11600,"station_id":"ce4bhgh2rcd13ifvqfa0","pricing_plan_id":"cebpf4jnsgd1na2vs0mg"},{"bike_id":"b0110861-cfc4-46d0-b119-f25711481fcc","system_id":"levelo_inurba_marseille","lat":43.26555,"lon":5.37283,"is_reserved":false,"is_disabled":false,"rental_uris":{"android":"levelo://app?vid=b0110861-cfc4-46d0-b119-f25711481fcc","ios":"levelo://app?vid=b0110861-cfc4-46d0-b119-f25711481fcc"},"vehicle_type_id":"4","last_reported":1756307458,"current_range_meters":11600,"station_id":"ce4bhg12rcd13ifvqf70","pricing_plan_id":"cebpf4jnsgd1na2vs0mg"},{"bike_id":"900573f6-c63d-408e-b858-11a6ab5a1d2c","system_id":"levelo_inurba_marseille","lat":43.26214,"lon":5.3744,"is_reserved":false,"is_disabled":false,"rental_uris":{"android":"levelo://app?vid=900573f6-c63d-408e-b858-11a6ab5a1d2c","ios":"levelo://app?vid=900573f6-c63d-408e-b858-11a6ab5a1d2c"},"vehicle_type_id":"4","last_reported":1756307458,"current_range_meters":11600,"station_id":"ce4bhgp2rcd13ifvqfc0","pricing_plan_id":"cebpf4jnsgd1na2vs0mg"},{"bike_id":"ca9d98be-9177-4e2a-927f-ebb4db509313","system_id":"levelo_inurba_marseille","lat":43.29196,"lon":5.35796,"is_reserved":false,"is_disabled":false,"rental_uris":{"android":"levelo://app?vid=ca9d98be-9177-4e2a-927f-ebb4db509313","ios":"levelo://app?vid=ca9d98be-9177-4e2a-927f-ebb4db509313"},"vehicle_type_id":"4","last_reported":1756307458,"current_range_meters":11600,"station_id":"ce4bhb12rcd13ifvqel0","pricing_plan_id":"cebpf4jnsgd1na2vs0mg"},{"bike_id":"64c06664-1c5d-4f3e-9408-ac6396da34e2","system_id":"levelo_inurba_marseille","lat":43.26208,"lon":5.37446,"is_reserved":false,"is_disabled":false,"rental_uris":{"android":"levelo://app?vid=64c06664-1c5d-4f3e-9408-ac6396da34e2","ios":"levelo://app?vid=64c06664-1c5d-4f3e-9408-ac6396da34e2"},"vehicle_type_id":"4","last_reported":1756307458,"current_range_meters":12000,"station_id":"ce4bhgp2rcd13ifvqfc0","pricing_plan_id":"cebpf4jnsgd1na2vs0mg"},{"bike_id":"16e3c408-ccd9-481e-a98f-d0496904266d","system_id":"levelo_inurba_marseille","lat":43.26553,"lon":5.37288,"is_reserved":false,"is_disabled":false,"rental_uris":{"android":"levelo://app?vid=16e3c408-ccd9-481e-a98f-d0496904266d","ios":"levelo://app?vid=16e3c408-ccd9-481e-a98f-d0496904266d"},"vehicle_type_id":"4","last_reported":1756307458,"current_range_meters":12000,"station_id":"ce4bhg12rcd13ifvqf70","pricing_plan_id":"cebpf4jnsgd1na2vs0mg"},{"bike_id":"b79f626f-4cce-45e0-9b7e-79f3f3a6033f","system_id":"levelo_inurba_marseille","lat":43.2466,"lon":5.43152,"is_reserved":false,"is_disabled":false,"rental_uris":{"android":"levelo://app?vid=b79f626f-4cce-45e0-9b7e-79f3f3a6033f","ios":"levelo://app?vid=b79f626f-4cce-45e0-9b7e-79f3f3a6033f"},"vehicle_type_id":"4","last_reported":1756307458,"current_range_meters":12000,"station_id":"st_d2m6c4gdas8pm72e190g","pricing_plan_id":"cebpf4jnsgd1na2vs0mg"},{"bike_id":"419f87b2-99e0-48e9-94af-61a35b75c9bd","system_id":"levelo_inurba_marseille","lat":43.24168,"lon":5.36396,"is_reserved":false,"is_disabled":false,"rental_uris":{"android":"levelo://app?vid=419f87b2-99e0-48e9-94af-61a35b75c9bd","ios":"levelo://app?vid=419f87b2-99e0-48e9-94af-61a35b75c9bd"},"vehicle_type_id":"4","last_reported":1756307458,"current_range_meters":12000,"station_id":"cpo36qri1sfpv3e86is0","pricing_plan_id":"cebpf4jnsgd1na2vs0mg"},{"bike_id":"4aa04cf0-c98a-4b86-9c20-0afc960e7cd0","system_id":"levelo_inurba_marseille","lat":43.262156,"lon":5.37435,"is_reserved":false,"is_disabled":false,"rental_uris":{"android":"levelo://app?vid=4aa04cf0-c98a-4b86-9c20-0afc960e7cd0","ios":"levelo://app?vid=4aa04cf0-c98a-4b86-9c20-0afc960e7cd0"},"vehicle_type_id":"4","last_reported":1756307458,"current_range_meters":12000,"station_id":"ce4bhgp2rcd13ifvqfc0","pricing_plan_id":"cebpf4jnsgd1na2vs0mg"},{"bike_id":"25e83664-f909-4a0a-bcfd-41b9a19d1090","system_id":"levelo_inurba_marseille","lat":43.33045,"lon":5.39008,"is_reserved":false,"is_disabled":false,"rental_uris":{"android":"levelo://app?vid=25e83664-f909-4a0a-bcfd-41b9a19d1090","ios":"levelo://app?vid=25e83664-f909-4a0a-bcfd-41b9a19d1090"},"vehicle_type_id":"4","last_reported":1756307458,"current_range_meters":12400,"station_id":"ce4bhr92rcd13ifvqhrg","pricing_plan_id":"cebpf4jnsgd1na2vs0mg"},{"bike_id":"8ed31f0b-2122-4042-82eb-728de2b76fa1","system_id":"levelo_inurba_marseille","lat":43.28402,"lon":5.37509,"is_reserved":false,"is_disabled":false,"rental_uris":{"android":"levelo://app?vid=8ed31f0b-2122-4042-82eb-728de2b76fa1","ios":"levelo://app?vid=8ed31f0b-2122-4042-82eb-728de2b76fa1"},"vehicle_type_id":"4","last_reported":1756307458,"current_range_meters":12400,"station_id":"ce4bh412rcd13ifvqds0","pricing_plan_id":"cebpf4jnsgd1na2vs0mg"},{"bike_id":"4390fec5-e5b7-4b30-b7e4-8bd8c36aab99","system_id":"levelo_inurba_marseille","lat":43.26033,"lon":5.37562,"is_reserved":false,"is_disabled":false,"rental_uris":{"android":"levelo://app?vid=4390fec5-e5b7-4b30-b7e4-8bd8c36aab99","ios":"levelo://app?vid=4390fec5-e5b7-4b30-b7e4-8bd8c36aab99"},"vehicle_type_id":"4","last_reported":1756307458,"current_range_meters":12400,"station_id":"ce4bhgh2rcd13ifvqfa0","pricing_plan_id":"cebpf4jnsgd1na2vs0mg"},{"bike_id":"7b97c343-a669-453c-9216-d761a3a74cf6","system_id":"levelo_inurba_marseille","lat":43.292314,"lon":5.360692,"is_reserved":false,"is_disabled":false,"rental_uris":{"android":"levelo://app?vid=7b97c343-a669-453c-9216-d761a3a74cf6","ios":"levelo://app?vid=7b97c343-a669-453c-9216-d761a3a74cf6"},"vehicle_type_id":"4","last_reported":1756307458,"current_range_meters":12800,"station_id":"ce4bhbh2rcd13ifvqeqg","pricing_plan_id":"cebpf4jnsgd1na2vs0mg"},{"bike_id":"e5eabf25-4e1c-476e-b130-9f83cdcfc80c","system_id":"levelo_inurba_marseille","lat":43.298046,"lon":5.417128,"is_reserved":false,"is_disabled":false,"rental_uris":{"android":"levelo://app?vid=e5eabf25-4e1c-476e-b130-9f83cdcfc80c","ios":"levelo://app?vid=e5eabf25-4e1c-476e-b130-9f83cdcfc80c"},"vehicle_type_id":"4","last_reported":1756307458,"current_range_meters":12800,"station_id":"","pricing_plan_id":"cebpf4jnsgd1na2vs0mg"},{"bike_id":"a040fb7f-8cb4-4eb7-8d78-1c6d9d096a3c","system_id":"levelo_inurba_marseille","lat":43.31116,"lon":5.37768,"is_reserved":false,"is_disabled":false,"rental_uris":{"android":"levelo://app?vid=a040fb7f-8cb4-4eb7-8d78-1c6d9d096a3c","ios":"levelo://app?vid=a040fb7f-8cb4-4eb7-8d78-1c6d9d096a3c"},"vehicle_type_id":"4","last_reported":1756307458,"current_range_meters":12400,"station_id":"ce4bgt92rcd13ifvqcg0","pricing_plan_id":"cebpf4jnsgd1na2vs0mg"},{"bike_id":"3448e159-471f-45cf-b0bc-dcb672574311","system_id":"levelo_inurba_marseille","lat":43.261952,"lon":5.374546,"is_reserved":false,"is_disabled":true,"rental_uris":{"android":"levelo://app?vid=3448e159-471f-45cf-b0bc-dcb672574311","ios":"levelo://app?vid=3448e159-471f-45cf-b0bc-dcb672574311"},"vehicle_type_id":"4","last_reported":1756307458,"current_range_meters":12800,"station_id":"ce4bhgp2rcd13ifvqfc0","pricing_plan_id":"cebpf4jnsgd1na2vs0mg"},{"bike_id":"9228f763-8943-464e-8039-b4a8cc3b0225","system_id":"levelo_inurba_marseille","lat":43.31994,"lon":5.38167,"is_reserved":false,"is_disabled":false,"rental_uris":{"android":"levelo://app?vid=9228f763-8943-464e-8039-b4a8cc3b0225","ios":"levelo://app?vid=9228f763-8943-464e-8039-b4a8cc3b0225"},"vehicle_type_id":"4","last_reported":1756307458,"current_range_meters":12800,"station_id":"ce4bhr12rcd13ifvqhpg","pricing_plan_id":"cebpf4jnsgd1na2vs0mg"},{"bike_id":"851053e8-d3be-4f09-af43-d2598eb82f5e","system_id":"levelo_inurba_marseille","lat":43.26557,"lon":5.37297,"is_reserved":false,"is_disabled":false,"rental_uris":{"android":"levelo://app?vid=851053e8-d3be-4f09-af43-d2598eb82f5e","ios":"levelo://app?vid=851053e8-d3be-4f09-af43-d2598eb82f5e"},"vehicle_type_id":"4","last_reported":1756307458,"current_range_meters":12800,"station_id":"ce4bhg12rcd13ifvqf70","pricing_plan_id":"cebpf4jnsgd1na2vs0mg"},{"bike_id":"78ca0005-bd47-47ad-9d70-e45f63868941","system_id":"levelo_inurba_marseille","lat":43.27425,"lon":5.39418,"is_reserved":false,"is_disabled":false,"rental_uris":{"android":"levelo://app?vid=78ca0005-bd47-47ad-9d70-e45f63868941","ios":"levelo://app?vid=78ca0005-bd47-47ad-9d70-e45f63868941"},"vehicle_type_id":"4","last_reported":1756307458,"current_range_meters":12800,"station_id":"ce4bhdp2rcd13ifvqf20","pricing_plan_id":"cebpf4jnsgd1na2vs0mg"},{"bike_id":"b5ae0016-67e1-4c37-91cb-4d986fbc09a4","system_id":"levelo_inurba_marseille","lat":43.246235,"lon":5.431414,"is_reserved":false,"is_disabled":false,"rental_uris":{"android":"levelo://app?vid=b5ae0016-67e1-4c37-91cb-4d986fbc09a4","ios":"levelo://app?vid=b5ae0016-67e1-4c37-91cb-4d986fbc09a4"},"vehicle_type_id":"4","last_reported":1756307458,"current_range_meters":13600,"station_id":"st_d2m6c4gdas8pm72e190g","pricing_plan_id":"cebpf4jnsgd1na2vs0mg"},{"bike_id":"d9d572f7-d811-4b4d-9ec5-cb85e6210f42","system_id":"levelo_inurba_marseille","lat":43.32105,"lon":5.36773,"is_reserved":false,"is_disabled":false,"rental_uris":{"android":"levelo://app?vid=d9d572f7-d811-4b4d-9ec5-cb85e6210f42","ios":"levelo://app?vid=d9d572f7-d811-4b4d-9ec5-cb85e6210f42"},"vehicle_type_id":"4","last_reported":1756307458,"current_range_meters":13600,"station_id":"ce4bhrh2rcd13ifvqhug","pricing_plan_id":"cebpf4jnsgd1na2vs0mg"},{"bike_id":"294055ed-ffad-440b-9d9f-2ef2d1184d75","system_id":"levelo_inurba_marseille","lat":43.24166,"lon":5.36393,"is_reserved":false,"is_disabled":false,"rental_uris":{"android":"levelo://app?vid=294055ed-ffad-440b-9d9f-2ef2d1184d75","ios":"levelo://app?vid=294055ed-ffad-440b-9d9f-2ef2d1184d75"},"vehicle_type_id":"4","last_reported":1756307458,"current_range_meters":14000,"station_id":"cpo36qri1sfpv3e86is0","pricing_plan_id":"cebpf4jnsgd1na2vs0mg"},{"bike_id":"deea2183-4297-45dc-b252-5e5dabf475d9","system_id":"levelo_inurba_marseille","lat":43.26194,"lon":5.37448,"is_reserved":false,"is_disabled":false,"rental_uris":{"android":"levelo://app?vid=deea2183-4297-45dc-b252-5e5dabf475d9","ios":"levelo://app?vid=deea2183-4297-45dc-b252-5e5dabf475d9"},"vehicle_type_id":"4","last_reported":1756307458,"current_range_meters":14000,"station_id":"ce4bhgp2rcd13ifvqfc0","pricing_plan_id":"cebpf4jnsgd1na2vs0mg"},{"bike_id":"f38a42b7-737b-4959-a9a3-8fa90a2ada5b","system_id":"levelo_inurba_marseille","lat":43.29002,"lon":5.35609,"is_reserved":false,"is_disabled":false,"rental_uris":{"android":"levelo://app?vid=f38a42b7-737b-4959-a9a3-8fa90a2ada5b","ios":"levelo://app?vid=f38a42b7-737b-4959-a9a3-8fa90a2ada5b"},"vehicle_type_id":"4","last_reported":1756307458,"current_range_meters":14000,"station_id":"ce4bhb92rcd13ifvqen0","pricing_plan_id":"cebpf4jnsgd1na2vs0mg"},{"bike_id":"1e852faa-0778-4e8a-a9c8-6c774f7c3cf4","system_id":"levelo_inurba_marseille","lat":43.26033,"lon":5.37549,"is_reserved":false,"is_disabled":false,"rental_uris":{"android":"levelo://app?vid=1e852faa-0778-4e8a-a9c8-6c774f7c3cf4","ios":"levelo://app?vid=1e852faa-0778-4e8a-a9c8-6c774f7c3cf4"},"vehicle_type_id":"4","last_reported":1756307458,"current_range_meters":14000,"station_id":"ce4bhgh2rcd13ifvqfa0","pricing_plan_id":"cebpf4jnsgd1na2vs0mg"},{"bike_id":"3ce18fbc-ec38-4f9e-9dd9-9a3dee5c503d","system_id":"levelo_inurba_marseille","lat":43.26044,"lon":5.37536,"is_reserved":false,"is_disabled":true,"rental_uris":{"android":"levelo://app?vid=3ce18fbc-ec38-4f9e-9dd9-9a3dee5c503d","ios":"levelo://app?vid=3ce18fbc-ec38-4f9e-9dd9-9a3dee5c503d"},"vehicle_type_id":"4","last_reported":1756307458,"current_range_meters":14000,"station_id":"ce4bhgh2rcd13ifvqfa0","pricing_plan_id":"cebpf4jnsgd1na2vs0mg"},{"bike_id":"63e41c1f-d079-4bc9-9704-f84800381fb0","system_id":"levelo_inurba_marseille","lat":43.29621,"lon":5.3717,"is_reserved":false,"is_disabled":false,"rental_uris":{"android":"levelo://app?vid=63e41c1f-d079-4bc9-9704-f84800381fb0","ios":"levelo://app?vid=63e41c1f-d079-4bc9-9704-f84800381fb0"},"vehicle_type_id":"4","last_reported":1756307458,"current_range_meters":14000,"station_id":"ce4bgnh2rcd13ifvqc0g","pricing_plan_id":"cebpf4jnsgd1na2vs0mg"},{"bike_id":"da56be69-d1d8-4e58-9211-9f80a01d3f01","system_id":"levelo_inurba_marseille","lat":43.26548,"lon":5.37293,"is_reserved":false,"is_disabled":false,"rental_uris":{"android":"levelo://app?vid=da56be69-d1d8-4e58-9211-9f80a01d3f01","ios":"levelo://app?vid=da56be69-d1d8-4e58-9211-9f80a01d3f01"},"vehicle_type_id":"4","last_reported":1756307458,"current_range_meters":14000,"station_id":"","pricing_plan_id":"cebpf4jnsgd1na2vs0mg"},{"bike_id":"3dff11d5-3872-4ffe-8cce-b5631d6c6058","system_id":"levelo_inurba_marseille","lat":43.33037,"lon":5.39022,"is_reserved":false,"is_disabled":false,"rental_uris":{"android":"levelo://app?vid=3dff11d5-3872-4ffe-8cce-b5631d6c6058","ios":"levelo://app?vid=3dff11d5-3872-4ffe-8cce-b5631d6c6058"},"vehicle_type_id":"4","last_reported":1756307458,"current_range_meters":14000,"station_id":"ce4bhr92rcd13ifvqhrg","pricing_plan_id":"cebpf4jnsgd1na2vs0mg"},{"bike_id":"8ad41d64-c49e-4e0c-a46a-befe0e417413","system_id":"levelo_inurba_marseille","lat":43.30873,"lon":5.37185,"is_reserved":false,"is_disabled":false,"rental_uris":{"android":"levelo://app?vid=8ad41d64-c49e-4e0c-a46a-befe0e417413","ios":"levelo://app?vid=8ad41d64-c49e-4e0c-a46a-befe0e417413"},"vehicle_type_id":"4","last_reported":1756307458,"current_range_meters":14000,"station_id":"ce4bguh2rcd13ifvqckg","pricing_plan_id":"cebpf4jnsgd1na2vs0mg"},{"bike_id":"9308f021-ec84-4fe8-8c25-145b6405b7e0","system_id":"levelo_inurba_marseille","lat":43.30543,"lon":5.36706,"is_reserved":false,"is_disabled":true,"rental_uris":{"android":"levelo://app?vid=9308f021-ec84-4fe8-8c25-145b6405b7e0","ios":"levelo://app?vid=9308f021-ec84-4fe8-8c25-145b6405b7e0"},"vehicle_type_id":"4","last_reported":1756307458,"current_range_meters":14000,"station_id":"ce4bgrp2rcd13ifvqc9g","pricing_plan_id":"cebpf4jnsgd1na2vs0mg"},{"bike_id":"d1370006-a0b9-4748-8435-c028a3446151","system_id":"levelo_inurba_marseille","lat":43.28999,"lon":5.35603,"is_reserved":false,"is_disabled":false,"rental_uris":{"android":"levelo://app?vid=d1370006-a0b9-4748-8435-c028a3446151","ios":"levelo://app?vid=d1370006-a0b9-4748-8435-c028a3446151"},"vehicle_type_id":"4","last_reported":1756307458,"current_range_meters":14400,"station_id":"ce4bhb92rcd13ifvqen0","pricing_plan_id":"cebpf4jnsgd1na2vs0mg"},{"bike_id":"685105d1-bcda-4899-9d64-d94adf158a64","system_id":"levelo_inurba_marseille","lat":43.314676,"lon":5.373608,"is_reserved":false,"is_disabled":true,"rental_uris":{"android":"levelo://app?vid=685105d1-bcda-4899-9d64-d94adf158a64","ios":"levelo://app?vid=685105d1-bcda-4899-9d64-d94adf158a64"},"vehicle_type_id":"4","last_reported":1756307458,"current_range_meters":14400,"station_id":"","pricing_plan_id":"cebpf4jnsgd1na2vs0mg"},{"bike_id":"289d577a-cef8-40ea-a18b-c2fef868e0ba","system_id":"levelo_inurba_marseille","lat":43.28409,"lon":5.34978,"is_reserved":false,"is_disabled":false,"rental_uris":{"android":"levelo://app?vid=289d577a-cef8-40ea-a18b-c2fef868e0ba","ios":"levelo://app?vid=289d577a-cef8-40ea-a18b-c2fef868e0ba"},"vehicle_type_id":"4","last_reported":1756307458,"current_range_meters":14400,"station_id":"ce4bhbh2rcd13ifvqepg","pricing_plan_id":"cebpf4jnsgd1na2vs0mg"},{"bike_id":"2d35c570-724e-42d6-9b57-babd6cb61039","system_id":"levelo_inurba_marseille","lat":43.2603,"lon":5.37547,"is_reserved":false,"is_disabled":false,"rental_uris":{"android":"levelo://app?vid=2d35c570-724e-42d6-9b57-babd6cb61039","ios":"levelo://app?vid=2d35c570-724e-42d6-9b57-babd6cb61039"},"vehicle_type_id":"4","last_reported":1756307458,"current_range_meters":14400,"station_id":"ce4bhgh2rcd13ifvqfa0","pricing_plan_id":"cebpf4jnsgd1na2vs0mg"},{"bike_id":"30b13a2f-7373-482c-863e-8040d30dece6","system_id":"levelo_inurba_marseille","lat":43.261907,"lon":5.374481,"is_reserved":false,"is_disabled":false,"rental_uris":{"android":"levelo://app?vid=30b13a2f-7373-482c-863e-8040d30dece6","ios":"levelo://app?vid=30b13a2f-7373-482c-863e-8040d30dece6"},"vehicle_type_id":"4","last_reported":1756307458,"current_range_meters":14400,"station_id":"ce4bhgp2rcd13ifvqfc0","pricing_plan_id":"cebpf4jnsgd1na2vs0mg"},{"bike_id":"dd2862e7-9b1b-4035-bf88-8ad4a7b56905","system_id":"levelo_inurba_marseille","lat":43.30275,"lon":5.37666,"is_reserved":false,"is_disabled":false,"rental_uris":{"android":"levelo://app?vid=dd2862e7-9b1b-4035-bf88-8ad4a7b56905","ios":"levelo://app?vid=dd2862e7-9b1b-4035-bf88-8ad4a7b56905"},"vehicle_type_id":"4","last_reported":1756307458,"current_range_meters":14400,"station_id":"ce4bguh2rcd13ifvqcj0","pricing_plan_id":"cebpf4jnsgd1na2vs0mg"},{"bike_id":"db526668-1205-422f-99f2-dc09210cda94","system_id":"levelo_inurba_marseille","lat":43.29284,"lon":5.36842,"is_reserved":false,"is_disabled":false,"rental_uris":{"android":"levelo://app?vid=db526668-1205-422f-99f2-dc09210cda94","ios":"levelo://app?vid=db526668-1205-422f-99f2-dc09210cda94"},"vehicle_type_id":"4","last_reported":1756307458,"current_range_meters":14800,"station_id":"ce4bhbp2rcd13ifvqesg","pricing_plan_id":"cebpf4jnsgd1na2vs0mg"},{"bike_id":"40930b21-fa3a-4487-82aa-6a959a35d5d7","system_id":"levelo_inurba_marseille","lat":43.29194,"lon":5.35795,"is_reserved":false,"is_disabled":false,"rental_uris":{"android":"levelo://app?vid=40930b21-fa3a-4487-82aa-6a959a35d5d7","ios":"levelo://app?vid=40930b21-fa3a-4487-82aa-6a959a35d5d7"},"vehicle_type_id":"4","last_reported":1756307458,"current_range_meters":14800,"station_id":"ce4bhb12rcd13ifvqel0","pricing_plan_id":"cebpf4jnsgd1na2vs0mg"},{"bike_id":"aea8f8a8-c15f-40eb-bd76-cf1b0eec6815","system_id":"levelo_inurba_marseille","lat":43.29316,"lon":5.37179,"is_reserved":false,"is_disabled":false,"rental_uris":{"android":"levelo://app?vid=aea8f8a8-c15f-40eb-bd76-cf1b0eec6815","ios":"levelo://app?vid=aea8f8a8-c15f-40eb-bd76-cf1b0eec6815"},"vehicle_type_id":"4","last_reported":1756307458,"current_range_meters":14800,"station_id":"ce4bgh92rcd13ifvqb40","pricing_plan_id":"cebpf4jnsgd1na2vs0mg"},{"bike_id":"b7ee4414-f1f6-4748-b2c7-6f690de92d81","system_id":"levelo_inurba_marseille","lat":43.21198,"lon":5.35067,"is_reserved":false,"is_disabled":false,"rental_uris":{"android":"levelo://app?vid=b7ee4414-f1f6-4748-b2c7-6f690de92d81","ios":"levelo://app?vid=b7ee4414-f1f6-4748-b2c7-6f690de92d81"},"vehicle_type_id":"4","last_reported":1756307458,"current_range_meters":14800,"station_id":"st_cvj6sg6p6f1abm77japg","pricing_plan_id":"cebpf4jnsgd1na2vs0mg"},{"bike_id":"96207dea-7bbf-4883-ab9a-820d9c447ab3","system_id":"levelo_inurba_marseille","lat":43.28419,"lon":5.34975,"is_reserved":false,"is_disabled":false,"rental_uris":{"android":"levelo://app?vid=96207dea-7bbf-4883-ab9a-820d9c447ab3","ios":"levelo://app?vid=96207dea-7bbf-4883-ab9a-820d9c447ab3"},"vehicle_type_id":"4","last_reported":1756307458,"current_range_meters":14800,"station_id":"ce4bhbh2rcd13ifvqepg","pricing_plan_id":"cebpf4jnsgd1na2vs0mg"},{"bike_id":"2e55c538-508e-4fef-8f5f-62b4ad8b5b85","system_id":"levelo_inurba_marseille","lat":43.2174,"lon":5.34607,"is_reserved":false,"is_disabled":false,"rental_uris":{"android":"levelo://app?vid=2e55c538-508e-4fef-8f5f-62b4ad8b5b85","ios":"levelo://app?vid=2e55c538-508e-4fef-8f5f-62b4ad8b5b85"},"vehicle_type_id":"4","last_reported":1756307458,"current_range_meters":14800,"station_id":"st_cvj6r9ubvosntc0bgbag","pricing_plan_id":"cebpf4jnsgd1na2vs0mg"},{"bike_id":"2706cd56-7c1a-440f-beb5-b55df88af114","system_id":"levelo_inurba_marseille","lat":43.30553,"lon":5.36529,"is_reserved":false,"is_disabled":false,"rental_uris":{"android":"levelo://app?vid=2706cd56-7c1a-440f-beb5-b55df88af114","ios":"levelo://app?vid=2706cd56-7c1a-440f-beb5-b55df88af114"},"vehicle_type_id":"4","last_reported":1756307458,"current_range_meters":15200,"station_id":"ce4bgs12rcd13ifvqcag","pricing_plan_id":"cebpf4jnsgd1na2vs0mg"},{"bike_id":"f67c8e5e-7af8-4847-a4ce-1e12088b4291","system_id":"levelo_inurba_marseille","lat":43.33026,"lon":5.39247,"is_reserved":false,"is_disabled":false,"rental_uris":{"android":"levelo://app?vid=f67c8e5e-7af8-4847-a4ce-1e12088b4291","ios":"levelo://app?vid=f67c8e5e-7af8-4847-a4ce-1e12088b4291"},"vehicle_type_id":"4","last_reported":1756307458,"current_range_meters":15200,"station_id":"","pricing_plan_id":"cebpf4jnsgd1na2vs0mg"},{"bike_id":"c682957f-cef5-4193-962b-fadf3b3c70c1","system_id":"levelo_inurba_marseille","lat":43.28004,"lon":5.40015,"is_reserved":false,"is_disabled":false,"rental_uris":{"android":"levelo://app?vid=c682957f-cef5-4193-962b-fadf3b3c70c1","ios":"levelo://app?vid=c682957f-cef5-4193-962b-fadf3b3c70c1"},"vehicle_type_id":"4","last_reported":1756307458,"current_range_meters":15200,"station_id":"","pricing_plan_id":"cebpf4jnsgd1na2vs0mg"},{"bike_id":"182848e1-c128-499b-944e-cad0c910e9fb","system_id":"levelo_inurba_marseille","lat":43.21225,"lon":5.35054,"is_reserved":false,"is_disabled":false,"rental_uris":{"android":"levelo://app?vid=182848e1-c128-499b-944e-cad0c910e9fb","ios":"levelo://app?vid=182848e1-c128-499b-944e-cad0c910e9fb"},"vehicle_type_id":"4","last_reported":1756307458,"current_range_meters":15200,"station_id":"","pricing_plan_id":"cebpf4jnsgd1na2vs0mg"},{"bike_id":"371fa7c0-0382-4995-8dce-b9bed41476d8","system_id":"levelo_inurba_marseille","lat":43.31533,"lon":5.38031,"is_reserved":false,"is_disabled":false,"rental_uris":{"android":"levelo://app?vid=371fa7c0-0382-4995-8dce-b9bed41476d8","ios":"levelo://app?vid=371fa7c0-0382-4995-8dce-b9bed41476d8"},"vehicle_type_id":"4","last_reported":1756307458,"current_range_meters":15200,"station_id":"ce4bhsp2rcd13ifvqi50","pricing_plan_id":"cebpf4jnsgd1na2vs0mg"},{"bike_id":"7fdd2a84-3301-468e-9eee-243b8cfcc76f","system_id":"levelo_inurba_marseille","lat":43.29786,"lon":5.39341,"is_reserved":false,"is_disabled":false,"rental_uris":{"android":"levelo://app?vid=7fdd2a84-3301-468e-9eee-243b8cfcc76f","ios":"levelo://app?vid=7fdd2a84-3301-468e-9eee-243b8cfcc76f"},"vehicle_type_id":"4","last_reported":1756307458,"current_range_meters":15200,"station_id":"chh1huq6cuj3fo74tm60","pricing_plan_id":"cebpf4jnsgd1na2vs0mg"},{"bike_id":"8f8ae447-f357-4578-ad97-b43657e2dfc8","system_id":"levelo_inurba_marseille","lat":43.30204,"lon":5.39469,"is_reserved":false,"is_disabled":false,"rental_uris":{"android":"levelo://app?vid=8f8ae447-f357-4578-ad97-b43657e2dfc8","ios":"levelo://app?vid=8f8ae447-f357-4578-ad97-b43657e2dfc8"},"vehicle_type_id":"4","last_reported":1756307458,"current_range_meters":15200,"station_id":"ce4bh0p2rcd13ifvqd70","pricing_plan_id":"cebpf4jnsgd1na2vs0mg"},{"bike_id":"5c26a54e-1e97-4ad3-a16d-614ad930b130","system_id":"levelo_inurba_marseille","lat":43.321061,"lon":5.367761,"is_reserved":false,"is_disabled":false,"rental_uris":{"android":"levelo://app?vid=5c26a54e-1e97-4ad3-a16d-614ad930b130","ios":"levelo://app?vid=5c26a54e-1e97-4ad3-a16d-614ad930b130"},"vehicle_type_id":"4","last_reported":1756307458,"current_range_meters":16000,"station_id":"ce4bhrh2rcd13ifvqhug","pricing_plan_id":"cebpf4jnsgd1na2vs0mg"},{"bike_id":"5008aa8c-1fe4-4747-9ac3-9e7611e8a29b","system_id":"levelo_inurba_marseille","lat":43.29965,"lon":5.38491,"is_reserved":false,"is_disabled":false,"rental_uris":{"android":"levelo://app?vid=5008aa8c-1fe4-4747-9ac3-9e7611e8a29b","ios":"levelo://app?vid=5008aa8c-1fe4-4747-9ac3-9e7611e8a29b"},"vehicle_type_id":"4","last_reported":1756307458,"current_range_meters":16000,"station_id":"ce4bgj92rcd13ifvqbd0","pricing_plan_id":"cebpf4jnsgd1na2vs0mg"},{"bike_id":"ffd21136-ae47-45ee-8fc5-e7f85ea84802","system_id":"levelo_inurba_marseille","lat":43.29827,"lon":5.38253,"is_reserved":false,"is_disabled":false,"rental_uris":{"android":"levelo://app?vid=ffd21136-ae47-45ee-8fc5-e7f85ea84802","ios":"levelo://app?vid=ffd21136-ae47-45ee-8fc5-e7f85ea84802"},"vehicle_type_id":"4","last_reported":1756307458,"current_range_meters":16000,"station_id":"","pricing_plan_id":"cebpf4jnsgd1na2vs0mg"},{"bike_id":"814645c9-7af5-4408-879c-1836489b0342","system_id":"levelo_inurba_marseille","lat":43.26567,"lon":5.37282,"is_reserved":false,"is_disabled":false,"rental_uris":{"android":"levelo://app?vid=814645c9-7af5-4408-879c-1836489b0342","ios":"levelo://app?vid=814645c9-7af5-4408-879c-1836489b0342"},"vehicle_type_id":"4","last_reported":1756307458,"current_range_meters":16000,"station_id":"ce4bhg12rcd13ifvqf70","pricing_plan_id":"cebpf4jnsgd1na2vs0mg"},{"bike_id":"2069bb10-8fc4-46cb-b293-68ee5a76feb7","system_id":"levelo_inurba_marseille","lat":43.26194,"lon":5.37466,"is_reserved":false,"is_disabled":false,"rental_uris":{"android":"levelo://app?vid=2069bb10-8fc4-46cb-b293-68ee5a76feb7","ios":"levelo://app?vid=2069bb10-8fc4-46cb-b293-68ee5a76feb7"},"vehicle_type_id":"4","last_reported":1756307458,"current_range_meters":16000,"station_id":"ce4bhgp2rcd13ifvqfc0","pricing_plan_id":"cebpf4jnsgd1na2vs0mg"},{"bike_id":"c561b3be-23f4-46ed-8d38-1fc2450f503d","system_id":"levelo_inurba_marseille","lat":43.236565,"lon":5.362162,"is_reserved":false,"is_disabled":false,"rental_uris":{"android":"levelo://app?vid=c561b3be-23f4-46ed-8d38-1fc2450f503d","ios":"levelo://app?vid=c561b3be-23f4-46ed-8d38-1fc2450f503d"},"vehicle_type_id":"4","last_reported":1756307458,"current_range_meters":16000,"station_id":"","pricing_plan_id":"cebpf4jnsgd1na2vs0mg"},{"bike_id":"fbc19ab3-b5eb-4891-8d9b-1db4f0982405","system_id":"levelo_inurba_marseille","lat":43.29714,"lon":5.36592,"is_reserved":false,"is_disabled":false,"rental_uris":{"android":"levelo://app?vid=fbc19ab3-b5eb-4891-8d9b-1db4f0982405","ios":"levelo://app?vid=fbc19ab3-b5eb-4891-8d9b-1db4f0982405"},"vehicle_type_id":"4","last_reported":1756307458,"current_range_meters":16000,"station_id":"ce4bgn12rcd13ifvqbt0","pricing_plan_id":"cebpf4jnsgd1na2vs0mg"},{"bike_id":"dd7083cc-5aa5-45e8-aa01-f809713272d1","system_id":"levelo_inurba_marseille","lat":43.211965,"lon":5.350685,"is_reserved":false,"is_disabled":false,"rental_uris":{"android":"levelo://app?vid=dd7083cc-5aa5-45e8-aa01-f809713272d1","ios":"levelo://app?vid=dd7083cc-5aa5-45e8-aa01-f809713272d1"},"vehicle_type_id":"4","last_reported":1756307458,"current_range_meters":16000,"station_id":"st_cvj6sg6p6f1abm77japg","pricing_plan_id":"cebpf4jnsgd1na2vs0mg"},{"bike_id":"dda8740d-ebda-4e4e-a90e-1a99a93cb24f","system_id":"levelo_inurba_marseille","lat":43.3088,"lon":5.39636,"is_reserved":false,"is_disabled":false,"rental_uris":{"android":"levelo://app?vid=dda8740d-ebda-4e4e-a90e-1a99a93cb24f","ios":"levelo://app?vid=dda8740d-ebda-4e4e-a90e-1a99a93cb24f"},"vehicle_type_id":"4","last_reported":1756307458,"current_range_meters":16400,"station_id":"ce4bh012rcd13ifvqcv0","pricing_plan_id":"cebpf4jnsgd1na2vs0mg"},{"bike_id":"ff7b9703-7130-4fc7-9fb8-47319a3edf6f","system_id":"levelo_inurba_marseille","lat":43.28851,"lon":5.35877,"is_reserved":false,"is_disabled":false,"rental_uris":{"android":"levelo://app?vid=ff7b9703-7130-4fc7-9fb8-47319a3edf6f","ios":"levelo://app?vid=ff7b9703-7130-4fc7-9fb8-47319a3edf6f"},"vehicle_type_id":"4","last_reported":1756307458,"current_range_meters":16400,"station_id":"ce4bhb12rcd13ifvqem0","pricing_plan_id":"cebpf4jnsgd1na2vs0mg"},{"bike_id":"b396a511-35fb-46e1-9776-39d7ab248533","system_id":"levelo_inurba_marseille","lat":43.24649,"lon":5.3889,"is_reserved":false,"is_disabled":false,"rental_uris":{"android":"levelo://app?vid=b396a511-35fb-46e1-9776-39d7ab248533","ios":"levelo://app?vid=b396a511-35fb-46e1-9776-39d7ab248533"},"vehicle_type_id":"4","last_reported":1756307458,"current_range_meters":16400,"station_id":"ce4bhg12rcd13ifvqf60","pricing_plan_id":"cebpf4jnsgd1na2vs0mg"},{"bike_id":"d810acf0-5bd2-4bf1-848d-31cd30d105e6","system_id":"levelo_inurba_marseille","lat":43.269831,"lon":5.392782,"is_reserved":false,"is_disabled":false,"rental_uris":{"android":"levelo://app?vid=d810acf0-5bd2-4bf1-848d-31cd30d105e6","ios":"levelo://app?vid=d810acf0-5bd2-4bf1-848d-31cd30d105e6"},"vehicle_type_id":"4","last_reported":1756307458,"current_range_meters":16400,"station_id":"","pricing_plan_id":"cebpf4jnsgd1na2vs0mg"},{"bike_id":"5dd83fad-2449-4d56-be74-c8599abb9a5e","system_id":"levelo_inurba_marseille","lat":43.26235,"lon":5.37443,"is_reserved":false,"is_disabled":false,"rental_uris":{"android":"levelo://app?vid=5dd83fad-2449-4d56-be74-c8599abb9a5e","ios":"levelo://app?vid=5dd83fad-2449-4d56-be74-c8599abb9a5e"},"vehicle_type_id":"4","last_reported":1756307458,"current_range_meters":16400,"station_id":"ce4bhgp2rcd13ifvqfc0","pricing_plan_id":"cebpf4jnsgd1na2vs0mg"},{"bike_id":"19b31aa5-e088-4984-a636-05dfc317a7e0","system_id":"levelo_inurba_marseille","lat":43.27384,"lon":5.36261,"is_reserved":false,"is_disabled":false,"rental_uris":{"android":"levelo://app?vid=19b31aa5-e088-4984-a636-05dfc317a7e0","ios":"levelo://app?vid=19b31aa5-e088-4984-a636-05dfc317a7e0"},"vehicle_type_id":"4","last_reported":1756307458,"current_range_meters":16400,"station_id":"ce4bhbh2rcd13ifvqeo0","pricing_plan_id":"cebpf4jnsgd1na2vs0mg"},{"bike_id":"c409c94b-337e-4a5a-85de-964e2f894da3","system_id":"levelo_inurba_marseille","lat":43.258295,"lon":5.394308,"is_reserved":false,"is_disabled":false,"rental_uris":{"android":"levelo://app?vid=c409c94b-337e-4a5a-85de-964e2f894da3","ios":"levelo://app?vid=c409c94b-337e-4a5a-85de-964e2f894da3"},"vehicle_type_id":"4","last_reported":1756307458,"current_range_meters":16400,"station_id":"ce4bhip2rcd13ifvqft0","pricing_plan_id":"cebpf4jnsgd1na2vs0mg"},{"bike_id":"4e9e705b-7667-42c6-adf5-4a09a858987f","system_id":"levelo_inurba_marseille","lat":43.21193,"lon":5.3508,"is_reserved":false,"is_disabled":false,"rental_uris":{"android":"levelo://app?vid=4e9e705b-7667-42c6-adf5-4a09a858987f","ios":"levelo://app?vid=4e9e705b-7667-42c6-adf5-4a09a858987f"},"vehicle_type_id":"4","last_reported":1756307458,"current_range_meters":16400,"station_id":"st_cvj6sg6p6f1abm77japg","pricing_plan_id":"cebpf4jnsgd1na2vs0mg"},{"bike_id":"94c44f36-d45b-48d8-9eb0-02cde482dcfd","system_id":"levelo_inurba_marseille","lat":43.26025,"lon":5.37543,"is_reserved":false,"is_disabled":false,"rental_uris":{"android":"levelo://app?vid=94c44f36-d45b-48d8-9eb0-02cde482dcfd","ios":"levelo://app?vid=94c44f36-d45b-48d8-9eb0-02cde482dcfd"},"vehicle_type_id":"4","last_reported":1756307458,"current_range_meters":16400,"station_id":"ce4bhgh2rcd13ifvqfa0","pricing_plan_id":"cebpf4jnsgd1na2vs0mg"},{"bike_id":"d03be081-5c90-4c8f-af17-97641ec0e77c","system_id":"levelo_inurba_marseille","lat":43.27377,"lon":5.36258,"is_reserved":false,"is_disabled":false,"rental_uris":{"android":"levelo://app?vid=d03be081-5c90-4c8f-af17-97641ec0e77c","ios":"levelo://app?vid=d03be081-5c90-4c8f-af17-97641ec0e77c"},"vehicle_type_id":"4","last_reported":1756307458,"current_range_meters":16400,"station_id":"ce4bhbh2rcd13ifvqeo0","pricing_plan_id":"cebpf4jnsgd1na2vs0mg"},{"bike_id":"373decc7-6d5f-444a-bd84-6f7db9035c12","system_id":"levelo_inurba_marseille","lat":43.23964,"lon":5.36623,"is_reserved":false,"is_disabled":false,"rental_uris":{"android":"levelo://app?vid=373decc7-6d5f-444a-bd84-6f7db9035c12","ios":"levelo://app?vid=373decc7-6d5f-444a-bd84-6f7db9035c12"},"vehicle_type_id":"4","last_reported":1756307458,"current_range_meters":16400,"station_id":"ce4bhi12rcd13ifvqfp0","pricing_plan_id":"cebpf4jnsgd1na2vs0mg"},{"bike_id":"370e51e2-c121-4206-9402-248a31b8d127","system_id":"levelo_inurba_marseille","lat":43.26556,"lon":5.37286,"is_reserved":false,"is_disabled":false,"rental_uris":{"android":"levelo://app?vid=370e51e2-c121-4206-9402-248a31b8d127","ios":"levelo://app?vid=370e51e2-c121-4206-9402-248a31b8d127"},"vehicle_type_id":"4","last_reported":1756307458,"current_range_meters":16400,"station_id":"ce4bhg12rcd13ifvqf70","pricing_plan_id":"cebpf4jnsgd1na2vs0mg"},{"bike_id":"a029d878-b479-4ed1-b5e6-f040cdc84263","system_id":"levelo_inurba_marseille","lat":43.26555,"lon":5.37276,"is_reserved":false,"is_disabled":false,"rental_uris":{"android":"levelo://app?vid=a029d878-b479-4ed1-b5e6-f040cdc84263","ios":"levelo://app?vid=a029d878-b479-4ed1-b5e6-f040cdc84263"},"vehicle_type_id":"4","last_reported":1756307458,"current_range_meters":16800,"station_id":"ce4bhg12rcd13ifvqf70","pricing_plan_id":"cebpf4jnsgd1na2vs0mg"},{"bike_id":"e6c593a6-25b4-4483-b874-06f613c8942f","system_id":"levelo_inurba_marseille","lat":43.21763,"lon":5.34588,"is_reserved":false,"is_disabled":false,"rental_uris":{"android":"levelo://app?vid=e6c593a6-25b4-4483-b874-06f613c8942f","ios":"levelo://app?vid=e6c593a6-25b4-4483-b874-06f613c8942f"},"vehicle_type_id":"4","last_reported":1756307458,"current_range_meters":16800,"station_id":"st_cvj6r9ubvosntc0bgbag","pricing_plan_id":"cebpf4jnsgd1na2vs0mg"},{"bike_id":"7558b440-1ee7-4da9-91a4-b58bd6acd925","system_id":"levelo_inurba_marseille","lat":43.24553,"lon":5.39508,"is_reserved":false,"is_disabled":false,"rental_uris":{"android":"levelo://app?vid=7558b440-1ee7-4da9-91a4-b58bd6acd925","ios":"levelo://app?vid=7558b440-1ee7-4da9-91a4-b58bd6acd925"},"vehicle_type_id":"4","last_reported":1756307458,"current_range_meters":16800,"station_id":"ce4bhlp2rcd13ifvqgjg","pricing_plan_id":"cebpf4jnsgd1na2vs0mg"},{"bike_id":"39b05118-1101-4575-b3e8-b134b22d973c","system_id":"levelo_inurba_marseille","lat":43.25494,"lon":5.3765,"is_reserved":false,"is_disabled":false,"rental_uris":{"android":"levelo://app?vid=39b05118-1101-4575-b3e8-b134b22d973c","ios":"levelo://app?vid=39b05118-1101-4575-b3e8-b134b22d973c"},"vehicle_type_id":"4","last_reported":1756307458,"current_range_meters":16400,"station_id":"ce4bhh12rcd13ifvqff0","pricing_plan_id":"cebpf4jnsgd1na2vs0mg"},{"bike_id":"bc4c6e1c-d694-4a7d-b3af-90d3bb1a77a1","system_id":"levelo_inurba_marseille","lat":43.21193,"lon":5.35083,"is_reserved":false,"is_disabled":false,"rental_uris":{"android":"levelo://app?vid=bc4c6e1c-d694-4a7d-b3af-90d3bb1a77a1","ios":"levelo://app?vid=bc4c6e1c-d694-4a7d-b3af-90d3bb1a77a1"},"vehicle_type_id":"4","last_reported":1756307458,"current_range_meters":17200,"station_id":"st_cvj6sg6p6f1abm77japg","pricing_plan_id":"cebpf4jnsgd1na2vs0mg"},{"bike_id":"3e1b7de2-dcbe-4860-be16-6397d00e898c","system_id":"levelo_inurba_marseille","lat":43.26552,"lon":5.37281,"is_reserved":false,"is_disabled":false,"rental_uris":{"android":"levelo://app?vid=3e1b7de2-dcbe-4860-be16-6397d00e898c","ios":"levelo://app?vid=3e1b7de2-dcbe-4860-be16-6397d00e898c"},"vehicle_type_id":"4","last_reported":1756307458,"current_range_meters":17200,"station_id":"ce4bhg12rcd13ifvqf70","pricing_plan_id":"cebpf4jnsgd1na2vs0mg"},{"bike_id":"c67682e4-ad86-4b65-b4ef-e774963b7e60","system_id":"levelo_inurba_marseille","lat":43.23196,"lon":5.35553,"is_reserved":false,"is_disabled":false,"rental_uris":{"android":"levelo://app?vid=c67682e4-ad86-4b65-b4ef-e774963b7e60","ios":"levelo://app?vid=c67682e4-ad86-4b65-b4ef-e774963b7e60"},"vehicle_type_id":"4","last_reported":1756307458,"current_range_meters":17200,"station_id":"ce4bhu92rcd13ifvqi70","pricing_plan_id":"cebpf4jnsgd1na2vs0mg"},{"bike_id":"ffe6df59-3fc1-4d81-9326-f6f6418e7718","system_id":"levelo_inurba_marseille","lat":43.29778,"lon":5.37342,"is_reserved":false,"is_disabled":false,"rental_uris":{"android":"levelo://app?vid=ffe6df59-3fc1-4d81-9326-f6f6418e7718","ios":"levelo://app?vid=ffe6df59-3fc1-4d81-9326-f6f6418e7718"},"vehicle_type_id":"4","last_reported":1756307458,"current_range_meters":17200,"station_id":"","pricing_plan_id":"cebpf4jnsgd1na2vs0mg"},{"bike_id":"19bf8938-c3ac-477a-9c27-edd856e98aab","system_id":"levelo_inurba_marseille","lat":43.281222,"lon":5.378454,"is_reserved":false,"is_disabled":false,"rental_uris":{"android":"levelo://app?vid=19bf8938-c3ac-477a-9c27-edd856e98aab","ios":"levelo://app?vid=19bf8938-c3ac-477a-9c27-edd856e98aab"},"vehicle_type_id":"4","last_reported":1756307458,"current_range_meters":17200,"station_id":"ce4bha12rcd13ifvqee0","pricing_plan_id":"cebpf4jnsgd1na2vs0mg"},{"bike_id":"23ae6fed-deff-411b-8b6e-f95e32ccd4d0","system_id":"levelo_inurba_marseille","lat":43.321281,"lon":5.36776,"is_reserved":false,"is_disabled":false,"rental_uris":{"android":"levelo://app?vid=23ae6fed-deff-411b-8b6e-f95e32ccd4d0","ios":"levelo://app?vid=23ae6fed-deff-411b-8b6e-f95e32ccd4d0"},"vehicle_type_id":"4","last_reported":1756307458,"current_range_meters":17200,"station_id":"ce4bhrh2rcd13ifvqhug","pricing_plan_id":"cebpf4jnsgd1na2vs0mg"},{"bike_id":"b064beca-48ce-498d-8ae7-76db4472ef7d","system_id":"levelo_inurba_marseille","lat":43.27421,"lon":5.39419,"is_reserved":false,"is_disabled":false,"rental_uris":{"android":"levelo://app?vid=b064beca-48ce-498d-8ae7-76db4472ef7d","ios":"levelo://app?vid=b064beca-48ce-498d-8ae7-76db4472ef7d"},"vehicle_type_id":"4","last_reported":1756307458,"current_range_meters":17200,"station_id":"ce4bhdp2rcd13ifvqf20","pricing_plan_id":"cebpf4jnsgd1na2vs0mg"},{"bike_id":"394fd99f-4cfd-47b1-b29f-c8025ff12410","system_id":"levelo_inurba_marseille","lat":43.28001,"lon":5.40011,"is_reserved":false,"is_disabled":false,"rental_uris":{"android":"levelo://app?vid=394fd99f-4cfd-47b1-b29f-c8025ff12410","ios":"levelo://app?vid=394fd99f-4cfd-47b1-b29f-c8025ff12410"},"vehicle_type_id":"4","last_reported":1756307458,"current_range_meters":17200,"station_id":"ce4bho92rcd13ifvqh4g","pricing_plan_id":"cebpf4jnsgd1na2vs0mg"},{"bike_id":"24df2c59-c2ae-4cf6-8d73-b821e9ca9612","system_id":"levelo_inurba_marseille","lat":43.280041,"lon":5.400065,"is_reserved":false,"is_disabled":false,"rental_uris":{"android":"levelo://app?vid=24df2c59-c2ae-4cf6-8d73-b821e9ca9612","ios":"levelo://app?vid=24df2c59-c2ae-4cf6-8d73-b821e9ca9612"},"vehicle_type_id":"4","last_reported":1756307458,"current_range_meters":17200,"station_id":"ce4bho92rcd13ifvqh4g","pricing_plan_id":"cebpf4jnsgd1na2vs0mg"},{"bike_id":"651c04c7-c2f3-4258-98c4-2abdeb471500","system_id":"levelo_inurba_marseille","lat":43.26558,"lon":5.37288,"is_reserved":false,"is_disabled":false,"rental_uris":{"android":"levelo://app?vid=651c04c7-c2f3-4258-98c4-2abdeb471500","ios":"levelo://app?vid=651c04c7-c2f3-4258-98c4-2abdeb471500"},"vehicle_type_id":"4","last_reported":1756307458,"current_range_meters":17200,"station_id":"ce4bhg12rcd13ifvqf70","pricing_plan_id":"cebpf4jnsgd1na2vs0mg"},{"bike_id":"5e7f48b7-7a8a-4409-af02-4d6a9097e8e0","system_id":"levelo_inurba_marseille","lat":43.29304,"lon":5.37175,"is_reserved":false,"is_disabled":false,"rental_uris":{"android":"levelo://app?vid=5e7f48b7-7a8a-4409-af02-4d6a9097e8e0","ios":"levelo://app?vid=5e7f48b7-7a8a-4409-af02-4d6a9097e8e0"},"vehicle_type_id":"4","last_reported":1756307458,"current_range_meters":17200,"station_id":"ce4bgh92rcd13ifvqb40","pricing_plan_id":"cebpf4jnsgd1na2vs0mg"},{"bike_id":"1c3055e6-ca6d-47a7-899b-dff0faa08ad6","system_id":"levelo_inurba_marseille","lat":43.30538,"lon":5.36532,"is_reserved":false,"is_disabled":false,"rental_uris":{"android":"levelo://app?vid=1c3055e6-ca6d-47a7-899b-dff0faa08ad6","ios":"levelo://app?vid=1c3055e6-ca6d-47a7-899b-dff0faa08ad6"},"vehicle_type_id":"4","last_reported":1756307458,"current_range_meters":17600,"station_id":"ce4bgs12rcd13ifvqcag","pricing_plan_id":"cebpf4jnsgd1na2vs0mg"},{"bike_id":"9f931510-bc5e-4533-a627-3746f1a4b550","system_id":"levelo_inurba_marseille","lat":43.30535,"lon":5.36703,"is_reserved":false,"is_disabled":false,"rental_uris":{"android":"levelo://app?vid=9f931510-bc5e-4533-a627-3746f1a4b550","ios":"levelo://app?vid=9f931510-bc5e-4533-a627-3746f1a4b550"},"vehicle_type_id":"4","last_reported":1756307458,"current_range_meters":17600,"station_id":"ce4bgrp2rcd13ifvqc9g","pricing_plan_id":"cebpf4jnsgd1na2vs0mg"},{"bike_id":"8df4d72a-2534-4225-b0d0-5b48bd4c7385","system_id":"levelo_inurba_marseille","lat":43.29448,"lon":5.39744,"is_reserved":false,"is_disabled":false,"rental_uris":{"android":"levelo://app?vid=8df4d72a-2534-4225-b0d0-5b48bd4c7385","ios":"levelo://app?vid=8df4d72a-2534-4225-b0d0-5b48bd4c7385"},"vehicle_type_id":"4","last_reported":1756307458,"current_range_meters":17600,"station_id":"ce4bh3h2rcd13ifvqdo0","pricing_plan_id":"cebpf4jnsgd1na2vs0mg"},{"bike_id":"b724bacf-5f79-4ff4-a7fb-6900193c82df","system_id":"levelo_inurba_marseille","lat":43.29273,"lon":5.38444,"is_reserved":false,"is_disabled":false,"rental_uris":{"android":"levelo://app?vid=b724bacf-5f79-4ff4-a7fb-6900193c82df","ios":"levelo://app?vid=b724bacf-5f79-4ff4-a7fb-6900193c82df"},"vehicle_type_id":"4","last_reported":1756307458,"current_range_meters":17600,"station_id":"ce4bh692rcd13ifvqea0","pricing_plan_id":"cebpf4jnsgd1na2vs0mg"},{"bike_id":"05d97e45-19dc-4128-88fe-ffa6fa61464f","system_id":"levelo_inurba_marseille","lat":43.26215,"lon":5.37458,"is_reserved":false,"is_disabled":false,"rental_uris":{"android":"levelo://app?vid=05d97e45-19dc-4128-88fe-ffa6fa61464f","ios":"levelo://app?vid=05d97e45-19dc-4128-88fe-ffa6fa61464f"},"vehicle_type_id":"4","last_reported":1756307458,"current_range_meters":17600,"station_id":"ce4bhgp2rcd13ifvqfc0","pricing_plan_id":"cebpf4jnsgd1na2vs0mg"},{"bike_id":"9540ebfc-7d4b-43c5-8a6a-194a25d5b779","system_id":"levelo_inurba_marseille","lat":43.31486,"lon":5.373,"is_reserved":false,"is_disabled":false,"rental_uris":{"android":"levelo://app?vid=9540ebfc-7d4b-43c5-8a6a-194a25d5b779","ios":"levelo://app?vid=9540ebfc-7d4b-43c5-8a6a-194a25d5b779"},"vehicle_type_id":"4","last_reported":1756307458,"current_range_meters":17600,"station_id":"ce4bgt12rcd13ifvqcd0","pricing_plan_id":"cebpf4jnsgd1na2vs0mg"},{"bike_id":"16e02c6d-cbdb-4447-a117-ab77b2d19637","system_id":"levelo_inurba_marseille","lat":43.25499,"lon":5.37637,"is_reserved":false,"is_disabled":false,"rental_uris":{"android":"levelo://app?vid=16e02c6d-cbdb-4447-a117-ab77b2d19637","ios":"levelo://app?vid=16e02c6d-cbdb-4447-a117-ab77b2d19637"},"vehicle_type_id":"4","last_reported":1756307458,"current_range_meters":17600,"station_id":"ce4bhh12rcd13ifvqff0","pricing_plan_id":"cebpf4jnsgd1na2vs0mg"},{"bike_id":"a5111d90-7a2c-4331-ac7f-caad20168099","system_id":"levelo_inurba_marseille","lat":43.26195,"lon":5.37437,"is_reserved":false,"is_disabled":false,"rental_uris":{"android":"levelo://app?vid=a5111d90-7a2c-4331-ac7f-caad20168099","ios":"levelo://app?vid=a5111d90-7a2c-4331-ac7f-caad20168099"},"vehicle_type_id":"4","last_reported":1756307458,"current_range_meters":17600,"station_id":"ce4bhgp2rcd13ifvqfc0","pricing_plan_id":"cebpf4jnsgd1na2vs0mg"},{"bike_id":"ba32ee63-528d-4993-b959-c2c878da42ec","system_id":"levelo_inurba_marseille","lat":43.25336,"lon":5.42172,"is_reserved":false,"is_disabled":false,"rental_uris":{"android":"levelo://app?vid=ba32ee63-528d-4993-b959-c2c878da42ec","ios":"levelo://app?vid=ba32ee63-528d-4993-b959-c2c878da42ec"},"vehicle_type_id":"4","last_reported":1756307458,"current_range_meters":17600,"station_id":"st_d2m65c5bi1j21697t3ng","pricing_plan_id":"cebpf4jnsgd1na2vs0mg"},{"bike_id":"576ffacb-57f0-498d-98ce-2d0a17394f89","system_id":"levelo_inurba_marseille","lat":43.28407,"lon":5.34983,"is_reserved":false,"is_disabled":false,"rental_uris":{"android":"levelo://app?vid=576ffacb-57f0-498d-98ce-2d0a17394f89","ios":"levelo://app?vid=576ffacb-57f0-498d-98ce-2d0a17394f89"},"vehicle_type_id":"4","last_reported":1756307458,"current_range_meters":18000,"station_id":"ce4bhbh2rcd13ifvqepg","pricing_plan_id":"cebpf4jnsgd1na2vs0mg"},{"bike_id":"2b272f13-f889-47a5-8972-8498ac631a20","system_id":"levelo_inurba_marseille","lat":43.26545,"lon":5.37297,"is_reserved":false,"is_disabled":false,"rental_uris":{"android":"levelo://app?vid=2b272f13-f889-47a5-8972-8498ac631a20","ios":"levelo://app?vid=2b272f13-f889-47a5-8972-8498ac631a20"},"vehicle_type_id":"4","last_reported":1756307458,"current_range_meters":18000,"station_id":"ce4bhg12rcd13ifvqf70","pricing_plan_id":"cebpf4jnsgd1na2vs0mg"},{"bike_id":"1091f287-02ee-4a66-888b-59c35fd65791","system_id":"levelo_inurba_marseille","lat":43.23187,"lon":5.35572,"is_reserved":false,"is_disabled":false,"rental_uris":{"android":"levelo://app?vid=1091f287-02ee-4a66-888b-59c35fd65791","ios":"levelo://app?vid=1091f287-02ee-4a66-888b-59c35fd65791"},"vehicle_type_id":"4","last_reported":1756307458,"current_range_meters":18000,"station_id":"ce4bhu92rcd13ifvqi70","pricing_plan_id":"cebpf4jnsgd1na2vs0mg"},{"bike_id":"ec0f9f0d-0796-42ac-9cf5-bb8596cdf342","system_id":"levelo_inurba_marseille","lat":43.21209,"lon":5.35053,"is_reserved":false,"is_disabled":false,"rental_uris":{"android":"levelo://app?vid=ec0f9f0d-0796-42ac-9cf5-bb8596cdf342","ios":"levelo://app?vid=ec0f9f0d-0796-42ac-9cf5-bb8596cdf342"},"vehicle_type_id":"4","last_reported":1756307458,"current_range_meters":18000,"station_id":"","pricing_plan_id":"cebpf4jnsgd1na2vs0mg"},{"bike_id":"7f96cfc7-6b62-4cd3-a164-5a1ee471a17d","system_id":"levelo_inurba_marseille","lat":43.30543,"lon":5.36527,"is_reserved":false,"is_disabled":false,"rental_uris":{"android":"levelo://app?vid=7f96cfc7-6b62-4cd3-a164-5a1ee471a17d","ios":"levelo://app?vid=7f96cfc7-6b62-4cd3-a164-5a1ee471a17d"},"vehicle_type_id":"4","last_reported":1756307458,"current_range_meters":18000,"station_id":"ce4bgs12rcd13ifvqcag","pricing_plan_id":"cebpf4jnsgd1na2vs0mg"},{"bike_id":"d09469a9-06f2-441c-8e48-0de616f4e67e","system_id":"levelo_inurba_marseille","lat":43.30473,"lon":5.37921,"is_reserved":false,"is_disabled":false,"rental_uris":{"android":"levelo://app?vid=d09469a9-06f2-441c-8e48-0de616f4e67e","ios":"levelo://app?vid=d09469a9-06f2-441c-8e48-0de616f4e67e"},"vehicle_type_id":"4","last_reported":1756307458,"current_range_meters":18000,"station_id":"ce4bgup2rcd13ifvqcn0","pricing_plan_id":"cebpf4jnsgd1na2vs0mg"},{"bike_id":"01f92d06-2c11-49e0-8fbd-c3d3e9fed8bb","system_id":"levelo_inurba_marseille","lat":43.26179,"lon":5.37451,"is_reserved":false,"is_disabled":false,"rental_uris":{"android":"levelo://app?vid=01f92d06-2c11-49e0-8fbd-c3d3e9fed8bb","ios":"levelo://app?vid=01f92d06-2c11-49e0-8fbd-c3d3e9fed8bb"},"vehicle_type_id":"4","last_reported":1756307458,"current_range_meters":18000,"station_id":"ce4bhgp2rcd13ifvqfc0","pricing_plan_id":"cebpf4jnsgd1na2vs0mg"},{"bike_id":"aaad8acc-f862-48ae-879c-9b0399375cef","system_id":"levelo_inurba_marseille","lat":43.29586,"lon":5.375227,"is_reserved":false,"is_disabled":false,"rental_uris":{"android":"levelo://app?vid=aaad8acc-f862-48ae-879c-9b0399375cef","ios":"levelo://app?vid=aaad8acc-f862-48ae-879c-9b0399375cef"},"vehicle_type_id":"4","last_reported":1756307458,"current_range_meters":18800,"station_id":"","pricing_plan_id":"cebpf4jnsgd1na2vs0mg"},{"bike_id":"2ddde0e2-2088-418b-9262-4b0d6e96e416","system_id":"levelo_inurba_marseille","lat":43.26027,"lon":5.37554,"is_reserved":false,"is_disabled":false,"rental_uris":{"android":"levelo://app?vid=2ddde0e2-2088-418b-9262-4b0d6e96e416","ios":"levelo://app?vid=2ddde0e2-2088-418b-9262-4b0d6e96e416"},"vehicle_type_id":"4","last_reported":1756307458,"current_range_meters":18800,"station_id":"ce4bhgh2rcd13ifvqfa0","pricing_plan_id":"cebpf4jnsgd1na2vs0mg"},{"bike_id":"336844db-669a-4b4e-a62a-d6696deb1566","system_id":"levelo_inurba_marseille","lat":43.25493,"lon":5.37657,"is_reserved":false,"is_disabled":false,"rental_uris":{"android":"levelo://app?vid=336844db-669a-4b4e-a62a-d6696deb1566","ios":"levelo://app?vid=336844db-669a-4b4e-a62a-d6696deb1566"},"vehicle_type_id":"4","last_reported":1756307458,"current_range_meters":18800,"station_id":"ce4bhh12rcd13ifvqff0","pricing_plan_id":"cebpf4jnsgd1na2vs0mg"},{"bike_id":"131927a1-aedf-47d1-a070-2e9836467902","system_id":"levelo_inurba_marseille","lat":43.2603,"lon":5.37546,"is_reserved":false,"is_disabled":false,"rental_uris":{"android":"levelo://app?vid=131927a1-aedf-47d1-a070-2e9836467902","ios":"levelo://app?vid=131927a1-aedf-47d1-a070-2e9836467902"},"vehicle_type_id":"4","last_reported":1756307458,"current_range_meters":18800,"station_id":"ce4bhgh2rcd13ifvqfa0","pricing_plan_id":"cebpf4jnsgd1na2vs0mg"},{"bike_id":"1afc9436-7d01-4b74-85fe-08c8b8ca3dc2","system_id":"levelo_inurba_marseille","lat":43.30535,"lon":5.3653,"is_reserved":false,"is_disabled":false,"rental_uris":{"android":"levelo://app?vid=1afc9436-7d01-4b74-85fe-08c8b8ca3dc2","ios":"levelo://app?vid=1afc9436-7d01-4b74-85fe-08c8b8ca3dc2"},"vehicle_type_id":"4","last_reported":1756307458,"current_range_meters":18800,"station_id":"ce4bgs12rcd13ifvqcag","pricing_plan_id":"cebpf4jnsgd1na2vs0mg"},{"bike_id":"831a2354-0919-4530-8e5a-84c32dcc2c03","system_id":"levelo_inurba_marseille","lat":43.272052,"lon":5.391826,"is_reserved":false,"is_disabled":false,"rental_uris":{"android":"levelo://app?vid=831a2354-0919-4530-8e5a-84c32dcc2c03","ios":"levelo://app?vid=831a2354-0919-4530-8e5a-84c32dcc2c03"},"vehicle_type_id":"4","last_reported":1756307458,"current_range_meters":18800,"station_id":"","pricing_plan_id":"cebpf4jnsgd1na2vs0mg"},{"bike_id":"2c246624-962d-4f72-8341-3c6523db29ef","system_id":"levelo_inurba_marseille","lat":43.26569,"lon":5.3729,"is_reserved":false,"is_disabled":true,"rental_uris":{"android":"levelo://app?vid=2c246624-962d-4f72-8341-3c6523db29ef","ios":"levelo://app?vid=2c246624-962d-4f72-8341-3c6523db29ef"},"vehicle_type_id":"4","last_reported":1756307458,"current_range_meters":18800,"station_id":"ce4bhg12rcd13ifvqf70","pricing_plan_id":"cebpf4jnsgd1na2vs0mg"},{"bike_id":"786a6cda-bdb4-4a0e-8388-1de30e9ffe7d","system_id":"levelo_inurba_marseille","lat":43.26023,"lon":5.37555,"is_reserved":false,"is_disabled":false,"rental_uris":{"android":"levelo://app?vid=786a6cda-bdb4-4a0e-8388-1de30e9ffe7d","ios":"levelo://app?vid=786a6cda-bdb4-4a0e-8388-1de30e9ffe7d"},"vehicle_type_id":"4","last_reported":1756307458,"current_range_meters":18800,"station_id":"ce4bhgh2rcd13ifvqfa0","pricing_plan_id":"cebpf4jnsgd1na2vs0mg"},{"bike_id":"b06015a0-eb84-4819-8e32-12531ec7f663","system_id":"levelo_inurba_marseille","lat":43.21758,"lon":5.34613,"is_reserved":false,"is_disabled":false,"rental_uris":{"android":"levelo://app?vid=b06015a0-eb84-4819-8e32-12531ec7f663","ios":"levelo://app?vid=b06015a0-eb84-4819-8e32-12531ec7f663"},"vehicle_type_id":"4","last_reported":1756307458,"current_range_meters":18800,"station_id":"st_cvj6r9ubvosntc0bgbag","pricing_plan_id":"cebpf4jnsgd1na2vs0mg"},{"bike_id":"57a88866-803d-447d-a914-df6e2fa5301c","system_id":"levelo_inurba_marseille","lat":43.33726,"lon":5.39189,"is_reserved":false,"is_disabled":false,"rental_uris":{"android":"levelo://app?vid=57a88866-803d-447d-a914-df6e2fa5301c","ios":"levelo://app?vid=57a88866-803d-447d-a914-df6e2fa5301c"},"vehicle_type_id":"4","last_reported":1756307458,"current_range_meters":18800,"station_id":"ce4bhr92rcd13ifvqhsg","pricing_plan_id":"cebpf4jnsgd1na2vs0mg"},{"bike_id":"4d8bfb0e-2ab6-4b86-a66d-54cc6b68139f","system_id":"levelo_inurba_marseille","lat":43.312148,"lon":5.368502,"is_reserved":false,"is_disabled":false,"rental_uris":{"android":"levelo://app?vid=4d8bfb0e-2ab6-4b86-a66d-54cc6b68139f","ios":"levelo://app?vid=4d8bfb0e-2ab6-4b86-a66d-54cc6b68139f"},"vehicle_type_id":"4","last_reported":1756307458,"current_range_meters":19200,"station_id":"ce4bgl92rcd13ifvqbq0","pricing_plan_id":"cebpf4jnsgd1na2vs0mg"},{"bike_id":"b0c8be56-68d2-4bef-9ffb-53930ab17892","system_id":"levelo_inurba_marseille","lat":43.21184,"lon":5.35055,"is_reserved":false,"is_disabled":false,"rental_uris":{"android":"levelo://app?vid=b0c8be56-68d2-4bef-9ffb-53930ab17892","ios":"levelo://app?vid=b0c8be56-68d2-4bef-9ffb-53930ab17892"},"vehicle_type_id":"4","last_reported":1756307458,"current_range_meters":19200,"station_id":"st_cvj6sg6p6f1abm77japg","pricing_plan_id":"cebpf4jnsgd1na2vs0mg"},{"bike_id":"07296681-3400-48d5-88e2-c863a00e5bf3","system_id":"levelo_inurba_marseille","lat":43.22934,"lon":5.35368,"is_reserved":false,"is_disabled":false,"rental_uris":{"android":"levelo://app?vid=07296681-3400-48d5-88e2-c863a00e5bf3","ios":"levelo://app?vid=07296681-3400-48d5-88e2-c863a00e5bf3"},"vehicle_type_id":"4","last_reported":1756307458,"current_range_meters":19200,"station_id":"cpo3532slgdg3j2ikp40","pricing_plan_id":"cebpf4jnsgd1na2vs0mg"},{"bike_id":"03080dce-1f55-4d92-8992-940a7cb2a486","system_id":"levelo_inurba_marseille","lat":43.21763,"lon":5.34558,"is_reserved":false,"is_disabled":false,"rental_uris":{"android":"levelo://app?vid=03080dce-1f55-4d92-8992-940a7cb2a486","ios":"levelo://app?vid=03080dce-1f55-4d92-8992-940a7cb2a486"},"vehicle_type_id":"4","last_reported":1756307458,"current_range_meters":19600,"station_id":"st_cvj6r9ubvosntc0bgbag","pricing_plan_id":"cebpf4jnsgd1na2vs0mg"},{"bike_id":"71e7111a-562a-4ba8-b3c9-216adb71c609","system_id":"levelo_inurba_marseille","lat":43.29923,"lon":5.36545,"is_reserved":false,"is_disabled":false,"rental_uris":{"android":"levelo://app?vid=71e7111a-562a-4ba8-b3c9-216adb71c609","ios":"levelo://app?vid=71e7111a-562a-4ba8-b3c9-216adb71c609"},"vehicle_type_id":"4","last_reported":1756307458,"current_range_meters":19600,"station_id":"ce4bgm92rcd13ifvqbr0","pricing_plan_id":"cebpf4jnsgd1na2vs0mg"},{"bike_id":"20c40bc5-0fe7-4d2a-aeac-3e4dba377090","system_id":"levelo_inurba_marseille","lat":43.31495,"lon":5.37328,"is_reserved":false,"is_disabled":false,"rental_uris":{"android":"levelo://app?vid=20c40bc5-0fe7-4d2a-aeac-3e4dba377090","ios":"levelo://app?vid=20c40bc5-0fe7-4d2a-aeac-3e4dba377090"},"vehicle_type_id":"4","last_reported":1756307458,"current_range_meters":19600,"station_id":"ce4bgt12rcd13ifvqcd0","pricing_plan_id":"cebpf4jnsgd1na2vs0mg"},{"bike_id":"731ff345-1377-45e9-acf9-0825f15b172a","system_id":"levelo_inurba_marseille","lat":43.22933,"lon":5.35373,"is_reserved":false,"is_disabled":false,"rental_uris":{"android":"levelo://app?vid=731ff345-1377-45e9-acf9-0825f15b172a","ios":"levelo://app?vid=731ff345-1377-45e9-acf9-0825f15b172a"},"vehicle_type_id":"4","last_reported":1756307458,"current_range_meters":19600,"station_id":"cpo3532slgdg3j2ikp40","pricing_plan_id":"cebpf4jnsgd1na2vs0mg"},{"bike_id":"43fb1eda-8f7d-4377-9b57-f38a0ecb5909","system_id":"levelo_inurba_marseille","lat":43.26216,"lon":5.37447,"is_reserved":false,"is_disabled":false,"rental_uris":{"android":"levelo://app?vid=43fb1eda-8f7d-4377-9b57-f38a0ecb5909","ios":"levelo://app?vid=43fb1eda-8f7d-4377-9b57-f38a0ecb5909"},"vehicle_type_id":"4","last_reported":1756307458,"current_range_meters":19600,"station_id":"ce4bhgp2rcd13ifvqfc0","pricing_plan_id":"cebpf4jnsgd1na2vs0mg"},{"bike_id":"780abdc9-e186-49e1-8168-b691c3851643","system_id":"levelo_inurba_marseille","lat":43.27942,"lon":5.41047,"is_reserved":false,"is_disabled":false,"rental_uris":{"android":"levelo://app?vid=780abdc9-e186-49e1-8168-b691c3851643","ios":"levelo://app?vid=780abdc9-e186-49e1-8168-b691c3851643"},"vehicle_type_id":"4","last_reported":1756307458,"current_range_meters":19600,"station_id":"ce4bhnp2rcd13ifvqh0g","pricing_plan_id":"cebpf4jnsgd1na2vs0mg"},{"bike_id":"c23caf68-a488-4334-9d78-a65d808efa33","system_id":"levelo_inurba_marseille","lat":43.27366,"lon":5.36254,"is_reserved":false,"is_disabled":false,"rental_uris":{"android":"levelo://app?vid=c23caf68-a488-4334-9d78-a65d808efa33","ios":"levelo://app?vid=c23caf68-a488-4334-9d78-a65d808efa33"},"vehicle_type_id":"4","last_reported":1756307458,"current_range_meters":19600,"station_id":"ce4bhbh2rcd13ifvqeo0","pricing_plan_id":"cebpf4jnsgd1na2vs0mg"},{"bike_id":"00865bff-72de-47be-acda-9cf6ec16a836","system_id":"levelo_inurba_marseille","lat":43.320984,"lon":5.367758,"is_reserved":false,"is_disabled":false,"rental_uris":{"android":"levelo://app?vid=00865bff-72de-47be-acda-9cf6ec16a836","ios":"levelo://app?vid=00865bff-72de-47be-acda-9cf6ec16a836"},"vehicle_type_id":"4","last_reported":1756307458,"current_range_meters":19600,"station_id":"ce4bhrh2rcd13ifvqhug","pricing_plan_id":"cebpf4jnsgd1na2vs0mg"},{"bike_id":"98e0c762-29d8-4bfc-b134-22f5686e79ea","system_id":"levelo_inurba_marseille","lat":43.269705,"lon":5.390362,"is_reserved":false,"is_disabled":false,"rental_uris":{"android":"levelo://app?vid=98e0c762-29d8-4bfc-b134-22f5686e79ea","ios":"levelo://app?vid=98e0c762-29d8-4bfc-b134-22f5686e79ea"},"vehicle_type_id":"4","last_reported":1756307458,"current_range_meters":19600,"station_id":"","pricing_plan_id":"cebpf4jnsgd1na2vs0mg"},{"bike_id":"04f94f1c-fbdb-44d6-bdef-30c9f4ae0feb","system_id":"levelo_inurba_marseille","lat":43.21215,"lon":5.35048,"is_reserved":false,"is_disabled":false,"rental_uris":{"android":"levelo://app?vid=04f94f1c-fbdb-44d6-bdef-30c9f4ae0feb","ios":"levelo://app?vid=04f94f1c-fbdb-44d6-bdef-30c9f4ae0feb"},"vehicle_type_id":"4","last_reported":1756307458,"current_range_meters":19600,"station_id":"","pricing_plan_id":"cebpf4jnsgd1na2vs0mg"},{"bike_id":"3b8f1331-07e8-4d95-a6ae-bd2dc71e179b","system_id":"levelo_inurba_marseille","lat":43.29957,"lon":5.37146,"is_reserved":false,"is_disabled":false,"rental_uris":{"android":"levelo://app?vid=3b8f1331-07e8-4d95-a6ae-bd2dc71e179b","ios":"levelo://app?vid=3b8f1331-07e8-4d95-a6ae-bd2dc71e179b"},"vehicle_type_id":"4","last_reported":1756307458,"current_range_meters":19600,"station_id":"ce4bgr92rcd13ifvqc7g","pricing_plan_id":"cebpf4jnsgd1na2vs0mg"},{"bike_id":"29c55d68-58c5-4ef2-b442-72bb9c55ddb0","system_id":"levelo_inurba_marseille","lat":43.32365,"lon":5.367493,"is_reserved":false,"is_disabled":false,"rental_uris":{"android":"levelo://app?vid=29c55d68-58c5-4ef2-b442-72bb9c55ddb0","ios":"levelo://app?vid=29c55d68-58c5-4ef2-b442-72bb9c55ddb0"},"vehicle_type_id":"4","last_reported":1756307458,"current_range_meters":19600,"station_id":"ce4bhsh2rcd13ifvqi2g","pricing_plan_id":"cebpf4jnsgd1na2vs0mg"},{"bike_id":"ab6247dc-2fe3-4429-8dac-593e78fb7c2d","system_id":"levelo_inurba_marseille","lat":43.26215,"lon":5.3744,"is_reserved":false,"is_disabled":false,"rental_uris":{"android":"levelo://app?vid=ab6247dc-2fe3-4429-8dac-593e78fb7c2d","ios":"levelo://app?vid=ab6247dc-2fe3-4429-8dac-593e78fb7c2d"},"vehicle_type_id":"4","last_reported":1756307458,"current_range_meters":20000,"station_id":"ce4bhgp2rcd13ifvqfc0","pricing_plan_id":"cebpf4jnsgd1na2vs0mg"},{"bike_id":"799a5a73-f688-4a9a-b6ca-6b1838f7353c","system_id":"levelo_inurba_marseille","lat":43.297111,"lon":5.366064,"is_reserved":false,"is_disabled":false,"rental_uris":{"android":"levelo://app?vid=799a5a73-f688-4a9a-b6ca-6b1838f7353c","ios":"levelo://app?vid=799a5a73-f688-4a9a-b6ca-6b1838f7353c"},"vehicle_type_id":"4","last_reported":1756307458,"current_range_meters":20000,"station_id":"ce4bgn12rcd13ifvqbt0","pricing_plan_id":"cebpf4jnsgd1na2vs0mg"},{"bike_id":"0af0f320-23b0-45ca-9c40-bc18e7db8ef7","system_id":"levelo_inurba_marseille","lat":43.29192,"lon":5.35808,"is_reserved":false,"is_disabled":false,"rental_uris":{"android":"levelo://app?vid=0af0f320-23b0-45ca-9c40-bc18e7db8ef7","ios":"levelo://app?vid=0af0f320-23b0-45ca-9c40-bc18e7db8ef7"},"vehicle_type_id":"4","last_reported":1756307458,"current_range_meters":20000,"station_id":"ce4bhb12rcd13ifvqel0","pricing_plan_id":"cebpf4jnsgd1na2vs0mg"},{"bike_id":"567e6f99-c8f5-427d-a8fc-dfeb10e27cac","system_id":"levelo_inurba_marseille","lat":43.31067,"lon":5.38354,"is_reserved":false,"is_disabled":false,"rental_uris":{"android":"levelo://app?vid=567e6f99-c8f5-427d-a8fc-dfeb10e27cac","ios":"levelo://app?vid=567e6f99-c8f5-427d-a8fc-dfeb10e27cac"},"vehicle_type_id":"4","last_reported":1756307458,"current_range_meters":20000,"station_id":"ce4bgv92rcd13ifvqcr0","pricing_plan_id":"cebpf4jnsgd1na2vs0mg"},{"bike_id":"81c34132-16a4-4c52-b1f1-84e975214106","system_id":"levelo_inurba_marseille","lat":43.2742,"lon":5.39413,"is_reserved":false,"is_disabled":false,"rental_uris":{"android":"levelo://app?vid=81c34132-16a4-4c52-b1f1-84e975214106","ios":"levelo://app?vid=81c34132-16a4-4c52-b1f1-84e975214106"},"vehicle_type_id":"4","last_reported":1756307458,"current_range_meters":19600,"station_id":"ce4bhdp2rcd13ifvqf20","pricing_plan_id":"cebpf4jnsgd1na2vs0mg"},{"bike_id":"fad509bb-f53b-44b6-a94f-044ddb828f7d","system_id":"levelo_inurba_marseille","lat":43.27064,"lon":5.40258,"is_reserved":false,"is_disabled":true,"rental_uris":{"android":"levelo://app?vid=fad509bb-f53b-44b6-a94f-044ddb828f7d","ios":"levelo://app?vid=fad509bb-f53b-44b6-a94f-044ddb828f7d"},"vehicle_type_id":"4","last_reported":1756307458,"current_range_meters":20000,"station_id":"cjm6bp8fraef2m0cb0m0","pricing_plan_id":"cebpf4jnsgd1na2vs0mg"},{"bike_id":"e0d943fc-6cb5-418b-84a5-6f385478697e","system_id":"levelo_inurba_marseille","lat":43.25498,"lon":5.37657,"is_reserved":false,"is_disabled":false,"rental_uris":{"android":"levelo://app?vid=e0d943fc-6cb5-418b-84a5-6f385478697e","ios":"levelo://app?vid=e0d943fc-6cb5-418b-84a5-6f385478697e"},"vehicle_type_id":"4","last_reported":1756307458,"current_range_meters":20000,"station_id":"ce4bhh12rcd13ifvqff0","pricing_plan_id":"cebpf4jnsgd1na2vs0mg"},{"bike_id":"81316125-b200-4c97-94fb-ebe1603085bb","system_id":"levelo_inurba_marseille","lat":43.26219,"lon":5.3743,"is_reserved":false,"is_disabled":false,"rental_uris":{"android":"levelo://app?vid=81316125-b200-4c97-94fb-ebe1603085bb","ios":"levelo://app?vid=81316125-b200-4c97-94fb-ebe1603085bb"},"vehicle_type_id":"4","last_reported":1756307458,"current_range_meters":20000,"station_id":"ce4bhgp2rcd13ifvqfc0","pricing_plan_id":"cebpf4jnsgd1na2vs0mg"},{"bike_id":"5ecc5803-5d9a-4fe1-ba34-d97bd3f9caa3","system_id":"levelo_inurba_marseille","lat":43.29531,"lon":5.39393,"is_reserved":false,"is_disabled":false,"rental_uris":{"android":"levelo://app?vid=5ecc5803-5d9a-4fe1-ba34-d97bd3f9caa3","ios":"levelo://app?vid=5ecc5803-5d9a-4fe1-ba34-d97bd3f9caa3"},"vehicle_type_id":"4","last_reported":1756307458,"current_range_meters":19600,"station_id":"ce4bh292rcd13ifvqdf0","pricing_plan_id":"cebpf4jnsgd1na2vs0mg"},{"bike_id":"4cb36b4d-0c4f-4727-b20c-0b85ba3ce80d","system_id":"levelo_inurba_marseille","lat":43.23188,"lon":5.35556,"is_reserved":false,"is_disabled":false,"rental_uris":{"android":"levelo://app?vid=4cb36b4d-0c4f-4727-b20c-0b85ba3ce80d","ios":"levelo://app?vid=4cb36b4d-0c4f-4727-b20c-0b85ba3ce80d"},"vehicle_type_id":"4","last_reported":1756307458,"current_range_meters":19600,"station_id":"ce4bhu92rcd13ifvqi70","pricing_plan_id":"cebpf4jnsgd1na2vs0mg"},{"bike_id":"018d0618-b460-4035-a3ca-40101a44f6c0","system_id":"levelo_inurba_marseille","lat":43.28407,"lon":5.34984,"is_reserved":false,"is_disabled":false,"rental_uris":{"android":"levelo://app?vid=018d0618-b460-4035-a3ca-40101a44f6c0","ios":"levelo://app?vid=018d0618-b460-4035-a3ca-40101a44f6c0"},"vehicle_type_id":"4","last_reported":1756307458,"current_range_meters":20000,"station_id":"ce4bhbh2rcd13ifvqepg","pricing_plan_id":"cebpf4jnsgd1na2vs0mg"},{"bike_id":"d4411ce1-1269-4134-adda-1eb61c16980f","system_id":"levelo_inurba_marseille","lat":43.28122,"lon":5.37854,"is_reserved":false,"is_disabled":true,"rental_uris":{"android":"levelo://app?vid=d4411ce1-1269-4134-adda-1eb61c16980f","ios":"levelo://app?vid=d4411ce1-1269-4134-adda-1eb61c16980f"},"vehicle_type_id":"4","last_reported":1756307458,"current_range_meters":20400,"station_id":"ce4bha12rcd13ifvqee0","pricing_plan_id":"cebpf4jnsgd1na2vs0mg"},{"bike_id":"c914a072-ed71-4fc5-80f3-57d1e0459370","system_id":"levelo_inurba_marseille","lat":43.26557,"lon":5.37295,"is_reserved":false,"is_disabled":false,"rental_uris":{"android":"levelo://app?vid=c914a072-ed71-4fc5-80f3-57d1e0459370","ios":"levelo://app?vid=c914a072-ed71-4fc5-80f3-57d1e0459370"},"vehicle_type_id":"4","last_reported":1756307458,"current_range_meters":20400,"station_id":"ce4bhg12rcd13ifvqf70","pricing_plan_id":"cebpf4jnsgd1na2vs0mg"},{"bike_id":"fc71f842-e64d-43bd-9647-da6d65922fdf","system_id":"levelo_inurba_marseille","lat":43.21757,"lon":5.34599,"is_reserved":false,"is_disabled":false,"rental_uris":{"android":"levelo://app?vid=fc71f842-e64d-43bd-9647-da6d65922fdf","ios":"levelo://app?vid=fc71f842-e64d-43bd-9647-da6d65922fdf"},"vehicle_type_id":"4","last_reported":1756307458,"current_range_meters":20400,"station_id":"st_cvj6r9ubvosntc0bgbag","pricing_plan_id":"cebpf4jnsgd1na2vs0mg"},{"bike_id":"117e7a7a-6e78-476d-b042-3a3159610eec","system_id":"levelo_inurba_marseille","lat":43.26216,"lon":5.37464,"is_reserved":false,"is_disabled":false,"rental_uris":{"android":"levelo://app?vid=117e7a7a-6e78-476d-b042-3a3159610eec","ios":"levelo://app?vid=117e7a7a-6e78-476d-b042-3a3159610eec"},"vehicle_type_id":"4","last_reported":1756307458,"current_range_meters":20400,"station_id":"ce4bhgp2rcd13ifvqfc0","pricing_plan_id":"cebpf4jnsgd1na2vs0mg"},{"bike_id":"e4007197-6905-41e6-8d79-14e7cc1c2e69","system_id":"levelo_inurba_marseille","lat":43.23193,"lon":5.35552,"is_reserved":false,"is_disabled":false,"rental_uris":{"android":"levelo://app?vid=e4007197-6905-41e6-8d79-14e7cc1c2e69","ios":"levelo://app?vid=e4007197-6905-41e6-8d79-14e7cc1c2e69"},"vehicle_type_id":"4","last_reported":1756307458,"current_range_meters":20400,"station_id":"ce4bhu92rcd13ifvqi70","pricing_plan_id":"cebpf4jnsgd1na2vs0mg"},{"bike_id":"d189223e-5d23-44d5-85a0-9a74e040d855","system_id":"levelo_inurba_marseille","lat":43.30208,"lon":5.39467,"is_reserved":false,"is_disabled":false,"rental_uris":{"android":"levelo://app?vid=d189223e-5d23-44d5-85a0-9a74e040d855","ios":"levelo://app?vid=d189223e-5d23-44d5-85a0-9a74e040d855"},"vehicle_type_id":"4","last_reported":1756307458,"current_range_meters":20400,"station_id":"ce4bh0p2rcd13ifvqd70","pricing_plan_id":"cebpf4jnsgd1na2vs0mg"},{"bike_id":"c8ed8afa-4750-4d5e-b29e-7da3cd8f4dc7","system_id":"levelo_inurba_marseille","lat":43.32349,"lon":5.36703,"is_reserved":false,"is_disabled":false,"rental_uris":{"android":"levelo://app?vid=c8ed8afa-4750-4d5e-b29e-7da3cd8f4dc7","ios":"levelo://app?vid=c8ed8afa-4750-4d5e-b29e-7da3cd8f4dc7"},"vehicle_type_id":"4","last_reported":1756307458,"current_range_meters":20400,"station_id":"ce4bhsh2rcd13ifvqi2g","pricing_plan_id":"cebpf4jnsgd1na2vs0mg"},{"bike_id":"9944892f-c423-49a6-80e3-d21746e0ead9","system_id":"levelo_inurba_marseille","lat":43.32353,"lon":5.36752,"is_reserved":false,"is_disabled":false,"rental_uris":{"android":"levelo://app?vid=9944892f-c423-49a6-80e3-d21746e0ead9","ios":"levelo://app?vid=9944892f-c423-49a6-80e3-d21746e0ead9"},"vehicle_type_id":"4","last_reported":1756307458,"current_range_meters":20800,"station_id":"ce4bhsh2rcd13ifvqi2g","pricing_plan_id":"cebpf4jnsgd1na2vs0mg"},{"bike_id":"8e7b1d79-9b06-424d-a396-c72233a4d2a9","system_id":"levelo_inurba_marseille","lat":43.30551,"lon":5.36548,"is_reserved":false,"is_disabled":false,"rental_uris":{"android":"levelo://app?vid=8e7b1d79-9b06-424d-a396-c72233a4d2a9","ios":"levelo://app?vid=8e7b1d79-9b06-424d-a396-c72233a4d2a9"},"vehicle_type_id":"4","last_reported":1756307458,"current_range_meters":20800,"station_id":"ce4bgs12rcd13ifvqcag","pricing_plan_id":"cebpf4jnsgd1na2vs0mg"},