{"last_updated":1733929809,"ttl":60,"version":"2.2","data":{"bikes":[{"bike_id":"15b6f56a-fad1-4f70-a7fb-6fe1c65798e2","system_id":"levelo_inurba_marseille","lat":43.32454,"lon":5.36578,"is_reserved":false,"is_disabled":false,"rental_uris":{"android":"levelo://app?vid=15b6f56a-fad1-4f70-a7fb-6fe1c65798e2","ios":"levelo://app?vid=15b6f56a-fad1-4f70-a7fb-6fe1c65798e2"},"vehicle_type_id":"4","last_reported":1733929809,"current_range_meters":38800,"station_id":"ce4bhs12rcd13ifvqhvg","pricing_plan_id":"cebpf4jnsgd1na2vs0mg"},{"bike_id":"b266efff-3a14-4d1a-a25a-c68ad062a1f4","system_id":"levelo_inurba_marseille","lat":43.24171,"lon":5.36387,"is_reserved":false,"is_disabled":false,"rental_uris":{"android":"levelo://app?vid=b266efff-3a14-4d1a-a25a-c68ad062a1f4","ios":"levelo://app?vid=b266efff-3a14-4d1a-a25a-c68ad062a1f4"},"vehicle_type_id":"4","last_reported":1733929809,"current_range_meters":9200,"station_id":"cpo36qri1sfpv3e86is0","pricing_plan_id":"cebpf4jnsgd1na2vs0mg"},{"bike_id":"23b5111a-f1d0-4d10-910c-56c961adecb0","system_id":"levelo_inurba_marseille","lat":43.2606,"lon":5.39398,"is_reserved":false,"is_disabled":false,"rental_uris":{"android":"levelo://app?vid=23b5111a-f1d0-4d10-910c-56c961adecb0","ios":"levelo://app?vid=23b5111a-f1d0-4d10-910c-56c961adecb0"},"vehicle_type_id":"4","last_reported":1733929809,"current_range_meters":38800,"station_id":"ce4bhh92rcd13ifvqfj0","pricing_plan_id":"cebpf4jnsgd1na2vs0mg"},{"bike_id":"2211ee04-fdf6-42b9-bc83-47e14425660f","system_id":"levelo_inurba_marseille","lat":43.28456,"lon":5.35885,"is_reserved":false,"is_disabled":false,"rental_uris":{"android":"levelo://app?vid=2211ee04-fdf6-42b9-bc83-47e14425660f","ios":"levelo://app?vid=2211ee04-fdf6-42b9-bc83-47e14425660f"},"vehicle_type_id":"4","last_reported":1733929809,"current_range_meters":24800,"station_id":"ce4bhah2rcd13ifvqei0","pricing_plan_id":"cebpf4jnsgd1na2vs0mg"},{"bike_id":"931f8f36-b47f-4a79-b0e5-13bbb718650c","system_id":"levelo_inurba_marseille","lat":43.31679,"lon":5.40472,"is_reserved":false,"is_disabled":false,"rental_uris":{"android":"levelo://app?vid=931f8f36-b47f-4a79-b0e5-13bbb718650c","ios":"levelo://app?vid=931f8f36-b47f-4a79-b0e5-13bbb718650c"},"vehicle_type_id":"4","last_reported":1733929809,"current_range_meters":11600,"station_id":"ce4bh012rcd13ifvqd00","pricing_plan_id":"cebpf4jnsgd1na2vs0mg"},{"bike_id":"804fb5ae-c098-40ef-abb3-c4b55608adfa","system_id":"levelo_inurba_marseille","lat":43.2885,"lon":5.35849,"is_reserved":false,"is_disabled":false,"rental_uris":{"android":"levelo://app?vid=804fb5ae-c098-40ef-abb3-c4b55608adfa","ios":"levelo://app?vid=804fb5ae-c098-40ef-abb3-c4b55608adfa"},"vehicle_type_id":"4","last_reported":1733929809,"current_range_meters":20400,"station_id":"ce4bhb12rcd13ifvqem0","pricing_plan_id":"cebpf4jnsgd1na2vs0mg"},{"bike_id":"2525bf92-7c3a-4f73-8ffa-805f23bcd7ed","system_id":"levelo_inurba_marseille","lat":43.29469,"lon":5.37528,"is_reserved":false,"is_disabled":false,"rental_uris":{"android":"levelo://app?vid=2525bf92-7c3a-4f73-8ffa-805f23bcd7ed","ios":"levelo://app?vid=2525bf92-7c3a-4f73-8ffa-805f23bcd7ed"},"vehicle_type_id":"4","last_reported":1733929809,"current_range_meters":24400,"station_id":"","pricing_plan_id":"cebpf4jnsgd1na2vs0mg"},{"bike_id":"980f96eb-32c9-4906-98f6-c44dbf4c84a1","system_id":"levelo_inurba_marseille","lat":43.27455,"lon":5.40073,"is_reserved":false,"is_disabled":true,"rental_uris":{"android":"levelo://app?vid=980f96eb-32c9-4906-98f6-c44dbf4c84a1","ios":"levelo://app?vid=980f96eb-32c9-4906-98f6-c44dbf4c84a1"},"vehicle_type_id":"4","last_reported":1733929809,"current_range_meters":0,"station_id":"","pricing_plan_id":"cebpf4jnsgd1na2vs0mg"},{"bike_id":"9bf40631-ec60-42a1-bd49-b216ed3f8cbc","system_id":"levelo_inurba_marseille","lat":43.25714,"lon":5.41118,"is_reserved":false,"is_disabled":false,"rental_uris":{"android":"levelo://app?vid=9bf40631-ec60-42a1-bd49-b216ed3f8cbc","ios":"levelo://app?vid=9bf40631-ec60-42a1-bd49-b216ed3f8cbc"},"vehicle_type_id":"4","last_reported":1733929809,"current_range_meters":9200,"station_id":"ce4bhkp2rcd13ifvqgd0","pricing_plan_id":"cebpf4jnsgd1na2vs0mg"},{"bike_id":"bc5a1e92-ec6b-4cc4-bbb6-7c8c8491cb46","system_id":"levelo_inurba_marseille","lat":43.26215,"lon":5.37946,"is_reserved":false,"is_disabled":false,"rental_uris":{"android":"levelo://app?vid=bc5a1e92-ec6b-4cc4-bbb6-7c8c8491cb46","ios":"levelo://app?vid=bc5a1e92-ec6b-4cc4-bbb6-7c8c8491cb46"},"vehicle_type_id":"4","last_reported":1733929809,"current_range_meters":36000,"station_id":"ce4bhjp2rcd13ifvqg90","pricing_plan_id":"cebpf4jnsgd1na2vs0mg"},{"bike_id":"5e72c7e6-93b7-4d61-9b23-e1c2841ed855","system_id":"levelo_inurba_marseille","lat":43.33768,"lon":5.37421,"is_reserved":false,"is_disabled":false,"rental_uris":{"android":"levelo://app?vid=5e72c7e6-93b7-4d61-9b23-e1c2841ed855","ios":"levelo://app?vid=5e72c7e6-93b7-4d61-9b23-e1c2841ed855"},"vehicle_type_id":"4","last_reported":1733929809,"current_range_meters":35600,"station_id":"","pricing_plan_id":"cebpf4jnsgd1na2vs0mg"},{"bike_id":"a6c9c386-9669-4b23-badf-1123d99a9721","system_id":"levelo_inurba_marseille","lat":43.23964,"lon":5.36635,"is_reserved":false,"is_disabled":false,"rental_uris":{"android":"levelo://app?vid=a6c9c386-9669-4b23-badf-1123d99a9721","ios":"levelo://app?vid=a6c9c386-9669-4b23-badf-1123d99a9721"},"vehicle_type_id":"4","last_reported":1733929809,"current_range_meters":12800,"station_id":"ce4bhi12rcd13ifvqfp0","pricing_plan_id":"cebpf4jnsgd1na2vs0mg"},{"bike_id":"cc81157e-3c39-4de5-b66b-ea6fef91534e","system_id":"levelo_inurba_marseille","lat":43.25816,"lon":5.39437,"is_reserved":false,"is_disabled":false,"rental_uris":{"android":"levelo://app?vid=cc81157e-3c39-4de5-b66b-ea6fef91534e","ios":"levelo://app?vid=cc81157e-3c39-4de5-b66b-ea6fef91534e"},"vehicle_type_id":"4","last_reported":1733929809,"current_range_meters":27600,"station_id":"ce4bhip2rcd13ifvqft0","pricing_plan_id":"cebpf4jnsgd1na2vs0mg"},{"bike_id":"d3ad5745-453e-42c0-a41b-ce8568706162","system_id":"levelo_inurba_marseille","lat":43.25493,"lon":5.37648,"is_reserved":false,"is_disabled":false,"rental_uris":{"android":"levelo://app?vid=d3ad5745-453e-42c0-a41b-ce8568706162","ios":"levelo://app?vid=d3ad5745-453e-42c0-a41b-ce8568706162"},"vehicle_type_id":"4","last_reported":1733929809,"current_range_meters":22000,"station_id":"ce4bhh12rcd13ifvqff0","pricing_plan_id":"cebpf4jnsgd1na2vs0mg"},{"bike_id":"a8a84261-28e0-4fd8-8f1d-56c2dd8a64ce","system_id":"levelo_inurba_marseille","lat":43.2894,"lon":5.36396,"is_reserved":false,"is_disabled":false,"rental_uris":{"android":"levelo://app?vid=a8a84261-28e0-4fd8-8f1d-56c2dd8a64ce","ios":"levelo://app?vid=a8a84261-28e0-4fd8-8f1d-56c2dd8a64ce"},"vehicle_type_id":"4","last_reported":1733929809,"current_range_meters":9200,"station_id":"ce4bhc92rcd13ifvqetg","pricing_plan_id":"cebpf4jnsgd1na2vs0mg"},{"bike_id":"ddeaaf4d-efa4-4933-8dce-84bfb589344a","system_id":"levelo_inurba_marseille","lat":43.26193,"lon":5.3745,"is_reserved":false,"is_disabled":false,"rental_uris":{"android":"levelo://app?vid=ddeaaf4d-efa4-4933-8dce-84bfb589344a","ios":"levelo://app?vid=ddeaaf4d-efa4-4933-8dce-84bfb589344a"},"vehicle_type_id":"4","last_reported":1733929809,"current_range_meters":16800,"station_id":"ce4bhgp2rcd13ifvqfc0","pricing_plan_id":"cebpf4jnsgd1na2vs0mg"},{"bike_id":"540c0837-0aea-4654-a816-770284c86fe9","system_id":"levelo_inurba_marseille","lat":43.30129,"lon":5.37422,"is_reserved":false,"is_disabled":false,"rental_uris":{"android":"levelo://app?vid=540c0837-0aea-4654-a816-770284c86fe9","ios":"levelo://app?vid=540c0837-0aea-4654-a816-770284c86fe9"},"vehicle_type_id":"4","last_reported":1733929809,"current_range_meters":23200,"station_id":"ce4bgs92rcd13ifvqcc0","pricing_plan_id":"cebpf4jnsgd1na2vs0mg"},{"bike_id":"4eb332a7-c584-42e7-bf32-1f33d7b41639","system_id":"levelo_inurba_marseille","lat":43.29375,"lon":5.37858,"is_reserved":false,"is_disabled":false,"rental_uris":{"android":"levelo://app?vid=4eb332a7-c584-42e7-bf32-1f33d7b41639","ios":"levelo://app?vid=4eb332a7-c584-42e7-bf32-1f33d7b41639"},"vehicle_type_id":"4","last_reported":1733929809,"current_range_meters":16400,"station_id":"ce4bgjh2rcd13ifvqbf0","pricing_plan_id":"cebpf4jnsgd1na2vs0mg"},{"bike_id":"1a164c92-2524-4a89-8165-f38bfbd01657","system_id":"levelo_inurba_marseille","lat":43.29423,"lon":5.38619,"is_reserved":false,"is_disabled":false,"rental_uris":{"android":"levelo://app?vid=1a164c92-2524-4a89-8165-f38bfbd01657","ios":"levelo://app?vid=1a164c92-2524-4a89-8165-f38bfbd01657"},"vehicle_type_id":"4","last_reported":1733929809,"current_range_meters":28000,"station_id":"ce4bh2h2rcd13ifvqdh0","pricing_plan_id":"cebpf4jnsgd1na2vs0mg"},{"bike_id":"18f6cf3e-d45c-4e87-a2c6-b559a1d69ee1","system_id":"levelo_inurba_marseille","lat":43.2962,"lon":5.37169,"is_reserved":false,"is_disabled":false,"rental_uris":{"android":"levelo://app?vid=18f6cf3e-d45c-4e87-a2c6-b559a1d69ee1","ios":"levelo://app?vid=18f6cf3e-d45c-4e87-a2c6-b559a1d69ee1"},"vehicle_type_id":"4","last_reported":1733929809,"current_range_meters":36800,"station_id":"ce4bgnh2rcd13ifvqc0g","pricing_plan_id":"cebpf4jnsgd1na2vs0mg"},{"bike_id":"3660a68e-019e-40c8-a98b-d1f56975d36b","system_id":"levelo_inurba_marseille","lat":43.26957,"lon":5.38625,"is_reserved":false,"is_disabled":false,"rental_uris":{"android":"levelo://app?vid=3660a68e-019e-40c8-a98b-d1f56975d36b","ios":"levelo://app?vid=3660a68e-019e-40c8-a98b-d1f56975d36b"},"vehicle_type_id":"4","last_reported":1733929809,"current_range_meters":9600,"station_id":"ce4bhn12rcd13ifvqgqg","pricing_plan_id":"cebpf4jnsgd1na2vs0mg"},{"bike_id":"4a4aeb57-33b9-43dd-b0be-596cb8addc70","system_id":"levelo_inurba_marseille","lat":43.28942,"lon":5.364,"is_reserved":false,"is_disabled":false,"rental_uris":{"android":"levelo://app?vid=4a4aeb57-33b9-43dd-b0be-596cb8addc70","ios":"levelo://app?vid=4a4aeb57-33b9-43dd-b0be-596cb8addc70"},"vehicle_type_id":"4","last_reported":1733929809,"current_range_meters":38800,"station_id":"ce4bhc92rcd13ifvqetg","pricing_plan_id":"cebpf4jnsgd1na2vs0mg"},{"bike_id":"1b502474-2e11-43a3-922a-75f5113deb81","system_id":"levelo_inurba_marseille","lat":43.25927,"lon":5.40892,"is_reserved":false,"is_disabled":false,"rental_uris":{"android":"levelo://app?vid=1b502474-2e11-43a3-922a-75f5113deb81","ios":"levelo://app?vid=1b502474-2e11-43a3-922a-75f5113deb81"},"vehicle_type_id":"4","last_reported":1733929809,"current_range_meters":28400,"station_id":"ce4bhm92rcd13ifvqglg","pricing_plan_id":"cebpf4jnsgd1na2vs0mg"},{"bike_id":"fe4cab58-ba30-4c78-b62f-d4434eea7628","system_id":"levelo_inurba_marseille","lat":43.29401,"lon":5.39767,"is_reserved":false,"is_disabled":true,"rental_uris":{"android":"levelo://app?vid=fe4cab58-ba30-4c78-b62f-d4434eea7628","ios":"levelo://app?vid=fe4cab58-ba30-4c78-b62f-d4434eea7628"},"vehicle_type_id":"4","last_reported":1733929809,"current_range_meters":35200,"station_id":"ce4bh3h2rcd13ifvqdo0","pricing_plan_id":"cebpf4jnsgd1na2vs0mg"},{"bike_id":"187a9cac-9fe7-4437-bc4f-beab8d1e51ae","system_id":"levelo_inurba_marseille","lat":43.29546,"lon":5.42273,"is_reserved":false,"is_disabled":false,"rental_uris":{"android":"levelo://app?vid=187a9cac-9fe7-4437-bc4f-beab8d1e51ae","ios":"levelo://app?vid=187a9cac-9fe7-4437-bc4f-beab8d1e51ae"},"vehicle_type_id":"4","last_reported":1733929809,"current_range_meters":38400,"station_id":"ce4bhph2rcd13ifvqhdg","pricing_plan_id":"cebpf4jnsgd1na2vs0mg"},{"bike_id":"82732914-0270-4313-988e-aff4ee85b69c","system_id":"levelo_inurba_marseille","lat":43.25086,"lon":5.39518,"is_reserved":false,"is_disabled":false,"rental_uris":{"android":"levelo://app?vid=82732914-0270-4313-988e-aff4ee85b69c","ios":"levelo://app?vid=82732914-0270-4313-988e-aff4ee85b69c"},"vehicle_type_id":"4","last_reported":1733929809,"current_range_meters":30400,"station_id":"ce4bhm12rcd13ifvqgkg","pricing_plan_id":"cebpf4jnsgd1na2vs0mg"},{"bike_id":"b8098ce0-edc6-4663-9107-d168aa78ec9f","system_id":"levelo_inurba_marseille","lat":43.30875,"lon":5.3963,"is_reserved":false,"is_disabled":false,"rental_uris":{"android":"levelo://app?vid=b8098ce0-edc6-4663-9107-d168aa78ec9f","ios":"levelo://app?vid=b8098ce0-edc6-4663-9107-d168aa78ec9f"},"vehicle_type_id":"4","last_reported":1733929809,"current_range_meters":18000,"station_id":"ce4bh012rcd13ifvqcv0","pricing_plan_id":"cebpf4jnsgd1na2vs0mg"},{"bike_id":"75052bfa-918d-4a31-83e0-d5491c3908ab","system_id":"levelo_inurba_marseille","lat":43.34146,"lon":5.40901,"is_reserved":false,"is_disabled":false,"rental_uris":{"android":"levelo://app?vid=75052bfa-918d-4a31-83e0-d5491c3908ab","ios":"levelo://app?vid=75052bfa-918d-4a31-83e0-d5491c3908ab"},"vehicle_type_id":"4","last_reported":1733929809,"current_range_meters":29600,"station_id":"ce4bhqh2rcd13ifvqhlg","pricing_plan_id":"cebpf4jnsgd1na2vs0mg"},{"bike_id":"8979b88b-e0c9-465c-b920-54c929607786","system_id":"levelo_inurba_marseille","lat":43.30414,"lon":5.36773,"is_reserved":false,"is_disabled":false,"rental_uris":{"android":"levelo://app?vid=8979b88b-e0c9-465c-b920-54c929607786","ios":"levelo://app?vid=8979b88b-e0c9-465c-b920-54c929607786"},"vehicle_type_id":"4","last_reported":1733929809,"current_range_meters":19200,"station_id":"","pricing_plan_id":"cebpf4jnsgd1na2vs0mg"},{"bike_id":"3a56946e-b571-4f0a-89c3-228266a44430","system_id":"levelo_inurba_marseille","lat":43.26597,"lon":5.38971,"is_reserved":false,"is_disabled":false,"rental_uris":{"android":"levelo://app?vid=3a56946e-b571-4f0a-89c3-228266a44430","ios":"levelo://app?vid=3a56946e-b571-4f0a-89c3-228266a44430"},"vehicle_type_id":"4","last_reported":1733929809,"current_range_meters":7200,"station_id":"","pricing_plan_id":"cebpf4jnsgd1na2vs0mg"},{"bike_id":"cf4d2af6-95c4-4568-891c-493e55528f97","system_id":"levelo_inurba_marseille","lat":43.2467,"lon":5.38163,"is_reserved":false,"is_disabled":false,"rental_uris":{"android":"levelo://app?vid=cf4d2af6-95c4-4568-891c-493e55528f97","ios":"levelo://app?vid=cf4d2af6-95c4-4568-891c-493e55528f97"},"vehicle_type_id":"4","last_reported":1733929809,"current_range_meters":38800,"station_id":"ce4bhih2rcd13ifvqfr0","pricing_plan_id":"cebpf4jnsgd1na2vs0mg"},{"bike_id":"be996c2c-82bc-497b-8556-74a4068852af","system_id":"levelo_inurba_marseille","lat":43.25868,"lon":5.39896,"is_reserved":false,"is_disabled":false,"rental_uris":{"android":"levelo://app?vid=be996c2c-82bc-497b-8556-74a4068852af","ios":"levelo://app?vid=be996c2c-82bc-497b-8556-74a4068852af"},"vehicle_type_id":"4","last_reported":1733929809,"current_range_meters":32400,"station_id":"ce4bhl92rcd13ifvqghg","pricing_plan_id":"cebpf4jnsgd1na2vs0mg"},{"bike_id":"87568ae6-6aa5-4498-9232-a7f6ef51d115","system_id":"levelo_inurba_marseille","lat":43.317137,"lon":5.37728,"is_reserved":false,"is_disabled":false,"rental_uris":{"android":"levelo://app?vid=87568ae6-6aa5-4498-9232-a7f6ef51d115","ios":"levelo://app?vid=87568ae6-6aa5-4498-9232-a7f6ef51d115"},"vehicle_type_id":"4","last_reported":1733929809,"current_range_meters":14000,"station_id":"ce4bgth2rcd13ifvqch0","pricing_plan_id":"cebpf4jnsgd1na2vs0mg"},{"bike_id":"4f27d113-d5a6-4b7e-aecf-cd263ab10057","system_id":"levelo_inurba_marseille","lat":43.32474,"lon":5.36567,"is_reserved":false,"is_disabled":false,"rental_uris":{"android":"levelo://app?vid=4f27d113-d5a6-4b7e-aecf-cd263ab10057","ios":"levelo://app?vid=4f27d113-d5a6-4b7e-aecf-cd263ab10057"},"vehicle_type_id":"4","last_reported":1733929809,"current_range_meters":38800,"station_id":"ce4bhs12rcd13ifvqhvg","pricing_plan_id":"cebpf4jnsgd1na2vs0mg"},{"bike_id":"eedaa0dc-42dc-491d-9600-c264f7e3bd7d","system_id":"levelo_inurba_marseille","lat":43.25577,"lon":5.38248,"is_reserved":false,"is_disabled":false,"rental_uris":{"android":"levelo://app?vid=eedaa0dc-42dc-491d-9600-c264f7e3bd7d","ios":"levelo://app?vid=eedaa0dc-42dc-491d-9600-c264f7e3bd7d"},"vehicle_type_id":"4","last_reported":1733929809,"current_range_meters":29600,"station_id":"ce4bhih2rcd13ifvqfs0","pricing_plan_id":"cebpf4jnsgd1na2vs0mg"},{"bike_id":"b6945a0b-a7b7-43e6-8925-5145c2af84b7","system_id":"levelo_inurba_marseille","lat":43.25498,"lon":5.37651,"is_reserved":false,"is_disabled":false,"rental_uris":{"android":"levelo://app?vid=b6945a0b-a7b7-43e6-8925-5145c2af84b7","ios":"levelo://app?vid=b6945a0b-a7b7-43e6-8925-5145c2af84b7"},"vehicle_type_id":"4","last_reported":1733929809,"current_range_meters":31200,"station_id":"ce4bhh12rcd13ifvqff0","pricing_plan_id":"cebpf4jnsgd1na2vs0mg"},{"bike_id":"710539fc-b4b5-45b3-93fe-cae9f6eaa7ed","system_id":"levelo_inurba_marseille","lat":43.27684,"lon":5.38876,"is_reserved":false,"is_disabled":false,"rental_uris":{"android":"levelo://app?vid=710539fc-b4b5-45b3-93fe-cae9f6eaa7ed","ios":"levelo://app?vid=710539fc-b4b5-45b3-93fe-cae9f6eaa7ed"},"vehicle_type_id":"4","last_reported":1733929809,"current_range_meters":17600,"station_id":"ce4bhi12rcd13ifvqfo0","pricing_plan_id":"cebpf4jnsgd1na2vs0mg"},{"bike_id":"b18a7930-135f-41bf-aad6-9196ecc206a4","system_id":"levelo_inurba_marseille","lat":43.29711,"lon":5.36609,"is_reserved":false,"is_disabled":false,"rental_uris":{"android":"levelo://app?vid=b18a7930-135f-41bf-aad6-9196ecc206a4","ios":"levelo://app?vid=b18a7930-135f-41bf-aad6-9196ecc206a4"},"vehicle_type_id":"4","last_reported":1733929809,"current_range_meters":21600,"station_id":"ce4bgn12rcd13ifvqbt0","pricing_plan_id":"cebpf4jnsgd1na2vs0mg"},{"bike_id":"90324b92-2d52-4f43-bd59-91b2038c3497","system_id":"levelo_inurba_marseille","lat":43.28942,"lon":5.36631,"is_reserved":false,"is_disabled":true,"rental_uris":{"android":"levelo://app?vid=90324b92-2d52-4f43-bd59-91b2038c3497","ios":"levelo://app?vid=90324b92-2d52-4f43-bd59-91b2038c3497"},"vehicle_type_id":"4","last_reported":1733929809,"current_range_meters":30000,"station_id":"ce4bhap2rcd13ifvqek0","pricing_plan_id":"cebpf4jnsgd1na2vs0mg"},{"bike_id":"b40867c7-bcb3-440b-af50-8beabff870ee","system_id":"levelo_inurba_marseille","lat":43.28106,"lon":5.37829,"is_reserved":false,"is_disabled":false,"rental_uris":{"android":"levelo://app?vid=b40867c7-bcb3-440b-af50-8beabff870ee","ios":"levelo://app?vid=b40867c7-bcb3-440b-af50-8beabff870ee"},"vehicle_type_id":"4","last_reported":1733929809,"current_range_meters":14000,"station_id":"ce4bha12rcd13ifvqee0","pricing_plan_id":"cebpf4jnsgd1na2vs0mg"},{"bike_id":"615509c5-9f37-44e5-a161-de68f51b5d33","system_id":"levelo_inurba_marseille","lat":43.24181,"lon":5.39723,"is_reserved":false,"is_disabled":false,"rental_uris":{"android":"levelo://app?vid=615509c5-9f37-44e5-a161-de68f51b5d33","ios":"levelo://app?vid=615509c5-9f37-44e5-a161-de68f51b5d33"},"vehicle_type_id":"4","last_reported":1733929809,"current_range_meters":11600,"station_id":"ce4bhn12rcd13ifvqgpg","pricing_plan_id":"cebpf4jnsgd1na2vs0mg"},{"bike_id":"6faa6ee7-a588-4286-8e0c-a7deeaae5bab","system_id":"levelo_inurba_marseille","lat":43.27369,"lon":5.36231,"is_reserved":false,"is_disabled":false,"rental_uris":{"android":"levelo://app?vid=6faa6ee7-a588-4286-8e0c-a7deeaae5bab","ios":"levelo://app?vid=6faa6ee7-a588-4286-8e0c-a7deeaae5bab"},"vehicle_type_id":"4","last_reported":1733929809,"current_range_meters":38800,"station_id":"ce4bhbh2rcd13ifvqeo0","pricing_plan_id":"cebpf4jnsgd1na2vs0mg"},{"bike_id":"65ec1fbe-1744-4dfc-9781-955e0bc89a2b","system_id":"levelo_inurba_marseille","lat":43.324763,"lon":5.365689,"is_reserved":false,"is_disabled":false,"rental_uris":{"android":"levelo://app?vid=65ec1fbe-1744-4dfc-9781-955e0bc89a2b","ios":"levelo://app?vid=65ec1fbe-1744-4dfc-9781-955e0bc89a2b"},"vehicle_type_id":"4","last_reported":1733929809,"current_range_meters":17600,"station_id":"ce4bhs12rcd13ifvqhvg","pricing_plan_id":"cebpf4jnsgd1na2vs0mg"},{"bike_id":"716e3651-726d-4797-92a9-2212a7dacea5","system_id":"levelo_inurba_marseille","lat":43.29893,"lon":5.43669,"is_reserved":false,"is_disabled":false,"rental_uris":{"android":"levelo://app?vid=716e3651-726d-4797-92a9-2212a7dacea5","ios":"levelo://app?vid=716e3651-726d-4797-92a9-2212a7dacea5"},"vehicle_type_id":"4","last_reported":1733929809,"current_range_meters":29600,"station_id":"ce4bhpp2rcd13ifvqhfg","pricing_plan_id":"cebpf4jnsgd1na2vs0mg"},{"bike_id":"30b7f7b0-cffb-44e8-9e23-86428fe1183d","system_id":"levelo_inurba_marseille","lat":43.23067,"lon":5.35493,"is_reserved":false,"is_disabled":false,"rental_uris":{"android":"levelo://app?vid=30b7f7b0-cffb-44e8-9e23-86428fe1183d","ios":"levelo://app?vid=30b7f7b0-cffb-44e8-9e23-86428fe1183d"},"vehicle_type_id":"4","last_reported":1733929809,"current_range_meters":14000,"station_id":"cpo3342slgdg3j2ifvpg","pricing_plan_id":"cebpf4jnsgd1na2vs0mg"},{"bike_id":"a8b664e8-08b7-4cc9-b971-a063618684ea","system_id":"levelo_inurba_marseille","lat":43.27805,"lon":5.40714,"is_reserved":false,"is_disabled":false,"rental_uris":{"android":"levelo://app?vid=a8b664e8-08b7-4cc9-b971-a063618684ea","ios":"levelo://app?vid=a8b664e8-08b7-4cc9-b971-a063618684ea"},"vehicle_type_id":"4","last_reported":1733929809,"current_range_meters":39200,"station_id":"ce4bhnh2rcd13ifvqgtg","pricing_plan_id":"cebpf4jnsgd1na2vs0mg"},{"bike_id":"99c8795e-80d1-4432-b160-885e018f928e","system_id":"levelo_inurba_marseille","lat":43.29527,"lon":5.38543,"is_reserved":false,"is_disabled":false,"rental_uris":{"android":"levelo://app?vid=99c8795e-80d1-4432-b160-885e018f928e","ios":"levelo://app?vid=99c8795e-80d1-4432-b160-885e018f928e"},"vehicle_type_id":"4","last_reported":1733929809,"current_range_meters":4800,"station_id":"ce4bgih2rcd13ifvqba0","pricing_plan_id":"cebpf4jnsgd1na2vs0mg"},{"bike_id":"3525db53-1a03-423d-94da-dfa27d380ac3","system_id":"levelo_inurba_marseille","lat":43.25946,"lon":5.39871,"is_reserved":false,"is_disabled":false,"rental_uris":{"android":"levelo://app?vid=3525db53-1a03-423d-94da-dfa27d380ac3","ios":"levelo://app?vid=3525db53-1a03-423d-94da-dfa27d380ac3"},"vehicle_type_id":"4","last_reported":1733929809,"current_range_meters":34000,"station_id":"ce4bhl92rcd13ifvqghg","pricing_plan_id":"cebpf4jnsgd1na2vs0mg"},{"bike_id":"f90364ec-127f-4e8a-b079-37930fc76831","system_id":"levelo_inurba_marseille","lat":43.287079,"lon":5.379376,"is_reserved":false,"is_disabled":false,"rental_uris":{"android":"levelo://app?vid=f90364ec-127f-4e8a-b079-37930fc76831","ios":"levelo://app?vid=f90364ec-127f-4e8a-b079-37930fc76831"},"vehicle_type_id":"4","last_reported":1733929809,"current_range_meters":2800,"station_id":"","pricing_plan_id":"cebpf4jnsgd1na2vs0mg"},{"bike_id":"61a7ce69-e74f-4829-b590-1f8d20be8161","system_id":"levelo_inurba_marseille","lat":43.29262,"lon":5.36848,"is_reserved":false,"is_disabled":true,"rental_uris":{"android":"levelo://app?vid=61a7ce69-e74f-4829-b590-1f8d20be8161","ios":"levelo://app?vid=61a7ce69-e74f-4829-b590-1f8d20be8161"},"vehicle_type_id":"4","last_reported":1733929809,"current_range_meters":1200,"station_id":"ce4bhbp2rcd13ifvqesg","pricing_plan_id":"cebpf4jnsgd1na2vs0mg"},{"bike_id":"2e36a5ec-85ce-44ac-a1d9-54a8e609efa1","system_id":"levelo_inurba_marseille","lat":43.24169,"lon":5.36397,"is_reserved":false,"is_disabled":false,"rental_uris":{"android":"levelo://app?vid=2e36a5ec-85ce-44ac-a1d9-54a8e609efa1","ios":"levelo://app?vid=2e36a5ec-85ce-44ac-a1d9-54a8e609efa1"},"vehicle_type_id":"4","last_reported":1733929809,"current_range_meters":16800,"station_id":"cpo36qri1sfpv3e86is0","pricing_plan_id":"cebpf4jnsgd1na2vs0mg"},{"bike_id":"9f926d3b-92b7-419f-9579-7ea6d9a4c9e8","system_id":"levelo_inurba_marseille","lat":43.29002,"lon":5.35617,"is_reserved":false,"is_disabled":false,"rental_uris":{"android":"levelo://app?vid=9f926d3b-92b7-419f-9579-7ea6d9a4c9e8","ios":"levelo://app?vid=9f926d3b-92b7-419f-9579-7ea6d9a4c9e8"},"vehicle_type_id":"4","last_reported":1733929809,"current_range_meters":33600,"station_id":"ce4bhb92rcd13ifvqen0","pricing_plan_id":"cebpf4jnsgd1na2vs0mg"},{"bike_id":"0f17d2c4-bf96-42e6-978b-f52d4d5288cd","system_id":"levelo_inurba_marseille","lat":43.30308,"lon":5.40435,"is_reserved":false,"is_disabled":true,"rental_uris":{"android":"levelo://app?vid=0f17d2c4-bf96-42e6-978b-f52d4d5288cd","ios":"levelo://app?vid=0f17d2c4-bf96-42e6-978b-f52d4d5288cd"},"vehicle_type_id":"4","last_reported":1733929809,"current_range_meters":33600,"station_id":"ce4bh012rcd13ifvqd10","pricing_plan_id":"cebpf4jnsgd1na2vs0mg"},{"bike_id":"a2cbed10-302c-4b79-b6d0-c0c616ca87bc","system_id":"levelo_inurba_marseille","lat":43.31219,"lon":5.36846,"is_reserved":false,"is_disabled":false,"rental_uris":{"android":"levelo://app?vid=a2cbed10-302c-4b79-b6d0-c0c616ca87bc","ios":"levelo://app?vid=a2cbed10-302c-4b79-b6d0-c0c616ca87bc"},"vehicle_type_id":"4","last_reported":1733929809,"current_range_meters":30400,"station_id":"ce4bgl92rcd13ifvqbq0","pricing_plan_id":"cebpf4jnsgd1na2vs0mg"},{"bike_id":"79263867-ab0b-431e-89dc-246e72ff457f","system_id":"levelo_inurba_marseille","lat":43.2866,"lon":5.38661,"is_reserved":false,"is_disabled":true,"rental_uris":{"android":"levelo://app?vid=79263867-ab0b-431e-89dc-246e72ff457f","ios":"levelo://app?vid=79263867-ab0b-431e-89dc-246e72ff457f"},"vehicle_type_id":"4","last_reported":1733929809,"current_range_meters":38800,"station_id":"ce4bh492rcd13ifvqdug","pricing_plan_id":"cebpf4jnsgd1na2vs0mg"},{"bike_id":"4da8f61d-0f2a-4234-a08c-151dfadd6b43","system_id":"levelo_inurba_marseille","lat":43.300373,"lon":5.36408,"is_reserved":false,"is_disabled":true,"rental_uris":{"android":"levelo://app?vid=4da8f61d-0f2a-4234-a08c-151dfadd6b43","ios":"levelo://app?vid=4da8f61d-0f2a-4234-a08c-151dfadd6b43"},"vehicle_type_id":"4","last_reported":1733929809,"current_range_meters":0,"station_id":"","pricing_plan_id":"cebpf4jnsgd1na2vs0mg"},{"bike_id":"9f97bc61-e7eb-4861-8880-368545206066","system_id":"levelo_inurba_marseille","lat":43.27424,"lon":5.39418,"is_reserved":false,"is_disabled":false,"rental_uris":{"android":"levelo://app?vid=9f97bc61-e7eb-4861-8880-368545206066","ios":"levelo://app?vid=9f97bc61-e7eb-4861-8880-368545206066"},"vehicle_type_id":"4","last_reported":1733929809,"current_range_meters":38800,"station_id":"ce4bhdp2rcd13ifvqf20","pricing_plan_id":"cebpf4jnsgd1na2vs0mg"},{"bike_id":"adf0af41-e59b-479f-8964-06bd1a272f54","system_id":"levelo_inurba_marseille","lat":43.23172,"lon":5.39995,"is_reserved":false,"is_disabled":false,"rental_uris":{"android":"levelo://app?vid=adf0af41-e59b-479f-8964-06bd1a272f54","ios":"levelo://app?vid=adf0af41-e59b-479f-8964-06bd1a272f54"},"vehicle_type_id":"4","last_reported":1733929809,"current_range_meters":4800,"station_id":"ce4bhn12rcd13ifvqgqg","pricing_plan_id":"cebpf4jnsgd1na2vs0mg"},{"bike_id":"72d634b6-1cb1-4064-981e-760137611038","system_id":"levelo_inurba_marseille","lat":43.30898,"lon":5.36835,"is_reserved":false,"is_disabled":false,"rental_uris":{"android":"levelo://app?vid=72d634b6-1cb1-4064-981e-760137611038","ios":"levelo://app?vid=72d634b6-1cb1-4064-981e-760137611038"},"vehicle_type_id":"4","last_reported":1733929809,"current_range_meters":38800,"station_id":"ce4bgn92rcd13ifvqbvg","pricing_plan_id":"cebpf4jnsgd1na2vs0mg"},{"bike_id":"e9b08cca-37ab-4633-8ff7-2d0a0a0131fe","system_id":"levelo_inurba_marseille","lat":43.2679,"lon":5.40275,"is_reserved":false,"is_disabled":false,"rental_uris":{"android":"levelo://app?vid=e9b08cca-37ab-4633-8ff7-2d0a0a0131fe","ios":"levelo://app?vid=e9b08cca-37ab-4633-8ff7-2d0a0a0131fe"},"vehicle_type_id":"4","last_reported":1733929809,"current_range_meters":27600,"station_id":"ce501612rcd8frsf0b60","pricing_plan_id":"cebpf4jnsgd1na2vs0mg"},{"bike_id":"b1704e06-3ae3-4455-a517-a4600fc51933","system_id":"levelo_inurba_marseille","lat":43.30519,"lon":5.36522,"is_reserved":false,"is_disabled":false,"rental_uris":{"android":"levelo://app?vid=b1704e06-3ae3-4455-a517-a4600fc51933","ios":"levelo://app?vid=b1704e06-3ae3-4455-a517-a4600fc51933"},"vehicle_type_id":"4","last_reported":1733929809,"current_range_meters":27200,"station_id":"","pricing_plan_id":"cebpf4jnsgd1na2vs0mg"},{"bike_id":"af67ac53-ba21-4ff0-8334-95679e9ff2cc","system_id":"levelo_inurba_marseille","lat":43.278805,"lon":5.388003,"is_reserved":false,"is_disabled":true,"rental_uris":{"android":"levelo://app?vid=af67ac53-ba21-4ff0-8334-95679e9ff2cc","ios":"levelo://app?vid=af67ac53-ba21-4ff0-8334-95679e9ff2cc"},"vehicle_type_id":"4","last_reported":1733929809,"current_range_meters":0,"station_id":"","pricing_plan_id":"cebpf4jnsgd1na2vs0mg"},{"bike_id":"ab6bb814-6be0-4a23-8be0-7c219c550454","system_id":"levelo_inurba_marseille","lat":43.2944,"lon":5.39766,"is_reserved":false,"is_disabled":true,"rental_uris":{"android":"levelo://app?vid=ab6bb814-6be0-4a23-8be0-7c219c550454","ios":"levelo://app?vid=ab6bb814-6be0-4a23-8be0-7c219c550454"},"vehicle_type_id":"4","last_reported":1733929809,"current_range_meters":800,"station_id":"ce4bh3h2rcd13ifvqdo0","pricing_plan_id":"cebpf4jnsgd1na2vs0mg"},{"bike_id":"023b58c7-ef71-430c-ab3c-df11fcf250e1","system_id":"levelo_inurba_marseille","lat":43.28616,"lon":5.35102,"is_reserved":false,"is_disabled":false,"rental_uris":{"android":"levelo://app?vid=023b58c7-ef71-430c-ab3c-df11fcf250e1","ios":"levelo://app?vid=023b58c7-ef71-430c-ab3c-df11fcf250e1"},"vehicle_type_id":"4","last_reported":1733929809,"current_range_meters":36400,"station_id":"ce4bhch2rcd13ifvqeug","pricing_plan_id":"cebpf4jnsgd1na2vs0mg"},{"bike_id":"309c6ca2-0724-4df4-b751-fca7c30f4de6","system_id":"levelo_inurba_marseille","lat":43.25726,"lon":5.41098,"is_reserved":false,"is_disabled":false,"rental_uris":{"android":"levelo://app?vid=309c6ca2-0724-4df4-b751-fca7c30f4de6","ios":"levelo://app?vid=309c6ca2-0724-4df4-b751-fca7c30f4de6"},"vehicle_type_id":"4","last_reported":1733929809,"current_range_meters":24400,"station_id":"ce4bhkp2rcd13ifvqgd0","pricing_plan_id":"cebpf4jnsgd1na2vs0mg"},{"bike_id":"512311c6-8e27-4752-8fc0-b8cbde613e6b","system_id":"levelo_inurba_marseille","lat":43.26182,"lon":5.37453,"is_reserved":false,"is_disabled":false,"rental_uris":{"android":"levelo://app?vid=512311c6-8e27-4752-8fc0-b8cbde613e6b","ios":"levelo://app?vid=512311c6-8e27-4752-8fc0-b8cbde613e6b"},"vehicle_type_id":"4","last_reported":1733929809,"current_range_meters":16000,"station_id":"ce4bhgp2rcd13ifvqfc0","pricing_plan_id":"cebpf4jnsgd1na2vs0mg"},{"bike_id":"c3f87c2d-f647-4d71-89d3-fc010d8ba668","system_id":"levelo_inurba_marseille","lat":43.28483,"lon":5.38416,"is_reserved":false,"is_disabled":true,"rental_uris":{"android":"levelo://app?vid=c3f87c2d-f647-4d71-89d3-fc010d8ba668","ios":"levelo://app?vid=c3f87c2d-f647-4d71-89d3-fc010d8ba668"},"vehicle_type_id":"4","last_reported":1733929809,"current_range_meters":0,"station_id":"ce4bh512rcd13ifvqe3g","pricing_plan_id":"cebpf4jnsgd1na2vs0mg"},{"bike_id":"ad53aee5-a729-48be-8206-ea00c2981c19","system_id":"levelo_inurba_marseille","lat":43.30516,"lon":5.36545,"is_reserved":false,"is_disabled":true,"rental_uris":{"android":"levelo://app?vid=ad53aee5-a729-48be-8206-ea00c2981c19","ios":"levelo://app?vid=ad53aee5-a729-48be-8206-ea00c2981c19"},"vehicle_type_id":"4","last_reported":1733929809,"current_range_meters":0,"station_id":"","pricing_plan_id":"cebpf4jnsgd1na2vs0mg"},{"bike_id":"0b3eeec8-03fc-4ec9-a747-da2e101f987f","system_id":"levelo_inurba_marseille","lat":43.23954,"lon":5.36639,"is_reserved":false,"is_disabled":false,"rental_uris":{"android":"levelo://app?vid=0b3eeec8-03fc-4ec9-a747-da2e101f987f","ios":"levelo://app?vid=0b3eeec8-03fc-4ec9-a747-da2e101f987f"},"vehicle_type_id":"4","last_reported":1733929809,"current_range_meters":30400,"station_id":"ce4bhi12rcd13ifvqfp0","pricing_plan_id":"cebpf4jnsgd1na2vs0mg"},{"bike_id":"bf685501-15c9-48c5-9dc4-de72909678bb","system_id":"levelo_inurba_marseille","lat":43.28101,"lon":5.37849,"is_reserved":false,"is_disabled":false,"rental_uris":{"android":"levelo://app?vid=bf685501-15c9-48c5-9dc4-de72909678bb","ios":"levelo://app?vid=bf685501-15c9-48c5-9dc4-de72909678bb"},"vehicle_type_id":"4","last_reported":1733929809,"current_range_meters":38800,"station_id":"ce4bha12rcd13ifvqee0","pricing_plan_id":"cebpf4jnsgd1na2vs0mg"},{"bike_id":"e071dfa3-6104-4b01-b89d-0ef3a4784361","system_id":"levelo_inurba_marseille","lat":43.29076,"lon":5.37179,"is_reserved":false,"is_disabled":true,"rental_uris":{"android":"levelo://app?vid=e071dfa3-6104-4b01-b89d-0ef3a4784361","ios":"levelo://app?vid=e071dfa3-6104-4b01-b89d-0ef3a4784361"},"vehicle_type_id":"4","last_reported":1733929809,"current_range_meters":2000,"station_id":"ce4bh5p2rcd13ifvqe4g","pricing_plan_id":"cebpf4jnsgd1na2vs0mg"},{"bike_id":"d52151fd-3166-45c5-8eb2-284318e15c58","system_id":"levelo_inurba_marseille","lat":43.303,"lon":5.36898,"is_reserved":false,"is_disabled":false,"rental_uris":{"android":"levelo://app?vid=d52151fd-3166-45c5-8eb2-284318e15c58","ios":"levelo://app?vid=d52151fd-3166-45c5-8eb2-284318e15c58"},"vehicle_type_id":"4","last_reported":1733929809,"current_range_meters":37600,"station_id":"ce4bgqh2rcd13ifvqc5g","pricing_plan_id":"cebpf4jnsgd1na2vs0mg"},{"bike_id":"b28878b5-db89-4926-af43-89dc62f49c5f","system_id":"levelo_inurba_marseille","lat":43.24162,"lon":5.36403,"is_reserved":false,"is_disabled":false,"rental_uris":{"android":"levelo://app?vid=b28878b5-db89-4926-af43-89dc62f49c5f","ios":"levelo://app?vid=b28878b5-db89-4926-af43-89dc62f49c5f"},"vehicle_type_id":"4","last_reported":1733929809,"current_range_meters":24800,"station_id":"cpo36qri1sfpv3e86is0","pricing_plan_id":"cebpf4jnsgd1na2vs0mg"},{"bike_id":"b4b53727-192a-4071-94e2-f245c2c5f041","system_id":"levelo_inurba_marseille","lat":43.27985,"lon":5.39536,"is_reserved":false,"is_disabled":false,"rental_uris":{"android":"levelo://app?vid=b4b53727-192a-4071-94e2-f245c2c5f041","ios":"levelo://app?vid=b4b53727-192a-4071-94e2-f245c2c5f041"},"vehicle_type_id":"4","last_reported":1733929809,"current_range_meters":36400,"station_id":"","pricing_plan_id":"cebpf4jnsgd1na2vs0mg"},{"bike_id":"c052db9d-2071-40ed-bf00-c241f3a56104","system_id":"levelo_inurba_marseille","lat":43.27567,"lon":5.38432,"is_reserved":false,"is_disabled":false,"rental_uris":{"android":"levelo://app?vid=c052db9d-2071-40ed-bf00-c241f3a56104","ios":"levelo://app?vid=c052db9d-2071-40ed-bf00-c241f3a56104"},"vehicle_type_id":"4","last_reported":1733929809,"current_range_meters":38400,"station_id":"ce4bhh92rcd13ifvqfi0","pricing_plan_id":"cebpf4jnsgd1na2vs0mg"},{"bike_id":"0aaf9b22-f7e1-4e4f-a1a5-7a779d72a1d4","system_id":"levelo_inurba_marseille","lat":43.298243,"lon":5.377713,"is_reserved":false,"is_disabled":true,"rental_uris":{"android":"levelo://app?vid=0aaf9b22-f7e1-4e4f-a1a5-7a779d72a1d4","ios":"levelo://app?vid=0aaf9b22-f7e1-4e4f-a1a5-7a779d72a1d4"},"vehicle_type_id":"4","last_reported":1733929809,"current_range_meters":400,"station_id":"","pricing_plan_id":"cebpf4jnsgd1na2vs0mg"},{"bike_id":"cefa54cb-a0bd-4d51-b13e-03ea2047e36f","system_id":"levelo_inurba_marseille","lat":43.29563,"lon":5.37493,"is_reserved":false,"is_disabled":true,"rental_uris":{"android":"levelo://app?vid=cefa54cb-a0bd-4d51-b13e-03ea2047e36f","ios":"levelo://app?vid=cefa54cb-a0bd-4d51-b13e-03ea2047e36f"},"vehicle_type_id":"4","last_reported":1733929809,"current_range_meters":32400,"station_id":"ce4bgh92rcd13ifvqb50","pricing_plan_id":"cebpf4jnsgd1na2vs0mg"},{"bike_id":"0af1466e-bb15-4b7b-a481-9e52ac8458d7","system_id":"levelo_inurba_marseille","lat":43.31989,"lon":5.38139,"is_reserved":false,"is_disabled":false,"rental_uris":{"android":"levelo://app?vid=0af1466e-bb15-4b7b-a481-9e52ac8458d7","ios":"levelo://app?vid=0af1466e-bb15-4b7b-a481-9e52ac8458d7"},"vehicle_type_id":"4","last_reported":1733929809,"current_range_meters":32000,"station_id":"ce4bhr12rcd13ifvqhpg","pricing_plan_id":"cebpf4jnsgd1na2vs0mg"},{"bike_id":"246b94fb-94e9-4edc-a271-3b94bf19ef70","system_id":"levelo_inurba_marseille","lat":43.31081,"lon":5.42432,"is_reserved":false,"is_disabled":false,"rental_uris":{"android":"levelo://app?vid=246b94fb-94e9-4edc-a271-3b94bf19ef70","ios":"levelo://app?vid=246b94fb-94e9-4edc-a271-3b94bf19ef70"},"vehicle_type_id":"4","last_reported":1733929809,"current_range_meters":22000,"station_id":"ce4bhp92rcd13ifvqhag","pricing_plan_id":"cebpf4jnsgd1na2vs0mg"},{"bike_id":"b8e3a311-f02b-4399-af7b-1bfb5506fa2a","system_id":"levelo_inurba_marseille","lat":43.24646,"lon":5.38897,"is_reserved":false,"is_disabled":false,"rental_uris":{"android":"levelo://app?vid=b8e3a311-f02b-4399-af7b-1bfb5506fa2a","ios":"levelo://app?vid=b8e3a311-f02b-4399-af7b-1bfb5506fa2a"},"vehicle_type_id":"4","last_reported":1733929809,"current_range_meters":28400,"station_id":"ce4bhg12rcd13ifvqf60","pricing_plan_id":"cebpf4jnsgd1na2vs0mg"},{"bike_id":"40aa3401-ee50-4d6d-8cdb-064bb29e5ead","system_id":"levelo_inurba_marseille","lat":43.32476,"lon":5.3658,"is_reserved":false,"is_disabled":false,"rental_uris":{"android":"levelo://app?vid=40aa3401-ee50-4d6d-8cdb-064bb29e5ead","ios":"levelo://app?vid=40aa3401-ee50-4d6d-8cdb-064bb29e5ead"},"vehicle_type_id":"4","last_reported":1733929809,"current_range_meters":38800,"station_id":"ce4bhs12rcd13ifvqhvg","pricing_plan_id":"cebpf4jnsgd1na2vs0mg"},{"bike_id":"c8000abf-7b04-4aa2-881e-f0c5fefdd95b","system_id":"levelo_inurba_marseille","lat":43.31988,"lon":5.38157,"is_reserved":false,"is_disabled":false,"rental_uris":{"android":"levelo://app?vid=c8000abf-7b04-4aa2-881e-f0c5fefdd95b","ios":"levelo://app?vid=c8000abf-7b04-4aa2-881e-f0c5fefdd95b"},"vehicle_type_id":"4","last_reported":1733929809,"current_range_meters":19200,"station_id":"ce4bhr12rcd13ifvqhpg","pricing_plan_id":"cebpf4jnsgd1na2vs0mg"},{"bike_id":"5746a913-59cb-4881-b851-217de753d5a3","system_id":"levelo_inurba_marseille","lat":43.25084,"lon":5.39537,"is_reserved":false,"is_disabled":false,"rental_uris":{"android":"levelo://app?vid=5746a913-59cb-4881-b851-217de753d5a3","ios":"levelo://app?vid=5746a913-59cb-4881-b851-217de753d5a3"},"vehicle_type_id":"4","last_reported":1733929809,"current_range_meters":27200,"station_id":"ce4bhm12rcd13ifvqgkg","pricing_plan_id":"cebpf4jnsgd1na2vs0mg"},{"bike_id":"df375cf7-1c37-4cb1-afb6-ce19ba5fe98c","system_id":"levelo_inurba_marseille","lat":43.30948,"lon":5.39039,"is_reserved":false,"is_disabled":false,"rental_uris":{"android":"levelo://app?vid=df375cf7-1c37-4cb1-afb6-ce19ba5fe98c","ios":"levelo://app?vid=df375cf7-1c37-4cb1-afb6-ce19ba5fe98c"},"vehicle_type_id":"4","last_reported":1733929809,"current_range_meters":22000,"station_id":"ce4bgup2rcd13ifvqco0","pricing_plan_id":"cebpf4jnsgd1na2vs0mg"},{"bike_id":"09b49b1c-d762-4e78-a5fc-61880c0dfa64","system_id":"levelo_inurba_marseille","lat":43.29634,"lon":5.40597,"is_reserved":false,"is_disabled":false,"rental_uris":{"android":"levelo://app?vid=09b49b1c-d762-4e78-a5fc-61880c0dfa64","ios":"levelo://app?vid=09b49b1c-d762-4e78-a5fc-61880c0dfa64"},"vehicle_type_id":"4","last_reported":1733929809,"current_range_meters":31200,"station_id":"ce4bh0h2rcd13ifvqd60","pricing_plan_id":"cebpf4jnsgd1na2vs0mg"},{"bike_id":"50b714ae-96e6-4593-bfba-7d9f49fa5482","system_id":"levelo_inurba_marseille","lat":43.23969,"lon":5.36658,"is_reserved":false,"is_disabled":false,"rental_uris":{"android":"levelo://app?vid=50b714ae-96e6-4593-bfba-7d9f49fa5482","ios":"levelo://app?vid=50b714ae-96e6-4593-bfba-7d9f49fa5482"},"vehicle_type_id":"4","last_reported":1733929809,"current_range_meters":38800,"station_id":"ce4bhi12rcd13ifvqfp0","pricing_plan_id":"cebpf4jnsgd1na2vs0mg"},{"bike_id":"9e5c8928-7eb8-42f4-a2fa-1ecf026bec03","system_id":"levelo_inurba_marseille","lat":43.28441,"lon":5.39195,"is_reserved":false,"is_disabled":true,"rental_uris":{"android":"levelo://app?vid=9e5c8928-7eb8-42f4-a2fa-1ecf026bec03","ios":"levelo://app?vid=9e5c8928-7eb8-42f4-a2fa-1ecf026bec03"},"vehicle_type_id":"4","last_reported":1733929809,"current_range_meters":0,"station_id":"ce4bhoh2rcd13ifvqh5g","pricing_plan_id":"cebpf4jnsgd1na2vs0mg"},{"bike_id":"14471182-9d0d-40e5-8e79-639672641a3b","system_id":"levelo_inurba_marseille","lat":43.27371,"lon":5.36238,"is_reserved":false,"is_disabled":false,"rental_uris":{"android":"levelo://app?vid=14471182-9d0d-40e5-8e79-639672641a3b","ios":"levelo://app?vid=14471182-9d0d-40e5-8e79-639672641a3b"},"vehicle_type_id":"4","last_reported":1733929809,"current_range_meters":38800,"station_id":"ce4bhbh2rcd13ifvqeo0","pricing_plan_id":"cebpf4jnsgd1na2vs0mg"},{"bike_id":"440c0882-719b-4b38-aba1-872c74c75218","system_id":"levelo_inurba_marseille","lat":43.32274,"lon":5.38259,"is_reserved":false,"is_disabled":false,"rental_uris":{"android":"levelo://app?vid=440c0882-719b-4b38-aba1-872c74c75218","ios":"levelo://app?vid=440c0882-719b-4b38-aba1-872c74c75218"},"vehicle_type_id":"4","last_reported":1733929809,"current_range_meters":38800,"station_id":"ce4bhr12rcd13ifvqhqg","pricing_plan_id":"cebpf4jnsgd1na2vs0mg"},{"bike_id":"043b6990-a2d9-4323-9fb9-2f90f599ded1","system_id":"levelo_inurba_marseille","lat":43.26041,"lon":5.37565,"is_reserved":false,"is_disabled":false,"rental_uris":{"android":"levelo://app?vid=043b6990-a2d9-4323-9fb9-2f90f599ded1","ios":"levelo://app?vid=043b6990-a2d9-4323-9fb9-2f90f599ded1"},"vehicle_type_id":"4","last_reported":1733929809,"current_range_meters":38800,"station_id":"ce4bhgh2rcd13ifvqfa0","pricing_plan_id":"cebpf4jnsgd1na2vs0mg"},{"bike_id":"17d6af53-cdd6-436b-ade8-e0937b85b870","system_id":"levelo_inurba_marseille","lat":43.26929,"lon":5.38901,"is_reserved":false,"is_disabled":false,"rental_uris":{"android":"levelo://app?vid=17d6af53-cdd6-436b-ade8-e0937b85b870","ios":"levelo://app?vid=17d6af53-cdd6-436b-ade8-e0937b85b870"},"vehicle_type_id":"4","last_reported":1733929809,"current_range_meters":38000,"station_id":"ce4bhhh2rcd13ifvqfl0","pricing_plan_id":"cebpf4jnsgd1na2vs0mg"},{"bike_id":"accc15c2-75c8-4823-a61f-1d4d7e399167","system_id":"levelo_inurba_marseille","lat":43.2942,"lon":5.38612,"is_reserved":false,"is_disabled":true,"rental_uris":{"android":"levelo://app?vid=accc15c2-75c8-4823-a61f-1d4d7e399167","ios":"levelo://app?vid=accc15c2-75c8-4823-a61f-1d4d7e399167"},"vehicle_type_id":"4","last_reported":1733929809,"current_range_meters":10800,"station_id":"ce4bh2h2rcd13ifvqdh0","pricing_plan_id":"cebpf4jnsgd1na2vs0mg"},{"bike_id":"1dcb3730-1dbc-4158-85c7-65de2c8645d2","system_id":"levelo_inurba_marseille","lat":43.29553,"lon":5.42278,"is_reserved":false,"is_disabled":false,"rental_uris":{"android":"levelo://app?vid=1dcb3730-1dbc-4158-85c7-65de2c8645d2","ios":"levelo://app?vid=1dcb3730-1dbc-4158-85c7-65de2c8645d2"},"vehicle_type_id":"4","last_reported":1733929809,"current_range_meters":36400,"station_id":"ce4bhph2rcd13ifvqhdg","pricing_plan_id":"cebpf4jnsgd1na2vs0mg"},{"bike_id":"9a75d15c-0be5-494a-8e83-01d129536634","system_id":"levelo_inurba_marseille","lat":43.29063,"lon":5.3716,"is_reserved":false,"is_disabled":false,"rental_uris":{"android":"levelo://app?vid=9a75d15c-0be5-494a-8e83-01d129536634","ios":"levelo://app?vid=9a75d15c-0be5-494a-8e83-01d129536634"},"vehicle_type_id":"4","last_reported":1733929809,"current_range_meters":33600,"station_id":"ce4bh5p2rcd13ifvqe4g","pricing_plan_id":"cebpf4jnsgd1na2vs0mg"},{"bike_id":"f053eb9e-5241-4a9c-b6f1-6b0e8a400961","system_id":"levelo_inurba_marseille","lat":43.30802,"lon":5.43527,"is_reserved":false,"is_disabled":false,"rental_uris":{"android":"levelo://app?vid=f053eb9e-5241-4a9c-b6f1-6b0e8a400961","ios":"levelo://app?vid=f053eb9e-5241-4a9c-b6f1-6b0e8a400961"},"vehicle_type_id":"4","last_reported":1733929809,"current_range_meters":17600,"station_id":"ce4bhph2rcd13ifvqheg","pricing_plan_id":"cebpf4jnsgd1na2vs0mg"},{"bike_id":"e966d2c7-c9e1-4cb1-9a39-6325607b0be4","system_id":"levelo_inurba_marseille","lat":43.337444,"lon":5.374475,"is_reserved":false,"is_disabled":true,"rental_uris":{"android":"levelo://app?vid=e966d2c7-c9e1-4cb1-9a39-6325607b0be4","ios":"levelo://app?vid=e966d2c7-c9e1-4cb1-9a39-6325607b0be4"},"vehicle_type_id":"4","last_reported":1733929809,"current_range_meters":0,"station_id":"","pricing_plan_id":"cebpf4jnsgd1na2vs0mg"},{"bike_id":"312bb54d-7981-48b2-bad1-cc0be49295b2","system_id":"levelo_inurba_marseille","lat":43.28851,"lon":5.35854,"is_reserved":false,"is_disabled":false,"rental_uris":{"android":"levelo://app?vid=312bb54d-7981-48b2-bad1-cc0be49295b2","ios":"levelo://app?vid=312bb54d-7981-48b2-bad1-cc0be49295b2"},"vehicle_type_id":"4","last_reported":1733929809,"current_range_meters":18000,"station_id":"ce4bhb12rcd13ifvqem0","pricing_plan_id":"cebpf4jnsgd1na2vs0mg"},{"bike_id":"f0a4f587-2333-4a7a-8819-09121e495e1b","system_id":"levelo_inurba_marseille","lat":43.22963,"lon":5.35424,"is_reserved":false,"is_disabled":false,"rental_uris":{"android":"levelo://app?vid=f0a4f587-2333-4a7a-8819-09121e495e1b","ios":"levelo://app?vid=f0a4f587-2333-4a7a-8819-09121e495e1b"},"vehicle_type_id":"4","last_reported":1733929809,"current_range_meters":13600,"station_id":"cpo3532slgdg3j2ikp40","pricing_plan_id":"cebpf4jnsgd1na2vs0mg"},{"bike_id":"17f59de1-b3ce-4e3a-95ec-402199b35e46","system_id":"levelo_inurba_marseille","lat":43.24658,"lon":5.38918,"is_reserved":false,"is_disabled":false,"rental_uris":{"android":"levelo://app?vid=17f59de1-b3ce-4e3a-95ec-402199b35e46","ios":"levelo://app?vid=17f59de1-b3ce-4e3a-95ec-402199b35e46"},"vehicle_type_id":"4","last_reported":1733929809,"current_range_meters":30800,"station_id":"ce4bhg12rcd13ifvqf60","pricing_plan_id":"cebpf4jnsgd1na2vs0mg"},{"bike_id":"017fe67e-e65a-48d8-a26a-e0076cc7f696","system_id":"levelo_inurba_marseille","lat":43.27069,"lon":5.42284,"is_reserved":false,"is_disabled":false,"rental_uris":{"android":"levelo://app?vid=017fe67e-e65a-48d8-a26a-e0076cc7f696","ios":"levelo://app?vid=017fe67e-e65a-48d8-a26a-e0076cc7f696"},"vehicle_type_id":"4","last_reported":1733929809,"current_range_meters":8400,"station_id":"ce4bhk92rcd13ifvqgb0","pricing_plan_id":"cebpf4jnsgd1na2vs0mg"},{"bike_id":"ba8161c7-4a94-40c7-998e-0e585e2c4d1b","system_id":"levelo_inurba_marseille","lat":43.27074,"lon":5.42282,"is_reserved":false,"is_disabled":false,"rental_uris":{"android":"levelo://app?vid=ba8161c7-4a94-40c7-998e-0e585e2c4d1b","ios":"levelo://app?vid=ba8161c7-4a94-40c7-998e-0e585e2c4d1b"},"vehicle_type_id":"4","last_reported":1733929809,"current_range_meters":37600,"station_id":"ce4bhk92rcd13ifvqgb0","pricing_plan_id":"cebpf4jnsgd1na2vs0mg"},{"bike_id":"be47fa86-9a49-40da-a0f5-b1841d2d3f6c","system_id":"levelo_inurba_marseille","lat":43.30534,"lon":5.36719,"is_reserved":false,"is_disabled":false,"rental_uris":{"android":"levelo://app?vid=be47fa86-9a49-40da-a0f5-b1841d2d3f6c","ios":"levelo://app?vid=be47fa86-9a49-40da-a0f5-b1841d2d3f6c"},"vehicle_type_id":"4","last_reported":1733929809,"current_range_meters":19200,"station_id":"ce4bgrp2rcd13ifvqc9g","pricing_plan_id":"cebpf4jnsgd1na2vs0mg"},{"bike_id":"3bd38ad5-a7e1-468f-b872-69bbda1cbd7c","system_id":"levelo_inurba_marseille","lat":43.27622,"lon":5.36156,"is_reserved":false,"is_disabled":false,"rental_uris":{"android":"levelo://app?vid=3bd38ad5-a7e1-468f-b872-69bbda1cbd7c","ios":"levelo://app?vid=3bd38ad5-a7e1-468f-b872-69bbda1cbd7c"},"vehicle_type_id":"4","last_reported":1733929809,"current_range_meters":38400,"station_id":"ce4bgj92rcd13ifvqbe0","pricing_plan_id":"cebpf4jnsgd1na2vs0mg"},{"bike_id":"fe4d47c1-dfb5-4e68-bfe4-126efd20c0c3","system_id":"levelo_inurba_marseille","lat":43.3079,"lon":5.37352,"is_reserved":false,"is_disabled":false,"rental_uris":{"android":"levelo://app?vid=fe4d47c1-dfb5-4e68-bfe4-126efd20c0c3","ios":"levelo://app?vid=fe4d47c1-dfb5-4e68-bfe4-126efd20c0c3"},"vehicle_type_id":"4","last_reported":1733929809,"current_range_meters":25600,"station_id":"","pricing_plan_id":"cebpf4jnsgd1na2vs0mg"},{"bike_id":"587ab355-fbe7-47eb-becd-0127e923d688","system_id":"levelo_inurba_marseille","lat":43.262,"lon":5.37473,"is_reserved":false,"is_disabled":false,"rental_uris":{"android":"levelo://app?vid=587ab355-fbe7-47eb-becd-0127e923d688","ios":"levelo://app?vid=587ab355-fbe7-47eb-becd-0127e923d688"},"vehicle_type_id":"4","last_reported":1733929809,"current_range_meters":4400,"station_id":"ce4bhgp2rcd13ifvqfc0","pricing_plan_id":"cebpf4jnsgd1na2vs0mg"},{"bike_id":"c346be12-582d-42dc-8dce-5e128ded35bf","system_id":"levelo_inurba_marseille","lat":43.31571,"lon":5.37316,"is_reserved":false,"is_disabled":false,"rental_uris":{"android":"levelo://app?vid=c346be12-582d-42dc-8dce-5e128ded35bf","ios":"levelo://app?vid=c346be12-582d-42dc-8dce-5e128ded35bf"},"vehicle_type_id":"4","last_reported":1733929809,"current_range_meters":36000,"station_id":"ce4bhr12rcd13ifvqhpg","pricing_plan_id":"cebpf4jnsgd1na2vs0mg"},{"bike_id":"9249ab9a-62cc-4612-8f2c-fdb8358fa3cb","system_id":"levelo_inurba_marseille","lat":43.26029,"lon":5.37553,"is_reserved":false,"is_disabled":false,"rental_uris":{"android":"levelo://app?vid=9249ab9a-62cc-4612-8f2c-fdb8358fa3cb","ios":"levelo://app?vid=9249ab9a-62cc-4612-8f2c-fdb8358fa3cb"},"vehicle_type_id":"4","last_reported":1733929809,"current_range_meters":36000,"station_id":"ce4bhgh2rcd13ifvqfa0","pricing_plan_id":"cebpf4jnsgd1na2vs0mg"},{"bike_id":"fe66f59b-005b-4675-bc20-b35849d15307","system_id":"levelo_inurba_marseille","lat":43.24799,"lon":5.37458,"is_reserved":false,"is_disabled":false,"rental_uris":{"android":"levelo://app?vid=fe66f59b-005b-4675-bc20-b35849d15307","ios":"levelo://app?vid=fe66f59b-005b-4675-bc20-b35849d15307"},"vehicle_type_id":"4","last_reported":1733929809,"current_range_meters":38000,"station_id":"ce4bhgh2rcd13ifvqfb0","pricing_plan_id":"cebpf4jnsgd1na2vs0mg"},{"bike_id":"097a41bf-6635-41a6-b7a7-1173cae29ada","system_id":"levelo_inurba_marseille","lat":43.22937,"lon":5.35382,"is_reserved":false,"is_disabled":false,"rental_uris":{"android":"levelo://app?vid=097a41bf-6635-41a6-b7a7-1173cae29ada","ios":"levelo://app?vid=097a41bf-6635-41a6-b7a7-1173cae29ada"},"vehicle_type_id":"4","last_reported":1733929809,"current_range_meters":38800,"station_id":"cpo3532slgdg3j2ikp40","pricing_plan_id":"cebpf4jnsgd1na2vs0mg"},{"bike_id":"a90ab59e-9775-4bc6-a3e9-285e464122de","system_id":"levelo_inurba_marseille","lat":43.24649,"lon":5.3889,"is_reserved":false,"is_disabled":false,"rental_uris":{"android":"levelo://app?vid=a90ab59e-9775-4bc6-a3e9-285e464122de","ios":"levelo://app?vid=a90ab59e-9775-4bc6-a3e9-285e464122de"},"vehicle_type_id":"4","last_reported":1733929809,"current_range_meters":38800,"station_id":"ce4bhg12rcd13ifvqf60","pricing_plan_id":"cebpf4jnsgd1na2vs0mg"},{"bike_id":"e08a3c45-9a07-474f-9717-a27fa81c4ce9","system_id":"levelo_inurba_marseille","lat":43.30783,"lon":5.38768,"is_reserved":false,"is_disabled":true,"rental_uris":{"android":"levelo://app?vid=e08a3c45-9a07-474f-9717-a27fa81c4ce9","ios":"levelo://app?vid=e08a3c45-9a07-474f-9717-a27fa81c4ce9"},"vehicle_type_id":"4","last_reported":1733929809,"current_range_meters":1200,"station_id":"","pricing_plan_id":"cebpf4jnsgd1na2vs0mg"},{"bike_id":"b527fb3a-beee-43ab-ad58-3d1f3e829bc3","system_id":"levelo_inurba_marseille","lat":43.30559,"lon":5.36535,"is_reserved":false,"is_disabled":false,"rental_uris":{"android":"levelo://app?vid=b527fb3a-beee-43ab-ad58-3d1f3e829bc3","ios":"levelo://app?vid=b527fb3a-beee-43ab-ad58-3d1f3e829bc3"},"vehicle_type_id":"4","last_reported":1733929809,"current_range_meters":26000,"station_id":"ce4bgs12rcd13ifvqcag","pricing_plan_id":"cebpf4jnsgd1na2vs0mg"},{"bike_id":"e4cb8bd5-a099-4059-b35e-b61eff301434","system_id":"levelo_inurba_marseille","lat":43.28108,"lon":5.37845,"is_reserved":false,"is_disabled":false,"rental_uris":{"android":"levelo://app?vid=e4cb8bd5-a099-4059-b35e-b61eff301434","ios":"levelo://app?vid=e4cb8bd5-a099-4059-b35e-b61eff301434"},"vehicle_type_id":"4","last_reported":1733929809,"current_range_meters":38800,"station_id":"ce4bha12rcd13ifvqee0","pricing_plan_id":"cebpf4jnsgd1na2vs0mg"},{"bike_id":"0d514f68-29b7-4049-844a-493370863f98","system_id":"levelo_inurba_marseille","lat":43.28362,"lon":5.38106,"is_reserved":false,"is_disabled":true,"rental_uris":{"android":"levelo://app?vid=0d514f68-29b7-4049-844a-493370863f98","ios":"levelo://app?vid=0d514f68-29b7-4049-844a-493370863f98"},"vehicle_type_id":"4","last_reported":1733929809,"current_range_meters":25200,"station_id":"ce4bh412rcd13ifvqdr0","pricing_plan_id":"cebpf4jnsgd1na2vs0mg"},{"bike_id":"bc119752-b234-4c77-b416-1126eb4f816b","system_id":"levelo_inurba_marseille","lat":43.25588,"lon":5.3824,"is_reserved":false,"is_disabled":false,"rental_uris":{"android":"levelo://app?vid=bc119752-b234-4c77-b416-1126eb4f816b","ios":"levelo://app?vid=bc119752-b234-4c77-b416-1126eb4f816b"},"vehicle_type_id":"4","last_reported":1733929809,"current_range_meters":38000,"station_id":"ce4bhih2rcd13ifvqfs0","pricing_plan_id":"cebpf4jnsgd1na2vs0mg"},{"bike_id":"e3f5cbcc-c0d9-4ed4-96fa-131656aa7cf7","system_id":"levelo_inurba_marseille","lat":43.29567,"lon":5.37499,"is_reserved":false,"is_disabled":true,"rental_uris":{"android":"levelo://app?vid=e3f5cbcc-c0d9-4ed4-96fa-131656aa7cf7","ios":"levelo://app?vid=e3f5cbcc-c0d9-4ed4-96fa-131656aa7cf7"},"vehicle_type_id":"4","last_reported":1733929809,"current_range_meters":37600,"station_id":"ce4bgh92rcd13ifvqb50","pricing_plan_id":"cebpf4jnsgd1na2vs0mg"},{"bike_id":"a56f9de4-6a91-4720-9e75-282f862dc823","system_id":"levelo_inurba_marseille","lat":43.24179,"lon":5.39733,"is_reserved":false,"is_disabled":false,"rental_uris":{"android":"levelo://app?vid=a56f9de4-6a91-4720-9e75-282f862dc823","ios":"levelo://app?vid=a56f9de4-6a91-4720-9e75-282f862dc823"},"vehicle_type_id":"4","last_reported":1733929809,"current_range_meters":21600,"station_id":"ce4bhn12rcd13ifvqgpg","pricing_plan_id":"cebpf4jnsgd1na2vs0mg"},{"bike_id":"7b980ee8-3bae-4aab-8a31-8149112da082","system_id":"levelo_inurba_marseille","lat":43.32478,"lon":5.3657,"is_reserved":false,"is_disabled":false,"rental_uris":{"android":"levelo://app?vid=7b980ee8-3bae-4aab-8a31-8149112da082","ios":"levelo://app?vid=7b980ee8-3bae-4aab-8a31-8149112da082"},"vehicle_type_id":"4","last_reported":1733929809,"current_range_meters":18000,"station_id":"ce4bhs12rcd13ifvqhvg","pricing_plan_id":"cebpf4jnsgd1na2vs0mg"},{"bike_id":"af77a2c4-4f01-4eac-8bd5-698508bacd7c","system_id":"levelo_inurba_marseille","lat":43.27173,"lon":5.40993,"is_reserved":false,"is_disabled":false,"rental_uris":{"android":"levelo://app?vid=af77a2c4-4f01-4eac-8bd5-698508bacd7c","ios":"levelo://app?vid=af77a2c4-4f01-4eac-8bd5-698508bacd7c"},"vehicle_type_id":"4","last_reported":1733929809,"current_range_meters":23200,"station_id":"ce4bhl12rcd13ifvqgf0","pricing_plan_id":"cebpf4jnsgd1na2vs0mg"},{"bike_id":"e2a77f5d-1d63-4243-bf72-8b9ec30686b1","system_id":"levelo_inurba_marseille","lat":43.28715,"lon":5.37947,"is_reserved":false,"is_disabled":true,"rental_uris":{"android":"levelo://app?vid=e2a77f5d-1d63-4243-bf72-8b9ec30686b1","ios":"levelo://app?vid=e2a77f5d-1d63-4243-bf72-8b9ec30686b1"},"vehicle_type_id":"4","last_reported":1733929809,"current_range_meters":35200,"station_id":"ce4bh9p2rcd13ifvqec0","pricing_plan_id":"cebpf4jnsgd1na2vs0mg"},{"bike_id":"1a6c2e40-cc83-4202-a877-31ef6d077395","system_id":"levelo_inurba_marseille","lat":43.27202,"lon":5.40988,"is_reserved":false,"is_disabled":false,"rental_uris":{"android":"levelo://app?vid=1a6c2e40-cc83-4202-a877-31ef6d077395","ios":"levelo://app?vid=1a6c2e40-cc83-4202-a877-31ef6d077395"},"vehicle_type_id":"4","last_reported":1733929809,"current_range_meters":36800,"station_id":"ce4bhl12rcd13ifvqgf0","pricing_plan_id":"cebpf4jnsgd1na2vs0mg"},{"bike_id":"d5a8a8df-93cd-4089-9974-ae219978109f","system_id":"levelo_inurba_marseille","lat":43.26981,"lon":5.38153,"is_reserved":false,"is_disabled":false,"rental_uris":{"android":"levelo://app?vid=d5a8a8df-93cd-4089-9974-ae219978109f","ios":"levelo://app?vid=d5a8a8df-93cd-4089-9974-ae219978109f"},"vehicle_type_id":"4","last_reported":1733929809,"current_range_meters":25600,"station_id":"ce4bhh12rcd13ifvqff0","pricing_plan_id":"cebpf4jnsgd1na2vs0mg"},{"bike_id":"c1ce1aa5-aa1e-462c-8208-39dc73f10d14","system_id":"levelo_inurba_marseille","lat":43.30525,"lon":5.38435,"is_reserved":false,"is_disabled":false,"rental_uris":{"android":"levelo://app?vid=c1ce1aa5-aa1e-462c-8208-39dc73f10d14","ios":"levelo://app?vid=c1ce1aa5-aa1e-462c-8208-39dc73f10d14"},"vehicle_type_id":"4","last_reported":1733929809,"current_range_meters":8400,"station_id":"ce4bgg92rcd13ifvqb30","pricing_plan_id":"cebpf4jnsgd1na2vs0mg"},{"bike_id":"f5bc5117-cbf2-4228-b61a-966d56555eb4","system_id":"levelo_inurba_marseille","lat":43.30133,"lon":5.39846,"is_reserved":false,"is_disabled":false,"rental_uris":{"android":"levelo://app?vid=f5bc5117-cbf2-4228-b61a-966d56555eb4","ios":"levelo://app?vid=f5bc5117-cbf2-4228-b61a-966d56555eb4"},"vehicle_type_id":"4","last_reported":1733929809,"current_range_meters":12800,"station_id":"ce4bh0h2rcd13ifvqd40","pricing_plan_id":"cebpf4jnsgd1na2vs0mg"},{"bike_id":"6ba3ccbe-cda0-4627-9881-9230cfde84d0","system_id":"levelo_inurba_marseille","lat":43.265,"lon":5.39536,"is_reserved":false,"is_disabled":false,"rental_uris":{"android":"levelo://app?vid=6ba3ccbe-cda0-4627-9881-9230cfde84d0","ios":"levelo://app?vid=6ba3ccbe-cda0-4627-9881-9230cfde84d0"},"vehicle_type_id":"4","last_reported":1733929809,"current_range_meters":32000,"station_id":"ce4bhi12rcd13ifvqfq0","pricing_plan_id":"cebpf4jnsgd1na2vs0mg"},{"bike_id":"013d3f10-8d73-4ff3-bc3c-a63b0b5dfd79","system_id":"levelo_inurba_marseille","lat":43.28421,"lon":5.3498,"is_reserved":false,"is_disabled":false,"rental_uris":{"android":"levelo://app?vid=013d3f10-8d73-4ff3-bc3c-a63b0b5dfd79","ios":"levelo://app?vid=013d3f10-8d73-4ff3-bc3c-a63b0b5dfd79"},"vehicle_type_id":"4","last_reported":1733929809,"current_range_meters":30000,"station_id":"ce4bhbh2rcd13ifvqepg","pricing_plan_id":"cebpf4jnsgd1na2vs0mg"},{"bike_id":"a66c4b95-337e-4b9a-950c-e8c8d8e7a3a1","system_id":"levelo_inurba_marseille","lat":43.324799,"lon":5.365716,"is_reserved":false,"is_disabled":true,"rental_uris":{"android":"levelo://app?vid=a66c4b95-337e-4b9a-950c-e8c8d8e7a3a1","ios":"levelo://app?vid=a66c4b95-337e-4b9a-950c-e8c8d8e7a3a1"},"vehicle_type_id":"4","last_reported":1733929809,"current_range_meters":0,"station_id":"","pricing_plan_id":"cebpf4jnsgd1na2vs0mg"},{"bike_id":"b8a8e903-358c-4853-81b0-e99aeaec8699","system_id":"levelo_inurba_marseille","lat":43.24165,"lon":5.36403,"is_reserved":false,"is_disabled":false,"rental_uris":{"android":"levelo://app?vid=b8a8e903-358c-4853-81b0-e99aeaec8699","ios":"levelo://app?vid=b8a8e903-358c-4853-81b0-e99aeaec8699"},"vehicle_type_id":"4","last_reported":1733929809,"current_range_meters":25600,"station_id":"cpo36qri1sfpv3e86is0","pricing_plan_id":"cebpf4jnsgd1na2vs0mg"},{"bike_id":"2ed7839b-5815-46ec-8288-ac8ac565f4e7","system_id":"levelo_inurba_marseille","lat":43.3372,"lon":5.39179,"is_reserved":false,"is_disabled":false,"rental_uris":{"android":"levelo://app?vid=2ed7839b-5815-46ec-8288-ac8ac565f4e7","ios":"levelo://app?vid=2ed7839b-5815-46ec-8288-ac8ac565f4e7"},"vehicle_type_id":"4","last_reported":1733929809,"current_range_meters":37600,"station_id":"ce4bhr92rcd13ifvqhsg","pricing_plan_id":"cebpf4jnsgd1na2vs0mg"},{"bike_id":"4b6ab6f2-3731-4710-b5fa-3ba990bb9aca","system_id":"levelo_inurba_marseille","lat":43.29027,"lon":5.38122,"is_reserved":false,"is_disabled":true,"rental_uris":{"android":"levelo://app?vid=4b6ab6f2-3731-4710-b5fa-3ba990bb9aca","ios":"levelo://app?vid=4b6ab6f2-3731-4710-b5fa-3ba990bb9aca"},"vehicle_type_id":"4","last_reported":1733929809,"current_range_meters":36400,"station_id":"ce4bh4p2rcd13ifvqe1g","pricing_plan_id":"cebpf4jnsgd1na2vs0mg"},{"bike_id":"78446110-5bc9-4782-9951-0004299f66bc","system_id":"levelo_inurba_marseille","lat":43.24176,"lon":5.36414,"is_reserved":false,"is_disabled":false,"rental_uris":{"android":"levelo://app?vid=78446110-5bc9-4782-9951-0004299f66bc","ios":"levelo://app?vid=78446110-5bc9-4782-9951-0004299f66bc"},"vehicle_type_id":"4","last_reported":1733929809,"current_range_meters":31200,"station_id":"cpo36qri1sfpv3e86is0","pricing_plan_id":"cebpf4jnsgd1na2vs0mg"},{"bike_id":"68e9f2e8-7f58-4282-a6a3-bce0647110f9","system_id":"levelo_inurba_marseille","lat":43.2396,"lon":5.3663,"is_reserved":false,"is_disabled":false,"rental_uris":{"android":"levelo://app?vid=68e9f2e8-7f58-4282-a6a3-bce0647110f9","ios":"levelo://app?vid=68e9f2e8-7f58-4282-a6a3-bce0647110f9"},"vehicle_type_id":"4","last_reported":1733929809,"current_range_meters":22400,"station_id":"ce4bhi12rcd13ifvqfp0","pricing_plan_id":"cebpf4jnsgd1na2vs0mg"},{"bike_id":"d8bd524e-db9c-48ec-b2a1-27deea577d7b","system_id":"levelo_inurba_marseille","lat":43.30954,"lon":5.39027,"is_reserved":false,"is_disabled":false,"rental_uris":{"android":"levelo://app?vid=d8bd524e-db9c-48ec-b2a1-27deea577d7b","ios":"levelo://app?vid=d8bd524e-db9c-48ec-b2a1-27deea577d7b"},"vehicle_type_id":"4","last_reported":1733929809,"current_range_meters":38800,"station_id":"ce4bgup2rcd13ifvqco0","pricing_plan_id":"cebpf4jnsgd1na2vs0mg"},{"bike_id":"3c7d8956-07af-4408-ae94-63514d5e362d","system_id":"levelo_inurba_marseille","lat":43.246477,"lon":5.38893,"is_reserved":false,"is_disabled":false,"rental_uris":{"android":"levelo://app?vid=3c7d8956-07af-4408-ae94-63514d5e362d","ios":"levelo://app?vid=3c7d8956-07af-4408-ae94-63514d5e362d"},"vehicle_type_id":"4","last_reported":1733929809,"current_range_meters":38800,"station_id":"ce4bhg12rcd13ifvqf60","pricing_plan_id":"cebpf4jnsgd1na2vs0mg"},{"bike_id":"2175ae3c-739a-49a6-8b88-c695a996a497","system_id":"levelo_inurba_marseille","lat":43.24082,"lon":5.37753,"is_reserved":false,"is_disabled":true,"rental_uris":{"android":"levelo://app?vid=2175ae3c-739a-49a6-8b88-c695a996a497","ios":"levelo://app?vid=2175ae3c-739a-49a6-8b88-c695a996a497"},"vehicle_type_id":"4","last_reported":1733929809,"current_range_meters":36800,"station_id":"ce4bhnp2rcd13ifvqgvg","pricing_plan_id":"cebpf4jnsgd1na2vs0mg"},{"bike_id":"d4103912-5c30-427a-9b64-ffbbaff9997d","system_id":"levelo_inurba_marseille","lat":43.32653,"lon":5.40994,"is_reserved":false,"is_disabled":false,"rental_uris":{"android":"levelo://app?vid=d4103912-5c30-427a-9b64-ffbbaff9997d","ios":"levelo://app?vid=d4103912-5c30-427a-9b64-ffbbaff9997d"},"vehicle_type_id":"4","last_reported":1733929809,"current_range_meters":37600,"station_id":"ce4bhpp2rcd13ifvqhgg","pricing_plan_id":"cebpf4jnsgd1na2vs0mg"},{"bike_id":"24458f39-080f-419e-bcea-bfe1005d81b0","system_id":"levelo_inurba_marseille","lat":43.26558,"lon":5.37276,"is_reserved":false,"is_disabled":false,"rental_uris":{"android":"levelo://app?vid=24458f39-080f-419e-bcea-bfe1005d81b0","ios":"levelo://app?vid=24458f39-080f-419e-bcea-bfe1005d81b0"},"vehicle_type_id":"4","last_reported":1733929809,"current_range_meters":24800,"station_id":"ce4bhg12rcd13ifvqf70","pricing_plan_id":"cebpf4jnsgd1na2vs0mg"},{"bike_id":"bbad0d33-9d14-4ff5-bf75-ebb9a47b717c","system_id":"levelo_inurba_marseille","lat":43.27604,"lon":5.36113,"is_reserved":false,"is_disabled":false,"rental_uris":{"android":"levelo://app?vid=bbad0d33-9d14-4ff5-bf75-ebb9a47b717c","ios":"levelo://app?vid=bbad0d33-9d14-4ff5-bf75-ebb9a47b717c"},"vehicle_type_id":"4","last_reported":1733929809,"current_range_meters":18800,"station_id":"ce4bgj92rcd13ifvqbe0","pricing_plan_id":"cebpf4jnsgd1na2vs0mg"},{"bike_id":"fc33c29e-dcdd-42e9-9b0f-21c561c646b2","system_id":"levelo_inurba_marseille","lat":43.29048,"lon":5.37155,"is_reserved":false,"is_disabled":false,"rental_uris":{"android":"levelo://app?vid=fc33c29e-dcdd-42e9-9b0f-21c561c646b2","ios":"levelo://app?vid=fc33c29e-dcdd-42e9-9b0f-21c561c646b2"},"vehicle_type_id":"4","last_reported":1733929809,"current_range_meters":12800,"station_id":"ce4bh5p2rcd13ifvqe4g","pricing_plan_id":"cebpf4jnsgd1na2vs0mg"},{"bike_id":"36e3167a-8293-418c-b384-6536090e3648","system_id":"levelo_inurba_marseille","lat":43.23957,"lon":5.36633,"is_reserved":false,"is_disabled":false,"rental_uris":{"android":"levelo://app?vid=36e3167a-8293-418c-b384-6536090e3648","ios":"levelo://app?vid=36e3167a-8293-418c-b384-6536090e3648"},"vehicle_type_id":"4","last_reported":1733929809,"current_range_meters":38000,"station_id":"ce4bhi12rcd13ifvqfp0","pricing_plan_id":"cebpf4jnsgd1na2vs0mg"},{"bike_id":"62dc3d6f-14e9-4572-8025-9eaf9b53e0fb","system_id":"levelo_inurba_marseille","lat":43.28635,"lon":5.37103,"is_reserved":false,"is_disabled":false,"rental_uris":{"android":"levelo://app?vid=62dc3d6f-14e9-4572-8025-9eaf9b53e0fb","ios":"levelo://app?vid=62dc3d6f-14e9-4572-8025-9eaf9b53e0fb"},"vehicle_type_id":"4","last_reported":1733929809,"current_range_meters":38800,"station_id":"ce4bht12rcd13ifvqi60","pricing_plan_id":"cebpf4jnsgd1na2vs0mg"},{"bike_id":"9de685e0-ba91-4e9f-9fcf-9f463cc6c282","system_id":"levelo_inurba_marseille","lat":43.30902,"lon":5.37187,"is_reserved":false,"is_disabled":false,"rental_uris":{"android":"levelo://app?vid=9de685e0-ba91-4e9f-9fcf-9f463cc6c282","ios":"levelo://app?vid=9de685e0-ba91-4e9f-9fcf-9f463cc6c282"},"vehicle_type_id":"4","last_reported":1733929809,"current_range_meters":38800,"station_id":"ce4bguh2rcd13ifvqckg","pricing_plan_id":"cebpf4jnsgd1na2vs0mg"},{"bike_id":"ab1c6a12-19ac-4afb-af5f-776c48efacd2","system_id":"levelo_inurba_marseille","lat":43.23187,"lon":5.35574,"is_reserved":false,"is_disabled":false,"rental_uris":{"android":"levelo://app?vid=ab1c6a12-19ac-4afb-af5f-776c48efacd2","ios":"levelo://app?vid=ab1c6a12-19ac-4afb-af5f-776c48efacd2"},"vehicle_type_id":"4","last_reported":1733929809,"current_range_meters":20000,"station_id":"ce4bhu92rcd13ifvqi70","pricing_plan_id":"cebpf4jnsgd1na2vs0mg"},{"bike_id":"bfeaa8f2-1b87-4fae-9867-4c752a3577ac","system_id":"levelo_inurba_marseille","lat":43.27314,"lon":5.39084,"is_reserved":false,"is_disabled":true,"rental_uris":{"android":"levelo://app?vid=bfeaa8f2-1b87-4fae-9867-4c752a3577ac","ios":"levelo://app?vid=bfeaa8f2-1b87-4fae-9867-4c752a3577ac"},"vehicle_type_id":"4","last_reported":1733929809,"current_range_meters":800,"station_id":"ce4bhgp2rcd13ifvqfe0","pricing_plan_id":"cebpf4jnsgd1na2vs0mg"},{"bike_id":"034afd89-7884-46aa-947a-c5f301e52728","system_id":"levelo_inurba_marseille","lat":43.3088,"lon":5.39648,"is_reserved":false,"is_disabled":true,"rental_uris":{"android":"levelo://app?vid=034afd89-7884-46aa-947a-c5f301e52728","ios":"levelo://app?vid=034afd89-7884-46aa-947a-c5f301e52728"},"vehicle_type_id":"4","last_reported":1733929809,"current_range_meters":23200,"station_id":"ce4bh012rcd13ifvqcv0","pricing_plan_id":"cebpf4jnsgd1na2vs0mg"},{"bike_id":"ccb86013-7d3c-4ce8-a09f-a328e6613b28","system_id":"levelo_inurba_marseille","lat":43.26029,"lon":5.37546,"is_reserved":false,"is_disabled":false,"rental_uris":{"android":"levelo://app?vid=ccb86013-7d3c-4ce8-a09f-a328e6613b28","ios":"levelo://app?vid=ccb86013-7d3c-4ce8-a09f-a328e6613b28"},"vehicle_type_id":"4","last_reported":1733929809,"current_range_meters":38400,"station_id":"ce4bhgh2rcd13ifvqfa0","pricing_plan_id":"cebpf4jnsgd1na2vs0mg"},{"bike_id":"8b9a4d1a-6239-4e55-a0e9-fe94ea9fbd8f","system_id":"levelo_inurba_marseille","lat":43.26203,"lon":5.37931,"is_reserved":false,"is_disabled":false,"rental_uris":{"android":"levelo://app?vid=8b9a4d1a-6239-4e55-a0e9-fe94ea9fbd8f","ios":"levelo://app?vid=8b9a4d1a-6239-4e55-a0e9-fe94ea9fbd8f"},"vehicle_type_id":"4","last_reported":1733929809,"current_range_meters":3200,"station_id":"ce4bhjp2rcd13ifvqg90","pricing_plan_id":"cebpf4jnsgd1na2vs0mg"},{"bike_id":"14e16e79-e40b-4492-9744-4fefa26b87af","system_id":"levelo_inurba_marseille","lat":43.28078,"lon":5.39663,"is_reserved":false,"is_disabled":false,"rental_uris":{"android":"levelo://app?vid=14e16e79-e40b-4492-9744-4fefa26b87af","ios":"levelo://app?vid=14e16e79-e40b-4492-9744-4fefa26b87af"},"vehicle_type_id":"4","last_reported":1733929809,"current_range_meters":8000,"station_id":"ce4bho12rcd13ifvqh2g","pricing_plan_id":"cebpf4jnsgd1na2vs0mg"},{"bike_id":"235a27c5-32a3-4841-a68d-f35363ff4e8b","system_id":"levelo_inurba_marseille","lat":43.26549,"lon":5.37288,"is_reserved":false,"is_disabled":false,"rental_uris":{"android":"levelo://app?vid=235a27c5-32a3-4841-a68d-f35363ff4e8b","ios":"levelo://app?vid=235a27c5-32a3-4841-a68d-f35363ff4e8b"},"vehicle_type_id":"4","last_reported":1733929809,"current_range_meters":28000,"station_id":"ce4bhg12rcd13ifvqf70","pricing_plan_id":"cebpf4jnsgd1na2vs0mg"},{"bike_id":"1be2f911-5fc5-4852-be66-ffe435557077","system_id":"levelo_inurba_marseille","lat":43.24669,"lon":5.38166,"is_reserved":false,"is_disabled":false,"rental_uris":{"android":"levelo://app?vid=1be2f911-5fc5-4852-be66-ffe435557077","ios":"levelo://app?vid=1be2f911-5fc5-4852-be66-ffe435557077"},"vehicle_type_id":"4","last_reported":1733929809,"current_range_meters":38800,"station_id":"ce4bhih2rcd13ifvqfr0","pricing_plan_id":"cebpf4jnsgd1na2vs0mg"},{"bike_id":"285b8f17-d68e-4b4d-ad40-bd0e09d7c577","system_id":"levelo_inurba_marseille","lat":43.2466,"lon":5.38879,"is_reserved":false,"is_disabled":false,"rental_uris":{"android":"levelo://app?vid=285b8f17-d68e-4b4d-ad40-bd0e09d7c577","ios":"levelo://app?vid=285b8f17-d68e-4b4d-ad40-bd0e09d7c577"},"vehicle_type_id":"4","last_reported":1733929809,"current_range_meters":20400,"station_id":"ce4bhg12rcd13ifvqf60","pricing_plan_id":"cebpf4jnsgd1na2vs0mg"},{"bike_id":"3da93476-9d75-48f5-809e-7aed5a43e98a","system_id":"levelo_inurba_marseille","lat":43.25898,"lon":5.40841,"is_reserved":false,"is_disabled":false,"rental_uris":{"android":"levelo://app?vid=3da93476-9d75-48f5-809e-7aed5a43e98a","ios":"levelo://app?vid=3da93476-9d75-48f5-809e-7aed5a43e98a"},"vehicle_type_id":"4","last_reported":1733929809,"current_range_meters":26000,"station_id":"ce4bhm92rcd13ifvqglg","pricing_plan_id":"cebpf4jnsgd1na2vs0mg"},{"bike_id":"7f95784a-83a5-4a1d-8b6b-0244bf582a19","system_id":"levelo_inurba_marseille","lat":43.29,"lon":5.35611,"is_reserved":false,"is_disabled":false,"rental_uris":{"android":"levelo://app?vid=7f95784a-83a5-4a1d-8b6b-0244bf582a19","ios":"levelo://app?vid=7f95784a-83a5-4a1d-8b6b-0244bf582a19"},"vehicle_type_id":"4","last_reported":1733929809,"current_range_meters":9600,"station_id":"ce4bhb92rcd13ifvqen0","pricing_plan_id":"cebpf4jnsgd1na2vs0mg"},{"bike_id":"ecb75811-fd8f-40da-93f1-df5555788e41","system_id":"levelo_inurba_marseille","lat":43.24997,"lon":5.38934,"is_reserved":false,"is_disabled":false,"rental_uris":{"android":"levelo://app?vid=ecb75811-fd8f-40da-93f1-df5555788e41","ios":"levelo://app?vid=ecb75811-fd8f-40da-93f1-df5555788e41"},"vehicle_type_id":"4","last_reported":1733929809,"current_range_meters":32800,"station_id":"ce4bhgp2rcd13ifvqfd0","pricing_plan_id":"cebpf4jnsgd1na2vs0mg"},{"bike_id":"881524d6-1030-4172-9fdc-ca6a0fc65d03","system_id":"levelo_inurba_marseille","lat":43.25888,"lon":5.4086,"is_reserved":false,"is_disabled":false,"rental_uris":{"android":"levelo://app?vid=881524d6-1030-4172-9fdc-ca6a0fc65d03","ios":"levelo://app?vid=881524d6-1030-4172-9fdc-ca6a0fc65d03"},"vehicle_type_id":"4","last_reported":1733929809,"current_range_meters":24800,"station_id":"ce4bhm92rcd13ifvqglg","pricing_plan_id":"cebpf4jnsgd1na2vs0mg"},{"bike_id":"75b81e26-cdc9-41cd-9644-bd0f8a17c137","system_id":"levelo_inurba_marseille","lat":43.30141,"lon":5.37421,"is_reserved":false,"is_disabled":false,"rental_uris":{"android":"levelo://app?vid=75b81e26-cdc9-41cd-9644-bd0f8a17c137","ios":"levelo://app?vid=75b81e26-cdc9-41cd-9644-bd0f8a17c137"},"vehicle_type_id":"4","last_reported":1733929809,"current_range_meters":28800,"station_id":"ce4bgs92rcd13ifvqcc0","pricing_plan_id":"cebpf4jnsgd1na2vs0mg"},{"bike_id":"44d51fde-212f-4eb7-b1c0-456cea9c506c","system_id":"levelo_inurba_marseille","lat":43.26223,"lon":5.37458,"is_reserved":false,"is_disabled":false,"rental_uris":{"android":"levelo://app?vid=44d51fde-212f-4eb7-b1c0-456cea9c506c","ios":"levelo://app?vid=44d51fde-212f-4eb7-b1c0-456cea9c506c"},"vehicle_type_id":"4","last_reported":1733929809,"current_range_meters":37600,"station_id":"","pricing_plan_id":"cebpf4jnsgd1na2vs0mg"},{"bike_id":"ee0186ce-5ee6-443a-aa7c-853a1e294ff2","system_id":"levelo_inurba_marseille","lat":43.29614,"lon":5.37711,"is_reserved":false,"is_disabled":true,"rental_uris":{"android":"levelo://app?vid=ee0186ce-5ee6-443a-aa7c-853a1e294ff2","ios":"levelo://app?vid=ee0186ce-5ee6-443a-aa7c-853a1e294ff2"},"vehicle_type_id":"4","last_reported":1733929809,"current_range_meters":24000,"station_id":"ce4bgi92rcd13ifvqb90","pricing_plan_id":"cebpf4jnsgd1na2vs0mg"},{"bike_id":"63a95d1b-8259-4572-b537-2eb5387788e4","system_id":"levelo_inurba_marseille","lat":43.30521,"lon":5.36553,"is_reserved":false,"is_disabled":false,"rental_uris":{"android":"levelo://app?vid=63a95d1b-8259-4572-b537-2eb5387788e4","ios":"levelo://app?vid=63a95d1b-8259-4572-b537-2eb5387788e4"},"vehicle_type_id":"4","last_reported":1733929809,"current_range_meters":38800,"station_id":"ce4bgs12rcd13ifvqcag","pricing_plan_id":"cebpf4jnsgd1na2vs0mg"},{"bike_id":"d62b021d-c466-4255-9268-6c008e537d1c","system_id":"levelo_inurba_marseille","lat":43.28852,"lon":5.35855,"is_reserved":false,"is_disabled":false,"rental_uris":{"android":"levelo://app?vid=d62b021d-c466-4255-9268-6c008e537d1c","ios":"levelo://app?vid=d62b021d-c466-4255-9268-6c008e537d1c"},"vehicle_type_id":"4","last_reported":1733929809,"current_range_meters":37600,"station_id":"ce4bhb12rcd13ifvqem0","pricing_plan_id":"cebpf4jnsgd1na2vs0mg"},{"bike_id":"2127033e-69ca-48d8-a754-448a644d1275","system_id":"levelo_inurba_marseille","lat":43.26931,"lon":5.40253,"is_reserved":false,"is_disabled":false,"rental_uris":{"android":"levelo://app?vid=2127033e-69ca-48d8-a754-448a644d1275","ios":"levelo://app?vid=2127033e-69ca-48d8-a754-448a644d1275"},"vehicle_type_id":"4","last_reported":1733929809,"current_range_meters":17200,"station_id":"cjm6bp8fraef2m0cb0m0","pricing_plan_id":"cebpf4jnsgd1na2vs0mg"},{"bike_id":"0ae11840-781e-4c08-aa36-f47fb14da3d6","system_id":"levelo_inurba_marseille","lat":43.30886,"lon":5.3965,"is_reserved":false,"is_disabled":false,"rental_uris":{"android":"levelo://app?vid=0ae11840-781e-4c08-aa36-f47fb14da3d6","ios":"levelo://app?vid=0ae11840-781e-4c08-aa36-f47fb14da3d6"},"vehicle_type_id":"4","last_reported":1733929809,"current_range_meters":26800,"station_id":"ce4bh012rcd13ifvqcv0","pricing_plan_id":"cebpf4jnsgd1na2vs0mg"},{"bike_id":"0ce1b8f6-2cfe-4cfd-86fb-f15cbc62f1c9","system_id":"levelo_inurba_marseille","lat":43.31713,"lon":5.3776,"is_reserved":false,"is_disabled":false,"rental_uris":{"android":"levelo://app?vid=0ce1b8f6-2cfe-4cfd-86fb-f15cbc62f1c9","ios":"levelo://app?vid=0ce1b8f6-2cfe-4cfd-86fb-f15cbc62f1c9"},"vehicle_type_id":"4","last_reported":1733929809,"current_range_meters":22400,"station_id":"ce4bgth2rcd13ifvqch0","pricing_plan_id":"cebpf4jnsgd1na2vs0mg"},{"bike_id":"595142ed-25c4-4349-a18f-ee93d5f4b684","system_id":"levelo_inurba_marseille","lat":43.28849,"lon":5.39318,"is_reserved":false,"is_disabled":false,"rental_uris":{"android":"levelo://app?vid=595142ed-25c4-4349-a18f-ee93d5f4b684","ios":"levelo://app?vid=595142ed-25c4-4349-a18f-ee93d5f4b684"},"vehicle_type_id":"4","last_reported":1733929809,"current_range_meters":6800,"station_id":"ce4bh2p2rcd13ifvqdi0","pricing_plan_id":"cebpf4jnsgd1na2vs0mg"},{"bike_id":"76a900bb-7dc9-4429-932c-6a92dbc95a5c","system_id":"levelo_inurba_marseille","lat":43.29554,"lon":5.42277,"is_reserved":false,"is_disabled":false,"rental_uris":{"android":"levelo://app?vid=76a900bb-7dc9-4429-932c-6a92dbc95a5c","ios":"levelo://app?vid=76a900bb-7dc9-4429-932c-6a92dbc95a5c"},"vehicle_type_id":"4","last_reported":1733929809,"current_range_meters":37600,"station_id":"ce4bhph2rcd13ifvqhdg","pricing_plan_id":"cebpf4jnsgd1na2vs0mg"},{"bike_id":"1c8a7a3b-20eb-480b-b246-0084b61e8baa","system_id":"levelo_inurba_marseille","lat":43.26212,"lon":5.39701,"is_reserved":false,"is_disabled":false,"rental_uris":{"android":"levelo://app?vid=1c8a7a3b-20eb-480b-b246-0084b61e8baa","ios":"levelo://app?vid=1c8a7a3b-20eb-480b-b246-0084b61e8baa"},"vehicle_type_id":"4","last_reported":1733929809,"current_range_meters":18800,"station_id":"ce4bhm12rcd13ifvqgkg","pricing_plan_id":"cebpf4jnsgd1na2vs0mg"},{"bike_id":"4925e308-3e62-4e67-8c68-df4ab36be788","system_id":"levelo_inurba_marseille","lat":43.24655,"lon":5.38895,"is_reserved":false,"is_disabled":false,"rental_uris":{"android":"levelo://app?vid=4925e308-3e62-4e67-8c68-df4ab36be788","ios":"levelo://app?vid=4925e308-3e62-4e67-8c68-df4ab36be788"},"vehicle_type_id":"4","last_reported":1733929809,"current_range_meters":10800,"station_id":"ce4bhg12rcd13ifvqf60","pricing_plan_id":"cebpf4jnsgd1na2vs0mg"},{"bike_id":"16492b5b-37d8-452f-8923-009b71c8397d","system_id":"levelo_inurba_marseille","lat":43.25575,"lon":5.38227,"is_reserved":false,"is_disabled":false,"rental_uris":{"android":"levelo://app?vid=16492b5b-37d8-452f-8923-009b71c8397d","ios":"levelo://app?vid=16492b5b-37d8-452f-8923-009b71c8397d"},"vehicle_type_id":"4","last_reported":1733929809,"current_range_meters":30400,"station_id":"ce4bhih2rcd13ifvqfs0","pricing_plan_id":"cebpf4jnsgd1na2vs0mg"},{"bike_id":"239480a6-56df-473e-837f-2ed189f76b96","system_id":"levelo_inurba_marseille","lat":43.27492,"lon":5.42452,"is_reserved":false,"is_disabled":true,"rental_uris":{"android":"levelo://app?vid=239480a6-56df-473e-837f-2ed189f76b96","ios":"levelo://app?vid=239480a6-56df-473e-837f-2ed189f76b96"},"vehicle_type_id":"4","last_reported":1733929809,"current_range_meters":0,"station_id":"ce4bhn92rcd13ifvqgrg","pricing_plan_id":"cebpf4jnsgd1na2vs0mg"},{"bike_id":"4d9975b2-8caf-4dfe-9202-9f11fbd0b727","system_id":"levelo_inurba_marseille","lat":43.29522,"lon":5.37501,"is_reserved":false,"is_disabled":true,"rental_uris":{"android":"levelo://app?vid=4d9975b2-8caf-4dfe-9202-9f11fbd0b727","ios":"levelo://app?vid=4d9975b2-8caf-4dfe-9202-9f11fbd0b727"},"vehicle_type_id":"4","last_reported":1733929809,"current_range_meters":22000,"station_id":"ce4bgkp2rcd13ifvqbmg","pricing_plan_id":"cebpf4jnsgd1na2vs0mg"},{"bike_id":"a5589391-a7e4-412b-9a87-f917b2322580","system_id":"levelo_inurba_marseille","lat":43.230633,"lon":5.354989,"is_reserved":false,"is_disabled":false,"rental_uris":{"android":"levelo://app?vid=a5589391-a7e4-412b-9a87-f917b2322580","ios":"levelo://app?vid=a5589391-a7e4-412b-9a87-f917b2322580"},"vehicle_type_id":"4","last_reported":1733929809,"current_range_meters":20800,"station_id":"cpo3342slgdg3j2ifvpg","pricing_plan_id":"cebpf4jnsgd1na2vs0mg"},{"bike_id":"6cc0d4fa-1597-4908-97bd-4249a4f0d6ef","system_id":"levelo_inurba_marseille","lat":43.29265,"lon":5.40155,"is_reserved":false,"is_disabled":true,"rental_uris":{"android":"levelo://app?vid=6cc0d4fa-1597-4908-97bd-4249a4f0d6ef","ios":"levelo://app?vid=6cc0d4fa-1597-4908-97bd-4249a4f0d6ef"},"vehicle_type_id":"4","last_reported":1733929809,"current_range_meters":0,"station_id":"ce4bh312rcd13ifvqdk0","pricing_plan_id":"cebpf4jnsgd1na2vs0mg"},{"bike_id":"3ce63487-f42b-418a-9b3f-bc2742aa1aea","system_id":"levelo_inurba_marseille","lat":43.257294,"lon":5.411094,"is_reserved":false,"is_disabled":false,"rental_uris":{"android":"levelo://app?vid=3ce63487-f42b-418a-9b3f-bc2742aa1aea","ios":"levelo://app?vid=3ce63487-f42b-418a-9b3f-bc2742aa1aea"},"vehicle_type_id":"4","last_reported":1733929809,"current_range_meters":28800,"station_id":"ce4bhkp2rcd13ifvqgd0","pricing_plan_id":"cebpf4jnsgd1na2vs0mg"},{"bike_id":"5d45934d-d05c-4f24-8f37-3eea3f951ebe","system_id":"levelo_inurba_marseille","lat":43.30545,"lon":5.40473,"is_reserved":false,"is_disabled":false,"rental_uris":{"android":"levelo://app?vid=5d45934d-d05c-4f24-8f37-3eea3f951ebe","ios":"levelo://app?vid=5d45934d-d05c-4f24-8f37-3eea3f951ebe"},"vehicle_type_id":"4","last_reported":1733929809,"current_range_meters":30400,"station_id":"","pricing_plan_id":"cebpf4jnsgd1na2vs0mg"},{"bike_id":"fa15d8a2-28b7-498f-924f-f222c63b613c","system_id":"levelo_inurba_marseille","lat":43.28621,"lon":5.35122,"is_reserved":false,"is_disabled":true,"rental_uris":{"android":"levelo://app?vid=fa15d8a2-28b7-498f-924f-f222c63b613c","ios":"levelo://app?vid=fa15d8a2-28b7-498f-924f-f222c63b613c"},"vehicle_type_id":"4","last_reported":1733929809,"current_range_meters":0,"station_id":"ce4bhch2rcd13ifvqeug","pricing_plan_id":"cebpf4jnsgd1na2vs0mg"},{"bike_id":"ba9cfec6-a117-4f03-9587-8497c25c0529","system_id":"levelo_inurba_marseille","lat":43.29227,"lon":5.36067,"is_reserved":false,"is_disabled":false,"rental_uris":{"android":"levelo://app?vid=ba9cfec6-a117-4f03-9587-8497c25c0529","ios":"levelo://app?vid=ba9cfec6-a117-4f03-9587-8497c25c0529"},"vehicle_type_id":"4","last_reported":1733929809,"current_range_meters":14000,"station_id":"ce4bhbh2rcd13ifvqeqg","pricing_plan_id":"cebpf4jnsgd1na2vs0mg"},{"bike_id":"6e0ae349-35e6-4281-bb79-ee1cfcb08eb5","system_id":"levelo_inurba_marseille","lat":43.27618,"lon":5.3611,"is_reserved":false,"is_disabled":false,"rental_uris":{"android":"levelo://app?vid=6e0ae349-35e6-4281-bb79-ee1cfcb08eb5","ios":"levelo://app?vid=6e0ae349-35e6-4281-bb79-ee1cfcb08eb5"},"vehicle_type_id":"4","last_reported":1733929809,"current_range_meters":18000,"station_id":"ce4bgj92rcd13ifvqbe0","pricing_plan_id":"cebpf4jnsgd1na2vs0mg"},{"bike_id":"626fb195-8901-4a08-9ea0-7773e6af5577","system_id":"levelo_inurba_marseille","lat":43.30797,"lon":5.43525,"is_reserved":false,"is_disabled":false,"rental_uris":{"android":"levelo://app?vid=626fb195-8901-4a08-9ea0-7773e6af5577","ios":"levelo://app?vid=626fb195-8901-4a08-9ea0-7773e6af5577"},"vehicle_type_id":"4","last_reported":1733929809,"current_range_meters":28800,"station_id":"ce4bhph2rcd13ifvqheg","pricing_plan_id":"cebpf4jnsgd1na2vs0mg"},{"bike_id":"f9e00f52-7a32-4b6e-8ebd-bef5273f3bd2","system_id":"levelo_inurba_marseille","lat":43.29533,"lon":5.38539,"is_reserved":false,"is_disabled":false,"rental_uris":{"android":"levelo://app?vid=f9e00f52-7a32-4b6e-8ebd-bef5273f3bd2","ios":"levelo://app?vid=f9e00f52-7a32-4b6e-8ebd-bef5273f3bd2"},"vehicle_type_id":"4","last_reported":1733929809,"current_range_meters":6800,"station_id":"ce4bgih2rcd13ifvqba0","pricing_plan_id":"cebpf4jnsgd1na2vs0mg"},{"bike_id":"9c7cd47d-00aa-49a2-9fb8-44d1b1d71df3","system_id":"levelo_inurba_marseille","lat":43.26205,"lon":5.37442,"is_reserved":false,"is_disabled":false,"rental_uris":{"android":"levelo://app?vid=9c7cd47d-00aa-49a2-9fb8-44d1b1d71df3","ios":"levelo://app?vid=9c7cd47d-00aa-49a2-9fb8-44d1b1d71df3"},"vehicle_type_id":"4","last_reported":1733929809,"current_range_meters":20800,"station_id":"ce4bhgp2rcd13ifvqfc0","pricing_plan_id":"cebpf4jnsgd1na2vs0mg"},{"bike_id":"bebfd985-e483-4872-afc2-bb6febc117e1","system_id":"levelo_inurba_marseille","lat":43.29522,"lon":5.38538,"is_reserved":false,"is_disabled":false,"rental_uris":{"android":"levelo://app?vid=bebfd985-e483-4872-afc2-bb6febc117e1","ios":"levelo://app?vid=bebfd985-e483-4872-afc2-bb6febc117e1"},"vehicle_type_id":"4","last_reported":1733929809,"current_range_meters":33200,"station_id":"ce4bgih2rcd13ifvqba0","pricing_plan_id":"cebpf4jnsgd1na2vs0mg"},{"bike_id":"7ea15b3c-7183-480d-829f-ae91cdd6a7aa","system_id":"levelo_inurba_marseille","lat":43.28157,"lon":5.42643,"is_reserved":false,"is_disabled":false,"rental_uris":{"android":"levelo://app?vid=7ea15b3c-7183-480d-829f-ae91cdd6a7aa","ios":"levelo://app?vid=7ea15b3c-7183-480d-829f-ae91cdd6a7aa"},"vehicle_type_id":"4","last_reported":1733929809,"current_range_meters":18800,"station_id":"ce4bhnh2rcd13ifvqgug","pricing_plan_id":"cebpf4jnsgd1na2vs0mg"},{"bike_id":"5fee01e0-a9ce-45a3-a2bf-0cdd473fe63e","system_id":"levelo_inurba_marseille","lat":43.3108,"lon":5.42433,"is_reserved":false,"is_disabled":false,"rental_uris":{"android":"levelo://app?vid=5fee01e0-a9ce-45a3-a2bf-0cdd473fe63e","ios":"levelo://app?vid=5fee01e0-a9ce-45a3-a2bf-0cdd473fe63e"},"vehicle_type_id":"4","last_reported":1733929809,"current_range_meters":14400,"station_id":"ce4bhp92rcd13ifvqhag","pricing_plan_id":"cebpf4jnsgd1na2vs0mg"},{"bike_id":"beba3af6-bc17-4678-8cc8-74bf498171e4","system_id":"levelo_inurba_marseille","lat":43.30879,"lon":5.37199,"is_reserved":false,"is_disabled":false,"rental_uris":{"android":"levelo://app?vid=beba3af6-bc17-4678-8cc8-74bf498171e4","ios":"levelo://app?vid=beba3af6-bc17-4678-8cc8-74bf498171e4"},"vehicle_type_id":"4","last_reported":1733929809,"current_range_meters":38800,"station_id":"ce4bguh2rcd13ifvqckg","pricing_plan_id":"cebpf4jnsgd1na2vs0mg"},{"bike_id":"ca3bf6a0-806c-4046-b219-bbea4c2ba646","system_id":"levelo_inurba_marseille","lat":43.23195,"lon":5.35548,"is_reserved":false,"is_disabled":false,"rental_uris":{"android":"levelo://app?vid=ca3bf6a0-806c-4046-b219-bbea4c2ba646","ios":"levelo://app?vid=ca3bf6a0-806c-4046-b219-bbea4c2ba646"},"vehicle_type_id":"4","last_reported":1733929809,"current_range_meters":24400,"station_id":"ce4bhu92rcd13ifvqi70","pricing_plan_id":"cebpf4jnsgd1na2vs0mg"},{"bike_id":"54de18d3-b898-48ce-8dff-545ae7a2c189","system_id":"levelo_inurba_marseille","lat":43.31881,"lon":5.40743,"is_reserved":false,"is_disabled":false,"rental_uris":{"android":"levelo://app?vid=54de18d3-b898-48ce-8dff-545ae7a2c189","ios":"levelo://app?vid=54de18d3-b898-48ce-8dff-545ae7a2c189"},"vehicle_type_id":"4","last_reported":1733929809,"current_range_meters":30000,"station_id":"ce4bhq12rcd13ifvqhig","pricing_plan_id":"cebpf4jnsgd1na2vs0mg"},{"bike_id":"46b2fdec-0870-4ae2-84dc-b1f57512351e","system_id":"levelo_inurba_marseille","lat":43.337444,"lon":5.374475,"is_reserved":false,"is_disabled":true,"rental_uris":{"android":"levelo://app?vid=46b2fdec-0870-4ae2-84dc-b1f57512351e","ios":"levelo://app?vid=46b2fdec-0870-4ae2-84dc-b1f57512351e"},"vehicle_type_id":"4","last_reported":1733929809,"current_range_meters":0,"station_id":"","pricing_plan_id":"cebpf4jnsgd1na2vs0mg"},{"bike_id":"32a86e05-49b8-40af-b6bd-7206ce34ee8b","system_id":"levelo_inurba_marseille","lat":43.27317,"lon":5.39076,"is_reserved":false,"is_disabled":false,"rental_uris":{"android":"levelo://app?vid=32a86e05-49b8-40af-b6bd-7206ce34ee8b","ios":"levelo://app?vid=32a86e05-49b8-40af-b6bd-7206ce34ee8b"},"vehicle_type_id":"4","last_reported":1733929809,"current_range_meters":38000,"station_id":"ce4bhgp2rcd13ifvqfe0","pricing_plan_id":"cebpf4jnsgd1na2vs0mg"},{"bike_id":"337797a7-1537-4b43-9691-41e98958283d","system_id":"levelo_inurba_marseille","lat":43.30543,"lon":5.36523,"is_reserved":false,"is_disabled":false,"rental_uris":{"android":"levelo://app?vid=337797a7-1537-4b43-9691-41e98958283d","ios":"levelo://app?vid=337797a7-1537-4b43-9691-41e98958283d"},"vehicle_type_id":"4","last_reported":1733929809,"current_range_meters":34000,"station_id":"ce4bgs12rcd13ifvqcag","pricing_plan_id":"cebpf4jnsgd1na2vs0mg"},{"bike_id":"fa35d2a3-74a0-4945-9b04-061824848898","system_id":"levelo_inurba_marseille","lat":43.31354,"lon":5.36712,"is_reserved":false,"is_disabled":false,"rental_uris":{"android":"levelo://app?vid=fa35d2a3-74a0-4945-9b04-061824848898","ios":"levelo://app?vid=fa35d2a3-74a0-4945-9b04-061824848898"},"vehicle_type_id":"4","last_reported":1733929809,"current_range_meters":17600,"station_id":"ce4bgr92rcd13ifvqc6g","pricing_plan_id":"cebpf4jnsgd1na2vs0mg"},{"bike_id":"49b074cf-7681-410d-90d4-2d6e28bdf819","system_id":"levelo_inurba_marseille","lat":43.24179,"lon":5.39736,"is_reserved":false,"is_disabled":false,"rental_uris":{"android":"levelo://app?vid=49b074cf-7681-410d-90d4-2d6e28bdf819","ios":"levelo://app?vid=49b074cf-7681-410d-90d4-2d6e28bdf819"},"vehicle_type_id":"4","last_reported":1733929809,"current_range_meters":13600,"station_id":"ce4bhn12rcd13ifvqgpg","pricing_plan_id":"cebpf4jnsgd1na2vs0mg"},{"bike_id":"a75d3fb5-03a9-40bd-a1a8-05e40514d572","system_id":"levelo_inurba_marseille","lat":43.2718,"lon":5.40981,"is_reserved":false,"is_disabled":false,"rental_uris":{"android":"levelo://app?vid=a75d3fb5-03a9-40bd-a1a8-05e40514d572","ios":"levelo://app?vid=a75d3fb5-03a9-40bd-a1a8-05e40514d572"},"vehicle_type_id":"4","last_reported":1733929809,"current_range_meters":36800,"station_id":"ce4bhl12rcd13ifvqgf0","pricing_plan_id":"cebpf4jnsgd1na2vs0mg"},{"bike_id":"1e8fe257-e2eb-41d7-88a1-7895d02e6cad","system_id":"levelo_inurba_marseille","lat":43.27374,"lon":5.36255,"is_reserved":false,"is_disabled":false,"rental_uris":{"android":"levelo://app?vid=1e8fe257-e2eb-41d7-88a1-7895d02e6cad","ios":"levelo://app?vid=1e8fe257-e2eb-41d7-88a1-7895d02e6cad"},"vehicle_type_id":"4","last_reported":1733929809,"current_range_meters":38800,"station_id":"ce4bhbh2rcd13ifvqeo0","pricing_plan_id":"cebpf4jnsgd1na2vs0mg"},{"bike_id":"2ebd2fc6-13ac-4b60-8a2e-07cab16d51cc","system_id":"levelo_inurba_marseille","lat":43.24649,"lon":5.38892,"is_reserved":false,"is_disabled":false,"rental_uris":{"android":"levelo://app?vid=2ebd2fc6-13ac-4b60-8a2e-07cab16d51cc","ios":"levelo://app?vid=2ebd2fc6-13ac-4b60-8a2e-07cab16d51cc"},"vehicle_type_id":"4","last_reported":1733929809,"current_range_meters":22800,"station_id":"ce4bhg12rcd13ifvqf60","pricing_plan_id":"cebpf4jnsgd1na2vs0mg"},{"bike_id":"55721269-6850-4ddc-a6e4-24d5b3426ec9","system_id":"levelo_inurba_marseille","lat":43.29752,"lon":5.37712,"is_reserved":false,"is_disabled":false,"rental_uris":{"android":"levelo://app?vid=55721269-6850-4ddc-a6e4-24d5b3426ec9","ios":"levelo://app?vid=55721269-6850-4ddc-a6e4-24d5b3426ec9"},"vehicle_type_id":"4","last_reported":1733929809,"current_range_meters":38800,"station_id":"","pricing_plan_id":"cebpf4jnsgd1na2vs0mg"},{"bike_id":"e4af660d-03c6-4a75-9a16-58a9a744e44d","system_id":"levelo_inurba_marseille","lat":43.29591,"lon":5.37746,"is_reserved":false,"is_disabled":true,"rental_uris":{"android":"levelo://app?vid=e4af660d-03c6-4a75-9a16-58a9a744e44d","ios":"levelo://app?vid=e4af660d-03c6-4a75-9a16-58a9a744e44d"},"vehicle_type_id":"4","last_reported":1733929809,"current_range_meters":400,"station_id":"ce4bgi92rcd13ifvqb90","pricing_plan_id":"cebpf4jnsgd1na2vs0mg"},{"bike_id":"fde47c74-48b7-42f3-bbc4-822a8ba605d1","system_id":"levelo_inurba_marseille","lat":43.29965,"lon":5.37243,"is_reserved":false,"is_disabled":false,"rental_uris":{"android":"levelo://app?vid=fde47c74-48b7-42f3-bbc4-822a8ba605d1","ios":"levelo://app?vid=fde47c74-48b7-42f3-bbc4-822a8ba605d1"},"vehicle_type_id":"4","last_reported":1733929809,"current_range_meters":3600,"station_id":"ce4bgr92rcd13ifvqc7g","pricing_plan_id":"cebpf4jnsgd1na2vs0mg"},{"bike_id":"cfeef1d2-86d9-4c1b-8076-adb2f0d09c18","system_id":"levelo_inurba_marseille","lat":43.2947,"lon":5.37699,"is_reserved":false,"is_disabled":true,"rental_uris":{"android":"levelo://app?vid=cfeef1d2-86d9-4c1b-8076-adb2f0d09c18","ios":"levelo://app?vid=cfeef1d2-86d9-4c1b-8076-adb2f0d09c18"},"vehicle_type_id":"4","last_reported":1733929809,"current_range_meters":0,"station_id":"","pricing_plan_id":"cebpf4jnsgd1na2vs0mg"},{"bike_id":"6d05f7ba-808a-4403-b1f3-f8483fec843c","system_id":"levelo_inurba_marseille","lat":43.23195,"lon":5.35564,"is_reserved":false,"is_disabled":false,"rental_uris":{"android":"levelo://app?vid=6d05f7ba-808a-4403-b1f3-f8483fec843c","ios":"levelo://app?vid=6d05f7ba-808a-4403-b1f3-f8483fec843c"},"vehicle_type_id":"4","last_reported":1733929809,"current_range_meters":36800,"station_id":"ce4bhu92rcd13ifvqi70","pricing_plan_id":"cebpf4jnsgd1na2vs0mg"},{"bike_id":"d8138bec-6809-4742-8fb5-ef5f3dade222","system_id":"levelo_inurba_marseille","lat":43.3013,"lon":5.37391,"is_reserved":false,"is_disabled":false,"rental_uris":{"android":"levelo://app?vid=d8138bec-6809-4742-8fb5-ef5f3dade222","ios":"levelo://app?vid=d8138bec-6809-4742-8fb5-ef5f3dade222"},"vehicle_type_id":"4","last_reported":1733929809,"current_range_meters":8800,"station_id":"ce4bgs92rcd13ifvqcc0","pricing_plan_id":"cebpf4jnsgd1na2vs0mg"},{"bike_id":"96e66a6a-1e3c-4b1f-a1df-4459527d9d5f","system_id":"levelo_inurba_marseille","lat":43.25716,"lon":5.41117,"is_reserved":false,"is_disabled":false,"rental_uris":{"android":"levelo://app?vid=96e66a6a-1e3c-4b1f-a1df-4459527d9d5f","ios":"levelo://app?vid=96e66a6a-1e3c-4b1f-a1df-4459527d9d5f"},"vehicle_type_id":"4","last_reported":1733929809,"current_range_meters":27600,"station_id":"ce4bhkp2rcd13ifvqgd0","pricing_plan_id":"cebpf4jnsgd1na2vs0mg"},{"bike_id":"5137b643-f444-4318-a66b-2b2970621c82","system_id":"levelo_inurba_marseille","lat":43.30141,"lon":5.3811,"is_reserved":false,"is_disabled":false,"rental_uris":{"android":"levelo://app?vid=5137b643-f444-4318-a66b-2b2970621c82","ios":"levelo://app?vid=5137b643-f444-4318-a66b-2b2970621c82"},"vehicle_type_id":"4","last_reported":1733929809,"current_range_meters":18800,"station_id":"ce4bgjp2rcd13ifvqbh0","pricing_plan_id":"cebpf4jnsgd1na2vs0mg"},{"bike_id":"08595f37-404a-46f2-b805-853a25c1ebe7","system_id":"levelo_inurba_marseille","lat":43.26554,"lon":5.37315,"is_reserved":false,"is_disabled":false,"rental_uris":{"android":"levelo://app?vid=08595f37-404a-46f2-b805-853a25c1ebe7","ios":"levelo://app?vid=08595f37-404a-46f2-b805-853a25c1ebe7"},"vehicle_type_id":"4","last_reported":1733929809,"current_range_meters":17600,"station_id":"ce4bhg12rcd13ifvqf70","pricing_plan_id":"cebpf4jnsgd1na2vs0mg"},{"bike_id":"9d5fa22f-b349-42f6-abc1-dcec0a7eafbf","system_id":"levelo_inurba_marseille","lat":43.30797,"lon":5.37334,"is_reserved":false,"is_disabled":true,"rental_uris":{"android":"levelo://app?vid=9d5fa22f-b349-42f6-abc1-dcec0a7eafbf","ios":"levelo://app?vid=9d5fa22f-b349-42f6-abc1-dcec0a7eafbf"},"vehicle_type_id":"4","last_reported":1733929809,"current_range_meters":400,"station_id":"","pricing_plan_id":"cebpf4jnsgd1na2vs0mg"},{"bike_id":"9c8c1480-9ffa-4086-913c-c2125a6eb848","system_id":"levelo_inurba_marseille","lat":43.22933,"lon":5.35379,"is_reserved":false,"is_disabled":true,"rental_uris":{"android":"levelo://app?vid=9c8c1480-9ffa-4086-913c-c2125a6eb848","ios":"levelo://app?vid=9c8c1480-9ffa-4086-913c-c2125a6eb848"},"vehicle_type_id":"4","last_reported":1733929809,"current_range_meters":800,"station_id":"cpo3532slgdg3j2ikp40","pricing_plan_id":"cebpf4jnsgd1na2vs0mg"},{"bike_id":"0e9ee8e6-308b-43cf-8d13-c2c7b6d5df31","system_id":"levelo_inurba_marseille","lat":43.25492,"lon":5.37651,"is_reserved":false,"is_disabled":true,"rental_uris":{"android":"levelo://app?vid=0e9ee8e6-308b-43cf-8d13-c2c7b6d5df31","ios":"levelo://app?vid=0e9ee8e6-308b-43cf-8d13-c2c7b6d5df31"},"vehicle_type_id":"4","last_reported":1733929809,"current_range_meters":1200,"station_id":"ce4bhh12rcd13ifvqff0","pricing_plan_id":"cebpf4jnsgd1na2vs0mg"},{"bike_id":"6f656af3-700e-4f68-9a60-3782601a1caf","system_id":"levelo_inurba_marseille","lat":43.31264,"lon":5.36846,"is_reserved":false,"is_disabled":false,"rental_uris":{"android":"levelo://app?vid=6f656af3-700e-4f68-9a60-3782601a1caf","ios":"levelo://app?vid=6f656af3-700e-4f68-9a60-3782601a1caf"},"vehicle_type_id":"4","last_reported":1733929809,"current_range_meters":10800,"station_id":"ce4bgl92rcd13ifvqbq0","pricing_plan_id":"cebpf4jnsgd1na2vs0mg"},{"bike_id":"624b20de-ef4a-40b7-b208-bbe4d5c92574","system_id":"levelo_inurba_marseille","lat":43.29627,"lon":5.37154,"is_reserved":false,"is_disabled":false,"rental_uris":{"android":"levelo://app?vid=624b20de-ef4a-40b7-b208-bbe4d5c92574","ios":"levelo://app?vid=624b20de-ef4a-40b7-b208-bbe4d5c92574"},"vehicle_type_id":"4","last_reported":1733929809,"current_range_meters":38000,"station_id":"ce4bgnh2rcd13ifvqc0g","pricing_plan_id":"cebpf4jnsgd1na2vs0mg"},{"bike_id":"87a01583-813c-4ca3-bf1e-3c0a0f140643","system_id":"levelo_inurba_marseille","lat":43.3121,"lon":5.36861,"is_reserved":false,"is_disabled":false,"rental_uris":{"android":"levelo://app?vid=87a01583-813c-4ca3-bf1e-3c0a0f140643","ios":"levelo://app?vid=87a01583-813c-4ca3-bf1e-3c0a0f140643"},"vehicle_type_id":"4","last_reported":1733929809,"current_range_meters":8400,"station_id":"ce4bgl92rcd13ifvqbq0","pricing_plan_id":"cebpf4jnsgd1na2vs0mg"},{"bike_id":"59805652-78d3-4a9e-ab93-ccef054ac3df","system_id":"levelo_inurba_marseille","lat":43.2904,"lon":5.35914,"is_reserved":false,"is_disabled":false,"rental_uris":{"android":"levelo://app?vid=59805652-78d3-4a9e-ab93-ccef054ac3df","ios":"levelo://app?vid=59805652-78d3-4a9e-ab93-ccef054ac3df"},"vehicle_type_id":"4","last_reported":1733929809,"current_range_meters":8800,"station_id":"ce4bha92rcd13ifvqeg0","pricing_plan_id":"cebpf4jnsgd1na2vs0mg"},{"bike_id":"9ac7fa6e-2578-4832-8168-ade341fdc585","system_id":"levelo_inurba_marseille","lat":43.2841,"lon":5.428961,"is_reserved":false,"is_disabled":true,"rental_uris":{"android":"levelo://app?vid=9ac7fa6e-2578-4832-8168-ade341fdc585","ios":"levelo://app?vid=9ac7fa6e-2578-4832-8168-ade341fdc585"},"vehicle_type_id":"4","last_reported":1733929809,"current_range_meters":0,"station_id":"","pricing_plan_id":"cebpf4jnsgd1na2vs0mg"},{"bike_id":"5b93766f-d0f8-4bca-bc57-e286c063ce96","system_id":"levelo_inurba_marseille","lat":43.29556,"lon":5.42281,"is_reserved":false,"is_disabled":false,"rental_uris":{"android":"levelo://app?vid=5b93766f-d0f8-4bca-bc57-e286c063ce96","ios":"levelo://app?vid=5b93766f-d0f8-4bca-bc57-e286c063ce96"},"vehicle_type_id":"4","last_reported":1733929809,"current_range_meters":34000,"station_id":"ce4bhph2rcd13ifvqhdg","pricing_plan_id":"cebpf4jnsgd1na2vs0mg"},{"bike_id":"5308c75d-85ba-44ca-b672-e8f64933150f","system_id":"levelo_inurba_marseille","lat":43.29279,"lon":5.36849,"is_reserved":false,"is_disabled":false,"rental_uris":{"android":"levelo://app?vid=5308c75d-85ba-44ca-b672-e8f64933150f","ios":"levelo://app?vid=5308c75d-85ba-44ca-b672-e8f64933150f"},"vehicle_type_id":"4","last_reported":1733929809,"current_range_meters":38800,"station_id":"ce4bhbp2rcd13ifvqesg","pricing_plan_id":"cebpf4jnsgd1na2vs0mg"},{"bike_id":"cd0a934c-285e-4271-9238-b2a1a9588ec8","system_id":"levelo_inurba_marseille","lat":43.28721,"lon":5.37947,"is_reserved":false,"is_disabled":true,"rental_uris":{"android":"levelo://app?vid=cd0a934c-285e-4271-9238-b2a1a9588ec8","ios":"levelo://app?vid=cd0a934c-285e-4271-9238-b2a1a9588ec8"},"vehicle_type_id":"4","last_reported":1733929809,"current_range_meters":9200,"station_id":"ce4bh9p2rcd13ifvqec0","pricing_plan_id":"cebpf4jnsgd1na2vs0mg"},{"bike_id":"3fd5227d-72d5-4e57-90d9-15df10098b33","system_id":"levelo_inurba_marseille","lat":43.23192,"lon":5.39978,"is_reserved":false,"is_disabled":false,"rental_uris":{"android":"levelo://app?vid=3fd5227d-72d5-4e57-90d9-15df10098b33","ios":"levelo://app?vid=3fd5227d-72d5-4e57-90d9-15df10098b33"},"vehicle_type_id":"4","last_reported":1733929809,"current_range_meters":8800,"station_id":"ce4bhn12rcd13ifvqgqg","pricing_plan_id":"cebpf4jnsgd1na2vs0mg"},{"bike_id":"dfa72cea-8422-423e-89ac-124a5b9338f5","system_id":"levelo_inurba_marseille","lat":43.2861,"lon":5.37064,"is_reserved":false,"is_disabled":false,"rental_uris":{"android":"levelo://app?vid=dfa72cea-8422-423e-89ac-124a5b9338f5","ios":"levelo://app?vid=dfa72cea-8422-423e-89ac-124a5b9338f5"},"vehicle_type_id":"4","last_reported":1733929809,"current_range_meters":33200,"station_id":"ce4bht12rcd13ifvqi60","pricing_plan_id":"cebpf4jnsgd1na2vs0mg"},{"bike_id":"2170586e-f48b-488e-9cb8-fca4aa23e253","system_id":"levelo_inurba_marseille","lat":43.27388,"lon":5.36259,"is_reserved":false,"is_disabled":false,"rental_uris":{"android":"levelo://app?vid=2170586e-f48b-488e-9cb8-fca4aa23e253","ios":"levelo://app?vid=2170586e-f48b-488e-9cb8-fca4aa23e253"},"vehicle_type_id":"4","last_reported":1733929809,"current_range_meters":24800,"station_id":"ce4bhbh2rcd13ifvqeo0","pricing_plan_id":"cebpf4jnsgd1na2vs0mg"},{"bike_id":"0bafb3be-fad5-461e-b5f9-97c07551a213","system_id":"levelo_inurba_marseille","lat":43.30352,"lon":5.41874,"is_reserved":false,"is_disabled":false,"rental_uris":{"android":"levelo://app?vid=0bafb3be-fad5-461e-b5f9-97c07551a213","ios":"levelo://app?vid=0bafb3be-fad5-461e-b5f9-97c07551a213"},"vehicle_type_id":"4","last_reported":1733929809,"current_range_meters":16800,"station_id":"ce4bhop2rcd13ifvqh7g","pricing_plan_id":"cebpf4jnsgd1na2vs0mg"},{"bike_id":"cd86b9a0-b887-43a2-9410-b7a36a1c1aac","system_id":"levelo_inurba_marseille","lat":43.25725,"lon":5.4111,"is_reserved":false,"is_disabled":false,"rental_uris":{"android":"levelo://app?vid=cd86b9a0-b887-43a2-9410-b7a36a1c1aac","ios":"levelo://app?vid=cd86b9a0-b887-43a2-9410-b7a36a1c1aac"},"vehicle_type_id":"4","last_reported":1733929809,"current_range_meters":38800,"station_id":"ce4bhkp2rcd13ifvqgd0","pricing_plan_id":"cebpf4jnsgd1na2vs0mg"},{"bike_id":"dc3d7a51-4954-4cee-8d90-a10249224c92","system_id":"levelo_inurba_marseille","lat":43.24183,"lon":5.39724,"is_reserved":false,"is_disabled":false,"rental_uris":{"android":"levelo://app?vid=dc3d7a51-4954-4cee-8d90-a10249224c92","ios":"levelo://app?vid=dc3d7a51-4954-4cee-8d90-a10249224c92"},"vehicle_type_id":"4","last_reported":1733929809,"current_range_meters":17200,"station_id":"ce4bhn12rcd13ifvqgpg","pricing_plan_id":"cebpf4jnsgd1na2vs0mg"},