{"last_updated":1714424815,"ttl":30,"version":"2.2","data":{"bikes":[{"bike_id":"954502ab-a7e4-415b-9228-de8056589637","system_id":"levelo_inurba_marseille","lat":43.313391,"lon":5.36706,"is_reserved":false,"is_disabled":false,"rental_uris":{"android":"levelo://app?vid=954502ab-a7e4-415b-9228-de8056589637","ios":"levelo://app?vid=954502ab-a7e4-415b-9228-de8056589637"},"vehicle_type_id":"4","last_reported":1714424815,"current_range_meters":12800,"station_id":"ce4bgr92rcd13ifvqc6g","pricing_plan_id":"cebpf4jnsgd1na2vs0mg"},{"bike_id":"3b1073ec-f5d7-4639-aad6-1fde0516dc06","system_id":"levelo_inurba_marseille","lat":43.312239,"lon":5.368562,"is_reserved":false,"is_disabled":false,"rental_uris":{"android":"levelo://app?vid=3b1073ec-f5d7-4639-aad6-1fde0516dc06","ios":"levelo://app?vid=3b1073ec-f5d7-4639-aad6-1fde0516dc06"},"vehicle_type_id":"4","last_reported":1714424815,"current_range_meters":19600,"station_id":"ce4bgl92rcd13ifvqbq0","pricing_plan_id":"cebpf4jnsgd1na2vs0mg"},{"bike_id":"308f9884-7503-4071-8cfb-48f040afffd7","system_id":"levelo_inurba_marseille","lat":43.312239,"lon":5.368562,"is_reserved":false,"is_disabled":false,"rental_uris":{"android":"levelo://app?vid=308f9884-7503-4071-8cfb-48f040afffd7","ios":"levelo://app?vid=308f9884-7503-4071-8cfb-48f040afffd7"},"vehicle_type_id":"4","last_reported":1714424815,"current_range_meters":12800,"station_id":"ce4bgl92rcd13ifvqbq0","pricing_plan_id":"cebpf4jnsgd1na2vs0mg"},{"bike_id":"395c1310-7701-4b3f-8000-e05e638f9916","system_id":"levelo_inurba_marseille","lat":43.312239,"lon":5.368562,"is_reserved":false,"is_disabled":false,"rental_uris":{"android":"levelo://app?vid=395c1310-7701-4b3f-8000-e05e638f9916","ios":"levelo://app?vid=395c1310-7701-4b3f-8000-e05e638f9916"},"vehicle_type_id":"4","last_reported":1714424815,"current_range_meters":20800,"station_id":"ce4bgl92rcd13ifvqbq0","pricing_plan_id":"cebpf4jnsgd1na2vs0mg"},{"bike_id":"f79caa04-ce8e-48bc-8589-ad26eb2e0837","system_id":"levelo_inurba_marseille","lat":43.312239,"lon":5.368562,"is_reserved":false,"is_disabled":false,"rental_uris":{"android":"levelo://app?vid=f79caa04-ce8e-48bc-8589-ad26eb2e0837","ios":"levelo://app?vid=f79caa04-ce8e-48bc-8589-ad26eb2e0837"},"vehicle_type_id":"4","last_reported":1714424815,"current_range_meters":13200,"station_id":"ce4bgl92rcd13ifvqbq0","pricing_plan_id":"cebpf4jnsgd1na2vs0mg"},{"bike_id":"2815f2a8-9ff4-489b-93f4-125bcded4c31","system_id":"levelo_inurba_marseille","lat":43.312239,"lon":5.368562,"is_reserved":false,"is_disabled":false,"rental_uris":{"android":"levelo://app?vid=2815f2a8-9ff4-489b-93f4-125bcded4c31","ios":"levelo://app?vid=2815f2a8-9ff4-489b-93f4-125bcded4c31"},"vehicle_type_id":"4","last_reported":1714424815,"current_range_meters":9600,"station_id":"ce4bgl92rcd13ifvqbq0","pricing_plan_id":"cebpf4jnsgd1na2vs0mg"},{"bike_id":"73381902-3ba0-4164-a6a2-e4d1bfa7ba8c","system_id":"levelo_inurba_marseille","lat":43.312239,"lon":5.368562,"is_reserved":false,"is_disabled":false,"rental_uris":{"android":"levelo://app?vid=73381902-3ba0-4164-a6a2-e4d1bfa7ba8c","ios":"levelo://app?vid=73381902-3ba0-4164-a6a2-e4d1bfa7ba8c"},"vehicle_type_id":"4","last_reported":1714424815,"current_range_meters":14000,"station_id":"ce4bgl92rcd13ifvqbq0","pricing_plan_id":"cebpf4jnsgd1na2vs0mg"},{"bike_id":"75286648-de16-495f-9886-a80ece7937d5","system_id":"levelo_inurba_marseille","lat":43.31494,"lon":5.37314,"is_reserved":false,"is_disabled":false,"rental_uris":{"android":"levelo://app?vid=75286648-de16-495f-9886-a80ece7937d5","ios":"levelo://app?vid=75286648-de16-495f-9886-a80ece7937d5"},"vehicle_type_id":"4","last_reported":1714424815,"current_range_meters":0,"station_id":"ce4bgt12rcd13ifvqcd0","pricing_plan_id":"cebpf4jnsgd1na2vs0mg"},{"bike_id":"1d151cdf-c73f-4a94-a80f-1786b81b146d","system_id":"levelo_inurba_marseille","lat":43.291994,"lon":5.357886,"is_reserved":false,"is_disabled":false,"rental_uris":{"android":"levelo://app?vid=1d151cdf-c73f-4a94-a80f-1786b81b146d","ios":"levelo://app?vid=1d151cdf-c73f-4a94-a80f-1786b81b146d"},"vehicle_type_id":"4","last_reported":1714424815,"current_range_meters":25200,"station_id":"ce4bhb12rcd13ifvqel0","pricing_plan_id":"cebpf4jnsgd1na2vs0mg"},{"bike_id":"a0048416-0412-47ed-b23e-fb48345b00e6","system_id":"levelo_inurba_marseille","lat":43.309039,"lon":5.371797,"is_reserved":false,"is_disabled":false,"rental_uris":{"android":"levelo://app?vid=a0048416-0412-47ed-b23e-fb48345b00e6","ios":"levelo://app?vid=a0048416-0412-47ed-b23e-fb48345b00e6"},"vehicle_type_id":"4","last_reported":1714424815,"current_range_meters":14000,"station_id":"ce4bguh2rcd13ifvqckg","pricing_plan_id":"cebpf4jnsgd1na2vs0mg"},{"bike_id":"f16709be-5797-4c2a-a579-00063b725ac6","system_id":"levelo_inurba_marseille","lat":43.309039,"lon":5.371797,"is_reserved":false,"is_disabled":false,"rental_uris":{"android":"levelo://app?vid=f16709be-5797-4c2a-a579-00063b725ac6","ios":"levelo://app?vid=f16709be-5797-4c2a-a579-00063b725ac6"},"vehicle_type_id":"4","last_reported":1714424815,"current_range_meters":16800,"station_id":"ce4bguh2rcd13ifvqckg","pricing_plan_id":"cebpf4jnsgd1na2vs0mg"},{"bike_id":"3c3fbfb0-06e3-40df-b684-020a4ab1e440","system_id":"levelo_inurba_marseille","lat":43.309039,"lon":5.371797,"is_reserved":false,"is_disabled":false,"rental_uris":{"android":"levelo://app?vid=3c3fbfb0-06e3-40df-b684-020a4ab1e440","ios":"levelo://app?vid=3c3fbfb0-06e3-40df-b684-020a4ab1e440"},"vehicle_type_id":"4","last_reported":1714424815,"current_range_meters":28400,"station_id":"ce4bguh2rcd13ifvqckg","pricing_plan_id":"cebpf4jnsgd1na2vs0mg"},{"bike_id":"9382f6c8-3c1a-4086-8d1f-52499c180347","system_id":"levelo_inurba_marseille","lat":43.309039,"lon":5.371797,"is_reserved":false,"is_disabled":false,"rental_uris":{"android":"levelo://app?vid=9382f6c8-3c1a-4086-8d1f-52499c180347","ios":"levelo://app?vid=9382f6c8-3c1a-4086-8d1f-52499c180347"},"vehicle_type_id":"4","last_reported":1714424815,"current_range_meters":30400,"station_id":"ce4bguh2rcd13ifvqckg","pricing_plan_id":"cebpf4jnsgd1na2vs0mg"},{"bike_id":"3081906e-5969-458f-9859-f4b48e6b7945","system_id":"levelo_inurba_marseille","lat":43.309039,"lon":5.371797,"is_reserved":false,"is_disabled":false,"rental_uris":{"android":"levelo://app?vid=3081906e-5969-458f-9859-f4b48e6b7945","ios":"levelo://app?vid=3081906e-5969-458f-9859-f4b48e6b7945"},"vehicle_type_id":"4","last_reported":1714424815,"current_range_meters":29600,"station_id":"ce4bguh2rcd13ifvqckg","pricing_plan_id":"cebpf4jnsgd1na2vs0mg"},{"bike_id":"214231d4-c0c5-43ef-a5aa-f392a63efa9e","system_id":"levelo_inurba_marseille","lat":43.309034,"lon":5.371783,"is_reserved":false,"is_disabled":false,"rental_uris":{"android":"levelo://app?vid=214231d4-c0c5-43ef-a5aa-f392a63efa9e","ios":"levelo://app?vid=214231d4-c0c5-43ef-a5aa-f392a63efa9e"},"vehicle_type_id":"4","last_reported":1714424815,"current_range_meters":0,"station_id":"ce4bguh2rcd13ifvqckg","pricing_plan_id":"cebpf4jnsgd1na2vs0mg"},{"bike_id":"efa65134-71a0-4849-ad72-1e3b684b6267","system_id":"levelo_inurba_marseille","lat":43.309034,"lon":5.371783,"is_reserved":false,"is_disabled":false,"rental_uris":{"android":"levelo://app?vid=efa65134-71a0-4849-ad72-1e3b684b6267","ios":"levelo://app?vid=efa65134-71a0-4849-ad72-1e3b684b6267"},"vehicle_type_id":"4","last_reported":1714424815,"current_range_meters":23600,"station_id":"ce4bguh2rcd13ifvqckg","pricing_plan_id":"cebpf4jnsgd1na2vs0mg"},{"bike_id":"f0cb0ad5-cf27-4d6d-96f4-69da9a840daf","system_id":"levelo_inurba_marseille","lat":43.305706,"lon":5.365654,"is_reserved":false,"is_disabled":false,"rental_uris":{"android":"levelo://app?vid=f0cb0ad5-cf27-4d6d-96f4-69da9a840daf","ios":"levelo://app?vid=f0cb0ad5-cf27-4d6d-96f4-69da9a840daf"},"vehicle_type_id":"4","last_reported":1714424815,"current_range_meters":31200,"station_id":"ce4bgs12rcd13ifvqcag","pricing_plan_id":"cebpf4jnsgd1na2vs0mg"},{"bike_id":"4f4ef22d-3266-4c75-805d-3c4b7e3c2ef4","system_id":"levelo_inurba_marseille","lat":43.305368,"lon":5.367343,"is_reserved":false,"is_disabled":false,"rental_uris":{"android":"levelo://app?vid=4f4ef22d-3266-4c75-805d-3c4b7e3c2ef4","ios":"levelo://app?vid=4f4ef22d-3266-4c75-805d-3c4b7e3c2ef4"},"vehicle_type_id":"4","last_reported":1714424815,"current_range_meters":29600,"station_id":"ce4bgrp2rcd13ifvqc9g","pricing_plan_id":"cebpf4jnsgd1na2vs0mg"},{"bike_id":"47279d0b-11a3-408e-a106-845129bfc062","system_id":"levelo_inurba_marseille","lat":43.305706,"lon":5.365654,"is_reserved":false,"is_disabled":false,"rental_uris":{"android":"levelo://app?vid=47279d0b-11a3-408e-a106-845129bfc062","ios":"levelo://app?vid=47279d0b-11a3-408e-a106-845129bfc062"},"vehicle_type_id":"4","last_reported":1714424815,"current_range_meters":0,"station_id":"ce4bgs12rcd13ifvqcag","pricing_plan_id":"cebpf4jnsgd1na2vs0mg"},{"bike_id":"c326a4db-171a-4e89-a3ad-bd32fa6265f4","system_id":"levelo_inurba_marseille","lat":43.305989,"lon":5.37225,"is_reserved":false,"is_disabled":false,"rental_uris":{"android":"levelo://app?vid=c326a4db-171a-4e89-a3ad-bd32fa6265f4","ios":"levelo://app?vid=c326a4db-171a-4e89-a3ad-bd32fa6265f4"},"vehicle_type_id":"4","last_reported":1714424815,"current_range_meters":18400,"station_id":"ce4bgqh2rcd13ifvqc4g","pricing_plan_id":"cebpf4jnsgd1na2vs0mg"},{"bike_id":"b0804c88-4c94-4e69-841b-f44f52118586","system_id":"levelo_inurba_marseille","lat":43.305989,"lon":5.37225,"is_reserved":false,"is_disabled":false,"rental_uris":{"android":"levelo://app?vid=b0804c88-4c94-4e69-841b-f44f52118586","ios":"levelo://app?vid=b0804c88-4c94-4e69-841b-f44f52118586"},"vehicle_type_id":"4","last_reported":1714424815,"current_range_meters":5600,"station_id":"ce4bgqh2rcd13ifvqc4g","pricing_plan_id":"cebpf4jnsgd1na2vs0mg"},{"bike_id":"1497d919-3bd0-4f06-a30c-9c3e94eb1ee1","system_id":"levelo_inurba_marseille","lat":43.305989,"lon":5.37225,"is_reserved":false,"is_disabled":false,"rental_uris":{"android":"levelo://app?vid=1497d919-3bd0-4f06-a30c-9c3e94eb1ee1","ios":"levelo://app?vid=1497d919-3bd0-4f06-a30c-9c3e94eb1ee1"},"vehicle_type_id":"4","last_reported":1714424815,"current_range_meters":29200,"station_id":"ce4bgqh2rcd13ifvqc4g","pricing_plan_id":"cebpf4jnsgd1na2vs0mg"},{"bike_id":"f87ce900-ca5c-4b97-bf6d-f9d77814a5f3","system_id":"levelo_inurba_marseille","lat":43.311125,"lon":5.377624,"is_reserved":false,"is_disabled":false,"rental_uris":{"android":"levelo://app?vid=f87ce900-ca5c-4b97-bf6d-f9d77814a5f3","ios":"levelo://app?vid=f87ce900-ca5c-4b97-bf6d-f9d77814a5f3"},"vehicle_type_id":"4","last_reported":1714424815,"current_range_meters":29200,"station_id":"ce4bgt92rcd13ifvqcg0","pricing_plan_id":"cebpf4jnsgd1na2vs0mg"},{"bike_id":"5841b586-0fd7-4be7-827d-15c661d5249c","system_id":"levelo_inurba_marseille","lat":43.311125,"lon":5.377624,"is_reserved":false,"is_disabled":false,"rental_uris":{"android":"levelo://app?vid=5841b586-0fd7-4be7-827d-15c661d5249c","ios":"levelo://app?vid=5841b586-0fd7-4be7-827d-15c661d5249c"},"vehicle_type_id":"4","last_reported":1714424815,"current_range_meters":22000,"station_id":"ce4bgt92rcd13ifvqcg0","pricing_plan_id":"cebpf4jnsgd1na2vs0mg"},{"bike_id":"c4484a60-1f63-4c39-90ca-7ca16ae77489","system_id":"levelo_inurba_marseille","lat":43.307945,"lon":5.376487,"is_reserved":false,"is_disabled":false,"rental_uris":{"android":"levelo://app?vid=c4484a60-1f63-4c39-90ca-7ca16ae77489","ios":"levelo://app?vid=c4484a60-1f63-4c39-90ca-7ca16ae77489"},"vehicle_type_id":"4","last_reported":1714424815,"current_range_meters":31200,"station_id":"ce4bgv92rcd13ifvqcq0","pricing_plan_id":"cebpf4jnsgd1na2vs0mg"},{"bike_id":"61ed6fa3-979b-4247-9680-3f4d299e4a30","system_id":"levelo_inurba_marseille","lat":43.307945,"lon":5.376487,"is_reserved":false,"is_disabled":false,"rental_uris":{"android":"levelo://app?vid=61ed6fa3-979b-4247-9680-3f4d299e4a30","ios":"levelo://app?vid=61ed6fa3-979b-4247-9680-3f4d299e4a30"},"vehicle_type_id":"4","last_reported":1714424815,"current_range_meters":13600,"station_id":"ce4bgv92rcd13ifvqcq0","pricing_plan_id":"cebpf4jnsgd1na2vs0mg"},{"bike_id":"10036fd5-7e61-4f7c-a996-f31e95e5c061","system_id":"levelo_inurba_marseille","lat":43.307945,"lon":5.376487,"is_reserved":false,"is_disabled":false,"rental_uris":{"android":"levelo://app?vid=10036fd5-7e61-4f7c-a996-f31e95e5c061","ios":"levelo://app?vid=10036fd5-7e61-4f7c-a996-f31e95e5c061"},"vehicle_type_id":"4","last_reported":1714424815,"current_range_meters":10800,"station_id":"ce4bgv92rcd13ifvqcq0","pricing_plan_id":"cebpf4jnsgd1na2vs0mg"},{"bike_id":"cdc9dde0-bb37-443c-8122-0af07f445f9a","system_id":"levelo_inurba_marseille","lat":43.317075,"lon":5.377367,"is_reserved":false,"is_disabled":false,"rental_uris":{"android":"levelo://app?vid=cdc9dde0-bb37-443c-8122-0af07f445f9a","ios":"levelo://app?vid=cdc9dde0-bb37-443c-8122-0af07f445f9a"},"vehicle_type_id":"4","last_reported":1714424815,"current_range_meters":16400,"station_id":"ce4bgth2rcd13ifvqch0","pricing_plan_id":"cebpf4jnsgd1na2vs0mg"},{"bike_id":"eddb8e1a-0191-4a56-9bfc-45631c4e8e46","system_id":"levelo_inurba_marseille","lat":43.303046,"lon":5.368981,"is_reserved":false,"is_disabled":false,"rental_uris":{"android":"levelo://app?vid=eddb8e1a-0191-4a56-9bfc-45631c4e8e46","ios":"levelo://app?vid=eddb8e1a-0191-4a56-9bfc-45631c4e8e46"},"vehicle_type_id":"4","last_reported":1714424815,"current_range_meters":0,"station_id":"ce4bgqh2rcd13ifvqc5g","pricing_plan_id":"cebpf4jnsgd1na2vs0mg"},{"bike_id":"6217c7be-3f74-4df0-9f8d-54071ca21eb5","system_id":"levelo_inurba_marseille","lat":43.315406,"lon":5.380244,"is_reserved":false,"is_disabled":false,"rental_uris":{"android":"levelo://app?vid=6217c7be-3f74-4df0-9f8d-54071ca21eb5","ios":"levelo://app?vid=6217c7be-3f74-4df0-9f8d-54071ca21eb5"},"vehicle_type_id":"4","last_reported":1714424815,"current_range_meters":0,"station_id":"ce4bhsp2rcd13ifvqi50","pricing_plan_id":"cebpf4jnsgd1na2vs0mg"},{"bike_id":"a9bba24e-9f68-4b5d-89f2-c74ac4657b37","system_id":"levelo_inurba_marseille","lat":43.315289,"lon":5.380349,"is_reserved":false,"is_disabled":false,"rental_uris":{"android":"levelo://app?vid=a9bba24e-9f68-4b5d-89f2-c74ac4657b37","ios":"levelo://app?vid=a9bba24e-9f68-4b5d-89f2-c74ac4657b37"},"vehicle_type_id":"4","last_reported":1714424815,"current_range_meters":27200,"station_id":"ce4bhsp2rcd13ifvqi50","pricing_plan_id":"cebpf4jnsgd1na2vs0mg"},{"bike_id":"9cc3551d-27ac-4f24-997a-f9f769a76e96","system_id":"levelo_inurba_marseille","lat":43.315289,"lon":5.380349,"is_reserved":false,"is_disabled":false,"rental_uris":{"android":"levelo://app?vid=9cc3551d-27ac-4f24-997a-f9f769a76e96","ios":"levelo://app?vid=9cc3551d-27ac-4f24-997a-f9f769a76e96"},"vehicle_type_id":"4","last_reported":1714424815,"current_range_meters":27600,"station_id":"ce4bhsp2rcd13ifvqi50","pricing_plan_id":"cebpf4jnsgd1na2vs0mg"},{"bike_id":"7ca20631-1cfc-4a4b-beb7-623e93188943","system_id":"levelo_inurba_marseille","lat":43.30282,"lon":5.37257,"is_reserved":false,"is_disabled":false,"rental_uris":{"android":"levelo://app?vid=7ca20631-1cfc-4a4b-beb7-623e93188943","ios":"levelo://app?vid=7ca20631-1cfc-4a4b-beb7-623e93188943"},"vehicle_type_id":"4","last_reported":1714424815,"current_range_meters":22000,"station_id":"","pricing_plan_id":"cebpf4jnsgd1na2vs0mg"},{"bike_id":"a1a172b1-0b92-43eb-98fa-b020c010766a","system_id":"levelo_inurba_marseille","lat":43.301939,"lon":5.366286,"is_reserved":false,"is_disabled":false,"rental_uris":{"android":"levelo://app?vid=a1a172b1-0b92-43eb-98fa-b020c010766a","ios":"levelo://app?vid=a1a172b1-0b92-43eb-98fa-b020c010766a"},"vehicle_type_id":"4","last_reported":1714424815,"current_range_meters":0,"station_id":"ce4bgrh2rcd13ifvqc8g","pricing_plan_id":"cebpf4jnsgd1na2vs0mg"},{"bike_id":"b9a670e0-35ba-44fa-a9b8-b4eb8d0fea1f","system_id":"levelo_inurba_marseille","lat":43.301939,"lon":5.366286,"is_reserved":false,"is_disabled":false,"rental_uris":{"android":"levelo://app?vid=b9a670e0-35ba-44fa-a9b8-b4eb8d0fea1f","ios":"levelo://app?vid=b9a670e0-35ba-44fa-a9b8-b4eb8d0fea1f"},"vehicle_type_id":"4","last_reported":1714424815,"current_range_meters":29600,"station_id":"ce4bgrh2rcd13ifvqc8g","pricing_plan_id":"cebpf4jnsgd1na2vs0mg"},{"bike_id":"4854fec5-26f9-4228-8be4-9600d0016f98","system_id":"levelo_inurba_marseille","lat":43.301939,"lon":5.366286,"is_reserved":false,"is_disabled":false,"rental_uris":{"android":"levelo://app?vid=4854fec5-26f9-4228-8be4-9600d0016f98","ios":"levelo://app?vid=4854fec5-26f9-4228-8be4-9600d0016f98"},"vehicle_type_id":"4","last_reported":1714424815,"current_range_meters":3200,"station_id":"ce4bgrh2rcd13ifvqc8g","pricing_plan_id":"cebpf4jnsgd1na2vs0mg"},{"bike_id":"86cd7304-286c-4bb0-9778-6764435dfac1","system_id":"levelo_inurba_marseille","lat":43.308012,"lon":5.381511,"is_reserved":false,"is_disabled":false,"rental_uris":{"android":"levelo://app?vid=86cd7304-286c-4bb0-9778-6764435dfac1","ios":"levelo://app?vid=86cd7304-286c-4bb0-9778-6764435dfac1"},"vehicle_type_id":"4","last_reported":1714424815,"current_range_meters":0,"station_id":"ce4bgt12rcd13ifvqce0","pricing_plan_id":"cebpf4jnsgd1na2vs0mg"},{"bike_id":"f5d107d6-93c4-4674-8280-6de0f5f398e9","system_id":"levelo_inurba_marseille","lat":43.30795,"lon":5.381535,"is_reserved":false,"is_disabled":false,"rental_uris":{"android":"levelo://app?vid=f5d107d6-93c4-4674-8280-6de0f5f398e9","ios":"levelo://app?vid=f5d107d6-93c4-4674-8280-6de0f5f398e9"},"vehicle_type_id":"4","last_reported":1714424815,"current_range_meters":14400,"station_id":"","pricing_plan_id":"cebpf4jnsgd1na2vs0mg"},{"bike_id":"c56e0119-9448-4445-a075-2b916615a1d1","system_id":"levelo_inurba_marseille","lat":43.308012,"lon":5.381511,"is_reserved":false,"is_disabled":false,"rental_uris":{"android":"levelo://app?vid=c56e0119-9448-4445-a075-2b916615a1d1","ios":"levelo://app?vid=c56e0119-9448-4445-a075-2b916615a1d1"},"vehicle_type_id":"4","last_reported":1714424815,"current_range_meters":28000,"station_id":"ce4bgt12rcd13ifvqce0","pricing_plan_id":"cebpf4jnsgd1na2vs0mg"},{"bike_id":"88baa2ae-35a5-4eab-93bc-b2ae1f43604f","system_id":"levelo_inurba_marseille","lat":43.304606,"lon":5.379026,"is_reserved":false,"is_disabled":false,"rental_uris":{"android":"levelo://app?vid=88baa2ae-35a5-4eab-93bc-b2ae1f43604f","ios":"levelo://app?vid=88baa2ae-35a5-4eab-93bc-b2ae1f43604f"},"vehicle_type_id":"4","last_reported":1714424815,"current_range_meters":12400,"station_id":"ce4bgup2rcd13ifvqcn0","pricing_plan_id":"cebpf4jnsgd1na2vs0mg"},{"bike_id":"86b1b9b6-4285-4839-8b91-9918b3d2c28b","system_id":"levelo_inurba_marseille","lat":43.32473,"lon":5.36576,"is_reserved":false,"is_disabled":false,"rental_uris":{"android":"levelo://app?vid=86b1b9b6-4285-4839-8b91-9918b3d2c28b","ios":"levelo://app?vid=86b1b9b6-4285-4839-8b91-9918b3d2c28b"},"vehicle_type_id":"4","last_reported":1714424815,"current_range_meters":17600,"station_id":"ce4bhs12rcd13ifvqhvg","pricing_plan_id":"cebpf4jnsgd1na2vs0mg"},{"bike_id":"af7e4dc0-c0a1-49da-b486-74d98065da9f","system_id":"levelo_inurba_marseille","lat":43.304606,"lon":5.379026,"is_reserved":false,"is_disabled":false,"rental_uris":{"android":"levelo://app?vid=af7e4dc0-c0a1-49da-b486-74d98065da9f","ios":"levelo://app?vid=af7e4dc0-c0a1-49da-b486-74d98065da9f"},"vehicle_type_id":"4","last_reported":1714424815,"current_range_meters":17600,"station_id":"ce4bgup2rcd13ifvqcn0","pricing_plan_id":"cebpf4jnsgd1na2vs0mg"},{"bike_id":"1d87a859-b9f7-4a20-bc5d-c66cb088cf1b","system_id":"levelo_inurba_marseille","lat":43.32477,"lon":5.36571,"is_reserved":false,"is_disabled":false,"rental_uris":{"android":"levelo://app?vid=1d87a859-b9f7-4a20-bc5d-c66cb088cf1b","ios":"levelo://app?vid=1d87a859-b9f7-4a20-bc5d-c66cb088cf1b"},"vehicle_type_id":"4","last_reported":1714424815,"current_range_meters":4400,"station_id":"ce4bhs12rcd13ifvqhvg","pricing_plan_id":"cebpf4jnsgd1na2vs0mg"},{"bike_id":"2bd54964-39ec-4baf-8d62-ee67fc4efecf","system_id":"levelo_inurba_marseille","lat":43.324771,"lon":5.36557,"is_reserved":false,"is_disabled":false,"rental_uris":{"android":"levelo://app?vid=2bd54964-39ec-4baf-8d62-ee67fc4efecf","ios":"levelo://app?vid=2bd54964-39ec-4baf-8d62-ee67fc4efecf"},"vehicle_type_id":"4","last_reported":1714424815,"current_range_meters":19200,"station_id":"ce4bhs12rcd13ifvqhvg","pricing_plan_id":"cebpf4jnsgd1na2vs0mg"},{"bike_id":"c62b55fd-1624-48c8-9a54-525ac52f971e","system_id":"levelo_inurba_marseille","lat":43.308012,"lon":5.381511,"is_reserved":false,"is_disabled":false,"rental_uris":{"android":"levelo://app?vid=c62b55fd-1624-48c8-9a54-525ac52f971e","ios":"levelo://app?vid=c62b55fd-1624-48c8-9a54-525ac52f971e"},"vehicle_type_id":"4","last_reported":1714424815,"current_range_meters":20000,"station_id":"ce4bgt12rcd13ifvqce0","pricing_plan_id":"cebpf4jnsgd1na2vs0mg"},{"bike_id":"132bacdc-8e73-4afa-9890-359e4c1c3ca1","system_id":"levelo_inurba_marseille","lat":43.32479,"lon":5.365641,"is_reserved":false,"is_disabled":false,"rental_uris":{"android":"levelo://app?vid=132bacdc-8e73-4afa-9890-359e4c1c3ca1","ios":"levelo://app?vid=132bacdc-8e73-4afa-9890-359e4c1c3ca1"},"vehicle_type_id":"4","last_reported":1714424815,"current_range_meters":10000,"station_id":"ce4bhs12rcd13ifvqhvg","pricing_plan_id":"cebpf4jnsgd1na2vs0mg"},{"bike_id":"da7cf71b-c76d-435c-8bcc-78ee9cc66204","system_id":"levelo_inurba_marseille","lat":43.324771,"lon":5.36557,"is_reserved":false,"is_disabled":false,"rental_uris":{"android":"levelo://app?vid=da7cf71b-c76d-435c-8bcc-78ee9cc66204","ios":"levelo://app?vid=da7cf71b-c76d-435c-8bcc-78ee9cc66204"},"vehicle_type_id":"4","last_reported":1714424815,"current_range_meters":14000,"station_id":"ce4bhs12rcd13ifvqhvg","pricing_plan_id":"cebpf4jnsgd1na2vs0mg"},{"bike_id":"214b2267-7b04-49b0-ab9a-94a7af076243","system_id":"levelo_inurba_marseille","lat":43.3248,"lon":5.36566,"is_reserved":false,"is_disabled":false,"rental_uris":{"android":"levelo://app?vid=214b2267-7b04-49b0-ab9a-94a7af076243","ios":"levelo://app?vid=214b2267-7b04-49b0-ab9a-94a7af076243"},"vehicle_type_id":"4","last_reported":1714424815,"current_range_meters":29600,"station_id":"ce4bhs12rcd13ifvqhvg","pricing_plan_id":"cebpf4jnsgd1na2vs0mg"},{"bike_id":"bf86c245-53a6-4c88-a168-0d313437f078","system_id":"levelo_inurba_marseille","lat":43.324809,"lon":5.365714,"is_reserved":false,"is_disabled":false,"rental_uris":{"android":"levelo://app?vid=bf86c245-53a6-4c88-a168-0d313437f078","ios":"levelo://app?vid=bf86c245-53a6-4c88-a168-0d313437f078"},"vehicle_type_id":"4","last_reported":1714424815,"current_range_meters":8400,"station_id":"ce4bhs12rcd13ifvqhvg","pricing_plan_id":"cebpf4jnsgd1na2vs0mg"},{"bike_id":"e73c16d2-3e2c-4371-98ae-f2b70ee9d561","system_id":"levelo_inurba_marseille","lat":43.32481,"lon":5.36572,"is_reserved":false,"is_disabled":false,"rental_uris":{"android":"levelo://app?vid=e73c16d2-3e2c-4371-98ae-f2b70ee9d561","ios":"levelo://app?vid=e73c16d2-3e2c-4371-98ae-f2b70ee9d561"},"vehicle_type_id":"4","last_reported":1714424815,"current_range_meters":6400,"station_id":"ce4bhs12rcd13ifvqhvg","pricing_plan_id":"cebpf4jnsgd1na2vs0mg"},{"bike_id":"b84ccaf2-f52d-43b2-8c19-ab25afebfda2","system_id":"levelo_inurba_marseille","lat":43.32481,"lon":5.36572,"is_reserved":false,"is_disabled":false,"rental_uris":{"android":"levelo://app?vid=b84ccaf2-f52d-43b2-8c19-ab25afebfda2","ios":"levelo://app?vid=b84ccaf2-f52d-43b2-8c19-ab25afebfda2"},"vehicle_type_id":"4","last_reported":1714424815,"current_range_meters":19200,"station_id":"ce4bhs12rcd13ifvqhvg","pricing_plan_id":"cebpf4jnsgd1na2vs0mg"},{"bike_id":"ea9f8f61-be81-43ec-8055-fdf55dd5c39f","system_id":"levelo_inurba_marseille","lat":43.324771,"lon":5.36557,"is_reserved":false,"is_disabled":false,"rental_uris":{"android":"levelo://app?vid=ea9f8f61-be81-43ec-8055-fdf55dd5c39f","ios":"levelo://app?vid=ea9f8f61-be81-43ec-8055-fdf55dd5c39f"},"vehicle_type_id":"4","last_reported":1714424815,"current_range_meters":27600,"station_id":"ce4bhs12rcd13ifvqhvg","pricing_plan_id":"cebpf4jnsgd1na2vs0mg"},{"bike_id":"fed24aee-80a4-4b73-a424-9a65cb9ef4bf","system_id":"levelo_inurba_marseille","lat":43.324771,"lon":5.36557,"is_reserved":false,"is_disabled":false,"rental_uris":{"android":"levelo://app?vid=fed24aee-80a4-4b73-a424-9a65cb9ef4bf","ios":"levelo://app?vid=fed24aee-80a4-4b73-a424-9a65cb9ef4bf"},"vehicle_type_id":"4","last_reported":1714424815,"current_range_meters":23200,"station_id":"ce4bhs12rcd13ifvqhvg","pricing_plan_id":"cebpf4jnsgd1na2vs0mg"},{"bike_id":"7d2182b4-dbc2-4a24-a45c-47ca0cb96df7","system_id":"levelo_inurba_marseille","lat":43.324771,"lon":5.36557,"is_reserved":false,"is_disabled":false,"rental_uris":{"android":"levelo://app?vid=7d2182b4-dbc2-4a24-a45c-47ca0cb96df7","ios":"levelo://app?vid=7d2182b4-dbc2-4a24-a45c-47ca0cb96df7"},"vehicle_type_id":"4","last_reported":1714424815,"current_range_meters":8800,"station_id":"ce4bhs12rcd13ifvqhvg","pricing_plan_id":"cebpf4jnsgd1na2vs0mg"},{"bike_id":"e2f0d488-485b-42ce-a5eb-a605ce20dfe8","system_id":"levelo_inurba_marseille","lat":43.324771,"lon":5.36557,"is_reserved":false,"is_disabled":false,"rental_uris":{"android":"levelo://app?vid=e2f0d488-485b-42ce-a5eb-a605ce20dfe8","ios":"levelo://app?vid=e2f0d488-485b-42ce-a5eb-a605ce20dfe8"},"vehicle_type_id":"4","last_reported":1714424815,"current_range_meters":13600,"station_id":"ce4bhs12rcd13ifvqhvg","pricing_plan_id":"cebpf4jnsgd1na2vs0mg"},{"bike_id":"0c158e1b-4722-4f12-8396-1c9d9f4a29d5","system_id":"levelo_inurba_marseille","lat":43.324771,"lon":5.36557,"is_reserved":false,"is_disabled":false,"rental_uris":{"android":"levelo://app?vid=0c158e1b-4722-4f12-8396-1c9d9f4a29d5","ios":"levelo://app?vid=0c158e1b-4722-4f12-8396-1c9d9f4a29d5"},"vehicle_type_id":"4","last_reported":1714424815,"current_range_meters":12400,"station_id":"ce4bhs12rcd13ifvqhvg","pricing_plan_id":"cebpf4jnsgd1na2vs0mg"},{"bike_id":"0a99ee72-e43a-44c1-9027-262098246010","system_id":"levelo_inurba_marseille","lat":43.324771,"lon":5.36557,"is_reserved":false,"is_disabled":false,"rental_uris":{"android":"levelo://app?vid=0a99ee72-e43a-44c1-9027-262098246010","ios":"levelo://app?vid=0a99ee72-e43a-44c1-9027-262098246010"},"vehicle_type_id":"4","last_reported":1714424815,"current_range_meters":18000,"station_id":"ce4bhs12rcd13ifvqhvg","pricing_plan_id":"cebpf4jnsgd1na2vs0mg"},{"bike_id":"5a1e7eae-de16-40e4-8f25-124bfbb8516e","system_id":"levelo_inurba_marseille","lat":43.324771,"lon":5.36557,"is_reserved":false,"is_disabled":false,"rental_uris":{"android":"levelo://app?vid=5a1e7eae-de16-40e4-8f25-124bfbb8516e","ios":"levelo://app?vid=5a1e7eae-de16-40e4-8f25-124bfbb8516e"},"vehicle_type_id":"4","last_reported":1714424815,"current_range_meters":15200,"station_id":"ce4bhs12rcd13ifvqhvg","pricing_plan_id":"cebpf4jnsgd1na2vs0mg"},{"bike_id":"fd1360a1-fed0-4851-b9bf-5735671c98cc","system_id":"levelo_inurba_marseille","lat":43.324771,"lon":5.36557,"is_reserved":false,"is_disabled":false,"rental_uris":{"android":"levelo://app?vid=fd1360a1-fed0-4851-b9bf-5735671c98cc","ios":"levelo://app?vid=fd1360a1-fed0-4851-b9bf-5735671c98cc"},"vehicle_type_id":"4","last_reported":1714424815,"current_range_meters":12400,"station_id":"ce4bhs12rcd13ifvqhvg","pricing_plan_id":"cebpf4jnsgd1na2vs0mg"},{"bike_id":"48dd3ec6-b180-43ee-a7ce-834648a3ca81","system_id":"levelo_inurba_marseille","lat":43.32485,"lon":5.36567,"is_reserved":false,"is_disabled":false,"rental_uris":{"android":"levelo://app?vid=48dd3ec6-b180-43ee-a7ce-834648a3ca81","ios":"levelo://app?vid=48dd3ec6-b180-43ee-a7ce-834648a3ca81"},"vehicle_type_id":"4","last_reported":1714424815,"current_range_meters":3600,"station_id":"ce4bhs12rcd13ifvqhvg","pricing_plan_id":"cebpf4jnsgd1na2vs0mg"},{"bike_id":"1b4acdb9-b533-4fbe-be14-3d235a47355f","system_id":"levelo_inurba_marseille","lat":43.324771,"lon":5.36557,"is_reserved":false,"is_disabled":false,"rental_uris":{"android":"levelo://app?vid=1b4acdb9-b533-4fbe-be14-3d235a47355f","ios":"levelo://app?vid=1b4acdb9-b533-4fbe-be14-3d235a47355f"},"vehicle_type_id":"4","last_reported":1714424815,"current_range_meters":27200,"station_id":"ce4bhs12rcd13ifvqhvg","pricing_plan_id":"cebpf4jnsgd1na2vs0mg"},{"bike_id":"8b58a7c2-18e3-45ad-acbd-655ea693af73","system_id":"levelo_inurba_marseille","lat":43.324771,"lon":5.36557,"is_reserved":false,"is_disabled":false,"rental_uris":{"android":"levelo://app?vid=8b58a7c2-18e3-45ad-acbd-655ea693af73","ios":"levelo://app?vid=8b58a7c2-18e3-45ad-acbd-655ea693af73"},"vehicle_type_id":"4","last_reported":1714424815,"current_range_meters":22400,"station_id":"ce4bhs12rcd13ifvqhvg","pricing_plan_id":"cebpf4jnsgd1na2vs0mg"},{"bike_id":"543576bd-b295-4580-81b0-e36e0805c360","system_id":"levelo_inurba_marseille","lat":43.324863,"lon":5.365785,"is_reserved":false,"is_disabled":false,"rental_uris":{"android":"levelo://app?vid=543576bd-b295-4580-81b0-e36e0805c360","ios":"levelo://app?vid=543576bd-b295-4580-81b0-e36e0805c360"},"vehicle_type_id":"4","last_reported":1714424815,"current_range_meters":10800,"station_id":"ce4bhs12rcd13ifvqhvg","pricing_plan_id":"cebpf4jnsgd1na2vs0mg"},{"bike_id":"70fb4549-3b6d-4d72-b915-ed8e6cd24dd8","system_id":"levelo_inurba_marseille","lat":43.324855,"lon":5.365615,"is_reserved":false,"is_disabled":false,"rental_uris":{"android":"levelo://app?vid=70fb4549-3b6d-4d72-b915-ed8e6cd24dd8","ios":"levelo://app?vid=70fb4549-3b6d-4d72-b915-ed8e6cd24dd8"},"vehicle_type_id":"4","last_reported":1714424815,"current_range_meters":17200,"station_id":"ce4bhs12rcd13ifvqhvg","pricing_plan_id":"cebpf4jnsgd1na2vs0mg"},{"bike_id":"b144120d-38dd-4e64-847f-ed76d7dcc561","system_id":"levelo_inurba_marseille","lat":43.324771,"lon":5.36557,"is_reserved":false,"is_disabled":false,"rental_uris":{"android":"levelo://app?vid=b144120d-38dd-4e64-847f-ed76d7dcc561","ios":"levelo://app?vid=b144120d-38dd-4e64-847f-ed76d7dcc561"},"vehicle_type_id":"4","last_reported":1714424815,"current_range_meters":8000,"station_id":"ce4bhs12rcd13ifvqhvg","pricing_plan_id":"cebpf4jnsgd1na2vs0mg"},{"bike_id":"cf0f8186-3423-4c8b-bbb6-5d421d0e57bf","system_id":"levelo_inurba_marseille","lat":43.324771,"lon":5.36557,"is_reserved":false,"is_disabled":false,"rental_uris":{"android":"levelo://app?vid=cf0f8186-3423-4c8b-bbb6-5d421d0e57bf","ios":"levelo://app?vid=cf0f8186-3423-4c8b-bbb6-5d421d0e57bf"},"vehicle_type_id":"4","last_reported":1714424815,"current_range_meters":9200,"station_id":"ce4bhs12rcd13ifvqhvg","pricing_plan_id":"cebpf4jnsgd1na2vs0mg"},{"bike_id":"43b64350-638b-4fde-955e-6a2365e245df","system_id":"levelo_inurba_marseille","lat":43.324771,"lon":5.36557,"is_reserved":false,"is_disabled":false,"rental_uris":{"android":"levelo://app?vid=43b64350-638b-4fde-955e-6a2365e245df","ios":"levelo://app?vid=43b64350-638b-4fde-955e-6a2365e245df"},"vehicle_type_id":"4","last_reported":1714424815,"current_range_meters":12800,"station_id":"ce4bhs12rcd13ifvqhvg","pricing_plan_id":"cebpf4jnsgd1na2vs0mg"},{"bike_id":"990e7b59-0333-4854-a267-1d421a56d48a","system_id":"levelo_inurba_marseille","lat":43.32489,"lon":5.36559,"is_reserved":false,"is_disabled":false,"rental_uris":{"android":"levelo://app?vid=990e7b59-0333-4854-a267-1d421a56d48a","ios":"levelo://app?vid=990e7b59-0333-4854-a267-1d421a56d48a"},"vehicle_type_id":"4","last_reported":1714424815,"current_range_meters":13600,"station_id":"ce4bhs12rcd13ifvqhvg","pricing_plan_id":"cebpf4jnsgd1na2vs0mg"},{"bike_id":"3c56a522-3f22-41a4-9398-70a099542c97","system_id":"levelo_inurba_marseille","lat":43.310804,"lon":5.38359,"is_reserved":false,"is_disabled":false,"rental_uris":{"android":"levelo://app?vid=3c56a522-3f22-41a4-9398-70a099542c97","ios":"levelo://app?vid=3c56a522-3f22-41a4-9398-70a099542c97"},"vehicle_type_id":"4","last_reported":1714424815,"current_range_meters":21200,"station_id":"ce4bgv92rcd13ifvqcr0","pricing_plan_id":"cebpf4jnsgd1na2vs0mg"},{"bike_id":"60ed96fa-2aec-44dd-b62c-04bc6124f2f1","system_id":"levelo_inurba_marseille","lat":43.31079,"lon":5.38354,"is_reserved":false,"is_disabled":false,"rental_uris":{"android":"levelo://app?vid=60ed96fa-2aec-44dd-b62c-04bc6124f2f1","ios":"levelo://app?vid=60ed96fa-2aec-44dd-b62c-04bc6124f2f1"},"vehicle_type_id":"4","last_reported":1714424815,"current_range_meters":3200,"station_id":"ce4bgv92rcd13ifvqcr0","pricing_plan_id":"cebpf4jnsgd1na2vs0mg"},{"bike_id":"8eca0b90-4d5b-495b-b8f3-71cacb448263","system_id":"levelo_inurba_marseille","lat":43.304606,"lon":5.379026,"is_reserved":false,"is_disabled":false,"rental_uris":{"android":"levelo://app?vid=8eca0b90-4d5b-495b-b8f3-71cacb448263","ios":"levelo://app?vid=8eca0b90-4d5b-495b-b8f3-71cacb448263"},"vehicle_type_id":"4","last_reported":1714424815,"current_range_meters":14800,"station_id":"ce4bgup2rcd13ifvqcn0","pricing_plan_id":"cebpf4jnsgd1na2vs0mg"},{"bike_id":"1c623b89-3b51-40bc-b579-667b95e40365","system_id":"levelo_inurba_marseille","lat":43.302784,"lon":5.377158,"is_reserved":false,"is_disabled":false,"rental_uris":{"android":"levelo://app?vid=1c623b89-3b51-40bc-b579-667b95e40365","ios":"levelo://app?vid=1c623b89-3b51-40bc-b579-667b95e40365"},"vehicle_type_id":"4","last_reported":1714424815,"current_range_meters":8400,"station_id":"ce4bguh2rcd13ifvqcj0","pricing_plan_id":"cebpf4jnsgd1na2vs0mg"},{"bike_id":"9700ef71-6146-4ca2-a7cf-27662ffc50d0","system_id":"levelo_inurba_marseille","lat":43.313571,"lon":5.384829,"is_reserved":false,"is_disabled":false,"rental_uris":{"android":"levelo://app?vid=9700ef71-6146-4ca2-a7cf-27662ffc50d0","ios":"levelo://app?vid=9700ef71-6146-4ca2-a7cf-27662ffc50d0"},"vehicle_type_id":"4","last_reported":1714424815,"current_range_meters":9600,"station_id":"ce4bgt92rcd13ifvqcf0","pricing_plan_id":"cebpf4jnsgd1na2vs0mg"},{"bike_id":"d2164a44-fed0-4333-9b77-e72e9fb75cba","system_id":"levelo_inurba_marseille","lat":43.302784,"lon":5.377158,"is_reserved":false,"is_disabled":false,"rental_uris":{"android":"levelo://app?vid=d2164a44-fed0-4333-9b77-e72e9fb75cba","ios":"levelo://app?vid=d2164a44-fed0-4333-9b77-e72e9fb75cba"},"vehicle_type_id":"4","last_reported":1714424815,"current_range_meters":0,"station_id":"ce4bguh2rcd13ifvqcj0","pricing_plan_id":"cebpf4jnsgd1na2vs0mg"},{"bike_id":"246112fa-fdc1-4741-a0e1-d3ab3d623a5d","system_id":"levelo_inurba_marseille","lat":43.30248,"lon":5.37701,"is_reserved":false,"is_disabled":false,"rental_uris":{"android":"levelo://app?vid=246112fa-fdc1-4741-a0e1-d3ab3d623a5d","ios":"levelo://app?vid=246112fa-fdc1-4741-a0e1-d3ab3d623a5d"},"vehicle_type_id":"4","last_reported":1714424815,"current_range_meters":0,"station_id":"ce4bguh2rcd13ifvqcj0","pricing_plan_id":"cebpf4jnsgd1na2vs0mg"},{"bike_id":"3a0dd3af-d859-4d73-9903-f7eeb8ebaee4","system_id":"levelo_inurba_marseille","lat":43.319935,"lon":5.381699,"is_reserved":false,"is_disabled":false,"rental_uris":{"android":"levelo://app?vid=3a0dd3af-d859-4d73-9903-f7eeb8ebaee4","ios":"levelo://app?vid=3a0dd3af-d859-4d73-9903-f7eeb8ebaee4"},"vehicle_type_id":"4","last_reported":1714424815,"current_range_meters":30000,"station_id":"ce4bhr12rcd13ifvqhpg","pricing_plan_id":"cebpf4jnsgd1na2vs0mg"},{"bike_id":"57564487-dc35-4e27-8f50-deca87251429","system_id":"levelo_inurba_marseille","lat":43.319935,"lon":5.381699,"is_reserved":false,"is_disabled":false,"rental_uris":{"android":"levelo://app?vid=57564487-dc35-4e27-8f50-deca87251429","ios":"levelo://app?vid=57564487-dc35-4e27-8f50-deca87251429"},"vehicle_type_id":"4","last_reported":1714424815,"current_range_meters":13600,"station_id":"ce4bhr12rcd13ifvqhpg","pricing_plan_id":"cebpf4jnsgd1na2vs0mg"},{"bike_id":"7896ab24-a320-4c14-82c9-b3055bad100e","system_id":"levelo_inurba_marseille","lat":43.319935,"lon":5.381699,"is_reserved":false,"is_disabled":false,"rental_uris":{"android":"levelo://app?vid=7896ab24-a320-4c14-82c9-b3055bad100e","ios":"levelo://app?vid=7896ab24-a320-4c14-82c9-b3055bad100e"},"vehicle_type_id":"4","last_reported":1714424815,"current_range_meters":13600,"station_id":"ce4bhr12rcd13ifvqhpg","pricing_plan_id":"cebpf4jnsgd1na2vs0mg"},{"bike_id":"d4a93352-25cf-45d9-be28-f962b9e65449","system_id":"levelo_inurba_marseille","lat":43.319935,"lon":5.381699,"is_reserved":false,"is_disabled":false,"rental_uris":{"android":"levelo://app?vid=d4a93352-25cf-45d9-be28-f962b9e65449","ios":"levelo://app?vid=d4a93352-25cf-45d9-be28-f962b9e65449"},"vehicle_type_id":"4","last_reported":1714424815,"current_range_meters":17200,"station_id":"ce4bhr12rcd13ifvqhpg","pricing_plan_id":"cebpf4jnsgd1na2vs0mg"},{"bike_id":"dab49291-fdd2-450b-b8b5-28a78917ccb9","system_id":"levelo_inurba_marseille","lat":43.313571,"lon":5.384829,"is_reserved":false,"is_disabled":false,"rental_uris":{"android":"levelo://app?vid=dab49291-fdd2-450b-b8b5-28a78917ccb9","ios":"levelo://app?vid=dab49291-fdd2-450b-b8b5-28a78917ccb9"},"vehicle_type_id":"4","last_reported":1714424815,"current_range_meters":2800,"station_id":"ce4bgt92rcd13ifvqcf0","pricing_plan_id":"cebpf4jnsgd1na2vs0mg"},{"bike_id":"20b01a49-9e87-4700-acf5-9512e72fe6f9","system_id":"levelo_inurba_marseille","lat":43.313571,"lon":5.384829,"is_reserved":false,"is_disabled":false,"rental_uris":{"android":"levelo://app?vid=20b01a49-9e87-4700-acf5-9512e72fe6f9","ios":"levelo://app?vid=20b01a49-9e87-4700-acf5-9512e72fe6f9"},"vehicle_type_id":"4","last_reported":1714424815,"current_range_meters":7200,"station_id":"ce4bgt92rcd13ifvqcf0","pricing_plan_id":"cebpf4jnsgd1na2vs0mg"},{"bike_id":"afe3ffca-d1d1-43c5-86b2-34093dff5fb4","system_id":"levelo_inurba_marseille","lat":43.313571,"lon":5.384829,"is_reserved":false,"is_disabled":false,"rental_uris":{"android":"levelo://app?vid=afe3ffca-d1d1-43c5-86b2-34093dff5fb4","ios":"levelo://app?vid=afe3ffca-d1d1-43c5-86b2-34093dff5fb4"},"vehicle_type_id":"4","last_reported":1714424815,"current_range_meters":6000,"station_id":"ce4bgt92rcd13ifvqcf0","pricing_plan_id":"cebpf4jnsgd1na2vs0mg"},{"bike_id":"962a4b7f-7040-4679-ad3c-62d0395f99e0","system_id":"levelo_inurba_marseille","lat":43.313571,"lon":5.384829,"is_reserved":false,"is_disabled":false,"rental_uris":{"android":"levelo://app?vid=962a4b7f-7040-4679-ad3c-62d0395f99e0","ios":"levelo://app?vid=962a4b7f-7040-4679-ad3c-62d0395f99e0"},"vehicle_type_id":"4","last_reported":1714424815,"current_range_meters":26800,"station_id":"ce4bgt92rcd13ifvqcf0","pricing_plan_id":"cebpf4jnsgd1na2vs0mg"},{"bike_id":"225e7c15-398f-4c19-97ce-792e0b9ea0f3","system_id":"levelo_inurba_marseille","lat":43.313571,"lon":5.384829,"is_reserved":false,"is_disabled":false,"rental_uris":{"android":"levelo://app?vid=225e7c15-398f-4c19-97ce-792e0b9ea0f3","ios":"levelo://app?vid=225e7c15-398f-4c19-97ce-792e0b9ea0f3"},"vehicle_type_id":"4","last_reported":1714424815,"current_range_meters":31600,"station_id":"ce4bgt92rcd13ifvqcf0","pricing_plan_id":"cebpf4jnsgd1na2vs0mg"},{"bike_id":"0726bd2d-0d2d-42f4-968f-f9cff53d9053","system_id":"levelo_inurba_marseille","lat":43.313571,"lon":5.384829,"is_reserved":false,"is_disabled":false,"rental_uris":{"android":"levelo://app?vid=0726bd2d-0d2d-42f4-968f-f9cff53d9053","ios":"levelo://app?vid=0726bd2d-0d2d-42f4-968f-f9cff53d9053"},"vehicle_type_id":"4","last_reported":1714424815,"current_range_meters":4800,"station_id":"ce4bgt92rcd13ifvqcf0","pricing_plan_id":"cebpf4jnsgd1na2vs0mg"},{"bike_id":"82a9d743-4d85-4b5c-9f9e-d6506f3058f7","system_id":"levelo_inurba_marseille","lat":43.29981,"lon":5.3718,"is_reserved":false,"is_disabled":false,"rental_uris":{"android":"levelo://app?vid=82a9d743-4d85-4b5c-9f9e-d6506f3058f7","ios":"levelo://app?vid=82a9d743-4d85-4b5c-9f9e-d6506f3058f7"},"vehicle_type_id":"4","last_reported":1714424815,"current_range_meters":0,"station_id":"ce4bgr92rcd13ifvqc7g","pricing_plan_id":"cebpf4jnsgd1na2vs0mg"},{"bike_id":"4cc97d39-f47c-4672-9942-eebe67ac1f04","system_id":"levelo_inurba_marseille","lat":43.299654,"lon":5.371844,"is_reserved":false,"is_disabled":false,"rental_uris":{"android":"levelo://app?vid=4cc97d39-f47c-4672-9942-eebe67ac1f04","ios":"levelo://app?vid=4cc97d39-f47c-4672-9942-eebe67ac1f04"},"vehicle_type_id":"4","last_reported":1714424815,"current_range_meters":0,"station_id":"ce4bgr92rcd13ifvqc7g","pricing_plan_id":"cebpf4jnsgd1na2vs0mg"},{"bike_id":"efa5404d-c775-4ee3-bcb0-826368ae11c9","system_id":"levelo_inurba_marseille","lat":43.305364,"lon":5.384119,"is_reserved":false,"is_disabled":false,"rental_uris":{"android":"levelo://app?vid=efa5404d-c775-4ee3-bcb0-826368ae11c9","ios":"levelo://app?vid=efa5404d-c775-4ee3-bcb0-826368ae11c9"},"vehicle_type_id":"4","last_reported":1714424815,"current_range_meters":25200,"station_id":"ce4bgg92rcd13ifvqb30","pricing_plan_id":"cebpf4jnsgd1na2vs0mg"},{"bike_id":"d38e480f-9afd-4957-b1e0-afe52e676b51","system_id":"levelo_inurba_marseille","lat":43.300136,"lon":5.377004,"is_reserved":false,"is_disabled":false,"rental_uris":{"android":"levelo://app?vid=d38e480f-9afd-4957-b1e0-afe52e676b51","ios":"levelo://app?vid=d38e480f-9afd-4957-b1e0-afe52e676b51"},"vehicle_type_id":"4","last_reported":1714424815,"current_range_meters":6800,"station_id":"","pricing_plan_id":"cebpf4jnsgd1na2vs0mg"},{"bike_id":"2eeac0cc-eca0-4b71-894e-8b6bdc7cbd22","system_id":"levelo_inurba_marseille","lat":43.311722,"lon":5.387247,"is_reserved":false,"is_disabled":false,"rental_uris":{"android":"levelo://app?vid=2eeac0cc-eca0-4b71-894e-8b6bdc7cbd22","ios":"levelo://app?vid=2eeac0cc-eca0-4b71-894e-8b6bdc7cbd22"},"vehicle_type_id":"4","last_reported":1714424815,"current_range_meters":31600,"station_id":"ce4bgv12rcd13ifvqcp0","pricing_plan_id":"cebpf4jnsgd1na2vs0mg"},{"bike_id":"8c1291f0-88c8-45af-8394-19fac2fffacf","system_id":"levelo_inurba_marseille","lat":43.311722,"lon":5.387247,"is_reserved":false,"is_disabled":false,"rental_uris":{"android":"levelo://app?vid=8c1291f0-88c8-45af-8394-19fac2fffacf","ios":"levelo://app?vid=8c1291f0-88c8-45af-8394-19fac2fffacf"},"vehicle_type_id":"4","last_reported":1714424815,"current_range_meters":25200,"station_id":"ce4bgv12rcd13ifvqcp0","pricing_plan_id":"cebpf4jnsgd1na2vs0mg"},{"bike_id":"7a770c05-0fd6-4f2d-aee6-f9a028dada4a","system_id":"levelo_inurba_marseille","lat":43.311722,"lon":5.387247,"is_reserved":false,"is_disabled":false,"rental_uris":{"android":"levelo://app?vid=7a770c05-0fd6-4f2d-aee6-f9a028dada4a","ios":"levelo://app?vid=7a770c05-0fd6-4f2d-aee6-f9a028dada4a"},"vehicle_type_id":"4","last_reported":1714424815,"current_range_meters":31600,"station_id":"ce4bgv12rcd13ifvqcp0","pricing_plan_id":"cebpf4jnsgd1na2vs0mg"},{"bike_id":"62e3672a-5145-4461-b9f7-3cc81b1d10f3","system_id":"levelo_inurba_marseille","lat":43.311765,"lon":5.387149,"is_reserved":false,"is_disabled":false,"rental_uris":{"android":"levelo://app?vid=62e3672a-5145-4461-b9f7-3cc81b1d10f3","ios":"levelo://app?vid=62e3672a-5145-4461-b9f7-3cc81b1d10f3"},"vehicle_type_id":"4","last_reported":1714424815,"current_range_meters":0,"station_id":"ce4bgv12rcd13ifvqcp0","pricing_plan_id":"cebpf4jnsgd1na2vs0mg"},{"bike_id":"038b5b50-8f5e-4db0-8103-f34ca384bc52","system_id":"levelo_inurba_marseille","lat":43.311722,"lon":5.387247,"is_reserved":false,"is_disabled":false,"rental_uris":{"android":"levelo://app?vid=038b5b50-8f5e-4db0-8103-f34ca384bc52","ios":"levelo://app?vid=038b5b50-8f5e-4db0-8103-f34ca384bc52"},"vehicle_type_id":"4","last_reported":1714424815,"current_range_meters":2400,"station_id":"ce4bgv12rcd13ifvqcp0","pricing_plan_id":"cebpf4jnsgd1na2vs0mg"},{"bike_id":"20e59999-fa3e-410f-b099-14c631a674ab","system_id":"levelo_inurba_marseille","lat":43.311722,"lon":5.387247,"is_reserved":false,"is_disabled":false,"rental_uris":{"android":"levelo://app?vid=20e59999-fa3e-410f-b099-14c631a674ab","ios":"levelo://app?vid=20e59999-fa3e-410f-b099-14c631a674ab"},"vehicle_type_id":"4","last_reported":1714424815,"current_range_meters":21600,"station_id":"ce4bgv12rcd13ifvqcp0","pricing_plan_id":"cebpf4jnsgd1na2vs0mg"},{"bike_id":"691e3cde-681b-49be-81f6-477b24d3e0a0","system_id":"levelo_inurba_marseille","lat":43.299243,"lon":5.37481,"is_reserved":false,"is_disabled":false,"rental_uris":{"android":"levelo://app?vid=691e3cde-681b-49be-81f6-477b24d3e0a0","ios":"levelo://app?vid=691e3cde-681b-49be-81f6-477b24d3e0a0"},"vehicle_type_id":"4","last_reported":1714424815,"current_range_meters":10400,"station_id":"ce4bgjh2rcd13ifvqbg0","pricing_plan_id":"cebpf4jnsgd1na2vs0mg"},{"bike_id":"857a7113-e781-4819-9bd0-b27805f2bd58","system_id":"levelo_inurba_marseille","lat":43.311722,"lon":5.387247,"is_reserved":false,"is_disabled":false,"rental_uris":{"android":"levelo://app?vid=857a7113-e781-4819-9bd0-b27805f2bd58","ios":"levelo://app?vid=857a7113-e781-4819-9bd0-b27805f2bd58"},"vehicle_type_id":"4","last_reported":1714424815,"current_range_meters":31600,"station_id":"ce4bgv12rcd13ifvqcp0","pricing_plan_id":"cebpf4jnsgd1na2vs0mg"},{"bike_id":"ea8c3766-208b-4134-9d04-9ec6437d2de8","system_id":"levelo_inurba_marseille","lat":43.311722,"lon":5.387247,"is_reserved":false,"is_disabled":false,"rental_uris":{"android":"levelo://app?vid=ea8c3766-208b-4134-9d04-9ec6437d2de8","ios":"levelo://app?vid=ea8c3766-208b-4134-9d04-9ec6437d2de8"},"vehicle_type_id":"4","last_reported":1714424815,"current_range_meters":11200,"station_id":"ce4bgv12rcd13ifvqcp0","pricing_plan_id":"cebpf4jnsgd1na2vs0mg"},{"bike_id":"e7a71085-4475-4f7c-b3af-2139a6fca8ab","system_id":"levelo_inurba_marseille","lat":43.311722,"lon":5.387247,"is_reserved":false,"is_disabled":false,"rental_uris":{"android":"levelo://app?vid=e7a71085-4475-4f7c-b3af-2139a6fca8ab","ios":"levelo://app?vid=e7a71085-4475-4f7c-b3af-2139a6fca8ab"},"vehicle_type_id":"4","last_reported":1714424815,"current_range_meters":12800,"station_id":"ce4bgv12rcd13ifvqcp0","pricing_plan_id":"cebpf4jnsgd1na2vs0mg"},{"bike_id":"1c8c8ef4-7ad7-40b5-ad96-0f5d102b6629","system_id":"levelo_inurba_marseille","lat":43.311722,"lon":5.387247,"is_reserved":false,"is_disabled":false,"rental_uris":{"android":"levelo://app?vid=1c8c8ef4-7ad7-40b5-ad96-0f5d102b6629","ios":"levelo://app?vid=1c8c8ef4-7ad7-40b5-ad96-0f5d102b6629"},"vehicle_type_id":"4","last_reported":1714424815,"current_range_meters":14800,"station_id":"ce4bgv12rcd13ifvqcp0","pricing_plan_id":"cebpf4jnsgd1na2vs0mg"},{"bike_id":"f173f91c-2457-4f33-bc09-a8f7fe5cb07b","system_id":"levelo_inurba_marseille","lat":43.311722,"lon":5.387247,"is_reserved":false,"is_disabled":false,"rental_uris":{"android":"levelo://app?vid=f173f91c-2457-4f33-bc09-a8f7fe5cb07b","ios":"levelo://app?vid=f173f91c-2457-4f33-bc09-a8f7fe5cb07b"},"vehicle_type_id":"4","last_reported":1714424815,"current_range_meters":24800,"station_id":"ce4bgv12rcd13ifvqcp0","pricing_plan_id":"cebpf4jnsgd1na2vs0mg"},{"bike_id":"87d95746-78cb-4d70-956a-eeed9aaf9233","system_id":"levelo_inurba_marseille","lat":43.311722,"lon":5.387247,"is_reserved":false,"is_disabled":false,"rental_uris":{"android":"levelo://app?vid=87d95746-78cb-4d70-956a-eeed9aaf9233","ios":"levelo://app?vid=87d95746-78cb-4d70-956a-eeed9aaf9233"},"vehicle_type_id":"4","last_reported":1714424815,"current_range_meters":31200,"station_id":"ce4bgv12rcd13ifvqcp0","pricing_plan_id":"cebpf4jnsgd1na2vs0mg"},{"bike_id":"3d537e22-97db-475b-8768-724a2a9b6add","system_id":"levelo_inurba_marseille","lat":43.299243,"lon":5.37481,"is_reserved":false,"is_disabled":false,"rental_uris":{"android":"levelo://app?vid=3d537e22-97db-475b-8768-724a2a9b6add","ios":"levelo://app?vid=3d537e22-97db-475b-8768-724a2a9b6add"},"vehicle_type_id":"4","last_reported":1714424815,"current_range_meters":4000,"station_id":"ce4bgjh2rcd13ifvqbg0","pricing_plan_id":"cebpf4jnsgd1na2vs0mg"},{"bike_id":"f02e7649-dc40-48fa-8c4d-12d98c304645","system_id":"levelo_inurba_marseille","lat":43.32286,"lon":5.38261,"is_reserved":false,"is_disabled":false,"rental_uris":{"android":"levelo://app?vid=f02e7649-dc40-48fa-8c4d-12d98c304645","ios":"levelo://app?vid=f02e7649-dc40-48fa-8c4d-12d98c304645"},"vehicle_type_id":"4","last_reported":1714424815,"current_range_meters":27200,"station_id":"ce4bhr12rcd13ifvqhqg","pricing_plan_id":"cebpf4jnsgd1na2vs0mg"},{"bike_id":"7d0dc6e4-237d-4e2c-9f6d-5a67d8478718","system_id":"levelo_inurba_marseille","lat":43.322902,"lon":5.382663,"is_reserved":false,"is_disabled":false,"rental_uris":{"android":"levelo://app?vid=7d0dc6e4-237d-4e2c-9f6d-5a67d8478718","ios":"levelo://app?vid=7d0dc6e4-237d-4e2c-9f6d-5a67d8478718"},"vehicle_type_id":"4","last_reported":1714424815,"current_range_meters":22800,"station_id":"ce4bhr12rcd13ifvqhqg","pricing_plan_id":"cebpf4jnsgd1na2vs0mg"},{"bike_id":"ec7a60fe-cd7d-482a-b330-4fb420b3a6e8","system_id":"levelo_inurba_marseille","lat":43.322872,"lon":5.382756,"is_reserved":false,"is_disabled":false,"rental_uris":{"android":"levelo://app?vid=ec7a60fe-cd7d-482a-b330-4fb420b3a6e8","ios":"levelo://app?vid=ec7a60fe-cd7d-482a-b330-4fb420b3a6e8"},"vehicle_type_id":"4","last_reported":1714424815,"current_range_meters":6400,"station_id":"ce4bhr12rcd13ifvqhqg","pricing_plan_id":"cebpf4jnsgd1na2vs0mg"},{"bike_id":"1eb014b0-d233-4917-a9dc-6a24e8b31219","system_id":"levelo_inurba_marseille","lat":43.322872,"lon":5.382756,"is_reserved":false,"is_disabled":false,"rental_uris":{"android":"levelo://app?vid=1eb014b0-d233-4917-a9dc-6a24e8b31219","ios":"levelo://app?vid=1eb014b0-d233-4917-a9dc-6a24e8b31219"},"vehicle_type_id":"4","last_reported":1714424815,"current_range_meters":31200,"station_id":"ce4bhr12rcd13ifvqhqg","pricing_plan_id":"cebpf4jnsgd1na2vs0mg"},{"bike_id":"90f46afa-97a4-48f2-84a2-899bcf460e9a","system_id":"levelo_inurba_marseille","lat":43.322872,"lon":5.382756,"is_reserved":false,"is_disabled":false,"rental_uris":{"android":"levelo://app?vid=90f46afa-97a4-48f2-84a2-899bcf460e9a","ios":"levelo://app?vid=90f46afa-97a4-48f2-84a2-899bcf460e9a"},"vehicle_type_id":"4","last_reported":1714424815,"current_range_meters":24800,"station_id":"ce4bhr12rcd13ifvqhqg","pricing_plan_id":"cebpf4jnsgd1na2vs0mg"},{"bike_id":"b46b8a58-bd5d-4598-90cd-10c626b528ca","system_id":"levelo_inurba_marseille","lat":43.322872,"lon":5.382756,"is_reserved":false,"is_disabled":false,"rental_uris":{"android":"levelo://app?vid=b46b8a58-bd5d-4598-90cd-10c626b528ca","ios":"levelo://app?vid=b46b8a58-bd5d-4598-90cd-10c626b528ca"},"vehicle_type_id":"4","last_reported":1714424815,"current_range_meters":31200,"station_id":"ce4bhr12rcd13ifvqhqg","pricing_plan_id":"cebpf4jnsgd1na2vs0mg"},{"bike_id":"e7620d48-0589-458f-9112-8f2d8a96c05b","system_id":"levelo_inurba_marseille","lat":43.322872,"lon":5.382756,"is_reserved":false,"is_disabled":false,"rental_uris":{"android":"levelo://app?vid=e7620d48-0589-458f-9112-8f2d8a96c05b","ios":"levelo://app?vid=e7620d48-0589-458f-9112-8f2d8a96c05b"},"vehicle_type_id":"4","last_reported":1714424815,"current_range_meters":6800,"station_id":"ce4bhr12rcd13ifvqhqg","pricing_plan_id":"cebpf4jnsgd1na2vs0mg"},{"bike_id":"bdcd7183-4bbc-49aa-b2ae-0160c26cdf3b","system_id":"levelo_inurba_marseille","lat":43.297794,"lon":5.370888,"is_reserved":false,"is_disabled":false,"rental_uris":{"android":"levelo://app?vid=bdcd7183-4bbc-49aa-b2ae-0160c26cdf3b","ios":"levelo://app?vid=bdcd7183-4bbc-49aa-b2ae-0160c26cdf3b"},"vehicle_type_id":"4","last_reported":1714424815,"current_range_meters":2000,"station_id":"ce4bgop2rcd13ifvqc1g","pricing_plan_id":"cebpf4jnsgd1na2vs0mg"},{"bike_id":"f196a5d0-3dad-4142-a672-1eba49045d7c","system_id":"levelo_inurba_marseille","lat":43.297774,"lon":5.370875,"is_reserved":false,"is_disabled":false,"rental_uris":{"android":"levelo://app?vid=f196a5d0-3dad-4142-a672-1eba49045d7c","ios":"levelo://app?vid=f196a5d0-3dad-4142-a672-1eba49045d7c"},"vehicle_type_id":"4","last_reported":1714424815,"current_range_meters":10800,"station_id":"ce4bgop2rcd13ifvqc1g","pricing_plan_id":"cebpf4jnsgd1na2vs0mg"},{"bike_id":"20a74c7a-b479-474c-a985-443ff7e353c9","system_id":"levelo_inurba_marseille","lat":43.322872,"lon":5.382756,"is_reserved":false,"is_disabled":false,"rental_uris":{"android":"levelo://app?vid=20a74c7a-b479-474c-a985-443ff7e353c9","ios":"levelo://app?vid=20a74c7a-b479-474c-a985-443ff7e353c9"},"vehicle_type_id":"4","last_reported":1714424815,"current_range_meters":0,"station_id":"ce4bhr12rcd13ifvqhqg","pricing_plan_id":"cebpf4jnsgd1na2vs0mg"},{"bike_id":"de24dbda-0ec3-4bbf-920d-74df0918fc9d","system_id":"levelo_inurba_marseille","lat":43.297794,"lon":5.370888,"is_reserved":false,"is_disabled":false,"rental_uris":{"android":"levelo://app?vid=de24dbda-0ec3-4bbf-920d-74df0918fc9d","ios":"levelo://app?vid=de24dbda-0ec3-4bbf-920d-74df0918fc9d"},"vehicle_type_id":"4","last_reported":1714424815,"current_range_meters":400,"station_id":"ce4bgop2rcd13ifvqc1g","pricing_plan_id":"cebpf4jnsgd1na2vs0mg"},{"bike_id":"f8e5790e-31c4-4dbf-92fb-91ba31baa3e7","system_id":"levelo_inurba_marseille","lat":43.297163,"lon":5.365866,"is_reserved":false,"is_disabled":false,"rental_uris":{"android":"levelo://app?vid=f8e5790e-31c4-4dbf-92fb-91ba31baa3e7","ios":"levelo://app?vid=f8e5790e-31c4-4dbf-92fb-91ba31baa3e7"},"vehicle_type_id":"4","last_reported":1714424815,"current_range_meters":17600,"station_id":"ce4bgn12rcd13ifvqbt0","pricing_plan_id":"cebpf4jnsgd1na2vs0mg"},{"bike_id":"20898065-05ba-48f8-ad74-5759394ab002","system_id":"levelo_inurba_marseille","lat":43.297163,"lon":5.365866,"is_reserved":false,"is_disabled":false,"rental_uris":{"android":"levelo://app?vid=20898065-05ba-48f8-ad74-5759394ab002","ios":"levelo://app?vid=20898065-05ba-48f8-ad74-5759394ab002"},"vehicle_type_id":"4","last_reported":1714424815,"current_range_meters":22000,"station_id":"ce4bgn12rcd13ifvqbt0","pricing_plan_id":"cebpf4jnsgd1na2vs0mg"},{"bike_id":"d0e6fed1-3ab3-4451-a335-991074458285","system_id":"levelo_inurba_marseille","lat":43.29618,"lon":5.37147,"is_reserved":false,"is_disabled":false,"rental_uris":{"android":"levelo://app?vid=d0e6fed1-3ab3-4451-a335-991074458285","ios":"levelo://app?vid=d0e6fed1-3ab3-4451-a335-991074458285"},"vehicle_type_id":"4","last_reported":1714424815,"current_range_meters":19600,"station_id":"ce4bgnh2rcd13ifvqc0g","pricing_plan_id":"cebpf4jnsgd1na2vs0mg"},{"bike_id":"3d8ff6be-78e2-4b99-83c4-2b0a0d0af2e1","system_id":"levelo_inurba_marseille","lat":43.29573,"lon":5.367355,"is_reserved":false,"is_disabled":false,"rental_uris":{"android":"levelo://app?vid=3d8ff6be-78e2-4b99-83c4-2b0a0d0af2e1","ios":"levelo://app?vid=3d8ff6be-78e2-4b99-83c4-2b0a0d0af2e1"},"vehicle_type_id":"4","last_reported":1714424815,"current_range_meters":0,"station_id":"ce4bgph2rcd13ifvqc2g","pricing_plan_id":"cebpf4jnsgd1na2vs0mg"},{"bike_id":"2a2adaef-aae6-4a4d-a1a9-cd6619628e84","system_id":"levelo_inurba_marseille","lat":43.29573,"lon":5.367355,"is_reserved":false,"is_disabled":false,"rental_uris":{"android":"levelo://app?vid=2a2adaef-aae6-4a4d-a1a9-cd6619628e84","ios":"levelo://app?vid=2a2adaef-aae6-4a4d-a1a9-cd6619628e84"},"vehicle_type_id":"4","last_reported":1714424815,"current_range_meters":7200,"station_id":"ce4bgph2rcd13ifvqc2g","pricing_plan_id":"cebpf4jnsgd1na2vs0mg"},{"bike_id":"cdb08ab2-06f2-479c-af19-49d93c9afbae","system_id":"levelo_inurba_marseille","lat":43.30952,"lon":5.39026,"is_reserved":false,"is_disabled":false,"rental_uris":{"android":"levelo://app?vid=cdb08ab2-06f2-479c-af19-49d93c9afbae","ios":"levelo://app?vid=cdb08ab2-06f2-479c-af19-49d93c9afbae"},"vehicle_type_id":"4","last_reported":1714424815,"current_range_meters":0,"station_id":"ce4bgup2rcd13ifvqco0","pricing_plan_id":"cebpf4jnsgd1na2vs0mg"},{"bike_id":"cf472e77-4f9e-4957-85a6-8ce13666956f","system_id":"levelo_inurba_marseille","lat":43.30963,"lon":5.3903,"is_reserved":false,"is_disabled":false,"rental_uris":{"android":"levelo://app?vid=cf472e77-4f9e-4957-85a6-8ce13666956f","ios":"levelo://app?vid=cf472e77-4f9e-4957-85a6-8ce13666956f"},"vehicle_type_id":"4","last_reported":1714424815,"current_range_meters":0,"station_id":"ce4bgup2rcd13ifvqco0","pricing_plan_id":"cebpf4jnsgd1na2vs0mg"},{"bike_id":"b41a00f3-ddb3-4574-b7a2-9dc823dfd3fa","system_id":"levelo_inurba_marseille","lat":43.309589,"lon":5.390258,"is_reserved":false,"is_disabled":false,"rental_uris":{"android":"levelo://app?vid=b41a00f3-ddb3-4574-b7a2-9dc823dfd3fa","ios":"levelo://app?vid=b41a00f3-ddb3-4574-b7a2-9dc823dfd3fa"},"vehicle_type_id":"4","last_reported":1714424815,"current_range_meters":26800,"station_id":"ce4bgup2rcd13ifvqco0","pricing_plan_id":"cebpf4jnsgd1na2vs0mg"},{"bike_id":"ac627d4d-59f3-4d07-bc88-7966db063435","system_id":"levelo_inurba_marseille","lat":43.309589,"lon":5.390258,"is_reserved":false,"is_disabled":false,"rental_uris":{"android":"levelo://app?vid=ac627d4d-59f3-4d07-bc88-7966db063435","ios":"levelo://app?vid=ac627d4d-59f3-4d07-bc88-7966db063435"},"vehicle_type_id":"4","last_reported":1714424815,"current_range_meters":13200,"station_id":"ce4bgup2rcd13ifvqco0","pricing_plan_id":"cebpf4jnsgd1na2vs0mg"},{"bike_id":"ffa7f5ee-a945-44b8-88f8-218ec7958e26","system_id":"levelo_inurba_marseille","lat":43.309589,"lon":5.390258,"is_reserved":false,"is_disabled":false,"rental_uris":{"android":"levelo://app?vid=ffa7f5ee-a945-44b8-88f8-218ec7958e26","ios":"levelo://app?vid=ffa7f5ee-a945-44b8-88f8-218ec7958e26"},"vehicle_type_id":"4","last_reported":1714424815,"current_range_meters":12000,"station_id":"ce4bgup2rcd13ifvqco0","pricing_plan_id":"cebpf4jnsgd1na2vs0mg"},{"bike_id":"a0b1486b-390b-4066-94af-d08b427cb027","system_id":"levelo_inurba_marseille","lat":43.31752,"lon":5.39015,"is_reserved":false,"is_disabled":false,"rental_uris":{"android":"levelo://app?vid=a0b1486b-390b-4066-94af-d08b427cb027","ios":"levelo://app?vid=a0b1486b-390b-4066-94af-d08b427cb027"},"vehicle_type_id":"4","last_reported":1714424815,"current_range_meters":26000,"station_id":"ce4bhqp2rcd13ifvqhng","pricing_plan_id":"cebpf4jnsgd1na2vs0mg"},{"bike_id":"38be4af6-e85b-42e3-a685-542a5354df68","system_id":"levelo_inurba_marseille","lat":43.31754,"lon":5.39015,"is_reserved":false,"is_disabled":false,"rental_uris":{"android":"levelo://app?vid=38be4af6-e85b-42e3-a685-542a5354df68","ios":"levelo://app?vid=38be4af6-e85b-42e3-a685-542a5354df68"},"vehicle_type_id":"4","last_reported":1714424815,"current_range_meters":9200,"station_id":"ce4bhqp2rcd13ifvqhng","pricing_plan_id":"cebpf4jnsgd1na2vs0mg"},{"bike_id":"7160473a-38e6-4356-88bc-552456547efa","system_id":"levelo_inurba_marseille","lat":43.299243,"lon":5.37481,"is_reserved":false,"is_disabled":false,"rental_uris":{"android":"levelo://app?vid=7160473a-38e6-4356-88bc-552456547efa","ios":"levelo://app?vid=7160473a-38e6-4356-88bc-552456547efa"},"vehicle_type_id":"4","last_reported":1714424815,"current_range_meters":26400,"station_id":"ce4bgjh2rcd13ifvqbg0","pricing_plan_id":"cebpf4jnsgd1na2vs0mg"},{"bike_id":"c53d716a-cdec-41a4-a6f3-72219a5ee3a5","system_id":"levelo_inurba_marseille","lat":43.317557,"lon":5.390173,"is_reserved":false,"is_disabled":false,"rental_uris":{"android":"levelo://app?vid=c53d716a-cdec-41a4-a6f3-72219a5ee3a5","ios":"levelo://app?vid=c53d716a-cdec-41a4-a6f3-72219a5ee3a5"},"vehicle_type_id":"4","last_reported":1714424815,"current_range_meters":12000,"station_id":"ce4bhqp2rcd13ifvqhng","pricing_plan_id":"cebpf4jnsgd1na2vs0mg"},{"bike_id":"34fa1cb8-d6c4-4996-b288-134de4a53dd8","system_id":"levelo_inurba_marseille","lat":43.31762,"lon":5.390163,"is_reserved":false,"is_disabled":false,"rental_uris":{"android":"levelo://app?vid=34fa1cb8-d6c4-4996-b288-134de4a53dd8","ios":"levelo://app?vid=34fa1cb8-d6c4-4996-b288-134de4a53dd8"},"vehicle_type_id":"4","last_reported":1714424815,"current_range_meters":21200,"station_id":"ce4bhqp2rcd13ifvqhng","pricing_plan_id":"cebpf4jnsgd1na2vs0mg"},{"bike_id":"ab0d2e41-fdad-4489-beb8-58ccc13d9420","system_id":"levelo_inurba_marseille","lat":43.317557,"lon":5.390173,"is_reserved":false,"is_disabled":false,"rental_uris":{"android":"levelo://app?vid=ab0d2e41-fdad-4489-beb8-58ccc13d9420","ios":"levelo://app?vid=ab0d2e41-fdad-4489-beb8-58ccc13d9420"},"vehicle_type_id":"4","last_reported":1714424815,"current_range_meters":4000,"station_id":"ce4bhqp2rcd13ifvqhng","pricing_plan_id":"cebpf4jnsgd1na2vs0mg"},{"bike_id":"3312060f-961b-4e89-ba23-464e92092e30","system_id":"levelo_inurba_marseille","lat":43.317557,"lon":5.390173,"is_reserved":false,"is_disabled":false,"rental_uris":{"android":"levelo://app?vid=3312060f-961b-4e89-ba23-464e92092e30","ios":"levelo://app?vid=3312060f-961b-4e89-ba23-464e92092e30"},"vehicle_type_id":"4","last_reported":1714424815,"current_range_meters":2800,"station_id":"ce4bhqp2rcd13ifvqhng","pricing_plan_id":"cebpf4jnsgd1na2vs0mg"},{"bike_id":"d63bbd91-6e5f-4d34-93e8-eb3619db06a8","system_id":"levelo_inurba_marseille","lat":43.317627,"lon":5.390173,"is_reserved":false,"is_disabled":false,"rental_uris":{"android":"levelo://app?vid=d63bbd91-6e5f-4d34-93e8-eb3619db06a8","ios":"levelo://app?vid=d63bbd91-6e5f-4d34-93e8-eb3619db06a8"},"vehicle_type_id":"4","last_reported":1714424815,"current_range_meters":30000,"station_id":"ce4bhqp2rcd13ifvqhng","pricing_plan_id":"cebpf4jnsgd1na2vs0mg"},{"bike_id":"8862cb81-7bdf-40db-af2b-9e8876463bc5","system_id":"levelo_inurba_marseille","lat":43.31754,"lon":5.39021,"is_reserved":false,"is_disabled":false,"rental_uris":{"android":"levelo://app?vid=8862cb81-7bdf-40db-af2b-9e8876463bc5","ios":"levelo://app?vid=8862cb81-7bdf-40db-af2b-9e8876463bc5"},"vehicle_type_id":"4","last_reported":1714424815,"current_range_meters":10000,"station_id":"ce4bhqp2rcd13ifvqhng","pricing_plan_id":"cebpf4jnsgd1na2vs0mg"},{"bike_id":"a6f7ad73-c585-4e2d-8a35-6604a83b7104","system_id":"levelo_inurba_marseille","lat":43.31756,"lon":5.39022,"is_reserved":false,"is_disabled":false,"rental_uris":{"android":"levelo://app?vid=a6f7ad73-c585-4e2d-8a35-6604a83b7104","ios":"levelo://app?vid=a6f7ad73-c585-4e2d-8a35-6604a83b7104"},"vehicle_type_id":"4","last_reported":1714424815,"current_range_meters":4800,"station_id":"ce4bhqp2rcd13ifvqhng","pricing_plan_id":"cebpf4jnsgd1na2vs0mg"},{"bike_id":"0381cdcb-ebbd-48d0-a9b0-cf07d8bd5cee","system_id":"levelo_inurba_marseille","lat":43.317557,"lon":5.390173,"is_reserved":false,"is_disabled":false,"rental_uris":{"android":"levelo://app?vid=0381cdcb-ebbd-48d0-a9b0-cf07d8bd5cee","ios":"levelo://app?vid=0381cdcb-ebbd-48d0-a9b0-cf07d8bd5cee"},"vehicle_type_id":"4","last_reported":1714424815,"current_range_meters":17200,"station_id":"ce4bhqp2rcd13ifvqhng","pricing_plan_id":"cebpf4jnsgd1na2vs0mg"},{"bike_id":"40b47af7-7675-485c-befd-457b2fd90cd3","system_id":"levelo_inurba_marseille","lat":43.304274,"lon":5.388873,"is_reserved":false,"is_disabled":false,"rental_uris":{"android":"levelo://app?vid=40b47af7-7675-485c-befd-457b2fd90cd3","ios":"levelo://app?vid=40b47af7-7675-485c-befd-457b2fd90cd3"},"vehicle_type_id":"4","last_reported":1714424815,"current_range_meters":13600,"station_id":"ce4bgk12rcd13ifvqbi0","pricing_plan_id":"cebpf4jnsgd1na2vs0mg"},{"bike_id":"703cc1c7-ab3a-4301-9124-b1c6807136e2","system_id":"levelo_inurba_marseille","lat":43.304278,"lon":5.388868,"is_reserved":false,"is_disabled":false,"rental_uris":{"android":"levelo://app?vid=703cc1c7-ab3a-4301-9124-b1c6807136e2","ios":"levelo://app?vid=703cc1c7-ab3a-4301-9124-b1c6807136e2"},"vehicle_type_id":"4","last_reported":1714424815,"current_range_meters":18400,"station_id":"ce4bgk12rcd13ifvqbi0","pricing_plan_id":"cebpf4jnsgd1na2vs0mg"},{"bike_id":"654272a8-8f9c-4cd3-9eb4-a7641f26bf17","system_id":"levelo_inurba_marseille","lat":43.304274,"lon":5.388873,"is_reserved":false,"is_disabled":false,"rental_uris":{"android":"levelo://app?vid=654272a8-8f9c-4cd3-9eb4-a7641f26bf17","ios":"levelo://app?vid=654272a8-8f9c-4cd3-9eb4-a7641f26bf17"},"vehicle_type_id":"4","last_reported":1714424815,"current_range_meters":6400,"station_id":"ce4bgk12rcd13ifvqbi0","pricing_plan_id":"cebpf4jnsgd1na2vs0mg"},{"bike_id":"d3fc6625-0009-4eba-a4fc-a8514f84270a","system_id":"levelo_inurba_marseille","lat":43.304278,"lon":5.388868,"is_reserved":false,"is_disabled":false,"rental_uris":{"android":"levelo://app?vid=d3fc6625-0009-4eba-a4fc-a8514f84270a","ios":"levelo://app?vid=d3fc6625-0009-4eba-a4fc-a8514f84270a"},"vehicle_type_id":"4","last_reported":1714424815,"current_range_meters":23600,"station_id":"ce4bgk12rcd13ifvqbi0","pricing_plan_id":"cebpf4jnsgd1na2vs0mg"},{"bike_id":"4ad4104a-3334-442d-ac6c-0d0dd2ee1686","system_id":"levelo_inurba_marseille","lat":43.304274,"lon":5.388873,"is_reserved":false,"is_disabled":false,"rental_uris":{"android":"levelo://app?vid=4ad4104a-3334-442d-ac6c-0d0dd2ee1686","ios":"levelo://app?vid=4ad4104a-3334-442d-ac6c-0d0dd2ee1686"},"vehicle_type_id":"4","last_reported":1714424815,"current_range_meters":18400,"station_id":"ce4bgk12rcd13ifvqbi0","pricing_plan_id":"cebpf4jnsgd1na2vs0mg"},{"bike_id":"5bf68595-4dd0-48b9-ad8c-566d2ef825f1","system_id":"levelo_inurba_marseille","lat":43.304278,"lon":5.388868,"is_reserved":false,"is_disabled":false,"rental_uris":{"android":"levelo://app?vid=5bf68595-4dd0-48b9-ad8c-566d2ef825f1","ios":"levelo://app?vid=5bf68595-4dd0-48b9-ad8c-566d2ef825f1"},"vehicle_type_id":"4","last_reported":1714424815,"current_range_meters":28400,"station_id":"ce4bgk12rcd13ifvqbi0","pricing_plan_id":"cebpf4jnsgd1na2vs0mg"},{"bike_id":"712c9fb3-5706-45a9-92b7-6ca7fae8ada4","system_id":"levelo_inurba_marseille","lat":43.304274,"lon":5.388873,"is_reserved":false,"is_disabled":false,"rental_uris":{"android":"levelo://app?vid=712c9fb3-5706-45a9-92b7-6ca7fae8ada4","ios":"levelo://app?vid=712c9fb3-5706-45a9-92b7-6ca7fae8ada4"},"vehicle_type_id":"4","last_reported":1714424815,"current_range_meters":28400,"station_id":"ce4bgk12rcd13ifvqbi0","pricing_plan_id":"cebpf4jnsgd1na2vs0mg"},{"bike_id":"9f128c19-cbbb-48fd-b6b6-2eb8d2699171","system_id":"levelo_inurba_marseille","lat":43.286595,"lon":5.386795,"is_reserved":false,"is_disabled":false,"rental_uris":{"android":"levelo://app?vid=9f128c19-cbbb-48fd-b6b6-2eb8d2699171","ios":"levelo://app?vid=9f128c19-cbbb-48fd-b6b6-2eb8d2699171"},"vehicle_type_id":"4","last_reported":1714424815,"current_range_meters":22800,"station_id":"ce4bh492rcd13ifvqdug","pricing_plan_id":"cebpf4jnsgd1na2vs0mg"},{"bike_id":"16405781-0c43-46d9-bdd1-9c1b92d36b66","system_id":"levelo_inurba_marseille","lat":43.278399,"lon":5.392139,"is_reserved":false,"is_disabled":false,"rental_uris":{"android":"levelo://app?vid=16405781-0c43-46d9-bdd1-9c1b92d36b66","ios":"levelo://app?vid=16405781-0c43-46d9-bdd1-9c1b92d36b66"},"vehicle_type_id":"4","last_reported":1714424815,"current_range_meters":6800,"station_id":"ce4bhjp2rcd13ifvqga0","pricing_plan_id":"cebpf4jnsgd1na2vs0mg"},{"bike_id":"102d9b2f-c5a7-4690-90b4-0b9bfbd1ec18","system_id":"levelo_inurba_marseille","lat":43.295279,"lon":5.375048,"is_reserved":false,"is_disabled":false,"rental_uris":{"android":"levelo://app?vid=102d9b2f-c5a7-4690-90b4-0b9bfbd1ec18","ios":"levelo://app?vid=102d9b2f-c5a7-4690-90b4-0b9bfbd1ec18"},"vehicle_type_id":"4","last_reported":1714424815,"current_range_meters":23200,"station_id":"ce4bgkp2rcd13ifvqbmg","pricing_plan_id":"cebpf4jnsgd1na2vs0mg"},{"bike_id":"73b37800-277b-4d68-afd4-4b2ddd3b798e","system_id":"levelo_inurba_marseille","lat":43.2962,"lon":5.37967,"is_reserved":false,"is_disabled":false,"rental_uris":{"android":"levelo://app?vid=73b37800-277b-4d68-afd4-4b2ddd3b798e","ios":"levelo://app?vid=73b37800-277b-4d68-afd4-4b2ddd3b798e"},"vehicle_type_id":"4","last_reported":1714424815,"current_range_meters":6400,"station_id":"","pricing_plan_id":"cebpf4jnsgd1na2vs0mg"},{"bike_id":"1e90664a-dafe-4aeb-9f16-5ddf47cf772f","system_id":"levelo_inurba_marseille","lat":43.29685,"lon":5.38149,"is_reserved":false,"is_disabled":false,"rental_uris":{"android":"levelo://app?vid=1e90664a-dafe-4aeb-9f16-5ddf47cf772f","ios":"levelo://app?vid=1e90664a-dafe-4aeb-9f16-5ddf47cf772f"},"vehicle_type_id":"4","last_reported":1714424815,"current_range_meters":23200,"station_id":"","pricing_plan_id":"cebpf4jnsgd1na2vs0mg"},{"bike_id":"9fbe9ad0-9e85-4798-bbd9-88f5b0fc5014","system_id":"levelo_inurba_marseille","lat":43.323643,"lon":5.3888,"is_reserved":false,"is_disabled":false,"rental_uris":{"android":"levelo://app?vid=9fbe9ad0-9e85-4798-bbd9-88f5b0fc5014","ios":"levelo://app?vid=9fbe9ad0-9e85-4798-bbd9-88f5b0fc5014"},"vehicle_type_id":"4","last_reported":1714424815,"current_range_meters":6400,"station_id":"ce4bhqp2rcd13ifvqhog","pricing_plan_id":"cebpf4jnsgd1na2vs0mg"},{"bike_id":"b7575f07-1688-43d7-b1e8-ffdf504beab1","system_id":"levelo_inurba_marseille","lat":43.32367,"lon":5.388836,"is_reserved":false,"is_disabled":false,"rental_uris":{"android":"levelo://app?vid=b7575f07-1688-43d7-b1e8-ffdf504beab1","ios":"levelo://app?vid=b7575f07-1688-43d7-b1e8-ffdf504beab1"},"vehicle_type_id":"4","last_reported":1714424815,"current_range_meters":0,"station_id":"ce4bhqp2rcd13ifvqhog","pricing_plan_id":"cebpf4jnsgd1na2vs0mg"},{"bike_id":"cdb9b4c0-b1f7-4c28-8c72-c3fba037cf28","system_id":"levelo_inurba_marseille","lat":43.32367,"lon":5.388836,"is_reserved":false,"is_disabled":false,"rental_uris":{"android":"levelo://app?vid=cdb9b4c0-b1f7-4c28-8c72-c3fba037cf28","ios":"levelo://app?vid=cdb9b4c0-b1f7-4c28-8c72-c3fba037cf28"},"vehicle_type_id":"4","last_reported":1714424815,"current_range_meters":1600,"station_id":"ce4bhqp2rcd13ifvqhog","pricing_plan_id":"cebpf4jnsgd1na2vs0mg"},{"bike_id":"366e67a7-d40b-4e39-9c86-f89f0538a294","system_id":"levelo_inurba_marseille","lat":43.32365,"lon":5.38885,"is_reserved":false,"is_disabled":false,"rental_uris":{"android":"levelo://app?vid=366e67a7-d40b-4e39-9c86-f89f0538a294","ios":"levelo://app?vid=366e67a7-d40b-4e39-9c86-f89f0538a294"},"vehicle_type_id":"4","last_reported":1714424815,"current_range_meters":28000,"station_id":"ce4bhqp2rcd13ifvqhog","pricing_plan_id":"cebpf4jnsgd1na2vs0mg"},{"bike_id":"8d6b1470-4e04-47e0-ba5b-f8366767f03c","system_id":"levelo_inurba_marseille","lat":43.32367,"lon":5.388836,"is_reserved":false,"is_disabled":false,"rental_uris":{"android":"levelo://app?vid=8d6b1470-4e04-47e0-ba5b-f8366767f03c","ios":"levelo://app?vid=8d6b1470-4e04-47e0-ba5b-f8366767f03c"},"vehicle_type_id":"4","last_reported":1714424815,"current_range_meters":5600,"station_id":"ce4bhqp2rcd13ifvqhog","pricing_plan_id":"cebpf4jnsgd1na2vs0mg"},{"bike_id":"32d9b063-7292-4386-9a8e-7d0d8cd0efeb","system_id":"levelo_inurba_marseille","lat":43.32367,"lon":5.388836,"is_reserved":false,"is_disabled":false,"rental_uris":{"android":"levelo://app?vid=32d9b063-7292-4386-9a8e-7d0d8cd0efeb","ios":"levelo://app?vid=32d9b063-7292-4386-9a8e-7d0d8cd0efeb"},"vehicle_type_id":"4","last_reported":1714424815,"current_range_meters":0,"station_id":"ce4bhqp2rcd13ifvqhog","pricing_plan_id":"cebpf4jnsgd1na2vs0mg"},{"bike_id":"087d8383-b66d-48b4-b066-be0321234331","system_id":"levelo_inurba_marseille","lat":43.32367,"lon":5.388836,"is_reserved":false,"is_disabled":false,"rental_uris":{"android":"levelo://app?vid=087d8383-b66d-48b4-b066-be0321234331","ios":"levelo://app?vid=087d8383-b66d-48b4-b066-be0321234331"},"vehicle_type_id":"4","last_reported":1714424815,"current_range_meters":24000,"station_id":"ce4bhqp2rcd13ifvqhog","pricing_plan_id":"cebpf4jnsgd1na2vs0mg"},{"bike_id":"34c781dd-a2bd-412a-82c9-0fce9cd61e85","system_id":"levelo_inurba_marseille","lat":43.32367,"lon":5.388836,"is_reserved":false,"is_disabled":false,"rental_uris":{"android":"levelo://app?vid=34c781dd-a2bd-412a-82c9-0fce9cd61e85","ios":"levelo://app?vid=34c781dd-a2bd-412a-82c9-0fce9cd61e85"},"vehicle_type_id":"4","last_reported":1714424815,"current_range_meters":28800,"station_id":"ce4bhqp2rcd13ifvqhog","pricing_plan_id":"cebpf4jnsgd1na2vs0mg"},{"bike_id":"a045c8ae-4b44-47c9-9b98-37ef5aa153c6","system_id":"levelo_inurba_marseille","lat":43.29314,"lon":5.37177,"is_reserved":false,"is_disabled":false,"rental_uris":{"android":"levelo://app?vid=a045c8ae-4b44-47c9-9b98-37ef5aa153c6","ios":"levelo://app?vid=a045c8ae-4b44-47c9-9b98-37ef5aa153c6"},"vehicle_type_id":"4","last_reported":1714424815,"current_range_meters":0,"station_id":"ce4bgh92rcd13ifvqb40","pricing_plan_id":"cebpf4jnsgd1na2vs0mg"},{"bike_id":"a9cb6981-f359-4781-9438-d231d7420937","system_id":"levelo_inurba_marseille","lat":43.293249,"lon":5.371578,"is_reserved":false,"is_disabled":false,"rental_uris":{"android":"levelo://app?vid=a9cb6981-f359-4781-9438-d231d7420937","ios":"levelo://app?vid=a9cb6981-f359-4781-9438-d231d7420937"},"vehicle_type_id":"4","last_reported":1714424815,"current_range_meters":4400,"station_id":"ce4bgh92rcd13ifvqb40","pricing_plan_id":"cebpf4jnsgd1na2vs0mg"},{"bike_id":"a1491aab-2dcd-4eab-bdf5-4e5803c93e16","system_id":"levelo_inurba_marseille","lat":43.292749,"lon":5.368402,"is_reserved":false,"is_disabled":false,"rental_uris":{"android":"levelo://app?vid=a1491aab-2dcd-4eab-bdf5-4e5803c93e16","ios":"levelo://app?vid=a1491aab-2dcd-4eab-bdf5-4e5803c93e16"},"vehicle_type_id":"4","last_reported":1714424815,"current_range_meters":26400,"station_id":"ce4bhbp2rcd13ifvqesg","pricing_plan_id":"cebpf4jnsgd1na2vs0mg"},{"bike_id":"4f7d72ce-f89d-4ca0-bacd-e2c617b65c9e","system_id":"levelo_inurba_marseille","lat":43.293259,"lon":5.371586,"is_reserved":false,"is_disabled":false,"rental_uris":{"android":"levelo://app?vid=4f7d72ce-f89d-4ca0-bacd-e2c617b65c9e","ios":"levelo://app?vid=4f7d72ce-f89d-4ca0-bacd-e2c617b65c9e"},"vehicle_type_id":"4","last_reported":1714424815,"current_range_meters":6400,"station_id":"ce4bgh92rcd13ifvqb40","pricing_plan_id":"cebpf4jnsgd1na2vs0mg"},{"bike_id":"3190e011-9d54-48c3-8df4-24c375041388","system_id":"levelo_inurba_marseille","lat":43.292749,"lon":5.368402,"is_reserved":false,"is_disabled":false,"rental_uris":{"android":"levelo://app?vid=3190e011-9d54-48c3-8df4-24c375041388","ios":"levelo://app?vid=3190e011-9d54-48c3-8df4-24c375041388"},"vehicle_type_id":"4","last_reported":1714424815,"current_range_meters":24800,"station_id":"ce4bhbp2rcd13ifvqesg","pricing_plan_id":"cebpf4jnsgd1na2vs0mg"},{"bike_id":"5d309d0f-8237-40ae-ba37-cb30adbb567c","system_id":"levelo_inurba_marseille","lat":43.305994,"lon":5.393687,"is_reserved":false,"is_disabled":false,"rental_uris":{"android":"levelo://app?vid=5d309d0f-8237-40ae-ba37-cb30adbb567c","ios":"levelo://app?vid=5d309d0f-8237-40ae-ba37-cb30adbb567c"},"vehicle_type_id":"4","last_reported":1714424815,"current_range_meters":22800,"station_id":"ce4bh0p2rcd13ifvqd80","pricing_plan_id":"cebpf4jnsgd1na2vs0mg"},{"bike_id":"0dbc8e34-3858-4ec8-a92f-6f34fe92c52b","system_id":"levelo_inurba_marseille","lat":43.309589,"lon":5.390258,"is_reserved":false,"is_disabled":false,"rental_uris":{"android":"levelo://app?vid=0dbc8e34-3858-4ec8-a92f-6f34fe92c52b","ios":"levelo://app?vid=0dbc8e34-3858-4ec8-a92f-6f34fe92c52b"},"vehicle_type_id":"4","last_reported":1714424815,"current_range_meters":30800,"station_id":"ce4bgup2rcd13ifvqco0","pricing_plan_id":"cebpf4jnsgd1na2vs0mg"},{"bike_id":"ae58078f-cf7d-41d3-a847-f5e998644713","system_id":"levelo_inurba_marseille","lat":43.303002,"lon":5.392142,"is_reserved":false,"is_disabled":false,"rental_uris":{"android":"levelo://app?vid=ae58078f-cf7d-41d3-a847-f5e998644713","ios":"levelo://app?vid=ae58078f-cf7d-41d3-a847-f5e998644713"},"vehicle_type_id":"4","last_reported":1714424815,"current_range_meters":23600,"station_id":"ce4bgkh2rcd13ifvqbk0","pricing_plan_id":"cebpf4jnsgd1na2vs0mg"},{"bike_id":"10d99c99-f087-4f9a-a73c-6e8559866152","system_id":"levelo_inurba_marseille","lat":43.302992,"lon":5.392136,"is_reserved":false,"is_disabled":false,"rental_uris":{"android":"levelo://app?vid=10d99c99-f087-4f9a-a73c-6e8559866152","ios":"levelo://app?vid=10d99c99-f087-4f9a-a73c-6e8559866152"},"vehicle_type_id":"4","last_reported":1714424815,"current_range_meters":29600,"station_id":"ce4bgkh2rcd13ifvqbk0","pricing_plan_id":"cebpf4jnsgd1na2vs0mg"},{"bike_id":"1f9072ee-e380-4146-bd3d-2bbbe3bb4b3a","system_id":"levelo_inurba_marseille","lat":43.2936,"lon":5.37835,"is_reserved":false,"is_disabled":false,"rental_uris":{"android":"levelo://app?vid=1f9072ee-e380-4146-bd3d-2bbbe3bb4b3a","ios":"levelo://app?vid=1f9072ee-e380-4146-bd3d-2bbbe3bb4b3a"},"vehicle_type_id":"4","last_reported":1714424815,"current_range_meters":8800,"station_id":"ce4bgjh2rcd13ifvqbf0","pricing_plan_id":"cebpf4jnsgd1na2vs0mg"},{"bike_id":"252e6e7d-01c9-4514-aa60-a4dca429a735","system_id":"levelo_inurba_marseille","lat":43.300852,"lon":5.390859,"is_reserved":false,"is_disabled":false,"rental_uris":{"android":"levelo://app?vid=252e6e7d-01c9-4514-aa60-a4dca429a735","ios":"levelo://app?vid=252e6e7d-01c9-4514-aa60-a4dca429a735"},"vehicle_type_id":"4","last_reported":1714424815,"current_range_meters":26400,"station_id":"ce4bh192rcd13ifvqdb0","pricing_plan_id":"cebpf4jnsgd1na2vs0mg"},{"bike_id":"66ea4039-c0f3-4ad5-a54a-3ad60a47e245","system_id":"levelo_inurba_marseille","lat":43.298764,"lon":5.388973,"is_reserved":false,"is_disabled":false,"rental_uris":{"android":"levelo://app?vid=66ea4039-c0f3-4ad5-a54a-3ad60a47e245","ios":"levelo://app?vid=66ea4039-c0f3-4ad5-a54a-3ad60a47e245"},"vehicle_type_id":"4","last_reported":1714424815,"current_range_meters":6000,"station_id":"ce4bh392rcd13ifvqdl0","pricing_plan_id":"cebpf4jnsgd1na2vs0mg"},{"bike_id":"50e5b821-c69c-4935-aa74-7c9c81bb9612","system_id":"levelo_inurba_marseille","lat":43.298764,"lon":5.388973,"is_reserved":false,"is_disabled":false,"rental_uris":{"android":"levelo://app?vid=50e5b821-c69c-4935-aa74-7c9c81bb9612","ios":"levelo://app?vid=50e5b821-c69c-4935-aa74-7c9c81bb9612"},"vehicle_type_id":"4","last_reported":1714424815,"current_range_meters":8400,"station_id":"ce4bh392rcd13ifvqdl0","pricing_plan_id":"cebpf4jnsgd1na2vs0mg"},{"bike_id":"c2b3bd60-94a6-4491-a7e0-ac833af04c1c","system_id":"levelo_inurba_marseille","lat":43.298764,"lon":5.388973,"is_reserved":false,"is_disabled":false,"rental_uris":{"android":"levelo://app?vid=c2b3bd60-94a6-4491-a7e0-ac833af04c1c","ios":"levelo://app?vid=c2b3bd60-94a6-4491-a7e0-ac833af04c1c"},"vehicle_type_id":"4","last_reported":1714424815,"current_range_meters":1200,"station_id":"ce4bh392rcd13ifvqdl0","pricing_plan_id":"cebpf4jnsgd1na2vs0mg"},{"bike_id":"5d93b2b0-2159-4ebf-9b50-8daccff37ce2","system_id":"levelo_inurba_marseille","lat":43.292587,"lon":5.376254,"is_reserved":false,"is_disabled":false,"rental_uris":{"android":"levelo://app?vid=5d93b2b0-2159-4ebf-9b50-8daccff37ce2","ios":"levelo://app?vid=5d93b2b0-2159-4ebf-9b50-8daccff37ce2"},"vehicle_type_id":"4","last_reported":1714424815,"current_range_meters":19200,"station_id":"","pricing_plan_id":"cebpf4jnsgd1na2vs0mg"},{"bike_id":"c10bb9ee-3c1d-47c3-8743-c7925ee13e12","system_id":"levelo_inurba_marseille","lat":43.298764,"lon":5.388973,"is_reserved":false,"is_disabled":false,"rental_uris":{"android":"levelo://app?vid=c10bb9ee-3c1d-47c3-8743-c7925ee13e12","ios":"levelo://app?vid=c10bb9ee-3c1d-47c3-8743-c7925ee13e12"},"vehicle_type_id":"4","last_reported":1714424815,"current_range_meters":28800,"station_id":"ce4bh392rcd13ifvqdl0","pricing_plan_id":"cebpf4jnsgd1na2vs0mg"},{"bike_id":"5c57c915-9bd0-4409-a16a-59215b9fc796","system_id":"levelo_inurba_marseille","lat":43.298764,"lon":5.388973,"is_reserved":false,"is_disabled":false,"rental_uris":{"android":"levelo://app?vid=5c57c915-9bd0-4409-a16a-59215b9fc796","ios":"levelo://app?vid=5c57c915-9bd0-4409-a16a-59215b9fc796"},"vehicle_type_id":"4","last_reported":1714424815,"current_range_meters":10400,"station_id":"ce4bh392rcd13ifvqdl0","pricing_plan_id":"cebpf4jnsgd1na2vs0mg"},{"bike_id":"0fa59905-b1d0-4f53-9a5a-64c46f5c53e3","system_id":"levelo_inurba_marseille","lat":43.298764,"lon":5.388973,"is_reserved":false,"is_disabled":false,"rental_uris":{"android":"levelo://app?vid=0fa59905-b1d0-4f53-9a5a-64c46f5c53e3","ios":"levelo://app?vid=0fa59905-b1d0-4f53-9a5a-64c46f5c53e3"},"vehicle_type_id":"4","last_reported":1714424815,"current_range_meters":21600,"station_id":"ce4bh392rcd13ifvqdl0","pricing_plan_id":"cebpf4jnsgd1na2vs0mg"},{"bike_id":"b0ea76b2-f81d-43e2-bb55-4971c6b62234","system_id":"levelo_inurba_marseille","lat":43.298764,"lon":5.388973,"is_reserved":false,"is_disabled":false,"rental_uris":{"android":"levelo://app?vid=b0ea76b2-f81d-43e2-bb55-4971c6b62234","ios":"levelo://app?vid=b0ea76b2-f81d-43e2-bb55-4971c6b62234"},"vehicle_type_id":"4","last_reported":1714424815,"current_range_meters":13600,"station_id":"ce4bh392rcd13ifvqdl0","pricing_plan_id":"cebpf4jnsgd1na2vs0mg"},{"bike_id":"cb246417-578b-4ecf-ad8e-6d4a298bbb72","system_id":"levelo_inurba_marseille","lat":43.298764,"lon":5.388973,"is_reserved":false,"is_disabled":false,"rental_uris":{"android":"levelo://app?vid=cb246417-578b-4ecf-ad8e-6d4a298bbb72","ios":"levelo://app?vid=cb246417-578b-4ecf-ad8e-6d4a298bbb72"},"vehicle_type_id":"4","last_reported":1714424815,"current_range_meters":29600,"station_id":"ce4bh392rcd13ifvqdl0","pricing_plan_id":"cebpf4jnsgd1na2vs0mg"},{"bike_id":"5bda9a79-38c7-4c01-9881-49c760af767d","system_id":"levelo_inurba_marseille","lat":43.298764,"lon":5.388973,"is_reserved":false,"is_disabled":false,"rental_uris":{"android":"levelo://app?vid=5bda9a79-38c7-4c01-9881-49c760af767d","ios":"levelo://app?vid=5bda9a79-38c7-4c01-9881-49c760af767d"},"vehicle_type_id":"4","last_reported":1714424815,"current_range_meters":27600,"station_id":"ce4bh392rcd13ifvqdl0","pricing_plan_id":"cebpf4jnsgd1na2vs0mg"},{"bike_id":"2e83fba3-f2a9-43d8-bbd9-56def08b1699","system_id":"levelo_inurba_marseille","lat":43.298764,"lon":5.388973,"is_reserved":false,"is_disabled":false,"rental_uris":{"android":"levelo://app?vid=2e83fba3-f2a9-43d8-bbd9-56def08b1699","ios":"levelo://app?vid=2e83fba3-f2a9-43d8-bbd9-56def08b1699"},"vehicle_type_id":"4","last_reported":1714424815,"current_range_meters":13200,"station_id":"ce4bh392rcd13ifvqdl0","pricing_plan_id":"cebpf4jnsgd1na2vs0mg"},{"bike_id":"1dd05304-80e3-4cf1-819b-f6147a6ae56f","system_id":"levelo_inurba_marseille","lat":43.298764,"lon":5.388973,"is_reserved":false,"is_disabled":false,"rental_uris":{"android":"levelo://app?vid=1dd05304-80e3-4cf1-819b-f6147a6ae56f","ios":"levelo://app?vid=1dd05304-80e3-4cf1-819b-f6147a6ae56f"},"vehicle_type_id":"4","last_reported":1714424815,"current_range_meters":26000,"station_id":"ce4bh392rcd13ifvqdl0","pricing_plan_id":"cebpf4jnsgd1na2vs0mg"},{"bike_id":"1395069f-953e-4eee-b610-448a2efed284","system_id":"levelo_inurba_marseille","lat":43.291671,"lon":5.371575,"is_reserved":false,"is_disabled":false,"rental_uris":{"android":"levelo://app?vid=1395069f-953e-4eee-b610-448a2efed284","ios":"levelo://app?vid=1395069f-953e-4eee-b610-448a2efed284"},"vehicle_type_id":"4","last_reported":1714424815,"current_range_meters":24800,"station_id":"ce4bha92rcd13ifvqeh0","pricing_plan_id":"cebpf4jnsgd1na2vs0mg"},{"bike_id":"f6765142-5b23-4b54-9bba-0df9e449507c","system_id":"levelo_inurba_marseille","lat":43.298764,"lon":5.388973,"is_reserved":false,"is_disabled":false,"rental_uris":{"android":"levelo://app?vid=f6765142-5b23-4b54-9bba-0df9e449507c","ios":"levelo://app?vid=f6765142-5b23-4b54-9bba-0df9e449507c"},"vehicle_type_id":"4","last_reported":1714424815,"current_range_meters":20800,"station_id":"ce4bh392rcd13ifvqdl0","pricing_plan_id":"cebpf4jnsgd1na2vs0mg"},{"bike_id":"134ccd44-efcd-4aae-8c83-8c4d69290d67","system_id":"levelo_inurba_marseille","lat":43.29874,"lon":5.389117,"is_reserved":false,"is_disabled":false,"rental_uris":{"android":"levelo://app?vid=134ccd44-efcd-4aae-8c83-8c4d69290d67","ios":"levelo://app?vid=134ccd44-efcd-4aae-8c83-8c4d69290d67"},"vehicle_type_id":"4","last_reported":1714424815,"current_range_meters":1600,"station_id":"ce4bh392rcd13ifvqdl0","pricing_plan_id":"cebpf4jnsgd1na2vs0mg"},{"bike_id":"668a459b-167b-4dd6-a6a7-877c62a56a1f","system_id":"levelo_inurba_marseille","lat":43.298764,"lon":5.388973,"is_reserved":false,"is_disabled":false,"rental_uris":{"android":"levelo://app?vid=668a459b-167b-4dd6-a6a7-877c62a56a1f","ios":"levelo://app?vid=668a459b-167b-4dd6-a6a7-877c62a56a1f"},"vehicle_type_id":"4","last_reported":1714424815,"current_range_meters":7600,"station_id":"ce4bh392rcd13ifvqdl0","pricing_plan_id":"cebpf4jnsgd1na2vs0mg"},{"bike_id":"6f920794-c66b-4f80-aeaa-5cdd17020832","system_id":"levelo_inurba_marseille","lat":43.239588,"lon":5.366238,"is_reserved":false,"is_disabled":false,"rental_uris":{"android":"levelo://app?vid=6f920794-c66b-4f80-aeaa-5cdd17020832","ios":"levelo://app?vid=6f920794-c66b-4f80-aeaa-5cdd17020832"},"vehicle_type_id":"4","last_reported":1714424815,"current_range_meters":12400,"station_id":"ce4bhi12rcd13ifvqfp0","pricing_plan_id":"cebpf4jnsgd1na2vs0mg"},{"bike_id":"217b056e-08aa-4a77-8773-7caa944aa03d","system_id":"levelo_inurba_marseille","lat":43.298764,"lon":5.388973,"is_reserved":false,"is_disabled":false,"rental_uris":{"android":"levelo://app?vid=217b056e-08aa-4a77-8773-7caa944aa03d","ios":"levelo://app?vid=217b056e-08aa-4a77-8773-7caa944aa03d"},"vehicle_type_id":"4","last_reported":1714424815,"current_range_meters":10400,"station_id":"ce4bh392rcd13ifvqdl0","pricing_plan_id":"cebpf4jnsgd1na2vs0mg"},{"bike_id":"5c75ed9c-294c-4ac2-be4f-fa2625ffa4d6","system_id":"levelo_inurba_marseille","lat":43.298764,"lon":5.388973,"is_reserved":false,"is_disabled":false,"rental_uris":{"android":"levelo://app?vid=5c75ed9c-294c-4ac2-be4f-fa2625ffa4d6","ios":"levelo://app?vid=5c75ed9c-294c-4ac2-be4f-fa2625ffa4d6"},"vehicle_type_id":"4","last_reported":1714424815,"current_range_meters":31200,"station_id":"ce4bh392rcd13ifvqdl0","pricing_plan_id":"cebpf4jnsgd1na2vs0mg"},{"bike_id":"f066ac3f-da69-4e71-a014-d2d0f5d7edb3","system_id":"levelo_inurba_marseille","lat":43.298764,"lon":5.388973,"is_reserved":false,"is_disabled":false,"rental_uris":{"android":"levelo://app?vid=f066ac3f-da69-4e71-a014-d2d0f5d7edb3","ios":"levelo://app?vid=f066ac3f-da69-4e71-a014-d2d0f5d7edb3"},"vehicle_type_id":"4","last_reported":1714424815,"current_range_meters":30400,"station_id":"ce4bh392rcd13ifvqdl0","pricing_plan_id":"cebpf4jnsgd1na2vs0mg"},{"bike_id":"8c4204fb-45a0-45c0-9155-66b3e50c5423","system_id":"levelo_inurba_marseille","lat":43.298764,"lon":5.388973,"is_reserved":false,"is_disabled":false,"rental_uris":{"android":"levelo://app?vid=8c4204fb-45a0-45c0-9155-66b3e50c5423","ios":"levelo://app?vid=8c4204fb-45a0-45c0-9155-66b3e50c5423"},"vehicle_type_id":"4","last_reported":1714424815,"current_range_meters":16000,"station_id":"ce4bh392rcd13ifvqdl0","pricing_plan_id":"cebpf4jnsgd1na2vs0mg"},{"bike_id":"3c8d3d12-4d98-422d-bb95-f0c59113c1b5","system_id":"levelo_inurba_marseille","lat":43.291675,"lon":5.371583,"is_reserved":false,"is_disabled":false,"rental_uris":{"android":"levelo://app?vid=3c8d3d12-4d98-422d-bb95-f0c59113c1b5","ios":"levelo://app?vid=3c8d3d12-4d98-422d-bb95-f0c59113c1b5"},"vehicle_type_id":"4","last_reported":1714424815,"current_range_meters":26000,"station_id":"ce4bha92rcd13ifvqeh0","pricing_plan_id":"cebpf4jnsgd1na2vs0mg"},{"bike_id":"3d7044c3-1c30-4009-b2e0-c60405d844e9","system_id":"levelo_inurba_marseille","lat":43.298764,"lon":5.388973,"is_reserved":false,"is_disabled":false,"rental_uris":{"android":"levelo://app?vid=3d7044c3-1c30-4009-b2e0-c60405d844e9","ios":"levelo://app?vid=3d7044c3-1c30-4009-b2e0-c60405d844e9"},"vehicle_type_id":"4","last_reported":1714424815,"current_range_meters":18400,"station_id":"ce4bh392rcd13ifvqdl0","pricing_plan_id":"cebpf4jnsgd1na2vs0mg"},{"bike_id":"e8dfbcf2-f81a-42b3-a7e2-9b39b42c5552","system_id":"levelo_inurba_marseille","lat":43.298764,"lon":5.388973,"is_reserved":false,"is_disabled":false,"rental_uris":{"android":"levelo://app?vid=e8dfbcf2-f81a-42b3-a7e2-9b39b42c5552","ios":"levelo://app?vid=e8dfbcf2-f81a-42b3-a7e2-9b39b42c5552"},"vehicle_type_id":"4","last_reported":1714424815,"current_range_meters":27600,"station_id":"ce4bh392rcd13ifvqdl0","pricing_plan_id":"cebpf4jnsgd1na2vs0mg"},{"bike_id":"942f4c2e-6bc8-4522-b312-b846782e3ec5","system_id":"levelo_inurba_marseille","lat":43.298764,"lon":5.388973,"is_reserved":false,"is_disabled":false,"rental_uris":{"android":"levelo://app?vid=942f4c2e-6bc8-4522-b312-b846782e3ec5","ios":"levelo://app?vid=942f4c2e-6bc8-4522-b312-b846782e3ec5"},"vehicle_type_id":"4","last_reported":1714424815,"current_range_meters":12000,"station_id":"ce4bh392rcd13ifvqdl0","pricing_plan_id":"cebpf4jnsgd1na2vs0mg"},{"bike_id":"7779c310-5a2d-46db-b2be-cad9af31ec2d","system_id":"levelo_inurba_marseille","lat":43.309038,"lon":5.396546,"is_reserved":false,"is_disabled":false,"rental_uris":{"android":"levelo://app?vid=7779c310-5a2d-46db-b2be-cad9af31ec2d","ios":"levelo://app?vid=7779c310-5a2d-46db-b2be-cad9af31ec2d"},"vehicle_type_id":"4","last_reported":1714424815,"current_range_meters":1200,"station_id":"ce4bh012rcd13ifvqcv0","pricing_plan_id":"cebpf4jnsgd1na2vs0mg"},{"bike_id":"258b7e55-45ad-4848-916a-25be0cfcb529","system_id":"levelo_inurba_marseille","lat":43.309047,"lon":5.396551,"is_reserved":false,"is_disabled":false,"rental_uris":{"android":"levelo://app?vid=258b7e55-45ad-4848-916a-25be0cfcb529","ios":"levelo://app?vid=258b7e55-45ad-4848-916a-25be0cfcb529"},"vehicle_type_id":"4","last_reported":1714424815,"current_range_meters":4400,"station_id":"ce4bh012rcd13ifvqcv0","pricing_plan_id":"cebpf4jnsgd1na2vs0mg"},{"bike_id":"bae25319-4350-4c5e-af28-cc43ea942e20","system_id":"levelo_inurba_marseille","lat":43.309038,"lon":5.396546,"is_reserved":false,"is_disabled":false,"rental_uris":{"android":"levelo://app?vid=bae25319-4350-4c5e-af28-cc43ea942e20","ios":"levelo://app?vid=bae25319-4350-4c5e-af28-cc43ea942e20"},"vehicle_type_id":"4","last_reported":1714424815,"current_range_meters":6000,"station_id":"ce4bh012rcd13ifvqcv0","pricing_plan_id":"cebpf4jnsgd1na2vs0mg"},{"bike_id":"4ddbff96-8557-466f-81bf-4330d2963f4f","system_id":"levelo_inurba_marseille","lat":43.309047,"lon":5.396551,"is_reserved":false,"is_disabled":false,"rental_uris":{"android":"levelo://app?vid=4ddbff96-8557-466f-81bf-4330d2963f4f","ios":"levelo://app?vid=4ddbff96-8557-466f-81bf-4330d2963f4f"},"vehicle_type_id":"4","last_reported":1714424815,"current_range_meters":17600,"station_id":"ce4bh012rcd13ifvqcv0","pricing_plan_id":"cebpf4jnsgd1na2vs0mg"},{"bike_id":"ec575c12-06c2-445d-a2f9-6a99ece276c0","system_id":"levelo_inurba_marseille","lat":43.313291,"lon":5.396838,"is_reserved":false,"is_disabled":false,"rental_uris":{"android":"levelo://app?vid=ec575c12-06c2-445d-a2f9-6a99ece276c0","ios":"levelo://app?vid=ec575c12-06c2-445d-a2f9-6a99ece276c0"},"vehicle_type_id":"4","last_reported":1714424815,"current_range_meters":13600,"station_id":"ce4bgvp2rcd13ifvqcu0","pricing_plan_id":"cebpf4jnsgd1na2vs0mg"},{"bike_id":"7630cc94-f5ba-492e-8fa9-6a45eeb2ca97","system_id":"levelo_inurba_marseille","lat":43.313291,"lon":5.396838,"is_reserved":false,"is_disabled":false,"rental_uris":{"android":"levelo://app?vid=7630cc94-f5ba-492e-8fa9-6a45eeb2ca97","ios":"levelo://app?vid=7630cc94-f5ba-492e-8fa9-6a45eeb2ca97"},"vehicle_type_id":"4","last_reported":1714424815,"current_range_meters":30800,"station_id":"ce4bgvp2rcd13ifvqcu0","pricing_plan_id":"cebpf4jnsgd1na2vs0mg"},{"bike_id":"a168d0c3-9fe5-4266-971f-0a0c9ce4b072","system_id":"levelo_inurba_marseille","lat":43.309047,"lon":5.396551,"is_reserved":false,"is_disabled":false,"rental_uris":{"android":"levelo://app?vid=a168d0c3-9fe5-4266-971f-0a0c9ce4b072","ios":"levelo://app?vid=a168d0c3-9fe5-4266-971f-0a0c9ce4b072"},"vehicle_type_id":"4","last_reported":1714424815,"current_range_meters":14400,"station_id":"ce4bh012rcd13ifvqcv0","pricing_plan_id":"cebpf4jnsgd1na2vs0mg"},{"bike_id":"2c93879d-d982-4d54-b218-ac3794909aef","system_id":"levelo_inurba_marseille","lat":43.313291,"lon":5.396838,"is_reserved":false,"is_disabled":false,"rental_uris":{"android":"levelo://app?vid=2c93879d-d982-4d54-b218-ac3794909aef","ios":"levelo://app?vid=2c93879d-d982-4d54-b218-ac3794909aef"},"vehicle_type_id":"4","last_reported":1714424815,"current_range_meters":18400,"station_id":"ce4bgvp2rcd13ifvqcu0","pricing_plan_id":"cebpf4jnsgd1na2vs0mg"},{"bike_id":"a48fee6a-f834-49c3-82b1-ec73b367c96f","system_id":"levelo_inurba_marseille","lat":43.313291,"lon":5.396838,"is_reserved":false,"is_disabled":false,"rental_uris":{"android":"levelo://app?vid=a48fee6a-f834-49c3-82b1-ec73b367c96f","ios":"levelo://app?vid=a48fee6a-f834-49c3-82b1-ec73b367c96f"},"vehicle_type_id":"4","last_reported":1714424815,"current_range_meters":1200,"station_id":"ce4bgvp2rcd13ifvqcu0","pricing_plan_id":"cebpf4jnsgd1na2vs0mg"},{"bike_id":"9010b2f1-01a2-448d-a0a0-0030b7eee01c","system_id":"levelo_inurba_marseille","lat":43.309038,"lon":5.396546,"is_reserved":false,"is_disabled":false,"rental_uris":{"android":"levelo://app?vid=9010b2f1-01a2-448d-a0a0-0030b7eee01c","ios":"levelo://app?vid=9010b2f1-01a2-448d-a0a0-0030b7eee01c"},"vehicle_type_id":"4","last_reported":1714424815,"current_range_meters":400,"station_id":"ce4bh012rcd13ifvqcv0","pricing_plan_id":"cebpf4jnsgd1na2vs0mg"},{"bike_id":"f85e35c9-4375-46f8-beb5-69be1c6e777d","system_id":"levelo_inurba_marseille","lat":43.309047,"lon":5.396551,"is_reserved":false,"is_disabled":false,"rental_uris":{"android":"levelo://app?vid=f85e35c9-4375-46f8-beb5-69be1c6e777d","ios":"levelo://app?vid=f85e35c9-4375-46f8-beb5-69be1c6e777d"},"vehicle_type_id":"4","last_reported":1714424815,"current_range_meters":10000,"station_id":"ce4bh012rcd13ifvqcv0","pricing_plan_id":"cebpf4jnsgd1na2vs0mg"},{"bike_id":"d42806df-12b9-439a-8799-274f687e56ba","system_id":"levelo_inurba_marseille","lat":43.309047,"lon":5.396551,"is_reserved":false,"is_disabled":false,"rental_uris":{"android":"levelo://app?vid=d42806df-12b9-439a-8799-274f687e56ba","ios":"levelo://app?vid=d42806df-12b9-439a-8799-274f687e56ba"},"vehicle_type_id":"4","last_reported":1714424815,"current_range_meters":13600,"station_id":"ce4bh012rcd13ifvqcv0","pricing_plan_id":"cebpf4jnsgd1na2vs0mg"},{"bike_id":"d3f92643-5f91-40b6-a9d7-4e75107133b3","system_id":"levelo_inurba_marseille","lat":43.309038,"lon":5.396546,"is_reserved":false,"is_disabled":false,"rental_uris":{"android":"levelo://app?vid=d3f92643-5f91-40b6-a9d7-4e75107133b3","ios":"levelo://app?vid=d3f92643-5f91-40b6-a9d7-4e75107133b3"},"vehicle_type_id":"4","last_reported":1714424815,"current_range_meters":400,"station_id":"ce4bh012rcd13ifvqcv0","pricing_plan_id":"cebpf4jnsgd1na2vs0mg"},{"bike_id":"1269e48e-72e2-4591-9fd4-fbba43438a87","system_id":"levelo_inurba_marseille","lat":43.309038,"lon":5.396546,"is_reserved":false,"is_disabled":false,"rental_uris":{"android":"levelo://app?vid=1269e48e-72e2-4591-9fd4-fbba43438a87","ios":"levelo://app?vid=1269e48e-72e2-4591-9fd4-fbba43438a87"},"vehicle_type_id":"4","last_reported":1714424815,"current_range_meters":0,"station_id":"ce4bh012rcd13ifvqcv0","pricing_plan_id":"cebpf4jnsgd1na2vs0mg"},{"bike_id":"ebf1cb2b-71aa-4c3c-9daf-9ae15c6ac9cb","system_id":"levelo_inurba_marseille","lat":43.29529,"lon":5.385581,"is_reserved":false,"is_disabled":false,"rental_uris":{"android":"levelo://app?vid=ebf1cb2b-71aa-4c3c-9daf-9ae15c6ac9cb","ios":"levelo://app?vid=ebf1cb2b-71aa-4c3c-9daf-9ae15c6ac9cb"},"vehicle_type_id":"4","last_reported":1714424815,"current_range_meters":8800,"station_id":"ce4bgih2rcd13ifvqba0","pricing_plan_id":"cebpf4jnsgd1na2vs0mg"},{"bike_id":"515246b9-3865-4bbb-9771-92febcffcc57","system_id":"levelo_inurba_marseille","lat":43.29529,"lon":5.385581,"is_reserved":false,"is_disabled":false,"rental_uris":{"android":"levelo://app?vid=515246b9-3865-4bbb-9771-92febcffcc57","ios":"levelo://app?vid=515246b9-3865-4bbb-9771-92febcffcc57"},"vehicle_type_id":"4","last_reported":1714424815,"current_range_meters":28000,"station_id":"ce4bgih2rcd13ifvqba0","pricing_plan_id":"cebpf4jnsgd1na2vs0mg"},{"bike_id":"e55c28eb-7c0e-4823-a812-1d6ea8e58397","system_id":"levelo_inurba_marseille","lat":43.309047,"lon":5.396551,"is_reserved":false,"is_disabled":false,"rental_uris":{"android":"levelo://app?vid=e55c28eb-7c0e-4823-a812-1d6ea8e58397","ios":"levelo://app?vid=e55c28eb-7c0e-4823-a812-1d6ea8e58397"},"vehicle_type_id":"4","last_reported":1714424815,"current_range_meters":14800,"station_id":"ce4bh012rcd13ifvqcv0","pricing_plan_id":"cebpf4jnsgd1na2vs0mg"},{"bike_id":"e8b744ba-f73d-45a0-bc09-b035b387f0d0","system_id":"levelo_inurba_marseille","lat":43.29529,"lon":5.385581,"is_reserved":false,"is_disabled":false,"rental_uris":{"android":"levelo://app?vid=e8b744ba-f73d-45a0-bc09-b035b387f0d0","ios":"levelo://app?vid=e8b744ba-f73d-45a0-bc09-b035b387f0d0"},"vehicle_type_id":"4","last_reported":1714424815,"current_range_meters":12000,"station_id":"ce4bgih2rcd13ifvqba0","pricing_plan_id":"cebpf4jnsgd1na2vs0mg"},{"bike_id":"30b235e8-6443-4e5d-86f0-6b08aff3f0a3","system_id":"levelo_inurba_marseille","lat":43.29529,"lon":5.385581,"is_reserved":false,"is_disabled":false,"rental_uris":{"android":"levelo://app?vid=30b235e8-6443-4e5d-86f0-6b08aff3f0a3","ios":"levelo://app?vid=30b235e8-6443-4e5d-86f0-6b08aff3f0a3"},"vehicle_type_id":"4","last_reported":1714424815,"current_range_meters":24400,"station_id":"ce4bgih2rcd13ifvqba0","pricing_plan_id":"cebpf4jnsgd1na2vs0mg"},{"bike_id":"520f585c-3a07-44fb-b937-80fb2c2fdfa6","system_id":"levelo_inurba_marseille","lat":43.309038,"lon":5.396546,"is_reserved":false,"is_disabled":false,"rental_uris":{"android":"levelo://app?vid=520f585c-3a07-44fb-b937-80fb2c2fdfa6","ios":"levelo://app?vid=520f585c-3a07-44fb-b937-80fb2c2fdfa6"},"vehicle_type_id":"4","last_reported":1714424815,"current_range_meters":16000,"station_id":"ce4bh012rcd13ifvqcv0","pricing_plan_id":"cebpf4jnsgd1na2vs0mg"},{"bike_id":"0ba399a7-acb9-46a5-b828-7d61dad25319","system_id":"levelo_inurba_marseille","lat":43.29529,"lon":5.385581,"is_reserved":false,"is_disabled":false,"rental_uris":{"android":"levelo://app?vid=0ba399a7-acb9-46a5-b828-7d61dad25319","ios":"levelo://app?vid=0ba399a7-acb9-46a5-b828-7d61dad25319"},"vehicle_type_id":"4","last_reported":1714424815,"current_range_meters":6000,"station_id":"ce4bgih2rcd13ifvqba0","pricing_plan_id":"cebpf4jnsgd1na2vs0mg"},{"bike_id":"40c3ca83-a07b-4b02-9272-f70178a7dd4c","system_id":"levelo_inurba_marseille","lat":43.29529,"lon":5.385581,"is_reserved":false,"is_disabled":false,"rental_uris":{"android":"levelo://app?vid=40c3ca83-a07b-4b02-9272-f70178a7dd4c","ios":"levelo://app?vid=40c3ca83-a07b-4b02-9272-f70178a7dd4c"},"vehicle_type_id":"4","last_reported":1714424815,"current_range_meters":28400,"station_id":"ce4bgih2rcd13ifvqba0","pricing_plan_id":"cebpf4jnsgd1na2vs0mg"},{"bike_id":"61f0990e-b266-430e-a5d6-d5df1028def8","system_id":"levelo_inurba_marseille","lat":43.29529,"lon":5.385581,"is_reserved":false,"is_disabled":false,"rental_uris":{"android":"levelo://app?vid=61f0990e-b266-430e-a5d6-d5df1028def8","ios":"levelo://app?vid=61f0990e-b266-430e-a5d6-d5df1028def8"},"vehicle_type_id":"4","last_reported":1714424815,"current_range_meters":4000,"station_id":"ce4bgih2rcd13ifvqba0","pricing_plan_id":"cebpf4jnsgd1na2vs0mg"},{"bike_id":"5551551b-a26b-4d06-b906-f5dfa7c7aa6c","system_id":"levelo_inurba_marseille","lat":43.295332,"lon":5.385458,"is_reserved":false,"is_disabled":false,"rental_uris":{"android":"levelo://app?vid=5551551b-a26b-4d06-b906-f5dfa7c7aa6c","ios":"levelo://app?vid=5551551b-a26b-4d06-b906-f5dfa7c7aa6c"},"vehicle_type_id":"4","last_reported":1714424815,"current_range_meters":20000,"station_id":"ce4bgih2rcd13ifvqba0","pricing_plan_id":"cebpf4jnsgd1na2vs0mg"},{"bike_id":"87f8db0c-7730-4d55-a541-a4bbe79113c6","system_id":"levelo_inurba_marseille","lat":43.29532,"lon":5.38545,"is_reserved":false,"is_disabled":false,"rental_uris":{"android":"levelo://app?vid=87f8db0c-7730-4d55-a541-a4bbe79113c6","ios":"levelo://app?vid=87f8db0c-7730-4d55-a541-a4bbe79113c6"},"vehicle_type_id":"4","last_reported":1714424815,"current_range_meters":6400,"station_id":"ce4bgih2rcd13ifvqba0","pricing_plan_id":"cebpf4jnsgd1na2vs0mg"},{"bike_id":"2ba430de-a3d3-4163-b2e3-6f80e8976de5","system_id":"levelo_inurba_marseille","lat":43.29529,"lon":5.385581,"is_reserved":false,"is_disabled":false,"rental_uris":{"android":"levelo://app?vid=2ba430de-a3d3-4163-b2e3-6f80e8976de5","ios":"levelo://app?vid=2ba430de-a3d3-4163-b2e3-6f80e8976de5"},"vehicle_type_id":"4","last_reported":1714424815,"current_range_meters":21200,"station_id":"ce4bgih2rcd13ifvqba0","pricing_plan_id":"cebpf4jnsgd1na2vs0mg"},{"bike_id":"a319dac1-70bb-470f-9ed7-8c89eb92d4b8","system_id":"levelo_inurba_marseille","lat":43.29529,"lon":5.385581,"is_reserved":false,"is_disabled":false,"rental_uris":{"android":"levelo://app?vid=a319dac1-70bb-470f-9ed7-8c89eb92d4b8","ios":"levelo://app?vid=a319dac1-70bb-470f-9ed7-8c89eb92d4b8"},"vehicle_type_id":"4","last_reported":1714424815,"current_range_meters":8400,"station_id":"ce4bgih2rcd13ifvqba0","pricing_plan_id":"cebpf4jnsgd1na2vs0mg"},