{"last_updated":1683489958,"ttl":30,"version":"2.2","data":{"bikes":[{"bike_id":"4c097f31-5083-4b65-a86f-3d773306fc8b","system_id":"levelo_inurba_marseille","lat":43.31341,"lon":5.367098,"is_reserved":false,"is_disabled":false,"rental_uris":{"android":"levelo://app?vid=4c097f31-5083-4b65-a86f-3d773306fc8b","ios":"levelo://app?vid=4c097f31-5083-4b65-a86f-3d773306fc8b"},"vehicle_type_id":"4","last_reported":1683489959,"current_range_meters":5200,"station_id":"ce4bgr92rcd13ifvqc6g","pricing_plan_id":"free"},{"bike_id":"af6c8942-46fe-487d-8d6d-2edf3b90de3e","system_id":"levelo_inurba_marseille","lat":43.31222,"lon":5.3685,"is_reserved":false,"is_disabled":false,"rental_uris":{"android":"levelo://app?vid=af6c8942-46fe-487d-8d6d-2edf3b90de3e","ios":"levelo://app?vid=af6c8942-46fe-487d-8d6d-2edf3b90de3e"},"vehicle_type_id":"4","last_reported":1683489959,"current_range_meters":16800,"station_id":"ce4bgl92rcd13ifvqbq0","pricing_plan_id":"free"},{"bike_id":"8aa85423-a46d-4687-a599-a34064f2a40b","system_id":"levelo_inurba_marseille","lat":43.31214,"lon":5.36848,"is_reserved":false,"is_disabled":false,"rental_uris":{"android":"levelo://app?vid=8aa85423-a46d-4687-a599-a34064f2a40b","ios":"levelo://app?vid=8aa85423-a46d-4687-a599-a34064f2a40b"},"vehicle_type_id":"4","last_reported":1683489959,"current_range_meters":9600,"station_id":"ce4bgl92rcd13ifvqbq0","pricing_plan_id":"free"},{"bike_id":"6a9f3494-496e-4c12-b1b8-22afe806d537","system_id":"levelo_inurba_marseille","lat":43.31218,"lon":5.36852,"is_reserved":false,"is_disabled":false,"rental_uris":{"android":"levelo://app?vid=6a9f3494-496e-4c12-b1b8-22afe806d537","ios":"levelo://app?vid=6a9f3494-496e-4c12-b1b8-22afe806d537"},"vehicle_type_id":"4","last_reported":1683489959,"current_range_meters":0,"station_id":"ce4bgl92rcd13ifvqbq0","pricing_plan_id":"free"},{"bike_id":"3acc5c25-ab48-4d0c-b41e-165b1ec4d97e","system_id":"levelo_inurba_marseille","lat":43.309076,"lon":5.368465,"is_reserved":false,"is_disabled":false,"rental_uris":{"android":"levelo://app?vid=3acc5c25-ab48-4d0c-b41e-165b1ec4d97e","ios":"levelo://app?vid=3acc5c25-ab48-4d0c-b41e-165b1ec4d97e"},"vehicle_type_id":"4","last_reported":1683489959,"current_range_meters":23600,"station_id":"ce4bgn92rcd13ifvqbvg","pricing_plan_id":"free"},{"bike_id":"9b2f42b3-a9c4-470b-92a6-1bfcb2134f65","system_id":"levelo_inurba_marseille","lat":43.309076,"lon":5.368465,"is_reserved":false,"is_disabled":false,"rental_uris":{"android":"levelo://app?vid=9b2f42b3-a9c4-470b-92a6-1bfcb2134f65","ios":"levelo://app?vid=9b2f42b3-a9c4-470b-92a6-1bfcb2134f65"},"vehicle_type_id":"4","last_reported":1683489959,"current_range_meters":6800,"station_id":"ce4bgn92rcd13ifvqbvg","pricing_plan_id":"free"},{"bike_id":"abca54b5-a432-4a08-9641-be40d8713725","system_id":"levelo_inurba_marseille","lat":43.314811,"lon":5.373103,"is_reserved":false,"is_disabled":false,"rental_uris":{"android":"levelo://app?vid=abca54b5-a432-4a08-9641-be40d8713725","ios":"levelo://app?vid=abca54b5-a432-4a08-9641-be40d8713725"},"vehicle_type_id":"4","last_reported":1683489959,"current_range_meters":13200,"station_id":"ce4bgt12rcd13ifvqcd0","pricing_plan_id":"free"},{"bike_id":"ef445b58-6933-49ec-9ab2-3a555d9b2f6c","system_id":"levelo_inurba_marseille","lat":43.31501,"lon":5.37306,"is_reserved":false,"is_disabled":false,"rental_uris":{"android":"levelo://app?vid=ef445b58-6933-49ec-9ab2-3a555d9b2f6c","ios":"levelo://app?vid=ef445b58-6933-49ec-9ab2-3a555d9b2f6c"},"vehicle_type_id":"4","last_reported":1683489959,"current_range_meters":5600,"station_id":"ce4bgt12rcd13ifvqcd0","pricing_plan_id":"free"},{"bike_id":"47a32e1d-be92-4d60-881f-ff4dc7a1e1ca","system_id":"levelo_inurba_marseille","lat":43.308614,"lon":5.372098,"is_reserved":false,"is_disabled":false,"rental_uris":{"android":"levelo://app?vid=47a32e1d-be92-4d60-881f-ff4dc7a1e1ca","ios":"levelo://app?vid=47a32e1d-be92-4d60-881f-ff4dc7a1e1ca"},"vehicle_type_id":"4","last_reported":1683489959,"current_range_meters":7200,"station_id":"ce4bguh2rcd13ifvqckg","pricing_plan_id":"free"},{"bike_id":"256d6175-c5de-4cc3-9a74-adafc5ce4864","system_id":"levelo_inurba_marseille","lat":43.308614,"lon":5.372098,"is_reserved":false,"is_disabled":false,"rental_uris":{"android":"levelo://app?vid=256d6175-c5de-4cc3-9a74-adafc5ce4864","ios":"levelo://app?vid=256d6175-c5de-4cc3-9a74-adafc5ce4864"},"vehicle_type_id":"4","last_reported":1683489959,"current_range_meters":6800,"station_id":"ce4bguh2rcd13ifvqckg","pricing_plan_id":"free"},{"bike_id":"bdd949b2-b629-4741-ade2-76a21ff02c7e","system_id":"levelo_inurba_marseille","lat":43.308614,"lon":5.372098,"is_reserved":false,"is_disabled":false,"rental_uris":{"android":"levelo://app?vid=bdd949b2-b629-4741-ade2-76a21ff02c7e","ios":"levelo://app?vid=bdd949b2-b629-4741-ade2-76a21ff02c7e"},"vehicle_type_id":"4","last_reported":1683489959,"current_range_meters":400,"station_id":"ce4bguh2rcd13ifvqckg","pricing_plan_id":"free"},{"bike_id":"f9039ce8-38ed-45ff-91ac-21a2617a77c5","system_id":"levelo_inurba_marseille","lat":43.308614,"lon":5.372098,"is_reserved":false,"is_disabled":false,"rental_uris":{"android":"levelo://app?vid=f9039ce8-38ed-45ff-91ac-21a2617a77c5","ios":"levelo://app?vid=f9039ce8-38ed-45ff-91ac-21a2617a77c5"},"vehicle_type_id":"4","last_reported":1683489959,"current_range_meters":18000,"station_id":"ce4bguh2rcd13ifvqckg","pricing_plan_id":"free"},{"bike_id":"87d8dbe1-6224-41a4-9c2b-fdce80e96d72","system_id":"levelo_inurba_marseille","lat":43.30537,"lon":5.367345,"is_reserved":false,"is_disabled":false,"rental_uris":{"android":"levelo://app?vid=87d8dbe1-6224-41a4-9c2b-fdce80e96d72","ios":"levelo://app?vid=87d8dbe1-6224-41a4-9c2b-fdce80e96d72"},"vehicle_type_id":"4","last_reported":1683489959,"current_range_meters":6400,"station_id":"ce4bgrp2rcd13ifvqc9g","pricing_plan_id":"free"},{"bike_id":"79b8f863-6af1-4fe7-b2d1-ae5a37eccf7e","system_id":"levelo_inurba_marseille","lat":43.30537,"lon":5.367345,"is_reserved":false,"is_disabled":false,"rental_uris":{"android":"levelo://app?vid=79b8f863-6af1-4fe7-b2d1-ae5a37eccf7e","ios":"levelo://app?vid=79b8f863-6af1-4fe7-b2d1-ae5a37eccf7e"},"vehicle_type_id":"4","last_reported":1683489959,"current_range_meters":1600,"station_id":"ce4bgrp2rcd13ifvqc9g","pricing_plan_id":"free"},{"bike_id":"8d5069ab-8781-41e4-b404-3a9dbc858d64","system_id":"levelo_inurba_marseille","lat":43.306779,"lon":5.372854,"is_reserved":false,"is_disabled":false,"rental_uris":{"android":"levelo://app?vid=8d5069ab-8781-41e4-b404-3a9dbc858d64","ios":"levelo://app?vid=8d5069ab-8781-41e4-b404-3a9dbc858d64"},"vehicle_type_id":"4","last_reported":1683489959,"current_range_meters":17600,"station_id":"ce4bgqh2rcd13ifvqc4g","pricing_plan_id":"free"},{"bike_id":"86c34764-fcdd-4efd-8568-4a33ec9aa0ae","system_id":"levelo_inurba_marseille","lat":43.30546,"lon":5.36538,"is_reserved":false,"is_disabled":false,"rental_uris":{"android":"levelo://app?vid=86c34764-fcdd-4efd-8568-4a33ec9aa0ae","ios":"levelo://app?vid=86c34764-fcdd-4efd-8568-4a33ec9aa0ae"},"vehicle_type_id":"4","last_reported":1683489959,"current_range_meters":4400,"station_id":"","pricing_plan_id":"free"},{"bike_id":"4759c1d8-81e4-4044-ae73-382ce7ba4595","system_id":"levelo_inurba_marseille","lat":43.3054,"lon":5.36543,"is_reserved":false,"is_disabled":false,"rental_uris":{"android":"levelo://app?vid=4759c1d8-81e4-4044-ae73-382ce7ba4595","ios":"levelo://app?vid=4759c1d8-81e4-4044-ae73-382ce7ba4595"},"vehicle_type_id":"4","last_reported":1683489959,"current_range_meters":2000,"station_id":"","pricing_plan_id":"free"},{"bike_id":"800192b1-55f0-46cd-bef1-3595e8ccbd27","system_id":"levelo_inurba_marseille","lat":43.305989,"lon":5.37225,"is_reserved":false,"is_disabled":false,"rental_uris":{"android":"levelo://app?vid=800192b1-55f0-46cd-bef1-3595e8ccbd27","ios":"levelo://app?vid=800192b1-55f0-46cd-bef1-3595e8ccbd27"},"vehicle_type_id":"4","last_reported":1683489959,"current_range_meters":13200,"station_id":"ce4bgqh2rcd13ifvqc4g","pricing_plan_id":"free"},{"bike_id":"4555c6d4-3453-4499-ab88-2bfa37b59c9f","system_id":"levelo_inurba_marseille","lat":43.30602,"lon":5.37227,"is_reserved":false,"is_disabled":false,"rental_uris":{"android":"levelo://app?vid=4555c6d4-3453-4499-ab88-2bfa37b59c9f","ios":"levelo://app?vid=4555c6d4-3453-4499-ab88-2bfa37b59c9f"},"vehicle_type_id":"4","last_reported":1683489959,"current_range_meters":16800,"station_id":"ce4bgqh2rcd13ifvqc4g","pricing_plan_id":"free"},{"bike_id":"f03097d6-d8ee-4caf-b7d6-a60bdd14508a","system_id":"levelo_inurba_marseille","lat":43.305989,"lon":5.37225,"is_reserved":false,"is_disabled":false,"rental_uris":{"android":"levelo://app?vid=f03097d6-d8ee-4caf-b7d6-a60bdd14508a","ios":"levelo://app?vid=f03097d6-d8ee-4caf-b7d6-a60bdd14508a"},"vehicle_type_id":"4","last_reported":1683489959,"current_range_meters":3200,"station_id":"ce4bgqh2rcd13ifvqc4g","pricing_plan_id":"free"},{"bike_id":"a638b4bd-0a1f-47ed-830f-96cdbf7c1fb6","system_id":"levelo_inurba_marseille","lat":43.303046,"lon":5.368981,"is_reserved":false,"is_disabled":false,"rental_uris":{"android":"levelo://app?vid=a638b4bd-0a1f-47ed-830f-96cdbf7c1fb6","ios":"levelo://app?vid=a638b4bd-0a1f-47ed-830f-96cdbf7c1fb6"},"vehicle_type_id":"4","last_reported":1683489959,"current_range_meters":1600,"station_id":"ce4bgqh2rcd13ifvqc5g","pricing_plan_id":"free"},{"bike_id":"243d58c6-677a-4ef5-ac10-1ca5621449fc","system_id":"levelo_inurba_marseille","lat":43.3031,"lon":5.36445,"is_reserved":false,"is_disabled":false,"rental_uris":{"android":"levelo://app?vid=243d58c6-677a-4ef5-ac10-1ca5621449fc","ios":"levelo://app?vid=243d58c6-677a-4ef5-ac10-1ca5621449fc"},"vehicle_type_id":"4","last_reported":1683489959,"current_range_meters":12800,"station_id":"","pricing_plan_id":"free"},{"bike_id":"6fdf30ad-6858-41a6-9832-cb6abbb902f2","system_id":"levelo_inurba_marseille","lat":43.303046,"lon":5.368981,"is_reserved":false,"is_disabled":false,"rental_uris":{"android":"levelo://app?vid=6fdf30ad-6858-41a6-9832-cb6abbb902f2","ios":"levelo://app?vid=6fdf30ad-6858-41a6-9832-cb6abbb902f2"},"vehicle_type_id":"4","last_reported":1683489959,"current_range_meters":18800,"station_id":"ce4bgqh2rcd13ifvqc5g","pricing_plan_id":"free"},{"bike_id":"d1454e37-3bb5-4c4e-939d-c0394966b794","system_id":"levelo_inurba_marseille","lat":43.315289,"lon":5.380349,"is_reserved":false,"is_disabled":false,"rental_uris":{"android":"levelo://app?vid=d1454e37-3bb5-4c4e-939d-c0394966b794","ios":"levelo://app?vid=d1454e37-3bb5-4c4e-939d-c0394966b794"},"vehicle_type_id":"4","last_reported":1683489959,"current_range_meters":14800,"station_id":"ce4bhsp2rcd13ifvqi50","pricing_plan_id":"free"},{"bike_id":"239cbb49-3cb1-4a38-a972-cc1c53760fa7","system_id":"levelo_inurba_marseille","lat":43.301939,"lon":5.366286,"is_reserved":false,"is_disabled":false,"rental_uris":{"android":"levelo://app?vid=239cbb49-3cb1-4a38-a972-cc1c53760fa7","ios":"levelo://app?vid=239cbb49-3cb1-4a38-a972-cc1c53760fa7"},"vehicle_type_id":"4","last_reported":1683489959,"current_range_meters":6400,"station_id":"ce4bgrh2rcd13ifvqc8g","pricing_plan_id":"free"},{"bike_id":"6f00d109-ad0a-420d-90c4-ded7517dc241","system_id":"levelo_inurba_marseille","lat":43.301939,"lon":5.366286,"is_reserved":false,"is_disabled":false,"rental_uris":{"android":"levelo://app?vid=6f00d109-ad0a-420d-90c4-ded7517dc241","ios":"levelo://app?vid=6f00d109-ad0a-420d-90c4-ded7517dc241"},"vehicle_type_id":"4","last_reported":1683489959,"current_range_meters":19600,"station_id":"ce4bgrh2rcd13ifvqc8g","pricing_plan_id":"free"},{"bike_id":"035a2b0a-a8a2-4479-8d2e-5d9516213b51","system_id":"levelo_inurba_marseille","lat":43.31603,"lon":5.38171,"is_reserved":false,"is_disabled":false,"rental_uris":{"android":"levelo://app?vid=035a2b0a-a8a2-4479-8d2e-5d9516213b51","ios":"levelo://app?vid=035a2b0a-a8a2-4479-8d2e-5d9516213b51"},"vehicle_type_id":"4","last_reported":1683489959,"current_range_meters":8800,"station_id":"","pricing_plan_id":"free"},{"bike_id":"4042aa75-f06b-4be5-b10b-b6d55f297396","system_id":"levelo_inurba_marseille","lat":43.308012,"lon":5.381511,"is_reserved":false,"is_disabled":false,"rental_uris":{"android":"levelo://app?vid=4042aa75-f06b-4be5-b10b-b6d55f297396","ios":"levelo://app?vid=4042aa75-f06b-4be5-b10b-b6d55f297396"},"vehicle_type_id":"4","last_reported":1683489959,"current_range_meters":6800,"station_id":"ce4bgt12rcd13ifvqce0","pricing_plan_id":"free"},{"bike_id":"39f93e5d-c871-4a40-b789-d6448cb27898","system_id":"levelo_inurba_marseille","lat":43.30143,"lon":5.37413,"is_reserved":false,"is_disabled":false,"rental_uris":{"android":"levelo://app?vid=39f93e5d-c871-4a40-b789-d6448cb27898","ios":"levelo://app?vid=39f93e5d-c871-4a40-b789-d6448cb27898"},"vehicle_type_id":"4","last_reported":1683489959,"current_range_meters":0,"station_id":"ce4bgs92rcd13ifvqcc0","pricing_plan_id":"free"},{"bike_id":"12ab1eea-e1eb-45aa-b908-8a1e07e3a64d","system_id":"levelo_inurba_marseille","lat":43.308012,"lon":5.381511,"is_reserved":false,"is_disabled":false,"rental_uris":{"android":"levelo://app?vid=12ab1eea-e1eb-45aa-b908-8a1e07e3a64d","ios":"levelo://app?vid=12ab1eea-e1eb-45aa-b908-8a1e07e3a64d"},"vehicle_type_id":"4","last_reported":1683489959,"current_range_meters":9200,"station_id":"ce4bgt12rcd13ifvqce0","pricing_plan_id":"free"},{"bike_id":"d116f32b-b35f-46fd-a167-6c76d7cb75a3","system_id":"levelo_inurba_marseille","lat":43.30461,"lon":5.37905,"is_reserved":false,"is_disabled":false,"rental_uris":{"android":"levelo://app?vid=d116f32b-b35f-46fd-a167-6c76d7cb75a3","ios":"levelo://app?vid=d116f32b-b35f-46fd-a167-6c76d7cb75a3"},"vehicle_type_id":"4","last_reported":1683489959,"current_range_meters":6400,"station_id":"ce4bgup2rcd13ifvqcn0","pricing_plan_id":"free"},{"bike_id":"5fc57ee1-1fca-4810-9c65-d5397bc22fb7","system_id":"levelo_inurba_marseille","lat":43.30143,"lon":5.37413,"is_reserved":false,"is_disabled":false,"rental_uris":{"android":"levelo://app?vid=5fc57ee1-1fca-4810-9c65-d5397bc22fb7","ios":"levelo://app?vid=5fc57ee1-1fca-4810-9c65-d5397bc22fb7"},"vehicle_type_id":"4","last_reported":1683489959,"current_range_meters":4000,"station_id":"ce4bgs92rcd13ifvqcc0","pricing_plan_id":"free"},{"bike_id":"c78dba0f-e573-4da9-9ddf-cfe014106a65","system_id":"levelo_inurba_marseille","lat":43.313571,"lon":5.384829,"is_reserved":false,"is_disabled":false,"rental_uris":{"android":"levelo://app?vid=c78dba0f-e573-4da9-9ddf-cfe014106a65","ios":"levelo://app?vid=c78dba0f-e573-4da9-9ddf-cfe014106a65"},"vehicle_type_id":"4","last_reported":1683489959,"current_range_meters":8400,"station_id":"ce4bgt92rcd13ifvqcf0","pricing_plan_id":"free"},{"bike_id":"274adced-8962-4e60-b3b5-ca9001d8c715","system_id":"levelo_inurba_marseille","lat":43.29943,"lon":5.36535,"is_reserved":false,"is_disabled":false,"rental_uris":{"android":"levelo://app?vid=274adced-8962-4e60-b3b5-ca9001d8c715","ios":"levelo://app?vid=274adced-8962-4e60-b3b5-ca9001d8c715"},"vehicle_type_id":"4","last_reported":1683489959,"current_range_meters":4400,"station_id":"","pricing_plan_id":"free"},{"bike_id":"54fa2f48-d5ea-4428-aacf-d56b8b6e7ec5","system_id":"levelo_inurba_marseille","lat":43.299222,"lon":5.365554,"is_reserved":false,"is_disabled":false,"rental_uris":{"android":"levelo://app?vid=54fa2f48-d5ea-4428-aacf-d56b8b6e7ec5","ios":"levelo://app?vid=54fa2f48-d5ea-4428-aacf-d56b8b6e7ec5"},"vehicle_type_id":"4","last_reported":1683489959,"current_range_meters":12000,"station_id":"ce4bgm92rcd13ifvqbr0","pricing_plan_id":"free"},{"bike_id":"6f88a1d8-9f44-4802-b70e-ae60589b82fe","system_id":"levelo_inurba_marseille","lat":43.29938,"lon":5.36529,"is_reserved":false,"is_disabled":false,"rental_uris":{"android":"levelo://app?vid=6f88a1d8-9f44-4802-b70e-ae60589b82fe","ios":"levelo://app?vid=6f88a1d8-9f44-4802-b70e-ae60589b82fe"},"vehicle_type_id":"4","last_reported":1683489959,"current_range_meters":12000,"station_id":"","pricing_plan_id":"free"},{"bike_id":"e67e733c-6b53-4c7c-8dea-0693ac61a34c","system_id":"levelo_inurba_marseille","lat":43.32634,"lon":5.3611,"is_reserved":false,"is_disabled":false,"rental_uris":{"android":"levelo://app?vid=e67e733c-6b53-4c7c-8dea-0693ac61a34c","ios":"levelo://app?vid=e67e733c-6b53-4c7c-8dea-0693ac61a34c"},"vehicle_type_id":"4","last_reported":1683489959,"current_range_meters":13200,"station_id":"","pricing_plan_id":"free"},{"bike_id":"aeb489d1-0e0a-4225-a92e-ee270865ae75","system_id":"levelo_inurba_marseille","lat":43.298433,"lon":5.362774,"is_reserved":false,"is_disabled":false,"rental_uris":{"android":"levelo://app?vid=aeb489d1-0e0a-4225-a92e-ee270865ae75","ios":"levelo://app?vid=aeb489d1-0e0a-4225-a92e-ee270865ae75"},"vehicle_type_id":"4","last_reported":1683489959,"current_range_meters":4000,"station_id":"ce4bgpp2rcd13ifvqc3g","pricing_plan_id":"free"},{"bike_id":"0f04956e-b1a3-4939-9d2a-0a724708359f","system_id":"levelo_inurba_marseille","lat":43.298433,"lon":5.362774,"is_reserved":false,"is_disabled":false,"rental_uris":{"android":"levelo://app?vid=0f04956e-b1a3-4939-9d2a-0a724708359f","ios":"levelo://app?vid=0f04956e-b1a3-4939-9d2a-0a724708359f"},"vehicle_type_id":"4","last_reported":1683489959,"current_range_meters":2400,"station_id":"ce4bgpp2rcd13ifvqc3g","pricing_plan_id":"free"},{"bike_id":"0f25d1ce-0962-402c-9705-9786d8788ea2","system_id":"levelo_inurba_marseille","lat":43.299243,"lon":5.374807,"is_reserved":false,"is_disabled":false,"rental_uris":{"android":"levelo://app?vid=0f25d1ce-0962-402c-9705-9786d8788ea2","ios":"levelo://app?vid=0f25d1ce-0962-402c-9705-9786d8788ea2"},"vehicle_type_id":"4","last_reported":1683489959,"current_range_meters":15600,"station_id":"ce4bgjh2rcd13ifvqbg0","pricing_plan_id":"free"},{"bike_id":"91afb78a-6ed0-42be-bfc2-f129d09d3710","system_id":"levelo_inurba_marseille","lat":43.299243,"lon":5.374807,"is_reserved":false,"is_disabled":false,"rental_uris":{"android":"levelo://app?vid=91afb78a-6ed0-42be-bfc2-f129d09d3710","ios":"levelo://app?vid=91afb78a-6ed0-42be-bfc2-f129d09d3710"},"vehicle_type_id":"4","last_reported":1683489959,"current_range_meters":3200,"station_id":"ce4bgjh2rcd13ifvqbg0","pricing_plan_id":"free"},{"bike_id":"ff019153-92c1-4797-9369-2a0e95560a4f","system_id":"levelo_inurba_marseille","lat":43.299243,"lon":5.374807,"is_reserved":false,"is_disabled":false,"rental_uris":{"android":"levelo://app?vid=ff019153-92c1-4797-9369-2a0e95560a4f","ios":"levelo://app?vid=ff019153-92c1-4797-9369-2a0e95560a4f"},"vehicle_type_id":"4","last_reported":1683489959,"current_range_meters":4800,"station_id":"ce4bgjh2rcd13ifvqbg0","pricing_plan_id":"free"},{"bike_id":"740044e5-4cbb-4e64-b274-0ddef35e9e20","system_id":"levelo_inurba_marseille","lat":43.297774,"lon":5.370875,"is_reserved":false,"is_disabled":false,"rental_uris":{"android":"levelo://app?vid=740044e5-4cbb-4e64-b274-0ddef35e9e20","ios":"levelo://app?vid=740044e5-4cbb-4e64-b274-0ddef35e9e20"},"vehicle_type_id":"4","last_reported":1683489959,"current_range_meters":27600,"station_id":"ce4bgop2rcd13ifvqc1g","pricing_plan_id":"free"},{"bike_id":"72c41b70-5428-4b78-97e8-4a24a3d75cf4","system_id":"levelo_inurba_marseille","lat":43.297774,"lon":5.370875,"is_reserved":false,"is_disabled":false,"rental_uris":{"android":"levelo://app?vid=72c41b70-5428-4b78-97e8-4a24a3d75cf4","ios":"levelo://app?vid=72c41b70-5428-4b78-97e8-4a24a3d75cf4"},"vehicle_type_id":"4","last_reported":1683489959,"current_range_meters":7200,"station_id":"ce4bgop2rcd13ifvqc1g","pricing_plan_id":"free"},{"bike_id":"0587b370-7544-4bde-b60b-543679afd900","system_id":"levelo_inurba_marseille","lat":43.297774,"lon":5.370875,"is_reserved":false,"is_disabled":false,"rental_uris":{"android":"levelo://app?vid=0587b370-7544-4bde-b60b-543679afd900","ios":"levelo://app?vid=0587b370-7544-4bde-b60b-543679afd900"},"vehicle_type_id":"4","last_reported":1683489959,"current_range_meters":0,"station_id":"ce4bgop2rcd13ifvqc1g","pricing_plan_id":"free"},{"bike_id":"266e61c0-0a48-4150-a155-2fb06e0e3dc3","system_id":"levelo_inurba_marseille","lat":43.297774,"lon":5.370875,"is_reserved":false,"is_disabled":false,"rental_uris":{"android":"levelo://app?vid=266e61c0-0a48-4150-a155-2fb06e0e3dc3","ios":"levelo://app?vid=266e61c0-0a48-4150-a155-2fb06e0e3dc3"},"vehicle_type_id":"4","last_reported":1683489959,"current_range_meters":1200,"station_id":"ce4bgop2rcd13ifvqc1g","pricing_plan_id":"free"},{"bike_id":"6e5c321a-9d29-465a-95ac-31651d0becce","system_id":"levelo_inurba_marseille","lat":43.29774,"lon":5.37097,"is_reserved":false,"is_disabled":false,"rental_uris":{"android":"levelo://app?vid=6e5c321a-9d29-465a-95ac-31651d0becce","ios":"levelo://app?vid=6e5c321a-9d29-465a-95ac-31651d0becce"},"vehicle_type_id":"4","last_reported":1683489959,"current_range_meters":4000,"station_id":"ce4bgop2rcd13ifvqc1g","pricing_plan_id":"free"},{"bike_id":"f91de8b4-023e-4799-a0a1-2e86398c6909","system_id":"levelo_inurba_marseille","lat":43.32829,"lon":5.36677,"is_reserved":false,"is_disabled":false,"rental_uris":{"android":"levelo://app?vid=f91de8b4-023e-4799-a0a1-2e86398c6909","ios":"levelo://app?vid=f91de8b4-023e-4799-a0a1-2e86398c6909"},"vehicle_type_id":"4","last_reported":1683489959,"current_range_meters":2000,"station_id":"ce4bhs92rcd13ifvqi0g","pricing_plan_id":"free"},{"bike_id":"a953bf6f-4ace-4a14-bd16-99968f988c3d","system_id":"levelo_inurba_marseille","lat":43.2962,"lon":5.37146,"is_reserved":false,"is_disabled":false,"rental_uris":{"android":"levelo://app?vid=a953bf6f-4ace-4a14-bd16-99968f988c3d","ios":"levelo://app?vid=a953bf6f-4ace-4a14-bd16-99968f988c3d"},"vehicle_type_id":"4","last_reported":1683489959,"current_range_meters":6400,"station_id":"","pricing_plan_id":"free"},{"bike_id":"ee60f37a-77f8-4738-81bd-ec794267e3e7","system_id":"levelo_inurba_marseille","lat":43.296131,"lon":5.370791,"is_reserved":false,"is_disabled":false,"rental_uris":{"android":"levelo://app?vid=ee60f37a-77f8-4738-81bd-ec794267e3e7","ios":"levelo://app?vid=ee60f37a-77f8-4738-81bd-ec794267e3e7"},"vehicle_type_id":"4","last_reported":1683489959,"current_range_meters":5200,"station_id":"ce4bgnh2rcd13ifvqc0g","pricing_plan_id":"free"},{"bike_id":"a09159a8-2daf-43ff-bebc-e0a339e45029","system_id":"levelo_inurba_marseille","lat":43.29573,"lon":5.367355,"is_reserved":false,"is_disabled":false,"rental_uris":{"android":"levelo://app?vid=a09159a8-2daf-43ff-bebc-e0a339e45029","ios":"levelo://app?vid=a09159a8-2daf-43ff-bebc-e0a339e45029"},"vehicle_type_id":"4","last_reported":1683489959,"current_range_meters":28000,"station_id":"ce4bgph2rcd13ifvqc2g","pricing_plan_id":"free"},{"bike_id":"27fab652-ca2b-4d3a-a4ed-654bedbae12b","system_id":"levelo_inurba_marseille","lat":43.29573,"lon":5.367355,"is_reserved":false,"is_disabled":false,"rental_uris":{"android":"levelo://app?vid=27fab652-ca2b-4d3a-a4ed-654bedbae12b","ios":"levelo://app?vid=27fab652-ca2b-4d3a-a4ed-654bedbae12b"},"vehicle_type_id":"4","last_reported":1683489959,"current_range_meters":14400,"station_id":"ce4bgph2rcd13ifvqc2g","pricing_plan_id":"free"},{"bike_id":"11fccf3d-05c4-4ab3-8c64-d152f12528b5","system_id":"levelo_inurba_marseille","lat":43.29578,"lon":5.36735,"is_reserved":false,"is_disabled":false,"rental_uris":{"android":"levelo://app?vid=11fccf3d-05c4-4ab3-8c64-d152f12528b5","ios":"levelo://app?vid=11fccf3d-05c4-4ab3-8c64-d152f12528b5"},"vehicle_type_id":"4","last_reported":1683489959,"current_range_meters":2000,"station_id":"","pricing_plan_id":"free"},{"bike_id":"65869f23-5272-42a4-93c7-c31b00b497a6","system_id":"levelo_inurba_marseille","lat":43.296935,"lon":5.376544,"is_reserved":false,"is_disabled":false,"rental_uris":{"android":"levelo://app?vid=65869f23-5272-42a4-93c7-c31b00b497a6","ios":"levelo://app?vid=65869f23-5272-42a4-93c7-c31b00b497a6"},"vehicle_type_id":"4","last_reported":1683489959,"current_range_meters":0,"station_id":"ce4bgkh2rcd13ifvqbl0","pricing_plan_id":"free"},{"bike_id":"4cefc41d-a422-44a2-bb17-b96d1640d019","system_id":"levelo_inurba_marseille","lat":43.296921,"lon":5.376579,"is_reserved":false,"is_disabled":false,"rental_uris":{"android":"levelo://app?vid=4cefc41d-a422-44a2-bb17-b96d1640d019","ios":"levelo://app?vid=4cefc41d-a422-44a2-bb17-b96d1640d019"},"vehicle_type_id":"4","last_reported":1683489959,"current_range_meters":1600,"station_id":"ce4bgkh2rcd13ifvqbl0","pricing_plan_id":"free"},{"bike_id":"48b9143f-0b03-4150-9413-d8703a417cd5","system_id":"levelo_inurba_marseille","lat":43.296921,"lon":5.376579,"is_reserved":false,"is_disabled":false,"rental_uris":{"android":"levelo://app?vid=48b9143f-0b03-4150-9413-d8703a417cd5","ios":"levelo://app?vid=48b9143f-0b03-4150-9413-d8703a417cd5"},"vehicle_type_id":"4","last_reported":1683489959,"current_range_meters":1200,"station_id":"ce4bgkh2rcd13ifvqbl0","pricing_plan_id":"free"},{"bike_id":"67e625dc-87a0-4a11-97d8-a6101438c9dc","system_id":"levelo_inurba_marseille","lat":43.309589,"lon":5.390258,"is_reserved":false,"is_disabled":false,"rental_uris":{"android":"levelo://app?vid=67e625dc-87a0-4a11-97d8-a6101438c9dc","ios":"levelo://app?vid=67e625dc-87a0-4a11-97d8-a6101438c9dc"},"vehicle_type_id":"4","last_reported":1683489959,"current_range_meters":0,"station_id":"ce4bgup2rcd13ifvqco0","pricing_plan_id":"free"},{"bike_id":"9751f5bc-473c-49dd-b889-1cc7871a1c56","system_id":"levelo_inurba_marseille","lat":43.296921,"lon":5.376579,"is_reserved":false,"is_disabled":false,"rental_uris":{"android":"levelo://app?vid=9751f5bc-473c-49dd-b889-1cc7871a1c56","ios":"levelo://app?vid=9751f5bc-473c-49dd-b889-1cc7871a1c56"},"vehicle_type_id":"4","last_reported":1683489959,"current_range_meters":6800,"station_id":"ce4bgkh2rcd13ifvqbl0","pricing_plan_id":"free"},{"bike_id":"0f1db50d-952d-4acf-bf81-4b7a3a746be2","system_id":"levelo_inurba_marseille","lat":43.309589,"lon":5.390258,"is_reserved":false,"is_disabled":false,"rental_uris":{"android":"levelo://app?vid=0f1db50d-952d-4acf-bf81-4b7a3a746be2","ios":"levelo://app?vid=0f1db50d-952d-4acf-bf81-4b7a3a746be2"},"vehicle_type_id":"4","last_reported":1683489959,"current_range_meters":12400,"station_id":"ce4bgup2rcd13ifvqco0","pricing_plan_id":"free"},{"bike_id":"57d43c73-2caf-4672-995c-eba6309c0021","system_id":"levelo_inurba_marseille","lat":43.309589,"lon":5.390258,"is_reserved":false,"is_disabled":false,"rental_uris":{"android":"levelo://app?vid=57d43c73-2caf-4672-995c-eba6309c0021","ios":"levelo://app?vid=57d43c73-2caf-4672-995c-eba6309c0021"},"vehicle_type_id":"4","last_reported":1683489959,"current_range_meters":16400,"station_id":"ce4bgup2rcd13ifvqco0","pricing_plan_id":"free"},{"bike_id":"f08733ad-a319-4372-a7a6-c6249a61033f","system_id":"levelo_inurba_marseille","lat":43.317557,"lon":5.390173,"is_reserved":false,"is_disabled":false,"rental_uris":{"android":"levelo://app?vid=f08733ad-a319-4372-a7a6-c6249a61033f","ios":"levelo://app?vid=f08733ad-a319-4372-a7a6-c6249a61033f"},"vehicle_type_id":"4","last_reported":1683489959,"current_range_meters":30800,"station_id":"ce4bhqp2rcd13ifvqhng","pricing_plan_id":"free"},{"bike_id":"b0c52d5c-3d33-41c1-a959-0d46f89d664f","system_id":"levelo_inurba_marseille","lat":43.298037,"lon":5.381066,"is_reserved":false,"is_disabled":false,"rental_uris":{"android":"levelo://app?vid=b0c52d5c-3d33-41c1-a959-0d46f89d664f","ios":"levelo://app?vid=b0c52d5c-3d33-41c1-a959-0d46f89d664f"},"vehicle_type_id":"4","last_reported":1683489959,"current_range_meters":16000,"station_id":"ce4bgip2rcd13ifvqbb0","pricing_plan_id":"free"},{"bike_id":"2ee15fbb-0300-4ae6-a263-ceaca8635c90","system_id":"levelo_inurba_marseille","lat":43.30079,"lon":5.38527,"is_reserved":false,"is_disabled":false,"rental_uris":{"android":"levelo://app?vid=2ee15fbb-0300-4ae6-a263-ceaca8635c90","ios":"levelo://app?vid=2ee15fbb-0300-4ae6-a263-ceaca8635c90"},"vehicle_type_id":"4","last_reported":1683489959,"current_range_meters":5600,"station_id":"","pricing_plan_id":"free"},{"bike_id":"62958c7b-fe64-40f6-b0a4-53a9431fe594","system_id":"levelo_inurba_marseille","lat":43.304278,"lon":5.388868,"is_reserved":false,"is_disabled":false,"rental_uris":{"android":"levelo://app?vid=62958c7b-fe64-40f6-b0a4-53a9431fe594","ios":"levelo://app?vid=62958c7b-fe64-40f6-b0a4-53a9431fe594"},"vehicle_type_id":"4","last_reported":1683489959,"current_range_meters":13600,"station_id":"ce4bgk12rcd13ifvqbi0","pricing_plan_id":"free"},{"bike_id":"ee1bcf6c-2f96-4a87-af6b-ce4127c815ff","system_id":"levelo_inurba_marseille","lat":43.304278,"lon":5.388868,"is_reserved":false,"is_disabled":false,"rental_uris":{"android":"levelo://app?vid=ee1bcf6c-2f96-4a87-af6b-ce4127c815ff","ios":"levelo://app?vid=ee1bcf6c-2f96-4a87-af6b-ce4127c815ff"},"vehicle_type_id":"4","last_reported":1683489959,"current_range_meters":5600,"station_id":"ce4bgk12rcd13ifvqbi0","pricing_plan_id":"free"},{"bike_id":"29578e00-27f9-4b59-a7a6-80ee24afabc2","system_id":"levelo_inurba_marseille","lat":43.304278,"lon":5.388868,"is_reserved":false,"is_disabled":false,"rental_uris":{"android":"levelo://app?vid=29578e00-27f9-4b59-a7a6-80ee24afabc2","ios":"levelo://app?vid=29578e00-27f9-4b59-a7a6-80ee24afabc2"},"vehicle_type_id":"4","last_reported":1683489959,"current_range_meters":3600,"station_id":"ce4bgk12rcd13ifvqbi0","pricing_plan_id":"free"},{"bike_id":"da833abe-bc6a-4260-96d4-6df3ae7b981d","system_id":"levelo_inurba_marseille","lat":43.304278,"lon":5.388868,"is_reserved":false,"is_disabled":false,"rental_uris":{"android":"levelo://app?vid=da833abe-bc6a-4260-96d4-6df3ae7b981d","ios":"levelo://app?vid=da833abe-bc6a-4260-96d4-6df3ae7b981d"},"vehicle_type_id":"4","last_reported":1683489959,"current_range_meters":4400,"station_id":"ce4bgk12rcd13ifvqbi0","pricing_plan_id":"free"},{"bike_id":"670dacbe-be9e-48b8-923f-8aa858910b29","system_id":"levelo_inurba_marseille","lat":43.304278,"lon":5.388868,"is_reserved":false,"is_disabled":false,"rental_uris":{"android":"levelo://app?vid=670dacbe-be9e-48b8-923f-8aa858910b29","ios":"levelo://app?vid=670dacbe-be9e-48b8-923f-8aa858910b29"},"vehicle_type_id":"4","last_reported":1683489959,"current_range_meters":17200,"station_id":"ce4bgk12rcd13ifvqbi0","pricing_plan_id":"free"},{"bike_id":"834148ea-f224-41b7-aa6c-9d24bae6943b","system_id":"levelo_inurba_marseille","lat":43.298037,"lon":5.381066,"is_reserved":false,"is_disabled":false,"rental_uris":{"android":"levelo://app?vid=834148ea-f224-41b7-aa6c-9d24bae6943b","ios":"levelo://app?vid=834148ea-f224-41b7-aa6c-9d24bae6943b"},"vehicle_type_id":"4","last_reported":1683489959,"current_range_meters":10400,"station_id":"ce4bgip2rcd13ifvqbb0","pricing_plan_id":"free"},{"bike_id":"0f3f23b7-adac-4dda-b989-8dae0db5c0a0","system_id":"levelo_inurba_marseille","lat":43.30431,"lon":5.3889,"is_reserved":false,"is_disabled":false,"rental_uris":{"android":"levelo://app?vid=0f3f23b7-adac-4dda-b989-8dae0db5c0a0","ios":"levelo://app?vid=0f3f23b7-adac-4dda-b989-8dae0db5c0a0"},"vehicle_type_id":"4","last_reported":1683489959,"current_range_meters":15600,"station_id":"ce4bgk12rcd13ifvqbi0","pricing_plan_id":"free"},{"bike_id":"41bd919f-09fb-43ba-ab28-3c7b6c630a05","system_id":"levelo_inurba_marseille","lat":43.296277,"lon":5.377108,"is_reserved":false,"is_disabled":false,"rental_uris":{"android":"levelo://app?vid=41bd919f-09fb-43ba-ab28-3c7b6c630a05","ios":"levelo://app?vid=41bd919f-09fb-43ba-ab28-3c7b6c630a05"},"vehicle_type_id":"4","last_reported":1683489959,"current_range_meters":24400,"station_id":"ce4bgi92rcd13ifvqb90","pricing_plan_id":"free"},{"bike_id":"f9fba3e2-95ea-4ed6-a839-74d69525af82","system_id":"levelo_inurba_marseille","lat":43.304278,"lon":5.388868,"is_reserved":false,"is_disabled":false,"rental_uris":{"android":"levelo://app?vid=f9fba3e2-95ea-4ed6-a839-74d69525af82","ios":"levelo://app?vid=f9fba3e2-95ea-4ed6-a839-74d69525af82"},"vehicle_type_id":"4","last_reported":1683489959,"current_range_meters":1200,"station_id":"ce4bgk12rcd13ifvqbi0","pricing_plan_id":"free"},{"bike_id":"e382faad-9213-40c0-a903-b25e74e07e9c","system_id":"levelo_inurba_marseille","lat":43.29577,"lon":5.37651,"is_reserved":false,"is_disabled":false,"rental_uris":{"android":"levelo://app?vid=e382faad-9213-40c0-a903-b25e74e07e9c","ios":"levelo://app?vid=e382faad-9213-40c0-a903-b25e74e07e9c"},"vehicle_type_id":"4","last_reported":1683489959,"current_range_meters":2000,"station_id":"","pricing_plan_id":"free"},{"bike_id":"7283f5a0-e968-4f50-a0de-7c719f45d444","system_id":"levelo_inurba_marseille","lat":43.299707,"lon":5.384859,"is_reserved":false,"is_disabled":false,"rental_uris":{"android":"levelo://app?vid=7283f5a0-e968-4f50-a0de-7c719f45d444","ios":"levelo://app?vid=7283f5a0-e968-4f50-a0de-7c719f45d444"},"vehicle_type_id":"4","last_reported":1683489959,"current_range_meters":2400,"station_id":"ce4bgj92rcd13ifvqbd0","pricing_plan_id":"free"},{"bike_id":"8cb35e39-5968-414e-baf7-621e9818e214","system_id":"levelo_inurba_marseille","lat":43.29966,"lon":5.38489,"is_reserved":false,"is_disabled":false,"rental_uris":{"android":"levelo://app?vid=8cb35e39-5968-414e-baf7-621e9818e214","ios":"levelo://app?vid=8cb35e39-5968-414e-baf7-621e9818e214"},"vehicle_type_id":"4","last_reported":1683489959,"current_range_meters":0,"station_id":"ce4bgj92rcd13ifvqbd0","pricing_plan_id":"free"},{"bike_id":"db226bd4-0916-4050-b748-f9337dfd59d9","system_id":"levelo_inurba_marseille","lat":43.29965,"lon":5.38491,"is_reserved":false,"is_disabled":false,"rental_uris":{"android":"levelo://app?vid=db226bd4-0916-4050-b748-f9337dfd59d9","ios":"levelo://app?vid=db226bd4-0916-4050-b748-f9337dfd59d9"},"vehicle_type_id":"4","last_reported":1683489959,"current_range_meters":400,"station_id":"ce4bgj92rcd13ifvqbd0","pricing_plan_id":"free"},{"bike_id":"56a09b3d-52dc-46fb-bb14-6b72344bcec2","system_id":"levelo_inurba_marseille","lat":43.299724,"lon":5.384848,"is_reserved":false,"is_disabled":false,"rental_uris":{"android":"levelo://app?vid=56a09b3d-52dc-46fb-bb14-6b72344bcec2","ios":"levelo://app?vid=56a09b3d-52dc-46fb-bb14-6b72344bcec2"},"vehicle_type_id":"4","last_reported":1683489959,"current_range_meters":3200,"station_id":"ce4bgj92rcd13ifvqbd0","pricing_plan_id":"free"},{"bike_id":"09aae745-81dd-4158-910c-5b7bb407f737","system_id":"levelo_inurba_marseille","lat":43.299724,"lon":5.384848,"is_reserved":false,"is_disabled":false,"rental_uris":{"android":"levelo://app?vid=09aae745-81dd-4158-910c-5b7bb407f737","ios":"levelo://app?vid=09aae745-81dd-4158-910c-5b7bb407f737"},"vehicle_type_id":"4","last_reported":1683489959,"current_range_meters":0,"station_id":"ce4bgj92rcd13ifvqbd0","pricing_plan_id":"free"},{"bike_id":"f0dcfd84-4222-444a-b26d-9f99a892695b","system_id":"levelo_inurba_marseille","lat":43.31457,"lon":5.39275,"is_reserved":false,"is_disabled":false,"rental_uris":{"android":"levelo://app?vid=f0dcfd84-4222-444a-b26d-9f99a892695b","ios":"levelo://app?vid=f0dcfd84-4222-444a-b26d-9f99a892695b"},"vehicle_type_id":"4","last_reported":1683489959,"current_range_meters":1200,"station_id":"","pricing_plan_id":"free"},{"bike_id":"f32bad76-905b-40ce-a041-55c40ff213ef","system_id":"levelo_inurba_marseille","lat":43.29602,"lon":5.381084,"is_reserved":false,"is_disabled":false,"rental_uris":{"android":"levelo://app?vid=f32bad76-905b-40ce-a041-55c40ff213ef","ios":"levelo://app?vid=f32bad76-905b-40ce-a041-55c40ff213ef"},"vehicle_type_id":"4","last_reported":1683489959,"current_range_meters":26400,"station_id":"ce4bgl12rcd13ifvqbo0","pricing_plan_id":"free"},{"bike_id":"0e4fccbb-beef-48f7-bd9e-bad0c0ad90cf","system_id":"levelo_inurba_marseille","lat":43.292749,"lon":5.368402,"is_reserved":false,"is_disabled":false,"rental_uris":{"android":"levelo://app?vid=0e4fccbb-beef-48f7-bd9e-bad0c0ad90cf","ios":"levelo://app?vid=0e4fccbb-beef-48f7-bd9e-bad0c0ad90cf"},"vehicle_type_id":"4","last_reported":1683489959,"current_range_meters":0,"station_id":"ce4bhbp2rcd13ifvqesg","pricing_plan_id":"free"},{"bike_id":"08bd7e37-957b-4a44-bfec-067efc1058f1","system_id":"levelo_inurba_marseille","lat":43.292749,"lon":5.368402,"is_reserved":false,"is_disabled":false,"rental_uris":{"android":"levelo://app?vid=08bd7e37-957b-4a44-bfec-067efc1058f1","ios":"levelo://app?vid=08bd7e37-957b-4a44-bfec-067efc1058f1"},"vehicle_type_id":"4","last_reported":1683489959,"current_range_meters":15600,"station_id":"ce4bhbp2rcd13ifvqesg","pricing_plan_id":"free"},{"bike_id":"02e68af7-ff51-4e49-ac40-4e84d6f15197","system_id":"levelo_inurba_marseille","lat":43.292749,"lon":5.368402,"is_reserved":false,"is_disabled":false,"rental_uris":{"android":"levelo://app?vid=02e68af7-ff51-4e49-ac40-4e84d6f15197","ios":"levelo://app?vid=02e68af7-ff51-4e49-ac40-4e84d6f15197"},"vehicle_type_id":"4","last_reported":1683489959,"current_range_meters":7600,"station_id":"ce4bhbp2rcd13ifvqesg","pricing_plan_id":"free"},{"bike_id":"431234c1-182c-49e5-a8e5-7909445d3d49","system_id":"levelo_inurba_marseille","lat":43.2927,"lon":5.36853,"is_reserved":false,"is_disabled":false,"rental_uris":{"android":"levelo://app?vid=431234c1-182c-49e5-a8e5-7909445d3d49","ios":"levelo://app?vid=431234c1-182c-49e5-a8e5-7909445d3d49"},"vehicle_type_id":"4","last_reported":1683489959,"current_range_meters":400,"station_id":"ce4bhbp2rcd13ifvqesg","pricing_plan_id":"free"},{"bike_id":"4216e523-c53b-44a7-94c2-4205103c6df2","system_id":"levelo_inurba_marseille","lat":43.290103,"lon":5.356114,"is_reserved":false,"is_disabled":false,"rental_uris":{"android":"levelo://app?vid=4216e523-c53b-44a7-94c2-4205103c6df2","ios":"levelo://app?vid=4216e523-c53b-44a7-94c2-4205103c6df2"},"vehicle_type_id":"4","last_reported":1683489959,"current_range_meters":4800,"station_id":"ce4bhb92rcd13ifvqen0","pricing_plan_id":"free"},{"bike_id":"36d0c30a-7109-4e1a-8021-cd0e210c9144","system_id":"levelo_inurba_marseille","lat":43.293009,"lon":5.374584,"is_reserved":false,"is_disabled":false,"rental_uris":{"android":"levelo://app?vid=36d0c30a-7109-4e1a-8021-cd0e210c9144","ios":"levelo://app?vid=36d0c30a-7109-4e1a-8021-cd0e210c9144"},"vehicle_type_id":"4","last_reported":1683489959,"current_range_meters":400,"station_id":"ce4bgi12rcd13ifvqb70","pricing_plan_id":"free"},{"bike_id":"7bbe80f7-6b52-4a1d-bb0c-1ecd134404a6","system_id":"levelo_inurba_marseille","lat":43.305994,"lon":5.393687,"is_reserved":false,"is_disabled":false,"rental_uris":{"android":"levelo://app?vid=7bbe80f7-6b52-4a1d-bb0c-1ecd134404a6","ios":"levelo://app?vid=7bbe80f7-6b52-4a1d-bb0c-1ecd134404a6"},"vehicle_type_id":"4","last_reported":1683489959,"current_range_meters":6800,"station_id":"ce4bh0p2rcd13ifvqd80","pricing_plan_id":"free"},{"bike_id":"2ddcfd7e-328c-4f4d-81cd-80c5115812a1","system_id":"levelo_inurba_marseille","lat":43.302992,"lon":5.392136,"is_reserved":false,"is_disabled":false,"rental_uris":{"android":"levelo://app?vid=2ddcfd7e-328c-4f4d-81cd-80c5115812a1","ios":"levelo://app?vid=2ddcfd7e-328c-4f4d-81cd-80c5115812a1"},"vehicle_type_id":"4","last_reported":1683489959,"current_range_meters":1200,"station_id":"ce4bgkh2rcd13ifvqbk0","pricing_plan_id":"free"},{"bike_id":"17a9ceab-0c1d-42fd-9519-29356e430341","system_id":"levelo_inurba_marseille","lat":43.302992,"lon":5.392136,"is_reserved":false,"is_disabled":false,"rental_uris":{"android":"levelo://app?vid=17a9ceab-0c1d-42fd-9519-29356e430341","ios":"levelo://app?vid=17a9ceab-0c1d-42fd-9519-29356e430341"},"vehicle_type_id":"4","last_reported":1683489959,"current_range_meters":0,"station_id":"ce4bgkh2rcd13ifvqbk0","pricing_plan_id":"free"},{"bike_id":"6f46b399-a49a-43d9-a8d7-37aba0ee141f","system_id":"levelo_inurba_marseille","lat":43.303002,"lon":5.392142,"is_reserved":false,"is_disabled":false,"rental_uris":{"android":"levelo://app?vid=6f46b399-a49a-43d9-a8d7-37aba0ee141f","ios":"levelo://app?vid=6f46b399-a49a-43d9-a8d7-37aba0ee141f"},"vehicle_type_id":"4","last_reported":1683489959,"current_range_meters":8000,"station_id":"ce4bgkh2rcd13ifvqbk0","pricing_plan_id":"free"},{"bike_id":"4929837d-eaf1-4489-83fd-9f4b040783b4","system_id":"levelo_inurba_marseille","lat":43.2936,"lon":5.37835,"is_reserved":false,"is_disabled":false,"rental_uris":{"android":"levelo://app?vid=4929837d-eaf1-4489-83fd-9f4b040783b4","ios":"levelo://app?vid=4929837d-eaf1-4489-83fd-9f4b040783b4"},"vehicle_type_id":"4","last_reported":1683489959,"current_range_meters":6000,"station_id":"ce4bgjh2rcd13ifvqbf0","pricing_plan_id":"free"},{"bike_id":"d539ea16-4189-4d60-8665-37b74bbf8d95","system_id":"levelo_inurba_marseille","lat":43.302992,"lon":5.392136,"is_reserved":false,"is_disabled":false,"rental_uris":{"android":"levelo://app?vid=d539ea16-4189-4d60-8665-37b74bbf8d95","ios":"levelo://app?vid=d539ea16-4189-4d60-8665-37b74bbf8d95"},"vehicle_type_id":"4","last_reported":1683489959,"current_range_meters":7200,"station_id":"ce4bgkh2rcd13ifvqbk0","pricing_plan_id":"free"},{"bike_id":"5b3538c1-bd60-4826-8e4a-c51b07aacd02","system_id":"levelo_inurba_marseille","lat":43.302992,"lon":5.392136,"is_reserved":false,"is_disabled":false,"rental_uris":{"android":"levelo://app?vid=5b3538c1-bd60-4826-8e4a-c51b07aacd02","ios":"levelo://app?vid=5b3538c1-bd60-4826-8e4a-c51b07aacd02"},"vehicle_type_id":"4","last_reported":1683489959,"current_range_meters":12800,"station_id":"ce4bgkh2rcd13ifvqbk0","pricing_plan_id":"free"},{"bike_id":"9aba65cc-f209-4425-911c-4b5f514d2d56","system_id":"levelo_inurba_marseille","lat":43.292663,"lon":5.376389,"is_reserved":false,"is_disabled":false,"rental_uris":{"android":"levelo://app?vid=9aba65cc-f209-4425-911c-4b5f514d2d56","ios":"levelo://app?vid=9aba65cc-f209-4425-911c-4b5f514d2d56"},"vehicle_type_id":"4","last_reported":1683489959,"current_range_meters":0,"station_id":"ce4bgi12rcd13ifvqb80","pricing_plan_id":"free"},{"bike_id":"c30f3525-9080-4075-9e32-f351acaf5c10","system_id":"levelo_inurba_marseille","lat":43.292663,"lon":5.376389,"is_reserved":false,"is_disabled":false,"rental_uris":{"android":"levelo://app?vid=c30f3525-9080-4075-9e32-f351acaf5c10","ios":"levelo://app?vid=c30f3525-9080-4075-9e32-f351acaf5c10"},"vehicle_type_id":"4","last_reported":1683489959,"current_range_meters":26400,"station_id":"ce4bgi12rcd13ifvqb80","pricing_plan_id":"free"},{"bike_id":"f39978e4-5749-45fa-9d16-e456b545813b","system_id":"levelo_inurba_marseille","lat":43.298764,"lon":5.388973,"is_reserved":false,"is_disabled":false,"rental_uris":{"android":"levelo://app?vid=f39978e4-5749-45fa-9d16-e456b545813b","ios":"levelo://app?vid=f39978e4-5749-45fa-9d16-e456b545813b"},"vehicle_type_id":"4","last_reported":1683489959,"current_range_meters":4000,"station_id":"ce4bh392rcd13ifvqdl0","pricing_plan_id":"free"},{"bike_id":"0919f904-0e5a-4fa2-98bc-29c9e83899e0","system_id":"levelo_inurba_marseille","lat":43.298764,"lon":5.388973,"is_reserved":false,"is_disabled":false,"rental_uris":{"android":"levelo://app?vid=0919f904-0e5a-4fa2-98bc-29c9e83899e0","ios":"levelo://app?vid=0919f904-0e5a-4fa2-98bc-29c9e83899e0"},"vehicle_type_id":"4","last_reported":1683489959,"current_range_meters":6000,"station_id":"ce4bh392rcd13ifvqdl0","pricing_plan_id":"free"},{"bike_id":"3608fbf4-3cfd-4353-9a9e-540d3b2b72a8","system_id":"levelo_inurba_marseille","lat":43.291675,"lon":5.371583,"is_reserved":false,"is_disabled":false,"rental_uris":{"android":"levelo://app?vid=3608fbf4-3cfd-4353-9a9e-540d3b2b72a8","ios":"levelo://app?vid=3608fbf4-3cfd-4353-9a9e-540d3b2b72a8"},"vehicle_type_id":"4","last_reported":1683489959,"current_range_meters":20400,"station_id":"ce4bha92rcd13ifvqeh0","pricing_plan_id":"free"},{"bike_id":"d0e569ba-3061-47a8-934a-8928a60434f0","system_id":"levelo_inurba_marseille","lat":43.29868,"lon":5.38907,"is_reserved":false,"is_disabled":false,"rental_uris":{"android":"levelo://app?vid=d0e569ba-3061-47a8-934a-8928a60434f0","ios":"levelo://app?vid=d0e569ba-3061-47a8-934a-8928a60434f0"},"vehicle_type_id":"4","last_reported":1683489959,"current_range_meters":17200,"station_id":"","pricing_plan_id":"free"},{"bike_id":"e038a193-cdde-4cf6-84ff-effc39a3a25f","system_id":"levelo_inurba_marseille","lat":43.31364,"lon":5.39671,"is_reserved":false,"is_disabled":false,"rental_uris":{"android":"levelo://app?vid=e038a193-cdde-4cf6-84ff-effc39a3a25f","ios":"levelo://app?vid=e038a193-cdde-4cf6-84ff-effc39a3a25f"},"vehicle_type_id":"4","last_reported":1683489959,"current_range_meters":0,"station_id":"","pricing_plan_id":"free"},{"bike_id":"ef120035-258a-420b-b7d0-7189efa2839b","system_id":"levelo_inurba_marseille","lat":43.309038,"lon":5.396546,"is_reserved":false,"is_disabled":false,"rental_uris":{"android":"levelo://app?vid=ef120035-258a-420b-b7d0-7189efa2839b","ios":"levelo://app?vid=ef120035-258a-420b-b7d0-7189efa2839b"},"vehicle_type_id":"4","last_reported":1683489959,"current_range_meters":11200,"station_id":"ce4bh012rcd13ifvqcv0","pricing_plan_id":"free"},{"bike_id":"e895bab5-8b01-4f66-a78f-e1fe3daa04c0","system_id":"levelo_inurba_marseille","lat":43.29529,"lon":5.385581,"is_reserved":false,"is_disabled":false,"rental_uris":{"android":"levelo://app?vid=e895bab5-8b01-4f66-a78f-e1fe3daa04c0","ios":"levelo://app?vid=e895bab5-8b01-4f66-a78f-e1fe3daa04c0"},"vehicle_type_id":"4","last_reported":1683489959,"current_range_meters":5200,"station_id":"ce4bgih2rcd13ifvqba0","pricing_plan_id":"free"},{"bike_id":"cb1588eb-8b20-4581-bd88-35ebcbb0c8de","system_id":"levelo_inurba_marseille","lat":43.29529,"lon":5.385581,"is_reserved":false,"is_disabled":false,"rental_uris":{"android":"levelo://app?vid=cb1588eb-8b20-4581-bd88-35ebcbb0c8de","ios":"levelo://app?vid=cb1588eb-8b20-4581-bd88-35ebcbb0c8de"},"vehicle_type_id":"4","last_reported":1683489959,"current_range_meters":10400,"station_id":"ce4bgih2rcd13ifvqba0","pricing_plan_id":"free"},{"bike_id":"a56e8fd1-97b6-4978-a7a6-4dd9990a059d","system_id":"levelo_inurba_marseille","lat":43.29529,"lon":5.385581,"is_reserved":false,"is_disabled":false,"rental_uris":{"android":"levelo://app?vid=a56e8fd1-97b6-4978-a7a6-4dd9990a059d","ios":"levelo://app?vid=a56e8fd1-97b6-4978-a7a6-4dd9990a059d"},"vehicle_type_id":"4","last_reported":1683489959,"current_range_meters":400,"station_id":"ce4bgih2rcd13ifvqba0","pricing_plan_id":"free"},{"bike_id":"6c7f3a49-df91-4cce-aaf9-f0193b47267c","system_id":"levelo_inurba_marseille","lat":43.290631,"lon":5.359244,"is_reserved":false,"is_disabled":false,"rental_uris":{"android":"levelo://app?vid=6c7f3a49-df91-4cce-aaf9-f0193b47267c","ios":"levelo://app?vid=6c7f3a49-df91-4cce-aaf9-f0193b47267c"},"vehicle_type_id":"4","last_reported":1683489959,"current_range_meters":0,"station_id":"ce4bha92rcd13ifvqeg0","pricing_plan_id":"free"},{"bike_id":"ffde4439-9bf0-4799-9424-606923720214","system_id":"levelo_inurba_marseille","lat":43.294153,"lon":5.386305,"is_reserved":false,"is_disabled":false,"rental_uris":{"android":"levelo://app?vid=ffde4439-9bf0-4799-9424-606923720214","ios":"levelo://app?vid=ffde4439-9bf0-4799-9424-606923720214"},"vehicle_type_id":"4","last_reported":1683489959,"current_range_meters":2400,"station_id":"ce4bh2h2rcd13ifvqdh0","pricing_plan_id":"free"},{"bike_id":"c816cc45-95a2-4477-a651-a9cd4ea047f8","system_id":"levelo_inurba_marseille","lat":43.294153,"lon":5.386305,"is_reserved":false,"is_disabled":false,"rental_uris":{"android":"levelo://app?vid=c816cc45-95a2-4477-a651-a9cd4ea047f8","ios":"levelo://app?vid=c816cc45-95a2-4477-a651-a9cd4ea047f8"},"vehicle_type_id":"4","last_reported":1683489959,"current_range_meters":10400,"station_id":"ce4bh2h2rcd13ifvqdh0","pricing_plan_id":"free"},{"bike_id":"c7a5c4f9-76fd-4524-9d0d-f63cfbf7d1f3","system_id":"levelo_inurba_marseille","lat":43.294153,"lon":5.386305,"is_reserved":false,"is_disabled":false,"rental_uris":{"android":"levelo://app?vid=c7a5c4f9-76fd-4524-9d0d-f63cfbf7d1f3","ios":"levelo://app?vid=c7a5c4f9-76fd-4524-9d0d-f63cfbf7d1f3"},"vehicle_type_id":"4","last_reported":1683489959,"current_range_meters":2800,"station_id":"ce4bh2h2rcd13ifvqdh0","pricing_plan_id":"free"},{"bike_id":"554039bd-99fa-487c-bf9c-152adfcfb2d8","system_id":"levelo_inurba_marseille","lat":43.294153,"lon":5.386305,"is_reserved":false,"is_disabled":false,"rental_uris":{"android":"levelo://app?vid=554039bd-99fa-487c-bf9c-152adfcfb2d8","ios":"levelo://app?vid=554039bd-99fa-487c-bf9c-152adfcfb2d8"},"vehicle_type_id":"4","last_reported":1683489959,"current_range_meters":16800,"station_id":"ce4bh2h2rcd13ifvqdh0","pricing_plan_id":"free"},{"bike_id":"7804e39f-6877-4896-b803-d441b0ecd5b7","system_id":"levelo_inurba_marseille","lat":43.294153,"lon":5.386305,"is_reserved":false,"is_disabled":false,"rental_uris":{"android":"levelo://app?vid=7804e39f-6877-4896-b803-d441b0ecd5b7","ios":"levelo://app?vid=7804e39f-6877-4896-b803-d441b0ecd5b7"},"vehicle_type_id":"4","last_reported":1683489959,"current_range_meters":8800,"station_id":"ce4bh2h2rcd13ifvqdh0","pricing_plan_id":"free"},{"bike_id":"24072e19-24e0-44b5-b080-a4678bf1f371","system_id":"levelo_inurba_marseille","lat":43.289184,"lon":5.366408,"is_reserved":false,"is_disabled":false,"rental_uris":{"android":"levelo://app?vid=24072e19-24e0-44b5-b080-a4678bf1f371","ios":"levelo://app?vid=24072e19-24e0-44b5-b080-a4678bf1f371"},"vehicle_type_id":"4","last_reported":1683489959,"current_range_meters":8000,"station_id":"ce4bhap2rcd13ifvqek0","pricing_plan_id":"free"},{"bike_id":"f65cac2c-024b-4b1f-bef9-5c5f24de2d52","system_id":"levelo_inurba_marseille","lat":43.289184,"lon":5.366408,"is_reserved":false,"is_disabled":false,"rental_uris":{"android":"levelo://app?vid=f65cac2c-024b-4b1f-bef9-5c5f24de2d52","ios":"levelo://app?vid=f65cac2c-024b-4b1f-bef9-5c5f24de2d52"},"vehicle_type_id":"4","last_reported":1683489959,"current_range_meters":4000,"station_id":"ce4bhap2rcd13ifvqek0","pricing_plan_id":"free"},{"bike_id":"f144ed15-507a-4ffe-924d-07b4f929f748","system_id":"levelo_inurba_marseille","lat":43.294153,"lon":5.386305,"is_reserved":false,"is_disabled":false,"rental_uris":{"android":"levelo://app?vid=f144ed15-507a-4ffe-924d-07b4f929f748","ios":"levelo://app?vid=f144ed15-507a-4ffe-924d-07b4f929f748"},"vehicle_type_id":"4","last_reported":1683489959,"current_range_meters":1600,"station_id":"ce4bh2h2rcd13ifvqdh0","pricing_plan_id":"free"},{"bike_id":"4666c8dd-feba-4a91-8b41-97339e1506bc","system_id":"levelo_inurba_marseille","lat":43.289184,"lon":5.366408,"is_reserved":false,"is_disabled":false,"rental_uris":{"android":"levelo://app?vid=4666c8dd-feba-4a91-8b41-97339e1506bc","ios":"levelo://app?vid=4666c8dd-feba-4a91-8b41-97339e1506bc"},"vehicle_type_id":"4","last_reported":1683489959,"current_range_meters":14000,"station_id":"ce4bhap2rcd13ifvqek0","pricing_plan_id":"free"},{"bike_id":"001716b3-4110-4cc6-a2d8-a052298aeb5e","system_id":"levelo_inurba_marseille","lat":43.292644,"lon":5.384257,"is_reserved":false,"is_disabled":false,"rental_uris":{"android":"levelo://app?vid=001716b3-4110-4cc6-a2d8-a052298aeb5e","ios":"levelo://app?vid=001716b3-4110-4cc6-a2d8-a052298aeb5e"},"vehicle_type_id":"4","last_reported":1683489959,"current_range_meters":24800,"station_id":"ce4bh692rcd13ifvqea0","pricing_plan_id":"free"},{"bike_id":"2044a6ad-9c4b-4eea-9659-30421f03531c","system_id":"levelo_inurba_marseille","lat":43.29267,"lon":5.3844,"is_reserved":false,"is_disabled":false,"rental_uris":{"android":"levelo://app?vid=2044a6ad-9c4b-4eea-9659-30421f03531c","ios":"levelo://app?vid=2044a6ad-9c4b-4eea-9659-30421f03531c"},"vehicle_type_id":"4","last_reported":1683489959,"current_range_meters":0,"station_id":"ce4bh692rcd13ifvqea0","pricing_plan_id":"free"},{"bike_id":"d644d30e-6972-4368-b777-059267d67ed9","system_id":"levelo_inurba_marseille","lat":43.292644,"lon":5.384257,"is_reserved":false,"is_disabled":false,"rental_uris":{"android":"levelo://app?vid=d644d30e-6972-4368-b777-059267d67ed9","ios":"levelo://app?vid=d644d30e-6972-4368-b777-059267d67ed9"},"vehicle_type_id":"4","last_reported":1683489959,"current_range_meters":20400,"station_id":"ce4bh692rcd13ifvqea0","pricing_plan_id":"free"},{"bike_id":"e1200d84-3641-45db-80f4-398c1bc516c0","system_id":"levelo_inurba_marseille","lat":43.292644,"lon":5.384257,"is_reserved":false,"is_disabled":false,"rental_uris":{"android":"levelo://app?vid=e1200d84-3641-45db-80f4-398c1bc516c0","ios":"levelo://app?vid=e1200d84-3641-45db-80f4-398c1bc516c0"},"vehicle_type_id":"4","last_reported":1683489959,"current_range_meters":7200,"station_id":"ce4bh692rcd13ifvqea0","pricing_plan_id":"free"},{"bike_id":"56818d91-8368-4383-a603-d8788204da56","system_id":"levelo_inurba_marseille","lat":43.292644,"lon":5.384257,"is_reserved":false,"is_disabled":false,"rental_uris":{"android":"levelo://app?vid=56818d91-8368-4383-a603-d8788204da56","ios":"levelo://app?vid=56818d91-8368-4383-a603-d8788204da56"},"vehicle_type_id":"4","last_reported":1683489959,"current_range_meters":31200,"station_id":"ce4bh692rcd13ifvqea0","pricing_plan_id":"free"},{"bike_id":"6502750e-0f08-49fe-b69f-43e779a07cc2","system_id":"levelo_inurba_marseille","lat":43.304296,"lon":5.397513,"is_reserved":false,"is_disabled":false,"rental_uris":{"android":"levelo://app?vid=6502750e-0f08-49fe-b69f-43e779a07cc2","ios":"levelo://app?vid=6502750e-0f08-49fe-b69f-43e779a07cc2"},"vehicle_type_id":"4","last_reported":1683489959,"current_range_meters":0,"station_id":"ce4bh092rcd13ifvqd20","pricing_plan_id":"free"},{"bike_id":"b5337eb9-fdc1-4cb1-93a2-4fecf6823ddd","system_id":"levelo_inurba_marseille","lat":43.292642,"lon":5.384254,"is_reserved":false,"is_disabled":false,"rental_uris":{"android":"levelo://app?vid=b5337eb9-fdc1-4cb1-93a2-4fecf6823ddd","ios":"levelo://app?vid=b5337eb9-fdc1-4cb1-93a2-4fecf6823ddd"},"vehicle_type_id":"4","last_reported":1683489959,"current_range_meters":1200,"station_id":"ce4bh692rcd13ifvqea0","pricing_plan_id":"free"},{"bike_id":"f117bfb3-8788-4458-8b01-38297ca29567","system_id":"levelo_inurba_marseille","lat":43.292644,"lon":5.384257,"is_reserved":false,"is_disabled":false,"rental_uris":{"android":"levelo://app?vid=f117bfb3-8788-4458-8b01-38297ca29567","ios":"levelo://app?vid=f117bfb3-8788-4458-8b01-38297ca29567"},"vehicle_type_id":"4","last_reported":1683489959,"current_range_meters":25200,"station_id":"ce4bh692rcd13ifvqea0","pricing_plan_id":"free"},{"bike_id":"52c83e2d-3988-405d-9290-3db2c78f5c5e","system_id":"levelo_inurba_marseille","lat":43.292642,"lon":5.384254,"is_reserved":false,"is_disabled":false,"rental_uris":{"android":"levelo://app?vid=52c83e2d-3988-405d-9290-3db2c78f5c5e","ios":"levelo://app?vid=52c83e2d-3988-405d-9290-3db2c78f5c5e"},"vehicle_type_id":"4","last_reported":1683489959,"current_range_meters":10800,"station_id":"ce4bh692rcd13ifvqea0","pricing_plan_id":"free"},{"bike_id":"0ec6f3b8-d560-47dc-b3e5-b42ba654447d","system_id":"levelo_inurba_marseille","lat":43.292642,"lon":5.384254,"is_reserved":false,"is_disabled":false,"rental_uris":{"android":"levelo://app?vid=0ec6f3b8-d560-47dc-b3e5-b42ba654447d","ios":"levelo://app?vid=0ec6f3b8-d560-47dc-b3e5-b42ba654447d"},"vehicle_type_id":"4","last_reported":1683489959,"current_range_meters":10800,"station_id":"ce4bh692rcd13ifvqea0","pricing_plan_id":"free"},{"bike_id":"c926a599-18b9-4b14-872d-48f04f97f651","system_id":"levelo_inurba_marseille","lat":43.292642,"lon":5.384254,"is_reserved":false,"is_disabled":false,"rental_uris":{"android":"levelo://app?vid=c926a599-18b9-4b14-872d-48f04f97f651","ios":"levelo://app?vid=c926a599-18b9-4b14-872d-48f04f97f651"},"vehicle_type_id":"4","last_reported":1683489959,"current_range_meters":16000,"station_id":"ce4bh692rcd13ifvqea0","pricing_plan_id":"free"},{"bike_id":"b89bfaf4-683d-431e-bd2d-13fb6cf788cd","system_id":"levelo_inurba_marseille","lat":43.292642,"lon":5.384254,"is_reserved":false,"is_disabled":false,"rental_uris":{"android":"levelo://app?vid=b89bfaf4-683d-431e-bd2d-13fb6cf788cd","ios":"levelo://app?vid=b89bfaf4-683d-431e-bd2d-13fb6cf788cd"},"vehicle_type_id":"4","last_reported":1683489959,"current_range_meters":14000,"station_id":"ce4bh692rcd13ifvqea0","pricing_plan_id":"free"},{"bike_id":"d143b776-f721-48f1-9136-33bb1a02ef46","system_id":"levelo_inurba_marseille","lat":43.29263,"lon":5.38448,"is_reserved":false,"is_disabled":false,"rental_uris":{"android":"levelo://app?vid=d143b776-f721-48f1-9136-33bb1a02ef46","ios":"levelo://app?vid=d143b776-f721-48f1-9136-33bb1a02ef46"},"vehicle_type_id":"4","last_reported":1683489959,"current_range_meters":22800,"station_id":"ce4bh692rcd13ifvqea0","pricing_plan_id":"free"},{"bike_id":"b7c4c815-635e-4063-b644-99d555a5ae27","system_id":"levelo_inurba_marseille","lat":43.292644,"lon":5.384257,"is_reserved":false,"is_disabled":false,"rental_uris":{"android":"levelo://app?vid=b7c4c815-635e-4063-b644-99d555a5ae27","ios":"levelo://app?vid=b7c4c815-635e-4063-b644-99d555a5ae27"},"vehicle_type_id":"4","last_reported":1683489959,"current_range_meters":11600,"station_id":"ce4bh692rcd13ifvqea0","pricing_plan_id":"free"},{"bike_id":"cc5719e1-0cce-4a18-a739-b611b22608f9","system_id":"levelo_inurba_marseille","lat":43.292644,"lon":5.384257,"is_reserved":false,"is_disabled":false,"rental_uris":{"android":"levelo://app?vid=cc5719e1-0cce-4a18-a739-b611b22608f9","ios":"levelo://app?vid=cc5719e1-0cce-4a18-a739-b611b22608f9"},"vehicle_type_id":"4","last_reported":1683489959,"current_range_meters":10800,"station_id":"ce4bh692rcd13ifvqea0","pricing_plan_id":"free"},{"bike_id":"5d3a1b43-edc2-47a4-b021-62ca6301dad0","system_id":"levelo_inurba_marseille","lat":43.292644,"lon":5.384257,"is_reserved":false,"is_disabled":false,"rental_uris":{"android":"levelo://app?vid=5d3a1b43-edc2-47a4-b021-62ca6301dad0","ios":"levelo://app?vid=5d3a1b43-edc2-47a4-b021-62ca6301dad0"},"vehicle_type_id":"4","last_reported":1683489959,"current_range_meters":19600,"station_id":"ce4bh692rcd13ifvqea0","pricing_plan_id":"free"},{"bike_id":"5dd339a2-6081-445d-a46f-393c06c21b4f","system_id":"levelo_inurba_marseille","lat":43.304296,"lon":5.397513,"is_reserved":false,"is_disabled":false,"rental_uris":{"android":"levelo://app?vid=5dd339a2-6081-445d-a46f-393c06c21b4f","ios":"levelo://app?vid=5dd339a2-6081-445d-a46f-393c06c21b4f"},"vehicle_type_id":"4","last_reported":1683489959,"current_range_meters":27200,"station_id":"ce4bh092rcd13ifvqd20","pricing_plan_id":"free"},{"bike_id":"ddfcff18-f487-433f-8d99-a64a49f9f865","system_id":"levelo_inurba_marseille","lat":43.292642,"lon":5.384254,"is_reserved":false,"is_disabled":false,"rental_uris":{"android":"levelo://app?vid=ddfcff18-f487-433f-8d99-a64a49f9f865","ios":"levelo://app?vid=ddfcff18-f487-433f-8d99-a64a49f9f865"},"vehicle_type_id":"4","last_reported":1683489959,"current_range_meters":6400,"station_id":"ce4bh692rcd13ifvqea0","pricing_plan_id":"free"},{"bike_id":"c4f3b624-6d28-49d3-80c7-7c6274d0f1bf","system_id":"levelo_inurba_marseille","lat":43.292642,"lon":5.384254,"is_reserved":false,"is_disabled":false,"rental_uris":{"android":"levelo://app?vid=c4f3b624-6d28-49d3-80c7-7c6274d0f1bf","ios":"levelo://app?vid=c4f3b624-6d28-49d3-80c7-7c6274d0f1bf"},"vehicle_type_id":"4","last_reported":1683489959,"current_range_meters":18000,"station_id":"ce4bh692rcd13ifvqea0","pricing_plan_id":"free"},{"bike_id":"8f02adaa-5787-47dd-8c58-caeca4bfd34b","system_id":"levelo_inurba_marseille","lat":43.292644,"lon":5.384257,"is_reserved":false,"is_disabled":false,"rental_uris":{"android":"levelo://app?vid=8f02adaa-5787-47dd-8c58-caeca4bfd34b","ios":"levelo://app?vid=8f02adaa-5787-47dd-8c58-caeca4bfd34b"},"vehicle_type_id":"4","last_reported":1683489959,"current_range_meters":0,"station_id":"ce4bh692rcd13ifvqea0","pricing_plan_id":"free"},{"bike_id":"0698cc90-a666-4b70-a092-a08c8cb44379","system_id":"levelo_inurba_marseille","lat":43.292642,"lon":5.384254,"is_reserved":false,"is_disabled":false,"rental_uris":{"android":"levelo://app?vid=0698cc90-a666-4b70-a092-a08c8cb44379","ios":"levelo://app?vid=0698cc90-a666-4b70-a092-a08c8cb44379"},"vehicle_type_id":"4","last_reported":1683489959,"current_range_meters":11200,"station_id":"ce4bh692rcd13ifvqea0","pricing_plan_id":"free"},{"bike_id":"972bd449-5ef3-438e-a356-889e22be2f2a","system_id":"levelo_inurba_marseille","lat":43.330442,"lon":5.389148,"is_reserved":false,"is_disabled":false,"rental_uris":{"android":"levelo://app?vid=972bd449-5ef3-438e-a356-889e22be2f2a","ios":"levelo://app?vid=972bd449-5ef3-438e-a356-889e22be2f2a"},"vehicle_type_id":"4","last_reported":1683489959,"current_range_meters":0,"station_id":"ce4bhr92rcd13ifvqhrg","pricing_plan_id":"free"},{"bike_id":"97b18993-18c4-4b2d-ad3d-6adb3a0ede8a","system_id":"levelo_inurba_marseille","lat":43.33046,"lon":5.38913,"is_reserved":false,"is_disabled":false,"rental_uris":{"android":"levelo://app?vid=97b18993-18c4-4b2d-ad3d-6adb3a0ede8a","ios":"levelo://app?vid=97b18993-18c4-4b2d-ad3d-6adb3a0ede8a"},"vehicle_type_id":"4","last_reported":1683489959,"current_range_meters":30400,"station_id":"ce4bhr92rcd13ifvqhrg","pricing_plan_id":"free"},{"bike_id":"66fbc1f8-e46b-4c0b-bfbd-c9672b377265","system_id":"levelo_inurba_marseille","lat":43.330442,"lon":5.389148,"is_reserved":false,"is_disabled":false,"rental_uris":{"android":"levelo://app?vid=66fbc1f8-e46b-4c0b-bfbd-c9672b377265","ios":"levelo://app?vid=66fbc1f8-e46b-4c0b-bfbd-c9672b377265"},"vehicle_type_id":"4","last_reported":1683489959,"current_range_meters":10800,"station_id":"ce4bhr92rcd13ifvqhrg","pricing_plan_id":"free"},{"bike_id":"33fa0412-5a4a-4409-9039-f46f176b56f3","system_id":"levelo_inurba_marseille","lat":43.290995,"lon":5.381361,"is_reserved":false,"is_disabled":false,"rental_uris":{"android":"levelo://app?vid=33fa0412-5a4a-4409-9039-f46f176b56f3","ios":"levelo://app?vid=33fa0412-5a4a-4409-9039-f46f176b56f3"},"vehicle_type_id":"4","last_reported":1683489959,"current_range_meters":4000,"station_id":"ce4bh512rcd13ifvqe2g","pricing_plan_id":"free"},{"bike_id":"848cd737-e760-4d0b-8496-56643e76844b","system_id":"levelo_inurba_marseille","lat":43.295169,"lon":5.390426,"is_reserved":false,"is_disabled":false,"rental_uris":{"android":"levelo://app?vid=848cd737-e760-4d0b-8496-56643e76844b","ios":"levelo://app?vid=848cd737-e760-4d0b-8496-56643e76844b"},"vehicle_type_id":"4","last_reported":1683489959,"current_range_meters":6400,"station_id":"ce4bh3p2rcd13ifvqdp0","pricing_plan_id":"free"},{"bike_id":"9fda5839-b6dc-4f7b-9163-4bd0fd66a1d5","system_id":"levelo_inurba_marseille","lat":43.295169,"lon":5.390426,"is_reserved":false,"is_disabled":false,"rental_uris":{"android":"levelo://app?vid=9fda5839-b6dc-4f7b-9163-4bd0fd66a1d5","ios":"levelo://app?vid=9fda5839-b6dc-4f7b-9163-4bd0fd66a1d5"},"vehicle_type_id":"4","last_reported":1683489959,"current_range_meters":3600,"station_id":"ce4bh3p2rcd13ifvqdp0","pricing_plan_id":"free"},{"bike_id":"6a178aa4-3084-4230-aab8-24c7a2d1641f","system_id":"levelo_inurba_marseille","lat":43.33137,"lon":5.38949,"is_reserved":false,"is_disabled":false,"rental_uris":{"android":"levelo://app?vid=6a178aa4-3084-4230-aab8-24c7a2d1641f","ios":"levelo://app?vid=6a178aa4-3084-4230-aab8-24c7a2d1641f"},"vehicle_type_id":"4","last_reported":1683489959,"current_range_meters":11600,"station_id":"","pricing_plan_id":"free"},{"bike_id":"b8c93750-07d4-4ca4-9f45-7ac39db4e0b3","system_id":"levelo_inurba_marseille","lat":43.28856,"lon":5.358371,"is_reserved":false,"is_disabled":false,"rental_uris":{"android":"levelo://app?vid=b8c93750-07d4-4ca4-9f45-7ac39db4e0b3","ios":"levelo://app?vid=b8c93750-07d4-4ca4-9f45-7ac39db4e0b3"},"vehicle_type_id":"4","last_reported":1683489959,"current_range_meters":4000,"station_id":"ce4bhb12rcd13ifvqem0","pricing_plan_id":"free"},{"bike_id":"78ac764a-d55c-41ab-a653-4e2b90789325","system_id":"levelo_inurba_marseille","lat":43.296263,"lon":5.377094,"is_reserved":false,"is_disabled":false,"rental_uris":{"android":"levelo://app?vid=78ac764a-d55c-41ab-a653-4e2b90789325","ios":"levelo://app?vid=78ac764a-d55c-41ab-a653-4e2b90789325"},"vehicle_type_id":"4","last_reported":1683489959,"current_range_meters":0,"station_id":"ce4bgi92rcd13ifvqb90","pricing_plan_id":"free"},{"bike_id":"20083ae5-f09f-4d10-9758-3cdd331d6a45","system_id":"levelo_inurba_marseille","lat":43.33742,"lon":5.37448,"is_reserved":false,"is_disabled":false,"rental_uris":{"android":"levelo://app?vid=20083ae5-f09f-4d10-9758-3cdd331d6a45","ios":"levelo://app?vid=20083ae5-f09f-4d10-9758-3cdd331d6a45"},"vehicle_type_id":"4","last_reported":1683489959,"current_range_meters":9600,"station_id":"","pricing_plan_id":"free"},{"bike_id":"86b28340-532d-4ab8-ac19-19ffd45b0568","system_id":"levelo_inurba_marseille","lat":43.3374,"lon":5.37478,"is_reserved":false,"is_disabled":false,"rental_uris":{"android":"levelo://app?vid=86b28340-532d-4ab8-ac19-19ffd45b0568","ios":"levelo://app?vid=86b28340-532d-4ab8-ac19-19ffd45b0568"},"vehicle_type_id":"4","last_reported":1683489959,"current_range_meters":29600,"station_id":"","pricing_plan_id":"free"},{"bike_id":"34320fce-24bb-4291-be42-2c361aed67f0","system_id":"levelo_inurba_marseille","lat":43.33748,"lon":5.3744,"is_reserved":false,"is_disabled":false,"rental_uris":{"android":"levelo://app?vid=34320fce-24bb-4291-be42-2c361aed67f0","ios":"levelo://app?vid=34320fce-24bb-4291-be42-2c361aed67f0"},"vehicle_type_id":"4","last_reported":1683489959,"current_range_meters":18400,"station_id":"ce4rr2p2rcd13i802rgg","pricing_plan_id":"free"},{"bike_id":"610f4cf2-2ffb-4136-95ed-3579f336a8ea","system_id":"levelo_inurba_marseille","lat":43.3375,"lon":5.3743,"is_reserved":false,"is_disabled":false,"rental_uris":{"android":"levelo://app?vid=610f4cf2-2ffb-4136-95ed-3579f336a8ea","ios":"levelo://app?vid=610f4cf2-2ffb-4136-95ed-3579f336a8ea"},"vehicle_type_id":"4","last_reported":1683489959,"current_range_meters":22400,"station_id":"","pricing_plan_id":"free"},{"bike_id":"9070207c-ce23-4a97-b89f-da673252f922","system_id":"levelo_inurba_marseille","lat":43.33752,"lon":5.37486,"is_reserved":false,"is_disabled":false,"rental_uris":{"android":"levelo://app?vid=9070207c-ce23-4a97-b89f-da673252f922","ios":"levelo://app?vid=9070207c-ce23-4a97-b89f-da673252f922"},"vehicle_type_id":"4","last_reported":1683489959,"current_range_meters":21200,"station_id":"","pricing_plan_id":"free"},{"bike_id":"1fd0f815-67b8-4eb1-8e8a-ff9c55d0a85a","system_id":"levelo_inurba_marseille","lat":43.30642,"lon":5.401031,"is_reserved":false,"is_disabled":false,"rental_uris":{"android":"levelo://app?vid=1fd0f815-67b8-4eb1-8e8a-ff9c55d0a85a","ios":"levelo://app?vid=1fd0f815-67b8-4eb1-8e8a-ff9c55d0a85a"},"vehicle_type_id":"4","last_reported":1683489959,"current_range_meters":1200,"station_id":"ce4bh112rcd13ifvqda0","pricing_plan_id":"free"},{"bike_id":"a4090907-9a0f-4a36-9e3e-a09e89681158","system_id":"levelo_inurba_marseille","lat":43.30642,"lon":5.401031,"is_reserved":false,"is_disabled":false,"rental_uris":{"android":"levelo://app?vid=a4090907-9a0f-4a36-9e3e-a09e89681158","ios":"levelo://app?vid=a4090907-9a0f-4a36-9e3e-a09e89681158"},"vehicle_type_id":"4","last_reported":1683489959,"current_range_meters":10400,"station_id":"ce4bh112rcd13ifvqda0","pricing_plan_id":"free"},{"bike_id":"896caca2-a2df-4aed-b22a-eb231d9b912e","system_id":"levelo_inurba_marseille","lat":43.30642,"lon":5.401031,"is_reserved":false,"is_disabled":false,"rental_uris":{"android":"levelo://app?vid=896caca2-a2df-4aed-b22a-eb231d9b912e","ios":"levelo://app?vid=896caca2-a2df-4aed-b22a-eb231d9b912e"},"vehicle_type_id":"4","last_reported":1683489959,"current_range_meters":0,"station_id":"ce4bh112rcd13ifvqda0","pricing_plan_id":"free"},{"bike_id":"f5bf50f2-8bf3-4138-a7ec-07da0bbec997","system_id":"levelo_inurba_marseille","lat":43.30642,"lon":5.401031,"is_reserved":false,"is_disabled":false,"rental_uris":{"android":"levelo://app?vid=f5bf50f2-8bf3-4138-a7ec-07da0bbec997","ios":"levelo://app?vid=f5bf50f2-8bf3-4138-a7ec-07da0bbec997"},"vehicle_type_id":"4","last_reported":1683489959,"current_range_meters":8000,"station_id":"ce4bh112rcd13ifvqda0","pricing_plan_id":"free"},{"bike_id":"f1b395d4-241f-4c65-a13a-c774b04b71b5","system_id":"levelo_inurba_marseille","lat":43.30642,"lon":5.401031,"is_reserved":false,"is_disabled":false,"rental_uris":{"android":"levelo://app?vid=f1b395d4-241f-4c65-a13a-c774b04b71b5","ios":"levelo://app?vid=f1b395d4-241f-4c65-a13a-c774b04b71b5"},"vehicle_type_id":"4","last_reported":1683489959,"current_range_meters":9200,"station_id":"ce4bh112rcd13ifvqda0","pricing_plan_id":"free"},{"bike_id":"686a3565-84d5-4017-bb78-19a199abfc18","system_id":"levelo_inurba_marseille","lat":43.30642,"lon":5.401031,"is_reserved":false,"is_disabled":false,"rental_uris":{"android":"levelo://app?vid=686a3565-84d5-4017-bb78-19a199abfc18","ios":"levelo://app?vid=686a3565-84d5-4017-bb78-19a199abfc18"},"vehicle_type_id":"4","last_reported":1683489959,"current_range_meters":800,"station_id":"ce4bh112rcd13ifvqda0","pricing_plan_id":"free"},{"bike_id":"db84b57a-c242-4d31-93f3-e9f12005c4b3","system_id":"levelo_inurba_marseille","lat":43.33762,"lon":5.37494,"is_reserved":false,"is_disabled":false,"rental_uris":{"android":"levelo://app?vid=db84b57a-c242-4d31-93f3-e9f12005c4b3","ios":"levelo://app?vid=db84b57a-c242-4d31-93f3-e9f12005c4b3"},"vehicle_type_id":"4","last_reported":1683489959,"current_range_meters":22000,"station_id":"","pricing_plan_id":"free"},{"bike_id":"6c2b9f04-757f-4dff-98a7-295632c7cccb","system_id":"levelo_inurba_marseille","lat":43.298764,"lon":5.388973,"is_reserved":false,"is_disabled":false,"rental_uris":{"android":"levelo://app?vid=6c2b9f04-757f-4dff-98a7-295632c7cccb","ios":"levelo://app?vid=6c2b9f04-757f-4dff-98a7-295632c7cccb"},"vehicle_type_id":"4","last_reported":1683489959,"current_range_meters":18800,"station_id":"ce4bh392rcd13ifvqdl0","pricing_plan_id":"free"},{"bike_id":"dde01c8f-040d-4996-9178-de7a3447c655","system_id":"levelo_inurba_marseille","lat":43.301117,"lon":5.398795,"is_reserved":false,"is_disabled":false,"rental_uris":{"android":"levelo://app?vid=dde01c8f-040d-4996-9178-de7a3447c655","ios":"levelo://app?vid=dde01c8f-040d-4996-9178-de7a3447c655"},"vehicle_type_id":"4","last_reported":1683489959,"current_range_meters":8000,"station_id":"ce4bh0h2rcd13ifvqd40","pricing_plan_id":"free"},{"bike_id":"e30fffe7-6743-46ee-8549-f6d4e4c4d8fd","system_id":"levelo_inurba_marseille","lat":43.301117,"lon":5.398795,"is_reserved":false,"is_disabled":false,"rental_uris":{"android":"levelo://app?vid=e30fffe7-6743-46ee-8549-f6d4e4c4d8fd","ios":"levelo://app?vid=e30fffe7-6743-46ee-8549-f6d4e4c4d8fd"},"vehicle_type_id":"4","last_reported":1683489959,"current_range_meters":11200,"station_id":"ce4bh0h2rcd13ifvqd40","pricing_plan_id":"free"},{"bike_id":"3ad866bb-9031-4b52-8274-ce0912ecf685","system_id":"levelo_inurba_marseille","lat":43.298681,"lon":5.397225,"is_reserved":false,"is_disabled":false,"rental_uris":{"android":"levelo://app?vid=3ad866bb-9031-4b52-8274-ce0912ecf685","ios":"levelo://app?vid=3ad866bb-9031-4b52-8274-ce0912ecf685"},"vehicle_type_id":"4","last_reported":1683489959,"current_range_meters":0,"station_id":"ce4bh0h2rcd13ifvqd50","pricing_plan_id":"free"},{"bike_id":"f1d79f0a-5db7-421f-be65-52ad87c585d5","system_id":"levelo_inurba_marseille","lat":43.298681,"lon":5.397225,"is_reserved":false,"is_disabled":false,"rental_uris":{"android":"levelo://app?vid=f1d79f0a-5db7-421f-be65-52ad87c585d5","ios":"levelo://app?vid=f1d79f0a-5db7-421f-be65-52ad87c585d5"},"vehicle_type_id":"4","last_reported":1683489959,"current_range_meters":29200,"station_id":"ce4bh0h2rcd13ifvqd50","pricing_plan_id":"free"},{"bike_id":"cc2591e8-b28c-4cc7-aead-429b944b4cd4","system_id":"levelo_inurba_marseille","lat":43.286593,"lon":5.363346,"is_reserved":false,"is_disabled":false,"rental_uris":{"android":"levelo://app?vid=cc2591e8-b28c-4cc7-aead-429b944b4cd4","ios":"levelo://app?vid=cc2591e8-b28c-4cc7-aead-429b944b4cd4"},"vehicle_type_id":"4","last_reported":1683489959,"current_range_meters":11600,"station_id":"ce4bhah2rcd13ifvqej0","pricing_plan_id":"free"},{"bike_id":"bb6ded7a-cd5a-4004-982d-9e6be2f64045","system_id":"levelo_inurba_marseille","lat":43.298681,"lon":5.397225,"is_reserved":false,"is_disabled":false,"rental_uris":{"android":"levelo://app?vid=bb6ded7a-cd5a-4004-982d-9e6be2f64045","ios":"levelo://app?vid=bb6ded7a-cd5a-4004-982d-9e6be2f64045"},"vehicle_type_id":"4","last_reported":1683489959,"current_range_meters":4800,"station_id":"ce4bh0h2rcd13ifvqd50","pricing_plan_id":"free"},{"bike_id":"2c3b294e-02ac-4828-9de9-c9d0f3d1f068","system_id":"levelo_inurba_marseille","lat":43.29528,"lon":5.39389,"is_reserved":false,"is_disabled":false,"rental_uris":{"android":"levelo://app?vid=2c3b294e-02ac-4828-9de9-c9d0f3d1f068","ios":"levelo://app?vid=2c3b294e-02ac-4828-9de9-c9d0f3d1f068"},"vehicle_type_id":"4","last_reported":1683489959,"current_range_meters":4000,"station_id":"ce4bh292rcd13ifvqdf0","pricing_plan_id":"free"},{"bike_id":"dfb7f656-2dc5-4ccd-8ce6-5622e33f4413","system_id":"levelo_inurba_marseille","lat":43.295194,"lon":5.39397,"is_reserved":false,"is_disabled":false,"rental_uris":{"android":"levelo://app?vid=dfb7f656-2dc5-4ccd-8ce6-5622e33f4413","ios":"levelo://app?vid=dfb7f656-2dc5-4ccd-8ce6-5622e33f4413"},"vehicle_type_id":"4","last_reported":1683489959,"current_range_meters":0,"station_id":"ce4bh292rcd13ifvqdf0","pricing_plan_id":"free"},{"bike_id":"7f28d873-1e1d-4f83-87fd-703bd863eb2e","system_id":"levelo_inurba_marseille","lat":43.29519,"lon":5.39404,"is_reserved":false,"is_disabled":false,"rental_uris":{"android":"levelo://app?vid=7f28d873-1e1d-4f83-87fd-703bd863eb2e","ios":"levelo://app?vid=7f28d873-1e1d-4f83-87fd-703bd863eb2e"},"vehicle_type_id":"4","last_reported":1683489959,"current_range_meters":6800,"station_id":"ce4bh292rcd13ifvqdf0","pricing_plan_id":"free"},{"bike_id":"2b2cb3d3-513e-414f-bcc0-a3f7e8755b16","system_id":"levelo_inurba_marseille","lat":43.302759,"lon":5.400793,"is_reserved":false,"is_disabled":false,"rental_uris":{"android":"levelo://app?vid=2b2cb3d3-513e-414f-bcc0-a3f7e8755b16","ios":"levelo://app?vid=2b2cb3d3-513e-414f-bcc0-a3f7e8755b16"},"vehicle_type_id":"4","last_reported":1683489959,"current_range_meters":11200,"station_id":"ce4bgvh2rcd13ifvqcs0","pricing_plan_id":"free"},{"bike_id":"31432234-5fd0-41c8-b570-1cf7e4763e80","system_id":"levelo_inurba_marseille","lat":43.302759,"lon":5.400793,"is_reserved":false,"is_disabled":false,"rental_uris":{"android":"levelo://app?vid=31432234-5fd0-41c8-b570-1cf7e4763e80","ios":"levelo://app?vid=31432234-5fd0-41c8-b570-1cf7e4763e80"},"vehicle_type_id":"4","last_reported":1683489959,"current_range_meters":0,"station_id":"ce4bgvh2rcd13ifvqcs0","pricing_plan_id":"free"},{"bike_id":"3e4a0f25-1f81-412e-ac41-2c7b2a0afe51","system_id":"levelo_inurba_marseille","lat":43.302759,"lon":5.400793,"is_reserved":false,"is_disabled":false,"rental_uris":{"android":"levelo://app?vid=3e4a0f25-1f81-412e-ac41-2c7b2a0afe51","ios":"levelo://app?vid=3e4a0f25-1f81-412e-ac41-2c7b2a0afe51"},"vehicle_type_id":"4","last_reported":1683489959,"current_range_meters":4000,"station_id":"ce4bgvh2rcd13ifvqcs0","pricing_plan_id":"free"},{"bike_id":"34027285-58ea-426c-818b-76aef9a904ae","system_id":"levelo_inurba_marseille","lat":43.302759,"lon":5.400793,"is_reserved":false,"is_disabled":false,"rental_uris":{"android":"levelo://app?vid=34027285-58ea-426c-818b-76aef9a904ae","ios":"levelo://app?vid=34027285-58ea-426c-818b-76aef9a904ae"},"vehicle_type_id":"4","last_reported":1683489959,"current_range_meters":5600,"station_id":"ce4bgvh2rcd13ifvqcs0","pricing_plan_id":"free"},{"bike_id":"c85278b3-1740-403e-a3fb-78bbea3a0ef6","system_id":"levelo_inurba_marseille","lat":43.290345,"lon":5.38646,"is_reserved":false,"is_disabled":false,"rental_uris":{"android":"levelo://app?vid=c85278b3-1740-403e-a3fb-78bbea3a0ef6","ios":"levelo://app?vid=c85278b3-1740-403e-a3fb-78bbea3a0ef6"},"vehicle_type_id":"4","last_reported":1683489959,"current_range_meters":25600,"station_id":"ce4bh4p2rcd13ifvqe0g","pricing_plan_id":"free"},{"bike_id":"4e4d0179-8c03-4035-a645-9e4223eb4186","system_id":"levelo_inurba_marseille","lat":43.290345,"lon":5.38646,"is_reserved":false,"is_disabled":false,"rental_uris":{"android":"levelo://app?vid=4e4d0179-8c03-4035-a645-9e4223eb4186","ios":"levelo://app?vid=4e4d0179-8c03-4035-a645-9e4223eb4186"},"vehicle_type_id":"4","last_reported":1683489959,"current_range_meters":7600,"station_id":"ce4bh4p2rcd13ifvqe0g","pricing_plan_id":"free"},{"bike_id":"084457d2-c7bf-4287-b4f6-549cb96f16d3","system_id":"levelo_inurba_marseille","lat":43.29028,"lon":5.38646,"is_reserved":false,"is_disabled":false,"rental_uris":{"android":"levelo://app?vid=084457d2-c7bf-4287-b4f6-549cb96f16d3","ios":"levelo://app?vid=084457d2-c7bf-4287-b4f6-549cb96f16d3"},"vehicle_type_id":"4","last_reported":1683489959,"current_range_meters":6000,"station_id":"ce4bh4p2rcd13ifvqe0g","pricing_plan_id":"free"},{"bike_id":"28b36205-3ab0-4bbc-9912-9bdfa4182fc0","system_id":"levelo_inurba_marseille","lat":43.30254,"lon":5.40066,"is_reserved":false,"is_disabled":false,"rental_uris":{"android":"levelo://app?vid=28b36205-3ab0-4bbc-9912-9bdfa4182fc0","ios":"levelo://app?vid=28b36205-3ab0-4bbc-9912-9bdfa4182fc0"},"vehicle_type_id":"4","last_reported":1683489959,"current_range_meters":17600,"station_id":"ce4bgvh2rcd13ifvqcs0","pricing_plan_id":"free"},{"bike_id":"56aa786e-016c-4a3e-ba91-09272e1c7047","system_id":"levelo_inurba_marseille","lat":43.290336,"lon":5.386425,"is_reserved":false,"is_disabled":false,"rental_uris":{"android":"levelo://app?vid=56aa786e-016c-4a3e-ba91-09272e1c7047","ios":"levelo://app?vid=56aa786e-016c-4a3e-ba91-09272e1c7047"},"vehicle_type_id":"4","last_reported":1683489959,"current_range_meters":15200,"station_id":"ce4bh4p2rcd13ifvqe0g","pricing_plan_id":"free"},{"bike_id":"b0795b3f-431d-439d-87d5-b0ee961e7d4c","system_id":"levelo_inurba_marseille","lat":43.302759,"lon":5.400793,"is_reserved":false,"is_disabled":false,"rental_uris":{"android":"levelo://app?vid=b0795b3f-431d-439d-87d5-b0ee961e7d4c","ios":"levelo://app?vid=b0795b3f-431d-439d-87d5-b0ee961e7d4c"},"vehicle_type_id":"4","last_reported":1683489959,"current_range_meters":7600,"station_id":"ce4bgvh2rcd13ifvqcs0","pricing_plan_id":"free"},{"bike_id":"9e9cd239-d61b-483d-b625-63727b985813","system_id":"levelo_inurba_marseille","lat":43.30249,"lon":5.40064,"is_reserved":false,"is_disabled":false,"rental_uris":{"android":"levelo://app?vid=9e9cd239-d61b-483d-b625-63727b985813","ios":"levelo://app?vid=9e9cd239-d61b-483d-b625-63727b985813"},"vehicle_type_id":"4","last_reported":1683489959,"current_range_meters":16000,"station_id":"","pricing_plan_id":"free"},{"bike_id":"d27415c2-bbd9-41cf-92ea-7b648629f460","system_id":"levelo_inurba_marseille","lat":43.290336,"lon":5.386425,"is_reserved":false,"is_disabled":false,"rental_uris":{"android":"levelo://app?vid=d27415c2-bbd9-41cf-92ea-7b648629f460","ios":"levelo://app?vid=d27415c2-bbd9-41cf-92ea-7b648629f460"},"vehicle_type_id":"4","last_reported":1683489959,"current_range_meters":2800,"station_id":"ce4bh4p2rcd13ifvqe0g","pricing_plan_id":"free"},{"bike_id":"60178df6-e4cf-4e12-8172-69fecd186260","system_id":"levelo_inurba_marseille","lat":43.290336,"lon":5.386425,"is_reserved":false,"is_disabled":false,"rental_uris":{"android":"levelo://app?vid=60178df6-e4cf-4e12-8172-69fecd186260","ios":"levelo://app?vid=60178df6-e4cf-4e12-8172-69fecd186260"},"vehicle_type_id":"4","last_reported":1683489959,"current_range_meters":30800,"station_id":"ce4bh4p2rcd13ifvqe0g","pricing_plan_id":"free"},{"bike_id":"38af8fcf-0c72-4b57-80af-1b57ebfff83e","system_id":"levelo_inurba_marseille","lat":43.302759,"lon":5.400793,"is_reserved":false,"is_disabled":false,"rental_uris":{"android":"levelo://app?vid=38af8fcf-0c72-4b57-80af-1b57ebfff83e","ios":"levelo://app?vid=38af8fcf-0c72-4b57-80af-1b57ebfff83e"},"vehicle_type_id":"4","last_reported":1683489959,"current_range_meters":400,"station_id":"ce4bgvh2rcd13ifvqcs0","pricing_plan_id":"free"},{"bike_id":"89c3041c-d2a1-44fa-85fb-e6449050e531","system_id":"levelo_inurba_marseille","lat":43.30253,"lon":5.40076,"is_reserved":false,"is_disabled":false,"rental_uris":{"android":"levelo://app?vid=89c3041c-d2a1-44fa-85fb-e6449050e531","ios":"levelo://app?vid=89c3041c-d2a1-44fa-85fb-e6449050e531"},"vehicle_type_id":"4","last_reported":1683489959,"current_range_meters":7200,"station_id":"ce4bgvh2rcd13ifvqcs0","pricing_plan_id":"free"},{"bike_id":"99e48394-21d7-4c04-9681-92ba4ac06715","system_id":"levelo_inurba_marseille","lat":43.287184,"lon":5.37937,"is_reserved":false,"is_disabled":false,"rental_uris":{"android":"levelo://app?vid=99e48394-21d7-4c04-9681-92ba4ac06715","ios":"levelo://app?vid=99e48394-21d7-4c04-9681-92ba4ac06715"},"vehicle_type_id":"4","last_reported":1683489959,"current_range_meters":11200,"station_id":"ce4bh9p2rcd13ifvqec0","pricing_plan_id":"free"},{"bike_id":"c4bd5661-4fb5-4232-8306-8d77f521bdd1","system_id":"levelo_inurba_marseille","lat":43.290336,"lon":5.386425,"is_reserved":false,"is_disabled":false,"rental_uris":{"android":"levelo://app?vid=c4bd5661-4fb5-4232-8306-8d77f521bdd1","ios":"levelo://app?vid=c4bd5661-4fb5-4232-8306-8d77f521bdd1"},"vehicle_type_id":"4","last_reported":1683489959,"current_range_meters":8400,"station_id":"ce4bh4p2rcd13ifvqe0g","pricing_plan_id":"free"},{"bike_id":"2fa77250-eaeb-4dd9-8572-7864261cc6aa","system_id":"levelo_inurba_marseille","lat":43.316517,"lon":5.404375,"is_reserved":false,"is_disabled":false,"rental_uris":{"android":"levelo://app?vid=2fa77250-eaeb-4dd9-8572-7864261cc6aa","ios":"levelo://app?vid=2fa77250-eaeb-4dd9-8572-7864261cc6aa"},"vehicle_type_id":"4","last_reported":1683489959,"current_range_meters":4000,"station_id":"ce4bh012rcd13ifvqd00","pricing_plan_id":"free"},{"bike_id":"e76cf5fd-700d-4f8b-87ad-3e64c2085754","system_id":"levelo_inurba_marseille","lat":43.31646,"lon":5.4043,"is_reserved":false,"is_disabled":false,"rental_uris":{"android":"levelo://app?vid=e76cf5fd-700d-4f8b-87ad-3e64c2085754","ios":"levelo://app?vid=e76cf5fd-700d-4f8b-87ad-3e64c2085754"},"vehicle_type_id":"4","last_reported":1683489959,"current_range_meters":4400,"station_id":"ce4bh012rcd13ifvqd00","pricing_plan_id":"free"},{"bike_id":"9b58c03a-e056-4d5d-9897-00689f1be5e2","system_id":"levelo_inurba_marseille","lat":43.33473,"lon":5.38999,"is_reserved":false,"is_disabled":false,"rental_uris":{"android":"levelo://app?vid=9b58c03a-e056-4d5d-9897-00689f1be5e2","ios":"levelo://app?vid=9b58c03a-e056-4d5d-9897-00689f1be5e2"},"vehicle_type_id":"4","last_reported":1683489959,"current_range_meters":2400,"station_id":"","pricing_plan_id":"free"},{"bike_id":"27865f6e-c046-4416-9233-48156b6bae2c","system_id":"levelo_inurba_marseille","lat":43.33482,"lon":5.38984,"is_reserved":false,"is_disabled":false,"rental_uris":{"android":"levelo://app?vid=27865f6e-c046-4416-9233-48156b6bae2c","ios":"levelo://app?vid=27865f6e-c046-4416-9233-48156b6bae2c"},"vehicle_type_id":"4","last_reported":1683489959,"current_range_meters":24800,"station_id":"","pricing_plan_id":"free"},{"bike_id":"644cee08-6b74-4eb0-a368-23c1dc17b963","system_id":"levelo_inurba_marseille","lat":43.291994,"lon":5.392907,"is_reserved":false,"is_disabled":false,"rental_uris":{"android":"levelo://app?vid=644cee08-6b74-4eb0-a368-23c1dc17b963","ios":"levelo://app?vid=644cee08-6b74-4eb0-a368-23c1dc17b963"},"vehicle_type_id":"4","last_reported":1683489959,"current_range_meters":17600,"station_id":"ce4bh192rcd13ifvqdd0","pricing_plan_id":"free"},{"bike_id":"7d5cf767-2090-41f6-bac1-ff4a893f2c49","system_id":"levelo_inurba_marseille","lat":43.284534,"lon":5.358662,"is_reserved":false,"is_disabled":false,"rental_uris":{"android":"levelo://app?vid=7d5cf767-2090-41f6-bac1-ff4a893f2c49","ios":"levelo://app?vid=7d5cf767-2090-41f6-bac1-ff4a893f2c49"},"vehicle_type_id":"4","last_reported":1683489959,"current_range_meters":7600,"station_id":"ce4bhah2rcd13ifvqei0","pricing_plan_id":"free"},{"bike_id":"cb26f6fa-eba0-48e5-b41e-d8ff74143aac","system_id":"levelo_inurba_marseille","lat":43.284534,"lon":5.358662,"is_reserved":false,"is_disabled":false,"rental_uris":{"android":"levelo://app?vid=cb26f6fa-eba0-48e5-b41e-d8ff74143aac","ios":"levelo://app?vid=cb26f6fa-eba0-48e5-b41e-d8ff74143aac"},"vehicle_type_id":"4","last_reported":1683489959,"current_range_meters":17600,"station_id":"ce4bhah2rcd13ifvqei0","pricing_plan_id":"free"},{"bike_id":"ba7c2c80-fd45-4d6a-a14f-736c82a8c426","system_id":"levelo_inurba_marseille","lat":43.284534,"lon":5.358662,"is_reserved":false,"is_disabled":false,"rental_uris":{"android":"levelo://app?vid=ba7c2c80-fd45-4d6a-a14f-736c82a8c426","ios":"levelo://app?vid=ba7c2c80-fd45-4d6a-a14f-736c82a8c426"},"vehicle_type_id":"4","last_reported":1683489959,"current_range_meters":19200,"station_id":"ce4bhah2rcd13ifvqei0","pricing_plan_id":"free"},{"bike_id":"85f700ea-80c4-435d-9983-2d1fa3777cbd","system_id":"levelo_inurba_marseille","lat":43.28619,"lon":5.35098,"is_reserved":false,"is_disabled":false,"rental_uris":{"android":"levelo://app?vid=85f700ea-80c4-435d-9983-2d1fa3777cbd","ios":"levelo://app?vid=85f700ea-80c4-435d-9983-2d1fa3777cbd"},"vehicle_type_id":"4","last_reported":1683489959,"current_range_meters":21200,"station_id":"","pricing_plan_id":"free"},{"bike_id":"30bcb7ce-68ed-44bc-a0d5-2355bad0bf71","system_id":"levelo_inurba_marseille","lat":43.28612,"lon":5.35102,"is_reserved":false,"is_disabled":false,"rental_uris":{"android":"levelo://app?vid=30bcb7ce-68ed-44bc-a0d5-2355bad0bf71","ios":"levelo://app?vid=30bcb7ce-68ed-44bc-a0d5-2355bad0bf71"},"vehicle_type_id":"4","last_reported":1683489959,"current_range_meters":0,"station_id":"","pricing_plan_id":"free"},{"bike_id":"b6bd5a8a-fdff-43d8-8927-142694133204","system_id":"levelo_inurba_marseille","lat":43.286595,"lon":5.386795,"is_reserved":false,"is_disabled":false,"rental_uris":{"android":"levelo://app?vid=b6bd5a8a-fdff-43d8-8927-142694133204","ios":"levelo://app?vid=b6bd5a8a-fdff-43d8-8927-142694133204"},"vehicle_type_id":"4","last_reported":1683489959,"current_range_meters":0,"station_id":"ce4bh492rcd13ifvqdug","pricing_plan_id":"free"},{"bike_id":"7cdb1143-1df3-41fc-a179-c2f32ca67ebe","system_id":"levelo_inurba_marseille","lat":43.2851,"lon":5.35127,"is_reserved":false,"is_disabled":false,"rental_uris":{"android":"levelo://app?vid=7cdb1143-1df3-41fc-a179-c2f32ca67ebe","ios":"levelo://app?vid=7cdb1143-1df3-41fc-a179-c2f32ca67ebe"},"vehicle_type_id":"4","last_reported":1683489959,"current_range_meters":3200,"station_id":"","pricing_plan_id":"free"},{"bike_id":"90fefa4d-bf6c-4e62-8594-ec1e43ae7025","system_id":"levelo_inurba_marseille","lat":43.337168,"lon":5.391825,"is_reserved":false,"is_disabled":false,"rental_uris":{"android":"levelo://app?vid=90fefa4d-bf6c-4e62-8594-ec1e43ae7025","ios":"levelo://app?vid=90fefa4d-bf6c-4e62-8594-ec1e43ae7025"},"vehicle_type_id":"4","last_reported":1683489959,"current_range_meters":26400,"station_id":"ce4bhr92rcd13ifvqhsg","pricing_plan_id":"free"},{"bike_id":"eeed33b8-4405-4fee-8d96-fecd07572891","system_id":"levelo_inurba_marseille","lat":43.323464,"lon":5.406297,"is_reserved":false,"is_disabled":false,"rental_uris":{"android":"levelo://app?vid=eeed33b8-4405-4fee-8d96-fecd07572891","ios":"levelo://app?vid=eeed33b8-4405-4fee-8d96-fecd07572891"},"vehicle_type_id":"4","last_reported":1683489959,"current_range_meters":2800,"station_id":"ce4bhq92rcd13ifvqhjg","pricing_plan_id":"free"},{"bike_id":"ad3cdfdb-0864-4cce-8a5d-05a05de94244","system_id":"levelo_inurba_marseille","lat":43.3008,"lon":5.40547,"is_reserved":false,"is_disabled":false,"rental_uris":{"android":"levelo://app?vid=ad3cdfdb-0864-4cce-8a5d-05a05de94244","ios":"levelo://app?vid=ad3cdfdb-0864-4cce-8a5d-05a05de94244"},"vehicle_type_id":"4","last_reported":1683489959,"current_range_meters":14400,"station_id":"","pricing_plan_id":"free"},{"bike_id":"a4fae2d6-7097-4fee-8c63-ba0f28da36cb","system_id":"levelo_inurba_marseille","lat":43.33717,"lon":5.391857,"is_reserved":false,"is_disabled":false,"rental_uris":{"android":"levelo://app?vid=a4fae2d6-7097-4fee-8c63-ba0f28da36cb","ios":"levelo://app?vid=a4fae2d6-7097-4fee-8c63-ba0f28da36cb"},"vehicle_type_id":"4","last_reported":1683489959,"current_range_meters":5200,"station_id":"ce4bhr92rcd13ifvqhsg","pricing_plan_id":"free"},{"bike_id":"2cd4f8a8-ff60-4e2d-89ac-05b16bbdafe3","system_id":"levelo_inurba_marseille","lat":43.284787,"lon":5.384116,"is_reserved":false,"is_disabled":false,"rental_uris":{"android":"levelo://app?vid=2cd4f8a8-ff60-4e2d-89ac-05b16bbdafe3","ios":"levelo://app?vid=2cd4f8a8-ff60-4e2d-89ac-05b16bbdafe3"},"vehicle_type_id":"4","last_reported":1683489959,"current_range_meters":10800,"station_id":"ce4bh512rcd13ifvqe3g","pricing_plan_id":"free"},{"bike_id":"4636afb1-49d2-40af-b624-a967a50a83a5","system_id":"levelo_inurba_marseille","lat":43.284787,"lon":5.384116,"is_reserved":false,"is_disabled":false,"rental_uris":{"android":"levelo://app?vid=4636afb1-49d2-40af-b624-a967a50a83a5","ios":"levelo://app?vid=4636afb1-49d2-40af-b624-a967a50a83a5"},"vehicle_type_id":"4","last_reported":1683489959,"current_range_meters":0,"station_id":"ce4bh512rcd13ifvqe3g","pricing_plan_id":"free"},{"bike_id":"ea5e43a0-4709-4e71-8b45-6ffe1a736c8d","system_id":"levelo_inurba_marseille","lat":43.288497,"lon":5.393089,"is_reserved":false,"is_disabled":false,"rental_uris":{"android":"levelo://app?vid=ea5e43a0-4709-4e71-8b45-6ffe1a736c8d","ios":"levelo://app?vid=ea5e43a0-4709-4e71-8b45-6ffe1a736c8d"},"vehicle_type_id":"4","last_reported":1683489959,"current_range_meters":3200,"station_id":"ce4bh2p2rcd13ifvqdi0","pricing_plan_id":"free"},{"bike_id":"08ed372a-67a1-427b-8319-33100828c48b","system_id":"levelo_inurba_marseille","lat":43.288527,"lon":5.393208,"is_reserved":false,"is_disabled":false,"rental_uris":{"android":"levelo://app?vid=08ed372a-67a1-427b-8319-33100828c48b","ios":"levelo://app?vid=08ed372a-67a1-427b-8319-33100828c48b"},"vehicle_type_id":"4","last_reported":1683489959,"current_range_meters":2400,"station_id":"ce4bh2p2rcd13ifvqdi0","pricing_plan_id":"free"},{"bike_id":"41989ed9-ad0f-42be-92aa-059fd49cadee","system_id":"levelo_inurba_marseille","lat":43.283494,"lon":5.380945,"is_reserved":false,"is_disabled":false,"rental_uris":{"android":"levelo://app?vid=41989ed9-ad0f-42be-92aa-059fd49cadee","ios":"levelo://app?vid=41989ed9-ad0f-42be-92aa-059fd49cadee"},"vehicle_type_id":"4","last_reported":1683489959,"current_range_meters":7200,"station_id":"ce4bh412rcd13ifvqdr0","pricing_plan_id":"free"},{"bike_id":"a7d16136-c341-4e74-8c04-2e673b7ae374","system_id":"levelo_inurba_marseille","lat":43.28348,"lon":5.38103,"is_reserved":false,"is_disabled":false,"rental_uris":{"android":"levelo://app?vid=a7d16136-c341-4e74-8c04-2e673b7ae374","ios":"levelo://app?vid=a7d16136-c341-4e74-8c04-2e673b7ae374"},"vehicle_type_id":"4","last_reported":1683489959,"current_range_meters":0,"station_id":"ce4bh412rcd13ifvqdr0","pricing_plan_id":"free"},{"bike_id":"98b6d054-3ed6-4462-a75c-b36f2f2cc167","system_id":"levelo_inurba_marseille","lat":43.283498,"lon":5.380948,"is_reserved":false,"is_disabled":false,"rental_uris":{"android":"levelo://app?vid=98b6d054-3ed6-4462-a75c-b36f2f2cc167","ios":"levelo://app?vid=98b6d054-3ed6-4462-a75c-b36f2f2cc167"},"vehicle_type_id":"4","last_reported":1683489959,"current_range_meters":1600,"station_id":"ce4bh412rcd13ifvqdr0","pricing_plan_id":"free"},{"bike_id":"291aaf52-6e8a-4afa-8832-520ebba378a7","system_id":"levelo_inurba_marseille","lat":43.28934,"lon":5.3962,"is_reserved":false,"is_disabled":false,"rental_uris":{"android":"levelo://app?vid=291aaf52-6e8a-4afa-8832-520ebba378a7","ios":"levelo://app?vid=291aaf52-6e8a-4afa-8832-520ebba378a7"},"vehicle_type_id":"4","last_reported":1683489959,"current_range_meters":3200,"station_id":"ce4bh3h2rcd13ifvqdn0","pricing_plan_id":"free"},{"bike_id":"57d12ab1-b80e-4abc-a24e-a5550f35b0b8","system_id":"levelo_inurba_marseille","lat":43.289363,"lon":5.396322,"is_reserved":false,"is_disabled":false,"rental_uris":{"android":"levelo://app?vid=57d12ab1-b80e-4abc-a24e-a5550f35b0b8","ios":"levelo://app?vid=57d12ab1-b80e-4abc-a24e-a5550f35b0b8"},"vehicle_type_id":"4","last_reported":1683489959,"current_range_meters":16400,"station_id":"ce4bh3h2rcd13ifvqdn0","pricing_plan_id":"free"},{"bike_id":"ca2530c3-7d2c-4c18-934b-e5a32ea5a49c","system_id":"levelo_inurba_marseille","lat":43.292724,"lon":5.401131,"is_reserved":false,"is_disabled":false,"rental_uris":{"android":"levelo://app?vid=ca2530c3-7d2c-4c18-934b-e5a32ea5a49c","ios":"levelo://app?vid=ca2530c3-7d2c-4c18-934b-e5a32ea5a49c"},"vehicle_type_id":"4","last_reported":1683489959,"current_range_meters":800,"station_id":"ce4bh312rcd13ifvqdk0","pricing_plan_id":"free"},{"bike_id":"7ff8a300-fbfa-4907-bee2-f31901d9c6b7","system_id":"levelo_inurba_marseille","lat":43.292724,"lon":5.401131,"is_reserved":false,"is_disabled":false,"rental_uris":{"android":"levelo://app?vid=7ff8a300-fbfa-4907-bee2-f31901d9c6b7","ios":"levelo://app?vid=7ff8a300-fbfa-4907-bee2-f31901d9c6b7"},"vehicle_type_id":"4","last_reported":1683489959,"current_range_meters":5200,"station_id":"ce4bh312rcd13ifvqdk0","pricing_plan_id":"free"},{"bike_id":"9708df28-ebe0-4043-8eed-0409b9af7bdc","system_id":"levelo_inurba_marseille","lat":43.292724,"lon":5.401131,"is_reserved":false,"is_disabled":false,"rental_uris":{"android":"levelo://app?vid=9708df28-ebe0-4043-8eed-0409b9af7bdc","ios":"levelo://app?vid=9708df28-ebe0-4043-8eed-0409b9af7bdc"},"vehicle_type_id":"4","last_reported":1683489959,"current_range_meters":9600,"station_id":"ce4bh312rcd13ifvqdk0","pricing_plan_id":"free"},{"bike_id":"e8fbaa13-39d0-4d85-99fb-b0029d47446e","system_id":"levelo_inurba_marseille","lat":43.292724,"lon":5.401131,"is_reserved":false,"is_disabled":false,"rental_uris":{"android":"levelo://app?vid=e8fbaa13-39d0-4d85-99fb-b0029d47446e","ios":"levelo://app?vid=e8fbaa13-39d0-4d85-99fb-b0029d47446e"},"vehicle_type_id":"4","last_reported":1683489959,"current_range_meters":1200,"station_id":"ce4bh312rcd13ifvqdk0","pricing_plan_id":"free"},{"bike_id":"76242f32-c407-44d4-84d7-fa1d50b0f9dc","system_id":"levelo_inurba_marseille","lat":43.32444,"lon":5.40831,"is_reserved":false,"is_disabled":false,"rental_uris":{"android":"levelo://app?vid=76242f32-c407-44d4-84d7-fa1d50b0f9dc","ios":"levelo://app?vid=76242f32-c407-44d4-84d7-fa1d50b0f9dc"},"vehicle_type_id":"4","last_reported":1683489959,"current_range_meters":0,"station_id":"","pricing_plan_id":"free"},{"bike_id":"cfdbba95-dbf6-4269-b648-a49bbbd9820a","system_id":"levelo_inurba_marseille","lat":43.28268,"lon":5.35057,"is_reserved":false,"is_disabled":false,"rental_uris":{"android":"levelo://app?vid=cfdbba95-dbf6-4269-b648-a49bbbd9820a","ios":"levelo://app?vid=cfdbba95-dbf6-4269-b648-a49bbbd9820a"},"vehicle_type_id":"4","last_reported":1683489959,"current_range_meters":14000,"station_id":"ce4bhbp2rcd13ifvqerg","pricing_plan_id":"free"},{"bike_id":"2cb80bc3-c30e-41f2-a234-074e7d3b3676","system_id":"levelo_inurba_marseille","lat":43.282754,"lon":5.350519,"is_reserved":false,"is_disabled":false,"rental_uris":{"android":"levelo://app?vid=2cb80bc3-c30e-41f2-a234-074e7d3b3676","ios":"levelo://app?vid=2cb80bc3-c30e-41f2-a234-074e7d3b3676"},"vehicle_type_id":"4","last_reported":1683489959,"current_range_meters":2400,"station_id":"ce4bhbp2rcd13ifvqerg","pricing_plan_id":"free"},{"bike_id":"4f2b10fa-baa2-44f8-8ca6-a4fc082a59b9","system_id":"levelo_inurba_marseille","lat":43.280382,"lon":5.369291,"is_reserved":false,"is_disabled":false,"rental_uris":{"android":"levelo://app?vid=4f2b10fa-baa2-44f8-8ca6-a4fc082a59b9","ios":"levelo://app?vid=4f2b10fa-baa2-44f8-8ca6-a4fc082a59b9"},"vehicle_type_id":"4","last_reported":1683489959,"current_range_meters":4800,"station_id":"ce4bha12rcd13ifvqef0","pricing_plan_id":"free"},{"bike_id":"fe05a86d-4e2c-4213-a870-cd91597c41bd","system_id":"levelo_inurba_marseille","lat":43.28258,"lon":5.35061,"is_reserved":false,"is_disabled":false,"rental_uris":{"android":"levelo://app?vid=fe05a86d-4e2c-4213-a870-cd91597c41bd","ios":"levelo://app?vid=fe05a86d-4e2c-4213-a870-cd91597c41bd"},"vehicle_type_id":"4","last_reported":1683489959,"current_range_meters":0,"station_id":"ce4bhbp2rcd13ifvqerg","pricing_plan_id":"free"},{"bike_id":"bc1e1d86-da10-495f-8eb6-79f43d9d13d4","system_id":"levelo_inurba_marseille","lat":43.280382,"lon":5.369291,"is_reserved":false,"is_disabled":false,"rental_uris":{"android":"levelo://app?vid=bc1e1d86-da10-495f-8eb6-79f43d9d13d4","ios":"levelo://app?vid=bc1e1d86-da10-495f-8eb6-79f43d9d13d4"},"vehicle_type_id":"4","last_reported":1683489959,"current_range_meters":2400,"station_id":"ce4bha12rcd13ifvqef0","pricing_plan_id":"free"},{"bike_id":"3dbff5c2-d5b1-4b1a-8b55-0e27c45f2dc3","system_id":"levelo_inurba_marseille","lat":43.28033,"lon":5.36943,"is_reserved":false,"is_disabled":false,"rental_uris":{"android":"levelo://app?vid=3dbff5c2-d5b1-4b1a-8b55-0e27c45f2dc3","ios":"levelo://app?vid=3dbff5c2-d5b1-4b1a-8b55-0e27c45f2dc3"},"vehicle_type_id":"4","last_reported":1683489959,"current_range_meters":13200,"station_id":"ce4bha12rcd13ifvqef0","pricing_plan_id":"free"},{"bike_id":"048447c6-6b65-470a-abe6-0a216115b53e","system_id":"levelo_inurba_marseille","lat":43.280382,"lon":5.369291,"is_reserved":false,"is_disabled":false,"rental_uris":{"android":"levelo://app?vid=048447c6-6b65-470a-abe6-0a216115b53e","ios":"levelo://app?vid=048447c6-6b65-470a-abe6-0a216115b53e"},"vehicle_type_id":"4","last_reported":1683489959,"current_range_meters":31200,"station_id":"ce4bha12rcd13ifvqef0","pricing_plan_id":"free"},{"bike_id":"8ecc684f-53b8-42f0-9adb-49a938c1d904","system_id":"levelo_inurba_marseille","lat":43.281044,"lon":5.378308,"is_reserved":false,"is_disabled":false,"rental_uris":{"android":"levelo://app?vid=8ecc684f-53b8-42f0-9adb-49a938c1d904","ios":"levelo://app?vid=8ecc684f-53b8-42f0-9adb-49a938c1d904"},"vehicle_type_id":"4","last_reported":1683489959,"current_range_meters":13600,"station_id":"ce4bha12rcd13ifvqee0","pricing_plan_id":"free"},{"bike_id":"7cfe6d2b-5d19-4e7e-8c50-89a7d88fc040","system_id":"levelo_inurba_marseille","lat":43.281044,"lon":5.378308,"is_reserved":false,"is_disabled":false,"rental_uris":{"android":"levelo://app?vid=7cfe6d2b-5d19-4e7e-8c50-89a7d88fc040","ios":"levelo://app?vid=7cfe6d2b-5d19-4e7e-8c50-89a7d88fc040"},"vehicle_type_id":"4","last_reported":1683489959,"current_range_meters":0,"station_id":"ce4bha12rcd13ifvqee0","pricing_plan_id":"free"},{"bike_id":"04ed7b83-1f77-4cec-847f-6d4bd9ccf03b","system_id":"levelo_inurba_marseille","lat":43.281044,"lon":5.378308,"is_reserved":false,"is_disabled":false,"rental_uris":{"android":"levelo://app?vid=04ed7b83-1f77-4cec-847f-6d4bd9ccf03b","ios":"levelo://app?vid=04ed7b83-1f77-4cec-847f-6d4bd9ccf03b"},"vehicle_type_id":"4","last_reported":1683489959,"current_range_meters":1200,"station_id":"ce4bha12rcd13ifvqee0","pricing_plan_id":"free"},{"bike_id":"6b54b293-8eed-4038-bb4a-91c6704d19d2","system_id":"levelo_inurba_marseille","lat":43.28095,"lon":5.37856,"is_reserved":false,"is_disabled":false,"rental_uris":{"android":"levelo://app?vid=6b54b293-8eed-4038-bb4a-91c6704d19d2","ios":"levelo://app?vid=6b54b293-8eed-4038-bb4a-91c6704d19d2"},"vehicle_type_id":"4","last_reported":1683489959,"current_range_meters":25200,"station_id":"ce4bha12rcd13ifvqee0","pricing_plan_id":"free"},{"bike_id":"45be6590-c253-4f9a-aac1-1cbaacb87d3b","system_id":"levelo_inurba_marseille","lat":43.28579,"lon":5.39499,"is_reserved":false,"is_disabled":false,"rental_uris":{"android":"levelo://app?vid=45be6590-c253-4f9a-aac1-1cbaacb87d3b","ios":"levelo://app?vid=45be6590-c253-4f9a-aac1-1cbaacb87d3b"},"vehicle_type_id":"4","last_reported":1683489959,"current_range_meters":0,"station_id":"ce4bh292rcd13ifvqdg0","pricing_plan_id":"free"},{"bike_id":"668243c3-d60b-4631-afdb-df9623b63a2a","system_id":"levelo_inurba_marseille","lat":43.2857,"lon":5.39493,"is_reserved":false,"is_disabled":false,"rental_uris":{"android":"levelo://app?vid=668243c3-d60b-4631-afdb-df9623b63a2a","ios":"levelo://app?vid=668243c3-d60b-4631-afdb-df9623b63a2a"},"vehicle_type_id":"4","last_reported":1683489959,"current_range_meters":25600,"station_id":"ce4bh292rcd13ifvqdg0","pricing_plan_id":"free"},{"bike_id":"b4342e5c-538e-4a42-aa9e-2d21092385ee","system_id":"levelo_inurba_marseille","lat":43.28576,"lon":5.39508,"is_reserved":false,"is_disabled":false,"rental_uris":{"android":"levelo://app?vid=b4342e5c-538e-4a42-aa9e-2d21092385ee","ios":"levelo://app?vid=b4342e5c-538e-4a42-aa9e-2d21092385ee"},"vehicle_type_id":"4","last_reported":1683489959,"current_range_meters":0,"station_id":"ce4bh292rcd13ifvqdg0","pricing_plan_id":"free"},{"bike_id":"9a67c35d-b7cd-4d16-be5d-ca611b8274c7","system_id":"levelo_inurba_marseille","lat":43.2857,"lon":5.395,"is_reserved":false,"is_disabled":false,"rental_uris":{"android":"levelo://app?vid=9a67c35d-b7cd-4d16-be5d-ca611b8274c7","ios":"levelo://app?vid=9a67c35d-b7cd-4d16-be5d-ca611b8274c7"},