{"last_updated":1714759755,"ttl":30,"version":"2.2","data":{"bikes":[{"bike_id":"0884453d-1df3-484e-b8ad-f707ba7385d9","system_id":"levelo_inurba_marseille","lat":43.31341,"lon":5.367098,"is_reserved":false,"is_disabled":false,"rental_uris":{"android":"levelo://app?vid=0884453d-1df3-484e-b8ad-f707ba7385d9","ios":"levelo://app?vid=0884453d-1df3-484e-b8ad-f707ba7385d9"},"vehicle_type_id":"4","last_reported":1714759755,"current_range_meters":14400,"station_id":"ce4bgr92rcd13ifvqc6g","pricing_plan_id":"cebpf4jnsgd1na2vs0mg"},{"bike_id":"3211d342-a98d-48d1-8dd6-00b27368ea04","system_id":"levelo_inurba_marseille","lat":43.313391,"lon":5.36706,"is_reserved":false,"is_disabled":false,"rental_uris":{"android":"levelo://app?vid=3211d342-a98d-48d1-8dd6-00b27368ea04","ios":"levelo://app?vid=3211d342-a98d-48d1-8dd6-00b27368ea04"},"vehicle_type_id":"4","last_reported":1714759755,"current_range_meters":19600,"station_id":"ce4bgr92rcd13ifvqc6g","pricing_plan_id":"cebpf4jnsgd1na2vs0mg"},{"bike_id":"e0a52e38-b6db-4eaf-97d7-96a73cafd91d","system_id":"levelo_inurba_marseille","lat":43.31224,"lon":5.36849,"is_reserved":false,"is_disabled":false,"rental_uris":{"android":"levelo://app?vid=e0a52e38-b6db-4eaf-97d7-96a73cafd91d","ios":"levelo://app?vid=e0a52e38-b6db-4eaf-97d7-96a73cafd91d"},"vehicle_type_id":"4","last_reported":1714759755,"current_range_meters":0,"station_id":"ce4bgl92rcd13ifvqbq0","pricing_plan_id":"cebpf4jnsgd1na2vs0mg"},{"bike_id":"194868e1-f48a-425c-9cfe-cf7de572ea28","system_id":"levelo_inurba_marseille","lat":43.31223,"lon":5.36854,"is_reserved":false,"is_disabled":false,"rental_uris":{"android":"levelo://app?vid=194868e1-f48a-425c-9cfe-cf7de572ea28","ios":"levelo://app?vid=194868e1-f48a-425c-9cfe-cf7de572ea28"},"vehicle_type_id":"4","last_reported":1714759755,"current_range_meters":5600,"station_id":"ce4bgl92rcd13ifvqbq0","pricing_plan_id":"cebpf4jnsgd1na2vs0mg"},{"bike_id":"c24bd861-7ecf-4003-8f66-cbda173316a6","system_id":"levelo_inurba_marseille","lat":43.312239,"lon":5.368562,"is_reserved":false,"is_disabled":false,"rental_uris":{"android":"levelo://app?vid=c24bd861-7ecf-4003-8f66-cbda173316a6","ios":"levelo://app?vid=c24bd861-7ecf-4003-8f66-cbda173316a6"},"vehicle_type_id":"4","last_reported":1714759755,"current_range_meters":12000,"station_id":"ce4bgl92rcd13ifvqbq0","pricing_plan_id":"cebpf4jnsgd1na2vs0mg"},{"bike_id":"45d4e3f4-b293-467e-8a41-6d874346c8f0","system_id":"levelo_inurba_marseille","lat":43.312239,"lon":5.368562,"is_reserved":false,"is_disabled":false,"rental_uris":{"android":"levelo://app?vid=45d4e3f4-b293-467e-8a41-6d874346c8f0","ios":"levelo://app?vid=45d4e3f4-b293-467e-8a41-6d874346c8f0"},"vehicle_type_id":"4","last_reported":1714759755,"current_range_meters":6000,"station_id":"ce4bgl92rcd13ifvqbq0","pricing_plan_id":"cebpf4jnsgd1na2vs0mg"},{"bike_id":"d58c93fe-e08a-499c-a383-561b7003ec09","system_id":"levelo_inurba_marseille","lat":43.314811,"lon":5.373103,"is_reserved":false,"is_disabled":false,"rental_uris":{"android":"levelo://app?vid=d58c93fe-e08a-499c-a383-561b7003ec09","ios":"levelo://app?vid=d58c93fe-e08a-499c-a383-561b7003ec09"},"vehicle_type_id":"4","last_reported":1714759755,"current_range_meters":29600,"station_id":"ce4bgt12rcd13ifvqcd0","pricing_plan_id":"cebpf4jnsgd1na2vs0mg"},{"bike_id":"964588ec-4512-45cd-8833-3d5097fc88e0","system_id":"levelo_inurba_marseille","lat":43.314811,"lon":5.373104,"is_reserved":false,"is_disabled":false,"rental_uris":{"android":"levelo://app?vid=964588ec-4512-45cd-8833-3d5097fc88e0","ios":"levelo://app?vid=964588ec-4512-45cd-8833-3d5097fc88e0"},"vehicle_type_id":"4","last_reported":1714759755,"current_range_meters":2800,"station_id":"ce4bgt12rcd13ifvqcd0","pricing_plan_id":"cebpf4jnsgd1na2vs0mg"},{"bike_id":"55c34154-ab52-4195-aa8d-9c5747fdf3d2","system_id":"levelo_inurba_marseille","lat":43.309034,"lon":5.371783,"is_reserved":false,"is_disabled":false,"rental_uris":{"android":"levelo://app?vid=55c34154-ab52-4195-aa8d-9c5747fdf3d2","ios":"levelo://app?vid=55c34154-ab52-4195-aa8d-9c5747fdf3d2"},"vehicle_type_id":"4","last_reported":1714759755,"current_range_meters":2800,"station_id":"ce4bguh2rcd13ifvqckg","pricing_plan_id":"cebpf4jnsgd1na2vs0mg"},{"bike_id":"c898c10c-2a3d-46df-94f3-1b118a57f44f","system_id":"levelo_inurba_marseille","lat":43.309039,"lon":5.371797,"is_reserved":false,"is_disabled":false,"rental_uris":{"android":"levelo://app?vid=c898c10c-2a3d-46df-94f3-1b118a57f44f","ios":"levelo://app?vid=c898c10c-2a3d-46df-94f3-1b118a57f44f"},"vehicle_type_id":"4","last_reported":1714759755,"current_range_meters":2800,"station_id":"ce4bguh2rcd13ifvqckg","pricing_plan_id":"cebpf4jnsgd1na2vs0mg"},{"bike_id":"7be61336-76bd-4e57-b73f-49e91af258ac","system_id":"levelo_inurba_marseille","lat":43.314333,"lon":5.374398,"is_reserved":false,"is_disabled":false,"rental_uris":{"android":"levelo://app?vid=7be61336-76bd-4e57-b73f-49e91af258ac","ios":"levelo://app?vid=7be61336-76bd-4e57-b73f-49e91af258ac"},"vehicle_type_id":"4","last_reported":1714759755,"current_range_meters":3200,"station_id":"","pricing_plan_id":"cebpf4jnsgd1na2vs0mg"},{"bike_id":"7c744c76-4258-4420-ab7e-5b6fe4560b65","system_id":"levelo_inurba_marseille","lat":43.305989,"lon":5.37225,"is_reserved":false,"is_disabled":false,"rental_uris":{"android":"levelo://app?vid=7c744c76-4258-4420-ab7e-5b6fe4560b65","ios":"levelo://app?vid=7c744c76-4258-4420-ab7e-5b6fe4560b65"},"vehicle_type_id":"4","last_reported":1714759755,"current_range_meters":2400,"station_id":"ce4bgqh2rcd13ifvqc4g","pricing_plan_id":"cebpf4jnsgd1na2vs0mg"},{"bike_id":"34cee220-6038-4573-9676-c765bd642c16","system_id":"levelo_inurba_marseille","lat":43.313343,"lon":5.376232,"is_reserved":false,"is_disabled":false,"rental_uris":{"android":"levelo://app?vid=34cee220-6038-4573-9676-c765bd642c16","ios":"levelo://app?vid=34cee220-6038-4573-9676-c765bd642c16"},"vehicle_type_id":"4","last_reported":1714759755,"current_range_meters":0,"station_id":"","pricing_plan_id":"cebpf4jnsgd1na2vs0mg"},{"bike_id":"de6c8cad-677a-41d8-90ad-acef4138fd1d","system_id":"levelo_inurba_marseille","lat":43.305368,"lon":5.367343,"is_reserved":false,"is_disabled":false,"rental_uris":{"android":"levelo://app?vid=de6c8cad-677a-41d8-90ad-acef4138fd1d","ios":"levelo://app?vid=de6c8cad-677a-41d8-90ad-acef4138fd1d"},"vehicle_type_id":"4","last_reported":1714759755,"current_range_meters":0,"station_id":"ce4bgrp2rcd13ifvqc9g","pricing_plan_id":"cebpf4jnsgd1na2vs0mg"},{"bike_id":"7175d175-c292-4237-ac07-83afcf712fc9","system_id":"levelo_inurba_marseille","lat":43.30539,"lon":5.36555,"is_reserved":false,"is_disabled":false,"rental_uris":{"android":"levelo://app?vid=7175d175-c292-4237-ac07-83afcf712fc9","ios":"levelo://app?vid=7175d175-c292-4237-ac07-83afcf712fc9"},"vehicle_type_id":"4","last_reported":1714759755,"current_range_meters":0,"station_id":"ce4bgs12rcd13ifvqcag","pricing_plan_id":"cebpf4jnsgd1na2vs0mg"},{"bike_id":"b63c25ef-0d0c-48a8-ae24-b69acae4f066","system_id":"levelo_inurba_marseille","lat":43.305368,"lon":5.367343,"is_reserved":false,"is_disabled":false,"rental_uris":{"android":"levelo://app?vid=b63c25ef-0d0c-48a8-ae24-b69acae4f066","ios":"levelo://app?vid=b63c25ef-0d0c-48a8-ae24-b69acae4f066"},"vehicle_type_id":"4","last_reported":1714759755,"current_range_meters":7600,"station_id":"ce4bgrp2rcd13ifvqc9g","pricing_plan_id":"cebpf4jnsgd1na2vs0mg"},{"bike_id":"61a226ac-f3b2-428b-8971-d6e0f7ef9f1d","system_id":"levelo_inurba_marseille","lat":43.305989,"lon":5.37225,"is_reserved":false,"is_disabled":false,"rental_uris":{"android":"levelo://app?vid=61a226ac-f3b2-428b-8971-d6e0f7ef9f1d","ios":"levelo://app?vid=61a226ac-f3b2-428b-8971-d6e0f7ef9f1d"},"vehicle_type_id":"4","last_reported":1714759755,"current_range_meters":2800,"station_id":"ce4bgqh2rcd13ifvqc4g","pricing_plan_id":"cebpf4jnsgd1na2vs0mg"},{"bike_id":"f4278bea-a82b-4381-8055-e707fc09c7e0","system_id":"levelo_inurba_marseille","lat":43.30526,"lon":5.36532,"is_reserved":false,"is_disabled":false,"rental_uris":{"android":"levelo://app?vid=f4278bea-a82b-4381-8055-e707fc09c7e0","ios":"levelo://app?vid=f4278bea-a82b-4381-8055-e707fc09c7e0"},"vehicle_type_id":"4","last_reported":1714759755,"current_range_meters":0,"station_id":"ce4bgs12rcd13ifvqcag","pricing_plan_id":"cebpf4jnsgd1na2vs0mg"},{"bike_id":"1e04ae1a-3de4-4163-b48c-8e53c7fcb76a","system_id":"levelo_inurba_marseille","lat":43.305989,"lon":5.37225,"is_reserved":false,"is_disabled":false,"rental_uris":{"android":"levelo://app?vid=1e04ae1a-3de4-4163-b48c-8e53c7fcb76a","ios":"levelo://app?vid=1e04ae1a-3de4-4163-b48c-8e53c7fcb76a"},"vehicle_type_id":"4","last_reported":1714759755,"current_range_meters":14000,"station_id":"ce4bgqh2rcd13ifvqc4g","pricing_plan_id":"cebpf4jnsgd1na2vs0mg"},{"bike_id":"e4e698c4-3387-4c61-9be1-0cb5c6f9aef8","system_id":"levelo_inurba_marseille","lat":43.305989,"lon":5.37225,"is_reserved":false,"is_disabled":false,"rental_uris":{"android":"levelo://app?vid=e4e698c4-3387-4c61-9be1-0cb5c6f9aef8","ios":"levelo://app?vid=e4e698c4-3387-4c61-9be1-0cb5c6f9aef8"},"vehicle_type_id":"4","last_reported":1714759755,"current_range_meters":4000,"station_id":"ce4bgqh2rcd13ifvqc4g","pricing_plan_id":"cebpf4jnsgd1na2vs0mg"},{"bike_id":"e109dbf8-9082-400c-b920-8ceff06cecc8","system_id":"levelo_inurba_marseille","lat":43.311206,"lon":5.377658,"is_reserved":false,"is_disabled":false,"rental_uris":{"android":"levelo://app?vid=e109dbf8-9082-400c-b920-8ceff06cecc8","ios":"levelo://app?vid=e109dbf8-9082-400c-b920-8ceff06cecc8"},"vehicle_type_id":"4","last_reported":1714759755,"current_range_meters":0,"station_id":"ce4bgt92rcd13ifvqcg0","pricing_plan_id":"cebpf4jnsgd1na2vs0mg"},{"bike_id":"0f3cda2c-e774-4ca3-9c19-bea6e81c14f9","system_id":"levelo_inurba_marseille","lat":43.31117,"lon":5.37765,"is_reserved":false,"is_disabled":false,"rental_uris":{"android":"levelo://app?vid=0f3cda2c-e774-4ca3-9c19-bea6e81c14f9","ios":"levelo://app?vid=0f3cda2c-e774-4ca3-9c19-bea6e81c14f9"},"vehicle_type_id":"4","last_reported":1714759755,"current_range_meters":0,"station_id":"ce4bgt92rcd13ifvqcg0","pricing_plan_id":"cebpf4jnsgd1na2vs0mg"},{"bike_id":"1690ade3-f258-4077-9c3c-0a858ba89d0e","system_id":"levelo_inurba_marseille","lat":43.31114,"lon":5.37765,"is_reserved":false,"is_disabled":false,"rental_uris":{"android":"levelo://app?vid=1690ade3-f258-4077-9c3c-0a858ba89d0e","ios":"levelo://app?vid=1690ade3-f258-4077-9c3c-0a858ba89d0e"},"vehicle_type_id":"4","last_reported":1714759755,"current_range_meters":0,"station_id":"ce4bgt92rcd13ifvqcg0","pricing_plan_id":"cebpf4jnsgd1na2vs0mg"},{"bike_id":"eb29734a-4296-4a1b-a8aa-7b31e31505c2","system_id":"levelo_inurba_marseille","lat":43.307945,"lon":5.376487,"is_reserved":false,"is_disabled":false,"rental_uris":{"android":"levelo://app?vid=eb29734a-4296-4a1b-a8aa-7b31e31505c2","ios":"levelo://app?vid=eb29734a-4296-4a1b-a8aa-7b31e31505c2"},"vehicle_type_id":"4","last_reported":1714759755,"current_range_meters":13600,"station_id":"ce4bgv92rcd13ifvqcq0","pricing_plan_id":"cebpf4jnsgd1na2vs0mg"},{"bike_id":"3cd5781e-9c7c-47ad-b39e-6da7ec1b5dbb","system_id":"levelo_inurba_marseille","lat":43.3078,"lon":5.3765,"is_reserved":false,"is_disabled":false,"rental_uris":{"android":"levelo://app?vid=3cd5781e-9c7c-47ad-b39e-6da7ec1b5dbb","ios":"levelo://app?vid=3cd5781e-9c7c-47ad-b39e-6da7ec1b5dbb"},"vehicle_type_id":"4","last_reported":1714759755,"current_range_meters":0,"station_id":"ce4bgv92rcd13ifvqcq0","pricing_plan_id":"cebpf4jnsgd1na2vs0mg"},{"bike_id":"6d67401f-8ea5-4add-b0b1-4d32174bcf8a","system_id":"levelo_inurba_marseille","lat":43.305989,"lon":5.37225,"is_reserved":false,"is_disabled":false,"rental_uris":{"android":"levelo://app?vid=6d67401f-8ea5-4add-b0b1-4d32174bcf8a","ios":"levelo://app?vid=6d67401f-8ea5-4add-b0b1-4d32174bcf8a"},"vehicle_type_id":"4","last_reported":1714759755,"current_range_meters":6000,"station_id":"ce4bgqh2rcd13ifvqc4g","pricing_plan_id":"cebpf4jnsgd1na2vs0mg"},{"bike_id":"843a2394-f12b-430a-94a5-9de3545f59fd","system_id":"levelo_inurba_marseille","lat":43.315293,"lon":5.380349,"is_reserved":false,"is_disabled":false,"rental_uris":{"android":"levelo://app?vid=843a2394-f12b-430a-94a5-9de3545f59fd","ios":"levelo://app?vid=843a2394-f12b-430a-94a5-9de3545f59fd"},"vehicle_type_id":"4","last_reported":1714759755,"current_range_meters":28800,"station_id":"ce4bhsp2rcd13ifvqi50","pricing_plan_id":"cebpf4jnsgd1na2vs0mg"},{"bike_id":"bc56b1fc-fdaa-405b-8ab7-76d1696e5de8","system_id":"levelo_inurba_marseille","lat":43.315289,"lon":5.380349,"is_reserved":false,"is_disabled":false,"rental_uris":{"android":"levelo://app?vid=bc56b1fc-fdaa-405b-8ab7-76d1696e5de8","ios":"levelo://app?vid=bc56b1fc-fdaa-405b-8ab7-76d1696e5de8"},"vehicle_type_id":"4","last_reported":1714759755,"current_range_meters":28800,"station_id":"ce4bhsp2rcd13ifvqi50","pricing_plan_id":"cebpf4jnsgd1na2vs0mg"},{"bike_id":"eb0d1368-85cd-4a98-9542-b8265b052419","system_id":"levelo_inurba_marseille","lat":43.315289,"lon":5.380349,"is_reserved":false,"is_disabled":false,"rental_uris":{"android":"levelo://app?vid=eb0d1368-85cd-4a98-9542-b8265b052419","ios":"levelo://app?vid=eb0d1368-85cd-4a98-9542-b8265b052419"},"vehicle_type_id":"4","last_reported":1714759755,"current_range_meters":24400,"station_id":"ce4bhsp2rcd13ifvqi50","pricing_plan_id":"cebpf4jnsgd1na2vs0mg"},{"bike_id":"c34aed63-82dd-4a51-b759-8db4b0ad1d27","system_id":"levelo_inurba_marseille","lat":43.301939,"lon":5.366286,"is_reserved":false,"is_disabled":false,"rental_uris":{"android":"levelo://app?vid=c34aed63-82dd-4a51-b759-8db4b0ad1d27","ios":"levelo://app?vid=c34aed63-82dd-4a51-b759-8db4b0ad1d27"},"vehicle_type_id":"4","last_reported":1714759755,"current_range_meters":2800,"station_id":"ce4bgrh2rcd13ifvqc8g","pricing_plan_id":"cebpf4jnsgd1na2vs0mg"},{"bike_id":"76ff1366-dcc0-4162-8496-efd1f95c6e31","system_id":"levelo_inurba_marseille","lat":43.308012,"lon":5.381511,"is_reserved":false,"is_disabled":false,"rental_uris":{"android":"levelo://app?vid=76ff1366-dcc0-4162-8496-efd1f95c6e31","ios":"levelo://app?vid=76ff1366-dcc0-4162-8496-efd1f95c6e31"},"vehicle_type_id":"4","last_reported":1714759755,"current_range_meters":0,"station_id":"ce4bgt12rcd13ifvqce0","pricing_plan_id":"cebpf4jnsgd1na2vs0mg"},{"bike_id":"5fa2d808-f918-4269-acff-0cefbd1e7b23","system_id":"levelo_inurba_marseille","lat":43.308012,"lon":5.381511,"is_reserved":false,"is_disabled":false,"rental_uris":{"android":"levelo://app?vid=5fa2d808-f918-4269-acff-0cefbd1e7b23","ios":"levelo://app?vid=5fa2d808-f918-4269-acff-0cefbd1e7b23"},"vehicle_type_id":"4","last_reported":1714759755,"current_range_meters":0,"station_id":"ce4bgt12rcd13ifvqce0","pricing_plan_id":"cebpf4jnsgd1na2vs0mg"},{"bike_id":"865c1a52-28be-4081-b828-c226738ceca2","system_id":"levelo_inurba_marseille","lat":43.30458,"lon":5.37888,"is_reserved":false,"is_disabled":false,"rental_uris":{"android":"levelo://app?vid=865c1a52-28be-4081-b828-c226738ceca2","ios":"levelo://app?vid=865c1a52-28be-4081-b828-c226738ceca2"},"vehicle_type_id":"4","last_reported":1714759755,"current_range_meters":0,"station_id":"ce4bgup2rcd13ifvqcn0","pricing_plan_id":"cebpf4jnsgd1na2vs0mg"},{"bike_id":"6385942c-18d7-4b34-b467-5a06253b4a90","system_id":"levelo_inurba_marseille","lat":43.304606,"lon":5.379026,"is_reserved":false,"is_disabled":false,"rental_uris":{"android":"levelo://app?vid=6385942c-18d7-4b34-b467-5a06253b4a90","ios":"levelo://app?vid=6385942c-18d7-4b34-b467-5a06253b4a90"},"vehicle_type_id":"4","last_reported":1714759755,"current_range_meters":12800,"station_id":"ce4bgup2rcd13ifvqcn0","pricing_plan_id":"cebpf4jnsgd1na2vs0mg"},{"bike_id":"dff9f089-e9ad-49de-be1b-ef405955dfcc","system_id":"levelo_inurba_marseille","lat":43.324771,"lon":5.36557,"is_reserved":false,"is_disabled":false,"rental_uris":{"android":"levelo://app?vid=dff9f089-e9ad-49de-be1b-ef405955dfcc","ios":"levelo://app?vid=dff9f089-e9ad-49de-be1b-ef405955dfcc"},"vehicle_type_id":"4","last_reported":1714759755,"current_range_meters":8000,"station_id":"ce4bhs12rcd13ifvqhvg","pricing_plan_id":"cebpf4jnsgd1na2vs0mg"},{"bike_id":"4ecf1310-b05d-4109-8ee3-de0bb58656b7","system_id":"levelo_inurba_marseille","lat":43.324771,"lon":5.36557,"is_reserved":false,"is_disabled":false,"rental_uris":{"android":"levelo://app?vid=4ecf1310-b05d-4109-8ee3-de0bb58656b7","ios":"levelo://app?vid=4ecf1310-b05d-4109-8ee3-de0bb58656b7"},"vehicle_type_id":"4","last_reported":1714759755,"current_range_meters":9200,"station_id":"ce4bhs12rcd13ifvqhvg","pricing_plan_id":"cebpf4jnsgd1na2vs0mg"},{"bike_id":"e0baa39e-cffd-4823-bd93-a1ffe73b5a4c","system_id":"levelo_inurba_marseille","lat":43.324771,"lon":5.36557,"is_reserved":false,"is_disabled":false,"rental_uris":{"android":"levelo://app?vid=e0baa39e-cffd-4823-bd93-a1ffe73b5a4c","ios":"levelo://app?vid=e0baa39e-cffd-4823-bd93-a1ffe73b5a4c"},"vehicle_type_id":"4","last_reported":1714759755,"current_range_meters":400,"station_id":"ce4bhs12rcd13ifvqhvg","pricing_plan_id":"cebpf4jnsgd1na2vs0mg"},{"bike_id":"8bfbedd1-ce45-4313-b336-4cd6308fff65","system_id":"levelo_inurba_marseille","lat":43.324771,"lon":5.36557,"is_reserved":false,"is_disabled":false,"rental_uris":{"android":"levelo://app?vid=8bfbedd1-ce45-4313-b336-4cd6308fff65","ios":"levelo://app?vid=8bfbedd1-ce45-4313-b336-4cd6308fff65"},"vehicle_type_id":"4","last_reported":1714759755,"current_range_meters":23200,"station_id":"ce4bhs12rcd13ifvqhvg","pricing_plan_id":"cebpf4jnsgd1na2vs0mg"},{"bike_id":"f7702a9e-365b-4789-8d88-06c14e4a4e5f","system_id":"levelo_inurba_marseille","lat":43.324771,"lon":5.36557,"is_reserved":false,"is_disabled":false,"rental_uris":{"android":"levelo://app?vid=f7702a9e-365b-4789-8d88-06c14e4a4e5f","ios":"levelo://app?vid=f7702a9e-365b-4789-8d88-06c14e4a4e5f"},"vehicle_type_id":"4","last_reported":1714759755,"current_range_meters":0,"station_id":"ce4bhs12rcd13ifvqhvg","pricing_plan_id":"cebpf4jnsgd1na2vs0mg"},{"bike_id":"a20a7680-f589-4e66-8659-cb2023b618d3","system_id":"levelo_inurba_marseille","lat":43.310804,"lon":5.38359,"is_reserved":false,"is_disabled":false,"rental_uris":{"android":"levelo://app?vid=a20a7680-f589-4e66-8659-cb2023b618d3","ios":"levelo://app?vid=a20a7680-f589-4e66-8659-cb2023b618d3"},"vehicle_type_id":"4","last_reported":1714759755,"current_range_meters":0,"station_id":"ce4bgv92rcd13ifvqcr0","pricing_plan_id":"cebpf4jnsgd1na2vs0mg"},{"bike_id":"788bc9b9-819c-43a0-a44b-b3a06cd7903b","system_id":"levelo_inurba_marseille","lat":43.310804,"lon":5.38359,"is_reserved":false,"is_disabled":false,"rental_uris":{"android":"levelo://app?vid=788bc9b9-819c-43a0-a44b-b3a06cd7903b","ios":"levelo://app?vid=788bc9b9-819c-43a0-a44b-b3a06cd7903b"},"vehicle_type_id":"4","last_reported":1714759755,"current_range_meters":5600,"station_id":"ce4bgv92rcd13ifvqcr0","pricing_plan_id":"cebpf4jnsgd1na2vs0mg"},{"bike_id":"7562fd17-9779-44bc-a4e5-3b7dbd9bb6b0","system_id":"levelo_inurba_marseille","lat":43.310804,"lon":5.38359,"is_reserved":false,"is_disabled":false,"rental_uris":{"android":"levelo://app?vid=7562fd17-9779-44bc-a4e5-3b7dbd9bb6b0","ios":"levelo://app?vid=7562fd17-9779-44bc-a4e5-3b7dbd9bb6b0"},"vehicle_type_id":"4","last_reported":1714759755,"current_range_meters":0,"station_id":"ce4bgv92rcd13ifvqcr0","pricing_plan_id":"cebpf4jnsgd1na2vs0mg"},{"bike_id":"a28cb40f-50fa-415b-b0e8-a70b4c8f843c","system_id":"levelo_inurba_marseille","lat":43.301429,"lon":5.37413,"is_reserved":false,"is_disabled":false,"rental_uris":{"android":"levelo://app?vid=a28cb40f-50fa-415b-b0e8-a70b4c8f843c","ios":"levelo://app?vid=a28cb40f-50fa-415b-b0e8-a70b4c8f843c"},"vehicle_type_id":"4","last_reported":1714759755,"current_range_meters":0,"station_id":"ce4bgs92rcd13ifvqcc0","pricing_plan_id":"cebpf4jnsgd1na2vs0mg"},{"bike_id":"288d1c1d-59e9-4063-b491-98a1078d2a8c","system_id":"levelo_inurba_marseille","lat":43.301429,"lon":5.37413,"is_reserved":false,"is_disabled":false,"rental_uris":{"android":"levelo://app?vid=288d1c1d-59e9-4063-b491-98a1078d2a8c","ios":"levelo://app?vid=288d1c1d-59e9-4063-b491-98a1078d2a8c"},"vehicle_type_id":"4","last_reported":1714759755,"current_range_meters":0,"station_id":"ce4bgs92rcd13ifvqcc0","pricing_plan_id":"cebpf4jnsgd1na2vs0mg"},{"bike_id":"a64892c1-ebf9-4b7d-91d9-c544a3bdd09e","system_id":"levelo_inurba_marseille","lat":43.30143,"lon":5.37413,"is_reserved":false,"is_disabled":false,"rental_uris":{"android":"levelo://app?vid=a64892c1-ebf9-4b7d-91d9-c544a3bdd09e","ios":"levelo://app?vid=a64892c1-ebf9-4b7d-91d9-c544a3bdd09e"},"vehicle_type_id":"4","last_reported":1714759755,"current_range_meters":7200,"station_id":"ce4bgs92rcd13ifvqcc0","pricing_plan_id":"cebpf4jnsgd1na2vs0mg"},{"bike_id":"c7c2b076-94b8-4d5a-9e9d-ddbc88b041ec","system_id":"levelo_inurba_marseille","lat":43.319935,"lon":5.381699,"is_reserved":false,"is_disabled":false,"rental_uris":{"android":"levelo://app?vid=c7c2b076-94b8-4d5a-9e9d-ddbc88b041ec","ios":"levelo://app?vid=c7c2b076-94b8-4d5a-9e9d-ddbc88b041ec"},"vehicle_type_id":"4","last_reported":1714759755,"current_range_meters":14000,"station_id":"ce4bhr12rcd13ifvqhpg","pricing_plan_id":"cebpf4jnsgd1na2vs0mg"},{"bike_id":"5f12b897-688a-45db-b8b2-0ec3feb3d91f","system_id":"levelo_inurba_marseille","lat":43.319935,"lon":5.381699,"is_reserved":false,"is_disabled":false,"rental_uris":{"android":"levelo://app?vid=5f12b897-688a-45db-b8b2-0ec3feb3d91f","ios":"levelo://app?vid=5f12b897-688a-45db-b8b2-0ec3feb3d91f"},"vehicle_type_id":"4","last_reported":1714759755,"current_range_meters":20400,"station_id":"ce4bhr12rcd13ifvqhpg","pricing_plan_id":"cebpf4jnsgd1na2vs0mg"},{"bike_id":"a101710b-7b56-4423-bcad-b7940326e25e","system_id":"levelo_inurba_marseille","lat":43.305364,"lon":5.384119,"is_reserved":false,"is_disabled":false,"rental_uris":{"android":"levelo://app?vid=a101710b-7b56-4423-bcad-b7940326e25e","ios":"levelo://app?vid=a101710b-7b56-4423-bcad-b7940326e25e"},"vehicle_type_id":"4","last_reported":1714759755,"current_range_meters":14400,"station_id":"ce4bgg92rcd13ifvqb30","pricing_plan_id":"cebpf4jnsgd1na2vs0mg"},{"bike_id":"394f04bc-479c-4807-afa4-3d22871f83e8","system_id":"levelo_inurba_marseille","lat":43.313571,"lon":5.384829,"is_reserved":false,"is_disabled":false,"rental_uris":{"android":"levelo://app?vid=394f04bc-479c-4807-afa4-3d22871f83e8","ios":"levelo://app?vid=394f04bc-479c-4807-afa4-3d22871f83e8"},"vehicle_type_id":"4","last_reported":1714759755,"current_range_meters":16400,"station_id":"ce4bgt92rcd13ifvqcf0","pricing_plan_id":"cebpf4jnsgd1na2vs0mg"},{"bike_id":"78dd709e-7730-4cd1-bc56-ab9563bc8fa6","system_id":"levelo_inurba_marseille","lat":43.313571,"lon":5.384829,"is_reserved":false,"is_disabled":false,"rental_uris":{"android":"levelo://app?vid=78dd709e-7730-4cd1-bc56-ab9563bc8fa6","ios":"levelo://app?vid=78dd709e-7730-4cd1-bc56-ab9563bc8fa6"},"vehicle_type_id":"4","last_reported":1714759755,"current_range_meters":21600,"station_id":"ce4bgt92rcd13ifvqcf0","pricing_plan_id":"cebpf4jnsgd1na2vs0mg"},{"bike_id":"b712b003-1188-4504-b8fd-4f6dde7a3925","system_id":"levelo_inurba_marseille","lat":43.29948,"lon":5.36556,"is_reserved":false,"is_disabled":false,"rental_uris":{"android":"levelo://app?vid=b712b003-1188-4504-b8fd-4f6dde7a3925","ios":"levelo://app?vid=b712b003-1188-4504-b8fd-4f6dde7a3925"},"vehicle_type_id":"4","last_reported":1714759755,"current_range_meters":0,"station_id":"ce4bgm92rcd13ifvqbr0","pricing_plan_id":"cebpf4jnsgd1na2vs0mg"},{"bike_id":"ef4ecba7-5cd8-45e9-97a1-7f3c3926dd22","system_id":"levelo_inurba_marseille","lat":43.29946,"lon":5.36532,"is_reserved":false,"is_disabled":false,"rental_uris":{"android":"levelo://app?vid=ef4ecba7-5cd8-45e9-97a1-7f3c3926dd22","ios":"levelo://app?vid=ef4ecba7-5cd8-45e9-97a1-7f3c3926dd22"},"vehicle_type_id":"4","last_reported":1714759755,"current_range_meters":22000,"station_id":"ce4bgm92rcd13ifvqbr0","pricing_plan_id":"cebpf4jnsgd1na2vs0mg"},{"bike_id":"bf00262d-3b98-421a-ad72-1d7328e0af48","system_id":"levelo_inurba_marseille","lat":43.29991,"lon":5.37191,"is_reserved":false,"is_disabled":false,"rental_uris":{"android":"levelo://app?vid=bf00262d-3b98-421a-ad72-1d7328e0af48","ios":"levelo://app?vid=bf00262d-3b98-421a-ad72-1d7328e0af48"},"vehicle_type_id":"4","last_reported":1714759755,"current_range_meters":0,"station_id":"ce4bgr92rcd13ifvqc7g","pricing_plan_id":"cebpf4jnsgd1na2vs0mg"},{"bike_id":"f60a9820-b7e5-4e39-ac09-9451d4e9a75f","system_id":"levelo_inurba_marseille","lat":43.29944,"lon":5.3655,"is_reserved":false,"is_disabled":false,"rental_uris":{"android":"levelo://app?vid=f60a9820-b7e5-4e39-ac09-9451d4e9a75f","ios":"levelo://app?vid=f60a9820-b7e5-4e39-ac09-9451d4e9a75f"},"vehicle_type_id":"4","last_reported":1714759755,"current_range_meters":25200,"station_id":"ce4bgm92rcd13ifvqbr0","pricing_plan_id":"cebpf4jnsgd1na2vs0mg"},{"bike_id":"11cf05c4-1eb8-425b-9164-aa20810ac3cd","system_id":"levelo_inurba_marseille","lat":43.29942,"lon":5.36562,"is_reserved":false,"is_disabled":false,"rental_uris":{"android":"levelo://app?vid=11cf05c4-1eb8-425b-9164-aa20810ac3cd","ios":"levelo://app?vid=11cf05c4-1eb8-425b-9164-aa20810ac3cd"},"vehicle_type_id":"4","last_reported":1714759755,"current_range_meters":27200,"station_id":"ce4bgm92rcd13ifvqbr0","pricing_plan_id":"cebpf4jnsgd1na2vs0mg"},{"bike_id":"dc7e05cd-fec3-40a7-b824-707041b11a91","system_id":"levelo_inurba_marseille","lat":43.29943,"lon":5.36542,"is_reserved":false,"is_disabled":false,"rental_uris":{"android":"levelo://app?vid=dc7e05cd-fec3-40a7-b824-707041b11a91","ios":"levelo://app?vid=dc7e05cd-fec3-40a7-b824-707041b11a91"},"vehicle_type_id":"4","last_reported":1714759755,"current_range_meters":14000,"station_id":"ce4bgm92rcd13ifvqbr0","pricing_plan_id":"cebpf4jnsgd1na2vs0mg"},{"bike_id":"51ab33c3-4672-4a3b-96ca-b09530607bd8","system_id":"levelo_inurba_marseille","lat":43.299222,"lon":5.365554,"is_reserved":false,"is_disabled":false,"rental_uris":{"android":"levelo://app?vid=51ab33c3-4672-4a3b-96ca-b09530607bd8","ios":"levelo://app?vid=51ab33c3-4672-4a3b-96ca-b09530607bd8"},"vehicle_type_id":"4","last_reported":1714759755,"current_range_meters":1200,"station_id":"ce4bgm92rcd13ifvqbr0","pricing_plan_id":"cebpf4jnsgd1na2vs0mg"},{"bike_id":"17619db0-7285-41ee-b621-6ac2bb713c0a","system_id":"levelo_inurba_marseille","lat":43.298433,"lon":5.362774,"is_reserved":false,"is_disabled":false,"rental_uris":{"android":"levelo://app?vid=17619db0-7285-41ee-b621-6ac2bb713c0a","ios":"levelo://app?vid=17619db0-7285-41ee-b621-6ac2bb713c0a"},"vehicle_type_id":"4","last_reported":1714759755,"current_range_meters":31200,"station_id":"ce4bgpp2rcd13ifvqc3g","pricing_plan_id":"cebpf4jnsgd1na2vs0mg"},{"bike_id":"7b125065-5248-472b-bd1e-5dd233f585a9","system_id":"levelo_inurba_marseille","lat":43.29846,"lon":5.36276,"is_reserved":false,"is_disabled":false,"rental_uris":{"android":"levelo://app?vid=7b125065-5248-472b-bd1e-5dd233f585a9","ios":"levelo://app?vid=7b125065-5248-472b-bd1e-5dd233f585a9"},"vehicle_type_id":"4","last_reported":1714759755,"current_range_meters":19600,"station_id":"ce4bgpp2rcd13ifvqc3g","pricing_plan_id":"cebpf4jnsgd1na2vs0mg"},{"bike_id":"85bce382-dbbe-4980-9a49-31eed467ac44","system_id":"levelo_inurba_marseille","lat":43.305364,"lon":5.384119,"is_reserved":false,"is_disabled":false,"rental_uris":{"android":"levelo://app?vid=85bce382-dbbe-4980-9a49-31eed467ac44","ios":"levelo://app?vid=85bce382-dbbe-4980-9a49-31eed467ac44"},"vehicle_type_id":"4","last_reported":1714759755,"current_range_meters":6000,"station_id":"ce4bgg92rcd13ifvqb30","pricing_plan_id":"cebpf4jnsgd1na2vs0mg"},{"bike_id":"10819799-f1b9-46a6-892d-5df1459126ef","system_id":"levelo_inurba_marseille","lat":43.29844,"lon":5.36272,"is_reserved":false,"is_disabled":false,"rental_uris":{"android":"levelo://app?vid=10819799-f1b9-46a6-892d-5df1459126ef","ios":"levelo://app?vid=10819799-f1b9-46a6-892d-5df1459126ef"},"vehicle_type_id":"4","last_reported":1714759755,"current_range_meters":5600,"station_id":"ce4bgpp2rcd13ifvqc3g","pricing_plan_id":"cebpf4jnsgd1na2vs0mg"},{"bike_id":"c8510aea-898b-4ee1-9e65-0d1271568978","system_id":"levelo_inurba_marseille","lat":43.299243,"lon":5.37481,"is_reserved":false,"is_disabled":false,"rental_uris":{"android":"levelo://app?vid=c8510aea-898b-4ee1-9e65-0d1271568978","ios":"levelo://app?vid=c8510aea-898b-4ee1-9e65-0d1271568978"},"vehicle_type_id":"4","last_reported":1714759755,"current_range_meters":0,"station_id":"ce4bgjh2rcd13ifvqbg0","pricing_plan_id":"cebpf4jnsgd1na2vs0mg"},{"bike_id":"00dc687e-410f-43f3-9210-e3137a91c418","system_id":"levelo_inurba_marseille","lat":43.305364,"lon":5.384119,"is_reserved":false,"is_disabled":false,"rental_uris":{"android":"levelo://app?vid=00dc687e-410f-43f3-9210-e3137a91c418","ios":"levelo://app?vid=00dc687e-410f-43f3-9210-e3137a91c418"},"vehicle_type_id":"4","last_reported":1714759755,"current_range_meters":10800,"station_id":"ce4bgg92rcd13ifvqb30","pricing_plan_id":"cebpf4jnsgd1na2vs0mg"},{"bike_id":"cece6e37-6428-4118-9b30-04e5696cad42","system_id":"levelo_inurba_marseille","lat":43.299243,"lon":5.37481,"is_reserved":false,"is_disabled":false,"rental_uris":{"android":"levelo://app?vid=cece6e37-6428-4118-9b30-04e5696cad42","ios":"levelo://app?vid=cece6e37-6428-4118-9b30-04e5696cad42"},"vehicle_type_id":"4","last_reported":1714759755,"current_range_meters":25200,"station_id":"ce4bgjh2rcd13ifvqbg0","pricing_plan_id":"cebpf4jnsgd1na2vs0mg"},{"bike_id":"b9f99b1b-e7de-4220-8fc1-8720529cfbe9","system_id":"levelo_inurba_marseille","lat":43.29839,"lon":5.36263,"is_reserved":false,"is_disabled":false,"rental_uris":{"android":"levelo://app?vid=b9f99b1b-e7de-4220-8fc1-8720529cfbe9","ios":"levelo://app?vid=b9f99b1b-e7de-4220-8fc1-8720529cfbe9"},"vehicle_type_id":"4","last_reported":1714759755,"current_range_meters":16800,"station_id":"ce4bgpp2rcd13ifvqc3g","pricing_plan_id":"cebpf4jnsgd1na2vs0mg"},{"bike_id":"aca20f27-bc4e-42b9-9a4c-a1798d029958","system_id":"levelo_inurba_marseille","lat":43.299243,"lon":5.374807,"is_reserved":false,"is_disabled":false,"rental_uris":{"android":"levelo://app?vid=aca20f27-bc4e-42b9-9a4c-a1798d029958","ios":"levelo://app?vid=aca20f27-bc4e-42b9-9a4c-a1798d029958"},"vehicle_type_id":"4","last_reported":1714759755,"current_range_meters":9200,"station_id":"ce4bgjh2rcd13ifvqbg0","pricing_plan_id":"cebpf4jnsgd1na2vs0mg"},{"bike_id":"73065751-57c3-487f-a44f-db9f4baaf30a","system_id":"levelo_inurba_marseille","lat":43.299243,"lon":5.37481,"is_reserved":false,"is_disabled":false,"rental_uris":{"android":"levelo://app?vid=73065751-57c3-487f-a44f-db9f4baaf30a","ios":"levelo://app?vid=73065751-57c3-487f-a44f-db9f4baaf30a"},"vehicle_type_id":"4","last_reported":1714759755,"current_range_meters":31200,"station_id":"ce4bgjh2rcd13ifvqbg0","pricing_plan_id":"cebpf4jnsgd1na2vs0mg"},{"bike_id":"eb421157-6de9-47f7-b2a5-5ae88ce632f3","system_id":"levelo_inurba_marseille","lat":43.311722,"lon":5.387247,"is_reserved":false,"is_disabled":false,"rental_uris":{"android":"levelo://app?vid=eb421157-6de9-47f7-b2a5-5ae88ce632f3","ios":"levelo://app?vid=eb421157-6de9-47f7-b2a5-5ae88ce632f3"},"vehicle_type_id":"4","last_reported":1714759755,"current_range_meters":10400,"station_id":"ce4bgv12rcd13ifvqcp0","pricing_plan_id":"cebpf4jnsgd1na2vs0mg"},{"bike_id":"982d5251-bf6a-4a9c-bebb-13273f6b98a1","system_id":"levelo_inurba_marseille","lat":43.31178,"lon":5.38717,"is_reserved":false,"is_disabled":false,"rental_uris":{"android":"levelo://app?vid=982d5251-bf6a-4a9c-bebb-13273f6b98a1","ios":"levelo://app?vid=982d5251-bf6a-4a9c-bebb-13273f6b98a1"},"vehicle_type_id":"4","last_reported":1714759755,"current_range_meters":0,"station_id":"ce4bgv12rcd13ifvqcp0","pricing_plan_id":"cebpf4jnsgd1na2vs0mg"},{"bike_id":"ee12bb1c-c126-4e1a-a063-195f517d48f6","system_id":"levelo_inurba_marseille","lat":43.29911,"lon":5.37478,"is_reserved":false,"is_disabled":false,"rental_uris":{"android":"levelo://app?vid=ee12bb1c-c126-4e1a-a063-195f517d48f6","ios":"levelo://app?vid=ee12bb1c-c126-4e1a-a063-195f517d48f6"},"vehicle_type_id":"4","last_reported":1714759755,"current_range_meters":29600,"station_id":"ce4bgjh2rcd13ifvqbg0","pricing_plan_id":"cebpf4jnsgd1na2vs0mg"},{"bike_id":"a1c8dcb4-18aa-420d-b0de-dc9af6fe06c1","system_id":"levelo_inurba_marseille","lat":43.311722,"lon":5.387247,"is_reserved":false,"is_disabled":false,"rental_uris":{"android":"levelo://app?vid=a1c8dcb4-18aa-420d-b0de-dc9af6fe06c1","ios":"levelo://app?vid=a1c8dcb4-18aa-420d-b0de-dc9af6fe06c1"},"vehicle_type_id":"4","last_reported":1714759755,"current_range_meters":17600,"station_id":"ce4bgv12rcd13ifvqcp0","pricing_plan_id":"cebpf4jnsgd1na2vs0mg"},{"bike_id":"66866676-e03b-4e56-b411-d8c739979a5a","system_id":"levelo_inurba_marseille","lat":43.311722,"lon":5.387247,"is_reserved":false,"is_disabled":false,"rental_uris":{"android":"levelo://app?vid=66866676-e03b-4e56-b411-d8c739979a5a","ios":"levelo://app?vid=66866676-e03b-4e56-b411-d8c739979a5a"},"vehicle_type_id":"4","last_reported":1714759755,"current_range_meters":24800,"station_id":"ce4bgv12rcd13ifvqcp0","pricing_plan_id":"cebpf4jnsgd1na2vs0mg"},{"bike_id":"a208981c-e9ab-48a9-8709-23ef0bf357a5","system_id":"levelo_inurba_marseille","lat":43.3118,"lon":5.38723,"is_reserved":false,"is_disabled":false,"rental_uris":{"android":"levelo://app?vid=a208981c-e9ab-48a9-8709-23ef0bf357a5","ios":"levelo://app?vid=a208981c-e9ab-48a9-8709-23ef0bf357a5"},"vehicle_type_id":"4","last_reported":1714759755,"current_range_meters":2400,"station_id":"ce4bgv12rcd13ifvqcp0","pricing_plan_id":"cebpf4jnsgd1na2vs0mg"},{"bike_id":"c7897f93-193e-47e7-8e78-2ae117357995","system_id":"levelo_inurba_marseille","lat":43.297794,"lon":5.370888,"is_reserved":false,"is_disabled":false,"rental_uris":{"android":"levelo://app?vid=c7897f93-193e-47e7-8e78-2ae117357995","ios":"levelo://app?vid=c7897f93-193e-47e7-8e78-2ae117357995"},"vehicle_type_id":"4","last_reported":1714759755,"current_range_meters":12800,"station_id":"ce4bgop2rcd13ifvqc1g","pricing_plan_id":"cebpf4jnsgd1na2vs0mg"},{"bike_id":"3366b3cf-c7e8-4851-961c-702dbf5ee797","system_id":"levelo_inurba_marseille","lat":43.311722,"lon":5.387247,"is_reserved":false,"is_disabled":false,"rental_uris":{"android":"levelo://app?vid=3366b3cf-c7e8-4851-961c-702dbf5ee797","ios":"levelo://app?vid=3366b3cf-c7e8-4851-961c-702dbf5ee797"},"vehicle_type_id":"4","last_reported":1714759755,"current_range_meters":25600,"station_id":"ce4bgv12rcd13ifvqcp0","pricing_plan_id":"cebpf4jnsgd1na2vs0mg"},{"bike_id":"b2c16f7f-eff4-4e48-89d5-71c4b16ad800","system_id":"levelo_inurba_marseille","lat":43.311722,"lon":5.387247,"is_reserved":false,"is_disabled":false,"rental_uris":{"android":"levelo://app?vid=b2c16f7f-eff4-4e48-89d5-71c4b16ad800","ios":"levelo://app?vid=b2c16f7f-eff4-4e48-89d5-71c4b16ad800"},"vehicle_type_id":"4","last_reported":1714759755,"current_range_meters":4400,"station_id":"ce4bgv12rcd13ifvqcp0","pricing_plan_id":"cebpf4jnsgd1na2vs0mg"},{"bike_id":"67a77d0a-ffff-4bde-9839-a5c73f026ffb","system_id":"levelo_inurba_marseille","lat":43.29807,"lon":5.36326,"is_reserved":false,"is_disabled":false,"rental_uris":{"android":"levelo://app?vid=67a77d0a-ffff-4bde-9839-a5c73f026ffb","ios":"levelo://app?vid=67a77d0a-ffff-4bde-9839-a5c73f026ffb"},"vehicle_type_id":"4","last_reported":1714759755,"current_range_meters":0,"station_id":"","pricing_plan_id":"cebpf4jnsgd1na2vs0mg"},{"bike_id":"d15c365d-48f4-41ec-8a15-8c93a9cf008b","system_id":"levelo_inurba_marseille","lat":43.322872,"lon":5.382756,"is_reserved":false,"is_disabled":false,"rental_uris":{"android":"levelo://app?vid=d15c365d-48f4-41ec-8a15-8c93a9cf008b","ios":"levelo://app?vid=d15c365d-48f4-41ec-8a15-8c93a9cf008b"},"vehicle_type_id":"4","last_reported":1714759755,"current_range_meters":29600,"station_id":"ce4bhr12rcd13ifvqhqg","pricing_plan_id":"cebpf4jnsgd1na2vs0mg"},{"bike_id":"022ab433-82a5-4b17-8242-31e20d891d04","system_id":"levelo_inurba_marseille","lat":43.32289,"lon":5.38268,"is_reserved":false,"is_disabled":false,"rental_uris":{"android":"levelo://app?vid=022ab433-82a5-4b17-8242-31e20d891d04","ios":"levelo://app?vid=022ab433-82a5-4b17-8242-31e20d891d04"},"vehicle_type_id":"4","last_reported":1714759755,"current_range_meters":6000,"station_id":"ce4bhr12rcd13ifvqhqg","pricing_plan_id":"cebpf4jnsgd1na2vs0mg"},{"bike_id":"69fde129-74e3-4f3c-a0f7-dac086e4a3ae","system_id":"levelo_inurba_marseille","lat":43.322872,"lon":5.382756,"is_reserved":false,"is_disabled":false,"rental_uris":{"android":"levelo://app?vid=69fde129-74e3-4f3c-a0f7-dac086e4a3ae","ios":"levelo://app?vid=69fde129-74e3-4f3c-a0f7-dac086e4a3ae"},"vehicle_type_id":"4","last_reported":1714759755,"current_range_meters":13600,"station_id":"ce4bhr12rcd13ifvqhqg","pricing_plan_id":"cebpf4jnsgd1na2vs0mg"},{"bike_id":"ee5d5f57-aa9f-4035-ad0b-fffa8eb347a1","system_id":"levelo_inurba_marseille","lat":43.322872,"lon":5.382756,"is_reserved":false,"is_disabled":false,"rental_uris":{"android":"levelo://app?vid=ee5d5f57-aa9f-4035-ad0b-fffa8eb347a1","ios":"levelo://app?vid=ee5d5f57-aa9f-4035-ad0b-fffa8eb347a1"},"vehicle_type_id":"4","last_reported":1714759755,"current_range_meters":21200,"station_id":"ce4bhr12rcd13ifvqhqg","pricing_plan_id":"cebpf4jnsgd1na2vs0mg"},{"bike_id":"419a2b5c-4238-4e2c-8bf0-24105af66f38","system_id":"levelo_inurba_marseille","lat":43.322872,"lon":5.382756,"is_reserved":false,"is_disabled":false,"rental_uris":{"android":"levelo://app?vid=419a2b5c-4238-4e2c-8bf0-24105af66f38","ios":"levelo://app?vid=419a2b5c-4238-4e2c-8bf0-24105af66f38"},"vehicle_type_id":"4","last_reported":1714759755,"current_range_meters":8400,"station_id":"ce4bhr12rcd13ifvqhqg","pricing_plan_id":"cebpf4jnsgd1na2vs0mg"},{"bike_id":"20e0b06a-25d4-4137-9fd3-d07bb00f838c","system_id":"levelo_inurba_marseille","lat":43.322872,"lon":5.382756,"is_reserved":false,"is_disabled":false,"rental_uris":{"android":"levelo://app?vid=20e0b06a-25d4-4137-9fd3-d07bb00f838c","ios":"levelo://app?vid=20e0b06a-25d4-4137-9fd3-d07bb00f838c"},"vehicle_type_id":"4","last_reported":1714759755,"current_range_meters":30000,"station_id":"ce4bhr12rcd13ifvqhqg","pricing_plan_id":"cebpf4jnsgd1na2vs0mg"},{"bike_id":"c9bf4c43-0b1e-451c-9f87-db938bb1468e","system_id":"levelo_inurba_marseille","lat":43.322872,"lon":5.382756,"is_reserved":false,"is_disabled":false,"rental_uris":{"android":"levelo://app?vid=c9bf4c43-0b1e-451c-9f87-db938bb1468e","ios":"levelo://app?vid=c9bf4c43-0b1e-451c-9f87-db938bb1468e"},"vehicle_type_id":"4","last_reported":1714759755,"current_range_meters":1200,"station_id":"ce4bhr12rcd13ifvqhqg","pricing_plan_id":"cebpf4jnsgd1na2vs0mg"},{"bike_id":"14eddade-44a2-4c4b-8f32-fc2a6ba4aa96","system_id":"levelo_inurba_marseille","lat":43.322872,"lon":5.382756,"is_reserved":false,"is_disabled":false,"rental_uris":{"android":"levelo://app?vid=14eddade-44a2-4c4b-8f32-fc2a6ba4aa96","ios":"levelo://app?vid=14eddade-44a2-4c4b-8f32-fc2a6ba4aa96"},"vehicle_type_id":"4","last_reported":1714759755,"current_range_meters":3200,"station_id":"ce4bhr12rcd13ifvqhqg","pricing_plan_id":"cebpf4jnsgd1na2vs0mg"},{"bike_id":"cc1ea861-0209-4e3c-96a1-017882413fa5","system_id":"levelo_inurba_marseille","lat":43.322872,"lon":5.382756,"is_reserved":false,"is_disabled":false,"rental_uris":{"android":"levelo://app?vid=cc1ea861-0209-4e3c-96a1-017882413fa5","ios":"levelo://app?vid=cc1ea861-0209-4e3c-96a1-017882413fa5"},"vehicle_type_id":"4","last_reported":1714759755,"current_range_meters":14000,"station_id":"ce4bhr12rcd13ifvqhqg","pricing_plan_id":"cebpf4jnsgd1na2vs0mg"},{"bike_id":"2204a3a8-1fcd-4ed6-b69a-ed55a11913f3","system_id":"levelo_inurba_marseille","lat":43.322872,"lon":5.382756,"is_reserved":false,"is_disabled":false,"rental_uris":{"android":"levelo://app?vid=2204a3a8-1fcd-4ed6-b69a-ed55a11913f3","ios":"levelo://app?vid=2204a3a8-1fcd-4ed6-b69a-ed55a11913f3"},"vehicle_type_id":"4","last_reported":1714759755,"current_range_meters":13600,"station_id":"ce4bhr12rcd13ifvqhqg","pricing_plan_id":"cebpf4jnsgd1na2vs0mg"},{"bike_id":"92e96949-1f84-4e8b-bcf2-a65921ce70ed","system_id":"levelo_inurba_marseille","lat":43.29712,"lon":5.36611,"is_reserved":false,"is_disabled":false,"rental_uris":{"android":"levelo://app?vid=92e96949-1f84-4e8b-bcf2-a65921ce70ed","ios":"levelo://app?vid=92e96949-1f84-4e8b-bcf2-a65921ce70ed"},"vehicle_type_id":"4","last_reported":1714759755,"current_range_meters":0,"station_id":"ce4bgn12rcd13ifvqbt0","pricing_plan_id":"cebpf4jnsgd1na2vs0mg"},{"bike_id":"32707a74-277a-4a65-933f-8da827df7201","system_id":"levelo_inurba_marseille","lat":43.297163,"lon":5.365866,"is_reserved":false,"is_disabled":false,"rental_uris":{"android":"levelo://app?vid=32707a74-277a-4a65-933f-8da827df7201","ios":"levelo://app?vid=32707a74-277a-4a65-933f-8da827df7201"},"vehicle_type_id":"4","last_reported":1714759755,"current_range_meters":12800,"station_id":"ce4bgn12rcd13ifvqbt0","pricing_plan_id":"cebpf4jnsgd1na2vs0mg"},{"bike_id":"dd451d0b-c8f7-46c8-9652-b97def6b49ad","system_id":"levelo_inurba_marseille","lat":43.29709,"lon":5.36622,"is_reserved":false,"is_disabled":false,"rental_uris":{"android":"levelo://app?vid=dd451d0b-c8f7-46c8-9652-b97def6b49ad","ios":"levelo://app?vid=dd451d0b-c8f7-46c8-9652-b97def6b49ad"},"vehicle_type_id":"4","last_reported":1714759755,"current_range_meters":0,"station_id":"ce4bgn12rcd13ifvqbt0","pricing_plan_id":"cebpf4jnsgd1na2vs0mg"},{"bike_id":"3e016252-f1f5-4c19-b45e-28b83426c519","system_id":"levelo_inurba_marseille","lat":43.29709,"lon":5.36615,"is_reserved":false,"is_disabled":false,"rental_uris":{"android":"levelo://app?vid=3e016252-f1f5-4c19-b45e-28b83426c519","ios":"levelo://app?vid=3e016252-f1f5-4c19-b45e-28b83426c519"},"vehicle_type_id":"4","last_reported":1714759755,"current_range_meters":400,"station_id":"ce4bgn12rcd13ifvqbt0","pricing_plan_id":"cebpf4jnsgd1na2vs0mg"},{"bike_id":"8defcf5b-f29d-4523-ac89-217c4697e5d2","system_id":"levelo_inurba_marseille","lat":43.297163,"lon":5.365866,"is_reserved":false,"is_disabled":false,"rental_uris":{"android":"levelo://app?vid=8defcf5b-f29d-4523-ac89-217c4697e5d2","ios":"levelo://app?vid=8defcf5b-f29d-4523-ac89-217c4697e5d2"},"vehicle_type_id":"4","last_reported":1714759755,"current_range_meters":9200,"station_id":"ce4bgn12rcd13ifvqbt0","pricing_plan_id":"cebpf4jnsgd1na2vs0mg"},{"bike_id":"a245a610-1d21-474c-b6b5-db0d67ffef68","system_id":"levelo_inurba_marseille","lat":43.297163,"lon":5.365866,"is_reserved":false,"is_disabled":false,"rental_uris":{"android":"levelo://app?vid=a245a610-1d21-474c-b6b5-db0d67ffef68","ios":"levelo://app?vid=a245a610-1d21-474c-b6b5-db0d67ffef68"},"vehicle_type_id":"4","last_reported":1714759755,"current_range_meters":0,"station_id":"ce4bgn12rcd13ifvqbt0","pricing_plan_id":"cebpf4jnsgd1na2vs0mg"},{"bike_id":"2948dcf6-7c8e-4910-a309-346d6412028a","system_id":"levelo_inurba_marseille","lat":43.2968,"lon":5.37291,"is_reserved":false,"is_disabled":false,"rental_uris":{"android":"levelo://app?vid=2948dcf6-7c8e-4910-a309-346d6412028a","ios":"levelo://app?vid=2948dcf6-7c8e-4910-a309-346d6412028a"},"vehicle_type_id":"4","last_reported":1714759755,"current_range_meters":30800,"station_id":"ce4bgk12rcd13ifvqbj0","pricing_plan_id":"cebpf4jnsgd1na2vs0mg"},{"bike_id":"87ae53a9-6727-4ea9-8745-2ccad419b33d","system_id":"levelo_inurba_marseille","lat":43.2968,"lon":5.37291,"is_reserved":false,"is_disabled":false,"rental_uris":{"android":"levelo://app?vid=87ae53a9-6727-4ea9-8745-2ccad419b33d","ios":"levelo://app?vid=87ae53a9-6727-4ea9-8745-2ccad419b33d"},"vehicle_type_id":"4","last_reported":1714759755,"current_range_meters":9200,"station_id":"ce4bgk12rcd13ifvqbj0","pricing_plan_id":"cebpf4jnsgd1na2vs0mg"},{"bike_id":"260d123e-1721-4d22-a49d-2db600aa0112","system_id":"levelo_inurba_marseille","lat":43.2968,"lon":5.37291,"is_reserved":false,"is_disabled":false,"rental_uris":{"android":"levelo://app?vid=260d123e-1721-4d22-a49d-2db600aa0112","ios":"levelo://app?vid=260d123e-1721-4d22-a49d-2db600aa0112"},"vehicle_type_id":"4","last_reported":1714759755,"current_range_meters":11200,"station_id":"ce4bgk12rcd13ifvqbj0","pricing_plan_id":"cebpf4jnsgd1na2vs0mg"},{"bike_id":"043b501e-b553-449d-9b1d-09da74ca805d","system_id":"levelo_inurba_marseille","lat":43.296129,"lon":5.370777,"is_reserved":false,"is_disabled":false,"rental_uris":{"android":"levelo://app?vid=043b501e-b553-449d-9b1d-09da74ca805d","ios":"levelo://app?vid=043b501e-b553-449d-9b1d-09da74ca805d"},"vehicle_type_id":"4","last_reported":1714759755,"current_range_meters":28800,"station_id":"ce4bgnh2rcd13ifvqc0g","pricing_plan_id":"cebpf4jnsgd1na2vs0mg"},{"bike_id":"9664bcf4-fbaa-430b-81e9-4561bf64d15b","system_id":"levelo_inurba_marseille","lat":43.2959,"lon":5.36738,"is_reserved":false,"is_disabled":false,"rental_uris":{"android":"levelo://app?vid=9664bcf4-fbaa-430b-81e9-4561bf64d15b","ios":"levelo://app?vid=9664bcf4-fbaa-430b-81e9-4561bf64d15b"},"vehicle_type_id":"4","last_reported":1714759755,"current_range_meters":2400,"station_id":"ce4bgph2rcd13ifvqc2g","pricing_plan_id":"cebpf4jnsgd1na2vs0mg"},{"bike_id":"33e9c2c9-f106-4ecb-aff3-deaf1a449cf6","system_id":"levelo_inurba_marseille","lat":43.29624,"lon":5.37167,"is_reserved":false,"is_disabled":false,"rental_uris":{"android":"levelo://app?vid=33e9c2c9-f106-4ecb-aff3-deaf1a449cf6","ios":"levelo://app?vid=33e9c2c9-f106-4ecb-aff3-deaf1a449cf6"},"vehicle_type_id":"4","last_reported":1714759755,"current_range_meters":21600,"station_id":"ce4bgnh2rcd13ifvqc0g","pricing_plan_id":"cebpf4jnsgd1na2vs0mg"},{"bike_id":"61e41592-3419-4bf6-86d4-f8fb3e7ef58a","system_id":"levelo_inurba_marseille","lat":43.29622,"lon":5.37167,"is_reserved":false,"is_disabled":false,"rental_uris":{"android":"levelo://app?vid=61e41592-3419-4bf6-86d4-f8fb3e7ef58a","ios":"levelo://app?vid=61e41592-3419-4bf6-86d4-f8fb3e7ef58a"},"vehicle_type_id":"4","last_reported":1714759755,"current_range_meters":24000,"station_id":"ce4bgnh2rcd13ifvqc0g","pricing_plan_id":"cebpf4jnsgd1na2vs0mg"},{"bike_id":"46f4aa6e-5a11-4adb-801e-29c76d8fd474","system_id":"levelo_inurba_marseille","lat":43.29622,"lon":5.3717,"is_reserved":false,"is_disabled":false,"rental_uris":{"android":"levelo://app?vid=46f4aa6e-5a11-4adb-801e-29c76d8fd474","ios":"levelo://app?vid=46f4aa6e-5a11-4adb-801e-29c76d8fd474"},"vehicle_type_id":"4","last_reported":1714759755,"current_range_meters":31200,"station_id":"ce4bgnh2rcd13ifvqc0g","pricing_plan_id":"cebpf4jnsgd1na2vs0mg"},{"bike_id":"a15f1756-34e0-40d9-ba1a-33d7b99e299d","system_id":"levelo_inurba_marseille","lat":43.296131,"lon":5.370791,"is_reserved":false,"is_disabled":false,"rental_uris":{"android":"levelo://app?vid=a15f1756-34e0-40d9-ba1a-33d7b99e299d","ios":"levelo://app?vid=a15f1756-34e0-40d9-ba1a-33d7b99e299d"},"vehicle_type_id":"4","last_reported":1714759755,"current_range_meters":26800,"station_id":"ce4bgnh2rcd13ifvqc0g","pricing_plan_id":"cebpf4jnsgd1na2vs0mg"},{"bike_id":"fd9468eb-1e34-46f2-82df-99e77dc5f636","system_id":"levelo_inurba_marseille","lat":43.29585,"lon":5.36727,"is_reserved":false,"is_disabled":false,"rental_uris":{"android":"levelo://app?vid=fd9468eb-1e34-46f2-82df-99e77dc5f636","ios":"levelo://app?vid=fd9468eb-1e34-46f2-82df-99e77dc5f636"},"vehicle_type_id":"4","last_reported":1714759755,"current_range_meters":11600,"station_id":"ce4bgph2rcd13ifvqc2g","pricing_plan_id":"cebpf4jnsgd1na2vs0mg"},{"bike_id":"be9daa79-e855-48d8-a5d6-5bfaa3010a60","system_id":"levelo_inurba_marseille","lat":43.296129,"lon":5.370777,"is_reserved":false,"is_disabled":false,"rental_uris":{"android":"levelo://app?vid=be9daa79-e855-48d8-a5d6-5bfaa3010a60","ios":"levelo://app?vid=be9daa79-e855-48d8-a5d6-5bfaa3010a60"},"vehicle_type_id":"4","last_reported":1714759755,"current_range_meters":24000,"station_id":"ce4bgnh2rcd13ifvqc0g","pricing_plan_id":"cebpf4jnsgd1na2vs0mg"},{"bike_id":"da19c422-696d-4004-a8cd-f82393c157cf","system_id":"levelo_inurba_marseille","lat":43.29573,"lon":5.367355,"is_reserved":false,"is_disabled":false,"rental_uris":{"android":"levelo://app?vid=da19c422-696d-4004-a8cd-f82393c157cf","ios":"levelo://app?vid=da19c422-696d-4004-a8cd-f82393c157cf"},"vehicle_type_id":"4","last_reported":1714759755,"current_range_meters":18000,"station_id":"ce4bgph2rcd13ifvqc2g","pricing_plan_id":"cebpf4jnsgd1na2vs0mg"},{"bike_id":"f0327959-bc4a-4274-837c-7fe879ed136f","system_id":"levelo_inurba_marseille","lat":43.29573,"lon":5.367355,"is_reserved":false,"is_disabled":false,"rental_uris":{"android":"levelo://app?vid=f0327959-bc4a-4274-837c-7fe879ed136f","ios":"levelo://app?vid=f0327959-bc4a-4274-837c-7fe879ed136f"},"vehicle_type_id":"4","last_reported":1714759755,"current_range_meters":27200,"station_id":"ce4bgph2rcd13ifvqc2g","pricing_plan_id":"cebpf4jnsgd1na2vs0mg"},{"bike_id":"f4f5eaf3-8fd8-422e-9646-2dfe0b0de0c9","system_id":"levelo_inurba_marseille","lat":43.29573,"lon":5.367355,"is_reserved":false,"is_disabled":false,"rental_uris":{"android":"levelo://app?vid=f4f5eaf3-8fd8-422e-9646-2dfe0b0de0c9","ios":"levelo://app?vid=f4f5eaf3-8fd8-422e-9646-2dfe0b0de0c9"},"vehicle_type_id":"4","last_reported":1714759755,"current_range_meters":21600,"station_id":"ce4bgph2rcd13ifvqc2g","pricing_plan_id":"cebpf4jnsgd1na2vs0mg"},{"bike_id":"24ca6ab9-2c00-44d6-83c6-a3747a983486","system_id":"levelo_inurba_marseille","lat":43.29573,"lon":5.367355,"is_reserved":false,"is_disabled":false,"rental_uris":{"android":"levelo://app?vid=24ca6ab9-2c00-44d6-83c6-a3747a983486","ios":"levelo://app?vid=24ca6ab9-2c00-44d6-83c6-a3747a983486"},"vehicle_type_id":"4","last_reported":1714759755,"current_range_meters":0,"station_id":"ce4bgph2rcd13ifvqc2g","pricing_plan_id":"cebpf4jnsgd1na2vs0mg"},{"bike_id":"20d99301-0dfe-4fa2-a8b1-05297836445f","system_id":"levelo_inurba_marseille","lat":43.337168,"lon":5.391825,"is_reserved":false,"is_disabled":false,"rental_uris":{"android":"levelo://app?vid=20d99301-0dfe-4fa2-a8b1-05297836445f","ios":"levelo://app?vid=20d99301-0dfe-4fa2-a8b1-05297836445f"},"vehicle_type_id":"4","last_reported":1714759755,"current_range_meters":28800,"station_id":"ce4bhr92rcd13ifvqhsg","pricing_plan_id":"cebpf4jnsgd1na2vs0mg"},{"bike_id":"f3778696-af6d-4024-9260-ea8d9e037f71","system_id":"levelo_inurba_marseille","lat":43.29733,"lon":5.37685,"is_reserved":false,"is_disabled":false,"rental_uris":{"android":"levelo://app?vid=f3778696-af6d-4024-9260-ea8d9e037f71","ios":"levelo://app?vid=f3778696-af6d-4024-9260-ea8d9e037f71"},"vehicle_type_id":"4","last_reported":1714759755,"current_range_meters":0,"station_id":"ce4bgkh2rcd13ifvqbl0","pricing_plan_id":"cebpf4jnsgd1na2vs0mg"},{"bike_id":"39c4cf8e-1898-47e9-b9ff-820d005de829","system_id":"levelo_inurba_marseille","lat":43.296935,"lon":5.376544,"is_reserved":false,"is_disabled":false,"rental_uris":{"android":"levelo://app?vid=39c4cf8e-1898-47e9-b9ff-820d005de829","ios":"levelo://app?vid=39c4cf8e-1898-47e9-b9ff-820d005de829"},"vehicle_type_id":"4","last_reported":1714759755,"current_range_meters":18000,"station_id":"ce4bgkh2rcd13ifvqbl0","pricing_plan_id":"cebpf4jnsgd1na2vs0mg"},{"bike_id":"111d1535-d6b7-46ea-9249-e0160e59bf70","system_id":"levelo_inurba_marseille","lat":43.29903,"lon":5.38132,"is_reserved":false,"is_disabled":false,"rental_uris":{"android":"levelo://app?vid=111d1535-d6b7-46ea-9249-e0160e59bf70","ios":"levelo://app?vid=111d1535-d6b7-46ea-9249-e0160e59bf70"},"vehicle_type_id":"4","last_reported":1714759755,"current_range_meters":16800,"station_id":"ce4bgj12rcd13ifvqbc0","pricing_plan_id":"cebpf4jnsgd1na2vs0mg"},{"bike_id":"5037ecba-f260-41f1-a68e-ccd0373520dc","system_id":"levelo_inurba_marseille","lat":43.309589,"lon":5.390258,"is_reserved":false,"is_disabled":false,"rental_uris":{"android":"levelo://app?vid=5037ecba-f260-41f1-a68e-ccd0373520dc","ios":"levelo://app?vid=5037ecba-f260-41f1-a68e-ccd0373520dc"},"vehicle_type_id":"4","last_reported":1714759755,"current_range_meters":0,"station_id":"ce4bgup2rcd13ifvqco0","pricing_plan_id":"cebpf4jnsgd1na2vs0mg"},{"bike_id":"8e4f65cd-2f84-4c65-ba3f-9a3d6ba17e29","system_id":"levelo_inurba_marseille","lat":43.309589,"lon":5.390258,"is_reserved":false,"is_disabled":false,"rental_uris":{"android":"levelo://app?vid=8e4f65cd-2f84-4c65-ba3f-9a3d6ba17e29","ios":"levelo://app?vid=8e4f65cd-2f84-4c65-ba3f-9a3d6ba17e29"},"vehicle_type_id":"4","last_reported":1714759755,"current_range_meters":19200,"station_id":"ce4bgup2rcd13ifvqco0","pricing_plan_id":"cebpf4jnsgd1na2vs0mg"},{"bike_id":"a34d74ef-a6a7-4808-a930-918780ebe96e","system_id":"levelo_inurba_marseille","lat":43.309589,"lon":5.390258,"is_reserved":false,"is_disabled":false,"rental_uris":{"android":"levelo://app?vid=a34d74ef-a6a7-4808-a930-918780ebe96e","ios":"levelo://app?vid=a34d74ef-a6a7-4808-a930-918780ebe96e"},"vehicle_type_id":"4","last_reported":1714759755,"current_range_meters":15200,"station_id":"ce4bgup2rcd13ifvqco0","pricing_plan_id":"cebpf4jnsgd1na2vs0mg"},{"bike_id":"bf8a5495-ed5d-47f7-ab69-8f475d6be8a2","system_id":"levelo_inurba_marseille","lat":43.309589,"lon":5.390258,"is_reserved":false,"is_disabled":false,"rental_uris":{"android":"levelo://app?vid=bf8a5495-ed5d-47f7-ab69-8f475d6be8a2","ios":"levelo://app?vid=bf8a5495-ed5d-47f7-ab69-8f475d6be8a2"},"vehicle_type_id":"4","last_reported":1714759755,"current_range_meters":24800,"station_id":"ce4bgup2rcd13ifvqco0","pricing_plan_id":"cebpf4jnsgd1na2vs0mg"},{"bike_id":"037e0252-18ea-42b0-80e2-0565354c515f","system_id":"levelo_inurba_marseille","lat":43.309589,"lon":5.390258,"is_reserved":false,"is_disabled":false,"rental_uris":{"android":"levelo://app?vid=037e0252-18ea-42b0-80e2-0565354c515f","ios":"levelo://app?vid=037e0252-18ea-42b0-80e2-0565354c515f"},"vehicle_type_id":"4","last_reported":1714759755,"current_range_meters":8800,"station_id":"ce4bgup2rcd13ifvqco0","pricing_plan_id":"cebpf4jnsgd1na2vs0mg"},{"bike_id":"f9b89f20-2ae0-4c41-b048-c12490c007c1","system_id":"levelo_inurba_marseille","lat":43.30951,"lon":5.39044,"is_reserved":false,"is_disabled":false,"rental_uris":{"android":"levelo://app?vid=f9b89f20-2ae0-4c41-b048-c12490c007c1","ios":"levelo://app?vid=f9b89f20-2ae0-4c41-b048-c12490c007c1"},"vehicle_type_id":"4","last_reported":1714759755,"current_range_meters":5600,"station_id":"ce4bgup2rcd13ifvqco0","pricing_plan_id":"cebpf4jnsgd1na2vs0mg"},{"bike_id":"8342e0a4-f969-42e3-bab6-635654b6e385","system_id":"levelo_inurba_marseille","lat":43.317557,"lon":5.390173,"is_reserved":false,"is_disabled":false,"rental_uris":{"android":"levelo://app?vid=8342e0a4-f969-42e3-bab6-635654b6e385","ios":"levelo://app?vid=8342e0a4-f969-42e3-bab6-635654b6e385"},"vehicle_type_id":"4","last_reported":1714759755,"current_range_meters":8400,"station_id":"ce4bhqp2rcd13ifvqhng","pricing_plan_id":"cebpf4jnsgd1na2vs0mg"},{"bike_id":"93afce99-2591-4006-bb3d-4086a47ee157","system_id":"levelo_inurba_marseille","lat":43.309427,"lon":5.390583,"is_reserved":false,"is_disabled":false,"rental_uris":{"android":"levelo://app?vid=93afce99-2591-4006-bb3d-4086a47ee157","ios":"levelo://app?vid=93afce99-2591-4006-bb3d-4086a47ee157"},"vehicle_type_id":"4","last_reported":1714759755,"current_range_meters":0,"station_id":"ce4bgup2rcd13ifvqco0","pricing_plan_id":"cebpf4jnsgd1na2vs0mg"},{"bike_id":"faf594fe-6442-4e3d-8bf9-52889a83cc0f","system_id":"levelo_inurba_marseille","lat":43.317557,"lon":5.390173,"is_reserved":false,"is_disabled":false,"rental_uris":{"android":"levelo://app?vid=faf594fe-6442-4e3d-8bf9-52889a83cc0f","ios":"levelo://app?vid=faf594fe-6442-4e3d-8bf9-52889a83cc0f"},"vehicle_type_id":"4","last_reported":1714759755,"current_range_meters":27600,"station_id":"ce4bhqp2rcd13ifvqhng","pricing_plan_id":"cebpf4jnsgd1na2vs0mg"},{"bike_id":"c32ee75c-98ad-4424-af67-c22fe3ed9a30","system_id":"levelo_inurba_marseille","lat":43.317557,"lon":5.390173,"is_reserved":false,"is_disabled":false,"rental_uris":{"android":"levelo://app?vid=c32ee75c-98ad-4424-af67-c22fe3ed9a30","ios":"levelo://app?vid=c32ee75c-98ad-4424-af67-c22fe3ed9a30"},"vehicle_type_id":"4","last_reported":1714759755,"current_range_meters":7200,"station_id":"ce4bhqp2rcd13ifvqhng","pricing_plan_id":"cebpf4jnsgd1na2vs0mg"},{"bike_id":"3f8869ab-9ec3-47e0-b114-b27821d34dc5","system_id":"levelo_inurba_marseille","lat":43.317557,"lon":5.390173,"is_reserved":false,"is_disabled":false,"rental_uris":{"android":"levelo://app?vid=3f8869ab-9ec3-47e0-b114-b27821d34dc5","ios":"levelo://app?vid=3f8869ab-9ec3-47e0-b114-b27821d34dc5"},"vehicle_type_id":"4","last_reported":1714759755,"current_range_meters":3600,"station_id":"ce4bhqp2rcd13ifvqhng","pricing_plan_id":"cebpf4jnsgd1na2vs0mg"},{"bike_id":"717ac7bc-b2e1-4461-b327-7f17e34ea17e","system_id":"levelo_inurba_marseille","lat":43.29806,"lon":5.38079,"is_reserved":false,"is_disabled":false,"rental_uris":{"android":"levelo://app?vid=717ac7bc-b2e1-4461-b327-7f17e34ea17e","ios":"levelo://app?vid=717ac7bc-b2e1-4461-b327-7f17e34ea17e"},"vehicle_type_id":"4","last_reported":1714759755,"current_range_meters":0,"station_id":"ce4bgip2rcd13ifvqbb0","pricing_plan_id":"cebpf4jnsgd1na2vs0mg"},{"bike_id":"9cb48519-0246-4de5-a463-a4def55f423f","system_id":"levelo_inurba_marseille","lat":43.29791,"lon":5.38095,"is_reserved":false,"is_disabled":false,"rental_uris":{"android":"levelo://app?vid=9cb48519-0246-4de5-a463-a4def55f423f","ios":"levelo://app?vid=9cb48519-0246-4de5-a463-a4def55f423f"},"vehicle_type_id":"4","last_reported":1714759755,"current_range_meters":0,"station_id":"ce4bgip2rcd13ifvqbb0","pricing_plan_id":"cebpf4jnsgd1na2vs0mg"},{"bike_id":"ed3387f7-3687-4ae5-9353-b11c34fe61ab","system_id":"levelo_inurba_marseille","lat":43.304278,"lon":5.388868,"is_reserved":false,"is_disabled":false,"rental_uris":{"android":"levelo://app?vid=ed3387f7-3687-4ae5-9353-b11c34fe61ab","ios":"levelo://app?vid=ed3387f7-3687-4ae5-9353-b11c34fe61ab"},"vehicle_type_id":"4","last_reported":1714759755,"current_range_meters":29600,"station_id":"ce4bgk12rcd13ifvqbi0","pricing_plan_id":"cebpf4jnsgd1na2vs0mg"},{"bike_id":"a6d0dbb7-c280-4348-9b39-8ecada5e24e1","system_id":"levelo_inurba_marseille","lat":43.304274,"lon":5.388873,"is_reserved":false,"is_disabled":false,"rental_uris":{"android":"levelo://app?vid=a6d0dbb7-c280-4348-9b39-8ecada5e24e1","ios":"levelo://app?vid=a6d0dbb7-c280-4348-9b39-8ecada5e24e1"},"vehicle_type_id":"4","last_reported":1714759755,"current_range_meters":8000,"station_id":"ce4bgk12rcd13ifvqbi0","pricing_plan_id":"cebpf4jnsgd1na2vs0mg"},{"bike_id":"731a0cff-3feb-446b-8d3f-449eba2e76c5","system_id":"levelo_inurba_marseille","lat":43.304274,"lon":5.388873,"is_reserved":false,"is_disabled":false,"rental_uris":{"android":"levelo://app?vid=731a0cff-3feb-446b-8d3f-449eba2e76c5","ios":"levelo://app?vid=731a0cff-3feb-446b-8d3f-449eba2e76c5"},"vehicle_type_id":"4","last_reported":1714759755,"current_range_meters":12400,"station_id":"ce4bgk12rcd13ifvqbi0","pricing_plan_id":"cebpf4jnsgd1na2vs0mg"},{"bike_id":"c63ecfd0-21e0-4745-bdb3-21c174076ca7","system_id":"levelo_inurba_marseille","lat":43.304278,"lon":5.388868,"is_reserved":false,"is_disabled":false,"rental_uris":{"android":"levelo://app?vid=c63ecfd0-21e0-4745-bdb3-21c174076ca7","ios":"levelo://app?vid=c63ecfd0-21e0-4745-bdb3-21c174076ca7"},"vehicle_type_id":"4","last_reported":1714759755,"current_range_meters":26800,"station_id":"ce4bgk12rcd13ifvqbi0","pricing_plan_id":"cebpf4jnsgd1na2vs0mg"},{"bike_id":"edf415b8-a23a-470a-8e48-7228b9ebad8d","system_id":"levelo_inurba_marseille","lat":43.304278,"lon":5.388868,"is_reserved":false,"is_disabled":false,"rental_uris":{"android":"levelo://app?vid=edf415b8-a23a-470a-8e48-7228b9ebad8d","ios":"levelo://app?vid=edf415b8-a23a-470a-8e48-7228b9ebad8d"},"vehicle_type_id":"4","last_reported":1714759755,"current_range_meters":30400,"station_id":"ce4bgk12rcd13ifvqbi0","pricing_plan_id":"cebpf4jnsgd1na2vs0mg"},{"bike_id":"e88ecae7-8178-415a-84af-2c160dbf4d95","system_id":"levelo_inurba_marseille","lat":43.304274,"lon":5.388873,"is_reserved":false,"is_disabled":false,"rental_uris":{"android":"levelo://app?vid=e88ecae7-8178-415a-84af-2c160dbf4d95","ios":"levelo://app?vid=e88ecae7-8178-415a-84af-2c160dbf4d95"},"vehicle_type_id":"4","last_reported":1714759755,"current_range_meters":13600,"station_id":"ce4bgk12rcd13ifvqbi0","pricing_plan_id":"cebpf4jnsgd1na2vs0mg"},{"bike_id":"f34d6ef4-43fd-483c-be43-6e16cf996045","system_id":"levelo_inurba_marseille","lat":43.304278,"lon":5.388868,"is_reserved":false,"is_disabled":false,"rental_uris":{"android":"levelo://app?vid=f34d6ef4-43fd-483c-be43-6e16cf996045","ios":"levelo://app?vid=f34d6ef4-43fd-483c-be43-6e16cf996045"},"vehicle_type_id":"4","last_reported":1714759755,"current_range_meters":26400,"station_id":"ce4bgk12rcd13ifvqbi0","pricing_plan_id":"cebpf4jnsgd1na2vs0mg"},{"bike_id":"898796dc-ff14-4dbc-b769-3c3e62d07b8a","system_id":"levelo_inurba_marseille","lat":43.304278,"lon":5.388868,"is_reserved":false,"is_disabled":false,"rental_uris":{"android":"levelo://app?vid=898796dc-ff14-4dbc-b769-3c3e62d07b8a","ios":"levelo://app?vid=898796dc-ff14-4dbc-b769-3c3e62d07b8a"},"vehicle_type_id":"4","last_reported":1714759755,"current_range_meters":17600,"station_id":"ce4bgk12rcd13ifvqbi0","pricing_plan_id":"cebpf4jnsgd1na2vs0mg"},{"bike_id":"4c3d7326-2967-43d8-9dff-1da373a1550a","system_id":"levelo_inurba_marseille","lat":43.304278,"lon":5.388868,"is_reserved":false,"is_disabled":false,"rental_uris":{"android":"levelo://app?vid=4c3d7326-2967-43d8-9dff-1da373a1550a","ios":"levelo://app?vid=4c3d7326-2967-43d8-9dff-1da373a1550a"},"vehicle_type_id":"4","last_reported":1714759755,"current_range_meters":12400,"station_id":"ce4bgk12rcd13ifvqbi0","pricing_plan_id":"cebpf4jnsgd1na2vs0mg"},{"bike_id":"3f9a6a6c-4024-4846-9cd9-d41f9d7b89ff","system_id":"levelo_inurba_marseille","lat":43.299707,"lon":5.384859,"is_reserved":false,"is_disabled":false,"rental_uris":{"android":"levelo://app?vid=3f9a6a6c-4024-4846-9cd9-d41f9d7b89ff","ios":"levelo://app?vid=3f9a6a6c-4024-4846-9cd9-d41f9d7b89ff"},"vehicle_type_id":"4","last_reported":1714759755,"current_range_meters":13600,"station_id":"ce4bgj92rcd13ifvqbd0","pricing_plan_id":"cebpf4jnsgd1na2vs0mg"},{"bike_id":"3e72a1d1-15b0-41c5-af92-ae8bfb5c39e1","system_id":"levelo_inurba_marseille","lat":43.299724,"lon":5.384848,"is_reserved":false,"is_disabled":false,"rental_uris":{"android":"levelo://app?vid=3e72a1d1-15b0-41c5-af92-ae8bfb5c39e1","ios":"levelo://app?vid=3e72a1d1-15b0-41c5-af92-ae8bfb5c39e1"},"vehicle_type_id":"4","last_reported":1714759755,"current_range_meters":10400,"station_id":"ce4bgj92rcd13ifvqbd0","pricing_plan_id":"cebpf4jnsgd1na2vs0mg"},{"bike_id":"8e4a4ebe-8cf3-40d4-b734-886a4848f9d1","system_id":"levelo_inurba_marseille","lat":43.29523,"lon":5.37496,"is_reserved":false,"is_disabled":false,"rental_uris":{"android":"levelo://app?vid=8e4a4ebe-8cf3-40d4-b734-886a4848f9d1","ios":"levelo://app?vid=8e4a4ebe-8cf3-40d4-b734-886a4848f9d1"},"vehicle_type_id":"4","last_reported":1714759755,"current_range_meters":4800,"station_id":"ce4bgkp2rcd13ifvqbmg","pricing_plan_id":"cebpf4jnsgd1na2vs0mg"},{"bike_id":"4b769632-f2a9-4053-ac7f-b9b865b5d73d","system_id":"levelo_inurba_marseille","lat":43.299724,"lon":5.384848,"is_reserved":false,"is_disabled":false,"rental_uris":{"android":"levelo://app?vid=4b769632-f2a9-4053-ac7f-b9b865b5d73d","ios":"levelo://app?vid=4b769632-f2a9-4053-ac7f-b9b865b5d73d"},"vehicle_type_id":"4","last_reported":1714759755,"current_range_meters":13200,"station_id":"ce4bgj92rcd13ifvqbd0","pricing_plan_id":"cebpf4jnsgd1na2vs0mg"},{"bike_id":"92425524-b7b2-47ff-82a5-7f6325292ee7","system_id":"levelo_inurba_marseille","lat":43.2951,"lon":5.37497,"is_reserved":false,"is_disabled":false,"rental_uris":{"android":"levelo://app?vid=92425524-b7b2-47ff-82a5-7f6325292ee7","ios":"levelo://app?vid=92425524-b7b2-47ff-82a5-7f6325292ee7"},"vehicle_type_id":"4","last_reported":1714759755,"current_range_meters":800,"station_id":"ce4bgkp2rcd13ifvqbmg","pricing_plan_id":"cebpf4jnsgd1na2vs0mg"},{"bike_id":"22b37f3b-f64d-4a7f-bd47-1f4bb120655c","system_id":"levelo_inurba_marseille","lat":43.31405,"lon":5.3927,"is_reserved":false,"is_disabled":false,"rental_uris":{"android":"levelo://app?vid=22b37f3b-f64d-4a7f-bd47-1f4bb120655c","ios":"levelo://app?vid=22b37f3b-f64d-4a7f-bd47-1f4bb120655c"},"vehicle_type_id":"4","last_reported":1714759755,"current_range_meters":4000,"station_id":"","pricing_plan_id":"cebpf4jnsgd1na2vs0mg"},{"bike_id":"34fa10c6-d45a-4937-a046-3453f1fc824e","system_id":"levelo_inurba_marseille","lat":43.29422,"lon":5.37426,"is_reserved":false,"is_disabled":false,"rental_uris":{"android":"levelo://app?vid=34fa10c6-d45a-4937-a046-3453f1fc824e","ios":"levelo://app?vid=34fa10c6-d45a-4937-a046-3453f1fc824e"},"vehicle_type_id":"4","last_reported":1714759755,"current_range_meters":2000,"station_id":"ce4bgi12rcd13ifvqb70","pricing_plan_id":"cebpf4jnsgd1na2vs0mg"},{"bike_id":"49a533d5-c290-4cbb-bab2-0e7642cb3903","system_id":"levelo_inurba_marseille","lat":43.32362,"lon":5.38887,"is_reserved":false,"is_disabled":false,"rental_uris":{"android":"levelo://app?vid=49a533d5-c290-4cbb-bab2-0e7642cb3903","ios":"levelo://app?vid=49a533d5-c290-4cbb-bab2-0e7642cb3903"},"vehicle_type_id":"4","last_reported":1714759755,"current_range_meters":0,"station_id":"ce4bhqp2rcd13ifvqhog","pricing_plan_id":"cebpf4jnsgd1na2vs0mg"},{"bike_id":"ab91b839-8676-48ee-87ed-aad26c78850f","system_id":"levelo_inurba_marseille","lat":43.32367,"lon":5.388836,"is_reserved":false,"is_disabled":false,"rental_uris":{"android":"levelo://app?vid=ab91b839-8676-48ee-87ed-aad26c78850f","ios":"levelo://app?vid=ab91b839-8676-48ee-87ed-aad26c78850f"},"vehicle_type_id":"4","last_reported":1714759755,"current_range_meters":24400,"station_id":"ce4bhqp2rcd13ifvqhog","pricing_plan_id":"cebpf4jnsgd1na2vs0mg"},{"bike_id":"e0b4e76f-b45a-49d1-8360-f534d09c9760","system_id":"levelo_inurba_marseille","lat":43.29613,"lon":5.38107,"is_reserved":false,"is_disabled":false,"rental_uris":{"android":"levelo://app?vid=e0b4e76f-b45a-49d1-8360-f534d09c9760","ios":"levelo://app?vid=e0b4e76f-b45a-49d1-8360-f534d09c9760"},"vehicle_type_id":"4","last_reported":1714759755,"current_range_meters":0,"station_id":"ce4bgl12rcd13ifvqbo0","pricing_plan_id":"cebpf4jnsgd1na2vs0mg"},{"bike_id":"0a828134-0b43-42be-bea3-3db8284ed386","system_id":"levelo_inurba_marseille","lat":43.29612,"lon":5.38108,"is_reserved":false,"is_disabled":false,"rental_uris":{"android":"levelo://app?vid=0a828134-0b43-42be-bea3-3db8284ed386","ios":"levelo://app?vid=0a828134-0b43-42be-bea3-3db8284ed386"},"vehicle_type_id":"4","last_reported":1714759755,"current_range_meters":23200,"station_id":"ce4bgl12rcd13ifvqbo0","pricing_plan_id":"cebpf4jnsgd1na2vs0mg"},{"bike_id":"fc54e60b-e50d-480d-baeb-b9cfed6b992c","system_id":"levelo_inurba_marseille","lat":43.29608,"lon":5.38106,"is_reserved":false,"is_disabled":false,"rental_uris":{"android":"levelo://app?vid=fc54e60b-e50d-480d-baeb-b9cfed6b992c","ios":"levelo://app?vid=fc54e60b-e50d-480d-baeb-b9cfed6b992c"},"vehicle_type_id":"4","last_reported":1714759755,"current_range_meters":6400,"station_id":"ce4bgl12rcd13ifvqbo0","pricing_plan_id":"cebpf4jnsgd1na2vs0mg"},{"bike_id":"da91daf3-b2e2-4074-8245-da804cc6b52e","system_id":"levelo_inurba_marseille","lat":43.29604,"lon":5.381,"is_reserved":false,"is_disabled":false,"rental_uris":{"android":"levelo://app?vid=da91daf3-b2e2-4074-8245-da804cc6b52e","ios":"levelo://app?vid=da91daf3-b2e2-4074-8245-da804cc6b52e"},"vehicle_type_id":"4","last_reported":1714759755,"current_range_meters":16800,"station_id":"ce4bgl12rcd13ifvqbo0","pricing_plan_id":"cebpf4jnsgd1na2vs0mg"},{"bike_id":"a0880a74-b1a2-4c09-a3b6-bdb61e5c304d","system_id":"levelo_inurba_marseille","lat":43.29602,"lon":5.381084,"is_reserved":false,"is_disabled":false,"rental_uris":{"android":"levelo://app?vid=a0880a74-b1a2-4c09-a3b6-bdb61e5c304d","ios":"levelo://app?vid=a0880a74-b1a2-4c09-a3b6-bdb61e5c304d"},"vehicle_type_id":"4","last_reported":1714759755,"current_range_meters":800,"station_id":"ce4bgl12rcd13ifvqbo0","pricing_plan_id":"cebpf4jnsgd1na2vs0mg"},{"bike_id":"eba708b5-db2d-49a3-9c32-e25cb14cdec1","system_id":"levelo_inurba_marseille","lat":43.29602,"lon":5.381084,"is_reserved":false,"is_disabled":false,"rental_uris":{"android":"levelo://app?vid=eba708b5-db2d-49a3-9c32-e25cb14cdec1","ios":"levelo://app?vid=eba708b5-db2d-49a3-9c32-e25cb14cdec1"},"vehicle_type_id":"4","last_reported":1714759755,"current_range_meters":5600,"station_id":"ce4bgl12rcd13ifvqbo0","pricing_plan_id":"cebpf4jnsgd1na2vs0mg"},{"bike_id":"d3a15830-739f-419c-bcd1-961ca1813408","system_id":"levelo_inurba_marseille","lat":43.29602,"lon":5.381084,"is_reserved":false,"is_disabled":false,"rental_uris":{"android":"levelo://app?vid=d3a15830-739f-419c-bcd1-961ca1813408","ios":"levelo://app?vid=d3a15830-739f-419c-bcd1-961ca1813408"},"vehicle_type_id":"4","last_reported":1714759755,"current_range_meters":25600,"station_id":"ce4bgl12rcd13ifvqbo0","pricing_plan_id":"cebpf4jnsgd1na2vs0mg"},{"bike_id":"2e10510e-3c0f-4cca-b2cf-b7d6d79cce0f","system_id":"levelo_inurba_marseille","lat":43.29602,"lon":5.381084,"is_reserved":false,"is_disabled":false,"rental_uris":{"android":"levelo://app?vid=2e10510e-3c0f-4cca-b2cf-b7d6d79cce0f","ios":"levelo://app?vid=2e10510e-3c0f-4cca-b2cf-b7d6d79cce0f"},"vehicle_type_id":"4","last_reported":1714759755,"current_range_meters":0,"station_id":"ce4bgl12rcd13ifvqbo0","pricing_plan_id":"cebpf4jnsgd1na2vs0mg"},{"bike_id":"a53b4e41-337e-4792-b0f2-9740d2ad867b","system_id":"levelo_inurba_marseille","lat":43.29315,"lon":5.37186,"is_reserved":false,"is_disabled":false,"rental_uris":{"android":"levelo://app?vid=a53b4e41-337e-4792-b0f2-9740d2ad867b","ios":"levelo://app?vid=a53b4e41-337e-4792-b0f2-9740d2ad867b"},"vehicle_type_id":"4","last_reported":1714759755,"current_range_meters":0,"station_id":"ce4bgh92rcd13ifvqb40","pricing_plan_id":"cebpf4jnsgd1na2vs0mg"},{"bike_id":"4d0b2878-e701-4e8c-8643-68cd9810e9fc","system_id":"levelo_inurba_marseille","lat":43.292749,"lon":5.368398,"is_reserved":false,"is_disabled":false,"rental_uris":{"android":"levelo://app?vid=4d0b2878-e701-4e8c-8643-68cd9810e9fc","ios":"levelo://app?vid=4d0b2878-e701-4e8c-8643-68cd9810e9fc"},"vehicle_type_id":"4","last_reported":1714759755,"current_range_meters":15200,"station_id":"ce4bhbp2rcd13ifvqesg","pricing_plan_id":"cebpf4jnsgd1na2vs0mg"},{"bike_id":"09f7cb5d-9edd-47d2-a04e-f1b90dc48fc4","system_id":"levelo_inurba_marseille","lat":43.29284,"lon":5.368503,"is_reserved":false,"is_disabled":false,"rental_uris":{"android":"levelo://app?vid=09f7cb5d-9edd-47d2-a04e-f1b90dc48fc4","ios":"levelo://app?vid=09f7cb5d-9edd-47d2-a04e-f1b90dc48fc4"},"vehicle_type_id":"4","last_reported":1714759755,"current_range_meters":30000,"station_id":"ce4bhbp2rcd13ifvqesg","pricing_plan_id":"cebpf4jnsgd1na2vs0mg"},{"bike_id":"12f2b0e7-d427-41c0-bc9d-c4da780bb370","system_id":"levelo_inurba_marseille","lat":43.2931,"lon":5.37169,"is_reserved":false,"is_disabled":false,"rental_uris":{"android":"levelo://app?vid=12f2b0e7-d427-41c0-bc9d-c4da780bb370","ios":"levelo://app?vid=12f2b0e7-d427-41c0-bc9d-c4da780bb370"},"vehicle_type_id":"4","last_reported":1714759755,"current_range_meters":0,"station_id":"ce4bgh92rcd13ifvqb40","pricing_plan_id":"cebpf4jnsgd1na2vs0mg"},{"bike_id":"a78aed1e-2132-417a-a76d-0781013a99f1","system_id":"levelo_inurba_marseille","lat":43.29312,"lon":5.37192,"is_reserved":false,"is_disabled":false,"rental_uris":{"android":"levelo://app?vid=a78aed1e-2132-417a-a76d-0781013a99f1","ios":"levelo://app?vid=a78aed1e-2132-417a-a76d-0781013a99f1"},"vehicle_type_id":"4","last_reported":1714759755,"current_range_meters":2400,"station_id":"ce4bgh92rcd13ifvqb40","pricing_plan_id":"cebpf4jnsgd1na2vs0mg"},{"bike_id":"802764d5-d2a9-4f4b-ab5b-589307dcd0f9","system_id":"levelo_inurba_marseille","lat":43.29311,"lon":5.37187,"is_reserved":false,"is_disabled":false,"rental_uris":{"android":"levelo://app?vid=802764d5-d2a9-4f4b-ab5b-589307dcd0f9","ios":"levelo://app?vid=802764d5-d2a9-4f4b-ab5b-589307dcd0f9"},"vehicle_type_id":"4","last_reported":1714759755,"current_range_meters":6800,"station_id":"ce4bgh92rcd13ifvqb40","pricing_plan_id":"cebpf4jnsgd1na2vs0mg"},{"bike_id":"6cacbcbf-5edf-4a37-a599-24f33395497d","system_id":"levelo_inurba_marseille","lat":43.2931,"lon":5.37181,"is_reserved":false,"is_disabled":false,"rental_uris":{"android":"levelo://app?vid=6cacbcbf-5edf-4a37-a599-24f33395497d","ios":"levelo://app?vid=6cacbcbf-5edf-4a37-a599-24f33395497d"},"vehicle_type_id":"4","last_reported":1714759755,"current_range_meters":29200,"station_id":"ce4bgh92rcd13ifvqb40","pricing_plan_id":"cebpf4jnsgd1na2vs0mg"},{"bike_id":"79ecd5ce-ee27-4e35-9e2a-393c88b46cf2","system_id":"levelo_inurba_marseille","lat":43.292749,"lon":5.368398,"is_reserved":false,"is_disabled":false,"rental_uris":{"android":"levelo://app?vid=79ecd5ce-ee27-4e35-9e2a-393c88b46cf2","ios":"levelo://app?vid=79ecd5ce-ee27-4e35-9e2a-393c88b46cf2"},"vehicle_type_id":"4","last_reported":1714759755,"current_range_meters":12000,"station_id":"ce4bhbp2rcd13ifvqesg","pricing_plan_id":"cebpf4jnsgd1na2vs0mg"},{"bike_id":"c331d49b-e889-41ef-a263-7fc99fd0d586","system_id":"levelo_inurba_marseille","lat":43.2928,"lon":5.36843,"is_reserved":false,"is_disabled":false,"rental_uris":{"android":"levelo://app?vid=c331d49b-e889-41ef-a263-7fc99fd0d586","ios":"levelo://app?vid=c331d49b-e889-41ef-a263-7fc99fd0d586"},"vehicle_type_id":"4","last_reported":1714759755,"current_range_meters":6000,"station_id":"ce4bhbp2rcd13ifvqesg","pricing_plan_id":"cebpf4jnsgd1na2vs0mg"},{"bike_id":"4fd0be7c-8747-4653-85ef-55ac8dfac8cc","system_id":"levelo_inurba_marseille","lat":43.29308,"lon":5.37182,"is_reserved":false,"is_disabled":false,"rental_uris":{"android":"levelo://app?vid=4fd0be7c-8747-4653-85ef-55ac8dfac8cc","ios":"levelo://app?vid=4fd0be7c-8747-4653-85ef-55ac8dfac8cc"},"vehicle_type_id":"4","last_reported":1714759755,"current_range_meters":4000,"station_id":"ce4bgh92rcd13ifvqb40","pricing_plan_id":"cebpf4jnsgd1na2vs0mg"},{"bike_id":"f39f48bf-effe-4c99-b875-7028136ea6f0","system_id":"levelo_inurba_marseille","lat":43.293071,"lon":5.371773,"is_reserved":false,"is_disabled":false,"rental_uris":{"android":"levelo://app?vid=f39f48bf-effe-4c99-b875-7028136ea6f0","ios":"levelo://app?vid=f39f48bf-effe-4c99-b875-7028136ea6f0"},"vehicle_type_id":"4","last_reported":1714759755,"current_range_meters":20800,"station_id":"ce4bgh92rcd13ifvqb40","pricing_plan_id":"cebpf4jnsgd1na2vs0mg"},{"bike_id":"dd8785d6-40c8-4d37-824e-c08537b74384","system_id":"levelo_inurba_marseille","lat":43.29278,"lon":5.3684,"is_reserved":false,"is_disabled":false,"rental_uris":{"android":"levelo://app?vid=dd8785d6-40c8-4d37-824e-c08537b74384","ios":"levelo://app?vid=dd8785d6-40c8-4d37-824e-c08537b74384"},"vehicle_type_id":"4","last_reported":1714759755,"current_range_meters":26800,"station_id":"ce4bhbp2rcd13ifvqesg","pricing_plan_id":"cebpf4jnsgd1na2vs0mg"},{"bike_id":"38087ce9-b07b-4f49-8e9c-73ed4319f1f7","system_id":"levelo_inurba_marseille","lat":43.29278,"lon":5.36841,"is_reserved":false,"is_disabled":false,"rental_uris":{"android":"levelo://app?vid=38087ce9-b07b-4f49-8e9c-73ed4319f1f7","ios":"levelo://app?vid=38087ce9-b07b-4f49-8e9c-73ed4319f1f7"},"vehicle_type_id":"4","last_reported":1714759755,"current_range_meters":14800,"station_id":"ce4bhbp2rcd13ifvqesg","pricing_plan_id":"cebpf4jnsgd1na2vs0mg"},{"bike_id":"babf1a20-8bf0-4eeb-8362-9139786e002f","system_id":"levelo_inurba_marseille","lat":43.29278,"lon":5.36845,"is_reserved":false,"is_disabled":false,"rental_uris":{"android":"levelo://app?vid=babf1a20-8bf0-4eeb-8362-9139786e002f","ios":"levelo://app?vid=babf1a20-8bf0-4eeb-8362-9139786e002f"},"vehicle_type_id":"4","last_reported":1714759755,"current_range_meters":3600,"station_id":"ce4bhbp2rcd13ifvqesg","pricing_plan_id":"cebpf4jnsgd1na2vs0mg"},{"bike_id":"53b5ec49-3f67-4385-a9a8-05f896e02e03","system_id":"levelo_inurba_marseille","lat":43.29306,"lon":5.371798,"is_reserved":false,"is_disabled":false,"rental_uris":{"android":"levelo://app?vid=53b5ec49-3f67-4385-a9a8-05f896e02e03","ios":"levelo://app?vid=53b5ec49-3f67-4385-a9a8-05f896e02e03"},"vehicle_type_id":"4","last_reported":1714759755,"current_range_meters":0,"station_id":"ce4bgh92rcd13ifvqb40","pricing_plan_id":"cebpf4jnsgd1na2vs0mg"},{"bike_id":"364ec41b-7746-4954-849b-115a6c4c9934","system_id":"levelo_inurba_marseille","lat":43.29277,"lon":5.36843,"is_reserved":false,"is_disabled":false,"rental_uris":{"android":"levelo://app?vid=364ec41b-7746-4954-849b-115a6c4c9934","ios":"levelo://app?vid=364ec41b-7746-4954-849b-115a6c4c9934"},"vehicle_type_id":"4","last_reported":1714759755,"current_range_meters":0,"station_id":"ce4bhbp2rcd13ifvqesg","pricing_plan_id":"cebpf4jnsgd1na2vs0mg"},{"bike_id":"59f0bd85-f5a4-4bef-b9b0-224b4361f85b","system_id":"levelo_inurba_marseille","lat":43.29303,"lon":5.3716,"is_reserved":false,"is_disabled":false,"rental_uris":{"android":"levelo://app?vid=59f0bd85-f5a4-4bef-b9b0-224b4361f85b","ios":"levelo://app?vid=59f0bd85-f5a4-4bef-b9b0-224b4361f85b"},"vehicle_type_id":"4","last_reported":1714759755,"current_range_meters":4800,"station_id":"ce4bgh92rcd13ifvqb40","pricing_plan_id":"cebpf4jnsgd1na2vs0mg"},{"bike_id":"c2b9d8b6-c751-4756-a00c-994ab2134076","system_id":"levelo_inurba_marseille","lat":43.29277,"lon":5.3685,"is_reserved":false,"is_disabled":false,"rental_uris":{"android":"levelo://app?vid=c2b9d8b6-c751-4756-a00c-994ab2134076","ios":"levelo://app?vid=c2b9d8b6-c751-4756-a00c-994ab2134076"},"vehicle_type_id":"4","last_reported":1714759755,"current_range_meters":26000,"station_id":"ce4bhbp2rcd13ifvqesg","pricing_plan_id":"cebpf4jnsgd1na2vs0mg"},{"bike_id":"81c78049-531c-4c21-9e76-fdd603479f76","system_id":"levelo_inurba_marseille","lat":43.29305,"lon":5.37182,"is_reserved":false,"is_disabled":false,"rental_uris":{"android":"levelo://app?vid=81c78049-531c-4c21-9e76-fdd603479f76","ios":"levelo://app?vid=81c78049-531c-4c21-9e76-fdd603479f76"},"vehicle_type_id":"4","last_reported":1714759755,"current_range_meters":1200,"station_id":"ce4bgh92rcd13ifvqb40","pricing_plan_id":"cebpf4jnsgd1na2vs0mg"},{"bike_id":"87565ee2-7bd6-4ac2-87e3-c1dbf298bbed","system_id":"levelo_inurba_marseille","lat":43.29276,"lon":5.36845,"is_reserved":false,"is_disabled":false,"rental_uris":{"android":"levelo://app?vid=87565ee2-7bd6-4ac2-87e3-c1dbf298bbed","ios":"levelo://app?vid=87565ee2-7bd6-4ac2-87e3-c1dbf298bbed"},"vehicle_type_id":"4","last_reported":1714759755,"current_range_meters":14800,"station_id":"ce4bhbp2rcd13ifvqesg","pricing_plan_id":"cebpf4jnsgd1na2vs0mg"},{"bike_id":"3f0e6746-2e0d-4b32-9e2a-aadd729411bb","system_id":"levelo_inurba_marseille","lat":43.293028,"lon":5.371745,"is_reserved":false,"is_disabled":false,"rental_uris":{"android":"levelo://app?vid=3f0e6746-2e0d-4b32-9e2a-aadd729411bb","ios":"levelo://app?vid=3f0e6746-2e0d-4b32-9e2a-aadd729411bb"},"vehicle_type_id":"4","last_reported":1714759755,"current_range_meters":6400,"station_id":"ce4bgh92rcd13ifvqb40","pricing_plan_id":"cebpf4jnsgd1na2vs0mg"},{"bike_id":"b3bb1d1d-ca6c-4c04-9a39-ba9d720066bb","system_id":"levelo_inurba_marseille","lat":43.292749,"lon":5.368398,"is_reserved":false,"is_disabled":false,"rental_uris":{"android":"levelo://app?vid=b3bb1d1d-ca6c-4c04-9a39-ba9d720066bb","ios":"levelo://app?vid=b3bb1d1d-ca6c-4c04-9a39-ba9d720066bb"},"vehicle_type_id":"4","last_reported":1714759755,"current_range_meters":1200,"station_id":"ce4bhbp2rcd13ifvqesg","pricing_plan_id":"cebpf4jnsgd1na2vs0mg"},{"bike_id":"fda48e49-eae9-4203-8d7a-e31285ee5b8f","system_id":"levelo_inurba_marseille","lat":43.29299,"lon":5.37171,"is_reserved":false,"is_disabled":false,"rental_uris":{"android":"levelo://app?vid=fda48e49-eae9-4203-8d7a-e31285ee5b8f","ios":"levelo://app?vid=fda48e49-eae9-4203-8d7a-e31285ee5b8f"},"vehicle_type_id":"4","last_reported":1714759755,"current_range_meters":5600,"station_id":"ce4bgh92rcd13ifvqb40","pricing_plan_id":"cebpf4jnsgd1na2vs0mg"},{"bike_id":"c8e8b42e-2aae-43da-9545-e9b04cb5acd9","system_id":"levelo_inurba_marseille","lat":43.292749,"lon":5.368398,"is_reserved":false,"is_disabled":false,"rental_uris":{"android":"levelo://app?vid=c8e8b42e-2aae-43da-9545-e9b04cb5acd9","ios":"levelo://app?vid=c8e8b42e-2aae-43da-9545-e9b04cb5acd9"},"vehicle_type_id":"4","last_reported":1714759755,"current_range_meters":16400,"station_id":"ce4bhbp2rcd13ifvqesg","pricing_plan_id":"cebpf4jnsgd1na2vs0mg"},{"bike_id":"edc931eb-5df2-4dcf-b3b4-fff21e6dcf94","system_id":"levelo_inurba_marseille","lat":43.29268,"lon":5.36857,"is_reserved":false,"is_disabled":false,"rental_uris":{"android":"levelo://app?vid=edc931eb-5df2-4dcf-b3b4-fff21e6dcf94","ios":"levelo://app?vid=edc931eb-5df2-4dcf-b3b4-fff21e6dcf94"},"vehicle_type_id":"4","last_reported":1714759755,"current_range_meters":16400,"station_id":"ce4bhbp2rcd13ifvqesg","pricing_plan_id":"cebpf4jnsgd1na2vs0mg"},{"bike_id":"0c6a5200-ec42-4aee-a41c-28b886939213","system_id":"levelo_inurba_marseille","lat":43.293009,"lon":5.374584,"is_reserved":false,"is_disabled":false,"rental_uris":{"android":"levelo://app?vid=0c6a5200-ec42-4aee-a41c-28b886939213","ios":"levelo://app?vid=0c6a5200-ec42-4aee-a41c-28b886939213"},"vehicle_type_id":"4","last_reported":1714759755,"current_range_meters":0,"station_id":"ce4bgi12rcd13ifvqb70","pricing_plan_id":"cebpf4jnsgd1na2vs0mg"},{"bike_id":"b836a2dd-0d44-43e5-a7b1-174a251e9557","system_id":"levelo_inurba_marseille","lat":43.293009,"lon":5.374584,"is_reserved":false,"is_disabled":false,"rental_uris":{"android":"levelo://app?vid=b836a2dd-0d44-43e5-a7b1-174a251e9557","ios":"levelo://app?vid=b836a2dd-0d44-43e5-a7b1-174a251e9557"},"vehicle_type_id":"4","last_reported":1714759755,"current_range_meters":0,"station_id":"ce4bgi12rcd13ifvqb70","pricing_plan_id":"cebpf4jnsgd1na2vs0mg"},{"bike_id":"2b07842a-0158-4390-a09c-304539433090","system_id":"levelo_inurba_marseille","lat":43.29308,"lon":5.3747,"is_reserved":false,"is_disabled":false,"rental_uris":{"android":"levelo://app?vid=2b07842a-0158-4390-a09c-304539433090","ios":"levelo://app?vid=2b07842a-0158-4390-a09c-304539433090"},"vehicle_type_id":"4","last_reported":1714759755,"current_range_meters":6000,"station_id":"ce4bgi12rcd13ifvqb70","pricing_plan_id":"cebpf4jnsgd1na2vs0mg"},{"bike_id":"f15ec747-4f3d-491b-81f9-70307058cf77","system_id":"levelo_inurba_marseille","lat":43.305994,"lon":5.393687,"is_reserved":false,"is_disabled":false,"rental_uris":{"android":"levelo://app?vid=f15ec747-4f3d-491b-81f9-70307058cf77","ios":"levelo://app?vid=f15ec747-4f3d-491b-81f9-70307058cf77"},"vehicle_type_id":"4","last_reported":1714759755,"current_range_meters":30400,"station_id":"ce4bh0p2rcd13ifvqd80","pricing_plan_id":"cebpf4jnsgd1na2vs0mg"},{"bike_id":"a877ca39-8e07-42b7-a805-da0b02925a27","system_id":"levelo_inurba_marseille","lat":43.305994,"lon":5.393687,"is_reserved":false,"is_disabled":false,"rental_uris":{"android":"levelo://app?vid=a877ca39-8e07-42b7-a805-da0b02925a27","ios":"levelo://app?vid=a877ca39-8e07-42b7-a805-da0b02925a27"},"vehicle_type_id":"4","last_reported":1714759755,"current_range_meters":19600,"station_id":"ce4bh0p2rcd13ifvqd80","pricing_plan_id":"cebpf4jnsgd1na2vs0mg"},{"bike_id":"e53013c1-0e4e-44d8-87fd-20b5c3c4507c","system_id":"levelo_inurba_marseille","lat":43.293009,"lon":5.374584,"is_reserved":false,"is_disabled":false,"rental_uris":{"android":"levelo://app?vid=e53013c1-0e4e-44d8-87fd-20b5c3c4507c","ios":"levelo://app?vid=e53013c1-0e4e-44d8-87fd-20b5c3c4507c"},"vehicle_type_id":"4","last_reported":1714759755,"current_range_meters":30800,"station_id":"ce4bgi12rcd13ifvqb70","pricing_plan_id":"cebpf4jnsgd1na2vs0mg"},{"bike_id":"0e97cb1d-06ff-40a8-8ce5-cf9fe11b655b","system_id":"levelo_inurba_marseille","lat":43.293009,"lon":5.374584,"is_reserved":false,"is_disabled":false,"rental_uris":{"android":"levelo://app?vid=0e97cb1d-06ff-40a8-8ce5-cf9fe11b655b","ios":"levelo://app?vid=0e97cb1d-06ff-40a8-8ce5-cf9fe11b655b"},"vehicle_type_id":"4","last_reported":1714759755,"current_range_meters":0,"station_id":"ce4bgi12rcd13ifvqb70","pricing_plan_id":"cebpf4jnsgd1na2vs0mg"},{"bike_id":"db6c3aef-d07a-4267-a92b-3c89e4c900f6","system_id":"levelo_inurba_marseille","lat":43.305994,"lon":5.393687,"is_reserved":false,"is_disabled":false,"rental_uris":{"android":"levelo://app?vid=db6c3aef-d07a-4267-a92b-3c89e4c900f6","ios":"levelo://app?vid=db6c3aef-d07a-4267-a92b-3c89e4c900f6"},"vehicle_type_id":"4","last_reported":1714759755,"current_range_meters":30000,"station_id":"ce4bh0p2rcd13ifvqd80","pricing_plan_id":"cebpf4jnsgd1na2vs0mg"},{"bike_id":"24cb9de5-4b7b-4360-a5ce-912a816d44e1","system_id":"levelo_inurba_marseille","lat":43.293009,"lon":5.374584,"is_reserved":false,"is_disabled":false,"rental_uris":{"android":"levelo://app?vid=24cb9de5-4b7b-4360-a5ce-912a816d44e1","ios":"levelo://app?vid=24cb9de5-4b7b-4360-a5ce-912a816d44e1"},"vehicle_type_id":"4","last_reported":1714759755,"current_range_meters":16400,"station_id":"ce4bgi12rcd13ifvqb70","pricing_plan_id":"cebpf4jnsgd1na2vs0mg"},{"bike_id":"a4081ede-088d-44fa-94a4-f111ac0eec65","system_id":"levelo_inurba_marseille","lat":43.305994,"lon":5.393687,"is_reserved":false,"is_disabled":false,"rental_uris":{"android":"levelo://app?vid=a4081ede-088d-44fa-94a4-f111ac0eec65","ios":"levelo://app?vid=a4081ede-088d-44fa-94a4-f111ac0eec65"},"vehicle_type_id":"4","last_reported":1714759755,"current_range_meters":20000,"station_id":"ce4bh0p2rcd13ifvqd80","pricing_plan_id":"cebpf4jnsgd1na2vs0mg"},{"bike_id":"e6f73d5b-8d96-4db3-920e-3aa0ec37f78b","system_id":"levelo_inurba_marseille","lat":43.29299,"lon":5.37473,"is_reserved":false,"is_disabled":false,"rental_uris":{"android":"levelo://app?vid=e6f73d5b-8d96-4db3-920e-3aa0ec37f78b","ios":"levelo://app?vid=e6f73d5b-8d96-4db3-920e-3aa0ec37f78b"},"vehicle_type_id":"4","last_reported":1714759755,"current_range_meters":2800,"station_id":"ce4bgi12rcd13ifvqb70","pricing_plan_id":"cebpf4jnsgd1na2vs0mg"},{"bike_id":"d462e9c1-6b0e-4d01-aaf2-5e00bdd30642","system_id":"levelo_inurba_marseille","lat":43.305994,"lon":5.393687,"is_reserved":false,"is_disabled":false,"rental_uris":{"android":"levelo://app?vid=d462e9c1-6b0e-4d01-aaf2-5e00bdd30642","ios":"levelo://app?vid=d462e9c1-6b0e-4d01-aaf2-5e00bdd30642"},"vehicle_type_id":"4","last_reported":1714759755,"current_range_meters":20400,"station_id":"ce4bh0p2rcd13ifvqd80","pricing_plan_id":"cebpf4jnsgd1na2vs0mg"},{"bike_id":"9c89a8d6-5ecc-452c-b57d-4f0a6cd7dc47","system_id":"levelo_inurba_marseille","lat":43.305994,"lon":5.393687,"is_reserved":false,"is_disabled":false,"rental_uris":{"android":"levelo://app?vid=9c89a8d6-5ecc-452c-b57d-4f0a6cd7dc47","ios":"levelo://app?vid=9c89a8d6-5ecc-452c-b57d-4f0a6cd7dc47"},"vehicle_type_id":"4","last_reported":1714759755,"current_range_meters":5200,"station_id":"ce4bh0p2rcd13ifvqd80","pricing_plan_id":"cebpf4jnsgd1na2vs0mg"},{"bike_id":"8d679f64-50ff-4a47-ac60-799325a60875","system_id":"levelo_inurba_marseille","lat":43.305994,"lon":5.393687,"is_reserved":false,"is_disabled":false,"rental_uris":{"android":"levelo://app?vid=8d679f64-50ff-4a47-ac60-799325a60875","ios":"levelo://app?vid=8d679f64-50ff-4a47-ac60-799325a60875"},"vehicle_type_id":"4","last_reported":1714759755,"current_range_meters":18000,"station_id":"ce4bh0p2rcd13ifvqd80","pricing_plan_id":"cebpf4jnsgd1na2vs0mg"},{"bike_id":"90e72029-b5c6-4d09-8859-27d58680a89f","system_id":"levelo_inurba_marseille","lat":43.29293,"lon":5.37464,"is_reserved":false,"is_disabled":false,"rental_uris":{"android":"levelo://app?vid=90e72029-b5c6-4d09-8859-27d58680a89f","ios":"levelo://app?vid=90e72029-b5c6-4d09-8859-27d58680a89f"},"vehicle_type_id":"4","last_reported":1714759755,"current_range_meters":18400,"station_id":"ce4bgi12rcd13ifvqb70","pricing_plan_id":"cebpf4jnsgd1na2vs0mg"},{"bike_id":"3b9d08bb-1b55-42a6-afe7-eb04ae251396","system_id":"levelo_inurba_marseille","lat":43.2929,"lon":5.3746,"is_reserved":false,"is_disabled":false,"rental_uris":{"android":"levelo://app?vid=3b9d08bb-1b55-42a6-afe7-eb04ae251396","ios":"levelo://app?vid=3b9d08bb-1b55-42a6-afe7-eb04ae251396"},"vehicle_type_id":"4","last_reported":1714759755,"current_range_meters":0,"station_id":"ce4bgi12rcd13ifvqb70","pricing_plan_id":"cebpf4jnsgd1na2vs0mg"},{"bike_id":"4fe25cda-d7ce-461c-8b64-b0574abf4798","system_id":"levelo_inurba_marseille","lat":43.302992,"lon":5.392136,"is_reserved":false,"is_disabled":false,"rental_uris":{"android":"levelo://app?vid=4fe25cda-d7ce-461c-8b64-b0574abf4798","ios":"levelo://app?vid=4fe25cda-d7ce-461c-8b64-b0574abf4798"},"vehicle_type_id":"4","last_reported":1714759755,"current_range_meters":8400,"station_id":"ce4bgkh2rcd13ifvqbk0","pricing_plan_id":"cebpf4jnsgd1na2vs0mg"},{"bike_id":"97d1ca0f-5513-49aa-b598-8f72950138a2","system_id":"levelo_inurba_marseille","lat":43.2928,"lon":5.37476,"is_reserved":false,"is_disabled":false,"rental_uris":{"android":"levelo://app?vid=97d1ca0f-5513-49aa-b598-8f72950138a2","ios":"levelo://app?vid=97d1ca0f-5513-49aa-b598-8f72950138a2"},"vehicle_type_id":"4","last_reported":1714759755,"current_range_meters":17600,"station_id":"ce4bgi12rcd13ifvqb70","pricing_plan_id":"cebpf4jnsgd1na2vs0mg"},{"bike_id":"9df56186-996e-4a2b-892c-460bfd584332","system_id":"levelo_inurba_marseille","lat":43.2936,"lon":5.37835,"is_reserved":false,"is_disabled":false,"rental_uris":{"android":"levelo://app?vid=9df56186-996e-4a2b-892c-460bfd584332","ios":"levelo://app?vid=9df56186-996e-4a2b-892c-460bfd584332"},"vehicle_type_id":"4","last_reported":1714759755,"current_range_meters":10000,"station_id":"ce4bgjh2rcd13ifvqbf0","pricing_plan_id":"cebpf4jnsgd1na2vs0mg"},{"bike_id":"60c49f6c-0016-4ed3-bea0-d363484c0c91","system_id":"levelo_inurba_marseille","lat":43.302992,"lon":5.392136,"is_reserved":false,"is_disabled":false,"rental_uris":{"android":"levelo://app?vid=60c49f6c-0016-4ed3-bea0-d363484c0c91","ios":"levelo://app?vid=60c49f6c-0016-4ed3-bea0-d363484c0c91"},"vehicle_type_id":"4","last_reported":1714759755,"current_range_meters":30400,"station_id":"ce4bgkh2rcd13ifvqbk0","pricing_plan_id":"cebpf4jnsgd1na2vs0mg"},{"bike_id":"69dfc5ec-6e92-48cc-9785-04f8dee6e990","system_id":"levelo_inurba_marseille","lat":43.30293,"lon":5.392108,"is_reserved":false,"is_disabled":false,"rental_uris":{"android":"levelo://app?vid=69dfc5ec-6e92-48cc-9785-04f8dee6e990","ios":"levelo://app?vid=69dfc5ec-6e92-48cc-9785-04f8dee6e990"},"vehicle_type_id":"4","last_reported":1714759755,"current_range_meters":22000,"station_id":"ce4bgkh2rcd13ifvqbk0","pricing_plan_id":"cebpf4jnsgd1na2vs0mg"},{"bike_id":"10574367-08a9-48af-b865-c34e12413ebb","system_id":"levelo_inurba_marseille","lat":43.2936,"lon":5.37835,"is_reserved":false,"is_disabled":false,"rental_uris":{"android":"levelo://app?vid=10574367-08a9-48af-b865-c34e12413ebb","ios":"levelo://app?vid=10574367-08a9-48af-b865-c34e12413ebb"},"vehicle_type_id":"4","last_reported":1714759755,"current_range_meters":3600,"station_id":"ce4bgjh2rcd13ifvqbf0","pricing_plan_id":"cebpf4jnsgd1na2vs0mg"},{"bike_id":"d3a27e85-c12f-4264-97cb-e24eac6df509","system_id":"levelo_inurba_marseille","lat":43.2936,"lon":5.37835,"is_reserved":false,"is_disabled":false,"rental_uris":{"android":"levelo://app?vid=d3a27e85-c12f-4264-97cb-e24eac6df509","ios":"levelo://app?vid=d3a27e85-c12f-4264-97cb-e24eac6df509"},"vehicle_type_id":"4","last_reported":1714759755,"current_range_meters":26400,"station_id":"ce4bgjh2rcd13ifvqbf0","pricing_plan_id":"cebpf4jnsgd1na2vs0mg"},{"bike_id":"a681395b-591d-48a7-8bf6-3c1b92c30039","system_id":"levelo_inurba_marseille","lat":43.29372,"lon":5.37852,"is_reserved":false,"is_disabled":false,"rental_uris":{"android":"levelo://app?vid=a681395b-591d-48a7-8bf6-3c1b92c30039","ios":"levelo://app?vid=a681395b-591d-48a7-8bf6-3c1b92c30039"},"vehicle_type_id":"4","last_reported":1714759755,"current_range_meters":0,"station_id":"ce4bgjh2rcd13ifvqbf0","pricing_plan_id":"cebpf4jnsgd1na2vs0mg"},{"bike_id":"69293d18-340c-4c91-aa83-3bb5a90d5821","system_id":"levelo_inurba_marseille","lat":43.2936,"lon":5.37835,"is_reserved":false,"is_disabled":false,"rental_uris":{"android":"levelo://app?vid=69293d18-340c-4c91-aa83-3bb5a90d5821","ios":"levelo://app?vid=69293d18-340c-4c91-aa83-3bb5a90d5821"},"vehicle_type_id":"4","last_reported":1714759755,"current_range_meters":19200,"station_id":"ce4bgjh2rcd13ifvqbf0","pricing_plan_id":"cebpf4jnsgd1na2vs0mg"},{"bike_id":"505d8198-5023-4d33-bb5d-8bd9a82f56b1","system_id":"levelo_inurba_marseille","lat":43.298764,"lon":5.388973,"is_reserved":false,"is_disabled":false,"rental_uris":{"android":"levelo://app?vid=505d8198-5023-4d33-bb5d-8bd9a82f56b1","ios":"levelo://app?vid=505d8198-5023-4d33-bb5d-8bd9a82f56b1"},"vehicle_type_id":"4","last_reported":1714759755,"current_range_meters":15200,"station_id":"ce4bh392rcd13ifvqdl0","pricing_plan_id":"cebpf4jnsgd1na2vs0mg"},{"bike_id":"1db236e4-3e2a-42a2-92fd-e8924cd15521","system_id":"levelo_inurba_marseille","lat":43.30085,"lon":5.390856,"is_reserved":false,"is_disabled":false,"rental_uris":{"android":"levelo://app?vid=1db236e4-3e2a-42a2-92fd-e8924cd15521","ios":"levelo://app?vid=1db236e4-3e2a-42a2-92fd-e8924cd15521"},"vehicle_type_id":"4","last_reported":1714759755,"current_range_meters":14000,"station_id":"ce4bh192rcd13ifvqdb0","pricing_plan_id":"cebpf4jnsgd1na2vs0mg"},{"bike_id":"f77d03fd-0686-4aa5-b6ad-3396d1986995","system_id":"levelo_inurba_marseille","lat":43.292311,"lon":5.360731,"is_reserved":false,"is_disabled":false,"rental_uris":{"android":"levelo://app?vid=f77d03fd-0686-4aa5-b6ad-3396d1986995","ios":"levelo://app?vid=f77d03fd-0686-4aa5-b6ad-3396d1986995"},"vehicle_type_id":"4","last_reported":1714759755,"current_range_meters":24000,"station_id":"ce4bhbh2rcd13ifvqeqg","pricing_plan_id":"cebpf4jnsgd1na2vs0mg"},{"bike_id":"4feccfda-29cd-40b6-a13c-2e1be63a8f4b","system_id":"levelo_inurba_marseille","lat":43.292311,"lon":5.360731,"is_reserved":false,"is_disabled":false,"rental_uris":{"android":"levelo://app?vid=4feccfda-29cd-40b6-a13c-2e1be63a8f4b","ios":"levelo://app?vid=4feccfda-29cd-40b6-a13c-2e1be63a8f4b"},"vehicle_type_id":"4","last_reported":1714759755,"current_range_meters":10800,"station_id":"ce4bhbh2rcd13ifvqeqg","pricing_plan_id":"cebpf4jnsgd1na2vs0mg"},{"bike_id":"a3026d94-8605-4294-9af6-bd55e518ed5b","system_id":"levelo_inurba_marseille","lat":43.30085,"lon":5.390856,"is_reserved":false,"is_disabled":false,"rental_uris":{"android":"levelo://app?vid=a3026d94-8605-4294-9af6-bd55e518ed5b","ios":"levelo://app?vid=a3026d94-8605-4294-9af6-bd55e518ed5b"},"vehicle_type_id":"4","last_reported":1714759755,"current_range_meters":400,"station_id":"ce4bh192rcd13ifvqdb0","pricing_plan_id":"cebpf4jnsgd1na2vs0mg"},{"bike_id":"984d308a-4e98-400e-a5cb-20b703820264","system_id":"levelo_inurba_marseille","lat":43.298764,"lon":5.388973,"is_reserved":false,"is_disabled":false,"rental_uris":{"android":"levelo://app?vid=984d308a-4e98-400e-a5cb-20b703820264","ios":"levelo://app?vid=984d308a-4e98-400e-a5cb-20b703820264"},"vehicle_type_id":"4","last_reported":1714759755,"current_range_meters":4800,"station_id":"ce4bh392rcd13ifvqdl0","pricing_plan_id":"cebpf4jnsgd1na2vs0mg"},{"bike_id":"429d0740-dd66-4bb4-9dd3-558fd9f65df4","system_id":"levelo_inurba_marseille","lat":43.291675,"lon":5.371583,"is_reserved":false,"is_disabled":false,"rental_uris":{"android":"levelo://app?vid=429d0740-dd66-4bb4-9dd3-558fd9f65df4","ios":"levelo://app?vid=429d0740-dd66-4bb4-9dd3-558fd9f65df4"},"vehicle_type_id":"4","last_reported":1714759755,"current_range_meters":6800,"station_id":"ce4bha92rcd13ifvqeh0","pricing_plan_id":"cebpf4jnsgd1na2vs0mg"},{"bike_id":"159c2251-0762-48c3-98dc-a977d11f9c40","system_id":"levelo_inurba_marseille","lat":43.291671,"lon":5.371575,"is_reserved":false,"is_disabled":false,"rental_uris":{"android":"levelo://app?vid=159c2251-0762-48c3-98dc-a977d11f9c40","ios":"levelo://app?vid=159c2251-0762-48c3-98dc-a977d11f9c40"},"vehicle_type_id":"4","last_reported":1714759755,"current_range_meters":30800,"station_id":"ce4bha92rcd13ifvqeh0","pricing_plan_id":"cebpf4jnsgd1na2vs0mg"},{"bike_id":"1d658414-06e3-44f7-aedc-b2a592b428dc","system_id":"levelo_inurba_marseille","lat":43.291671,"lon":5.371575,"is_reserved":false,"is_disabled":false,"rental_uris":{"android":"levelo://app?vid=1d658414-06e3-44f7-aedc-b2a592b428dc","ios":"levelo://app?vid=1d658414-06e3-44f7-aedc-b2a592b428dc"},"vehicle_type_id":"4","last_reported":1714759755,"current_range_meters":22400,"station_id":"ce4bha92rcd13ifvqeh0","pricing_plan_id":"cebpf4jnsgd1na2vs0mg"},{"bike_id":"f6b3ad17-ed5c-4a09-bf49-38b6adc530e5","system_id":"levelo_inurba_marseille","lat":43.298764,"lon":5.388973,"is_reserved":false,"is_disabled":false,"rental_uris":{"android":"levelo://app?vid=f6b3ad17-ed5c-4a09-bf49-38b6adc530e5","ios":"levelo://app?vid=f6b3ad17-ed5c-4a09-bf49-38b6adc530e5"},"vehicle_type_id":"4","last_reported":1714759755,"current_range_meters":10000,"station_id":"ce4bh392rcd13ifvqdl0","pricing_plan_id":"cebpf4jnsgd1na2vs0mg"},{"bike_id":"327fb343-a9eb-4813-959c-4865fd7a9511","system_id":"levelo_inurba_marseille","lat":43.291671,"lon":5.371575,"is_reserved":false,"is_disabled":false,"rental_uris":{"android":"levelo://app?vid=327fb343-a9eb-4813-959c-4865fd7a9511","ios":"levelo://app?vid=327fb343-a9eb-4813-959c-4865fd7a9511"},"vehicle_type_id":"4","last_reported":1714759755,"current_range_meters":13600,"station_id":"ce4bha92rcd13ifvqeh0","pricing_plan_id":"cebpf4jnsgd1na2vs0mg"},{"bike_id":"1f12f441-a44e-45ed-b104-500b18941ff4","system_id":"levelo_inurba_marseille","lat":43.298764,"lon":5.388973,"is_reserved":false,"is_disabled":false,"rental_uris":{"android":"levelo://app?vid=1f12f441-a44e-45ed-b104-500b18941ff4","ios":"levelo://app?vid=1f12f441-a44e-45ed-b104-500b18941ff4"},"vehicle_type_id":"4","last_reported":1714759755,"current_range_meters":10000,"station_id":"ce4bh392rcd13ifvqdl0","pricing_plan_id":"cebpf4jnsgd1na2vs0mg"},{"bike_id":"de42590c-bd0b-40c6-a05b-a41e7ab53251","system_id":"levelo_inurba_marseille","lat":43.29876,"lon":5.38907,"is_reserved":false,"is_disabled":false,"rental_uris":{"android":"levelo://app?vid=de42590c-bd0b-40c6-a05b-a41e7ab53251","ios":"levelo://app?vid=de42590c-bd0b-40c6-a05b-a41e7ab53251"},"vehicle_type_id":"4","last_reported":1714759755,"current_range_meters":800,"station_id":"ce4bh392rcd13ifvqdl0","pricing_plan_id":"cebpf4jnsgd1na2vs0mg"},{"bike_id":"f96935f1-3c4b-4926-ad5b-b8b2aaff6891","system_id":"levelo_inurba_marseille","lat":43.2956,"lon":5.38477,"is_reserved":false,"is_disabled":false,"rental_uris":{"android":"levelo://app?vid=f96935f1-3c4b-4926-ad5b-b8b2aaff6891","ios":"levelo://app?vid=f96935f1-3c4b-4926-ad5b-b8b2aaff6891"},"vehicle_type_id":"4","last_reported":1714759755,"current_range_meters":800,"station_id":"","pricing_plan_id":"cebpf4jnsgd1na2vs0mg"},{"bike_id":"55674c5d-6a5f-44dc-b00c-161884609138","system_id":"levelo_inurba_marseille","lat":43.313291,"lon":5.396838,"is_reserved":false,"is_disabled":false,"rental_uris":{"android":"levelo://app?vid=55674c5d-6a5f-44dc-b00c-161884609138","ios":"levelo://app?vid=55674c5d-6a5f-44dc-b00c-161884609138"},"vehicle_type_id":"4","last_reported":1714759755,"current_range_meters":22800,"station_id":"ce4bgvp2rcd13ifvqcu0","pricing_plan_id":"cebpf4jnsgd1na2vs0mg"},{"bike_id":"89fbe82d-d179-4c6a-9838-6334d07f9981","system_id":"levelo_inurba_marseille","lat":43.291994,"lon":5.357886,"is_reserved":false,"is_disabled":false,"rental_uris":{"android":"levelo://app?vid=89fbe82d-d179-4c6a-9838-6334d07f9981","ios":"levelo://app?vid=89fbe82d-d179-4c6a-9838-6334d07f9981"},"vehicle_type_id":"4","last_reported":1714759755,"current_range_meters":19200,"station_id":"ce4bhb12rcd13ifvqel0","pricing_plan_id":"cebpf4jnsgd1na2vs0mg"},{"bike_id":"477a8f88-bc58-4db1-8c0d-6b877c154910","system_id":"levelo_inurba_marseille","lat":43.291941,"lon":5.358068,"is_reserved":false,"is_disabled":false,"rental_uris":{"android":"levelo://app?vid=477a8f88-bc58-4db1-8c0d-6b877c154910","ios":"levelo://app?vid=477a8f88-bc58-4db1-8c0d-6b877c154910"},"vehicle_type_id":"4","last_reported":1714759755,"current_range_meters":13200,"station_id":"","pricing_plan_id":"cebpf4jnsgd1na2vs0mg"},{"bike_id":"93676d58-d36d-4aa1-82cf-eb9149b62357","system_id":"levelo_inurba_marseille","lat":43.313291,"lon":5.396838,"is_reserved":false,"is_disabled":false,"rental_uris":{"android":"levelo://app?vid=93676d58-d36d-4aa1-82cf-eb9149b62357","ios":"levelo://app?vid=93676d58-d36d-4aa1-82cf-eb9149b62357"},