{"last_updated":1748513534,"ttl":60,"version":"2.2","data":{"bikes":[{"bike_id":"55d42eeb-6b71-4987-a0f2-3d758b10d43e","system_id":"levelo_inurba_marseille","lat":43.33771,"lon":5.37424,"is_reserved":false,"is_disabled":true,"rental_uris":{"android":"levelo://app?vid=55d42eeb-6b71-4987-a0f2-3d758b10d43e","ios":"levelo://app?vid=55d42eeb-6b71-4987-a0f2-3d758b10d43e"},"vehicle_type_id":"4","last_reported":1748513534,"current_range_meters":0,"station_id":"","pricing_plan_id":"cebpf4jnsgd1na2vs0mg"},{"bike_id":"49c6e13b-47db-4742-afe3-0aadda4ba4fb","system_id":"levelo_inurba_marseille","lat":43.317578,"lon":5.385584,"is_reserved":false,"is_disabled":false,"rental_uris":{"android":"levelo://app?vid=49c6e13b-47db-4742-afe3-0aadda4ba4fb","ios":"levelo://app?vid=49c6e13b-47db-4742-afe3-0aadda4ba4fb"},"vehicle_type_id":"4","last_reported":1748513534,"current_range_meters":0,"station_id":"","pricing_plan_id":"cebpf4jnsgd1na2vs0mg"},{"bike_id":"b7fe4621-b706-42f0-9085-4811142f84e8","system_id":"levelo_inurba_marseille","lat":43.337499,"lon":5.374469,"is_reserved":false,"is_disabled":true,"rental_uris":{"android":"levelo://app?vid=b7fe4621-b706-42f0-9085-4811142f84e8","ios":"levelo://app?vid=b7fe4621-b706-42f0-9085-4811142f84e8"},"vehicle_type_id":"4","last_reported":1748513534,"current_range_meters":0,"station_id":"","pricing_plan_id":"cebpf4jnsgd1na2vs0mg"},{"bike_id":"ad402f0f-3192-410c-afac-8cf064a40c6d","system_id":"levelo_inurba_marseille","lat":43.337444,"lon":5.374475,"is_reserved":false,"is_disabled":true,"rental_uris":{"android":"levelo://app?vid=ad402f0f-3192-410c-afac-8cf064a40c6d","ios":"levelo://app?vid=ad402f0f-3192-410c-afac-8cf064a40c6d"},"vehicle_type_id":"4","last_reported":1748513534,"current_range_meters":0,"station_id":"","pricing_plan_id":"cebpf4jnsgd1na2vs0mg"},{"bike_id":"49a884c6-32c5-4489-8361-5676db2be1d3","system_id":"levelo_inurba_marseille","lat":43.30455,"lon":5.3709,"is_reserved":false,"is_disabled":true,"rental_uris":{"android":"levelo://app?vid=49a884c6-32c5-4489-8361-5676db2be1d3","ios":"levelo://app?vid=49a884c6-32c5-4489-8361-5676db2be1d3"},"vehicle_type_id":"4","last_reported":1748513534,"current_range_meters":0,"station_id":"","pricing_plan_id":"cebpf4jnsgd1na2vs0mg"},{"bike_id":"80dc1064-d63f-4a22-ad21-d8abd70986c0","system_id":"levelo_inurba_marseille","lat":43.337516,"lon":5.374845,"is_reserved":false,"is_disabled":true,"rental_uris":{"android":"levelo://app?vid=80dc1064-d63f-4a22-ad21-d8abd70986c0","ios":"levelo://app?vid=80dc1064-d63f-4a22-ad21-d8abd70986c0"},"vehicle_type_id":"4","last_reported":1748513534,"current_range_meters":0,"station_id":"","pricing_plan_id":"cebpf4jnsgd1na2vs0mg"},{"bike_id":"2fd7e160-685c-4858-b57b-dcaef27a8e94","system_id":"levelo_inurba_marseille","lat":43.230331,"lon":5.401847,"is_reserved":false,"is_disabled":true,"rental_uris":{"android":"levelo://app?vid=2fd7e160-685c-4858-b57b-dcaef27a8e94","ios":"levelo://app?vid=2fd7e160-685c-4858-b57b-dcaef27a8e94"},"vehicle_type_id":"4","last_reported":1748513534,"current_range_meters":0,"station_id":"","pricing_plan_id":"cebpf4jnsgd1na2vs0mg"},{"bike_id":"65e836bc-c2b8-4585-b651-35d083d8f033","system_id":"levelo_inurba_marseille","lat":43.29303,"lon":5.37165,"is_reserved":false,"is_disabled":true,"rental_uris":{"android":"levelo://app?vid=65e836bc-c2b8-4585-b651-35d083d8f033","ios":"levelo://app?vid=65e836bc-c2b8-4585-b651-35d083d8f033"},"vehicle_type_id":"4","last_reported":1748513534,"current_range_meters":0,"station_id":"ce4bgh92rcd13ifvqb40","pricing_plan_id":"cebpf4jnsgd1na2vs0mg"},{"bike_id":"8fb7e859-daac-4d8a-b78f-3943df32846d","system_id":"levelo_inurba_marseille","lat":43.28261,"lon":5.35079,"is_reserved":false,"is_disabled":true,"rental_uris":{"android":"levelo://app?vid=8fb7e859-daac-4d8a-b78f-3943df32846d","ios":"levelo://app?vid=8fb7e859-daac-4d8a-b78f-3943df32846d"},"vehicle_type_id":"4","last_reported":1748513534,"current_range_meters":0,"station_id":"ce4bhbp2rcd13ifvqerg","pricing_plan_id":"cebpf4jnsgd1na2vs0mg"},{"bike_id":"5f9c4800-71d0-4dde-900d-027b3900581b","system_id":"levelo_inurba_marseille","lat":43.25461,"lon":5.376843,"is_reserved":false,"is_disabled":true,"rental_uris":{"android":"levelo://app?vid=5f9c4800-71d0-4dde-900d-027b3900581b","ios":"levelo://app?vid=5f9c4800-71d0-4dde-900d-027b3900581b"},"vehicle_type_id":"4","last_reported":1748513534,"current_range_meters":0,"station_id":"ce4bhh12rcd13ifvqff0","pricing_plan_id":"cebpf4jnsgd1na2vs0mg"},{"bike_id":"378f0c75-a7dc-482d-a74f-daee3a761961","system_id":"levelo_inurba_marseille","lat":43.24392,"lon":5.37065,"is_reserved":false,"is_disabled":false,"rental_uris":{"android":"levelo://app?vid=378f0c75-a7dc-482d-a74f-daee3a761961","ios":"levelo://app?vid=378f0c75-a7dc-482d-a74f-daee3a761961"},"vehicle_type_id":"4","last_reported":1748513534,"current_range_meters":0,"station_id":"ce4bhhh2rcd13ifvqfk0","pricing_plan_id":"cebpf4jnsgd1na2vs0mg"},{"bike_id":"cced11e4-e1f0-4502-a004-947b69959a7b","system_id":"levelo_inurba_marseille","lat":43.24383,"lon":5.37057,"is_reserved":false,"is_disabled":true,"rental_uris":{"android":"levelo://app?vid=cced11e4-e1f0-4502-a004-947b69959a7b","ios":"levelo://app?vid=cced11e4-e1f0-4502-a004-947b69959a7b"},"vehicle_type_id":"4","last_reported":1748513534,"current_range_meters":0,"station_id":"ce4bhhh2rcd13ifvqfk0","pricing_plan_id":"cebpf4jnsgd1na2vs0mg"},{"bike_id":"0d76e503-0427-40b1-9eb7-acadbf88563e","system_id":"levelo_inurba_marseille","lat":43.27069,"lon":5.4228,"is_reserved":false,"is_disabled":true,"rental_uris":{"android":"levelo://app?vid=0d76e503-0427-40b1-9eb7-acadbf88563e","ios":"levelo://app?vid=0d76e503-0427-40b1-9eb7-acadbf88563e"},"vehicle_type_id":"4","last_reported":1748513534,"current_range_meters":0,"station_id":"ce4bhk92rcd13ifvqgb0","pricing_plan_id":"cebpf4jnsgd1na2vs0mg"},{"bike_id":"7f4b6069-304f-4d75-a8b9-d3db83a055ca","system_id":"levelo_inurba_marseille","lat":43.2176,"lon":5.34591,"is_reserved":false,"is_disabled":true,"rental_uris":{"android":"levelo://app?vid=7f4b6069-304f-4d75-a8b9-d3db83a055ca","ios":"levelo://app?vid=7f4b6069-304f-4d75-a8b9-d3db83a055ca"},"vehicle_type_id":"4","last_reported":1748513534,"current_range_meters":0,"station_id":"st_cvj6r9ubvosntc0bgbag","pricing_plan_id":"cebpf4jnsgd1na2vs0mg"},{"bike_id":"aa5ad801-7aa0-4f9e-adbc-9fec180c0877","system_id":"levelo_inurba_marseille","lat":43.27374,"lon":5.3625,"is_reserved":false,"is_disabled":true,"rental_uris":{"android":"levelo://app?vid=aa5ad801-7aa0-4f9e-adbc-9fec180c0877","ios":"levelo://app?vid=aa5ad801-7aa0-4f9e-adbc-9fec180c0877"},"vehicle_type_id":"4","last_reported":1748513534,"current_range_meters":800,"station_id":"ce4bhbh2rcd13ifvqeo0","pricing_plan_id":"cebpf4jnsgd1na2vs0mg"},{"bike_id":"e95d3430-b35a-4655-9cf2-defddf7b0a42","system_id":"levelo_inurba_marseille","lat":43.25821,"lon":5.39434,"is_reserved":false,"is_disabled":true,"rental_uris":{"android":"levelo://app?vid=e95d3430-b35a-4655-9cf2-defddf7b0a42","ios":"levelo://app?vid=e95d3430-b35a-4655-9cf2-defddf7b0a42"},"vehicle_type_id":"4","last_reported":1748513534,"current_range_meters":800,"station_id":"ce4bhip2rcd13ifvqft0","pricing_plan_id":"cebpf4jnsgd1na2vs0mg"},{"bike_id":"13c5ef35-a742-4cad-b384-38e41d81cb57","system_id":"levelo_inurba_marseille","lat":43.30142,"lon":5.38066,"is_reserved":false,"is_disabled":true,"rental_uris":{"android":"levelo://app?vid=13c5ef35-a742-4cad-b384-38e41d81cb57","ios":"levelo://app?vid=13c5ef35-a742-4cad-b384-38e41d81cb57"},"vehicle_type_id":"4","last_reported":1748513534,"current_range_meters":1200,"station_id":"ce4bgjp2rcd13ifvqbh0","pricing_plan_id":"cebpf4jnsgd1na2vs0mg"},{"bike_id":"88edae30-62a3-45ee-ba3c-a59f44a4e32a","system_id":"levelo_inurba_marseille","lat":43.2439,"lon":5.37058,"is_reserved":false,"is_disabled":true,"rental_uris":{"android":"levelo://app?vid=88edae30-62a3-45ee-ba3c-a59f44a4e32a","ios":"levelo://app?vid=88edae30-62a3-45ee-ba3c-a59f44a4e32a"},"vehicle_type_id":"4","last_reported":1748513534,"current_range_meters":1200,"station_id":"ce4bhhh2rcd13ifvqfk0","pricing_plan_id":"cebpf4jnsgd1na2vs0mg"},{"bike_id":"79fa2c16-3fb6-467d-b11f-01c41dbd318a","system_id":"levelo_inurba_marseille","lat":43.298938,"lon":5.436683,"is_reserved":false,"is_disabled":true,"rental_uris":{"android":"levelo://app?vid=79fa2c16-3fb6-467d-b11f-01c41dbd318a","ios":"levelo://app?vid=79fa2c16-3fb6-467d-b11f-01c41dbd318a"},"vehicle_type_id":"4","last_reported":1748513534,"current_range_meters":1200,"station_id":"ce4bhpp2rcd13ifvqhfg","pricing_plan_id":"cebpf4jnsgd1na2vs0mg"},{"bike_id":"e3f76541-b963-4c50-8c75-12f2a435430c","system_id":"levelo_inurba_marseille","lat":43.2731,"lon":5.39085,"is_reserved":false,"is_disabled":true,"rental_uris":{"android":"levelo://app?vid=e3f76541-b963-4c50-8c75-12f2a435430c","ios":"levelo://app?vid=e3f76541-b963-4c50-8c75-12f2a435430c"},"vehicle_type_id":"4","last_reported":1748513534,"current_range_meters":1600,"station_id":"ce4bhgp2rcd13ifvqfe0","pricing_plan_id":"cebpf4jnsgd1na2vs0mg"},{"bike_id":"ad39d693-9e81-4ca5-92f0-d9094057d946","system_id":"levelo_inurba_marseille","lat":43.23179,"lon":5.399799,"is_reserved":false,"is_disabled":true,"rental_uris":{"android":"levelo://app?vid=ad39d693-9e81-4ca5-92f0-d9094057d946","ios":"levelo://app?vid=ad39d693-9e81-4ca5-92f0-d9094057d946"},"vehicle_type_id":"4","last_reported":1748513534,"current_range_meters":2000,"station_id":"ce4bhn12rcd13ifvqgqg","pricing_plan_id":"cebpf4jnsgd1na2vs0mg"},{"bike_id":"54178be5-d1cc-40ca-81b2-2f7f14cac169","system_id":"levelo_inurba_marseille","lat":43.23181,"lon":5.39983,"is_reserved":false,"is_disabled":true,"rental_uris":{"android":"levelo://app?vid=54178be5-d1cc-40ca-81b2-2f7f14cac169","ios":"levelo://app?vid=54178be5-d1cc-40ca-81b2-2f7f14cac169"},"vehicle_type_id":"4","last_reported":1748513534,"current_range_meters":2000,"station_id":"ce4bhn12rcd13ifvqgqg","pricing_plan_id":"cebpf4jnsgd1na2vs0mg"},{"bike_id":"5a632450-5740-471f-8510-79d26194ea93","system_id":"levelo_inurba_marseille","lat":43.31081,"lon":5.42424,"is_reserved":false,"is_disabled":true,"rental_uris":{"android":"levelo://app?vid=5a632450-5740-471f-8510-79d26194ea93","ios":"levelo://app?vid=5a632450-5740-471f-8510-79d26194ea93"},"vehicle_type_id":"4","last_reported":1748513534,"current_range_meters":2000,"station_id":"ce4bhp92rcd13ifvqhag","pricing_plan_id":"cebpf4jnsgd1na2vs0mg"},{"bike_id":"ae368ff6-e045-48ca-875f-428825b31299","system_id":"levelo_inurba_marseille","lat":43.3042,"lon":5.39744,"is_reserved":false,"is_disabled":false,"rental_uris":{"android":"levelo://app?vid=ae368ff6-e045-48ca-875f-428825b31299","ios":"levelo://app?vid=ae368ff6-e045-48ca-875f-428825b31299"},"vehicle_type_id":"4","last_reported":1748513534,"current_range_meters":2800,"station_id":"ce4bh092rcd13ifvqd20","pricing_plan_id":"cebpf4jnsgd1na2vs0mg"},{"bike_id":"7812657f-be0e-4aac-ba83-ebb8b0371e76","system_id":"levelo_inurba_marseille","lat":43.30372,"lon":5.42487,"is_reserved":false,"is_disabled":false,"rental_uris":{"android":"levelo://app?vid=7812657f-be0e-4aac-ba83-ebb8b0371e76","ios":"levelo://app?vid=7812657f-be0e-4aac-ba83-ebb8b0371e76"},"vehicle_type_id":"4","last_reported":1748513534,"current_range_meters":2800,"station_id":"ce4bhoh2rcd13ifvqh6g","pricing_plan_id":"cebpf4jnsgd1na2vs0mg"},{"bike_id":"b8c24146-ad4a-4f49-a438-f0e95afb819c","system_id":"levelo_inurba_marseille","lat":43.30145,"lon":5.38075,"is_reserved":false,"is_disabled":false,"rental_uris":{"android":"levelo://app?vid=b8c24146-ad4a-4f49-a438-f0e95afb819c","ios":"levelo://app?vid=b8c24146-ad4a-4f49-a438-f0e95afb819c"},"vehicle_type_id":"4","last_reported":1748513534,"current_range_meters":3200,"station_id":"ce4bgjp2rcd13ifvqbh0","pricing_plan_id":"cebpf4jnsgd1na2vs0mg"},{"bike_id":"2315bae2-f057-4cd7-a325-e653b7413dd3","system_id":"levelo_inurba_marseille","lat":43.2696,"lon":5.38636,"is_reserved":false,"is_disabled":false,"rental_uris":{"android":"levelo://app?vid=2315bae2-f057-4cd7-a325-e653b7413dd3","ios":"levelo://app?vid=2315bae2-f057-4cd7-a325-e653b7413dd3"},"vehicle_type_id":"4","last_reported":1748513534,"current_range_meters":3200,"station_id":"ce4bhh92rcd13ifvqfh0","pricing_plan_id":"cebpf4jnsgd1na2vs0mg"},{"bike_id":"853159fe-3d6c-4b0e-afa5-bc0b35bd94c3","system_id":"levelo_inurba_marseille","lat":43.30128,"lon":5.40065,"is_reserved":false,"is_disabled":false,"rental_uris":{"android":"levelo://app?vid=853159fe-3d6c-4b0e-afa5-bc0b35bd94c3","ios":"levelo://app?vid=853159fe-3d6c-4b0e-afa5-bc0b35bd94c3"},"vehicle_type_id":"4","last_reported":1748513534,"current_range_meters":3600,"station_id":"","pricing_plan_id":"cebpf4jnsgd1na2vs0mg"},{"bike_id":"1a9deaa6-5b0b-41ea-a3a0-9c49f0de8473","system_id":"levelo_inurba_marseille","lat":43.29328,"lon":5.41165,"is_reserved":false,"is_disabled":false,"rental_uris":{"android":"levelo://app?vid=1a9deaa6-5b0b-41ea-a3a0-9c49f0de8473","ios":"levelo://app?vid=1a9deaa6-5b0b-41ea-a3a0-9c49f0de8473"},"vehicle_type_id":"4","last_reported":1748513534,"current_range_meters":3600,"station_id":"","pricing_plan_id":"cebpf4jnsgd1na2vs0mg"},{"bike_id":"17a4656c-367a-4b66-8af1-cfa56a873e39","system_id":"levelo_inurba_marseille","lat":43.28264,"lon":5.35068,"is_reserved":false,"is_disabled":false,"rental_uris":{"android":"levelo://app?vid=17a4656c-367a-4b66-8af1-cfa56a873e39","ios":"levelo://app?vid=17a4656c-367a-4b66-8af1-cfa56a873e39"},"vehicle_type_id":"4","last_reported":1748513534,"current_range_meters":3600,"station_id":"ce4bhbp2rcd13ifvqerg","pricing_plan_id":"cebpf4jnsgd1na2vs0mg"},{"bike_id":"6feb59f3-1033-42c4-b888-5fecc1d4d142","system_id":"levelo_inurba_marseille","lat":43.250868,"lon":5.395109,"is_reserved":false,"is_disabled":false,"rental_uris":{"android":"levelo://app?vid=6feb59f3-1033-42c4-b888-5fecc1d4d142","ios":"levelo://app?vid=6feb59f3-1033-42c4-b888-5fecc1d4d142"},"vehicle_type_id":"4","last_reported":1748513534,"current_range_meters":4000,"station_id":"ce4bhm12rcd13ifvqgkg","pricing_plan_id":"cebpf4jnsgd1na2vs0mg"},{"bike_id":"5849afa3-5991-41cb-b30e-45fbbe8cd884","system_id":"levelo_inurba_marseille","lat":43.303472,"lon":5.365078,"is_reserved":false,"is_disabled":false,"rental_uris":{"android":"levelo://app?vid=5849afa3-5991-41cb-b30e-45fbbe8cd884","ios":"levelo://app?vid=5849afa3-5991-41cb-b30e-45fbbe8cd884"},"vehicle_type_id":"4","last_reported":1748513534,"current_range_meters":4400,"station_id":"ce4bgpp2rcd13ifvqc3g","pricing_plan_id":"cebpf4jnsgd1na2vs0mg"},{"bike_id":"a3939321-93bc-4243-ac6f-a06658d0becb","system_id":"levelo_inurba_marseille","lat":43.23154,"lon":5.43702,"is_reserved":false,"is_disabled":false,"rental_uris":{"android":"levelo://app?vid=a3939321-93bc-4243-ac6f-a06658d0becb","ios":"levelo://app?vid=a3939321-93bc-4243-ac6f-a06658d0becb"},"vehicle_type_id":"4","last_reported":1748513534,"current_range_meters":4400,"station_id":"ce4bhmp2rcd13ifvqgog","pricing_plan_id":"cebpf4jnsgd1na2vs0mg"},{"bike_id":"9167ea6a-ce66-49ff-859f-3ca7c151003d","system_id":"levelo_inurba_marseille","lat":43.24175,"lon":5.39724,"is_reserved":false,"is_disabled":false,"rental_uris":{"android":"levelo://app?vid=9167ea6a-ce66-49ff-859f-3ca7c151003d","ios":"levelo://app?vid=9167ea6a-ce66-49ff-859f-3ca7c151003d"},"vehicle_type_id":"4","last_reported":1748513534,"current_range_meters":4400,"station_id":"ce4bhn12rcd13ifvqgpg","pricing_plan_id":"cebpf4jnsgd1na2vs0mg"},{"bike_id":"c3a0bd73-5813-47f0-a5c8-27701041c8ba","system_id":"levelo_inurba_marseille","lat":43.27252,"lon":5.42397,"is_reserved":false,"is_disabled":false,"rental_uris":{"android":"levelo://app?vid=c3a0bd73-5813-47f0-a5c8-27701041c8ba","ios":"levelo://app?vid=c3a0bd73-5813-47f0-a5c8-27701041c8ba"},"vehicle_type_id":"4","last_reported":1748513534,"current_range_meters":4800,"station_id":"","pricing_plan_id":"cebpf4jnsgd1na2vs0mg"},{"bike_id":"396675c1-6ca5-4799-bbdd-e4293caceb50","system_id":"levelo_inurba_marseille","lat":43.26545,"lon":5.39037,"is_reserved":false,"is_disabled":false,"rental_uris":{"android":"levelo://app?vid=396675c1-6ca5-4799-bbdd-e4293caceb50","ios":"levelo://app?vid=396675c1-6ca5-4799-bbdd-e4293caceb50"},"vehicle_type_id":"4","last_reported":1748513534,"current_range_meters":4800,"station_id":"ce4bhe12rcd13ifvqf30","pricing_plan_id":"cebpf4jnsgd1na2vs0mg"},{"bike_id":"cfb8d672-80eb-4212-8669-ac02d7eea4a7","system_id":"levelo_inurba_marseille","lat":43.29523,"lon":5.3905,"is_reserved":false,"is_disabled":false,"rental_uris":{"android":"levelo://app?vid=cfb8d672-80eb-4212-8669-ac02d7eea4a7","ios":"levelo://app?vid=cfb8d672-80eb-4212-8669-ac02d7eea4a7"},"vehicle_type_id":"4","last_reported":1748513534,"current_range_meters":5600,"station_id":"ce4bh3p2rcd13ifvqdp0","pricing_plan_id":"cebpf4jnsgd1na2vs0mg"},{"bike_id":"27301212-bf32-478a-8305-85531b951aa5","system_id":"levelo_inurba_marseille","lat":43.26553,"lon":5.38998,"is_reserved":false,"is_disabled":false,"rental_uris":{"android":"levelo://app?vid=27301212-bf32-478a-8305-85531b951aa5","ios":"levelo://app?vid=27301212-bf32-478a-8305-85531b951aa5"},"vehicle_type_id":"4","last_reported":1748513534,"current_range_meters":5600,"station_id":"ce4bhe12rcd13ifvqf30","pricing_plan_id":"cebpf4jnsgd1na2vs0mg"},{"bike_id":"59625023-539a-4de1-954d-f661af841490","system_id":"levelo_inurba_marseille","lat":43.26556,"lon":5.39019,"is_reserved":false,"is_disabled":false,"rental_uris":{"android":"levelo://app?vid=59625023-539a-4de1-954d-f661af841490","ios":"levelo://app?vid=59625023-539a-4de1-954d-f661af841490"},"vehicle_type_id":"4","last_reported":1748513534,"current_range_meters":5600,"station_id":"ce4bhe12rcd13ifvqf30","pricing_plan_id":"cebpf4jnsgd1na2vs0mg"},{"bike_id":"3cfea16f-01c7-4fe0-a288-30b46a4e76a1","system_id":"levelo_inurba_marseille","lat":43.255815,"lon":5.382258,"is_reserved":false,"is_disabled":false,"rental_uris":{"android":"levelo://app?vid=3cfea16f-01c7-4fe0-a288-30b46a4e76a1","ios":"levelo://app?vid=3cfea16f-01c7-4fe0-a288-30b46a4e76a1"},"vehicle_type_id":"4","last_reported":1748513534,"current_range_meters":5600,"station_id":"ce4bhih2rcd13ifvqfs0","pricing_plan_id":"cebpf4jnsgd1na2vs0mg"},{"bike_id":"b80ee325-09b2-4724-993d-4f8d3707c41c","system_id":"levelo_inurba_marseille","lat":43.25862,"lon":5.39902,"is_reserved":false,"is_disabled":false,"rental_uris":{"android":"levelo://app?vid=b80ee325-09b2-4724-993d-4f8d3707c41c","ios":"levelo://app?vid=b80ee325-09b2-4724-993d-4f8d3707c41c"},"vehicle_type_id":"4","last_reported":1748513534,"current_range_meters":5600,"station_id":"ce4bhl92rcd13ifvqghg","pricing_plan_id":"cebpf4jnsgd1na2vs0mg"},{"bike_id":"40040a20-2155-4bbc-b793-259e3b4f6f51","system_id":"levelo_inurba_marseille","lat":43.29779,"lon":5.37084,"is_reserved":false,"is_disabled":false,"rental_uris":{"android":"levelo://app?vid=40040a20-2155-4bbc-b793-259e3b4f6f51","ios":"levelo://app?vid=40040a20-2155-4bbc-b793-259e3b4f6f51"},"vehicle_type_id":"4","last_reported":1748513534,"current_range_meters":6000,"station_id":"ce4bgop2rcd13ifvqc1g","pricing_plan_id":"cebpf4jnsgd1na2vs0mg"},{"bike_id":"2178cddb-984a-414a-95a8-76950cd4edfe","system_id":"levelo_inurba_marseille","lat":43.30789,"lon":5.37645,"is_reserved":false,"is_disabled":false,"rental_uris":{"android":"levelo://app?vid=2178cddb-984a-414a-95a8-76950cd4edfe","ios":"levelo://app?vid=2178cddb-984a-414a-95a8-76950cd4edfe"},"vehicle_type_id":"4","last_reported":1748513534,"current_range_meters":6400,"station_id":"ce4bgv92rcd13ifvqcq0","pricing_plan_id":"cebpf4jnsgd1na2vs0mg"},{"bike_id":"81113532-9bf0-4e94-ba9e-358824bdab44","system_id":"levelo_inurba_marseille","lat":43.28609,"lon":5.37054,"is_reserved":false,"is_disabled":false,"rental_uris":{"android":"levelo://app?vid=81113532-9bf0-4e94-ba9e-358824bdab44","ios":"levelo://app?vid=81113532-9bf0-4e94-ba9e-358824bdab44"},"vehicle_type_id":"4","last_reported":1748513534,"current_range_meters":6400,"station_id":"ce4bht12rcd13ifvqi60","pricing_plan_id":"cebpf4jnsgd1na2vs0mg"},{"bike_id":"6d7cfdcd-f061-4eee-b4e5-78d9b6729328","system_id":"levelo_inurba_marseille","lat":43.32988,"lon":5.43849,"is_reserved":false,"is_disabled":false,"rental_uris":{"android":"levelo://app?vid=6d7cfdcd-f061-4eee-b4e5-78d9b6729328","ios":"levelo://app?vid=6d7cfdcd-f061-4eee-b4e5-78d9b6729328"},"vehicle_type_id":"4","last_reported":1748513534,"current_range_meters":6800,"station_id":"","pricing_plan_id":"cebpf4jnsgd1na2vs0mg"},{"bike_id":"7a707bfe-00ad-4f17-909b-325e9c05b69d","system_id":"levelo_inurba_marseille","lat":43.30772,"lon":5.38253,"is_reserved":false,"is_disabled":false,"rental_uris":{"android":"levelo://app?vid=7a707bfe-00ad-4f17-909b-325e9c05b69d","ios":"levelo://app?vid=7a707bfe-00ad-4f17-909b-325e9c05b69d"},"vehicle_type_id":"4","last_reported":1748513534,"current_range_meters":6800,"station_id":"","pricing_plan_id":"cebpf4jnsgd1na2vs0mg"},{"bike_id":"ba61f301-912a-4e3a-93b0-5365bc167474","system_id":"levelo_inurba_marseille","lat":43.24803,"lon":5.37453,"is_reserved":false,"is_disabled":false,"rental_uris":{"android":"levelo://app?vid=ba61f301-912a-4e3a-93b0-5365bc167474","ios":"levelo://app?vid=ba61f301-912a-4e3a-93b0-5365bc167474"},"vehicle_type_id":"4","last_reported":1748513534,"current_range_meters":6800,"station_id":"ce4bhgh2rcd13ifvqfb0","pricing_plan_id":"cebpf4jnsgd1na2vs0mg"},{"bike_id":"ee4805fc-08cd-4377-be04-3721b1f97d83","system_id":"levelo_inurba_marseille","lat":43.24172,"lon":5.36394,"is_reserved":false,"is_disabled":false,"rental_uris":{"android":"levelo://app?vid=ee4805fc-08cd-4377-be04-3721b1f97d83","ios":"levelo://app?vid=ee4805fc-08cd-4377-be04-3721b1f97d83"},"vehicle_type_id":"4","last_reported":1748513534,"current_range_meters":6800,"station_id":"cpo36qri1sfpv3e86is0","pricing_plan_id":"cebpf4jnsgd1na2vs0mg"},{"bike_id":"a243e8c3-349a-4a05-bbd9-fbd73c03990a","system_id":"levelo_inurba_marseille","lat":43.31071,"lon":5.3835,"is_reserved":false,"is_disabled":false,"rental_uris":{"android":"levelo://app?vid=a243e8c3-349a-4a05-bbd9-fbd73c03990a","ios":"levelo://app?vid=a243e8c3-349a-4a05-bbd9-fbd73c03990a"},"vehicle_type_id":"4","last_reported":1748513534,"current_range_meters":7200,"station_id":"ce4bgv92rcd13ifvqcr0","pricing_plan_id":"cebpf4jnsgd1na2vs0mg"},{"bike_id":"4c69cca3-5d0b-422c-bfda-4e2f25799f4c","system_id":"levelo_inurba_marseille","lat":43.27373,"lon":5.36249,"is_reserved":false,"is_disabled":false,"rental_uris":{"android":"levelo://app?vid=4c69cca3-5d0b-422c-bfda-4e2f25799f4c","ios":"levelo://app?vid=4c69cca3-5d0b-422c-bfda-4e2f25799f4c"},"vehicle_type_id":"4","last_reported":1748513534,"current_range_meters":7200,"station_id":"ce4bhbh2rcd13ifvqeo0","pricing_plan_id":"cebpf4jnsgd1na2vs0mg"},{"bike_id":"b6194222-a80b-43bc-b765-fba2143e9c5c","system_id":"levelo_inurba_marseille","lat":43.23193,"lon":5.35567,"is_reserved":false,"is_disabled":false,"rental_uris":{"android":"levelo://app?vid=b6194222-a80b-43bc-b765-fba2143e9c5c","ios":"levelo://app?vid=b6194222-a80b-43bc-b765-fba2143e9c5c"},"vehicle_type_id":"4","last_reported":1748513534,"current_range_meters":7200,"station_id":"ce4bhu92rcd13ifvqi70","pricing_plan_id":"cebpf4jnsgd1na2vs0mg"},{"bike_id":"be4b293e-8744-4637-8ca2-a3e9032e9cec","system_id":"levelo_inurba_marseille","lat":43.22917,"lon":5.35392,"is_reserved":false,"is_disabled":false,"rental_uris":{"android":"levelo://app?vid=be4b293e-8744-4637-8ca2-a3e9032e9cec","ios":"levelo://app?vid=be4b293e-8744-4637-8ca2-a3e9032e9cec"},"vehicle_type_id":"4","last_reported":1748513534,"current_range_meters":7200,"station_id":"cpo3532slgdg3j2ikp40","pricing_plan_id":"cebpf4jnsgd1na2vs0mg"},{"bike_id":"eaf4fa59-0ce9-47d8-b73a-0f44909f1e70","system_id":"levelo_inurba_marseille","lat":43.26204,"lon":5.37927,"is_reserved":false,"is_disabled":false,"rental_uris":{"android":"levelo://app?vid=eaf4fa59-0ce9-47d8-b73a-0f44909f1e70","ios":"levelo://app?vid=eaf4fa59-0ce9-47d8-b73a-0f44909f1e70"},"vehicle_type_id":"4","last_reported":1748513534,"current_range_meters":8000,"station_id":"","pricing_plan_id":"cebpf4jnsgd1na2vs0mg"},{"bike_id":"1eed49fb-ce64-4ebd-9903-7d87835a2ccf","system_id":"levelo_inurba_marseille","lat":43.29764,"lon":5.45971,"is_reserved":false,"is_disabled":false,"rental_uris":{"android":"levelo://app?vid=1eed49fb-ce64-4ebd-9903-7d87835a2ccf","ios":"levelo://app?vid=1eed49fb-ce64-4ebd-9903-7d87835a2ccf"},"vehicle_type_id":"4","last_reported":1748513534,"current_range_meters":8000,"station_id":"","pricing_plan_id":"cebpf4jnsgd1na2vs0mg"},{"bike_id":"3c68f385-ffba-4d15-b971-4641effeeac9","system_id":"levelo_inurba_marseille","lat":43.282174,"lon":5.390558,"is_reserved":false,"is_disabled":false,"rental_uris":{"android":"levelo://app?vid=3c68f385-ffba-4d15-b971-4641effeeac9","ios":"levelo://app?vid=3c68f385-ffba-4d15-b971-4641effeeac9"},"vehicle_type_id":"4","last_reported":1748513534,"current_range_meters":8000,"station_id":"","pricing_plan_id":"cebpf4jnsgd1na2vs0mg"},{"bike_id":"04a798dd-cf44-4b81-9d83-dd123da3dfb5","system_id":"levelo_inurba_marseille","lat":43.29538,"lon":5.38554,"is_reserved":false,"is_disabled":false,"rental_uris":{"android":"levelo://app?vid=04a798dd-cf44-4b81-9d83-dd123da3dfb5","ios":"levelo://app?vid=04a798dd-cf44-4b81-9d83-dd123da3dfb5"},"vehicle_type_id":"4","last_reported":1748513534,"current_range_meters":8000,"station_id":"ce4bgih2rcd13ifvqba0","pricing_plan_id":"cebpf4jnsgd1na2vs0mg"},{"bike_id":"e3443cc4-af4d-4df0-9429-5c8c77e5dcdc","system_id":"levelo_inurba_marseille","lat":43.2984,"lon":5.36265,"is_reserved":false,"is_disabled":false,"rental_uris":{"android":"levelo://app?vid=e3443cc4-af4d-4df0-9429-5c8c77e5dcdc","ios":"levelo://app?vid=e3443cc4-af4d-4df0-9429-5c8c77e5dcdc"},"vehicle_type_id":"4","last_reported":1748513534,"current_range_meters":8000,"station_id":"ce4bgpp2rcd13ifvqc3g","pricing_plan_id":"cebpf4jnsgd1na2vs0mg"},{"bike_id":"ce7b18e4-7948-40ae-b647-c69f45870dbb","system_id":"levelo_inurba_marseille","lat":43.30932,"lon":5.4019,"is_reserved":false,"is_disabled":false,"rental_uris":{"android":"levelo://app?vid=ce7b18e4-7948-40ae-b647-c69f45870dbb","ios":"levelo://app?vid=ce7b18e4-7948-40ae-b647-c69f45870dbb"},"vehicle_type_id":"4","last_reported":1748513534,"current_range_meters":8000,"station_id":"ce4bgvp2rcd13ifvqct0","pricing_plan_id":"cebpf4jnsgd1na2vs0mg"},{"bike_id":"731af763-afb9-4de0-b51e-263ddcad0afd","system_id":"levelo_inurba_marseille","lat":43.28943,"lon":5.36627,"is_reserved":false,"is_disabled":false,"rental_uris":{"android":"levelo://app?vid=731af763-afb9-4de0-b51e-263ddcad0afd","ios":"levelo://app?vid=731af763-afb9-4de0-b51e-263ddcad0afd"},"vehicle_type_id":"4","last_reported":1748513534,"current_range_meters":8000,"station_id":"ce4bhap2rcd13ifvqek0","pricing_plan_id":"cebpf4jnsgd1na2vs0mg"},{"bike_id":"b6a43aba-d393-4657-931f-1ae2ac0cfa5a","system_id":"levelo_inurba_marseille","lat":43.21748,"lon":5.34606,"is_reserved":false,"is_disabled":false,"rental_uris":{"android":"levelo://app?vid=b6a43aba-d393-4657-931f-1ae2ac0cfa5a","ios":"levelo://app?vid=b6a43aba-d393-4657-931f-1ae2ac0cfa5a"},"vehicle_type_id":"4","last_reported":1748513534,"current_range_meters":8000,"station_id":"st_cvj6r9ubvosntc0bgbag","pricing_plan_id":"cebpf4jnsgd1na2vs0mg"},{"bike_id":"9e86d75a-7d8b-4329-b2c4-5d214828de6d","system_id":"levelo_inurba_marseille","lat":43.21753,"lon":5.3459,"is_reserved":false,"is_disabled":false,"rental_uris":{"android":"levelo://app?vid=9e86d75a-7d8b-4329-b2c4-5d214828de6d","ios":"levelo://app?vid=9e86d75a-7d8b-4329-b2c4-5d214828de6d"},"vehicle_type_id":"4","last_reported":1748513534,"current_range_meters":8000,"station_id":"st_cvj6r9ubvosntc0bgbag","pricing_plan_id":"cebpf4jnsgd1na2vs0mg"},{"bike_id":"0415942b-e38a-4e6f-97ea-90c421f84a3c","system_id":"levelo_inurba_marseille","lat":43.28232,"lon":5.39063,"is_reserved":false,"is_disabled":false,"rental_uris":{"android":"levelo://app?vid=0415942b-e38a-4e6f-97ea-90c421f84a3c","ios":"levelo://app?vid=0415942b-e38a-4e6f-97ea-90c421f84a3c"},"vehicle_type_id":"4","last_reported":1748513534,"current_range_meters":8800,"station_id":"","pricing_plan_id":"cebpf4jnsgd1na2vs0mg"},{"bike_id":"fd04b8ad-5833-404a-950a-121069f51147","system_id":"levelo_inurba_marseille","lat":43.296471,"lon":5.377633,"is_reserved":false,"is_disabled":false,"rental_uris":{"android":"levelo://app?vid=fd04b8ad-5833-404a-950a-121069f51147","ios":"levelo://app?vid=fd04b8ad-5833-404a-950a-121069f51147"},"vehicle_type_id":"4","last_reported":1748513534,"current_range_meters":8800,"station_id":"","pricing_plan_id":"cebpf4jnsgd1na2vs0mg"},{"bike_id":"2f650bb1-6027-4191-83d2-16315820a0a7","system_id":"levelo_inurba_marseille","lat":43.30003,"lon":5.37349,"is_reserved":false,"is_disabled":false,"rental_uris":{"android":"levelo://app?vid=2f650bb1-6027-4191-83d2-16315820a0a7","ios":"levelo://app?vid=2f650bb1-6027-4191-83d2-16315820a0a7"},"vehicle_type_id":"4","last_reported":1748513534,"current_range_meters":8800,"station_id":"","pricing_plan_id":"cebpf4jnsgd1na2vs0mg"},{"bike_id":"7ca371e6-9cd9-482e-a9a9-39bb02276262","system_id":"levelo_inurba_marseille","lat":43.30135,"lon":5.38058,"is_reserved":false,"is_disabled":false,"rental_uris":{"android":"levelo://app?vid=7ca371e6-9cd9-482e-a9a9-39bb02276262","ios":"levelo://app?vid=7ca371e6-9cd9-482e-a9a9-39bb02276262"},"vehicle_type_id":"4","last_reported":1748513534,"current_range_meters":8800,"station_id":"ce4bgjp2rcd13ifvqbh0","pricing_plan_id":"cebpf4jnsgd1na2vs0mg"},{"bike_id":"a16f6cc5-a8bd-4912-8c52-58ae68c19d33","system_id":"levelo_inurba_marseille","lat":43.26505,"lon":5.39533,"is_reserved":false,"is_disabled":false,"rental_uris":{"android":"levelo://app?vid=a16f6cc5-a8bd-4912-8c52-58ae68c19d33","ios":"levelo://app?vid=a16f6cc5-a8bd-4912-8c52-58ae68c19d33"},"vehicle_type_id":"4","last_reported":1748513534,"current_range_meters":8800,"station_id":"ce4bhi12rcd13ifvqfq0","pricing_plan_id":"cebpf4jnsgd1na2vs0mg"},{"bike_id":"c0d5ccd3-cc9b-42dc-bafd-57829be782b0","system_id":"levelo_inurba_marseille","lat":43.30805,"lon":5.43521,"is_reserved":false,"is_disabled":false,"rental_uris":{"android":"levelo://app?vid=c0d5ccd3-cc9b-42dc-bafd-57829be782b0","ios":"levelo://app?vid=c0d5ccd3-cc9b-42dc-bafd-57829be782b0"},"vehicle_type_id":"4","last_reported":1748513534,"current_range_meters":8800,"station_id":"ce4bhph2rcd13ifvqheg","pricing_plan_id":"cebpf4jnsgd1na2vs0mg"},{"bike_id":"e96e6ad8-66a5-4a74-9b8a-04311f0e6684","system_id":"levelo_inurba_marseille","lat":43.33015,"lon":5.39027,"is_reserved":false,"is_disabled":false,"rental_uris":{"android":"levelo://app?vid=e96e6ad8-66a5-4a74-9b8a-04311f0e6684","ios":"levelo://app?vid=e96e6ad8-66a5-4a74-9b8a-04311f0e6684"},"vehicle_type_id":"4","last_reported":1748513534,"current_range_meters":8800,"station_id":"ce4bhr92rcd13ifvqhrg","pricing_plan_id":"cebpf4jnsgd1na2vs0mg"},{"bike_id":"84adab0f-96c1-4426-bc86-147d47e6151b","system_id":"levelo_inurba_marseille","lat":43.23191,"lon":5.35554,"is_reserved":false,"is_disabled":false,"rental_uris":{"android":"levelo://app?vid=84adab0f-96c1-4426-bc86-147d47e6151b","ios":"levelo://app?vid=84adab0f-96c1-4426-bc86-147d47e6151b"},"vehicle_type_id":"4","last_reported":1748513534,"current_range_meters":8800,"station_id":"ce4bhu92rcd13ifvqi70","pricing_plan_id":"cebpf4jnsgd1na2vs0mg"},{"bike_id":"5d4cae21-e377-44cd-b5a9-4ff44caa161a","system_id":"levelo_inurba_marseille","lat":43.3014,"lon":5.38069,"is_reserved":false,"is_disabled":false,"rental_uris":{"android":"levelo://app?vid=5d4cae21-e377-44cd-b5a9-4ff44caa161a","ios":"levelo://app?vid=5d4cae21-e377-44cd-b5a9-4ff44caa161a"},"vehicle_type_id":"4","last_reported":1748513534,"current_range_meters":9200,"station_id":"ce4bgjp2rcd13ifvqbh0","pricing_plan_id":"cebpf4jnsgd1na2vs0mg"},{"bike_id":"555dcca5-562c-4540-8dcc-0f32fe272800","system_id":"levelo_inurba_marseille","lat":43.29581,"lon":5.36744,"is_reserved":false,"is_disabled":false,"rental_uris":{"android":"levelo://app?vid=555dcca5-562c-4540-8dcc-0f32fe272800","ios":"levelo://app?vid=555dcca5-562c-4540-8dcc-0f32fe272800"},"vehicle_type_id":"4","last_reported":1748513534,"current_range_meters":9200,"station_id":"ce4bgph2rcd13ifvqc2g","pricing_plan_id":"cebpf4jnsgd1na2vs0mg"},{"bike_id":"2ca24bfc-8434-47ae-9610-564671c497f2","system_id":"levelo_inurba_marseille","lat":43.27563,"lon":5.38397,"is_reserved":false,"is_disabled":false,"rental_uris":{"android":"levelo://app?vid=2ca24bfc-8434-47ae-9610-564671c497f2","ios":"levelo://app?vid=2ca24bfc-8434-47ae-9610-564671c497f2"},"vehicle_type_id":"4","last_reported":1748513534,"current_range_meters":9200,"station_id":"ce4bhh92rcd13ifvqfi0","pricing_plan_id":"cebpf4jnsgd1na2vs0mg"},{"bike_id":"f1f0d586-b1fc-4d4a-b83c-9ae0c6090fc5","system_id":"levelo_inurba_marseille","lat":43.262,"lon":5.37931,"is_reserved":false,"is_disabled":false,"rental_uris":{"android":"levelo://app?vid=f1f0d586-b1fc-4d4a-b83c-9ae0c6090fc5","ios":"levelo://app?vid=f1f0d586-b1fc-4d4a-b83c-9ae0c6090fc5"},"vehicle_type_id":"4","last_reported":1748513534,"current_range_meters":9200,"station_id":"ce4bhjp2rcd13ifvqg90","pricing_plan_id":"cebpf4jnsgd1na2vs0mg"},{"bike_id":"ee09e91b-df22-466e-ac02-e4fafe4b9cb9","system_id":"levelo_inurba_marseille","lat":43.26206,"lon":5.37912,"is_reserved":false,"is_disabled":false,"rental_uris":{"android":"levelo://app?vid=ee09e91b-df22-466e-ac02-e4fafe4b9cb9","ios":"levelo://app?vid=ee09e91b-df22-466e-ac02-e4fafe4b9cb9"},"vehicle_type_id":"4","last_reported":1748513534,"current_range_meters":9200,"station_id":"ce4bhjp2rcd13ifvqg90","pricing_plan_id":"cebpf4jnsgd1na2vs0mg"},{"bike_id":"a3d7bae8-50bf-46bb-8642-120e57d644bc","system_id":"levelo_inurba_marseille","lat":43.2293,"lon":5.35375,"is_reserved":false,"is_disabled":false,"rental_uris":{"android":"levelo://app?vid=a3d7bae8-50bf-46bb-8642-120e57d644bc","ios":"levelo://app?vid=a3d7bae8-50bf-46bb-8642-120e57d644bc"},"vehicle_type_id":"4","last_reported":1748513534,"current_range_meters":9200,"station_id":"cpo3532slgdg3j2ikp40","pricing_plan_id":"cebpf4jnsgd1na2vs0mg"},{"bike_id":"86f11208-7f90-4009-a976-cc81e2c7825f","system_id":"levelo_inurba_marseille","lat":43.241612,"lon":5.363991,"is_reserved":false,"is_disabled":false,"rental_uris":{"android":"levelo://app?vid=86f11208-7f90-4009-a976-cc81e2c7825f","ios":"levelo://app?vid=86f11208-7f90-4009-a976-cc81e2c7825f"},"vehicle_type_id":"4","last_reported":1748513534,"current_range_meters":9200,"station_id":"cpo36qri1sfpv3e86is0","pricing_plan_id":"cebpf4jnsgd1na2vs0mg"},{"bike_id":"6c45a845-0d73-4a00-8fcc-8a7c0e070239","system_id":"levelo_inurba_marseille","lat":43.2175,"lon":5.34593,"is_reserved":false,"is_disabled":false,"rental_uris":{"android":"levelo://app?vid=6c45a845-0d73-4a00-8fcc-8a7c0e070239","ios":"levelo://app?vid=6c45a845-0d73-4a00-8fcc-8a7c0e070239"},"vehicle_type_id":"4","last_reported":1748513534,"current_range_meters":9200,"station_id":"st_cvj6r9ubvosntc0bgbag","pricing_plan_id":"cebpf4jnsgd1na2vs0mg"},{"bike_id":"60af92f5-378b-4ca7-965f-8544c59fbbda","system_id":"levelo_inurba_marseille","lat":43.282166,"lon":5.390599,"is_reserved":false,"is_disabled":false,"rental_uris":{"android":"levelo://app?vid=60af92f5-378b-4ca7-965f-8544c59fbbda","ios":"levelo://app?vid=60af92f5-378b-4ca7-965f-8544c59fbbda"},"vehicle_type_id":"4","last_reported":1748513534,"current_range_meters":9600,"station_id":"","pricing_plan_id":"cebpf4jnsgd1na2vs0mg"},{"bike_id":"22771043-09b1-43eb-91e0-5c845144e1e3","system_id":"levelo_inurba_marseille","lat":43.277066,"lon":5.408904,"is_reserved":false,"is_disabled":false,"rental_uris":{"android":"levelo://app?vid=22771043-09b1-43eb-91e0-5c845144e1e3","ios":"levelo://app?vid=22771043-09b1-43eb-91e0-5c845144e1e3"},"vehicle_type_id":"4","last_reported":1748513534,"current_range_meters":9600,"station_id":"","pricing_plan_id":"cebpf4jnsgd1na2vs0mg"},{"bike_id":"b30bb0e4-57e3-482e-b23d-e8852f73bdf6","system_id":"levelo_inurba_marseille","lat":43.30154,"lon":5.38083,"is_reserved":false,"is_disabled":false,"rental_uris":{"android":"levelo://app?vid=b30bb0e4-57e3-482e-b23d-e8852f73bdf6","ios":"levelo://app?vid=b30bb0e4-57e3-482e-b23d-e8852f73bdf6"},"vehicle_type_id":"4","last_reported":1748513534,"current_range_meters":9600,"station_id":"ce4bgjp2rcd13ifvqbh0","pricing_plan_id":"cebpf4jnsgd1na2vs0mg"},{"bike_id":"32a60d91-d134-4154-a4a8-cc8c21e10489","system_id":"levelo_inurba_marseille","lat":43.29849,"lon":5.36281,"is_reserved":false,"is_disabled":false,"rental_uris":{"android":"levelo://app?vid=32a60d91-d134-4154-a4a8-cc8c21e10489","ios":"levelo://app?vid=32a60d91-d134-4154-a4a8-cc8c21e10489"},"vehicle_type_id":"4","last_reported":1748513534,"current_range_meters":9600,"station_id":"ce4bgpp2rcd13ifvqc3g","pricing_plan_id":"cebpf4jnsgd1na2vs0mg"},{"bike_id":"99229177-ebcb-4228-b647-2f745b42e9da","system_id":"levelo_inurba_marseille","lat":43.28417,"lon":5.34974,"is_reserved":false,"is_disabled":false,"rental_uris":{"android":"levelo://app?vid=99229177-ebcb-4228-b647-2f745b42e9da","ios":"levelo://app?vid=99229177-ebcb-4228-b647-2f745b42e9da"},"vehicle_type_id":"4","last_reported":1748513534,"current_range_meters":9600,"station_id":"ce4bhbh2rcd13ifvqepg","pricing_plan_id":"cebpf4jnsgd1na2vs0mg"},{"bike_id":"47f55a1f-8588-4781-bc30-f75474d90e6f","system_id":"levelo_inurba_marseille","lat":43.24176,"lon":5.39716,"is_reserved":false,"is_disabled":false,"rental_uris":{"android":"levelo://app?vid=47f55a1f-8588-4781-bc30-f75474d90e6f","ios":"levelo://app?vid=47f55a1f-8588-4781-bc30-f75474d90e6f"},"vehicle_type_id":"4","last_reported":1748513534,"current_range_meters":9600,"station_id":"ce4bhn12rcd13ifvqgpg","pricing_plan_id":"cebpf4jnsgd1na2vs0mg"},{"bike_id":"6de0c367-16d8-40fd-95d0-4105c0b2586d","system_id":"levelo_inurba_marseille","lat":43.32663,"lon":5.40989,"is_reserved":false,"is_disabled":false,"rental_uris":{"android":"levelo://app?vid=6de0c367-16d8-40fd-95d0-4105c0b2586d","ios":"levelo://app?vid=6de0c367-16d8-40fd-95d0-4105c0b2586d"},"vehicle_type_id":"4","last_reported":1748513534,"current_range_meters":9600,"station_id":"ce4bhpp2rcd13ifvqhgg","pricing_plan_id":"cebpf4jnsgd1na2vs0mg"},{"bike_id":"5e83ea25-1862-406c-b5e5-fde5fc4ebc43","system_id":"levelo_inurba_marseille","lat":43.21749,"lon":5.34602,"is_reserved":false,"is_disabled":false,"rental_uris":{"android":"levelo://app?vid=5e83ea25-1862-406c-b5e5-fde5fc4ebc43","ios":"levelo://app?vid=5e83ea25-1862-406c-b5e5-fde5fc4ebc43"},"vehicle_type_id":"4","last_reported":1748513534,"current_range_meters":9600,"station_id":"st_cvj6r9ubvosntc0bgbag","pricing_plan_id":"cebpf4jnsgd1na2vs0mg"},{"bike_id":"70433390-6f5e-46bd-aef8-e8e9af5dd653","system_id":"levelo_inurba_marseille","lat":43.21193,"lon":5.35068,"is_reserved":false,"is_disabled":false,"rental_uris":{"android":"levelo://app?vid=70433390-6f5e-46bd-aef8-e8e9af5dd653","ios":"levelo://app?vid=70433390-6f5e-46bd-aef8-e8e9af5dd653"},"vehicle_type_id":"4","last_reported":1748513534,"current_range_meters":9600,"station_id":"st_cvj6sg6p6f1abm77japg","pricing_plan_id":"cebpf4jnsgd1na2vs0mg"},{"bike_id":"af1dc9b2-164b-4021-88df-830111ab755c","system_id":"levelo_inurba_marseille","lat":43.32371,"lon":5.369,"is_reserved":false,"is_disabled":false,"rental_uris":{"android":"levelo://app?vid=af1dc9b2-164b-4021-88df-830111ab755c","ios":"levelo://app?vid=af1dc9b2-164b-4021-88df-830111ab755c"},"vehicle_type_id":"4","last_reported":1748513534,"current_range_meters":10000,"station_id":"","pricing_plan_id":"cebpf4jnsgd1na2vs0mg"},{"bike_id":"24cd34e1-bb74-4352-90f7-805b9231f525","system_id":"levelo_inurba_marseille","lat":43.26357,"lon":5.42045,"is_reserved":false,"is_disabled":false,"rental_uris":{"android":"levelo://app?vid=24cd34e1-bb74-4352-90f7-805b9231f525","ios":"levelo://app?vid=24cd34e1-bb74-4352-90f7-805b9231f525"},"vehicle_type_id":"4","last_reported":1748513534,"current_range_meters":10000,"station_id":"","pricing_plan_id":"cebpf4jnsgd1na2vs0mg"},{"bike_id":"0f1777bc-0a49-4a78-8cad-e3b9c6d58a2a","system_id":"levelo_inurba_marseille","lat":43.25718,"lon":5.41105,"is_reserved":false,"is_disabled":false,"rental_uris":{"android":"levelo://app?vid=0f1777bc-0a49-4a78-8cad-e3b9c6d58a2a","ios":"levelo://app?vid=0f1777bc-0a49-4a78-8cad-e3b9c6d58a2a"},"vehicle_type_id":"4","last_reported":1748513534,"current_range_meters":10000,"station_id":"ce4bhkp2rcd13ifvqgd0","pricing_plan_id":"cebpf4jnsgd1na2vs0mg"},{"bike_id":"517c5907-c92e-4b88-8b70-46e89413c8c5","system_id":"levelo_inurba_marseille","lat":43.23154,"lon":5.43705,"is_reserved":false,"is_disabled":false,"rental_uris":{"android":"levelo://app?vid=517c5907-c92e-4b88-8b70-46e89413c8c5","ios":"levelo://app?vid=517c5907-c92e-4b88-8b70-46e89413c8c5"},"vehicle_type_id":"4","last_reported":1748513534,"current_range_meters":10000,"station_id":"ce4bhmp2rcd13ifvqgog","pricing_plan_id":"cebpf4jnsgd1na2vs0mg"},{"bike_id":"8fff45ca-5c5f-4b32-b399-a6adb40b92d1","system_id":"levelo_inurba_marseille","lat":43.23156,"lon":5.43696,"is_reserved":false,"is_disabled":false,"rental_uris":{"android":"levelo://app?vid=8fff45ca-5c5f-4b32-b399-a6adb40b92d1","ios":"levelo://app?vid=8fff45ca-5c5f-4b32-b399-a6adb40b92d1"},"vehicle_type_id":"4","last_reported":1748513534,"current_range_meters":10000,"station_id":"ce4bhmp2rcd13ifvqgog","pricing_plan_id":"cebpf4jnsgd1na2vs0mg"},{"bike_id":"52d329b0-00fd-48cc-bbea-27149b88a9cf","system_id":"levelo_inurba_marseille","lat":43.293661,"lon":5.378505,"is_reserved":false,"is_disabled":false,"rental_uris":{"android":"levelo://app?vid=52d329b0-00fd-48cc-bbea-27149b88a9cf","ios":"levelo://app?vid=52d329b0-00fd-48cc-bbea-27149b88a9cf"},"vehicle_type_id":"4","last_reported":1748513534,"current_range_meters":10800,"station_id":"","pricing_plan_id":"cebpf4jnsgd1na2vs0mg"},{"bike_id":"bf6908f1-5132-4553-980d-9b358fe87c17","system_id":"levelo_inurba_marseille","lat":43.29302,"lon":5.37166,"is_reserved":false,"is_disabled":false,"rental_uris":{"android":"levelo://app?vid=bf6908f1-5132-4553-980d-9b358fe87c17","ios":"levelo://app?vid=bf6908f1-5132-4553-980d-9b358fe87c17"},"vehicle_type_id":"4","last_reported":1748513534,"current_range_meters":10800,"station_id":"ce4bgh92rcd13ifvqb40","pricing_plan_id":"cebpf4jnsgd1na2vs0mg"},{"bike_id":"4f4e0096-b87d-4d23-bc87-8157c7ad42ed","system_id":"levelo_inurba_marseille","lat":43.30526,"lon":5.36548,"is_reserved":false,"is_disabled":false,"rental_uris":{"android":"levelo://app?vid=4f4e0096-b87d-4d23-bc87-8157c7ad42ed","ios":"levelo://app?vid=4f4e0096-b87d-4d23-bc87-8157c7ad42ed"},"vehicle_type_id":"4","last_reported":1748513534,"current_range_meters":10800,"station_id":"ce4bgs12rcd13ifvqcag","pricing_plan_id":"cebpf4jnsgd1na2vs0mg"},{"bike_id":"eda78e47-45cf-41b3-81aa-ca9fc7ec431a","system_id":"levelo_inurba_marseille","lat":43.29534,"lon":5.39032,"is_reserved":false,"is_disabled":false,"rental_uris":{"android":"levelo://app?vid=eda78e47-45cf-41b3-81aa-ca9fc7ec431a","ios":"levelo://app?vid=eda78e47-45cf-41b3-81aa-ca9fc7ec431a"},"vehicle_type_id":"4","last_reported":1748513534,"current_range_meters":10800,"station_id":"ce4bh3p2rcd13ifvqdp0","pricing_plan_id":"cebpf4jnsgd1na2vs0mg"},{"bike_id":"4e32993f-97b3-4cc4-9166-27ae02bc5ea8","system_id":"levelo_inurba_marseille","lat":43.28037,"lon":5.36933,"is_reserved":false,"is_disabled":false,"rental_uris":{"android":"levelo://app?vid=4e32993f-97b3-4cc4-9166-27ae02bc5ea8","ios":"levelo://app?vid=4e32993f-97b3-4cc4-9166-27ae02bc5ea8"},"vehicle_type_id":"4","last_reported":1748513534,"current_range_meters":10800,"station_id":"ce4bha12rcd13ifvqef0","pricing_plan_id":"cebpf4jnsgd1na2vs0mg"},{"bike_id":"e5a41633-2a13-4d8d-88c9-13f15e346817","system_id":"levelo_inurba_marseille","lat":43.27372,"lon":5.3626,"is_reserved":false,"is_disabled":false,"rental_uris":{"android":"levelo://app?vid=e5a41633-2a13-4d8d-88c9-13f15e346817","ios":"levelo://app?vid=e5a41633-2a13-4d8d-88c9-13f15e346817"},"vehicle_type_id":"4","last_reported":1748513534,"current_range_meters":10800,"station_id":"ce4bhbh2rcd13ifvqeo0","pricing_plan_id":"cebpf4jnsgd1na2vs0mg"},{"bike_id":"8ae34602-4229-4485-82e7-54c1ccb7f7cf","system_id":"levelo_inurba_marseille","lat":43.2706,"lon":5.40258,"is_reserved":false,"is_disabled":false,"rental_uris":{"android":"levelo://app?vid=8ae34602-4229-4485-82e7-54c1ccb7f7cf","ios":"levelo://app?vid=8ae34602-4229-4485-82e7-54c1ccb7f7cf"},"vehicle_type_id":"4","last_reported":1748513534,"current_range_meters":10800,"station_id":"ce4bhk92rcd13ifvqgc0","pricing_plan_id":"cebpf4jnsgd1na2vs0mg"},{"bike_id":"dfd8a92a-8547-40b8-9f1a-8cf8dc5a7a8c","system_id":"levelo_inurba_marseille","lat":43.31713,"lon":5.43696,"is_reserved":false,"is_disabled":false,"rental_uris":{"android":"levelo://app?vid=dfd8a92a-8547-40b8-9f1a-8cf8dc5a7a8c","ios":"levelo://app?vid=dfd8a92a-8547-40b8-9f1a-8cf8dc5a7a8c"},"vehicle_type_id":"4","last_reported":1748513534,"current_range_meters":10800,"station_id":"ce4bhp92rcd13ifvqhcg","pricing_plan_id":"cebpf4jnsgd1na2vs0mg"},{"bike_id":"00f01595-3df4-45f1-8b54-40aa03040ac8","system_id":"levelo_inurba_marseille","lat":43.27068,"lon":5.42274,"is_reserved":false,"is_disabled":false,"rental_uris":{"android":"levelo://app?vid=00f01595-3df4-45f1-8b54-40aa03040ac8","ios":"levelo://app?vid=00f01595-3df4-45f1-8b54-40aa03040ac8"},"vehicle_type_id":"4","last_reported":1748513534,"current_range_meters":11200,"station_id":"ce4bhk92rcd13ifvqgb0","pricing_plan_id":"cebpf4jnsgd1na2vs0mg"},{"bike_id":"3dd88207-052a-47ca-aaa5-befdf3ff7a9b","system_id":"levelo_inurba_marseille","lat":43.24072,"lon":5.37769,"is_reserved":false,"is_disabled":false,"rental_uris":{"android":"levelo://app?vid=3dd88207-052a-47ca-aaa5-befdf3ff7a9b","ios":"levelo://app?vid=3dd88207-052a-47ca-aaa5-befdf3ff7a9b"},"vehicle_type_id":"4","last_reported":1748513534,"current_range_meters":11200,"station_id":"ce4bhnp2rcd13ifvqgvg","pricing_plan_id":"cebpf4jnsgd1na2vs0mg"},{"bike_id":"f293ba09-4b7e-4261-9c45-5e8e5f6ff81c","system_id":"levelo_inurba_marseille","lat":43.303748,"lon":5.424805,"is_reserved":false,"is_disabled":false,"rental_uris":{"android":"levelo://app?vid=f293ba09-4b7e-4261-9c45-5e8e5f6ff81c","ios":"levelo://app?vid=f293ba09-4b7e-4261-9c45-5e8e5f6ff81c"},"vehicle_type_id":"4","last_reported":1748513534,"current_range_meters":11200,"station_id":"ce4bhoh2rcd13ifvqh6g","pricing_plan_id":"cebpf4jnsgd1na2vs0mg"},{"bike_id":"f090e212-d3c8-4736-afad-80cfe2b8e432","system_id":"levelo_inurba_marseille","lat":43.307967,"lon":5.435273,"is_reserved":false,"is_disabled":false,"rental_uris":{"android":"levelo://app?vid=f090e212-d3c8-4736-afad-80cfe2b8e432","ios":"levelo://app?vid=f090e212-d3c8-4736-afad-80cfe2b8e432"},"vehicle_type_id":"4","last_reported":1748513534,"current_range_meters":11200,"station_id":"ce4bhph2rcd13ifvqheg","pricing_plan_id":"cebpf4jnsgd1na2vs0mg"},{"bike_id":"9fddd0ca-ff76-4055-b0f0-bb419ab35dd7","system_id":"levelo_inurba_marseille","lat":43.30931,"lon":5.40137,"is_reserved":false,"is_disabled":false,"rental_uris":{"android":"levelo://app?vid=9fddd0ca-ff76-4055-b0f0-bb419ab35dd7","ios":"levelo://app?vid=9fddd0ca-ff76-4055-b0f0-bb419ab35dd7"},"vehicle_type_id":"4","last_reported":1748513534,"current_range_meters":11600,"station_id":"ce4bgvp2rcd13ifvqct0","pricing_plan_id":"cebpf4jnsgd1na2vs0mg"},{"bike_id":"5425969b-1595-4148-b19f-88f5aacdc526","system_id":"levelo_inurba_marseille","lat":43.306454,"lon":5.400806,"is_reserved":false,"is_disabled":false,"rental_uris":{"android":"levelo://app?vid=5425969b-1595-4148-b19f-88f5aacdc526","ios":"levelo://app?vid=5425969b-1595-4148-b19f-88f5aacdc526"},"vehicle_type_id":"4","last_reported":1748513534,"current_range_meters":11600,"station_id":"ce4bh112rcd13ifvqda0","pricing_plan_id":"cebpf4jnsgd1na2vs0mg"},{"bike_id":"ab3fb841-000b-4600-afe3-0d3bae496fbc","system_id":"levelo_inurba_marseille","lat":43.23143,"lon":5.43713,"is_reserved":false,"is_disabled":false,"rental_uris":{"android":"levelo://app?vid=ab3fb841-000b-4600-afe3-0d3bae496fbc","ios":"levelo://app?vid=ab3fb841-000b-4600-afe3-0d3bae496fbc"},"vehicle_type_id":"4","last_reported":1748513534,"current_range_meters":11600,"station_id":"ce4bhmp2rcd13ifvqgog","pricing_plan_id":"cebpf4jnsgd1na2vs0mg"},{"bike_id":"c48e9ca1-ceb9-4b4b-8ba3-65387f441449","system_id":"levelo_inurba_marseille","lat":43.31981,"lon":5.38125,"is_reserved":false,"is_disabled":false,"rental_uris":{"android":"levelo://app?vid=c48e9ca1-ceb9-4b4b-8ba3-65387f441449","ios":"levelo://app?vid=c48e9ca1-ceb9-4b4b-8ba3-65387f441449"},"vehicle_type_id":"4","last_reported":1748513534,"current_range_meters":11600,"station_id":"ce4bhr12rcd13ifvqhpg","pricing_plan_id":"cebpf4jnsgd1na2vs0mg"},{"bike_id":"42dca157-bdb0-4361-8022-7979135f94aa","system_id":"levelo_inurba_marseille","lat":43.28562,"lon":5.36675,"is_reserved":false,"is_disabled":false,"rental_uris":{"android":"levelo://app?vid=42dca157-bdb0-4361-8022-7979135f94aa","ios":"levelo://app?vid=42dca157-bdb0-4361-8022-7979135f94aa"},"vehicle_type_id":"4","last_reported":1748513534,"current_range_meters":12000,"station_id":"","pricing_plan_id":"cebpf4jnsgd1na2vs0mg"},{"bike_id":"8113df80-6008-4337-8937-95ba689953e6","system_id":"levelo_inurba_marseille","lat":43.28932,"lon":5.36634,"is_reserved":false,"is_disabled":false,"rental_uris":{"android":"levelo://app?vid=8113df80-6008-4337-8937-95ba689953e6","ios":"levelo://app?vid=8113df80-6008-4337-8937-95ba689953e6"},"vehicle_type_id":"4","last_reported":1748513534,"current_range_meters":12000,"station_id":"ce4bhap2rcd13ifvqek0","pricing_plan_id":"cebpf4jnsgd1na2vs0mg"},{"bike_id":"0e009545-9acc-491d-b143-22cbd0096db4","system_id":"levelo_inurba_marseille","lat":43.33836,"lon":5.39263,"is_reserved":false,"is_disabled":false,"rental_uris":{"android":"levelo://app?vid=0e009545-9acc-491d-b143-22cbd0096db4","ios":"levelo://app?vid=0e009545-9acc-491d-b143-22cbd0096db4"},"vehicle_type_id":"4","last_reported":1748513534,"current_range_meters":12400,"station_id":"","pricing_plan_id":"cebpf4jnsgd1na2vs0mg"},{"bike_id":"84cccba6-8441-4996-ac1c-37d6606ca4a7","system_id":"levelo_inurba_marseille","lat":43.30803,"lon":5.38147,"is_reserved":false,"is_disabled":false,"rental_uris":{"android":"levelo://app?vid=84cccba6-8441-4996-ac1c-37d6606ca4a7","ios":"levelo://app?vid=84cccba6-8441-4996-ac1c-37d6606ca4a7"},"vehicle_type_id":"4","last_reported":1748513534,"current_range_meters":12400,"station_id":"ce4bgt12rcd13ifvqce0","pricing_plan_id":"cebpf4jnsgd1na2vs0mg"},{"bike_id":"1c3cd058-a90e-4ba6-b61c-ac478e44309e","system_id":"levelo_inurba_marseille","lat":43.31066,"lon":5.3832,"is_reserved":false,"is_disabled":false,"rental_uris":{"android":"levelo://app?vid=1c3cd058-a90e-4ba6-b61c-ac478e44309e","ios":"levelo://app?vid=1c3cd058-a90e-4ba6-b61c-ac478e44309e"},"vehicle_type_id":"4","last_reported":1748513534,"current_range_meters":12400,"station_id":"ce4bgv92rcd13ifvqcr0","pricing_plan_id":"cebpf4jnsgd1na2vs0mg"},{"bike_id":"7cfdc88a-5442-439f-a5ac-4e0958a0d68a","system_id":"levelo_inurba_marseille","lat":43.28345,"lon":5.3809,"is_reserved":false,"is_disabled":false,"rental_uris":{"android":"levelo://app?vid=7cfdc88a-5442-439f-a5ac-4e0958a0d68a","ios":"levelo://app?vid=7cfdc88a-5442-439f-a5ac-4e0958a0d68a"},"vehicle_type_id":"4","last_reported":1748513534,"current_range_meters":12400,"station_id":"ce4bh412rcd13ifvqdr0","pricing_plan_id":"cebpf4jnsgd1na2vs0mg"},{"bike_id":"b40f3f2f-6627-4aec-a33f-d14b6342e344","system_id":"levelo_inurba_marseille","lat":43.27305,"lon":5.39076,"is_reserved":false,"is_disabled":false,"rental_uris":{"android":"levelo://app?vid=b40f3f2f-6627-4aec-a33f-d14b6342e344","ios":"levelo://app?vid=b40f3f2f-6627-4aec-a33f-d14b6342e344"},"vehicle_type_id":"4","last_reported":1748513534,"current_range_meters":12400,"station_id":"ce4bhgp2rcd13ifvqfe0","pricing_plan_id":"cebpf4jnsgd1na2vs0mg"},{"bike_id":"2f0b886c-8247-496f-bdc3-327761e32d8c","system_id":"levelo_inurba_marseille","lat":43.23148,"lon":5.43716,"is_reserved":false,"is_disabled":false,"rental_uris":{"android":"levelo://app?vid=2f0b886c-8247-496f-bdc3-327761e32d8c","ios":"levelo://app?vid=2f0b886c-8247-496f-bdc3-327761e32d8c"},"vehicle_type_id":"4","last_reported":1748513534,"current_range_meters":12400,"station_id":"ce4bhmp2rcd13ifvqgog","pricing_plan_id":"cebpf4jnsgd1na2vs0mg"},{"bike_id":"b836adec-644c-4a74-9857-a4f0157ac845","system_id":"levelo_inurba_marseille","lat":43.276207,"lon":5.361084,"is_reserved":false,"is_disabled":false,"rental_uris":{"android":"levelo://app?vid=b836adec-644c-4a74-9857-a4f0157ac845","ios":"levelo://app?vid=b836adec-644c-4a74-9857-a4f0157ac845"},"vehicle_type_id":"4","last_reported":1748513534,"current_range_meters":12800,"station_id":"ce4bgj92rcd13ifvqbe0","pricing_plan_id":"cebpf4jnsgd1na2vs0mg"},{"bike_id":"2f1cb291-6763-4083-b0ed-d7789f04f872","system_id":"levelo_inurba_marseille","lat":43.25121,"lon":5.40313,"is_reserved":false,"is_disabled":false,"rental_uris":{"android":"levelo://app?vid=2f1cb291-6763-4083-b0ed-d7789f04f872","ios":"levelo://app?vid=2f1cb291-6763-4083-b0ed-d7789f04f872"},"vehicle_type_id":"4","last_reported":1748513534,"current_range_meters":12800,"station_id":"ce4bhlh2rcd13ifvqgig","pricing_plan_id":"cebpf4jnsgd1na2vs0mg"},{"bike_id":"7aa283d7-02d1-4ffe-afeb-3b1a9120c104","system_id":"levelo_inurba_marseille","lat":43.25931,"lon":5.40905,"is_reserved":false,"is_disabled":false,"rental_uris":{"android":"levelo://app?vid=7aa283d7-02d1-4ffe-afeb-3b1a9120c104","ios":"levelo://app?vid=7aa283d7-02d1-4ffe-afeb-3b1a9120c104"},"vehicle_type_id":"4","last_reported":1748513534,"current_range_meters":12800,"station_id":"ce4bhm92rcd13ifvqglg","pricing_plan_id":"cebpf4jnsgd1na2vs0mg"},{"bike_id":"28086e3e-4483-4e6e-9b7b-0bfdc1cbf081","system_id":"levelo_inurba_marseille","lat":43.30793,"lon":5.38165,"is_reserved":false,"is_disabled":false,"rental_uris":{"android":"levelo://app?vid=28086e3e-4483-4e6e-9b7b-0bfdc1cbf081","ios":"levelo://app?vid=28086e3e-4483-4e6e-9b7b-0bfdc1cbf081"},"vehicle_type_id":"4","last_reported":1748513534,"current_range_meters":13600,"station_id":"ce4bgt12rcd13ifvqce0","pricing_plan_id":"cebpf4jnsgd1na2vs0mg"},{"bike_id":"eb0a23e3-0cf3-49e0-bf12-2e3cda0ccdf1","system_id":"levelo_inurba_marseille","lat":43.28665,"lon":5.3635,"is_reserved":false,"is_disabled":false,"rental_uris":{"android":"levelo://app?vid=eb0a23e3-0cf3-49e0-bf12-2e3cda0ccdf1","ios":"levelo://app?vid=eb0a23e3-0cf3-49e0-bf12-2e3cda0ccdf1"},"vehicle_type_id":"4","last_reported":1748513534,"current_range_meters":13600,"station_id":"ce4bhah2rcd13ifvqej0","pricing_plan_id":"cebpf4jnsgd1na2vs0mg"},{"bike_id":"6ed5bac0-eb11-436e-b583-43fe53337131","system_id":"levelo_inurba_marseille","lat":43.26568,"lon":5.39027,"is_reserved":false,"is_disabled":false,"rental_uris":{"android":"levelo://app?vid=6ed5bac0-eb11-436e-b583-43fe53337131","ios":"levelo://app?vid=6ed5bac0-eb11-436e-b583-43fe53337131"},"vehicle_type_id":"4","last_reported":1748513534,"current_range_meters":13600,"station_id":"ce4bhe12rcd13ifvqf30","pricing_plan_id":"cebpf4jnsgd1na2vs0mg"},{"bike_id":"eefbf0be-aede-4ce4-8e0c-8d5278212334","system_id":"levelo_inurba_marseille","lat":43.25105,"lon":5.40374,"is_reserved":false,"is_disabled":false,"rental_uris":{"android":"levelo://app?vid=eefbf0be-aede-4ce4-8e0c-8d5278212334","ios":"levelo://app?vid=eefbf0be-aede-4ce4-8e0c-8d5278212334"},"vehicle_type_id":"4","last_reported":1748513534,"current_range_meters":13600,"station_id":"ce4bhlh2rcd13ifvqgig","pricing_plan_id":"cebpf4jnsgd1na2vs0mg"},{"bike_id":"f5733814-9732-4748-bcc9-3b2fac8e1564","system_id":"levelo_inurba_marseille","lat":43.31256,"lon":5.37829,"is_reserved":false,"is_disabled":false,"rental_uris":{"android":"levelo://app?vid=f5733814-9732-4748-bcc9-3b2fac8e1564","ios":"levelo://app?vid=f5733814-9732-4748-bcc9-3b2fac8e1564"},"vehicle_type_id":"4","last_reported":1748513534,"current_range_meters":14000,"station_id":"","pricing_plan_id":"cebpf4jnsgd1na2vs0mg"},{"bike_id":"8f7f9dba-c1a2-4705-9cfb-78b381b601cf","system_id":"levelo_inurba_marseille","lat":43.309388,"lon":5.401472,"is_reserved":false,"is_disabled":false,"rental_uris":{"android":"levelo://app?vid=8f7f9dba-c1a2-4705-9cfb-78b381b601cf","ios":"levelo://app?vid=8f7f9dba-c1a2-4705-9cfb-78b381b601cf"},"vehicle_type_id":"4","last_reported":1748513534,"current_range_meters":14000,"station_id":"ce4bgvp2rcd13ifvqct0","pricing_plan_id":"cebpf4jnsgd1na2vs0mg"},{"bike_id":"5cc874f1-fcba-418a-95cb-eb3493ff9f0b","system_id":"levelo_inurba_marseille","lat":43.316997,"lon":5.404677,"is_reserved":false,"is_disabled":false,"rental_uris":{"android":"levelo://app?vid=5cc874f1-fcba-418a-95cb-eb3493ff9f0b","ios":"levelo://app?vid=5cc874f1-fcba-418a-95cb-eb3493ff9f0b"},"vehicle_type_id":"4","last_reported":1748513534,"current_range_meters":14000,"station_id":"ce4bh012rcd13ifvqd00","pricing_plan_id":"cebpf4jnsgd1na2vs0mg"},{"bike_id":"64fb8e0a-ca3d-404a-bef4-fe0d157169fc","system_id":"levelo_inurba_marseille","lat":43.25496,"lon":5.37653,"is_reserved":false,"is_disabled":false,"rental_uris":{"android":"levelo://app?vid=64fb8e0a-ca3d-404a-bef4-fe0d157169fc","ios":"levelo://app?vid=64fb8e0a-ca3d-404a-bef4-fe0d157169fc"},"vehicle_type_id":"4","last_reported":1748513534,"current_range_meters":14000,"station_id":"ce4bhh12rcd13ifvqff0","pricing_plan_id":"cebpf4jnsgd1na2vs0mg"},{"bike_id":"9f409109-7d27-41c1-9de6-79463afc9141","system_id":"levelo_inurba_marseille","lat":43.25822,"lon":5.39432,"is_reserved":false,"is_disabled":false,"rental_uris":{"android":"levelo://app?vid=9f409109-7d27-41c1-9de6-79463afc9141","ios":"levelo://app?vid=9f409109-7d27-41c1-9de6-79463afc9141"},"vehicle_type_id":"4","last_reported":1748513534,"current_range_meters":14000,"station_id":"ce4bhip2rcd13ifvqft0","pricing_plan_id":"cebpf4jnsgd1na2vs0mg"},{"bike_id":"a426f99b-d34a-41bf-bbda-59f7dfd6939b","system_id":"levelo_inurba_marseille","lat":43.255796,"lon":5.382262,"is_reserved":false,"is_disabled":false,"rental_uris":{"android":"levelo://app?vid=a426f99b-d34a-41bf-bbda-59f7dfd6939b","ios":"levelo://app?vid=a426f99b-d34a-41bf-bbda-59f7dfd6939b"},"vehicle_type_id":"4","last_reported":1748513534,"current_range_meters":14000,"station_id":"ce501612rcd8frsf0b60","pricing_plan_id":"cebpf4jnsgd1na2vs0mg"},{"bike_id":"c8e3e8d4-2760-439c-b028-b56f52c7347e","system_id":"levelo_inurba_marseille","lat":43.21193,"lon":5.35057,"is_reserved":false,"is_disabled":false,"rental_uris":{"android":"levelo://app?vid=c8e3e8d4-2760-439c-b028-b56f52c7347e","ios":"levelo://app?vid=c8e3e8d4-2760-439c-b028-b56f52c7347e"},"vehicle_type_id":"4","last_reported":1748513534,"current_range_meters":14000,"station_id":"st_cvj6sg6p6f1abm77japg","pricing_plan_id":"cebpf4jnsgd1na2vs0mg"},{"bike_id":"e9cda520-c6f4-465d-ad7f-8c059b3dc45a","system_id":"levelo_inurba_marseille","lat":43.31379,"lon":5.383771,"is_reserved":false,"is_disabled":false,"rental_uris":{"android":"levelo://app?vid=e9cda520-c6f4-465d-ad7f-8c059b3dc45a","ios":"levelo://app?vid=e9cda520-c6f4-465d-ad7f-8c059b3dc45a"},"vehicle_type_id":"4","last_reported":1748513534,"current_range_meters":14400,"station_id":"","pricing_plan_id":"cebpf4jnsgd1na2vs0mg"},{"bike_id":"2edfef24-408a-4830-b984-0861c8826a89","system_id":"levelo_inurba_marseille","lat":43.29317,"lon":5.3753,"is_reserved":false,"is_disabled":false,"rental_uris":{"android":"levelo://app?vid=2edfef24-408a-4830-b984-0861c8826a89","ios":"levelo://app?vid=2edfef24-408a-4830-b984-0861c8826a89"},"vehicle_type_id":"4","last_reported":1748513534,"current_range_meters":14400,"station_id":"ce4bgi12rcd13ifvqb70","pricing_plan_id":"cebpf4jnsgd1na2vs0mg"},{"bike_id":"0c5ccc15-46a3-4c89-86ce-3d291fc7e058","system_id":"levelo_inurba_marseille","lat":43.30146,"lon":5.38088,"is_reserved":false,"is_disabled":false,"rental_uris":{"android":"levelo://app?vid=0c5ccc15-46a3-4c89-86ce-3d291fc7e058","ios":"levelo://app?vid=0c5ccc15-46a3-4c89-86ce-3d291fc7e058"},"vehicle_type_id":"4","last_reported":1748513534,"current_range_meters":14400,"station_id":"ce4bgjp2rcd13ifvqbh0","pricing_plan_id":"cebpf4jnsgd1na2vs0mg"},{"bike_id":"dabbb70b-0a47-413a-b154-a8c101b1033a","system_id":"levelo_inurba_marseille","lat":43.2835,"lon":5.38107,"is_reserved":false,"is_disabled":false,"rental_uris":{"android":"levelo://app?vid=dabbb70b-0a47-413a-b154-a8c101b1033a","ios":"levelo://app?vid=dabbb70b-0a47-413a-b154-a8c101b1033a"},"vehicle_type_id":"4","last_reported":1748513534,"current_range_meters":14400,"station_id":"ce4bh412rcd13ifvqdr0","pricing_plan_id":"cebpf4jnsgd1na2vs0mg"},{"bike_id":"a04e034d-402d-4e92-88e4-83c13de8a951","system_id":"levelo_inurba_marseille","lat":43.28415,"lon":5.34977,"is_reserved":false,"is_disabled":false,"rental_uris":{"android":"levelo://app?vid=a04e034d-402d-4e92-88e4-83c13de8a951","ios":"levelo://app?vid=a04e034d-402d-4e92-88e4-83c13de8a951"},"vehicle_type_id":"4","last_reported":1748513534,"current_range_meters":14400,"station_id":"ce4bhbh2rcd13ifvqepg","pricing_plan_id":"cebpf4jnsgd1na2vs0mg"},{"bike_id":"f63ee2ec-05f2-4c8b-8355-503cf732356e","system_id":"levelo_inurba_marseille","lat":43.2797,"lon":5.38753,"is_reserved":false,"is_disabled":false,"rental_uris":{"android":"levelo://app?vid=f63ee2ec-05f2-4c8b-8355-503cf732356e","ios":"levelo://app?vid=f63ee2ec-05f2-4c8b-8355-503cf732356e"},"vehicle_type_id":"4","last_reported":1748513534,"current_range_meters":14400,"station_id":"ce4bhg12rcd13ifvqf80","pricing_plan_id":"cebpf4jnsgd1na2vs0mg"},{"bike_id":"1bae3717-4acf-46a4-9fa1-6bf75324411a","system_id":"levelo_inurba_marseille","lat":43.23185,"lon":5.39996,"is_reserved":false,"is_disabled":false,"rental_uris":{"android":"levelo://app?vid=1bae3717-4acf-46a4-9fa1-6bf75324411a","ios":"levelo://app?vid=1bae3717-4acf-46a4-9fa1-6bf75324411a"},"vehicle_type_id":"4","last_reported":1748513534,"current_range_meters":14400,"station_id":"ce4bhn12rcd13ifvqgqg","pricing_plan_id":"cebpf4jnsgd1na2vs0mg"},{"bike_id":"c91ef7ba-be7c-48b6-9b55-d5c9d09e0660","system_id":"levelo_inurba_marseille","lat":43.31985,"lon":5.38148,"is_reserved":false,"is_disabled":false,"rental_uris":{"android":"levelo://app?vid=c91ef7ba-be7c-48b6-9b55-d5c9d09e0660","ios":"levelo://app?vid=c91ef7ba-be7c-48b6-9b55-d5c9d09e0660"},"vehicle_type_id":"4","last_reported":1748513534,"current_range_meters":14400,"station_id":"ce4bhr12rcd13ifvqhpg","pricing_plan_id":"cebpf4jnsgd1na2vs0mg"},{"bike_id":"1511f9e6-175e-475e-8edc-33bb5ded715c","system_id":"levelo_inurba_marseille","lat":43.29609,"lon":5.38105,"is_reserved":false,"is_disabled":false,"rental_uris":{"android":"levelo://app?vid=1511f9e6-175e-475e-8edc-33bb5ded715c","ios":"levelo://app?vid=1511f9e6-175e-475e-8edc-33bb5ded715c"},"vehicle_type_id":"4","last_reported":1748513534,"current_range_meters":14800,"station_id":"ce4bgl12rcd13ifvqbo0","pricing_plan_id":"cebpf4jnsgd1na2vs0mg"},{"bike_id":"9a8b6307-1262-412f-851b-3f5714ea2a60","system_id":"levelo_inurba_marseille","lat":43.30938,"lon":5.40149,"is_reserved":false,"is_disabled":false,"rental_uris":{"android":"levelo://app?vid=9a8b6307-1262-412f-851b-3f5714ea2a60","ios":"levelo://app?vid=9a8b6307-1262-412f-851b-3f5714ea2a60"},"vehicle_type_id":"4","last_reported":1748513534,"current_range_meters":14800,"station_id":"ce4bgvp2rcd13ifvqct0","pricing_plan_id":"cebpf4jnsgd1na2vs0mg"},{"bike_id":"4d353018-2c99-4a60-908e-92108120b5ed","system_id":"levelo_inurba_marseille","lat":43.25502,"lon":5.37645,"is_reserved":false,"is_disabled":false,"rental_uris":{"android":"levelo://app?vid=4d353018-2c99-4a60-908e-92108120b5ed","ios":"levelo://app?vid=4d353018-2c99-4a60-908e-92108120b5ed"},"vehicle_type_id":"4","last_reported":1748513534,"current_range_meters":14800,"station_id":"ce4bhh12rcd13ifvqff0","pricing_plan_id":"cebpf4jnsgd1na2vs0mg"},{"bike_id":"0d6d43c4-d3e9-479e-965d-8523b447e36a","system_id":"levelo_inurba_marseille","lat":43.23198,"lon":5.39955,"is_reserved":false,"is_disabled":false,"rental_uris":{"android":"levelo://app?vid=0d6d43c4-d3e9-479e-965d-8523b447e36a","ios":"levelo://app?vid=0d6d43c4-d3e9-479e-965d-8523b447e36a"},"vehicle_type_id":"4","last_reported":1748513534,"current_range_meters":14800,"station_id":"ce4bhn12rcd13ifvqgqg","pricing_plan_id":"cebpf4jnsgd1na2vs0mg"},{"bike_id":"e788adbc-8009-4eeb-9d0d-427f59d15b5e","system_id":"levelo_inurba_marseille","lat":43.3018,"lon":5.4253,"is_reserved":false,"is_disabled":false,"rental_uris":{"android":"levelo://app?vid=e788adbc-8009-4eeb-9d0d-427f59d15b5e","ios":"levelo://app?vid=e788adbc-8009-4eeb-9d0d-427f59d15b5e"},"vehicle_type_id":"4","last_reported":1748513534,"current_range_meters":14800,"station_id":"ce4bho92rcd13ifvqh4g","pricing_plan_id":"cebpf4jnsgd1na2vs0mg"},{"bike_id":"a6eca823-aac4-449e-b0f8-f2ed721ca2c1","system_id":"levelo_inurba_marseille","lat":43.30137,"lon":5.38056,"is_reserved":false,"is_disabled":false,"rental_uris":{"android":"levelo://app?vid=a6eca823-aac4-449e-b0f8-f2ed721ca2c1","ios":"levelo://app?vid=a6eca823-aac4-449e-b0f8-f2ed721ca2c1"},"vehicle_type_id":"4","last_reported":1748513534,"current_range_meters":15200,"station_id":"ce4bgjp2rcd13ifvqbh0","pricing_plan_id":"cebpf4jnsgd1na2vs0mg"},{"bike_id":"b7d0182b-44ef-4781-8968-d21fb3c02045","system_id":"levelo_inurba_marseille","lat":43.250833,"lon":5.395139,"is_reserved":false,"is_disabled":false,"rental_uris":{"android":"levelo://app?vid=b7d0182b-44ef-4781-8968-d21fb3c02045","ios":"levelo://app?vid=b7d0182b-44ef-4781-8968-d21fb3c02045"},"vehicle_type_id":"4","last_reported":1748513534,"current_range_meters":15200,"station_id":"ce4bhm12rcd13ifvqgkg","pricing_plan_id":"cebpf4jnsgd1na2vs0mg"},{"bike_id":"3e3afc05-f6f7-4523-9ca7-d5e62774754e","system_id":"levelo_inurba_marseille","lat":43.23145,"lon":5.43704,"is_reserved":false,"is_disabled":false,"rental_uris":{"android":"levelo://app?vid=3e3afc05-f6f7-4523-9ca7-d5e62774754e","ios":"levelo://app?vid=3e3afc05-f6f7-4523-9ca7-d5e62774754e"},"vehicle_type_id":"4","last_reported":1748513534,"current_range_meters":15200,"station_id":"ce4bhmp2rcd13ifvqgog","pricing_plan_id":"cebpf4jnsgd1na2vs0mg"},{"bike_id":"adcee82c-9db2-40d0-9e4e-8dd831ea6879","system_id":"levelo_inurba_marseille","lat":43.27918,"lon":5.39592,"is_reserved":false,"is_disabled":false,"rental_uris":{"android":"levelo://app?vid=adcee82c-9db2-40d0-9e4e-8dd831ea6879","ios":"levelo://app?vid=adcee82c-9db2-40d0-9e4e-8dd831ea6879"},"vehicle_type_id":"4","last_reported":1748513534,"current_range_meters":16000,"station_id":"ce4bhf92rcd13ifvqf40","pricing_plan_id":"cebpf4jnsgd1na2vs0mg"},{"bike_id":"a75866c0-48e6-48f4-a969-8e359a7341e9","system_id":"levelo_inurba_marseille","lat":43.261976,"lon":5.374406,"is_reserved":false,"is_disabled":false,"rental_uris":{"android":"levelo://app?vid=a75866c0-48e6-48f4-a969-8e359a7341e9","ios":"levelo://app?vid=a75866c0-48e6-48f4-a969-8e359a7341e9"},"vehicle_type_id":"4","last_reported":1748513534,"current_range_meters":16000,"station_id":"ce4bhgp2rcd13ifvqfc0","pricing_plan_id":"cebpf4jnsgd1na2vs0mg"},{"bike_id":"e6f1ee1d-614f-4ec5-960e-31160c4ab483","system_id":"levelo_inurba_marseille","lat":43.26497,"lon":5.39538,"is_reserved":false,"is_disabled":false,"rental_uris":{"android":"levelo://app?vid=e6f1ee1d-614f-4ec5-960e-31160c4ab483","ios":"levelo://app?vid=e6f1ee1d-614f-4ec5-960e-31160c4ab483"},"vehicle_type_id":"4","last_reported":1748513534,"current_range_meters":16000,"station_id":"ce4bhi12rcd13ifvqfq0","pricing_plan_id":"cebpf4jnsgd1na2vs0mg"},{"bike_id":"747224c9-7e52-4c58-9390-d943c4f5446c","system_id":"levelo_inurba_marseille","lat":43.27172,"lon":5.41006,"is_reserved":false,"is_disabled":false,"rental_uris":{"android":"levelo://app?vid=747224c9-7e52-4c58-9390-d943c4f5446c","ios":"levelo://app?vid=747224c9-7e52-4c58-9390-d943c4f5446c"},"vehicle_type_id":"4","last_reported":1748513534,"current_range_meters":16000,"station_id":"ce4bhl12rcd13ifvqgf0","pricing_plan_id":"cebpf4jnsgd1na2vs0mg"},{"bike_id":"249bb5c9-e3c0-404f-9f69-917cdb46c529","system_id":"levelo_inurba_marseille","lat":43.28001,"lon":5.40009,"is_reserved":false,"is_disabled":false,"rental_uris":{"android":"levelo://app?vid=249bb5c9-e3c0-404f-9f69-917cdb46c529","ios":"levelo://app?vid=249bb5c9-e3c0-404f-9f69-917cdb46c529"},"vehicle_type_id":"4","last_reported":1748513534,"current_range_meters":16000,"station_id":"ce4bho92rcd13ifvqh4g","pricing_plan_id":"cebpf4jnsgd1na2vs0mg"},{"bike_id":"9a86381f-51bc-4d54-858d-d27c0e51d901","system_id":"levelo_inurba_marseille","lat":43.30724,"lon":5.42447,"is_reserved":false,"is_disabled":false,"rental_uris":{"android":"levelo://app?vid=9a86381f-51bc-4d54-858d-d27c0e51d901","ios":"levelo://app?vid=9a86381f-51bc-4d54-858d-d27c0e51d901"},"vehicle_type_id":"4","last_reported":1748513534,"current_range_meters":16000,"station_id":"st_cvj6ca6bvosntc0bfgr0","pricing_plan_id":"cebpf4jnsgd1na2vs0mg"},{"bike_id":"0136cf66-6d65-47ab-ac66-e07b97bc89d0","system_id":"levelo_inurba_marseille","lat":43.21762,"lon":5.345793,"is_reserved":false,"is_disabled":false,"rental_uris":{"android":"levelo://app?vid=0136cf66-6d65-47ab-ac66-e07b97bc89d0","ios":"levelo://app?vid=0136cf66-6d65-47ab-ac66-e07b97bc89d0"},"vehicle_type_id":"4","last_reported":1748513534,"current_range_meters":16000,"station_id":"st_cvj6r9ubvosntc0bgbag","pricing_plan_id":"cebpf4jnsgd1na2vs0mg"},{"bike_id":"b7020ec2-d08d-489a-8b7c-6a077dc1acf5","system_id":"levelo_inurba_marseille","lat":43.23282,"lon":5.36093,"is_reserved":false,"is_disabled":false,"rental_uris":{"android":"levelo://app?vid=b7020ec2-d08d-489a-8b7c-6a077dc1acf5","ios":"levelo://app?vid=b7020ec2-d08d-489a-8b7c-6a077dc1acf5"},"vehicle_type_id":"4","last_reported":1748513534,"current_range_meters":16400,"station_id":"","pricing_plan_id":"cebpf4jnsgd1na2vs0mg"},{"bike_id":"349da6e2-658d-4619-a6cf-d93cfa904c71","system_id":"levelo_inurba_marseille","lat":43.30153,"lon":5.38093,"is_reserved":false,"is_disabled":false,"rental_uris":{"android":"levelo://app?vid=349da6e2-658d-4619-a6cf-d93cfa904c71","ios":"levelo://app?vid=349da6e2-658d-4619-a6cf-d93cfa904c71"},"vehicle_type_id":"4","last_reported":1748513534,"current_range_meters":16400,"station_id":"ce4bgjp2rcd13ifvqbh0","pricing_plan_id":"cebpf4jnsgd1na2vs0mg"},{"bike_id":"dbd1395d-dbd0-4c77-b80b-3de6abe72da9","system_id":"levelo_inurba_marseille","lat":43.29939,"lon":5.36553,"is_reserved":false,"is_disabled":false,"rental_uris":{"android":"levelo://app?vid=dbd1395d-dbd0-4c77-b80b-3de6abe72da9","ios":"levelo://app?vid=dbd1395d-dbd0-4c77-b80b-3de6abe72da9"},"vehicle_type_id":"4","last_reported":1748513534,"current_range_meters":16400,"station_id":"ce4bgm92rcd13ifvqbr0","pricing_plan_id":"cebpf4jnsgd1na2vs0mg"},{"bike_id":"a07a65cf-e109-4120-8811-59d1450dcf22","system_id":"levelo_inurba_marseille","lat":43.31371,"lon":5.38496,"is_reserved":false,"is_disabled":false,"rental_uris":{"android":"levelo://app?vid=a07a65cf-e109-4120-8811-59d1450dcf22","ios":"levelo://app?vid=a07a65cf-e109-4120-8811-59d1450dcf22"},"vehicle_type_id":"4","last_reported":1748513534,"current_range_meters":16400,"station_id":"ce4bgt92rcd13ifvqcf0","pricing_plan_id":"cebpf4jnsgd1na2vs0mg"},{"bike_id":"40287a79-8fe9-49af-83e6-c442f1394105","system_id":"levelo_inurba_marseille","lat":43.30958,"lon":5.39025,"is_reserved":false,"is_disabled":false,"rental_uris":{"android":"levelo://app?vid=40287a79-8fe9-49af-83e6-c442f1394105","ios":"levelo://app?vid=40287a79-8fe9-49af-83e6-c442f1394105"},"vehicle_type_id":"4","last_reported":1748513534,"current_range_meters":16400,"station_id":"ce4bgup2rcd13ifvqco0","pricing_plan_id":"cebpf4jnsgd1na2vs0mg"},{"bike_id":"19be8db9-646c-48a5-b87b-53f4bcf2725a","system_id":"levelo_inurba_marseille","lat":43.302155,"lon":5.3946,"is_reserved":false,"is_disabled":false,"rental_uris":{"android":"levelo://app?vid=19be8db9-646c-48a5-b87b-53f4bcf2725a","ios":"levelo://app?vid=19be8db9-646c-48a5-b87b-53f4bcf2725a"},"vehicle_type_id":"4","last_reported":1748513534,"current_range_meters":16400,"station_id":"ce4bh0p2rcd13ifvqd70","pricing_plan_id":"cebpf4jnsgd1na2vs0mg"},{"bike_id":"a455bc6f-8883-4e1e-aa08-97f479437c7b","system_id":"levelo_inurba_marseille","lat":43.28465,"lon":5.35885,"is_reserved":false,"is_disabled":false,"rental_uris":{"android":"levelo://app?vid=a455bc6f-8883-4e1e-aa08-97f479437c7b","ios":"levelo://app?vid=a455bc6f-8883-4e1e-aa08-97f479437c7b"},"vehicle_type_id":"4","last_reported":1748513534,"current_range_meters":16400,"station_id":"ce4bhah2rcd13ifvqei0","pricing_plan_id":"cebpf4jnsgd1na2vs0mg"},{"bike_id":"fe0a2a1d-e58a-4100-8910-ad5582e3821a","system_id":"levelo_inurba_marseille","lat":43.28263,"lon":5.35058,"is_reserved":false,"is_disabled":false,"rental_uris":{"android":"levelo://app?vid=fe0a2a1d-e58a-4100-8910-ad5582e3821a","ios":"levelo://app?vid=fe0a2a1d-e58a-4100-8910-ad5582e3821a"},"vehicle_type_id":"4","last_reported":1748513534,"current_range_meters":16400,"station_id":"ce4bhbp2rcd13ifvqerg","pricing_plan_id":"cebpf4jnsgd1na2vs0mg"},{"bike_id":"dbe562a8-5982-4674-8802-fa833cff5d97","system_id":"levelo_inurba_marseille","lat":43.25106,"lon":5.40328,"is_reserved":false,"is_disabled":false,"rental_uris":{"android":"levelo://app?vid=dbe562a8-5982-4674-8802-fa833cff5d97","ios":"levelo://app?vid=dbe562a8-5982-4674-8802-fa833cff5d97"},"vehicle_type_id":"4","last_reported":1748513534,"current_range_meters":16400,"station_id":"ce4bhlh2rcd13ifvqgig","pricing_plan_id":"cebpf4jnsgd1na2vs0mg"},{"bike_id":"6b77d8e2-6914-4f74-b37c-4eb29bd3731c","system_id":"levelo_inurba_marseille","lat":43.25941,"lon":5.40892,"is_reserved":false,"is_disabled":false,"rental_uris":{"android":"levelo://app?vid=6b77d8e2-6914-4f74-b37c-4eb29bd3731c","ios":"levelo://app?vid=6b77d8e2-6914-4f74-b37c-4eb29bd3731c"},"vehicle_type_id":"4","last_reported":1748513534,"current_range_meters":16400,"station_id":"ce4bhm92rcd13ifvqglg","pricing_plan_id":"cebpf4jnsgd1na2vs0mg"},{"bike_id":"f61b7f73-84e3-4805-a73d-0334d49a8a59","system_id":"levelo_inurba_marseille","lat":43.231834,"lon":5.40005,"is_reserved":false,"is_disabled":false,"rental_uris":{"android":"levelo://app?vid=f61b7f73-84e3-4805-a73d-0334d49a8a59","ios":"levelo://app?vid=f61b7f73-84e3-4805-a73d-0334d49a8a59"},"vehicle_type_id":"4","last_reported":1748513534,"current_range_meters":16400,"station_id":"ce4bhn12rcd13ifvqgqg","pricing_plan_id":"cebpf4jnsgd1na2vs0mg"},{"bike_id":"c91f375f-f1af-4beb-83ef-b4aac44777e5","system_id":"levelo_inurba_marseille","lat":43.24172,"lon":5.36382,"is_reserved":false,"is_disabled":false,"rental_uris":{"android":"levelo://app?vid=c91f375f-f1af-4beb-83ef-b4aac44777e5","ios":"levelo://app?vid=c91f375f-f1af-4beb-83ef-b4aac44777e5"},"vehicle_type_id":"4","last_reported":1748513534,"current_range_meters":16400,"station_id":"cpo36qri1sfpv3e86is0","pricing_plan_id":"cebpf4jnsgd1na2vs0mg"},{"bike_id":"35dc31d0-876c-4ff8-a716-bdbcacf232fa","system_id":"levelo_inurba_marseille","lat":43.24163,"lon":5.36398,"is_reserved":false,"is_disabled":false,"rental_uris":{"android":"levelo://app?vid=35dc31d0-876c-4ff8-a716-bdbcacf232fa","ios":"levelo://app?vid=35dc31d0-876c-4ff8-a716-bdbcacf232fa"},"vehicle_type_id":"4","last_reported":1748513534,"current_range_meters":16400,"station_id":"cpo36qri1sfpv3e86is0","pricing_plan_id":"cebpf4jnsgd1na2vs0mg"},{"bike_id":"2a9acb4b-2bb8-4ce6-982a-371ff22de0c6","system_id":"levelo_inurba_marseille","lat":43.21193,"lon":5.3507,"is_reserved":false,"is_disabled":false,"rental_uris":{"android":"levelo://app?vid=2a9acb4b-2bb8-4ce6-982a-371ff22de0c6","ios":"levelo://app?vid=2a9acb4b-2bb8-4ce6-982a-371ff22de0c6"},"vehicle_type_id":"4","last_reported":1748513534,"current_range_meters":16400,"station_id":"st_cvj6sg6p6f1abm77japg","pricing_plan_id":"cebpf4jnsgd1na2vs0mg"},{"bike_id":"60bf1ac6-41d7-4097-93d9-9d97459d1d48","system_id":"levelo_inurba_marseille","lat":43.29303,"lon":5.37176,"is_reserved":false,"is_disabled":false,"rental_uris":{"android":"levelo://app?vid=60bf1ac6-41d7-4097-93d9-9d97459d1d48","ios":"levelo://app?vid=60bf1ac6-41d7-4097-93d9-9d97459d1d48"},"vehicle_type_id":"4","last_reported":1748513534,"current_range_meters":16800,"station_id":"ce4bgh92rcd13ifvqb40","pricing_plan_id":"cebpf4jnsgd1na2vs0mg"},{"bike_id":"dc3b62d7-6a2a-49df-a155-cd6702d2d9a4","system_id":"levelo_inurba_marseille","lat":43.30316,"lon":5.36913,"is_reserved":false,"is_disabled":false,"rental_uris":{"android":"levelo://app?vid=dc3b62d7-6a2a-49df-a155-cd6702d2d9a4","ios":"levelo://app?vid=dc3b62d7-6a2a-49df-a155-cd6702d2d9a4"},"vehicle_type_id":"4","last_reported":1748513534,"current_range_meters":16800,"station_id":"ce4bgqh2rcd13ifvqc5g","pricing_plan_id":"cebpf4jnsgd1na2vs0mg"},{"bike_id":"a68b6451-acaa-4e56-afe1-cacd79381997","system_id":"levelo_inurba_marseille","lat":43.30888,"lon":5.39613,"is_reserved":false,"is_disabled":false,"rental_uris":{"android":"levelo://app?vid=a68b6451-acaa-4e56-afe1-cacd79381997","ios":"levelo://app?vid=a68b6451-acaa-4e56-afe1-cacd79381997"},"vehicle_type_id":"4","last_reported":1748513534,"current_range_meters":16800,"station_id":"ce4bh012rcd13ifvqcv0","pricing_plan_id":"cebpf4jnsgd1na2vs0mg"},{"bike_id":"88ca12ac-6570-4760-b5d7-0b3325462f98","system_id":"levelo_inurba_marseille","lat":43.266797,"lon":5.382609,"is_reserved":false,"is_disabled":false,"rental_uris":{"android":"levelo://app?vid=88ca12ac-6570-4760-b5d7-0b3325462f98","ios":"levelo://app?vid=88ca12ac-6570-4760-b5d7-0b3325462f98"},"vehicle_type_id":"4","last_reported":1748513534,"current_range_meters":16800,"station_id":"ce4bhg92rcd13ifvqf90","pricing_plan_id":"cebpf4jnsgd1na2vs0mg"},{"bike_id":"caac217f-7292-4c57-bfce-76d9beeb04c4","system_id":"levelo_inurba_marseille","lat":43.25498,"lon":5.37648,"is_reserved":false,"is_disabled":false,"rental_uris":{"android":"levelo://app?vid=caac217f-7292-4c57-bfce-76d9beeb04c4","ios":"levelo://app?vid=caac217f-7292-4c57-bfce-76d9beeb04c4"},"vehicle_type_id":"4","last_reported":1748513534,"current_range_meters":16800,"station_id":"ce4bhh12rcd13ifvqff0","pricing_plan_id":"cebpf4jnsgd1na2vs0mg"},{"bike_id":"65db6f1a-5c3d-4885-8dcb-a240ef1e4a5e","system_id":"levelo_inurba_marseille","lat":43.23965,"lon":5.36624,"is_reserved":false,"is_disabled":false,"rental_uris":{"android":"levelo://app?vid=65db6f1a-5c3d-4885-8dcb-a240ef1e4a5e","ios":"levelo://app?vid=65db6f1a-5c3d-4885-8dcb-a240ef1e4a5e"},"vehicle_type_id":"4","last_reported":1748513534,"current_range_meters":16800,"station_id":"ce4bhi12rcd13ifvqfp0","pricing_plan_id":"cebpf4jnsgd1na2vs0mg"},{"bike_id":"a579da87-abaf-45f0-b1ed-87f0c94a13b5","system_id":"levelo_inurba_marseille","lat":43.25578,"lon":5.38208,"is_reserved":false,"is_disabled":false,"rental_uris":{"android":"levelo://app?vid=a579da87-abaf-45f0-b1ed-87f0c94a13b5","ios":"levelo://app?vid=a579da87-abaf-45f0-b1ed-87f0c94a13b5"},"vehicle_type_id":"4","last_reported":1748513534,"current_range_meters":16800,"station_id":"ce4bhih2rcd13ifvqfs0","pricing_plan_id":"cebpf4jnsgd1na2vs0mg"},{"bike_id":"8ea4d048-223c-4b9f-a79c-b8dc2c65d878","system_id":"levelo_inurba_marseille","lat":43.25139,"lon":5.40319,"is_reserved":false,"is_disabled":false,"rental_uris":{"android":"levelo://app?vid=8ea4d048-223c-4b9f-a79c-b8dc2c65d878","ios":"levelo://app?vid=8ea4d048-223c-4b9f-a79c-b8dc2c65d878"},"vehicle_type_id":"4","last_reported":1748513534,"current_range_meters":16800,"station_id":"ce4bhlh2rcd13ifvqgig","pricing_plan_id":"cebpf4jnsgd1na2vs0mg"},{"bike_id":"7cebb823-96d0-49f3-8455-0b619a5fe90e","system_id":"levelo_inurba_marseille","lat":43.30154,"lon":5.38089,"is_reserved":false,"is_disabled":false,"rental_uris":{"android":"levelo://app?vid=7cebb823-96d0-49f3-8455-0b619a5fe90e","ios":"levelo://app?vid=7cebb823-96d0-49f3-8455-0b619a5fe90e"},"vehicle_type_id":"4","last_reported":1748513534,"current_range_meters":17200,"station_id":"ce4bgjp2rcd13ifvqbh0","pricing_plan_id":"cebpf4jnsgd1na2vs0mg"},{"bike_id":"6449e09c-aa70-4db4-8717-6cdd9456c498","system_id":"levelo_inurba_marseille","lat":43.30468,"lon":5.37911,"is_reserved":false,"is_disabled":false,"rental_uris":{"android":"levelo://app?vid=6449e09c-aa70-4db4-8717-6cdd9456c498","ios":"levelo://app?vid=6449e09c-aa70-4db4-8717-6cdd9456c498"},"vehicle_type_id":"4","last_reported":1748513534,"current_range_meters":17200,"station_id":"ce4bgup2rcd13ifvqcn0","pricing_plan_id":"cebpf4jnsgd1na2vs0mg"},{"bike_id":"28f7df19-ab91-405a-bf6c-a78862fd6279","system_id":"levelo_inurba_marseille","lat":43.30653,"lon":5.4006,"is_reserved":false,"is_disabled":false,"rental_uris":{"android":"levelo://app?vid=28f7df19-ab91-405a-bf6c-a78862fd6279","ios":"levelo://app?vid=28f7df19-ab91-405a-bf6c-a78862fd6279"},"vehicle_type_id":"4","last_reported":1748513534,"current_range_meters":17200,"station_id":"ce4bh112rcd13ifvqda0","pricing_plan_id":"cebpf4jnsgd1na2vs0mg"},{"bike_id":"9b6da1f7-8ff3-4437-9a21-99e0bc513ee6","system_id":"levelo_inurba_marseille","lat":43.288526,"lon":5.393066,"is_reserved":false,"is_disabled":false,"rental_uris":{"android":"levelo://app?vid=9b6da1f7-8ff3-4437-9a21-99e0bc513ee6","ios":"levelo://app?vid=9b6da1f7-8ff3-4437-9a21-99e0bc513ee6"},"vehicle_type_id":"4","last_reported":1748513534,"current_range_meters":17200,"station_id":"ce4bh2p2rcd13ifvqdi0","pricing_plan_id":"cebpf4jnsgd1na2vs0mg"},{"bike_id":"bb4d0350-0cbb-453b-96bc-34ea9214ba1a","system_id":"levelo_inurba_marseille","lat":43.28668,"lon":5.3636,"is_reserved":false,"is_disabled":false,"rental_uris":{"android":"levelo://app?vid=bb4d0350-0cbb-453b-96bc-34ea9214ba1a","ios":"levelo://app?vid=bb4d0350-0cbb-453b-96bc-34ea9214ba1a"},"vehicle_type_id":"4","last_reported":1748513534,"current_range_meters":17200,"station_id":"ce4bhah2rcd13ifvqej0","pricing_plan_id":"cebpf4jnsgd1na2vs0mg"},{"bike_id":"1a811efb-e1e9-48f1-adc9-ec202948c64b","system_id":"levelo_inurba_marseille","lat":43.27922,"lon":5.39566,"is_reserved":false,"is_disabled":false,"rental_uris":{"android":"levelo://app?vid=1a811efb-e1e9-48f1-adc9-ec202948c64b","ios":"levelo://app?vid=1a811efb-e1e9-48f1-adc9-ec202948c64b"},"vehicle_type_id":"4","last_reported":1748513534,"current_range_meters":17200,"station_id":"ce4bhf92rcd13ifvqf40","pricing_plan_id":"cebpf4jnsgd1na2vs0mg"},{"bike_id":"3a088454-3e38-4364-b955-0c4e7e914d79","system_id":"levelo_inurba_marseille","lat":43.33026,"lon":5.39042,"is_reserved":false,"is_disabled":false,"rental_uris":{"android":"levelo://app?vid=3a088454-3e38-4364-b955-0c4e7e914d79","ios":"levelo://app?vid=3a088454-3e38-4364-b955-0c4e7e914d79"},"vehicle_type_id":"4","last_reported":1748513534,"current_range_meters":17200,"station_id":"ce4bhr92rcd13ifvqhrg","pricing_plan_id":"cebpf4jnsgd1na2vs0mg"},{"bike_id":"f3821f83-31c7-413f-bbb8-d18ccd7d35ec","system_id":"levelo_inurba_marseille","lat":43.33731,"lon":5.39189,"is_reserved":false,"is_disabled":false,"rental_uris":{"android":"levelo://app?vid=f3821f83-31c7-413f-bbb8-d18ccd7d35ec","ios":"levelo://app?vid=f3821f83-31c7-413f-bbb8-d18ccd7d35ec"},"vehicle_type_id":"4","last_reported":1748513534,"current_range_meters":17200,"station_id":"ce4bhr92rcd13ifvqhsg","pricing_plan_id":"cebpf4jnsgd1na2vs0mg"},{"bike_id":"7243d7c8-02f5-4392-89cf-8c360e846d55","system_id":"levelo_inurba_marseille","lat":43.25282,"lon":5.37814,"is_reserved":false,"is_disabled":false,"rental_uris":{"android":"levelo://app?vid=7243d7c8-02f5-4392-89cf-8c360e846d55","ios":"levelo://app?vid=7243d7c8-02f5-4392-89cf-8c360e846d55"},"vehicle_type_id":"4","last_reported":1748513534,"current_range_meters":17600,"station_id":"","pricing_plan_id":"cebpf4jnsgd1na2vs0mg"},{"bike_id":"c4d26474-6266-429e-b3cc-089a07206404","system_id":"levelo_inurba_marseille","lat":43.28215,"lon":5.39041,"is_reserved":false,"is_disabled":false,"rental_uris":{"android":"levelo://app?vid=c4d26474-6266-429e-b3cc-089a07206404","ios":"levelo://app?vid=c4d26474-6266-429e-b3cc-089a07206404"},"vehicle_type_id":"4","last_reported":1748513534,"current_range_meters":17600,"station_id":"","pricing_plan_id":"cebpf4jnsgd1na2vs0mg"},{"bike_id":"9e077e27-33c0-4331-96cc-ce43f93f1c2b","system_id":"levelo_inurba_marseille","lat":43.26727,"lon":5.37207,"is_reserved":false,"is_disabled":false,"rental_uris":{"android":"levelo://app?vid=9e077e27-33c0-4331-96cc-ce43f93f1c2b","ios":"levelo://app?vid=9e077e27-33c0-4331-96cc-ce43f93f1c2b"},"vehicle_type_id":"4","last_reported":1748513534,"current_range_meters":17600,"station_id":"","pricing_plan_id":"cebpf4jnsgd1na2vs0mg"},{"bike_id":"66da971e-5cde-4f08-8df5-5605a205a536","system_id":"levelo_inurba_marseille","lat":43.29614,"lon":5.37728,"is_reserved":false,"is_disabled":false,"rental_uris":{"android":"levelo://app?vid=66da971e-5cde-4f08-8df5-5605a205a536","ios":"levelo://app?vid=66da971e-5cde-4f08-8df5-5605a205a536"},"vehicle_type_id":"4","last_reported":1748513534,"current_range_meters":17600,"station_id":"ce4bgi92rcd13ifvqb90","pricing_plan_id":"cebpf4jnsgd1na2vs0mg"},{"bike_id":"a9d68b97-78f6-4b27-b61f-dac456c7ebb9","system_id":"levelo_inurba_marseille","lat":43.30946,"lon":5.40151,"is_reserved":false,"is_disabled":false,"rental_uris":{"android":"levelo://app?vid=a9d68b97-78f6-4b27-b61f-dac456c7ebb9","ios":"levelo://app?vid=a9d68b97-78f6-4b27-b61f-dac456c7ebb9"},"vehicle_type_id":"4","last_reported":1748513534,"current_range_meters":17600,"station_id":"ce4bgvp2rcd13ifvqct0","pricing_plan_id":"cebpf4jnsgd1na2vs0mg"},{"bike_id":"010ba68a-e6a9-4367-be9e-a3a950b27815","system_id":"levelo_inurba_marseille","lat":43.30123,"lon":5.398628,"is_reserved":false,"is_disabled":false,"rental_uris":{"android":"levelo://app?vid=010ba68a-e6a9-4367-be9e-a3a950b27815","ios":"levelo://app?vid=010ba68a-e6a9-4367-be9e-a3a950b27815"},"vehicle_type_id":"4","last_reported":1748513534,"current_range_meters":17600,"station_id":"ce4bh0h2rcd13ifvqd40","pricing_plan_id":"cebpf4jnsgd1na2vs0mg"},{"bike_id":"849072a8-5365-4bad-ab9c-eb339cc5cb06","system_id":"levelo_inurba_marseille","lat":43.25491,"lon":5.37648,"is_reserved":false,"is_disabled":false,"rental_uris":{"android":"levelo://app?vid=849072a8-5365-4bad-ab9c-eb339cc5cb06","ios":"levelo://app?vid=849072a8-5365-4bad-ab9c-eb339cc5cb06"},"vehicle_type_id":"4","last_reported":1748513534,"current_range_meters":17600,"station_id":"ce4bhh12rcd13ifvqff0","pricing_plan_id":"cebpf4jnsgd1na2vs0mg"},{"bike_id":"8dfeb43f-20b5-49e1-a968-0f820f9ce1f0","system_id":"levelo_inurba_marseille","lat":43.26199,"lon":5.37928,"is_reserved":false,"is_disabled":false,"rental_uris":{"android":"levelo://app?vid=8dfeb43f-20b5-49e1-a968-0f820f9ce1f0","ios":"levelo://app?vid=8dfeb43f-20b5-49e1-a968-0f820f9ce1f0"},"vehicle_type_id":"4","last_reported":1748513534,"current_range_meters":17600,"station_id":"ce4bhjp2rcd13ifvqg90","pricing_plan_id":"cebpf4jnsgd1na2vs0mg"},{"bike_id":"bf4a0959-f180-4d54-9913-5e4a1fd78137","system_id":"levelo_inurba_marseille","lat":43.21192,"lon":5.35068,"is_reserved":false,"is_disabled":false,"rental_uris":{"android":"levelo://app?vid=bf4a0959-f180-4d54-9913-5e4a1fd78137","ios":"levelo://app?vid=bf4a0959-f180-4d54-9913-5e4a1fd78137"},"vehicle_type_id":"4","last_reported":1748513534,"current_range_meters":17600,"station_id":"st_cvj6sg6p6f1abm77japg","pricing_plan_id":"cebpf4jnsgd1na2vs0mg"},{"bike_id":"9d7f5467-8060-4fd8-a149-7bfedb3e803a","system_id":"levelo_inurba_marseille","lat":43.30644,"lon":5.40071,"is_reserved":false,"is_disabled":false,"rental_uris":{"android":"levelo://app?vid=9d7f5467-8060-4fd8-a149-7bfedb3e803a","ios":"levelo://app?vid=9d7f5467-8060-4fd8-a149-7bfedb3e803a"},"vehicle_type_id":"4","last_reported":1748513534,"current_range_meters":18000,"station_id":"ce4bh112rcd13ifvqda0","pricing_plan_id":"cebpf4jnsgd1na2vs0mg"},{"bike_id":"e858d03e-9bde-48ef-b289-ab26cc8288c8","system_id":"levelo_inurba_marseille","lat":43.27063,"lon":5.42259,"is_reserved":false,"is_disabled":false,"rental_uris":{"android":"levelo://app?vid=e858d03e-9bde-48ef-b289-ab26cc8288c8","ios":"levelo://app?vid=e858d03e-9bde-48ef-b289-ab26cc8288c8"},"vehicle_type_id":"4","last_reported":1748513534,"current_range_meters":18000,"station_id":"ce4bhk92rcd13ifvqgb0","pricing_plan_id":"cebpf4jnsgd1na2vs0mg"},{"bike_id":"b9fc76d8-1bdf-48f3-84a2-3e91d9ed74dc","system_id":"levelo_inurba_marseille","lat":43.30798,"lon":5.4351,"is_reserved":false,"is_disabled":false,"rental_uris":{"android":"levelo://app?vid=b9fc76d8-1bdf-48f3-84a2-3e91d9ed74dc","ios":"levelo://app?vid=b9fc76d8-1bdf-48f3-84a2-3e91d9ed74dc"},"vehicle_type_id":"4","last_reported":1748513534,"current_range_meters":18000,"station_id":"ce4bhph2rcd13ifvqheg","pricing_plan_id":"cebpf4jnsgd1na2vs0mg"},{"bike_id":"a6c2eea9-b304-4707-8f38-3a026e2261ef","system_id":"levelo_inurba_marseille","lat":43.31997,"lon":5.38159,"is_reserved":false,"is_disabled":false,"rental_uris":{"android":"levelo://app?vid=a6c2eea9-b304-4707-8f38-3a026e2261ef","ios":"levelo://app?vid=a6c2eea9-b304-4707-8f38-3a026e2261ef"},"vehicle_type_id":"4","last_reported":1748513534,"current_range_meters":18000,"station_id":"ce4bhr12rcd13ifvqhpg","pricing_plan_id":"cebpf4jnsgd1na2vs0mg"},{"bike_id":"4f954e51-168a-4bc6-82e4-b9797dcfa714","system_id":"levelo_inurba_marseille","lat":43.24164,"lon":5.36394,"is_reserved":false,"is_disabled":false,"rental_uris":{"android":"levelo://app?vid=4f954e51-168a-4bc6-82e4-b9797dcfa714","ios":"levelo://app?vid=4f954e51-168a-4bc6-82e4-b9797dcfa714"},"vehicle_type_id":"4","last_reported":1748513534,"current_range_meters":18000,"station_id":"cpo36qri1sfpv3e86is0","pricing_plan_id":"cebpf4jnsgd1na2vs0mg"},{"bike_id":"4d214bca-45f8-4722-bfe1-27a94bf1c099","system_id":"levelo_inurba_marseille","lat":43.21746,"lon":5.34604,"is_reserved":false,"is_disabled":false,"rental_uris":{"android":"levelo://app?vid=4d214bca-45f8-4722-bfe1-27a94bf1c099","ios":"levelo://app?vid=4d214bca-45f8-4722-bfe1-27a94bf1c099"},"vehicle_type_id":"4","last_reported":1748513534,"current_range_meters":18000,"station_id":"st_cvj6r9ubvosntc0bgbag","pricing_plan_id":"cebpf4jnsgd1na2vs0mg"},{"bike_id":"062ff17d-183d-42c7-851f-6f5c81dc90fc","system_id":"levelo_inurba_marseille","lat":43.21194,"lon":5.35065,"is_reserved":false,"is_disabled":false,"rental_uris":{"android":"levelo://app?vid=062ff17d-183d-42c7-851f-6f5c81dc90fc","ios":"levelo://app?vid=062ff17d-183d-42c7-851f-6f5c81dc90fc"},"vehicle_type_id":"4","last_reported":1748513534,"current_range_meters":18000,"station_id":"st_cvj6sg6p6f1abm77japg","pricing_plan_id":"cebpf4jnsgd1na2vs0mg"},{"bike_id":"9a063509-03c7-4a54-83c9-3c92f2e81982","system_id":"levelo_inurba_marseille","lat":43.29603,"lon":5.37713,"is_reserved":false,"is_disabled":false,"rental_uris":{"android":"levelo://app?vid=9a063509-03c7-4a54-83c9-3c92f2e81982","ios":"levelo://app?vid=9a063509-03c7-4a54-83c9-3c92f2e81982"},"vehicle_type_id":"4","last_reported":1748513534,"current_range_meters":18800,"station_id":"ce4bgi92rcd13ifvqb90","pricing_plan_id":"cebpf4jnsgd1na2vs0mg"},{"bike_id":"8243f1f8-3521-48cb-8a51-1fa59f512280","system_id":"levelo_inurba_marseille","lat":43.28026,"lon":5.36953,"is_reserved":false,"is_disabled":false,"rental_uris":{"android":"levelo://app?vid=8243f1f8-3521-48cb-8a51-1fa59f512280","ios":"levelo://app?vid=8243f1f8-3521-48cb-8a51-1fa59f512280"},"vehicle_type_id":"4","last_reported":1748513534,"current_range_meters":18800,"station_id":"ce4bha12rcd13ifvqef0","pricing_plan_id":"cebpf4jnsgd1na2vs0mg"},{"bike_id":"bc51bfd4-ef6c-4086-b83f-bcb7ddeeae3a","system_id":"levelo_inurba_marseille","lat":43.2656,"lon":5.39014,"is_reserved":false,"is_disabled":false,"rental_uris":{"android":"levelo://app?vid=bc51bfd4-ef6c-4086-b83f-bcb7ddeeae3a","ios":"levelo://app?vid=bc51bfd4-ef6c-4086-b83f-bcb7ddeeae3a"},"vehicle_type_id":"4","last_reported":1748513534,"current_range_meters":18800,"station_id":"ce4bhe12rcd13ifvqf30","pricing_plan_id":"cebpf4jnsgd1na2vs0mg"},{"bike_id":"70274289-9a50-404c-bc73-7544d4be9946","system_id":"levelo_inurba_marseille","lat":43.24389,"lon":5.37062,"is_reserved":false,"is_disabled":false,"rental_uris":{"android":"levelo://app?vid=70274289-9a50-404c-bc73-7544d4be9946","ios":"levelo://app?vid=70274289-9a50-404c-bc73-7544d4be9946"},"vehicle_type_id":"4","last_reported":1748513534,"current_range_meters":18800,"station_id":"ce4bhhh2rcd13ifvqfk0","pricing_plan_id":"cebpf4jnsgd1na2vs0mg"},{"bike_id":"84cb9c3e-d5a5-471f-a9cf-ebdcf940d662","system_id":"levelo_inurba_marseille","lat":43.23153,"lon":5.43715,"is_reserved":false,"is_disabled":false,"rental_uris":{"android":"levelo://app?vid=84cb9c3e-d5a5-471f-a9cf-ebdcf940d662","ios":"levelo://app?vid=84cb9c3e-d5a5-471f-a9cf-ebdcf940d662"},"vehicle_type_id":"4","last_reported":1748513534,"current_range_meters":18800,"station_id":"ce4bhmp2rcd13ifvqgog","pricing_plan_id":"cebpf4jnsgd1na2vs0mg"},{"bike_id":"9fe1e697-36ec-421f-b0be-031c2f5ed7f3","system_id":"levelo_inurba_marseille","lat":43.33763,"lon":5.37426,"is_reserved":false,"is_disabled":false,"rental_uris":{"android":"levelo://app?vid=9fe1e697-36ec-421f-b0be-031c2f5ed7f3","ios":"levelo://app?vid=9fe1e697-36ec-421f-b0be-031c2f5ed7f3"},"vehicle_type_id":"4","last_reported":1748513534,"current_range_meters":19200,"station_id":"","pricing_plan_id":"cebpf4jnsgd1na2vs0mg"},{"bike_id":"502b1051-0bae-4a23-bcbf-a876bfe3288a","system_id":"levelo_inurba_marseille","lat":43.31285,"lon":5.382343,"is_reserved":false,"is_disabled":false,"rental_uris":{"android":"levelo://app?vid=502b1051-0bae-4a23-bcbf-a876bfe3288a","ios":"levelo://app?vid=502b1051-0bae-4a23-bcbf-a876bfe3288a"},"vehicle_type_id":"4","last_reported":1748513534,"current_range_meters":19200,"station_id":"","pricing_plan_id":"cebpf4jnsgd1na2vs0mg"},{"bike_id":"ca09e2a8-f158-4d55-b0e6-4ce55bfe074b","system_id":"levelo_inurba_marseille","lat":43.290211,"lon":5.381262,"is_reserved":false,"is_disabled":false,"rental_uris":{"android":"levelo://app?vid=ca09e2a8-f158-4d55-b0e6-4ce55bfe074b","ios":"levelo://app?vid=ca09e2a8-f158-4d55-b0e6-4ce55bfe074b"},"vehicle_type_id":"4","last_reported":1748513534,"current_range_meters":19200,"station_id":"ce4bh4p2rcd13ifvqe1g","pricing_plan_id":"cebpf4jnsgd1na2vs0mg"},{"bike_id":"f797899a-4240-40dc-9bc7-4929d7fb6d12","system_id":"levelo_inurba_marseille","lat":43.27379,"lon":5.36263,"is_reserved":false,"is_disabled":false,"rental_uris":{"android":"levelo://app?vid=f797899a-4240-40dc-9bc7-4929d7fb6d12","ios":"levelo://app?vid=f797899a-4240-40dc-9bc7-4929d7fb6d12"},"vehicle_type_id":"4","last_reported":1748513534,"current_range_meters":19200,"station_id":"ce4bhbh2rcd13ifvqeo0","pricing_plan_id":"cebpf4jnsgd1na2vs0mg"},{"bike_id":"9de2168f-dc14-453f-af52-00a1b1f7180f","system_id":"levelo_inurba_marseille","lat":43.28298,"lon":5.35085,"is_reserved":false,"is_disabled":false,"rental_uris":{"android":"levelo://app?vid=9de2168f-dc14-453f-af52-00a1b1f7180f","ios":"levelo://app?vid=9de2168f-dc14-453f-af52-00a1b1f7180f"},"vehicle_type_id":"4","last_reported":1748513534,"current_range_meters":19200,"station_id":"ce4bhbp2rcd13ifvqerg","pricing_plan_id":"cebpf4jnsgd1na2vs0mg"},{"bike_id":"3623a868-c86e-4ac6-ade0-b99d4a019a02","system_id":"levelo_inurba_marseille","lat":43.25117,"lon":5.40318,"is_reserved":false,"is_disabled":false,"rental_uris":{"android":"levelo://app?vid=3623a868-c86e-4ac6-ade0-b99d4a019a02","ios":"levelo://app?vid=3623a868-c86e-4ac6-ade0-b99d4a019a02"},"vehicle_type_id":"4","last_reported":1748513534,"current_range_meters":19200,"station_id":"ce4bhlh2rcd13ifvqgig","pricing_plan_id":"cebpf4jnsgd1na2vs0mg"},{"bike_id":"b2d5366f-dd76-4df6-8bad-e2b0bf8847a0","system_id":"levelo_inurba_marseille","lat":43.23155,"lon":5.39997,"is_reserved":false,"is_disabled":false,"rental_uris":{"android":"levelo://app?vid=b2d5366f-dd76-4df6-8bad-e2b0bf8847a0","ios":"levelo://app?vid=b2d5366f-dd76-4df6-8bad-e2b0bf8847a0"},"vehicle_type_id":"4","last_reported":1748513534,"current_range_meters":19200,"station_id":"ce4bhn12rcd13ifvqgqg","pricing_plan_id":"cebpf4jnsgd1na2vs0mg"},{"bike_id":"e31ac1da-af03-4525-981c-619875627a49","system_id":"levelo_inurba_marseille","lat":43.2979,"lon":5.39352,"is_reserved":false,"is_disabled":false,"rental_uris":{"android":"levelo://app?vid=e31ac1da-af03-4525-981c-619875627a49","ios":"levelo://app?vid=e31ac1da-af03-4525-981c-619875627a49"},"vehicle_type_id":"4","last_reported":1748513534,"current_range_meters":19200,"station_id":"chh1huq6cuj3fo74tm60","pricing_plan_id":"cebpf4jnsgd1na2vs0mg"},{"bike_id":"7dab64f5-8864-4de9-9a50-dbe32057c261","system_id":"levelo_inurba_marseille","lat":43.24165,"lon":5.36378,"is_reserved":false,"is_disabled":false,"rental_uris":{"android":"levelo://app?vid=7dab64f5-8864-4de9-9a50-dbe32057c261","ios":"levelo://app?vid=7dab64f5-8864-4de9-9a50-dbe32057c261"},"vehicle_type_id":"4","last_reported":1748513534,"current_range_meters":19200,"station_id":"cpo36qri1sfpv3e86is0","pricing_plan_id":"cebpf4jnsgd1na2vs0mg"},{"bike_id":"12fb6655-991b-4561-99ed-737b85e43a99","system_id":"levelo_inurba_marseille","lat":43.30732,"lon":5.424536,"is_reserved":false,"is_disabled":false,"rental_uris":{"android":"levelo://app?vid=12fb6655-991b-4561-99ed-737b85e43a99","ios":"levelo://app?vid=12fb6655-991b-4561-99ed-737b85e43a99"},"vehicle_type_id":"4","last_reported":1748513534,"current_range_meters":19200,"station_id":"st_cvj6ca6bvosntc0bfgr0","pricing_plan_id":"cebpf4jnsgd1na2vs0mg"},{"bike_id":"5aefb386-e416-4906-998c-ff23207edc6c","system_id":"levelo_inurba_marseille","lat":43.217515,"lon":5.346013,"is_reserved":false,"is_disabled":false,"rental_uris":{"android":"levelo://app?vid=5aefb386-e416-4906-998c-ff23207edc6c","ios":"levelo://app?vid=5aefb386-e416-4906-998c-ff23207edc6c"},"vehicle_type_id":"4","last_reported":1748513534,"current_range_meters":19200,"station_id":"st_cvj6r9ubvosntc0bgbag","pricing_plan_id":"cebpf4jnsgd1na2vs0mg"},{"bike_id":"52ac7864-1a3e-4a37-9612-0455b6fabaa3","system_id":"levelo_inurba_marseille","lat":43.29575,"lon":5.37513,"is_reserved":false,"is_disabled":false,"rental_uris":{"android":"levelo://app?vid=52ac7864-1a3e-4a37-9612-0455b6fabaa3","ios":"levelo://app?vid=52ac7864-1a3e-4a37-9612-0455b6fabaa3"},"vehicle_type_id":"4","last_reported":1748513534,"current_range_meters":19600,"station_id":"ce4bgh92rcd13ifvqb50","pricing_plan_id":"cebpf4jnsgd1na2vs0mg"},{"bike_id":"f25b6cde-2e1a-41a1-94d4-788bc5899574","system_id":"levelo_inurba_marseille","lat":43.30638,"lon":5.37262,"is_reserved":false,"is_disabled":false,"rental_uris":{"android":"levelo://app?vid=f25b6cde-2e1a-41a1-94d4-788bc5899574","ios":"levelo://app?vid=f25b6cde-2e1a-41a1-94d4-788bc5899574"},"vehicle_type_id":"4","last_reported":1748513534,"current_range_meters":19600,"station_id":"ce4bgqh2rcd13ifvqc4g","pricing_plan_id":"cebpf4jnsgd1na2vs0mg"},{"bike_id":"4ff6d1f4-bb42-43c4-ab3a-06c1ae03f8e0","system_id":"levelo_inurba_marseille","lat":43.337444,"lon":5.374475,"is_reserved":false,"is_disabled":false,"rental_uris":{"android":"levelo://app?vid=4ff6d1f4-bb42-43c4-ab3a-06c1ae03f8e0","ios":"levelo://app?vid=4ff6d1f4-bb42-43c4-ab3a-06c1ae03f8e0"},"vehicle_type_id":"4","last_reported":1748513534,"current_range_meters":19600,"station_id":"ce4bh0h2rcd13ifvqd40","pricing_plan_id":"cebpf4jnsgd1na2vs0mg"},{"bike_id":"6ad41f9b-58e2-4568-9a5e-bc6091e58ecf","system_id":"levelo_inurba_marseille","lat":43.30652,"lon":5.40062,"is_reserved":false,"is_disabled":false,"rental_uris":{"android":"levelo://app?vid=6ad41f9b-58e2-4568-9a5e-bc6091e58ecf","ios":"levelo://app?vid=6ad41f9b-58e2-4568-9a5e-bc6091e58ecf"},"vehicle_type_id":"4","last_reported":1748513534,"current_range_meters":19600,"station_id":"ce4bh112rcd13ifvqda0","pricing_plan_id":"cebpf4jnsgd1na2vs0mg"},{"bike_id":"a63a6333-e7ad-427d-bb64-cad240ccd096","system_id":"levelo_inurba_marseille","lat":43.28612,"lon":5.351,"is_reserved":false,"is_disabled":false,"rental_uris":{"android":"levelo://app?vid=a63a6333-e7ad-427d-bb64-cad240ccd096","ios":"levelo://app?vid=a63a6333-e7ad-427d-bb64-cad240ccd096"},"vehicle_type_id":"4","last_reported":1748513534,"current_range_meters":19600,"station_id":"ce4bhch2rcd13ifvqeug","pricing_plan_id":"cebpf4jnsgd1na2vs0mg"},{"bike_id":"a4399122-5819-4262-a980-c0e54ec6ed5c","system_id":"levelo_inurba_marseille","lat":43.261918,"lon":5.378845,"is_reserved":false,"is_disabled":false,"rental_uris":{"android":"levelo://app?vid=a4399122-5819-4262-a980-c0e54ec6ed5c","ios":"levelo://app?vid=a4399122-5819-4262-a980-c0e54ec6ed5c"},"vehicle_type_id":"4","last_reported":1748513534,"current_range_meters":19600,"station_id":"ce4bhjp2rcd13ifvqg90","pricing_plan_id":"cebpf4jnsgd1na2vs0mg"},