{"last_updated":1730297306,"ttl":60,"version":"2.2","data":{"bikes":[{"bike_id":"e0594c9b-1912-4f09-958a-91f8a4561c29","system_id":"levelo_inurba_marseille","lat":43.24389,"lon":5.37045,"is_reserved":false,"is_disabled":false,"rental_uris":{"android":"levelo://app?vid=e0594c9b-1912-4f09-958a-91f8a4561c29","ios":"levelo://app?vid=e0594c9b-1912-4f09-958a-91f8a4561c29"},"vehicle_type_id":"4","last_reported":1730297307,"current_range_meters":39200,"station_id":"ce4bhhh2rcd13ifvqfk0","pricing_plan_id":"cebpf4jnsgd1na2vs0mg"},{"bike_id":"d713d74c-0963-4acd-a33e-f1ac027bc7af","system_id":"levelo_inurba_marseille","lat":43.28106,"lon":5.37844,"is_reserved":false,"is_disabled":false,"rental_uris":{"android":"levelo://app?vid=d713d74c-0963-4acd-a33e-f1ac027bc7af","ios":"levelo://app?vid=d713d74c-0963-4acd-a33e-f1ac027bc7af"},"vehicle_type_id":"4","last_reported":1730297307,"current_range_meters":27600,"station_id":"ce4bha12rcd13ifvqee0","pricing_plan_id":"cebpf4jnsgd1na2vs0mg"},{"bike_id":"9932cb1a-63a4-4e1c-a11b-c6a6ee00d266","system_id":"levelo_inurba_marseille","lat":43.31227,"lon":5.36857,"is_reserved":false,"is_disabled":false,"rental_uris":{"android":"levelo://app?vid=9932cb1a-63a4-4e1c-a11b-c6a6ee00d266","ios":"levelo://app?vid=9932cb1a-63a4-4e1c-a11b-c6a6ee00d266"},"vehicle_type_id":"4","last_reported":1730297307,"current_range_meters":10800,"station_id":"ce4bgl92rcd13ifvqbq0","pricing_plan_id":"cebpf4jnsgd1na2vs0mg"},{"bike_id":"e1d18b81-986d-4e87-b61a-22535be9c7fe","system_id":"levelo_inurba_marseille","lat":43.27069,"lon":5.42279,"is_reserved":false,"is_disabled":false,"rental_uris":{"android":"levelo://app?vid=e1d18b81-986d-4e87-b61a-22535be9c7fe","ios":"levelo://app?vid=e1d18b81-986d-4e87-b61a-22535be9c7fe"},"vehicle_type_id":"4","last_reported":1730297307,"current_range_meters":39200,"station_id":"ce4bhk92rcd13ifvqgb0","pricing_plan_id":"cebpf4jnsgd1na2vs0mg"},{"bike_id":"a1bb42ca-48af-4ecf-84af-9ae8e4bb73f6","system_id":"levelo_inurba_marseille","lat":43.28421,"lon":5.35002,"is_reserved":false,"is_disabled":false,"rental_uris":{"android":"levelo://app?vid=a1bb42ca-48af-4ecf-84af-9ae8e4bb73f6","ios":"levelo://app?vid=a1bb42ca-48af-4ecf-84af-9ae8e4bb73f6"},"vehicle_type_id":"4","last_reported":1730297307,"current_range_meters":30800,"station_id":"ce4bhbh2rcd13ifvqepg","pricing_plan_id":"cebpf4jnsgd1na2vs0mg"},{"bike_id":"189cf0bd-c1fc-4472-b4be-e13f226816e9","system_id":"levelo_inurba_marseille","lat":43.29915,"lon":5.37478,"is_reserved":false,"is_disabled":false,"rental_uris":{"android":"levelo://app?vid=189cf0bd-c1fc-4472-b4be-e13f226816e9","ios":"levelo://app?vid=189cf0bd-c1fc-4472-b4be-e13f226816e9"},"vehicle_type_id":"4","last_reported":1730297307,"current_range_meters":38800,"station_id":"ce4bgjh2rcd13ifvqbg0","pricing_plan_id":"cebpf4jnsgd1na2vs0mg"},{"bike_id":"950081ea-a32f-46c7-884a-21a8440a2509","system_id":"levelo_inurba_marseille","lat":43.27812,"lon":5.40706,"is_reserved":false,"is_disabled":false,"rental_uris":{"android":"levelo://app?vid=950081ea-a32f-46c7-884a-21a8440a2509","ios":"levelo://app?vid=950081ea-a32f-46c7-884a-21a8440a2509"},"vehicle_type_id":"4","last_reported":1730297307,"current_range_meters":20400,"station_id":"ce4bhnh2rcd13ifvqgtg","pricing_plan_id":"cebpf4jnsgd1na2vs0mg"},{"bike_id":"352edcdd-105e-4e75-9077-fde2f89f8f7e","system_id":"levelo_inurba_marseille","lat":43.31119,"lon":5.37779,"is_reserved":false,"is_disabled":false,"rental_uris":{"android":"levelo://app?vid=352edcdd-105e-4e75-9077-fde2f89f8f7e","ios":"levelo://app?vid=352edcdd-105e-4e75-9077-fde2f89f8f7e"},"vehicle_type_id":"4","last_reported":1730297307,"current_range_meters":18000,"station_id":"ce4bgt92rcd13ifvqcg0","pricing_plan_id":"cebpf4jnsgd1na2vs0mg"},{"bike_id":"cd800f60-1df2-4f16-bcfb-9ef03cf6d5db","system_id":"levelo_inurba_marseille","lat":43.30149,"lon":5.38084,"is_reserved":false,"is_disabled":false,"rental_uris":{"android":"levelo://app?vid=cd800f60-1df2-4f16-bcfb-9ef03cf6d5db","ios":"levelo://app?vid=cd800f60-1df2-4f16-bcfb-9ef03cf6d5db"},"vehicle_type_id":"4","last_reported":1730297307,"current_range_meters":22000,"station_id":"ce4bgjp2rcd13ifvqbh0","pricing_plan_id":"cebpf4jnsgd1na2vs0mg"},{"bike_id":"51724b8b-2013-4fc2-952f-9a68b601558f","system_id":"levelo_inurba_marseille","lat":43.26785,"lon":5.39417,"is_reserved":false,"is_disabled":false,"rental_uris":{"android":"levelo://app?vid=51724b8b-2013-4fc2-952f-9a68b601558f","ios":"levelo://app?vid=51724b8b-2013-4fc2-952f-9a68b601558f"},"vehicle_type_id":"4","last_reported":1730297307,"current_range_meters":34000,"station_id":"ce4bhh12rcd13ifvqfg0","pricing_plan_id":"cebpf4jnsgd1na2vs0mg"},{"bike_id":"5f6f088b-5b94-41cc-b4f2-eeb2203cf2ac","system_id":"levelo_inurba_marseille","lat":43.29605,"lon":5.37712,"is_reserved":false,"is_disabled":false,"rental_uris":{"android":"levelo://app?vid=5f6f088b-5b94-41cc-b4f2-eeb2203cf2ac","ios":"levelo://app?vid=5f6f088b-5b94-41cc-b4f2-eeb2203cf2ac"},"vehicle_type_id":"4","last_reported":1730297307,"current_range_meters":31200,"station_id":"ce4bgi92rcd13ifvqb90","pricing_plan_id":"cebpf4jnsgd1na2vs0mg"},{"bike_id":"35f83c08-ebc5-4846-95d6-0036239c76d8","system_id":"levelo_inurba_marseille","lat":43.33021,"lon":5.39043,"is_reserved":false,"is_disabled":false,"rental_uris":{"android":"levelo://app?vid=35f83c08-ebc5-4846-95d6-0036239c76d8","ios":"levelo://app?vid=35f83c08-ebc5-4846-95d6-0036239c76d8"},"vehicle_type_id":"4","last_reported":1730297307,"current_range_meters":33200,"station_id":"ce4bhr92rcd13ifvqhrg","pricing_plan_id":"cebpf4jnsgd1na2vs0mg"},{"bike_id":"b240039e-c50d-4884-bbaf-45c1fe416cf2","system_id":"levelo_inurba_marseille","lat":43.24171,"lon":5.36385,"is_reserved":false,"is_disabled":false,"rental_uris":{"android":"levelo://app?vid=b240039e-c50d-4884-bbaf-45c1fe416cf2","ios":"levelo://app?vid=b240039e-c50d-4884-bbaf-45c1fe416cf2"},"vehicle_type_id":"4","last_reported":1730297307,"current_range_meters":32000,"station_id":"cpo36qri1sfpv3e86is0","pricing_plan_id":"cebpf4jnsgd1na2vs0mg"},{"bike_id":"d1e50aaf-f341-4ca5-97d6-24e2e77da9a9","system_id":"levelo_inurba_marseille","lat":43.28872,"lon":5.35874,"is_reserved":false,"is_disabled":false,"rental_uris":{"android":"levelo://app?vid=d1e50aaf-f341-4ca5-97d6-24e2e77da9a9","ios":"levelo://app?vid=d1e50aaf-f341-4ca5-97d6-24e2e77da9a9"},"vehicle_type_id":"4","last_reported":1730297307,"current_range_meters":25200,"station_id":"ce4bhb12rcd13ifvqem0","pricing_plan_id":"cebpf4jnsgd1na2vs0mg"},{"bike_id":"1fb38e3e-491b-44dd-94bc-a798b0665710","system_id":"levelo_inurba_marseille","lat":43.25504,"lon":5.37654,"is_reserved":false,"is_disabled":false,"rental_uris":{"android":"levelo://app?vid=1fb38e3e-491b-44dd-94bc-a798b0665710","ios":"levelo://app?vid=1fb38e3e-491b-44dd-94bc-a798b0665710"},"vehicle_type_id":"4","last_reported":1730297307,"current_range_meters":33200,"station_id":"ce4bhh12rcd13ifvqff0","pricing_plan_id":"cebpf4jnsgd1na2vs0mg"},{"bike_id":"58ce08b5-61d6-4053-a653-c68db61c2fa6","system_id":"levelo_inurba_marseille","lat":43.23189,"lon":5.39997,"is_reserved":false,"is_disabled":false,"rental_uris":{"android":"levelo://app?vid=58ce08b5-61d6-4053-a653-c68db61c2fa6","ios":"levelo://app?vid=58ce08b5-61d6-4053-a653-c68db61c2fa6"},"vehicle_type_id":"4","last_reported":1730297307,"current_range_meters":9600,"station_id":"ce4bhn12rcd13ifvqgqg","pricing_plan_id":"cebpf4jnsgd1na2vs0mg"},{"bike_id":"cc7063c3-e42c-4577-9948-c8e37ba96af7","system_id":"levelo_inurba_marseille","lat":43.26791,"lon":5.39413,"is_reserved":false,"is_disabled":false,"rental_uris":{"android":"levelo://app?vid=cc7063c3-e42c-4577-9948-c8e37ba96af7","ios":"levelo://app?vid=cc7063c3-e42c-4577-9948-c8e37ba96af7"},"vehicle_type_id":"4","last_reported":1730297307,"current_range_meters":37600,"station_id":"ce4bhh12rcd13ifvqfg0","pricing_plan_id":"cebpf4jnsgd1na2vs0mg"},{"bike_id":"6c16da37-d47e-44b5-97b3-c8d5420351bd","system_id":"levelo_inurba_marseille","lat":43.28677,"lon":5.38658,"is_reserved":false,"is_disabled":false,"rental_uris":{"android":"levelo://app?vid=6c16da37-d47e-44b5-97b3-c8d5420351bd","ios":"levelo://app?vid=6c16da37-d47e-44b5-97b3-c8d5420351bd"},"vehicle_type_id":"4","last_reported":1730297307,"current_range_meters":26000,"station_id":"ce4bh492rcd13ifvqdug","pricing_plan_id":"cebpf4jnsgd1na2vs0mg"},{"bike_id":"fc8a8b80-934e-4729-8982-ed8c2ff44c4b","system_id":"levelo_inurba_marseille","lat":43.309,"lon":5.37207,"is_reserved":false,"is_disabled":false,"rental_uris":{"android":"levelo://app?vid=fc8a8b80-934e-4729-8982-ed8c2ff44c4b","ios":"levelo://app?vid=fc8a8b80-934e-4729-8982-ed8c2ff44c4b"},"vehicle_type_id":"4","last_reported":1730297307,"current_range_meters":37600,"station_id":"ce4bguh2rcd13ifvqckg","pricing_plan_id":"cebpf4jnsgd1na2vs0mg"},{"bike_id":"897b9f0e-fdd3-4e93-9255-82d376a1e549","system_id":"levelo_inurba_marseille","lat":43.32111,"lon":5.36765,"is_reserved":false,"is_disabled":false,"rental_uris":{"android":"levelo://app?vid=897b9f0e-fdd3-4e93-9255-82d376a1e549","ios":"levelo://app?vid=897b9f0e-fdd3-4e93-9255-82d376a1e549"},"vehicle_type_id":"4","last_reported":1730297307,"current_range_meters":33200,"station_id":"ce4bhrh2rcd13ifvqhug","pricing_plan_id":"cebpf4jnsgd1na2vs0mg"},{"bike_id":"c6b8984c-4dca-4296-9a56-9a3d0a2c06e8","system_id":"levelo_inurba_marseille","lat":43.2656,"lon":5.37282,"is_reserved":false,"is_disabled":false,"rental_uris":{"android":"levelo://app?vid=c6b8984c-4dca-4296-9a56-9a3d0a2c06e8","ios":"levelo://app?vid=c6b8984c-4dca-4296-9a56-9a3d0a2c06e8"},"vehicle_type_id":"4","last_reported":1730297307,"current_range_meters":13600,"station_id":"ce4bhg12rcd13ifvqf70","pricing_plan_id":"cebpf4jnsgd1na2vs0mg"},{"bike_id":"88fe0c90-eedb-4e7c-802b-f13a3ca2ae30","system_id":"levelo_inurba_marseille","lat":43.26574,"lon":5.38999,"is_reserved":false,"is_disabled":false,"rental_uris":{"android":"levelo://app?vid=88fe0c90-eedb-4e7c-802b-f13a3ca2ae30","ios":"levelo://app?vid=88fe0c90-eedb-4e7c-802b-f13a3ca2ae30"},"vehicle_type_id":"4","last_reported":1730297307,"current_range_meters":32400,"station_id":"ce4bhe12rcd13ifvqf30","pricing_plan_id":"cebpf4jnsgd1na2vs0mg"},{"bike_id":"caf349c8-ed3b-4304-909b-160d602b00a5","system_id":"levelo_inurba_marseille","lat":43.31699,"lon":5.37757,"is_reserved":false,"is_disabled":false,"rental_uris":{"android":"levelo://app?vid=caf349c8-ed3b-4304-909b-160d602b00a5","ios":"levelo://app?vid=caf349c8-ed3b-4304-909b-160d602b00a5"},"vehicle_type_id":"4","last_reported":1730297307,"current_range_meters":38000,"station_id":"ce4bgth2rcd13ifvqch0","pricing_plan_id":"cebpf4jnsgd1na2vs0mg"},{"bike_id":"8d1620e7-e5ab-4df0-827f-1b7a5189e865","system_id":"levelo_inurba_marseille","lat":43.27999,"lon":5.40007,"is_reserved":false,"is_disabled":false,"rental_uris":{"android":"levelo://app?vid=8d1620e7-e5ab-4df0-827f-1b7a5189e865","ios":"levelo://app?vid=8d1620e7-e5ab-4df0-827f-1b7a5189e865"},"vehicle_type_id":"4","last_reported":1730297307,"current_range_meters":37600,"station_id":"ce4bho92rcd13ifvqh4g","pricing_plan_id":"cebpf4jnsgd1na2vs0mg"},{"bike_id":"82a16fa2-3542-4820-b609-018ed6790cc4","system_id":"levelo_inurba_marseille","lat":43.25576,"lon":5.38231,"is_reserved":false,"is_disabled":false,"rental_uris":{"android":"levelo://app?vid=82a16fa2-3542-4820-b609-018ed6790cc4","ios":"levelo://app?vid=82a16fa2-3542-4820-b609-018ed6790cc4"},"vehicle_type_id":"4","last_reported":1730297307,"current_range_meters":33600,"station_id":"ce4bhih2rcd13ifvqfs0","pricing_plan_id":"cebpf4jnsgd1na2vs0mg"},{"bike_id":"52cefd04-b182-4af1-99d9-598ac2e5d207","system_id":"levelo_inurba_marseille","lat":43.314924,"lon":5.373067,"is_reserved":false,"is_disabled":false,"rental_uris":{"android":"levelo://app?vid=52cefd04-b182-4af1-99d9-598ac2e5d207","ios":"levelo://app?vid=52cefd04-b182-4af1-99d9-598ac2e5d207"},"vehicle_type_id":"4","last_reported":1730297307,"current_range_meters":36800,"station_id":"ce4bgr92rcd13ifvqc6g","pricing_plan_id":"cebpf4jnsgd1na2vs0mg"},{"bike_id":"0cc68399-e4c5-4e56-99fe-6218e60aedcd","system_id":"levelo_inurba_marseille","lat":43.26216,"lon":5.37455,"is_reserved":false,"is_disabled":false,"rental_uris":{"android":"levelo://app?vid=0cc68399-e4c5-4e56-99fe-6218e60aedcd","ios":"levelo://app?vid=0cc68399-e4c5-4e56-99fe-6218e60aedcd"},"vehicle_type_id":"4","last_reported":1730297307,"current_range_meters":38800,"station_id":"ce4bhgp2rcd13ifvqfc0","pricing_plan_id":"cebpf4jnsgd1na2vs0mg"},{"bike_id":"4fa49ede-8558-4037-a453-46fc52b3a78b","system_id":"levelo_inurba_marseille","lat":43.27209,"lon":5.3919,"is_reserved":false,"is_disabled":false,"rental_uris":{"android":"levelo://app?vid=4fa49ede-8558-4037-a453-46fc52b3a78b","ios":"levelo://app?vid=4fa49ede-8558-4037-a453-46fc52b3a78b"},"vehicle_type_id":"4","last_reported":1730297307,"current_range_meters":24400,"station_id":"ce4bhhp2rcd13ifvqfm0","pricing_plan_id":"cebpf4jnsgd1na2vs0mg"},{"bike_id":"3bd430ea-f3a4-406f-95d7-17646a78b140","system_id":"levelo_inurba_marseille","lat":43.28276,"lon":5.35074,"is_reserved":false,"is_disabled":false,"rental_uris":{"android":"levelo://app?vid=3bd430ea-f3a4-406f-95d7-17646a78b140","ios":"levelo://app?vid=3bd430ea-f3a4-406f-95d7-17646a78b140"},"vehicle_type_id":"4","last_reported":1730297307,"current_range_meters":14000,"station_id":"ce4bhbp2rcd13ifvqerg","pricing_plan_id":"cebpf4jnsgd1na2vs0mg"},{"bike_id":"ee8959f1-cd29-4e03-8ebd-8fd830fbd2e7","system_id":"levelo_inurba_marseille","lat":43.24546,"lon":5.3953,"is_reserved":false,"is_disabled":false,"rental_uris":{"android":"levelo://app?vid=ee8959f1-cd29-4e03-8ebd-8fd830fbd2e7","ios":"levelo://app?vid=ee8959f1-cd29-4e03-8ebd-8fd830fbd2e7"},"vehicle_type_id":"4","last_reported":1730297307,"current_range_meters":17600,"station_id":"ce4bhlp2rcd13ifvqgjg","pricing_plan_id":"cebpf4jnsgd1na2vs0mg"},{"bike_id":"65ffe760-06cd-42a5-8ce7-136619d00b87","system_id":"levelo_inurba_marseille","lat":43.2842,"lon":5.34982,"is_reserved":false,"is_disabled":false,"rental_uris":{"android":"levelo://app?vid=65ffe760-06cd-42a5-8ce7-136619d00b87","ios":"levelo://app?vid=65ffe760-06cd-42a5-8ce7-136619d00b87"},"vehicle_type_id":"4","last_reported":1730297307,"current_range_meters":19200,"station_id":"ce4bhbh2rcd13ifvqepg","pricing_plan_id":"cebpf4jnsgd1na2vs0mg"},{"bike_id":"c10934f0-6d82-4666-98d1-922c198ec6f5","system_id":"levelo_inurba_marseille","lat":43.2679,"lon":5.39414,"is_reserved":false,"is_disabled":false,"rental_uris":{"android":"levelo://app?vid=c10934f0-6d82-4666-98d1-922c198ec6f5","ios":"levelo://app?vid=c10934f0-6d82-4666-98d1-922c198ec6f5"},"vehicle_type_id":"4","last_reported":1730297307,"current_range_meters":7200,"station_id":"ce4bhh12rcd13ifvqfg0","pricing_plan_id":"cebpf4jnsgd1na2vs0mg"},{"bike_id":"34630d18-75dd-4aec-9bb1-0ce7aab0afdf","system_id":"levelo_inurba_marseille","lat":43.24663,"lon":5.38163,"is_reserved":false,"is_disabled":false,"rental_uris":{"android":"levelo://app?vid=34630d18-75dd-4aec-9bb1-0ce7aab0afdf","ios":"levelo://app?vid=34630d18-75dd-4aec-9bb1-0ce7aab0afdf"},"vehicle_type_id":"4","last_reported":1730297307,"current_range_meters":38800,"station_id":"ce4bhih2rcd13ifvqfr0","pricing_plan_id":"cebpf4jnsgd1na2vs0mg"},{"bike_id":"4b594160-569c-4ca5-a681-fff412a1c9c5","system_id":"levelo_inurba_marseille","lat":43.30147,"lon":5.3742,"is_reserved":false,"is_disabled":false,"rental_uris":{"android":"levelo://app?vid=4b594160-569c-4ca5-a681-fff412a1c9c5","ios":"levelo://app?vid=4b594160-569c-4ca5-a681-fff412a1c9c5"},"vehicle_type_id":"4","last_reported":1730297307,"current_range_meters":38800,"station_id":"ce4bgs92rcd13ifvqcc0","pricing_plan_id":"cebpf4jnsgd1na2vs0mg"},{"bike_id":"c5ab8f86-3c93-447c-b767-f885bdebd2ff","system_id":"levelo_inurba_marseille","lat":43.27071,"lon":5.42276,"is_reserved":false,"is_disabled":false,"rental_uris":{"android":"levelo://app?vid=c5ab8f86-3c93-447c-b767-f885bdebd2ff","ios":"levelo://app?vid=c5ab8f86-3c93-447c-b767-f885bdebd2ff"},"vehicle_type_id":"4","last_reported":1730297307,"current_range_meters":39200,"station_id":"ce4bhk92rcd13ifvqgb0","pricing_plan_id":"cebpf4jnsgd1na2vs0mg"},{"bike_id":"70bb78fe-4bef-4d56-a833-affc0bdfc9f3","system_id":"levelo_inurba_marseille","lat":43.23193,"lon":5.35565,"is_reserved":false,"is_disabled":false,"rental_uris":{"android":"levelo://app?vid=70bb78fe-4bef-4d56-a833-affc0bdfc9f3","ios":"levelo://app?vid=70bb78fe-4bef-4d56-a833-affc0bdfc9f3"},"vehicle_type_id":"4","last_reported":1730297307,"current_range_meters":38800,"station_id":"ce4bhu92rcd13ifvqi70","pricing_plan_id":"cebpf4jnsgd1na2vs0mg"},{"bike_id":"620b62df-38ed-42be-8085-418b37437f05","system_id":"levelo_inurba_marseille","lat":43.27995,"lon":5.40002,"is_reserved":false,"is_disabled":false,"rental_uris":{"android":"levelo://app?vid=620b62df-38ed-42be-8085-418b37437f05","ios":"levelo://app?vid=620b62df-38ed-42be-8085-418b37437f05"},"vehicle_type_id":"4","last_reported":1730297307,"current_range_meters":20400,"station_id":"ce4bho92rcd13ifvqh4g","pricing_plan_id":"cebpf4jnsgd1na2vs0mg"},{"bike_id":"1bbb7468-3fc8-4805-b304-5b746b4b4ba4","system_id":"levelo_inurba_marseille","lat":43.30538,"lon":5.36551,"is_reserved":false,"is_disabled":false,"rental_uris":{"android":"levelo://app?vid=1bbb7468-3fc8-4805-b304-5b746b4b4ba4","ios":"levelo://app?vid=1bbb7468-3fc8-4805-b304-5b746b4b4ba4"},"vehicle_type_id":"4","last_reported":1730297307,"current_range_meters":11200,"station_id":"ce4bgs12rcd13ifvqcag","pricing_plan_id":"cebpf4jnsgd1na2vs0mg"},{"bike_id":"edc339de-3689-4410-be05-b011d0111c43","system_id":"levelo_inurba_marseille","lat":43.30891,"lon":5.39667,"is_reserved":false,"is_disabled":false,"rental_uris":{"android":"levelo://app?vid=edc339de-3689-4410-be05-b011d0111c43","ios":"levelo://app?vid=edc339de-3689-4410-be05-b011d0111c43"},"vehicle_type_id":"4","last_reported":1730297307,"current_range_meters":36400,"station_id":"ce4bh012rcd13ifvqcv0","pricing_plan_id":"cebpf4jnsgd1na2vs0mg"},{"bike_id":"5c244c3d-8fd7-4c95-b825-2f7fe2f15994","system_id":"levelo_inurba_marseille","lat":43.23193,"lon":5.35545,"is_reserved":false,"is_disabled":false,"rental_uris":{"android":"levelo://app?vid=5c244c3d-8fd7-4c95-b825-2f7fe2f15994","ios":"levelo://app?vid=5c244c3d-8fd7-4c95-b825-2f7fe2f15994"},"vehicle_type_id":"4","last_reported":1730297307,"current_range_meters":38800,"station_id":"ce4bhu92rcd13ifvqi70","pricing_plan_id":"cebpf4jnsgd1na2vs0mg"},{"bike_id":"2f63e501-65c7-4001-a8dc-8f5b7e88d3ef","system_id":"levelo_inurba_marseille","lat":43.27617,"lon":5.36108,"is_reserved":false,"is_disabled":false,"rental_uris":{"android":"levelo://app?vid=2f63e501-65c7-4001-a8dc-8f5b7e88d3ef","ios":"levelo://app?vid=2f63e501-65c7-4001-a8dc-8f5b7e88d3ef"},"vehicle_type_id":"4","last_reported":1730297307,"current_range_meters":26000,"station_id":"ce4bgj92rcd13ifvqbe0","pricing_plan_id":"cebpf4jnsgd1na2vs0mg"},{"bike_id":"7d1fe817-f784-45b3-a7f6-2e79abcfa29c","system_id":"levelo_inurba_marseille","lat":43.337444,"lon":5.374475,"is_reserved":false,"is_disabled":false,"rental_uris":{"android":"levelo://app?vid=7d1fe817-f784-45b3-a7f6-2e79abcfa29c","ios":"levelo://app?vid=7d1fe817-f784-45b3-a7f6-2e79abcfa29c"},"vehicle_type_id":"4","last_reported":1730297307,"current_range_meters":38800,"station_id":"","pricing_plan_id":"cebpf4jnsgd1na2vs0mg"},{"bike_id":"5efd5148-f738-4c82-8164-c1739863b28d","system_id":"levelo_inurba_marseille","lat":43.26941,"lon":5.40252,"is_reserved":false,"is_disabled":false,"rental_uris":{"android":"levelo://app?vid=5efd5148-f738-4c82-8164-c1739863b28d","ios":"levelo://app?vid=5efd5148-f738-4c82-8164-c1739863b28d"},"vehicle_type_id":"4","last_reported":1730297307,"current_range_meters":14800,"station_id":"cjm6bp8fraef2m0cb0m0","pricing_plan_id":"cebpf4jnsgd1na2vs0mg"},{"bike_id":"ec7b34fd-a8fd-4619-a562-8fcffaf2a7b4","system_id":"levelo_inurba_marseille","lat":43.2984,"lon":5.36271,"is_reserved":false,"is_disabled":false,"rental_uris":{"android":"levelo://app?vid=ec7b34fd-a8fd-4619-a562-8fcffaf2a7b4","ios":"levelo://app?vid=ec7b34fd-a8fd-4619-a562-8fcffaf2a7b4"},"vehicle_type_id":"4","last_reported":1730297307,"current_range_meters":12400,"station_id":"ce4bgpp2rcd13ifvqc3g","pricing_plan_id":"cebpf4jnsgd1na2vs0mg"},{"bike_id":"1352da78-da71-4367-b774-6e458f486c56","system_id":"levelo_inurba_marseille","lat":43.2842,"lon":5.34988,"is_reserved":false,"is_disabled":false,"rental_uris":{"android":"levelo://app?vid=1352da78-da71-4367-b774-6e458f486c56","ios":"levelo://app?vid=1352da78-da71-4367-b774-6e458f486c56"},"vehicle_type_id":"4","last_reported":1730297307,"current_range_meters":14400,"station_id":"ce4bhbh2rcd13ifvqepg","pricing_plan_id":"cebpf4jnsgd1na2vs0mg"},{"bike_id":"d27b62e4-e99a-49d8-87b8-99826b82ab55","system_id":"levelo_inurba_marseille","lat":43.34141,"lon":5.40915,"is_reserved":false,"is_disabled":false,"rental_uris":{"android":"levelo://app?vid=d27b62e4-e99a-49d8-87b8-99826b82ab55","ios":"levelo://app?vid=d27b62e4-e99a-49d8-87b8-99826b82ab55"},"vehicle_type_id":"4","last_reported":1730297307,"current_range_meters":38000,"station_id":"ce4bhqh2rcd13ifvqhlg","pricing_plan_id":"cebpf4jnsgd1na2vs0mg"},{"bike_id":"1daaacb1-3ccb-47db-bca4-8266f2e8d67f","system_id":"levelo_inurba_marseille","lat":43.23184,"lon":5.39991,"is_reserved":false,"is_disabled":false,"rental_uris":{"android":"levelo://app?vid=1daaacb1-3ccb-47db-bca4-8266f2e8d67f","ios":"levelo://app?vid=1daaacb1-3ccb-47db-bca4-8266f2e8d67f"},"vehicle_type_id":"4","last_reported":1730297307,"current_range_meters":3600,"station_id":"ce4bhn12rcd13ifvqgqg","pricing_plan_id":"cebpf4jnsgd1na2vs0mg"},{"bike_id":"1a5d5284-46cf-4207-8167-7bfc47014091","system_id":"levelo_inurba_marseille","lat":43.258301,"lon":5.3944,"is_reserved":false,"is_disabled":false,"rental_uris":{"android":"levelo://app?vid=1a5d5284-46cf-4207-8167-7bfc47014091","ios":"levelo://app?vid=1a5d5284-46cf-4207-8167-7bfc47014091"},"vehicle_type_id":"4","last_reported":1730297307,"current_range_meters":12000,"station_id":"ce4bhip2rcd13ifvqft0","pricing_plan_id":"cebpf4jnsgd1na2vs0mg"},{"bike_id":"60d79c1d-8b65-44c4-94ab-95231fcdb905","system_id":"levelo_inurba_marseille","lat":43.31489,"lon":5.37323,"is_reserved":false,"is_disabled":false,"rental_uris":{"android":"levelo://app?vid=60d79c1d-8b65-44c4-94ab-95231fcdb905","ios":"levelo://app?vid=60d79c1d-8b65-44c4-94ab-95231fcdb905"},"vehicle_type_id":"4","last_reported":1730297307,"current_range_meters":38800,"station_id":"ce4bgt12rcd13ifvqcd0","pricing_plan_id":"cebpf4jnsgd1na2vs0mg"},{"bike_id":"92adf987-4779-4b78-ad9c-8e29ab9175f3","system_id":"levelo_inurba_marseille","lat":43.23192,"lon":5.35562,"is_reserved":false,"is_disabled":false,"rental_uris":{"android":"levelo://app?vid=92adf987-4779-4b78-ad9c-8e29ab9175f3","ios":"levelo://app?vid=92adf987-4779-4b78-ad9c-8e29ab9175f3"},"vehicle_type_id":"4","last_reported":1730297307,"current_range_meters":12400,"station_id":"ce4bhu92rcd13ifvqi70","pricing_plan_id":"cebpf4jnsgd1na2vs0mg"},{"bike_id":"114f51b3-4609-40aa-847b-f58a9486d3eb","system_id":"levelo_inurba_marseille","lat":43.310792,"lon":5.378811,"is_reserved":false,"is_disabled":false,"rental_uris":{"android":"levelo://app?vid=114f51b3-4609-40aa-847b-f58a9486d3eb","ios":"levelo://app?vid=114f51b3-4609-40aa-847b-f58a9486d3eb"},"vehicle_type_id":"4","last_reported":1730297307,"current_range_meters":38800,"station_id":"ce4bgt12rcd13ifvqcd0","pricing_plan_id":"cebpf4jnsgd1na2vs0mg"},{"bike_id":"01a7c336-a198-4f0d-b075-7df680f9a2d2","system_id":"levelo_inurba_marseille","lat":43.29843,"lon":5.36279,"is_reserved":false,"is_disabled":false,"rental_uris":{"android":"levelo://app?vid=01a7c336-a198-4f0d-b075-7df680f9a2d2","ios":"levelo://app?vid=01a7c336-a198-4f0d-b075-7df680f9a2d2"},"vehicle_type_id":"4","last_reported":1730297307,"current_range_meters":37600,"station_id":"ce4bgpp2rcd13ifvqc3g","pricing_plan_id":"cebpf4jnsgd1na2vs0mg"},{"bike_id":"ce2310f1-0848-4180-8bb1-c79c12d253ca","system_id":"levelo_inurba_marseille","lat":43.337444,"lon":5.374475,"is_reserved":false,"is_disabled":false,"rental_uris":{"android":"levelo://app?vid=ce2310f1-0848-4180-8bb1-c79c12d253ca","ios":"levelo://app?vid=ce2310f1-0848-4180-8bb1-c79c12d253ca"},"vehicle_type_id":"4","last_reported":1730297307,"current_range_meters":36400,"station_id":"","pricing_plan_id":"cebpf4jnsgd1na2vs0mg"},{"bike_id":"c183b6d2-5c7b-423a-afba-99bcd5511652","system_id":"levelo_inurba_marseille","lat":43.29715,"lon":5.36621,"is_reserved":false,"is_disabled":false,"rental_uris":{"android":"levelo://app?vid=c183b6d2-5c7b-423a-afba-99bcd5511652","ios":"levelo://app?vid=c183b6d2-5c7b-423a-afba-99bcd5511652"},"vehicle_type_id":"4","last_reported":1730297307,"current_range_meters":39200,"station_id":"ce4bgn12rcd13ifvqbt0","pricing_plan_id":"cebpf4jnsgd1na2vs0mg"},{"bike_id":"b553a01a-edb0-4c29-8701-976eb8ec49f5","system_id":"levelo_inurba_marseille","lat":43.28616,"lon":5.35104,"is_reserved":false,"is_disabled":false,"rental_uris":{"android":"levelo://app?vid=b553a01a-edb0-4c29-8701-976eb8ec49f5","ios":"levelo://app?vid=b553a01a-edb0-4c29-8701-976eb8ec49f5"},"vehicle_type_id":"4","last_reported":1730297307,"current_range_meters":9600,"station_id":"ce4bhch2rcd13ifvqeug","pricing_plan_id":"cebpf4jnsgd1na2vs0mg"},{"bike_id":"2f1c4426-f310-402d-b1c8-cfa2fb98b436","system_id":"levelo_inurba_marseille","lat":43.28107,"lon":5.37843,"is_reserved":false,"is_disabled":false,"rental_uris":{"android":"levelo://app?vid=2f1c4426-f310-402d-b1c8-cfa2fb98b436","ios":"levelo://app?vid=2f1c4426-f310-402d-b1c8-cfa2fb98b436"},"vehicle_type_id":"4","last_reported":1730297307,"current_range_meters":35600,"station_id":"ce4bha12rcd13ifvqee0","pricing_plan_id":"cebpf4jnsgd1na2vs0mg"},{"bike_id":"f401c4c4-9de6-49bd-bb2c-c9f8ce0cc77d","system_id":"levelo_inurba_marseille","lat":43.30256,"lon":5.40082,"is_reserved":false,"is_disabled":false,"rental_uris":{"android":"levelo://app?vid=f401c4c4-9de6-49bd-bb2c-c9f8ce0cc77d","ios":"levelo://app?vid=f401c4c4-9de6-49bd-bb2c-c9f8ce0cc77d"},"vehicle_type_id":"4","last_reported":1730297307,"current_range_meters":31200,"station_id":"ce4bgvh2rcd13ifvqcs0","pricing_plan_id":"cebpf4jnsgd1na2vs0mg"},{"bike_id":"269a4193-03a6-4fe1-93c0-2b8610ca1e7f","system_id":"levelo_inurba_marseille","lat":43.24393,"lon":5.37054,"is_reserved":false,"is_disabled":false,"rental_uris":{"android":"levelo://app?vid=269a4193-03a6-4fe1-93c0-2b8610ca1e7f","ios":"levelo://app?vid=269a4193-03a6-4fe1-93c0-2b8610ca1e7f"},"vehicle_type_id":"4","last_reported":1730297307,"current_range_meters":17600,"station_id":"ce4bhhh2rcd13ifvqfk0","pricing_plan_id":"cebpf4jnsgd1na2vs0mg"},{"bike_id":"402ccdbe-675b-4fa5-85ab-25efed180ee5","system_id":"levelo_inurba_marseille","lat":43.26209,"lon":5.37931,"is_reserved":false,"is_disabled":false,"rental_uris":{"android":"levelo://app?vid=402ccdbe-675b-4fa5-85ab-25efed180ee5","ios":"levelo://app?vid=402ccdbe-675b-4fa5-85ab-25efed180ee5"},"vehicle_type_id":"4","last_reported":1730297307,"current_range_meters":4400,"station_id":"ce4bhjp2rcd13ifvqg90","pricing_plan_id":"cebpf4jnsgd1na2vs0mg"},{"bike_id":"ec6bf2c6-81ba-4965-828b-92e734ee6e46","system_id":"levelo_inurba_marseille","lat":43.2319,"lon":5.35556,"is_reserved":false,"is_disabled":false,"rental_uris":{"android":"levelo://app?vid=ec6bf2c6-81ba-4965-828b-92e734ee6e46","ios":"levelo://app?vid=ec6bf2c6-81ba-4965-828b-92e734ee6e46"},"vehicle_type_id":"4","last_reported":1730297307,"current_range_meters":35600,"station_id":"ce4bhu92rcd13ifvqi70","pricing_plan_id":"cebpf4jnsgd1na2vs0mg"},{"bike_id":"3e64f75e-e52d-4215-844e-c5d16be53929","system_id":"levelo_inurba_marseille","lat":43.29878,"lon":5.39732,"is_reserved":false,"is_disabled":false,"rental_uris":{"android":"levelo://app?vid=3e64f75e-e52d-4215-844e-c5d16be53929","ios":"levelo://app?vid=3e64f75e-e52d-4215-844e-c5d16be53929"},"vehicle_type_id":"4","last_reported":1730297307,"current_range_meters":38800,"station_id":"ce4bh0h2rcd13ifvqd50","pricing_plan_id":"cebpf4jnsgd1na2vs0mg"},{"bike_id":"3fd24929-a0bf-45d6-b8ea-9a33fb4f3e8f","system_id":"levelo_inurba_marseille","lat":43.261972,"lon":5.374468,"is_reserved":false,"is_disabled":false,"rental_uris":{"android":"levelo://app?vid=3fd24929-a0bf-45d6-b8ea-9a33fb4f3e8f","ios":"levelo://app?vid=3fd24929-a0bf-45d6-b8ea-9a33fb4f3e8f"},"vehicle_type_id":"4","last_reported":1730297307,"current_range_meters":26000,"station_id":"ce4bhgp2rcd13ifvqfc0","pricing_plan_id":"cebpf4jnsgd1na2vs0mg"},{"bike_id":"d7012743-7323-4d36-a6a0-94c8a1e5fc2c","system_id":"levelo_inurba_marseille","lat":43.28423,"lon":5.34994,"is_reserved":false,"is_disabled":false,"rental_uris":{"android":"levelo://app?vid=d7012743-7323-4d36-a6a0-94c8a1e5fc2c","ios":"levelo://app?vid=d7012743-7323-4d36-a6a0-94c8a1e5fc2c"},"vehicle_type_id":"4","last_reported":1730297307,"current_range_meters":38800,"station_id":"ce4bhbh2rcd13ifvqepg","pricing_plan_id":"cebpf4jnsgd1na2vs0mg"},{"bike_id":"8854b262-c57a-4da0-b384-e5bfcb09b3d1","system_id":"levelo_inurba_marseille","lat":43.28971,"lon":5.37841,"is_reserved":false,"is_disabled":false,"rental_uris":{"android":"levelo://app?vid=8854b262-c57a-4da0-b384-e5bfcb09b3d1","ios":"levelo://app?vid=8854b262-c57a-4da0-b384-e5bfcb09b3d1"},"vehicle_type_id":"4","last_reported":1730297307,"current_range_meters":33600,"station_id":"ce4bh9p2rcd13ifvqed0","pricing_plan_id":"cebpf4jnsgd1na2vs0mg"},{"bike_id":"cf4de1bc-890e-4482-b8fc-121976538360","system_id":"levelo_inurba_marseille","lat":43.29193,"lon":5.39319,"is_reserved":false,"is_disabled":false,"rental_uris":{"android":"levelo://app?vid=cf4de1bc-890e-4482-b8fc-121976538360","ios":"levelo://app?vid=cf4de1bc-890e-4482-b8fc-121976538360"},"vehicle_type_id":"4","last_reported":1730297307,"current_range_meters":22400,"station_id":"ce4bh192rcd13ifvqdd0","pricing_plan_id":"cebpf4jnsgd1na2vs0mg"},{"bike_id":"8b45daa8-6bb8-4296-9872-cd10867d1db0","system_id":"levelo_inurba_marseille","lat":43.31362,"lon":5.36703,"is_reserved":false,"is_disabled":false,"rental_uris":{"android":"levelo://app?vid=8b45daa8-6bb8-4296-9872-cd10867d1db0","ios":"levelo://app?vid=8b45daa8-6bb8-4296-9872-cd10867d1db0"},"vehicle_type_id":"4","last_reported":1730297307,"current_range_meters":38800,"station_id":"ce4bgr92rcd13ifvqc6g","pricing_plan_id":"cebpf4jnsgd1na2vs0mg"},{"bike_id":"428f9105-f204-488a-9b8e-40a20f279066","system_id":"levelo_inurba_marseille","lat":43.29882,"lon":5.39743,"is_reserved":false,"is_disabled":false,"rental_uris":{"android":"levelo://app?vid=428f9105-f204-488a-9b8e-40a20f279066","ios":"levelo://app?vid=428f9105-f204-488a-9b8e-40a20f279066"},"vehicle_type_id":"4","last_reported":1730297307,"current_range_meters":38800,"station_id":"ce4bh0h2rcd13ifvqd50","pricing_plan_id":"cebpf4jnsgd1na2vs0mg"},{"bike_id":"74beb005-1318-449f-8e05-7601aa953b04","system_id":"levelo_inurba_marseille","lat":43.30594,"lon":5.39373,"is_reserved":false,"is_disabled":false,"rental_uris":{"android":"levelo://app?vid=74beb005-1318-449f-8e05-7601aa953b04","ios":"levelo://app?vid=74beb005-1318-449f-8e05-7601aa953b04"},"vehicle_type_id":"4","last_reported":1730297307,"current_range_meters":17200,"station_id":"ce4bh0p2rcd13ifvqd80","pricing_plan_id":"cebpf4jnsgd1na2vs0mg"},{"bike_id":"5058221a-106c-4738-91d8-0e0e2a79e832","system_id":"levelo_inurba_marseille","lat":43.30899,"lon":5.37198,"is_reserved":false,"is_disabled":false,"rental_uris":{"android":"levelo://app?vid=5058221a-106c-4738-91d8-0e0e2a79e832","ios":"levelo://app?vid=5058221a-106c-4738-91d8-0e0e2a79e832"},"vehicle_type_id":"4","last_reported":1730297307,"current_range_meters":36000,"station_id":"ce4bguh2rcd13ifvqckg","pricing_plan_id":"cebpf4jnsgd1na2vs0mg"},{"bike_id":"c7fb082d-ee6c-488a-84cb-589d7a8e411b","system_id":"levelo_inurba_marseille","lat":43.23189,"lon":5.3554,"is_reserved":false,"is_disabled":false,"rental_uris":{"android":"levelo://app?vid=c7fb082d-ee6c-488a-84cb-589d7a8e411b","ios":"levelo://app?vid=c7fb082d-ee6c-488a-84cb-589d7a8e411b"},"vehicle_type_id":"4","last_reported":1730297307,"current_range_meters":25200,"station_id":"ce4bhu92rcd13ifvqi70","pricing_plan_id":"cebpf4jnsgd1na2vs0mg"},{"bike_id":"b71caefc-cf12-410b-883b-06cf0b7aeb16","system_id":"levelo_inurba_marseille","lat":43.28613,"lon":5.35107,"is_reserved":false,"is_disabled":false,"rental_uris":{"android":"levelo://app?vid=b71caefc-cf12-410b-883b-06cf0b7aeb16","ios":"levelo://app?vid=b71caefc-cf12-410b-883b-06cf0b7aeb16"},"vehicle_type_id":"4","last_reported":1730297307,"current_range_meters":24800,"station_id":"ce4bhch2rcd13ifvqeug","pricing_plan_id":"cebpf4jnsgd1na2vs0mg"},{"bike_id":"38b8d321-8fd9-4111-be22-688ce65298c2","system_id":"levelo_inurba_marseille","lat":43.26573,"lon":5.39019,"is_reserved":false,"is_disabled":false,"rental_uris":{"android":"levelo://app?vid=38b8d321-8fd9-4111-be22-688ce65298c2","ios":"levelo://app?vid=38b8d321-8fd9-4111-be22-688ce65298c2"},"vehicle_type_id":"4","last_reported":1730297307,"current_range_meters":22400,"station_id":"ce4bhe12rcd13ifvqf30","pricing_plan_id":"cebpf4jnsgd1na2vs0mg"},{"bike_id":"77435c07-a404-440f-b5dc-eb1e0980b008","system_id":"levelo_inurba_marseille","lat":43.24391,"lon":5.37056,"is_reserved":false,"is_disabled":false,"rental_uris":{"android":"levelo://app?vid=77435c07-a404-440f-b5dc-eb1e0980b008","ios":"levelo://app?vid=77435c07-a404-440f-b5dc-eb1e0980b008"},"vehicle_type_id":"4","last_reported":1730297307,"current_range_meters":8800,"station_id":"ce4bhhh2rcd13ifvqfk0","pricing_plan_id":"cebpf4jnsgd1na2vs0mg"},{"bike_id":"2370a04e-d358-4a29-b67a-890bf50b34fd","system_id":"levelo_inurba_marseille","lat":43.24171,"lon":5.36403,"is_reserved":false,"is_disabled":false,"rental_uris":{"android":"levelo://app?vid=2370a04e-d358-4a29-b67a-890bf50b34fd","ios":"levelo://app?vid=2370a04e-d358-4a29-b67a-890bf50b34fd"},"vehicle_type_id":"4","last_reported":1730297307,"current_range_meters":6800,"station_id":"cpo36qri1sfpv3e86is0","pricing_plan_id":"cebpf4jnsgd1na2vs0mg"},{"bike_id":"5a3470ac-7831-4bac-92a0-8fcf659d9633","system_id":"levelo_inurba_marseille","lat":43.29921,"lon":5.3747,"is_reserved":false,"is_disabled":false,"rental_uris":{"android":"levelo://app?vid=5a3470ac-7831-4bac-92a0-8fcf659d9633","ios":"levelo://app?vid=5a3470ac-7831-4bac-92a0-8fcf659d9633"},"vehicle_type_id":"4","last_reported":1730297307,"current_range_meters":39200,"station_id":"ce4bgjh2rcd13ifvqbg0","pricing_plan_id":"cebpf4jnsgd1na2vs0mg"},{"bike_id":"538c6c97-8738-4e40-afde-1ced2fc6b778","system_id":"levelo_inurba_marseille","lat":43.33717,"lon":5.39181,"is_reserved":false,"is_disabled":false,"rental_uris":{"android":"levelo://app?vid=538c6c97-8738-4e40-afde-1ced2fc6b778","ios":"levelo://app?vid=538c6c97-8738-4e40-afde-1ced2fc6b778"},"vehicle_type_id":"4","last_reported":1730297307,"current_range_meters":36400,"station_id":"ce4bhr92rcd13ifvqhsg","pricing_plan_id":"cebpf4jnsgd1na2vs0mg"},{"bike_id":"0f6b3a97-49df-402f-92fc-9ef040541e07","system_id":"levelo_inurba_marseille","lat":43.231987,"lon":5.355583,"is_reserved":false,"is_disabled":false,"rental_uris":{"android":"levelo://app?vid=0f6b3a97-49df-402f-92fc-9ef040541e07","ios":"levelo://app?vid=0f6b3a97-49df-402f-92fc-9ef040541e07"},"vehicle_type_id":"4","last_reported":1730297307,"current_range_meters":25200,"station_id":"ce4bhu92rcd13ifvqi70","pricing_plan_id":"cebpf4jnsgd1na2vs0mg"},{"bike_id":"8cc8b0ff-bb01-4ce0-b5d9-2d3234179bc1","system_id":"levelo_inurba_marseille","lat":43.31351,"lon":5.367,"is_reserved":false,"is_disabled":false,"rental_uris":{"android":"levelo://app?vid=8cc8b0ff-bb01-4ce0-b5d9-2d3234179bc1","ios":"levelo://app?vid=8cc8b0ff-bb01-4ce0-b5d9-2d3234179bc1"},"vehicle_type_id":"4","last_reported":1730297307,"current_range_meters":6800,"station_id":"ce4bgr92rcd13ifvqc6g","pricing_plan_id":"cebpf4jnsgd1na2vs0mg"},{"bike_id":"03e26363-1adc-494c-8098-91070571fba5","system_id":"levelo_inurba_marseille","lat":43.23194,"lon":5.35551,"is_reserved":false,"is_disabled":false,"rental_uris":{"android":"levelo://app?vid=03e26363-1adc-494c-8098-91070571fba5","ios":"levelo://app?vid=03e26363-1adc-494c-8098-91070571fba5"},"vehicle_type_id":"4","last_reported":1730297307,"current_range_meters":30400,"station_id":"ce4bhu92rcd13ifvqi70","pricing_plan_id":"cebpf4jnsgd1na2vs0mg"},{"bike_id":"c497513d-9d1d-4320-a1e3-875a8b21d4c5","system_id":"levelo_inurba_marseille","lat":43.27172,"lon":5.40993,"is_reserved":false,"is_disabled":false,"rental_uris":{"android":"levelo://app?vid=c497513d-9d1d-4320-a1e3-875a8b21d4c5","ios":"levelo://app?vid=c497513d-9d1d-4320-a1e3-875a8b21d4c5"},"vehicle_type_id":"4","last_reported":1730297307,"current_range_meters":38400,"station_id":"ce4bhl12rcd13ifvqgf0","pricing_plan_id":"cebpf4jnsgd1na2vs0mg"},{"bike_id":"9f314017-c3ea-41ba-802e-dd66070517ac","system_id":"levelo_inurba_marseille","lat":43.28571,"lon":5.39498,"is_reserved":false,"is_disabled":false,"rental_uris":{"android":"levelo://app?vid=9f314017-c3ea-41ba-802e-dd66070517ac","ios":"levelo://app?vid=9f314017-c3ea-41ba-802e-dd66070517ac"},"vehicle_type_id":"4","last_reported":1730297307,"current_range_meters":4400,"station_id":"ce4bh292rcd13ifvqdg0","pricing_plan_id":"cebpf4jnsgd1na2vs0mg"},{"bike_id":"81e191dc-36a3-4dd3-a48a-138cae2d571f","system_id":"levelo_inurba_marseille","lat":43.23152,"lon":5.43708,"is_reserved":false,"is_disabled":false,"rental_uris":{"android":"levelo://app?vid=81e191dc-36a3-4dd3-a48a-138cae2d571f","ios":"levelo://app?vid=81e191dc-36a3-4dd3-a48a-138cae2d571f"},"vehicle_type_id":"4","last_reported":1730297307,"current_range_meters":38800,"station_id":"ce4bhmp2rcd13ifvqgog","pricing_plan_id":"cebpf4jnsgd1na2vs0mg"},{"bike_id":"e9141b44-30ab-459c-94b2-99dbe6b7a845","system_id":"levelo_inurba_marseille","lat":43.2955,"lon":5.42284,"is_reserved":false,"is_disabled":false,"rental_uris":{"android":"levelo://app?vid=e9141b44-30ab-459c-94b2-99dbe6b7a845","ios":"levelo://app?vid=e9141b44-30ab-459c-94b2-99dbe6b7a845"},"vehicle_type_id":"4","last_reported":1730297307,"current_range_meters":36400,"station_id":"ce4bhph2rcd13ifvqhdg","pricing_plan_id":"cebpf4jnsgd1na2vs0mg"},{"bike_id":"28de54ce-5fc5-46ae-b20b-432d9ecf7098","system_id":"levelo_inurba_marseille","lat":43.32542,"lon":5.41465,"is_reserved":false,"is_disabled":false,"rental_uris":{"android":"levelo://app?vid=28de54ce-5fc5-46ae-b20b-432d9ecf7098","ios":"levelo://app?vid=28de54ce-5fc5-46ae-b20b-432d9ecf7098"},"vehicle_type_id":"4","last_reported":1730297307,"current_range_meters":32000,"station_id":"ce4bhq12rcd13ifvqhhg","pricing_plan_id":"cebpf4jnsgd1na2vs0mg"},{"bike_id":"8fc8f69f-228e-4754-8013-e3713d197b92","system_id":"levelo_inurba_marseille","lat":43.24664,"lon":5.38166,"is_reserved":false,"is_disabled":false,"rental_uris":{"android":"levelo://app?vid=8fc8f69f-228e-4754-8013-e3713d197b92","ios":"levelo://app?vid=8fc8f69f-228e-4754-8013-e3713d197b92"},"vehicle_type_id":"4","last_reported":1730297307,"current_range_meters":38800,"station_id":"ce4bhih2rcd13ifvqfr0","pricing_plan_id":"cebpf4jnsgd1na2vs0mg"},{"bike_id":"bb2a7d96-9d28-4524-aeb4-a1488923c01a","system_id":"levelo_inurba_marseille","lat":43.30151,"lon":5.38102,"is_reserved":false,"is_disabled":false,"rental_uris":{"android":"levelo://app?vid=bb2a7d96-9d28-4524-aeb4-a1488923c01a","ios":"levelo://app?vid=bb2a7d96-9d28-4524-aeb4-a1488923c01a"},"vehicle_type_id":"4","last_reported":1730297307,"current_range_meters":38800,"station_id":"ce4bgjp2rcd13ifvqbh0","pricing_plan_id":"cebpf4jnsgd1na2vs0mg"},{"bike_id":"a306c469-7544-4489-af82-e9fb1e9b4215","system_id":"levelo_inurba_marseille","lat":43.23172,"lon":5.39979,"is_reserved":false,"is_disabled":false,"rental_uris":{"android":"levelo://app?vid=a306c469-7544-4489-af82-e9fb1e9b4215","ios":"levelo://app?vid=a306c469-7544-4489-af82-e9fb1e9b4215"},"vehicle_type_id":"4","last_reported":1730297307,"current_range_meters":38800,"station_id":"ce4bhn12rcd13ifvqgqg","pricing_plan_id":"cebpf4jnsgd1na2vs0mg"},{"bike_id":"4b0a2d83-9fc3-45a1-a446-1c0d3aed4969","system_id":"levelo_inurba_marseille","lat":43.299238,"lon":5.374755,"is_reserved":false,"is_disabled":false,"rental_uris":{"android":"levelo://app?vid=4b0a2d83-9fc3-45a1-a446-1c0d3aed4969","ios":"levelo://app?vid=4b0a2d83-9fc3-45a1-a446-1c0d3aed4969"},"vehicle_type_id":"4","last_reported":1730297307,"current_range_meters":14400,"station_id":"ce4bgjh2rcd13ifvqbg0","pricing_plan_id":"cebpf4jnsgd1na2vs0mg"},{"bike_id":"93ba6c92-76d2-41f4-b00e-eb6938cf032b","system_id":"levelo_inurba_marseille","lat":43.26213,"lon":5.37444,"is_reserved":false,"is_disabled":false,"rental_uris":{"android":"levelo://app?vid=93ba6c92-76d2-41f4-b00e-eb6938cf032b","ios":"levelo://app?vid=93ba6c92-76d2-41f4-b00e-eb6938cf032b"},"vehicle_type_id":"4","last_reported":1730297307,"current_range_meters":25200,"station_id":"ce4bhgp2rcd13ifvqfc0","pricing_plan_id":"cebpf4jnsgd1na2vs0mg"},{"bike_id":"011a7ac8-55ea-42d9-88db-95bc58a6a930","system_id":"levelo_inurba_marseille","lat":43.29875,"lon":5.39748,"is_reserved":false,"is_disabled":false,"rental_uris":{"android":"levelo://app?vid=011a7ac8-55ea-42d9-88db-95bc58a6a930","ios":"levelo://app?vid=011a7ac8-55ea-42d9-88db-95bc58a6a930"},"vehicle_type_id":"4","last_reported":1730297307,"current_range_meters":31200,"station_id":"ce4bh0h2rcd13ifvqd50","pricing_plan_id":"cebpf4jnsgd1na2vs0mg"},{"bike_id":"1227515d-aad5-4967-97a9-593807ddcec3","system_id":"levelo_inurba_marseille","lat":43.2828,"lon":5.35081,"is_reserved":false,"is_disabled":false,"rental_uris":{"android":"levelo://app?vid=1227515d-aad5-4967-97a9-593807ddcec3","ios":"levelo://app?vid=1227515d-aad5-4967-97a9-593807ddcec3"},"vehicle_type_id":"4","last_reported":1730297307,"current_range_meters":17600,"station_id":"ce4bhbp2rcd13ifvqerg","pricing_plan_id":"cebpf4jnsgd1na2vs0mg"},{"bike_id":"6a4f9e02-058f-4536-8158-5f6b1a572f01","system_id":"levelo_inurba_marseille","lat":43.31115,"lon":5.37757,"is_reserved":false,"is_disabled":false,"rental_uris":{"android":"levelo://app?vid=6a4f9e02-058f-4536-8158-5f6b1a572f01","ios":"levelo://app?vid=6a4f9e02-058f-4536-8158-5f6b1a572f01"},"vehicle_type_id":"4","last_reported":1730297307,"current_range_meters":33600,"station_id":"ce4bgt92rcd13ifvqcg0","pricing_plan_id":"cebpf4jnsgd1na2vs0mg"},{"bike_id":"6fcc4378-2b83-4181-a7f6-db7fe6ec4c02","system_id":"levelo_inurba_marseille","lat":43.29261,"lon":5.38447,"is_reserved":false,"is_disabled":false,"rental_uris":{"android":"levelo://app?vid=6fcc4378-2b83-4181-a7f6-db7fe6ec4c02","ios":"levelo://app?vid=6fcc4378-2b83-4181-a7f6-db7fe6ec4c02"},"vehicle_type_id":"4","last_reported":1730297307,"current_range_meters":38800,"station_id":"ce4bh692rcd13ifvqea0","pricing_plan_id":"cebpf4jnsgd1na2vs0mg"},{"bike_id":"b659419b-c576-4cb7-bd73-6f06f8dc9fd1","system_id":"levelo_inurba_marseille","lat":43.28566,"lon":5.35072,"is_reserved":false,"is_disabled":false,"rental_uris":{"android":"levelo://app?vid=b659419b-c576-4cb7-bd73-6f06f8dc9fd1","ios":"levelo://app?vid=b659419b-c576-4cb7-bd73-6f06f8dc9fd1"},"vehicle_type_id":"4","last_reported":1730297307,"current_range_meters":27600,"station_id":"ce4bgt12rcd13ifvqcd0","pricing_plan_id":"cebpf4jnsgd1na2vs0mg"},{"bike_id":"9c28f2bc-4e6c-40ab-905e-4525a9d36cb1","system_id":"levelo_inurba_marseille","lat":43.30908,"lon":5.36854,"is_reserved":false,"is_disabled":false,"rental_uris":{"android":"levelo://app?vid=9c28f2bc-4e6c-40ab-905e-4525a9d36cb1","ios":"levelo://app?vid=9c28f2bc-4e6c-40ab-905e-4525a9d36cb1"},"vehicle_type_id":"4","last_reported":1730297307,"current_range_meters":35600,"station_id":"ce4bgn92rcd13ifvqbvg","pricing_plan_id":"cebpf4jnsgd1na2vs0mg"},{"bike_id":"0de14b46-eb12-4146-bf97-38ea9d283f6d","system_id":"levelo_inurba_marseille","lat":43.26217,"lon":5.37442,"is_reserved":false,"is_disabled":false,"rental_uris":{"android":"levelo://app?vid=0de14b46-eb12-4146-bf97-38ea9d283f6d","ios":"levelo://app?vid=0de14b46-eb12-4146-bf97-38ea9d283f6d"},"vehicle_type_id":"4","last_reported":1730297307,"current_range_meters":18000,"station_id":"ce4bhgp2rcd13ifvqfc0","pricing_plan_id":"cebpf4jnsgd1na2vs0mg"},{"bike_id":"f46fe835-0114-4a40-939c-83122c92bb0c","system_id":"levelo_inurba_marseille","lat":43.33761,"lon":5.3745,"is_reserved":false,"is_disabled":false,"rental_uris":{"android":"levelo://app?vid=f46fe835-0114-4a40-939c-83122c92bb0c","ios":"levelo://app?vid=f46fe835-0114-4a40-939c-83122c92bb0c"},"vehicle_type_id":"4","last_reported":1730297307,"current_range_meters":28800,"station_id":"","pricing_plan_id":"cebpf4jnsgd1na2vs0mg"},{"bike_id":"ba7945cd-b1c9-49ae-a05d-e3eca1105fac","system_id":"levelo_inurba_marseille","lat":43.29003,"lon":5.35616,"is_reserved":false,"is_disabled":false,"rental_uris":{"android":"levelo://app?vid=ba7945cd-b1c9-49ae-a05d-e3eca1105fac","ios":"levelo://app?vid=ba7945cd-b1c9-49ae-a05d-e3eca1105fac"},"vehicle_type_id":"4","last_reported":1730297307,"current_range_meters":25200,"station_id":"ce4bhb92rcd13ifvqen0","pricing_plan_id":"cebpf4jnsgd1na2vs0mg"},{"bike_id":"a64c4bd1-0283-471c-9ad4-96f8bc63ef8b","system_id":"levelo_inurba_marseille","lat":43.3248,"lon":5.36578,"is_reserved":false,"is_disabled":false,"rental_uris":{"android":"levelo://app?vid=a64c4bd1-0283-471c-9ad4-96f8bc63ef8b","ios":"levelo://app?vid=a64c4bd1-0283-471c-9ad4-96f8bc63ef8b"},"vehicle_type_id":"4","last_reported":1730297307,"current_range_meters":24400,"station_id":"ce4bhs12rcd13ifvqhvg","pricing_plan_id":"cebpf4jnsgd1na2vs0mg"},{"bike_id":"f5a9b3a1-ef57-46c5-bf9f-2576381ae254","system_id":"levelo_inurba_marseille","lat":43.29371,"lon":5.37837,"is_reserved":false,"is_disabled":false,"rental_uris":{"android":"levelo://app?vid=f5a9b3a1-ef57-46c5-bf9f-2576381ae254","ios":"levelo://app?vid=f5a9b3a1-ef57-46c5-bf9f-2576381ae254"},"vehicle_type_id":"4","last_reported":1730297307,"current_range_meters":35200,"station_id":"ce4bgjh2rcd13ifvqbf0","pricing_plan_id":"cebpf4jnsgd1na2vs0mg"},{"bike_id":"e96e213c-c911-40f6-ad71-5e7ad1bbc3aa","system_id":"levelo_inurba_marseille","lat":43.28611,"lon":5.351,"is_reserved":false,"is_disabled":false,"rental_uris":{"android":"levelo://app?vid=e96e213c-c911-40f6-ad71-5e7ad1bbc3aa","ios":"levelo://app?vid=e96e213c-c911-40f6-ad71-5e7ad1bbc3aa"},"vehicle_type_id":"4","last_reported":1730297307,"current_range_meters":4000,"station_id":"ce4bhch2rcd13ifvqeug","pricing_plan_id":"cebpf4jnsgd1na2vs0mg"},{"bike_id":"2d27dfdd-09e5-4031-a8e5-71d7eefc8139","system_id":"levelo_inurba_marseille","lat":43.27209,"lon":5.3918,"is_reserved":false,"is_disabled":false,"rental_uris":{"android":"levelo://app?vid=2d27dfdd-09e5-4031-a8e5-71d7eefc8139","ios":"levelo://app?vid=2d27dfdd-09e5-4031-a8e5-71d7eefc8139"},"vehicle_type_id":"4","last_reported":1730297307,"current_range_meters":14400,"station_id":"ce4bhhp2rcd13ifvqfm0","pricing_plan_id":"cebpf4jnsgd1na2vs0mg"},{"bike_id":"41eadd19-23e6-431b-bfdc-bd3f60aa698e","system_id":"levelo_inurba_marseille","lat":43.3133,"lon":5.39695,"is_reserved":false,"is_disabled":false,"rental_uris":{"android":"levelo://app?vid=41eadd19-23e6-431b-bfdc-bd3f60aa698e","ios":"levelo://app?vid=41eadd19-23e6-431b-bfdc-bd3f60aa698e"},"vehicle_type_id":"4","last_reported":1730297307,"current_range_meters":37600,"station_id":"ce4bgvp2rcd13ifvqcu0","pricing_plan_id":"cebpf4jnsgd1na2vs0mg"},{"bike_id":"92a0cdb5-b3e6-471e-ab89-c2b39b5e76d8","system_id":"levelo_inurba_marseille","lat":43.31352,"lon":5.36718,"is_reserved":false,"is_disabled":false,"rental_uris":{"android":"levelo://app?vid=92a0cdb5-b3e6-471e-ab89-c2b39b5e76d8","ios":"levelo://app?vid=92a0cdb5-b3e6-471e-ab89-c2b39b5e76d8"},"vehicle_type_id":"4","last_reported":1730297307,"current_range_meters":28800,"station_id":"ce4bgr92rcd13ifvqc6g","pricing_plan_id":"cebpf4jnsgd1na2vs0mg"},{"bike_id":"87deb56d-9fdf-4738-812a-5bd2bd7cc716","system_id":"levelo_inurba_marseille","lat":43.28421,"lon":5.34992,"is_reserved":false,"is_disabled":false,"rental_uris":{"android":"levelo://app?vid=87deb56d-9fdf-4738-812a-5bd2bd7cc716","ios":"levelo://app?vid=87deb56d-9fdf-4738-812a-5bd2bd7cc716"},"vehicle_type_id":"4","last_reported":1730297307,"current_range_meters":38800,"station_id":"ce4bhbh2rcd13ifvqepg","pricing_plan_id":"cebpf4jnsgd1na2vs0mg"},{"bike_id":"8f9da3e0-9bde-444e-99e0-327773e3853b","system_id":"levelo_inurba_marseille","lat":43.2827,"lon":5.35079,"is_reserved":false,"is_disabled":false,"rental_uris":{"android":"levelo://app?vid=8f9da3e0-9bde-444e-99e0-327773e3853b","ios":"levelo://app?vid=8f9da3e0-9bde-444e-99e0-327773e3853b"},"vehicle_type_id":"4","last_reported":1730297307,"current_range_meters":28800,"station_id":"ce4bhbp2rcd13ifvqerg","pricing_plan_id":"cebpf4jnsgd1na2vs0mg"},{"bike_id":"cf92157a-d4d3-409a-a6cc-72e8a2a8f689","system_id":"levelo_inurba_marseille","lat":43.27888,"lon":5.38013,"is_reserved":false,"is_disabled":false,"rental_uris":{"android":"levelo://app?vid=cf92157a-d4d3-409a-a6cc-72e8a2a8f689","ios":"levelo://app?vid=cf92157a-d4d3-409a-a6cc-72e8a2a8f689"},"vehicle_type_id":"4","last_reported":1730297307,"current_range_meters":32800,"station_id":"ce4bhf92rcd13ifvqf50","pricing_plan_id":"cebpf4jnsgd1na2vs0mg"},{"bike_id":"5f805d27-8a7c-4a66-9806-7ab8ddd942ad","system_id":"levelo_inurba_marseille","lat":43.27946,"lon":5.4105,"is_reserved":false,"is_disabled":false,"rental_uris":{"android":"levelo://app?vid=5f805d27-8a7c-4a66-9806-7ab8ddd942ad","ios":"levelo://app?vid=5f805d27-8a7c-4a66-9806-7ab8ddd942ad"},"vehicle_type_id":"4","last_reported":1730297307,"current_range_meters":8800,"station_id":"ce4bhnp2rcd13ifvqh0g","pricing_plan_id":"cebpf4jnsgd1na2vs0mg"},{"bike_id":"b5308136-60cb-4d07-9dfe-1cf5b55c943e","system_id":"levelo_inurba_marseille","lat":43.31759,"lon":5.39016,"is_reserved":false,"is_disabled":false,"rental_uris":{"android":"levelo://app?vid=b5308136-60cb-4d07-9dfe-1cf5b55c943e","ios":"levelo://app?vid=b5308136-60cb-4d07-9dfe-1cf5b55c943e"},"vehicle_type_id":"4","last_reported":1730297307,"current_range_meters":18800,"station_id":"ce4bhqp2rcd13ifvqhng","pricing_plan_id":"cebpf4jnsgd1na2vs0mg"},{"bike_id":"9a9a7908-1e3b-4e98-8177-586035058191","system_id":"levelo_inurba_marseille","lat":43.24675,"lon":5.38149,"is_reserved":false,"is_disabled":false,"rental_uris":{"android":"levelo://app?vid=9a9a7908-1e3b-4e98-8177-586035058191","ios":"levelo://app?vid=9a9a7908-1e3b-4e98-8177-586035058191"},"vehicle_type_id":"4","last_reported":1730297307,"current_range_meters":19600,"station_id":"ce4bhih2rcd13ifvqfr0","pricing_plan_id":"cebpf4jnsgd1na2vs0mg"},{"bike_id":"b6ec7309-539b-44bc-858e-c5c78276b1d1","system_id":"levelo_inurba_marseille","lat":43.26056,"lon":5.39396,"is_reserved":false,"is_disabled":false,"rental_uris":{"android":"levelo://app?vid=b6ec7309-539b-44bc-858e-c5c78276b1d1","ios":"levelo://app?vid=b6ec7309-539b-44bc-858e-c5c78276b1d1"},"vehicle_type_id":"4","last_reported":1730297307,"current_range_meters":36800,"station_id":"ce4bhh92rcd13ifvqfj0","pricing_plan_id":"cebpf4jnsgd1na2vs0mg"},{"bike_id":"87d23bf7-4e73-43b2-8adf-83be3477f5aa","system_id":"levelo_inurba_marseille","lat":43.23193,"lon":5.35555,"is_reserved":false,"is_disabled":false,"rental_uris":{"android":"levelo://app?vid=87d23bf7-4e73-43b2-8adf-83be3477f5aa","ios":"levelo://app?vid=87d23bf7-4e73-43b2-8adf-83be3477f5aa"},"vehicle_type_id":"4","last_reported":1730297307,"current_range_meters":33200,"station_id":"ce4bhu92rcd13ifvqi70","pricing_plan_id":"cebpf4jnsgd1na2vs0mg"},{"bike_id":"fd02d788-6057-45c6-817b-49273d3202cb","system_id":"levelo_inurba_marseille","lat":43.30147,"lon":5.37422,"is_reserved":false,"is_disabled":false,"rental_uris":{"android":"levelo://app?vid=fd02d788-6057-45c6-817b-49273d3202cb","ios":"levelo://app?vid=fd02d788-6057-45c6-817b-49273d3202cb"},"vehicle_type_id":"4","last_reported":1730297307,"current_range_meters":38000,"station_id":"ce4bgs92rcd13ifvqcc0","pricing_plan_id":"cebpf4jnsgd1na2vs0mg"},{"bike_id":"56f9575e-6123-4adf-aec2-325847413764","system_id":"levelo_inurba_marseille","lat":43.24547,"lon":5.39532,"is_reserved":false,"is_disabled":false,"rental_uris":{"android":"levelo://app?vid=56f9575e-6123-4adf-aec2-325847413764","ios":"levelo://app?vid=56f9575e-6123-4adf-aec2-325847413764"},"vehicle_type_id":"4","last_reported":1730297307,"current_range_meters":34800,"station_id":"ce4bhlp2rcd13ifvqgjg","pricing_plan_id":"cebpf4jnsgd1na2vs0mg"},{"bike_id":"15e517f1-ebec-47c6-9ffd-2a035f728a02","system_id":"levelo_inurba_marseille","lat":43.24808,"lon":5.37457,"is_reserved":false,"is_disabled":false,"rental_uris":{"android":"levelo://app?vid=15e517f1-ebec-47c6-9ffd-2a035f728a02","ios":"levelo://app?vid=15e517f1-ebec-47c6-9ffd-2a035f728a02"},"vehicle_type_id":"4","last_reported":1730297307,"current_range_meters":26000,"station_id":"ce4bhgh2rcd13ifvqfb0","pricing_plan_id":"cebpf4jnsgd1na2vs0mg"},{"bike_id":"fd35e789-e3bb-4e76-ab17-facb61da91ca","system_id":"levelo_inurba_marseille","lat":43.33761,"lon":5.37448,"is_reserved":false,"is_disabled":false,"rental_uris":{"android":"levelo://app?vid=fd35e789-e3bb-4e76-ab17-facb61da91ca","ios":"levelo://app?vid=fd35e789-e3bb-4e76-ab17-facb61da91ca"},"vehicle_type_id":"4","last_reported":1730297307,"current_range_meters":36400,"station_id":"","pricing_plan_id":"cebpf4jnsgd1na2vs0mg"},{"bike_id":"ce707e11-6962-458e-bfaa-511ace96536a","system_id":"levelo_inurba_marseille","lat":43.27812,"lon":5.4071,"is_reserved":false,"is_disabled":false,"rental_uris":{"android":"levelo://app?vid=ce707e11-6962-458e-bfaa-511ace96536a","ios":"levelo://app?vid=ce707e11-6962-458e-bfaa-511ace96536a"},"vehicle_type_id":"4","last_reported":1730297307,"current_range_meters":16400,"station_id":"ce4bhnh2rcd13ifvqgtg","pricing_plan_id":"cebpf4jnsgd1na2vs0mg"},{"bike_id":"c1a00736-7b75-4511-bdb6-6d0170b2997c","system_id":"levelo_inurba_marseille","lat":43.28274,"lon":5.3505,"is_reserved":false,"is_disabled":false,"rental_uris":{"android":"levelo://app?vid=c1a00736-7b75-4511-bdb6-6d0170b2997c","ios":"levelo://app?vid=c1a00736-7b75-4511-bdb6-6d0170b2997c"},"vehicle_type_id":"4","last_reported":1730297307,"current_range_meters":8000,"station_id":"ce4bhbp2rcd13ifvqerg","pricing_plan_id":"cebpf4jnsgd1na2vs0mg"},{"bike_id":"b7c6af1f-61de-4317-aea3-869570e9981d","system_id":"levelo_inurba_marseille","lat":43.32367,"lon":5.38889,"is_reserved":false,"is_disabled":false,"rental_uris":{"android":"levelo://app?vid=b7c6af1f-61de-4317-aea3-869570e9981d","ios":"levelo://app?vid=b7c6af1f-61de-4317-aea3-869570e9981d"},"vehicle_type_id":"4","last_reported":1730297307,"current_range_meters":38800,"station_id":"ce4bhqp2rcd13ifvqhog","pricing_plan_id":"cebpf4jnsgd1na2vs0mg"},{"bike_id":"0ddf8415-d5c4-47b1-a8cb-ff0dc03d5696","system_id":"levelo_inurba_marseille","lat":43.29846,"lon":5.36283,"is_reserved":false,"is_disabled":false,"rental_uris":{"android":"levelo://app?vid=0ddf8415-d5c4-47b1-a8cb-ff0dc03d5696","ios":"levelo://app?vid=0ddf8415-d5c4-47b1-a8cb-ff0dc03d5696"},"vehicle_type_id":"4","last_reported":1730297307,"current_range_meters":27600,"station_id":"ce4bgpp2rcd13ifvqc3g","pricing_plan_id":"cebpf4jnsgd1na2vs0mg"},{"bike_id":"df65464c-1dee-4a9c-bf89-30c4e4c33ee3","system_id":"levelo_inurba_marseille","lat":43.28977,"lon":5.37833,"is_reserved":false,"is_disabled":false,"rental_uris":{"android":"levelo://app?vid=df65464c-1dee-4a9c-bf89-30c4e4c33ee3","ios":"levelo://app?vid=df65464c-1dee-4a9c-bf89-30c4e4c33ee3"},"vehicle_type_id":"4","last_reported":1730297307,"current_range_meters":31200,"station_id":"ce4bh9p2rcd13ifvqed0","pricing_plan_id":"cebpf4jnsgd1na2vs0mg"},{"bike_id":"7718748c-b478-425c-8795-155966d01d69","system_id":"levelo_inurba_marseille","lat":43.24549,"lon":5.39536,"is_reserved":false,"is_disabled":false,"rental_uris":{"android":"levelo://app?vid=7718748c-b478-425c-8795-155966d01d69","ios":"levelo://app?vid=7718748c-b478-425c-8795-155966d01d69"},"vehicle_type_id":"4","last_reported":1730297307,"current_range_meters":28400,"station_id":"ce4bhlp2rcd13ifvqgjg","pricing_plan_id":"cebpf4jnsgd1na2vs0mg"},{"bike_id":"44d85ef2-c732-496c-8b36-57dd23a581fa","system_id":"levelo_inurba_marseille","lat":43.231533,"lon":5.437304,"is_reserved":false,"is_disabled":false,"rental_uris":{"android":"levelo://app?vid=44d85ef2-c732-496c-8b36-57dd23a581fa","ios":"levelo://app?vid=44d85ef2-c732-496c-8b36-57dd23a581fa"},"vehicle_type_id":"4","last_reported":1730297307,"current_range_meters":23200,"station_id":"ce4bhmp2rcd13ifvqgog","pricing_plan_id":"cebpf4jnsgd1na2vs0mg"},{"bike_id":"3cb9cba9-6f6a-4243-bd13-74a986e4b125","system_id":"levelo_inurba_marseille","lat":43.29226,"lon":5.36052,"is_reserved":false,"is_disabled":false,"rental_uris":{"android":"levelo://app?vid=3cb9cba9-6f6a-4243-bd13-74a986e4b125","ios":"levelo://app?vid=3cb9cba9-6f6a-4243-bd13-74a986e4b125"},"vehicle_type_id":"4","last_reported":1730297307,"current_range_meters":38400,"station_id":"ce4bhbh2rcd13ifvqeqg","pricing_plan_id":"cebpf4jnsgd1na2vs0mg"},{"bike_id":"0a4665aa-5f09-43f0-8c9c-ee7193e2915e","system_id":"levelo_inurba_marseille","lat":43.255,"lon":5.37651,"is_reserved":false,"is_disabled":false,"rental_uris":{"android":"levelo://app?vid=0a4665aa-5f09-43f0-8c9c-ee7193e2915e","ios":"levelo://app?vid=0a4665aa-5f09-43f0-8c9c-ee7193e2915e"},"vehicle_type_id":"4","last_reported":1730297307,"current_range_meters":34000,"station_id":"ce4bhh12rcd13ifvqff0","pricing_plan_id":"cebpf4jnsgd1na2vs0mg"},{"bike_id":"c3a7ada5-589d-4115-8a5c-58536dff23e0","system_id":"levelo_inurba_marseille","lat":43.30911,"lon":5.36858,"is_reserved":false,"is_disabled":false,"rental_uris":{"android":"levelo://app?vid=c3a7ada5-589d-4115-8a5c-58536dff23e0","ios":"levelo://app?vid=c3a7ada5-589d-4115-8a5c-58536dff23e0"},"vehicle_type_id":"4","last_reported":1730297307,"current_range_meters":14400,"station_id":"ce4bgn92rcd13ifvqbvg","pricing_plan_id":"cebpf4jnsgd1na2vs0mg"},{"bike_id":"35ad6618-d52a-468f-8a09-f059ad18c5ae","system_id":"levelo_inurba_marseille","lat":43.2315,"lon":5.43731,"is_reserved":false,"is_disabled":false,"rental_uris":{"android":"levelo://app?vid=35ad6618-d52a-468f-8a09-f059ad18c5ae","ios":"levelo://app?vid=35ad6618-d52a-468f-8a09-f059ad18c5ae"},"vehicle_type_id":"4","last_reported":1730297307,"current_range_meters":16800,"station_id":"ce4bhmp2rcd13ifvqgog","pricing_plan_id":"cebpf4jnsgd1na2vs0mg"},{"bike_id":"acd995ca-7afa-423d-8369-cb20906e705d","system_id":"levelo_inurba_marseille","lat":43.28412,"lon":5.37517,"is_reserved":false,"is_disabled":false,"rental_uris":{"android":"levelo://app?vid=acd995ca-7afa-423d-8369-cb20906e705d","ios":"levelo://app?vid=acd995ca-7afa-423d-8369-cb20906e705d"},"vehicle_type_id":"4","last_reported":1730297307,"current_range_meters":38000,"station_id":"ce4bh412rcd13ifvqds0","pricing_plan_id":"cebpf4jnsgd1na2vs0mg"},{"bike_id":"afc8a59e-718c-432c-b226-d6be0903e5fb","system_id":"levelo_inurba_marseille","lat":43.24388,"lon":5.3706,"is_reserved":false,"is_disabled":false,"rental_uris":{"android":"levelo://app?vid=afc8a59e-718c-432c-b226-d6be0903e5fb","ios":"levelo://app?vid=afc8a59e-718c-432c-b226-d6be0903e5fb"},"vehicle_type_id":"4","last_reported":1730297307,"current_range_meters":32800,"station_id":"ce4bhhh2rcd13ifvqfk0","pricing_plan_id":"cebpf4jnsgd1na2vs0mg"},{"bike_id":"c6d24e19-b858-4bcc-91b4-9221404bb4a6","system_id":"levelo_inurba_marseille","lat":43.29877,"lon":5.39745,"is_reserved":false,"is_disabled":false,"rental_uris":{"android":"levelo://app?vid=c6d24e19-b858-4bcc-91b4-9221404bb4a6","ios":"levelo://app?vid=c6d24e19-b858-4bcc-91b4-9221404bb4a6"},"vehicle_type_id":"4","last_reported":1730297307,"current_range_meters":39200,"station_id":"ce4bh0h2rcd13ifvqd50","pricing_plan_id":"cebpf4jnsgd1na2vs0mg"},{"bike_id":"72e37474-1bc8-4568-aec8-ce5464e6b828","system_id":"levelo_inurba_marseille","lat":43.23191,"lon":5.35545,"is_reserved":false,"is_disabled":false,"rental_uris":{"android":"levelo://app?vid=72e37474-1bc8-4568-aec8-ce5464e6b828","ios":"levelo://app?vid=72e37474-1bc8-4568-aec8-ce5464e6b828"},"vehicle_type_id":"4","last_reported":1730297307,"current_range_meters":28400,"station_id":"ce4bhu92rcd13ifvqi70","pricing_plan_id":"cebpf4jnsgd1na2vs0mg"},{"bike_id":"f60c22c9-8859-4064-a562-7bc4d70b8b13","system_id":"levelo_inurba_marseille","lat":43.28427,"lon":5.34988,"is_reserved":false,"is_disabled":false,"rental_uris":{"android":"levelo://app?vid=f60c22c9-8859-4064-a562-7bc4d70b8b13","ios":"levelo://app?vid=f60c22c9-8859-4064-a562-7bc4d70b8b13"},"vehicle_type_id":"4","last_reported":1730297307,"current_range_meters":38800,"station_id":"ce4bhbh2rcd13ifvqepg","pricing_plan_id":"cebpf4jnsgd1na2vs0mg"},{"bike_id":"3b960096-3155-4224-91b8-8d32ce79be2b","system_id":"levelo_inurba_marseille","lat":43.28881,"lon":5.35848,"is_reserved":false,"is_disabled":false,"rental_uris":{"android":"levelo://app?vid=3b960096-3155-4224-91b8-8d32ce79be2b","ios":"levelo://app?vid=3b960096-3155-4224-91b8-8d32ce79be2b"},"vehicle_type_id":"4","last_reported":1730297307,"current_range_meters":26000,"station_id":"ce4bhb12rcd13ifvqem0","pricing_plan_id":"cebpf4jnsgd1na2vs0mg"},{"bike_id":"4a9c4c09-3b60-43bd-813e-aed87710c539","system_id":"levelo_inurba_marseille","lat":43.28972,"lon":5.37838,"is_reserved":false,"is_disabled":false,"rental_uris":{"android":"levelo://app?vid=4a9c4c09-3b60-43bd-813e-aed87710c539","ios":"levelo://app?vid=4a9c4c09-3b60-43bd-813e-aed87710c539"},"vehicle_type_id":"4","last_reported":1730297307,"current_range_meters":33200,"station_id":"ce4bh9p2rcd13ifvqed0","pricing_plan_id":"cebpf4jnsgd1na2vs0mg"},{"bike_id":"54d2e7c1-0997-4e85-b497-01eca9eb4f00","system_id":"levelo_inurba_marseille","lat":43.2319,"lon":5.35555,"is_reserved":false,"is_disabled":false,"rental_uris":{"android":"levelo://app?vid=54d2e7c1-0997-4e85-b497-01eca9eb4f00","ios":"levelo://app?vid=54d2e7c1-0997-4e85-b497-01eca9eb4f00"},"vehicle_type_id":"4","last_reported":1730297307,"current_range_meters":16000,"station_id":"ce4bhu92rcd13ifvqi70","pricing_plan_id":"cebpf4jnsgd1na2vs0mg"},{"bike_id":"e675a6fb-cdb1-482c-beca-19b0cf026634","system_id":"levelo_inurba_marseille","lat":43.23064,"lon":5.35488,"is_reserved":false,"is_disabled":false,"rental_uris":{"android":"levelo://app?vid=e675a6fb-cdb1-482c-beca-19b0cf026634","ios":"levelo://app?vid=e675a6fb-cdb1-482c-beca-19b0cf026634"},"vehicle_type_id":"4","last_reported":1730297307,"current_range_meters":26800,"station_id":"cpo3342slgdg3j2ifvpg","pricing_plan_id":"cebpf4jnsgd1na2vs0mg"},{"bike_id":"cf1bf93e-b987-4f03-9549-b984bb838aa3","system_id":"levelo_inurba_marseille","lat":43.26783,"lon":5.39417,"is_reserved":false,"is_disabled":false,"rental_uris":{"android":"levelo://app?vid=cf1bf93e-b987-4f03-9549-b984bb838aa3","ios":"levelo://app?vid=cf1bf93e-b987-4f03-9549-b984bb838aa3"},"vehicle_type_id":"4","last_reported":1730297307,"current_range_meters":37600,"station_id":"ce4bhh12rcd13ifvqfg0","pricing_plan_id":"cebpf4jnsgd1na2vs0mg"},{"bike_id":"e74d5bb5-71e1-4c61-a5ef-f3253bb4afbf","system_id":"levelo_inurba_marseille","lat":43.23066,"lon":5.35493,"is_reserved":false,"is_disabled":false,"rental_uris":{"android":"levelo://app?vid=e74d5bb5-71e1-4c61-a5ef-f3253bb4afbf","ios":"levelo://app?vid=e74d5bb5-71e1-4c61-a5ef-f3253bb4afbf"},"vehicle_type_id":"4","last_reported":1730297307,"current_range_meters":28400,"station_id":"cpo3342slgdg3j2ifvpg","pricing_plan_id":"cebpf4jnsgd1na2vs0mg"},{"bike_id":"ae30f0e4-509e-44a9-a275-eda04247b6f3","system_id":"levelo_inurba_marseille","lat":43.2314,"lon":5.43721,"is_reserved":false,"is_disabled":false,"rental_uris":{"android":"levelo://app?vid=ae30f0e4-509e-44a9-a275-eda04247b6f3","ios":"levelo://app?vid=ae30f0e4-509e-44a9-a275-eda04247b6f3"},"vehicle_type_id":"4","last_reported":1730297307,"current_range_meters":28400,"station_id":"ce4bhmp2rcd13ifvqgog","pricing_plan_id":"cebpf4jnsgd1na2vs0mg"},{"bike_id":"4a49a3e5-2730-4914-9094-8aba01352722","system_id":"levelo_inurba_marseille","lat":43.299623,"lon":5.38906,"is_reserved":false,"is_disabled":false,"rental_uris":{"android":"levelo://app?vid=4a49a3e5-2730-4914-9094-8aba01352722","ios":"levelo://app?vid=4a49a3e5-2730-4914-9094-8aba01352722"},"vehicle_type_id":"4","last_reported":1730297307,"current_range_meters":27600,"station_id":"ce4bh392rcd13ifvqdl0","pricing_plan_id":"cebpf4jnsgd1na2vs0mg"},{"bike_id":"ed4542ec-a766-43c5-bc78-9617bcbbe71c","system_id":"levelo_inurba_marseille","lat":43.2587,"lon":5.39899,"is_reserved":false,"is_disabled":false,"rental_uris":{"android":"levelo://app?vid=ed4542ec-a766-43c5-bc78-9617bcbbe71c","ios":"levelo://app?vid=ed4542ec-a766-43c5-bc78-9617bcbbe71c"},"vehicle_type_id":"4","last_reported":1730297307,"current_range_meters":8800,"station_id":"ce4bhl92rcd13ifvqghg","pricing_plan_id":"cebpf4jnsgd1na2vs0mg"},{"bike_id":"91063f56-6847-42b3-9e52-74167e58763f","system_id":"levelo_inurba_marseille","lat":43.29013,"lon":5.356019,"is_reserved":false,"is_disabled":false,"rental_uris":{"android":"levelo://app?vid=91063f56-6847-42b3-9e52-74167e58763f","ios":"levelo://app?vid=91063f56-6847-42b3-9e52-74167e58763f"},"vehicle_type_id":"4","last_reported":1730297307,"current_range_meters":26000,"station_id":"ce4bhb92rcd13ifvqen0","pricing_plan_id":"cebpf4jnsgd1na2vs0mg"},{"bike_id":"e66fa4e3-5564-4c16-a878-578e416becb6","system_id":"levelo_inurba_marseille","lat":43.29358,"lon":5.37831,"is_reserved":false,"is_disabled":false,"rental_uris":{"android":"levelo://app?vid=e66fa4e3-5564-4c16-a878-578e416becb6","ios":"levelo://app?vid=e66fa4e3-5564-4c16-a878-578e416becb6"},"vehicle_type_id":"4","last_reported":1730297307,"current_range_meters":34800,"station_id":"ce4bgjh2rcd13ifvqbf0","pricing_plan_id":"cebpf4jnsgd1na2vs0mg"},{"bike_id":"c7e0806a-d694-4a23-a01d-dbdbff5e1c91","system_id":"levelo_inurba_marseille","lat":43.28669,"lon":5.36361,"is_reserved":false,"is_disabled":false,"rental_uris":{"android":"levelo://app?vid=c7e0806a-d694-4a23-a01d-dbdbff5e1c91","ios":"levelo://app?vid=c7e0806a-d694-4a23-a01d-dbdbff5e1c91"},"vehicle_type_id":"4","last_reported":1730297307,"current_range_meters":27600,"station_id":"ce4bhah2rcd13ifvqej0","pricing_plan_id":"cebpf4jnsgd1na2vs0mg"},{"bike_id":"12a03805-2b66-4868-9794-a47ad7067b08","system_id":"levelo_inurba_marseille","lat":43.28864,"lon":5.35945,"is_reserved":false,"is_disabled":false,"rental_uris":{"android":"levelo://app?vid=12a03805-2b66-4868-9794-a47ad7067b08","ios":"levelo://app?vid=12a03805-2b66-4868-9794-a47ad7067b08"},"vehicle_type_id":"4","last_reported":1730297307,"current_range_meters":18000,"station_id":"ce4bgph2rcd13ifvqc2g","pricing_plan_id":"cebpf4jnsgd1na2vs0mg"},{"bike_id":"90b87ab5-0676-4c7a-bd4c-c425937fd4a5","system_id":"levelo_inurba_marseille","lat":43.2993,"lon":5.36546,"is_reserved":false,"is_disabled":false,"rental_uris":{"android":"levelo://app?vid=90b87ab5-0676-4c7a-bd4c-c425937fd4a5","ios":"levelo://app?vid=90b87ab5-0676-4c7a-bd4c-c425937fd4a5"},"vehicle_type_id":"4","last_reported":1730297307,"current_range_meters":22400,"station_id":"ce4bgm92rcd13ifvqbr0","pricing_plan_id":"cebpf4jnsgd1na2vs0mg"},{"bike_id":"d3834406-5180-48ae-986e-7eca8f9a66e3","system_id":"levelo_inurba_marseille","lat":43.27075,"lon":5.42278,"is_reserved":false,"is_disabled":false,"rental_uris":{"android":"levelo://app?vid=d3834406-5180-48ae-986e-7eca8f9a66e3","ios":"levelo://app?vid=d3834406-5180-48ae-986e-7eca8f9a66e3"},"vehicle_type_id":"4","last_reported":1730297307,"current_range_meters":19200,"station_id":"ce4bhk92rcd13ifvqgb0","pricing_plan_id":"cebpf4jnsgd1na2vs0mg"},{"bike_id":"1995d42f-9bb2-423e-a419-1706f5fab24e","system_id":"levelo_inurba_marseille","lat":43.27067,"lon":5.42272,"is_reserved":false,"is_disabled":false,"rental_uris":{"android":"levelo://app?vid=1995d42f-9bb2-423e-a419-1706f5fab24e","ios":"levelo://app?vid=1995d42f-9bb2-423e-a419-1706f5fab24e"},"vehicle_type_id":"4","last_reported":1730297307,"current_range_meters":33600,"station_id":"ce4bhk92rcd13ifvqgb0","pricing_plan_id":"cebpf4jnsgd1na2vs0mg"},{"bike_id":"c392b86a-cf18-4e90-ab95-cb358fa3f0d6","system_id":"levelo_inurba_marseille","lat":43.28465,"lon":5.38423,"is_reserved":false,"is_disabled":false,"rental_uris":{"android":"levelo://app?vid=c392b86a-cf18-4e90-ab95-cb358fa3f0d6","ios":"levelo://app?vid=c392b86a-cf18-4e90-ab95-cb358fa3f0d6"},"vehicle_type_id":"4","last_reported":1730297307,"current_range_meters":14800,"station_id":"ce4bh512rcd13ifvqe3g","pricing_plan_id":"cebpf4jnsgd1na2vs0mg"},{"bike_id":"4e202761-f484-4f98-a2c5-f29995d30b81","system_id":"levelo_inurba_marseille","lat":43.2622,"lon":5.37441,"is_reserved":false,"is_disabled":false,"rental_uris":{"android":"levelo://app?vid=4e202761-f484-4f98-a2c5-f29995d30b81","ios":"levelo://app?vid=4e202761-f484-4f98-a2c5-f29995d30b81"},"vehicle_type_id":"4","last_reported":1730297307,"current_range_meters":13600,"station_id":"ce4bhgp2rcd13ifvqfc0","pricing_plan_id":"cebpf4jnsgd1na2vs0mg"},{"bike_id":"20ae553e-1577-4adc-a637-9138aeb3ce1b","system_id":"levelo_inurba_marseille","lat":43.31227,"lon":5.36848,"is_reserved":false,"is_disabled":false,"rental_uris":{"android":"levelo://app?vid=20ae553e-1577-4adc-a637-9138aeb3ce1b","ios":"levelo://app?vid=20ae553e-1577-4adc-a637-9138aeb3ce1b"},"vehicle_type_id":"4","last_reported":1730297307,"current_range_meters":12400,"station_id":"ce4bgl92rcd13ifvqbq0","pricing_plan_id":"cebpf4jnsgd1na2vs0mg"},{"bike_id":"8162e4a8-23c1-4020-bbef-be4a2e70aefe","system_id":"levelo_inurba_marseille","lat":43.23195,"lon":5.35553,"is_reserved":false,"is_disabled":false,"rental_uris":{"android":"levelo://app?vid=8162e4a8-23c1-4020-bbef-be4a2e70aefe","ios":"levelo://app?vid=8162e4a8-23c1-4020-bbef-be4a2e70aefe"},"vehicle_type_id":"4","last_reported":1730297307,"current_range_meters":9200,"station_id":"ce4bhu92rcd13ifvqi70","pricing_plan_id":"cebpf4jnsgd1na2vs0mg"},{"bike_id":"cf6e46fb-07e4-4259-8796-fece3f1717ca","system_id":"levelo_inurba_marseille","lat":43.2657,"lon":5.39,"is_reserved":false,"is_disabled":false,"rental_uris":{"android":"levelo://app?vid=cf6e46fb-07e4-4259-8796-fece3f1717ca","ios":"levelo://app?vid=cf6e46fb-07e4-4259-8796-fece3f1717ca"},"vehicle_type_id":"4","last_reported":1730297307,"current_range_meters":36800,"station_id":"ce4bhe12rcd13ifvqf30","pricing_plan_id":"cebpf4jnsgd1na2vs0mg"},{"bike_id":"6ede8d67-a1f1-44c7-a415-ec3477473a06","system_id":"levelo_inurba_marseille","lat":43.30798,"lon":5.38164,"is_reserved":false,"is_disabled":false,"rental_uris":{"android":"levelo://app?vid=6ede8d67-a1f1-44c7-a415-ec3477473a06","ios":"levelo://app?vid=6ede8d67-a1f1-44c7-a415-ec3477473a06"},"vehicle_type_id":"4","last_reported":1730297307,"current_range_meters":32800,"station_id":"ce4bgt12rcd13ifvqce0","pricing_plan_id":"cebpf4jnsgd1na2vs0mg"},{"bike_id":"9d8f4af4-7157-4bb6-9102-bcb1a2987ef6","system_id":"levelo_inurba_marseille","lat":43.28843,"lon":5.35834,"is_reserved":false,"is_disabled":false,"rental_uris":{"android":"levelo://app?vid=9d8f4af4-7157-4bb6-9102-bcb1a2987ef6","ios":"levelo://app?vid=9d8f4af4-7157-4bb6-9102-bcb1a2987ef6"},"vehicle_type_id":"4","last_reported":1730297307,"current_range_meters":28800,"station_id":"ce4bhb12rcd13ifvqem0","pricing_plan_id":"cebpf4jnsgd1na2vs0mg"},{"bike_id":"96724da9-9e0c-47dd-bb15-8ee3ea655ee2","system_id":"levelo_inurba_marseille","lat":43.310425,"lon":5.376601,"is_reserved":false,"is_disabled":false,"rental_uris":{"android":"levelo://app?vid=96724da9-9e0c-47dd-bb15-8ee3ea655ee2","ios":"levelo://app?vid=96724da9-9e0c-47dd-bb15-8ee3ea655ee2"},"vehicle_type_id":"4","last_reported":1730297307,"current_range_meters":8000,"station_id":"ce4bgn12rcd13ifvqbt0","pricing_plan_id":"cebpf4jnsgd1na2vs0mg"},{"bike_id":"d81ad8a6-67f6-4806-8090-d03f4df12c5a","system_id":"levelo_inurba_marseille","lat":43.24183,"lon":5.39734,"is_reserved":false,"is_disabled":false,"rental_uris":{"android":"levelo://app?vid=d81ad8a6-67f6-4806-8090-d03f4df12c5a","ios":"levelo://app?vid=d81ad8a6-67f6-4806-8090-d03f4df12c5a"},"vehicle_type_id":"4","last_reported":1730297307,"current_range_meters":16000,"station_id":"ce4bhn12rcd13ifvqgpg","pricing_plan_id":"cebpf4jnsgd1na2vs0mg"},{"bike_id":"bc13f27d-bf09-4625-8cec-7a10c45d47bb","system_id":"levelo_inurba_marseille","lat":43.26934,"lon":5.38923,"is_reserved":false,"is_disabled":false,"rental_uris":{"android":"levelo://app?vid=bc13f27d-bf09-4625-8cec-7a10c45d47bb","ios":"levelo://app?vid=bc13f27d-bf09-4625-8cec-7a10c45d47bb"},"vehicle_type_id":"4","last_reported":1730297307,"current_range_meters":24800,"station_id":"ce4bhhh2rcd13ifvqfl0","pricing_plan_id":"cebpf4jnsgd1na2vs0mg"},{"bike_id":"be12cf42-5c6a-4670-9a9a-0bb07726d7a1","system_id":"levelo_inurba_marseille","lat":43.29188,"lon":5.35793,"is_reserved":false,"is_disabled":false,"rental_uris":{"android":"levelo://app?vid=be12cf42-5c6a-4670-9a9a-0bb07726d7a1","ios":"levelo://app?vid=be12cf42-5c6a-4670-9a9a-0bb07726d7a1"},"vehicle_type_id":"4","last_reported":1730297307,"current_range_meters":1600,"station_id":"ce4bhb12rcd13ifvqel0","pricing_plan_id":"cebpf4jnsgd1na2vs0mg"},{"bike_id":"9dacdad8-0a44-49eb-98f5-702daced0b65","system_id":"levelo_inurba_marseille","lat":43.28269,"lon":5.35078,"is_reserved":false,"is_disabled":false,"rental_uris":{"android":"levelo://app?vid=9dacdad8-0a44-49eb-98f5-702daced0b65","ios":"levelo://app?vid=9dacdad8-0a44-49eb-98f5-702daced0b65"},"vehicle_type_id":"4","last_reported":1730297307,"current_range_meters":38800,"station_id":"ce4bhbp2rcd13ifvqerg","pricing_plan_id":"cebpf4jnsgd1na2vs0mg"},{"bike_id":"b4d42bc3-7f8c-4f43-9381-013fc48a6128","system_id":"levelo_inurba_marseille","lat":43.30152,"lon":5.38082,"is_reserved":false,"is_disabled":false,"rental_uris":{"android":"levelo://app?vid=b4d42bc3-7f8c-4f43-9381-013fc48a6128","ios":"levelo://app?vid=b4d42bc3-7f8c-4f43-9381-013fc48a6128"},"vehicle_type_id":"4","last_reported":1730297307,"current_range_meters":38800,"station_id":"ce4bgjp2rcd13ifvqbh0","pricing_plan_id":"cebpf4jnsgd1na2vs0mg"},{"bike_id":"5efc45f7-df61-440b-97a0-921e1f536d5c","system_id":"levelo_inurba_marseille","lat":43.29229,"lon":5.3607,"is_reserved":false,"is_disabled":false,"rental_uris":{"android":"levelo://app?vid=5efc45f7-df61-440b-97a0-921e1f536d5c","ios":"levelo://app?vid=5efc45f7-df61-440b-97a0-921e1f536d5c"},"vehicle_type_id":"4","last_reported":1730297307,"current_range_meters":16000,"station_id":"ce4bhbh2rcd13ifvqeqg","pricing_plan_id":"cebpf4jnsgd1na2vs0mg"},{"bike_id":"0b04ee7c-5ceb-4b7c-b560-9594ac65a189","system_id":"levelo_inurba_marseille","lat":43.28461,"lon":5.35885,"is_reserved":false,"is_disabled":false,"rental_uris":{"android":"levelo://app?vid=0b04ee7c-5ceb-4b7c-b560-9594ac65a189","ios":"levelo://app?vid=0b04ee7c-5ceb-4b7c-b560-9594ac65a189"},"vehicle_type_id":"4","last_reported":1730297307,"current_range_meters":4000,"station_id":"ce4bhah2rcd13ifvqei0","pricing_plan_id":"cebpf4jnsgd1na2vs0mg"},{"bike_id":"3a58aead-6e7f-468c-9d9d-4429d714b1be","system_id":"levelo_inurba_marseille","lat":43.27426,"lon":5.39412,"is_reserved":false,"is_disabled":false,"rental_uris":{"android":"levelo://app?vid=3a58aead-6e7f-468c-9d9d-4429d714b1be","ios":"levelo://app?vid=3a58aead-6e7f-468c-9d9d-4429d714b1be"},"vehicle_type_id":"4","last_reported":1730297307,"current_range_meters":38000,"station_id":"ce4bhdp2rcd13ifvqf20","pricing_plan_id":"cebpf4jnsgd1na2vs0mg"},{"bike_id":"90d46870-9f40-4b4b-88a4-7acd7fb37a95","system_id":"levelo_inurba_marseille","lat":43.305287,"lon":5.365263,"is_reserved":false,"is_disabled":false,"rental_uris":{"android":"levelo://app?vid=90d46870-9f40-4b4b-88a4-7acd7fb37a95","ios":"levelo://app?vid=90d46870-9f40-4b4b-88a4-7acd7fb37a95"},"vehicle_type_id":"4","last_reported":1730297307,"current_range_meters":27200,"station_id":"ce4bgs12rcd13ifvqcag","pricing_plan_id":"cebpf4jnsgd1na2vs0mg"},{"bike_id":"c1e7f1fe-34c1-486f-9c6b-0123d4a8ec82","system_id":"levelo_inurba_marseille","lat":43.30427,"lon":5.39755,"is_reserved":false,"is_disabled":false,"rental_uris":{"android":"levelo://app?vid=c1e7f1fe-34c1-486f-9c6b-0123d4a8ec82","ios":"levelo://app?vid=c1e7f1fe-34c1-486f-9c6b-0123d4a8ec82"},"vehicle_type_id":"4","last_reported":1730297307,"current_range_meters":35600,"station_id":"ce4bh092rcd13ifvqd20","pricing_plan_id":"cebpf4jnsgd1na2vs0mg"},{"bike_id":"304764cf-b2ad-48bd-9a1a-c01b921f553e","system_id":"levelo_inurba_marseille","lat":43.29032,"lon":5.38136,"is_reserved":false,"is_disabled":false,"rental_uris":{"android":"levelo://app?vid=304764cf-b2ad-48bd-9a1a-c01b921f553e","ios":"levelo://app?vid=304764cf-b2ad-48bd-9a1a-c01b921f553e"},"vehicle_type_id":"4","last_reported":1730297307,"current_range_meters":26000,"station_id":"ce4bh4p2rcd13ifvqe1g","pricing_plan_id":"cebpf4jnsgd1na2vs0mg"},{"bike_id":"c30c20a3-a003-4e47-981b-d4a01d18b8ed","system_id":"levelo_inurba_marseille","lat":43.24172,"lon":5.364,"is_reserved":false,"is_disabled":false,"rental_uris":{"android":"levelo://app?vid=c30c20a3-a003-4e47-981b-d4a01d18b8ed","ios":"levelo://app?vid=c30c20a3-a003-4e47-981b-d4a01d18b8ed"},"vehicle_type_id":"4","last_reported":1730297307,"current_range_meters":10000,"station_id":"cpo36qri1sfpv3e86is0","pricing_plan_id":"cebpf4jnsgd1na2vs0mg"},{"bike_id":"ca5947f3-f8c7-4501-8fcf-25546b008bb3","system_id":"levelo_inurba_marseille","lat":43.23148,"lon":5.43716,"is_reserved":false,"is_disabled":false,"rental_uris":{"android":"levelo://app?vid=ca5947f3-f8c7-4501-8fcf-25546b008bb3","ios":"levelo://app?vid=ca5947f3-f8c7-4501-8fcf-25546b008bb3"},"vehicle_type_id":"4","last_reported":1730297307,"current_range_meters":13600,"station_id":"ce4bhmp2rcd13ifvqgog","pricing_plan_id":"cebpf4jnsgd1na2vs0mg"},{"bike_id":"4eb21d36-e6f9-46b8-9e73-d7645a38e6a5","system_id":"levelo_inurba_marseille","lat":43.31325,"lon":5.39692,"is_reserved":false,"is_disabled":false,"rental_uris":{"android":"levelo://app?vid=4eb21d36-e6f9-46b8-9e73-d7645a38e6a5","ios":"levelo://app?vid=4eb21d36-e6f9-46b8-9e73-d7645a38e6a5"},"vehicle_type_id":"4","last_reported":1730297307,"current_range_meters":36400,"station_id":"ce4bgvp2rcd13ifvqcu0","pricing_plan_id":"cebpf4jnsgd1na2vs0mg"},{"bike_id":"540fa579-4357-4493-893c-d0508867079c","system_id":"levelo_inurba_marseille","lat":43.3088,"lon":5.39659,"is_reserved":false,"is_disabled":false,"rental_uris":{"android":"levelo://app?vid=540fa579-4357-4493-893c-d0508867079c","ios":"levelo://app?vid=540fa579-4357-4493-893c-d0508867079c"},"vehicle_type_id":"4","last_reported":1730297307,"current_range_meters":32800,"station_id":"ce4bh012rcd13ifvqcv0","pricing_plan_id":"cebpf4jnsgd1na2vs0mg"},{"bike_id":"94b7a1df-1df2-4b9b-8c1b-970f8d530ee8","system_id":"levelo_inurba_marseille","lat":43.30144,"lon":5.37424,"is_reserved":false,"is_disabled":false,"rental_uris":{"android":"levelo://app?vid=94b7a1df-1df2-4b9b-8c1b-970f8d530ee8","ios":"levelo://app?vid=94b7a1df-1df2-4b9b-8c1b-970f8d530ee8"},"vehicle_type_id":"4","last_reported":1730297307,"current_range_meters":34800,"station_id":"ce4bgs92rcd13ifvqcc0","pricing_plan_id":"cebpf4jnsgd1na2vs0mg"},{"bike_id":"a3355cf1-61b3-474a-bd04-4451e98e44dc","system_id":"levelo_inurba_marseille","lat":43.29918,"lon":5.37481,"is_reserved":false,"is_disabled":false,"rental_uris":{"android":"levelo://app?vid=a3355cf1-61b3-474a-bd04-4451e98e44dc","ios":"levelo://app?vid=a3355cf1-61b3-474a-bd04-4451e98e44dc"},"vehicle_type_id":"4","last_reported":1730297307,"current_range_meters":39200,"station_id":"ce4bgjh2rcd13ifvqbg0","pricing_plan_id":"cebpf4jnsgd1na2vs0mg"},{"bike_id":"ebf6793d-7e6f-4bd3-9010-e7631840afe3","system_id":"levelo_inurba_marseille","lat":43.29526,"lon":5.39406,"is_reserved":false,"is_disabled":false,"rental_uris":{"android":"levelo://app?vid=ebf6793d-7e6f-4bd3-9010-e7631840afe3","ios":"levelo://app?vid=ebf6793d-7e6f-4bd3-9010-e7631840afe3"},"vehicle_type_id":"4","last_reported":1730297307,"current_range_meters":20000,"station_id":"ce4bh292rcd13ifvqdf0","pricing_plan_id":"cebpf4jnsgd1na2vs0mg"},{"bike_id":"74ade056-17c0-4f14-9024-98d6978abe9b","system_id":"levelo_inurba_marseille","lat":43.22937,"lon":5.3538,"is_reserved":false,"is_disabled":false,"rental_uris":{"android":"levelo://app?vid=74ade056-17c0-4f14-9024-98d6978abe9b","ios":"levelo://app?vid=74ade056-17c0-4f14-9024-98d6978abe9b"},"vehicle_type_id":"4","last_reported":1730297307,"current_range_meters":2800,"station_id":"cpo3532slgdg3j2ikp40","pricing_plan_id":"cebpf4jnsgd1na2vs0mg"},{"bike_id":"1d3cbaf2-750f-4f76-9182-29b9299165ab","system_id":"levelo_inurba_marseille","lat":43.27906,"lon":5.38017,"is_reserved":false,"is_disabled":false,"rental_uris":{"android":"levelo://app?vid=1d3cbaf2-750f-4f76-9182-29b9299165ab","ios":"levelo://app?vid=1d3cbaf2-750f-4f76-9182-29b9299165ab"},"vehicle_type_id":"4","last_reported":1730297307,"current_range_meters":26800,"station_id":"ce4bhf92rcd13ifvqf50","pricing_plan_id":"cebpf4jnsgd1na2vs0mg"},{"bike_id":"fea23d88-9bbb-4ffa-af08-7b03ca37348f","system_id":"levelo_inurba_marseille","lat":43.23182,"lon":5.4,"is_reserved":false,"is_disabled":false,"rental_uris":{"android":"levelo://app?vid=fea23d88-9bbb-4ffa-af08-7b03ca37348f","ios":"levelo://app?vid=fea23d88-9bbb-4ffa-af08-7b03ca37348f"},"vehicle_type_id":"4","last_reported":1730297307,"current_range_meters":30400,"station_id":"ce4bhn12rcd13ifvqgqg","pricing_plan_id":"cebpf4jnsgd1na2vs0mg"},{"bike_id":"a0a2b278-3c52-4c26-9330-91fb0b590d02","system_id":"levelo_inurba_marseille","lat":43.30146,"lon":5.38083,"is_reserved":false,"is_disabled":false,"rental_uris":{"android":"levelo://app?vid=a0a2b278-3c52-4c26-9330-91fb0b590d02","ios":"levelo://app?vid=a0a2b278-3c52-4c26-9330-91fb0b590d02"},"vehicle_type_id":"4","last_reported":1730297307,"current_range_meters":31200,"station_id":"ce4bgjp2rcd13ifvqbh0","pricing_plan_id":"cebpf4jnsgd1na2vs0mg"},{"bike_id":"160c3125-d109-49e3-a687-ede78b99dea2","system_id":"levelo_inurba_marseille","lat":43.23197,"lon":5.35543,"is_reserved":false,"is_disabled":false,"rental_uris":{"android":"levelo://app?vid=160c3125-d109-49e3-a687-ede78b99dea2","ios":"levelo://app?vid=160c3125-d109-49e3-a687-ede78b99dea2"},"vehicle_type_id":"4","last_reported":1730297307,"current_range_meters":38800,"station_id":"ce4bhu92rcd13ifvqi70","pricing_plan_id":"cebpf4jnsgd1na2vs0mg"},{"bike_id":"d15e5a3a-5812-42ae-8a22-b064b9e316b7","system_id":"levelo_inurba_marseille","lat":43.27994,"lon":5.40014,"is_reserved":false,"is_disabled":false,"rental_uris":{"android":"levelo://app?vid=d15e5a3a-5812-42ae-8a22-b064b9e316b7","ios":"levelo://app?vid=d15e5a3a-5812-42ae-8a22-b064b9e316b7"},"vehicle_type_id":"4","last_reported":1730297307,"current_range_meters":36000,"station_id":"ce4bho92rcd13ifvqh4g","pricing_plan_id":"cebpf4jnsgd1na2vs0mg"},{"bike_id":"5d1a8cd3-853d-4a3d-a545-528849c1265b","system_id":"levelo_inurba_marseille","lat":43.29034,"lon":5.37569,"is_reserved":false,"is_disabled":false,"rental_uris":{"android":"levelo://app?vid=5d1a8cd3-853d-4a3d-a545-528849c1265b","ios":"levelo://app?vid=5d1a8cd3-853d-4a3d-a545-528849c1265b"},"vehicle_type_id":"4","last_reported":1730297307,"current_range_meters":20800,"station_id":"ce4bhc92rcd13ifvqetg","pricing_plan_id":"cebpf4jnsgd1na2vs0mg"},{"bike_id":"636920a7-5d47-41c7-a7cd-067bcbe1a15d","system_id":"levelo_inurba_marseille","lat":43.30157,"lon":5.37421,"is_reserved":false,"is_disabled":false,"rental_uris":{"android":"levelo://app?vid=636920a7-5d47-41c7-a7cd-067bcbe1a15d","ios":"levelo://app?vid=636920a7-5d47-41c7-a7cd-067bcbe1a15d"},"vehicle_type_id":"4","last_reported":1730297307,"current_range_meters":38800,"station_id":"ce4bgs92rcd13ifvqcc0","pricing_plan_id":"cebpf4jnsgd1na2vs0mg"},{"bike_id":"d2be7d21-432d-4659-8f0b-7afc307fbe02","system_id":"levelo_inurba_marseille","lat":43.31481,"lon":5.37317,"is_reserved":false,"is_disabled":false,"rental_uris":{"android":"levelo://app?vid=d2be7d21-432d-4659-8f0b-7afc307fbe02","ios":"levelo://app?vid=d2be7d21-432d-4659-8f0b-7afc307fbe02"},"vehicle_type_id":"4","last_reported":1730297307,"current_range_meters":16800,"station_id":"ce4bgt12rcd13ifvqcd0","pricing_plan_id":"cebpf4jnsgd1na2vs0mg"},{"bike_id":"76ae65e7-1304-4c14-b23b-fa35af4a2ade","system_id":"levelo_inurba_marseille","lat":43.28431,"lon":5.34988,"is_reserved":false,"is_disabled":false,"rental_uris":{"android":"levelo://app?vid=76ae65e7-1304-4c14-b23b-fa35af4a2ade","ios":"levelo://app?vid=76ae65e7-1304-4c14-b23b-fa35af4a2ade"},"vehicle_type_id":"4","last_reported":1730297307,"current_range_meters":39200,"station_id":"ce4bhbh2rcd13ifvqepg","pricing_plan_id":"cebpf4jnsgd1na2vs0mg"},{"bike_id":"0f14e171-c3b6-4ea4-9c34-782a00c72234","system_id":"levelo_inurba_marseille","lat":43.29007,"lon":5.35613,"is_reserved":false,"is_disabled":false,"rental_uris":{"android":"levelo://app?vid=0f14e171-c3b6-4ea4-9c34-782a00c72234","ios":"levelo://app?vid=0f14e171-c3b6-4ea4-9c34-782a00c72234"},"vehicle_type_id":"4","last_reported":1730297307,"current_range_meters":14400,"station_id":"ce4bhb92rcd13ifvqen0","pricing_plan_id":"cebpf4jnsgd1na2vs0mg"},{"bike_id":"2987005b-52e6-4b87-a380-46389b412b1b","system_id":"levelo_inurba_marseille","lat":43.28146,"lon":5.42645,"is_reserved":false,"is_disabled":false,"rental_uris":{"android":"levelo://app?vid=2987005b-52e6-4b87-a380-46389b412b1b","ios":"levelo://app?vid=2987005b-52e6-4b87-a380-46389b412b1b"},"vehicle_type_id":"4","last_reported":1730297307,"current_range_meters":38800,"station_id":"ce4bhnh2rcd13ifvqgug","pricing_plan_id":"cebpf4jnsgd1na2vs0mg"},{"bike_id":"dc6b02f2-a2bd-4e81-a971-ae790e0ec7de","system_id":"levelo_inurba_marseille","lat":43.26063,"lon":5.39397,"is_reserved":false,"is_disabled":false,"rental_uris":{"android":"levelo://app?vid=dc6b02f2-a2bd-4e81-a971-ae790e0ec7de","ios":"levelo://app?vid=dc6b02f2-a2bd-4e81-a971-ae790e0ec7de"},"vehicle_type_id":"4","last_reported":1730297307,"current_range_meters":23200,"station_id":"ce4bhh92rcd13ifvqfj0","pricing_plan_id":"cebpf4jnsgd1na2vs0mg"},{"bike_id":"b55b861e-de65-4f9e-b01d-ca0b628fbbd4","system_id":"levelo_inurba_marseille","lat":43.32049,"lon":5.41557,"is_reserved":false,"is_disabled":false,"rental_uris":{"android":"levelo://app?vid=b55b861e-de65-4f9e-b01d-ca0b628fbbd4","ios":"levelo://app?vid=b55b861e-de65-4f9e-b01d-ca0b628fbbd4"},"vehicle_type_id":"4","last_reported":1730297307,"current_range_meters":37600,"station_id":"ce4bhq92rcd13ifvqhkg","pricing_plan_id":"cebpf4jnsgd1na2vs0mg"},{"bike_id":"83346ad2-1f5f-479d-843e-899ab63acbfd","system_id":"levelo_inurba_marseille","lat":43.30898,"lon":5.37194,"is_reserved":false,"is_disabled":false,"rental_uris":{"android":"levelo://app?vid=83346ad2-1f5f-479d-843e-899ab63acbfd","ios":"levelo://app?vid=83346ad2-1f5f-479d-843e-899ab63acbfd"},"vehicle_type_id":"4","last_reported":1730297307,"current_range_meters":38800,"station_id":"ce4bguh2rcd13ifvqckg","pricing_plan_id":"cebpf4jnsgd1na2vs0mg"},{"bike_id":"712dbc53-5904-4b2b-b4b5-79a8fe69f07c","system_id":"levelo_inurba_marseille","lat":43.28976,"lon":5.37847,"is_reserved":false,"is_disabled":false,"rental_uris":{"android":"levelo://app?vid=712dbc53-5904-4b2b-b4b5-79a8fe69f07c","ios":"levelo://app?vid=712dbc53-5904-4b2b-b4b5-79a8fe69f07c"},"vehicle_type_id":"4","last_reported":1730297307,"current_range_meters":23200,"station_id":"ce4bh9p2rcd13ifvqed0","pricing_plan_id":"cebpf4jnsgd1na2vs0mg"},{"bike_id":"f4f0c396-6a67-4f18-9402-88b4f8a3a765","system_id":"levelo_inurba_marseille","lat":43.28977,"lon":5.37841,"is_reserved":false,"is_disabled":false,"rental_uris":{"android":"levelo://app?vid=f4f0c396-6a67-4f18-9402-88b4f8a3a765","ios":"levelo://app?vid=f4f0c396-6a67-4f18-9402-88b4f8a3a765"},"vehicle_type_id":"4","last_reported":1730297307,"current_range_meters":34000,"station_id":"ce4bh9p2rcd13ifvqed0","pricing_plan_id":"cebpf4jnsgd1na2vs0mg"},{"bike_id":"7e409fc8-b455-4ba8-9b21-e6181ea68e5f","system_id":"levelo_inurba_marseille","lat":43.26568,"lon":5.39024,"is_reserved":false,"is_disabled":false,"rental_uris":{"android":"levelo://app?vid=7e409fc8-b455-4ba8-9b21-e6181ea68e5f","ios":"levelo://app?vid=7e409fc8-b455-4ba8-9b21-e6181ea68e5f"},"vehicle_type_id":"4","last_reported":1730297307,"current_range_meters":10800,"station_id":"ce4bhe12rcd13ifvqf30","pricing_plan_id":"cebpf4jnsgd1na2vs0mg"},{"bike_id":"2b7478b7-886e-4bf0-9251-71e385d862fb","system_id":"levelo_inurba_marseille","lat":43.29555,"lon":5.42289,"is_reserved":false,"is_disabled":false,"rental_uris":{"android":"levelo://app?vid=2b7478b7-886e-4bf0-9251-71e385d862fb","ios":"levelo://app?vid=2b7478b7-886e-4bf0-9251-71e385d862fb"},"vehicle_type_id":"4","last_reported":1730297307,"current_range_meters":39200,"station_id":"ce4bhph2rcd13ifvqhdg","pricing_plan_id":"cebpf4jnsgd1na2vs0mg"},{"bike_id":"bfb1a2f2-5dd7-404a-90bb-be56759f829f","system_id":"levelo_inurba_marseille","lat":43.27998,"lon":5.41653,"is_reserved":false,"is_disabled":false,"rental_uris":{"android":"levelo://app?vid=bfb1a2f2-5dd7-404a-90bb-be56759f829f","ios":"levelo://app?vid=bfb1a2f2-5dd7-404a-90bb-be56759f829f"},"vehicle_type_id":"4","last_reported":1730297307,"current_range_meters":36800,"station_id":"ce4bho12rcd13ifvqh1g","pricing_plan_id":"cebpf4jnsgd1na2vs0mg"},{"bike_id":"c10359e4-d1ad-4465-8363-8bbf244ac8cc","system_id":"levelo_inurba_marseille","lat":43.28269,"lon":5.35074,"is_reserved":false,"is_disabled":false,"rental_uris":{"android":"levelo://app?vid=c10359e4-d1ad-4465-8363-8bbf244ac8cc","ios":"levelo://app?vid=c10359e4-d1ad-4465-8363-8bbf244ac8cc"},"vehicle_type_id":"4","last_reported":1730297307,"current_range_meters":16000,"station_id":"ce4bhbp2rcd13ifvqerg","pricing_plan_id":"cebpf4jnsgd1na2vs0mg"},{"bike_id":"9248cf01-eb15-4e68-bcac-901a03c5bf70","system_id":"levelo_inurba_marseille","lat":43.31236,"lon":5.36881,"is_reserved":false,"is_disabled":false,"rental_uris":{"android":"levelo://app?vid=9248cf01-eb15-4e68-bcac-901a03c5bf70","ios":"levelo://app?vid=9248cf01-eb15-4e68-bcac-901a03c5bf70"},"vehicle_type_id":"4","last_reported":1730297307,"current_range_meters":38400,"station_id":"ce4bgl92rcd13ifvqbq0","pricing_plan_id":"cebpf4jnsgd1na2vs0mg"},{"bike_id":"f645c90b-4ed6-4548-8c44-d6aa748cbf89","system_id":"levelo_inurba_marseille","lat":43.28108,"lon":5.37838,"is_reserved":false,"is_disabled":false,"rental_uris":{"android":"levelo://app?vid=f645c90b-4ed6-4548-8c44-d6aa748cbf89","ios":"levelo://app?vid=f645c90b-4ed6-4548-8c44-d6aa748cbf89"},"vehicle_type_id":"4","last_reported":1730297307,"current_range_meters":9200,"station_id":"ce4bha12rcd13ifvqee0","pricing_plan_id":"cebpf4jnsgd1na2vs0mg"},{"bike_id":"9a1430ec-cd87-467a-803c-63534a1b6ffc","system_id":"levelo_inurba_marseille","lat":43.28002,"lon":5.4002,"is_reserved":false,"is_disabled":false,"rental_uris":{"android":"levelo://app?vid=9a1430ec-cd87-467a-803c-63534a1b6ffc","ios":"levelo://app?vid=9a1430ec-cd87-467a-803c-63534a1b6ffc"},"vehicle_type_id":"4","last_reported":1730297307,"current_range_meters":26000,"station_id":"ce4bho92rcd13ifvqh4g","pricing_plan_id":"cebpf4jnsgd1na2vs0mg"},{"bike_id":"868ae6b6-b7c2-435c-8596-294d90610d7f","system_id":"levelo_inurba_marseille","lat":43.28656,"lon":5.38949,"is_reserved":false,"is_disabled":false,"rental_uris":{"android":"levelo://app?vid=868ae6b6-b7c2-435c-8596-294d90610d7f","ios":"levelo://app?vid=868ae6b6-b7c2-435c-8596-294d90610d7f"},"vehicle_type_id":"4","last_reported":1730297307,"current_range_meters":25200,"station_id":"ce4bgt12rcd13ifvqce0","pricing_plan_id":"cebpf4jnsgd1na2vs0mg"},{"bike_id":"9a79c046-ffbd-430c-9b08-0a56da8292f5","system_id":"levelo_inurba_marseille","lat":43.23174,"lon":5.3998,"is_reserved":false,"is_disabled":false,"rental_uris":{"android":"levelo://app?vid=9a79c046-ffbd-430c-9b08-0a56da8292f5","ios":"levelo://app?vid=9a79c046-ffbd-430c-9b08-0a56da8292f5"},"vehicle_type_id":"4","last_reported":1730297307,"current_range_meters":38800,"station_id":"ce4bhn12rcd13ifvqgqg","pricing_plan_id":"cebpf4jnsgd1na2vs0mg"},{"bike_id":"2dd32386-0bf0-496a-9fbc-0ba8a741a76e","system_id":"levelo_inurba_marseille","lat":43.25003,"lon":5.38928,"is_reserved":false,"is_disabled":false,"rental_uris":{"android":"levelo://app?vid=2dd32386-0bf0-496a-9fbc-0ba8a741a76e","ios":"levelo://app?vid=2dd32386-0bf0-496a-9fbc-0ba8a741a76e"},"vehicle_type_id":"4","last_reported":1730297307,"current_range_meters":27600,"station_id":"ce4bhgp2rcd13ifvqfd0","pricing_plan_id":"cebpf4jnsgd1na2vs0mg"},{"bike_id":"00570a9a-70dc-4fd9-a21d-b33665529146","system_id":"levelo_inurba_marseille","lat":43.23968,"lon":5.36634,"is_reserved":false,"is_disabled":false,"rental_uris":{"android":"levelo://app?vid=00570a9a-70dc-4fd9-a21d-b33665529146","ios":"levelo://app?vid=00570a9a-70dc-4fd9-a21d-b33665529146"},"vehicle_type_id":"4","last_reported":1730297307,"current_range_meters":39200,"station_id":"ce4bhi12rcd13ifvqfp0","pricing_plan_id":"cebpf4jnsgd1na2vs0mg"},{"bike_id":"526882da-4639-42c7-bacb-3059550f45f5","system_id":"levelo_inurba_marseille","lat":43.29532,"lon":5.38557,"is_reserved":false,"is_disabled":false,"rental_uris":{"android":"levelo://app?vid=526882da-4639-42c7-bacb-3059550f45f5","ios":"levelo://app?vid=526882da-4639-42c7-bacb-3059550f45f5"},"vehicle_type_id":"4","last_reported":1730297307,"current_range_meters":34000,"station_id":"ce4bgih2rcd13ifvqba0","pricing_plan_id":"cebpf4jnsgd1na2vs0mg"},{"bike_id":"9592eb1a-4a46-4535-b3fe-0af141dace43","system_id":"levelo_inurba_marseille","lat":43.23959,"lon":5.36629,"is_reserved":false,"is_disabled":false,"rental_uris":{"android":"levelo://app?vid=9592eb1a-4a46-4535-b3fe-0af141dace43","ios":"levelo://app?vid=9592eb1a-4a46-4535-b3fe-0af141dace43"},"vehicle_type_id":"4","last_reported":1730297307,"current_range_meters":31200,"station_id":"ce4bhi12rcd13ifvqfp0","pricing_plan_id":"cebpf4jnsgd1na2vs0mg"},{"bike_id":"b417d7d7-0627-4410-8749-b96ae8e8649c","system_id":"levelo_inurba_marseille","lat":43.28159,"lon":5.4264,"is_reserved":false,"is_disabled":false,"rental_uris":{"android":"levelo://app?vid=b417d7d7-0627-4410-8749-b96ae8e8649c","ios":"levelo://app?vid=b417d7d7-0627-4410-8749-b96ae8e8649c"},"vehicle_type_id":"4","last_reported":1730297307,"current_range_meters":11600,"station_id":"ce4bhnh2rcd13ifvqgug","pricing_plan_id":"cebpf4jnsgd1na2vs0mg"},{"bike_id":"a8153670-394d-464c-bce0-435dd8a6a2a1","system_id":"levelo_inurba_marseille","lat":43.29703,"lon":5.36615,"is_reserved":false,"is_disabled":false,"rental_uris":{"android":"levelo://app?vid=a8153670-394d-464c-bce0-435dd8a6a2a1","ios":"levelo://app?vid=a8153670-394d-464c-bce0-435dd8a6a2a1"},"vehicle_type_id":"4","last_reported":1730297307,"current_range_meters":36000,"station_id":"ce4bgn12rcd13ifvqbt0","pricing_plan_id":"cebpf4jnsgd1na2vs0mg"},{"bike_id":"9e46708d-d725-4de5-b98b-401586e420e4","system_id":"levelo_inurba_marseille","lat":43.32542,"lon":5.41451,"is_reserved":false,"is_disabled":false,"rental_uris":{"android":"levelo://app?vid=9e46708d-d725-4de5-b98b-401586e420e4","ios":"levelo://app?vid=9e46708d-d725-4de5-b98b-401586e420e4"},"vehicle_type_id":"4","last_reported":1730297307,"current_range_meters":38800,"station_id":"ce4bhq12rcd13ifvqhhg","pricing_plan_id":"cebpf4jnsgd1na2vs0mg"},{"bike_id":"edf12170-3785-4ee7-9afc-827b9cbdff54","system_id":"levelo_inurba_marseille","lat":43.28267,"lon":5.35078,"is_reserved":false,"is_disabled":false,"rental_uris":{"android":"levelo://app?vid=edf12170-3785-4ee7-9afc-827b9cbdff54","ios":"levelo://app?vid=edf12170-3785-4ee7-9afc-827b9cbdff54"},"vehicle_type_id":"4","last_reported":1730297307,"current_range_meters":26000,"station_id":"ce4bhbp2rcd13ifvqerg","pricing_plan_id":"cebpf4jnsgd1na2vs0mg"},{"bike_id":"4385824f-1b79-4ff3-9ee7-d10325ecbddc","system_id":"levelo_inurba_marseille","lat":43.30355,"lon":5.41882,"is_reserved":false,"is_disabled":false,"rental_uris":{"android":"levelo://app?vid=4385824f-1b79-4ff3-9ee7-d10325ecbddc","ios":"levelo://app?vid=4385824f-1b79-4ff3-9ee7-d10325ecbddc"},"vehicle_type_id":"4","last_reported":1730297307,"current_range_meters":36000,"station_id":"ce4bhop2rcd13ifvqh7g","pricing_plan_id":"cebpf4jnsgd1na2vs0mg"},{"bike_id":"5b3308d1-11b3-40cf-802c-22e8d37b959a","system_id":"levelo_inurba_marseille","lat":43.22927,"lon":5.35371,"is_reserved":false,"is_disabled":false,"rental_uris":{"android":"levelo://app?vid=5b3308d1-11b3-40cf-802c-22e8d37b959a","ios":"levelo://app?vid=5b3308d1-11b3-40cf-802c-22e8d37b959a"},"vehicle_type_id":"4","last_reported":1730297307,"current_range_meters":25200,"station_id":"cpo3532slgdg3j2ikp40","pricing_plan_id":"cebpf4jnsgd1na2vs0mg"},{"bike_id":"adba48b8-a465-47ad-8e0b-be86dea8ec09","system_id":"levelo_inurba_marseille","lat":43.337444,"lon":5.374475,"is_reserved":false,"is_disabled":false,"rental_uris":{"android":"levelo://app?vid=adba48b8-a465-47ad-8e0b-be86dea8ec09","ios":"levelo://app?vid=adba48b8-a465-47ad-8e0b-be86dea8ec09"},"vehicle_type_id":"4","last_reported":1730297307,"current_range_meters":19600,"station_id":"","pricing_plan_id":"cebpf4jnsgd1na2vs0mg"},{"bike_id":"00230415-7e52-4c44-be9f-c7b241250dcc","system_id":"levelo_inurba_marseille","lat":43.2656,"lon":5.39001,"is_reserved":false,"is_disabled":false,"rental_uris":{"android":"levelo://app?vid=00230415-7e52-4c44-be9f-c7b241250dcc","ios":"levelo://app?vid=00230415-7e52-4c44-be9f-c7b241250dcc"},"vehicle_type_id":"4","last_reported":1730297307,"current_range_meters":38000,"station_id":"ce4bhe12rcd13ifvqf30","pricing_plan_id":"cebpf4jnsgd1na2vs0mg"},{"bike_id":"f0462bbc-e960-41e2-9b23-3bdcb530617d","system_id":"levelo_inurba_marseille","lat":43.321594,"lon":5.383025,"is_reserved":false,"is_disabled":false,"rental_uris":{"android":"levelo://app?vid=f0462bbc-e960-41e2-9b23-3bdcb530617d","ios":"levelo://app?vid=f0462bbc-e960-41e2-9b23-3bdcb530617d"},"vehicle_type_id":"4","last_reported":1730297307,"current_range_meters":22000,"station_id":"ce4bhr12rcd13ifvqhqg","pricing_plan_id":"cebpf4jnsgd1na2vs0mg"},{"bike_id":"a93ad5fd-c63e-44c4-b2a9-babe65862166","system_id":"levelo_inurba_marseille","lat":43.29036,"lon":5.39974,"is_reserved":false,"is_disabled":false,"rental_uris":{"android":"levelo://app?vid=a93ad5fd-c63e-44c4-b2a9-babe65862166","ios":"levelo://app?vid=a93ad5fd-c63e-44c4-b2a9-babe65862166"},"vehicle_type_id":"4","last_reported":1730297307,"current_range_meters":26800,"station_id":"ce4bh392rcd13ifvqdm0","pricing_plan_id":"cebpf4jnsgd1na2vs0mg"},{"bike_id":"520a9551-b03c-4322-a45b-0362c62d111e","system_id":"levelo_inurba_marseille","lat":43.27381,"lon":5.3628,"is_reserved":false,"is_disabled":false,"rental_uris":{"android":"levelo://app?vid=520a9551-b03c-4322-a45b-0362c62d111e","ios":"levelo://app?vid=520a9551-b03c-4322-a45b-0362c62d111e"},"vehicle_type_id":"4","last_reported":1730297307,"current_range_meters":2800,"station_id":"ce4bhbh2rcd13ifvqeo0","pricing_plan_id":"cebpf4jnsgd1na2vs0mg"},{"bike_id":"8cdf364b-bace-48cf-9f26-c4aba9ec8c52","system_id":"levelo_inurba_marseille","lat":43.28276,"lon":5.35068,"is_reserved":false,"is_disabled":false,"rental_uris":{"android":"levelo://app?vid=8cdf364b-bace-48cf-9f26-c4aba9ec8c52","ios":"levelo://app?vid=8cdf364b-bace-48cf-9f26-c4aba9ec8c52"},"vehicle_type_id":"4","last_reported":1730297307,"current_range_meters":39200,"station_id":"ce4bhbp2rcd13ifvqerg","pricing_plan_id":"cebpf4jnsgd1na2vs0mg"},{"bike_id":"eb7036d5-c04c-40aa-8b36-58ae3ba7b994","system_id":"levelo_inurba_marseille","lat":43.29094,"lon":5.38135,"is_reserved":false,"is_disabled":false,"rental_uris":{"android":"levelo://app?vid=eb7036d5-c04c-40aa-8b36-58ae3ba7b994","ios":"levelo://app?vid=eb7036d5-c04c-40aa-8b36-58ae3ba7b994"},"vehicle_type_id":"4","last_reported":1730297307,"current_range_meters":8800,"station_id":"ce4bh512rcd13ifvqe2g","pricing_plan_id":"cebpf4jnsgd1na2vs0mg"},{"bike_id":"8538f4ed-031f-4afa-a49f-55ce84ad9fdb","system_id":"levelo_inurba_marseille","lat":43.28654,"lon":5.38674,"is_reserved":false,"is_disabled":false,"rental_uris":{"android":"levelo://app?vid=8538f4ed-031f-4afa-a49f-55ce84ad9fdb","ios":"levelo://app?vid=8538f4ed-031f-4afa-a49f-55ce84ad9fdb"},"vehicle_type_id":"4","last_reported":1730297307,"current_range_meters":37600,"station_id":"ce4bh492rcd13ifvqdug","pricing_plan_id":"cebpf4jnsgd1na2vs0mg"},{"bike_id":"a2b6022a-9f66-43a6-9e47-d94a4ec3e315","system_id":"levelo_inurba_marseille","lat":43.31714,"lon":5.37746,"is_reserved":false,"is_disabled":false,"rental_uris":{"android":"levelo://app?vid=a2b6022a-9f66-43a6-9e47-d94a4ec3e315","ios":"levelo://app?vid=a2b6022a-9f66-43a6-9e47-d94a4ec3e315"},