{"last_updated":1732867983,"ttl":60,"version":"2.2","data":{"bikes":[{"bike_id":"090d29ff-61c6-4ab7-a113-816fbc7a68c7","system_id":"levelo_inurba_marseille","lat":43.30176,"lon":5.36607,"is_reserved":false,"is_disabled":false,"rental_uris":{"android":"levelo://app?vid=090d29ff-61c6-4ab7-a113-816fbc7a68c7","ios":"levelo://app?vid=090d29ff-61c6-4ab7-a113-816fbc7a68c7"},"vehicle_type_id":"4","last_reported":1732867983,"current_range_meters":34000,"station_id":"ce4bgrh2rcd13ifvqc8g","pricing_plan_id":"cebpf4jnsgd1na2vs0mg"},{"bike_id":"b856c8b4-412d-4c25-bdd4-e6b29aed04cb","system_id":"levelo_inurba_marseille","lat":43.22932,"lon":5.35378,"is_reserved":false,"is_disabled":false,"rental_uris":{"android":"levelo://app?vid=b856c8b4-412d-4c25-bdd4-e6b29aed04cb","ios":"levelo://app?vid=b856c8b4-412d-4c25-bdd4-e6b29aed04cb"},"vehicle_type_id":"4","last_reported":1732867983,"current_range_meters":38800,"station_id":"cpo3532slgdg3j2ikp40","pricing_plan_id":"cebpf4jnsgd1na2vs0mg"},{"bike_id":"963c4b2c-5f04-435c-94c4-a4cda56ddff8","system_id":"levelo_inurba_marseille","lat":43.30962,"lon":5.39043,"is_reserved":false,"is_disabled":false,"rental_uris":{"android":"levelo://app?vid=963c4b2c-5f04-435c-94c4-a4cda56ddff8","ios":"levelo://app?vid=963c4b2c-5f04-435c-94c4-a4cda56ddff8"},"vehicle_type_id":"4","last_reported":1732867983,"current_range_meters":21600,"station_id":"ce4bgup2rcd13ifvqco0","pricing_plan_id":"cebpf4jnsgd1na2vs0mg"},{"bike_id":"f72b05ca-14b5-4cc1-9973-89a8dd5c2d45","system_id":"levelo_inurba_marseille","lat":43.30461,"lon":5.37909,"is_reserved":false,"is_disabled":false,"rental_uris":{"android":"levelo://app?vid=f72b05ca-14b5-4cc1-9973-89a8dd5c2d45","ios":"levelo://app?vid=f72b05ca-14b5-4cc1-9973-89a8dd5c2d45"},"vehicle_type_id":"4","last_reported":1732867983,"current_range_meters":30800,"station_id":"ce4bgup2rcd13ifvqcn0","pricing_plan_id":"cebpf4jnsgd1na2vs0mg"},{"bike_id":"8d406c1a-f24c-4769-a560-66f9c6249ad5","system_id":"levelo_inurba_marseille","lat":43.317152,"lon":5.437068,"is_reserved":false,"is_disabled":false,"rental_uris":{"android":"levelo://app?vid=8d406c1a-f24c-4769-a560-66f9c6249ad5","ios":"levelo://app?vid=8d406c1a-f24c-4769-a560-66f9c6249ad5"},"vehicle_type_id":"4","last_reported":1732867983,"current_range_meters":16000,"station_id":"ce4bhp92rcd13ifvqhcg","pricing_plan_id":"cebpf4jnsgd1na2vs0mg"},{"bike_id":"742641cb-ede7-44c9-9eca-ae4b65bf9ac5","system_id":"levelo_inurba_marseille","lat":43.25571,"lon":5.38247,"is_reserved":false,"is_disabled":true,"rental_uris":{"android":"levelo://app?vid=742641cb-ede7-44c9-9eca-ae4b65bf9ac5","ios":"levelo://app?vid=742641cb-ede7-44c9-9eca-ae4b65bf9ac5"},"vehicle_type_id":"4","last_reported":1732867983,"current_range_meters":20800,"station_id":"ce4bhih2rcd13ifvqfs0","pricing_plan_id":"cebpf4jnsgd1na2vs0mg"},{"bike_id":"fac63031-3de9-41dc-941a-a395646bc4e4","system_id":"levelo_inurba_marseille","lat":43.25566,"lon":5.38244,"is_reserved":false,"is_disabled":false,"rental_uris":{"android":"levelo://app?vid=fac63031-3de9-41dc-941a-a395646bc4e4","ios":"levelo://app?vid=fac63031-3de9-41dc-941a-a395646bc4e4"},"vehicle_type_id":"4","last_reported":1732867983,"current_range_meters":7200,"station_id":"ce4bhih2rcd13ifvqfs0","pricing_plan_id":"cebpf4jnsgd1na2vs0mg"},{"bike_id":"3d9237e1-11a2-4f25-99bf-fe83b0a2ddd6","system_id":"levelo_inurba_marseille","lat":43.24078,"lon":5.37759,"is_reserved":false,"is_disabled":false,"rental_uris":{"android":"levelo://app?vid=3d9237e1-11a2-4f25-99bf-fe83b0a2ddd6","ios":"levelo://app?vid=3d9237e1-11a2-4f25-99bf-fe83b0a2ddd6"},"vehicle_type_id":"4","last_reported":1732867983,"current_range_meters":35600,"station_id":"ce4bhnp2rcd13ifvqgvg","pricing_plan_id":"cebpf4jnsgd1na2vs0mg"},{"bike_id":"c4fbaeb3-8553-46de-a365-37ff5d9f95f9","system_id":"levelo_inurba_marseille","lat":43.25936,"lon":5.40909,"is_reserved":false,"is_disabled":true,"rental_uris":{"android":"levelo://app?vid=c4fbaeb3-8553-46de-a365-37ff5d9f95f9","ios":"levelo://app?vid=c4fbaeb3-8553-46de-a365-37ff5d9f95f9"},"vehicle_type_id":"4","last_reported":1732867983,"current_range_meters":22000,"station_id":"ce4bhm92rcd13ifvqglg","pricing_plan_id":"cebpf4jnsgd1na2vs0mg"},{"bike_id":"0bb615d3-a859-46b8-8041-b46f9b3edbf9","system_id":"levelo_inurba_marseille","lat":43.30466,"lon":5.37916,"is_reserved":false,"is_disabled":false,"rental_uris":{"android":"levelo://app?vid=0bb615d3-a859-46b8-8041-b46f9b3edbf9","ios":"levelo://app?vid=0bb615d3-a859-46b8-8041-b46f9b3edbf9"},"vehicle_type_id":"4","last_reported":1732867983,"current_range_meters":39200,"station_id":"ce4bgup2rcd13ifvqcn0","pricing_plan_id":"cebpf4jnsgd1na2vs0mg"},{"bike_id":"d42e128e-48fb-47a8-bcaa-caad8001c068","system_id":"levelo_inurba_marseille","lat":43.28927,"lon":5.36391,"is_reserved":false,"is_disabled":false,"rental_uris":{"android":"levelo://app?vid=d42e128e-48fb-47a8-bcaa-caad8001c068","ios":"levelo://app?vid=d42e128e-48fb-47a8-bcaa-caad8001c068"},"vehicle_type_id":"4","last_reported":1732867983,"current_range_meters":38000,"station_id":"ce4bhc92rcd13ifvqetg","pricing_plan_id":"cebpf4jnsgd1na2vs0mg"},{"bike_id":"554b6bde-c7d7-4167-a1a3-5b51fe3d3da7","system_id":"levelo_inurba_marseille","lat":43.30942,"lon":5.39033,"is_reserved":false,"is_disabled":false,"rental_uris":{"android":"levelo://app?vid=554b6bde-c7d7-4167-a1a3-5b51fe3d3da7","ios":"levelo://app?vid=554b6bde-c7d7-4167-a1a3-5b51fe3d3da7"},"vehicle_type_id":"4","last_reported":1732867983,"current_range_meters":38000,"station_id":"ce4bgup2rcd13ifvqco0","pricing_plan_id":"cebpf4jnsgd1na2vs0mg"},{"bike_id":"65b7a694-612f-4c4b-8623-b7530078c2ae","system_id":"levelo_inurba_marseille","lat":43.2904,"lon":5.35913,"is_reserved":false,"is_disabled":true,"rental_uris":{"android":"levelo://app?vid=65b7a694-612f-4c4b-8623-b7530078c2ae","ios":"levelo://app?vid=65b7a694-612f-4c4b-8623-b7530078c2ae"},"vehicle_type_id":"4","last_reported":1732867983,"current_range_meters":38800,"station_id":"ce4bha92rcd13ifvqeg0","pricing_plan_id":"cebpf4jnsgd1na2vs0mg"},{"bike_id":"9f43f186-df82-4fde-9c46-9d1711abe5bb","system_id":"levelo_inurba_marseille","lat":43.31229,"lon":5.3687,"is_reserved":false,"is_disabled":false,"rental_uris":{"android":"levelo://app?vid=9f43f186-df82-4fde-9c46-9d1711abe5bb","ios":"levelo://app?vid=9f43f186-df82-4fde-9c46-9d1711abe5bb"},"vehicle_type_id":"4","last_reported":1732867983,"current_range_meters":28000,"station_id":"ce4bgl92rcd13ifvqbq0","pricing_plan_id":"cebpf4jnsgd1na2vs0mg"},{"bike_id":"ce15a521-8a1d-47b7-92c8-091ca367d00e","system_id":"levelo_inurba_marseille","lat":43.33749,"lon":5.37439,"is_reserved":false,"is_disabled":false,"rental_uris":{"android":"levelo://app?vid=ce15a521-8a1d-47b7-92c8-091ca367d00e","ios":"levelo://app?vid=ce15a521-8a1d-47b7-92c8-091ca367d00e"},"vehicle_type_id":"4","last_reported":1732867983,"current_range_meters":34000,"station_id":"","pricing_plan_id":"cebpf4jnsgd1na2vs0mg"},{"bike_id":"4eaf0ebf-c667-4e9a-9d6a-5f0d2be01137","system_id":"levelo_inurba_marseille","lat":43.28672,"lon":5.36353,"is_reserved":false,"is_disabled":false,"rental_uris":{"android":"levelo://app?vid=4eaf0ebf-c667-4e9a-9d6a-5f0d2be01137","ios":"levelo://app?vid=4eaf0ebf-c667-4e9a-9d6a-5f0d2be01137"},"vehicle_type_id":"4","last_reported":1732867983,"current_range_meters":38800,"station_id":"ce4bhah2rcd13ifvqej0","pricing_plan_id":"cebpf4jnsgd1na2vs0mg"},{"bike_id":"00e56588-f782-403c-80dc-0b13ee66949a","system_id":"levelo_inurba_marseille","lat":43.29337,"lon":5.40137,"is_reserved":false,"is_disabled":true,"rental_uris":{"android":"levelo://app?vid=00e56588-f782-403c-80dc-0b13ee66949a","ios":"levelo://app?vid=00e56588-f782-403c-80dc-0b13ee66949a"},"vehicle_type_id":"4","last_reported":1732867983,"current_range_meters":39200,"station_id":"","pricing_plan_id":"cebpf4jnsgd1na2vs0mg"},{"bike_id":"ba2d1a62-e632-4169-9a28-b83f6acba689","system_id":"levelo_inurba_marseille","lat":43.26328,"lon":5.40459,"is_reserved":false,"is_disabled":true,"rental_uris":{"android":"levelo://app?vid=ba2d1a62-e632-4169-9a28-b83f6acba689","ios":"levelo://app?vid=ba2d1a62-e632-4169-9a28-b83f6acba689"},"vehicle_type_id":"4","last_reported":1732867983,"current_range_meters":0,"station_id":"","pricing_plan_id":"cebpf4jnsgd1na2vs0mg"},{"bike_id":"e0387399-7e1b-44ba-ba1d-bf2bd6c87378","system_id":"levelo_inurba_marseille","lat":43.30784,"lon":5.37641,"is_reserved":false,"is_disabled":false,"rental_uris":{"android":"levelo://app?vid=e0387399-7e1b-44ba-ba1d-bf2bd6c87378","ios":"levelo://app?vid=e0387399-7e1b-44ba-ba1d-bf2bd6c87378"},"vehicle_type_id":"4","last_reported":1732867983,"current_range_meters":30000,"station_id":"ce4bgv92rcd13ifvqcq0","pricing_plan_id":"cebpf4jnsgd1na2vs0mg"},{"bike_id":"41ead4e9-439a-4c85-9c8e-819bad4cc319","system_id":"levelo_inurba_marseille","lat":43.25579,"lon":5.38236,"is_reserved":false,"is_disabled":false,"rental_uris":{"android":"levelo://app?vid=41ead4e9-439a-4c85-9c8e-819bad4cc319","ios":"levelo://app?vid=41ead4e9-439a-4c85-9c8e-819bad4cc319"},"vehicle_type_id":"4","last_reported":1732867983,"current_range_meters":39200,"station_id":"ce4bhih2rcd13ifvqfs0","pricing_plan_id":"cebpf4jnsgd1na2vs0mg"},{"bike_id":"ff9a1ec5-be80-43ec-9b6e-d2bb637a4f30","system_id":"levelo_inurba_marseille","lat":43.287204,"lon":5.399988,"is_reserved":false,"is_disabled":true,"rental_uris":{"android":"levelo://app?vid=ff9a1ec5-be80-43ec-9b6e-d2bb637a4f30","ios":"levelo://app?vid=ff9a1ec5-be80-43ec-9b6e-d2bb637a4f30"},"vehicle_type_id":"4","last_reported":1732867983,"current_range_meters":1200,"station_id":"ce4bho92rcd13ifvqh3g","pricing_plan_id":"cebpf4jnsgd1na2vs0mg"},{"bike_id":"6f7949e1-de87-4a49-8620-fec27e04447f","system_id":"levelo_inurba_marseille","lat":43.33738,"lon":5.39191,"is_reserved":false,"is_disabled":false,"rental_uris":{"android":"levelo://app?vid=6f7949e1-de87-4a49-8620-fec27e04447f","ios":"levelo://app?vid=6f7949e1-de87-4a49-8620-fec27e04447f"},"vehicle_type_id":"4","last_reported":1732867983,"current_range_meters":32000,"station_id":"ce4bhr92rcd13ifvqhsg","pricing_plan_id":"cebpf4jnsgd1na2vs0mg"},{"bike_id":"d6af473c-317d-44a4-ba58-092abf84584f","system_id":"levelo_inurba_marseille","lat":43.22933,"lon":5.3538,"is_reserved":false,"is_disabled":false,"rental_uris":{"android":"levelo://app?vid=d6af473c-317d-44a4-ba58-092abf84584f","ios":"levelo://app?vid=d6af473c-317d-44a4-ba58-092abf84584f"},"vehicle_type_id":"4","last_reported":1732867983,"current_range_meters":38800,"station_id":"cpo3532slgdg3j2ikp40","pricing_plan_id":"cebpf4jnsgd1na2vs0mg"},{"bike_id":"2aa3eeb0-144d-43de-91b5-edf07e9cb90a","system_id":"levelo_inurba_marseille","lat":43.28944,"lon":5.39637,"is_reserved":false,"is_disabled":true,"rental_uris":{"android":"levelo://app?vid=2aa3eeb0-144d-43de-91b5-edf07e9cb90a","ios":"levelo://app?vid=2aa3eeb0-144d-43de-91b5-edf07e9cb90a"},"vehicle_type_id":"4","last_reported":1732867983,"current_range_meters":30400,"station_id":"ce4bh3h2rcd13ifvqdn0","pricing_plan_id":"cebpf4jnsgd1na2vs0mg"},{"bike_id":"301ba404-e4ab-4cc6-bbf0-243e67febc55","system_id":"levelo_inurba_marseille","lat":43.26212,"lon":5.37441,"is_reserved":false,"is_disabled":false,"rental_uris":{"android":"levelo://app?vid=301ba404-e4ab-4cc6-bbf0-243e67febc55","ios":"levelo://app?vid=301ba404-e4ab-4cc6-bbf0-243e67febc55"},"vehicle_type_id":"4","last_reported":1732867983,"current_range_meters":2800,"station_id":"ce4bhgp2rcd13ifvqfc0","pricing_plan_id":"cebpf4jnsgd1na2vs0mg"},{"bike_id":"d873b31d-bfeb-45ba-95cb-ddd4b051333e","system_id":"levelo_inurba_marseille","lat":43.30162,"lon":5.38122,"is_reserved":false,"is_disabled":true,"rental_uris":{"android":"levelo://app?vid=d873b31d-bfeb-45ba-95cb-ddd4b051333e","ios":"levelo://app?vid=d873b31d-bfeb-45ba-95cb-ddd4b051333e"},"vehicle_type_id":"4","last_reported":1732867983,"current_range_meters":36400,"station_id":"ce4bgjp2rcd13ifvqbh0","pricing_plan_id":"cebpf4jnsgd1na2vs0mg"},{"bike_id":"0dce51df-dda1-4b82-a09f-af3670b57517","system_id":"levelo_inurba_marseille","lat":43.24076,"lon":5.37758,"is_reserved":false,"is_disabled":false,"rental_uris":{"android":"levelo://app?vid=0dce51df-dda1-4b82-a09f-af3670b57517","ios":"levelo://app?vid=0dce51df-dda1-4b82-a09f-af3670b57517"},"vehicle_type_id":"4","last_reported":1732867983,"current_range_meters":36800,"station_id":"ce4bhnp2rcd13ifvqgvg","pricing_plan_id":"cebpf4jnsgd1na2vs0mg"},{"bike_id":"7e024005-1ab6-48f4-ab84-a8b05904a9a7","system_id":"levelo_inurba_marseille","lat":43.32293,"lon":5.38266,"is_reserved":false,"is_disabled":false,"rental_uris":{"android":"levelo://app?vid=7e024005-1ab6-48f4-ab84-a8b05904a9a7","ios":"levelo://app?vid=7e024005-1ab6-48f4-ab84-a8b05904a9a7"},"vehicle_type_id":"4","last_reported":1732867983,"current_range_meters":25600,"station_id":"ce4bhr12rcd13ifvqhqg","pricing_plan_id":"cebpf4jnsgd1na2vs0mg"},{"bike_id":"52e410fd-1783-461b-a786-bcb12700645d","system_id":"levelo_inurba_marseille","lat":43.31354,"lon":5.36706,"is_reserved":false,"is_disabled":false,"rental_uris":{"android":"levelo://app?vid=52e410fd-1783-461b-a786-bcb12700645d","ios":"levelo://app?vid=52e410fd-1783-461b-a786-bcb12700645d"},"vehicle_type_id":"4","last_reported":1732867983,"current_range_meters":28400,"station_id":"ce4bgr92rcd13ifvqc6g","pricing_plan_id":"cebpf4jnsgd1na2vs0mg"},{"bike_id":"b20330c3-0c12-413a-bd69-524263e3a618","system_id":"levelo_inurba_marseille","lat":43.24662,"lon":5.38161,"is_reserved":false,"is_disabled":false,"rental_uris":{"android":"levelo://app?vid=b20330c3-0c12-413a-bd69-524263e3a618","ios":"levelo://app?vid=b20330c3-0c12-413a-bd69-524263e3a618"},"vehicle_type_id":"4","last_reported":1732867983,"current_range_meters":35200,"station_id":"ce4bhih2rcd13ifvqfr0","pricing_plan_id":"cebpf4jnsgd1na2vs0mg"},{"bike_id":"9244b89b-f36c-48db-97f3-7bec24ee66d4","system_id":"levelo_inurba_marseille","lat":43.31364,"lon":5.38498,"is_reserved":false,"is_disabled":true,"rental_uris":{"android":"levelo://app?vid=9244b89b-f36c-48db-97f3-7bec24ee66d4","ios":"levelo://app?vid=9244b89b-f36c-48db-97f3-7bec24ee66d4"},"vehicle_type_id":"4","last_reported":1732867983,"current_range_meters":0,"station_id":"ce4bgt92rcd13ifvqcf0","pricing_plan_id":"cebpf4jnsgd1na2vs0mg"},{"bike_id":"a3f13fbb-7cc0-4f6c-ab75-581227db1f92","system_id":"levelo_inurba_marseille","lat":43.30256,"lon":5.377206,"is_reserved":false,"is_disabled":false,"rental_uris":{"android":"levelo://app?vid=a3f13fbb-7cc0-4f6c-ab75-581227db1f92","ios":"levelo://app?vid=a3f13fbb-7cc0-4f6c-ab75-581227db1f92"},"vehicle_type_id":"4","last_reported":1732867983,"current_range_meters":22800,"station_id":"ce4bguh2rcd13ifvqcj0","pricing_plan_id":"cebpf4jnsgd1na2vs0mg"},{"bike_id":"14ef3313-0bbb-4810-8166-60c0504b7ffa","system_id":"levelo_inurba_marseille","lat":43.24081,"lon":5.37756,"is_reserved":false,"is_disabled":false,"rental_uris":{"android":"levelo://app?vid=14ef3313-0bbb-4810-8166-60c0504b7ffa","ios":"levelo://app?vid=14ef3313-0bbb-4810-8166-60c0504b7ffa"},"vehicle_type_id":"4","last_reported":1732867983,"current_range_meters":17600,"station_id":"ce4bhnp2rcd13ifvqgvg","pricing_plan_id":"cebpf4jnsgd1na2vs0mg"},{"bike_id":"8ca47e8b-16a8-4b53-8e15-1b1fcee31578","system_id":"levelo_inurba_marseille","lat":43.3149,"lon":5.37303,"is_reserved":false,"is_disabled":false,"rental_uris":{"android":"levelo://app?vid=8ca47e8b-16a8-4b53-8e15-1b1fcee31578","ios":"levelo://app?vid=8ca47e8b-16a8-4b53-8e15-1b1fcee31578"},"vehicle_type_id":"4","last_reported":1732867983,"current_range_meters":39200,"station_id":"ce4bgt12rcd13ifvqcd0","pricing_plan_id":"cebpf4jnsgd1na2vs0mg"},{"bike_id":"a8d53810-af87-4e56-85da-4c06b779ee0b","system_id":"levelo_inurba_marseille","lat":43.30921,"lon":5.36855,"is_reserved":false,"is_disabled":false,"rental_uris":{"android":"levelo://app?vid=a8d53810-af87-4e56-85da-4c06b779ee0b","ios":"levelo://app?vid=a8d53810-af87-4e56-85da-4c06b779ee0b"},"vehicle_type_id":"4","last_reported":1732867983,"current_range_meters":33600,"station_id":"ce4bgn92rcd13ifvqbvg","pricing_plan_id":"cebpf4jnsgd1na2vs0mg"},{"bike_id":"4709c438-f4af-415a-a919-d27302b75dca","system_id":"levelo_inurba_marseille","lat":43.23194,"lon":5.35553,"is_reserved":false,"is_disabled":false,"rental_uris":{"android":"levelo://app?vid=4709c438-f4af-415a-a919-d27302b75dca","ios":"levelo://app?vid=4709c438-f4af-415a-a919-d27302b75dca"},"vehicle_type_id":"4","last_reported":1732867983,"current_range_meters":39200,"station_id":"ce4bhu92rcd13ifvqi70","pricing_plan_id":"cebpf4jnsgd1na2vs0mg"},{"bike_id":"0526a8ec-d506-41cb-b00f-7a88f090c600","system_id":"levelo_inurba_marseille","lat":43.27388,"lon":5.36273,"is_reserved":false,"is_disabled":true,"rental_uris":{"android":"levelo://app?vid=0526a8ec-d506-41cb-b00f-7a88f090c600","ios":"levelo://app?vid=0526a8ec-d506-41cb-b00f-7a88f090c600"},"vehicle_type_id":"4","last_reported":1732867983,"current_range_meters":18000,"station_id":"ce4bhbh2rcd13ifvqeo0","pricing_plan_id":"cebpf4jnsgd1na2vs0mg"},{"bike_id":"4258e8ae-420a-41e8-8ab6-81ea0fbfde7d","system_id":"levelo_inurba_marseille","lat":43.33605,"lon":5.41037,"is_reserved":false,"is_disabled":false,"rental_uris":{"android":"levelo://app?vid=4258e8ae-420a-41e8-8ab6-81ea0fbfde7d","ios":"levelo://app?vid=4258e8ae-420a-41e8-8ab6-81ea0fbfde7d"},"vehicle_type_id":"4","last_reported":1732867983,"current_range_meters":28400,"station_id":"ce4bhqh2rcd13ifvqhmg","pricing_plan_id":"cebpf4jnsgd1na2vs0mg"},{"bike_id":"aed7cb6b-728d-4047-afa3-5dff1d84af9b","system_id":"levelo_inurba_marseille","lat":43.26784,"lon":5.39416,"is_reserved":false,"is_disabled":false,"rental_uris":{"android":"levelo://app?vid=aed7cb6b-728d-4047-afa3-5dff1d84af9b","ios":"levelo://app?vid=aed7cb6b-728d-4047-afa3-5dff1d84af9b"},"vehicle_type_id":"4","last_reported":1732867983,"current_range_meters":32800,"station_id":"ce4bhh12rcd13ifvqfg0","pricing_plan_id":"cebpf4jnsgd1na2vs0mg"},{"bike_id":"2c2dbeed-d8b9-4443-8bc1-facb2c0b2be9","system_id":"levelo_inurba_marseille","lat":43.30454,"lon":5.36894,"is_reserved":false,"is_disabled":false,"rental_uris":{"android":"levelo://app?vid=2c2dbeed-d8b9-4443-8bc1-facb2c0b2be9","ios":"levelo://app?vid=2c2dbeed-d8b9-4443-8bc1-facb2c0b2be9"},"vehicle_type_id":"4","last_reported":1732867983,"current_range_meters":8800,"station_id":"","pricing_plan_id":"cebpf4jnsgd1na2vs0mg"},{"bike_id":"eb8773b0-d37d-4596-90cc-01db23441dba","system_id":"levelo_inurba_marseille","lat":43.28104,"lon":5.37835,"is_reserved":false,"is_disabled":false,"rental_uris":{"android":"levelo://app?vid=eb8773b0-d37d-4596-90cc-01db23441dba","ios":"levelo://app?vid=eb8773b0-d37d-4596-90cc-01db23441dba"},"vehicle_type_id":"4","last_reported":1732867983,"current_range_meters":38000,"station_id":"ce4bha12rcd13ifvqee0","pricing_plan_id":"cebpf4jnsgd1na2vs0mg"},{"bike_id":"b053b308-df93-40ed-81b7-cc6347a6608e","system_id":"levelo_inurba_marseille","lat":43.28664,"lon":5.36356,"is_reserved":false,"is_disabled":true,"rental_uris":{"android":"levelo://app?vid=b053b308-df93-40ed-81b7-cc6347a6608e","ios":"levelo://app?vid=b053b308-df93-40ed-81b7-cc6347a6608e"},"vehicle_type_id":"4","last_reported":1732867983,"current_range_meters":38800,"station_id":"ce4bhah2rcd13ifvqej0","pricing_plan_id":"cebpf4jnsgd1na2vs0mg"},{"bike_id":"d43bcf0d-16aa-4132-bee9-932c9bcef8f2","system_id":"levelo_inurba_marseille","lat":43.32366,"lon":5.38882,"is_reserved":false,"is_disabled":false,"rental_uris":{"android":"levelo://app?vid=d43bcf0d-16aa-4132-bee9-932c9bcef8f2","ios":"levelo://app?vid=d43bcf0d-16aa-4132-bee9-932c9bcef8f2"},"vehicle_type_id":"4","last_reported":1732867983,"current_range_meters":38400,"station_id":"ce4bhqp2rcd13ifvqhog","pricing_plan_id":"cebpf4jnsgd1na2vs0mg"},{"bike_id":"94c3fc17-4e2f-4a0a-b7df-8ad71336008b","system_id":"levelo_inurba_marseille","lat":43.24072,"lon":5.37765,"is_reserved":false,"is_disabled":true,"rental_uris":{"android":"levelo://app?vid=94c3fc17-4e2f-4a0a-b7df-8ad71336008b","ios":"levelo://app?vid=94c3fc17-4e2f-4a0a-b7df-8ad71336008b"},"vehicle_type_id":"4","last_reported":1732867983,"current_range_meters":8400,"station_id":"ce4bhnp2rcd13ifvqgvg","pricing_plan_id":"cebpf4jnsgd1na2vs0mg"},{"bike_id":"256d7077-5c95-404e-ab30-1c8b6678aed8","system_id":"levelo_inurba_marseille","lat":43.27975,"lon":5.38742,"is_reserved":false,"is_disabled":false,"rental_uris":{"android":"levelo://app?vid=256d7077-5c95-404e-ab30-1c8b6678aed8","ios":"levelo://app?vid=256d7077-5c95-404e-ab30-1c8b6678aed8"},"vehicle_type_id":"4","last_reported":1732867983,"current_range_meters":15200,"station_id":"","pricing_plan_id":"cebpf4jnsgd1na2vs0mg"},{"bike_id":"a2f55e61-c857-45c2-b0a3-e646cd7988e4","system_id":"levelo_inurba_marseille","lat":43.32973,"lon":5.359,"is_reserved":false,"is_disabled":false,"rental_uris":{"android":"levelo://app?vid=a2f55e61-c857-45c2-b0a3-e646cd7988e4","ios":"levelo://app?vid=a2f55e61-c857-45c2-b0a3-e646cd7988e4"},"vehicle_type_id":"4","last_reported":1732867983,"current_range_meters":22000,"station_id":"","pricing_plan_id":"cebpf4jnsgd1na2vs0mg"},{"bike_id":"1fcedb81-55ac-412f-8a2b-4c44ca03b263","system_id":"levelo_inurba_marseille","lat":43.2996,"lon":5.41323,"is_reserved":false,"is_disabled":false,"rental_uris":{"android":"levelo://app?vid=1fcedb81-55ac-412f-8a2b-4c44ca03b263","ios":"levelo://app?vid=1fcedb81-55ac-412f-8a2b-4c44ca03b263"},"vehicle_type_id":"4","last_reported":1732867983,"current_range_meters":38000,"station_id":"ce4bhp12rcd13ifvqh9g","pricing_plan_id":"cebpf4jnsgd1na2vs0mg"},{"bike_id":"4035e70a-9b35-49ff-8763-9565717e2e74","system_id":"levelo_inurba_marseille","lat":43.28459,"lon":5.35893,"is_reserved":false,"is_disabled":true,"rental_uris":{"android":"levelo://app?vid=4035e70a-9b35-49ff-8763-9565717e2e74","ios":"levelo://app?vid=4035e70a-9b35-49ff-8763-9565717e2e74"},"vehicle_type_id":"4","last_reported":1732867983,"current_range_meters":10000,"station_id":"ce4bhah2rcd13ifvqei0","pricing_plan_id":"cebpf4jnsgd1na2vs0mg"},{"bike_id":"bc749360-3ce4-4dd6-a0ac-83aa82c323a7","system_id":"levelo_inurba_marseille","lat":43.28154,"lon":5.4264,"is_reserved":false,"is_disabled":true,"rental_uris":{"android":"levelo://app?vid=bc749360-3ce4-4dd6-a0ac-83aa82c323a7","ios":"levelo://app?vid=bc749360-3ce4-4dd6-a0ac-83aa82c323a7"},"vehicle_type_id":"4","last_reported":1732867983,"current_range_meters":38800,"station_id":"ce4bhnh2rcd13ifvqgug","pricing_plan_id":"cebpf4jnsgd1na2vs0mg"},{"bike_id":"422d452f-17cc-4565-afd8-833a3bc96a0e","system_id":"levelo_inurba_marseille","lat":43.30138,"lon":5.39875,"is_reserved":false,"is_disabled":true,"rental_uris":{"android":"levelo://app?vid=422d452f-17cc-4565-afd8-833a3bc96a0e","ios":"levelo://app?vid=422d452f-17cc-4565-afd8-833a3bc96a0e"},"vehicle_type_id":"4","last_reported":1732867983,"current_range_meters":24000,"station_id":"ce4bh0h2rcd13ifvqd40","pricing_plan_id":"cebpf4jnsgd1na2vs0mg"},{"bike_id":"dcee47ea-c950-4870-9c89-79b44232ba85","system_id":"levelo_inurba_marseille","lat":43.317215,"lon":5.423978,"is_reserved":false,"is_disabled":false,"rental_uris":{"android":"levelo://app?vid=dcee47ea-c950-4870-9c89-79b44232ba85","ios":"levelo://app?vid=dcee47ea-c950-4870-9c89-79b44232ba85"},"vehicle_type_id":"4","last_reported":1732867983,"current_range_meters":38800,"station_id":"ce4bhp92rcd13ifvqhbg","pricing_plan_id":"cebpf4jnsgd1na2vs0mg"},{"bike_id":"4d4c884f-6933-49c0-8899-f9856d90f44d","system_id":"levelo_inurba_marseille","lat":43.29748,"lon":5.37971,"is_reserved":false,"is_disabled":true,"rental_uris":{"android":"levelo://app?vid=4d4c884f-6933-49c0-8899-f9856d90f44d","ios":"levelo://app?vid=4d4c884f-6933-49c0-8899-f9856d90f44d"},"vehicle_type_id":"4","last_reported":1732867983,"current_range_meters":0,"station_id":"","pricing_plan_id":"cebpf4jnsgd1na2vs0mg"},{"bike_id":"0a6a01b8-ebc9-4549-9bc8-25449ed3a98c","system_id":"levelo_inurba_marseille","lat":43.31999,"lon":5.38151,"is_reserved":false,"is_disabled":false,"rental_uris":{"android":"levelo://app?vid=0a6a01b8-ebc9-4549-9bc8-25449ed3a98c","ios":"levelo://app?vid=0a6a01b8-ebc9-4549-9bc8-25449ed3a98c"},"vehicle_type_id":"4","last_reported":1732867983,"current_range_meters":24400,"station_id":"ce4bhr12rcd13ifvqhpg","pricing_plan_id":"cebpf4jnsgd1na2vs0mg"},{"bike_id":"b6e48330-8212-4476-b4d2-8a1e3bec5ff6","system_id":"levelo_inurba_marseille","lat":43.28654,"lon":5.36349,"is_reserved":false,"is_disabled":true,"rental_uris":{"android":"levelo://app?vid=b6e48330-8212-4476-b4d2-8a1e3bec5ff6","ios":"levelo://app?vid=b6e48330-8212-4476-b4d2-8a1e3bec5ff6"},"vehicle_type_id":"4","last_reported":1732867983,"current_range_meters":9200,"station_id":"ce4bhah2rcd13ifvqej0","pricing_plan_id":"cebpf4jnsgd1na2vs0mg"},{"bike_id":"98cc7ee0-6e61-4c0f-b7f9-d26bce6034ad","system_id":"levelo_inurba_marseille","lat":43.25931,"lon":5.4091,"is_reserved":false,"is_disabled":false,"rental_uris":{"android":"levelo://app?vid=98cc7ee0-6e61-4c0f-b7f9-d26bce6034ad","ios":"levelo://app?vid=98cc7ee0-6e61-4c0f-b7f9-d26bce6034ad"},"vehicle_type_id":"4","last_reported":1732867983,"current_range_meters":18000,"station_id":"ce4bhm92rcd13ifvqglg","pricing_plan_id":"cebpf4jnsgd1na2vs0mg"},{"bike_id":"9009be37-c6b1-406b-b0a8-fbab355f715e","system_id":"levelo_inurba_marseille","lat":43.33767,"lon":5.37492,"is_reserved":false,"is_disabled":false,"rental_uris":{"android":"levelo://app?vid=9009be37-c6b1-406b-b0a8-fbab355f715e","ios":"levelo://app?vid=9009be37-c6b1-406b-b0a8-fbab355f715e"},"vehicle_type_id":"4","last_reported":1732867983,"current_range_meters":37600,"station_id":"","pricing_plan_id":"cebpf4jnsgd1na2vs0mg"},{"bike_id":"41b5e72e-6b19-45dc-a9ad-51ccbc0f0a20","system_id":"levelo_inurba_marseille","lat":43.26564,"lon":5.39003,"is_reserved":false,"is_disabled":false,"rental_uris":{"android":"levelo://app?vid=41b5e72e-6b19-45dc-a9ad-51ccbc0f0a20","ios":"levelo://app?vid=41b5e72e-6b19-45dc-a9ad-51ccbc0f0a20"},"vehicle_type_id":"4","last_reported":1732867983,"current_range_meters":29600,"station_id":"ce4bhe12rcd13ifvqf30","pricing_plan_id":"cebpf4jnsgd1na2vs0mg"},{"bike_id":"eec6b63c-40df-4287-b3cf-9a6588de5eb1","system_id":"levelo_inurba_marseille","lat":43.29735,"lon":5.37691,"is_reserved":false,"is_disabled":true,"rental_uris":{"android":"levelo://app?vid=eec6b63c-40df-4287-b3cf-9a6588de5eb1","ios":"levelo://app?vid=eec6b63c-40df-4287-b3cf-9a6588de5eb1"},"vehicle_type_id":"4","last_reported":1732867983,"current_range_meters":22000,"station_id":"ce4bgkh2rcd13ifvqbl0","pricing_plan_id":"cebpf4jnsgd1na2vs0mg"},{"bike_id":"ad448571-bebb-4a8d-8d20-19092292da85","system_id":"levelo_inurba_marseille","lat":43.29164,"lon":5.37153,"is_reserved":false,"is_disabled":true,"rental_uris":{"android":"levelo://app?vid=ad448571-bebb-4a8d-8d20-19092292da85","ios":"levelo://app?vid=ad448571-bebb-4a8d-8d20-19092292da85"},"vehicle_type_id":"4","last_reported":1732867983,"current_range_meters":24400,"station_id":"ce4bha92rcd13ifvqeh0","pricing_plan_id":"cebpf4jnsgd1na2vs0mg"},{"bike_id":"5f433b1c-0e0f-43b4-a0b0-55b89bfd72f5","system_id":"levelo_inurba_marseille","lat":43.33605,"lon":5.41031,"is_reserved":false,"is_disabled":false,"rental_uris":{"android":"levelo://app?vid=5f433b1c-0e0f-43b4-a0b0-55b89bfd72f5","ios":"levelo://app?vid=5f433b1c-0e0f-43b4-a0b0-55b89bfd72f5"},"vehicle_type_id":"4","last_reported":1732867983,"current_range_meters":23200,"station_id":"ce4bhqh2rcd13ifvqhmg","pricing_plan_id":"cebpf4jnsgd1na2vs0mg"},{"bike_id":"30c67c45-7f58-484b-9db9-3056bcdc8ec9","system_id":"levelo_inurba_marseille","lat":43.30913,"lon":5.36857,"is_reserved":false,"is_disabled":false,"rental_uris":{"android":"levelo://app?vid=30c67c45-7f58-484b-9db9-3056bcdc8ec9","ios":"levelo://app?vid=30c67c45-7f58-484b-9db9-3056bcdc8ec9"},"vehicle_type_id":"4","last_reported":1732867983,"current_range_meters":38800,"station_id":"ce4bgn92rcd13ifvqbvg","pricing_plan_id":"cebpf4jnsgd1na2vs0mg"},{"bike_id":"9589002c-1bab-46c5-9d09-a7efb8d9d194","system_id":"levelo_inurba_marseille","lat":43.28474,"lon":5.34982,"is_reserved":false,"is_disabled":false,"rental_uris":{"android":"levelo://app?vid=9589002c-1bab-46c5-9d09-a7efb8d9d194","ios":"levelo://app?vid=9589002c-1bab-46c5-9d09-a7efb8d9d194"},"vehicle_type_id":"4","last_reported":1732867983,"current_range_meters":25600,"station_id":"","pricing_plan_id":"cebpf4jnsgd1na2vs0mg"},{"bike_id":"278b8151-5d46-4ade-9b8d-b35620e30295","system_id":"levelo_inurba_marseille","lat":43.28084,"lon":5.39655,"is_reserved":false,"is_disabled":true,"rental_uris":{"android":"levelo://app?vid=278b8151-5d46-4ade-9b8d-b35620e30295","ios":"levelo://app?vid=278b8151-5d46-4ade-9b8d-b35620e30295"},"vehicle_type_id":"4","last_reported":1732867983,"current_range_meters":0,"station_id":"ce4bho12rcd13ifvqh2g","pricing_plan_id":"cebpf4jnsgd1na2vs0mg"},{"bike_id":"5d84ab37-b887-4cbc-90d8-c3fbc6154e0e","system_id":"levelo_inurba_marseille","lat":43.31695,"lon":5.40466,"is_reserved":false,"is_disabled":true,"rental_uris":{"android":"levelo://app?vid=5d84ab37-b887-4cbc-90d8-c3fbc6154e0e","ios":"levelo://app?vid=5d84ab37-b887-4cbc-90d8-c3fbc6154e0e"},"vehicle_type_id":"4","last_reported":1732867983,"current_range_meters":37600,"station_id":"ce4bh012rcd13ifvqd00","pricing_plan_id":"cebpf4jnsgd1na2vs0mg"},{"bike_id":"840c2084-3872-4bb0-aad2-5ab80f87c1f6","system_id":"levelo_inurba_marseille","lat":43.30657,"lon":5.40089,"is_reserved":false,"is_disabled":true,"rental_uris":{"android":"levelo://app?vid=840c2084-3872-4bb0-aad2-5ab80f87c1f6","ios":"levelo://app?vid=840c2084-3872-4bb0-aad2-5ab80f87c1f6"},"vehicle_type_id":"4","last_reported":1732867983,"current_range_meters":38800,"station_id":"ce4bh112rcd13ifvqda0","pricing_plan_id":"cebpf4jnsgd1na2vs0mg"},{"bike_id":"c0e8c0c5-8cf0-4bea-b3b2-c88efdc8014a","system_id":"levelo_inurba_marseille","lat":43.32364,"lon":5.38879,"is_reserved":false,"is_disabled":false,"rental_uris":{"android":"levelo://app?vid=c0e8c0c5-8cf0-4bea-b3b2-c88efdc8014a","ios":"levelo://app?vid=c0e8c0c5-8cf0-4bea-b3b2-c88efdc8014a"},"vehicle_type_id":"4","last_reported":1732867983,"current_range_meters":25600,"station_id":"ce4bhqp2rcd13ifvqhog","pricing_plan_id":"cebpf4jnsgd1na2vs0mg"},{"bike_id":"f803e80d-fb0f-4141-8766-a894408093d9","system_id":"levelo_inurba_marseille","lat":43.24083,"lon":5.37751,"is_reserved":false,"is_disabled":false,"rental_uris":{"android":"levelo://app?vid=f803e80d-fb0f-4141-8766-a894408093d9","ios":"levelo://app?vid=f803e80d-fb0f-4141-8766-a894408093d9"},"vehicle_type_id":"4","last_reported":1732867983,"current_range_meters":14400,"station_id":"ce4bhnp2rcd13ifvqgvg","pricing_plan_id":"cebpf4jnsgd1na2vs0mg"},{"bike_id":"4cd79fb1-29e9-4453-8446-eea81ab019c0","system_id":"levelo_inurba_marseille","lat":43.33763,"lon":5.37483,"is_reserved":false,"is_disabled":false,"rental_uris":{"android":"levelo://app?vid=4cd79fb1-29e9-4453-8446-eea81ab019c0","ios":"levelo://app?vid=4cd79fb1-29e9-4453-8446-eea81ab019c0"},"vehicle_type_id":"4","last_reported":1732867983,"current_range_meters":16400,"station_id":"","pricing_plan_id":"cebpf4jnsgd1na2vs0mg"},{"bike_id":"6c9caa72-ea9c-4937-b745-357e728cf598","system_id":"levelo_inurba_marseille","lat":43.27603,"lon":5.36138,"is_reserved":false,"is_disabled":true,"rental_uris":{"android":"levelo://app?vid=6c9caa72-ea9c-4937-b745-357e728cf598","ios":"levelo://app?vid=6c9caa72-ea9c-4937-b745-357e728cf598"},"vehicle_type_id":"4","last_reported":1732867983,"current_range_meters":38400,"station_id":"ce4bgj92rcd13ifvqbe0","pricing_plan_id":"cebpf4jnsgd1na2vs0mg"},{"bike_id":"f62a5fa2-9173-4ac1-b63a-4a63811fbef9","system_id":"levelo_inurba_marseille","lat":43.2593,"lon":5.40914,"is_reserved":false,"is_disabled":false,"rental_uris":{"android":"levelo://app?vid=f62a5fa2-9173-4ac1-b63a-4a63811fbef9","ios":"levelo://app?vid=f62a5fa2-9173-4ac1-b63a-4a63811fbef9"},"vehicle_type_id":"4","last_reported":1732867983,"current_range_meters":20000,"station_id":"ce4bhm92rcd13ifvqglg","pricing_plan_id":"cebpf4jnsgd1na2vs0mg"},{"bike_id":"34735061-918a-4491-9dd4-f0cdf8784b3e","system_id":"levelo_inurba_marseille","lat":43.2894,"lon":5.36636,"is_reserved":false,"is_disabled":false,"rental_uris":{"android":"levelo://app?vid=34735061-918a-4491-9dd4-f0cdf8784b3e","ios":"levelo://app?vid=34735061-918a-4491-9dd4-f0cdf8784b3e"},"vehicle_type_id":"4","last_reported":1732867983,"current_range_meters":38800,"station_id":"ce4bhap2rcd13ifvqek0","pricing_plan_id":"cebpf4jnsgd1na2vs0mg"},{"bike_id":"e8fa7be1-2407-41a7-b843-e7c70f1917ef","system_id":"levelo_inurba_marseille","lat":43.27619,"lon":5.3611,"is_reserved":false,"is_disabled":true,"rental_uris":{"android":"levelo://app?vid=e8fa7be1-2407-41a7-b843-e7c70f1917ef","ios":"levelo://app?vid=e8fa7be1-2407-41a7-b843-e7c70f1917ef"},"vehicle_type_id":"4","last_reported":1732867983,"current_range_meters":0,"station_id":"ce4bgj92rcd13ifvqbe0","pricing_plan_id":"cebpf4jnsgd1na2vs0mg"},{"bike_id":"089afc58-fd82-48df-8249-3c3eb0cf15e5","system_id":"levelo_inurba_marseille","lat":43.29173,"lon":5.37168,"is_reserved":false,"is_disabled":false,"rental_uris":{"android":"levelo://app?vid=089afc58-fd82-48df-8249-3c3eb0cf15e5","ios":"levelo://app?vid=089afc58-fd82-48df-8249-3c3eb0cf15e5"},"vehicle_type_id":"4","last_reported":1732867983,"current_range_meters":36400,"station_id":"ce4bha92rcd13ifvqeh0","pricing_plan_id":"cebpf4jnsgd1na2vs0mg"},{"bike_id":"322ec04a-c98c-4b4e-b298-69412eba7415","system_id":"levelo_inurba_marseille","lat":43.24076,"lon":5.3776,"is_reserved":false,"is_disabled":false,"rental_uris":{"android":"levelo://app?vid=322ec04a-c98c-4b4e-b298-69412eba7415","ios":"levelo://app?vid=322ec04a-c98c-4b4e-b298-69412eba7415"},"vehicle_type_id":"4","last_reported":1732867983,"current_range_meters":38000,"station_id":"ce4bhnp2rcd13ifvqgvg","pricing_plan_id":"cebpf4jnsgd1na2vs0mg"},{"bike_id":"04151390-4806-4e4e-8288-4bb06cadcb10","system_id":"levelo_inurba_marseille","lat":43.29798,"lon":5.38089,"is_reserved":false,"is_disabled":true,"rental_uris":{"android":"levelo://app?vid=04151390-4806-4e4e-8288-4bb06cadcb10","ios":"levelo://app?vid=04151390-4806-4e4e-8288-4bb06cadcb10"},"vehicle_type_id":"4","last_reported":1732867983,"current_range_meters":38800,"station_id":"ce4bgip2rcd13ifvqbb0","pricing_plan_id":"cebpf4jnsgd1na2vs0mg"},{"bike_id":"e63455c5-5f55-4960-8084-8cbaf9be1b50","system_id":"levelo_inurba_marseille","lat":43.25582,"lon":5.38233,"is_reserved":false,"is_disabled":false,"rental_uris":{"android":"levelo://app?vid=e63455c5-5f55-4960-8084-8cbaf9be1b50","ios":"levelo://app?vid=e63455c5-5f55-4960-8084-8cbaf9be1b50"},"vehicle_type_id":"4","last_reported":1732867983,"current_range_meters":33600,"station_id":"ce4bhih2rcd13ifvqfs0","pricing_plan_id":"cebpf4jnsgd1na2vs0mg"},{"bike_id":"35cde48b-e232-4392-95d8-1d6118a2707a","system_id":"levelo_inurba_marseille","lat":43.28284,"lon":5.35066,"is_reserved":false,"is_disabled":true,"rental_uris":{"android":"levelo://app?vid=35cde48b-e232-4392-95d8-1d6118a2707a","ios":"levelo://app?vid=35cde48b-e232-4392-95d8-1d6118a2707a"},"vehicle_type_id":"4","last_reported":1732867983,"current_range_meters":8000,"station_id":"ce4bhbp2rcd13ifvqerg","pricing_plan_id":"cebpf4jnsgd1na2vs0mg"},{"bike_id":"e3036b86-4666-4127-9686-691e3c5eab4f","system_id":"levelo_inurba_marseille","lat":43.34145,"lon":5.409,"is_reserved":false,"is_disabled":false,"rental_uris":{"android":"levelo://app?vid=e3036b86-4666-4127-9686-691e3c5eab4f","ios":"levelo://app?vid=e3036b86-4666-4127-9686-691e3c5eab4f"},"vehicle_type_id":"4","last_reported":1732867983,"current_range_meters":32000,"station_id":"ce4bhqh2rcd13ifvqhlg","pricing_plan_id":"cebpf4jnsgd1na2vs0mg"},{"bike_id":"a4a09f77-02e5-4784-8aa5-39e2e511e685","system_id":"levelo_inurba_marseille","lat":43.2695,"lon":5.38634,"is_reserved":false,"is_disabled":false,"rental_uris":{"android":"levelo://app?vid=a4a09f77-02e5-4784-8aa5-39e2e511e685","ios":"levelo://app?vid=a4a09f77-02e5-4784-8aa5-39e2e511e685"},"vehicle_type_id":"4","last_reported":1732867983,"current_range_meters":30000,"station_id":"ce4bhh92rcd13ifvqfh0","pricing_plan_id":"cebpf4jnsgd1na2vs0mg"},{"bike_id":"3ca8d527-6c31-4160-8bc9-0dbae13780f9","system_id":"levelo_inurba_marseille","lat":43.28461,"lon":5.35896,"is_reserved":false,"is_disabled":true,"rental_uris":{"android":"levelo://app?vid=3ca8d527-6c31-4160-8bc9-0dbae13780f9","ios":"levelo://app?vid=3ca8d527-6c31-4160-8bc9-0dbae13780f9"},"vehicle_type_id":"4","last_reported":1732867983,"current_range_meters":24400,"station_id":"ce4bhah2rcd13ifvqei0","pricing_plan_id":"cebpf4jnsgd1na2vs0mg"},{"bike_id":"325fbcc4-a4bc-43ae-8d64-c177be6e0441","system_id":"levelo_inurba_marseille","lat":43.28008,"lon":5.41665,"is_reserved":false,"is_disabled":false,"rental_uris":{"android":"levelo://app?vid=325fbcc4-a4bc-43ae-8d64-c177be6e0441","ios":"levelo://app?vid=325fbcc4-a4bc-43ae-8d64-c177be6e0441"},"vehicle_type_id":"4","last_reported":1732867983,"current_range_meters":28400,"station_id":"ce4bho12rcd13ifvqh1g","pricing_plan_id":"cebpf4jnsgd1na2vs0mg"},{"bike_id":"f790fe4e-68f3-45cf-b184-d74ee8388636","system_id":"levelo_inurba_marseille","lat":43.27497,"lon":5.4245,"is_reserved":false,"is_disabled":false,"rental_uris":{"android":"levelo://app?vid=f790fe4e-68f3-45cf-b184-d74ee8388636","ios":"levelo://app?vid=f790fe4e-68f3-45cf-b184-d74ee8388636"},"vehicle_type_id":"4","last_reported":1732867983,"current_range_meters":4800,"station_id":"ce4bhn92rcd13ifvqgrg","pricing_plan_id":"cebpf4jnsgd1na2vs0mg"},{"bike_id":"d50b39e6-c323-414d-a840-edfb2d4a8be4","system_id":"levelo_inurba_marseille","lat":43.24074,"lon":5.37762,"is_reserved":false,"is_disabled":false,"rental_uris":{"android":"levelo://app?vid=d50b39e6-c323-414d-a840-edfb2d4a8be4","ios":"levelo://app?vid=d50b39e6-c323-414d-a840-edfb2d4a8be4"},"vehicle_type_id":"4","last_reported":1732867983,"current_range_meters":6800,"station_id":"ce4bhnp2rcd13ifvqgvg","pricing_plan_id":"cebpf4jnsgd1na2vs0mg"},{"bike_id":"0b66317d-1a29-43d8-8b3e-e20d139a437a","system_id":"levelo_inurba_marseille","lat":43.28698,"lon":5.39581,"is_reserved":false,"is_disabled":false,"rental_uris":{"android":"levelo://app?vid=0b66317d-1a29-43d8-8b3e-e20d139a437a","ios":"levelo://app?vid=0b66317d-1a29-43d8-8b3e-e20d139a437a"},"vehicle_type_id":"4","last_reported":1732867983,"current_range_meters":24000,"station_id":"ce4bhoh2rcd13ifvqh5g","pricing_plan_id":"cebpf4jnsgd1na2vs0mg"},{"bike_id":"7ec745d2-734d-4708-bf7d-c27efa386acc","system_id":"levelo_inurba_marseille","lat":43.25943,"lon":5.40909,"is_reserved":false,"is_disabled":false,"rental_uris":{"android":"levelo://app?vid=7ec745d2-734d-4708-bf7d-c27efa386acc","ios":"levelo://app?vid=7ec745d2-734d-4708-bf7d-c27efa386acc"},"vehicle_type_id":"4","last_reported":1732867983,"current_range_meters":27200,"station_id":"ce4bhm92rcd13ifvqglg","pricing_plan_id":"cebpf4jnsgd1na2vs0mg"},{"bike_id":"16fb8e17-b179-4d5a-add7-fbd05efe76fb","system_id":"levelo_inurba_marseille","lat":43.25931,"lon":5.40917,"is_reserved":false,"is_disabled":true,"rental_uris":{"android":"levelo://app?vid=16fb8e17-b179-4d5a-add7-fbd05efe76fb","ios":"levelo://app?vid=16fb8e17-b179-4d5a-add7-fbd05efe76fb"},"vehicle_type_id":"4","last_reported":1732867983,"current_range_meters":20800,"station_id":"ce4bhm92rcd13ifvqglg","pricing_plan_id":"cebpf4jnsgd1na2vs0mg"},{"bike_id":"39b04c21-6a6a-40a7-a489-741c2b67c9bd","system_id":"levelo_inurba_marseille","lat":43.33734,"lon":5.39191,"is_reserved":false,"is_disabled":false,"rental_uris":{"android":"levelo://app?vid=39b04c21-6a6a-40a7-a489-741c2b67c9bd","ios":"levelo://app?vid=39b04c21-6a6a-40a7-a489-741c2b67c9bd"},"vehicle_type_id":"4","last_reported":1732867983,"current_range_meters":36800,"station_id":"ce4bhr92rcd13ifvqhsg","pricing_plan_id":"cebpf4jnsgd1na2vs0mg"},{"bike_id":"5febee6f-a4ce-4be1-ae36-1712d93c9a55","system_id":"levelo_inurba_marseille","lat":43.25004,"lon":5.38917,"is_reserved":false,"is_disabled":false,"rental_uris":{"android":"levelo://app?vid=5febee6f-a4ce-4be1-ae36-1712d93c9a55","ios":"levelo://app?vid=5febee6f-a4ce-4be1-ae36-1712d93c9a55"},"vehicle_type_id":"4","last_reported":1732867983,"current_range_meters":5600,"station_id":"ce4bhgp2rcd13ifvqfd0","pricing_plan_id":"cebpf4jnsgd1na2vs0mg"},{"bike_id":"723871c2-5301-40a6-b2ca-8b5b0bd8a744","system_id":"levelo_inurba_marseille","lat":43.28003,"lon":5.41664,"is_reserved":false,"is_disabled":false,"rental_uris":{"android":"levelo://app?vid=723871c2-5301-40a6-b2ca-8b5b0bd8a744","ios":"levelo://app?vid=723871c2-5301-40a6-b2ca-8b5b0bd8a744"},"vehicle_type_id":"4","last_reported":1732867983,"current_range_meters":15200,"station_id":"ce4bho12rcd13ifvqh1g","pricing_plan_id":"cebpf4jnsgd1na2vs0mg"},{"bike_id":"f9f279cc-03ce-4144-bdc3-10e6ec0b5486","system_id":"levelo_inurba_marseille","lat":43.24666,"lon":5.38173,"is_reserved":false,"is_disabled":true,"rental_uris":{"android":"levelo://app?vid=f9f279cc-03ce-4144-bdc3-10e6ec0b5486","ios":"levelo://app?vid=f9f279cc-03ce-4144-bdc3-10e6ec0b5486"},"vehicle_type_id":"4","last_reported":1732867983,"current_range_meters":8400,"station_id":"ce4bhih2rcd13ifvqfr0","pricing_plan_id":"cebpf4jnsgd1na2vs0mg"},{"bike_id":"87a20c3c-65d4-407c-8eaf-fd2e0980a57a","system_id":"levelo_inurba_marseille","lat":43.33111,"lon":5.38227,"is_reserved":false,"is_disabled":false,"rental_uris":{"android":"levelo://app?vid=87a20c3c-65d4-407c-8eaf-fd2e0980a57a","ios":"levelo://app?vid=87a20c3c-65d4-407c-8eaf-fd2e0980a57a"},"vehicle_type_id":"4","last_reported":1732867983,"current_range_meters":16800,"station_id":"","pricing_plan_id":"cebpf4jnsgd1na2vs0mg"},{"bike_id":"2f6e993c-989c-482c-97ba-f64d3a144aec","system_id":"levelo_inurba_marseille","lat":43.27944,"lon":5.41046,"is_reserved":false,"is_disabled":false,"rental_uris":{"android":"levelo://app?vid=2f6e993c-989c-482c-97ba-f64d3a144aec","ios":"levelo://app?vid=2f6e993c-989c-482c-97ba-f64d3a144aec"},"vehicle_type_id":"4","last_reported":1732867983,"current_range_meters":17200,"station_id":"ce4bhnp2rcd13ifvqh0g","pricing_plan_id":"cebpf4jnsgd1na2vs0mg"},{"bike_id":"9649dcca-5ed0-4df9-b40c-1120ac38595c","system_id":"levelo_inurba_marseille","lat":43.28042,"lon":5.36941,"is_reserved":false,"is_disabled":false,"rental_uris":{"android":"levelo://app?vid=9649dcca-5ed0-4df9-b40c-1120ac38595c","ios":"levelo://app?vid=9649dcca-5ed0-4df9-b40c-1120ac38595c"},"vehicle_type_id":"4","last_reported":1732867983,"current_range_meters":37600,"station_id":"ce4bha12rcd13ifvqef0","pricing_plan_id":"cebpf4jnsgd1na2vs0mg"},{"bike_id":"f41786ba-cd4f-4997-885d-1183aeff00eb","system_id":"levelo_inurba_marseille","lat":43.29271,"lon":5.36849,"is_reserved":false,"is_disabled":false,"rental_uris":{"android":"levelo://app?vid=f41786ba-cd4f-4997-885d-1183aeff00eb","ios":"levelo://app?vid=f41786ba-cd4f-4997-885d-1183aeff00eb"},"vehicle_type_id":"4","last_reported":1732867983,"current_range_meters":20000,"station_id":"ce4bhbp2rcd13ifvqesg","pricing_plan_id":"cebpf4jnsgd1na2vs0mg"},{"bike_id":"9546b9ed-f25c-41cd-b46b-5a3741046894","system_id":"levelo_inurba_marseille","lat":43.34152,"lon":5.409,"is_reserved":false,"is_disabled":false,"rental_uris":{"android":"levelo://app?vid=9546b9ed-f25c-41cd-b46b-5a3741046894","ios":"levelo://app?vid=9546b9ed-f25c-41cd-b46b-5a3741046894"},"vehicle_type_id":"4","last_reported":1732867983,"current_range_meters":9600,"station_id":"ce4bhqh2rcd13ifvqhlg","pricing_plan_id":"cebpf4jnsgd1na2vs0mg"},{"bike_id":"37e6b652-b990-4fd3-859f-2eb3ce6c15be","system_id":"levelo_inurba_marseille","lat":43.26956,"lon":5.38637,"is_reserved":false,"is_disabled":false,"rental_uris":{"android":"levelo://app?vid=37e6b652-b990-4fd3-859f-2eb3ce6c15be","ios":"levelo://app?vid=37e6b652-b990-4fd3-859f-2eb3ce6c15be"},"vehicle_type_id":"4","last_reported":1732867983,"current_range_meters":17600,"station_id":"ce4bhh92rcd13ifvqfh0","pricing_plan_id":"cebpf4jnsgd1na2vs0mg"},{"bike_id":"3b4eea70-c93f-4472-9e9b-54d8b2f9f612","system_id":"levelo_inurba_marseille","lat":43.24081,"lon":5.37754,"is_reserved":false,"is_disabled":false,"rental_uris":{"android":"levelo://app?vid=3b4eea70-c93f-4472-9e9b-54d8b2f9f612","ios":"levelo://app?vid=3b4eea70-c93f-4472-9e9b-54d8b2f9f612"},"vehicle_type_id":"4","last_reported":1732867983,"current_range_meters":39200,"station_id":"ce4bhnp2rcd13ifvqgvg","pricing_plan_id":"cebpf4jnsgd1na2vs0mg"},{"bike_id":"81d9f7be-c3c6-4233-bf11-948e6f22debc","system_id":"levelo_inurba_marseille","lat":43.32365,"lon":5.38877,"is_reserved":false,"is_disabled":false,"rental_uris":{"android":"levelo://app?vid=81d9f7be-c3c6-4233-bf11-948e6f22debc","ios":"levelo://app?vid=81d9f7be-c3c6-4233-bf11-948e6f22debc"},"vehicle_type_id":"4","last_reported":1732867983,"current_range_meters":37600,"station_id":"ce4bhqp2rcd13ifvqhog","pricing_plan_id":"cebpf4jnsgd1na2vs0mg"},{"bike_id":"7fe8aae4-e2fd-45e8-ad84-418c66f3914f","system_id":"levelo_inurba_marseille","lat":43.28861,"lon":5.3584,"is_reserved":false,"is_disabled":true,"rental_uris":{"android":"levelo://app?vid=7fe8aae4-e2fd-45e8-ad84-418c66f3914f","ios":"levelo://app?vid=7fe8aae4-e2fd-45e8-ad84-418c66f3914f"},"vehicle_type_id":"4","last_reported":1732867983,"current_range_meters":8400,"station_id":"ce4bhb12rcd13ifvqem0","pricing_plan_id":"cebpf4jnsgd1na2vs0mg"},{"bike_id":"622e5c05-7231-416a-827a-5979a54c78f9","system_id":"levelo_inurba_marseille","lat":43.30784,"lon":5.37645,"is_reserved":false,"is_disabled":false,"rental_uris":{"android":"levelo://app?vid=622e5c05-7231-416a-827a-5979a54c78f9","ios":"levelo://app?vid=622e5c05-7231-416a-827a-5979a54c78f9"},"vehicle_type_id":"4","last_reported":1732867983,"current_range_meters":4000,"station_id":"ce4bgv92rcd13ifvqcq0","pricing_plan_id":"cebpf4jnsgd1na2vs0mg"},{"bike_id":"fb97b023-4fe5-48ad-907a-207eb3ddec5e","system_id":"levelo_inurba_marseille","lat":43.29276,"lon":5.36847,"is_reserved":false,"is_disabled":true,"rental_uris":{"android":"levelo://app?vid=fb97b023-4fe5-48ad-907a-207eb3ddec5e","ios":"levelo://app?vid=fb97b023-4fe5-48ad-907a-207eb3ddec5e"},"vehicle_type_id":"4","last_reported":1732867983,"current_range_meters":800,"station_id":"ce4bhbp2rcd13ifvqesg","pricing_plan_id":"cebpf4jnsgd1na2vs0mg"},{"bike_id":"62dd7d8f-a826-42c9-8798-d871fa21b979","system_id":"levelo_inurba_marseille","lat":43.31348,"lon":5.36705,"is_reserved":false,"is_disabled":false,"rental_uris":{"android":"levelo://app?vid=62dd7d8f-a826-42c9-8798-d871fa21b979","ios":"levelo://app?vid=62dd7d8f-a826-42c9-8798-d871fa21b979"},"vehicle_type_id":"4","last_reported":1732867983,"current_range_meters":20400,"station_id":"ce4bgr92rcd13ifvqc6g","pricing_plan_id":"cebpf4jnsgd1na2vs0mg"},{"bike_id":"649a6420-7d73-486f-af75-52c8a4c9f23a","system_id":"levelo_inurba_marseille","lat":43.31338,"lon":5.36711,"is_reserved":false,"is_disabled":false,"rental_uris":{"android":"levelo://app?vid=649a6420-7d73-486f-af75-52c8a4c9f23a","ios":"levelo://app?vid=649a6420-7d73-486f-af75-52c8a4c9f23a"},"vehicle_type_id":"4","last_reported":1732867983,"current_range_meters":36400,"station_id":"ce4bgr92rcd13ifvqc6g","pricing_plan_id":"cebpf4jnsgd1na2vs0mg"},{"bike_id":"29a80c71-9648-4a26-b6c9-5f69092eaa01","system_id":"levelo_inurba_marseille","lat":43.27076,"lon":5.42277,"is_reserved":false,"is_disabled":true,"rental_uris":{"android":"levelo://app?vid=29a80c71-9648-4a26-b6c9-5f69092eaa01","ios":"levelo://app?vid=29a80c71-9648-4a26-b6c9-5f69092eaa01"},"vehicle_type_id":"4","last_reported":1732867983,"current_range_meters":38800,"station_id":"ce4bhk92rcd13ifvqgb0","pricing_plan_id":"cebpf4jnsgd1na2vs0mg"},{"bike_id":"4d089ae2-8d3d-4ba1-9519-c59633c846c6","system_id":"levelo_inurba_marseille","lat":43.282641,"lon":5.350782,"is_reserved":false,"is_disabled":false,"rental_uris":{"android":"levelo://app?vid=4d089ae2-8d3d-4ba1-9519-c59633c846c6","ios":"levelo://app?vid=4d089ae2-8d3d-4ba1-9519-c59633c846c6"},"vehicle_type_id":"4","last_reported":1732867983,"current_range_meters":38400,"station_id":"ce4bhbp2rcd13ifvqerg","pricing_plan_id":"cebpf4jnsgd1na2vs0mg"},{"bike_id":"2a60fd72-9cfa-415f-937e-d89edec4f374","system_id":"levelo_inurba_marseille","lat":43.25005,"lon":5.389137,"is_reserved":false,"is_disabled":false,"rental_uris":{"android":"levelo://app?vid=2a60fd72-9cfa-415f-937e-d89edec4f374","ios":"levelo://app?vid=2a60fd72-9cfa-415f-937e-d89edec4f374"},"vehicle_type_id":"4","last_reported":1732867983,"current_range_meters":28800,"station_id":"ce4bhgp2rcd13ifvqfd0","pricing_plan_id":"cebpf4jnsgd1na2vs0mg"},{"bike_id":"0995621e-0e5a-482e-8b5a-efe4989f97eb","system_id":"levelo_inurba_marseille","lat":43.31346,"lon":5.38494,"is_reserved":false,"is_disabled":true,"rental_uris":{"android":"levelo://app?vid=0995621e-0e5a-482e-8b5a-efe4989f97eb","ios":"levelo://app?vid=0995621e-0e5a-482e-8b5a-efe4989f97eb"},"vehicle_type_id":"4","last_reported":1732867983,"current_range_meters":6800,"station_id":"ce4bgt92rcd13ifvqcf0","pricing_plan_id":"cebpf4jnsgd1na2vs0mg"},{"bike_id":"5b6140a7-7f65-4ca3-a3f2-419ab04c93da","system_id":"levelo_inurba_marseille","lat":43.22925,"lon":5.35373,"is_reserved":false,"is_disabled":true,"rental_uris":{"android":"levelo://app?vid=5b6140a7-7f65-4ca3-a3f2-419ab04c93da","ios":"levelo://app?vid=5b6140a7-7f65-4ca3-a3f2-419ab04c93da"},"vehicle_type_id":"4","last_reported":1732867983,"current_range_meters":28400,"station_id":"cpo3532slgdg3j2ikp40","pricing_plan_id":"cebpf4jnsgd1na2vs0mg"},{"bike_id":"bf60ce70-823f-4dbe-9d4f-ed2527048adc","system_id":"levelo_inurba_marseille","lat":43.3414,"lon":5.4091,"is_reserved":false,"is_disabled":false,"rental_uris":{"android":"levelo://app?vid=bf60ce70-823f-4dbe-9d4f-ed2527048adc","ios":"levelo://app?vid=bf60ce70-823f-4dbe-9d4f-ed2527048adc"},"vehicle_type_id":"4","last_reported":1732867983,"current_range_meters":33200,"station_id":"ce4bhqh2rcd13ifvqhlg","pricing_plan_id":"cebpf4jnsgd1na2vs0mg"},{"bike_id":"f794b8fa-1f88-483b-a054-16f24b00c834","system_id":"levelo_inurba_marseille","lat":43.28279,"lon":5.35065,"is_reserved":false,"is_disabled":true,"rental_uris":{"android":"levelo://app?vid=f794b8fa-1f88-483b-a054-16f24b00c834","ios":"levelo://app?vid=f794b8fa-1f88-483b-a054-16f24b00c834"},"vehicle_type_id":"4","last_reported":1732867983,"current_range_meters":9200,"station_id":"ce4bhbp2rcd13ifvqerg","pricing_plan_id":"cebpf4jnsgd1na2vs0mg"},{"bike_id":"ebe208b6-06c7-4d81-b408-721350922fa9","system_id":"levelo_inurba_marseille","lat":43.23197,"lon":5.35553,"is_reserved":false,"is_disabled":false,"rental_uris":{"android":"levelo://app?vid=ebe208b6-06c7-4d81-b408-721350922fa9","ios":"levelo://app?vid=ebe208b6-06c7-4d81-b408-721350922fa9"},"vehicle_type_id":"4","last_reported":1732867983,"current_range_meters":10800,"station_id":"ce4bhu92rcd13ifvqi70","pricing_plan_id":"cebpf4jnsgd1na2vs0mg"},{"bike_id":"a2af1de1-b388-4c07-a7ea-5235848f2980","system_id":"levelo_inurba_marseille","lat":43.34144,"lon":5.40905,"is_reserved":false,"is_disabled":false,"rental_uris":{"android":"levelo://app?vid=a2af1de1-b388-4c07-a7ea-5235848f2980","ios":"levelo://app?vid=a2af1de1-b388-4c07-a7ea-5235848f2980"},"vehicle_type_id":"4","last_reported":1732867983,"current_range_meters":7200,"station_id":"ce4bhqh2rcd13ifvqhlg","pricing_plan_id":"cebpf4jnsgd1na2vs0mg"},{"bike_id":"64b95c1d-3e64-4c2b-9c8d-b6d2e325dedc","system_id":"levelo_inurba_marseille","lat":43.30953,"lon":5.3903,"is_reserved":false,"is_disabled":false,"rental_uris":{"android":"levelo://app?vid=64b95c1d-3e64-4c2b-9c8d-b6d2e325dedc","ios":"levelo://app?vid=64b95c1d-3e64-4c2b-9c8d-b6d2e325dedc"},"vehicle_type_id":"4","last_reported":1732867983,"current_range_meters":36800,"station_id":"ce4bgup2rcd13ifvqco0","pricing_plan_id":"cebpf4jnsgd1na2vs0mg"},{"bike_id":"7471ded8-cc4b-45ec-a135-2c5ed92eb731","system_id":"levelo_inurba_marseille","lat":43.31407,"lon":5.3699,"is_reserved":false,"is_disabled":false,"rental_uris":{"android":"levelo://app?vid=7471ded8-cc4b-45ec-a135-2c5ed92eb731","ios":"levelo://app?vid=7471ded8-cc4b-45ec-a135-2c5ed92eb731"},"vehicle_type_id":"4","last_reported":1732867983,"current_range_meters":37600,"station_id":"ce4bgn92rcd13ifvqbvg","pricing_plan_id":"cebpf4jnsgd1na2vs0mg"},{"bike_id":"2b5fa18c-7202-4e5d-b392-56d7bf7de53d","system_id":"levelo_inurba_marseille","lat":43.25937,"lon":5.40909,"is_reserved":false,"is_disabled":false,"rental_uris":{"android":"levelo://app?vid=2b5fa18c-7202-4e5d-b392-56d7bf7de53d","ios":"levelo://app?vid=2b5fa18c-7202-4e5d-b392-56d7bf7de53d"},"vehicle_type_id":"4","last_reported":1732867983,"current_range_meters":37600,"station_id":"ce4bhm92rcd13ifvqglg","pricing_plan_id":"cebpf4jnsgd1na2vs0mg"},{"bike_id":"271cfa75-fa59-42c7-b1e7-d8a91bd1efb0","system_id":"levelo_inurba_marseille","lat":43.28848,"lon":5.35864,"is_reserved":false,"is_disabled":false,"rental_uris":{"android":"levelo://app?vid=271cfa75-fa59-42c7-b1e7-d8a91bd1efb0","ios":"levelo://app?vid=271cfa75-fa59-42c7-b1e7-d8a91bd1efb0"},"vehicle_type_id":"4","last_reported":1732867983,"current_range_meters":18000,"station_id":"ce4bhb12rcd13ifvqem0","pricing_plan_id":"cebpf4jnsgd1na2vs0mg"},{"bike_id":"960e0ce8-4af8-4a7b-a1d9-99f150008994","system_id":"levelo_inurba_marseille","lat":43.33023,"lon":5.39041,"is_reserved":false,"is_disabled":false,"rental_uris":{"android":"levelo://app?vid=960e0ce8-4af8-4a7b-a1d9-99f150008994","ios":"levelo://app?vid=960e0ce8-4af8-4a7b-a1d9-99f150008994"},"vehicle_type_id":"4","last_reported":1732867983,"current_range_meters":38000,"station_id":"ce4bhr92rcd13ifvqhrg","pricing_plan_id":"cebpf4jnsgd1na2vs0mg"},{"bike_id":"8d1e9108-b8e6-43d8-a1ba-bbbbd1c86d2f","system_id":"levelo_inurba_marseille","lat":43.34145,"lon":5.409,"is_reserved":false,"is_disabled":false,"rental_uris":{"android":"levelo://app?vid=8d1e9108-b8e6-43d8-a1ba-bbbbd1c86d2f","ios":"levelo://app?vid=8d1e9108-b8e6-43d8-a1ba-bbbbd1c86d2f"},"vehicle_type_id":"4","last_reported":1732867983,"current_range_meters":28800,"station_id":"ce4bhqh2rcd13ifvqhlg","pricing_plan_id":"cebpf4jnsgd1na2vs0mg"},{"bike_id":"6aa7d263-c9db-4fc0-b9ea-e1517b0dfa32","system_id":"levelo_inurba_marseille","lat":43.28147,"lon":5.42646,"is_reserved":false,"is_disabled":false,"rental_uris":{"android":"levelo://app?vid=6aa7d263-c9db-4fc0-b9ea-e1517b0dfa32","ios":"levelo://app?vid=6aa7d263-c9db-4fc0-b9ea-e1517b0dfa32"},"vehicle_type_id":"4","last_reported":1732867983,"current_range_meters":39200,"station_id":"ce4bhnh2rcd13ifvqgug","pricing_plan_id":"cebpf4jnsgd1na2vs0mg"},{"bike_id":"c08692d6-2cfe-4657-a6e6-9b6225f34c93","system_id":"levelo_inurba_marseille","lat":43.29535,"lon":5.39052,"is_reserved":false,"is_disabled":false,"rental_uris":{"android":"levelo://app?vid=c08692d6-2cfe-4657-a6e6-9b6225f34c93","ios":"levelo://app?vid=c08692d6-2cfe-4657-a6e6-9b6225f34c93"},"vehicle_type_id":"4","last_reported":1732867983,"current_range_meters":21600,"station_id":"ce4bh3p2rcd13ifvqdp0","pricing_plan_id":"cebpf4jnsgd1na2vs0mg"},{"bike_id":"45ee1737-cd22-42fb-a8ff-9c819e5c2a31","system_id":"levelo_inurba_marseille","lat":43.30913,"lon":5.36849,"is_reserved":false,"is_disabled":false,"rental_uris":{"android":"levelo://app?vid=45ee1737-cd22-42fb-a8ff-9c819e5c2a31","ios":"levelo://app?vid=45ee1737-cd22-42fb-a8ff-9c819e5c2a31"},"vehicle_type_id":"4","last_reported":1732867983,"current_range_meters":39200,"station_id":"ce4bgn92rcd13ifvqbvg","pricing_plan_id":"cebpf4jnsgd1na2vs0mg"},{"bike_id":"3b6f9e2e-9fe0-449f-9464-a8f88e455da5","system_id":"levelo_inurba_marseille","lat":43.29265,"lon":5.38446,"is_reserved":false,"is_disabled":false,"rental_uris":{"android":"levelo://app?vid=3b6f9e2e-9fe0-449f-9464-a8f88e455da5","ios":"levelo://app?vid=3b6f9e2e-9fe0-449f-9464-a8f88e455da5"},"vehicle_type_id":"4","last_reported":1732867983,"current_range_meters":38800,"station_id":"ce4bh692rcd13ifvqea0","pricing_plan_id":"cebpf4jnsgd1na2vs0mg"},{"bike_id":"4d97adde-d1c4-446d-9d2e-1753f3e883df","system_id":"levelo_inurba_marseille","lat":43.28467,"lon":5.38591,"is_reserved":false,"is_disabled":false,"rental_uris":{"android":"levelo://app?vid=4d97adde-d1c4-446d-9d2e-1753f3e883df","ios":"levelo://app?vid=4d97adde-d1c4-446d-9d2e-1753f3e883df"},"vehicle_type_id":"4","last_reported":1732867983,"current_range_meters":35200,"station_id":"ce4bh8p2rcd13ifvqeb0","pricing_plan_id":"cebpf4jnsgd1na2vs0mg"},{"bike_id":"2278c589-a3e3-4678-a431-058ef37a5b54","system_id":"levelo_inurba_marseille","lat":43.2695,"lon":5.38635,"is_reserved":false,"is_disabled":false,"rental_uris":{"android":"levelo://app?vid=2278c589-a3e3-4678-a431-058ef37a5b54","ios":"levelo://app?vid=2278c589-a3e3-4678-a431-058ef37a5b54"},"vehicle_type_id":"4","last_reported":1732867983,"current_range_meters":39200,"station_id":"ce4bhh92rcd13ifvqfh0","pricing_plan_id":"cebpf4jnsgd1na2vs0mg"},{"bike_id":"b036063e-a5f2-4d26-b4d4-1ff11e0df402","system_id":"levelo_inurba_marseille","lat":43.33605,"lon":5.41031,"is_reserved":false,"is_disabled":false,"rental_uris":{"android":"levelo://app?vid=b036063e-a5f2-4d26-b4d4-1ff11e0df402","ios":"levelo://app?vid=b036063e-a5f2-4d26-b4d4-1ff11e0df402"},"vehicle_type_id":"4","last_reported":1732867983,"current_range_meters":22800,"station_id":"ce4bhqh2rcd13ifvqhmg","pricing_plan_id":"cebpf4jnsgd1na2vs0mg"},{"bike_id":"1815787d-6278-4f57-9ca4-ec66425a8f68","system_id":"levelo_inurba_marseille","lat":43.30463,"lon":5.37909,"is_reserved":false,"is_disabled":false,"rental_uris":{"android":"levelo://app?vid=1815787d-6278-4f57-9ca4-ec66425a8f68","ios":"levelo://app?vid=1815787d-6278-4f57-9ca4-ec66425a8f68"},"vehicle_type_id":"4","last_reported":1732867983,"current_range_meters":28400,"station_id":"ce4bgup2rcd13ifvqcn0","pricing_plan_id":"cebpf4jnsgd1na2vs0mg"},{"bike_id":"14f77994-bb9f-4ef7-a188-04acbf54d1a2","system_id":"levelo_inurba_marseille","lat":43.31496,"lon":5.37314,"is_reserved":false,"is_disabled":true,"rental_uris":{"android":"levelo://app?vid=14f77994-bb9f-4ef7-a188-04acbf54d1a2","ios":"levelo://app?vid=14f77994-bb9f-4ef7-a188-04acbf54d1a2"},"vehicle_type_id":"4","last_reported":1732867983,"current_range_meters":0,"station_id":"ce4bgt12rcd13ifvqcd0","pricing_plan_id":"cebpf4jnsgd1na2vs0mg"},{"bike_id":"c9539d53-76d7-41f2-9f7b-36113051e9ab","system_id":"levelo_inurba_marseille","lat":43.29277,"lon":5.36846,"is_reserved":false,"is_disabled":false,"rental_uris":{"android":"levelo://app?vid=c9539d53-76d7-41f2-9f7b-36113051e9ab","ios":"levelo://app?vid=c9539d53-76d7-41f2-9f7b-36113051e9ab"},"vehicle_type_id":"4","last_reported":1732867983,"current_range_meters":27600,"station_id":"ce4bhbp2rcd13ifvqesg","pricing_plan_id":"cebpf4jnsgd1na2vs0mg"},{"bike_id":"e51b2acb-d883-446b-9ce9-347608453ece","system_id":"levelo_inurba_marseille","lat":43.2293,"lon":5.35377,"is_reserved":false,"is_disabled":false,"rental_uris":{"android":"levelo://app?vid=e51b2acb-d883-446b-9ce9-347608453ece","ios":"levelo://app?vid=e51b2acb-d883-446b-9ce9-347608453ece"},"vehicle_type_id":"4","last_reported":1732867983,"current_range_meters":38800,"station_id":"cpo3532slgdg3j2ikp40","pricing_plan_id":"cebpf4jnsgd1na2vs0mg"},{"bike_id":"0551ec67-94ad-4fcc-a139-50dc5d1a4e00","system_id":"levelo_inurba_marseille","lat":43.31368,"lon":5.36689,"is_reserved":false,"is_disabled":false,"rental_uris":{"android":"levelo://app?vid=0551ec67-94ad-4fcc-a139-50dc5d1a4e00","ios":"levelo://app?vid=0551ec67-94ad-4fcc-a139-50dc5d1a4e00"},"vehicle_type_id":"4","last_reported":1732867983,"current_range_meters":17200,"station_id":"ce4bgr92rcd13ifvqc6g","pricing_plan_id":"cebpf4jnsgd1na2vs0mg"},{"bike_id":"7789e245-92df-43c2-8166-d6f7ccbd033b","system_id":"levelo_inurba_marseille","lat":43.29158,"lon":5.37932,"is_reserved":false,"is_disabled":true,"rental_uris":{"android":"levelo://app?vid=7789e245-92df-43c2-8166-d6f7ccbd033b","ios":"levelo://app?vid=7789e245-92df-43c2-8166-d6f7ccbd033b"},"vehicle_type_id":"4","last_reported":1732867983,"current_range_meters":6400,"station_id":"","pricing_plan_id":"cebpf4jnsgd1na2vs0mg"},{"bike_id":"93bf632f-9c2c-453f-931e-3a26e12fd5f1","system_id":"levelo_inurba_marseille","lat":43.30124,"lon":5.39868,"is_reserved":false,"is_disabled":true,"rental_uris":{"android":"levelo://app?vid=93bf632f-9c2c-453f-931e-3a26e12fd5f1","ios":"levelo://app?vid=93bf632f-9c2c-453f-931e-3a26e12fd5f1"},"vehicle_type_id":"4","last_reported":1732867983,"current_range_meters":34800,"station_id":"ce4bh0h2rcd13ifvqd40","pricing_plan_id":"cebpf4jnsgd1na2vs0mg"},{"bike_id":"90b3e3d4-d40d-4cdc-b4b7-06dfdb033f58","system_id":"levelo_inurba_marseille","lat":43.27495,"lon":5.42445,"is_reserved":false,"is_disabled":false,"rental_uris":{"android":"levelo://app?vid=90b3e3d4-d40d-4cdc-b4b7-06dfdb033f58","ios":"levelo://app?vid=90b3e3d4-d40d-4cdc-b4b7-06dfdb033f58"},"vehicle_type_id":"4","last_reported":1732867983,"current_range_meters":24400,"station_id":"ce4bhn92rcd13ifvqgrg","pricing_plan_id":"cebpf4jnsgd1na2vs0mg"},{"bike_id":"fe1c6c60-0f4f-4b5c-a7ea-9f2ff8347245","system_id":"levelo_inurba_marseille","lat":43.27613,"lon":5.36113,"is_reserved":false,"is_disabled":true,"rental_uris":{"android":"levelo://app?vid=fe1c6c60-0f4f-4b5c-a7ea-9f2ff8347245","ios":"levelo://app?vid=fe1c6c60-0f4f-4b5c-a7ea-9f2ff8347245"},"vehicle_type_id":"4","last_reported":1732867983,"current_range_meters":0,"station_id":"ce4bgj92rcd13ifvqbe0","pricing_plan_id":"cebpf4jnsgd1na2vs0mg"},{"bike_id":"371abac0-5dd0-42bb-a641-ca0cac7a118a","system_id":"levelo_inurba_marseille","lat":43.27675,"lon":5.38921,"is_reserved":false,"is_disabled":true,"rental_uris":{"android":"levelo://app?vid=371abac0-5dd0-42bb-a641-ca0cac7a118a","ios":"levelo://app?vid=371abac0-5dd0-42bb-a641-ca0cac7a118a"},"vehicle_type_id":"4","last_reported":1732867983,"current_range_meters":0,"station_id":"ce4bhi12rcd13ifvqfo0","pricing_plan_id":"cebpf4jnsgd1na2vs0mg"},{"bike_id":"3673c951-a427-4bbc-a3f2-50debd519ae0","system_id":"levelo_inurba_marseille","lat":43.32049,"lon":5.41541,"is_reserved":false,"is_disabled":true,"rental_uris":{"android":"levelo://app?vid=3673c951-a427-4bbc-a3f2-50debd519ae0","ios":"levelo://app?vid=3673c951-a427-4bbc-a3f2-50debd519ae0"},"vehicle_type_id":"4","last_reported":1732867983,"current_range_meters":37600,"station_id":"ce4bhq92rcd13ifvqhkg","pricing_plan_id":"cebpf4jnsgd1na2vs0mg"},{"bike_id":"44692518-f307-4d34-bde3-20456f8e1767","system_id":"levelo_inurba_marseille","lat":43.27438,"lon":5.39004,"is_reserved":false,"is_disabled":false,"rental_uris":{"android":"levelo://app?vid=44692518-f307-4d34-bde3-20456f8e1767","ios":"levelo://app?vid=44692518-f307-4d34-bde3-20456f8e1767"},"vehicle_type_id":"4","last_reported":1732867983,"current_range_meters":25200,"station_id":"","pricing_plan_id":"cebpf4jnsgd1na2vs0mg"},{"bike_id":"22ec5326-a5e3-45dd-adda-87c5da2b52c6","system_id":"levelo_inurba_marseille","lat":43.25946,"lon":5.40919,"is_reserved":false,"is_disabled":false,"rental_uris":{"android":"levelo://app?vid=22ec5326-a5e3-45dd-adda-87c5da2b52c6","ios":"levelo://app?vid=22ec5326-a5e3-45dd-adda-87c5da2b52c6"},"vehicle_type_id":"4","last_reported":1732867983,"current_range_meters":22000,"station_id":"ce4bhm92rcd13ifvqglg","pricing_plan_id":"cebpf4jnsgd1na2vs0mg"},{"bike_id":"b97167aa-a565-44c5-bef6-fd9a2e9accad","system_id":"levelo_inurba_marseille","lat":43.30461,"lon":5.37911,"is_reserved":false,"is_disabled":false,"rental_uris":{"android":"levelo://app?vid=b97167aa-a565-44c5-bef6-fd9a2e9accad","ios":"levelo://app?vid=b97167aa-a565-44c5-bef6-fd9a2e9accad"},"vehicle_type_id":"4","last_reported":1732867983,"current_range_meters":36000,"station_id":"ce4bgup2rcd13ifvqcn0","pricing_plan_id":"cebpf4jnsgd1na2vs0mg"},{"bike_id":"179b5b97-0a72-4abe-998c-b37c239cc4f9","system_id":"levelo_inurba_marseille","lat":43.24077,"lon":5.37759,"is_reserved":false,"is_disabled":false,"rental_uris":{"android":"levelo://app?vid=179b5b97-0a72-4abe-998c-b37c239cc4f9","ios":"levelo://app?vid=179b5b97-0a72-4abe-998c-b37c239cc4f9"},"vehicle_type_id":"4","last_reported":1732867983,"current_range_meters":8400,"station_id":"ce4bhnp2rcd13ifvqgvg","pricing_plan_id":"cebpf4jnsgd1na2vs0mg"},{"bike_id":"ac95584f-9567-4c03-97d0-87c52871b9b7","system_id":"levelo_inurba_marseille","lat":43.24175,"lon":5.36397,"is_reserved":false,"is_disabled":false,"rental_uris":{"android":"levelo://app?vid=ac95584f-9567-4c03-97d0-87c52871b9b7","ios":"levelo://app?vid=ac95584f-9567-4c03-97d0-87c52871b9b7"},"vehicle_type_id":"4","last_reported":1732867983,"current_range_meters":25600,"station_id":"cpo36qri1sfpv3e86is0","pricing_plan_id":"cebpf4jnsgd1na2vs0mg"},{"bike_id":"329734a5-27ef-48de-9b10-5f93bafe4836","system_id":"levelo_inurba_marseille","lat":43.26944,"lon":5.40243,"is_reserved":false,"is_disabled":true,"rental_uris":{"android":"levelo://app?vid=329734a5-27ef-48de-9b10-5f93bafe4836","ios":"levelo://app?vid=329734a5-27ef-48de-9b10-5f93bafe4836"},"vehicle_type_id":"4","last_reported":1732867983,"current_range_meters":1600,"station_id":"cjm6bp8fraef2m0cb0m0","pricing_plan_id":"cebpf4jnsgd1na2vs0mg"},{"bike_id":"7d224943-9ca0-4d8f-a246-5b14d6d4fb5f","system_id":"levelo_inurba_marseille","lat":43.3136,"lon":5.38493,"is_reserved":false,"is_disabled":false,"rental_uris":{"android":"levelo://app?vid=7d224943-9ca0-4d8f-a246-5b14d6d4fb5f","ios":"levelo://app?vid=7d224943-9ca0-4d8f-a246-5b14d6d4fb5f"},"vehicle_type_id":"4","last_reported":1732867983,"current_range_meters":36400,"station_id":"ce4bgt92rcd13ifvqcf0","pricing_plan_id":"cebpf4jnsgd1na2vs0mg"},{"bike_id":"83331ee4-5ce1-48e8-8eec-1cbdb46fef0c","system_id":"levelo_inurba_marseille","lat":43.27495,"lon":5.42449,"is_reserved":false,"is_disabled":false,"rental_uris":{"android":"levelo://app?vid=83331ee4-5ce1-48e8-8eec-1cbdb46fef0c","ios":"levelo://app?vid=83331ee4-5ce1-48e8-8eec-1cbdb46fef0c"},"vehicle_type_id":"4","last_reported":1732867983,"current_range_meters":33200,"station_id":"ce4bhn92rcd13ifvqgrg","pricing_plan_id":"cebpf4jnsgd1na2vs0mg"},{"bike_id":"b1b979aa-0e3a-460c-a4e2-7e83ead1f62f","system_id":"levelo_inurba_marseille","lat":43.30537,"lon":5.38427,"is_reserved":false,"is_disabled":false,"rental_uris":{"android":"levelo://app?vid=b1b979aa-0e3a-460c-a4e2-7e83ead1f62f","ios":"levelo://app?vid=b1b979aa-0e3a-460c-a4e2-7e83ead1f62f"},"vehicle_type_id":"4","last_reported":1732867983,"current_range_meters":38000,"station_id":"ce4bgg92rcd13ifvqb30","pricing_plan_id":"cebpf4jnsgd1na2vs0mg"},{"bike_id":"a11c87cd-c5ed-4a29-ba8a-78abe7a5d984","system_id":"levelo_inurba_marseille","lat":43.27822,"lon":5.39205,"is_reserved":false,"is_disabled":true,"rental_uris":{"android":"levelo://app?vid=a11c87cd-c5ed-4a29-ba8a-78abe7a5d984","ios":"levelo://app?vid=a11c87cd-c5ed-4a29-ba8a-78abe7a5d984"},"vehicle_type_id":"4","last_reported":1732867983,"current_range_meters":28000,"station_id":"ce4bhjp2rcd13ifvqga0","pricing_plan_id":"cebpf4jnsgd1na2vs0mg"},{"bike_id":"53360a4a-85de-49a3-bccb-df572daec79a","system_id":"levelo_inurba_marseille","lat":43.29565,"lon":5.37533,"is_reserved":false,"is_disabled":false,"rental_uris":{"android":"levelo://app?vid=53360a4a-85de-49a3-bccb-df572daec79a","ios":"levelo://app?vid=53360a4a-85de-49a3-bccb-df572daec79a"},"vehicle_type_id":"4","last_reported":1732867983,"current_range_meters":10800,"station_id":"ce4bgh92rcd13ifvqb50","pricing_plan_id":"cebpf4jnsgd1na2vs0mg"},{"bike_id":"f6e9d20a-415c-4059-8446-8da030993c32","system_id":"levelo_inurba_marseille","lat":43.31354,"lon":5.36702,"is_reserved":false,"is_disabled":false,"rental_uris":{"android":"levelo://app?vid=f6e9d20a-415c-4059-8446-8da030993c32","ios":"levelo://app?vid=f6e9d20a-415c-4059-8446-8da030993c32"},"vehicle_type_id":"4","last_reported":1732867983,"current_range_meters":14400,"station_id":"ce4bgr92rcd13ifvqc6g","pricing_plan_id":"cebpf4jnsgd1na2vs0mg"},{"bike_id":"75486131-8e85-4448-87a1-67a7e3096de4","system_id":"levelo_inurba_marseille","lat":43.30936,"lon":5.37902,"is_reserved":false,"is_disabled":true,"rental_uris":{"android":"levelo://app?vid=75486131-8e85-4448-87a1-67a7e3096de4","ios":"levelo://app?vid=75486131-8e85-4448-87a1-67a7e3096de4"},"vehicle_type_id":"4","last_reported":1732867983,"current_range_meters":0,"station_id":"","pricing_plan_id":"cebpf4jnsgd1na2vs0mg"},{"bike_id":"a5909545-3e09-4859-9fda-9ffe4e6e4883","system_id":"levelo_inurba_marseille","lat":43.23066,"lon":5.35491,"is_reserved":false,"is_disabled":false,"rental_uris":{"android":"levelo://app?vid=a5909545-3e09-4859-9fda-9ffe4e6e4883","ios":"levelo://app?vid=a5909545-3e09-4859-9fda-9ffe4e6e4883"},"vehicle_type_id":"4","last_reported":1732867983,"current_range_meters":18000,"station_id":"cpo3342slgdg3j2ifvpg","pricing_plan_id":"cebpf4jnsgd1na2vs0mg"},{"bike_id":"d7ee7f0c-d972-4774-bf29-4af25787cb9c","system_id":"levelo_inurba_marseille","lat":43.29707,"lon":5.36629,"is_reserved":false,"is_disabled":false,"rental_uris":{"android":"levelo://app?vid=d7ee7f0c-d972-4774-bf29-4af25787cb9c","ios":"levelo://app?vid=d7ee7f0c-d972-4774-bf29-4af25787cb9c"},"vehicle_type_id":"4","last_reported":1732867983,"current_range_meters":27600,"station_id":"ce4bgn12rcd13ifvqbt0","pricing_plan_id":"cebpf4jnsgd1na2vs0mg"},{"bike_id":"05412edd-4f98-4b7b-8f3b-a793b3add8af","system_id":"levelo_inurba_marseille","lat":43.29704,"lon":5.40452,"is_reserved":false,"is_disabled":false,"rental_uris":{"android":"levelo://app?vid=05412edd-4f98-4b7b-8f3b-a793b3add8af","ios":"levelo://app?vid=05412edd-4f98-4b7b-8f3b-a793b3add8af"},"vehicle_type_id":"4","last_reported":1732867983,"current_range_meters":24000,"station_id":"","pricing_plan_id":"cebpf4jnsgd1na2vs0mg"},{"bike_id":"b6b1f691-f5d4-4437-a273-f7c9759cc4c1","system_id":"levelo_inurba_marseille","lat":43.29189,"lon":5.39307,"is_reserved":false,"is_disabled":true,"rental_uris":{"android":"levelo://app?vid=b6b1f691-f5d4-4437-a273-f7c9759cc4c1","ios":"levelo://app?vid=b6b1f691-f5d4-4437-a273-f7c9759cc4c1"},"vehicle_type_id":"4","last_reported":1732867983,"current_range_meters":38000,"station_id":"ce4bh192rcd13ifvqdd0","pricing_plan_id":"cebpf4jnsgd1na2vs0mg"},{"bike_id":"1f3be82a-39fb-49be-9f70-2df7092d6f3c","system_id":"levelo_inurba_marseille","lat":43.32488,"lon":5.36575,"is_reserved":false,"is_disabled":false,"rental_uris":{"android":"levelo://app?vid=1f3be82a-39fb-49be-9f70-2df7092d6f3c","ios":"levelo://app?vid=1f3be82a-39fb-49be-9f70-2df7092d6f3c"},"vehicle_type_id":"4","last_reported":1732867983,"current_range_meters":14000,"station_id":"ce4bhs12rcd13ifvqhvg","pricing_plan_id":"cebpf4jnsgd1na2vs0mg"},{"bike_id":"5329edfd-3f80-481f-b22a-9053213b3f4f","system_id":"levelo_inurba_marseille","lat":43.336047,"lon":5.410243,"is_reserved":false,"is_disabled":false,"rental_uris":{"android":"levelo://app?vid=5329edfd-3f80-481f-b22a-9053213b3f4f","ios":"levelo://app?vid=5329edfd-3f80-481f-b22a-9053213b3f4f"},"vehicle_type_id":"4","last_reported":1732867983,"current_range_meters":24800,"station_id":"ce4bhqh2rcd13ifvqhmg","pricing_plan_id":"cebpf4jnsgd1na2vs0mg"},{"bike_id":"9030a65e-92b5-4035-a6e3-149d39d0b304","system_id":"levelo_inurba_marseille","lat":43.32113,"lon":5.36773,"is_reserved":false,"is_disabled":false,"rental_uris":{"android":"levelo://app?vid=9030a65e-92b5-4035-a6e3-149d39d0b304","ios":"levelo://app?vid=9030a65e-92b5-4035-a6e3-149d39d0b304"},"vehicle_type_id":"4","last_reported":1732867983,"current_range_meters":16800,"station_id":"ce4bhrh2rcd13ifvqhug","pricing_plan_id":"cebpf4jnsgd1na2vs0mg"},{"bike_id":"d232b51f-8a91-4fe2-8e93-1d5ea369822b","system_id":"levelo_inurba_marseille","lat":43.23156,"lon":5.43706,"is_reserved":false,"is_disabled":false,"rental_uris":{"android":"levelo://app?vid=d232b51f-8a91-4fe2-8e93-1d5ea369822b","ios":"levelo://app?vid=d232b51f-8a91-4fe2-8e93-1d5ea369822b"},"vehicle_type_id":"4","last_reported":1732867983,"current_range_meters":34800,"station_id":"ce4bhmp2rcd13ifvqgog","pricing_plan_id":"cebpf4jnsgd1na2vs0mg"},{"bike_id":"e5951ee3-4a5a-4ebb-b469-096c5188dfa3","system_id":"levelo_inurba_marseille","lat":43.23194,"lon":5.35575,"is_reserved":false,"is_disabled":false,"rental_uris":{"android":"levelo://app?vid=e5951ee3-4a5a-4ebb-b469-096c5188dfa3","ios":"levelo://app?vid=e5951ee3-4a5a-4ebb-b469-096c5188dfa3"},"vehicle_type_id":"4","last_reported":1732867983,"current_range_meters":24800,"station_id":"ce4bhu92rcd13ifvqi70","pricing_plan_id":"cebpf4jnsgd1na2vs0mg"},{"bike_id":"f9a63393-5401-4f98-ae5a-dfbb8291ab6d","system_id":"levelo_inurba_marseille","lat":43.30037,"lon":5.37551,"is_reserved":false,"is_disabled":true,"rental_uris":{"android":"levelo://app?vid=f9a63393-5401-4f98-ae5a-dfbb8291ab6d","ios":"levelo://app?vid=f9a63393-5401-4f98-ae5a-dfbb8291ab6d"},"vehicle_type_id":"4","last_reported":1732867983,"current_range_meters":800,"station_id":"","pricing_plan_id":"cebpf4jnsgd1na2vs0mg"},{"bike_id":"1326de38-60ca-4b4f-8d87-261c5fe5a098","system_id":"levelo_inurba_marseille","lat":43.279657,"lon":5.387498,"is_reserved":false,"is_disabled":false,"rental_uris":{"android":"levelo://app?vid=1326de38-60ca-4b4f-8d87-261c5fe5a098","ios":"levelo://app?vid=1326de38-60ca-4b4f-8d87-261c5fe5a098"},"vehicle_type_id":"4","last_reported":1732867983,"current_range_meters":36800,"station_id":"ce4bhg12rcd13ifvqf80","pricing_plan_id":"cebpf4jnsgd1na2vs0mg"},{"bike_id":"de303072-6173-4588-8260-f566e5a6e639","system_id":"levelo_inurba_marseille","lat":43.31227,"lon":5.36882,"is_reserved":false,"is_disabled":false,"rental_uris":{"android":"levelo://app?vid=de303072-6173-4588-8260-f566e5a6e639","ios":"levelo://app?vid=de303072-6173-4588-8260-f566e5a6e639"},"vehicle_type_id":"4","last_reported":1732867983,"current_range_meters":16800,"station_id":"ce4bgr92rcd13ifvqc6g","pricing_plan_id":"cebpf4jnsgd1na2vs0mg"},{"bike_id":"beecf29b-0bf3-4cee-a03e-0dd6251d4d12","system_id":"levelo_inurba_marseille","lat":43.31688,"lon":5.37716,"is_reserved":false,"is_disabled":false,"rental_uris":{"android":"levelo://app?vid=beecf29b-0bf3-4cee-a03e-0dd6251d4d12","ios":"levelo://app?vid=beecf29b-0bf3-4cee-a03e-0dd6251d4d12"},"vehicle_type_id":"4","last_reported":1732867983,"current_range_meters":38800,"station_id":"ce4bgth2rcd13ifvqch0","pricing_plan_id":"cebpf4jnsgd1na2vs0mg"},{"bike_id":"f9030e76-b987-42ca-8d68-e694d5adb96f","system_id":"levelo_inurba_marseille","lat":43.27496,"lon":5.42451,"is_reserved":false,"is_disabled":false,"rental_uris":{"android":"levelo://app?vid=f9030e76-b987-42ca-8d68-e694d5adb96f","ios":"levelo://app?vid=f9030e76-b987-42ca-8d68-e694d5adb96f"},"vehicle_type_id":"4","last_reported":1732867983,"current_range_meters":24000,"station_id":"ce4bhn92rcd13ifvqgrg","pricing_plan_id":"cebpf4jnsgd1na2vs0mg"},{"bike_id":"cd09da4b-06e5-4c47-887e-c45833e87f08","system_id":"levelo_inurba_marseille","lat":43.29515,"lon":5.39063,"is_reserved":false,"is_disabled":false,"rental_uris":{"android":"levelo://app?vid=cd09da4b-06e5-4c47-887e-c45833e87f08","ios":"levelo://app?vid=cd09da4b-06e5-4c47-887e-c45833e87f08"},"vehicle_type_id":"4","last_reported":1732867983,"current_range_meters":33600,"station_id":"ce4bh3p2rcd13ifvqdp0","pricing_plan_id":"cebpf4jnsgd1na2vs0mg"},{"bike_id":"5637f218-5935-4ecf-8d2f-8e866d4ee57b","system_id":"levelo_inurba_marseille","lat":43.337444,"lon":5.374475,"is_reserved":false,"is_disabled":false,"rental_uris":{"android":"levelo://app?vid=5637f218-5935-4ecf-8d2f-8e866d4ee57b","ios":"levelo://app?vid=5637f218-5935-4ecf-8d2f-8e866d4ee57b"},"vehicle_type_id":"4","last_reported":1732867983,"current_range_meters":33600,"station_id":"","pricing_plan_id":"cebpf4jnsgd1na2vs0mg"},{"bike_id":"465491be-15f1-444e-8407-2b8e52a4185c","system_id":"levelo_inurba_marseille","lat":43.24082,"lon":5.37753,"is_reserved":false,"is_disabled":false,"rental_uris":{"android":"levelo://app?vid=465491be-15f1-444e-8407-2b8e52a4185c","ios":"levelo://app?vid=465491be-15f1-444e-8407-2b8e52a4185c"},"vehicle_type_id":"4","last_reported":1732867983,"current_range_meters":36400,"station_id":"ce4bhnp2rcd13ifvqgvg","pricing_plan_id":"cebpf4jnsgd1na2vs0mg"},{"bike_id":"88b3397b-b680-40d4-8443-127782358fb4","system_id":"levelo_inurba_marseille","lat":43.24083,"lon":5.37754,"is_reserved":false,"is_disabled":false,"rental_uris":{"android":"levelo://app?vid=88b3397b-b680-40d4-8443-127782358fb4","ios":"levelo://app?vid=88b3397b-b680-40d4-8443-127782358fb4"},"vehicle_type_id":"4","last_reported":1732867983,"current_range_meters":22800,"station_id":"ce4bhnp2rcd13ifvqgvg","pricing_plan_id":"cebpf4jnsgd1na2vs0mg"},{"bike_id":"3fd58cc1-8b5a-4464-ac2b-cda0b0a7d954","system_id":"levelo_inurba_marseille","lat":43.28938,"lon":5.364,"is_reserved":false,"is_disabled":true,"rental_uris":{"android":"levelo://app?vid=3fd58cc1-8b5a-4464-ac2b-cda0b0a7d954","ios":"levelo://app?vid=3fd58cc1-8b5a-4464-ac2b-cda0b0a7d954"},"vehicle_type_id":"4","last_reported":1732867983,"current_range_meters":22400,"station_id":"ce4bhc92rcd13ifvqetg","pricing_plan_id":"cebpf4jnsgd1na2vs0mg"},{"bike_id":"a89e13f9-1fe4-4bd8-a895-0a49a6ba790c","system_id":"levelo_inurba_marseille","lat":43.30409,"lon":5.41268,"is_reserved":false,"is_disabled":false,"rental_uris":{"android":"levelo://app?vid=a89e13f9-1fe4-4bd8-a895-0a49a6ba790c","ios":"levelo://app?vid=a89e13f9-1fe4-4bd8-a895-0a49a6ba790c"},"vehicle_type_id":"4","last_reported":1732867983,"current_range_meters":38800,"station_id":"ce4bhop2rcd13ifvqh8g","pricing_plan_id":"cebpf4jnsgd1na2vs0mg"},{"bike_id":"de8dedfd-c65e-4ce5-b8ec-b5ab34a22a6e","system_id":"levelo_inurba_marseille","lat":43.27068,"lon":5.42275,"is_reserved":false,"is_disabled":true,"rental_uris":{"android":"levelo://app?vid=de8dedfd-c65e-4ce5-b8ec-b5ab34a22a6e","ios":"levelo://app?vid=de8dedfd-c65e-4ce5-b8ec-b5ab34a22a6e"},"vehicle_type_id":"4","last_reported":1732867983,"current_range_meters":39200,"station_id":"ce4bhk92rcd13ifvqgb0","pricing_plan_id":"cebpf4jnsgd1na2vs0mg"},{"bike_id":"baed12b3-7578-4780-a3e6-1f289df86bbf","system_id":"levelo_inurba_marseille","lat":43.30542,"lon":5.36715,"is_reserved":false,"is_disabled":false,"rental_uris":{"android":"levelo://app?vid=baed12b3-7578-4780-a3e6-1f289df86bbf","ios":"levelo://app?vid=baed12b3-7578-4780-a3e6-1f289df86bbf"},"vehicle_type_id":"4","last_reported":1732867983,"current_range_meters":16800,"station_id":"ce4bgrp2rcd13ifvqc9g","pricing_plan_id":"cebpf4jnsgd1na2vs0mg"},{"bike_id":"75f174b0-a946-4a42-87ef-a93b48abb145","system_id":"levelo_inurba_marseille","lat":43.30951,"lon":5.39026,"is_reserved":false,"is_disabled":false,"rental_uris":{"android":"levelo://app?vid=75f174b0-a946-4a42-87ef-a93b48abb145","ios":"levelo://app?vid=75f174b0-a946-4a42-87ef-a93b48abb145"},"vehicle_type_id":"4","last_reported":1732867983,"current_range_meters":37600,"station_id":"ce4bgup2rcd13ifvqco0","pricing_plan_id":"cebpf4jnsgd1na2vs0mg"},{"bike_id":"f576f1ac-9441-4aaf-9239-99d550cb7b55","system_id":"levelo_inurba_marseille","lat":43.31668,"lon":5.37763,"is_reserved":false,"is_disabled":true,"rental_uris":{"android":"levelo://app?vid=f576f1ac-9441-4aaf-9239-99d550cb7b55","ios":"levelo://app?vid=f576f1ac-9441-4aaf-9239-99d550cb7b55"},"vehicle_type_id":"4","last_reported":1732867983,"current_range_meters":28400,"station_id":"ce4bgth2rcd13ifvqch0","pricing_plan_id":"cebpf4jnsgd1na2vs0mg"},{"bike_id":"a2bfa675-9b93-4fe4-b8f0-81485a308a3f","system_id":"levelo_inurba_marseille","lat":43.30469,"lon":5.37911,"is_reserved":false,"is_disabled":false,"rental_uris":{"android":"levelo://app?vid=a2bfa675-9b93-4fe4-b8f0-81485a308a3f","ios":"levelo://app?vid=a2bfa675-9b93-4fe4-b8f0-81485a308a3f"},"vehicle_type_id":"4","last_reported":1732867983,"current_range_meters":16400,"station_id":"ce4bgup2rcd13ifvqcn0","pricing_plan_id":"cebpf4jnsgd1na2vs0mg"},{"bike_id":"3a3b1b2b-9521-4bba-ba92-f3603821bdb4","system_id":"levelo_inurba_marseille","lat":43.25577,"lon":5.38233,"is_reserved":false,"is_disabled":false,"rental_uris":{"android":"levelo://app?vid=3a3b1b2b-9521-4bba-ba92-f3603821bdb4","ios":"levelo://app?vid=3a3b1b2b-9521-4bba-ba92-f3603821bdb4"},"vehicle_type_id":"4","last_reported":1732867983,"current_range_meters":25200,"station_id":"ce4bhih2rcd13ifvqfs0","pricing_plan_id":"cebpf4jnsgd1na2vs0mg"},{"bike_id":"3a9c1aba-4be0-4fd2-a67f-a93e8086b20b","system_id":"levelo_inurba_marseille","lat":43.30545,"lon":5.367,"is_reserved":false,"is_disabled":false,"rental_uris":{"android":"levelo://app?vid=3a9c1aba-4be0-4fd2-a67f-a93e8086b20b","ios":"levelo://app?vid=3a9c1aba-4be0-4fd2-a67f-a93e8086b20b"},"vehicle_type_id":"4","last_reported":1732867983,"current_range_meters":19600,"station_id":"ce4bgrp2rcd13ifvqc9g","pricing_plan_id":"cebpf4jnsgd1na2vs0mg"},{"bike_id":"63c3b7c5-a0a5-4303-943a-5512cff1f3b4","system_id":"levelo_inurba_marseille","lat":43.32365,"lon":5.38876,"is_reserved":false,"is_disabled":false,"rental_uris":{"android":"levelo://app?vid=63c3b7c5-a0a5-4303-943a-5512cff1f3b4","ios":"levelo://app?vid=63c3b7c5-a0a5-4303-943a-5512cff1f3b4"},"vehicle_type_id":"4","last_reported":1732867983,"current_range_meters":24000,"station_id":"ce4bhqp2rcd13ifvqhog","pricing_plan_id":"cebpf4jnsgd1na2vs0mg"},{"bike_id":"a8bdfa2e-a19c-40e0-b0eb-52ed6fb387de","system_id":"levelo_inurba_marseille","lat":43.28946,"lon":5.36637,"is_reserved":false,"is_disabled":false,"rental_uris":{"android":"levelo://app?vid=a8bdfa2e-a19c-40e0-b0eb-52ed6fb387de","ios":"levelo://app?vid=a8bdfa2e-a19c-40e0-b0eb-52ed6fb387de"},"vehicle_type_id":"4","last_reported":1732867983,"current_range_meters":17600,"station_id":"ce4bhap2rcd13ifvqek0","pricing_plan_id":"cebpf4jnsgd1na2vs0mg"},{"bike_id":"e2fe1f3e-661a-432b-83d7-de4f8a5d821a","system_id":"levelo_inurba_marseille","lat":43.32484,"lon":5.36569,"is_reserved":false,"is_disabled":true,"rental_uris":{"android":"levelo://app?vid=e2fe1f3e-661a-432b-83d7-de4f8a5d821a","ios":"levelo://app?vid=e2fe1f3e-661a-432b-83d7-de4f8a5d821a"},"vehicle_type_id":"4","last_reported":1732867983,"current_range_meters":28800,"station_id":"ce4bhs12rcd13ifvqhvg","pricing_plan_id":"cebpf4jnsgd1na2vs0mg"},{"bike_id":"bd116da4-9303-4372-b375-2867673729fc","system_id":"levelo_inurba_marseille","lat":43.23155,"lon":5.4372,"is_reserved":false,"is_disabled":false,"rental_uris":{"android":"levelo://app?vid=bd116da4-9303-4372-b375-2867673729fc","ios":"levelo://app?vid=bd116da4-9303-4372-b375-2867673729fc"},"vehicle_type_id":"4","last_reported":1732867983,"current_range_meters":21600,"station_id":"ce4bhmp2rcd13ifvqgog","pricing_plan_id":"cebpf4jnsgd1na2vs0mg"},{"bike_id":"43746d86-8a13-4845-9faf-ae69b548d714","system_id":"levelo_inurba_marseille","lat":43.29459,"lon":5.37917,"is_reserved":false,"is_disabled":true,"rental_uris":{"android":"levelo://app?vid=43746d86-8a13-4845-9faf-ae69b548d714","ios":"levelo://app?vid=43746d86-8a13-4845-9faf-ae69b548d714"},"vehicle_type_id":"4","last_reported":1732867983,"current_range_meters":0,"station_id":"","pricing_plan_id":"cebpf4jnsgd1na2vs0mg"},{"bike_id":"7c9101ae-13cf-41cf-b845-9c8f8940015c","system_id":"levelo_inurba_marseille","lat":43.30457,"lon":5.37904,"is_reserved":false,"is_disabled":false,"rental_uris":{"android":"levelo://app?vid=7c9101ae-13cf-41cf-b845-9c8f8940015c","ios":"levelo://app?vid=7c9101ae-13cf-41cf-b845-9c8f8940015c"},"vehicle_type_id":"4","last_reported":1732867983,"current_range_meters":28000,"station_id":"ce4bgup2rcd13ifvqcn0","pricing_plan_id":"cebpf4jnsgd1na2vs0mg"},{"bike_id":"09845e09-65ac-47d3-9db8-562837ee37a4","system_id":"levelo_inurba_marseille","lat":43.25937,"lon":5.409,"is_reserved":false,"is_disabled":false,"rental_uris":{"android":"levelo://app?vid=09845e09-65ac-47d3-9db8-562837ee37a4","ios":"levelo://app?vid=09845e09-65ac-47d3-9db8-562837ee37a4"},"vehicle_type_id":"4","last_reported":1732867983,"current_range_meters":30400,"station_id":"ce4bhm92rcd13ifvqglg","pricing_plan_id":"cebpf4jnsgd1na2vs0mg"},{"bike_id":"d8404ab4-ce67-47f0-be35-3f1fcff4b0b2","system_id":"levelo_inurba_marseille","lat":43.27492,"lon":5.42457,"is_reserved":false,"is_disabled":false,"rental_uris":{"android":"levelo://app?vid=d8404ab4-ce67-47f0-be35-3f1fcff4b0b2","ios":"levelo://app?vid=d8404ab4-ce67-47f0-be35-3f1fcff4b0b2"},"vehicle_type_id":"4","last_reported":1732867983,"current_range_meters":38000,"station_id":"ce4bhn92rcd13ifvqgrg","pricing_plan_id":"cebpf4jnsgd1na2vs0mg"},{"bike_id":"48b5ff29-f272-4faf-a81d-daa5ce069c5c","system_id":"levelo_inurba_marseille","lat":43.31295,"lon":5.38871,"is_reserved":false,"is_disabled":true,"rental_uris":{"android":"levelo://app?vid=48b5ff29-f272-4faf-a81d-daa5ce069c5c","ios":"levelo://app?vid=48b5ff29-f272-4faf-a81d-daa5ce069c5c"},"vehicle_type_id":"4","last_reported":1732867983,"current_range_meters":8800,"station_id":"","pricing_plan_id":"cebpf4jnsgd1na2vs0mg"},{"bike_id":"3bef4920-0857-41d2-8241-dc808ac3ec03","system_id":"levelo_inurba_marseille","lat":43.304334,"lon":5.38881,"is_reserved":false,"is_disabled":false,"rental_uris":{"android":"levelo://app?vid=3bef4920-0857-41d2-8241-dc808ac3ec03","ios":"levelo://app?vid=3bef4920-0857-41d2-8241-dc808ac3ec03"},"vehicle_type_id":"4","last_reported":1732867983,"current_range_meters":33200,"station_id":"ce4bgk12rcd13ifvqbi0","pricing_plan_id":"cebpf4jnsgd1na2vs0mg"},{"bike_id":"56de734b-ad68-4a09-9df1-7fbc84e4bbf2","system_id":"levelo_inurba_marseille","lat":43.24081,"lon":5.37759,"is_reserved":false,"is_disabled":false,"rental_uris":{"android":"levelo://app?vid=56de734b-ad68-4a09-9df1-7fbc84e4bbf2","ios":"levelo://app?vid=56de734b-ad68-4a09-9df1-7fbc84e4bbf2"},"vehicle_type_id":"4","last_reported":1732867983,"current_range_meters":38400,"station_id":"ce4bhnp2rcd13ifvqgvg","pricing_plan_id":"cebpf4jnsgd1na2vs0mg"},{"bike_id":"b563a645-cd3c-4285-b2b8-becf5c7c0949","system_id":"levelo_inurba_marseille","lat":43.24181,"lon":5.39734,"is_reserved":false,"is_disabled":false,"rental_uris":{"android":"levelo://app?vid=b563a645-cd3c-4285-b2b8-becf5c7c0949","ios":"levelo://app?vid=b563a645-cd3c-4285-b2b8-becf5c7c0949"},"vehicle_type_id":"4","last_reported":1732867983,"current_range_meters":10000,"station_id":"ce4bhn12rcd13ifvqgpg","pricing_plan_id":"cebpf4jnsgd1na2vs0mg"},{"bike_id":"f56fb7e3-c722-421f-956f-65aa7ba72e68","system_id":"levelo_inurba_marseille","lat":43.31506,"lon":5.3731,"is_reserved":false,"is_disabled":false,"rental_uris":{"android":"levelo://app?vid=f56fb7e3-c722-421f-956f-65aa7ba72e68","ios":"levelo://app?vid=f56fb7e3-c722-421f-956f-65aa7ba72e68"},"vehicle_type_id":"4","last_reported":1732867983,"current_range_meters":26800,"station_id":"ce4bgt12rcd13ifvqcd0","pricing_plan_id":"cebpf4jnsgd1na2vs0mg"},{"bike_id":"47b708f5-709b-4341-a5c9-1ef96cf4b4b1","system_id":"levelo_inurba_marseille","lat":43.30953,"lon":5.39036,"is_reserved":false,"is_disabled":false,"rental_uris":{"android":"levelo://app?vid=47b708f5-709b-4341-a5c9-1ef96cf4b4b1","ios":"levelo://app?vid=47b708f5-709b-4341-a5c9-1ef96cf4b4b1"},"vehicle_type_id":"4","last_reported":1732867983,"current_range_meters":20000,"station_id":"ce4bgup2rcd13ifvqco0","pricing_plan_id":"cebpf4jnsgd1na2vs0mg"},{"bike_id":"f667a2cd-0834-4d2a-8e29-2e595945a64c","system_id":"levelo_inurba_marseille","lat":43.30941,"lon":5.40148,"is_reserved":false,"is_disabled":false,"rental_uris":{"android":"levelo://app?vid=f667a2cd-0834-4d2a-8e29-2e595945a64c","ios":"levelo://app?vid=f667a2cd-0834-4d2a-8e29-2e595945a64c"},"vehicle_type_id":"4","last_reported":1732867983,"current_range_meters":25200,"station_id":"ce4bgvp2rcd13ifvqct0","pricing_plan_id":"cebpf4jnsgd1na2vs0mg"},{"bike_id":"e1a441bb-ffc3-4b30-950e-b8eb47f0e1ee","system_id":"levelo_inurba_marseille","lat":43.26954,"lon":5.3863,"is_reserved":false,"is_disabled":false,"rental_uris":{"android":"levelo://app?vid=e1a441bb-ffc3-4b30-950e-b8eb47f0e1ee","ios":"levelo://app?vid=e1a441bb-ffc3-4b30-950e-b8eb47f0e1ee"},"vehicle_type_id":"4","last_reported":1732867983,"current_range_meters":28400,"station_id":"ce4bhh92rcd13ifvqfh0","pricing_plan_id":"cebpf4jnsgd1na2vs0mg"},{"bike_id":"86ea9238-e327-45c7-87e8-1c5cbc7d31e6","system_id":"levelo_inurba_marseille","lat":43.25937,"lon":5.4091,"is_reserved":false,"is_disabled":false,"rental_uris":{"android":"levelo://app?vid=86ea9238-e327-45c7-87e8-1c5cbc7d31e6","ios":"levelo://app?vid=86ea9238-e327-45c7-87e8-1c5cbc7d31e6"},"vehicle_type_id":"4","last_reported":1732867983,"current_range_meters":32000,"station_id":"ce4bhm92rcd13ifvqglg","pricing_plan_id":"cebpf4jnsgd1na2vs0mg"},{"bike_id":"f9f66112-a011-4a0b-b6ae-aefdcf22a1d3","system_id":"levelo_inurba_marseille","lat":43.25936,"lon":5.40909,"is_reserved":false,"is_disabled":false,"rental_uris":{"android":"levelo://app?vid=f9f66112-a011-4a0b-b6ae-aefdcf22a1d3","ios":"levelo://app?vid=f9f66112-a011-4a0b-b6ae-aefdcf22a1d3"},"vehicle_type_id":"4","last_reported":1732867983,"current_range_meters":6000,"station_id":"ce4bhm92rcd13ifvqglg","pricing_plan_id":"cebpf4jnsgd1na2vs0mg"},{"bike_id":"fc4d15f5-6256-45a3-90d6-77bb4c676955","system_id":"levelo_inurba_marseille","lat":43.296284,"lon":5.377877,"is_reserved":false,"is_disabled":true,"rental_uris":{"android":"levelo://app?vid=fc4d15f5-6256-45a3-90d6-77bb4c676955","ios":"levelo://app?vid=fc4d15f5-6256-45a3-90d6-77bb4c676955"},"vehicle_type_id":"4","last_reported":1732867983,"current_range_meters":30000,"station_id":"","pricing_plan_id":"cebpf4jnsgd1na2vs0mg"},{"bike_id":"04ad1301-ff1b-4f01-a03d-a0246a7bbcca","system_id":"levelo_inurba_marseille","lat":43.3081,"lon":5.38822,"is_reserved":false,"is_disabled":false,"rental_uris":{"android":"levelo://app?vid=04ad1301-ff1b-4f01-a03d-a0246a7bbcca","ios":"levelo://app?vid=04ad1301-ff1b-4f01-a03d-a0246a7bbcca"},"vehicle_type_id":"4","last_reported":1732867983,"current_range_meters":30800,"station_id":"ce4bgup2rcd13ifvqco0","pricing_plan_id":"cebpf4jnsgd1na2vs0mg"},{"bike_id":"c88f8730-1176-4717-97e2-17c27b15274f","system_id":"levelo_inurba_marseille","lat":43.23199,"lon":5.35548,"is_reserved":false,"is_disabled":false,"rental_uris":{"android":"levelo://app?vid=c88f8730-1176-4717-97e2-17c27b15274f","ios":"levelo://app?vid=c88f8730-1176-4717-97e2-17c27b15274f"},"vehicle_type_id":"4","last_reported":1732867983,"current_range_meters":39200,"station_id":"ce4bhu92rcd13ifvqi70","pricing_plan_id":"cebpf4jnsgd1na2vs0mg"},{"bike_id":"57729228-d5fc-4aad-84bf-09d1889b3435","system_id":"levelo_inurba_marseille","lat":43.30543,"lon":5.36696,"is_reserved":false,"is_disabled":false,"rental_uris":{"android":"levelo://app?vid=57729228-d5fc-4aad-84bf-09d1889b3435","ios":"levelo://app?vid=57729228-d5fc-4aad-84bf-09d1889b3435"},"vehicle_type_id":"4","last_reported":1732867983,"current_range_meters":20400,"station_id":"ce4bgrp2rcd13ifvqc9g","pricing_plan_id":"cebpf4jnsgd1na2vs0mg"},{"bike_id":"483bde82-a734-46a5-8bb3-1b4e39b30732","system_id":"levelo_inurba_marseille","lat":43.25581,"lon":5.38225,"is_reserved":false,"is_disabled":false,"rental_uris":{"android":"levelo://app?vid=483bde82-a734-46a5-8bb3-1b4e39b30732","ios":"levelo://app?vid=483bde82-a734-46a5-8bb3-1b4e39b30732"},"vehicle_type_id":"4","last_reported":1732867983,"current_range_meters":20000,"station_id":"ce4bhih2rcd13ifvqfs0","pricing_plan_id":"cebpf4jnsgd1na2vs0mg"},{"bike_id":"16512b8d-4fb1-4cf8-891e-b29461d255e2","system_id":"levelo_inurba_marseille","lat":43.29795,"lon":5.38116,"is_reserved":false,"is_disabled":true,"rental_uris":{"android":"levelo://app?vid=16512b8d-4fb1-4cf8-891e-b29461d255e2","ios":"levelo://app?vid=16512b8d-4fb1-4cf8-891e-b29461d255e2"},"vehicle_type_id":"4","last_reported":1732867983,"current_range_meters":35200,"station_id":"ce4bgip2rcd13ifvqbb0","pricing_plan_id":"cebpf4jnsgd1na2vs0mg"},{"bike_id":"c20afd6c-d414-44df-9450-cc27e4ad9839","system_id":"levelo_inurba_marseille","lat":43.32158,"lon":5.38476,"is_reserved":false,"is_disabled":true,"rental_uris":{"android":"levelo://app?vid=c20afd6c-d414-44df-9450-cc27e4ad9839","ios":"levelo://app?vid=c20afd6c-d414-44df-9450-cc27e4ad9839"},"vehicle_type_id":"4","last_reported":1732867983,"current_range_meters":0,"station_id":"","pricing_plan_id":"cebpf4jnsgd1na2vs0mg"},{"bike_id":"b944efa8-8bfd-4cf3-9742-93239c780cac","system_id":"levelo_inurba_marseille","lat":43.29005,"lon":5.35615,"is_reserved":false,"is_disabled":true,"rental_uris":{"android":"levelo://app?vid=b944efa8-8bfd-4cf3-9742-93239c780cac","ios":"levelo://app?vid=b944efa8-8bfd-4cf3-9742-93239c780cac"},"vehicle_type_id":"4","last_reported":1732867983,"current_range_meters":31200,"station_id":"ce4bhb92rcd13ifvqen0","pricing_plan_id":"cebpf4jnsgd1na2vs0mg"},{"bike_id":"a62a0f42-9376-4be7-9075-1f7cd63bf4a3","system_id":"levelo_inurba_marseille","lat":43.24995,"lon":5.38939,"is_reserved":false,"is_disabled":false,"rental_uris":{"android":"levelo://app?vid=a62a0f42-9376-4be7-9075-1f7cd63bf4a3","ios":"levelo://app?vid=a62a0f42-9376-4be7-9075-1f7cd63bf4a3"},"vehicle_type_id":"4","last_reported":1732867983,"current_range_meters":25600,"station_id":"ce4bhgp2rcd13ifvqfd0","pricing_plan_id":"cebpf4jnsgd1na2vs0mg"},{"bike_id":"4b262992-5694-423d-ae6a-926833988b3b","system_id":"levelo_inurba_marseille","lat":43.30467,"lon":5.37907,"is_reserved":false,"is_disabled":false,"rental_uris":{"android":"levelo://app?vid=4b262992-5694-423d-ae6a-926833988b3b","ios":"levelo://app?vid=4b262992-5694-423d-ae6a-926833988b3b"},"vehicle_type_id":"4","last_reported":1732867983,"current_range_meters":32800,"station_id":"ce4bgup2rcd13ifvqcn0","pricing_plan_id":"cebpf4jnsgd1na2vs0mg"},{"bike_id":"3a4e6c41-3f77-4254-abd4-29776dd71545","system_id":"levelo_inurba_marseille","lat":43.305182,"lon":5.365344,"is_reserved":false,"is_disabled":false,"rental_uris":{"android":"levelo://app?vid=3a4e6c41-3f77-4254-abd4-29776dd71545","ios":"levelo://app?vid=3a4e6c41-3f77-4254-abd4-29776dd71545"},"vehicle_type_id":"4","last_reported":1732867983,"current_range_meters":4000,"station_id":"ce4bgs12rcd13ifvqcag","pricing_plan_id":"cebpf4jnsgd1na2vs0mg"},{"bike_id":"fd52e257-6121-4a27-b7c3-37b1660c1602","system_id":"levelo_inurba_marseille","lat":43.24078,"lon":5.37761,"is_reserved":false,"is_disabled":false,"rental_uris":{"android":"levelo://app?vid=fd52e257-6121-4a27-b7c3-37b1660c1602","ios":"levelo://app?vid=fd52e257-6121-4a27-b7c3-37b1660c1602"},"vehicle_type_id":"4","last_reported":1732867983,"current_range_meters":33600,"station_id":"ce4bhnp2rcd13ifvqgvg","pricing_plan_id":"cebpf4jnsgd1na2vs0mg"},{"bike_id":"53832248-7ea6-4cc6-856c-2b60c3f17998","system_id":"levelo_inurba_marseille","lat":43.295534,"lon":5.422878,"is_reserved":false,"is_disabled":true,"rental_uris":{"android":"levelo://app?vid=53832248-7ea6-4cc6-856c-2b60c3f17998","ios":"levelo://app?vid=53832248-7ea6-4cc6-856c-2b60c3f17998"},"vehicle_type_id":"4","last_reported":1732867983,"current_range_meters":39200,"station_id":"ce4bhph2rcd13ifvqhdg","pricing_plan_id":"cebpf4jnsgd1na2vs0mg"},{"bike_id":"61f919f4-7d6d-41ef-800f-5100786730a3","system_id":"levelo_inurba_marseille","lat":43.33611,"lon":5.41021,"is_reserved":false,"is_disabled":false,"rental_uris":{"android":"levelo://app?vid=61f919f4-7d6d-41ef-800f-5100786730a3","ios":"levelo://app?vid=61f919f4-7d6d-41ef-800f-5100786730a3"},"vehicle_type_id":"4","last_reported":1732867983,"current_range_meters":8000,"station_id":"ce4bhqh2rcd13ifvqhmg","pricing_plan_id":"cebpf4jnsgd1na2vs0mg"},{"bike_id":"ed4dfe3b-c342-4528-90f6-e552938f730a","system_id":"levelo_inurba_marseille","lat":43.23186,"lon":5.39997,"is_reserved":false,"is_disabled":false,"rental_uris":{"android":"levelo://app?vid=ed4dfe3b-c342-4528-90f6-e552938f730a","ios":"levelo://app?vid=ed4dfe3b-c342-4528-90f6-e552938f730a"},"vehicle_type_id":"4","last_reported":1732867983,"current_range_meters":20400,"station_id":"ce4bhn12rcd13ifvqgqg","pricing_plan_id":"cebpf4jnsgd1na2vs0mg"},{"bike_id":"890be0fb-eb82-422d-9bb8-9e04cf8d7255","system_id":"levelo_inurba_marseille","lat":43.30805,"lon":5.38162,"is_reserved":false,"is_disabled":false,"rental_uris":{"android":"levelo://app?vid=890be0fb-eb82-422d-9bb8-9e04cf8d7255","ios":"levelo://app?vid=890be0fb-eb82-422d-9bb8-9e04cf8d7255"},"vehicle_type_id":"4","last_reported":1732867983,"current_range_meters":32000,"station_id":"ce4bgt12rcd13ifvqce0","pricing_plan_id":"cebpf4jnsgd1na2vs0mg"},{"bike_id":"3043e874-44eb-4ce8-a2fb-d5bb027c2006","system_id":"levelo_inurba_marseille","lat":43.30535,"lon":5.36552,"is_reserved":false,"is_disabled":false,"rental_uris":{"android":"levelo://app?vid=3043e874-44eb-4ce8-a2fb-d5bb027c2006","ios":"levelo://app?vid=3043e874-44eb-4ce8-a2fb-d5bb027c2006"},"vehicle_type_id":"4","last_reported":1732867983,"current_range_meters":38800,"station_id":"ce4bgs12rcd13ifvqcag","pricing_plan_id":"cebpf4jnsgd1na2vs0mg"},{"bike_id":"1acbbdf6-bcd5-4334-9165-360b5f767d56","system_id":"levelo_inurba_marseille","lat":43.30263,"lon":5.40069,"is_reserved":false,"is_disabled":false,"rental_uris":{"android":"levelo://app?vid=1acbbdf6-bcd5-4334-9165-360b5f767d56","ios":"levelo://app?vid=1acbbdf6-bcd5-4334-9165-360b5f767d56"},"vehicle_type_id":"4","last_reported":1732867983,"current_range_meters":38800,"station_id":"ce4bgvh2rcd13ifvqcs0","pricing_plan_id":"cebpf4jnsgd1na2vs0mg"},{"bike_id":"fbd50fd8-d35b-4a5c-9212-ce2028bd94a5","system_id":"levelo_inurba_marseille","lat":43.31712,"lon":5.37752,"is_reserved":false,"is_disabled":false,"rental_uris":{"android":"levelo://app?vid=fbd50fd8-d35b-4a5c-9212-ce2028bd94a5","ios":"levelo://app?vid=fbd50fd8-d35b-4a5c-9212-ce2028bd94a5"},"vehicle_type_id":"4","last_reported":1732867983,"current_range_meters":36400,"station_id":"ce4bgth2rcd13ifvqch0","pricing_plan_id":"cebpf4jnsgd1na2vs0mg"},{"bike_id":"234557b4-a50e-4e0e-b846-75b86a5e7ad6","system_id":"levelo_inurba_marseille","lat":43.33607,"lon":5.41025,"is_reserved":false,"is_disabled":false,"rental_uris":{"android":"levelo://app?vid=234557b4-a50e-4e0e-b846-75b86a5e7ad6","ios":"levelo://app?vid=234557b4-a50e-4e0e-b846-75b86a5e7ad6"},"vehicle_type_id":"4","last_reported":1732867983,"current_range_meters":25600,"station_id":"ce4bhqh2rcd13ifvqhmg","pricing_plan_id":"cebpf4jnsgd1na2vs0mg"},{"bike_id":"87037c72-a31f-42b3-8b02-c660277b11e9","system_id":"levelo_inurba_marseille","lat":43.31341,"lon":5.36713,"is_reserved":false,"is_disabled":false,"rental_uris":{"android":"levelo://app?vid=87037c72-a31f-42b3-8b02-c660277b11e9","ios":"levelo://app?vid=87037c72-a31f-42b3-8b02-c660277b11e9"},"vehicle_type_id":"4","last_reported":1732867983,"current_range_meters":11200,"station_id":"ce4bgr92rcd13ifvqc6g","pricing_plan_id":"cebpf4jnsgd1na2vs0mg"},{"bike_id":"7222b91b-18ff-4610-a728-06590b86deda","system_id":"levelo_inurba_marseille","lat":43.30459,"lon":5.379,"is_reserved":false,"is_disabled":false,"rental_uris":{"android":"levelo://app?vid=7222b91b-18ff-4610-a728-06590b86deda","ios":"levelo://app?vid=7222b91b-18ff-4610-a728-06590b86deda"},"vehicle_type_id":"4","last_reported":1732867983,"current_range_meters":28800,"station_id":"ce4bgup2rcd13ifvqcn0","pricing_plan_id":"cebpf4jnsgd1na2vs0mg"},{"bike_id":"d7281c1c-4e11-43d3-9a5f-bd6f92531d14","system_id":"levelo_inurba_marseille","lat":43.29531,"lon":5.39396,"is_reserved":false,"is_disabled":true,"rental_uris":{"android":"levelo://app?vid=d7281c1c-4e11-43d3-9a5f-bd6f92531d14","ios":"levelo://app?vid=d7281c1c-4e11-43d3-9a5f-bd6f92531d14"},"vehicle_type_id":"4","last_reported":1732867983,"current_range_meters":34000,"station_id":"ce4bh292rcd13ifvqdf0","pricing_plan_id":"cebpf4jnsgd1na2vs0mg"},{"bike_id":"376bea24-73ba-4e44-a97d-ede0ded2ff94","system_id":"levelo_inurba_marseille","lat":43.34142,"lon":5.40907,"is_reserved":false,"is_disabled":false,"rental_uris":{"android":"levelo://app?vid=376bea24-73ba-4e44-a97d-ede0ded2ff94","ios":"levelo://app?vid=376bea24-73ba-4e44-a97d-ede0ded2ff94"},"vehicle_type_id":"4","last_reported":1732867983,"current_range_meters":32800,"station_id":"ce4bhqh2rcd13ifvqhlg","pricing_plan_id":"cebpf4jnsgd1na2vs0mg"},{"bike_id":"5c5f2969-a58f-44b4-b927-346aa8bda72b","system_id":"levelo_inurba_marseille","lat":43.29806,"lon":5.3815,"is_reserved":false,"is_disabled":true,"rental_uris":{"android":"levelo://app?vid=5c5f2969-a58f-44b4-b927-346aa8bda72b","ios":"levelo://app?vid=5c5f2969-a58f-44b4-b927-346aa8bda72b"},"vehicle_type_id":"4","last_reported":1732867983,"current_range_meters":38800,"station_id":"ce4bgip2rcd13ifvqbb0","pricing_plan_id":"cebpf4jnsgd1na2vs0mg"},{"bike_id":"373b0ef2-2c12-4172-adc7-218fad8a345e","system_id":"levelo_inurba_marseille","lat":43.30329,"lon":5.40435,"is_reserved":false,"is_disabled":true,"rental_uris":{"android":"levelo://app?vid=373b0ef2-2c12-4172-adc7-218fad8a345e","ios":"levelo://app?vid=373b0ef2-2c12-4172-adc7-218fad8a345e"},