{"last_updated":1748732967,"ttl":60,"version":"2.2","data":{"bikes":[{"bike_id":"72faac3e-6b64-44d8-8d2c-a90db99cf70b","system_id":"levelo_inurba_marseille","lat":43.29794,"lon":5.3811,"is_reserved":false,"is_disabled":false,"rental_uris":{"android":"levelo://app?vid=72faac3e-6b64-44d8-8d2c-a90db99cf70b","ios":"levelo://app?vid=72faac3e-6b64-44d8-8d2c-a90db99cf70b"},"vehicle_type_id":"4","last_reported":1748732967,"current_range_meters":2800,"station_id":"ce4bgip2rcd13ifvqbb0","pricing_plan_id":"cebpf4jnsgd1na2vs0mg"},{"bike_id":"a7330f60-0686-4917-96f6-e732fbe60652","system_id":"levelo_inurba_marseille","lat":43.28667,"lon":5.38665,"is_reserved":false,"is_disabled":false,"rental_uris":{"android":"levelo://app?vid=a7330f60-0686-4917-96f6-e732fbe60652","ios":"levelo://app?vid=a7330f60-0686-4917-96f6-e732fbe60652"},"vehicle_type_id":"4","last_reported":1748732967,"current_range_meters":2800,"station_id":"ce4bh492rcd13ifvqdug","pricing_plan_id":"cebpf4jnsgd1na2vs0mg"},{"bike_id":"6c3c990c-2cf4-48e3-a271-830f36153f5f","system_id":"levelo_inurba_marseille","lat":43.29065,"lon":5.37152,"is_reserved":false,"is_disabled":false,"rental_uris":{"android":"levelo://app?vid=6c3c990c-2cf4-48e3-a271-830f36153f5f","ios":"levelo://app?vid=6c3c990c-2cf4-48e3-a271-830f36153f5f"},"vehicle_type_id":"4","last_reported":1748732967,"current_range_meters":2800,"station_id":"ce4bh5p2rcd13ifvqe4g","pricing_plan_id":"cebpf4jnsgd1na2vs0mg"},{"bike_id":"d28aeaad-f5f2-4c4f-a0cd-6b7231965959","system_id":"levelo_inurba_marseille","lat":43.32995,"lon":5.3927,"is_reserved":false,"is_disabled":true,"rental_uris":{"android":"levelo://app?vid=d28aeaad-f5f2-4c4f-a0cd-6b7231965959","ios":"levelo://app?vid=d28aeaad-f5f2-4c4f-a0cd-6b7231965959"},"vehicle_type_id":"4","last_reported":1748732967,"current_range_meters":3200,"station_id":"","pricing_plan_id":"cebpf4jnsgd1na2vs0mg"},{"bike_id":"4ea9999a-521a-421b-8382-43785c8666dd","system_id":"levelo_inurba_marseille","lat":43.265391,"lon":5.403386,"is_reserved":false,"is_disabled":false,"rental_uris":{"android":"levelo://app?vid=4ea9999a-521a-421b-8382-43785c8666dd","ios":"levelo://app?vid=4ea9999a-521a-421b-8382-43785c8666dd"},"vehicle_type_id":"4","last_reported":1748732967,"current_range_meters":3200,"station_id":"","pricing_plan_id":"cebpf4jnsgd1na2vs0mg"},{"bike_id":"70a29137-3ba1-4ff4-84bb-3a7f964a05e8","system_id":"levelo_inurba_marseille","lat":43.30041,"lon":5.364,"is_reserved":false,"is_disabled":false,"rental_uris":{"android":"levelo://app?vid=70a29137-3ba1-4ff4-84bb-3a7f964a05e8","ios":"levelo://app?vid=70a29137-3ba1-4ff4-84bb-3a7f964a05e8"},"vehicle_type_id":"4","last_reported":1748732967,"current_range_meters":3600,"station_id":"","pricing_plan_id":"cebpf4jnsgd1na2vs0mg"},{"bike_id":"3f552da1-2fbb-45ef-ac15-c5ae9735159d","system_id":"levelo_inurba_marseille","lat":43.28038,"lon":5.36946,"is_reserved":false,"is_disabled":false,"rental_uris":{"android":"levelo://app?vid=3f552da1-2fbb-45ef-ac15-c5ae9735159d","ios":"levelo://app?vid=3f552da1-2fbb-45ef-ac15-c5ae9735159d"},"vehicle_type_id":"4","last_reported":1748732967,"current_range_meters":3600,"station_id":"ce4bha12rcd13ifvqef0","pricing_plan_id":"cebpf4jnsgd1na2vs0mg"},{"bike_id":"73b9cb1f-fb82-451a-8cc7-6943fd84bb5d","system_id":"levelo_inurba_marseille","lat":43.29879,"lon":5.39725,"is_reserved":false,"is_disabled":false,"rental_uris":{"android":"levelo://app?vid=73b9cb1f-fb82-451a-8cc7-6943fd84bb5d","ios":"levelo://app?vid=73b9cb1f-fb82-451a-8cc7-6943fd84bb5d"},"vehicle_type_id":"4","last_reported":1748732967,"current_range_meters":3600,"station_id":"ce4bh0h2rcd13ifvqd50","pricing_plan_id":"cebpf4jnsgd1na2vs0mg"},{"bike_id":"e8f4fcac-2b6a-41d5-a6bf-1707daaf6029","system_id":"levelo_inurba_marseille","lat":43.26542,"lon":5.38034,"is_reserved":false,"is_disabled":false,"rental_uris":{"android":"levelo://app?vid=e8f4fcac-2b6a-41d5-a6bf-1707daaf6029","ios":"levelo://app?vid=e8f4fcac-2b6a-41d5-a6bf-1707daaf6029"},"vehicle_type_id":"4","last_reported":1748732967,"current_range_meters":4000,"station_id":"ce4bh192rcd13ifvqdb0","pricing_plan_id":"cebpf4jnsgd1na2vs0mg"},{"bike_id":"cd3e4917-06a7-458b-8cbe-279ef741a3a8","system_id":"levelo_inurba_marseille","lat":43.23192,"lon":5.43656,"is_reserved":false,"is_disabled":false,"rental_uris":{"android":"levelo://app?vid=cd3e4917-06a7-458b-8cbe-279ef741a3a8","ios":"levelo://app?vid=cd3e4917-06a7-458b-8cbe-279ef741a3a8"},"vehicle_type_id":"4","last_reported":1748732967,"current_range_meters":4400,"station_id":"ce4bhmp2rcd13ifvqgog","pricing_plan_id":"cebpf4jnsgd1na2vs0mg"},{"bike_id":"165a59df-bd4e-4a6b-ae2a-a9e7f2ea8ce2","system_id":"levelo_inurba_marseille","lat":43.29488,"lon":5.38612,"is_reserved":false,"is_disabled":false,"rental_uris":{"android":"levelo://app?vid=165a59df-bd4e-4a6b-ae2a-a9e7f2ea8ce2","ios":"levelo://app?vid=165a59df-bd4e-4a6b-ae2a-a9e7f2ea8ce2"},"vehicle_type_id":"4","last_reported":1748732967,"current_range_meters":4400,"station_id":"","pricing_plan_id":"cebpf4jnsgd1na2vs0mg"},{"bike_id":"e5a4ecf9-d733-43e6-a42d-1220535b7bf2","system_id":"levelo_inurba_marseille","lat":43.29956,"lon":5.41318,"is_reserved":false,"is_disabled":false,"rental_uris":{"android":"levelo://app?vid=e5a4ecf9-d733-43e6-a42d-1220535b7bf2","ios":"levelo://app?vid=e5a4ecf9-d733-43e6-a42d-1220535b7bf2"},"vehicle_type_id":"4","last_reported":1748732967,"current_range_meters":4400,"station_id":"ce4bhp12rcd13ifvqh9g","pricing_plan_id":"cebpf4jnsgd1na2vs0mg"},{"bike_id":"33fe8c32-4b15-472a-9bf7-124687146537","system_id":"levelo_inurba_marseille","lat":43.32846,"lon":5.40571,"is_reserved":false,"is_disabled":false,"rental_uris":{"android":"levelo://app?vid=33fe8c32-4b15-472a-9bf7-124687146537","ios":"levelo://app?vid=33fe8c32-4b15-472a-9bf7-124687146537"},"vehicle_type_id":"4","last_reported":1748732967,"current_range_meters":4800,"station_id":"","pricing_plan_id":"cebpf4jnsgd1na2vs0mg"},{"bike_id":"e08641d7-f032-4280-be4e-a580e06d508e","system_id":"levelo_inurba_marseille","lat":43.259397,"lon":5.409027,"is_reserved":false,"is_disabled":false,"rental_uris":{"android":"levelo://app?vid=e08641d7-f032-4280-be4e-a580e06d508e","ios":"levelo://app?vid=e08641d7-f032-4280-be4e-a580e06d508e"},"vehicle_type_id":"4","last_reported":1748732967,"current_range_meters":4800,"station_id":"ce4bhm92rcd13ifvqglg","pricing_plan_id":"cebpf4jnsgd1na2vs0mg"},{"bike_id":"c285d9b4-ea52-40e4-b58c-5b14f7910b11","system_id":"levelo_inurba_marseille","lat":43.262263,"lon":5.404445,"is_reserved":false,"is_disabled":false,"rental_uris":{"android":"levelo://app?vid=c285d9b4-ea52-40e4-b58c-5b14f7910b11","ios":"levelo://app?vid=c285d9b4-ea52-40e4-b58c-5b14f7910b11"},"vehicle_type_id":"4","last_reported":1748732967,"current_range_meters":4800,"station_id":"ce4bhmh2rcd13ifvqgmg","pricing_plan_id":"cebpf4jnsgd1na2vs0mg"},{"bike_id":"3feffd94-b1f8-4904-a4cf-e5629abe4092","system_id":"levelo_inurba_marseille","lat":43.259373,"lon":5.409094,"is_reserved":false,"is_disabled":false,"rental_uris":{"android":"levelo://app?vid=3feffd94-b1f8-4904-a4cf-e5629abe4092","ios":"levelo://app?vid=3feffd94-b1f8-4904-a4cf-e5629abe4092"},"vehicle_type_id":"4","last_reported":1748732967,"current_range_meters":4800,"station_id":"ce4bhm92rcd13ifvqglg","pricing_plan_id":"cebpf4jnsgd1na2vs0mg"},{"bike_id":"c4531434-2831-4c97-85ef-68ec19799398","system_id":"levelo_inurba_marseille","lat":43.24358,"lon":5.4115,"is_reserved":false,"is_disabled":false,"rental_uris":{"android":"levelo://app?vid=c4531434-2831-4c97-85ef-68ec19799398","ios":"levelo://app?vid=c4531434-2831-4c97-85ef-68ec19799398"},"vehicle_type_id":"4","last_reported":1748732967,"current_range_meters":4800,"station_id":"","pricing_plan_id":"cebpf4jnsgd1na2vs0mg"},{"bike_id":"a92e05e1-4b38-44a3-b6b4-eb562920f482","system_id":"levelo_inurba_marseille","lat":43.21487,"lon":5.34807,"is_reserved":false,"is_disabled":false,"rental_uris":{"android":"levelo://app?vid=a92e05e1-4b38-44a3-b6b4-eb562920f482","ios":"levelo://app?vid=a92e05e1-4b38-44a3-b6b4-eb562920f482"},"vehicle_type_id":"4","last_reported":1748732967,"current_range_meters":5600,"station_id":"","pricing_plan_id":"cebpf4jnsgd1na2vs0mg"},{"bike_id":"b4be45f2-70e1-4c2f-8e74-8053f006238b","system_id":"levelo_inurba_marseille","lat":43.30949,"lon":5.3904,"is_reserved":false,"is_disabled":false,"rental_uris":{"android":"levelo://app?vid=b4be45f2-70e1-4c2f-8e74-8053f006238b","ios":"levelo://app?vid=b4be45f2-70e1-4c2f-8e74-8053f006238b"},"vehicle_type_id":"4","last_reported":1748732967,"current_range_meters":5600,"station_id":"ce4bgup2rcd13ifvqco0","pricing_plan_id":"cebpf4jnsgd1na2vs0mg"},{"bike_id":"83cb5e0e-fdfd-4eb9-8708-46adb1b009e5","system_id":"levelo_inurba_marseille","lat":43.30096,"lon":5.39084,"is_reserved":false,"is_disabled":false,"rental_uris":{"android":"levelo://app?vid=83cb5e0e-fdfd-4eb9-8708-46adb1b009e5","ios":"levelo://app?vid=83cb5e0e-fdfd-4eb9-8708-46adb1b009e5"},"vehicle_type_id":"4","last_reported":1748732967,"current_range_meters":6000,"station_id":"ce4bh192rcd13ifvqdb0","pricing_plan_id":"cebpf4jnsgd1na2vs0mg"},{"bike_id":"d1509d66-7858-4385-919b-60b0cb7c31e8","system_id":"levelo_inurba_marseille","lat":43.29096,"lon":5.38131,"is_reserved":false,"is_disabled":false,"rental_uris":{"android":"levelo://app?vid=d1509d66-7858-4385-919b-60b0cb7c31e8","ios":"levelo://app?vid=d1509d66-7858-4385-919b-60b0cb7c31e8"},"vehicle_type_id":"4","last_reported":1748732967,"current_range_meters":6000,"station_id":"ce4bh512rcd13ifvqe2g","pricing_plan_id":"cebpf4jnsgd1na2vs0mg"},{"bike_id":"9dc8d1ec-ee17-47b8-a122-f89f52dc9920","system_id":"levelo_inurba_marseille","lat":43.31686,"lon":5.37763,"is_reserved":false,"is_disabled":false,"rental_uris":{"android":"levelo://app?vid=9dc8d1ec-ee17-47b8-a122-f89f52dc9920","ios":"levelo://app?vid=9dc8d1ec-ee17-47b8-a122-f89f52dc9920"},"vehicle_type_id":"4","last_reported":1748732967,"current_range_meters":6400,"station_id":"ce4bgth2rcd13ifvqch0","pricing_plan_id":"cebpf4jnsgd1na2vs0mg"},{"bike_id":"923dce60-a81c-4b69-9b1a-4194654f3360","system_id":"levelo_inurba_marseille","lat":43.291962,"lon":5.393306,"is_reserved":false,"is_disabled":false,"rental_uris":{"android":"levelo://app?vid=923dce60-a81c-4b69-9b1a-4194654f3360","ios":"levelo://app?vid=923dce60-a81c-4b69-9b1a-4194654f3360"},"vehicle_type_id":"4","last_reported":1748732967,"current_range_meters":6400,"station_id":"ce4bh192rcd13ifvqdd0","pricing_plan_id":"cebpf4jnsgd1na2vs0mg"},{"bike_id":"1794fd79-fa9b-4f8e-8e1c-c5c1b94d43dc","system_id":"levelo_inurba_marseille","lat":43.2803,"lon":5.38255,"is_reserved":false,"is_disabled":false,"rental_uris":{"android":"levelo://app?vid=1794fd79-fa9b-4f8e-8e1c-c5c1b94d43dc","ios":"levelo://app?vid=1794fd79-fa9b-4f8e-8e1c-c5c1b94d43dc"},"vehicle_type_id":"4","last_reported":1748732967,"current_range_meters":6400,"station_id":"","pricing_plan_id":"cebpf4jnsgd1na2vs0mg"},{"bike_id":"7744b0bc-9255-402e-8dd0-6b3090927fb9","system_id":"levelo_inurba_marseille","lat":43.26948,"lon":5.40285,"is_reserved":false,"is_disabled":true,"rental_uris":{"android":"levelo://app?vid=7744b0bc-9255-402e-8dd0-6b3090927fb9","ios":"levelo://app?vid=7744b0bc-9255-402e-8dd0-6b3090927fb9"},"vehicle_type_id":"4","last_reported":1748732967,"current_range_meters":6800,"station_id":"cjm6bp8fraef2m0cb0m0","pricing_plan_id":"cebpf4jnsgd1na2vs0mg"},{"bike_id":"75d47eb6-9007-4ed7-9d78-2e417c1a5aa8","system_id":"levelo_inurba_marseille","lat":43.323659,"lon":5.388844,"is_reserved":false,"is_disabled":false,"rental_uris":{"android":"levelo://app?vid=75d47eb6-9007-4ed7-9d78-2e417c1a5aa8","ios":"levelo://app?vid=75d47eb6-9007-4ed7-9d78-2e417c1a5aa8"},"vehicle_type_id":"4","last_reported":1748732967,"current_range_meters":6800,"station_id":"ce4bhqp2rcd13ifvqhog","pricing_plan_id":"cebpf4jnsgd1na2vs0mg"},{"bike_id":"414f50f9-4176-475f-adf2-0466f70c8059","system_id":"levelo_inurba_marseille","lat":43.25922,"lon":5.40907,"is_reserved":false,"is_disabled":false,"rental_uris":{"android":"levelo://app?vid=414f50f9-4176-475f-adf2-0466f70c8059","ios":"levelo://app?vid=414f50f9-4176-475f-adf2-0466f70c8059"},"vehicle_type_id":"4","last_reported":1748732967,"current_range_meters":6800,"station_id":"ce4bhm92rcd13ifvqglg","pricing_plan_id":"cebpf4jnsgd1na2vs0mg"},{"bike_id":"3f7e2c8c-4046-42da-9470-1c720872b0e1","system_id":"levelo_inurba_marseille","lat":43.26201,"lon":5.40478,"is_reserved":false,"is_disabled":false,"rental_uris":{"android":"levelo://app?vid=3f7e2c8c-4046-42da-9470-1c720872b0e1","ios":"levelo://app?vid=3f7e2c8c-4046-42da-9470-1c720872b0e1"},"vehicle_type_id":"4","last_reported":1748732967,"current_range_meters":6800,"station_id":"ce4bhmh2rcd13ifvqgmg","pricing_plan_id":"cebpf4jnsgd1na2vs0mg"},{"bike_id":"8159ea0f-20d8-4658-a5f5-ec8fd303169b","system_id":"levelo_inurba_marseille","lat":43.25112,"lon":5.40329,"is_reserved":false,"is_disabled":false,"rental_uris":{"android":"levelo://app?vid=8159ea0f-20d8-4658-a5f5-ec8fd303169b","ios":"levelo://app?vid=8159ea0f-20d8-4658-a5f5-ec8fd303169b"},"vehicle_type_id":"4","last_reported":1748732967,"current_range_meters":6800,"station_id":"ce4bhlh2rcd13ifvqgig","pricing_plan_id":"cebpf4jnsgd1na2vs0mg"},{"bike_id":"e372cd62-3f54-4399-8b54-ee30195f8351","system_id":"levelo_inurba_marseille","lat":43.26218,"lon":5.40474,"is_reserved":false,"is_disabled":false,"rental_uris":{"android":"levelo://app?vid=e372cd62-3f54-4399-8b54-ee30195f8351","ios":"levelo://app?vid=e372cd62-3f54-4399-8b54-ee30195f8351"},"vehicle_type_id":"4","last_reported":1748732967,"current_range_meters":6800,"station_id":"ce4bhmh2rcd13ifvqgmg","pricing_plan_id":"cebpf4jnsgd1na2vs0mg"},{"bike_id":"2e5d65dc-7b75-4e49-9e17-db185fe11321","system_id":"levelo_inurba_marseille","lat":43.31254,"lon":5.36832,"is_reserved":false,"is_disabled":true,"rental_uris":{"android":"levelo://app?vid=2e5d65dc-7b75-4e49-9e17-db185fe11321","ios":"levelo://app?vid=2e5d65dc-7b75-4e49-9e17-db185fe11321"},"vehicle_type_id":"4","last_reported":1748732967,"current_range_meters":6800,"station_id":"ce4bgl92rcd13ifvqbq0","pricing_plan_id":"cebpf4jnsgd1na2vs0mg"},{"bike_id":"09108291-f746-43a0-9cbc-59f042c58243","system_id":"levelo_inurba_marseille","lat":43.29827,"lon":5.377787,"is_reserved":false,"is_disabled":false,"rental_uris":{"android":"levelo://app?vid=09108291-f746-43a0-9cbc-59f042c58243","ios":"levelo://app?vid=09108291-f746-43a0-9cbc-59f042c58243"},"vehicle_type_id":"4","last_reported":1748732967,"current_range_meters":6800,"station_id":"","pricing_plan_id":"cebpf4jnsgd1na2vs0mg"},{"bike_id":"780110d7-56b0-46f4-9c98-95dc54740b50","system_id":"levelo_inurba_marseille","lat":43.30923,"lon":5.40209,"is_reserved":false,"is_disabled":true,"rental_uris":{"android":"levelo://app?vid=780110d7-56b0-46f4-9c98-95dc54740b50","ios":"levelo://app?vid=780110d7-56b0-46f4-9c98-95dc54740b50"},"vehicle_type_id":"4","last_reported":1748732967,"current_range_meters":6800,"station_id":"","pricing_plan_id":"cebpf4jnsgd1na2vs0mg"},{"bike_id":"91c737c9-942a-40b1-8073-cc1be40e313b","system_id":"levelo_inurba_marseille","lat":43.241808,"lon":5.397285,"is_reserved":false,"is_disabled":false,"rental_uris":{"android":"levelo://app?vid=91c737c9-942a-40b1-8073-cc1be40e313b","ios":"levelo://app?vid=91c737c9-942a-40b1-8073-cc1be40e313b"},"vehicle_type_id":"4","last_reported":1748732967,"current_range_meters":6800,"station_id":"ce4bhn12rcd13ifvqgpg","pricing_plan_id":"cebpf4jnsgd1na2vs0mg"},{"bike_id":"e7734b93-af1e-4f8f-9240-788afe3133cb","system_id":"levelo_inurba_marseille","lat":43.25113,"lon":5.40317,"is_reserved":false,"is_disabled":false,"rental_uris":{"android":"levelo://app?vid=e7734b93-af1e-4f8f-9240-788afe3133cb","ios":"levelo://app?vid=e7734b93-af1e-4f8f-9240-788afe3133cb"},"vehicle_type_id":"4","last_reported":1748732967,"current_range_meters":6800,"station_id":"ce4bhlh2rcd13ifvqgig","pricing_plan_id":"cebpf4jnsgd1na2vs0mg"},{"bike_id":"ea1f019a-11dc-43d8-9095-9a5b356bf87d","system_id":"levelo_inurba_marseille","lat":43.26298,"lon":5.40427,"is_reserved":false,"is_disabled":false,"rental_uris":{"android":"levelo://app?vid=ea1f019a-11dc-43d8-9095-9a5b356bf87d","ios":"levelo://app?vid=ea1f019a-11dc-43d8-9095-9a5b356bf87d"},"vehicle_type_id":"4","last_reported":1748732967,"current_range_meters":6800,"station_id":"ce4bhmh2rcd13ifvqgmg","pricing_plan_id":"cebpf4jnsgd1na2vs0mg"},{"bike_id":"f2a9d16c-47c0-4612-8bf1-88597c5b6853","system_id":"levelo_inurba_marseille","lat":43.29877,"lon":5.37507,"is_reserved":false,"is_disabled":false,"rental_uris":{"android":"levelo://app?vid=f2a9d16c-47c0-4612-8bf1-88597c5b6853","ios":"levelo://app?vid=f2a9d16c-47c0-4612-8bf1-88597c5b6853"},"vehicle_type_id":"4","last_reported":1748732967,"current_range_meters":6800,"station_id":"","pricing_plan_id":"cebpf4jnsgd1na2vs0mg"},{"bike_id":"391f01da-bda5-42cb-847e-5bd541a160b5","system_id":"levelo_inurba_marseille","lat":43.27379,"lon":5.36257,"is_reserved":false,"is_disabled":true,"rental_uris":{"android":"levelo://app?vid=391f01da-bda5-42cb-847e-5bd541a160b5","ios":"levelo://app?vid=391f01da-bda5-42cb-847e-5bd541a160b5"},"vehicle_type_id":"4","last_reported":1748732967,"current_range_meters":7200,"station_id":"ce4bhbh2rcd13ifvqeo0","pricing_plan_id":"cebpf4jnsgd1na2vs0mg"},{"bike_id":"f6c18757-42cd-40e6-82c2-99bf51f27297","system_id":"levelo_inurba_marseille","lat":43.217622,"lon":5.345813,"is_reserved":false,"is_disabled":true,"rental_uris":{"android":"levelo://app?vid=f6c18757-42cd-40e6-82c2-99bf51f27297","ios":"levelo://app?vid=f6c18757-42cd-40e6-82c2-99bf51f27297"},"vehicle_type_id":"4","last_reported":1748732967,"current_range_meters":7200,"station_id":"st_cvj6r9ubvosntc0bgbag","pricing_plan_id":"cebpf4jnsgd1na2vs0mg"},{"bike_id":"fa9acd6d-2127-4e18-93e3-1917fe413853","system_id":"levelo_inurba_marseille","lat":43.335943,"lon":5.410157,"is_reserved":false,"is_disabled":false,"rental_uris":{"android":"levelo://app?vid=fa9acd6d-2127-4e18-93e3-1917fe413853","ios":"levelo://app?vid=fa9acd6d-2127-4e18-93e3-1917fe413853"},"vehicle_type_id":"4","last_reported":1748732967,"current_range_meters":7200,"station_id":"ce4bhqh2rcd13ifvqhmg","pricing_plan_id":"cebpf4jnsgd1na2vs0mg"},{"bike_id":"4587c898-1014-4728-ba58-926f5211c4f4","system_id":"levelo_inurba_marseille","lat":43.27939,"lon":5.41036,"is_reserved":false,"is_disabled":false,"rental_uris":{"android":"levelo://app?vid=4587c898-1014-4728-ba58-926f5211c4f4","ios":"levelo://app?vid=4587c898-1014-4728-ba58-926f5211c4f4"},"vehicle_type_id":"4","last_reported":1748732967,"current_range_meters":7200,"station_id":"ce4bhnp2rcd13ifvqh0g","pricing_plan_id":"cebpf4jnsgd1na2vs0mg"},{"bike_id":"373fc72b-6ab6-4cbe-8ba6-65afbe14f6b7","system_id":"levelo_inurba_marseille","lat":43.262223,"lon":5.404413,"is_reserved":false,"is_disabled":false,"rental_uris":{"android":"levelo://app?vid=373fc72b-6ab6-4cbe-8ba6-65afbe14f6b7","ios":"levelo://app?vid=373fc72b-6ab6-4cbe-8ba6-65afbe14f6b7"},"vehicle_type_id":"4","last_reported":1748732967,"current_range_meters":7200,"station_id":"ce4bhmh2rcd13ifvqgmg","pricing_plan_id":"cebpf4jnsgd1na2vs0mg"},{"bike_id":"243f33f7-d4f2-40c2-8256-b8083e3c6f1c","system_id":"levelo_inurba_marseille","lat":43.29201,"lon":5.39319,"is_reserved":false,"is_disabled":false,"rental_uris":{"android":"levelo://app?vid=243f33f7-d4f2-40c2-8256-b8083e3c6f1c","ios":"levelo://app?vid=243f33f7-d4f2-40c2-8256-b8083e3c6f1c"},"vehicle_type_id":"4","last_reported":1748732967,"current_range_meters":7200,"station_id":"ce4bh192rcd13ifvqdd0","pricing_plan_id":"cebpf4jnsgd1na2vs0mg"},{"bike_id":"0a1fde1f-17e7-4d4c-a357-fb0c7572573b","system_id":"levelo_inurba_marseille","lat":43.279927,"lon":5.416673,"is_reserved":false,"is_disabled":false,"rental_uris":{"android":"levelo://app?vid=0a1fde1f-17e7-4d4c-a357-fb0c7572573b","ios":"levelo://app?vid=0a1fde1f-17e7-4d4c-a357-fb0c7572573b"},"vehicle_type_id":"4","last_reported":1748732967,"current_range_meters":7200,"station_id":"ce4bho12rcd13ifvqh1g","pricing_plan_id":"cebpf4jnsgd1na2vs0mg"},{"bike_id":"12a0baac-0b13-468e-a2b2-bdc7511afcaa","system_id":"levelo_inurba_marseille","lat":43.27048,"lon":5.40265,"is_reserved":false,"is_disabled":false,"rental_uris":{"android":"levelo://app?vid=12a0baac-0b13-468e-a2b2-bdc7511afcaa","ios":"levelo://app?vid=12a0baac-0b13-468e-a2b2-bdc7511afcaa"},"vehicle_type_id":"4","last_reported":1748732967,"current_range_meters":8000,"station_id":"ce4bhk92rcd13ifvqgc0","pricing_plan_id":"cebpf4jnsgd1na2vs0mg"},{"bike_id":"af14d99b-e28f-41f0-a8a3-79036c19c61d","system_id":"levelo_inurba_marseille","lat":43.30323,"lon":5.40441,"is_reserved":false,"is_disabled":false,"rental_uris":{"android":"levelo://app?vid=af14d99b-e28f-41f0-a8a3-79036c19c61d","ios":"levelo://app?vid=af14d99b-e28f-41f0-a8a3-79036c19c61d"},"vehicle_type_id":"4","last_reported":1748732967,"current_range_meters":11200,"station_id":"ce4bh012rcd13ifvqd10","pricing_plan_id":"cebpf4jnsgd1na2vs0mg"},{"bike_id":"2b201de7-06ee-44b6-9c85-dda11376754f","system_id":"levelo_inurba_marseille","lat":43.24351,"lon":5.38014,"is_reserved":false,"is_disabled":false,"rental_uris":{"android":"levelo://app?vid=2b201de7-06ee-44b6-9c85-dda11376754f","ios":"levelo://app?vid=2b201de7-06ee-44b6-9c85-dda11376754f"},"vehicle_type_id":"4","last_reported":1748732967,"current_range_meters":8000,"station_id":"","pricing_plan_id":"cebpf4jnsgd1na2vs0mg"},{"bike_id":"c2f614f3-a1d8-4053-918c-d3522e674379","system_id":"levelo_inurba_marseille","lat":43.25013,"lon":5.40406,"is_reserved":false,"is_disabled":false,"rental_uris":{"android":"levelo://app?vid=c2f614f3-a1d8-4053-918c-d3522e674379","ios":"levelo://app?vid=c2f614f3-a1d8-4053-918c-d3522e674379"},"vehicle_type_id":"4","last_reported":1748732967,"current_range_meters":8000,"station_id":"","pricing_plan_id":"cebpf4jnsgd1na2vs0mg"},{"bike_id":"8b9b6455-f705-477c-b3bc-36b00650ea20","system_id":"levelo_inurba_marseille","lat":43.251135,"lon":5.403165,"is_reserved":false,"is_disabled":false,"rental_uris":{"android":"levelo://app?vid=8b9b6455-f705-477c-b3bc-36b00650ea20","ios":"levelo://app?vid=8b9b6455-f705-477c-b3bc-36b00650ea20"},"vehicle_type_id":"4","last_reported":1748732967,"current_range_meters":8000,"station_id":"ce4bhlh2rcd13ifvqgig","pricing_plan_id":"cebpf4jnsgd1na2vs0mg"},{"bike_id":"70f70429-b3a4-4bd4-900e-7624fcef71b2","system_id":"levelo_inurba_marseille","lat":43.314956,"lon":5.388743,"is_reserved":false,"is_disabled":false,"rental_uris":{"android":"levelo://app?vid=70f70429-b3a4-4bd4-900e-7624fcef71b2","ios":"levelo://app?vid=70f70429-b3a4-4bd4-900e-7624fcef71b2"},"vehicle_type_id":"4","last_reported":1748732967,"current_range_meters":8400,"station_id":"","pricing_plan_id":"cebpf4jnsgd1na2vs0mg"},{"bike_id":"742ea022-7ec3-403b-ab76-b027020c7592","system_id":"levelo_inurba_marseille","lat":43.32291,"lon":5.38277,"is_reserved":false,"is_disabled":false,"rental_uris":{"android":"levelo://app?vid=742ea022-7ec3-403b-ab76-b027020c7592","ios":"levelo://app?vid=742ea022-7ec3-403b-ab76-b027020c7592"},"vehicle_type_id":"4","last_reported":1748732967,"current_range_meters":8400,"station_id":"ce4bhr12rcd13ifvqhqg","pricing_plan_id":"cebpf4jnsgd1na2vs0mg"},{"bike_id":"0377cb1f-790e-4951-998a-b084a88cacb0","system_id":"levelo_inurba_marseille","lat":43.24804,"lon":5.37455,"is_reserved":false,"is_disabled":false,"rental_uris":{"android":"levelo://app?vid=0377cb1f-790e-4951-998a-b084a88cacb0","ios":"levelo://app?vid=0377cb1f-790e-4951-998a-b084a88cacb0"},"vehicle_type_id":"4","last_reported":1748732967,"current_range_meters":8400,"station_id":"ce4bhgh2rcd13ifvqfb0","pricing_plan_id":"cebpf4jnsgd1na2vs0mg"},{"bike_id":"4d03b0cc-339f-4848-b1df-32216ae8e461","system_id":"levelo_inurba_marseille","lat":43.31493,"lon":5.37267,"is_reserved":false,"is_disabled":false,"rental_uris":{"android":"levelo://app?vid=4d03b0cc-339f-4848-b1df-32216ae8e461","ios":"levelo://app?vid=4d03b0cc-339f-4848-b1df-32216ae8e461"},"vehicle_type_id":"4","last_reported":1748732967,"current_range_meters":8400,"station_id":"ce4bgt12rcd13ifvqcd0","pricing_plan_id":"cebpf4jnsgd1na2vs0mg"},{"bike_id":"e62a208c-23d3-4f22-bdab-aa660ac5353a","system_id":"levelo_inurba_marseille","lat":43.26187,"lon":5.37924,"is_reserved":false,"is_disabled":false,"rental_uris":{"android":"levelo://app?vid=e62a208c-23d3-4f22-bdab-aa660ac5353a","ios":"levelo://app?vid=e62a208c-23d3-4f22-bdab-aa660ac5353a"},"vehicle_type_id":"4","last_reported":1748732967,"current_range_meters":8400,"station_id":"ce4bhjp2rcd13ifvqg90","pricing_plan_id":"cebpf4jnsgd1na2vs0mg"},{"bike_id":"a14d8e40-c994-4f1c-b643-8a3b58a2eb79","system_id":"levelo_inurba_marseille","lat":43.292669,"lon":5.382044,"is_reserved":false,"is_disabled":false,"rental_uris":{"android":"levelo://app?vid=a14d8e40-c994-4f1c-b643-8a3b58a2eb79","ios":"levelo://app?vid=a14d8e40-c994-4f1c-b643-8a3b58a2eb79"},"vehicle_type_id":"4","last_reported":1748732967,"current_range_meters":8400,"station_id":"","pricing_plan_id":"cebpf4jnsgd1na2vs0mg"},{"bike_id":"0f3ebfb4-6606-49e7-bd4b-0063702cb698","system_id":"levelo_inurba_marseille","lat":43.29096,"lon":5.38137,"is_reserved":false,"is_disabled":false,"rental_uris":{"android":"levelo://app?vid=0f3ebfb4-6606-49e7-bd4b-0063702cb698","ios":"levelo://app?vid=0f3ebfb4-6606-49e7-bd4b-0063702cb698"},"vehicle_type_id":"4","last_reported":1748732967,"current_range_meters":8800,"station_id":"ce4bh512rcd13ifvqe2g","pricing_plan_id":"cebpf4jnsgd1na2vs0mg"},{"bike_id":"8d48119e-760e-4c00-b401-59af0a322afa","system_id":"levelo_inurba_marseille","lat":43.256604,"lon":5.4086,"is_reserved":false,"is_disabled":false,"rental_uris":{"android":"levelo://app?vid=8d48119e-760e-4c00-b401-59af0a322afa","ios":"levelo://app?vid=8d48119e-760e-4c00-b401-59af0a322afa"},"vehicle_type_id":"4","last_reported":1748732967,"current_range_meters":8800,"station_id":"","pricing_plan_id":"cebpf4jnsgd1na2vs0mg"},{"bike_id":"31a61cb8-5f25-41af-8f72-1a293c54b73e","system_id":"levelo_inurba_marseille","lat":43.31074,"lon":5.38357,"is_reserved":false,"is_disabled":false,"rental_uris":{"android":"levelo://app?vid=31a61cb8-5f25-41af-8f72-1a293c54b73e","ios":"levelo://app?vid=31a61cb8-5f25-41af-8f72-1a293c54b73e"},"vehicle_type_id":"4","last_reported":1748732967,"current_range_meters":8800,"station_id":"ce4bgv92rcd13ifvqcr0","pricing_plan_id":"cebpf4jnsgd1na2vs0mg"},{"bike_id":"2a3251b9-f92b-44cb-9281-bfa58e538996","system_id":"levelo_inurba_marseille","lat":43.314857,"lon":5.372961,"is_reserved":false,"is_disabled":false,"rental_uris":{"android":"levelo://app?vid=2a3251b9-f92b-44cb-9281-bfa58e538996","ios":"levelo://app?vid=2a3251b9-f92b-44cb-9281-bfa58e538996"},"vehicle_type_id":"4","last_reported":1748732967,"current_range_meters":8800,"station_id":"ce4bgt12rcd13ifvqcd0","pricing_plan_id":"cebpf4jnsgd1na2vs0mg"},{"bike_id":"96637527-80a9-45f5-8962-3e23c0d9971d","system_id":"levelo_inurba_marseille","lat":43.25179,"lon":5.37434,"is_reserved":false,"is_disabled":false,"rental_uris":{"android":"levelo://app?vid=96637527-80a9-45f5-8962-3e23c0d9971d","ios":"levelo://app?vid=96637527-80a9-45f5-8962-3e23c0d9971d"},"vehicle_type_id":"4","last_reported":1748732967,"current_range_meters":8800,"station_id":"","pricing_plan_id":"cebpf4jnsgd1na2vs0mg"},{"bike_id":"fda1f73c-11c4-4379-92fc-b5aa8eb99ae8","system_id":"levelo_inurba_marseille","lat":43.27432,"lon":5.39417,"is_reserved":false,"is_disabled":false,"rental_uris":{"android":"levelo://app?vid=fda1f73c-11c4-4379-92fc-b5aa8eb99ae8","ios":"levelo://app?vid=fda1f73c-11c4-4379-92fc-b5aa8eb99ae8"},"vehicle_type_id":"4","last_reported":1748732967,"current_range_meters":8800,"station_id":"ce4bhdp2rcd13ifvqf20","pricing_plan_id":"cebpf4jnsgd1na2vs0mg"},{"bike_id":"a5da72bb-2717-446c-b4e9-3447380d3c7b","system_id":"levelo_inurba_marseille","lat":43.25111,"lon":5.4032,"is_reserved":false,"is_disabled":false,"rental_uris":{"android":"levelo://app?vid=a5da72bb-2717-446c-b4e9-3447380d3c7b","ios":"levelo://app?vid=a5da72bb-2717-446c-b4e9-3447380d3c7b"},"vehicle_type_id":"4","last_reported":1748732967,"current_range_meters":8800,"station_id":"ce4bhlh2rcd13ifvqgig","pricing_plan_id":"cebpf4jnsgd1na2vs0mg"},{"bike_id":"01e4ed6b-e9a5-4944-8ecd-6edf8a5120d9","system_id":"levelo_inurba_marseille","lat":43.31056,"lon":5.38354,"is_reserved":false,"is_disabled":false,"rental_uris":{"android":"levelo://app?vid=01e4ed6b-e9a5-4944-8ecd-6edf8a5120d9","ios":"levelo://app?vid=01e4ed6b-e9a5-4944-8ecd-6edf8a5120d9"},"vehicle_type_id":"4","last_reported":1748732967,"current_range_meters":9200,"station_id":"ce4bgv92rcd13ifvqcr0","pricing_plan_id":"cebpf4jnsgd1na2vs0mg"},{"bike_id":"323f9c2d-efe6-489c-9ffb-9983af554ea0","system_id":"levelo_inurba_marseille","lat":43.300969,"lon":5.390734,"is_reserved":false,"is_disabled":false,"rental_uris":{"android":"levelo://app?vid=323f9c2d-efe6-489c-9ffb-9983af554ea0","ios":"levelo://app?vid=323f9c2d-efe6-489c-9ffb-9983af554ea0"},"vehicle_type_id":"4","last_reported":1748732967,"current_range_meters":9200,"station_id":"ce4bh192rcd13ifvqdb0","pricing_plan_id":"cebpf4jnsgd1na2vs0mg"},{"bike_id":"93889b3b-7a18-4fef-af03-e8a9ddc42cd6","system_id":"levelo_inurba_marseille","lat":43.30453,"lon":5.38881,"is_reserved":false,"is_disabled":false,"rental_uris":{"android":"levelo://app?vid=93889b3b-7a18-4fef-af03-e8a9ddc42cd6","ios":"levelo://app?vid=93889b3b-7a18-4fef-af03-e8a9ddc42cd6"},"vehicle_type_id":"4","last_reported":1748732967,"current_range_meters":9200,"station_id":"ce4bgk12rcd13ifvqbi0","pricing_plan_id":"cebpf4jnsgd1na2vs0mg"},{"bike_id":"23a8f3c4-21a6-46df-a7da-136674bed0a1","system_id":"levelo_inurba_marseille","lat":43.2782,"lon":5.40726,"is_reserved":false,"is_disabled":false,"rental_uris":{"android":"levelo://app?vid=23a8f3c4-21a6-46df-a7da-136674bed0a1","ios":"levelo://app?vid=23a8f3c4-21a6-46df-a7da-136674bed0a1"},"vehicle_type_id":"4","last_reported":1748732967,"current_range_meters":9200,"station_id":"ce4bhnh2rcd13ifvqgtg","pricing_plan_id":"cebpf4jnsgd1na2vs0mg"},{"bike_id":"e423a58b-ade6-4911-9fc9-d29abbd79f11","system_id":"levelo_inurba_marseille","lat":43.29021,"lon":5.39971,"is_reserved":false,"is_disabled":false,"rental_uris":{"android":"levelo://app?vid=e423a58b-ade6-4911-9fc9-d29abbd79f11","ios":"levelo://app?vid=e423a58b-ade6-4911-9fc9-d29abbd79f11"},"vehicle_type_id":"4","last_reported":1748732967,"current_range_meters":9200,"station_id":"ce4bh392rcd13ifvqdm0","pricing_plan_id":"cebpf4jnsgd1na2vs0mg"},{"bike_id":"0d3bab2f-26cf-41f1-82dd-bb5db963b288","system_id":"levelo_inurba_marseille","lat":43.32542,"lon":5.36483,"is_reserved":false,"is_disabled":true,"rental_uris":{"android":"levelo://app?vid=0d3bab2f-26cf-41f1-82dd-bb5db963b288","ios":"levelo://app?vid=0d3bab2f-26cf-41f1-82dd-bb5db963b288"},"vehicle_type_id":"4","last_reported":1748732967,"current_range_meters":9200,"station_id":"","pricing_plan_id":"cebpf4jnsgd1na2vs0mg"},{"bike_id":"39c30834-140a-4375-850c-22aefa03482a","system_id":"levelo_inurba_marseille","lat":43.25104,"lon":5.40328,"is_reserved":false,"is_disabled":false,"rental_uris":{"android":"levelo://app?vid=39c30834-140a-4375-850c-22aefa03482a","ios":"levelo://app?vid=39c30834-140a-4375-850c-22aefa03482a"},"vehicle_type_id":"4","last_reported":1748732967,"current_range_meters":9200,"station_id":"ce4bhlh2rcd13ifvqgig","pricing_plan_id":"cebpf4jnsgd1na2vs0mg"},{"bike_id":"79a5f6b8-3eb7-4888-b9a1-76e848c5f305","system_id":"levelo_inurba_marseille","lat":43.295261,"lon":5.393883,"is_reserved":false,"is_disabled":true,"rental_uris":{"android":"levelo://app?vid=79a5f6b8-3eb7-4888-b9a1-76e848c5f305","ios":"levelo://app?vid=79a5f6b8-3eb7-4888-b9a1-76e848c5f305"},"vehicle_type_id":"4","last_reported":1748732967,"current_range_meters":9200,"station_id":"ce4bh292rcd13ifvqdf0","pricing_plan_id":"cebpf4jnsgd1na2vs0mg"},{"bike_id":"f4e49996-ce0c-42e7-9a15-35b5f4497b3e","system_id":"levelo_inurba_marseille","lat":43.322881,"lon":5.38276,"is_reserved":false,"is_disabled":false,"rental_uris":{"android":"levelo://app?vid=f4e49996-ce0c-42e7-9a15-35b5f4497b3e","ios":"levelo://app?vid=f4e49996-ce0c-42e7-9a15-35b5f4497b3e"},"vehicle_type_id":"4","last_reported":1748732967,"current_range_meters":9600,"station_id":"ce4bhr12rcd13ifvqhqg","pricing_plan_id":"cebpf4jnsgd1na2vs0mg"},{"bike_id":"6dbec55b-fee0-4a3a-9ed2-723f9ae1c783","system_id":"levelo_inurba_marseille","lat":43.299136,"lon":5.436495,"is_reserved":false,"is_disabled":true,"rental_uris":{"android":"levelo://app?vid=6dbec55b-fee0-4a3a-9ed2-723f9ae1c783","ios":"levelo://app?vid=6dbec55b-fee0-4a3a-9ed2-723f9ae1c783"},"vehicle_type_id":"4","last_reported":1748732967,"current_range_meters":9600,"station_id":"ce4bhpp2rcd13ifvqhfg","pricing_plan_id":"cebpf4jnsgd1na2vs0mg"},{"bike_id":"41dc7ecb-5011-4c9b-af30-c5f31891db53","system_id":"levelo_inurba_marseille","lat":43.24179,"lon":5.39729,"is_reserved":false,"is_disabled":false,"rental_uris":{"android":"levelo://app?vid=41dc7ecb-5011-4c9b-af30-c5f31891db53","ios":"levelo://app?vid=41dc7ecb-5011-4c9b-af30-c5f31891db53"},"vehicle_type_id":"4","last_reported":1748732967,"current_range_meters":9600,"station_id":"ce4bhn12rcd13ifvqgpg","pricing_plan_id":"cebpf4jnsgd1na2vs0mg"},{"bike_id":"b49977ca-5b46-494c-8b60-6b595ecff626","system_id":"levelo_inurba_marseille","lat":43.32045,"lon":5.41532,"is_reserved":false,"is_disabled":false,"rental_uris":{"android":"levelo://app?vid=b49977ca-5b46-494c-8b60-6b595ecff626","ios":"levelo://app?vid=b49977ca-5b46-494c-8b60-6b595ecff626"},"vehicle_type_id":"4","last_reported":1748732967,"current_range_meters":9600,"station_id":"ce4bhq92rcd13ifvqhkg","pricing_plan_id":"cebpf4jnsgd1na2vs0mg"},{"bike_id":"9854e2a4-f9c6-4c61-9386-aa9bad1e97ae","system_id":"levelo_inurba_marseille","lat":43.24629,"lon":5.38912,"is_reserved":false,"is_disabled":false,"rental_uris":{"android":"levelo://app?vid=9854e2a4-f9c6-4c61-9386-aa9bad1e97ae","ios":"levelo://app?vid=9854e2a4-f9c6-4c61-9386-aa9bad1e97ae"},"vehicle_type_id":"4","last_reported":1748732967,"current_range_meters":9600,"station_id":"ce4bhg12rcd13ifvqf60","pricing_plan_id":"cebpf4jnsgd1na2vs0mg"},{"bike_id":"d042911a-a1ca-4ada-b79c-771a78ad0289","system_id":"levelo_inurba_marseille","lat":43.3248,"lon":5.36557,"is_reserved":false,"is_disabled":false,"rental_uris":{"android":"levelo://app?vid=d042911a-a1ca-4ada-b79c-771a78ad0289","ios":"levelo://app?vid=d042911a-a1ca-4ada-b79c-771a78ad0289"},"vehicle_type_id":"4","last_reported":1748732967,"current_range_meters":9600,"station_id":"ce4bhs12rcd13ifvqhvg","pricing_plan_id":"cebpf4jnsgd1na2vs0mg"},{"bike_id":"cd9b5d56-bc14-4ba3-9e90-e341071460df","system_id":"levelo_inurba_marseille","lat":43.23186,"lon":5.35556,"is_reserved":false,"is_disabled":false,"rental_uris":{"android":"levelo://app?vid=cd9b5d56-bc14-4ba3-9e90-e341071460df","ios":"levelo://app?vid=cd9b5d56-bc14-4ba3-9e90-e341071460df"},"vehicle_type_id":"4","last_reported":1748732967,"current_range_meters":9600,"station_id":"ce4bhu92rcd13ifvqi70","pricing_plan_id":"cebpf4jnsgd1na2vs0mg"},{"bike_id":"b9dbee2c-5ddf-4684-981c-617fd4b5d81b","system_id":"levelo_inurba_marseille","lat":43.31306,"lon":5.38473,"is_reserved":false,"is_disabled":false,"rental_uris":{"android":"levelo://app?vid=b9dbee2c-5ddf-4684-981c-617fd4b5d81b","ios":"levelo://app?vid=b9dbee2c-5ddf-4684-981c-617fd4b5d81b"},"vehicle_type_id":"4","last_reported":1748732967,"current_range_meters":9600,"station_id":"","pricing_plan_id":"cebpf4jnsgd1na2vs0mg"},{"bike_id":"fd46a80b-8b93-49cf-a34b-8cffcb0fc192","system_id":"levelo_inurba_marseille","lat":43.26228,"lon":5.40452,"is_reserved":false,"is_disabled":false,"rental_uris":{"android":"levelo://app?vid=fd46a80b-8b93-49cf-a34b-8cffcb0fc192","ios":"levelo://app?vid=fd46a80b-8b93-49cf-a34b-8cffcb0fc192"},"vehicle_type_id":"4","last_reported":1748732967,"current_range_meters":9600,"station_id":"ce4bhmh2rcd13ifvqgmg","pricing_plan_id":"cebpf4jnsgd1na2vs0mg"},{"bike_id":"16956ecc-ed47-44a5-bf64-7ac7c0de85fa","system_id":"levelo_inurba_marseille","lat":43.31566,"lon":5.369003,"is_reserved":false,"is_disabled":false,"rental_uris":{"android":"levelo://app?vid=16956ecc-ed47-44a5-bf64-7ac7c0de85fa","ios":"levelo://app?vid=16956ecc-ed47-44a5-bf64-7ac7c0de85fa"},"vehicle_type_id":"4","last_reported":1748732967,"current_range_meters":9600,"station_id":"","pricing_plan_id":"cebpf4jnsgd1na2vs0mg"},{"bike_id":"22949bde-52c0-42f8-aed6-0536d4296339","system_id":"levelo_inurba_marseille","lat":43.295687,"lon":5.37511,"is_reserved":false,"is_disabled":true,"rental_uris":{"android":"levelo://app?vid=22949bde-52c0-42f8-aed6-0536d4296339","ios":"levelo://app?vid=22949bde-52c0-42f8-aed6-0536d4296339"},"vehicle_type_id":"4","last_reported":1748732967,"current_range_meters":9600,"station_id":"ce4bgh92rcd13ifvqb50","pricing_plan_id":"cebpf4jnsgd1na2vs0mg"},{"bike_id":"1032a340-ab81-46fc-9f32-b3513c52806b","system_id":"levelo_inurba_marseille","lat":43.3089,"lon":5.39649,"is_reserved":false,"is_disabled":false,"rental_uris":{"android":"levelo://app?vid=1032a340-ab81-46fc-9f32-b3513c52806b","ios":"levelo://app?vid=1032a340-ab81-46fc-9f32-b3513c52806b"},"vehicle_type_id":"4","last_reported":1748732967,"current_range_meters":10000,"station_id":"ce4bh012rcd13ifvqcv0","pricing_plan_id":"cebpf4jnsgd1na2vs0mg"},{"bike_id":"c06b0b1a-e98c-4ac1-88ea-e4e39e6f9178","system_id":"levelo_inurba_marseille","lat":43.31366,"lon":5.38486,"is_reserved":false,"is_disabled":false,"rental_uris":{"android":"levelo://app?vid=c06b0b1a-e98c-4ac1-88ea-e4e39e6f9178","ios":"levelo://app?vid=c06b0b1a-e98c-4ac1-88ea-e4e39e6f9178"},"vehicle_type_id":"4","last_reported":1748732967,"current_range_meters":10000,"station_id":"ce4bgt92rcd13ifvqcf0","pricing_plan_id":"cebpf4jnsgd1na2vs0mg"},{"bike_id":"16b3dcc3-57df-423a-8e43-5fbee1e0c531","system_id":"levelo_inurba_marseille","lat":43.27168,"lon":5.40992,"is_reserved":false,"is_disabled":false,"rental_uris":{"android":"levelo://app?vid=16b3dcc3-57df-423a-8e43-5fbee1e0c531","ios":"levelo://app?vid=16b3dcc3-57df-423a-8e43-5fbee1e0c531"},"vehicle_type_id":"4","last_reported":1748732967,"current_range_meters":10000,"station_id":"ce4bhl12rcd13ifvqgf0","pricing_plan_id":"cebpf4jnsgd1na2vs0mg"},{"bike_id":"2535efab-6a29-436e-bfc9-17963e2cb58d","system_id":"levelo_inurba_marseille","lat":43.250859,"lon":5.395236,"is_reserved":false,"is_disabled":false,"rental_uris":{"android":"levelo://app?vid=2535efab-6a29-436e-bfc9-17963e2cb58d","ios":"levelo://app?vid=2535efab-6a29-436e-bfc9-17963e2cb58d"},"vehicle_type_id":"4","last_reported":1748732967,"current_range_meters":10000,"station_id":"ce4bhm12rcd13ifvqgkg","pricing_plan_id":"cebpf4jnsgd1na2vs0mg"},{"bike_id":"ec864dde-b65e-4158-bd35-75127cf90271","system_id":"levelo_inurba_marseille","lat":43.217488,"lon":5.345947,"is_reserved":false,"is_disabled":true,"rental_uris":{"android":"levelo://app?vid=ec864dde-b65e-4158-bd35-75127cf90271","ios":"levelo://app?vid=ec864dde-b65e-4158-bd35-75127cf90271"},"vehicle_type_id":"4","last_reported":1748732967,"current_range_meters":10000,"station_id":"st_cvj6r9ubvosntc0bgbag","pricing_plan_id":"cebpf4jnsgd1na2vs0mg"},{"bike_id":"76a945ba-9ba8-414f-963a-73e1a106e0fc","system_id":"levelo_inurba_marseille","lat":43.26207,"lon":5.40457,"is_reserved":false,"is_disabled":false,"rental_uris":{"android":"levelo://app?vid=76a945ba-9ba8-414f-963a-73e1a106e0fc","ios":"levelo://app?vid=76a945ba-9ba8-414f-963a-73e1a106e0fc"},"vehicle_type_id":"4","last_reported":1748732967,"current_range_meters":10000,"station_id":"ce4bhmh2rcd13ifvqgmg","pricing_plan_id":"cebpf4jnsgd1na2vs0mg"},{"bike_id":"7759b279-6f24-4f94-9f74-f46edadbff16","system_id":"levelo_inurba_marseille","lat":43.31335,"lon":5.39679,"is_reserved":false,"is_disabled":false,"rental_uris":{"android":"levelo://app?vid=7759b279-6f24-4f94-9f74-f46edadbff16","ios":"levelo://app?vid=7759b279-6f24-4f94-9f74-f46edadbff16"},"vehicle_type_id":"4","last_reported":1748732967,"current_range_meters":10000,"station_id":"ce4bgvp2rcd13ifvqcu0","pricing_plan_id":"cebpf4jnsgd1na2vs0mg"},{"bike_id":"424abc49-7098-476e-9563-b7acdbab96ad","system_id":"levelo_inurba_marseille","lat":43.25085,"lon":5.40321,"is_reserved":false,"is_disabled":false,"rental_uris":{"android":"levelo://app?vid=424abc49-7098-476e-9563-b7acdbab96ad","ios":"levelo://app?vid=424abc49-7098-476e-9563-b7acdbab96ad"},"vehicle_type_id":"4","last_reported":1748732967,"current_range_meters":10800,"station_id":"ce4bhlh2rcd13ifvqgig","pricing_plan_id":"cebpf4jnsgd1na2vs0mg"},{"bike_id":"46950156-2911-4ef2-8225-00a2c367410a","system_id":"levelo_inurba_marseille","lat":43.2993,"lon":5.37471,"is_reserved":false,"is_disabled":false,"rental_uris":{"android":"levelo://app?vid=46950156-2911-4ef2-8225-00a2c367410a","ios":"levelo://app?vid=46950156-2911-4ef2-8225-00a2c367410a"},"vehicle_type_id":"4","last_reported":1748732967,"current_range_meters":10800,"station_id":"ce4bgjh2rcd13ifvqbg0","pricing_plan_id":"cebpf4jnsgd1na2vs0mg"},{"bike_id":"7f08a69a-2d5b-48e6-8e97-32333e7c1f12","system_id":"levelo_inurba_marseille","lat":43.25451,"lon":5.37557,"is_reserved":false,"is_disabled":false,"rental_uris":{"android":"levelo://app?vid=7f08a69a-2d5b-48e6-8e97-32333e7c1f12","ios":"levelo://app?vid=7f08a69a-2d5b-48e6-8e97-32333e7c1f12"},"vehicle_type_id":"4","last_reported":1748732967,"current_range_meters":10800,"station_id":"","pricing_plan_id":"cebpf4jnsgd1na2vs0mg"},{"bike_id":"ad6f47cd-8c88-4407-9927-40e17b78d68e","system_id":"levelo_inurba_marseille","lat":43.25096,"lon":5.40302,"is_reserved":false,"is_disabled":false,"rental_uris":{"android":"levelo://app?vid=ad6f47cd-8c88-4407-9927-40e17b78d68e","ios":"levelo://app?vid=ad6f47cd-8c88-4407-9927-40e17b78d68e"},"vehicle_type_id":"4","last_reported":1748732967,"current_range_meters":10800,"station_id":"ce4bhlh2rcd13ifvqgig","pricing_plan_id":"cebpf4jnsgd1na2vs0mg"},{"bike_id":"9105dc82-8de0-4a41-9db1-484741c95b68","system_id":"levelo_inurba_marseille","lat":43.23189,"lon":5.40009,"is_reserved":false,"is_disabled":false,"rental_uris":{"android":"levelo://app?vid=9105dc82-8de0-4a41-9db1-484741c95b68","ios":"levelo://app?vid=9105dc82-8de0-4a41-9db1-484741c95b68"},"vehicle_type_id":"4","last_reported":1748732967,"current_range_meters":10800,"station_id":"ce4bhn12rcd13ifvqgqg","pricing_plan_id":"cebpf4jnsgd1na2vs0mg"},{"bike_id":"acfbab2f-8c03-44c7-8a2f-cb74efcc20a6","system_id":"levelo_inurba_marseille","lat":43.30287,"lon":5.37293,"is_reserved":false,"is_disabled":false,"rental_uris":{"android":"levelo://app?vid=acfbab2f-8c03-44c7-8a2f-cb74efcc20a6","ios":"levelo://app?vid=acfbab2f-8c03-44c7-8a2f-cb74efcc20a6"},"vehicle_type_id":"4","last_reported":1748732967,"current_range_meters":10800,"station_id":"","pricing_plan_id":"cebpf4jnsgd1na2vs0mg"},{"bike_id":"de9ef9f7-970f-4522-bbf1-82e38daacf67","system_id":"levelo_inurba_marseille","lat":43.29531,"lon":5.38551,"is_reserved":false,"is_disabled":false,"rental_uris":{"android":"levelo://app?vid=de9ef9f7-970f-4522-bbf1-82e38daacf67","ios":"levelo://app?vid=de9ef9f7-970f-4522-bbf1-82e38daacf67"},"vehicle_type_id":"4","last_reported":1748732967,"current_range_meters":10800,"station_id":"ce4bgih2rcd13ifvqba0","pricing_plan_id":"cebpf4jnsgd1na2vs0mg"},{"bike_id":"cce27b92-c20a-4e60-a6e4-cfbd05f67a82","system_id":"levelo_inurba_marseille","lat":43.29876,"lon":5.39728,"is_reserved":false,"is_disabled":false,"rental_uris":{"android":"levelo://app?vid=cce27b92-c20a-4e60-a6e4-cfbd05f67a82","ios":"levelo://app?vid=cce27b92-c20a-4e60-a6e4-cfbd05f67a82"},"vehicle_type_id":"4","last_reported":1748732967,"current_range_meters":10800,"station_id":"ce4bh0h2rcd13ifvqd50","pricing_plan_id":"cebpf4jnsgd1na2vs0mg"},{"bike_id":"2aa8f02a-c154-4a73-8932-2f60f9418a3c","system_id":"levelo_inurba_marseille","lat":43.29434,"lon":5.3862,"is_reserved":false,"is_disabled":false,"rental_uris":{"android":"levelo://app?vid=2aa8f02a-c154-4a73-8932-2f60f9418a3c","ios":"levelo://app?vid=2aa8f02a-c154-4a73-8932-2f60f9418a3c"},"vehicle_type_id":"4","last_reported":1748732967,"current_range_meters":10800,"station_id":"ce4bh2h2rcd13ifvqdh0","pricing_plan_id":"cebpf4jnsgd1na2vs0mg"},{"bike_id":"6de9fa7f-0f7c-4ede-a122-bcd1266ddc4f","system_id":"levelo_inurba_marseille","lat":43.27486,"lon":5.42454,"is_reserved":false,"is_disabled":false,"rental_uris":{"android":"levelo://app?vid=6de9fa7f-0f7c-4ede-a122-bcd1266ddc4f","ios":"levelo://app?vid=6de9fa7f-0f7c-4ede-a122-bcd1266ddc4f"},"vehicle_type_id":"4","last_reported":1748732967,"current_range_meters":10800,"station_id":"ce4bhn92rcd13ifvqgrg","pricing_plan_id":"cebpf4jnsgd1na2vs0mg"},{"bike_id":"ecc98c11-5a9a-43d7-bcf0-82f440e42f35","system_id":"levelo_inurba_marseille","lat":43.31163,"lon":5.3872,"is_reserved":false,"is_disabled":false,"rental_uris":{"android":"levelo://app?vid=ecc98c11-5a9a-43d7-bcf0-82f440e42f35","ios":"levelo://app?vid=ecc98c11-5a9a-43d7-bcf0-82f440e42f35"},"vehicle_type_id":"4","last_reported":1748732967,"current_range_meters":10800,"station_id":"ce4bgv12rcd13ifvqcp0","pricing_plan_id":"cebpf4jnsgd1na2vs0mg"},{"bike_id":"a6b0068b-bad2-48db-af95-317e5863314d","system_id":"levelo_inurba_marseille","lat":43.30887,"lon":5.3964,"is_reserved":false,"is_disabled":false,"rental_uris":{"android":"levelo://app?vid=a6b0068b-bad2-48db-af95-317e5863314d","ios":"levelo://app?vid=a6b0068b-bad2-48db-af95-317e5863314d"},"vehicle_type_id":"4","last_reported":1748732967,"current_range_meters":10800,"station_id":"ce4bh012rcd13ifvqcv0","pricing_plan_id":"cebpf4jnsgd1na2vs0mg"},{"bike_id":"f03dec87-0196-4524-8414-0c5327f13928","system_id":"levelo_inurba_marseille","lat":43.23179,"lon":5.39987,"is_reserved":false,"is_disabled":false,"rental_uris":{"android":"levelo://app?vid=f03dec87-0196-4524-8414-0c5327f13928","ios":"levelo://app?vid=f03dec87-0196-4524-8414-0c5327f13928"},"vehicle_type_id":"4","last_reported":1748732967,"current_range_meters":10800,"station_id":"ce4bhn12rcd13ifvqgqg","pricing_plan_id":"cebpf4jnsgd1na2vs0mg"},{"bike_id":"b4a389d7-474d-4a9d-8dec-223a88612b5c","system_id":"levelo_inurba_marseille","lat":43.249909,"lon":5.37949,"is_reserved":false,"is_disabled":false,"rental_uris":{"android":"levelo://app?vid=b4a389d7-474d-4a9d-8dec-223a88612b5c","ios":"levelo://app?vid=b4a389d7-474d-4a9d-8dec-223a88612b5c"},"vehicle_type_id":"4","last_reported":1748732967,"current_range_meters":11200,"station_id":"","pricing_plan_id":"cebpf4jnsgd1na2vs0mg"},{"bike_id":"e6bf0c37-d2a0-4cf7-bda5-bdec7e2a1f23","system_id":"levelo_inurba_marseille","lat":43.32287,"lon":5.38277,"is_reserved":false,"is_disabled":false,"rental_uris":{"android":"levelo://app?vid=e6bf0c37-d2a0-4cf7-bda5-bdec7e2a1f23","ios":"levelo://app?vid=e6bf0c37-d2a0-4cf7-bda5-bdec7e2a1f23"},"vehicle_type_id":"4","last_reported":1748732967,"current_range_meters":11200,"station_id":"ce4bhr12rcd13ifvqhqg","pricing_plan_id":"cebpf4jnsgd1na2vs0mg"},{"bike_id":"395725b1-48e3-44c2-879e-2f9d260a4d1a","system_id":"levelo_inurba_marseille","lat":43.312232,"lon":5.368584,"is_reserved":false,"is_disabled":false,"rental_uris":{"android":"levelo://app?vid=395725b1-48e3-44c2-879e-2f9d260a4d1a","ios":"levelo://app?vid=395725b1-48e3-44c2-879e-2f9d260a4d1a"},"vehicle_type_id":"4","last_reported":1748732967,"current_range_meters":11200,"station_id":"ce4bgl92rcd13ifvqbq0","pricing_plan_id":"cebpf4jnsgd1na2vs0mg"},{"bike_id":"b4e37ba1-6d68-4b26-95f1-da182f892736","system_id":"levelo_inurba_marseille","lat":43.319678,"lon":5.371017,"is_reserved":false,"is_disabled":false,"rental_uris":{"android":"levelo://app?vid=b4e37ba1-6d68-4b26-95f1-da182f892736","ios":"levelo://app?vid=b4e37ba1-6d68-4b26-95f1-da182f892736"},"vehicle_type_id":"4","last_reported":1748732967,"current_range_meters":11200,"station_id":"ce4bhrh2rcd13ifvqhug","pricing_plan_id":"cebpf4jnsgd1na2vs0mg"},{"bike_id":"f2d24b18-d214-4b88-99a9-26c99e5fd23c","system_id":"levelo_inurba_marseille","lat":43.246495,"lon":5.393132,"is_reserved":false,"is_disabled":false,"rental_uris":{"android":"levelo://app?vid=f2d24b18-d214-4b88-99a9-26c99e5fd23c","ios":"levelo://app?vid=f2d24b18-d214-4b88-99a9-26c99e5fd23c"},"vehicle_type_id":"4","last_reported":1748732967,"current_range_meters":11200,"station_id":"","pricing_plan_id":"cebpf4jnsgd1na2vs0mg"},{"bike_id":"ae2c918a-d2e2-439b-aa6f-16e6722edd86","system_id":"levelo_inurba_marseille","lat":43.243341,"lon":5.380221,"is_reserved":false,"is_disabled":false,"rental_uris":{"android":"levelo://app?vid=ae2c918a-d2e2-439b-aa6f-16e6722edd86","ios":"levelo://app?vid=ae2c918a-d2e2-439b-aa6f-16e6722edd86"},"vehicle_type_id":"4","last_reported":1748732967,"current_range_meters":11600,"station_id":"","pricing_plan_id":"cebpf4jnsgd1na2vs0mg"},{"bike_id":"a53e91f2-c462-4470-879d-60073a7f31df","system_id":"levelo_inurba_marseille","lat":43.29536,"lon":5.3854,"is_reserved":false,"is_disabled":false,"rental_uris":{"android":"levelo://app?vid=a53e91f2-c462-4470-879d-60073a7f31df","ios":"levelo://app?vid=a53e91f2-c462-4470-879d-60073a7f31df"},"vehicle_type_id":"4","last_reported":1748732967,"current_range_meters":11600,"station_id":"ce4bgih2rcd13ifvqba0","pricing_plan_id":"cebpf4jnsgd1na2vs0mg"},{"bike_id":"1cbc3454-ff5d-4ea4-b25c-b28e2bf616a9","system_id":"levelo_inurba_marseille","lat":43.25109,"lon":5.40336,"is_reserved":false,"is_disabled":false,"rental_uris":{"android":"levelo://app?vid=1cbc3454-ff5d-4ea4-b25c-b28e2bf616a9","ios":"levelo://app?vid=1cbc3454-ff5d-4ea4-b25c-b28e2bf616a9"},"vehicle_type_id":"4","last_reported":1748732967,"current_range_meters":11600,"station_id":"ce4bhlh2rcd13ifvqgig","pricing_plan_id":"cebpf4jnsgd1na2vs0mg"},{"bike_id":"14036455-f919-44f7-8d5e-0b2e84f48674","system_id":"levelo_inurba_marseille","lat":43.30942,"lon":5.40391,"is_reserved":false,"is_disabled":false,"rental_uris":{"android":"levelo://app?vid=14036455-f919-44f7-8d5e-0b2e84f48674","ios":"levelo://app?vid=14036455-f919-44f7-8d5e-0b2e84f48674"},"vehicle_type_id":"4","last_reported":1748732967,"current_range_meters":11600,"station_id":"","pricing_plan_id":"cebpf4jnsgd1na2vs0mg"},{"bike_id":"5ef067e7-b281-4ef9-ad2a-1c6b02a54c04","system_id":"levelo_inurba_marseille","lat":43.31906,"lon":5.44066,"is_reserved":false,"is_disabled":false,"rental_uris":{"android":"levelo://app?vid=5ef067e7-b281-4ef9-ad2a-1c6b02a54c04","ios":"levelo://app?vid=5ef067e7-b281-4ef9-ad2a-1c6b02a54c04"},"vehicle_type_id":"4","last_reported":1748732967,"current_range_meters":11600,"station_id":"","pricing_plan_id":"cebpf4jnsgd1na2vs0mg"},{"bike_id":"c4c70c49-0918-4c0a-88f8-e3350b40a967","system_id":"levelo_inurba_marseille","lat":43.30931,"lon":5.4014,"is_reserved":false,"is_disabled":false,"rental_uris":{"android":"levelo://app?vid=c4c70c49-0918-4c0a-88f8-e3350b40a967","ios":"levelo://app?vid=c4c70c49-0918-4c0a-88f8-e3350b40a967"},"vehicle_type_id":"4","last_reported":1748732967,"current_range_meters":11600,"station_id":"ce4bgvp2rcd13ifvqct0","pricing_plan_id":"cebpf4jnsgd1na2vs0mg"},{"bike_id":"97c2bc50-b253-470d-bf7a-d78dda94dee2","system_id":"levelo_inurba_marseille","lat":43.29266,"lon":5.38437,"is_reserved":false,"is_disabled":false,"rental_uris":{"android":"levelo://app?vid=97c2bc50-b253-470d-bf7a-d78dda94dee2","ios":"levelo://app?vid=97c2bc50-b253-470d-bf7a-d78dda94dee2"},"vehicle_type_id":"4","last_reported":1748732967,"current_range_meters":11600,"station_id":"ce4bh692rcd13ifvqea0","pricing_plan_id":"cebpf4jnsgd1na2vs0mg"},{"bike_id":"ac08a224-e278-4da8-b823-4e8d52ac1e4b","system_id":"levelo_inurba_marseille","lat":43.231852,"lon":5.399798,"is_reserved":false,"is_disabled":false,"rental_uris":{"android":"levelo://app?vid=ac08a224-e278-4da8-b823-4e8d52ac1e4b","ios":"levelo://app?vid=ac08a224-e278-4da8-b823-4e8d52ac1e4b"},"vehicle_type_id":"4","last_reported":1748732967,"current_range_meters":12000,"station_id":"ce4bhn12rcd13ifvqgqg","pricing_plan_id":"cebpf4jnsgd1na2vs0mg"},{"bike_id":"823a2611-9e4e-4938-83e1-63bacff8634d","system_id":"levelo_inurba_marseille","lat":43.32376,"lon":5.38881,"is_reserved":false,"is_disabled":false,"rental_uris":{"android":"levelo://app?vid=823a2611-9e4e-4938-83e1-63bacff8634d","ios":"levelo://app?vid=823a2611-9e4e-4938-83e1-63bacff8634d"},"vehicle_type_id":"4","last_reported":1748732967,"current_range_meters":12000,"station_id":"ce4bhqp2rcd13ifvqhog","pricing_plan_id":"cebpf4jnsgd1na2vs0mg"},{"bike_id":"63226803-31c6-4bba-8fb5-6056cb981b44","system_id":"levelo_inurba_marseille","lat":43.217783,"lon":5.345927,"is_reserved":false,"is_disabled":true,"rental_uris":{"android":"levelo://app?vid=63226803-31c6-4bba-8fb5-6056cb981b44","ios":"levelo://app?vid=63226803-31c6-4bba-8fb5-6056cb981b44"},"vehicle_type_id":"4","last_reported":1748732967,"current_range_meters":12000,"station_id":"st_cvj6r9ubvosntc0bgbag","pricing_plan_id":"cebpf4jnsgd1na2vs0mg"},{"bike_id":"289348b1-f496-48d7-9095-5593c941cd7a","system_id":"levelo_inurba_marseille","lat":43.29553,"lon":5.37454,"is_reserved":false,"is_disabled":true,"rental_uris":{"android":"levelo://app?vid=289348b1-f496-48d7-9095-5593c941cd7a","ios":"levelo://app?vid=289348b1-f496-48d7-9095-5593c941cd7a"},"vehicle_type_id":"4","last_reported":1748732967,"current_range_meters":12000,"station_id":"ce4bgkp2rcd13ifvqbmg","pricing_plan_id":"cebpf4jnsgd1na2vs0mg"},{"bike_id":"c213034b-f9a3-48e8-9a07-6d97a3c51b73","system_id":"levelo_inurba_marseille","lat":43.25123,"lon":5.40354,"is_reserved":false,"is_disabled":false,"rental_uris":{"android":"levelo://app?vid=c213034b-f9a3-48e8-9a07-6d97a3c51b73","ios":"levelo://app?vid=c213034b-f9a3-48e8-9a07-6d97a3c51b73"},"vehicle_type_id":"4","last_reported":1748732967,"current_range_meters":12000,"station_id":"ce4bhlh2rcd13ifvqgig","pricing_plan_id":"cebpf4jnsgd1na2vs0mg"},{"bike_id":"0cb4ca06-eca3-464b-978f-69c83c0c566f","system_id":"levelo_inurba_marseille","lat":43.307314,"lon":5.381077,"is_reserved":false,"is_disabled":false,"rental_uris":{"android":"levelo://app?vid=0cb4ca06-eca3-464b-978f-69c83c0c566f","ios":"levelo://app?vid=0cb4ca06-eca3-464b-978f-69c83c0c566f"},"vehicle_type_id":"4","last_reported":1748732967,"current_range_meters":12000,"station_id":"ce4bgt12rcd13ifvqce0","pricing_plan_id":"cebpf4jnsgd1na2vs0mg"},{"bike_id":"274808f9-95a4-4985-ac46-505f2a24aaed","system_id":"levelo_inurba_marseille","lat":43.31713,"lon":5.37737,"is_reserved":false,"is_disabled":false,"rental_uris":{"android":"levelo://app?vid=274808f9-95a4-4985-ac46-505f2a24aaed","ios":"levelo://app?vid=274808f9-95a4-4985-ac46-505f2a24aaed"},"vehicle_type_id":"4","last_reported":1748732967,"current_range_meters":12400,"station_id":"ce4bgth2rcd13ifvqch0","pricing_plan_id":"cebpf4jnsgd1na2vs0mg"},{"bike_id":"62b9fb40-b3b6-4001-a515-0c87ced39043","system_id":"levelo_inurba_marseille","lat":43.23964,"lon":5.36625,"is_reserved":false,"is_disabled":true,"rental_uris":{"android":"levelo://app?vid=62b9fb40-b3b6-4001-a515-0c87ced39043","ios":"levelo://app?vid=62b9fb40-b3b6-4001-a515-0c87ced39043"},"vehicle_type_id":"4","last_reported":1748732967,"current_range_meters":12800,"station_id":"ce4bhi12rcd13ifvqfp0","pricing_plan_id":"cebpf4jnsgd1na2vs0mg"},{"bike_id":"ff941e69-8cee-4130-9154-37ec9c999c26","system_id":"levelo_inurba_marseille","lat":43.28157,"lon":5.39048,"is_reserved":false,"is_disabled":false,"rental_uris":{"android":"levelo://app?vid=ff941e69-8cee-4130-9154-37ec9c999c26","ios":"levelo://app?vid=ff941e69-8cee-4130-9154-37ec9c999c26"},"vehicle_type_id":"4","last_reported":1748732967,"current_range_meters":12800,"station_id":"ce4bhh92rcd13ifvqfh0","pricing_plan_id":"cebpf4jnsgd1na2vs0mg"},{"bike_id":"816aaef5-ff63-4d3f-a164-a1bcaa7b9719","system_id":"levelo_inurba_marseille","lat":43.28932,"lon":5.38396,"is_reserved":false,"is_disabled":false,"rental_uris":{"android":"levelo://app?vid=816aaef5-ff63-4d3f-a164-a1bcaa7b9719","ios":"levelo://app?vid=816aaef5-ff63-4d3f-a164-a1bcaa7b9719"},"vehicle_type_id":"4","last_reported":1748732967,"current_range_meters":12800,"station_id":"ce4bh612rcd13ifvqe6g","pricing_plan_id":"cebpf4jnsgd1na2vs0mg"},{"bike_id":"33ce954c-3291-4895-bc8c-28f4fec81a57","system_id":"levelo_inurba_marseille","lat":43.29532,"lon":5.38548,"is_reserved":false,"is_disabled":false,"rental_uris":{"android":"levelo://app?vid=33ce954c-3291-4895-bc8c-28f4fec81a57","ios":"levelo://app?vid=33ce954c-3291-4895-bc8c-28f4fec81a57"},"vehicle_type_id":"4","last_reported":1748732967,"current_range_meters":13600,"station_id":"ce4bgih2rcd13ifvqba0","pricing_plan_id":"cebpf4jnsgd1na2vs0mg"},{"bike_id":"ceff5001-a846-4945-93fb-c0e7ec373158","system_id":"levelo_inurba_marseille","lat":43.30943,"lon":5.39026,"is_reserved":false,"is_disabled":false,"rental_uris":{"android":"levelo://app?vid=ceff5001-a846-4945-93fb-c0e7ec373158","ios":"levelo://app?vid=ceff5001-a846-4945-93fb-c0e7ec373158"},"vehicle_type_id":"4","last_reported":1748732967,"current_range_meters":12400,"station_id":"ce4bgup2rcd13ifvqco0","pricing_plan_id":"cebpf4jnsgd1na2vs0mg"},{"bike_id":"1830c88d-7b78-480d-a4c8-dec3727968b1","system_id":"levelo_inurba_marseille","lat":43.29527,"lon":5.39408,"is_reserved":false,"is_disabled":false,"rental_uris":{"android":"levelo://app?vid=1830c88d-7b78-480d-a4c8-dec3727968b1","ios":"levelo://app?vid=1830c88d-7b78-480d-a4c8-dec3727968b1"},"vehicle_type_id":"4","last_reported":1748732967,"current_range_meters":12800,"station_id":"ce4bh292rcd13ifvqdf0","pricing_plan_id":"cebpf4jnsgd1na2vs0mg"},{"bike_id":"0b41c2b9-e277-4e2f-8dd4-80f06c9942d4","system_id":"levelo_inurba_marseille","lat":43.304575,"lon":5.378918,"is_reserved":false,"is_disabled":false,"rental_uris":{"android":"levelo://app?vid=0b41c2b9-e277-4e2f-8dd4-80f06c9942d4","ios":"levelo://app?vid=0b41c2b9-e277-4e2f-8dd4-80f06c9942d4"},"vehicle_type_id":"4","last_reported":1748732967,"current_range_meters":12800,"station_id":"ce4bgup2rcd13ifvqcn0","pricing_plan_id":"cebpf4jnsgd1na2vs0mg"},{"bike_id":"9b03c3f1-a97d-4170-ab8e-5b6ce67f019f","system_id":"levelo_inurba_marseille","lat":43.315284,"lon":5.380329,"is_reserved":false,"is_disabled":false,"rental_uris":{"android":"levelo://app?vid=9b03c3f1-a97d-4170-ab8e-5b6ce67f019f","ios":"levelo://app?vid=9b03c3f1-a97d-4170-ab8e-5b6ce67f019f"},"vehicle_type_id":"4","last_reported":1748732967,"current_range_meters":13600,"station_id":"ce4bhsp2rcd13ifvqi50","pricing_plan_id":"cebpf4jnsgd1na2vs0mg"},{"bike_id":"d180d0ec-4ed0-4c40-92ea-23bc65c50d16","system_id":"levelo_inurba_marseille","lat":43.30131,"lon":5.38774,"is_reserved":false,"is_disabled":false,"rental_uris":{"android":"levelo://app?vid=d180d0ec-4ed0-4c40-92ea-23bc65c50d16","ios":"levelo://app?vid=d180d0ec-4ed0-4c40-92ea-23bc65c50d16"},"vehicle_type_id":"4","last_reported":1748732967,"current_range_meters":13600,"station_id":"ce4bghh2rcd13ifvqb60","pricing_plan_id":"cebpf4jnsgd1na2vs0mg"},{"bike_id":"88a3e00a-918c-4afe-bea7-47eac108f49e","system_id":"levelo_inurba_marseille","lat":43.299157,"lon":5.381153,"is_reserved":false,"is_disabled":false,"rental_uris":{"android":"levelo://app?vid=88a3e00a-918c-4afe-bea7-47eac108f49e","ios":"levelo://app?vid=88a3e00a-918c-4afe-bea7-47eac108f49e"},"vehicle_type_id":"4","last_reported":1748732967,"current_range_meters":13600,"station_id":"ce4bgj12rcd13ifvqbc0","pricing_plan_id":"cebpf4jnsgd1na2vs0mg"},{"bike_id":"c2f4feb8-42b5-42b5-9ed4-3cf882559179","system_id":"levelo_inurba_marseille","lat":43.298013,"lon":5.373981,"is_reserved":false,"is_disabled":false,"rental_uris":{"android":"levelo://app?vid=c2f4feb8-42b5-42b5-9ed4-3cf882559179","ios":"levelo://app?vid=c2f4feb8-42b5-42b5-9ed4-3cf882559179"},"vehicle_type_id":"4","last_reported":1748732967,"current_range_meters":13600,"station_id":"","pricing_plan_id":"cebpf4jnsgd1na2vs0mg"},{"bike_id":"593ab029-44e4-4a3c-a828-e9bbe2c566b5","system_id":"levelo_inurba_marseille","lat":43.27903,"lon":5.38016,"is_reserved":false,"is_disabled":false,"rental_uris":{"android":"levelo://app?vid=593ab029-44e4-4a3c-a828-e9bbe2c566b5","ios":"levelo://app?vid=593ab029-44e4-4a3c-a828-e9bbe2c566b5"},"vehicle_type_id":"4","last_reported":1748732967,"current_range_meters":13600,"station_id":"ce4bhf92rcd13ifvqf50","pricing_plan_id":"cebpf4jnsgd1na2vs0mg"},{"bike_id":"0c8cd7b0-32d2-40cd-bebf-bd6555bd92d8","system_id":"levelo_inurba_marseille","lat":43.28669,"lon":5.3635,"is_reserved":false,"is_disabled":false,"rental_uris":{"android":"levelo://app?vid=0c8cd7b0-32d2-40cd-bebf-bd6555bd92d8","ios":"levelo://app?vid=0c8cd7b0-32d2-40cd-bebf-bd6555bd92d8"},"vehicle_type_id":"4","last_reported":1748732967,"current_range_meters":13600,"station_id":"ce4bhah2rcd13ifvqej0","pricing_plan_id":"cebpf4jnsgd1na2vs0mg"},{"bike_id":"5df05316-524d-4046-90a8-d4f2dfb87ecf","system_id":"levelo_inurba_marseille","lat":43.24358,"lon":5.38012,"is_reserved":false,"is_disabled":false,"rental_uris":{"android":"levelo://app?vid=5df05316-524d-4046-90a8-d4f2dfb87ecf","ios":"levelo://app?vid=5df05316-524d-4046-90a8-d4f2dfb87ecf"},"vehicle_type_id":"4","last_reported":1748732967,"current_range_meters":13600,"station_id":"","pricing_plan_id":"cebpf4jnsgd1na2vs0mg"},{"bike_id":"d95a8927-9413-4ee6-b8dd-9b96d5af8d5e","system_id":"levelo_inurba_marseille","lat":43.283481,"lon":5.350415,"is_reserved":false,"is_disabled":false,"rental_uris":{"android":"levelo://app?vid=d95a8927-9413-4ee6-b8dd-9b96d5af8d5e","ios":"levelo://app?vid=d95a8927-9413-4ee6-b8dd-9b96d5af8d5e"},"vehicle_type_id":"4","last_reported":1748732967,"current_range_meters":13600,"station_id":"","pricing_plan_id":"cebpf4jnsgd1na2vs0mg"},{"bike_id":"fbdff89c-6eb2-4bb4-adff-92e23d969f91","system_id":"levelo_inurba_marseille","lat":43.29033,"lon":5.38642,"is_reserved":false,"is_disabled":false,"rental_uris":{"android":"levelo://app?vid=fbdff89c-6eb2-4bb4-adff-92e23d969f91","ios":"levelo://app?vid=fbdff89c-6eb2-4bb4-adff-92e23d969f91"},"vehicle_type_id":"4","last_reported":1748732967,"current_range_meters":13600,"station_id":"ce4bh4p2rcd13ifvqe0g","pricing_plan_id":"cebpf4jnsgd1na2vs0mg"},{"bike_id":"e210be7e-07b8-44d3-ae09-6702f28e2ae8","system_id":"levelo_inurba_marseille","lat":43.25094,"lon":5.39353,"is_reserved":false,"is_disabled":false,"rental_uris":{"android":"levelo://app?vid=e210be7e-07b8-44d3-ae09-6702f28e2ae8","ios":"levelo://app?vid=e210be7e-07b8-44d3-ae09-6702f28e2ae8"},"vehicle_type_id":"4","last_reported":1748732967,"current_range_meters":13600,"station_id":"","pricing_plan_id":"cebpf4jnsgd1na2vs0mg"},{"bike_id":"3a0bc3ae-31a0-4dde-9151-915dc3862ef6","system_id":"levelo_inurba_marseille","lat":43.29521,"lon":5.39404,"is_reserved":false,"is_disabled":false,"rental_uris":{"android":"levelo://app?vid=3a0bc3ae-31a0-4dde-9151-915dc3862ef6","ios":"levelo://app?vid=3a0bc3ae-31a0-4dde-9151-915dc3862ef6"},"vehicle_type_id":"4","last_reported":1748732967,"current_range_meters":13600,"station_id":"ce4bh292rcd13ifvqdf0","pricing_plan_id":"cebpf4jnsgd1na2vs0mg"},{"bike_id":"f2067b9e-009d-4530-a0df-9659f5cc9cc7","system_id":"levelo_inurba_marseille","lat":43.28704,"lon":5.39967,"is_reserved":false,"is_disabled":false,"rental_uris":{"android":"levelo://app?vid=f2067b9e-009d-4530-a0df-9659f5cc9cc7","ios":"levelo://app?vid=f2067b9e-009d-4530-a0df-9659f5cc9cc7"},"vehicle_type_id":"4","last_reported":1748732967,"current_range_meters":13600,"station_id":"ce4bho92rcd13ifvqh3g","pricing_plan_id":"cebpf4jnsgd1na2vs0mg"},{"bike_id":"13e10e62-dd60-4cfa-b0d8-d05722a25748","system_id":"levelo_inurba_marseille","lat":43.3088,"lon":5.39654,"is_reserved":false,"is_disabled":false,"rental_uris":{"android":"levelo://app?vid=13e10e62-dd60-4cfa-b0d8-d05722a25748","ios":"levelo://app?vid=13e10e62-dd60-4cfa-b0d8-d05722a25748"},"vehicle_type_id":"4","last_reported":1748732967,"current_range_meters":13600,"station_id":"ce4bh012rcd13ifvqcv0","pricing_plan_id":"cebpf4jnsgd1na2vs0mg"},{"bike_id":"2dffdd96-347f-412a-819a-a1295a2c549f","system_id":"levelo_inurba_marseille","lat":43.31687,"lon":5.40475,"is_reserved":false,"is_disabled":false,"rental_uris":{"android":"levelo://app?vid=2dffdd96-347f-412a-819a-a1295a2c549f","ios":"levelo://app?vid=2dffdd96-347f-412a-819a-a1295a2c549f"},"vehicle_type_id":"4","last_reported":1748732967,"current_range_meters":13600,"station_id":"ce4bh012rcd13ifvqd00","pricing_plan_id":"cebpf4jnsgd1na2vs0mg"},{"bike_id":"8d3a23df-bc72-4297-a464-0ed0524cbbc5","system_id":"levelo_inurba_marseille","lat":43.31359,"lon":5.385,"is_reserved":false,"is_disabled":false,"rental_uris":{"android":"levelo://app?vid=8d3a23df-bc72-4297-a464-0ed0524cbbc5","ios":"levelo://app?vid=8d3a23df-bc72-4297-a464-0ed0524cbbc5"},"vehicle_type_id":"4","last_reported":1748732967,"current_range_meters":14000,"station_id":"ce4bgt92rcd13ifvqcf0","pricing_plan_id":"cebpf4jnsgd1na2vs0mg"},{"bike_id":"f8d6271e-8143-4c0a-a2b0-f0ef9bd8dfab","system_id":"levelo_inurba_marseille","lat":43.27493,"lon":5.42455,"is_reserved":false,"is_disabled":false,"rental_uris":{"android":"levelo://app?vid=f8d6271e-8143-4c0a-a2b0-f0ef9bd8dfab","ios":"levelo://app?vid=f8d6271e-8143-4c0a-a2b0-f0ef9bd8dfab"},"vehicle_type_id":"4","last_reported":1748732967,"current_range_meters":14000,"station_id":"ce4bhn92rcd13ifvqgrg","pricing_plan_id":"cebpf4jnsgd1na2vs0mg"},{"bike_id":"4b3e478a-8465-46ec-bc79-8372bad9077c","system_id":"levelo_inurba_marseille","lat":43.24166,"lon":5.36393,"is_reserved":false,"is_disabled":false,"rental_uris":{"android":"levelo://app?vid=4b3e478a-8465-46ec-bc79-8372bad9077c","ios":"levelo://app?vid=4b3e478a-8465-46ec-bc79-8372bad9077c"},"vehicle_type_id":"4","last_reported":1748732967,"current_range_meters":14000,"station_id":"cpo36qri1sfpv3e86is0","pricing_plan_id":"cebpf4jnsgd1na2vs0mg"},{"bike_id":"435f712e-8e5b-494a-9ab4-36835f10e96d","system_id":"levelo_inurba_marseille","lat":43.294153,"lon":5.386258,"is_reserved":false,"is_disabled":false,"rental_uris":{"android":"levelo://app?vid=435f712e-8e5b-494a-9ab4-36835f10e96d","ios":"levelo://app?vid=435f712e-8e5b-494a-9ab4-36835f10e96d"},"vehicle_type_id":"4","last_reported":1748732967,"current_range_meters":14000,"station_id":"ce4bh2h2rcd13ifvqdh0","pricing_plan_id":"cebpf4jnsgd1na2vs0mg"},{"bike_id":"ebee0f67-7511-4815-9dee-441ef33f2f9f","system_id":"levelo_inurba_marseille","lat":43.23187,"lon":5.39978,"is_reserved":false,"is_disabled":false,"rental_uris":{"android":"levelo://app?vid=ebee0f67-7511-4815-9dee-441ef33f2f9f","ios":"levelo://app?vid=ebee0f67-7511-4815-9dee-441ef33f2f9f"},"vehicle_type_id":"4","last_reported":1748732967,"current_range_meters":14000,"station_id":"ce4bhn12rcd13ifvqgqg","pricing_plan_id":"cebpf4jnsgd1na2vs0mg"},{"bike_id":"82ce820a-c4c6-4ac7-9b7f-30fa70c9c3f3","system_id":"levelo_inurba_marseille","lat":43.278145,"lon":5.4071,"is_reserved":false,"is_disabled":false,"rental_uris":{"android":"levelo://app?vid=82ce820a-c4c6-4ac7-9b7f-30fa70c9c3f3","ios":"levelo://app?vid=82ce820a-c4c6-4ac7-9b7f-30fa70c9c3f3"},"vehicle_type_id":"4","last_reported":1748732967,"current_range_meters":13600,"station_id":"ce4bhnh2rcd13ifvqgtg","pricing_plan_id":"cebpf4jnsgd1na2vs0mg"},{"bike_id":"9a189ee8-27ed-444b-b171-f705371af28f","system_id":"levelo_inurba_marseille","lat":43.282568,"lon":5.349049,"is_reserved":false,"is_disabled":false,"rental_uris":{"android":"levelo://app?vid=9a189ee8-27ed-444b-b171-f705371af28f","ios":"levelo://app?vid=9a189ee8-27ed-444b-b171-f705371af28f"},"vehicle_type_id":"4","last_reported":1748732967,"current_range_meters":14400,"station_id":"","pricing_plan_id":"cebpf4jnsgd1na2vs0mg"},{"bike_id":"32503fa7-7208-4269-b40f-34ba3dae0f9e","system_id":"levelo_inurba_marseille","lat":43.308634,"lon":5.403642,"is_reserved":false,"is_disabled":false,"rental_uris":{"android":"levelo://app?vid=32503fa7-7208-4269-b40f-34ba3dae0f9e","ios":"levelo://app?vid=32503fa7-7208-4269-b40f-34ba3dae0f9e"},"vehicle_type_id":"4","last_reported":1748732967,"current_range_meters":14400,"station_id":"","pricing_plan_id":"cebpf4jnsgd1na2vs0mg"},{"bike_id":"a6e780c3-646e-438f-ba10-94b85314ca7b","system_id":"levelo_inurba_marseille","lat":43.29569,"lon":5.39961,"is_reserved":false,"is_disabled":false,"rental_uris":{"android":"levelo://app?vid=a6e780c3-646e-438f-ba10-94b85314ca7b","ios":"levelo://app?vid=a6e780c3-646e-438f-ba10-94b85314ca7b"},"vehicle_type_id":"4","last_reported":1748732967,"current_range_meters":14000,"station_id":"ce4bh312rcd13ifvqdj0","pricing_plan_id":"cebpf4jnsgd1na2vs0mg"},{"bike_id":"09fafd67-d7ef-4095-ac5d-6f81ff415e82","system_id":"levelo_inurba_marseille","lat":43.31987,"lon":5.38142,"is_reserved":false,"is_disabled":false,"rental_uris":{"android":"levelo://app?vid=09fafd67-d7ef-4095-ac5d-6f81ff415e82","ios":"levelo://app?vid=09fafd67-d7ef-4095-ac5d-6f81ff415e82"},"vehicle_type_id":"4","last_reported":1748732967,"current_range_meters":14400,"station_id":"ce4bhr12rcd13ifvqhpg","pricing_plan_id":"cebpf4jnsgd1na2vs0mg"},{"bike_id":"d449cc1d-4391-4016-8c94-f6774be1d7eb","system_id":"levelo_inurba_marseille","lat":43.31699,"lon":5.40447,"is_reserved":false,"is_disabled":false,"rental_uris":{"android":"levelo://app?vid=d449cc1d-4391-4016-8c94-f6774be1d7eb","ios":"levelo://app?vid=d449cc1d-4391-4016-8c94-f6774be1d7eb"},"vehicle_type_id":"4","last_reported":1748732967,"current_range_meters":14400,"station_id":"ce4bh012rcd13ifvqd00","pricing_plan_id":"cebpf4jnsgd1na2vs0mg"},{"bike_id":"f1527888-26d8-4420-9d21-1c7254fe230b","system_id":"levelo_inurba_marseille","lat":43.31356,"lon":5.38495,"is_reserved":false,"is_disabled":false,"rental_uris":{"android":"levelo://app?vid=f1527888-26d8-4420-9d21-1c7254fe230b","ios":"levelo://app?vid=f1527888-26d8-4420-9d21-1c7254fe230b"},"vehicle_type_id":"4","last_reported":1748732967,"current_range_meters":14000,"station_id":"ce4bgt92rcd13ifvqcf0","pricing_plan_id":"cebpf4jnsgd1na2vs0mg"},{"bike_id":"4020df04-632b-4ee7-9c6c-7254b0c7be04","system_id":"levelo_inurba_marseille","lat":43.32307,"lon":5.40581,"is_reserved":false,"is_disabled":false,"rental_uris":{"android":"levelo://app?vid=4020df04-632b-4ee7-9c6c-7254b0c7be04","ios":"levelo://app?vid=4020df04-632b-4ee7-9c6c-7254b0c7be04"},"vehicle_type_id":"4","last_reported":1748732967,"current_range_meters":14400,"station_id":"ce4bhq92rcd13ifvqhjg","pricing_plan_id":"cebpf4jnsgd1na2vs0mg"},{"bike_id":"31e2967a-acd8-448c-84c0-4827e70a1039","system_id":"levelo_inurba_marseille","lat":43.28855,"lon":5.35838,"is_reserved":false,"is_disabled":false,"rental_uris":{"android":"levelo://app?vid=31e2967a-acd8-448c-84c0-4827e70a1039","ios":"levelo://app?vid=31e2967a-acd8-448c-84c0-4827e70a1039"},"vehicle_type_id":"4","last_reported":1748732967,"current_range_meters":14400,"station_id":"ce4bhb12rcd13ifvqem0","pricing_plan_id":"cebpf4jnsgd1na2vs0mg"},{"bike_id":"19acb86c-d41f-4c99-95c0-a1f69c0413f6","system_id":"levelo_inurba_marseille","lat":43.250996,"lon":5.402971,"is_reserved":false,"is_disabled":false,"rental_uris":{"android":"levelo://app?vid=19acb86c-d41f-4c99-95c0-a1f69c0413f6","ios":"levelo://app?vid=19acb86c-d41f-4c99-95c0-a1f69c0413f6"},"vehicle_type_id":"4","last_reported":1748732967,"current_range_meters":14400,"station_id":"ce4bhlh2rcd13ifvqgig","pricing_plan_id":"cebpf4jnsgd1na2vs0mg"},{"bike_id":"dc9eaf1f-bae4-4839-ba56-cc9396a26a25","system_id":"levelo_inurba_marseille","lat":43.28429,"lon":5.37502,"is_reserved":false,"is_disabled":false,"rental_uris":{"android":"levelo://app?vid=dc9eaf1f-bae4-4839-ba56-cc9396a26a25","ios":"levelo://app?vid=dc9eaf1f-bae4-4839-ba56-cc9396a26a25"},"vehicle_type_id":"4","last_reported":1748732967,"current_range_meters":14400,"station_id":"ce4bh412rcd13ifvqds0","pricing_plan_id":"cebpf4jnsgd1na2vs0mg"},{"bike_id":"84e94b65-0704-41b9-b45c-33b81545a7c4","system_id":"levelo_inurba_marseille","lat":43.30314,"lon":5.369106,"is_reserved":false,"is_disabled":true,"rental_uris":{"android":"levelo://app?vid=84e94b65-0704-41b9-b45c-33b81545a7c4","ios":"levelo://app?vid=84e94b65-0704-41b9-b45c-33b81545a7c4"},"vehicle_type_id":"4","last_reported":1748732967,"current_range_meters":14800,"station_id":"ce4bgqh2rcd13ifvqc5g","pricing_plan_id":"cebpf4jnsgd1na2vs0mg"},{"bike_id":"f6f1f685-2cc2-4636-bf7b-62336b259733","system_id":"levelo_inurba_marseille","lat":43.28154,"lon":5.42638,"is_reserved":false,"is_disabled":false,"rental_uris":{"android":"levelo://app?vid=f6f1f685-2cc2-4636-bf7b-62336b259733","ios":"levelo://app?vid=f6f1f685-2cc2-4636-bf7b-62336b259733"},"vehicle_type_id":"4","last_reported":1748732967,"current_range_meters":14800,"station_id":"ce4bhnh2rcd13ifvqgug","pricing_plan_id":"cebpf4jnsgd1na2vs0mg"},{"bike_id":"0b0174bf-3775-43e7-bba8-c336fefb2e3e","system_id":"levelo_inurba_marseille","lat":43.29235,"lon":5.38451,"is_reserved":false,"is_disabled":false,"rental_uris":{"android":"levelo://app?vid=0b0174bf-3775-43e7-bba8-c336fefb2e3e","ios":"levelo://app?vid=0b0174bf-3775-43e7-bba8-c336fefb2e3e"},"vehicle_type_id":"4","last_reported":1748732967,"current_range_meters":14800,"station_id":"ce4bh692rcd13ifvqea0","pricing_plan_id":"cebpf4jnsgd1na2vs0mg"},{"bike_id":"8f8ce63f-d276-494a-a45a-364c5e9c5dab","system_id":"levelo_inurba_marseille","lat":43.31367,"lon":5.38507,"is_reserved":false,"is_disabled":false,"rental_uris":{"android":"levelo://app?vid=8f8ce63f-d276-494a-a45a-364c5e9c5dab","ios":"levelo://app?vid=8f8ce63f-d276-494a-a45a-364c5e9c5dab"},"vehicle_type_id":"4","last_reported":1748732967,"current_range_meters":14800,"station_id":"ce4bgt92rcd13ifvqcf0","pricing_plan_id":"cebpf4jnsgd1na2vs0mg"},{"bike_id":"f5a90625-b7e8-48a8-90c6-777efe255a32","system_id":"levelo_inurba_marseille","lat":43.25109,"lon":5.40957,"is_reserved":false,"is_disabled":false,"rental_uris":{"android":"levelo://app?vid=f5a90625-b7e8-48a8-90c6-777efe255a32","ios":"levelo://app?vid=f5a90625-b7e8-48a8-90c6-777efe255a32"},"vehicle_type_id":"4","last_reported":1748732967,"current_range_meters":15200,"station_id":"","pricing_plan_id":"cebpf4jnsgd1na2vs0mg"},{"bike_id":"bf2309e8-5367-458a-a6dc-8b24de3dfdab","system_id":"levelo_inurba_marseille","lat":43.28609,"lon":5.35112,"is_reserved":false,"is_disabled":false,"rental_uris":{"android":"levelo://app?vid=bf2309e8-5367-458a-a6dc-8b24de3dfdab","ios":"levelo://app?vid=bf2309e8-5367-458a-a6dc-8b24de3dfdab"},"vehicle_type_id":"4","last_reported":1748732967,"current_range_meters":15200,"station_id":"ce4bhch2rcd13ifvqeug","pricing_plan_id":"cebpf4jnsgd1na2vs0mg"},{"bike_id":"3408fdfe-98dc-47ba-8ed0-f601d63d31b2","system_id":"levelo_inurba_marseille","lat":43.294227,"lon":5.38636,"is_reserved":false,"is_disabled":false,"rental_uris":{"android":"levelo://app?vid=3408fdfe-98dc-47ba-8ed0-f601d63d31b2","ios":"levelo://app?vid=3408fdfe-98dc-47ba-8ed0-f601d63d31b2"},"vehicle_type_id":"4","last_reported":1748732967,"current_range_meters":15200,"station_id":"ce4bh2h2rcd13ifvqdh0","pricing_plan_id":"cebpf4jnsgd1na2vs0mg"},{"bike_id":"e3082645-a75e-4e63-b44d-b2d09ad037fc","system_id":"levelo_inurba_marseille","lat":43.2926,"lon":5.40909,"is_reserved":false,"is_disabled":false,"rental_uris":{"android":"levelo://app?vid=e3082645-a75e-4e63-b44d-b2d09ad037fc","ios":"levelo://app?vid=e3082645-a75e-4e63-b44d-b2d09ad037fc"},"vehicle_type_id":"4","last_reported":1748732967,"current_range_meters":15200,"station_id":"ce4bh192rcd13ifvqdc0","pricing_plan_id":"cebpf4jnsgd1na2vs0mg"},{"bike_id":"5344a6f7-f2b1-43fb-956c-32a014cd9682","system_id":"levelo_inurba_marseille","lat":43.29411,"lon":5.3861,"is_reserved":false,"is_disabled":true,"rental_uris":{"android":"levelo://app?vid=5344a6f7-f2b1-43fb-956c-32a014cd9682","ios":"levelo://app?vid=5344a6f7-f2b1-43fb-956c-32a014cd9682"},"vehicle_type_id":"4","last_reported":1748732967,"current_range_meters":15200,"station_id":"ce4bh2h2rcd13ifvqdh0","pricing_plan_id":"cebpf4jnsgd1na2vs0mg"},{"bike_id":"bfc6dce9-77ca-4235-96b6-63b5fbc4d6e2","system_id":"levelo_inurba_marseille","lat":43.336727,"lon":5.385642,"is_reserved":false,"is_disabled":false,"rental_uris":{"android":"levelo://app?vid=bfc6dce9-77ca-4235-96b6-63b5fbc4d6e2","ios":"levelo://app?vid=bfc6dce9-77ca-4235-96b6-63b5fbc4d6e2"},"vehicle_type_id":"4","last_reported":1748732967,"current_range_meters":16000,"station_id":"","pricing_plan_id":"cebpf4jnsgd1na2vs0mg"},{"bike_id":"b6b6b9c9-179a-4330-b774-cbea546a5069","system_id":"levelo_inurba_marseille","lat":43.31071,"lon":5.383539,"is_reserved":false,"is_disabled":false,"rental_uris":{"android":"levelo://app?vid=b6b6b9c9-179a-4330-b774-cbea546a5069","ios":"levelo://app?vid=b6b6b9c9-179a-4330-b774-cbea546a5069"},"vehicle_type_id":"4","last_reported":1748732967,"current_range_meters":16000,"station_id":"ce4bgv92rcd13ifvqcr0","pricing_plan_id":"cebpf4jnsgd1na2vs0mg"},{"bike_id":"6c40d6d3-462c-4adf-9844-b3e9b858e027","system_id":"levelo_inurba_marseille","lat":43.31351,"lon":5.38486,"is_reserved":false,"is_disabled":false,"rental_uris":{"android":"levelo://app?vid=6c40d6d3-462c-4adf-9844-b3e9b858e027","ios":"levelo://app?vid=6c40d6d3-462c-4adf-9844-b3e9b858e027"},"vehicle_type_id":"4","last_reported":1748732967,"current_range_meters":16000,"station_id":"ce4bgt92rcd13ifvqcf0","pricing_plan_id":"cebpf4jnsgd1na2vs0mg"},{"bike_id":"6d7eeea0-04d0-49a0-96ac-105c55469076","system_id":"levelo_inurba_marseille","lat":43.306576,"lon":5.385561,"is_reserved":false,"is_disabled":false,"rental_uris":{"android":"levelo://app?vid=6d7eeea0-04d0-49a0-96ac-105c55469076","ios":"levelo://app?vid=6d7eeea0-04d0-49a0-96ac-105c55469076"},"vehicle_type_id":"4","last_reported":1748732967,"current_range_meters":16000,"station_id":"ce4bgup2rcd13ifvqco0","pricing_plan_id":"cebpf4jnsgd1na2vs0mg"},{"bike_id":"77520d45-03bf-4b26-9f9b-8ac6c162ce6b","system_id":"levelo_inurba_marseille","lat":43.24365,"lon":5.41147,"is_reserved":false,"is_disabled":false,"rental_uris":{"android":"levelo://app?vid=77520d45-03bf-4b26-9f9b-8ac6c162ce6b","ios":"levelo://app?vid=77520d45-03bf-4b26-9f9b-8ac6c162ce6b"},"vehicle_type_id":"4","last_reported":1748732967,"current_range_meters":16000,"station_id":"","pricing_plan_id":"cebpf4jnsgd1na2vs0mg"},{"bike_id":"62487727-4b28-408f-ab19-9ec8633f8495","system_id":"levelo_inurba_marseille","lat":43.30465,"lon":5.37895,"is_reserved":false,"is_disabled":false,"rental_uris":{"android":"levelo://app?vid=62487727-4b28-408f-ab19-9ec8633f8495","ios":"levelo://app?vid=62487727-4b28-408f-ab19-9ec8633f8495"},"vehicle_type_id":"4","last_reported":1748732967,"current_range_meters":15200,"station_id":"ce4bgup2rcd13ifvqcn0","pricing_plan_id":"cebpf4jnsgd1na2vs0mg"},{"bike_id":"52138315-f13b-4871-ab78-9e5155a1008c","system_id":"levelo_inurba_marseille","lat":43.322824,"lon":5.382655,"is_reserved":false,"is_disabled":false,"rental_uris":{"android":"levelo://app?vid=52138315-f13b-4871-ab78-9e5155a1008c","ios":"levelo://app?vid=52138315-f13b-4871-ab78-9e5155a1008c"},"vehicle_type_id":"4","last_reported":1748732967,"current_range_meters":16000,"station_id":"ce4bhr12rcd13ifvqhqg","pricing_plan_id":"cebpf4jnsgd1na2vs0mg"},{"bike_id":"3c714906-76f2-42cc-b185-ab332f5426c2","system_id":"levelo_inurba_marseille","lat":43.22974,"lon":5.40185,"is_reserved":false,"is_disabled":false,"rental_uris":{"android":"levelo://app?vid=3c714906-76f2-42cc-b185-ab332f5426c2","ios":"levelo://app?vid=3c714906-76f2-42cc-b185-ab332f5426c2"},"vehicle_type_id":"4","last_reported":1748732967,"current_range_meters":16000,"station_id":"","pricing_plan_id":"cebpf4jnsgd1na2vs0mg"},{"bike_id":"25c03bc4-812f-4748-9076-b849452a50de","system_id":"levelo_inurba_marseille","lat":43.30324,"lon":5.40428,"is_reserved":false,"is_disabled":false,"rental_uris":{"android":"levelo://app?vid=25c03bc4-812f-4748-9076-b849452a50de","ios":"levelo://app?vid=25c03bc4-812f-4748-9076-b849452a50de"},"vehicle_type_id":"4","last_reported":1748732967,"current_range_meters":16000,"station_id":"ce4bh012rcd13ifvqd10","pricing_plan_id":"cebpf4jnsgd1na2vs0mg"},{"bike_id":"76f771a0-d27e-462d-a1fe-7bd311768559","system_id":"levelo_inurba_marseille","lat":43.28422,"lon":5.34998,"is_reserved":false,"is_disabled":true,"rental_uris":{"android":"levelo://app?vid=76f771a0-d27e-462d-a1fe-7bd311768559","ios":"levelo://app?vid=76f771a0-d27e-462d-a1fe-7bd311768559"},"vehicle_type_id":"4","last_reported":1748732967,"current_range_meters":16000,"station_id":"ce4bhbh2rcd13ifvqepg","pricing_plan_id":"cebpf4jnsgd1na2vs0mg"},{"bike_id":"259fedaf-5c58-486d-815c-b86df6392cd2","system_id":"levelo_inurba_marseille","lat":43.25115,"lon":5.40318,"is_reserved":false,"is_disabled":false,"rental_uris":{"android":"levelo://app?vid=259fedaf-5c58-486d-815c-b86df6392cd2","ios":"levelo://app?vid=259fedaf-5c58-486d-815c-b86df6392cd2"},"vehicle_type_id":"4","last_reported":1748732967,"current_range_meters":16400,"station_id":"ce4bhlh2rcd13ifvqgig","pricing_plan_id":"cebpf4jnsgd1na2vs0mg"},{"bike_id":"d787cfdb-50c2-451d-8448-0eff07939f1e","system_id":"levelo_inurba_marseille","lat":43.23151,"lon":5.437,"is_reserved":false,"is_disabled":true,"rental_uris":{"android":"levelo://app?vid=d787cfdb-50c2-451d-8448-0eff07939f1e","ios":"levelo://app?vid=d787cfdb-50c2-451d-8448-0eff07939f1e"},"vehicle_type_id":"4","last_reported":1748732967,"current_range_meters":16400,"station_id":"ce4bhmp2rcd13ifvqgog","pricing_plan_id":"cebpf4jnsgd1na2vs0mg"},{"bike_id":"c0b307e2-f759-4feb-a351-9c4251bc7010","system_id":"levelo_inurba_marseille","lat":43.31309,"lon":5.396995,"is_reserved":false,"is_disabled":false,"rental_uris":{"android":"levelo://app?vid=c0b307e2-f759-4feb-a351-9c4251bc7010","ios":"levelo://app?vid=c0b307e2-f759-4feb-a351-9c4251bc7010"},"vehicle_type_id":"4","last_reported":1748732967,"current_range_meters":16400,"station_id":"ce4bgvp2rcd13ifvqcu0","pricing_plan_id":"cebpf4jnsgd1na2vs0mg"},{"bike_id":"edf637b9-92fd-46c7-9477-825412856041","system_id":"levelo_inurba_marseille","lat":43.284248,"lon":5.374972,"is_reserved":false,"is_disabled":false,"rental_uris":{"android":"levelo://app?vid=edf637b9-92fd-46c7-9477-825412856041","ios":"levelo://app?vid=edf637b9-92fd-46c7-9477-825412856041"},"vehicle_type_id":"4","last_reported":1748732967,"current_range_meters":16400,"station_id":"ce4bh412rcd13ifvqds0","pricing_plan_id":"cebpf4jnsgd1na2vs0mg"},{"bike_id":"8383e62b-0b10-4b24-92a9-4566d06eed9e","system_id":"levelo_inurba_marseille","lat":43.26556,"lon":5.37285,"is_reserved":false,"is_disabled":false,"rental_uris":{"android":"levelo://app?vid=8383e62b-0b10-4b24-92a9-4566d06eed9e","ios":"levelo://app?vid=8383e62b-0b10-4b24-92a9-4566d06eed9e"},"vehicle_type_id":"4","last_reported":1748732967,"current_range_meters":16400,"station_id":"ce4bhg12rcd13ifvqf70","pricing_plan_id":"cebpf4jnsgd1na2vs0mg"},{"bike_id":"542502f4-f239-4a10-a780-fcd2a372a574","system_id":"levelo_inurba_marseille","lat":43.294142,"lon":5.386079,"is_reserved":false,"is_disabled":false,"rental_uris":{"android":"levelo://app?vid=542502f4-f239-4a10-a780-fcd2a372a574","ios":"levelo://app?vid=542502f4-f239-4a10-a780-fcd2a372a574"},"vehicle_type_id":"4","last_reported":1748732967,"current_range_meters":16400,"station_id":"ce4bh2h2rcd13ifvqdh0","pricing_plan_id":"cebpf4jnsgd1na2vs0mg"},{"bike_id":"419c9ea0-63c1-4b53-91d9-e124ff5c9b08","system_id":"levelo_inurba_marseille","lat":43.26547,"lon":5.37289,"is_reserved":false,"is_disabled":false,"rental_uris":{"android":"levelo://app?vid=419c9ea0-63c1-4b53-91d9-e124ff5c9b08","ios":"levelo://app?vid=419c9ea0-63c1-4b53-91d9-e124ff5c9b08"},"vehicle_type_id":"4","last_reported":1748732967,"current_range_meters":16400,"station_id":"ce4bhg12rcd13ifvqf70","pricing_plan_id":"cebpf4jnsgd1na2vs0mg"},{"bike_id":"cbf07afc-c16d-4ee5-8632-cd9f5f03f8f1","system_id":"levelo_inurba_marseille","lat":43.28844,"lon":5.3932,"is_reserved":false,"is_disabled":false,"rental_uris":{"android":"levelo://app?vid=cbf07afc-c16d-4ee5-8632-cd9f5f03f8f1","ios":"levelo://app?vid=cbf07afc-c16d-4ee5-8632-cd9f5f03f8f1"},"vehicle_type_id":"4","last_reported":1748732967,"current_range_meters":16800,"station_id":"ce4bh2p2rcd13ifvqdi0","pricing_plan_id":"cebpf4jnsgd1na2vs0mg"},{"bike_id":"14f8545b-d3bf-45cc-87db-ed482fdcbd55","system_id":"levelo_inurba_marseille","lat":43.279707,"lon":5.3875,"is_reserved":false,"is_disabled":false,"rental_uris":{"android":"levelo://app?vid=14f8545b-d3bf-45cc-87db-ed482fdcbd55","ios":"levelo://app?vid=14f8545b-d3bf-45cc-87db-ed482fdcbd55"},"vehicle_type_id":"4","last_reported":1748732967,"current_range_meters":16800,"station_id":"ce4bhg12rcd13ifvqf80","pricing_plan_id":"cebpf4jnsgd1na2vs0mg"},{"bike_id":"8cfd1e43-5182-4de5-a13c-546c4ca21acc","system_id":"levelo_inurba_marseille","lat":43.29272,"lon":5.38443,"is_reserved":false,"is_disabled":false,"rental_uris":{"android":"levelo://app?vid=8cfd1e43-5182-4de5-a13c-546c4ca21acc","ios":"levelo://app?vid=8cfd1e43-5182-4de5-a13c-546c4ca21acc"},"vehicle_type_id":"4","last_reported":1748732967,"current_range_meters":16800,"station_id":"ce4bh692rcd13ifvqea0","pricing_plan_id":"cebpf4jnsgd1na2vs0mg"},{"bike_id":"bfd84e4a-7741-490a-a3a1-299e245a914d","system_id":"levelo_inurba_marseille","lat":43.29514,"lon":5.39041,"is_reserved":false,"is_disabled":false,"rental_uris":{"android":"levelo://app?vid=bfd84e4a-7741-490a-a3a1-299e245a914d","ios":"levelo://app?vid=bfd84e4a-7741-490a-a3a1-299e245a914d"},"vehicle_type_id":"4","last_reported":1748732967,"current_range_meters":16800,"station_id":"ce4bh3p2rcd13ifvqdp0","pricing_plan_id":"cebpf4jnsgd1na2vs0mg"},{"bike_id":"ee5ffabc-72dc-45f6-83d9-998f2f2fa084","system_id":"levelo_inurba_marseille","lat":43.29589,"lon":5.38619,"is_reserved":false,"is_disabled":false,"rental_uris":{"android":"levelo://app?vid=ee5ffabc-72dc-45f6-83d9-998f2f2fa084","ios":"levelo://app?vid=ee5ffabc-72dc-45f6-83d9-998f2f2fa084"},"vehicle_type_id":"4","last_reported":1748732967,"current_range_meters":16800,"station_id":"","pricing_plan_id":"cebpf4jnsgd1na2vs0mg"},{"bike_id":"54c3128d-720d-47ff-b7ac-bc29f1f74f4f","system_id":"levelo_inurba_marseille","lat":43.31498,"lon":5.3727,"is_reserved":false,"is_disabled":false,"rental_uris":{"android":"levelo://app?vid=54c3128d-720d-47ff-b7ac-bc29f1f74f4f","ios":"levelo://app?vid=54c3128d-720d-47ff-b7ac-bc29f1f74f4f"},"vehicle_type_id":"4","last_reported":1748732967,"current_range_meters":16800,"station_id":"ce4bgt12rcd13ifvqcd0","pricing_plan_id":"cebpf4jnsgd1na2vs0mg"},{"bike_id":"2aca13b4-91b6-42cd-9ffd-7b367fd10419","system_id":"levelo_inurba_marseille","lat":43.29527,"lon":5.39398,"is_reserved":false,"is_disabled":false,"rental_uris":{"android":"levelo://app?vid=2aca13b4-91b6-42cd-9ffd-7b367fd10419","ios":"levelo://app?vid=2aca13b4-91b6-42cd-9ffd-7b367fd10419"},"vehicle_type_id":"4","last_reported":1748732967,"current_range_meters":16800,"station_id":"ce4bh292rcd13ifvqdf0","pricing_plan_id":"cebpf4jnsgd1na2vs0mg"},{"bike_id":"ac544727-ac40-4349-be21-37fa150e6401","system_id":"levelo_inurba_marseille","lat":43.314887,"lon":5.372991,"is_reserved":false,"is_disabled":false,"rental_uris":{"android":"levelo://app?vid=ac544727-ac40-4349-be21-37fa150e6401","ios":"levelo://app?vid=ac544727-ac40-4349-be21-37fa150e6401"},"vehicle_type_id":"4","last_reported":1748732967,"current_range_meters":16800,"station_id":"ce4bgt12rcd13ifvqcd0","pricing_plan_id":"cebpf4jnsgd1na2vs0mg"},{"bike_id":"6327a378-f239-4ddf-aa21-15250eb706bc","system_id":"levelo_inurba_marseille","lat":43.28619,"lon":5.35102,"is_reserved":false,"is_disabled":false,"rental_uris":{"android":"levelo://app?vid=6327a378-f239-4ddf-aa21-15250eb706bc","ios":"levelo://app?vid=6327a378-f239-4ddf-aa21-15250eb706bc"},"vehicle_type_id":"4","last_reported":1748732967,"current_range_meters":17200,"station_id":"ce4bhch2rcd13ifvqeug","pricing_plan_id":"cebpf4jnsgd1na2vs0mg"},{"bike_id":"854a8873-d019-4b8c-b91a-c226f4301a09","system_id":"levelo_inurba_marseille","lat":43.310732,"lon":5.383471,"is_reserved":false,"is_disabled":false,"rental_uris":{"android":"levelo://app?vid=854a8873-d019-4b8c-b91a-c226f4301a09","ios":"levelo://app?vid=854a8873-d019-4b8c-b91a-c226f4301a09"},"vehicle_type_id":"4","last_reported":1748732967,"current_range_meters":17200,"station_id":"ce4bgv92rcd13ifvqcr0","pricing_plan_id":"cebpf4jnsgd1na2vs0mg"},{"bike_id":"b09a346f-8c22-449d-9678-c3e389ebcbd5","system_id":"levelo_inurba_marseille","lat":43.30929,"lon":5.40143,"is_reserved":false,"is_disabled":false,"rental_uris":{"android":"levelo://app?vid=b09a346f-8c22-449d-9678-c3e389ebcbd5","ios":"levelo://app?vid=b09a346f-8c22-449d-9678-c3e389ebcbd5"},"vehicle_type_id":"4","last_reported":1748732967,"current_range_meters":17200,"station_id":"ce4bgvp2rcd13ifvqct0","pricing_plan_id":"cebpf4jnsgd1na2vs0mg"},{"bike_id":"7cd3727b-b975-4453-b9ac-7b0e7f1eaf31","system_id":"levelo_inurba_marseille","lat":43.30522,"lon":5.36715,"is_reserved":false,"is_disabled":false,"rental_uris":{"android":"levelo://app?vid=7cd3727b-b975-4453-b9ac-7b0e7f1eaf31","ios":"levelo://app?vid=7cd3727b-b975-4453-b9ac-7b0e7f1eaf31"},"vehicle_type_id":"4","last_reported":1748732967,"current_range_meters":16800,"station_id":"ce4bgrp2rcd13ifvqc9g","pricing_plan_id":"cebpf4jnsgd1na2vs0mg"},{"bike_id":"6194bd11-cbbb-4e68-a441-7b6e267c9cf8","system_id":"levelo_inurba_marseille","lat":43.26282,"lon":5.37572,"is_reserved":false,"is_disabled":false,"rental_uris":{"android":"levelo://app?vid=6194bd11-cbbb-4e68-a441-7b6e267c9cf8","ios":"levelo://app?vid=6194bd11-cbbb-4e68-a441-7b6e267c9cf8"},"vehicle_type_id":"4","last_reported":1748732967,"current_range_meters":17200,"station_id":"","pricing_plan_id":"cebpf4jnsgd1na2vs0mg"},{"bike_id":"227be650-9377-43d2-bd5f-67e8a79cfbb7","system_id":"levelo_inurba_marseille","lat":43.29198,"lon":5.39323,"is_reserved":false,"is_disabled":false,"rental_uris":{"android":"levelo://app?vid=227be650-9377-43d2-bd5f-67e8a79cfbb7","ios":"levelo://app?vid=227be650-9377-43d2-bd5f-67e8a79cfbb7"},"vehicle_type_id":"4","last_reported":1748732967,"current_range_meters":17200,"station_id":"ce4bh192rcd13ifvqdd0","pricing_plan_id":"cebpf4jnsgd1na2vs0mg"},{"bike_id":"56a82e03-2118-4920-8b59-3795928c0c5d","system_id":"levelo_inurba_marseille","lat":43.278227,"lon":5.407021,"is_reserved":false,"is_disabled":false,"rental_uris":{"android":"levelo://app?vid=56a82e03-2118-4920-8b59-3795928c0c5d","ios":"levelo://app?vid=56a82e03-2118-4920-8b59-3795928c0c5d"},"vehicle_type_id":"4","last_reported":1748732967,"current_range_meters":17200,"station_id":"ce4bhnh2rcd13ifvqgtg","pricing_plan_id":"cebpf4jnsgd1na2vs0mg"},{"bike_id":"b5806e8c-065c-41e5-8415-4e8c05eadebe","system_id":"levelo_inurba_marseille","lat":43.29203,"lon":5.36063,"is_reserved":false,"is_disabled":true,"rental_uris":{"android":"levelo://app?vid=b5806e8c-065c-41e5-8415-4e8c05eadebe","ios":"levelo://app?vid=b5806e8c-065c-41e5-8415-4e8c05eadebe"},"vehicle_type_id":"4","last_reported":1748732967,"current_range_meters":17200,"station_id":"ce4bhbh2rcd13ifvqeqg","pricing_plan_id":"cebpf4jnsgd1na2vs0mg"},{"bike_id":"04941f08-5d18-45a6-9ffb-f9bf998bc84b","system_id":"levelo_inurba_marseille","lat":43.29249,"lon":5.38445,"is_reserved":false,"is_disabled":false,"rental_uris":{"android":"levelo://app?vid=04941f08-5d18-45a6-9ffb-f9bf998bc84b","ios":"levelo://app?vid=04941f08-5d18-45a6-9ffb-f9bf998bc84b"},"vehicle_type_id":"4","last_reported":1748732967,"current_range_meters":17600,"station_id":"ce4bh692rcd13ifvqea0","pricing_plan_id":"cebpf4jnsgd1na2vs0mg"},{"bike_id":"7fff8cf9-ce40-478f-b5a6-e2d40df87fa7","system_id":"levelo_inurba_marseille","lat":43.308936,"lon":5.371862,"is_reserved":false,"is_disabled":false,"rental_uris":{"android":"levelo://app?vid=7fff8cf9-ce40-478f-b5a6-e2d40df87fa7","ios":"levelo://app?vid=7fff8cf9-ce40-478f-b5a6-e2d40df87fa7"},"vehicle_type_id":"4","last_reported":1748732967,"current_range_meters":17600,"station_id":"ce4bguh2rcd13ifvqckg","pricing_plan_id":"cebpf4jnsgd1na2vs0mg"},{"bike_id":"9f79f261-ab1b-4db0-a513-8d06945d3b0c","system_id":"levelo_inurba_marseille","lat":43.29526,"lon":5.38545,"is_reserved":false,"is_disabled":false,"rental_uris":{"android":"levelo://app?vid=9f79f261-ab1b-4db0-a513-8d06945d3b0c","ios":"levelo://app?vid=9f79f261-ab1b-4db0-a513-8d06945d3b0c"},"vehicle_type_id":"4","last_reported":1748732967,"current_range_meters":17600,"station_id":"ce4bgih2rcd13ifvqba0","pricing_plan_id":"cebpf4jnsgd1na2vs0mg"},{"bike_id":"46ac384f-0c3b-4d99-b748-6316ae2ecb3e","system_id":"levelo_inurba_marseille","lat":43.24809,"lon":5.37456,"is_reserved":false,"is_disabled":false,"rental_uris":{"android":"levelo://app?vid=46ac384f-0c3b-4d99-b748-6316ae2ecb3e","ios":"levelo://app?vid=46ac384f-0c3b-4d99-b748-6316ae2ecb3e"},"vehicle_type_id":"4","last_reported":1748732967,"current_range_meters":17200,"station_id":"ce4bhgh2rcd13ifvqfb0","pricing_plan_id":"cebpf4jnsgd1na2vs0mg"},{"bike_id":"7f2c6dd7-c876-4477-804b-2ac28857adc8","system_id":"levelo_inurba_marseille","lat":43.308874,"lon":5.396484,"is_reserved":false,"is_disabled":false,"rental_uris":{"android":"levelo://app?vid=7f2c6dd7-c876-4477-804b-2ac28857adc8","ios":"levelo://app?vid=7f2c6dd7-c876-4477-804b-2ac28857adc8"},"vehicle_type_id":"4","last_reported":1748732967,"current_range_meters":17600,"station_id":"ce4bh012rcd13ifvqcv0","pricing_plan_id":"cebpf4jnsgd1na2vs0mg"},{"bike_id":"d3e73657-2c05-4fde-861c-8f40cd2af339","system_id":"levelo_inurba_marseille","lat":43.29259,"lon":5.38442,"is_reserved":false,"is_disabled":false,"rental_uris":{"android":"levelo://app?vid=d3e73657-2c05-4fde-861c-8f40cd2af339","ios":"levelo://app?vid=d3e73657-2c05-4fde-861c-8f40cd2af339"},"vehicle_type_id":"4","last_reported":1748732967,"current_range_meters":18000,"station_id":"ce4bh692rcd13ifvqea0","pricing_plan_id":"cebpf4jnsgd1na2vs0mg"},{"bike_id":"4a025033-859a-4988-a9e3-7f92e69f5bb1","system_id":"levelo_inurba_marseille","lat":43.2924,"lon":5.38453,"is_reserved":false,"is_disabled":false,"rental_uris":{"android":"levelo://app?vid=4a025033-859a-4988-a9e3-7f92e69f5bb1","ios":"levelo://app?vid=4a025033-859a-4988-a9e3-7f92e69f5bb1"},"vehicle_type_id":"4","last_reported":1748732967,"current_range_meters":18000,"station_id":"ce4bh692rcd13ifvqea0","pricing_plan_id":"cebpf4jnsgd1na2vs0mg"},{"bike_id":"964217b5-be20-4957-81ff-06efad4aee92","system_id":"levelo_inurba_marseille","lat":43.282717,"lon":5.350567,"is_reserved":false,"is_disabled":false,"rental_uris":{"android":"levelo://app?vid=964217b5-be20-4957-81ff-06efad4aee92","ios":"levelo://app?vid=964217b5-be20-4957-81ff-06efad4aee92"},"vehicle_type_id":"4","last_reported":1748732967,"current_range_meters":18000,"station_id":"ce4bhbp2rcd13ifvqerg","pricing_plan_id":"cebpf4jnsgd1na2vs0mg"},{"bike_id":"4566e4a6-424a-4a4a-8cf5-a2e37f48c38a","system_id":"levelo_inurba_marseille","lat":43.29269,"lon":5.38447,"is_reserved":false,"is_disabled":false,"rental_uris":{"android":"levelo://app?vid=4566e4a6-424a-4a4a-8cf5-a2e37f48c38a","ios":"levelo://app?vid=4566e4a6-424a-4a4a-8cf5-a2e37f48c38a"},"vehicle_type_id":"4","last_reported":1748732967,"current_range_meters":18000,"station_id":"ce4bh692rcd13ifvqea0","pricing_plan_id":"cebpf4jnsgd1na2vs0mg"},{"bike_id":"644bdb39-734a-4a89-a507-ea1fee04c1f3","system_id":"levelo_inurba_marseille","lat":43.31711,"lon":5.43704,"is_reserved":false,"is_disabled":false,"rental_uris":{"android":"levelo://app?vid=644bdb39-734a-4a89-a507-ea1fee04c1f3","ios":"levelo://app?vid=644bdb39-734a-4a89-a507-ea1fee04c1f3"},"vehicle_type_id":"4","last_reported":1748732967,"current_range_meters":18000,"station_id":"ce4bhp92rcd13ifvqhcg","pricing_plan_id":"cebpf4jnsgd1na2vs0mg"},{"bike_id":"97a58472-f76b-47e3-a716-281b120ccffa","system_id":"levelo_inurba_marseille","lat":43.27906,"lon":5.39584,"is_reserved":false,"is_disabled":true,"rental_uris":{"android":"levelo://app?vid=97a58472-f76b-47e3-a716-281b120ccffa","ios":"levelo://app?vid=97a58472-f76b-47e3-a716-281b120ccffa"},"vehicle_type_id":"4","last_reported":1748732967,"current_range_meters":18000,"station_id":"ce4bhf92rcd13ifvqf40","pricing_plan_id":"cebpf4jnsgd1na2vs0mg"},{"bike_id":"c55445bc-7a1c-4050-be45-58ba2783db5b","system_id":"levelo_inurba_marseille","lat":43.28847,"lon":5.39335,"is_reserved":false,"is_disabled":false,"rental_uris":{"android":"levelo://app?vid=c55445bc-7a1c-4050-be45-58ba2783db5b","ios":"levelo://app?vid=c55445bc-7a1c-4050-be45-58ba2783db5b"},"vehicle_type_id":"4","last_reported":1748732967,"current_range_meters":18800,"station_id":"ce4bh2p2rcd13ifvqdi0","pricing_plan_id":"cebpf4jnsgd1na2vs0mg"},{"bike_id":"3135d829-6363-42a4-bdfc-7b782c3c708e","system_id":"levelo_inurba_marseille","lat":43.28664,"lon":5.36328,"is_reserved":false,"is_disabled":true,"rental_uris":{"android":"levelo://app?vid=3135d829-6363-42a4-bdfc-7b782c3c708e","ios":"levelo://app?vid=3135d829-6363-42a4-bdfc-7b782c3c708e"},"vehicle_type_id":"4","last_reported":1748732967,"current_range_meters":18000,"station_id":"ce4bhah2rcd13ifvqej0","pricing_plan_id":"cebpf4jnsgd1na2vs0mg"},{"bike_id":"c7939822-b6b3-4548-8559-c67fdcf79521","system_id":"levelo_inurba_marseille","lat":43.30116,"lon":5.39858,"is_reserved":false,"is_disabled":false,"rental_uris":{"android":"levelo://app?vid=c7939822-b6b3-4548-8559-c67fdcf79521","ios":"levelo://app?vid=c7939822-b6b3-4548-8559-c67fdcf79521"},"vehicle_type_id":"4","last_reported":1748732967,"current_range_meters":18000,"station_id":"ce4bh0h2rcd13ifvqd40","pricing_plan_id":"cebpf4jnsgd1na2vs0mg"},{"bike_id":"7ab94cd2-b39d-4fc9-b9f5-ca04f27bf79a","system_id":"levelo_inurba_marseille","lat":43.308714,"lon":5.398111,"is_reserved":false,"is_disabled":false,"rental_uris":{"android":"levelo://app?vid=7ab94cd2-b39d-4fc9-b9f5-ca04f27bf79a","ios":"levelo://app?vid=7ab94cd2-b39d-4fc9-b9f5-ca04f27bf79a"},"vehicle_type_id":"4","last_reported":1748732967,"current_range_meters":18800,"station_id":"","pricing_plan_id":"cebpf4jnsgd1na2vs0mg"},{"bike_id":"dbe840bf-1d84-4bbd-8325-d8274364c3b8","system_id":"levelo_inurba_marseille","lat":43.28657,"lon":5.363628,"is_reserved":false,"is_disabled":false,"rental_uris":{"android":"levelo://app?vid=dbe840bf-1d84-4bbd-8325-d8274364c3b8","ios":"levelo://app?vid=dbe840bf-1d84-4bbd-8325-d8274364c3b8"},"vehicle_type_id":"4","last_reported":1748732967,"current_range_meters":18800,"station_id":"ce4bhah2rcd13ifvqej0","pricing_plan_id":"cebpf4jnsgd1na2vs0mg"},{"bike_id":"a1b95f2d-e07c-4dd3-b9da-0c9055290669","system_id":"levelo_inurba_marseille","lat":43.30908,"lon":5.3685,"is_reserved":false,"is_disabled":false,"rental_uris":{"android":"levelo://app?vid=a1b95f2d-e07c-4dd3-b9da-0c9055290669","ios":"levelo://app?vid=a1b95f2d-e07c-4dd3-b9da-0c9055290669"},"vehicle_type_id":"4","last_reported":1748732967,"current_range_meters":18800,"station_id":"ce4bgn92rcd13ifvqbvg","pricing_plan_id":"cebpf4jnsgd1na2vs0mg"},{"bike_id":"bee91618-6266-48b2-ae30-f7f89e154756","system_id":"levelo_inurba_marseille","lat":43.24159,"lon":5.39754,"is_reserved":false,"is_disabled":false,"rental_uris":{"android":"levelo://app?vid=bee91618-6266-48b2-ae30-f7f89e154756","ios":"levelo://app?vid=bee91618-6266-48b2-ae30-f7f89e154756"},"vehicle_type_id":"4","last_reported":1748732967,"current_range_meters":18800,"station_id":"ce4bhn12rcd13ifvqgpg","pricing_plan_id":"cebpf4jnsgd1na2vs0mg"},{"bike_id":"01d51a3b-bd36-4bae-b70d-feca5edf1a87","system_id":"levelo_inurba_marseille","lat":43.28123,"lon":5.39873,"is_reserved":false,"is_disabled":false,"rental_uris":{"android":"levelo://app?vid=01d51a3b-bd36-4bae-b70d-feca5edf1a87","ios":"levelo://app?vid=01d51a3b-bd36-4bae-b70d-feca5edf1a87"},"vehicle_type_id":"4","last_reported":1748732967,"current_range_meters":18800,"station_id":"","pricing_plan_id":"cebpf4jnsgd1na2vs0mg"},{"bike_id":"c2429b28-c4ab-4c5a-952b-4656120c21b2","system_id":"levelo_inurba_marseille","lat":43.316849,"lon":5.404701,"is_reserved":false,"is_disabled":false,"rental_uris":{"android":"levelo://app?vid=c2429b28-c4ab-4c5a-952b-4656120c21b2","ios":"levelo://app?vid=c2429b28-c4ab-4c5a-952b-4656120c21b2"},"vehicle_type_id":"4","last_reported":1748732967,"current_range_meters":18800,"station_id":"ce4bh012rcd13ifvqd00","pricing_plan_id":"cebpf4jnsgd1na2vs0mg"},{"bike_id":"87325329-d2fa-4cb7-b308-b34edbfda409","system_id":"levelo_inurba_marseille","lat":43.30544,"lon":5.36693,"is_reserved":false,"is_disabled":false,"rental_uris":{"android":"levelo://app?vid=87325329-d2fa-4cb7-b308-b34edbfda409","ios":"levelo://app?vid=87325329-d2fa-4cb7-b308-b34edbfda409"},"vehicle_type_id":"4","last_reported":1748732967,"current_range_meters":18800,"station_id":"ce4bgrp2rcd13ifvqc9g","pricing_plan_id":"cebpf4jnsgd1na2vs0mg"},