{"last_updated":1692111977,"ttl":30,"version":"2.2","data":{"bikes":[{"bike_id":"de6285dc-6e32-40d3-ad1f-b835b0e3819d","system_id":"levelo_inurba_marseille","lat":43.309039,"lon":5.371797,"is_reserved":false,"is_disabled":false,"rental_uris":{"android":"levelo://app?vid=de6285dc-6e32-40d3-ad1f-b835b0e3819d","ios":"levelo://app?vid=de6285dc-6e32-40d3-ad1f-b835b0e3819d"},"vehicle_type_id":"4","last_reported":1692111979,"current_range_meters":27600,"station_id":"ce4bguh2rcd13ifvqckg","pricing_plan_id":"free"},{"bike_id":"bce8b156-1659-40f9-893b-17b446ec7ed3","system_id":"levelo_inurba_marseille","lat":43.30552,"lon":5.36545,"is_reserved":false,"is_disabled":false,"rental_uris":{"android":"levelo://app?vid=bce8b156-1659-40f9-893b-17b446ec7ed3","ios":"levelo://app?vid=bce8b156-1659-40f9-893b-17b446ec7ed3"},"vehicle_type_id":"4","last_reported":1692111979,"current_range_meters":27200,"station_id":"ce4bgs12rcd13ifvqcag","pricing_plan_id":"free"},{"bike_id":"9fbe6e18-d192-44c2-98b5-cafb68b41aa4","system_id":"levelo_inurba_marseille","lat":43.3053,"lon":5.36538,"is_reserved":false,"is_disabled":false,"rental_uris":{"android":"levelo://app?vid=9fbe6e18-d192-44c2-98b5-cafb68b41aa4","ios":"levelo://app?vid=9fbe6e18-d192-44c2-98b5-cafb68b41aa4"},"vehicle_type_id":"4","last_reported":1692111979,"current_range_meters":29600,"station_id":"ce4bgs12rcd13ifvqcag","pricing_plan_id":"free"},{"bike_id":"8cc996d8-d540-4ff1-8fc6-232c9e19d15f","system_id":"levelo_inurba_marseille","lat":43.307945,"lon":5.376487,"is_reserved":false,"is_disabled":false,"rental_uris":{"android":"levelo://app?vid=8cc996d8-d540-4ff1-8fc6-232c9e19d15f","ios":"levelo://app?vid=8cc996d8-d540-4ff1-8fc6-232c9e19d15f"},"vehicle_type_id":"4","last_reported":1692111979,"current_range_meters":28000,"station_id":"ce4bgv92rcd13ifvqcq0","pricing_plan_id":"free"},{"bike_id":"cba8a2e1-bd65-4bc9-a9b9-cdaef2e47235","system_id":"levelo_inurba_marseille","lat":43.317075,"lon":5.377367,"is_reserved":false,"is_disabled":false,"rental_uris":{"android":"levelo://app?vid=cba8a2e1-bd65-4bc9-a9b9-cdaef2e47235","ios":"levelo://app?vid=cba8a2e1-bd65-4bc9-a9b9-cdaef2e47235"},"vehicle_type_id":"4","last_reported":1692111979,"current_range_meters":28400,"station_id":"ce4bgth2rcd13ifvqch0","pricing_plan_id":"free"},{"bike_id":"75f09d65-882c-4b98-9b00-7f8257d9b36e","system_id":"levelo_inurba_marseille","lat":43.317075,"lon":5.377367,"is_reserved":false,"is_disabled":false,"rental_uris":{"android":"levelo://app?vid=75f09d65-882c-4b98-9b00-7f8257d9b36e","ios":"levelo://app?vid=75f09d65-882c-4b98-9b00-7f8257d9b36e"},"vehicle_type_id":"4","last_reported":1692111979,"current_range_meters":31600,"station_id":"ce4bgth2rcd13ifvqch0","pricing_plan_id":"free"},{"bike_id":"43f190e1-7891-46ef-9651-a5eb9b517d54","system_id":"levelo_inurba_marseille","lat":43.317075,"lon":5.377367,"is_reserved":false,"is_disabled":false,"rental_uris":{"android":"levelo://app?vid=43f190e1-7891-46ef-9651-a5eb9b517d54","ios":"levelo://app?vid=43f190e1-7891-46ef-9651-a5eb9b517d54"},"vehicle_type_id":"4","last_reported":1692111979,"current_range_meters":30800,"station_id":"ce4bgth2rcd13ifvqch0","pricing_plan_id":"free"},{"bike_id":"ccde4fab-a619-4b85-80d1-631ae22c1186","system_id":"levelo_inurba_marseille","lat":43.317075,"lon":5.377367,"is_reserved":false,"is_disabled":false,"rental_uris":{"android":"levelo://app?vid=ccde4fab-a619-4b85-80d1-631ae22c1186","ios":"levelo://app?vid=ccde4fab-a619-4b85-80d1-631ae22c1186"},"vehicle_type_id":"4","last_reported":1692111979,"current_range_meters":30800,"station_id":"ce4bgth2rcd13ifvqch0","pricing_plan_id":"free"},{"bike_id":"de7e422c-72cd-43c3-8ab6-3bd536fd8669","system_id":"levelo_inurba_marseille","lat":43.317075,"lon":5.377367,"is_reserved":false,"is_disabled":false,"rental_uris":{"android":"levelo://app?vid=de7e422c-72cd-43c3-8ab6-3bd536fd8669","ios":"levelo://app?vid=de7e422c-72cd-43c3-8ab6-3bd536fd8669"},"vehicle_type_id":"4","last_reported":1692111979,"current_range_meters":31600,"station_id":"ce4bgth2rcd13ifvqch0","pricing_plan_id":"free"},{"bike_id":"3c6e2d36-4b30-421b-90e6-04392e26023a","system_id":"levelo_inurba_marseille","lat":43.317075,"lon":5.377367,"is_reserved":false,"is_disabled":false,"rental_uris":{"android":"levelo://app?vid=3c6e2d36-4b30-421b-90e6-04392e26023a","ios":"levelo://app?vid=3c6e2d36-4b30-421b-90e6-04392e26023a"},"vehicle_type_id":"4","last_reported":1692111979,"current_range_meters":20000,"station_id":"ce4bgth2rcd13ifvqch0","pricing_plan_id":"free"},{"bike_id":"60102b56-7cf6-469a-a6bb-7b1157bf5c06","system_id":"levelo_inurba_marseille","lat":43.31505,"lon":5.38046,"is_reserved":false,"is_disabled":false,"rental_uris":{"android":"levelo://app?vid=60102b56-7cf6-469a-a6bb-7b1157bf5c06","ios":"levelo://app?vid=60102b56-7cf6-469a-a6bb-7b1157bf5c06"},"vehicle_type_id":"4","last_reported":1692111979,"current_range_meters":31200,"station_id":"","pricing_plan_id":"free"},{"bike_id":"94e8f82e-89b0-4379-a694-0028b42ee842","system_id":"levelo_inurba_marseille","lat":43.30809,"lon":5.38136,"is_reserved":false,"is_disabled":false,"rental_uris":{"android":"levelo://app?vid=94e8f82e-89b0-4379-a694-0028b42ee842","ios":"levelo://app?vid=94e8f82e-89b0-4379-a694-0028b42ee842"},"vehicle_type_id":"4","last_reported":1692111979,"current_range_meters":6000,"station_id":"ce4bgt12rcd13ifvqce0","pricing_plan_id":"free"},{"bike_id":"48fabf1e-6109-4d8c-8d27-29b5cf20316a","system_id":"levelo_inurba_marseille","lat":43.307933,"lon":5.381676,"is_reserved":false,"is_disabled":false,"rental_uris":{"android":"levelo://app?vid=48fabf1e-6109-4d8c-8d27-29b5cf20316a","ios":"levelo://app?vid=48fabf1e-6109-4d8c-8d27-29b5cf20316a"},"vehicle_type_id":"4","last_reported":1692111979,"current_range_meters":28400,"station_id":"ce4bgt12rcd13ifvqce0","pricing_plan_id":"free"},{"bike_id":"ffff602a-bb6c-476f-b4e3-ea20f0d21b7c","system_id":"levelo_inurba_marseille","lat":43.302784,"lon":5.377158,"is_reserved":false,"is_disabled":false,"rental_uris":{"android":"levelo://app?vid=ffff602a-bb6c-476f-b4e3-ea20f0d21b7c","ios":"levelo://app?vid=ffff602a-bb6c-476f-b4e3-ea20f0d21b7c"},"vehicle_type_id":"4","last_reported":1692111979,"current_range_meters":28800,"station_id":"ce4bguh2rcd13ifvqcj0","pricing_plan_id":"free"},{"bike_id":"6ae0e151-ea32-494b-b8c1-48404754f87b","system_id":"levelo_inurba_marseille","lat":43.302784,"lon":5.377158,"is_reserved":false,"is_disabled":false,"rental_uris":{"android":"levelo://app?vid=6ae0e151-ea32-494b-b8c1-48404754f87b","ios":"levelo://app?vid=6ae0e151-ea32-494b-b8c1-48404754f87b"},"vehicle_type_id":"4","last_reported":1692111979,"current_range_meters":25600,"station_id":"ce4bguh2rcd13ifvqcj0","pricing_plan_id":"free"},{"bike_id":"f942aea9-b905-4405-929b-d7f7b203ebc0","system_id":"levelo_inurba_marseille","lat":43.31988,"lon":5.38145,"is_reserved":false,"is_disabled":false,"rental_uris":{"android":"levelo://app?vid=f942aea9-b905-4405-929b-d7f7b203ebc0","ios":"levelo://app?vid=f942aea9-b905-4405-929b-d7f7b203ebc0"},"vehicle_type_id":"4","last_reported":1692111979,"current_range_meters":14400,"station_id":"ce4bhr12rcd13ifvqhpg","pricing_plan_id":"free"},{"bike_id":"10ace6ff-ef76-4b4d-a04f-2ec52dd81c45","system_id":"levelo_inurba_marseille","lat":43.31988,"lon":5.38146,"is_reserved":false,"is_disabled":false,"rental_uris":{"android":"levelo://app?vid=10ace6ff-ef76-4b4d-a04f-2ec52dd81c45","ios":"levelo://app?vid=10ace6ff-ef76-4b4d-a04f-2ec52dd81c45"},"vehicle_type_id":"4","last_reported":1692111979,"current_range_meters":19600,"station_id":"ce4bhr12rcd13ifvqhpg","pricing_plan_id":"free"},{"bike_id":"9ded8d95-7296-47af-b354-67c64b538d28","system_id":"levelo_inurba_marseille","lat":43.31995,"lon":5.38144,"is_reserved":false,"is_disabled":false,"rental_uris":{"android":"levelo://app?vid=9ded8d95-7296-47af-b354-67c64b538d28","ios":"levelo://app?vid=9ded8d95-7296-47af-b354-67c64b538d28"},"vehicle_type_id":"4","last_reported":1692111979,"current_range_meters":24000,"station_id":"ce4bhr12rcd13ifvqhpg","pricing_plan_id":"free"},{"bike_id":"8257b402-9e5d-4065-83c8-88f3934663dd","system_id":"levelo_inurba_marseille","lat":43.319935,"lon":5.381699,"is_reserved":false,"is_disabled":false,"rental_uris":{"android":"levelo://app?vid=8257b402-9e5d-4065-83c8-88f3934663dd","ios":"levelo://app?vid=8257b402-9e5d-4065-83c8-88f3934663dd"},"vehicle_type_id":"4","last_reported":1692111979,"current_range_meters":15200,"station_id":"ce4bhr12rcd13ifvqhpg","pricing_plan_id":"free"},{"bike_id":"78abbae6-fb70-438b-804f-1c5ad07d176a","system_id":"levelo_inurba_marseille","lat":43.31998,"lon":5.38142,"is_reserved":false,"is_disabled":false,"rental_uris":{"android":"levelo://app?vid=78abbae6-fb70-438b-804f-1c5ad07d176a","ios":"levelo://app?vid=78abbae6-fb70-438b-804f-1c5ad07d176a"},"vehicle_type_id":"4","last_reported":1692111979,"current_range_meters":7600,"station_id":"ce4bhr12rcd13ifvqhpg","pricing_plan_id":"free"},{"bike_id":"6f8ef17a-7233-480b-bf5c-0670e618535f","system_id":"levelo_inurba_marseille","lat":43.31994,"lon":5.38146,"is_reserved":false,"is_disabled":false,"rental_uris":{"android":"levelo://app?vid=6f8ef17a-7233-480b-bf5c-0670e618535f","ios":"levelo://app?vid=6f8ef17a-7233-480b-bf5c-0670e618535f"},"vehicle_type_id":"4","last_reported":1692111979,"current_range_meters":21600,"station_id":"ce4bhr12rcd13ifvqhpg","pricing_plan_id":"free"},{"bike_id":"6a62258e-28a8-4c03-b468-e7ee8977190a","system_id":"levelo_inurba_marseille","lat":43.31999,"lon":5.38144,"is_reserved":false,"is_disabled":false,"rental_uris":{"android":"levelo://app?vid=6a62258e-28a8-4c03-b468-e7ee8977190a","ios":"levelo://app?vid=6a62258e-28a8-4c03-b468-e7ee8977190a"},"vehicle_type_id":"4","last_reported":1692111979,"current_range_meters":28800,"station_id":"ce4bhr12rcd13ifvqhpg","pricing_plan_id":"free"},{"bike_id":"c17c70c2-0b4d-4d13-87b6-0d4475584bb3","system_id":"levelo_inurba_marseille","lat":43.31997,"lon":5.38162,"is_reserved":false,"is_disabled":false,"rental_uris":{"android":"levelo://app?vid=c17c70c2-0b4d-4d13-87b6-0d4475584bb3","ios":"levelo://app?vid=c17c70c2-0b4d-4d13-87b6-0d4475584bb3"},"vehicle_type_id":"4","last_reported":1692111979,"current_range_meters":9600,"station_id":"ce4bhr12rcd13ifvqhpg","pricing_plan_id":"free"},{"bike_id":"9e938eac-fe10-40d6-9a10-71a984405671","system_id":"levelo_inurba_marseille","lat":43.29849,"lon":5.36287,"is_reserved":false,"is_disabled":false,"rental_uris":{"android":"levelo://app?vid=9e938eac-fe10-40d6-9a10-71a984405671","ios":"levelo://app?vid=9e938eac-fe10-40d6-9a10-71a984405671"},"vehicle_type_id":"4","last_reported":1692111979,"current_range_meters":22800,"station_id":"ce4bgpp2rcd13ifvqc3g","pricing_plan_id":"free"},{"bike_id":"eda062bf-18e8-4eb2-b69b-3806f2751df0","system_id":"levelo_inurba_marseille","lat":43.298433,"lon":5.362774,"is_reserved":false,"is_disabled":false,"rental_uris":{"android":"levelo://app?vid=eda062bf-18e8-4eb2-b69b-3806f2751df0","ios":"levelo://app?vid=eda062bf-18e8-4eb2-b69b-3806f2751df0"},"vehicle_type_id":"4","last_reported":1692111979,"current_range_meters":16800,"station_id":"ce4bgpp2rcd13ifvqc3g","pricing_plan_id":"free"},{"bike_id":"ba19252a-4ee5-4d21-a31e-b70390efaea3","system_id":"levelo_inurba_marseille","lat":43.298433,"lon":5.362774,"is_reserved":false,"is_disabled":false,"rental_uris":{"android":"levelo://app?vid=ba19252a-4ee5-4d21-a31e-b70390efaea3","ios":"levelo://app?vid=ba19252a-4ee5-4d21-a31e-b70390efaea3"},"vehicle_type_id":"4","last_reported":1692111979,"current_range_meters":6400,"station_id":"ce4bgpp2rcd13ifvqc3g","pricing_plan_id":"free"},{"bike_id":"40d61921-eefb-499e-ac11-2e37aa404bf1","system_id":"levelo_inurba_marseille","lat":43.32285,"lon":5.38256,"is_reserved":false,"is_disabled":false,"rental_uris":{"android":"levelo://app?vid=40d61921-eefb-499e-ac11-2e37aa404bf1","ios":"levelo://app?vid=40d61921-eefb-499e-ac11-2e37aa404bf1"},"vehicle_type_id":"4","last_reported":1692111979,"current_range_meters":10000,"station_id":"ce4bhr12rcd13ifvqhqg","pricing_plan_id":"free"},{"bike_id":"bded37d9-fa3d-4a53-adec-d8a907c4aaf0","system_id":"levelo_inurba_marseille","lat":43.322872,"lon":5.382756,"is_reserved":false,"is_disabled":false,"rental_uris":{"android":"levelo://app?vid=bded37d9-fa3d-4a53-adec-d8a907c4aaf0","ios":"levelo://app?vid=bded37d9-fa3d-4a53-adec-d8a907c4aaf0"},"vehicle_type_id":"4","last_reported":1692111979,"current_range_meters":30400,"station_id":"ce4bhr12rcd13ifvqhqg","pricing_plan_id":"free"},{"bike_id":"c6b539db-5b03-411d-8927-985ab9f2f17e","system_id":"levelo_inurba_marseille","lat":43.32285,"lon":5.38263,"is_reserved":false,"is_disabled":false,"rental_uris":{"android":"levelo://app?vid=c6b539db-5b03-411d-8927-985ab9f2f17e","ios":"levelo://app?vid=c6b539db-5b03-411d-8927-985ab9f2f17e"},"vehicle_type_id":"4","last_reported":1692111979,"current_range_meters":6000,"station_id":"ce4bhr12rcd13ifvqhqg","pricing_plan_id":"free"},{"bike_id":"913ad8d8-ff4a-402b-845d-993d8ad47139","system_id":"levelo_inurba_marseille","lat":43.32282,"lon":5.38267,"is_reserved":false,"is_disabled":false,"rental_uris":{"android":"levelo://app?vid=913ad8d8-ff4a-402b-845d-993d8ad47139","ios":"levelo://app?vid=913ad8d8-ff4a-402b-845d-993d8ad47139"},"vehicle_type_id":"4","last_reported":1692111979,"current_range_meters":5200,"station_id":"ce4bhr12rcd13ifvqhqg","pricing_plan_id":"free"},{"bike_id":"be2dbf05-e75a-434c-8474-c4fc485123e4","system_id":"levelo_inurba_marseille","lat":43.32286,"lon":5.38263,"is_reserved":false,"is_disabled":false,"rental_uris":{"android":"levelo://app?vid=be2dbf05-e75a-434c-8474-c4fc485123e4","ios":"levelo://app?vid=be2dbf05-e75a-434c-8474-c4fc485123e4"},"vehicle_type_id":"4","last_reported":1692111979,"current_range_meters":10800,"station_id":"ce4bhr12rcd13ifvqhqg","pricing_plan_id":"free"},{"bike_id":"1bf667cf-3514-4a07-b0cc-6779ab8ce747","system_id":"levelo_inurba_marseille","lat":43.322872,"lon":5.382756,"is_reserved":false,"is_disabled":false,"rental_uris":{"android":"levelo://app?vid=1bf667cf-3514-4a07-b0cc-6779ab8ce747","ios":"levelo://app?vid=1bf667cf-3514-4a07-b0cc-6779ab8ce747"},"vehicle_type_id":"4","last_reported":1692111979,"current_range_meters":20400,"station_id":"ce4bhr12rcd13ifvqhqg","pricing_plan_id":"free"},{"bike_id":"0920391e-69e3-4df2-b622-a24af4e50927","system_id":"levelo_inurba_marseille","lat":43.32289,"lon":5.38266,"is_reserved":false,"is_disabled":false,"rental_uris":{"android":"levelo://app?vid=0920391e-69e3-4df2-b622-a24af4e50927","ios":"levelo://app?vid=0920391e-69e3-4df2-b622-a24af4e50927"},"vehicle_type_id":"4","last_reported":1692111979,"current_range_meters":12000,"station_id":"ce4bhr12rcd13ifvqhqg","pricing_plan_id":"free"},{"bike_id":"63c7f395-d84e-4403-8b6b-575626818765","system_id":"levelo_inurba_marseille","lat":43.32291,"lon":5.38275,"is_reserved":false,"is_disabled":false,"rental_uris":{"android":"levelo://app?vid=63c7f395-d84e-4403-8b6b-575626818765","ios":"levelo://app?vid=63c7f395-d84e-4403-8b6b-575626818765"},"vehicle_type_id":"4","last_reported":1692111979,"current_range_meters":21200,"station_id":"ce4bhr12rcd13ifvqhqg","pricing_plan_id":"free"},{"bike_id":"1736c7ba-8528-4e9d-b0b7-74e427fcc3c4","system_id":"levelo_inurba_marseille","lat":43.328371,"lon":5.366909,"is_reserved":false,"is_disabled":false,"rental_uris":{"android":"levelo://app?vid=1736c7ba-8528-4e9d-b0b7-74e427fcc3c4","ios":"levelo://app?vid=1736c7ba-8528-4e9d-b0b7-74e427fcc3c4"},"vehicle_type_id":"4","last_reported":1692111979,"current_range_meters":15200,"station_id":"ce4bhs92rcd13ifvqi0g","pricing_plan_id":"free"},{"bike_id":"7a379839-87fc-4106-aec0-245d7b5a467b","system_id":"levelo_inurba_marseille","lat":43.328371,"lon":5.366909,"is_reserved":false,"is_disabled":false,"rental_uris":{"android":"levelo://app?vid=7a379839-87fc-4106-aec0-245d7b5a467b","ios":"levelo://app?vid=7a379839-87fc-4106-aec0-245d7b5a467b"},"vehicle_type_id":"4","last_reported":1692111979,"current_range_meters":20000,"station_id":"ce4bhs92rcd13ifvqi0g","pricing_plan_id":"free"},{"bike_id":"4ed96fad-2e51-49a2-879d-e8c05ef80263","system_id":"levelo_inurba_marseille","lat":43.32828,"lon":5.36672,"is_reserved":false,"is_disabled":false,"rental_uris":{"android":"levelo://app?vid=4ed96fad-2e51-49a2-879d-e8c05ef80263","ios":"levelo://app?vid=4ed96fad-2e51-49a2-879d-e8c05ef80263"},"vehicle_type_id":"4","last_reported":1692111979,"current_range_meters":20000,"station_id":"ce4bhs92rcd13ifvqi0g","pricing_plan_id":"free"},{"bike_id":"df80a436-77c5-45a5-bc80-336a70ffbd1b","system_id":"levelo_inurba_marseille","lat":43.328371,"lon":5.366909,"is_reserved":false,"is_disabled":false,"rental_uris":{"android":"levelo://app?vid=df80a436-77c5-45a5-bc80-336a70ffbd1b","ios":"levelo://app?vid=df80a436-77c5-45a5-bc80-336a70ffbd1b"},"vehicle_type_id":"4","last_reported":1692111979,"current_range_meters":20800,"station_id":"ce4bhs92rcd13ifvqi0g","pricing_plan_id":"free"},{"bike_id":"83d0e9de-e26f-40b3-b21d-96ce8cae7678","system_id":"levelo_inurba_marseille","lat":43.29711,"lon":5.36602,"is_reserved":false,"is_disabled":false,"rental_uris":{"android":"levelo://app?vid=83d0e9de-e26f-40b3-b21d-96ce8cae7678","ios":"levelo://app?vid=83d0e9de-e26f-40b3-b21d-96ce8cae7678"},"vehicle_type_id":"4","last_reported":1692111979,"current_range_meters":26000,"station_id":"ce4bgn12rcd13ifvqbt0","pricing_plan_id":"free"},{"bike_id":"dd789220-e7b5-42c1-b9dc-dc4243148021","system_id":"levelo_inurba_marseille","lat":43.2971,"lon":5.36597,"is_reserved":false,"is_disabled":false,"rental_uris":{"android":"levelo://app?vid=dd789220-e7b5-42c1-b9dc-dc4243148021","ios":"levelo://app?vid=dd789220-e7b5-42c1-b9dc-dc4243148021"},"vehicle_type_id":"4","last_reported":1692111979,"current_range_meters":31200,"station_id":"ce4bgn12rcd13ifvqbt0","pricing_plan_id":"free"},{"bike_id":"731aec6b-c818-40a7-902f-89d064523c77","system_id":"levelo_inurba_marseille","lat":43.29708,"lon":5.366,"is_reserved":false,"is_disabled":false,"rental_uris":{"android":"levelo://app?vid=731aec6b-c818-40a7-902f-89d064523c77","ios":"levelo://app?vid=731aec6b-c818-40a7-902f-89d064523c77"},"vehicle_type_id":"4","last_reported":1692111979,"current_range_meters":6000,"station_id":"ce4bgn12rcd13ifvqbt0","pricing_plan_id":"free"},{"bike_id":"6606e793-0066-40cc-9adf-9ece4a933bfb","system_id":"levelo_inurba_marseille","lat":43.297163,"lon":5.365866,"is_reserved":false,"is_disabled":false,"rental_uris":{"android":"levelo://app?vid=6606e793-0066-40cc-9adf-9ece4a933bfb","ios":"levelo://app?vid=6606e793-0066-40cc-9adf-9ece4a933bfb"},"vehicle_type_id":"4","last_reported":1692111979,"current_range_meters":26800,"station_id":"ce4bgn12rcd13ifvqbt0","pricing_plan_id":"free"},{"bike_id":"5313bfb5-5ab0-4eb8-9162-407098f9d2cf","system_id":"levelo_inurba_marseille","lat":43.2968,"lon":5.37291,"is_reserved":false,"is_disabled":false,"rental_uris":{"android":"levelo://app?vid=5313bfb5-5ab0-4eb8-9162-407098f9d2cf","ios":"levelo://app?vid=5313bfb5-5ab0-4eb8-9162-407098f9d2cf"},"vehicle_type_id":"4","last_reported":1692111979,"current_range_meters":4000,"station_id":"ce4bgk12rcd13ifvqbj0","pricing_plan_id":"free"},{"bike_id":"0c16fd08-1d8d-44ab-8fd3-7ffb6e7e61a0","system_id":"levelo_inurba_marseille","lat":43.296131,"lon":5.370791,"is_reserved":false,"is_disabled":false,"rental_uris":{"android":"levelo://app?vid=0c16fd08-1d8d-44ab-8fd3-7ffb6e7e61a0","ios":"levelo://app?vid=0c16fd08-1d8d-44ab-8fd3-7ffb6e7e61a0"},"vehicle_type_id":"4","last_reported":1692111979,"current_range_meters":31600,"station_id":"ce4bgnh2rcd13ifvqc0g","pricing_plan_id":"free"},{"bike_id":"80de24da-7b54-4238-a414-a77ca6cb5115","system_id":"levelo_inurba_marseille","lat":43.299028,"lon":5.381509,"is_reserved":false,"is_disabled":false,"rental_uris":{"android":"levelo://app?vid=80de24da-7b54-4238-a414-a77ca6cb5115","ios":"levelo://app?vid=80de24da-7b54-4238-a414-a77ca6cb5115"},"vehicle_type_id":"4","last_reported":1692111979,"current_range_meters":5200,"station_id":"ce4bgj12rcd13ifvqbc0","pricing_plan_id":"free"},{"bike_id":"1d58462d-28ca-4731-9118-3faa71b01279","system_id":"levelo_inurba_marseille","lat":43.296921,"lon":5.376579,"is_reserved":false,"is_disabled":false,"rental_uris":{"android":"levelo://app?vid=1d58462d-28ca-4731-9118-3faa71b01279","ios":"levelo://app?vid=1d58462d-28ca-4731-9118-3faa71b01279"},"vehicle_type_id":"4","last_reported":1692111979,"current_range_meters":18800,"station_id":"ce4bgkh2rcd13ifvqbl0","pricing_plan_id":"free"},{"bike_id":"fd2eade0-5622-4b40-a82d-886b95fecad6","system_id":"levelo_inurba_marseille","lat":43.296935,"lon":5.376544,"is_reserved":false,"is_disabled":false,"rental_uris":{"android":"levelo://app?vid=fd2eade0-5622-4b40-a82d-886b95fecad6","ios":"levelo://app?vid=fd2eade0-5622-4b40-a82d-886b95fecad6"},"vehicle_type_id":"4","last_reported":1692111979,"current_range_meters":6800,"station_id":"ce4bgkh2rcd13ifvqbl0","pricing_plan_id":"free"},{"bike_id":"30505ab9-b693-41ed-8987-351afb2fdbd5","system_id":"levelo_inurba_marseille","lat":43.317557,"lon":5.390173,"is_reserved":false,"is_disabled":false,"rental_uris":{"android":"levelo://app?vid=30505ab9-b693-41ed-8987-351afb2fdbd5","ios":"levelo://app?vid=30505ab9-b693-41ed-8987-351afb2fdbd5"},"vehicle_type_id":"4","last_reported":1692111979,"current_range_meters":31200,"station_id":"ce4bhqp2rcd13ifvqhng","pricing_plan_id":"free"},{"bike_id":"51010648-b164-42c9-b5d4-5d71495a7202","system_id":"levelo_inurba_marseille","lat":43.304278,"lon":5.388868,"is_reserved":false,"is_disabled":false,"rental_uris":{"android":"levelo://app?vid=51010648-b164-42c9-b5d4-5d71495a7202","ios":"levelo://app?vid=51010648-b164-42c9-b5d4-5d71495a7202"},"vehicle_type_id":"4","last_reported":1692111979,"current_range_meters":18400,"station_id":"ce4bgk12rcd13ifvqbi0","pricing_plan_id":"free"},{"bike_id":"a4df99ce-0488-49dd-a888-94686f562e88","system_id":"levelo_inurba_marseille","lat":43.295748,"lon":5.37522,"is_reserved":false,"is_disabled":false,"rental_uris":{"android":"levelo://app?vid=a4df99ce-0488-49dd-a888-94686f562e88","ios":"levelo://app?vid=a4df99ce-0488-49dd-a888-94686f562e88"},"vehicle_type_id":"4","last_reported":1692111979,"current_range_meters":31600,"station_id":"ce4bgh92rcd13ifvqb50","pricing_plan_id":"free"},{"bike_id":"6c458c9d-3acd-4a21-bb27-a5036c722764","system_id":"levelo_inurba_marseille","lat":43.296263,"lon":5.377094,"is_reserved":false,"is_disabled":false,"rental_uris":{"android":"levelo://app?vid=6c458c9d-3acd-4a21-bb27-a5036c722764","ios":"levelo://app?vid=6c458c9d-3acd-4a21-bb27-a5036c722764"},"vehicle_type_id":"4","last_reported":1692111979,"current_range_meters":28000,"station_id":"ce4bgi92rcd13ifvqb90","pricing_plan_id":"free"},{"bike_id":"bbdc8b28-8918-4686-b61a-6ea94dad136c","system_id":"levelo_inurba_marseille","lat":43.299707,"lon":5.384859,"is_reserved":false,"is_disabled":false,"rental_uris":{"android":"levelo://app?vid=bbdc8b28-8918-4686-b61a-6ea94dad136c","ios":"levelo://app?vid=bbdc8b28-8918-4686-b61a-6ea94dad136c"},"vehicle_type_id":"4","last_reported":1692111979,"current_range_meters":15200,"station_id":"ce4bgj92rcd13ifvqbd0","pricing_plan_id":"free"},{"bike_id":"247d114d-7749-4c55-bde3-a341dbbd1415","system_id":"levelo_inurba_marseille","lat":43.32364,"lon":5.38886,"is_reserved":false,"is_disabled":false,"rental_uris":{"android":"levelo://app?vid=247d114d-7749-4c55-bde3-a341dbbd1415","ios":"levelo://app?vid=247d114d-7749-4c55-bde3-a341dbbd1415"},"vehicle_type_id":"4","last_reported":1692111979,"current_range_meters":15200,"station_id":"ce4bhqp2rcd13ifvqhog","pricing_plan_id":"free"},{"bike_id":"e7901a19-3ab5-489f-9517-7aef53ba24b2","system_id":"levelo_inurba_marseille","lat":43.32367,"lon":5.388836,"is_reserved":false,"is_disabled":false,"rental_uris":{"android":"levelo://app?vid=e7901a19-3ab5-489f-9517-7aef53ba24b2","ios":"levelo://app?vid=e7901a19-3ab5-489f-9517-7aef53ba24b2"},"vehicle_type_id":"4","last_reported":1692111979,"current_range_meters":16400,"station_id":"ce4bhqp2rcd13ifvqhog","pricing_plan_id":"free"},{"bike_id":"a51dbb53-4511-4998-8c22-4c879a043f32","system_id":"levelo_inurba_marseille","lat":43.29406,"lon":5.36006,"is_reserved":false,"is_disabled":false,"rental_uris":{"android":"levelo://app?vid=a51dbb53-4511-4998-8c22-4c879a043f32","ios":"levelo://app?vid=a51dbb53-4511-4998-8c22-4c879a043f32"},"vehicle_type_id":"4","last_reported":1692111979,"current_range_meters":20000,"station_id":"","pricing_plan_id":"free"},{"bike_id":"dbe406a0-e31d-4174-932b-0d8d584d17c2","system_id":"levelo_inurba_marseille","lat":43.292749,"lon":5.368398,"is_reserved":false,"is_disabled":false,"rental_uris":{"android":"levelo://app?vid=dbe406a0-e31d-4174-932b-0d8d584d17c2","ios":"levelo://app?vid=dbe406a0-e31d-4174-932b-0d8d584d17c2"},"vehicle_type_id":"4","last_reported":1692111979,"current_range_meters":30400,"station_id":"ce4bhbp2rcd13ifvqesg","pricing_plan_id":"free"},{"bike_id":"41b4b34f-e27d-4a5b-84bb-2823d6fce0ab","system_id":"levelo_inurba_marseille","lat":43.30312,"lon":5.39212,"is_reserved":false,"is_disabled":false,"rental_uris":{"android":"levelo://app?vid=41b4b34f-e27d-4a5b-84bb-2823d6fce0ab","ios":"levelo://app?vid=41b4b34f-e27d-4a5b-84bb-2823d6fce0ab"},"vehicle_type_id":"4","last_reported":1692111979,"current_range_meters":8000,"station_id":"ce4bgkh2rcd13ifvqbk0","pricing_plan_id":"free"},{"bike_id":"16d95a24-a38d-4bfd-980b-2807ce3956df","system_id":"levelo_inurba_marseille","lat":43.30312,"lon":5.39213,"is_reserved":false,"is_disabled":false,"rental_uris":{"android":"levelo://app?vid=16d95a24-a38d-4bfd-980b-2807ce3956df","ios":"levelo://app?vid=16d95a24-a38d-4bfd-980b-2807ce3956df"},"vehicle_type_id":"4","last_reported":1692111979,"current_range_meters":27200,"station_id":"ce4bgkh2rcd13ifvqbk0","pricing_plan_id":"free"},{"bike_id":"723144db-e763-406b-be35-7b0c300d6f83","system_id":"levelo_inurba_marseille","lat":43.300852,"lon":5.390859,"is_reserved":false,"is_disabled":false,"rental_uris":{"android":"levelo://app?vid=723144db-e763-406b-be35-7b0c300d6f83","ios":"levelo://app?vid=723144db-e763-406b-be35-7b0c300d6f83"},"vehicle_type_id":"4","last_reported":1692111979,"current_range_meters":31200,"station_id":"ce4bh192rcd13ifvqdb0","pricing_plan_id":"free"},{"bike_id":"22ca7178-4ccb-4d48-a157-09bda67743da","system_id":"levelo_inurba_marseille","lat":43.29881,"lon":5.38906,"is_reserved":false,"is_disabled":false,"rental_uris":{"android":"levelo://app?vid=22ca7178-4ccb-4d48-a157-09bda67743da","ios":"levelo://app?vid=22ca7178-4ccb-4d48-a157-09bda67743da"},"vehicle_type_id":"4","last_reported":1692111979,"current_range_meters":30000,"station_id":"ce4bh392rcd13ifvqdl0","pricing_plan_id":"free"},{"bike_id":"f8ab42e1-17ed-4122-b0b9-a032d9bf6bfa","system_id":"levelo_inurba_marseille","lat":43.298822,"lon":5.389135,"is_reserved":false,"is_disabled":false,"rental_uris":{"android":"levelo://app?vid=f8ab42e1-17ed-4122-b0b9-a032d9bf6bfa","ios":"levelo://app?vid=f8ab42e1-17ed-4122-b0b9-a032d9bf6bfa"},"vehicle_type_id":"4","last_reported":1692111979,"current_range_meters":800,"station_id":"ce4bh392rcd13ifvqdl0","pricing_plan_id":"free"},{"bike_id":"6b53150f-27e8-453f-8273-fad0683e411c","system_id":"levelo_inurba_marseille","lat":43.29873,"lon":5.38908,"is_reserved":false,"is_disabled":false,"rental_uris":{"android":"levelo://app?vid=6b53150f-27e8-453f-8273-fad0683e411c","ios":"levelo://app?vid=6b53150f-27e8-453f-8273-fad0683e411c"},"vehicle_type_id":"4","last_reported":1692111979,"current_range_meters":26400,"station_id":"ce4bh392rcd13ifvqdl0","pricing_plan_id":"free"},{"bike_id":"60c9d490-8d40-4d0c-944c-3e9d42274823","system_id":"levelo_inurba_marseille","lat":43.29185,"lon":5.35793,"is_reserved":false,"is_disabled":false,"rental_uris":{"android":"levelo://app?vid=60c9d490-8d40-4d0c-944c-3e9d42274823","ios":"levelo://app?vid=60c9d490-8d40-4d0c-944c-3e9d42274823"},"vehicle_type_id":"4","last_reported":1692111979,"current_range_meters":9200,"station_id":"ce4bhb12rcd13ifvqel0","pricing_plan_id":"free"},{"bike_id":"d2e08e33-7ce2-4f34-bf06-09c9d37bd158","system_id":"levelo_inurba_marseille","lat":43.309038,"lon":5.396546,"is_reserved":false,"is_disabled":false,"rental_uris":{"android":"levelo://app?vid=d2e08e33-7ce2-4f34-bf06-09c9d37bd158","ios":"levelo://app?vid=d2e08e33-7ce2-4f34-bf06-09c9d37bd158"},"vehicle_type_id":"4","last_reported":1692111979,"current_range_meters":20800,"station_id":"ce4bh012rcd13ifvqcv0","pricing_plan_id":"free"},{"bike_id":"31ba4ed3-c78e-4e1d-8ce8-9093a75e6ed8","system_id":"levelo_inurba_marseille","lat":43.29529,"lon":5.385581,"is_reserved":false,"is_disabled":false,"rental_uris":{"android":"levelo://app?vid=31ba4ed3-c78e-4e1d-8ce8-9093a75e6ed8","ios":"levelo://app?vid=31ba4ed3-c78e-4e1d-8ce8-9093a75e6ed8"},"vehicle_type_id":"4","last_reported":1692111979,"current_range_meters":7200,"station_id":"ce4bgih2rcd13ifvqba0","pricing_plan_id":"free"},{"bike_id":"9d991f4a-719e-41b2-a005-120354483985","system_id":"levelo_inurba_marseille","lat":43.290779,"lon":5.371482,"is_reserved":false,"is_disabled":false,"rental_uris":{"android":"levelo://app?vid=9d991f4a-719e-41b2-a005-120354483985","ios":"levelo://app?vid=9d991f4a-719e-41b2-a005-120354483985"},"vehicle_type_id":"4","last_reported":1692111979,"current_range_meters":11200,"station_id":"ce4bh5p2rcd13ifvqe4g","pricing_plan_id":"free"},{"bike_id":"b41947a5-a387-4a56-9f4f-bbe3d0b9556f","system_id":"levelo_inurba_marseille","lat":43.302008,"lon":5.394694,"is_reserved":false,"is_disabled":false,"rental_uris":{"android":"levelo://app?vid=b41947a5-a387-4a56-9f4f-bbe3d0b9556f","ios":"levelo://app?vid=b41947a5-a387-4a56-9f4f-bbe3d0b9556f"},"vehicle_type_id":"4","last_reported":1692111979,"current_range_meters":22400,"station_id":"ce4bh0p2rcd13ifvqd70","pricing_plan_id":"free"},{"bike_id":"8d5ed8d6-dc9b-4d26-bb88-2b63b0c86f1a","system_id":"levelo_inurba_marseille","lat":43.289184,"lon":5.366408,"is_reserved":false,"is_disabled":false,"rental_uris":{"android":"levelo://app?vid=8d5ed8d6-dc9b-4d26-bb88-2b63b0c86f1a","ios":"levelo://app?vid=8d5ed8d6-dc9b-4d26-bb88-2b63b0c86f1a"},"vehicle_type_id":"4","last_reported":1692111979,"current_range_meters":20400,"station_id":"ce4bhap2rcd13ifvqek0","pricing_plan_id":"free"},{"bike_id":"29ecd8b0-ac89-48be-825f-d3eec9aa07f8","system_id":"levelo_inurba_marseille","lat":43.294153,"lon":5.386305,"is_reserved":false,"is_disabled":false,"rental_uris":{"android":"levelo://app?vid=29ecd8b0-ac89-48be-825f-d3eec9aa07f8","ios":"levelo://app?vid=29ecd8b0-ac89-48be-825f-d3eec9aa07f8"},"vehicle_type_id":"4","last_reported":1692111979,"current_range_meters":16400,"station_id":"ce4bh2h2rcd13ifvqdh0","pricing_plan_id":"free"},{"bike_id":"312eca0c-e645-497c-925f-196cf3986ca0","system_id":"levelo_inurba_marseille","lat":43.289184,"lon":5.366408,"is_reserved":false,"is_disabled":false,"rental_uris":{"android":"levelo://app?vid=312eca0c-e645-497c-925f-196cf3986ca0","ios":"levelo://app?vid=312eca0c-e645-497c-925f-196cf3986ca0"},"vehicle_type_id":"4","last_reported":1692111979,"current_range_meters":6400,"station_id":"ce4bhap2rcd13ifvqek0","pricing_plan_id":"free"},{"bike_id":"fbbe9e00-ce5b-4452-81b4-ce0422552ccc","system_id":"levelo_inurba_marseille","lat":43.289184,"lon":5.366408,"is_reserved":false,"is_disabled":false,"rental_uris":{"android":"levelo://app?vid=fbbe9e00-ce5b-4452-81b4-ce0422552ccc","ios":"levelo://app?vid=fbbe9e00-ce5b-4452-81b4-ce0422552ccc"},"vehicle_type_id":"4","last_reported":1692111979,"current_range_meters":31600,"station_id":"ce4bhap2rcd13ifvqek0","pricing_plan_id":"free"},{"bike_id":"b0492f4e-cb89-45f7-940d-e9f56cdff285","system_id":"levelo_inurba_marseille","lat":43.292642,"lon":5.384254,"is_reserved":false,"is_disabled":false,"rental_uris":{"android":"levelo://app?vid=b0492f4e-cb89-45f7-940d-e9f56cdff285","ios":"levelo://app?vid=b0492f4e-cb89-45f7-940d-e9f56cdff285"},"vehicle_type_id":"4","last_reported":1692111979,"current_range_meters":2400,"station_id":"ce4bh692rcd13ifvqea0","pricing_plan_id":"free"},{"bike_id":"d254e111-550b-4ff3-8ccf-04874bc6646e","system_id":"levelo_inurba_marseille","lat":43.3051,"lon":5.39782,"is_reserved":false,"is_disabled":false,"rental_uris":{"android":"levelo://app?vid=d254e111-550b-4ff3-8ccf-04874bc6646e","ios":"levelo://app?vid=d254e111-550b-4ff3-8ccf-04874bc6646e"},"vehicle_type_id":"4","last_reported":1692111979,"current_range_meters":15600,"station_id":"","pricing_plan_id":"free"},{"bike_id":"76beaeef-f28d-4f61-9e21-81b6d99a25fd","system_id":"levelo_inurba_marseille","lat":43.292644,"lon":5.384257,"is_reserved":false,"is_disabled":false,"rental_uris":{"android":"levelo://app?vid=76beaeef-f28d-4f61-9e21-81b6d99a25fd","ios":"levelo://app?vid=76beaeef-f28d-4f61-9e21-81b6d99a25fd"},"vehicle_type_id":"4","last_reported":1692111979,"current_range_meters":20400,"station_id":"ce4bh692rcd13ifvqea0","pricing_plan_id":"free"},{"bike_id":"599f1f13-345f-447a-a619-81ed3c7dd4ea","system_id":"levelo_inurba_marseille","lat":43.292644,"lon":5.384257,"is_reserved":false,"is_disabled":false,"rental_uris":{"android":"levelo://app?vid=599f1f13-345f-447a-a619-81ed3c7dd4ea","ios":"levelo://app?vid=599f1f13-345f-447a-a619-81ed3c7dd4ea"},"vehicle_type_id":"4","last_reported":1692111979,"current_range_meters":400,"station_id":"ce4bh692rcd13ifvqea0","pricing_plan_id":"free"},{"bike_id":"3e5da3b2-09b2-4c48-a3bf-3969475f5bb9","system_id":"levelo_inurba_marseille","lat":43.292644,"lon":5.384257,"is_reserved":false,"is_disabled":false,"rental_uris":{"android":"levelo://app?vid=3e5da3b2-09b2-4c48-a3bf-3969475f5bb9","ios":"levelo://app?vid=3e5da3b2-09b2-4c48-a3bf-3969475f5bb9"},"vehicle_type_id":"4","last_reported":1692111979,"current_range_meters":15200,"station_id":"ce4bh692rcd13ifvqea0","pricing_plan_id":"free"},{"bike_id":"4ae8be11-4523-4c74-b666-0854403f8798","system_id":"levelo_inurba_marseille","lat":43.292644,"lon":5.384257,"is_reserved":false,"is_disabled":false,"rental_uris":{"android":"levelo://app?vid=4ae8be11-4523-4c74-b666-0854403f8798","ios":"levelo://app?vid=4ae8be11-4523-4c74-b666-0854403f8798"},"vehicle_type_id":"4","last_reported":1692111979,"current_range_meters":29200,"station_id":"ce4bh692rcd13ifvqea0","pricing_plan_id":"free"},{"bike_id":"69c23820-b8c4-4b33-a6c2-28beb4ed1d2a","system_id":"levelo_inurba_marseille","lat":43.330357,"lon":5.38912,"is_reserved":false,"is_disabled":false,"rental_uris":{"android":"levelo://app?vid=69c23820-b8c4-4b33-a6c2-28beb4ed1d2a","ios":"levelo://app?vid=69c23820-b8c4-4b33-a6c2-28beb4ed1d2a"},"vehicle_type_id":"4","last_reported":1692111979,"current_range_meters":1600,"station_id":"","pricing_plan_id":"free"},{"bike_id":"8ae0ce58-4162-4719-947c-e47cc63be26c","system_id":"levelo_inurba_marseille","lat":43.3304,"lon":5.38917,"is_reserved":false,"is_disabled":false,"rental_uris":{"android":"levelo://app?vid=8ae0ce58-4162-4719-947c-e47cc63be26c","ios":"levelo://app?vid=8ae0ce58-4162-4719-947c-e47cc63be26c"},"vehicle_type_id":"4","last_reported":1692111979,"current_range_meters":16400,"station_id":"ce4bhr92rcd13ifvqhrg","pricing_plan_id":"free"},{"bike_id":"e184d9f0-8163-4a17-b3ea-e9518599abc7","system_id":"levelo_inurba_marseille","lat":43.33042,"lon":5.38917,"is_reserved":false,"is_disabled":false,"rental_uris":{"android":"levelo://app?vid=e184d9f0-8163-4a17-b3ea-e9518599abc7","ios":"levelo://app?vid=e184d9f0-8163-4a17-b3ea-e9518599abc7"},"vehicle_type_id":"4","last_reported":1692111979,"current_range_meters":30400,"station_id":"ce4bhr92rcd13ifvqhrg","pricing_plan_id":"free"},{"bike_id":"859ece1b-eaf2-4429-915d-1d151e169e7f","system_id":"levelo_inurba_marseille","lat":43.33044,"lon":5.38914,"is_reserved":false,"is_disabled":false,"rental_uris":{"android":"levelo://app?vid=859ece1b-eaf2-4429-915d-1d151e169e7f","ios":"levelo://app?vid=859ece1b-eaf2-4429-915d-1d151e169e7f"},"vehicle_type_id":"4","last_reported":1692111979,"current_range_meters":23600,"station_id":"ce4bhr92rcd13ifvqhrg","pricing_plan_id":"free"},{"bike_id":"664f9d35-deef-4eef-8e69-b053e14be47a","system_id":"levelo_inurba_marseille","lat":43.290104,"lon":5.356111,"is_reserved":false,"is_disabled":false,"rental_uris":{"android":"levelo://app?vid=664f9d35-deef-4eef-8e69-b053e14be47a","ios":"levelo://app?vid=664f9d35-deef-4eef-8e69-b053e14be47a"},"vehicle_type_id":"4","last_reported":1692111979,"current_range_meters":17600,"station_id":"ce4bhb92rcd13ifvqen0","pricing_plan_id":"free"},{"bike_id":"e77b24cb-b125-4747-a456-3f996451e289","system_id":"levelo_inurba_marseille","lat":43.33044,"lon":5.38915,"is_reserved":false,"is_disabled":false,"rental_uris":{"android":"levelo://app?vid=e77b24cb-b125-4747-a456-3f996451e289","ios":"levelo://app?vid=e77b24cb-b125-4747-a456-3f996451e289"},"vehicle_type_id":"4","last_reported":1692111979,"current_range_meters":30800,"station_id":"ce4bhr92rcd13ifvqhrg","pricing_plan_id":"free"},{"bike_id":"be005e4f-d207-40fd-bd99-241d744b2797","system_id":"levelo_inurba_marseille","lat":43.33047,"lon":5.38911,"is_reserved":false,"is_disabled":false,"rental_uris":{"android":"levelo://app?vid=be005e4f-d207-40fd-bd99-241d744b2797","ios":"levelo://app?vid=be005e4f-d207-40fd-bd99-241d744b2797"},"vehicle_type_id":"4","last_reported":1692111979,"current_range_meters":20800,"station_id":"ce4bhr92rcd13ifvqhrg","pricing_plan_id":"free"},{"bike_id":"01bb66e8-6fc1-4982-b9b2-af4dae23e37f","system_id":"levelo_inurba_marseille","lat":43.33044,"lon":5.38916,"is_reserved":false,"is_disabled":false,"rental_uris":{"android":"levelo://app?vid=01bb66e8-6fc1-4982-b9b2-af4dae23e37f","ios":"levelo://app?vid=01bb66e8-6fc1-4982-b9b2-af4dae23e37f"},"vehicle_type_id":"4","last_reported":1692111979,"current_range_meters":28800,"station_id":"ce4bhr92rcd13ifvqhrg","pricing_plan_id":"free"},{"bike_id":"96ead541-9c33-4112-927f-93c74ea92183","system_id":"levelo_inurba_marseille","lat":43.33044,"lon":5.38917,"is_reserved":false,"is_disabled":false,"rental_uris":{"android":"levelo://app?vid=96ead541-9c33-4112-927f-93c74ea92183","ios":"levelo://app?vid=96ead541-9c33-4112-927f-93c74ea92183"},"vehicle_type_id":"4","last_reported":1692111979,"current_range_meters":12800,"station_id":"ce4bhr92rcd13ifvqhrg","pricing_plan_id":"free"},{"bike_id":"1e17ce8a-739c-4c9e-9473-d304871cd5a5","system_id":"levelo_inurba_marseille","lat":43.33042,"lon":5.38921,"is_reserved":false,"is_disabled":false,"rental_uris":{"android":"levelo://app?vid=1e17ce8a-739c-4c9e-9473-d304871cd5a5","ios":"levelo://app?vid=1e17ce8a-739c-4c9e-9473-d304871cd5a5"},"vehicle_type_id":"4","last_reported":1692111979,"current_range_meters":30400,"station_id":"ce4bhr92rcd13ifvqhrg","pricing_plan_id":"free"},{"bike_id":"8c6668a1-6a11-428e-a881-c014eab3975e","system_id":"levelo_inurba_marseille","lat":43.290104,"lon":5.356111,"is_reserved":false,"is_disabled":false,"rental_uris":{"android":"levelo://app?vid=8c6668a1-6a11-428e-a881-c014eab3975e","ios":"levelo://app?vid=8c6668a1-6a11-428e-a881-c014eab3975e"},"vehicle_type_id":"4","last_reported":1692111979,"current_range_meters":8400,"station_id":"ce4bhb92rcd13ifvqen0","pricing_plan_id":"free"},{"bike_id":"d0ea0de7-91e6-424e-b99c-ec8c7c71ed2d","system_id":"levelo_inurba_marseille","lat":43.33042,"lon":5.38922,"is_reserved":false,"is_disabled":false,"rental_uris":{"android":"levelo://app?vid=d0ea0de7-91e6-424e-b99c-ec8c7c71ed2d","ios":"levelo://app?vid=d0ea0de7-91e6-424e-b99c-ec8c7c71ed2d"},"vehicle_type_id":"4","last_reported":1692111979,"current_range_meters":29200,"station_id":"ce4bhr92rcd13ifvqhrg","pricing_plan_id":"free"},{"bike_id":"569fb482-04ac-449f-b013-337617dfb7a0","system_id":"levelo_inurba_marseille","lat":43.33044,"lon":5.3892,"is_reserved":false,"is_disabled":false,"rental_uris":{"android":"levelo://app?vid=569fb482-04ac-449f-b013-337617dfb7a0","ios":"levelo://app?vid=569fb482-04ac-449f-b013-337617dfb7a0"},"vehicle_type_id":"4","last_reported":1692111979,"current_range_meters":26400,"station_id":"ce4bhr92rcd13ifvqhrg","pricing_plan_id":"free"},{"bike_id":"d5578a77-3302-4d8a-ae9c-7edceb0f071e","system_id":"levelo_inurba_marseille","lat":43.33042,"lon":5.38924,"is_reserved":false,"is_disabled":false,"rental_uris":{"android":"levelo://app?vid=d5578a77-3302-4d8a-ae9c-7edceb0f071e","ios":"levelo://app?vid=d5578a77-3302-4d8a-ae9c-7edceb0f071e"},"vehicle_type_id":"4","last_reported":1692111979,"current_range_meters":30000,"station_id":"ce4bhr92rcd13ifvqhrg","pricing_plan_id":"free"},{"bike_id":"78f1a325-e5b4-4a72-bb0e-b29d3285ba24","system_id":"levelo_inurba_marseille","lat":43.290103,"lon":5.356114,"is_reserved":false,"is_disabled":false,"rental_uris":{"android":"levelo://app?vid=78f1a325-e5b4-4a72-bb0e-b29d3285ba24","ios":"levelo://app?vid=78f1a325-e5b4-4a72-bb0e-b29d3285ba24"},"vehicle_type_id":"4","last_reported":1692111979,"current_range_meters":31600,"station_id":"ce4bhb92rcd13ifvqen0","pricing_plan_id":"free"},{"bike_id":"17bcdf80-3f0e-49c8-bdbf-212e84deb635","system_id":"levelo_inurba_marseille","lat":43.290104,"lon":5.356111,"is_reserved":false,"is_disabled":false,"rental_uris":{"android":"levelo://app?vid=17bcdf80-3f0e-49c8-bdbf-212e84deb635","ios":"levelo://app?vid=17bcdf80-3f0e-49c8-bdbf-212e84deb635"},"vehicle_type_id":"4","last_reported":1692111979,"current_range_meters":13600,"station_id":"ce4bhb92rcd13ifvqen0","pricing_plan_id":"free"},{"bike_id":"80d4fbfc-a967-4758-b6f0-5678bd8b9463","system_id":"levelo_inurba_marseille","lat":43.290104,"lon":5.356111,"is_reserved":false,"is_disabled":false,"rental_uris":{"android":"levelo://app?vid=80d4fbfc-a967-4758-b6f0-5678bd8b9463","ios":"levelo://app?vid=80d4fbfc-a967-4758-b6f0-5678bd8b9463"},"vehicle_type_id":"4","last_reported":1692111979,"current_range_meters":19200,"station_id":"ce4bhb92rcd13ifvqen0","pricing_plan_id":"free"},{"bike_id":"e3fa83a6-e8db-4534-a806-26f58a82066e","system_id":"levelo_inurba_marseille","lat":43.290995,"lon":5.381361,"is_reserved":false,"is_disabled":false,"rental_uris":{"android":"levelo://app?vid=e3fa83a6-e8db-4534-a806-26f58a82066e","ios":"levelo://app?vid=e3fa83a6-e8db-4534-a806-26f58a82066e"},"vehicle_type_id":"4","last_reported":1692111979,"current_range_meters":19200,"station_id":"ce4bh512rcd13ifvqe2g","pricing_plan_id":"free"},{"bike_id":"3cc4f31b-a9f6-4bf6-86d0-27723cee0d5a","system_id":"levelo_inurba_marseille","lat":43.29087,"lon":5.38115,"is_reserved":false,"is_disabled":false,"rental_uris":{"android":"levelo://app?vid=3cc4f31b-a9f6-4bf6-86d0-27723cee0d5a","ios":"levelo://app?vid=3cc4f31b-a9f6-4bf6-86d0-27723cee0d5a"},"vehicle_type_id":"4","last_reported":1692111979,"current_range_meters":21600,"station_id":"ce4bh512rcd13ifvqe2g","pricing_plan_id":"free"},{"bike_id":"5660b377-2861-43d3-aaa8-997303a0964f","system_id":"levelo_inurba_marseille","lat":43.295169,"lon":5.390426,"is_reserved":false,"is_disabled":false,"rental_uris":{"android":"levelo://app?vid=5660b377-2861-43d3-aaa8-997303a0964f","ios":"levelo://app?vid=5660b377-2861-43d3-aaa8-997303a0964f"},"vehicle_type_id":"4","last_reported":1692111979,"current_range_meters":30400,"station_id":"ce4bh3p2rcd13ifvqdp0","pricing_plan_id":"free"},{"bike_id":"9be053c8-8541-46b1-b094-1cbe8ad5b93b","system_id":"levelo_inurba_marseille","lat":43.2901,"lon":5.381269,"is_reserved":false,"is_disabled":false,"rental_uris":{"android":"levelo://app?vid=9be053c8-8541-46b1-b094-1cbe8ad5b93b","ios":"levelo://app?vid=9be053c8-8541-46b1-b094-1cbe8ad5b93b"},"vehicle_type_id":"4","last_reported":1692111979,"current_range_meters":5200,"station_id":"ce4bh4p2rcd13ifvqe1g","pricing_plan_id":"free"},{"bike_id":"d65b43d5-7e5d-47c5-909f-42b952258b4f","system_id":"levelo_inurba_marseille","lat":43.301117,"lon":5.398795,"is_reserved":false,"is_disabled":false,"rental_uris":{"android":"levelo://app?vid=d65b43d5-7e5d-47c5-909f-42b952258b4f","ios":"levelo://app?vid=d65b43d5-7e5d-47c5-909f-42b952258b4f"},"vehicle_type_id":"4","last_reported":1692111979,"current_range_meters":12800,"station_id":"ce4bh0h2rcd13ifvqd40","pricing_plan_id":"free"},{"bike_id":"cd980732-dbfa-464f-b1f9-cf0e27e44317","system_id":"levelo_inurba_marseille","lat":43.286591,"lon":5.363346,"is_reserved":false,"is_disabled":false,"rental_uris":{"android":"levelo://app?vid=cd980732-dbfa-464f-b1f9-cf0e27e44317","ios":"levelo://app?vid=cd980732-dbfa-464f-b1f9-cf0e27e44317"},"vehicle_type_id":"4","last_reported":1692111979,"current_range_meters":28000,"station_id":"ce4bhah2rcd13ifvqej0","pricing_plan_id":"free"},{"bike_id":"75199276-b705-4ad7-b6a9-49aeaa84628a","system_id":"levelo_inurba_marseille","lat":43.286591,"lon":5.363346,"is_reserved":false,"is_disabled":false,"rental_uris":{"android":"levelo://app?vid=75199276-b705-4ad7-b6a9-49aeaa84628a","ios":"levelo://app?vid=75199276-b705-4ad7-b6a9-49aeaa84628a"},"vehicle_type_id":"4","last_reported":1692111979,"current_range_meters":31600,"station_id":"ce4bhah2rcd13ifvqej0","pricing_plan_id":"free"},{"bike_id":"fa27b27e-b0fe-4000-9f38-77f096ab01f3","system_id":"levelo_inurba_marseille","lat":43.286961,"lon":5.373785,"is_reserved":false,"is_disabled":false,"rental_uris":{"android":"levelo://app?vid=fa27b27e-b0fe-4000-9f38-77f096ab01f3","ios":"levelo://app?vid=fa27b27e-b0fe-4000-9f38-77f096ab01f3"},"vehicle_type_id":"4","last_reported":1692111979,"current_range_meters":23600,"station_id":"ce4bh3p2rcd13ifvqdq0","pricing_plan_id":"free"},{"bike_id":"d5a93c69-7ee8-4480-98c1-816619de7c77","system_id":"levelo_inurba_marseille","lat":43.295194,"lon":5.39397,"is_reserved":false,"is_disabled":false,"rental_uris":{"android":"levelo://app?vid=d5a93c69-7ee8-4480-98c1-816619de7c77","ios":"levelo://app?vid=d5a93c69-7ee8-4480-98c1-816619de7c77"},"vehicle_type_id":"4","last_reported":1692111979,"current_range_meters":9600,"station_id":"ce4bh292rcd13ifvqdf0","pricing_plan_id":"free"},{"bike_id":"e4884209-39ac-4647-b155-039058d92ddc","system_id":"levelo_inurba_marseille","lat":43.290336,"lon":5.386425,"is_reserved":false,"is_disabled":false,"rental_uris":{"android":"levelo://app?vid=e4884209-39ac-4647-b155-039058d92ddc","ios":"levelo://app?vid=e4884209-39ac-4647-b155-039058d92ddc"},"vehicle_type_id":"4","last_reported":1692111979,"current_range_meters":26000,"station_id":"ce4bh4p2rcd13ifvqe0g","pricing_plan_id":"free"},{"bike_id":"aa915102-abf8-4cda-8093-18520ecb529a","system_id":"levelo_inurba_marseille","lat":43.286039,"lon":5.370681,"is_reserved":false,"is_disabled":false,"rental_uris":{"android":"levelo://app?vid=aa915102-abf8-4cda-8093-18520ecb529a","ios":"levelo://app?vid=aa915102-abf8-4cda-8093-18520ecb529a"},"vehicle_type_id":"4","last_reported":1692111979,"current_range_meters":24400,"station_id":"ce4bht12rcd13ifvqi60","pricing_plan_id":"free"},{"bike_id":"6c297171-af37-4c69-9991-3553821e2a31","system_id":"levelo_inurba_marseille","lat":43.28608,"lon":5.37063,"is_reserved":false,"is_disabled":false,"rental_uris":{"android":"levelo://app?vid=6c297171-af37-4c69-9991-3553821e2a31","ios":"levelo://app?vid=6c297171-af37-4c69-9991-3553821e2a31"},"vehicle_type_id":"4","last_reported":1692111979,"current_range_meters":0,"station_id":"ce4bht12rcd13ifvqi60","pricing_plan_id":"free"},{"bike_id":"a4aacbe1-ea6e-454c-b4df-9e5c98b18c22","system_id":"levelo_inurba_marseille","lat":43.286068,"lon":5.370649,"is_reserved":false,"is_disabled":false,"rental_uris":{"android":"levelo://app?vid=a4aacbe1-ea6e-454c-b4df-9e5c98b18c22","ios":"levelo://app?vid=a4aacbe1-ea6e-454c-b4df-9e5c98b18c22"},"vehicle_type_id":"4","last_reported":1692111979,"current_range_meters":22400,"station_id":"ce4bht12rcd13ifvqi60","pricing_plan_id":"free"},{"bike_id":"2dc1d8b1-52ed-4cd2-8398-bba951e74b17","system_id":"levelo_inurba_marseille","lat":43.286039,"lon":5.370681,"is_reserved":false,"is_disabled":false,"rental_uris":{"android":"levelo://app?vid=2dc1d8b1-52ed-4cd2-8398-bba951e74b17","ios":"levelo://app?vid=2dc1d8b1-52ed-4cd2-8398-bba951e74b17"},"vehicle_type_id":"4","last_reported":1692111979,"current_range_meters":13600,"station_id":"ce4bht12rcd13ifvqi60","pricing_plan_id":"free"},{"bike_id":"b2c2a843-bf8b-4321-815b-57f9b883e353","system_id":"levelo_inurba_marseille","lat":43.286039,"lon":5.370681,"is_reserved":false,"is_disabled":false,"rental_uris":{"android":"levelo://app?vid=b2c2a843-bf8b-4321-815b-57f9b883e353","ios":"levelo://app?vid=b2c2a843-bf8b-4321-815b-57f9b883e353"},"vehicle_type_id":"4","last_reported":1692111979,"current_range_meters":25600,"station_id":"ce4bht12rcd13ifvqi60","pricing_plan_id":"free"},{"bike_id":"07101567-61e0-48aa-be74-1e3354fceecd","system_id":"levelo_inurba_marseille","lat":43.287185,"lon":5.379373,"is_reserved":false,"is_disabled":false,"rental_uris":{"android":"levelo://app?vid=07101567-61e0-48aa-be74-1e3354fceecd","ios":"levelo://app?vid=07101567-61e0-48aa-be74-1e3354fceecd"},"vehicle_type_id":"4","last_reported":1692111979,"current_range_meters":3600,"station_id":"ce4bh9p2rcd13ifvqec0","pricing_plan_id":"free"},{"bike_id":"9795c908-8eb6-4ddf-b048-4ea06ce504be","system_id":"levelo_inurba_marseille","lat":43.31649,"lon":5.40434,"is_reserved":false,"is_disabled":false,"rental_uris":{"android":"levelo://app?vid=9795c908-8eb6-4ddf-b048-4ea06ce504be","ios":"levelo://app?vid=9795c908-8eb6-4ddf-b048-4ea06ce504be"},"vehicle_type_id":"4","last_reported":1692111979,"current_range_meters":17200,"station_id":"ce4bh012rcd13ifvqd00","pricing_plan_id":"free"},{"bike_id":"6cab3543-8b12-4cd5-b020-0bb430018ad2","system_id":"levelo_inurba_marseille","lat":43.31644,"lon":5.4044,"is_reserved":false,"is_disabled":false,"rental_uris":{"android":"levelo://app?vid=6cab3543-8b12-4cd5-b020-0bb430018ad2","ios":"levelo://app?vid=6cab3543-8b12-4cd5-b020-0bb430018ad2"},"vehicle_type_id":"4","last_reported":1692111979,"current_range_meters":1600,"station_id":"ce4bh012rcd13ifvqd00","pricing_plan_id":"free"},{"bike_id":"74220d3c-4cd6-4230-be8a-c26c4d78ecbf","system_id":"levelo_inurba_marseille","lat":43.31642,"lon":5.40441,"is_reserved":false,"is_disabled":false,"rental_uris":{"android":"levelo://app?vid=74220d3c-4cd6-4230-be8a-c26c4d78ecbf","ios":"levelo://app?vid=74220d3c-4cd6-4230-be8a-c26c4d78ecbf"},"vehicle_type_id":"4","last_reported":1692111979,"current_range_meters":19600,"station_id":"ce4bh012rcd13ifvqd00","pricing_plan_id":"free"},{"bike_id":"6a1c04f1-925b-4dd9-9d31-4442f4a6e053","system_id":"levelo_inurba_marseille","lat":43.31642,"lon":5.40442,"is_reserved":false,"is_disabled":false,"rental_uris":{"android":"levelo://app?vid=6a1c04f1-925b-4dd9-9d31-4442f4a6e053","ios":"levelo://app?vid=6a1c04f1-925b-4dd9-9d31-4442f4a6e053"},"vehicle_type_id":"4","last_reported":1692111979,"current_range_meters":9600,"station_id":"ce4bh012rcd13ifvqd00","pricing_plan_id":"free"},{"bike_id":"336beebf-02ee-41bd-b633-ecb4083b966d","system_id":"levelo_inurba_marseille","lat":43.316517,"lon":5.404375,"is_reserved":false,"is_disabled":false,"rental_uris":{"android":"levelo://app?vid=336beebf-02ee-41bd-b633-ecb4083b966d","ios":"levelo://app?vid=336beebf-02ee-41bd-b633-ecb4083b966d"},"vehicle_type_id":"4","last_reported":1692111979,"current_range_meters":30400,"station_id":"ce4bh012rcd13ifvqd00","pricing_plan_id":"free"},{"bike_id":"73a9ac74-dc1b-4bf3-aab1-415ebec2dd47","system_id":"levelo_inurba_marseille","lat":43.284538,"lon":5.358657,"is_reserved":false,"is_disabled":false,"rental_uris":{"android":"levelo://app?vid=73a9ac74-dc1b-4bf3-aab1-415ebec2dd47","ios":"levelo://app?vid=73a9ac74-dc1b-4bf3-aab1-415ebec2dd47"},"vehicle_type_id":"4","last_reported":1692111979,"current_range_meters":0,"station_id":"ce4bhah2rcd13ifvqei0","pricing_plan_id":"free"},{"bike_id":"87244661-029f-44cd-99e3-0e0c5a1a921e","system_id":"levelo_inurba_marseille","lat":43.294314,"lon":5.397498,"is_reserved":false,"is_disabled":false,"rental_uris":{"android":"levelo://app?vid=87244661-029f-44cd-99e3-0e0c5a1a921e","ios":"levelo://app?vid=87244661-029f-44cd-99e3-0e0c5a1a921e"},"vehicle_type_id":"4","last_reported":1692111979,"current_range_meters":10800,"station_id":"ce4bh3h2rcd13ifvqdo0","pricing_plan_id":"free"},{"bike_id":"5dfaf90a-2609-4d5c-933a-feb1a755c4b8","system_id":"levelo_inurba_marseille","lat":43.285856,"lon":5.350771,"is_reserved":false,"is_disabled":false,"rental_uris":{"android":"levelo://app?vid=5dfaf90a-2609-4d5c-933a-feb1a755c4b8","ios":"levelo://app?vid=5dfaf90a-2609-4d5c-933a-feb1a755c4b8"},"vehicle_type_id":"4","last_reported":1692111979,"current_range_meters":26400,"station_id":"ce4bhch2rcd13ifvqeug","pricing_plan_id":"free"},{"bike_id":"df9967ba-d269-4cf9-82d6-fa2f1eb6c6e5","system_id":"levelo_inurba_marseille","lat":43.28617,"lon":5.35108,"is_reserved":false,"is_disabled":false,"rental_uris":{"android":"levelo://app?vid=df9967ba-d269-4cf9-82d6-fa2f1eb6c6e5","ios":"levelo://app?vid=df9967ba-d269-4cf9-82d6-fa2f1eb6c6e5"},"vehicle_type_id":"4","last_reported":1692111979,"current_range_meters":16000,"station_id":"ce4bhch2rcd13ifvqeug","pricing_plan_id":"free"},{"bike_id":"b1c1af9e-b34b-4cfd-ba07-ad6d8a1e08af","system_id":"levelo_inurba_marseille","lat":43.283998,"lon":5.375062,"is_reserved":false,"is_disabled":false,"rental_uris":{"android":"levelo://app?vid=b1c1af9e-b34b-4cfd-ba07-ad6d8a1e08af","ios":"levelo://app?vid=b1c1af9e-b34b-4cfd-ba07-ad6d8a1e08af"},"vehicle_type_id":"4","last_reported":1692111979,"current_range_meters":0,"station_id":"ce4bh412rcd13ifvqds0","pricing_plan_id":"free"},{"bike_id":"2418f534-7c9d-4eb1-9bc2-346e8f020481","system_id":"levelo_inurba_marseille","lat":43.28899,"lon":5.39099,"is_reserved":false,"is_disabled":false,"rental_uris":{"android":"levelo://app?vid=2418f534-7c9d-4eb1-9bc2-346e8f020481","ios":"levelo://app?vid=2418f534-7c9d-4eb1-9bc2-346e8f020481"},"vehicle_type_id":"4","last_reported":1692111979,"current_range_meters":15600,"station_id":"","pricing_plan_id":"free"},{"bike_id":"c079c2ee-24da-4e21-bf47-9ff4cc72afaf","system_id":"levelo_inurba_marseille","lat":43.286595,"lon":5.386795,"is_reserved":false,"is_disabled":false,"rental_uris":{"android":"levelo://app?vid=c079c2ee-24da-4e21-bf47-9ff4cc72afaf","ios":"levelo://app?vid=c079c2ee-24da-4e21-bf47-9ff4cc72afaf"},"vehicle_type_id":"4","last_reported":1692111979,"current_range_meters":17600,"station_id":"ce4bh492rcd13ifvqdug","pricing_plan_id":"free"},{"bike_id":"af00a5a3-ae9f-405e-b889-8af3b10e3ee3","system_id":"levelo_inurba_marseille","lat":43.319179,"lon":5.407725,"is_reserved":false,"is_disabled":false,"rental_uris":{"android":"levelo://app?vid=af00a5a3-ae9f-405e-b889-8af3b10e3ee3","ios":"levelo://app?vid=af00a5a3-ae9f-405e-b889-8af3b10e3ee3"},"vehicle_type_id":"4","last_reported":1692111979,"current_range_meters":26400,"station_id":"ce4bhq12rcd13ifvqhig","pricing_plan_id":"free"},{"bike_id":"1c4723e4-a677-4f33-9475-a6345fbf994b","system_id":"levelo_inurba_marseille","lat":43.319179,"lon":5.407725,"is_reserved":false,"is_disabled":false,"rental_uris":{"android":"levelo://app?vid=1c4723e4-a677-4f33-9475-a6345fbf994b","ios":"levelo://app?vid=1c4723e4-a677-4f33-9475-a6345fbf994b"},"vehicle_type_id":"4","last_reported":1692111979,"current_range_meters":28800,"station_id":"ce4bhq12rcd13ifvqhig","pricing_plan_id":"free"},{"bike_id":"aff48a3e-ea12-4cac-a317-0be9a9a56d14","system_id":"levelo_inurba_marseille","lat":43.319179,"lon":5.407725,"is_reserved":false,"is_disabled":false,"rental_uris":{"android":"levelo://app?vid=aff48a3e-ea12-4cac-a317-0be9a9a56d14","ios":"levelo://app?vid=aff48a3e-ea12-4cac-a317-0be9a9a56d14"},"vehicle_type_id":"4","last_reported":1692111979,"current_range_meters":26800,"station_id":"ce4bhq12rcd13ifvqhig","pricing_plan_id":"free"},{"bike_id":"16b9c1de-7cee-4c5a-9427-13a68b26ae62","system_id":"levelo_inurba_marseille","lat":43.319179,"lon":5.407725,"is_reserved":false,"is_disabled":false,"rental_uris":{"android":"levelo://app?vid=16b9c1de-7cee-4c5a-9427-13a68b26ae62","ios":"levelo://app?vid=16b9c1de-7cee-4c5a-9427-13a68b26ae62"},"vehicle_type_id":"4","last_reported":1692111979,"current_range_meters":21200,"station_id":"ce4bhq12rcd13ifvqhig","pricing_plan_id":"free"},{"bike_id":"0c36c390-cc1f-4129-aa31-e822067b5a3d","system_id":"levelo_inurba_marseille","lat":43.31871,"lon":5.40741,"is_reserved":false,"is_disabled":false,"rental_uris":{"android":"levelo://app?vid=0c36c390-cc1f-4129-aa31-e822067b5a3d","ios":"levelo://app?vid=0c36c390-cc1f-4129-aa31-e822067b5a3d"},"vehicle_type_id":"4","last_reported":1692111979,"current_range_meters":22800,"station_id":"","pricing_plan_id":"free"},{"bike_id":"008d7d58-91c6-42e6-a25e-bcc458e65287","system_id":"levelo_inurba_marseille","lat":43.28489,"lon":5.35077,"is_reserved":false,"is_disabled":false,"rental_uris":{"android":"levelo://app?vid=008d7d58-91c6-42e6-a25e-bcc458e65287","ios":"levelo://app?vid=008d7d58-91c6-42e6-a25e-bcc458e65287"},"vehicle_type_id":"4","last_reported":1692111979,"current_range_meters":16800,"station_id":"","pricing_plan_id":"free"},{"bike_id":"c7f55b38-f91b-41fb-a480-21b4dec7e541","system_id":"levelo_inurba_marseille","lat":43.337168,"lon":5.391825,"is_reserved":false,"is_disabled":false,"rental_uris":{"android":"levelo://app?vid=c7f55b38-f91b-41fb-a480-21b4dec7e541","ios":"levelo://app?vid=c7f55b38-f91b-41fb-a480-21b4dec7e541"},"vehicle_type_id":"4","last_reported":1692111979,"current_range_meters":24800,"station_id":"ce4bhr92rcd13ifvqhsg","pricing_plan_id":"free"},{"bike_id":"f0b3e4a8-c149-42b1-9c5e-b4e2f8c56804","system_id":"levelo_inurba_marseille","lat":43.337168,"lon":5.391825,"is_reserved":false,"is_disabled":false,"rental_uris":{"android":"levelo://app?vid=f0b3e4a8-c149-42b1-9c5e-b4e2f8c56804","ios":"levelo://app?vid=f0b3e4a8-c149-42b1-9c5e-b4e2f8c56804"},"vehicle_type_id":"4","last_reported":1692111979,"current_range_meters":30800,"station_id":"ce4bhr92rcd13ifvqhsg","pricing_plan_id":"free"},{"bike_id":"50ff99fb-43af-4912-a992-826715877a21","system_id":"levelo_inurba_marseille","lat":43.33716,"lon":5.39174,"is_reserved":false,"is_disabled":false,"rental_uris":{"android":"levelo://app?vid=50ff99fb-43af-4912-a992-826715877a21","ios":"levelo://app?vid=50ff99fb-43af-4912-a992-826715877a21"},"vehicle_type_id":"4","last_reported":1692111979,"current_range_meters":18000,"station_id":"ce4bhr92rcd13ifvqhsg","pricing_plan_id":"free"},{"bike_id":"9ca4073f-d795-475e-8fee-b528ec6069e2","system_id":"levelo_inurba_marseille","lat":43.33717,"lon":5.39177,"is_reserved":false,"is_disabled":false,"rental_uris":{"android":"levelo://app?vid=9ca4073f-d795-475e-8fee-b528ec6069e2","ios":"levelo://app?vid=9ca4073f-d795-475e-8fee-b528ec6069e2"},"vehicle_type_id":"4","last_reported":1692111979,"current_range_meters":29200,"station_id":"ce4bhr92rcd13ifvqhsg","pricing_plan_id":"free"},{"bike_id":"d1191578-a5a1-4fd7-ac86-032e8fdf04c0","system_id":"levelo_inurba_marseille","lat":43.3372,"lon":5.39173,"is_reserved":false,"is_disabled":false,"rental_uris":{"android":"levelo://app?vid=d1191578-a5a1-4fd7-ac86-032e8fdf04c0","ios":"levelo://app?vid=d1191578-a5a1-4fd7-ac86-032e8fdf04c0"},"vehicle_type_id":"4","last_reported":1692111979,"current_range_meters":28000,"station_id":"ce4bhr92rcd13ifvqhsg","pricing_plan_id":"free"},{"bike_id":"6ed2964b-5392-406b-b9af-45404a2ee5fa","system_id":"levelo_inurba_marseille","lat":43.337168,"lon":5.391825,"is_reserved":false,"is_disabled":false,"rental_uris":{"android":"levelo://app?vid=6ed2964b-5392-406b-b9af-45404a2ee5fa","ios":"levelo://app?vid=6ed2964b-5392-406b-b9af-45404a2ee5fa"},"vehicle_type_id":"4","last_reported":1692111979,"current_range_meters":30400,"station_id":"ce4bhr92rcd13ifvqhsg","pricing_plan_id":"free"},{"bike_id":"3418df2e-6699-4bed-91a2-b25e9f32f724","system_id":"levelo_inurba_marseille","lat":43.337168,"lon":5.391825,"is_reserved":false,"is_disabled":false,"rental_uris":{"android":"levelo://app?vid=3418df2e-6699-4bed-91a2-b25e9f32f724","ios":"levelo://app?vid=3418df2e-6699-4bed-91a2-b25e9f32f724"},"vehicle_type_id":"4","last_reported":1692111979,"current_range_meters":22800,"station_id":"ce4bhr92rcd13ifvqhsg","pricing_plan_id":"free"},{"bike_id":"dd8c90b8-6a6a-4438-8a5b-2787d9e53063","system_id":"levelo_inurba_marseille","lat":43.33723,"lon":5.39174,"is_reserved":false,"is_disabled":false,"rental_uris":{"android":"levelo://app?vid=dd8c90b8-6a6a-4438-8a5b-2787d9e53063","ios":"levelo://app?vid=dd8c90b8-6a6a-4438-8a5b-2787d9e53063"},"vehicle_type_id":"4","last_reported":1692111979,"current_range_meters":29200,"station_id":"ce4bhr92rcd13ifvqhsg","pricing_plan_id":"free"},{"bike_id":"7d990ca5-f420-4945-a4a1-a0288a5b26c7","system_id":"levelo_inurba_marseille","lat":43.337168,"lon":5.391825,"is_reserved":false,"is_disabled":false,"rental_uris":{"android":"levelo://app?vid=7d990ca5-f420-4945-a4a1-a0288a5b26c7","ios":"levelo://app?vid=7d990ca5-f420-4945-a4a1-a0288a5b26c7"},"vehicle_type_id":"4","last_reported":1692111979,"current_range_meters":12800,"station_id":"ce4bhr92rcd13ifvqhsg","pricing_plan_id":"free"},{"bike_id":"4196101c-727c-49c2-9613-e819d6b9936a","system_id":"levelo_inurba_marseille","lat":43.323464,"lon":5.406297,"is_reserved":false,"is_disabled":false,"rental_uris":{"android":"levelo://app?vid=4196101c-727c-49c2-9613-e819d6b9936a","ios":"levelo://app?vid=4196101c-727c-49c2-9613-e819d6b9936a"},"vehicle_type_id":"4","last_reported":1692111979,"current_range_meters":23600,"station_id":"ce4bhq92rcd13ifvqhjg","pricing_plan_id":"free"},{"bike_id":"5998f81c-1eca-456a-a4d5-b95c154b11b7","system_id":"levelo_inurba_marseille","lat":43.337168,"lon":5.391825,"is_reserved":false,"is_disabled":false,"rental_uris":{"android":"levelo://app?vid=5998f81c-1eca-456a-a4d5-b95c154b11b7","ios":"levelo://app?vid=5998f81c-1eca-456a-a4d5-b95c154b11b7"},"vehicle_type_id":"4","last_reported":1692111979,"current_range_meters":28800,"station_id":"ce4bhr92rcd13ifvqhsg","pricing_plan_id":"free"},{"bike_id":"6a16d4f0-1bee-4a48-8250-841c97df9d59","system_id":"levelo_inurba_marseille","lat":43.33722,"lon":5.39186,"is_reserved":false,"is_disabled":false,"rental_uris":{"android":"levelo://app?vid=6a16d4f0-1bee-4a48-8250-841c97df9d59","ios":"levelo://app?vid=6a16d4f0-1bee-4a48-8250-841c97df9d59"},"vehicle_type_id":"4","last_reported":1692111979,"current_range_meters":28400,"station_id":"ce4bhr92rcd13ifvqhsg","pricing_plan_id":"free"},{"bike_id":"23f5f11c-1631-4826-9b70-90ab56e6e026","system_id":"levelo_inurba_marseille","lat":43.32352,"lon":5.40635,"is_reserved":false,"is_disabled":false,"rental_uris":{"android":"levelo://app?vid=23f5f11c-1631-4826-9b70-90ab56e6e026","ios":"levelo://app?vid=23f5f11c-1631-4826-9b70-90ab56e6e026"},"vehicle_type_id":"4","last_reported":1692111979,"current_range_meters":21600,"station_id":"ce4bhq92rcd13ifvqhjg","pricing_plan_id":"free"},{"bike_id":"2eddce15-ddcb-40a0-85e0-40b5ea41221b","system_id":"levelo_inurba_marseille","lat":43.29794,"lon":5.40407,"is_reserved":false,"is_disabled":false,"rental_uris":{"android":"levelo://app?vid=2eddce15-ddcb-40a0-85e0-40b5ea41221b","ios":"levelo://app?vid=2eddce15-ddcb-40a0-85e0-40b5ea41221b"},"vehicle_type_id":"4","last_reported":1692111979,"current_range_meters":12400,"station_id":"ce4bh112rcd13ifvqd90","pricing_plan_id":"free"},{"bike_id":"6a35a018-fd9d-4ed6-b841-ce711c7b4c73","system_id":"levelo_inurba_marseille","lat":43.288501,"lon":5.393087,"is_reserved":false,"is_disabled":false,"rental_uris":{"android":"levelo://app?vid=6a35a018-fd9d-4ed6-b841-ce711c7b4c73","ios":"levelo://app?vid=6a35a018-fd9d-4ed6-b841-ce711c7b4c73"},"vehicle_type_id":"4","last_reported":1692111979,"current_range_meters":31600,"station_id":"ce4bh2p2rcd13ifvqdi0","pricing_plan_id":"free"},{"bike_id":"3ac0c980-67b3-4d0d-a3ee-94fb8b23a341","system_id":"levelo_inurba_marseille","lat":43.2884,"lon":5.39335,"is_reserved":false,"is_disabled":false,"rental_uris":{"android":"levelo://app?vid=3ac0c980-67b3-4d0d-a3ee-94fb8b23a341","ios":"levelo://app?vid=3ac0c980-67b3-4d0d-a3ee-94fb8b23a341"},"vehicle_type_id":"4","last_reported":1692111979,"current_range_meters":19200,"station_id":"","pricing_plan_id":"free"},{"bike_id":"7ba5e1e4-3cdf-46e7-8e14-aa494fbaa5ae","system_id":"levelo_inurba_marseille","lat":43.2844,"lon":5.3494,"is_reserved":false,"is_disabled":false,"rental_uris":{"android":"levelo://app?vid=7ba5e1e4-3cdf-46e7-8e14-aa494fbaa5ae","ios":"levelo://app?vid=7ba5e1e4-3cdf-46e7-8e14-aa494fbaa5ae"},"vehicle_type_id":"4","last_reported":1692111979,"current_range_meters":9600,"station_id":"","pricing_plan_id":"free"},{"bike_id":"4d54bdae-ca70-43e4-9b88-ae44006553d5","system_id":"levelo_inurba_marseille","lat":43.284219,"lon":5.3497,"is_reserved":false,"is_disabled":false,"rental_uris":{"android":"levelo://app?vid=4d54bdae-ca70-43e4-9b88-ae44006553d5","ios":"levelo://app?vid=4d54bdae-ca70-43e4-9b88-ae44006553d5"},"vehicle_type_id":"4","last_reported":1692111979,"current_range_meters":32000,"station_id":"ce4bhbh2rcd13ifvqepg","pricing_plan_id":"free"},{"bike_id":"eefdc220-7264-47c6-96f2-436ccd506135","system_id":"levelo_inurba_marseille","lat":43.28425,"lon":5.34983,"is_reserved":false,"is_disabled":false,"rental_uris":{"android":"levelo://app?vid=eefdc220-7264-47c6-96f2-436ccd506135","ios":"levelo://app?vid=eefdc220-7264-47c6-96f2-436ccd506135"},"vehicle_type_id":"4","last_reported":1692111979,"current_range_meters":24400,"station_id":"ce4bhbh2rcd13ifvqepg","pricing_plan_id":"free"},{"bike_id":"3957e870-98a9-47e0-8f50-05c3027d58a4","system_id":"levelo_inurba_marseille","lat":43.2842,"lon":5.34986,"is_reserved":false,"is_disabled":false,"rental_uris":{"android":"levelo://app?vid=3957e870-98a9-47e0-8f50-05c3027d58a4","ios":"levelo://app?vid=3957e870-98a9-47e0-8f50-05c3027d58a4"},"vehicle_type_id":"4","last_reported":1692111979,"current_range_meters":30000,"station_id":"ce4bhbh2rcd13ifvqepg","pricing_plan_id":"free"},{"bike_id":"ad5174bd-2f7d-4790-9a35-56b728601f3b","system_id":"levelo_inurba_marseille","lat":43.2842,"lon":5.34983,"is_reserved":false,"is_disabled":false,"rental_uris":{"android":"levelo://app?vid=ad5174bd-2f7d-4790-9a35-56b728601f3b","ios":"levelo://app?vid=ad5174bd-2f7d-4790-9a35-56b728601f3b"},"vehicle_type_id":"4","last_reported":1692111979,"current_range_meters":8800,"station_id":"ce4bhbh2rcd13ifvqepg","pricing_plan_id":"free"},{"bike_id":"2c1061fc-e59d-4315-9734-a667710e24e8","system_id":"levelo_inurba_marseille","lat":43.28418,"lon":5.34988,"is_reserved":false,"is_disabled":false,"rental_uris":{"android":"levelo://app?vid=2c1061fc-e59d-4315-9734-a667710e24e8","ios":"levelo://app?vid=2c1061fc-e59d-4315-9734-a667710e24e8"},"vehicle_type_id":"4","last_reported":1692111979,"current_range_meters":20400,"station_id":"ce4bhbh2rcd13ifvqepg","pricing_plan_id":"free"},{"bike_id":"1c5d59f2-315e-435a-abd3-bf86761ad907","system_id":"levelo_inurba_marseille","lat":43.28417,"lon":5.34991,"is_reserved":false,"is_disabled":false,"rental_uris":{"android":"levelo://app?vid=1c5d59f2-315e-435a-abd3-bf86761ad907","ios":"levelo://app?vid=1c5d59f2-315e-435a-abd3-bf86761ad907"},"vehicle_type_id":"4","last_reported":1692111979,"current_range_meters":21600,"station_id":"ce4bhbh2rcd13ifvqepg","pricing_plan_id":"free"},{"bike_id":"deebab2c-499c-4d44-ad66-80e14cd41381","system_id":"levelo_inurba_marseille","lat":43.284219,"lon":5.3497,"is_reserved":false,"is_disabled":false,"rental_uris":{"android":"levelo://app?vid=deebab2c-499c-4d44-ad66-80e14cd41381","ios":"levelo://app?vid=deebab2c-499c-4d44-ad66-80e14cd41381"},"vehicle_type_id":"4","last_reported":1692111979,"current_range_meters":26400,"station_id":"ce4bhbh2rcd13ifvqepg","pricing_plan_id":"free"},{"bike_id":"c8528649-0f64-4253-8383-e4efe3fa952e","system_id":"levelo_inurba_marseille","lat":43.28418,"lon":5.34978,"is_reserved":false,"is_disabled":false,"rental_uris":{"android":"levelo://app?vid=c8528649-0f64-4253-8383-e4efe3fa952e","ios":"levelo://app?vid=c8528649-0f64-4253-8383-e4efe3fa952e"},"vehicle_type_id":"4","last_reported":1692111979,"current_range_meters":22000,"station_id":"ce4bhbh2rcd13ifvqepg","pricing_plan_id":"free"},{"bike_id":"867d3457-2a34-47bf-a474-2863d29efd43","system_id":"levelo_inurba_marseille","lat":43.28414,"lon":5.34988,"is_reserved":false,"is_disabled":false,"rental_uris":{"android":"levelo://app?vid=867d3457-2a34-47bf-a474-2863d29efd43","ios":"levelo://app?vid=867d3457-2a34-47bf-a474-2863d29efd43"},"vehicle_type_id":"4","last_reported":1692111979,"current_range_meters":30800,"station_id":"ce4bhbh2rcd13ifvqepg","pricing_plan_id":"free"},{"bike_id":"2df04006-9199-4205-a461-66a9eaa7a8eb","system_id":"levelo_inurba_marseille","lat":43.28413,"lon":5.34989,"is_reserved":false,"is_disabled":false,"rental_uris":{"android":"levelo://app?vid=2df04006-9199-4205-a461-66a9eaa7a8eb","ios":"levelo://app?vid=2df04006-9199-4205-a461-66a9eaa7a8eb"},"vehicle_type_id":"4","last_reported":1692111979,"current_range_meters":28400,"station_id":"ce4bhbh2rcd13ifvqepg","pricing_plan_id":"free"},{"bike_id":"a9f94856-bec6-483f-b2a5-f5c814be5d58","system_id":"levelo_inurba_marseille","lat":43.284219,"lon":5.3497,"is_reserved":false,"is_disabled":false,"rental_uris":{"android":"levelo://app?vid=a9f94856-bec6-483f-b2a5-f5c814be5d58","ios":"levelo://app?vid=a9f94856-bec6-483f-b2a5-f5c814be5d58"},"vehicle_type_id":"4","last_reported":1692111979,"current_range_meters":23200,"station_id":"ce4bhbh2rcd13ifvqepg","pricing_plan_id":"free"},{"bike_id":"3e219ffb-0120-4ade-bca6-3f2250efc2c9","system_id":"levelo_inurba_marseille","lat":43.28415,"lon":5.34979,"is_reserved":false,"is_disabled":false,"rental_uris":{"android":"levelo://app?vid=3e219ffb-0120-4ade-bca6-3f2250efc2c9","ios":"levelo://app?vid=3e219ffb-0120-4ade-bca6-3f2250efc2c9"},"vehicle_type_id":"4","last_reported":1692111979,"current_range_meters":22800,"station_id":"ce4bhbh2rcd13ifvqepg","pricing_plan_id":"free"},{"bike_id":"3f84bf41-c394-40b8-9033-c642f167d784","system_id":"levelo_inurba_marseille","lat":43.28413,"lon":5.34984,"is_reserved":false,"is_disabled":false,"rental_uris":{"android":"levelo://app?vid=3f84bf41-c394-40b8-9033-c642f167d784","ios":"levelo://app?vid=3f84bf41-c394-40b8-9033-c642f167d784"},"vehicle_type_id":"4","last_reported":1692111979,"current_range_meters":23600,"station_id":"ce4bhbh2rcd13ifvqepg","pricing_plan_id":"free"},{"bike_id":"605ab3c7-6cba-40a8-9c66-513515b8e61e","system_id":"levelo_inurba_marseille","lat":43.284219,"lon":5.3497,"is_reserved":false,"is_disabled":false,"rental_uris":{"android":"levelo://app?vid=605ab3c7-6cba-40a8-9c66-513515b8e61e","ios":"levelo://app?vid=605ab3c7-6cba-40a8-9c66-513515b8e61e"},"vehicle_type_id":"4","last_reported":1692111979,"current_range_meters":23200,"station_id":"ce4bhbh2rcd13ifvqepg","pricing_plan_id":"free"},{"bike_id":"293fc9ea-2aaf-4938-bd7c-5ffe2064bc26","system_id":"levelo_inurba_marseille","lat":43.28411,"lon":5.3499,"is_reserved":false,"is_disabled":false,"rental_uris":{"android":"levelo://app?vid=293fc9ea-2aaf-4938-bd7c-5ffe2064bc26","ios":"levelo://app?vid=293fc9ea-2aaf-4938-bd7c-5ffe2064bc26"},"vehicle_type_id":"4","last_reported":1692111979,"current_range_meters":26400,"station_id":"ce4bhbh2rcd13ifvqepg","pricing_plan_id":"free"},{"bike_id":"427604d5-61aa-4547-9042-8adc242ddcbc","system_id":"levelo_inurba_marseille","lat":43.284219,"lon":5.3497,"is_reserved":false,"is_disabled":false,"rental_uris":{"android":"levelo://app?vid=427604d5-61aa-4547-9042-8adc242ddcbc","ios":"levelo://app?vid=427604d5-61aa-4547-9042-8adc242ddcbc"},"vehicle_type_id":"4","last_reported":1692111979,"current_range_meters":15600,"station_id":"ce4bhbh2rcd13ifvqepg","pricing_plan_id":"free"},{"bike_id":"b7427ac9-cfb9-4cc5-9e22-9e3e4bd355d8","system_id":"levelo_inurba_marseille","lat":43.28411,"lon":5.34987,"is_reserved":false,"is_disabled":false,"rental_uris":{"android":"levelo://app?vid=b7427ac9-cfb9-4cc5-9e22-9e3e4bd355d8","ios":"levelo://app?vid=b7427ac9-cfb9-4cc5-9e22-9e3e4bd355d8"},"vehicle_type_id":"4","last_reported":1692111979,"current_range_meters":31200,"station_id":"ce4bhbh2rcd13ifvqepg","pricing_plan_id":"free"},{"bike_id":"f22ccac1-ebe9-47ec-9014-254b61a6768a","system_id":"levelo_inurba_marseille","lat":43.28412,"lon":5.34981,"is_reserved":false,"is_disabled":false,"rental_uris":{"android":"levelo://app?vid=f22ccac1-ebe9-47ec-9014-254b61a6768a","ios":"levelo://app?vid=f22ccac1-ebe9-47ec-9014-254b61a6768a"},"vehicle_type_id":"4","last_reported":1692111979,"current_range_meters":3600,"station_id":"ce4bhbh2rcd13ifvqepg","pricing_plan_id":"free"},{"bike_id":"bac0a1fc-e1e5-4ad2-8eb2-538dd9479845","system_id":"levelo_inurba_marseille","lat":43.28411,"lon":5.34982,"is_reserved":false,"is_disabled":false,"rental_uris":{"android":"levelo://app?vid=bac0a1fc-e1e5-4ad2-8eb2-538dd9479845","ios":"levelo://app?vid=bac0a1fc-e1e5-4ad2-8eb2-538dd9479845"},"vehicle_type_id":"4","last_reported":1692111979,"current_range_meters":31200,"station_id":"ce4bhbh2rcd13ifvqepg","pricing_plan_id":"free"},{"bike_id":"bde34e3b-75af-40ba-a46a-f128d73d2db1","system_id":"levelo_inurba_marseille","lat":43.284219,"lon":5.3497,"is_reserved":false,"is_disabled":false,"rental_uris":{"android":"levelo://app?vid=bde34e3b-75af-40ba-a46a-f128d73d2db1","ios":"levelo://app?vid=bde34e3b-75af-40ba-a46a-f128d73d2db1"},"vehicle_type_id":"4","last_reported":1692111979,"current_range_meters":28000,"station_id":"ce4bhbh2rcd13ifvqepg","pricing_plan_id":"free"},{"bike_id":"6bc445f4-80ba-4d8a-85e6-c903b1529bc1","system_id":"levelo_inurba_marseille","lat":43.284219,"lon":5.3497,"is_reserved":false,"is_disabled":false,"rental_uris":{"android":"levelo://app?vid=6bc445f4-80ba-4d8a-85e6-c903b1529bc1","ios":"levelo://app?vid=6bc445f4-80ba-4d8a-85e6-c903b1529bc1"},"vehicle_type_id":"4","last_reported":1692111979,"current_range_meters":26400,"station_id":"ce4bhbh2rcd13ifvqepg","pricing_plan_id":"free"},{"bike_id":"4bc05875-cc65-4506-8fc6-d76ab8061413","system_id":"levelo_inurba_marseille","lat":43.28409,"lon":5.34986,"is_reserved":false,"is_disabled":false,"rental_uris":{"android":"levelo://app?vid=4bc05875-cc65-4506-8fc6-d76ab8061413","ios":"levelo://app?vid=4bc05875-cc65-4506-8fc6-d76ab8061413"},"vehicle_type_id":"4","last_reported":1692111979,"current_range_meters":15200,"station_id":"ce4bhbh2rcd13ifvqepg","pricing_plan_id":"free"},{"bike_id":"85926306-c702-46dc-9dcf-617cda48de16","system_id":"levelo_inurba_marseille","lat":43.28407,"lon":5.34992,"is_reserved":false,"is_disabled":false,"rental_uris":{"android":"levelo://app?vid=85926306-c702-46dc-9dcf-617cda48de16","ios":"levelo://app?vid=85926306-c702-46dc-9dcf-617cda48de16"},"vehicle_type_id":"4","last_reported":1692111979,"current_range_meters":21600,"station_id":"ce4bhbh2rcd13ifvqepg","pricing_plan_id":"free"},{"bike_id":"5d69bfd6-4c13-4b5a-8a26-2cfc56366a27","system_id":"levelo_inurba_marseille","lat":43.284219,"lon":5.3497,"is_reserved":false,"is_disabled":false,"rental_uris":{"android":"levelo://app?vid=5d69bfd6-4c13-4b5a-8a26-2cfc56366a27","ios":"levelo://app?vid=5d69bfd6-4c13-4b5a-8a26-2cfc56366a27"},"vehicle_type_id":"4","last_reported":1692111979,"current_range_meters":22000,"station_id":"ce4bhbh2rcd13ifvqepg","pricing_plan_id":"free"},{"bike_id":"3e4e9013-6f25-449c-907b-71d6956ae302","system_id":"levelo_inurba_marseille","lat":43.28406,"lon":5.34992,"is_reserved":false,"is_disabled":false,"rental_uris":{"android":"levelo://app?vid=3e4e9013-6f25-449c-907b-71d6956ae302","ios":"levelo://app?vid=3e4e9013-6f25-449c-907b-71d6956ae302"},"vehicle_type_id":"4","last_reported":1692111979,"current_range_meters":24400,"station_id":"ce4bhbh2rcd13ifvqepg","pricing_plan_id":"free"},{"bike_id":"8084f710-6678-4c2f-ac17-17e7651b41eb","system_id":"levelo_inurba_marseille","lat":43.28406,"lon":5.34992,"is_reserved":false,"is_disabled":false,"rental_uris":{"android":"levelo://app?vid=8084f710-6678-4c2f-ac17-17e7651b41eb","ios":"levelo://app?vid=8084f710-6678-4c2f-ac17-17e7651b41eb"},"vehicle_type_id":"4","last_reported":1692111979,"current_range_meters":17200,"station_id":"ce4bhbh2rcd13ifvqepg","pricing_plan_id":"free"},{"bike_id":"c7e571e9-d9c7-4e7d-885c-df3ba213020a","system_id":"levelo_inurba_marseille","lat":43.28195,"lon":5.374165,"is_reserved":false,"is_disabled":false,"rental_uris":{"android":"levelo://app?vid=c7e571e9-d9c7-4e7d-885c-df3ba213020a","ios":"levelo://app?vid=c7e571e9-d9c7-4e7d-885c-df3ba213020a"},"vehicle_type_id":"4","last_reported":1692111979,"current_range_meters":27200,"station_id":"","pricing_plan_id":"free"},{"bike_id":"3dcb8ac2-f632-48fa-939d-8d27b73121e4","system_id":"levelo_inurba_marseille","lat":43.28408,"lon":5.34985,"is_reserved":false,"is_disabled":false,"rental_uris":{"android":"levelo://app?vid=3dcb8ac2-f632-48fa-939d-8d27b73121e4","ios":"levelo://app?vid=3dcb8ac2-f632-48fa-939d-8d27b73121e4"},"vehicle_type_id":"4","last_reported":1692111979,"current_range_meters":31200,"station_id":"ce4bhbh2rcd13ifvqepg","pricing_plan_id":"free"},{"bike_id":"ae75b222-f9bc-4e5d-b945-736598a739d0","system_id":"levelo_inurba_marseille","lat":43.28406,"lon":5.34989,"is_reserved":false,"is_disabled":false,"rental_uris":{"android":"levelo://app?vid=ae75b222-f9bc-4e5d-b945-736598a739d0","ios":"levelo://app?vid=ae75b222-f9bc-4e5d-b945-736598a739d0"},"vehicle_type_id":"4","last_reported":1692111979,"current_range_meters":22400,"station_id":"ce4bhbh2rcd13ifvqepg","pricing_plan_id":"free"},{"bike_id":"5ea3a5f2-4851-4e40-8959-f6c0f3b668ec","system_id":"levelo_inurba_marseille","lat":43.28406,"lon":5.34989,"is_reserved":false,"is_disabled":false,"rental_uris":{"android":"levelo://app?vid=5ea3a5f2-4851-4e40-8959-f6c0f3b668ec","ios":"levelo://app?vid=5ea3a5f2-4851-4e40-8959-f6c0f3b668ec"},"vehicle_type_id":"4","last_reported":1692111979,"current_range_meters":24000,"station_id":"ce4bhbh2rcd13ifvqepg","pricing_plan_id":"free"},{"bike_id":"2e041027-8817-47b0-900a-e30c24a7bedf","system_id":"levelo_inurba_marseille","lat":43.28409,"lon":5.34979,"is_reserved":false,"is_disabled":false,"rental_uris":{"android":"levelo://app?vid=2e041027-8817-47b0-900a-e30c24a7bedf","ios":"levelo://app?vid=2e041027-8817-47b0-900a-e30c24a7bedf"},"vehicle_type_id":"4","last_reported":1692111979,"current_range_meters":29600,"station_id":"ce4bhbh2rcd13ifvqepg","pricing_plan_id":"free"},{"bike_id":"370378c0-8e86-4892-814c-ebb0e8de138a","system_id":"levelo_inurba_marseille","lat":43.28407,"lon":5.34983,"is_reserved":false,"is_disabled":false,"rental_uris":{"android":"levelo://app?vid=370378c0-8e86-4892-814c-ebb0e8de138a","ios":"levelo://app?vid=370378c0-8e86-4892-814c-ebb0e8de138a"},"vehicle_type_id":"4","last_reported":1692111979,"current_range_meters":16400,"station_id":"ce4bhbh2rcd13ifvqepg","pricing_plan_id":"free"},{"bike_id":"34acbeb6-04b1-4ced-a8c8-a95c55e67ae5","system_id":"levelo_inurba_marseille","lat":43.28406,"lon":5.34985,"is_reserved":false,"is_disabled":false,"rental_uris":{"android":"levelo://app?vid=34acbeb6-04b1-4ced-a8c8-a95c55e67ae5","ios":"levelo://app?vid=34acbeb6-04b1-4ced-a8c8-a95c55e67ae5"},"vehicle_type_id":"4","last_reported":1692111979,"current_range_meters":17200,"station_id":"ce4bhbh2rcd13ifvqepg","pricing_plan_id":"free"},{"bike_id":"dee9588d-bd91-47f2-8042-6a890f486532","system_id":"levelo_inurba_marseille","lat":43.28405,"lon":5.34988,"is_reserved":false,"is_disabled":false,"rental_uris":{"android":"levelo://app?vid=dee9588d-bd91-47f2-8042-6a890f486532","ios":"levelo://app?vid=dee9588d-bd91-47f2-8042-6a890f486532"},"vehicle_type_id":"4","last_reported":1692111979,"current_range_meters":23600,"station_id":"ce4bhbh2rcd13ifvqepg","pricing_plan_id":"free"},{"bike_id":"e0013586-3f38-4de8-88a5-dddf92b25e70","system_id":"levelo_inurba_marseille","lat":43.28406,"lon":5.34981,"is_reserved":false,"is_disabled":false,"rental_uris":{"android":"levelo://app?vid=e0013586-3f38-4de8-88a5-dddf92b25e70","ios":"levelo://app?vid=e0013586-3f38-4de8-88a5-dddf92b25e70"},"vehicle_type_id":"4","last_reported":1692111979,"current_range_meters":30400,"station_id":"ce4bhbh2rcd13ifvqepg","pricing_plan_id":"free"},{"bike_id":"b51b579e-2e51-43de-8af0-ae7e7a0fc104","system_id":"levelo_inurba_marseille","lat":43.284219,"lon":5.3497,"is_reserved":false,"is_disabled":false,"rental_uris":{"android":"levelo://app?vid=b51b579e-2e51-43de-8af0-ae7e7a0fc104","ios":"levelo://app?vid=b51b579e-2e51-43de-8af0-ae7e7a0fc104"},"vehicle_type_id":"4","last_reported":1692111979,"current_range_meters":22800,"station_id":"ce4bhbh2rcd13ifvqepg","pricing_plan_id":"free"},{"bike_id":"cc2336d3-5fec-4944-b0b2-a91c0a3c26f0","system_id":"levelo_inurba_marseille","lat":43.28406,"lon":5.3498,"is_reserved":false,"is_disabled":false,"rental_uris":{"android":"levelo://app?vid=cc2336d3-5fec-4944-b0b2-a91c0a3c26f0","ios":"levelo://app?vid=cc2336d3-5fec-4944-b0b2-a91c0a3c26f0"},"vehicle_type_id":"4","last_reported":1692111979,"current_range_meters":16400,"station_id":"ce4bhbh2rcd13ifvqepg","pricing_plan_id":"free"},{"bike_id":"5cec26ac-344f-432b-af34-450b75305b9b","system_id":"levelo_inurba_marseille","lat":43.292724,"lon":5.401131,"is_reserved":false,"is_disabled":false,"rental_uris":{"android":"levelo://app?vid=5cec26ac-344f-432b-af34-450b75305b9b","ios":"levelo://app?vid=5cec26ac-344f-432b-af34-450b75305b9b"},"vehicle_type_id":"4","last_reported":1692111979,"current_range_meters":31600,"station_id":"ce4bh312rcd13ifvqdk0","pricing_plan_id":"free"},{"bike_id":"8bd47f20-cf6e-4355-9f71-68aeae50fda9","system_id":"levelo_inurba_marseille","lat":43.28284,"lon":5.35078,"is_reserved":false,"is_disabled":false,"rental_uris":{"android":"levelo://app?vid=8bd47f20-cf6e-4355-9f71-68aeae50fda9","ios":"levelo://app?vid=8bd47f20-cf6e-4355-9f71-68aeae50fda9"},"vehicle_type_id":"4","last_reported":1692111979,"current_range_meters":8800,"station_id":"ce4bhbp2rcd13ifvqerg","pricing_plan_id":"free"},{"bike_id":"919981dd-d65d-4392-8f90-a790c92b0f13","system_id":"levelo_inurba_marseille","lat":43.282744,"lon":5.350533,"is_reserved":false,"is_disabled":false,"rental_uris":{"android":"levelo://app?vid=919981dd-d65d-4392-8f90-a790c92b0f13","ios":"levelo://app?vid=919981dd-d65d-4392-8f90-a790c92b0f13"},"vehicle_type_id":"4","last_reported":1692111979,"current_range_meters":13200,"station_id":"ce4bhbp2rcd13ifvqerg","pricing_plan_id":"free"},{"bike_id":"38713ab4-7669-40ef-aa19-1fdfd5fe576a","system_id":"levelo_inurba_marseille","lat":43.28276,"lon":5.35073,"is_reserved":false,"is_disabled":false,"rental_uris":{"android":"levelo://app?vid=38713ab4-7669-40ef-aa19-1fdfd5fe576a","ios":"levelo://app?vid=38713ab4-7669-40ef-aa19-1fdfd5fe576a"},"vehicle_type_id":"4","last_reported":1692111979,"current_range_meters":24400,"station_id":"ce4bhbp2rcd13ifvqerg","pricing_plan_id":"free"},{"bike_id":"926d5094-ed0d-4109-b77a-110cfef3baac","system_id":"levelo_inurba_marseille","lat":43.28271,"lon":5.35076,"is_reserved":false,"is_disabled":false,"rental_uris":{"android":"levelo://app?vid=926d5094-ed0d-4109-b77a-110cfef3baac","ios":"levelo://app?vid=926d5094-ed0d-4109-b77a-110cfef3baac"},"vehicle_type_id":"4","last_reported":1692111979,"current_range_meters":16400,"station_id":"ce4bhbp2rcd13ifvqerg","pricing_plan_id":"free"},{"bike_id":"f3df09df-cfb7-458a-87ce-e775d7c573c7","system_id":"levelo_inurba_marseille","lat":43.2827,"lon":5.35077,"is_reserved":false,"is_disabled":false,"rental_uris":{"android":"levelo://app?vid=f3df09df-cfb7-458a-87ce-e775d7c573c7","ios":"levelo://app?vid=f3df09df-cfb7-458a-87ce-e775d7c573c7"},"vehicle_type_id":"4","last_reported":1692111979,"current_range_meters":19200,"station_id":"ce4bhbp2rcd13ifvqerg","pricing_plan_id":"free"},{"bike_id":"b5fd07e0-7c8e-4a4b-9e1f-e4d6d1d0c605","system_id":"levelo_inurba_marseille","lat":43.282744,"lon":5.350533,"is_reserved":false,"is_disabled":false,"rental_uris":{"android":"levelo://app?vid=b5fd07e0-7c8e-4a4b-9e1f-e4d6d1d0c605","ios":"levelo://app?vid=b5fd07e0-7c8e-4a4b-9e1f-e4d6d1d0c605"},"vehicle_type_id":"4","last_reported":1692111979,"current_range_meters":31600,"station_id":"ce4bhbp2rcd13ifvqerg","pricing_plan_id":"free"},{"bike_id":"098ddd39-a6c7-4410-846b-0d8e4319d8c4","system_id":"levelo_inurba_marseille","lat":43.28269,"lon":5.35077,"is_reserved":false,"is_disabled":false,"rental_uris":{"android":"levelo://app?vid=098ddd39-a6c7-4410-846b-0d8e4319d8c4","ios":"levelo://app?vid=098ddd39-a6c7-4410-846b-0d8e4319d8c4"},"vehicle_type_id":"4","last_reported":1692111979,"current_range_meters":23600,"station_id":"ce4bhbp2rcd13ifvqerg","pricing_plan_id":"free"},{"bike_id":"403ccd2a-768f-4413-a555-ed1bfa4e77da","system_id":"levelo_inurba_marseille","lat":43.28274,"lon":5.35058,"is_reserved":false,"is_disabled":false,"rental_uris":{"android":"levelo://app?vid=403ccd2a-768f-4413-a555-ed1bfa4e77da","ios":"levelo://app?vid=403ccd2a-768f-4413-a555-ed1bfa4e77da"},"vehicle_type_id":"4","last_reported":1692111979,"current_range_meters":31200,"station_id":"ce4bhbp2rcd13ifvqerg","pricing_plan_id":"free"},{"bike_id":"43b8d28c-8626-4998-9f20-aa1185da9a8d","system_id":"levelo_inurba_marseille","lat":43.282708,"lon":5.350687,"is_reserved":false,"is_disabled":false,"rental_uris":{"android":"levelo://app?vid=43b8d28c-8626-4998-9f20-aa1185da9a8d","ios":"levelo://app?vid=43b8d28c-8626-4998-9f20-aa1185da9a8d"},"vehicle_type_id":"4","last_reported":1692111979,"current_range_meters":13200,"station_id":"ce4bhbp2rcd13ifvqerg","pricing_plan_id":"free"},{"bike_id":"b33d75f4-17a5-42c8-b7f5-1775f63593eb","system_id":"levelo_inurba_marseille","lat":43.28273,"lon":5.35059,"is_reserved":false,"is_disabled":false,"rental_uris":{"android":"levelo://app?vid=b33d75f4-17a5-42c8-b7f5-1775f63593eb","ios":"levelo://app?vid=b33d75f4-17a5-42c8-b7f5-1775f63593eb"},"vehicle_type_id":"4","last_reported":1692111979,"current_range_meters":20400,"station_id":"ce4bhbp2rcd13ifvqerg","pricing_plan_id":"free"},{"bike_id":"03e7c31a-03ed-4cd0-91a0-8895a15b7662","system_id":"levelo_inurba_marseille","lat":43.282744,"lon":5.350533,"is_reserved":false,"is_disabled":false,"rental_uris":{"android":"levelo://app?vid=03e7c31a-03ed-4cd0-91a0-8895a15b7662","ios":"levelo://app?vid=03e7c31a-03ed-4cd0-91a0-8895a15b7662"},"vehicle_type_id":"4","last_reported":1692111979,"current_range_meters":32000,"station_id":"ce4bhbp2rcd13ifvqerg","pricing_plan_id":"free"},{"bike_id":"88b850eb-bc6e-496d-8fbd-8b1d6e32ceae","system_id":"levelo_inurba_marseille","lat":43.28271,"lon":5.35062,"is_reserved":false,"is_disabled":false,"rental_uris":{"android":"levelo://app?vid=88b850eb-bc6e-496d-8fbd-8b1d6e32ceae","ios":"levelo://app?vid=88b850eb-bc6e-496d-8fbd-8b1d6e32ceae"},"vehicle_type_id":"4","last_reported":1692111979,"current_range_meters":18400,"station_id":"ce4bhbp2rcd13ifvqerg","pricing_plan_id":"free"},{"bike_id":"4e732017-11b2-40c3-94c3-8d6b5ee42d7a","system_id":"levelo_inurba_marseille","lat":43.282678,"lon":5.35069,"is_reserved":false,"is_disabled":false,"rental_uris":{"android":"levelo://app?vid=4e732017-11b2-40c3-94c3-8d6b5ee42d7a","ios":"levelo://app?vid=4e732017-11b2-40c3-94c3-8d6b5ee42d7a"},"vehicle_type_id":"4","last_reported":1692111979,"current_range_meters":0,"station_id":"ce4bhbp2rcd13ifvqerg","pricing_plan_id":"free"},{"bike_id":"1d60a11e-ba09-4bfe-839e-9b7958df086a","system_id":"levelo_inurba_marseille","lat":43.28269,"lon":5.35064,"is_reserved":false,"is_disabled":false,"rental_uris":{"android":"levelo://app?vid=1d60a11e-ba09-4bfe-839e-9b7958df086a","ios":"levelo://app?vid=1d60a11e-ba09-4bfe-839e-9b7958df086a"},"vehicle_type_id":"4","last_reported":1692111979,"current_range_meters":20400,"station_id":"ce4bhbp2rcd13ifvqerg","pricing_plan_id":"free"},{"bike_id":"88940920-727e-47f8-bee6-24feedff1167","system_id":"levelo_inurba_marseille","lat":43.28267,"lon":5.3507,"is_reserved":false,"is_disabled":false,"rental_uris":{"android":"levelo://app?vid=88940920-727e-47f8-bee6-24feedff1167","ios":"levelo://app?vid=88940920-727e-47f8-bee6-24feedff1167"},"vehicle_type_id":"4","last_reported":1692111979,"current_range_meters":30800,"station_id":"ce4bhbp2rcd13ifvqerg","pricing_plan_id":"free"},{"bike_id":"8d884bb1-6178-4e22-82af-0b883dcbdb3f","system_id":"levelo_inurba_marseille","lat":43.28266,"lon":5.35073,"is_reserved":false,"is_disabled":false,"rental_uris":{"android":"levelo://app?vid=8d884bb1-6178-4e22-82af-0b883dcbdb3f","ios":"levelo://app?vid=8d884bb1-6178-4e22-82af-0b883dcbdb3f"},"vehicle_type_id":"4","last_reported":1692111979,"current_range_meters":25200,"station_id":"ce4bhbp2rcd13ifvqerg","pricing_plan_id":"free"},{"bike_id":"7472d32e-a839-4394-8a54-3cce370168bb","system_id":"levelo_inurba_marseille","lat":43.28268,"lon":5.35065,"is_reserved":false,"is_disabled":false,"rental_uris":{"android":"levelo://app?vid=7472d32e-a839-4394-8a54-3cce370168bb","ios":"levelo://app?vid=7472d32e-a839-4394-8a54-3cce370168bb"},"vehicle_type_id":"4","last_reported":1692111979,"current_range_meters":31200,"station_id":"ce4bhbp2rcd13ifvqerg","pricing_plan_id":"free"},{"bike_id":"d367f331-2ed0-4852-9d76-9702dce02e82","system_id":"levelo_inurba_marseille","lat":43.28262,"lon":5.35086,"is_reserved":false,"is_disabled":false,"rental_uris":{"android":"levelo://app?vid=d367f331-2ed0-4852-9d76-9702dce02e82","ios":"levelo://app?vid=d367f331-2ed0-4852-9d76-9702dce02e82"},"vehicle_type_id":"4","last_reported":1692111979,"current_range_meters":14400,"station_id":"ce4bhbp2rcd13ifvqerg","pricing_plan_id":"free"},{"bike_id":"ef7feec2-d4dd-4a04-a3f8-407cc88cb817","system_id":"levelo_inurba_marseille","lat":43.28266,"lon":5.35071,"is_reserved":false,"is_disabled":false,"rental_uris":{"android":"levelo://app?vid=ef7feec2-d4dd-4a04-a3f8-407cc88cb817","ios":"levelo://app?vid=ef7feec2-d4dd-4a04-a3f8-407cc88cb817"},"vehicle_type_id":"4","last_reported":1692111979,"current_range_meters":30000,"station_id":"ce4bhbp2rcd13ifvqerg","pricing_plan_id":"free"},{"bike_id":"26c677cc-e4f7-41c8-a05d-3bb4e07705dc","system_id":"levelo_inurba_marseille","lat":43.282744,"lon":5.350533,"is_reserved":false,"is_disabled":false,"rental_uris":{"android":"levelo://app?vid=26c677cc-e4f7-41c8-a05d-3bb4e07705dc","ios":"levelo://app?vid=26c677cc-e4f7-41c8-a05d-3bb4e07705dc"},"vehicle_type_id":"4","last_reported":1692111979,"current_range_meters":19600,"station_id":"ce4bhbp2rcd13ifvqerg","pricing_plan_id":"free"},{"bike_id":"78539e81-3c84-496a-8c38-e46455cd5e3f","system_id":"levelo_inurba_marseille","lat":43.28266,"lon":5.3507,"is_reserved":false,"is_disabled":false,"rental_uris":{"android":"levelo://app?vid=78539e81-3c84-496a-8c38-e46455cd5e3f","ios":"levelo://app?vid=78539e81-3c84-496a-8c38-e46455cd5e3f"},"vehicle_type_id":"4","last_reported":1692111979,"current_range_meters":18800,"station_id":"ce4bhbp2rcd13ifvqerg","pricing_plan_id":"free"},{"bike_id":"374d30c9-3a7d-444b-9206-d4b48c49c61a","system_id":"levelo_inurba_marseille","lat":43.28267,"lon":5.35066,"is_reserved":false,"is_disabled":false,"rental_uris":{"android":"levelo://app?vid=374d30c9-3a7d-444b-9206-d4b48c49c61a","ios":"levelo://app?vid=374d30c9-3a7d-444b-9206-d4b48c49c61a"},"vehicle_type_id":"4","last_reported":1692111979,"current_range_meters":7600,"station_id":"ce4bhbp2rcd13ifvqerg","pricing_plan_id":"free"},{"bike_id":"2986039d-98b8-4b96-a1da-1aec9bb0aa6d","system_id":"levelo_inurba_marseille","lat":43.28266,"lon":5.35069,"is_reserved":false,"is_disabled":false,"rental_uris":{"android":"levelo://app?vid=2986039d-98b8-4b96-a1da-1aec9bb0aa6d","ios":"levelo://app?vid=2986039d-98b8-4b96-a1da-1aec9bb0aa6d"},"vehicle_type_id":"4","last_reported":1692111979,"current_range_meters":26400,"station_id":"ce4bhbp2rcd13ifvqerg","pricing_plan_id":"free"},{"bike_id":"89f0f6e8-b8bc-49ff-a1de-1d673a12a234","system_id":"levelo_inurba_marseille","lat":43.28266,"lon":5.35069,"is_reserved":false,"is_disabled":false,"rental_uris":{"android":"levelo://app?vid=89f0f6e8-b8bc-49ff-a1de-1d673a12a234","ios":"levelo://app?vid=89f0f6e8-b8bc-49ff-a1de-1d673a12a234"},"vehicle_type_id":"4","last_reported":1692111979,"current_range_meters":21600,"station_id":"ce4bhbp2rcd13ifvqerg","pricing_plan_id":"free"},{"bike_id":"a358a6af-c6e2-44c0-96c3-316035199677","system_id":"levelo_inurba_marseille","lat":43.28263,"lon":5.35079,"is_reserved":false,"is_disabled":false,"rental_uris":{"android":"levelo://app?vid=a358a6af-c6e2-44c0-96c3-316035199677","ios":"levelo://app?vid=a358a6af-c6e2-44c0-96c3-316035199677"},"vehicle_type_id":"4","last_reported":1692111979,"current_range_meters":12400,"station_id":"ce4bhbp2rcd13ifvqerg","pricing_plan_id":"free"},{"bike_id":"2fe304ac-3c52-41fc-8038-b47d99163456","system_id":"levelo_inurba_marseille","lat":43.28263,"lon":5.35078,"is_reserved":false,"is_disabled":false,"rental_uris":{"android":"levelo://app?vid=2fe304ac-3c52-41fc-8038-b47d99163456","ios":"levelo://app?vid=2fe304ac-3c52-41fc-8038-b47d99163456"},"vehicle_type_id":"4","last_reported":1692111979,"current_range_meters":19600,"station_id":"ce4bhbp2rcd13ifvqerg","pricing_plan_id":"free"},{"bike_id":"cc963502-0f9c-488d-a4bb-0085d88fcbd8","system_id":"levelo_inurba_marseille","lat":43.282744,"lon":5.350533,"is_reserved":false,"is_disabled":false,"rental_uris":{"android":"levelo://app?vid=cc963502-0f9c-488d-a4bb-0085d88fcbd8","ios":"levelo://app?vid=cc963502-0f9c-488d-a4bb-0085d88fcbd8"},"vehicle_type_id":"4","last_reported":1692111979,"current_range_meters":20000,"station_id":"ce4bhbp2rcd13ifvqerg","pricing_plan_id":"free"},{"bike_id":"dcd68909-0945-415f-bcdb-0d6d5c3da854","system_id":"levelo_inurba_marseille","lat":43.28263,"lon":5.35075,"is_reserved":false,"is_disabled":false,"rental_uris":{"android":"levelo://app?vid=dcd68909-0945-415f-bcdb-0d6d5c3da854","ios":"levelo://app?vid=dcd68909-0945-415f-bcdb-0d6d5c3da854"},"vehicle_type_id":"4","last_reported":1692111979,"current_range_meters":21200,"station_id":"ce4bhbp2rcd13ifvqerg","pricing_plan_id":"free"},{"bike_id":"4485c9fe-663b-4210-917b-e3355f1ec44c","system_id":"levelo_inurba_marseille","lat":43.28266,"lon":5.35064,"is_reserved":false,"is_disabled":false,"rental_uris":{"android":"levelo://app?vid=4485c9fe-663b-4210-917b-e3355f1ec44c","ios":"levelo://app?vid=4485c9fe-663b-4210-917b-e3355f1ec44c"},"vehicle_type_id":"4","last_reported":1692111979,"current_range_meters":24800,"station_id":"ce4bhbp2rcd13ifvqerg","pricing_plan_id":"free"},{"bike_id":"dba9b45c-1672-417d-8c21-a33e06fbad17","system_id":"levelo_inurba_marseille","lat":43.28264,"lon":5.3507,"is_reserved":false,"is_disabled":false,"rental_uris":{"android":"levelo://app?vid=dba9b45c-1672-417d-8c21-a33e06fbad17","ios":"levelo://app?vid=dba9b45c-1672-417d-8c21-a33e06fbad17"},"vehicle_type_id":"4","last_reported":1692111979,"current_range_meters":24800,"station_id":"ce4bhbp2rcd13ifvqerg","pricing_plan_id":"free"},{"bike_id":"947bec58-7821-49e2-9a8f-dcc1bb9d744f","system_id":"levelo_inurba_marseille","lat":43.28264,"lon":5.35067,"is_reserved":false,"is_disabled":false,"rental_uris":{"android":"levelo://app?vid=947bec58-7821-49e2-9a8f-dcc1bb9d744f","ios":"levelo://app?vid=947bec58-7821-49e2-9a8f-dcc1bb9d744f"},"vehicle_type_id":"4","last_reported":1692111979,"current_range_meters":22400,"station_id":"ce4bhbp2rcd13ifvqerg","pricing_plan_id":"free"},{"bike_id":"57145e5f-329e-4161-8cc3-aff85302ff46","system_id":"levelo_inurba_marseille","lat":43.282744,"lon":5.350533,"is_reserved":false,"is_disabled":false,"rental_uris":{"android":"levelo://app?vid=57145e5f-329e-4161-8cc3-aff85302ff46","ios":"levelo://app?vid=57145e5f-329e-4161-8cc3-aff85302ff46"},"vehicle_type_id":"4","last_reported":1692111979,"current_range_meters":25600,"station_id":"ce4bhbp2rcd13ifvqerg","pricing_plan_id":"free"},{"bike_id":"40362ba0-cd80-44da-bb90-e8ce62c91593","system_id":"levelo_inurba_marseille","lat":43.282744,"lon":5.350533,"is_reserved":false,"is_disabled":false,"rental_uris":{"android":"levelo://app?vid=40362ba0-cd80-44da-bb90-e8ce62c91593","ios":"levelo://app?vid=40362ba0-cd80-44da-bb90-e8ce62c91593"},"vehicle_type_id":"4","last_reported":1692111979,"current_range_meters":22000,"station_id":"ce4bhbp2rcd13ifvqerg","pricing_plan_id":"free"},{"bike_id":"da8b5f4d-4de3-42f7-824b-10a028e7dab3","system_id":"levelo_inurba_marseille","lat":43.28264,"lon":5.35061,"is_reserved":false,"is_disabled":false,"rental_uris":{"android":"levelo://app?vid=da8b5f4d-4de3-42f7-824b-10a028e7dab3","ios":"levelo://app?vid=da8b5f4d-4de3-42f7-824b-10a028e7dab3"},"vehicle_type_id":"4","last_reported":1692111979,"current_range_meters":25200,"station_id":"ce4bhbp2rcd13ifvqerg","pricing_plan_id":"free"},{"bike_id":"e820f7f8-23df-41f0-b029-30e2a2e4247e","system_id":"levelo_inurba_marseille","lat":43.28266,"lon":5.35052,"is_reserved":false,"is_disabled":false,"rental_uris":{"android":"levelo://app?vid=e820f7f8-23df-41f0-b029-30e2a2e4247e","ios":"levelo://app?vid=e820f7f8-23df-41f0-b029-30e2a2e4247e"},"vehicle_type_id":"4","last_reported":1692111979,"current_range_meters":20400,"station_id":"ce4bhbp2rcd13ifvqerg","pricing_plan_id":"free"},{"bike_id":"150dfb09-8803-4bc4-b356-d5702ee1ba09","system_id":"levelo_inurba_marseille","lat":43.28261,"lon":5.35068,"is_reserved":false,"is_disabled":false,"rental_uris":{"android":"levelo://app?vid=150dfb09-8803-4bc4-b356-d5702ee1ba09","ios":"levelo://app?vid=150dfb09-8803-4bc4-b356-d5702ee1ba09"},"vehicle_type_id":"4","last_reported":1692111979,"current_range_meters":25600,"station_id":"ce4bhbp2rcd13ifvqerg","pricing_plan_id":"free"},{"bike_id":"196f1ffd-ff3d-4c80-9106-31d7acf337e3","system_id":"levelo_inurba_marseille","lat":43.282744,"lon":5.350533,"is_reserved":false,"is_disabled":false,"rental_uris":{"android":"levelo://app?vid=196f1ffd-ff3d-4c80-9106-31d7acf337e3","ios":"levelo://app?vid=196f1ffd-ff3d-4c80-9106-31d7acf337e3"},"vehicle_type_id":"4","last_reported":1692111979,"current_range_meters":15200,"station_id":"ce4bhbp2rcd13ifvqerg","pricing_plan_id":"free"},{"bike_id":"f3cc2bb9-4935-4cdf-bbe5-402ced0c468a","system_id":"levelo_inurba_marseille","lat":43.282629,"lon":5.350604,"is_reserved":false,"is_disabled":false,"rental_uris":{"android":"levelo://app?vid=f3cc2bb9-4935-4cdf-bbe5-402ced0c468a","ios":"levelo://app?vid=f3cc2bb9-4935-4cdf-bbe5-402ced0c468a"},"vehicle_type_id":"4","last_reported":1692111979,"current_range_meters":1200,"station_id":"ce4bhbp2rcd13ifvqerg","pricing_plan_id":"free"},{"bike_id":"f7d82192-fb38-49ed-9b1b-58bb5ead55b5","system_id":"levelo_inurba_marseille","lat":43.28262,"lon":5.35063,"is_reserved":false,"is_disabled":false,"rental_uris":{"android":"levelo://app?vid=f7d82192-fb38-49ed-9b1b-58bb5ead55b5","ios":"levelo://app?vid=f7d82192-fb38-49ed-9b1b-58bb5ead55b5"},"vehicle_type_id":"4","last_reported":1692111979,"current_range_meters":27200,"station_id":"ce4bhbp2rcd13ifvqerg","pricing_plan_id":"free"},{"bike_id":"495f2bba-7aed-4ed0-8dc9-694042e140c7","system_id":"levelo_inurba_marseille","lat":43.28257,"lon":5.3508,"is_reserved":false,"is_disabled":false,"rental_uris":{"android":"levelo://app?vid=495f2bba-7aed-4ed0-8dc9-694042e140c7","ios":"levelo://app?vid=495f2bba-7aed-4ed0-8dc9-694042e140c7"},"vehicle_type_id":"4","last_reported":1692111979,"current_range_meters":26800,"station_id":"ce4bhbp2rcd13ifvqerg","pricing_plan_id":"free"},{"bike_id":"fa545797-fb28-4db1-bfe2-91d8e312bcde","system_id":"levelo_inurba_marseille","lat":43.282744,"lon":5.350533,"is_reserved":false,"is_disabled":false,"rental_uris":{"android":"levelo://app?vid=fa545797-fb28-4db1-bfe2-91d8e312bcde","ios":"levelo://app?vid=fa545797-fb28-4db1-bfe2-91d8e312bcde"},"vehicle_type_id":"4","last_reported":1692111979,"current_range_meters":11200,"station_id":"ce4bhbp2rcd13ifvqerg","pricing_plan_id":"free"},{"bike_id":"e96b4e01-a034-439f-bac8-95d6142d8d3a","system_id":"levelo_inurba_marseille","lat":43.28257,"lon":5.35077,"is_reserved":false,"is_disabled":false,"rental_uris":{"android":"levelo://app?vid=e96b4e01-a034-439f-bac8-95d6142d8d3a","ios":"levelo://app?vid=e96b4e01-a034-439f-bac8-95d6142d8d3a"},"vehicle_type_id":"4","last_reported":1692111979,"current_range_meters":21200,"station_id":"ce4bhbp2rcd13ifvqerg","pricing_plan_id":"free"},{"bike_id":"e228e044-6572-4dde-b840-84d907d19fbe","system_id":"levelo_inurba_marseille","lat":43.28262,"lon":5.35059,"is_reserved":false,"is_disabled":false,"rental_uris":{"android":"levelo://app?vid=e228e044-6572-4dde-b840-84d907d19fbe","ios":"levelo://app?vid=e228e044-6572-4dde-b840-84d907d19fbe"},"vehicle_type_id":"4","last_reported":1692111979,"current_range_meters":28800,"station_id":"ce4bhbp2rcd13ifvqerg","pricing_plan_id":"free"},{"bike_id":"b70cc6b7-91a7-4556-a17d-8aa2e72142a1","system_id":"levelo_inurba_marseille","lat":43.28257,"lon":5.35073,"is_reserved":false,"is_disabled":false,"rental_uris":{"android":"levelo://app?vid=b70cc6b7-91a7-4556-a17d-8aa2e72142a1","ios":"levelo://app?vid=b70cc6b7-91a7-4556-a17d-8aa2e72142a1"},