{"last_updated":1678647926,"ttl":30,"version":"2.2","data":{"bikes":[{"bike_id":"a83893b4-2c46-41ac-9dc0-b88fa872a035","system_id":"levelo_inurba_marseille","lat":43.3122,"lon":5.36853,"is_reserved":false,"is_disabled":false,"rental_uris":{"android":"levelo://app?vid=a83893b4-2c46-41ac-9dc0-b88fa872a035","ios":"levelo://app?vid=a83893b4-2c46-41ac-9dc0-b88fa872a035"},"vehicle_type_id":"4","last_reported":1678647927,"current_range_meters":4000,"station_id":"ce4bgl92rcd13ifvqbq0","pricing_plan_id":"free"},{"bike_id":"bbcd56fd-1fc3-44ae-97e9-149543156060","system_id":"levelo_inurba_marseille","lat":43.309045,"lon":5.3685,"is_reserved":false,"is_disabled":false,"rental_uris":{"android":"levelo://app?vid=bbcd56fd-1fc3-44ae-97e9-149543156060","ios":"levelo://app?vid=bbcd56fd-1fc3-44ae-97e9-149543156060"},"vehicle_type_id":"4","last_reported":1678647927,"current_range_meters":0,"station_id":"","pricing_plan_id":"free"},{"bike_id":"d5e7a589-0376-4f4e-9c06-9326b01871d0","system_id":"levelo_inurba_marseille","lat":43.308614,"lon":5.372098,"is_reserved":false,"is_disabled":false,"rental_uris":{"android":"levelo://app?vid=d5e7a589-0376-4f4e-9c06-9326b01871d0","ios":"levelo://app?vid=d5e7a589-0376-4f4e-9c06-9326b01871d0"},"vehicle_type_id":"4","last_reported":1678647927,"current_range_meters":0,"station_id":"ce4bguh2rcd13ifvqckg","pricing_plan_id":"free"},{"bike_id":"ccf42d3a-5a2a-44b4-8a68-aa47682ebb3c","system_id":"levelo_inurba_marseille","lat":43.31788,"lon":5.36824,"is_reserved":false,"is_disabled":false,"rental_uris":{"android":"levelo://app?vid=ccf42d3a-5a2a-44b4-8a68-aa47682ebb3c","ios":"levelo://app?vid=ccf42d3a-5a2a-44b4-8a68-aa47682ebb3c"},"vehicle_type_id":"4","last_reported":1678647927,"current_range_meters":8400,"station_id":"","pricing_plan_id":"free"},{"bike_id":"da595490-80e5-4660-9986-d06b79e7425a","system_id":"levelo_inurba_marseille","lat":43.308614,"lon":5.372098,"is_reserved":false,"is_disabled":false,"rental_uris":{"android":"levelo://app?vid=da595490-80e5-4660-9986-d06b79e7425a","ios":"levelo://app?vid=da595490-80e5-4660-9986-d06b79e7425a"},"vehicle_type_id":"4","last_reported":1678647927,"current_range_meters":22000,"station_id":"ce4bguh2rcd13ifvqckg","pricing_plan_id":"free"},{"bike_id":"6aaf76dc-bba7-43f6-a963-a23972595048","system_id":"levelo_inurba_marseille","lat":43.30884,"lon":5.37198,"is_reserved":false,"is_disabled":false,"rental_uris":{"android":"levelo://app?vid=6aaf76dc-bba7-43f6-a963-a23972595048","ios":"levelo://app?vid=6aaf76dc-bba7-43f6-a963-a23972595048"},"vehicle_type_id":"4","last_reported":1678647927,"current_range_meters":31200,"station_id":"","pricing_plan_id":"free"},{"bike_id":"0a85fff5-6622-431c-8407-9bc3c32ac97a","system_id":"levelo_inurba_marseille","lat":43.308614,"lon":5.372098,"is_reserved":false,"is_disabled":false,"rental_uris":{"android":"levelo://app?vid=0a85fff5-6622-431c-8407-9bc3c32ac97a","ios":"levelo://app?vid=0a85fff5-6622-431c-8407-9bc3c32ac97a"},"vehicle_type_id":"4","last_reported":1678647927,"current_range_meters":29600,"station_id":"ce4bguh2rcd13ifvqckg","pricing_plan_id":"free"},{"bike_id":"c67f27b0-bbec-4d7e-a1a9-ecbadb48d22a","system_id":"levelo_inurba_marseille","lat":43.305989,"lon":5.37225,"is_reserved":false,"is_disabled":false,"rental_uris":{"android":"levelo://app?vid=c67f27b0-bbec-4d7e-a1a9-ecbadb48d22a","ios":"levelo://app?vid=c67f27b0-bbec-4d7e-a1a9-ecbadb48d22a"},"vehicle_type_id":"4","last_reported":1678647927,"current_range_meters":21200,"station_id":"ce4bgqh2rcd13ifvqc4g","pricing_plan_id":"free"},{"bike_id":"3f1c5d09-ab8f-4d29-9cb2-ee1c2746c76a","system_id":"levelo_inurba_marseille","lat":43.305989,"lon":5.37225,"is_reserved":false,"is_disabled":false,"rental_uris":{"android":"levelo://app?vid=3f1c5d09-ab8f-4d29-9cb2-ee1c2746c76a","ios":"levelo://app?vid=3f1c5d09-ab8f-4d29-9cb2-ee1c2746c76a"},"vehicle_type_id":"4","last_reported":1678647927,"current_range_meters":6000,"station_id":"ce4bgqh2rcd13ifvqc4g","pricing_plan_id":"free"},{"bike_id":"4934caa5-b8cc-4ce2-bd69-92bf83078f13","system_id":"levelo_inurba_marseille","lat":43.308343,"lon":5.376477,"is_reserved":false,"is_disabled":false,"rental_uris":{"android":"levelo://app?vid=4934caa5-b8cc-4ce2-bd69-92bf83078f13","ios":"levelo://app?vid=4934caa5-b8cc-4ce2-bd69-92bf83078f13"},"vehicle_type_id":"4","last_reported":1678647927,"current_range_meters":0,"station_id":"","pricing_plan_id":"free"},{"bike_id":"6fc961bb-f8a5-453f-9750-dfc00e45a312","system_id":"levelo_inurba_marseille","lat":43.317075,"lon":5.377367,"is_reserved":false,"is_disabled":false,"rental_uris":{"android":"levelo://app?vid=6fc961bb-f8a5-453f-9750-dfc00e45a312","ios":"levelo://app?vid=6fc961bb-f8a5-453f-9750-dfc00e45a312"},"vehicle_type_id":"4","last_reported":1678647927,"current_range_meters":24400,"station_id":"ce4bgth2rcd13ifvqch0","pricing_plan_id":"free"},{"bike_id":"d90fac98-62fd-41cc-947b-3496fb0495c1","system_id":"levelo_inurba_marseille","lat":43.30342,"lon":5.37255,"is_reserved":false,"is_disabled":false,"rental_uris":{"android":"levelo://app?vid=d90fac98-62fd-41cc-947b-3496fb0495c1","ios":"levelo://app?vid=d90fac98-62fd-41cc-947b-3496fb0495c1"},"vehicle_type_id":"4","last_reported":1678647927,"current_range_meters":0,"station_id":"","pricing_plan_id":"free"},{"bike_id":"76fcaccc-68ed-4fc4-9f81-67cca1a15144","system_id":"levelo_inurba_marseille","lat":43.30794,"lon":5.38152,"is_reserved":false,"is_disabled":false,"rental_uris":{"android":"levelo://app?vid=76fcaccc-68ed-4fc4-9f81-67cca1a15144","ios":"levelo://app?vid=76fcaccc-68ed-4fc4-9f81-67cca1a15144"},"vehicle_type_id":"4","last_reported":1678647927,"current_range_meters":22400,"station_id":"ce4bgt12rcd13ifvqce0","pricing_plan_id":"free"},{"bike_id":"ad616ded-7348-47f2-b72b-a17ef11c64d8","system_id":"levelo_inurba_marseille","lat":43.304606,"lon":5.379026,"is_reserved":false,"is_disabled":false,"rental_uris":{"android":"levelo://app?vid=ad616ded-7348-47f2-b72b-a17ef11c64d8","ios":"levelo://app?vid=ad616ded-7348-47f2-b72b-a17ef11c64d8"},"vehicle_type_id":"4","last_reported":1678647927,"current_range_meters":4400,"station_id":"ce4bgup2rcd13ifvqcn0","pricing_plan_id":"free"},{"bike_id":"12ac2a9d-74cf-42e9-9878-6a80f229e6e9","system_id":"levelo_inurba_marseille","lat":43.30451,"lon":5.37906,"is_reserved":false,"is_disabled":false,"rental_uris":{"android":"levelo://app?vid=12ac2a9d-74cf-42e9-9878-6a80f229e6e9","ios":"levelo://app?vid=12ac2a9d-74cf-42e9-9878-6a80f229e6e9"},"vehicle_type_id":"4","last_reported":1678647927,"current_range_meters":4400,"station_id":"ce4bgup2rcd13ifvqcn0","pricing_plan_id":"free"},{"bike_id":"0dcc543d-57ba-4033-861b-3eae77391b98","system_id":"levelo_inurba_marseille","lat":43.313571,"lon":5.384829,"is_reserved":false,"is_disabled":false,"rental_uris":{"android":"levelo://app?vid=0dcc543d-57ba-4033-861b-3eae77391b98","ios":"levelo://app?vid=0dcc543d-57ba-4033-861b-3eae77391b98"},"vehicle_type_id":"4","last_reported":1678647927,"current_range_meters":28400,"station_id":"ce4bgt92rcd13ifvqcf0","pricing_plan_id":"free"},{"bike_id":"120a05ab-e33c-4550-a39d-bc7cba8287b7","system_id":"levelo_inurba_marseille","lat":43.313571,"lon":5.384829,"is_reserved":false,"is_disabled":false,"rental_uris":{"android":"levelo://app?vid=120a05ab-e33c-4550-a39d-bc7cba8287b7","ios":"levelo://app?vid=120a05ab-e33c-4550-a39d-bc7cba8287b7"},"vehicle_type_id":"4","last_reported":1678647927,"current_range_meters":2400,"station_id":"ce4bgt92rcd13ifvqcf0","pricing_plan_id":"free"},{"bike_id":"aad19918-d929-4ad6-8493-923dd236651c","system_id":"levelo_inurba_marseille","lat":43.313571,"lon":5.384829,"is_reserved":false,"is_disabled":false,"rental_uris":{"android":"levelo://app?vid=aad19918-d929-4ad6-8493-923dd236651c","ios":"levelo://app?vid=aad19918-d929-4ad6-8493-923dd236651c"},"vehicle_type_id":"4","last_reported":1678647927,"current_range_meters":12000,"station_id":"ce4bgt92rcd13ifvqcf0","pricing_plan_id":"free"},{"bike_id":"1fff53e3-7150-474b-b5fd-9b969564eb89","system_id":"levelo_inurba_marseille","lat":43.313571,"lon":5.384829,"is_reserved":false,"is_disabled":false,"rental_uris":{"android":"levelo://app?vid=1fff53e3-7150-474b-b5fd-9b969564eb89","ios":"levelo://app?vid=1fff53e3-7150-474b-b5fd-9b969564eb89"},"vehicle_type_id":"4","last_reported":1678647927,"current_range_meters":9600,"station_id":"ce4bgt92rcd13ifvqcf0","pricing_plan_id":"free"},{"bike_id":"e16209a2-9cf6-4e63-94dd-ce4eade99a02","system_id":"levelo_inurba_marseille","lat":43.29925,"lon":5.36551,"is_reserved":false,"is_disabled":false,"rental_uris":{"android":"levelo://app?vid=e16209a2-9cf6-4e63-94dd-ce4eade99a02","ios":"levelo://app?vid=e16209a2-9cf6-4e63-94dd-ce4eade99a02"},"vehicle_type_id":"4","last_reported":1678647927,"current_range_meters":8000,"station_id":"","pricing_plan_id":"free"},{"bike_id":"21f07f12-7a4e-4439-acb9-94eee39b2456","system_id":"levelo_inurba_marseille","lat":43.305364,"lon":5.384119,"is_reserved":false,"is_disabled":false,"rental_uris":{"android":"levelo://app?vid=21f07f12-7a4e-4439-acb9-94eee39b2456","ios":"levelo://app?vid=21f07f12-7a4e-4439-acb9-94eee39b2456"},"vehicle_type_id":"4","last_reported":1678647927,"current_range_meters":26000,"station_id":"ce4bgg92rcd13ifvqb30","pricing_plan_id":"free"},{"bike_id":"f0d30e04-ad95-4710-a428-94dd33e411cb","system_id":"levelo_inurba_marseille","lat":43.305367,"lon":5.384284,"is_reserved":false,"is_disabled":false,"rental_uris":{"android":"levelo://app?vid=f0d30e04-ad95-4710-a428-94dd33e411cb","ios":"levelo://app?vid=f0d30e04-ad95-4710-a428-94dd33e411cb"},"vehicle_type_id":"4","last_reported":1678647927,"current_range_meters":0,"station_id":"ce4bgg92rcd13ifvqb30","pricing_plan_id":"free"},{"bike_id":"03dc8f5f-33cf-47cc-9e37-4b57214857f3","system_id":"levelo_inurba_marseille","lat":43.311722,"lon":5.387247,"is_reserved":false,"is_disabled":false,"rental_uris":{"android":"levelo://app?vid=03dc8f5f-33cf-47cc-9e37-4b57214857f3","ios":"levelo://app?vid=03dc8f5f-33cf-47cc-9e37-4b57214857f3"},"vehicle_type_id":"4","last_reported":1678647927,"current_range_meters":8400,"station_id":"ce4bgv12rcd13ifvqcp0","pricing_plan_id":"free"},{"bike_id":"9cc133f7-327f-4994-8273-3a226184bf40","system_id":"levelo_inurba_marseille","lat":43.311692,"lon":5.38716,"is_reserved":false,"is_disabled":false,"rental_uris":{"android":"levelo://app?vid=9cc133f7-327f-4994-8273-3a226184bf40","ios":"levelo://app?vid=9cc133f7-327f-4994-8273-3a226184bf40"},"vehicle_type_id":"4","last_reported":1678647927,"current_range_meters":400,"station_id":"","pricing_plan_id":"free"},{"bike_id":"de4a2d43-6a9f-4970-afcc-f987a53efc04","system_id":"levelo_inurba_marseille","lat":43.311722,"lon":5.387247,"is_reserved":false,"is_disabled":false,"rental_uris":{"android":"levelo://app?vid=de4a2d43-6a9f-4970-afcc-f987a53efc04","ios":"levelo://app?vid=de4a2d43-6a9f-4970-afcc-f987a53efc04"},"vehicle_type_id":"4","last_reported":1678647927,"current_range_meters":15200,"station_id":"ce4bgv12rcd13ifvqcp0","pricing_plan_id":"free"},{"bike_id":"a06af042-d037-43b7-8c49-928104715349","system_id":"levelo_inurba_marseille","lat":43.32827,"lon":5.36688,"is_reserved":false,"is_disabled":false,"rental_uris":{"android":"levelo://app?vid=a06af042-d037-43b7-8c49-928104715349","ios":"levelo://app?vid=a06af042-d037-43b7-8c49-928104715349"},"vehicle_type_id":"4","last_reported":1678647927,"current_range_meters":0,"station_id":"ce4bhs92rcd13ifvqi0g","pricing_plan_id":"free"},{"bike_id":"0631df12-b0f8-4cc4-aefa-44136e806c00","system_id":"levelo_inurba_marseille","lat":43.328371,"lon":5.366909,"is_reserved":false,"is_disabled":false,"rental_uris":{"android":"levelo://app?vid=0631df12-b0f8-4cc4-aefa-44136e806c00","ios":"levelo://app?vid=0631df12-b0f8-4cc4-aefa-44136e806c00"},"vehicle_type_id":"4","last_reported":1678647927,"current_range_meters":3600,"station_id":"ce4bhs92rcd13ifvqi0g","pricing_plan_id":"free"},{"bike_id":"f09ed96e-395e-4922-9121-c413f8da9e42","system_id":"levelo_inurba_marseille","lat":43.309589,"lon":5.390258,"is_reserved":false,"is_disabled":false,"rental_uris":{"android":"levelo://app?vid=f09ed96e-395e-4922-9121-c413f8da9e42","ios":"levelo://app?vid=f09ed96e-395e-4922-9121-c413f8da9e42"},"vehicle_type_id":"4","last_reported":1678647927,"current_range_meters":28800,"station_id":"ce4bgup2rcd13ifvqco0","pricing_plan_id":"free"},{"bike_id":"2d387af9-9847-4ab9-a191-8b1a89539f52","system_id":"levelo_inurba_marseille","lat":43.30955,"lon":5.39037,"is_reserved":false,"is_disabled":false,"rental_uris":{"android":"levelo://app?vid=2d387af9-9847-4ab9-a191-8b1a89539f52","ios":"levelo://app?vid=2d387af9-9847-4ab9-a191-8b1a89539f52"},"vehicle_type_id":"4","last_reported":1678647927,"current_range_meters":25200,"station_id":"","pricing_plan_id":"free"},{"bike_id":"a2c16f8b-8691-4e27-af39-98f7c6fd07eb","system_id":"levelo_inurba_marseille","lat":43.298037,"lon":5.381066,"is_reserved":false,"is_disabled":false,"rental_uris":{"android":"levelo://app?vid=a2c16f8b-8691-4e27-af39-98f7c6fd07eb","ios":"levelo://app?vid=a2c16f8b-8691-4e27-af39-98f7c6fd07eb"},"vehicle_type_id":"4","last_reported":1678647927,"current_range_meters":31600,"station_id":"ce4bgip2rcd13ifvqbb0","pricing_plan_id":"free"},{"bike_id":"d82279d2-ac57-4e95-88ef-89418a282471","system_id":"levelo_inurba_marseille","lat":43.298037,"lon":5.381066,"is_reserved":false,"is_disabled":false,"rental_uris":{"android":"levelo://app?vid=d82279d2-ac57-4e95-88ef-89418a282471","ios":"levelo://app?vid=d82279d2-ac57-4e95-88ef-89418a282471"},"vehicle_type_id":"4","last_reported":1678647927,"current_range_meters":1200,"station_id":"ce4bgip2rcd13ifvqbb0","pricing_plan_id":"free"},{"bike_id":"9196fd82-e758-4dba-b1ba-b5866df0af5f","system_id":"levelo_inurba_marseille","lat":43.295748,"lon":5.37522,"is_reserved":false,"is_disabled":false,"rental_uris":{"android":"levelo://app?vid=9196fd82-e758-4dba-b1ba-b5866df0af5f","ios":"levelo://app?vid=9196fd82-e758-4dba-b1ba-b5866df0af5f"},"vehicle_type_id":"4","last_reported":1678647927,"current_range_meters":8800,"station_id":"ce4bgh92rcd13ifvqb50","pricing_plan_id":"free"},{"bike_id":"c925a46b-304c-48fd-970d-f1dfe031248f","system_id":"levelo_inurba_marseille","lat":43.29567,"lon":5.37496,"is_reserved":false,"is_disabled":false,"rental_uris":{"android":"levelo://app?vid=c925a46b-304c-48fd-970d-f1dfe031248f","ios":"levelo://app?vid=c925a46b-304c-48fd-970d-f1dfe031248f"},"vehicle_type_id":"4","last_reported":1678647927,"current_range_meters":0,"station_id":"ce4bgh92rcd13ifvqb50","pricing_plan_id":"free"},{"bike_id":"628eeb81-d88b-4952-bbcb-52c46e9686e5","system_id":"levelo_inurba_marseille","lat":43.304274,"lon":5.388873,"is_reserved":false,"is_disabled":false,"rental_uris":{"android":"levelo://app?vid=628eeb81-d88b-4952-bbcb-52c46e9686e5","ios":"levelo://app?vid=628eeb81-d88b-4952-bbcb-52c46e9686e5"},"vehicle_type_id":"4","last_reported":1678647927,"current_range_meters":800,"station_id":"ce4bgk12rcd13ifvqbi0","pricing_plan_id":"free"},{"bike_id":"d57938ba-8ac7-4bdf-81f6-f308d021fab4","system_id":"levelo_inurba_marseille","lat":43.29794,"lon":5.38115,"is_reserved":false,"is_disabled":false,"rental_uris":{"android":"levelo://app?vid=d57938ba-8ac7-4bdf-81f6-f308d021fab4","ios":"levelo://app?vid=d57938ba-8ac7-4bdf-81f6-f308d021fab4"},"vehicle_type_id":"4","last_reported":1678647927,"current_range_meters":0,"station_id":"ce4bgip2rcd13ifvqbb0","pricing_plan_id":"free"},{"bike_id":"947ad377-7af7-426b-89b7-abf59f2620fe","system_id":"levelo_inurba_marseille","lat":43.29567,"lon":5.37513,"is_reserved":false,"is_disabled":false,"rental_uris":{"android":"levelo://app?vid=947ad377-7af7-426b-89b7-abf59f2620fe","ios":"levelo://app?vid=947ad377-7af7-426b-89b7-abf59f2620fe"},"vehicle_type_id":"4","last_reported":1678647927,"current_range_meters":15600,"station_id":"ce4bgh92rcd13ifvqb50","pricing_plan_id":"free"},{"bike_id":"d0f206bc-3976-4f9b-8d1f-926983166ff5","system_id":"levelo_inurba_marseille","lat":43.295748,"lon":5.37522,"is_reserved":false,"is_disabled":false,"rental_uris":{"android":"levelo://app?vid=d0f206bc-3976-4f9b-8d1f-926983166ff5","ios":"levelo://app?vid=d0f206bc-3976-4f9b-8d1f-926983166ff5"},"vehicle_type_id":"4","last_reported":1678647927,"current_range_meters":24400,"station_id":"ce4bgh92rcd13ifvqb50","pricing_plan_id":"free"},{"bike_id":"88174c28-1bf4-4256-889a-fe5ef64d85a6","system_id":"levelo_inurba_marseille","lat":43.295279,"lon":5.375048,"is_reserved":false,"is_disabled":false,"rental_uris":{"android":"levelo://app?vid=88174c28-1bf4-4256-889a-fe5ef64d85a6","ios":"levelo://app?vid=88174c28-1bf4-4256-889a-fe5ef64d85a6"},"vehicle_type_id":"4","last_reported":1678647927,"current_range_meters":14000,"station_id":"ce4bgkp2rcd13ifvqbmg","pricing_plan_id":"free"},{"bike_id":"0a210080-61cc-4239-b984-583919d09163","system_id":"levelo_inurba_marseille","lat":43.296263,"lon":5.377094,"is_reserved":false,"is_disabled":false,"rental_uris":{"android":"levelo://app?vid=0a210080-61cc-4239-b984-583919d09163","ios":"levelo://app?vid=0a210080-61cc-4239-b984-583919d09163"},"vehicle_type_id":"4","last_reported":1678647927,"current_range_meters":0,"station_id":"ce4bgi92rcd13ifvqb90","pricing_plan_id":"free"},{"bike_id":"6c63bfc8-00a7-4174-bbb8-3ac622389a57","system_id":"levelo_inurba_marseille","lat":43.299798,"lon":5.384906,"is_reserved":false,"is_disabled":false,"rental_uris":{"android":"levelo://app?vid=6c63bfc8-00a7-4174-bbb8-3ac622389a57","ios":"levelo://app?vid=6c63bfc8-00a7-4174-bbb8-3ac622389a57"},"vehicle_type_id":"4","last_reported":1678647927,"current_range_meters":0,"station_id":"","pricing_plan_id":"free"},{"bike_id":"fd16cdd3-4f42-482f-9a88-6561049dc5a9","system_id":"levelo_inurba_marseille","lat":43.295279,"lon":5.375048,"is_reserved":false,"is_disabled":false,"rental_uris":{"android":"levelo://app?vid=fd16cdd3-4f42-482f-9a88-6561049dc5a9","ios":"levelo://app?vid=fd16cdd3-4f42-482f-9a88-6561049dc5a9"},"vehicle_type_id":"4","last_reported":1678647927,"current_range_meters":0,"station_id":"ce4bgkp2rcd13ifvqbmg","pricing_plan_id":"free"},{"bike_id":"0ec32524-2072-4eab-a21c-4ab5bab9190f","system_id":"levelo_inurba_marseille","lat":43.29965,"lon":5.38493,"is_reserved":false,"is_disabled":false,"rental_uris":{"android":"levelo://app?vid=0ec32524-2072-4eab-a21c-4ab5bab9190f","ios":"levelo://app?vid=0ec32524-2072-4eab-a21c-4ab5bab9190f"},"vehicle_type_id":"4","last_reported":1678647927,"current_range_meters":24000,"station_id":"ce4bgj92rcd13ifvqbd0","pricing_plan_id":"free"},{"bike_id":"1c76a3dd-54b4-4d64-a31f-d61fccb21870","system_id":"levelo_inurba_marseille","lat":43.32367,"lon":5.388836,"is_reserved":false,"is_disabled":false,"rental_uris":{"android":"levelo://app?vid=1c76a3dd-54b4-4d64-a31f-d61fccb21870","ios":"levelo://app?vid=1c76a3dd-54b4-4d64-a31f-d61fccb21870"},"vehicle_type_id":"4","last_reported":1678647927,"current_range_meters":26400,"station_id":"ce4bhqp2rcd13ifvqhog","pricing_plan_id":"free"},{"bike_id":"b20c0648-4cf3-44fa-ba1a-61d9b53669a7","system_id":"levelo_inurba_marseille","lat":43.31282,"lon":5.39423,"is_reserved":false,"is_disabled":false,"rental_uris":{"android":"levelo://app?vid=b20c0648-4cf3-44fa-ba1a-61d9b53669a7","ios":"levelo://app?vid=b20c0648-4cf3-44fa-ba1a-61d9b53669a7"},"vehicle_type_id":"4","last_reported":1678647927,"current_range_meters":0,"station_id":"","pricing_plan_id":"free"},{"bike_id":"c8a4afdf-8b60-4b86-909d-53d50f64cc82","system_id":"levelo_inurba_marseille","lat":43.305994,"lon":5.393687,"is_reserved":false,"is_disabled":false,"rental_uris":{"android":"levelo://app?vid=c8a4afdf-8b60-4b86-909d-53d50f64cc82","ios":"levelo://app?vid=c8a4afdf-8b60-4b86-909d-53d50f64cc82"},"vehicle_type_id":"4","last_reported":1678647927,"current_range_meters":800,"station_id":"ce4bh0p2rcd13ifvqd80","pricing_plan_id":"free"},{"bike_id":"779648ed-9496-4d9d-860d-46dc1b9d52ad","system_id":"levelo_inurba_marseille","lat":43.300852,"lon":5.390859,"is_reserved":false,"is_disabled":false,"rental_uris":{"android":"levelo://app?vid=779648ed-9496-4d9d-860d-46dc1b9d52ad","ios":"levelo://app?vid=779648ed-9496-4d9d-860d-46dc1b9d52ad"},"vehicle_type_id":"4","last_reported":1678647927,"current_range_meters":0,"station_id":"ce4bh192rcd13ifvqdb0","pricing_plan_id":"free"},{"bike_id":"3cafa2d4-8de3-4839-9fe1-61de35072c8c","system_id":"levelo_inurba_marseille","lat":43.298764,"lon":5.388973,"is_reserved":false,"is_disabled":false,"rental_uris":{"android":"levelo://app?vid=3cafa2d4-8de3-4839-9fe1-61de35072c8c","ios":"levelo://app?vid=3cafa2d4-8de3-4839-9fe1-61de35072c8c"},"vehicle_type_id":"4","last_reported":1678647927,"current_range_meters":18000,"station_id":"ce4bh392rcd13ifvqdl0","pricing_plan_id":"free"},{"bike_id":"6366ab8e-7a65-44b9-bb82-0062fbe2e8ee","system_id":"levelo_inurba_marseille","lat":43.298764,"lon":5.388973,"is_reserved":false,"is_disabled":false,"rental_uris":{"android":"levelo://app?vid=6366ab8e-7a65-44b9-bb82-0062fbe2e8ee","ios":"levelo://app?vid=6366ab8e-7a65-44b9-bb82-0062fbe2e8ee"},"vehicle_type_id":"4","last_reported":1678647927,"current_range_meters":24400,"station_id":"ce4bh392rcd13ifvqdl0","pricing_plan_id":"free"},{"bike_id":"49763694-4aa0-4fb8-837c-d1ef044e5161","system_id":"levelo_inurba_marseille","lat":43.298855,"lon":5.389154,"is_reserved":false,"is_disabled":false,"rental_uris":{"android":"levelo://app?vid=49763694-4aa0-4fb8-837c-d1ef044e5161","ios":"levelo://app?vid=49763694-4aa0-4fb8-837c-d1ef044e5161"},"vehicle_type_id":"4","last_reported":1678647927,"current_range_meters":0,"station_id":"ce4bh392rcd13ifvqdl0","pricing_plan_id":"free"},{"bike_id":"b7d8389b-560b-40cb-b87b-6b2e21ee0bab","system_id":"levelo_inurba_marseille","lat":43.298764,"lon":5.388973,"is_reserved":false,"is_disabled":false,"rental_uris":{"android":"levelo://app?vid=b7d8389b-560b-40cb-b87b-6b2e21ee0bab","ios":"levelo://app?vid=b7d8389b-560b-40cb-b87b-6b2e21ee0bab"},"vehicle_type_id":"4","last_reported":1678647927,"current_range_meters":0,"station_id":"ce4bh392rcd13ifvqdl0","pricing_plan_id":"free"},{"bike_id":"22860ccd-aadb-4e76-ad74-7805f6ba2950","system_id":"levelo_inurba_marseille","lat":43.3133,"lon":5.39693,"is_reserved":false,"is_disabled":false,"rental_uris":{"android":"levelo://app?vid=22860ccd-aadb-4e76-ad74-7805f6ba2950","ios":"levelo://app?vid=22860ccd-aadb-4e76-ad74-7805f6ba2950"},"vehicle_type_id":"4","last_reported":1678647927,"current_range_meters":22000,"station_id":"","pricing_plan_id":"free"},{"bike_id":"e637d885-ea85-4bc1-a5c3-d7510e1e280c","system_id":"levelo_inurba_marseille","lat":43.31331,"lon":5.39693,"is_reserved":false,"is_disabled":false,"rental_uris":{"android":"levelo://app?vid=e637d885-ea85-4bc1-a5c3-d7510e1e280c","ios":"levelo://app?vid=e637d885-ea85-4bc1-a5c3-d7510e1e280c"},"vehicle_type_id":"4","last_reported":1678647927,"current_range_meters":6400,"station_id":"","pricing_plan_id":"free"},{"bike_id":"05fa4c51-ffe6-47b9-87b2-7a8a724e730f","system_id":"levelo_inurba_marseille","lat":43.29529,"lon":5.385581,"is_reserved":false,"is_disabled":false,"rental_uris":{"android":"levelo://app?vid=05fa4c51-ffe6-47b9-87b2-7a8a724e730f","ios":"levelo://app?vid=05fa4c51-ffe6-47b9-87b2-7a8a724e730f"},"vehicle_type_id":"4","last_reported":1678647927,"current_range_meters":24800,"station_id":"ce4bgih2rcd13ifvqba0","pricing_plan_id":"free"},{"bike_id":"2fd72c48-0b61-4257-9111-d7d89962bab5","system_id":"levelo_inurba_marseille","lat":43.29529,"lon":5.385581,"is_reserved":false,"is_disabled":false,"rental_uris":{"android":"levelo://app?vid=2fd72c48-0b61-4257-9111-d7d89962bab5","ios":"levelo://app?vid=2fd72c48-0b61-4257-9111-d7d89962bab5"},"vehicle_type_id":"4","last_reported":1678647927,"current_range_meters":7600,"station_id":"ce4bgih2rcd13ifvqba0","pricing_plan_id":"free"},{"bike_id":"017315d1-6304-4ba8-9f16-de38c81e88f3","system_id":"levelo_inurba_marseille","lat":43.29529,"lon":5.385581,"is_reserved":false,"is_disabled":false,"rental_uris":{"android":"levelo://app?vid=017315d1-6304-4ba8-9f16-de38c81e88f3","ios":"levelo://app?vid=017315d1-6304-4ba8-9f16-de38c81e88f3"},"vehicle_type_id":"4","last_reported":1678647927,"current_range_meters":800,"station_id":"ce4bgih2rcd13ifvqba0","pricing_plan_id":"free"},{"bike_id":"b51a85a7-e40d-4313-8c0e-bb5ff6062fb4","system_id":"levelo_inurba_marseille","lat":43.29529,"lon":5.385581,"is_reserved":false,"is_disabled":false,"rental_uris":{"android":"levelo://app?vid=b51a85a7-e40d-4313-8c0e-bb5ff6062fb4","ios":"levelo://app?vid=b51a85a7-e40d-4313-8c0e-bb5ff6062fb4"},"vehicle_type_id":"4","last_reported":1678647927,"current_range_meters":4000,"station_id":"ce4bgih2rcd13ifvqba0","pricing_plan_id":"free"},{"bike_id":"6f07af8e-bfc9-42eb-a15d-36a5c523027e","system_id":"levelo_inurba_marseille","lat":43.29529,"lon":5.385581,"is_reserved":false,"is_disabled":false,"rental_uris":{"android":"levelo://app?vid=6f07af8e-bfc9-42eb-a15d-36a5c523027e","ios":"levelo://app?vid=6f07af8e-bfc9-42eb-a15d-36a5c523027e"},"vehicle_type_id":"4","last_reported":1678647927,"current_range_meters":9200,"station_id":"ce4bgih2rcd13ifvqba0","pricing_plan_id":"free"},{"bike_id":"ded9f452-8ee6-44ce-b39d-a0bcae4a8c85","system_id":"levelo_inurba_marseille","lat":43.29526,"lon":5.38545,"is_reserved":false,"is_disabled":false,"rental_uris":{"android":"levelo://app?vid=ded9f452-8ee6-44ce-b39d-a0bcae4a8c85","ios":"levelo://app?vid=ded9f452-8ee6-44ce-b39d-a0bcae4a8c85"},"vehicle_type_id":"4","last_reported":1678647927,"current_range_meters":0,"station_id":"","pricing_plan_id":"free"},{"bike_id":"1618bcad-8613-49b4-a6ad-00c4ccacb24d","system_id":"levelo_inurba_marseille","lat":43.2907,"lon":5.37159,"is_reserved":false,"is_disabled":false,"rental_uris":{"android":"levelo://app?vid=1618bcad-8613-49b4-a6ad-00c4ccacb24d","ios":"levelo://app?vid=1618bcad-8613-49b4-a6ad-00c4ccacb24d"},"vehicle_type_id":"4","last_reported":1678647927,"current_range_meters":16400,"station_id":"ce4bh5p2rcd13ifvqe4g","pricing_plan_id":"free"},{"bike_id":"af500060-dd87-4259-bd9e-e63a19d90e4f","system_id":"levelo_inurba_marseille","lat":43.290779,"lon":5.371482,"is_reserved":false,"is_disabled":false,"rental_uris":{"android":"levelo://app?vid=af500060-dd87-4259-bd9e-e63a19d90e4f","ios":"levelo://app?vid=af500060-dd87-4259-bd9e-e63a19d90e4f"},"vehicle_type_id":"4","last_reported":1678647927,"current_range_meters":30000,"station_id":"ce4bh5p2rcd13ifvqe4g","pricing_plan_id":"free"},{"bike_id":"29972a33-a47e-4195-a079-4e89617237b4","system_id":"levelo_inurba_marseille","lat":43.290779,"lon":5.371482,"is_reserved":false,"is_disabled":false,"rental_uris":{"android":"levelo://app?vid=29972a33-a47e-4195-a079-4e89617237b4","ios":"levelo://app?vid=29972a33-a47e-4195-a079-4e89617237b4"},"vehicle_type_id":"4","last_reported":1678647927,"current_range_meters":31600,"station_id":"ce4bh5p2rcd13ifvqe4g","pricing_plan_id":"free"},{"bike_id":"77b193bb-af8b-45b4-89c8-21045b9b6f41","system_id":"levelo_inurba_marseille","lat":43.290624,"lon":5.359245,"is_reserved":false,"is_disabled":false,"rental_uris":{"android":"levelo://app?vid=77b193bb-af8b-45b4-89c8-21045b9b6f41","ios":"levelo://app?vid=77b193bb-af8b-45b4-89c8-21045b9b6f41"},"vehicle_type_id":"4","last_reported":1678647927,"current_range_meters":29600,"station_id":"ce4bha92rcd13ifvqeg0","pricing_plan_id":"free"},{"bike_id":"c0037ad4-40a4-445b-b33b-97b9c23fd013","system_id":"levelo_inurba_marseille","lat":43.290624,"lon":5.359245,"is_reserved":false,"is_disabled":false,"rental_uris":{"android":"levelo://app?vid=c0037ad4-40a4-445b-b33b-97b9c23fd013","ios":"levelo://app?vid=c0037ad4-40a4-445b-b33b-97b9c23fd013"},"vehicle_type_id":"4","last_reported":1678647927,"current_range_meters":0,"station_id":"ce4bha92rcd13ifvqeg0","pricing_plan_id":"free"},{"bike_id":"983d5f61-8c5b-4b65-84e8-9bb5f9474bcf","system_id":"levelo_inurba_marseille","lat":43.294162,"lon":5.386292,"is_reserved":false,"is_disabled":false,"rental_uris":{"android":"levelo://app?vid=983d5f61-8c5b-4b65-84e8-9bb5f9474bcf","ios":"levelo://app?vid=983d5f61-8c5b-4b65-84e8-9bb5f9474bcf"},"vehicle_type_id":"4","last_reported":1678647927,"current_range_meters":6000,"station_id":"ce4bh2h2rcd13ifvqdh0","pricing_plan_id":"free"},{"bike_id":"8b3f2893-c6bf-45cf-88e3-722a5c4083f5","system_id":"levelo_inurba_marseille","lat":43.294153,"lon":5.386305,"is_reserved":false,"is_disabled":false,"rental_uris":{"android":"levelo://app?vid=8b3f2893-c6bf-45cf-88e3-722a5c4083f5","ios":"levelo://app?vid=8b3f2893-c6bf-45cf-88e3-722a5c4083f5"},"vehicle_type_id":"4","last_reported":1678647927,"current_range_meters":25600,"station_id":"ce4bh2h2rcd13ifvqdh0","pricing_plan_id":"free"},{"bike_id":"c4afc375-05a0-4a0b-a449-6e63a34917ca","system_id":"levelo_inurba_marseille","lat":43.294162,"lon":5.386292,"is_reserved":false,"is_disabled":false,"rental_uris":{"android":"levelo://app?vid=c4afc375-05a0-4a0b-a449-6e63a34917ca","ios":"levelo://app?vid=c4afc375-05a0-4a0b-a449-6e63a34917ca"},"vehicle_type_id":"4","last_reported":1678647927,"current_range_meters":1600,"station_id":"ce4bh2h2rcd13ifvqdh0","pricing_plan_id":"free"},{"bike_id":"03c92c43-ffb1-48af-a145-67fbdb0235b3","system_id":"levelo_inurba_marseille","lat":43.289468,"lon":5.363719,"is_reserved":false,"is_disabled":false,"rental_uris":{"android":"levelo://app?vid=03c92c43-ffb1-48af-a145-67fbdb0235b3","ios":"levelo://app?vid=03c92c43-ffb1-48af-a145-67fbdb0235b3"},"vehicle_type_id":"4","last_reported":1678647927,"current_range_meters":6400,"station_id":"ce4bhc92rcd13ifvqetg","pricing_plan_id":"free"},{"bike_id":"0cdc1f2c-70a2-4214-a0be-b55ecf3c14bb","system_id":"levelo_inurba_marseille","lat":43.292644,"lon":5.384257,"is_reserved":false,"is_disabled":false,"rental_uris":{"android":"levelo://app?vid=0cdc1f2c-70a2-4214-a0be-b55ecf3c14bb","ios":"levelo://app?vid=0cdc1f2c-70a2-4214-a0be-b55ecf3c14bb"},"vehicle_type_id":"4","last_reported":1678647927,"current_range_meters":9600,"station_id":"ce4bh692rcd13ifvqea0","pricing_plan_id":"free"},{"bike_id":"dc5ac6fb-8bbd-435e-8342-b8747265d7ba","system_id":"levelo_inurba_marseille","lat":43.30428,"lon":5.39746,"is_reserved":false,"is_disabled":false,"rental_uris":{"android":"levelo://app?vid=dc5ac6fb-8bbd-435e-8342-b8747265d7ba","ios":"levelo://app?vid=dc5ac6fb-8bbd-435e-8342-b8747265d7ba"},"vehicle_type_id":"4","last_reported":1678647927,"current_range_meters":0,"station_id":"","pricing_plan_id":"free"},{"bike_id":"6a355757-b73d-40ba-a8e5-381d9478a014","system_id":"levelo_inurba_marseille","lat":43.30425,"lon":5.39752,"is_reserved":false,"is_disabled":false,"rental_uris":{"android":"levelo://app?vid=6a355757-b73d-40ba-a8e5-381d9478a014","ios":"levelo://app?vid=6a355757-b73d-40ba-a8e5-381d9478a014"},"vehicle_type_id":"4","last_reported":1678647927,"current_range_meters":4400,"station_id":"","pricing_plan_id":"free"},{"bike_id":"117f2a25-f9fc-4f1d-aade-29d673483f61","system_id":"levelo_inurba_marseille","lat":43.330442,"lon":5.389148,"is_reserved":false,"is_disabled":false,"rental_uris":{"android":"levelo://app?vid=117f2a25-f9fc-4f1d-aade-29d673483f61","ios":"levelo://app?vid=117f2a25-f9fc-4f1d-aade-29d673483f61"},"vehicle_type_id":"4","last_reported":1678647927,"current_range_meters":3600,"station_id":"ce4bhr92rcd13ifvqhrg","pricing_plan_id":"free"},{"bike_id":"b2ce9e6a-e14f-4713-bc2c-03c31d4d9342","system_id":"levelo_inurba_marseille","lat":43.33045,"lon":5.3892,"is_reserved":false,"is_disabled":false,"rental_uris":{"android":"levelo://app?vid=b2ce9e6a-e14f-4713-bc2c-03c31d4d9342","ios":"levelo://app?vid=b2ce9e6a-e14f-4713-bc2c-03c31d4d9342"},"vehicle_type_id":"4","last_reported":1678647927,"current_range_meters":13600,"station_id":"","pricing_plan_id":"free"},{"bike_id":"962d5882-0756-47c3-9ed5-66b3463704b9","system_id":"levelo_inurba_marseille","lat":43.33045,"lon":5.38921,"is_reserved":false,"is_disabled":false,"rental_uris":{"android":"levelo://app?vid=962d5882-0756-47c3-9ed5-66b3463704b9","ios":"levelo://app?vid=962d5882-0756-47c3-9ed5-66b3463704b9"},"vehicle_type_id":"4","last_reported":1678647927,"current_range_meters":0,"station_id":"","pricing_plan_id":"free"},{"bike_id":"26c90dc3-3e00-46de-a58f-9170ab6b3868","system_id":"levelo_inurba_marseille","lat":43.291,"lon":5.38131,"is_reserved":false,"is_disabled":false,"rental_uris":{"android":"levelo://app?vid=26c90dc3-3e00-46de-a58f-9170ab6b3868","ios":"levelo://app?vid=26c90dc3-3e00-46de-a58f-9170ab6b3868"},"vehicle_type_id":"4","last_reported":1678647927,"current_range_meters":0,"station_id":"ce4bh512rcd13ifvqe2g","pricing_plan_id":"free"},{"bike_id":"8ccbbd16-5555-485f-9e95-6d9e1c4f3eb5","system_id":"levelo_inurba_marseille","lat":43.29095,"lon":5.381315,"is_reserved":false,"is_disabled":false,"rental_uris":{"android":"levelo://app?vid=8ccbbd16-5555-485f-9e95-6d9e1c4f3eb5","ios":"levelo://app?vid=8ccbbd16-5555-485f-9e95-6d9e1c4f3eb5"},"vehicle_type_id":"4","last_reported":1678647927,"current_range_meters":21200,"station_id":"","pricing_plan_id":"free"},{"bike_id":"aef55b1c-ca7b-474d-ba05-7ae19507d3d5","system_id":"levelo_inurba_marseille","lat":43.29092,"lon":5.38128,"is_reserved":false,"is_disabled":false,"rental_uris":{"android":"levelo://app?vid=aef55b1c-ca7b-474d-ba05-7ae19507d3d5","ios":"levelo://app?vid=aef55b1c-ca7b-474d-ba05-7ae19507d3d5"},"vehicle_type_id":"4","last_reported":1678647927,"current_range_meters":0,"station_id":"","pricing_plan_id":"free"},{"bike_id":"f85bc09c-9118-4836-bdba-9cd57eda6ec1","system_id":"levelo_inurba_marseille","lat":43.29091,"lon":5.38132,"is_reserved":false,"is_disabled":false,"rental_uris":{"android":"levelo://app?vid=f85bc09c-9118-4836-bdba-9cd57eda6ec1","ios":"levelo://app?vid=f85bc09c-9118-4836-bdba-9cd57eda6ec1"},"vehicle_type_id":"4","last_reported":1678647927,"current_range_meters":2800,"station_id":"ce4bh512rcd13ifvqe2g","pricing_plan_id":"free"},{"bike_id":"1a562bd8-3e0d-4de5-813c-5900e5a5230a","system_id":"levelo_inurba_marseille","lat":43.290925,"lon":5.381365,"is_reserved":false,"is_disabled":false,"rental_uris":{"android":"levelo://app?vid=1a562bd8-3e0d-4de5-813c-5900e5a5230a","ios":"levelo://app?vid=1a562bd8-3e0d-4de5-813c-5900e5a5230a"},"vehicle_type_id":"4","last_reported":1678647927,"current_range_meters":14800,"station_id":"ce4bh512rcd13ifvqe2g","pricing_plan_id":"free"},{"bike_id":"e758fea6-ec92-40a1-80e8-02932d167db6","system_id":"levelo_inurba_marseille","lat":43.29092,"lon":5.38139,"is_reserved":false,"is_disabled":false,"rental_uris":{"android":"levelo://app?vid=e758fea6-ec92-40a1-80e8-02932d167db6","ios":"levelo://app?vid=e758fea6-ec92-40a1-80e8-02932d167db6"},"vehicle_type_id":"4","last_reported":1678647927,"current_range_meters":29200,"station_id":"","pricing_plan_id":"free"},{"bike_id":"2ff2ef3a-07d2-42ee-874d-ad1e13c7a30d","system_id":"levelo_inurba_marseille","lat":43.29093,"lon":5.38145,"is_reserved":false,"is_disabled":false,"rental_uris":{"android":"levelo://app?vid=2ff2ef3a-07d2-42ee-874d-ad1e13c7a30d","ios":"levelo://app?vid=2ff2ef3a-07d2-42ee-874d-ad1e13c7a30d"},"vehicle_type_id":"4","last_reported":1678647927,"current_range_meters":0,"station_id":"ce4bh512rcd13ifvqe2g","pricing_plan_id":"free"},{"bike_id":"beb7f694-aff9-4bfd-a276-bef8cb87b233","system_id":"levelo_inurba_marseille","lat":43.295169,"lon":5.390426,"is_reserved":false,"is_disabled":false,"rental_uris":{"android":"levelo://app?vid=beb7f694-aff9-4bfd-a276-bef8cb87b233","ios":"levelo://app?vid=beb7f694-aff9-4bfd-a276-bef8cb87b233"},"vehicle_type_id":"4","last_reported":1678647927,"current_range_meters":30400,"station_id":"ce4bh3p2rcd13ifvqdp0","pricing_plan_id":"free"},{"bike_id":"14211f2b-4a5f-4680-bace-010d27d47cff","system_id":"levelo_inurba_marseille","lat":43.295169,"lon":5.390426,"is_reserved":false,"is_disabled":false,"rental_uris":{"android":"levelo://app?vid=14211f2b-4a5f-4680-bace-010d27d47cff","ios":"levelo://app?vid=14211f2b-4a5f-4680-bace-010d27d47cff"},"vehicle_type_id":"4","last_reported":1678647927,"current_range_meters":20000,"station_id":"ce4bh3p2rcd13ifvqdp0","pricing_plan_id":"free"},{"bike_id":"3c5a2b77-eea9-4b72-8bd0-5483ae50962f","system_id":"levelo_inurba_marseille","lat":43.295169,"lon":5.390426,"is_reserved":false,"is_disabled":false,"rental_uris":{"android":"levelo://app?vid=3c5a2b77-eea9-4b72-8bd0-5483ae50962f","ios":"levelo://app?vid=3c5a2b77-eea9-4b72-8bd0-5483ae50962f"},"vehicle_type_id":"4","last_reported":1678647927,"current_range_meters":3600,"station_id":"ce4bh3p2rcd13ifvqdp0","pricing_plan_id":"free"},{"bike_id":"de4540ac-e20c-4fc0-9f99-8f8d1c2a3c7f","system_id":"levelo_inurba_marseille","lat":43.295169,"lon":5.390426,"is_reserved":false,"is_disabled":false,"rental_uris":{"android":"levelo://app?vid=de4540ac-e20c-4fc0-9f99-8f8d1c2a3c7f","ios":"levelo://app?vid=de4540ac-e20c-4fc0-9f99-8f8d1c2a3c7f"},"vehicle_type_id":"4","last_reported":1678647927,"current_range_meters":14000,"station_id":"ce4bh3p2rcd13ifvqdp0","pricing_plan_id":"free"},{"bike_id":"7ec322c6-f8b9-4f82-ae38-798351da813c","system_id":"levelo_inurba_marseille","lat":43.28859,"lon":5.35854,"is_reserved":false,"is_disabled":false,"rental_uris":{"android":"levelo://app?vid=7ec322c6-f8b9-4f82-ae38-798351da813c","ios":"levelo://app?vid=7ec322c6-f8b9-4f82-ae38-798351da813c"},"vehicle_type_id":"4","last_reported":1678647927,"current_range_meters":6000,"station_id":"ce4bhb12rcd13ifvqem0","pricing_plan_id":"free"},{"bike_id":"6785c485-fde6-4128-b5fb-56d98af1442f","system_id":"levelo_inurba_marseille","lat":43.30637,"lon":5.40091,"is_reserved":false,"is_disabled":false,"rental_uris":{"android":"levelo://app?vid=6785c485-fde6-4128-b5fb-56d98af1442f","ios":"levelo://app?vid=6785c485-fde6-4128-b5fb-56d98af1442f"},"vehicle_type_id":"4","last_reported":1678647927,"current_range_meters":13600,"station_id":"","pricing_plan_id":"free"},{"bike_id":"fa8d4f2f-d4b7-4543-a4f8-a5dea8dec165","system_id":"levelo_inurba_marseille","lat":43.30642,"lon":5.401031,"is_reserved":false,"is_disabled":false,"rental_uris":{"android":"levelo://app?vid=fa8d4f2f-d4b7-4543-a4f8-a5dea8dec165","ios":"levelo://app?vid=fa8d4f2f-d4b7-4543-a4f8-a5dea8dec165"},"vehicle_type_id":"4","last_reported":1678647927,"current_range_meters":1600,"station_id":"ce4bh112rcd13ifvqda0","pricing_plan_id":"free"},{"bike_id":"668bfe00-daa4-4575-869a-2cdfaff24d6a","system_id":"levelo_inurba_marseille","lat":43.30642,"lon":5.401031,"is_reserved":false,"is_disabled":false,"rental_uris":{"android":"levelo://app?vid=668bfe00-daa4-4575-869a-2cdfaff24d6a","ios":"levelo://app?vid=668bfe00-daa4-4575-869a-2cdfaff24d6a"},"vehicle_type_id":"4","last_reported":1678647927,"current_range_meters":7200,"station_id":"ce4bh112rcd13ifvqda0","pricing_plan_id":"free"},{"bike_id":"f8b4ba65-5172-4af8-9f39-9619ad3e42aa","system_id":"levelo_inurba_marseille","lat":43.301117,"lon":5.398795,"is_reserved":false,"is_disabled":false,"rental_uris":{"android":"levelo://app?vid=f8b4ba65-5172-4af8-9f39-9619ad3e42aa","ios":"levelo://app?vid=f8b4ba65-5172-4af8-9f39-9619ad3e42aa"},"vehicle_type_id":"4","last_reported":1678647927,"current_range_meters":800,"station_id":"ce4bh0h2rcd13ifvqd40","pricing_plan_id":"free"},{"bike_id":"2ff37670-9964-461c-96ed-956ee9ef35a0","system_id":"levelo_inurba_marseille","lat":43.316517,"lon":5.404375,"is_reserved":false,"is_disabled":false,"rental_uris":{"android":"levelo://app?vid=2ff37670-9964-461c-96ed-956ee9ef35a0","ios":"levelo://app?vid=2ff37670-9964-461c-96ed-956ee9ef35a0"},"vehicle_type_id":"4","last_reported":1678647927,"current_range_meters":6400,"station_id":"ce4bh012rcd13ifvqd00","pricing_plan_id":"free"},{"bike_id":"b65eead5-6de8-4edf-a837-cf8d0954dd58","system_id":"levelo_inurba_marseille","lat":43.286593,"lon":5.363346,"is_reserved":false,"is_disabled":false,"rental_uris":{"android":"levelo://app?vid=b65eead5-6de8-4edf-a837-cf8d0954dd58","ios":"levelo://app?vid=b65eead5-6de8-4edf-a837-cf8d0954dd58"},"vehicle_type_id":"4","last_reported":1678647927,"current_range_meters":400,"station_id":"ce4bhah2rcd13ifvqej0","pricing_plan_id":"free"},{"bike_id":"b6ca6d37-f360-4765-9031-50e057af6765","system_id":"levelo_inurba_marseille","lat":43.29532,"lon":5.39398,"is_reserved":false,"is_disabled":false,"rental_uris":{"android":"levelo://app?vid=b6ca6d37-f360-4765-9031-50e057af6765","ios":"levelo://app?vid=b6ca6d37-f360-4765-9031-50e057af6765"},"vehicle_type_id":"4","last_reported":1678647927,"current_range_meters":18000,"station_id":"ce4bh212rcd13ifvqde0","pricing_plan_id":"free"},{"bike_id":"430dd2b9-591c-4047-8732-103468e58d26","system_id":"levelo_inurba_marseille","lat":43.29533,"lon":5.39402,"is_reserved":false,"is_disabled":false,"rental_uris":{"android":"levelo://app?vid=430dd2b9-591c-4047-8732-103468e58d26","ios":"levelo://app?vid=430dd2b9-591c-4047-8732-103468e58d26"},"vehicle_type_id":"4","last_reported":1678647927,"current_range_meters":14400,"station_id":"ce4bh212rcd13ifvqde0","pricing_plan_id":"free"},{"bike_id":"68544ecb-4969-46a0-80ce-5d0e602519cc","system_id":"levelo_inurba_marseille","lat":43.29533,"lon":5.39403,"is_reserved":false,"is_disabled":false,"rental_uris":{"android":"levelo://app?vid=68544ecb-4969-46a0-80ce-5d0e602519cc","ios":"levelo://app?vid=68544ecb-4969-46a0-80ce-5d0e602519cc"},"vehicle_type_id":"4","last_reported":1678647927,"current_range_meters":0,"station_id":"ce4bh212rcd13ifvqde0","pricing_plan_id":"free"},{"bike_id":"4cb2f82e-9bf8-4dbe-acd3-284268f214fe","system_id":"levelo_inurba_marseille","lat":43.2952,"lon":5.39397,"is_reserved":false,"is_disabled":false,"rental_uris":{"android":"levelo://app?vid=4cb2f82e-9bf8-4dbe-acd3-284268f214fe","ios":"levelo://app?vid=4cb2f82e-9bf8-4dbe-acd3-284268f214fe"},"vehicle_type_id":"4","last_reported":1678647927,"current_range_meters":2000,"station_id":"ce4bh212rcd13ifvqde0","pricing_plan_id":"free"},{"bike_id":"08bc5f72-d1ee-487e-bb7c-138f5804f8b8","system_id":"levelo_inurba_marseille","lat":43.29525,"lon":5.394042,"is_reserved":false,"is_disabled":false,"rental_uris":{"android":"levelo://app?vid=08bc5f72-d1ee-487e-bb7c-138f5804f8b8","ios":"levelo://app?vid=08bc5f72-d1ee-487e-bb7c-138f5804f8b8"},"vehicle_type_id":"4","last_reported":1678647927,"current_range_meters":30800,"station_id":"ce4bh212rcd13ifvqde0","pricing_plan_id":"free"},{"bike_id":"5455623a-0782-4cc1-a753-c10cdd5279c8","system_id":"levelo_inurba_marseille","lat":43.29515,"lon":5.39397,"is_reserved":false,"is_disabled":false,"rental_uris":{"android":"levelo://app?vid=5455623a-0782-4cc1-a753-c10cdd5279c8","ios":"levelo://app?vid=5455623a-0782-4cc1-a753-c10cdd5279c8"},"vehicle_type_id":"4","last_reported":1678647927,"current_range_meters":21200,"station_id":"ce4bh212rcd13ifvqde0","pricing_plan_id":"free"},{"bike_id":"60bdbea3-859c-45b3-8592-7e4457723486","system_id":"levelo_inurba_marseille","lat":43.29023,"lon":5.38599,"is_reserved":false,"is_disabled":false,"rental_uris":{"android":"levelo://app?vid=60bdbea3-859c-45b3-8592-7e4457723486","ios":"levelo://app?vid=60bdbea3-859c-45b3-8592-7e4457723486"},"vehicle_type_id":"4","last_reported":1678647927,"current_range_meters":22800,"station_id":"ce4bh4p2rcd13ifvqe0g","pricing_plan_id":"free"},{"bike_id":"a1c2a6b7-054f-4bd4-b36b-3bd14bea6bcc","system_id":"levelo_inurba_marseille","lat":43.302759,"lon":5.400793,"is_reserved":false,"is_disabled":false,"rental_uris":{"android":"levelo://app?vid=a1c2a6b7-054f-4bd4-b36b-3bd14bea6bcc","ios":"levelo://app?vid=a1c2a6b7-054f-4bd4-b36b-3bd14bea6bcc"},"vehicle_type_id":"4","last_reported":1678647927,"current_range_meters":5200,"station_id":"ce4bgvh2rcd13ifvqcs0","pricing_plan_id":"free"},{"bike_id":"881be8ce-01ae-4949-8065-cc4071ef5d0e","system_id":"levelo_inurba_marseille","lat":43.302759,"lon":5.400793,"is_reserved":false,"is_disabled":false,"rental_uris":{"android":"levelo://app?vid=881be8ce-01ae-4949-8065-cc4071ef5d0e","ios":"levelo://app?vid=881be8ce-01ae-4949-8065-cc4071ef5d0e"},"vehicle_type_id":"4","last_reported":1678647927,"current_range_meters":4400,"station_id":"ce4bgvh2rcd13ifvqcs0","pricing_plan_id":"free"},{"bike_id":"59a646a2-a11c-42b2-95cb-7f0e8287b547","system_id":"levelo_inurba_marseille","lat":43.29027,"lon":5.38642,"is_reserved":false,"is_disabled":false,"rental_uris":{"android":"levelo://app?vid=59a646a2-a11c-42b2-95cb-7f0e8287b547","ios":"levelo://app?vid=59a646a2-a11c-42b2-95cb-7f0e8287b547"},"vehicle_type_id":"4","last_reported":1678647927,"current_range_meters":30800,"station_id":"ce4bh4p2rcd13ifvqe0g","pricing_plan_id":"free"},{"bike_id":"67a7ba44-7953-48b5-85af-9f3005e692ef","system_id":"levelo_inurba_marseille","lat":43.29022,"lon":5.38637,"is_reserved":false,"is_disabled":false,"rental_uris":{"android":"levelo://app?vid=67a7ba44-7953-48b5-85af-9f3005e692ef","ios":"levelo://app?vid=67a7ba44-7953-48b5-85af-9f3005e692ef"},"vehicle_type_id":"4","last_reported":1678647927,"current_range_meters":30400,"station_id":"ce4bh4p2rcd13ifvqe0g","pricing_plan_id":"free"},{"bike_id":"34b936ed-37a0-4448-ae65-5396ac1a4170","system_id":"levelo_inurba_marseille","lat":43.29023,"lon":5.38642,"is_reserved":false,"is_disabled":false,"rental_uris":{"android":"levelo://app?vid=34b936ed-37a0-4448-ae65-5396ac1a4170","ios":"levelo://app?vid=34b936ed-37a0-4448-ae65-5396ac1a4170"},"vehicle_type_id":"4","last_reported":1678647927,"current_range_meters":28800,"station_id":"ce4bh4p2rcd13ifvqe0g","pricing_plan_id":"free"},{"bike_id":"873a6674-6aaa-4562-bcd4-38844e104a5c","system_id":"levelo_inurba_marseille","lat":43.29016,"lon":5.38636,"is_reserved":false,"is_disabled":false,"rental_uris":{"android":"levelo://app?vid=873a6674-6aaa-4562-bcd4-38844e104a5c","ios":"levelo://app?vid=873a6674-6aaa-4562-bcd4-38844e104a5c"},"vehicle_type_id":"4","last_reported":1678647927,"current_range_meters":0,"station_id":"","pricing_plan_id":"free"},{"bike_id":"fac0a16e-ee50-4f09-a8b5-3f19285763af","system_id":"levelo_inurba_marseille","lat":43.286039,"lon":5.370681,"is_reserved":false,"is_disabled":false,"rental_uris":{"android":"levelo://app?vid=fac0a16e-ee50-4f09-a8b5-3f19285763af","ios":"levelo://app?vid=fac0a16e-ee50-4f09-a8b5-3f19285763af"},"vehicle_type_id":"4","last_reported":1678647927,"current_range_meters":0,"station_id":"ce4bht12rcd13ifvqi60","pricing_plan_id":"free"},{"bike_id":"92f7c954-cadd-4b31-86c0-3ef97edc0d96","system_id":"levelo_inurba_marseille","lat":43.316517,"lon":5.404375,"is_reserved":false,"is_disabled":false,"rental_uris":{"android":"levelo://app?vid=92f7c954-cadd-4b31-86c0-3ef97edc0d96","ios":"levelo://app?vid=92f7c954-cadd-4b31-86c0-3ef97edc0d96"},"vehicle_type_id":"4","last_reported":1678647927,"current_range_meters":15600,"station_id":"ce4bh012rcd13ifvqd00","pricing_plan_id":"free"},{"bike_id":"b1ef9f17-6a37-4609-9316-0d29903e6c7c","system_id":"levelo_inurba_marseille","lat":43.284534,"lon":5.358662,"is_reserved":false,"is_disabled":false,"rental_uris":{"android":"levelo://app?vid=b1ef9f17-6a37-4609-9316-0d29903e6c7c","ios":"levelo://app?vid=b1ef9f17-6a37-4609-9316-0d29903e6c7c"},"vehicle_type_id":"4","last_reported":1678647927,"current_range_meters":4000,"station_id":"ce4bhah2rcd13ifvqei0","pricing_plan_id":"free"},{"bike_id":"d937ac36-1a9c-430b-bff3-070a7cabd500","system_id":"levelo_inurba_marseille","lat":43.284534,"lon":5.358662,"is_reserved":false,"is_disabled":false,"rental_uris":{"android":"levelo://app?vid=d937ac36-1a9c-430b-bff3-070a7cabd500","ios":"levelo://app?vid=d937ac36-1a9c-430b-bff3-070a7cabd500"},"vehicle_type_id":"4","last_reported":1678647927,"current_range_meters":0,"station_id":"ce4bhah2rcd13ifvqei0","pricing_plan_id":"free"},{"bike_id":"25bd2a49-275f-46bd-8b54-41baf0f1bd0a","system_id":"levelo_inurba_marseille","lat":43.29263,"lon":5.39867,"is_reserved":false,"is_disabled":false,"rental_uris":{"android":"levelo://app?vid=25bd2a49-275f-46bd-8b54-41baf0f1bd0a","ios":"levelo://app?vid=25bd2a49-275f-46bd-8b54-41baf0f1bd0a"},"vehicle_type_id":"4","last_reported":1678647927,"current_range_meters":21200,"station_id":"ce4bhh12rcd13ifvqfg0","pricing_plan_id":"free"},{"bike_id":"eae54904-dfeb-4489-8164-e55e426b53b6","system_id":"levelo_inurba_marseille","lat":43.284793,"lon":5.384119,"is_reserved":false,"is_disabled":false,"rental_uris":{"android":"levelo://app?vid=eae54904-dfeb-4489-8164-e55e426b53b6","ios":"levelo://app?vid=eae54904-dfeb-4489-8164-e55e426b53b6"},"vehicle_type_id":"4","last_reported":1678647927,"current_range_meters":22800,"station_id":"ce4bh512rcd13ifvqe3g","pricing_plan_id":"free"},{"bike_id":"3b3776a7-35a5-46ec-b04d-88e1fc84c87f","system_id":"levelo_inurba_marseille","lat":43.2847,"lon":5.38417,"is_reserved":false,"is_disabled":false,"rental_uris":{"android":"levelo://app?vid=3b3776a7-35a5-46ec-b04d-88e1fc84c87f","ios":"levelo://app?vid=3b3776a7-35a5-46ec-b04d-88e1fc84c87f"},"vehicle_type_id":"4","last_reported":1678647927,"current_range_meters":22000,"station_id":"","pricing_plan_id":"free"},{"bike_id":"d80a2e0e-bf35-4e1f-b5f2-bca3a9386d55","system_id":"levelo_inurba_marseille","lat":43.289363,"lon":5.396322,"is_reserved":false,"is_disabled":false,"rental_uris":{"android":"levelo://app?vid=d80a2e0e-bf35-4e1f-b5f2-bca3a9386d55","ios":"levelo://app?vid=d80a2e0e-bf35-4e1f-b5f2-bca3a9386d55"},"vehicle_type_id":"4","last_reported":1678647927,"current_range_meters":7200,"station_id":"ce4bh3h2rcd13ifvqdn0","pricing_plan_id":"free"},{"bike_id":"b4bc95e0-4bb0-4bae-8fa0-894edb9b18ee","system_id":"levelo_inurba_marseille","lat":43.29288,"lon":5.40122,"is_reserved":false,"is_disabled":false,"rental_uris":{"android":"levelo://app?vid=b4bc95e0-4bb0-4bae-8fa0-894edb9b18ee","ios":"levelo://app?vid=b4bc95e0-4bb0-4bae-8fa0-894edb9b18ee"},"vehicle_type_id":"4","last_reported":1678647927,"current_range_meters":30800,"station_id":"ce4bh312rcd13ifvqdk0","pricing_plan_id":"free"},{"bike_id":"39646317-7a81-4535-8d4f-0f093235cb82","system_id":"levelo_inurba_marseille","lat":43.329037,"lon":5.405361,"is_reserved":false,"is_disabled":false,"rental_uris":{"android":"levelo://app?vid=39646317-7a81-4535-8d4f-0f093235cb82","ios":"levelo://app?vid=39646317-7a81-4535-8d4f-0f093235cb82"},"vehicle_type_id":"4","last_reported":1678647927,"current_range_meters":0,"station_id":"","pricing_plan_id":"free"},{"bike_id":"e19b91dd-b3ea-4d74-8c81-869127ce004e","system_id":"levelo_inurba_marseille","lat":43.283502,"lon":5.386471,"is_reserved":false,"is_disabled":false,"rental_uris":{"android":"levelo://app?vid=e19b91dd-b3ea-4d74-8c81-869127ce004e","ios":"levelo://app?vid=e19b91dd-b3ea-4d74-8c81-869127ce004e"},"vehicle_type_id":"4","last_reported":1678647927,"current_range_meters":4800,"station_id":"ce4bh492rcd13ifvqdvg","pricing_plan_id":"free"},{"bike_id":"8bdb4c29-b9e6-4b9e-9152-7de14c0eb705","system_id":"levelo_inurba_marseille","lat":43.28039,"lon":5.369297,"is_reserved":false,"is_disabled":false,"rental_uris":{"android":"levelo://app?vid=8bdb4c29-b9e6-4b9e-9152-7de14c0eb705","ios":"levelo://app?vid=8bdb4c29-b9e6-4b9e-9152-7de14c0eb705"},"vehicle_type_id":"4","last_reported":1678647927,"current_range_meters":3600,"station_id":"ce4bha12rcd13ifvqef0","pricing_plan_id":"free"},{"bike_id":"37e09805-e12f-4d24-9ec9-152a8fc34efa","system_id":"levelo_inurba_marseille","lat":43.281044,"lon":5.378308,"is_reserved":false,"is_disabled":false,"rental_uris":{"android":"levelo://app?vid=37e09805-e12f-4d24-9ec9-152a8fc34efa","ios":"levelo://app?vid=37e09805-e12f-4d24-9ec9-152a8fc34efa"},"vehicle_type_id":"4","last_reported":1678647927,"current_range_meters":0,"station_id":"ce4bha12rcd13ifvqee0","pricing_plan_id":"free"},{"bike_id":"f43302ed-a77d-47db-b901-2a6e6f6449d4","system_id":"levelo_inurba_marseille","lat":43.28102,"lon":5.37838,"is_reserved":false,"is_disabled":false,"rental_uris":{"android":"levelo://app?vid=f43302ed-a77d-47db-b901-2a6e6f6449d4","ios":"levelo://app?vid=f43302ed-a77d-47db-b901-2a6e6f6449d4"},"vehicle_type_id":"4","last_reported":1678647927,"current_range_meters":6400,"station_id":"ce4bha12rcd13ifvqee0","pricing_plan_id":"free"},{"bike_id":"d1270b0d-a04f-4ea1-bf54-d8c728217dd5","system_id":"levelo_inurba_marseille","lat":43.281044,"lon":5.378308,"is_reserved":false,"is_disabled":false,"rental_uris":{"android":"levelo://app?vid=d1270b0d-a04f-4ea1-bf54-d8c728217dd5","ios":"levelo://app?vid=d1270b0d-a04f-4ea1-bf54-d8c728217dd5"},"vehicle_type_id":"4","last_reported":1678647927,"current_range_meters":2400,"station_id":"ce4bha12rcd13ifvqee0","pricing_plan_id":"free"},{"bike_id":"5914cde4-1a67-4b66-a70d-77efb20b3f33","system_id":"levelo_inurba_marseille","lat":43.281044,"lon":5.378308,"is_reserved":false,"is_disabled":false,"rental_uris":{"android":"levelo://app?vid=5914cde4-1a67-4b66-a70d-77efb20b3f33","ios":"levelo://app?vid=5914cde4-1a67-4b66-a70d-77efb20b3f33"},"vehicle_type_id":"4","last_reported":1678647927,"current_range_meters":12800,"station_id":"ce4bha12rcd13ifvqee0","pricing_plan_id":"free"},{"bike_id":"dcddc113-e671-4ed1-9e83-8c8857f48f7c","system_id":"levelo_inurba_marseille","lat":43.281044,"lon":5.378308,"is_reserved":false,"is_disabled":false,"rental_uris":{"android":"levelo://app?vid=dcddc113-e671-4ed1-9e83-8c8857f48f7c","ios":"levelo://app?vid=dcddc113-e671-4ed1-9e83-8c8857f48f7c"},"vehicle_type_id":"4","last_reported":1678647927,"current_range_meters":7600,"station_id":"ce4bha12rcd13ifvqee0","pricing_plan_id":"free"},{"bike_id":"1f987458-b08f-43bb-87b3-1fc39fc42ba8","system_id":"levelo_inurba_marseille","lat":43.281044,"lon":5.378308,"is_reserved":false,"is_disabled":false,"rental_uris":{"android":"levelo://app?vid=1f987458-b08f-43bb-87b3-1fc39fc42ba8","ios":"levelo://app?vid=1f987458-b08f-43bb-87b3-1fc39fc42ba8"},"vehicle_type_id":"4","last_reported":1678647927,"current_range_meters":13200,"station_id":"ce4bha12rcd13ifvqee0","pricing_plan_id":"free"},{"bike_id":"22fce0c0-60b5-49e4-977e-7f5de76bb859","system_id":"levelo_inurba_marseille","lat":43.290276,"lon":5.400562,"is_reserved":false,"is_disabled":false,"rental_uris":{"android":"levelo://app?vid=22fce0c0-60b5-49e4-977e-7f5de76bb859","ios":"levelo://app?vid=22fce0c0-60b5-49e4-977e-7f5de76bb859"},"vehicle_type_id":"4","last_reported":1678647927,"current_range_meters":0,"station_id":"","pricing_plan_id":"free"},{"bike_id":"9e2b1050-b798-4070-8355-4cec8b9b8c3d","system_id":"levelo_inurba_marseille","lat":43.30426,"lon":5.4128,"is_reserved":false,"is_disabled":false,"rental_uris":{"android":"levelo://app?vid=9e2b1050-b798-4070-8355-4cec8b9b8c3d","ios":"levelo://app?vid=9e2b1050-b798-4070-8355-4cec8b9b8c3d"},"vehicle_type_id":"4","last_reported":1678647927,"current_range_meters":400,"station_id":"ce4bhop2rcd13ifvqh8g","pricing_plan_id":"free"},{"bike_id":"9cf84104-3a4a-4b61-88bc-30d0ab2b643c","system_id":"levelo_inurba_marseille","lat":43.28693,"lon":5.39981,"is_reserved":false,"is_disabled":false,"rental_uris":{"android":"levelo://app?vid=9cf84104-3a4a-4b61-88bc-30d0ab2b643c","ios":"levelo://app?vid=9cf84104-3a4a-4b61-88bc-30d0ab2b643c"},"vehicle_type_id":"4","last_reported":1678647927,"current_range_meters":0,"station_id":"","pricing_plan_id":"free"},{"bike_id":"19588a31-db27-46c8-894b-50b4c8d772d0","system_id":"levelo_inurba_marseille","lat":43.281044,"lon":5.378308,"is_reserved":false,"is_disabled":false,"rental_uris":{"android":"levelo://app?vid=19588a31-db27-46c8-894b-50b4c8d772d0","ios":"levelo://app?vid=19588a31-db27-46c8-894b-50b4c8d772d0"},"vehicle_type_id":"4","last_reported":1678647927,"current_range_meters":15200,"station_id":"ce4bha12rcd13ifvqee0","pricing_plan_id":"free"},{"bike_id":"6fa120a3-0a7c-4121-810d-ebc9f74a48a3","system_id":"levelo_inurba_marseille","lat":43.279742,"lon":5.38744,"is_reserved":false,"is_disabled":false,"rental_uris":{"android":"levelo://app?vid=6fa120a3-0a7c-4121-810d-ebc9f74a48a3","ios":"levelo://app?vid=6fa120a3-0a7c-4121-810d-ebc9f74a48a3"},"vehicle_type_id":"4","last_reported":1678647927,"current_range_meters":2000,"station_id":"ce4bhg12rcd13ifvqf80","pricing_plan_id":"free"},{"bike_id":"9ab79ce3-4465-4c7e-bd4c-b1bd16a22242","system_id":"levelo_inurba_marseille","lat":43.292571,"lon":5.409107,"is_reserved":false,"is_disabled":false,"rental_uris":{"android":"levelo://app?vid=9ab79ce3-4465-4c7e-bd4c-b1bd16a22242","ios":"levelo://app?vid=9ab79ce3-4465-4c7e-bd4c-b1bd16a22242"},"vehicle_type_id":"4","last_reported":1678647927,"current_range_meters":10800,"station_id":"ce4bh192rcd13ifvqdc0","pricing_plan_id":"free"},{"bike_id":"800363e7-9942-4aa6-bef7-589ab001e7f2","system_id":"levelo_inurba_marseille","lat":43.27618,"lon":5.361009,"is_reserved":false,"is_disabled":false,"rental_uris":{"android":"levelo://app?vid=800363e7-9942-4aa6-bef7-589ab001e7f2","ios":"levelo://app?vid=800363e7-9942-4aa6-bef7-589ab001e7f2"},"vehicle_type_id":"4","last_reported":1678647927,"current_range_meters":9600,"station_id":"ce4bgj92rcd13ifvqbe0","pricing_plan_id":"free"},{"bike_id":"95df217f-be48-4ded-87ff-33de22d94118","system_id":"levelo_inurba_marseille","lat":43.292569,"lon":5.409107,"is_reserved":false,"is_disabled":false,"rental_uris":{"android":"levelo://app?vid=95df217f-be48-4ded-87ff-33de22d94118","ios":"levelo://app?vid=95df217f-be48-4ded-87ff-33de22d94118"},"vehicle_type_id":"4","last_reported":1678647927,"current_range_meters":2000,"station_id":"ce4bh192rcd13ifvqdc0","pricing_plan_id":"free"},{"bike_id":"6a3b843b-b04b-4d5b-85eb-ea9ea1481fc5","system_id":"levelo_inurba_marseille","lat":43.292569,"lon":5.409107,"is_reserved":false,"is_disabled":false,"rental_uris":{"android":"levelo://app?vid=6a3b843b-b04b-4d5b-85eb-ea9ea1481fc5","ios":"levelo://app?vid=6a3b843b-b04b-4d5b-85eb-ea9ea1481fc5"},"vehicle_type_id":"4","last_reported":1678647927,"current_range_meters":7200,"station_id":"ce4bh192rcd13ifvqdc0","pricing_plan_id":"free"},{"bike_id":"168ab727-63d0-4118-a0df-08aa4433a039","system_id":"levelo_inurba_marseille","lat":43.292569,"lon":5.409107,"is_reserved":false,"is_disabled":false,"rental_uris":{"android":"levelo://app?vid=168ab727-63d0-4118-a0df-08aa4433a039","ios":"levelo://app?vid=168ab727-63d0-4118-a0df-08aa4433a039"},"vehicle_type_id":"4","last_reported":1678647927,"current_range_meters":1600,"station_id":"ce4bh192rcd13ifvqdc0","pricing_plan_id":"free"},{"bike_id":"d2d1ff25-6941-472c-a997-1575adef8c26","system_id":"levelo_inurba_marseille","lat":43.33612,"lon":5.410321,"is_reserved":false,"is_disabled":false,"rental_uris":{"android":"levelo://app?vid=d2d1ff25-6941-472c-a997-1575adef8c26","ios":"levelo://app?vid=d2d1ff25-6941-472c-a997-1575adef8c26"},"vehicle_type_id":"4","last_reported":1678647927,"current_range_meters":12000,"station_id":"ce4bhqh2rcd13ifvqhmg","pricing_plan_id":"free"},{"bike_id":"17a51b0a-757b-4394-908d-e2fdabc6d522","system_id":"levelo_inurba_marseille","lat":43.276769,"lon":5.388787,"is_reserved":false,"is_disabled":false,"rental_uris":{"android":"levelo://app?vid=17a51b0a-757b-4394-908d-e2fdabc6d522","ios":"levelo://app?vid=17a51b0a-757b-4394-908d-e2fdabc6d522"},"vehicle_type_id":"4","last_reported":1678647927,"current_range_meters":400,"station_id":"ce4bhi12rcd13ifvqfo0","pricing_plan_id":"free"},{"bike_id":"4fe387ed-a67f-4e75-8fb6-8ac875b3a919","system_id":"levelo_inurba_marseille","lat":43.33612,"lon":5.410321,"is_reserved":false,"is_disabled":false,"rental_uris":{"android":"levelo://app?vid=4fe387ed-a67f-4e75-8fb6-8ac875b3a919","ios":"levelo://app?vid=4fe387ed-a67f-4e75-8fb6-8ac875b3a919"},"vehicle_type_id":"4","last_reported":1678647927,"current_range_meters":0,"station_id":"ce4bhqh2rcd13ifvqhmg","pricing_plan_id":"free"},{"bike_id":"06b475de-aeb0-43e5-9058-2847d8b61187","system_id":"levelo_inurba_marseille","lat":43.33475,"lon":5.41523,"is_reserved":false,"is_disabled":false,"rental_uris":{"android":"levelo://app?vid=06b475de-aeb0-43e5-9058-2847d8b61187","ios":"levelo://app?vid=06b475de-aeb0-43e5-9058-2847d8b61187"},"vehicle_type_id":"4","last_reported":1678647927,"current_range_meters":0,"station_id":"","pricing_plan_id":"free"},{"bike_id":"7e950919-70cd-49eb-88ef-a1aa9e3f473d","system_id":"levelo_inurba_marseille","lat":43.317121,"lon":5.423936,"is_reserved":false,"is_disabled":false,"rental_uris":{"android":"levelo://app?vid=7e950919-70cd-49eb-88ef-a1aa9e3f473d","ios":"levelo://app?vid=7e950919-70cd-49eb-88ef-a1aa9e3f473d"},"vehicle_type_id":"4","last_reported":1678647927,"current_range_meters":27600,"station_id":"ce4bhp92rcd13ifvqhbg","pricing_plan_id":"free"},{"bike_id":"1fe15e96-5abc-4367-9e79-b7dbdf4cf97a","system_id":"levelo_inurba_marseille","lat":43.296277,"lon":5.377108,"is_reserved":false,"is_disabled":false,"rental_uris":{"android":"levelo://app?vid=1fe15e96-5abc-4367-9e79-b7dbdf4cf97a","ios":"levelo://app?vid=1fe15e96-5abc-4367-9e79-b7dbdf4cf97a"},"vehicle_type_id":"4","last_reported":1678647927,"current_range_meters":6000,"station_id":"ce4bgi92rcd13ifvqb90","pricing_plan_id":"free"},{"bike_id":"d1ecd035-ad86-44f9-a0ca-9817e86b1643","system_id":"levelo_inurba_marseille","lat":43.27946,"lon":5.40432,"is_reserved":false,"is_disabled":false,"rental_uris":{"android":"levelo://app?vid=d1ecd035-ad86-44f9-a0ca-9817e86b1643","ios":"levelo://app?vid=d1ecd035-ad86-44f9-a0ca-9817e86b1643"},"vehicle_type_id":"4","last_reported":1678647927,"current_range_meters":18000,"station_id":"","pricing_plan_id":"free"},{"bike_id":"63ff5044-02cb-4a37-bbc2-e6dbc3c2783c","system_id":"levelo_inurba_marseille","lat":43.273129,"lon":5.390725,"is_reserved":false,"is_disabled":false,"rental_uris":{"android":"levelo://app?vid=63ff5044-02cb-4a37-bbc2-e6dbc3c2783c","ios":"levelo://app?vid=63ff5044-02cb-4a37-bbc2-e6dbc3c2783c"},"vehicle_type_id":"4","last_reported":1678647927,"current_range_meters":6800,"station_id":"ce4bhgp2rcd13ifvqfe0","pricing_plan_id":"free"},{"bike_id":"f0df274a-9ede-4afc-bece-70be2b7258ca","system_id":"levelo_inurba_marseille","lat":43.273129,"lon":5.390725,"is_reserved":false,"is_disabled":false,"rental_uris":{"android":"levelo://app?vid=f0df274a-9ede-4afc-bece-70be2b7258ca","ios":"levelo://app?vid=f0df274a-9ede-4afc-bece-70be2b7258ca"},"vehicle_type_id":"4","last_reported":1678647927,"current_range_meters":23200,"station_id":"ce4bhgp2rcd13ifvqfe0","pricing_plan_id":"free"},{"bike_id":"0138ac44-6a4b-43a4-8a0b-a324d03e370e","system_id":"levelo_inurba_marseille","lat":43.273129,"lon":5.390725,"is_reserved":false,"is_disabled":false,"rental_uris":{"android":"levelo://app?vid=0138ac44-6a4b-43a4-8a0b-a324d03e370e","ios":"levelo://app?vid=0138ac44-6a4b-43a4-8a0b-a324d03e370e"},"vehicle_type_id":"4","last_reported":1678647927,"current_range_meters":4800,"station_id":"ce4bhgp2rcd13ifvqfe0","pricing_plan_id":"free"},{"bike_id":"dde78c3d-fcd5-46ca-9d74-a712e086117f","system_id":"levelo_inurba_marseille","lat":43.273129,"lon":5.390725,"is_reserved":false,"is_disabled":false,"rental_uris":{"android":"levelo://app?vid=dde78c3d-fcd5-46ca-9d74-a712e086117f","ios":"levelo://app?vid=dde78c3d-fcd5-46ca-9d74-a712e086117f"},"vehicle_type_id":"4","last_reported":1678647927,"current_range_meters":11600,"station_id":"ce4bhgp2rcd13ifvqfe0","pricing_plan_id":"free"},{"bike_id":"d92dea5c-2770-4f5e-b78d-c1bce70279a9","system_id":"levelo_inurba_marseille","lat":43.27313,"lon":5.39092,"is_reserved":false,"is_disabled":false,"rental_uris":{"android":"levelo://app?vid=d92dea5c-2770-4f5e-b78d-c1bce70279a9","ios":"levelo://app?vid=d92dea5c-2770-4f5e-b78d-c1bce70279a9"},"vehicle_type_id":"4","last_reported":1678647927,"current_range_meters":2800,"station_id":"","pricing_plan_id":"free"},{"bike_id":"5cb6f945-d689-4374-910b-c2e7750db5c1","system_id":"levelo_inurba_marseille","lat":43.273125,"lon":5.390731,"is_reserved":false,"is_disabled":false,"rental_uris":{"android":"levelo://app?vid=5cb6f945-d689-4374-910b-c2e7750db5c1","ios":"levelo://app?vid=5cb6f945-d689-4374-910b-c2e7750db5c1"},"vehicle_type_id":"4","last_reported":1678647927,"current_range_meters":3600,"station_id":"ce4bhgp2rcd13ifvqfe0","pricing_plan_id":"free"},{"bike_id":"d2223ce4-5d7f-49b5-9cd5-9199dbd3d671","system_id":"levelo_inurba_marseille","lat":43.304096,"lon":5.425385,"is_reserved":false,"is_disabled":false,"rental_uris":{"android":"levelo://app?vid=d2223ce4-5d7f-49b5-9cd5-9199dbd3d671","ios":"levelo://app?vid=d2223ce4-5d7f-49b5-9cd5-9199dbd3d671"},"vehicle_type_id":"4","last_reported":1678647927,"current_range_meters":14000,"station_id":"ce4bhoh2rcd13ifvqh6g","pricing_plan_id":"free"},{"bike_id":"5412c12d-a08a-4032-9b2f-91982dfe7ddd","system_id":"levelo_inurba_marseille","lat":43.304096,"lon":5.425385,"is_reserved":false,"is_disabled":false,"rental_uris":{"android":"levelo://app?vid=5412c12d-a08a-4032-9b2f-91982dfe7ddd","ios":"levelo://app?vid=5412c12d-a08a-4032-9b2f-91982dfe7ddd"},"vehicle_type_id":"4","last_reported":1678647927,"current_range_meters":25600,"station_id":"ce4bhoh2rcd13ifvqh6g","pricing_plan_id":"free"},{"bike_id":"67dc6dbb-1c34-4f73-8cd6-e42763cf071a","system_id":"levelo_inurba_marseille","lat":43.29552,"lon":5.42276,"is_reserved":false,"is_disabled":false,"rental_uris":{"android":"levelo://app?vid=67dc6dbb-1c34-4f73-8cd6-e42763cf071a","ios":"levelo://app?vid=67dc6dbb-1c34-4f73-8cd6-e42763cf071a"},"vehicle_type_id":"4","last_reported":1678647927,"current_range_meters":28800,"station_id":"ce4bhph2rcd13ifvqhdg","pricing_plan_id":"free"},{"bike_id":"cdc0256b-b55e-4797-bd8e-442bc2063f0f","system_id":"levelo_inurba_marseille","lat":43.295523,"lon":5.422926,"is_reserved":false,"is_disabled":false,"rental_uris":{"android":"levelo://app?vid=cdc0256b-b55e-4797-bd8e-442bc2063f0f","ios":"levelo://app?vid=cdc0256b-b55e-4797-bd8e-442bc2063f0f"},"vehicle_type_id":"4","last_reported":1678647927,"current_range_meters":20800,"station_id":"ce4bhph2rcd13ifvqhdg","pricing_plan_id":"free"},{"bike_id":"0d59d3c1-4e2f-45c5-91da-86fa742ad0f6","system_id":"levelo_inurba_marseille","lat":43.29552,"lon":5.42283,"is_reserved":false,"is_disabled":false,"rental_uris":{"android":"levelo://app?vid=0d59d3c1-4e2f-45c5-91da-86fa742ad0f6","ios":"levelo://app?vid=0d59d3c1-4e2f-45c5-91da-86fa742ad0f6"},"vehicle_type_id":"4","last_reported":1678647927,"current_range_meters":26000,"station_id":"","pricing_plan_id":"free"},{"bike_id":"2c293236-5ccd-462a-be3f-d68c4578fa49","system_id":"levelo_inurba_marseille","lat":43.29551,"lon":5.42285,"is_reserved":false,"is_disabled":false,"rental_uris":{"android":"levelo://app?vid=2c293236-5ccd-462a-be3f-d68c4578fa49","ios":"levelo://app?vid=2c293236-5ccd-462a-be3f-d68c4578fa49"},"vehicle_type_id":"4","last_reported":1678647927,"current_range_meters":23200,"station_id":"","pricing_plan_id":"free"},{"bike_id":"25c5a0cd-a2cd-4182-8cb5-43299ab1b8d6","system_id":"levelo_inurba_marseille","lat":43.295533,"lon":5.4229,"is_reserved":false,"is_disabled":false,"rental_uris":{"android":"levelo://app?vid=25c5a0cd-a2cd-4182-8cb5-43299ab1b8d6","ios":"levelo://app?vid=25c5a0cd-a2cd-4182-8cb5-43299ab1b8d6"},"vehicle_type_id":"4","last_reported":1678647927,"current_range_meters":6400,"station_id":"","pricing_plan_id":"free"},{"bike_id":"cb8fda6d-cd77-4bb1-9d8c-ccc580981c90","system_id":"levelo_inurba_marseille","lat":43.295523,"lon":5.422926,"is_reserved":false,"is_disabled":false,"rental_uris":{"android":"levelo://app?vid=cb8fda6d-cd77-4bb1-9d8c-ccc580981c90","ios":"levelo://app?vid=cb8fda6d-cd77-4bb1-9d8c-ccc580981c90"},"vehicle_type_id":"4","last_reported":1678647927,"current_range_meters":21600,"station_id":"ce4bhph2rcd13ifvqhdg","pricing_plan_id":"free"},{"bike_id":"dcf023a5-ef26-472f-9473-a1596d84857c","system_id":"levelo_inurba_marseille","lat":43.272124,"lon":5.391768,"is_reserved":false,"is_disabled":false,"rental_uris":{"android":"levelo://app?vid=dcf023a5-ef26-472f-9473-a1596d84857c","ios":"levelo://app?vid=dcf023a5-ef26-472f-9473-a1596d84857c"},"vehicle_type_id":"4","last_reported":1678647927,"current_range_meters":11600,"station_id":"ce4bhhp2rcd13ifvqfm0","pricing_plan_id":"free"},{"bike_id":"838345f2-2dd8-4916-bfc5-cf29f24e16cd","system_id":"levelo_inurba_marseille","lat":43.272124,"lon":5.391768,"is_reserved":false,"is_disabled":false,"rental_uris":{"android":"levelo://app?vid=838345f2-2dd8-4916-bfc5-cf29f24e16cd","ios":"levelo://app?vid=838345f2-2dd8-4916-bfc5-cf29f24e16cd"},"vehicle_type_id":"4","last_reported":1678647927,"current_range_meters":17600,"station_id":"ce4bhhp2rcd13ifvqfm0","pricing_plan_id":"free"},{"bike_id":"f78384dc-5b6a-4206-af3a-4c525318069a","system_id":"levelo_inurba_marseille","lat":43.272124,"lon":5.391768,"is_reserved":false,"is_disabled":false,"rental_uris":{"android":"levelo://app?vid=f78384dc-5b6a-4206-af3a-4c525318069a","ios":"levelo://app?vid=f78384dc-5b6a-4206-af3a-4c525318069a"},"vehicle_type_id":"4","last_reported":1678647927,"current_range_meters":22800,"station_id":"ce4bhhp2rcd13ifvqfm0","pricing_plan_id":"free"},{"bike_id":"aff93721-8e18-4b4e-964a-3ebcdaabcdff","system_id":"levelo_inurba_marseille","lat":43.27206,"lon":5.39185,"is_reserved":false,"is_disabled":false,"rental_uris":{"android":"levelo://app?vid=aff93721-8e18-4b4e-964a-3ebcdaabcdff","ios":"levelo://app?vid=aff93721-8e18-4b4e-964a-3ebcdaabcdff"},"vehicle_type_id":"4","last_reported":1678647927,"current_range_meters":4000,"station_id":"ce4bhhp2rcd13ifvqfm0","pricing_plan_id":"free"},{"bike_id":"318f620d-ae7d-4401-9674-7df2a2a8e103","system_id":"levelo_inurba_marseille","lat":43.272116,"lon":5.391763,"is_reserved":false,"is_disabled":false,"rental_uris":{"android":"levelo://app?vid=318f620d-ae7d-4401-9674-7df2a2a8e103","ios":"levelo://app?vid=318f620d-ae7d-4401-9674-7df2a2a8e103"},"vehicle_type_id":"4","last_reported":1678647927,"current_range_meters":0,"station_id":"ce4bhhp2rcd13ifvqfm0","pricing_plan_id":"free"},{"bike_id":"4d5dbde2-b494-499e-96d8-f8febe9156c9","system_id":"levelo_inurba_marseille","lat":43.298216,"lon":5.42501,"is_reserved":false,"is_disabled":false,"rental_uris":{"android":"levelo://app?vid=4d5dbde2-b494-499e-96d8-f8febe9156c9","ios":"levelo://app?vid=4d5dbde2-b494-499e-96d8-f8febe9156c9"},"vehicle_type_id":"4","last_reported":1678647927,"current_range_meters":12400,"station_id":"","pricing_plan_id":"free"},{"bike_id":"e96b86ab-2bb7-4717-8509-dfbfc416b687","system_id":"levelo_inurba_marseille","lat":43.278128,"lon":5.407195,"is_reserved":false,"is_disabled":false,"rental_uris":{"android":"levelo://app?vid=e96b86ab-2bb7-4717-8509-dfbfc416b687","ios":"levelo://app?vid=e96b86ab-2bb7-4717-8509-dfbfc416b687"},"vehicle_type_id":"4","last_reported":1678647927,"current_range_meters":0,"station_id":"ce4bhnh2rcd13ifvqgtg","pricing_plan_id":"free"},{"bike_id":"08c266a0-8a7a-4a46-afb8-7f0c50af0c65","system_id":"levelo_inurba_marseille","lat":43.278128,"lon":5.407195,"is_reserved":false,"is_disabled":false,"rental_uris":{"android":"levelo://app?vid=08c266a0-8a7a-4a46-afb8-7f0c50af0c65","ios":"levelo://app?vid=08c266a0-8a7a-4a46-afb8-7f0c50af0c65"},"vehicle_type_id":"4","last_reported":1678647927,"current_range_meters":12400,"station_id":"ce4bhnh2rcd13ifvqgtg","pricing_plan_id":"free"},{"bike_id":"a246d2a3-f99b-4822-964a-34bc0f6f0bd3","system_id":"levelo_inurba_marseille","lat":43.269467,"lon":5.386439,"is_reserved":false,"is_disabled":false,"rental_uris":{"android":"levelo://app?vid=a246d2a3-f99b-4822-964a-34bc0f6f0bd3","ios":"levelo://app?vid=a246d2a3-f99b-4822-964a-34bc0f6f0bd3"},"vehicle_type_id":"4","last_reported":1678647927,"current_range_meters":30800,"station_id":"ce4bhh92rcd13ifvqfh0","pricing_plan_id":"free"},{"bike_id":"16baf159-8a0a-405d-8971-eface288ce91","system_id":"levelo_inurba_marseille","lat":43.278128,"lon":5.407195,"is_reserved":false,"is_disabled":false,"rental_uris":{"android":"levelo://app?vid=16baf159-8a0a-405d-8971-eface288ce91","ios":"levelo://app?vid=16baf159-8a0a-405d-8971-eface288ce91"},"vehicle_type_id":"4","last_reported":1678647927,"current_range_meters":31600,"station_id":"ce4bhnh2rcd13ifvqgtg","pricing_plan_id":"free"},{"bike_id":"87472abf-01b2-4445-b22d-7054e8aa8d14","system_id":"levelo_inurba_marseille","lat":43.279972,"lon":5.416574,"is_reserved":false,"is_disabled":false,"rental_uris":{"android":"levelo://app?vid=87472abf-01b2-4445-b22d-7054e8aa8d14","ios":"levelo://app?vid=87472abf-01b2-4445-b22d-7054e8aa8d14"},"vehicle_type_id":"4","last_reported":1678647927,"current_range_meters":27200,"station_id":"ce4bho12rcd13ifvqh1g","pricing_plan_id":"free"},{"bike_id":"83157404-41dd-4c49-80a6-1e26356d7fad","system_id":"levelo_inurba_marseille","lat":43.27998,"lon":5.41665,"is_reserved":false,"is_disabled":false,"rental_uris":{"android":"levelo://app?vid=83157404-41dd-4c49-80a6-1e26356d7fad","ios":"levelo://app?vid=83157404-41dd-4c49-80a6-1e26356d7fad"},"vehicle_type_id":"4","last_reported":1678647927,"current_range_meters":28000,"station_id":"","pricing_plan_id":"free"},{"bike_id":"7fad437e-5acf-494b-a3da-3c8b1f73d4ac","system_id":"levelo_inurba_marseille","lat":43.27996,"lon":5.416624,"is_reserved":false,"is_disabled":false,"rental_uris":{"android":"levelo://app?vid=7fad437e-5acf-494b-a3da-3c8b1f73d4ac","ios":"levelo://app?vid=7fad437e-5acf-494b-a3da-3c8b1f73d4ac"},"vehicle_type_id":"4","last_reported":1678647927,"current_range_meters":11200,"station_id":"ce4bho12rcd13ifvqh1g","pricing_plan_id":"free"},{"bike_id":"ce38f681-ea78-415d-88ef-15e067847ad4","system_id":"levelo_inurba_marseille","lat":43.27993,"lon":5.4166,"is_reserved":false,"is_disabled":false,"rental_uris":{"android":"levelo://app?vid=ce38f681-ea78-415d-88ef-15e067847ad4","ios":"levelo://app?vid=ce38f681-ea78-415d-88ef-15e067847ad4"},"vehicle_type_id":"4","last_reported":1678647927,"current_range_meters":10000,"station_id":"ce4bho12rcd13ifvqh1g","pricing_plan_id":"free"},{"bike_id":"686e977c-7c36-434e-8257-6416648e58b0","system_id":"levelo_inurba_marseille","lat":43.27996,"lon":5.416624,"is_reserved":false,"is_disabled":false,"rental_uris":{"android":"levelo://app?vid=686e977c-7c36-434e-8257-6416648e58b0","ios":"levelo://app?vid=686e977c-7c36-434e-8257-6416648e58b0"},"vehicle_type_id":"4","last_reported":1678647927,"current_range_meters":12400,"station_id":"ce4bho12rcd13ifvqh1g","pricing_plan_id":"free"},{"bike_id":"6eb4c039-6fe5-4172-b9d5-9051c3cde3af","system_id":"levelo_inurba_marseille","lat":43.27996,"lon":5.416624,"is_reserved":false,"is_disabled":false,"rental_uris":{"android":"levelo://app?vid=6eb4c039-6fe5-4172-b9d5-9051c3cde3af","ios":"levelo://app?vid=6eb4c039-6fe5-4172-b9d5-9051c3cde3af"},"vehicle_type_id":"4","last_reported":1678647927,"current_range_meters":27600,"station_id":"ce4bho12rcd13ifvqh1g","pricing_plan_id":"free"},{"bike_id":"a1b0b731-caea-4580-b5c6-a31b045b415c","system_id":"levelo_inurba_marseille","lat":43.27996,"lon":5.416624,"is_reserved":false,"is_disabled":false,"rental_uris":{"android":"levelo://app?vid=a1b0b731-caea-4580-b5c6-a31b045b415c","ios":"levelo://app?vid=a1b0b731-caea-4580-b5c6-a31b045b415c"},"vehicle_type_id":"4","last_reported":1678647927,"current_range_meters":12000,"station_id":"ce4bho12rcd13ifvqh1g","pricing_plan_id":"free"},{"bike_id":"1424b4ec-7257-401c-9fcd-ebf407232e35","system_id":"levelo_inurba_marseille","lat":43.279877,"lon":5.416574,"is_reserved":false,"is_disabled":false,"rental_uris":{"android":"levelo://app?vid=1424b4ec-7257-401c-9fcd-ebf407232e35","ios":"levelo://app?vid=1424b4ec-7257-401c-9fcd-ebf407232e35"},"vehicle_type_id":"4","last_reported":1678647927,"current_range_meters":29600,"station_id":"ce4bho12rcd13ifvqh1g","pricing_plan_id":"free"},{"bike_id":"c13f31eb-b018-47eb-9416-3a8a57c3831e","system_id":"levelo_inurba_marseille","lat":43.27996,"lon":5.416624,"is_reserved":false,"is_disabled":false,"rental_uris":{"android":"levelo://app?vid=c13f31eb-b018-47eb-9416-3a8a57c3831e","ios":"levelo://app?vid=c13f31eb-b018-47eb-9416-3a8a57c3831e"},"vehicle_type_id":"4","last_reported":1678647927,"current_range_meters":6800,"station_id":"ce4bho12rcd13ifvqh1g","pricing_plan_id":"free"},{"bike_id":"0a98bea4-1dcf-4758-b988-0c2a1c0a0253","system_id":"levelo_inurba_marseille","lat":43.27993,"lon":5.41667,"is_reserved":false,"is_disabled":false,"rental_uris":{"android":"levelo://app?vid=0a98bea4-1dcf-4758-b988-0c2a1c0a0253","ios":"levelo://app?vid=0a98bea4-1dcf-4758-b988-0c2a1c0a0253"},"vehicle_type_id":"4","last_reported":1678647927,"current_range_meters":19200,"station_id":"ce4bho12rcd13ifvqh1g","pricing_plan_id":"free"},{"bike_id":"6722b8f4-a1b8-43d5-b1f6-fc13fef1039f","system_id":"levelo_inurba_marseille","lat":43.27996,"lon":5.416624,"is_reserved":false,"is_disabled":false,"rental_uris":{"android":"levelo://app?vid=6722b8f4-a1b8-43d5-b1f6-fc13fef1039f","ios":"levelo://app?vid=6722b8f4-a1b8-43d5-b1f6-fc13fef1039f"},"vehicle_type_id":"4","last_reported":1678647927,"current_range_meters":18400,"station_id":"ce4bho12rcd13ifvqh1g","pricing_plan_id":"free"},{"bike_id":"d0e9740a-cabf-418e-a4b1-0cfd71d329ca","system_id":"levelo_inurba_marseille","lat":43.267966,"lon":5.393976,"is_reserved":false,"is_disabled":false,"rental_uris":{"android":"levelo://app?vid=d0e9740a-cabf-418e-a4b1-0cfd71d329ca","ios":"levelo://app?vid=d0e9740a-cabf-418e-a4b1-0cfd71d329ca"},"vehicle_type_id":"4","last_reported":1678647927,"current_range_meters":20400,"station_id":"ce4bhh12rcd13ifvqfg0","pricing_plan_id":"free"},{"bike_id":"6cfbc6f3-09a1-40b1-9beb-3e2b8f1fdb2d","system_id":"levelo_inurba_marseille","lat":43.267966,"lon":5.393976,"is_reserved":false,"is_disabled":false,"rental_uris":{"android":"levelo://app?vid=6cfbc6f3-09a1-40b1-9beb-3e2b8f1fdb2d","ios":"levelo://app?vid=6cfbc6f3-09a1-40b1-9beb-3e2b8f1fdb2d"},"vehicle_type_id":"4","last_reported":1678647927,"current_range_meters":11200,"station_id":"ce4bhh12rcd13ifvqfg0","pricing_plan_id":"free"},{"bike_id":"9b215fe0-a89d-42c8-ba44-01ff7276bbc0","system_id":"levelo_inurba_marseille","lat":43.267966,"lon":5.393976,"is_reserved":false,"is_disabled":false,"rental_uris":{"android":"levelo://app?vid=9b215fe0-a89d-42c8-ba44-01ff7276bbc0","ios":"levelo://app?vid=9b215fe0-a89d-42c8-ba44-01ff7276bbc0"},"vehicle_type_id":"4","last_reported":1678647927,"current_range_meters":27600,"station_id":"ce4bhh12rcd13ifvqfg0","pricing_plan_id":"free"},{"bike_id":"d99dfa10-7974-4106-911a-800dc18becca","system_id":"levelo_inurba_marseille","lat":43.267966,"lon":5.393976,"is_reserved":false,"is_disabled":false,"rental_uris":{"android":"levelo://app?vid=d99dfa10-7974-4106-911a-800dc18becca","ios":"levelo://app?vid=d99dfa10-7974-4106-911a-800dc18becca"},"vehicle_type_id":"4","last_reported":1678647927,"current_range_meters":13200,"station_id":"ce4bhh12rcd13ifvqfg0","pricing_plan_id":"free"},{"bike_id":"afcb7766-293c-4a38-988e-ed86ead18084","system_id":"levelo_inurba_marseille","lat":43.2657,"lon":5.39007,"is_reserved":false,"is_disabled":false,"rental_uris":{"android":"levelo://app?vid=afcb7766-293c-4a38-988e-ed86ead18084","ios":"levelo://app?vid=afcb7766-293c-4a38-988e-ed86ead18084"},"vehicle_type_id":"4","last_reported":1678647927,"current_range_meters":3600,"station_id":"ce4bhe12rcd13ifvqf30","pricing_plan_id":"free"},{"bike_id":"7452a54f-9512-404b-a470-e1f94f8c63a3","system_id":"levelo_inurba_marseille","lat":43.308051,"lon":5.43527,"is_reserved":false,"is_disabled":false,"rental_uris":{"android":"levelo://app?vid=7452a54f-9512-404b-a470-e1f94f8c63a3","ios":"levelo://app?vid=7452a54f-9512-404b-a470-e1f94f8c63a3"},"vehicle_type_id":"4","last_reported":1678647927,"current_range_meters":4400,"station_id":"ce4bhph2rcd13ifvqheg","pricing_plan_id":"free"},{"bike_id":"7272ce6a-04c0-4d6f-afd2-ba82312c7de1","system_id":"levelo_inurba_marseille","lat":43.265569,"lon":5.390047,"is_reserved":false,"is_disabled":false,"rental_uris":{"android":"levelo://app?vid=7272ce6a-04c0-4d6f-afd2-ba82312c7de1","ios":"levelo://app?vid=7272ce6a-04c0-4d6f-afd2-ba82312c7de1"},"vehicle_type_id":"4","last_reported":1678647927,"current_range_meters":10400,"station_id":"ce4bhe12rcd13ifvqf30","pricing_plan_id":"free"},{"bike_id":"706e8a83-45e3-4490-aaee-29530021d088","system_id":"levelo_inurba_marseille","lat":43.261782,"lon":5.374515,"is_reserved":false,"is_disabled":false,"rental_uris":{"android":"levelo://app?vid=706e8a83-45e3-4490-aaee-29530021d088","ios":"levelo://app?vid=706e8a83-45e3-4490-aaee-29530021d088"},"vehicle_type_id":"4","last_reported":1678647927,"current_range_meters":1600,"station_id":"ce4bhgp2rcd13ifvqfc0","pricing_plan_id":"free"},{"bike_id":"4e2a87d4-bf65-438b-a3fa-e49ea097d41a","system_id":"levelo_inurba_marseille","lat":43.317104,"lon":5.436818,"is_reserved":false,"is_disabled":false,"rental_uris":{"android":"levelo://app?vid=4e2a87d4-bf65-438b-a3fa-e49ea097d41a","ios":"levelo://app?vid=4e2a87d4-bf65-438b-a3fa-e49ea097d41a"},"vehicle_type_id":"4","last_reported":1678647927,"current_range_meters":6000,"station_id":"ce4bhp92rcd13ifvqhcg","pricing_plan_id":"free"},{"bike_id":"5ce92140-64d1-4739-81d8-e978a68c68ee","system_id":"levelo_inurba_marseille","lat":43.317104,"lon":5.436818,"is_reserved":false,"is_disabled":false,"rental_uris":{"android":"levelo://app?vid=5ce92140-64d1-4739-81d8-e978a68c68ee","ios":"levelo://app?vid=5ce92140-64d1-4739-81d8-e978a68c68ee"},"vehicle_type_id":"4","last_reported":1678647927,"current_range_meters":19200,"station_id":"ce4bhp92rcd13ifvqhcg","pricing_plan_id":"free"},{"bike_id":"e68185ae-37f9-4f22-9254-720d19af31a5","system_id":"levelo_inurba_marseille","lat":43.317104,"lon":5.436818,"is_reserved":false,"is_disabled":false,"rental_uris":{"android":"levelo://app?vid=e68185ae-37f9-4f22-9254-720d19af31a5","ios":"levelo://app?vid=e68185ae-37f9-4f22-9254-720d19af31a5"},"vehicle_type_id":"4","last_reported":1678647927,"current_range_meters":24400,"station_id":"ce4bhp92rcd13ifvqhcg","pricing_plan_id":"free"},{"bike_id":"fcb2b9bc-0372-43d6-a7e5-85da4bfbfba0","system_id":"levelo_inurba_marseille","lat":43.317104,"lon":5.436818,"is_reserved":false,"is_disabled":false,"rental_uris":{"android":"levelo://app?vid=fcb2b9bc-0372-43d6-a7e5-85da4bfbfba0","ios":"levelo://app?vid=fcb2b9bc-0372-43d6-a7e5-85da4bfbfba0"},"vehicle_type_id":"4","last_reported":1678647927,"current_range_meters":0,"station_id":"ce4bhp92rcd13ifvqhcg","pricing_plan_id":"free"},{"bike_id":"33837dcf-8c5f-49d6-809e-069b02113422","system_id":"levelo_inurba_marseille","lat":43.268333,"lon":5.402736,"is_reserved":false,"is_disabled":false,"rental_uris":{"android":"levelo://app?vid=33837dcf-8c5f-49d6-809e-069b02113422","ios":"levelo://app?vid=33837dcf-8c5f-49d6-809e-069b02113422"},"vehicle_type_id":"4","last_reported":1678647927,"current_range_meters":29600,"station_id":"ce501612rcd8frsf0b60","pricing_plan_id":"free"},{"bike_id":"5c67badc-85e0-435c-9f10-93fbb165bec3","system_id":"levelo_inurba_marseille","lat":43.267959,"lon":5.402687,"is_reserved":false,"is_disabled":false,"rental_uris":{"android":"levelo://app?vid=5c67badc-85e0-435c-9f10-93fbb165bec3","ios":"levelo://app?vid=5c67badc-85e0-435c-9f10-93fbb165bec3"},"vehicle_type_id":"4","last_reported":1678647927,"current_range_meters":22800,"station_id":"ce501612rcd8frsf0b60","pricing_plan_id":"free"},{"bike_id":"958d4a55-b1ea-4f95-873d-20f8a6dbd1c7","system_id":"levelo_inurba_marseille","lat":43.267959,"lon":5.402687,"is_reserved":false,"is_disabled":false,"rental_uris":{"android":"levelo://app?vid=958d4a55-b1ea-4f95-873d-20f8a6dbd1c7","ios":"levelo://app?vid=958d4a55-b1ea-4f95-873d-20f8a6dbd1c7"},"vehicle_type_id":"4","last_reported":1678647927,"current_range_meters":4000,"station_id":"ce501612rcd8frsf0b60","pricing_plan_id":"free"},{"bike_id":"0f1d36aa-b49f-4b58-8e54-3e76c9a8a2f9","system_id":"levelo_inurba_marseille","lat":43.26805,"lon":5.40271,"is_reserved":false,"is_disabled":false,"rental_uris":{"android":"levelo://app?vid=0f1d36aa-b49f-4b58-8e54-3e76c9a8a2f9","ios":"levelo://app?vid=0f1d36aa-b49f-4b58-8e54-3e76c9a8a2f9"},"vehicle_type_id":"4","last_reported":1678647927,"current_range_meters":25600,"station_id":"ce501612rcd8frsf0b60","pricing_plan_id":"free"},{"bike_id":"43c10d8a-4fc8-4f57-8d42-f135f001b064","system_id":"levelo_inurba_marseille","lat":43.267959,"lon":5.402685,"is_reserved":false,"is_disabled":false,"rental_uris":{"android":"levelo://app?vid=43c10d8a-4fc8-4f57-8d42-f135f001b064","ios":"levelo://app?vid=43c10d8a-4fc8-4f57-8d42-f135f001b064"},"vehicle_type_id":"4","last_reported":1678647927,"current_range_meters":5200,"station_id":"ce501612rcd8frsf0b60","pricing_plan_id":"free"},{"bike_id":"09c6bd83-e9ac-452f-b052-3045f5ea00a1","system_id":"levelo_inurba_marseille","lat":43.267959,"lon":5.402687,"is_reserved":false,"is_disabled":false,"rental_uris":{"android":"levelo://app?vid=09c6bd83-e9ac-452f-b052-3045f5ea00a1","ios":"levelo://app?vid=09c6bd83-e9ac-452f-b052-3045f5ea00a1"},"vehicle_type_id":"4","last_reported":1678647927,"current_range_meters":3200,"station_id":"ce501612rcd8frsf0b60","pricing_plan_id":"free"},{"bike_id":"8a97189a-2f07-4145-ad56-7b778313f606","system_id":"levelo_inurba_marseille","lat":43.267959,"lon":5.402687,"is_reserved":false,"is_disabled":false,"rental_uris":{"android":"levelo://app?vid=8a97189a-2f07-4145-ad56-7b778313f606","ios":"levelo://app?vid=8a97189a-2f07-4145-ad56-7b778313f606"},"vehicle_type_id":"4","last_reported":1678647927,"current_range_meters":5200,"station_id":"ce501612rcd8frsf0b60","pricing_plan_id":"free"},{"bike_id":"4817c48a-9694-4741-a3eb-886b9fc9019c","system_id":"levelo_inurba_marseille","lat":43.26804,"lon":5.40272,"is_reserved":false,"is_disabled":false,"rental_uris":{"android":"levelo://app?vid=4817c48a-9694-4741-a3eb-886b9fc9019c","ios":"levelo://app?vid=4817c48a-9694-4741-a3eb-886b9fc9019c"},"vehicle_type_id":"4","last_reported":1678647927,"current_range_meters":13200,"station_id":"ce501612rcd8frsf0b60","pricing_plan_id":"free"},{"bike_id":"e172702b-f498-45f6-8052-5362d94c47c6","system_id":"levelo_inurba_marseille","lat":43.267959,"lon":5.402687,"is_reserved":false,"is_disabled":false,"rental_uris":{"android":"levelo://app?vid=e172702b-f498-45f6-8052-5362d94c47c6","ios":"levelo://app?vid=e172702b-f498-45f6-8052-5362d94c47c6"},"vehicle_type_id":"4","last_reported":1678647927,"current_range_meters":10000,"station_id":"ce501612rcd8frsf0b60","pricing_plan_id":"free"},{"bike_id":"9a3b3058-013c-4b8f-9e50-361a0800d736","system_id":"levelo_inurba_marseille","lat":43.267959,"lon":5.402685,"is_reserved":false,"is_disabled":false,"rental_uris":{"android":"levelo://app?vid=9a3b3058-013c-4b8f-9e50-361a0800d736","ios":"levelo://app?vid=9a3b3058-013c-4b8f-9e50-361a0800d736"},"vehicle_type_id":"4","last_reported":1678647927,"current_range_meters":23200,"station_id":"ce501612rcd8frsf0b60","pricing_plan_id":"free"},{"bike_id":"c2014529-8067-46a6-ad1c-2ef8c7a6b258","system_id":"levelo_inurba_marseille","lat":43.268003,"lon":5.40267,"is_reserved":false,"is_disabled":false,"rental_uris":{"android":"levelo://app?vid=c2014529-8067-46a6-ad1c-2ef8c7a6b258","ios":"levelo://app?vid=c2014529-8067-46a6-ad1c-2ef8c7a6b258"},"vehicle_type_id":"4","last_reported":1678647927,"current_range_meters":0,"station_id":"ce501612rcd8frsf0b60","pricing_plan_id":"free"},{"bike_id":"589c5508-5b9a-4a05-87b3-67c478585e30","system_id":"levelo_inurba_marseille","lat":43.26803,"lon":5.4028,"is_reserved":false,"is_disabled":false,"rental_uris":{"android":"levelo://app?vid=589c5508-5b9a-4a05-87b3-67c478585e30","ios":"levelo://app?vid=589c5508-5b9a-4a05-87b3-67c478585e30"},"vehicle_type_id":"4","last_reported":1678647927,"current_range_meters":5200,"station_id":"ce501612rcd8frsf0b60","pricing_plan_id":"free"},{"bike_id":"1f4d44be-17a2-4b1a-8c18-e8f18d7f7463","system_id":"levelo_inurba_marseille","lat":43.267959,"lon":5.402687,"is_reserved":false,"is_disabled":false,"rental_uris":{"android":"levelo://app?vid=1f4d44be-17a2-4b1a-8c18-e8f18d7f7463","ios":"levelo://app?vid=1f4d44be-17a2-4b1a-8c18-e8f18d7f7463"},"vehicle_type_id":"4","last_reported":1678647927,"current_range_meters":26000,"station_id":"ce501612rcd8frsf0b60","pricing_plan_id":"free"},{"bike_id":"5b792445-cd45-427c-96df-ccf7c3da7f60","system_id":"levelo_inurba_marseille","lat":43.26798,"lon":5.40275,"is_reserved":false,"is_disabled":false,"rental_uris":{"android":"levelo://app?vid=5b792445-cd45-427c-96df-ccf7c3da7f60","ios":"levelo://app?vid=5b792445-cd45-427c-96df-ccf7c3da7f60"},"vehicle_type_id":"4","last_reported":1678647927,"current_range_meters":12400,"station_id":"ce501612rcd8frsf0b60","pricing_plan_id":"free"},{"bike_id":"825cb316-a7bb-44fc-9675-33908465224f","system_id":"levelo_inurba_marseille","lat":43.260219,"lon":5.37546,"is_reserved":false,"is_disabled":false,"rental_uris":{"android":"levelo://app?vid=825cb316-a7bb-44fc-9675-33908465224f","ios":"levelo://app?vid=825cb316-a7bb-44fc-9675-33908465224f"},"vehicle_type_id":"4","last_reported":1678647927,"current_range_meters":800,"station_id":"ce4bhgh2rcd13ifvqfa0","pricing_plan_id":"free"},{"bike_id":"4cf240eb-fc10-410f-973a-62f1f07a6fff","system_id":"levelo_inurba_marseille","lat":43.260219,"lon":5.37546,"is_reserved":false,"is_disabled":false,"rental_uris":{"android":"levelo://app?vid=4cf240eb-fc10-410f-973a-62f1f07a6fff","ios":"levelo://app?vid=4cf240eb-fc10-410f-973a-62f1f07a6fff"},"vehicle_type_id":"4","last_reported":1678647927,"current_range_meters":0,"station_id":"ce4bhgh2rcd13ifvqfa0","pricing_plan_id":"free"},{"bike_id":"c8253a52-37bc-411d-9252-a3eb1e92b451","system_id":"levelo_inurba_marseille","lat":43.260648,"lon":5.393888,"is_reserved":false,"is_disabled":false,"rental_uris":{"android":"levelo://app?vid=c8253a52-37bc-411d-9252-a3eb1e92b451","ios":"levelo://app?vid=c8253a52-37bc-411d-9252-a3eb1e92b451"},"vehicle_type_id":"4","last_reported":1678647927,"current_range_meters":0,"station_id":"","pricing_plan_id":"free"},{"bike_id":"7fddccf8-04b7-40da-963b-a48544790e8e","system_id":"levelo_inurba_marseille","lat":43.26066,"lon":5.39397,"is_reserved":false,"is_disabled":false,"rental_uris":{"android":"levelo://app?vid=7fddccf8-04b7-40da-963b-a48544790e8e","ios":"levelo://app?vid=7fddccf8-04b7-40da-963b-a48544790e8e"},"vehicle_type_id":"4","last_reported":1678647927,"current_range_meters":27200,"station_id":"ce4bhh92rcd13ifvqfj0","pricing_plan_id":"free"},{"bike_id":"792d5bac-bd65-4789-9564-e20ceab48421","system_id":"levelo_inurba_marseille","lat":43.260909,"lon":5.397591,"is_reserved":false,"is_disabled":false,"rental_uris":{"android":"levelo://app?vid=792d5bac-bd65-4789-9564-e20ceab48421","ios":"levelo://app?vid=792d5bac-bd65-4789-9564-e20ceab48421"},"vehicle_type_id":"4","last_reported":1678647927,"current_range_meters":10800,"station_id":"ce4bhi12rcd13ifvqfq0","pricing_plan_id":"free"},{"bike_id":"7f00de8c-8367-4d4b-bab3-b4e74097f4e3","system_id":"levelo_inurba_marseille","lat":43.270721,"lon":5.422764,"is_reserved":false,"is_disabled":false,"rental_uris":{"android":"levelo://app?vid=7f00de8c-8367-4d4b-bab3-b4e74097f4e3","ios":"levelo://app?vid=7f00de8c-8367-4d4b-bab3-b4e74097f4e3"},"vehicle_type_id":"4","last_reported":1678647927,"current_range_meters":23600,"station_id":"ce4bhk92rcd13ifvqgb0","pricing_plan_id":"free"},{"bike_id":"edd86f07-2625-4078-a6e8-fa5e10f0c379","system_id":"levelo_inurba_marseille","lat":43.258658,"lon":5.398935,"is_reserved":false,"is_disabled":false,"rental_uris":{"android":"levelo://app?vid=edd86f07-2625-4078-a6e8-fa5e10f0c379","ios":"levelo://app?vid=edd86f07-2625-4078-a6e8-fa5e10f0c379"},"vehicle_type_id":"4","last_reported":1678647927,"current_range_meters":12800,"station_id":"ce4bhl92rcd13ifvqghg","pricing_plan_id":"free"},{"bike_id":"6bc74fe4-a387-4b5b-ae62-e493336561f4","system_id":"levelo_inurba_marseille","lat":43.250009,"lon":5.389195,"is_reserved":false,"is_disabled":false,"rental_uris":{"android":"levelo://app?vid=6bc74fe4-a387-4b5b-ae62-e493336561f4","ios":"levelo://app?vid=6bc74fe4-a387-4b5b-ae62-e493336561f4"},"vehicle_type_id":"4","last_reported":1678647927,"current_range_meters":4800,"station_id":"ce4bhgp2rcd13ifvqfd0","pricing_plan_id":"free"},{"bike_id":"f6471738-359a-400c-8f03-99c3e5ff51b9","system_id":"levelo_inurba_marseille","lat":43.250009,"lon":5.389195,"is_reserved":false,"is_disabled":false,"rental_uris":{"android":"levelo://app?vid=f6471738-359a-400c-8f03-99c3e5ff51b9","ios":"levelo://app?vid=f6471738-359a-400c-8f03-99c3e5ff51b9"},"vehicle_type_id":"4","last_reported":1678647927,"current_range_meters":4800,"station_id":"ce4bhgp2rcd13ifvqfd0","pricing_plan_id":"free"},{"bike_id":"59076e04-0e3f-43e6-87d8-c6f793526bdd","system_id":"levelo_inurba_marseille","lat":43.24811,"lon":5.37461,"is_reserved":false,"is_disabled":false,"rental_uris":{"android":"levelo://app?vid=59076e04-0e3f-43e6-87d8-c6f793526bdd","ios":"levelo://app?vid=59076e04-0e3f-43e6-87d8-c6f793526bdd"},"vehicle_type_id":"4","last_reported":1678647927,"current_range_meters":30800,"station_id":"ce4bhgh2rcd13ifvqfb0","pricing_plan_id":"free"},{"bike_id":"24b5a86f-edfc-47b4-9de9-7be22d74ddd7","system_id":"levelo_inurba_marseille","lat":43.250966,"lon":5.395186,"is_reserved":false,"is_disabled":false,"rental_uris":{"android":"levelo://app?vid=24b5a86f-edfc-47b4-9de9-7be22d74ddd7","ios":"levelo://app?vid=24b5a86f-edfc-47b4-9de9-7be22d74ddd7"},"vehicle_type_id":"4","last_reported":1678647927,"current_range_meters":16800,"station_id":"ce4bhm12rcd13ifvqgkg","pricing_plan_id":"free"},{"bike_id":"919e3fb1-9703-4704-adb8-f90448cfe040","system_id":"levelo_inurba_marseille","lat":43.24693,"lon":5.382096,"is_reserved":false,"is_disabled":false,"rental_uris":{"android":"levelo://app?vid=919e3fb1-9703-4704-adb8-f90448cfe040","ios":"levelo://app?vid=919e3fb1-9703-4704-adb8-f90448cfe040"},"vehicle_type_id":"4","last_reported":1678647927,"current_range_meters":7200,"station_id":"ce4bhih2rcd13ifvqfr0","pricing_plan_id":"free"},{"bike_id":"f8386ed7-fef6-4ff7-940c-4bb2a6bbcad0","system_id":"levelo_inurba_marseille","lat":43.24693,"lon":5.382096,"is_reserved":false,"is_disabled":false,"rental_uris":{"android":"levelo://app?vid=f8386ed7-fef6-4ff7-940c-4bb2a6bbcad0","ios":"levelo://app?vid=f8386ed7-fef6-4ff7-940c-4bb2a6bbcad0"},"vehicle_type_id":"4","last_reported":1678647927,"current_range_meters":8800,"station_id":"ce4bhih2rcd13ifvqfr0","pricing_plan_id":"free"},{"bike_id":"154248be-622d-431c-9e45-1983b9c75c20","system_id":"levelo_inurba_marseille","lat":43.24397,"lon":5.3706,"is_reserved":false,"is_disabled":false,"rental_uris":{"android":"levelo://app?vid=154248be-622d-431c-9e45-1983b9c75c20","ios":"levelo://app?vid=154248be-622d-431c-9e45-1983b9c75c20"},"vehicle_type_id":"4","last_reported":1678647927,"current_range_meters":16800,"station_id":"ce4bhhh2rcd13ifvqfk0","pricing_plan_id":"free"},{"bike_id":"028081c9-41c7-4211-bd40-d3e66fce686a","system_id":"levelo_inurba_marseille","lat":43.243884,"lon":5.370736,"is_reserved":false,"is_disabled":false,"rental_uris":{"android":"levelo://app?vid=028081c9-41c7-4211-bd40-d3e66fce686a","ios":"levelo://app?vid=028081c9-41c7-4211-bd40-d3e66fce686a"},"vehicle_type_id":"4","last_reported":1678647927,"current_range_meters":0,"station_id":"ce4bhhh2rcd13ifvqfk0","pricing_plan_id":"free"},{"bike_id":"b474839c-c9b8-45a3-97d1-f65c4eb16175","system_id":"levelo_inurba_marseille","lat":43.24389,"lon":5.37058,"is_reserved":false,"is_disabled":false,"rental_uris":{"android":"levelo://app?vid=b474839c-c9b8-45a3-97d1-f65c4eb16175","ios":"levelo://app?vid=b474839c-c9b8-45a3-97d1-f65c4eb16175"},"vehicle_type_id":"4","last_reported":1678647927,"current_range_meters":24800,"station_id":"","pricing_plan_id":"free"},{"bike_id":"ad092703-804a-4482-ad00-81ee6126a0bb","system_id":"levelo_inurba_marseille","lat":43.243884,"lon":5.370736,"is_reserved":false,"is_disabled":false,"rental_uris":{"android":"levelo://app?vid=ad092703-804a-4482-ad00-81ee6126a0bb","ios":"levelo://app?vid=ad092703-804a-4482-ad00-81ee6126a0bb"},"vehicle_type_id":"4","last_reported":1678647927,"current_range_meters":0,"station_id":"ce4bhhh2rcd13ifvqfk0","pricing_plan_id":"free"},{"bike_id":"bfdc8c45-adb3-48f3-afc8-470e36d97db1","system_id":"levelo_inurba_marseille","lat":43.24546,"lon":5.39522,"is_reserved":false,"is_disabled":false,"rental_uris":{"android":"levelo://app?vid=bfdc8c45-adb3-48f3-afc8-470e36d97db1","ios":"levelo://app?vid=bfdc8c45-adb3-48f3-afc8-470e36d97db1"},"vehicle_type_id":"4","last_reported":1678647927,"current_range_meters":22000,"station_id":"","pricing_plan_id":"free"},{"bike_id":"f6e6dff0-92ad-45d9-9084-561bd9bc34b1","system_id":"levelo_inurba_marseille","lat":43.24545,"lon":5.39524,"is_reserved":false,"is_disabled":false,"rental_uris":{"android":"levelo://app?vid=f6e6dff0-92ad-45d9-9084-561bd9bc34b1","ios":"levelo://app?vid=f6e6dff0-92ad-45d9-9084-561bd9bc34b1"},"vehicle_type_id":"4","last_reported":1678647927,"current_range_meters":28800,"station_id":"","pricing_plan_id":"free"},{"bike_id":"bb392472-68eb-4a53-960e-bf5138e3251d","system_id":"levelo_inurba_marseille","lat":43.24546,"lon":5.39531,"is_reserved":false,"is_disabled":false,"rental_uris":{"android":"levelo://app?vid=bb392472-68eb-4a53-960e-bf5138e3251d","ios":"levelo://app?vid=bb392472-68eb-4a53-960e-bf5138e3251d"},"vehicle_type_id":"4","last_reported":1678647927,"current_range_meters":28400,"station_id":"","pricing_plan_id":"free"},{"bike_id":"9d696419-29dc-4293-b516-a293ba3771c4","system_id":"levelo_inurba_marseille","lat":43.240623,"lon":5.377642,"is_reserved":false,"is_disabled":false,"rental_uris":{"android":"levelo://app?vid=9d696419-29dc-4293-b516-a293ba3771c4","ios":"levelo://app?vid=9d696419-29dc-4293-b516-a293ba3771c4"},"vehicle_type_id":"4","last_reported":1678647927,"current_range_meters":8800,"station_id":"ce4bhnp2rcd13ifvqgvg","pricing_plan_id":"free"},{"bike_id":"acc1fa65-9393-427f-820c-9a9fbb0d5cae","system_id":"levelo_inurba_marseille","lat":43.240623,"lon":5.377642,"is_reserved":false,"is_disabled":false,"rental_uris":{"android":"levelo://app?vid=acc1fa65-9393-427f-820c-9a9fbb0d5cae","ios":"levelo://app?vid=acc1fa65-9393-427f-820c-9a9fbb0d5cae"},"vehicle_type_id":"4","last_reported":1678647927,"current_range_meters":14400,"station_id":"ce4bhnp2rcd13ifvqgvg","pricing_plan_id":"free"},{"bike_id":"77a2fe0b-44c6-4ce8-9f52-1e67902696c5","system_id":"levelo_inurba_marseille","lat":43.240623,"lon":5.377642,"is_reserved":false,"is_disabled":false,"rental_uris":{"android":"levelo://app?vid=77a2fe0b-44c6-4ce8-9f52-1e67902696c5","ios":"levelo://app?vid=77a2fe0b-44c6-4ce8-9f52-1e67902696c5"},"vehicle_type_id":"4","last_reported":1678647927,"current_range_meters":13600,"station_id":"ce4bhnp2rcd13ifvqgvg","pricing_plan_id":"free"},{"bike_id":"11ed159f-6451-4be4-be76-812ea4822cd8","system_id":"levelo_inurba_marseille","lat":43.239588,"lon":5.366238,"is_reserved":false,"is_disabled":false,"rental_uris":{"android":"levelo://app?vid=11ed159f-6451-4be4-be76-812ea4822cd8","ios":"levelo://app?vid=11ed159f-6451-4be4-be76-812ea4822cd8"},"vehicle_type_id":"4","last_reported":1678647927,"current_range_meters":16800,"station_id":"ce4bhi12rcd13ifvqfp0","pricing_plan_id":"free"},{"bike_id":"db7d495a-ae32-4d90-8b10-3e041dab74af","system_id":"levelo_inurba_marseille","lat":43.24177,"lon":5.39735,"is_reserved":false,"is_disabled":false,"rental_uris":{"android":"levelo://app?vid=db7d495a-ae32-4d90-8b10-3e041dab74af","ios":"levelo://app?vid=db7d495a-ae32-4d90-8b10-3e041dab74af"},"vehicle_type_id":"4","last_reported":1678647927,"current_range_meters":30800,"station_id":"","pricing_plan_id":"free"},{"bike_id":"38fda486-076c-4e50-aeb1-141cf66e82ff","system_id":"levelo_inurba_marseille","lat":43.23196,"lon":5.35553,"is_reserved":false,"is_disabled":false,"rental_uris":{"android":"levelo://app?vid=38fda486-076c-4e50-aeb1-141cf66e82ff","ios":"levelo://app?vid=38fda486-076c-4e50-aeb1-141cf66e82ff"},"vehicle_type_id":"4","last_reported":1678647927,"current_range_meters":5600,"station_id":"","pricing_plan_id":"free"},{"bike_id":"7834a285-4642-44c8-aa3d-c5cce2cf1bd7","system_id":"levelo_inurba_marseille","lat":43.231919,"lon":5.355532,"is_reserved":false,"is_disabled":false,"rental_uris":{"android":"levelo://app?vid=7834a285-4642-44c8-aa3d-c5cce2cf1bd7","ios":"levelo://app?vid=7834a285-4642-44c8-aa3d-c5cce2cf1bd7"},"vehicle_type_id":"4","last_reported":1678647927,"current_range_meters":9200,"station_id":"ce4bhu92rcd13ifvqi70","pricing_plan_id":"free"},{"bike_id":"17ae78ca-7a1a-4f51-92cf-cfc30d53db14","system_id":"levelo_inurba_marseille","lat":43.231919,"lon":5.355532,"is_reserved":false,"is_disabled":false,"rental_uris":{"android":"levelo://app?vid=17ae78ca-7a1a-4f51-92cf-cfc30d53db14","ios":"levelo://app?vid=17ae78ca-7a1a-4f51-92cf-cfc30d53db14"},"vehicle_type_id":"4","last_reported":1678647927,"current_range_meters":3200,"station_id":"ce4bhu92rcd13ifvqi70","pricing_plan_id":"free"},