{"last_updated":1740503453,"ttl":60,"version":"2.2","data":{"bikes":[{"bike_id":"68e155f3-a180-45ea-a962-a2b0b23bf0fd","system_id":"levelo_inurba_marseille","lat":43.29873,"lon":5.39735,"is_reserved":false,"is_disabled":false,"rental_uris":{"android":"levelo://app?vid=68e155f3-a180-45ea-a962-a2b0b23bf0fd","ios":"levelo://app?vid=68e155f3-a180-45ea-a962-a2b0b23bf0fd"},"vehicle_type_id":"4","last_reported":1740503453,"current_range_meters":2800,"station_id":"ce4bh0h2rcd13ifvqd50","pricing_plan_id":"cebpf4jnsgd1na2vs0mg"},{"bike_id":"b578b7e7-e2c8-438e-a614-0190e37d0a6f","system_id":"levelo_inurba_marseille","lat":43.23179,"lon":5.3999,"is_reserved":false,"is_disabled":false,"rental_uris":{"android":"levelo://app?vid=b578b7e7-e2c8-438e-a614-0190e37d0a6f","ios":"levelo://app?vid=b578b7e7-e2c8-438e-a614-0190e37d0a6f"},"vehicle_type_id":"4","last_reported":1740503453,"current_range_meters":2800,"station_id":"ce4bhn12rcd13ifvqgqg","pricing_plan_id":"cebpf4jnsgd1na2vs0mg"},{"bike_id":"3f201449-b493-4083-b09d-597f12726e48","system_id":"levelo_inurba_marseille","lat":43.29522,"lon":5.37503,"is_reserved":false,"is_disabled":true,"rental_uris":{"android":"levelo://app?vid=3f201449-b493-4083-b09d-597f12726e48","ios":"levelo://app?vid=3f201449-b493-4083-b09d-597f12726e48"},"vehicle_type_id":"4","last_reported":1740503453,"current_range_meters":2800,"station_id":"ce4bgkp2rcd13ifvqbmg","pricing_plan_id":"cebpf4jnsgd1na2vs0mg"},{"bike_id":"a21fadcb-58bf-4e81-9d2b-65207f1982f9","system_id":"levelo_inurba_marseille","lat":43.29249,"lon":5.409,"is_reserved":false,"is_disabled":false,"rental_uris":{"android":"levelo://app?vid=a21fadcb-58bf-4e81-9d2b-65207f1982f9","ios":"levelo://app?vid=a21fadcb-58bf-4e81-9d2b-65207f1982f9"},"vehicle_type_id":"4","last_reported":1740503453,"current_range_meters":0,"station_id":"ce4bh192rcd13ifvqdc0","pricing_plan_id":"cebpf4jnsgd1na2vs0mg"},{"bike_id":"8fee03f2-e082-48cb-a709-e5d076b9db56","system_id":"levelo_inurba_marseille","lat":43.30433,"lon":5.41276,"is_reserved":false,"is_disabled":true,"rental_uris":{"android":"levelo://app?vid=8fee03f2-e082-48cb-a709-e5d076b9db56","ios":"levelo://app?vid=8fee03f2-e082-48cb-a709-e5d076b9db56"},"vehicle_type_id":"4","last_reported":1740503453,"current_range_meters":2800,"station_id":"ce4bhop2rcd13ifvqh8g","pricing_plan_id":"cebpf4jnsgd1na2vs0mg"},{"bike_id":"64e471ab-bdb0-454c-84a2-76d8e8abccb2","system_id":"levelo_inurba_marseille","lat":43.28614,"lon":5.35108,"is_reserved":false,"is_disabled":false,"rental_uris":{"android":"levelo://app?vid=64e471ab-bdb0-454c-84a2-76d8e8abccb2","ios":"levelo://app?vid=64e471ab-bdb0-454c-84a2-76d8e8abccb2"},"vehicle_type_id":"4","last_reported":1740503453,"current_range_meters":3200,"station_id":"ce4bhch2rcd13ifvqeug","pricing_plan_id":"cebpf4jnsgd1na2vs0mg"},{"bike_id":"9704e201-fc72-412e-baff-f698a152a177","system_id":"levelo_inurba_marseille","lat":43.313335,"lon":5.396926,"is_reserved":false,"is_disabled":false,"rental_uris":{"android":"levelo://app?vid=9704e201-fc72-412e-baff-f698a152a177","ios":"levelo://app?vid=9704e201-fc72-412e-baff-f698a152a177"},"vehicle_type_id":"4","last_reported":1740503453,"current_range_meters":5600,"station_id":"ce4bgj92rcd13ifvqbd0","pricing_plan_id":"cebpf4jnsgd1na2vs0mg"},{"bike_id":"c3cc4730-b878-4b4a-9467-5c0bce41d574","system_id":"levelo_inurba_marseille","lat":43.30889,"lon":5.37189,"is_reserved":false,"is_disabled":false,"rental_uris":{"android":"levelo://app?vid=c3cc4730-b878-4b4a-9467-5c0bce41d574","ios":"levelo://app?vid=c3cc4730-b878-4b4a-9467-5c0bce41d574"},"vehicle_type_id":"4","last_reported":1740503453,"current_range_meters":3200,"station_id":"ce4bguh2rcd13ifvqckg","pricing_plan_id":"cebpf4jnsgd1na2vs0mg"},{"bike_id":"4b2b5014-6b45-440a-814c-93f2133cab49","system_id":"levelo_inurba_marseille","lat":43.25005,"lon":5.38929,"is_reserved":false,"is_disabled":false,"rental_uris":{"android":"levelo://app?vid=4b2b5014-6b45-440a-814c-93f2133cab49","ios":"levelo://app?vid=4b2b5014-6b45-440a-814c-93f2133cab49"},"vehicle_type_id":"4","last_reported":1740503453,"current_range_meters":3600,"station_id":"ce4bhgp2rcd13ifvqfd0","pricing_plan_id":"cebpf4jnsgd1na2vs0mg"},{"bike_id":"d0bfb5c4-45bf-4c57-99f7-14938df7807a","system_id":"levelo_inurba_marseille","lat":43.29307,"lon":5.3746,"is_reserved":false,"is_disabled":false,"rental_uris":{"android":"levelo://app?vid=d0bfb5c4-45bf-4c57-99f7-14938df7807a","ios":"levelo://app?vid=d0bfb5c4-45bf-4c57-99f7-14938df7807a"},"vehicle_type_id":"4","last_reported":1740503453,"current_range_meters":3600,"station_id":"ce4bgi12rcd13ifvqb70","pricing_plan_id":"cebpf4jnsgd1na2vs0mg"},{"bike_id":"f63314e6-82c3-4e87-8752-6127f6b1edcf","system_id":"levelo_inurba_marseille","lat":43.28462,"lon":5.35888,"is_reserved":false,"is_disabled":false,"rental_uris":{"android":"levelo://app?vid=f63314e6-82c3-4e87-8752-6127f6b1edcf","ios":"levelo://app?vid=f63314e6-82c3-4e87-8752-6127f6b1edcf"},"vehicle_type_id":"4","last_reported":1740503453,"current_range_meters":3600,"station_id":"ce4bhah2rcd13ifvqei0","pricing_plan_id":"cebpf4jnsgd1na2vs0mg"},{"bike_id":"33ef6910-f317-4cf9-ac49-578c2e7ab990","system_id":"levelo_inurba_marseille","lat":43.30339,"lon":5.40411,"is_reserved":false,"is_disabled":false,"rental_uris":{"android":"levelo://app?vid=33ef6910-f317-4cf9-ac49-578c2e7ab990","ios":"levelo://app?vid=33ef6910-f317-4cf9-ac49-578c2e7ab990"},"vehicle_type_id":"4","last_reported":1740503453,"current_range_meters":1200,"station_id":"ce4bh012rcd13ifvqd10","pricing_plan_id":"cebpf4jnsgd1na2vs0mg"},{"bike_id":"43d63f8a-f3b7-4d7c-be3c-996582d0e403","system_id":"levelo_inurba_marseille","lat":43.283875,"lon":5.375163,"is_reserved":false,"is_disabled":false,"rental_uris":{"android":"levelo://app?vid=43d63f8a-f3b7-4d7c-be3c-996582d0e403","ios":"levelo://app?vid=43d63f8a-f3b7-4d7c-be3c-996582d0e403"},"vehicle_type_id":"4","last_reported":1740503453,"current_range_meters":10000,"station_id":"ce4bh692rcd13ifvqea0","pricing_plan_id":"cebpf4jnsgd1na2vs0mg"},{"bike_id":"ee27ea43-23f9-42af-873d-fe2d2d6eb222","system_id":"levelo_inurba_marseille","lat":43.27915,"lon":5.3958,"is_reserved":false,"is_disabled":false,"rental_uris":{"android":"levelo://app?vid=ee27ea43-23f9-42af-873d-fe2d2d6eb222","ios":"levelo://app?vid=ee27ea43-23f9-42af-873d-fe2d2d6eb222"},"vehicle_type_id":"4","last_reported":1740503453,"current_range_meters":3600,"station_id":"ce4bhf92rcd13ifvqf40","pricing_plan_id":"cebpf4jnsgd1na2vs0mg"},{"bike_id":"ce3336ae-216e-45d4-aef7-1aa41ce0bb9d","system_id":"levelo_inurba_marseille","lat":43.23152,"lon":5.43718,"is_reserved":false,"is_disabled":false,"rental_uris":{"android":"levelo://app?vid=ce3336ae-216e-45d4-aef7-1aa41ce0bb9d","ios":"levelo://app?vid=ce3336ae-216e-45d4-aef7-1aa41ce0bb9d"},"vehicle_type_id":"4","last_reported":1740503453,"current_range_meters":4000,"station_id":"ce4bhmp2rcd13ifvqgog","pricing_plan_id":"cebpf4jnsgd1na2vs0mg"},{"bike_id":"8bbf380a-2ecc-4a55-a8dc-e20436052bc1","system_id":"levelo_inurba_marseille","lat":43.29604,"lon":5.38112,"is_reserved":false,"is_disabled":false,"rental_uris":{"android":"levelo://app?vid=8bbf380a-2ecc-4a55-a8dc-e20436052bc1","ios":"levelo://app?vid=8bbf380a-2ecc-4a55-a8dc-e20436052bc1"},"vehicle_type_id":"4","last_reported":1740503453,"current_range_meters":4000,"station_id":"ce4bgl12rcd13ifvqbo0","pricing_plan_id":"cebpf4jnsgd1na2vs0mg"},{"bike_id":"a186f859-768b-4c83-b1b1-ddeb6d4b9180","system_id":"levelo_inurba_marseille","lat":43.2397,"lon":5.36636,"is_reserved":false,"is_disabled":false,"rental_uris":{"android":"levelo://app?vid=a186f859-768b-4c83-b1b1-ddeb6d4b9180","ios":"levelo://app?vid=a186f859-768b-4c83-b1b1-ddeb6d4b9180"},"vehicle_type_id":"4","last_reported":1740503453,"current_range_meters":4800,"station_id":"ce4bhi12rcd13ifvqfp0","pricing_plan_id":"cebpf4jnsgd1na2vs0mg"},{"bike_id":"15d63c41-d467-4e01-ab9d-1a4d98399eb8","system_id":"levelo_inurba_marseille","lat":43.28105,"lon":5.39651,"is_reserved":false,"is_disabled":true,"rental_uris":{"android":"levelo://app?vid=15d63c41-d467-4e01-ab9d-1a4d98399eb8","ios":"levelo://app?vid=15d63c41-d467-4e01-ab9d-1a4d98399eb8"},"vehicle_type_id":"4","last_reported":1740503453,"current_range_meters":4800,"station_id":"ce4bho12rcd13ifvqh2g","pricing_plan_id":"cebpf4jnsgd1na2vs0mg"},{"bike_id":"e9cd8441-2371-45ff-a457-38a64e4ef3ce","system_id":"levelo_inurba_marseille","lat":43.29599,"lon":5.38112,"is_reserved":false,"is_disabled":false,"rental_uris":{"android":"levelo://app?vid=e9cd8441-2371-45ff-a457-38a64e4ef3ce","ios":"levelo://app?vid=e9cd8441-2371-45ff-a457-38a64e4ef3ce"},"vehicle_type_id":"4","last_reported":1740503453,"current_range_meters":4400,"station_id":"ce4bgl12rcd13ifvqbo0","pricing_plan_id":"cebpf4jnsgd1na2vs0mg"},{"bike_id":"b13858bb-7c44-42c9-9f81-cd83b80c4cec","system_id":"levelo_inurba_marseille","lat":43.26209,"lon":5.40434,"is_reserved":false,"is_disabled":false,"rental_uris":{"android":"levelo://app?vid=b13858bb-7c44-42c9-9f81-cd83b80c4cec","ios":"levelo://app?vid=b13858bb-7c44-42c9-9f81-cd83b80c4cec"},"vehicle_type_id":"4","last_reported":1740503453,"current_range_meters":4800,"station_id":"ce4bhmh2rcd13ifvqgmg","pricing_plan_id":"cebpf4jnsgd1na2vs0mg"},{"bike_id":"71f606a5-4879-4b26-9ccd-1543fb1a6ec7","system_id":"levelo_inurba_marseille","lat":43.28368,"lon":5.39033,"is_reserved":false,"is_disabled":false,"rental_uris":{"android":"levelo://app?vid=71f606a5-4879-4b26-9ccd-1543fb1a6ec7","ios":"levelo://app?vid=71f606a5-4879-4b26-9ccd-1543fb1a6ec7"},"vehicle_type_id":"4","last_reported":1740503453,"current_range_meters":5600,"station_id":"","pricing_plan_id":"cebpf4jnsgd1na2vs0mg"},{"bike_id":"ad15a503-e243-4704-8cbb-77d92c75e1d9","system_id":"levelo_inurba_marseille","lat":43.28448,"lon":5.39193,"is_reserved":false,"is_disabled":true,"rental_uris":{"android":"levelo://app?vid=ad15a503-e243-4704-8cbb-77d92c75e1d9","ios":"levelo://app?vid=ad15a503-e243-4704-8cbb-77d92c75e1d9"},"vehicle_type_id":"4","last_reported":1740503453,"current_range_meters":5600,"station_id":"ce4bhoh2rcd13ifvqh5g","pricing_plan_id":"cebpf4jnsgd1na2vs0mg"},{"bike_id":"f3e2d31b-bf16-4d93-8358-e1b5fc69cdb1","system_id":"levelo_inurba_marseille","lat":43.28114,"lon":5.39878,"is_reserved":false,"is_disabled":false,"rental_uris":{"android":"levelo://app?vid=f3e2d31b-bf16-4d93-8358-e1b5fc69cdb1","ios":"levelo://app?vid=f3e2d31b-bf16-4d93-8358-e1b5fc69cdb1"},"vehicle_type_id":"4","last_reported":1740503453,"current_range_meters":5600,"station_id":"","pricing_plan_id":"cebpf4jnsgd1na2vs0mg"},{"bike_id":"6b22af4f-df53-4a8e-b76a-6c1a5311cec9","system_id":"levelo_inurba_marseille","lat":43.30217,"lon":5.39467,"is_reserved":false,"is_disabled":true,"rental_uris":{"android":"levelo://app?vid=6b22af4f-df53-4a8e-b76a-6c1a5311cec9","ios":"levelo://app?vid=6b22af4f-df53-4a8e-b76a-6c1a5311cec9"},"vehicle_type_id":"4","last_reported":1740503453,"current_range_meters":6000,"station_id":"ce4bh0p2rcd13ifvqd70","pricing_plan_id":"cebpf4jnsgd1na2vs0mg"},{"bike_id":"260e39fd-167e-4c32-94b1-a4afef7355f0","system_id":"levelo_inurba_marseille","lat":43.31683,"lon":5.40477,"is_reserved":false,"is_disabled":false,"rental_uris":{"android":"levelo://app?vid=260e39fd-167e-4c32-94b1-a4afef7355f0","ios":"levelo://app?vid=260e39fd-167e-4c32-94b1-a4afef7355f0"},"vehicle_type_id":"4","last_reported":1740503453,"current_range_meters":6000,"station_id":"ce4bh012rcd13ifvqd00","pricing_plan_id":"cebpf4jnsgd1na2vs0mg"},{"bike_id":"6246247a-2a01-41cb-bf93-ebadfd6669e0","system_id":"levelo_inurba_marseille","lat":43.26217,"lon":5.40446,"is_reserved":false,"is_disabled":false,"rental_uris":{"android":"levelo://app?vid=6246247a-2a01-41cb-bf93-ebadfd6669e0","ios":"levelo://app?vid=6246247a-2a01-41cb-bf93-ebadfd6669e0"},"vehicle_type_id":"4","last_reported":1740503453,"current_range_meters":6000,"station_id":"ce4bhmh2rcd13ifvqgmg","pricing_plan_id":"cebpf4jnsgd1na2vs0mg"},{"bike_id":"432f7b5e-d7d0-4d61-9ca5-880bd04e8fc5","system_id":"levelo_inurba_marseille","lat":43.27835,"lon":5.39214,"is_reserved":false,"is_disabled":false,"rental_uris":{"android":"levelo://app?vid=432f7b5e-d7d0-4d61-9ca5-880bd04e8fc5","ios":"levelo://app?vid=432f7b5e-d7d0-4d61-9ca5-880bd04e8fc5"},"vehicle_type_id":"4","last_reported":1740503453,"current_range_meters":6000,"station_id":"ce4bhjp2rcd13ifvqga0","pricing_plan_id":"cebpf4jnsgd1na2vs0mg"},{"bike_id":"2c05f2fb-4631-4402-ba61-dafa591a77fa","system_id":"levelo_inurba_marseille","lat":43.251089,"lon":5.403169,"is_reserved":false,"is_disabled":false,"rental_uris":{"android":"levelo://app?vid=2c05f2fb-4631-4402-ba61-dafa591a77fa","ios":"levelo://app?vid=2c05f2fb-4631-4402-ba61-dafa591a77fa"},"vehicle_type_id":"4","last_reported":1740503453,"current_range_meters":5600,"station_id":"ce4bhgh2rcd13ifvqfb0","pricing_plan_id":"cebpf4jnsgd1na2vs0mg"},{"bike_id":"2cbef011-6189-4514-a55c-335a5596ff93","system_id":"levelo_inurba_marseille","lat":43.31314,"lon":5.38639,"is_reserved":false,"is_disabled":false,"rental_uris":{"android":"levelo://app?vid=2cbef011-6189-4514-a55c-335a5596ff93","ios":"levelo://app?vid=2cbef011-6189-4514-a55c-335a5596ff93"},"vehicle_type_id":"4","last_reported":1740503453,"current_range_meters":5600,"station_id":"","pricing_plan_id":"cebpf4jnsgd1na2vs0mg"},{"bike_id":"dbd56941-4429-46d5-8dff-91d5352013fd","system_id":"levelo_inurba_marseille","lat":43.31121,"lon":5.37767,"is_reserved":false,"is_disabled":false,"rental_uris":{"android":"levelo://app?vid=dbd56941-4429-46d5-8dff-91d5352013fd","ios":"levelo://app?vid=dbd56941-4429-46d5-8dff-91d5352013fd"},"vehicle_type_id":"4","last_reported":1740503453,"current_range_meters":8000,"station_id":"ce4bgt92rcd13ifvqcg0","pricing_plan_id":"cebpf4jnsgd1na2vs0mg"},{"bike_id":"322c0db9-e580-4b56-9659-2338e6a758a3","system_id":"levelo_inurba_marseille","lat":43.30465,"lon":5.38217,"is_reserved":false,"is_disabled":false,"rental_uris":{"android":"levelo://app?vid=322c0db9-e580-4b56-9659-2338e6a758a3","ios":"levelo://app?vid=322c0db9-e580-4b56-9659-2338e6a758a3"},"vehicle_type_id":"4","last_reported":1740503453,"current_range_meters":6000,"station_id":"","pricing_plan_id":"cebpf4jnsgd1na2vs0mg"},{"bike_id":"3d930bae-4bca-4b69-9079-4b804bdbaec7","system_id":"levelo_inurba_marseille","lat":43.28105,"lon":5.37837,"is_reserved":false,"is_disabled":false,"rental_uris":{"android":"levelo://app?vid=3d930bae-4bca-4b69-9079-4b804bdbaec7","ios":"levelo://app?vid=3d930bae-4bca-4b69-9079-4b804bdbaec7"},"vehicle_type_id":"4","last_reported":1740503453,"current_range_meters":9200,"station_id":"ce4bha12rcd13ifvqee0","pricing_plan_id":"cebpf4jnsgd1na2vs0mg"},{"bike_id":"25255681-d668-4957-b49d-3fba4d0fc5e1","system_id":"levelo_inurba_marseille","lat":43.27904,"lon":5.38019,"is_reserved":false,"is_disabled":false,"rental_uris":{"android":"levelo://app?vid=25255681-d668-4957-b49d-3fba4d0fc5e1","ios":"levelo://app?vid=25255681-d668-4957-b49d-3fba4d0fc5e1"},"vehicle_type_id":"4","last_reported":1740503453,"current_range_meters":6400,"station_id":"ce4bhf92rcd13ifvqf50","pricing_plan_id":"cebpf4jnsgd1na2vs0mg"},{"bike_id":"da634367-acad-40de-ac7c-eb1fe9e9f106","system_id":"levelo_inurba_marseille","lat":43.28692,"lon":5.37399,"is_reserved":false,"is_disabled":true,"rental_uris":{"android":"levelo://app?vid=da634367-acad-40de-ac7c-eb1fe9e9f106","ios":"levelo://app?vid=da634367-acad-40de-ac7c-eb1fe9e9f106"},"vehicle_type_id":"4","last_reported":1740503453,"current_range_meters":6800,"station_id":"ce4bh3p2rcd13ifvqdq0","pricing_plan_id":"cebpf4jnsgd1na2vs0mg"},{"bike_id":"d3a3efc5-7500-480b-ac5c-18338c73619a","system_id":"levelo_inurba_marseille","lat":43.29268,"lon":5.38436,"is_reserved":false,"is_disabled":false,"rental_uris":{"android":"levelo://app?vid=d3a3efc5-7500-480b-ac5c-18338c73619a","ios":"levelo://app?vid=d3a3efc5-7500-480b-ac5c-18338c73619a"},"vehicle_type_id":"4","last_reported":1740503453,"current_range_meters":6800,"station_id":"ce4bh692rcd13ifvqea0","pricing_plan_id":"cebpf4jnsgd1na2vs0mg"},{"bike_id":"4d3f7c1e-2315-4733-bb83-bfa9bb0a1b80","system_id":"levelo_inurba_marseille","lat":43.26209,"lon":5.37925,"is_reserved":false,"is_disabled":false,"rental_uris":{"android":"levelo://app?vid=4d3f7c1e-2315-4733-bb83-bfa9bb0a1b80","ios":"levelo://app?vid=4d3f7c1e-2315-4733-bb83-bfa9bb0a1b80"},"vehicle_type_id":"4","last_reported":1740503453,"current_range_meters":7200,"station_id":"ce4bhjp2rcd13ifvqg90","pricing_plan_id":"cebpf4jnsgd1na2vs0mg"},{"bike_id":"c8f6faae-dbfc-411f-a1fd-4f0f5be0d6d1","system_id":"levelo_inurba_marseille","lat":43.3173,"lon":5.42395,"is_reserved":false,"is_disabled":false,"rental_uris":{"android":"levelo://app?vid=c8f6faae-dbfc-411f-a1fd-4f0f5be0d6d1","ios":"levelo://app?vid=c8f6faae-dbfc-411f-a1fd-4f0f5be0d6d1"},"vehicle_type_id":"4","last_reported":1740503453,"current_range_meters":6400,"station_id":"ce4bhp92rcd13ifvqhbg","pricing_plan_id":"cebpf4jnsgd1na2vs0mg"},{"bike_id":"7dbdf566-cf9e-4283-a999-d9ea41155c78","system_id":"levelo_inurba_marseille","lat":43.27998,"lon":5.41672,"is_reserved":false,"is_disabled":false,"rental_uris":{"android":"levelo://app?vid=7dbdf566-cf9e-4283-a999-d9ea41155c78","ios":"levelo://app?vid=7dbdf566-cf9e-4283-a999-d9ea41155c78"},"vehicle_type_id":"4","last_reported":1740503453,"current_range_meters":6800,"station_id":"ce4bho12rcd13ifvqh1g","pricing_plan_id":"cebpf4jnsgd1na2vs0mg"},{"bike_id":"5b1330cb-9e0c-4ecb-a5f4-98cf52af9afc","system_id":"levelo_inurba_marseille","lat":43.2572,"lon":5.41118,"is_reserved":false,"is_disabled":false,"rental_uris":{"android":"levelo://app?vid=5b1330cb-9e0c-4ecb-a5f4-98cf52af9afc","ios":"levelo://app?vid=5b1330cb-9e0c-4ecb-a5f4-98cf52af9afc"},"vehicle_type_id":"4","last_reported":1740503453,"current_range_meters":7200,"station_id":"ce4bhkp2rcd13ifvqgd0","pricing_plan_id":"cebpf4jnsgd1na2vs0mg"},{"bike_id":"b0319319-1ae3-4867-bf81-d240c9f190cb","system_id":"levelo_inurba_marseille","lat":43.28622,"lon":5.35098,"is_reserved":false,"is_disabled":false,"rental_uris":{"android":"levelo://app?vid=b0319319-1ae3-4867-bf81-d240c9f190cb","ios":"levelo://app?vid=b0319319-1ae3-4867-bf81-d240c9f190cb"},"vehicle_type_id":"4","last_reported":1740503453,"current_range_meters":7200,"station_id":"ce4bhch2rcd13ifvqeug","pricing_plan_id":"cebpf4jnsgd1na2vs0mg"},{"bike_id":"89b10e1f-4e4a-4d07-bd4a-e42f070a2051","system_id":"levelo_inurba_marseille","lat":43.2844,"lon":5.39185,"is_reserved":false,"is_disabled":false,"rental_uris":{"android":"levelo://app?vid=89b10e1f-4e4a-4d07-bd4a-e42f070a2051","ios":"levelo://app?vid=89b10e1f-4e4a-4d07-bd4a-e42f070a2051"},"vehicle_type_id":"4","last_reported":1740503453,"current_range_meters":7200,"station_id":"ce4bhoh2rcd13ifvqh5g","pricing_plan_id":"cebpf4jnsgd1na2vs0mg"},{"bike_id":"146aebc9-098b-47c2-b26e-46c1350561bc","system_id":"levelo_inurba_marseille","lat":43.33771,"lon":5.37478,"is_reserved":false,"is_disabled":false,"rental_uris":{"android":"levelo://app?vid=146aebc9-098b-47c2-b26e-46c1350561bc","ios":"levelo://app?vid=146aebc9-098b-47c2-b26e-46c1350561bc"},"vehicle_type_id":"4","last_reported":1740503453,"current_range_meters":8000,"station_id":"","pricing_plan_id":"cebpf4jnsgd1na2vs0mg"},{"bike_id":"3671b1fd-6f68-4981-aed6-a9d95065eb88","system_id":"levelo_inurba_marseille","lat":43.291644,"lon":5.37152,"is_reserved":false,"is_disabled":false,"rental_uris":{"android":"levelo://app?vid=3671b1fd-6f68-4981-aed6-a9d95065eb88","ios":"levelo://app?vid=3671b1fd-6f68-4981-aed6-a9d95065eb88"},"vehicle_type_id":"4","last_reported":1740503453,"current_range_meters":8000,"station_id":"ce4bha92rcd13ifvqeh0","pricing_plan_id":"cebpf4jnsgd1na2vs0mg"},{"bike_id":"5162c2ce-a731-4d3b-a21a-a1c8cb63150f","system_id":"levelo_inurba_marseille","lat":43.31712,"lon":5.437,"is_reserved":false,"is_disabled":false,"rental_uris":{"android":"levelo://app?vid=5162c2ce-a731-4d3b-a21a-a1c8cb63150f","ios":"levelo://app?vid=5162c2ce-a731-4d3b-a21a-a1c8cb63150f"},"vehicle_type_id":"4","last_reported":1740503453,"current_range_meters":8000,"station_id":"ce4bhp92rcd13ifvqhcg","pricing_plan_id":"cebpf4jnsgd1na2vs0mg"},{"bike_id":"98e7b625-a288-4e2d-acc7-318f7d421d6a","system_id":"levelo_inurba_marseille","lat":43.30131,"lon":5.39876,"is_reserved":false,"is_disabled":false,"rental_uris":{"android":"levelo://app?vid=98e7b625-a288-4e2d-acc7-318f7d421d6a","ios":"levelo://app?vid=98e7b625-a288-4e2d-acc7-318f7d421d6a"},"vehicle_type_id":"4","last_reported":1740503453,"current_range_meters":8400,"station_id":"ce4bh0h2rcd13ifvqd40","pricing_plan_id":"cebpf4jnsgd1na2vs0mg"},{"bike_id":"0a72916f-db65-4d32-976f-b2305f3c3331","system_id":"levelo_inurba_marseille","lat":43.31762,"lon":5.39007,"is_reserved":false,"is_disabled":false,"rental_uris":{"android":"levelo://app?vid=0a72916f-db65-4d32-976f-b2305f3c3331","ios":"levelo://app?vid=0a72916f-db65-4d32-976f-b2305f3c3331"},"vehicle_type_id":"4","last_reported":1740503453,"current_range_meters":8000,"station_id":"ce4bhqp2rcd13ifvqhng","pricing_plan_id":"cebpf4jnsgd1na2vs0mg"},{"bike_id":"a44b3f69-feb8-4863-8478-37b89e45e0df","system_id":"levelo_inurba_marseille","lat":43.24397,"lon":5.37062,"is_reserved":false,"is_disabled":false,"rental_uris":{"android":"levelo://app?vid=a44b3f69-feb8-4863-8478-37b89e45e0df","ios":"levelo://app?vid=a44b3f69-feb8-4863-8478-37b89e45e0df"},"vehicle_type_id":"4","last_reported":1740503453,"current_range_meters":16400,"station_id":"ce4bhhh2rcd13ifvqfk0","pricing_plan_id":"cebpf4jnsgd1na2vs0mg"},{"bike_id":"373dbbd2-d01d-4de0-b56d-4b8134a69e45","system_id":"levelo_inurba_marseille","lat":43.241342,"lon":5.378583,"is_reserved":false,"is_disabled":false,"rental_uris":{"android":"levelo://app?vid=373dbbd2-d01d-4de0-b56d-4b8134a69e45","ios":"levelo://app?vid=373dbbd2-d01d-4de0-b56d-4b8134a69e45"},"vehicle_type_id":"4","last_reported":1740503453,"current_range_meters":7200,"station_id":"ce4bhi12rcd13ifvqfp0","pricing_plan_id":"cebpf4jnsgd1na2vs0mg"},{"bike_id":"516584ce-bebc-46b8-9232-a5b6a6da2c69","system_id":"levelo_inurba_marseille","lat":43.28669,"lon":5.36352,"is_reserved":false,"is_disabled":false,"rental_uris":{"android":"levelo://app?vid=516584ce-bebc-46b8-9232-a5b6a6da2c69","ios":"levelo://app?vid=516584ce-bebc-46b8-9232-a5b6a6da2c69"},"vehicle_type_id":"4","last_reported":1740503453,"current_range_meters":3200,"station_id":"ce4bhah2rcd13ifvqej0","pricing_plan_id":"cebpf4jnsgd1na2vs0mg"},{"bike_id":"48043528-c521-4656-ac42-dd4891924259","system_id":"levelo_inurba_marseille","lat":43.28519,"lon":5.38388,"is_reserved":false,"is_disabled":false,"rental_uris":{"android":"levelo://app?vid=48043528-c521-4656-ac42-dd4891924259","ios":"levelo://app?vid=48043528-c521-4656-ac42-dd4891924259"},"vehicle_type_id":"4","last_reported":1740503453,"current_range_meters":8400,"station_id":"ce4bh512rcd13ifvqe3g","pricing_plan_id":"cebpf4jnsgd1na2vs0mg"},{"bike_id":"94e2a98b-59a1-4b23-aa10-06484019ee13","system_id":"levelo_inurba_marseille","lat":43.28267,"lon":5.35068,"is_reserved":false,"is_disabled":false,"rental_uris":{"android":"levelo://app?vid=94e2a98b-59a1-4b23-aa10-06484019ee13","ios":"levelo://app?vid=94e2a98b-59a1-4b23-aa10-06484019ee13"},"vehicle_type_id":"4","last_reported":1740503453,"current_range_meters":8400,"station_id":"ce4bhbp2rcd13ifvqerg","pricing_plan_id":"cebpf4jnsgd1na2vs0mg"},{"bike_id":"652e010c-c05f-4832-a370-b768a2682f44","system_id":"levelo_inurba_marseille","lat":43.32345,"lon":5.38639,"is_reserved":false,"is_disabled":false,"rental_uris":{"android":"levelo://app?vid=652e010c-c05f-4832-a370-b768a2682f44","ios":"levelo://app?vid=652e010c-c05f-4832-a370-b768a2682f44"},"vehicle_type_id":"4","last_reported":1740503453,"current_range_meters":8400,"station_id":"","pricing_plan_id":"cebpf4jnsgd1na2vs0mg"},{"bike_id":"0424812e-321f-4822-961d-86c423e2e1a3","system_id":"levelo_inurba_marseille","lat":43.303053,"lon":5.392164,"is_reserved":false,"is_disabled":false,"rental_uris":{"android":"levelo://app?vid=0424812e-321f-4822-961d-86c423e2e1a3","ios":"levelo://app?vid=0424812e-321f-4822-961d-86c423e2e1a3"},"vehicle_type_id":"4","last_reported":1740503453,"current_range_meters":8400,"station_id":"ce4bh012rcd13ifvqcv0","pricing_plan_id":"cebpf4jnsgd1na2vs0mg"},{"bike_id":"c6a5f4ea-422f-406e-af0c-7c5569565564","system_id":"levelo_inurba_marseille","lat":43.28496,"lon":5.35956,"is_reserved":false,"is_disabled":false,"rental_uris":{"android":"levelo://app?vid=c6a5f4ea-422f-406e-af0c-7c5569565564","ios":"levelo://app?vid=c6a5f4ea-422f-406e-af0c-7c5569565564"},"vehicle_type_id":"4","last_reported":1740503453,"current_range_meters":8400,"station_id":"ce4bhah2rcd13ifvqej0","pricing_plan_id":"cebpf4jnsgd1na2vs0mg"},{"bike_id":"ceff7498-623c-49c6-b291-d6b8b533e34e","system_id":"levelo_inurba_marseille","lat":43.32359,"lon":5.38887,"is_reserved":false,"is_disabled":false,"rental_uris":{"android":"levelo://app?vid=ceff7498-623c-49c6-b291-d6b8b533e34e","ios":"levelo://app?vid=ceff7498-623c-49c6-b291-d6b8b533e34e"},"vehicle_type_id":"4","last_reported":1740503453,"current_range_meters":8400,"station_id":"ce4bhqp2rcd13ifvqhog","pricing_plan_id":"cebpf4jnsgd1na2vs0mg"},{"bike_id":"87d7ae56-a1a7-4e7a-9cac-c54587917a9e","system_id":"levelo_inurba_marseille","lat":43.2623,"lon":5.40452,"is_reserved":false,"is_disabled":false,"rental_uris":{"android":"levelo://app?vid=87d7ae56-a1a7-4e7a-9cac-c54587917a9e","ios":"levelo://app?vid=87d7ae56-a1a7-4e7a-9cac-c54587917a9e"},"vehicle_type_id":"4","last_reported":1740503453,"current_range_meters":8400,"station_id":"ce4bhmh2rcd13ifvqgmg","pricing_plan_id":"cebpf4jnsgd1na2vs0mg"},{"bike_id":"3663f829-7050-4e49-be23-5885b47d0581","system_id":"levelo_inurba_marseille","lat":43.29525,"lon":5.39378,"is_reserved":false,"is_disabled":false,"rental_uris":{"android":"levelo://app?vid=3663f829-7050-4e49-be23-5885b47d0581","ios":"levelo://app?vid=3663f829-7050-4e49-be23-5885b47d0581"},"vehicle_type_id":"4","last_reported":1740503453,"current_range_meters":8400,"station_id":"ce4bh292rcd13ifvqdf0","pricing_plan_id":"cebpf4jnsgd1na2vs0mg"},{"bike_id":"0b9cf569-7aef-4872-b692-80a183d38048","system_id":"levelo_inurba_marseille","lat":43.24549,"lon":5.39528,"is_reserved":false,"is_disabled":false,"rental_uris":{"android":"levelo://app?vid=0b9cf569-7aef-4872-b692-80a183d38048","ios":"levelo://app?vid=0b9cf569-7aef-4872-b692-80a183d38048"},"vehicle_type_id":"4","last_reported":1740503453,"current_range_meters":8400,"station_id":"ce4bhlp2rcd13ifvqgjg","pricing_plan_id":"cebpf4jnsgd1na2vs0mg"},{"bike_id":"7110c69d-9730-4011-ae5c-37b7246b56f0","system_id":"levelo_inurba_marseille","lat":43.25725,"lon":5.41112,"is_reserved":false,"is_disabled":false,"rental_uris":{"android":"levelo://app?vid=7110c69d-9730-4011-ae5c-37b7246b56f0","ios":"levelo://app?vid=7110c69d-9730-4011-ae5c-37b7246b56f0"},"vehicle_type_id":"4","last_reported":1740503453,"current_range_meters":9200,"station_id":"ce4bhkp2rcd13ifvqgd0","pricing_plan_id":"cebpf4jnsgd1na2vs0mg"},{"bike_id":"c282d030-4daf-4854-a979-9277d37d553d","system_id":"levelo_inurba_marseille","lat":43.28157,"lon":5.42641,"is_reserved":false,"is_disabled":false,"rental_uris":{"android":"levelo://app?vid=c282d030-4daf-4854-a979-9277d37d553d","ios":"levelo://app?vid=c282d030-4daf-4854-a979-9277d37d553d"},"vehicle_type_id":"4","last_reported":1740503453,"current_range_meters":9200,"station_id":"ce4bhnh2rcd13ifvqgug","pricing_plan_id":"cebpf4jnsgd1na2vs0mg"},{"bike_id":"ae8a19c6-d644-4dc9-829e-8caf6b1d2af0","system_id":"levelo_inurba_marseille","lat":43.27216,"lon":5.3919,"is_reserved":false,"is_disabled":true,"rental_uris":{"android":"levelo://app?vid=ae8a19c6-d644-4dc9-829e-8caf6b1d2af0","ios":"levelo://app?vid=ae8a19c6-d644-4dc9-829e-8caf6b1d2af0"},"vehicle_type_id":"4","last_reported":1740503453,"current_range_meters":9600,"station_id":"ce4bhhp2rcd13ifvqfm0","pricing_plan_id":"cebpf4jnsgd1na2vs0mg"},{"bike_id":"b3be3741-6ba0-4c85-bada-5d60cd637267","system_id":"levelo_inurba_marseille","lat":43.28148,"lon":5.42646,"is_reserved":false,"is_disabled":false,"rental_uris":{"android":"levelo://app?vid=b3be3741-6ba0-4c85-bada-5d60cd637267","ios":"levelo://app?vid=b3be3741-6ba0-4c85-bada-5d60cd637267"},"vehicle_type_id":"4","last_reported":1740503453,"current_range_meters":9200,"station_id":"ce4bhnh2rcd13ifvqgug","pricing_plan_id":"cebpf4jnsgd1na2vs0mg"},{"bike_id":"8a14eccc-2354-4cab-b10c-828693d9201a","system_id":"levelo_inurba_marseille","lat":43.2903,"lon":5.38647,"is_reserved":false,"is_disabled":false,"rental_uris":{"android":"levelo://app?vid=8a14eccc-2354-4cab-b10c-828693d9201a","ios":"levelo://app?vid=8a14eccc-2354-4cab-b10c-828693d9201a"},"vehicle_type_id":"4","last_reported":1740503453,"current_range_meters":9200,"station_id":"ce4bh4p2rcd13ifvqe0g","pricing_plan_id":"cebpf4jnsgd1na2vs0mg"},{"bike_id":"bc9b1e32-064d-4bf1-b679-48091aef2876","system_id":"levelo_inurba_marseille","lat":43.28078,"lon":5.4242,"is_reserved":false,"is_disabled":false,"rental_uris":{"android":"levelo://app?vid=bc9b1e32-064d-4bf1-b679-48091aef2876","ios":"levelo://app?vid=bc9b1e32-064d-4bf1-b679-48091aef2876"},"vehicle_type_id":"4","last_reported":1740503453,"current_range_meters":9600,"station_id":"","pricing_plan_id":"cebpf4jnsgd1na2vs0mg"},{"bike_id":"86480794-dbfd-4463-8fde-b19df08000eb","system_id":"levelo_inurba_marseille","lat":43.29441,"lon":5.39724,"is_reserved":false,"is_disabled":false,"rental_uris":{"android":"levelo://app?vid=86480794-dbfd-4463-8fde-b19df08000eb","ios":"levelo://app?vid=86480794-dbfd-4463-8fde-b19df08000eb"},"vehicle_type_id":"4","last_reported":1740503453,"current_range_meters":9200,"station_id":"ce4bh3h2rcd13ifvqdo0","pricing_plan_id":"cebpf4jnsgd1na2vs0mg"},{"bike_id":"8f9c93fb-eeee-46b2-a0ee-c43c3d59dd96","system_id":"levelo_inurba_marseille","lat":43.281553,"lon":5.426443,"is_reserved":false,"is_disabled":false,"rental_uris":{"android":"levelo://app?vid=8f9c93fb-eeee-46b2-a0ee-c43c3d59dd96","ios":"levelo://app?vid=8f9c93fb-eeee-46b2-a0ee-c43c3d59dd96"},"vehicle_type_id":"4","last_reported":1740503453,"current_range_meters":9200,"station_id":"ce4bhnh2rcd13ifvqgug","pricing_plan_id":"cebpf4jnsgd1na2vs0mg"},{"bike_id":"e5c275a2-a964-47d8-9489-ed1126cf4cef","system_id":"levelo_inurba_marseille","lat":43.29616,"lon":5.37914,"is_reserved":false,"is_disabled":false,"rental_uris":{"android":"levelo://app?vid=e5c275a2-a964-47d8-9489-ed1126cf4cef","ios":"levelo://app?vid=e5c275a2-a964-47d8-9489-ed1126cf4cef"},"vehicle_type_id":"4","last_reported":1740503453,"current_range_meters":9600,"station_id":"","pricing_plan_id":"cebpf4jnsgd1na2vs0mg"},{"bike_id":"a32cbff8-868e-41ed-89dd-651945bbe188","system_id":"levelo_inurba_marseille","lat":43.29279,"lon":5.36843,"is_reserved":false,"is_disabled":false,"rental_uris":{"android":"levelo://app?vid=a32cbff8-868e-41ed-89dd-651945bbe188","ios":"levelo://app?vid=a32cbff8-868e-41ed-89dd-651945bbe188"},"vehicle_type_id":"4","last_reported":1740503453,"current_range_meters":17200,"station_id":"ce4bhbp2rcd13ifvqesg","pricing_plan_id":"cebpf4jnsgd1na2vs0mg"},{"bike_id":"601d9d1a-b924-4349-8cfa-62d99997e8fb","system_id":"levelo_inurba_marseille","lat":43.23186,"lon":5.39992,"is_reserved":false,"is_disabled":false,"rental_uris":{"android":"levelo://app?vid=601d9d1a-b924-4349-8cfa-62d99997e8fb","ios":"levelo://app?vid=601d9d1a-b924-4349-8cfa-62d99997e8fb"},"vehicle_type_id":"4","last_reported":1740503453,"current_range_meters":8400,"station_id":"ce4bhn12rcd13ifvqgqg","pricing_plan_id":"cebpf4jnsgd1na2vs0mg"},{"bike_id":"62fdcb43-5a87-4aa7-afab-c9dc522c5180","system_id":"levelo_inurba_marseille","lat":43.23155,"lon":5.43714,"is_reserved":false,"is_disabled":false,"rental_uris":{"android":"levelo://app?vid=62fdcb43-5a87-4aa7-afab-c9dc522c5180","ios":"levelo://app?vid=62fdcb43-5a87-4aa7-afab-c9dc522c5180"},"vehicle_type_id":"4","last_reported":1740503453,"current_range_meters":9600,"station_id":"ce4bhmp2rcd13ifvqgog","pricing_plan_id":"cebpf4jnsgd1na2vs0mg"},{"bike_id":"ac63cf75-990e-4538-9fa2-7f57170639ff","system_id":"levelo_inurba_marseille","lat":43.284264,"lon":5.37515,"is_reserved":false,"is_disabled":false,"rental_uris":{"android":"levelo://app?vid=ac63cf75-990e-4538-9fa2-7f57170639ff","ios":"levelo://app?vid=ac63cf75-990e-4538-9fa2-7f57170639ff"},"vehicle_type_id":"4","last_reported":1740503453,"current_range_meters":8400,"station_id":"ce4bhch2rcd13ifvqeug","pricing_plan_id":"cebpf4jnsgd1na2vs0mg"},{"bike_id":"e95041c8-f6c0-4ea4-b792-489acb67e888","system_id":"levelo_inurba_marseille","lat":43.31265,"lon":5.40175,"is_reserved":false,"is_disabled":false,"rental_uris":{"android":"levelo://app?vid=e95041c8-f6c0-4ea4-b792-489acb67e888","ios":"levelo://app?vid=e95041c8-f6c0-4ea4-b792-489acb67e888"},"vehicle_type_id":"4","last_reported":1740503453,"current_range_meters":9600,"station_id":"ce4bh092rcd13ifvqd30","pricing_plan_id":"cebpf4jnsgd1na2vs0mg"},{"bike_id":"0ad3d322-e47d-4c6e-8f8e-07e9deed490f","system_id":"levelo_inurba_marseille","lat":43.28617,"lon":5.35107,"is_reserved":false,"is_disabled":false,"rental_uris":{"android":"levelo://app?vid=0ad3d322-e47d-4c6e-8f8e-07e9deed490f","ios":"levelo://app?vid=0ad3d322-e47d-4c6e-8f8e-07e9deed490f"},"vehicle_type_id":"4","last_reported":1740503453,"current_range_meters":9600,"station_id":"ce4bhch2rcd13ifvqeug","pricing_plan_id":"cebpf4jnsgd1na2vs0mg"},{"bike_id":"4c8d2f14-9b48-4526-a12f-33379a52a255","system_id":"levelo_inurba_marseille","lat":43.33017,"lon":5.39034,"is_reserved":false,"is_disabled":false,"rental_uris":{"android":"levelo://app?vid=4c8d2f14-9b48-4526-a12f-33379a52a255","ios":"levelo://app?vid=4c8d2f14-9b48-4526-a12f-33379a52a255"},"vehicle_type_id":"4","last_reported":1740503453,"current_range_meters":10000,"station_id":"ce4bhr92rcd13ifvqhrg","pricing_plan_id":"cebpf4jnsgd1na2vs0mg"},{"bike_id":"b8056528-61d4-45d9-b2dd-e6ab8ef50c51","system_id":"levelo_inurba_marseille","lat":43.31272,"lon":5.40175,"is_reserved":false,"is_disabled":false,"rental_uris":{"android":"levelo://app?vid=b8056528-61d4-45d9-b2dd-e6ab8ef50c51","ios":"levelo://app?vid=b8056528-61d4-45d9-b2dd-e6ab8ef50c51"},"vehicle_type_id":"4","last_reported":1740503453,"current_range_meters":10800,"station_id":"ce4bh092rcd13ifvqd30","pricing_plan_id":"cebpf4jnsgd1na2vs0mg"},{"bike_id":"68d7cca4-8ba2-4910-a698-c2185717f9a0","system_id":"levelo_inurba_marseille","lat":43.2997,"lon":5.38496,"is_reserved":false,"is_disabled":false,"rental_uris":{"android":"levelo://app?vid=68d7cca4-8ba2-4910-a698-c2185717f9a0","ios":"levelo://app?vid=68d7cca4-8ba2-4910-a698-c2185717f9a0"},"vehicle_type_id":"4","last_reported":1740503453,"current_range_meters":10000,"station_id":"ce4bgj92rcd13ifvqbd0","pricing_plan_id":"cebpf4jnsgd1na2vs0mg"},{"bike_id":"66c4e27d-fd15-4e96-8910-1916ae6d5d49","system_id":"levelo_inurba_marseille","lat":43.28461,"lon":5.35901,"is_reserved":false,"is_disabled":false,"rental_uris":{"android":"levelo://app?vid=66c4e27d-fd15-4e96-8910-1916ae6d5d49","ios":"levelo://app?vid=66c4e27d-fd15-4e96-8910-1916ae6d5d49"},"vehicle_type_id":"4","last_reported":1740503453,"current_range_meters":10800,"station_id":"ce4bhah2rcd13ifvqei0","pricing_plan_id":"cebpf4jnsgd1na2vs0mg"},{"bike_id":"c53ed6e7-916e-40f4-9e84-94eccc7a73ea","system_id":"levelo_inurba_marseille","lat":43.23149,"lon":5.43717,"is_reserved":false,"is_disabled":false,"rental_uris":{"android":"levelo://app?vid=c53ed6e7-916e-40f4-9e84-94eccc7a73ea","ios":"levelo://app?vid=c53ed6e7-916e-40f4-9e84-94eccc7a73ea"},"vehicle_type_id":"4","last_reported":1740503453,"current_range_meters":10000,"station_id":"ce4bhmp2rcd13ifvqgog","pricing_plan_id":"cebpf4jnsgd1na2vs0mg"},{"bike_id":"81854ebf-0024-4e94-a1b8-7d3d711b5ad6","system_id":"levelo_inurba_marseille","lat":43.30101,"lon":5.39095,"is_reserved":false,"is_disabled":false,"rental_uris":{"android":"levelo://app?vid=81854ebf-0024-4e94-a1b8-7d3d711b5ad6","ios":"levelo://app?vid=81854ebf-0024-4e94-a1b8-7d3d711b5ad6"},"vehicle_type_id":"4","last_reported":1740503453,"current_range_meters":10000,"station_id":"ce4bh192rcd13ifvqdb0","pricing_plan_id":"cebpf4jnsgd1na2vs0mg"},{"bike_id":"5a1ff1fb-aa63-4592-a464-353df37f14b3","system_id":"levelo_inurba_marseille","lat":43.28161,"lon":5.42638,"is_reserved":false,"is_disabled":false,"rental_uris":{"android":"levelo://app?vid=5a1ff1fb-aa63-4592-a464-353df37f14b3","ios":"levelo://app?vid=5a1ff1fb-aa63-4592-a464-353df37f14b3"},"vehicle_type_id":"4","last_reported":1740503453,"current_range_meters":10000,"station_id":"ce4bhnh2rcd13ifvqgug","pricing_plan_id":"cebpf4jnsgd1na2vs0mg"},{"bike_id":"05f51bd6-bf8c-4b6c-ba2f-d7bf7cec3006","system_id":"levelo_inurba_marseille","lat":43.23199,"lon":5.35575,"is_reserved":false,"is_disabled":false,"rental_uris":{"android":"levelo://app?vid=05f51bd6-bf8c-4b6c-ba2f-d7bf7cec3006","ios":"levelo://app?vid=05f51bd6-bf8c-4b6c-ba2f-d7bf7cec3006"},"vehicle_type_id":"4","last_reported":1740503453,"current_range_meters":11200,"station_id":"ce4bhu92rcd13ifvqi70","pricing_plan_id":"cebpf4jnsgd1na2vs0mg"},{"bike_id":"f2a87237-f624-4bf7-ad01-90df07b15d25","system_id":"levelo_inurba_marseille","lat":43.28415,"lon":5.37512,"is_reserved":false,"is_disabled":false,"rental_uris":{"android":"levelo://app?vid=f2a87237-f624-4bf7-ad01-90df07b15d25","ios":"levelo://app?vid=f2a87237-f624-4bf7-ad01-90df07b15d25"},"vehicle_type_id":"4","last_reported":1740503453,"current_range_meters":10800,"station_id":"ce4bh412rcd13ifvqds0","pricing_plan_id":"cebpf4jnsgd1na2vs0mg"},{"bike_id":"dba23487-1aeb-456c-a502-3a278b1ed379","system_id":"levelo_inurba_marseille","lat":43.29633,"lon":5.40598,"is_reserved":false,"is_disabled":false,"rental_uris":{"android":"levelo://app?vid=dba23487-1aeb-456c-a502-3a278b1ed379","ios":"levelo://app?vid=dba23487-1aeb-456c-a502-3a278b1ed379"},"vehicle_type_id":"4","last_reported":1740503453,"current_range_meters":11200,"station_id":"ce4bh0h2rcd13ifvqd60","pricing_plan_id":"cebpf4jnsgd1na2vs0mg"},{"bike_id":"fb86500b-9dfa-4c60-b018-57296e109514","system_id":"levelo_inurba_marseille","lat":43.28861,"lon":5.35866,"is_reserved":false,"is_disabled":false,"rental_uris":{"android":"levelo://app?vid=fb86500b-9dfa-4c60-b018-57296e109514","ios":"levelo://app?vid=fb86500b-9dfa-4c60-b018-57296e109514"},"vehicle_type_id":"4","last_reported":1740503453,"current_range_meters":10800,"station_id":"ce4bhb12rcd13ifvqem0","pricing_plan_id":"cebpf4jnsgd1na2vs0mg"},{"bike_id":"825dd6bc-7cd5-4d2b-a656-7bb4405c624b","system_id":"levelo_inurba_marseille","lat":43.24546,"lon":5.39527,"is_reserved":false,"is_disabled":false,"rental_uris":{"android":"levelo://app?vid=825dd6bc-7cd5-4d2b-a656-7bb4405c624b","ios":"levelo://app?vid=825dd6bc-7cd5-4d2b-a656-7bb4405c624b"},"vehicle_type_id":"4","last_reported":1740503453,"current_range_meters":11200,"station_id":"ce4bhlp2rcd13ifvqgjg","pricing_plan_id":"cebpf4jnsgd1na2vs0mg"},{"bike_id":"a9c72a1e-d7c5-4617-8de6-1e26399f8ac4","system_id":"levelo_inurba_marseille","lat":43.306581,"lon":5.401038,"is_reserved":false,"is_disabled":false,"rental_uris":{"android":"levelo://app?vid=a9c72a1e-d7c5-4617-8de6-1e26399f8ac4","ios":"levelo://app?vid=a9c72a1e-d7c5-4617-8de6-1e26399f8ac4"},"vehicle_type_id":"4","last_reported":1740503453,"current_range_meters":10800,"station_id":"ce4bh3p2rcd13ifvqdp0","pricing_plan_id":"cebpf4jnsgd1na2vs0mg"},{"bike_id":"14b6f421-7f9e-4cf9-8e81-d17fd901ce45","system_id":"levelo_inurba_marseille","lat":43.29554,"lon":5.42293,"is_reserved":false,"is_disabled":false,"rental_uris":{"android":"levelo://app?vid=14b6f421-7f9e-4cf9-8e81-d17fd901ce45","ios":"levelo://app?vid=14b6f421-7f9e-4cf9-8e81-d17fd901ce45"},"vehicle_type_id":"4","last_reported":1740503453,"current_range_meters":11200,"station_id":"ce4bhph2rcd13ifvqhdg","pricing_plan_id":"cebpf4jnsgd1na2vs0mg"},{"bike_id":"f5232ca0-a0ea-4b65-9be9-c58c9ab586fb","system_id":"levelo_inurba_marseille","lat":43.2816,"lon":5.42632,"is_reserved":false,"is_disabled":false,"rental_uris":{"android":"levelo://app?vid=f5232ca0-a0ea-4b65-9be9-c58c9ab586fb","ios":"levelo://app?vid=f5232ca0-a0ea-4b65-9be9-c58c9ab586fb"},"vehicle_type_id":"4","last_reported":1740503453,"current_range_meters":13600,"station_id":"ce4bhnh2rcd13ifvqgug","pricing_plan_id":"cebpf4jnsgd1na2vs0mg"},{"bike_id":"155a2c11-1d9b-4d1b-81a4-cab84afed20d","system_id":"levelo_inurba_marseille","lat":43.27822,"lon":5.39212,"is_reserved":false,"is_disabled":false,"rental_uris":{"android":"levelo://app?vid=155a2c11-1d9b-4d1b-81a4-cab84afed20d","ios":"levelo://app?vid=155a2c11-1d9b-4d1b-81a4-cab84afed20d"},"vehicle_type_id":"4","last_reported":1740503453,"current_range_meters":11600,"station_id":"ce4bhjp2rcd13ifvqga0","pricing_plan_id":"cebpf4jnsgd1na2vs0mg"},{"bike_id":"ccf02f03-4f4b-4537-b274-3b3dfdae60d0","system_id":"levelo_inurba_marseille","lat":43.25718,"lon":5.41118,"is_reserved":false,"is_disabled":false,"rental_uris":{"android":"levelo://app?vid=ccf02f03-4f4b-4537-b274-3b3dfdae60d0","ios":"levelo://app?vid=ccf02f03-4f4b-4537-b274-3b3dfdae60d0"},"vehicle_type_id":"4","last_reported":1740503453,"current_range_meters":11600,"station_id":"ce4bhkp2rcd13ifvqgd0","pricing_plan_id":"cebpf4jnsgd1na2vs0mg"},{"bike_id":"7c45866a-bd99-4c12-9747-66203f12a96e","system_id":"levelo_inurba_marseille","lat":43.231372,"lon":5.35511,"is_reserved":false,"is_disabled":false,"rental_uris":{"android":"levelo://app?vid=7c45866a-bd99-4c12-9747-66203f12a96e","ios":"levelo://app?vid=7c45866a-bd99-4c12-9747-66203f12a96e"},"vehicle_type_id":"4","last_reported":1740503453,"current_range_meters":11600,"station_id":"","pricing_plan_id":"cebpf4jnsgd1na2vs0mg"},{"bike_id":"29e9a687-8123-4dd0-a559-ab7f902dfb8d","system_id":"levelo_inurba_marseille","lat":43.296,"lon":5.38107,"is_reserved":false,"is_disabled":false,"rental_uris":{"android":"levelo://app?vid=29e9a687-8123-4dd0-a559-ab7f902dfb8d","ios":"levelo://app?vid=29e9a687-8123-4dd0-a559-ab7f902dfb8d"},"vehicle_type_id":"4","last_reported":1740503453,"current_range_meters":11600,"station_id":"ce4bgl12rcd13ifvqbo0","pricing_plan_id":"cebpf4jnsgd1na2vs0mg"},{"bike_id":"04b3b212-ae0d-4e74-bd16-786324012b7f","system_id":"levelo_inurba_marseille","lat":43.26555,"lon":5.37289,"is_reserved":false,"is_disabled":false,"rental_uris":{"android":"levelo://app?vid=04b3b212-ae0d-4e74-bd16-786324012b7f","ios":"levelo://app?vid=04b3b212-ae0d-4e74-bd16-786324012b7f"},"vehicle_type_id":"4","last_reported":1740503453,"current_range_meters":12000,"station_id":"ce4bhg12rcd13ifvqf70","pricing_plan_id":"cebpf4jnsgd1na2vs0mg"},{"bike_id":"08d0d800-4e40-430b-9ab8-d130b9714523","system_id":"levelo_inurba_marseille","lat":43.29893,"lon":5.38894,"is_reserved":false,"is_disabled":false,"rental_uris":{"android":"levelo://app?vid=08d0d800-4e40-430b-9ab8-d130b9714523","ios":"levelo://app?vid=08d0d800-4e40-430b-9ab8-d130b9714523"},"vehicle_type_id":"4","last_reported":1740503453,"current_range_meters":9200,"station_id":"ce4bh392rcd13ifvqdl0","pricing_plan_id":"cebpf4jnsgd1na2vs0mg"},{"bike_id":"0f1f3b76-2791-4f0f-845e-300b9a8eb89b","system_id":"levelo_inurba_marseille","lat":43.23197,"lon":5.35557,"is_reserved":false,"is_disabled":false,"rental_uris":{"android":"levelo://app?vid=0f1f3b76-2791-4f0f-845e-300b9a8eb89b","ios":"levelo://app?vid=0f1f3b76-2791-4f0f-845e-300b9a8eb89b"},"vehicle_type_id":"4","last_reported":1740503453,"current_range_meters":12400,"station_id":"ce4bhu92rcd13ifvqi70","pricing_plan_id":"cebpf4jnsgd1na2vs0mg"},{"bike_id":"318a618f-45cd-4ddf-a82d-9b8a7d1b3486","system_id":"levelo_inurba_marseille","lat":43.30596,"lon":5.37243,"is_reserved":false,"is_disabled":false,"rental_uris":{"android":"levelo://app?vid=318a618f-45cd-4ddf-a82d-9b8a7d1b3486","ios":"levelo://app?vid=318a618f-45cd-4ddf-a82d-9b8a7d1b3486"},"vehicle_type_id":"4","last_reported":1740503453,"current_range_meters":12400,"station_id":"ce4bgqh2rcd13ifvqc4g","pricing_plan_id":"cebpf4jnsgd1na2vs0mg"},{"bike_id":"562ed467-5762-498d-8a7e-537c4203a8f8","system_id":"levelo_inurba_marseille","lat":43.29899,"lon":5.39712,"is_reserved":false,"is_disabled":false,"rental_uris":{"android":"levelo://app?vid=562ed467-5762-498d-8a7e-537c4203a8f8","ios":"levelo://app?vid=562ed467-5762-498d-8a7e-537c4203a8f8"},"vehicle_type_id":"4","last_reported":1740503453,"current_range_meters":12800,"station_id":"ce4bh0h2rcd13ifvqd50","pricing_plan_id":"cebpf4jnsgd1na2vs0mg"},{"bike_id":"8991dc2a-1654-44ae-abfe-4fd491df0de5","system_id":"levelo_inurba_marseille","lat":43.28157,"lon":5.42646,"is_reserved":false,"is_disabled":false,"rental_uris":{"android":"levelo://app?vid=8991dc2a-1654-44ae-abfe-4fd491df0de5","ios":"levelo://app?vid=8991dc2a-1654-44ae-abfe-4fd491df0de5"},"vehicle_type_id":"4","last_reported":1740503453,"current_range_meters":12800,"station_id":"ce4bhnh2rcd13ifvqgug","pricing_plan_id":"cebpf4jnsgd1na2vs0mg"},{"bike_id":"1f6bbfe9-aae7-43d5-a4ef-153399ef3f5f","system_id":"levelo_inurba_marseille","lat":43.32364,"lon":5.38887,"is_reserved":false,"is_disabled":false,"rental_uris":{"android":"levelo://app?vid=1f6bbfe9-aae7-43d5-a4ef-153399ef3f5f","ios":"levelo://app?vid=1f6bbfe9-aae7-43d5-a4ef-153399ef3f5f"},"vehicle_type_id":"4","last_reported":1740503453,"current_range_meters":12800,"station_id":"ce4bhqp2rcd13ifvqhog","pricing_plan_id":"cebpf4jnsgd1na2vs0mg"},{"bike_id":"7c8aaa9b-e43a-43de-8b4f-a531a44d3724","system_id":"levelo_inurba_marseille","lat":43.27942,"lon":5.41052,"is_reserved":false,"is_disabled":false,"rental_uris":{"android":"levelo://app?vid=7c8aaa9b-e43a-43de-8b4f-a531a44d3724","ios":"levelo://app?vid=7c8aaa9b-e43a-43de-8b4f-a531a44d3724"},"vehicle_type_id":"4","last_reported":1740503453,"current_range_meters":12800,"station_id":"ce4bhnp2rcd13ifvqh0g","pricing_plan_id":"cebpf4jnsgd1na2vs0mg"},{"bike_id":"63cf22fb-a453-4517-9df9-0d741c06e3bd","system_id":"levelo_inurba_marseille","lat":43.2606,"lon":5.393989,"is_reserved":false,"is_disabled":false,"rental_uris":{"android":"levelo://app?vid=63cf22fb-a453-4517-9df9-0d741c06e3bd","ios":"levelo://app?vid=63cf22fb-a453-4517-9df9-0d741c06e3bd"},"vehicle_type_id":"4","last_reported":1740503453,"current_range_meters":13600,"station_id":"ce4bhh92rcd13ifvqfj0","pricing_plan_id":"cebpf4jnsgd1na2vs0mg"},{"bike_id":"b007f058-4163-4bbe-ba13-50835769bd43","system_id":"levelo_inurba_marseille","lat":43.31714,"lon":5.4371,"is_reserved":false,"is_disabled":false,"rental_uris":{"android":"levelo://app?vid=b007f058-4163-4bbe-ba13-50835769bd43","ios":"levelo://app?vid=b007f058-4163-4bbe-ba13-50835769bd43"},"vehicle_type_id":"4","last_reported":1740503453,"current_range_meters":16000,"station_id":"ce4bhp92rcd13ifvqhcg","pricing_plan_id":"cebpf4jnsgd1na2vs0mg"},{"bike_id":"277a299c-81d4-42ec-aa03-565fa5f40c07","system_id":"levelo_inurba_marseille","lat":43.28898,"lon":5.36381,"is_reserved":false,"is_disabled":false,"rental_uris":{"android":"levelo://app?vid=277a299c-81d4-42ec-aa03-565fa5f40c07","ios":"levelo://app?vid=277a299c-81d4-42ec-aa03-565fa5f40c07"},"vehicle_type_id":"4","last_reported":1740503453,"current_range_meters":12400,"station_id":"ce4bhc92rcd13ifvqetg","pricing_plan_id":"cebpf4jnsgd1na2vs0mg"},{"bike_id":"9f410218-3040-4e5d-995c-1587f208b52e","system_id":"levelo_inurba_marseille","lat":43.27827,"lon":5.4071,"is_reserved":false,"is_disabled":false,"rental_uris":{"android":"levelo://app?vid=9f410218-3040-4e5d-995c-1587f208b52e","ios":"levelo://app?vid=9f410218-3040-4e5d-995c-1587f208b52e"},"vehicle_type_id":"4","last_reported":1740503453,"current_range_meters":12800,"station_id":"ce4bhnh2rcd13ifvqgtg","pricing_plan_id":"cebpf4jnsgd1na2vs0mg"},{"bike_id":"078ec0b8-f3ee-40a5-83dd-16c6ac25214b","system_id":"levelo_inurba_marseille","lat":43.24991,"lon":5.38949,"is_reserved":false,"is_disabled":false,"rental_uris":{"android":"levelo://app?vid=078ec0b8-f3ee-40a5-83dd-16c6ac25214b","ios":"levelo://app?vid=078ec0b8-f3ee-40a5-83dd-16c6ac25214b"},"vehicle_type_id":"4","last_reported":1740503453,"current_range_meters":12800,"station_id":"ce4bhgp2rcd13ifvqfd0","pricing_plan_id":"cebpf4jnsgd1na2vs0mg"},{"bike_id":"d0801915-0de0-4f9d-9726-750b42c06614","system_id":"levelo_inurba_marseille","lat":43.32109,"lon":5.36772,"is_reserved":false,"is_disabled":false,"rental_uris":{"android":"levelo://app?vid=d0801915-0de0-4f9d-9726-750b42c06614","ios":"levelo://app?vid=d0801915-0de0-4f9d-9726-750b42c06614"},"vehicle_type_id":"4","last_reported":1740503453,"current_range_meters":12800,"station_id":"ce4bhrh2rcd13ifvqhug","pricing_plan_id":"cebpf4jnsgd1na2vs0mg"},{"bike_id":"cc5e195e-187d-4bed-92db-a3938f4b5749","system_id":"levelo_inurba_marseille","lat":43.29964,"lon":5.38499,"is_reserved":false,"is_disabled":false,"rental_uris":{"android":"levelo://app?vid=cc5e195e-187d-4bed-92db-a3938f4b5749","ios":"levelo://app?vid=cc5e195e-187d-4bed-92db-a3938f4b5749"},"vehicle_type_id":"4","last_reported":1740503453,"current_range_meters":8800,"station_id":"ce4bgj92rcd13ifvqbd0","pricing_plan_id":"cebpf4jnsgd1na2vs0mg"},{"bike_id":"32584527-82ca-4821-ad4a-70e2a4d42c2b","system_id":"levelo_inurba_marseille","lat":43.27371,"lon":5.36249,"is_reserved":false,"is_disabled":false,"rental_uris":{"android":"levelo://app?vid=32584527-82ca-4821-ad4a-70e2a4d42c2b","ios":"levelo://app?vid=32584527-82ca-4821-ad4a-70e2a4d42c2b"},"vehicle_type_id":"4","last_reported":1740503453,"current_range_meters":13600,"station_id":"ce4bhbh2rcd13ifvqeo0","pricing_plan_id":"cebpf4jnsgd1na2vs0mg"},{"bike_id":"bea517ec-06d8-4315-a101-031d4852ca77","system_id":"levelo_inurba_marseille","lat":43.24177,"lon":5.39726,"is_reserved":false,"is_disabled":false,"rental_uris":{"android":"levelo://app?vid=bea517ec-06d8-4315-a101-031d4852ca77","ios":"levelo://app?vid=bea517ec-06d8-4315-a101-031d4852ca77"},"vehicle_type_id":"4","last_reported":1740503453,"current_range_meters":13600,"station_id":"ce4bhn12rcd13ifvqgpg","pricing_plan_id":"cebpf4jnsgd1na2vs0mg"},{"bike_id":"d34e4cb9-5276-46b4-9ce3-101a044e1b3b","system_id":"levelo_inurba_marseille","lat":43.29255,"lon":5.4092,"is_reserved":false,"is_disabled":false,"rental_uris":{"android":"levelo://app?vid=d34e4cb9-5276-46b4-9ce3-101a044e1b3b","ios":"levelo://app?vid=d34e4cb9-5276-46b4-9ce3-101a044e1b3b"},"vehicle_type_id":"4","last_reported":1740503453,"current_range_meters":14000,"station_id":"ce4bh192rcd13ifvqdc0","pricing_plan_id":"cebpf4jnsgd1na2vs0mg"},{"bike_id":"85809374-ab15-493f-a62d-759c271801cf","system_id":"levelo_inurba_marseille","lat":43.30543,"lon":5.36556,"is_reserved":false,"is_disabled":false,"rental_uris":{"android":"levelo://app?vid=85809374-ab15-493f-a62d-759c271801cf","ios":"levelo://app?vid=85809374-ab15-493f-a62d-759c271801cf"},"vehicle_type_id":"4","last_reported":1740503453,"current_range_meters":14000,"station_id":"ce4bgs12rcd13ifvqcag","pricing_plan_id":"cebpf4jnsgd1na2vs0mg"},{"bike_id":"d4f88408-aa9a-4226-ae47-442470e6f8ab","system_id":"levelo_inurba_marseille","lat":43.26959,"lon":5.38643,"is_reserved":false,"is_disabled":false,"rental_uris":{"android":"levelo://app?vid=d4f88408-aa9a-4226-ae47-442470e6f8ab","ios":"levelo://app?vid=d4f88408-aa9a-4226-ae47-442470e6f8ab"},"vehicle_type_id":"4","last_reported":1740503453,"current_range_meters":14000,"station_id":"ce4bhh92rcd13ifvqfh0","pricing_plan_id":"cebpf4jnsgd1na2vs0mg"},{"bike_id":"44f9e446-3836-44ff-921d-578372029f43","system_id":"levelo_inurba_marseille","lat":43.29056,"lon":5.37176,"is_reserved":false,"is_disabled":false,"rental_uris":{"android":"levelo://app?vid=44f9e446-3836-44ff-921d-578372029f43","ios":"levelo://app?vid=44f9e446-3836-44ff-921d-578372029f43"},"vehicle_type_id":"4","last_reported":1740503453,"current_range_meters":14000,"station_id":"ce4bh5p2rcd13ifvqe4g","pricing_plan_id":"cebpf4jnsgd1na2vs0mg"},{"bike_id":"4a5400e7-730c-42de-9997-b10170412d92","system_id":"levelo_inurba_marseille","lat":43.31751,"lon":5.39022,"is_reserved":false,"is_disabled":false,"rental_uris":{"android":"levelo://app?vid=4a5400e7-730c-42de-9997-b10170412d92","ios":"levelo://app?vid=4a5400e7-730c-42de-9997-b10170412d92"},"vehicle_type_id":"4","last_reported":1740503453,"current_range_meters":14000,"station_id":"ce4bhqp2rcd13ifvqhng","pricing_plan_id":"cebpf4jnsgd1na2vs0mg"},{"bike_id":"ac2f12ef-5081-48c7-bf0c-353e3f89a836","system_id":"levelo_inurba_marseille","lat":43.292,"lon":5.35796,"is_reserved":false,"is_disabled":false,"rental_uris":{"android":"levelo://app?vid=ac2f12ef-5081-48c7-bf0c-353e3f89a836","ios":"levelo://app?vid=ac2f12ef-5081-48c7-bf0c-353e3f89a836"},"vehicle_type_id":"4","last_reported":1740503453,"current_range_meters":13600,"station_id":"ce4bhb12rcd13ifvqel0","pricing_plan_id":"cebpf4jnsgd1na2vs0mg"},{"bike_id":"a590045a-096a-45d0-bfc6-f0226d970dd5","system_id":"levelo_inurba_marseille","lat":43.304054,"lon":5.39716,"is_reserved":false,"is_disabled":false,"rental_uris":{"android":"levelo://app?vid=a590045a-096a-45d0-bfc6-f0226d970dd5","ios":"levelo://app?vid=a590045a-096a-45d0-bfc6-f0226d970dd5"},"vehicle_type_id":"4","last_reported":1740503453,"current_range_meters":14000,"station_id":"ce4bh092rcd13ifvqd20","pricing_plan_id":"cebpf4jnsgd1na2vs0mg"},{"bike_id":"7a7d4477-8e22-4734-a204-b28eaada5129","system_id":"levelo_inurba_marseille","lat":43.30325,"lon":5.40427,"is_reserved":false,"is_disabled":false,"rental_uris":{"android":"levelo://app?vid=7a7d4477-8e22-4734-a204-b28eaada5129","ios":"levelo://app?vid=7a7d4477-8e22-4734-a204-b28eaada5129"},"vehicle_type_id":"4","last_reported":1740503453,"current_range_meters":14400,"station_id":"ce4bh012rcd13ifvqd10","pricing_plan_id":"cebpf4jnsgd1na2vs0mg"},{"bike_id":"ee429b23-47c1-4c92-8a16-39952ea14cdd","system_id":"levelo_inurba_marseille","lat":43.28107,"lon":5.3785,"is_reserved":false,"is_disabled":false,"rental_uris":{"android":"levelo://app?vid=ee429b23-47c1-4c92-8a16-39952ea14cdd","ios":"levelo://app?vid=ee429b23-47c1-4c92-8a16-39952ea14cdd"},"vehicle_type_id":"4","last_reported":1740503453,"current_range_meters":14000,"station_id":"ce4bha12rcd13ifvqee0","pricing_plan_id":"cebpf4jnsgd1na2vs0mg"},{"bike_id":"68d60e9b-f5c8-4396-b132-eef3cd20d5e4","system_id":"levelo_inurba_marseille","lat":43.30134,"lon":5.39865,"is_reserved":false,"is_disabled":false,"rental_uris":{"android":"levelo://app?vid=68d60e9b-f5c8-4396-b132-eef3cd20d5e4","ios":"levelo://app?vid=68d60e9b-f5c8-4396-b132-eef3cd20d5e4"},"vehicle_type_id":"4","last_reported":1740503453,"current_range_meters":13600,"station_id":"ce4bh0h2rcd13ifvqd40","pricing_plan_id":"cebpf4jnsgd1na2vs0mg"},{"bike_id":"b971ff73-6ad0-4bd7-acbb-5959277e122d","system_id":"levelo_inurba_marseille","lat":43.25719,"lon":5.41115,"is_reserved":false,"is_disabled":false,"rental_uris":{"android":"levelo://app?vid=b971ff73-6ad0-4bd7-acbb-5959277e122d","ios":"levelo://app?vid=b971ff73-6ad0-4bd7-acbb-5959277e122d"},"vehicle_type_id":"4","last_reported":1740503453,"current_range_meters":14400,"station_id":"ce4bhkp2rcd13ifvqgd0","pricing_plan_id":"cebpf4jnsgd1na2vs0mg"},{"bike_id":"ebf18b50-37ba-4ef9-8eca-f595f189e384","system_id":"levelo_inurba_marseille","lat":43.28105,"lon":5.37828,"is_reserved":false,"is_disabled":false,"rental_uris":{"android":"levelo://app?vid=ebf18b50-37ba-4ef9-8eca-f595f189e384","ios":"levelo://app?vid=ebf18b50-37ba-4ef9-8eca-f595f189e384"},"vehicle_type_id":"4","last_reported":1740503453,"current_range_meters":14800,"station_id":"ce4bha12rcd13ifvqee0","pricing_plan_id":"cebpf4jnsgd1na2vs0mg"},{"bike_id":"44a737df-aa61-45f7-857c-d7d275870e10","system_id":"levelo_inurba_marseille","lat":43.25504,"lon":5.37644,"is_reserved":false,"is_disabled":false,"rental_uris":{"android":"levelo://app?vid=44a737df-aa61-45f7-857c-d7d275870e10","ios":"levelo://app?vid=44a737df-aa61-45f7-857c-d7d275870e10"},"vehicle_type_id":"4","last_reported":1740503453,"current_range_meters":14400,"station_id":"ce4bhh12rcd13ifvqff0","pricing_plan_id":"cebpf4jnsgd1na2vs0mg"},{"bike_id":"67ee95a1-160f-49c1-b11e-b3640680cd0d","system_id":"levelo_inurba_marseille","lat":43.32094,"lon":5.36811,"is_reserved":false,"is_disabled":false,"rental_uris":{"android":"levelo://app?vid=67ee95a1-160f-49c1-b11e-b3640680cd0d","ios":"levelo://app?vid=67ee95a1-160f-49c1-b11e-b3640680cd0d"},"vehicle_type_id":"4","last_reported":1740503453,"current_range_meters":16000,"station_id":"ce4bhrh2rcd13ifvqhug","pricing_plan_id":"cebpf4jnsgd1na2vs0mg"},{"bike_id":"b6a4cfb9-fdd3-4bf6-9402-2e45d150b5a9","system_id":"levelo_inurba_marseille","lat":43.31758,"lon":5.39012,"is_reserved":false,"is_disabled":false,"rental_uris":{"android":"levelo://app?vid=b6a4cfb9-fdd3-4bf6-9402-2e45d150b5a9","ios":"levelo://app?vid=b6a4cfb9-fdd3-4bf6-9402-2e45d150b5a9"},"vehicle_type_id":"4","last_reported":1740503453,"current_range_meters":15200,"station_id":"ce4bhqp2rcd13ifvqhng","pricing_plan_id":"cebpf4jnsgd1na2vs0mg"},{"bike_id":"bb10e0aa-36aa-4cfe-8c97-0424eff60248","system_id":"levelo_inurba_marseille","lat":43.29979,"lon":5.38475,"is_reserved":false,"is_disabled":false,"rental_uris":{"android":"levelo://app?vid=bb10e0aa-36aa-4cfe-8c97-0424eff60248","ios":"levelo://app?vid=bb10e0aa-36aa-4cfe-8c97-0424eff60248"},"vehicle_type_id":"4","last_reported":1740503453,"current_range_meters":16800,"station_id":"ce4bgj92rcd13ifvqbd0","pricing_plan_id":"cebpf4jnsgd1na2vs0mg"},{"bike_id":"c95a68b9-4edf-40c3-b34a-a20524bfe414","system_id":"levelo_inurba_marseille","lat":43.30792,"lon":5.38145,"is_reserved":false,"is_disabled":false,"rental_uris":{"android":"levelo://app?vid=c95a68b9-4edf-40c3-b34a-a20524bfe414","ios":"levelo://app?vid=c95a68b9-4edf-40c3-b34a-a20524bfe414"},"vehicle_type_id":"4","last_reported":1740503453,"current_range_meters":15200,"station_id":"ce4bgt12rcd13ifvqce0","pricing_plan_id":"cebpf4jnsgd1na2vs0mg"},{"bike_id":"a62405f6-150c-4d22-88a7-307ca169a4a5","system_id":"levelo_inurba_marseille","lat":43.25868,"lon":5.399,"is_reserved":false,"is_disabled":false,"rental_uris":{"android":"levelo://app?vid=a62405f6-150c-4d22-88a7-307ca169a4a5","ios":"levelo://app?vid=a62405f6-150c-4d22-88a7-307ca169a4a5"},"vehicle_type_id":"4","last_reported":1740503453,"current_range_meters":15200,"station_id":"ce4bhl92rcd13ifvqghg","pricing_plan_id":"cebpf4jnsgd1na2vs0mg"},{"bike_id":"40bd775e-5ce3-4948-be2f-acfa8e48e7a0","system_id":"levelo_inurba_marseille","lat":43.28629,"lon":5.35109,"is_reserved":false,"is_disabled":false,"rental_uris":{"android":"levelo://app?vid=40bd775e-5ce3-4948-be2f-acfa8e48e7a0","ios":"levelo://app?vid=40bd775e-5ce3-4948-be2f-acfa8e48e7a0"},"vehicle_type_id":"4","last_reported":1740503453,"current_range_meters":15200,"station_id":"ce4bhch2rcd13ifvqeug","pricing_plan_id":"cebpf4jnsgd1na2vs0mg"},{"bike_id":"7082b425-40e9-4386-b3da-747bafe62d60","system_id":"levelo_inurba_marseille","lat":43.26812,"lon":5.38416,"is_reserved":false,"is_disabled":false,"rental_uris":{"android":"levelo://app?vid=7082b425-40e9-4386-b3da-747bafe62d60","ios":"levelo://app?vid=7082b425-40e9-4386-b3da-747bafe62d60"},"vehicle_type_id":"4","last_reported":1740503453,"current_range_meters":16000,"station_id":"","pricing_plan_id":"cebpf4jnsgd1na2vs0mg"},{"bike_id":"4c68a799-88d6-4114-a3c4-3f4be0ecf58e","system_id":"levelo_inurba_marseille","lat":43.28852,"lon":5.39306,"is_reserved":false,"is_disabled":false,"rental_uris":{"android":"levelo://app?vid=4c68a799-88d6-4114-a3c4-3f4be0ecf58e","ios":"levelo://app?vid=4c68a799-88d6-4114-a3c4-3f4be0ecf58e"},"vehicle_type_id":"4","last_reported":1740503453,"current_range_meters":16400,"station_id":"ce4bh2p2rcd13ifvqdi0","pricing_plan_id":"cebpf4jnsgd1na2vs0mg"},{"bike_id":"549eba66-470c-49fc-9bda-650ecb397aed","system_id":"levelo_inurba_marseille","lat":43.29034,"lon":5.38645,"is_reserved":false,"is_disabled":true,"rental_uris":{"android":"levelo://app?vid=549eba66-470c-49fc-9bda-650ecb397aed","ios":"levelo://app?vid=549eba66-470c-49fc-9bda-650ecb397aed"},"vehicle_type_id":"4","last_reported":1740503453,"current_range_meters":16000,"station_id":"ce4bh4p2rcd13ifvqe0g","pricing_plan_id":"cebpf4jnsgd1na2vs0mg"},{"bike_id":"3682daae-bb94-49eb-a3bf-da7eac31d065","system_id":"levelo_inurba_marseille","lat":43.28967,"lon":5.36397,"is_reserved":false,"is_disabled":false,"rental_uris":{"android":"levelo://app?vid=3682daae-bb94-49eb-a3bf-da7eac31d065","ios":"levelo://app?vid=3682daae-bb94-49eb-a3bf-da7eac31d065"},"vehicle_type_id":"4","last_reported":1740503453,"current_range_meters":14000,"station_id":"ce4bhc92rcd13ifvqetg","pricing_plan_id":"cebpf4jnsgd1na2vs0mg"},{"bike_id":"6ee8d0e3-501b-4374-8454-4afbd5d42a34","system_id":"levelo_inurba_marseille","lat":43.2987,"lon":5.39739,"is_reserved":false,"is_disabled":false,"rental_uris":{"android":"levelo://app?vid=6ee8d0e3-501b-4374-8454-4afbd5d42a34","ios":"levelo://app?vid=6ee8d0e3-501b-4374-8454-4afbd5d42a34"},"vehicle_type_id":"4","last_reported":1740503453,"current_range_meters":16000,"station_id":"ce4bh0h2rcd13ifvqd50","pricing_plan_id":"cebpf4jnsgd1na2vs0mg"},{"bike_id":"5bab9941-c997-48eb-9098-30a30c306e67","system_id":"levelo_inurba_marseille","lat":43.29093,"lon":5.37147,"is_reserved":false,"is_disabled":false,"rental_uris":{"android":"levelo://app?vid=5bab9941-c997-48eb-9098-30a30c306e67","ios":"levelo://app?vid=5bab9941-c997-48eb-9098-30a30c306e67"},"vehicle_type_id":"4","last_reported":1740503453,"current_range_meters":16000,"station_id":"ce4bh5p2rcd13ifvqe4g","pricing_plan_id":"cebpf4jnsgd1na2vs0mg"},{"bike_id":"682523bd-b091-46d7-a9e5-3bf176c2338a","system_id":"levelo_inurba_marseille","lat":43.24171,"lon":5.36399,"is_reserved":false,"is_disabled":false,"rental_uris":{"android":"levelo://app?vid=682523bd-b091-46d7-a9e5-3bf176c2338a","ios":"levelo://app?vid=682523bd-b091-46d7-a9e5-3bf176c2338a"},"vehicle_type_id":"4","last_reported":1740503453,"current_range_meters":16400,"station_id":"cpo36qri1sfpv3e86is0","pricing_plan_id":"cebpf4jnsgd1na2vs0mg"},{"bike_id":"e9c908fa-3548-42b4-b26e-3a651dbd126a","system_id":"levelo_inurba_marseille","lat":43.308,"lon":5.43527,"is_reserved":false,"is_disabled":false,"rental_uris":{"android":"levelo://app?vid=e9c908fa-3548-42b4-b26e-3a651dbd126a","ios":"levelo://app?vid=e9c908fa-3548-42b4-b26e-3a651dbd126a"},"vehicle_type_id":"4","last_reported":1740503453,"current_range_meters":16400,"station_id":"ce4bhph2rcd13ifvqheg","pricing_plan_id":"cebpf4jnsgd1na2vs0mg"},{"bike_id":"56c90c05-21dd-4258-af01-641c62e92e64","system_id":"levelo_inurba_marseille","lat":43.28624,"lon":5.35095,"is_reserved":false,"is_disabled":false,"rental_uris":{"android":"levelo://app?vid=56c90c05-21dd-4258-af01-641c62e92e64","ios":"levelo://app?vid=56c90c05-21dd-4258-af01-641c62e92e64"},"vehicle_type_id":"4","last_reported":1740503453,"current_range_meters":16800,"station_id":"ce4bhch2rcd13ifvqeug","pricing_plan_id":"cebpf4jnsgd1na2vs0mg"},{"bike_id":"c0ed74a2-e2a8-41f0-9b03-a680909f2682","system_id":"levelo_inurba_marseille","lat":43.27941,"lon":5.41041,"is_reserved":false,"is_disabled":false,"rental_uris":{"android":"levelo://app?vid=c0ed74a2-e2a8-41f0-9b03-a680909f2682","ios":"levelo://app?vid=c0ed74a2-e2a8-41f0-9b03-a680909f2682"},"vehicle_type_id":"4","last_reported":1740503453,"current_range_meters":16800,"station_id":"ce4bhnp2rcd13ifvqh0g","pricing_plan_id":"cebpf4jnsgd1na2vs0mg"},{"bike_id":"4db07020-ec65-40a4-9960-cc8743a698f5","system_id":"levelo_inurba_marseille","lat":43.30796,"lon":5.38166,"is_reserved":false,"is_disabled":false,"rental_uris":{"android":"levelo://app?vid=4db07020-ec65-40a4-9960-cc8743a698f5","ios":"levelo://app?vid=4db07020-ec65-40a4-9960-cc8743a698f5"},"vehicle_type_id":"4","last_reported":1740503453,"current_range_meters":16400,"station_id":"ce4bgt12rcd13ifvqce0","pricing_plan_id":"cebpf4jnsgd1na2vs0mg"},{"bike_id":"57fbaf8d-aac2-4e47-90ce-d5325a4212b2","system_id":"levelo_inurba_marseille","lat":43.28154,"lon":5.42645,"is_reserved":false,"is_disabled":false,"rental_uris":{"android":"levelo://app?vid=57fbaf8d-aac2-4e47-90ce-d5325a4212b2","ios":"levelo://app?vid=57fbaf8d-aac2-4e47-90ce-d5325a4212b2"},"vehicle_type_id":"4","last_reported":1740503453,"current_range_meters":16400,"station_id":"ce4bhnh2rcd13ifvqgug","pricing_plan_id":"cebpf4jnsgd1na2vs0mg"},{"bike_id":"9e4238ee-6fc6-4695-ab7c-164fc7442613","system_id":"levelo_inurba_marseille","lat":43.26574,"lon":5.39013,"is_reserved":false,"is_disabled":false,"rental_uris":{"android":"levelo://app?vid=9e4238ee-6fc6-4695-ab7c-164fc7442613","ios":"levelo://app?vid=9e4238ee-6fc6-4695-ab7c-164fc7442613"},"vehicle_type_id":"4","last_reported":1740503453,"current_range_meters":16400,"station_id":"ce4bhe12rcd13ifvqf30","pricing_plan_id":"cebpf4jnsgd1na2vs0mg"},{"bike_id":"3fc1531e-d0e8-4bd4-8cd4-4eb1c127618b","system_id":"levelo_inurba_marseille","lat":43.28157,"lon":5.4264,"is_reserved":false,"is_disabled":false,"rental_uris":{"android":"levelo://app?vid=3fc1531e-d0e8-4bd4-8cd4-4eb1c127618b","ios":"levelo://app?vid=3fc1531e-d0e8-4bd4-8cd4-4eb1c127618b"},"vehicle_type_id":"4","last_reported":1740503453,"current_range_meters":16800,"station_id":"ce4bhnh2rcd13ifvqgug","pricing_plan_id":"cebpf4jnsgd1na2vs0mg"},{"bike_id":"7a7a7696-1966-434e-9570-2e67e0a34394","system_id":"levelo_inurba_marseille","lat":43.28441,"lon":5.3921,"is_reserved":false,"is_disabled":false,"rental_uris":{"android":"levelo://app?vid=7a7a7696-1966-434e-9570-2e67e0a34394","ios":"levelo://app?vid=7a7a7696-1966-434e-9570-2e67e0a34394"},"vehicle_type_id":"4","last_reported":1740503453,"current_range_meters":16800,"station_id":"ce4bhoh2rcd13ifvqh5g","pricing_plan_id":"cebpf4jnsgd1na2vs0mg"},{"bike_id":"2f67c538-3d7a-4dc4-a3e2-2561dfd329cc","system_id":"levelo_inurba_marseille","lat":43.24169,"lon":5.36399,"is_reserved":false,"is_disabled":false,"rental_uris":{"android":"levelo://app?vid=2f67c538-3d7a-4dc4-a3e2-2561dfd329cc","ios":"levelo://app?vid=2f67c538-3d7a-4dc4-a3e2-2561dfd329cc"},"vehicle_type_id":"4","last_reported":1740503453,"current_range_meters":16800,"station_id":"cpo36qri1sfpv3e86is0","pricing_plan_id":"cebpf4jnsgd1na2vs0mg"},{"bike_id":"0b2f5009-1e4e-4593-8abd-b74dc1937c26","system_id":"levelo_inurba_marseille","lat":43.23198,"lon":5.39982,"is_reserved":false,"is_disabled":false,"rental_uris":{"android":"levelo://app?vid=0b2f5009-1e4e-4593-8abd-b74dc1937c26","ios":"levelo://app?vid=0b2f5009-1e4e-4593-8abd-b74dc1937c26"},"vehicle_type_id":"4","last_reported":1740503453,"current_range_meters":16800,"station_id":"ce4bhn12rcd13ifvqgqg","pricing_plan_id":"cebpf4jnsgd1na2vs0mg"},{"bike_id":"a3777f48-c72d-492c-8650-1c4f33da020c","system_id":"levelo_inurba_marseille","lat":43.29885,"lon":5.39719,"is_reserved":false,"is_disabled":false,"rental_uris":{"android":"levelo://app?vid=a3777f48-c72d-492c-8650-1c4f33da020c","ios":"levelo://app?vid=a3777f48-c72d-492c-8650-1c4f33da020c"},"vehicle_type_id":"4","last_reported":1740503453,"current_range_meters":17200,"station_id":"ce4bh0h2rcd13ifvqd50","pricing_plan_id":"cebpf4jnsgd1na2vs0mg"},{"bike_id":"35574852-253b-4bbe-a6e3-ee31965d9ec8","system_id":"levelo_inurba_marseille","lat":43.32364,"lon":5.38886,"is_reserved":false,"is_disabled":false,"rental_uris":{"android":"levelo://app?vid=35574852-253b-4bbe-a6e3-ee31965d9ec8","ios":"levelo://app?vid=35574852-253b-4bbe-a6e3-ee31965d9ec8"},"vehicle_type_id":"4","last_reported":1740503453,"current_range_meters":16400,"station_id":"ce4bhqp2rcd13ifvqhog","pricing_plan_id":"cebpf4jnsgd1na2vs0mg"},{"bike_id":"a8961a16-4d9d-4026-81b4-70f1059f57c6","system_id":"levelo_inurba_marseille","lat":43.24168,"lon":5.36393,"is_reserved":false,"is_disabled":false,"rental_uris":{"android":"levelo://app?vid=a8961a16-4d9d-4026-81b4-70f1059f57c6","ios":"levelo://app?vid=a8961a16-4d9d-4026-81b4-70f1059f57c6"},"vehicle_type_id":"4","last_reported":1740503453,"current_range_meters":17200,"station_id":"cpo36qri1sfpv3e86is0","pricing_plan_id":"cebpf4jnsgd1na2vs0mg"},{"bike_id":"4dce04d0-42a9-4511-9c8f-e7d79084b978","system_id":"levelo_inurba_marseille","lat":43.30725,"lon":5.36776,"is_reserved":false,"is_disabled":false,"rental_uris":{"android":"levelo://app?vid=4dce04d0-42a9-4511-9c8f-e7d79084b978","ios":"levelo://app?vid=4dce04d0-42a9-4511-9c8f-e7d79084b978"},"vehicle_type_id":"4","last_reported":1740503453,"current_range_meters":17200,"station_id":"","pricing_plan_id":"cebpf4jnsgd1na2vs0mg"},{"bike_id":"7c4112af-4220-42f6-98e8-9f0ad4c08842","system_id":"levelo_inurba_marseille","lat":43.28405,"lon":5.37513,"is_reserved":false,"is_disabled":false,"rental_uris":{"android":"levelo://app?vid=7c4112af-4220-42f6-98e8-9f0ad4c08842","ios":"levelo://app?vid=7c4112af-4220-42f6-98e8-9f0ad4c08842"},"vehicle_type_id":"4","last_reported":1740503453,"current_range_meters":17200,"station_id":"ce4bh412rcd13ifvqds0","pricing_plan_id":"cebpf4jnsgd1na2vs0mg"},{"bike_id":"910d85c7-04e3-4748-a355-9235d973a20c","system_id":"levelo_inurba_marseille","lat":43.26568,"lon":5.39009,"is_reserved":false,"is_disabled":false,"rental_uris":{"android":"levelo://app?vid=910d85c7-04e3-4748-a355-9235d973a20c","ios":"levelo://app?vid=910d85c7-04e3-4748-a355-9235d973a20c"},"vehicle_type_id":"4","last_reported":1740503453,"current_range_meters":17200,"station_id":"ce4bhe12rcd13ifvqf30","pricing_plan_id":"cebpf4jnsgd1na2vs0mg"},{"bike_id":"413a2602-264e-43a4-98cf-ba5861b15c41","system_id":"levelo_inurba_marseille","lat":43.28142,"lon":5.42629,"is_reserved":false,"is_disabled":false,"rental_uris":{"android":"levelo://app?vid=413a2602-264e-43a4-98cf-ba5861b15c41","ios":"levelo://app?vid=413a2602-264e-43a4-98cf-ba5861b15c41"},"vehicle_type_id":"4","last_reported":1740503453,"current_range_meters":17200,"station_id":"ce4bhnh2rcd13ifvqgug","pricing_plan_id":"cebpf4jnsgd1na2vs0mg"},{"bike_id":"0d09d9d7-90c0-473b-83d7-5343e851a66b","system_id":"levelo_inurba_marseille","lat":43.24387,"lon":5.37061,"is_reserved":false,"is_disabled":false,"rental_uris":{"android":"levelo://app?vid=0d09d9d7-90c0-473b-83d7-5343e851a66b","ios":"levelo://app?vid=0d09d9d7-90c0-473b-83d7-5343e851a66b"},"vehicle_type_id":"4","last_reported":1740503453,"current_range_meters":17600,"station_id":"ce4bhhh2rcd13ifvqfk0","pricing_plan_id":"cebpf4jnsgd1na2vs0mg"},{"bike_id":"c503eed2-e48e-4276-87ce-dbe1cd6eaf81","system_id":"levelo_inurba_marseille","lat":43.25047,"lon":5.3958,"is_reserved":false,"is_disabled":false,"rental_uris":{"android":"levelo://app?vid=c503eed2-e48e-4276-87ce-dbe1cd6eaf81","ios":"levelo://app?vid=c503eed2-e48e-4276-87ce-dbe1cd6eaf81"},"vehicle_type_id":"4","last_reported":1740503453,"current_range_meters":17200,"station_id":"ce4bhm12rcd13ifvqgkg","pricing_plan_id":"cebpf4jnsgd1na2vs0mg"},{"bike_id":"5493f5dc-6f25-4265-a03f-15de0ed520c6","system_id":"levelo_inurba_marseille","lat":43.28656,"lon":5.36353,"is_reserved":false,"is_disabled":false,"rental_uris":{"android":"levelo://app?vid=5493f5dc-6f25-4265-a03f-15de0ed520c6","ios":"levelo://app?vid=5493f5dc-6f25-4265-a03f-15de0ed520c6"},"vehicle_type_id":"4","last_reported":1740503453,"current_range_meters":18000,"station_id":"ce4bhah2rcd13ifvqej0","pricing_plan_id":"cebpf4jnsgd1na2vs0mg"},{"bike_id":"e243d213-ed43-4e21-80e0-52a63e903cce","system_id":"levelo_inurba_marseille","lat":43.29909,"lon":5.36535,"is_reserved":false,"is_disabled":false,"rental_uris":{"android":"levelo://app?vid=e243d213-ed43-4e21-80e0-52a63e903cce","ios":"levelo://app?vid=e243d213-ed43-4e21-80e0-52a63e903cce"},"vehicle_type_id":"4","last_reported":1740503453,"current_range_meters":17600,"station_id":"ce4bgm92rcd13ifvqbr0","pricing_plan_id":"cebpf4jnsgd1na2vs0mg"},{"bike_id":"17105fc2-aba6-4b3d-bf13-db1a8adb8599","system_id":"levelo_inurba_marseille","lat":43.29559,"lon":5.42293,"is_reserved":false,"is_disabled":false,"rental_uris":{"android":"levelo://app?vid=17105fc2-aba6-4b3d-bf13-db1a8adb8599","ios":"levelo://app?vid=17105fc2-aba6-4b3d-bf13-db1a8adb8599"},"vehicle_type_id":"4","last_reported":1740503453,"current_range_meters":17600,"station_id":"ce4bhph2rcd13ifvqhdg","pricing_plan_id":"cebpf4jnsgd1na2vs0mg"},{"bike_id":"0c45db8a-f07f-468d-a6ef-c08290b1a757","system_id":"levelo_inurba_marseille","lat":43.29752,"lon":5.37672,"is_reserved":false,"is_disabled":false,"rental_uris":{"android":"levelo://app?vid=0c45db8a-f07f-468d-a6ef-c08290b1a757","ios":"levelo://app?vid=0c45db8a-f07f-468d-a6ef-c08290b1a757"},"vehicle_type_id":"4","last_reported":1740503453,"current_range_meters":17600,"station_id":"","pricing_plan_id":"cebpf4jnsgd1na2vs0mg"},{"bike_id":"b426a55b-6079-4410-bdcf-64a0360c349f","system_id":"levelo_inurba_marseille","lat":43.28416,"lon":5.349873,"is_reserved":false,"is_disabled":false,"rental_uris":{"android":"levelo://app?vid=b426a55b-6079-4410-bdcf-64a0360c349f","ios":"levelo://app?vid=b426a55b-6079-4410-bdcf-64a0360c349f"},"vehicle_type_id":"4","last_reported":1740503453,"current_range_meters":17600,"station_id":"ce4bhbh2rcd13ifvqepg","pricing_plan_id":"cebpf4jnsgd1na2vs0mg"},{"bike_id":"277f29a3-1a6f-4863-b65f-1d55f84bc609","system_id":"levelo_inurba_marseille","lat":43.29198,"lon":5.35801,"is_reserved":false,"is_disabled":false,"rental_uris":{"android":"levelo://app?vid=277f29a3-1a6f-4863-b65f-1d55f84bc609","ios":"levelo://app?vid=277f29a3-1a6f-4863-b65f-1d55f84bc609"},"vehicle_type_id":"4","last_reported":1740503453,"current_range_meters":17200,"station_id":"ce4bhb12rcd13ifvqel0","pricing_plan_id":"cebpf4jnsgd1na2vs0mg"},{"bike_id":"25c5ad0f-17d5-4992-a2f2-88e61a5c277e","system_id":"levelo_inurba_marseille","lat":43.26199,"lon":5.37448,"is_reserved":false,"is_disabled":false,"rental_uris":{"android":"levelo://app?vid=25c5ad0f-17d5-4992-a2f2-88e61a5c277e","ios":"levelo://app?vid=25c5ad0f-17d5-4992-a2f2-88e61a5c277e"},"vehicle_type_id":"4","last_reported":1740503453,"current_range_meters":17600,"station_id":"ce4bhgp2rcd13ifvqfc0","pricing_plan_id":"cebpf4jnsgd1na2vs0mg"},{"bike_id":"6881e1ec-c741-46c5-b834-879d3a90edcf","system_id":"levelo_inurba_marseille","lat":43.27827,"lon":5.39208,"is_reserved":false,"is_disabled":false,"rental_uris":{"android":"levelo://app?vid=6881e1ec-c741-46c5-b834-879d3a90edcf","ios":"levelo://app?vid=6881e1ec-c741-46c5-b834-879d3a90edcf"},"vehicle_type_id":"4","last_reported":1740503453,"current_range_meters":17600,"station_id":"ce4bhjp2rcd13ifvqga0","pricing_plan_id":"cebpf4jnsgd1na2vs0mg"},{"bike_id":"c3d0fefa-5db4-49bd-a964-1a22da440d36","system_id":"levelo_inurba_marseille","lat":43.269559,"lon":5.386313,"is_reserved":false,"is_disabled":true,"rental_uris":{"android":"levelo://app?vid=c3d0fefa-5db4-49bd-a964-1a22da440d36","ios":"levelo://app?vid=c3d0fefa-5db4-49bd-a964-1a22da440d36"},"vehicle_type_id":"4","last_reported":1740503453,"current_range_meters":17600,"station_id":"","pricing_plan_id":"cebpf4jnsgd1na2vs0mg"},{"bike_id":"7574ca7a-5a6f-4543-8570-4fe37be8344e","system_id":"levelo_inurba_marseille","lat":43.28148,"lon":5.42634,"is_reserved":false,"is_disabled":false,"rental_uris":{"android":"levelo://app?vid=7574ca7a-5a6f-4543-8570-4fe37be8344e","ios":"levelo://app?vid=7574ca7a-5a6f-4543-8570-4fe37be8344e"},"vehicle_type_id":"4","last_reported":1740503453,"current_range_meters":17200,"station_id":"ce4bhnh2rcd13ifvqgug","pricing_plan_id":"cebpf4jnsgd1na2vs0mg"},{"bike_id":"10c19f60-8ea6-47fb-a739-6f1ea41d8bef","system_id":"levelo_inurba_marseille","lat":43.30139,"lon":5.38781,"is_reserved":false,"is_disabled":false,"rental_uris":{"android":"levelo://app?vid=10c19f60-8ea6-47fb-a739-6f1ea41d8bef","ios":"levelo://app?vid=10c19f60-8ea6-47fb-a739-6f1ea41d8bef"},"vehicle_type_id":"4","last_reported":1740503453,"current_range_meters":16800,"station_id":"ce4bghh2rcd13ifvqb60","pricing_plan_id":"cebpf4jnsgd1na2vs0mg"},{"bike_id":"e2db9213-b94d-4d36-9041-99db8ba27d60","system_id":"levelo_inurba_marseille","lat":43.2989,"lon":5.43666,"is_reserved":false,"is_disabled":false,"rental_uris":{"android":"levelo://app?vid=e2db9213-b94d-4d36-9041-99db8ba27d60","ios":"levelo://app?vid=e2db9213-b94d-4d36-9041-99db8ba27d60"},"vehicle_type_id":"4","last_reported":1740503453,"current_range_meters":18000,"station_id":"ce4bhpp2rcd13ifvqhfg","pricing_plan_id":"cebpf4jnsgd1na2vs0mg"},{"bike_id":"c333214c-e858-4d83-ae11-52fad9cac016","system_id":"levelo_inurba_marseille","lat":43.31761,"lon":5.39044,"is_reserved":false,"is_disabled":false,"rental_uris":{"android":"levelo://app?vid=c333214c-e858-4d83-ae11-52fad9cac016","ios":"levelo://app?vid=c333214c-e858-4d83-ae11-52fad9cac016"},"vehicle_type_id":"4","last_reported":1740503453,"current_range_meters":18000,"station_id":"ce4bhqp2rcd13ifvqhng","pricing_plan_id":"cebpf4jnsgd1na2vs0mg"},{"bike_id":"25411262-23d1-41bb-a382-a545d4af1ec3","system_id":"levelo_inurba_marseille","lat":43.25111,"lon":5.40322,"is_reserved":false,"is_disabled":false,"rental_uris":{"android":"levelo://app?vid=25411262-23d1-41bb-a382-a545d4af1ec3","ios":"levelo://app?vid=25411262-23d1-41bb-a382-a545d4af1ec3"},"vehicle_type_id":"4","last_reported":1740503453,"current_range_meters":18000,"station_id":"ce4bhlh2rcd13ifvqgig","pricing_plan_id":"cebpf4jnsgd1na2vs0mg"},{"bike_id":"bb5af6cb-09bf-4842-9512-f13a6805c994","system_id":"levelo_inurba_marseille","lat":43.30246,"lon":5.40048,"is_reserved":false,"is_disabled":false,"rental_uris":{"android":"levelo://app?vid=bb5af6cb-09bf-4842-9512-f13a6805c994","ios":"levelo://app?vid=bb5af6cb-09bf-4842-9512-f13a6805c994"},"vehicle_type_id":"4","last_reported":1740503453,"current_range_meters":18000,"station_id":"ce4bgvh2rcd13ifvqcs0","pricing_plan_id":"cebpf4jnsgd1na2vs0mg"},{"bike_id":"1a856f10-c5bc-4b12-a5aa-06d011bd52a2","system_id":"levelo_inurba_marseille","lat":43.27817,"lon":5.40713,"is_reserved":false,"is_disabled":false,"rental_uris":{"android":"levelo://app?vid=1a856f10-c5bc-4b12-a5aa-06d011bd52a2","ios":"levelo://app?vid=1a856f10-c5bc-4b12-a5aa-06d011bd52a2"},"vehicle_type_id":"4","last_reported":1740503453,"current_range_meters":18000,"station_id":"ce4bhnh2rcd13ifvqgtg","pricing_plan_id":"cebpf4jnsgd1na2vs0mg"},{"bike_id":"21411a02-218f-4467-8185-bf7e3b011d8d","system_id":"levelo_inurba_marseille","lat":43.24543,"lon":5.3953,"is_reserved":false,"is_disabled":false,"rental_uris":{"android":"levelo://app?vid=21411a02-218f-4467-8185-bf7e3b011d8d","ios":"levelo://app?vid=21411a02-218f-4467-8185-bf7e3b011d8d"},"vehicle_type_id":"4","last_reported":1740503453,"current_range_meters":18000,"station_id":"ce4bhlp2rcd13ifvqgjg","pricing_plan_id":"cebpf4jnsgd1na2vs0mg"},{"bike_id":"de955577-0b75-41db-9f89-6eb4d24a9a3f","system_id":"levelo_inurba_marseille","lat":43.28078,"lon":5.39663,"is_reserved":false,"is_disabled":false,"rental_uris":{"android":"levelo://app?vid=de955577-0b75-41db-9f89-6eb4d24a9a3f","ios":"levelo://app?vid=de955577-0b75-41db-9f89-6eb4d24a9a3f"},"vehicle_type_id":"4","last_reported":1740503453,"current_range_meters":17600,"station_id":"ce4bho12rcd13ifvqh2g","pricing_plan_id":"cebpf4jnsgd1na2vs0mg"},{"bike_id":"9593e7db-e8e3-4292-9541-cfd77cfa4c67","system_id":"levelo_inurba_marseille","lat":43.27811,"lon":5.40718,"is_reserved":false,"is_disabled":false,"rental_uris":{"android":"levelo://app?vid=9593e7db-e8e3-4292-9541-cfd77cfa4c67","ios":"levelo://app?vid=9593e7db-e8e3-4292-9541-cfd77cfa4c67"},"vehicle_type_id":"4","last_reported":1740503453,"current_range_meters":17200,"station_id":"ce4bhnh2rcd13ifvqgtg","pricing_plan_id":"cebpf4jnsgd1na2vs0mg"},{"bike_id":"dce4cd16-a38b-4482-90f0-0bdf1cba367a","system_id":"levelo_inurba_marseille","lat":43.28723,"lon":5.36076,"is_reserved":false,"is_disabled":false,"rental_uris":{"android":"levelo://app?vid=dce4cd16-a38b-4482-90f0-0bdf1cba367a","ios":"levelo://app?vid=dce4cd16-a38b-4482-90f0-0bdf1cba367a"},"vehicle_type_id":"4","last_reported":1740503453,"current_range_meters":18000,"station_id":"cki0cbj6b192h4jlfktg","pricing_plan_id":"cebpf4jnsgd1na2vs0mg"},{"bike_id":"b68c4a8d-14d8-4987-9dce-59319ae96c78","system_id":"levelo_inurba_marseille","lat":43.29858,"lon":5.38534,"is_reserved":false,"is_disabled":false,"rental_uris":{"android":"levelo://app?vid=b68c4a8d-14d8-4987-9dce-59319ae96c78","ios":"levelo://app?vid=b68c4a8d-14d8-4987-9dce-59319ae96c78"},"vehicle_type_id":"4","last_reported":1740503453,"current_range_meters":18000,"station_id":"","pricing_plan_id":"cebpf4jnsgd1na2vs0mg"},{"bike_id":"b7d3c0bb-7d03-4d09-a6c9-12107485a8da","system_id":"levelo_inurba_marseille","lat":43.31977,"lon":5.38177,"is_reserved":false,"is_disabled":false,"rental_uris":{"android":"levelo://app?vid=b7d3c0bb-7d03-4d09-a6c9-12107485a8da","ios":"levelo://app?vid=b7d3c0bb-7d03-4d09-a6c9-12107485a8da"},"vehicle_type_id":"4","last_reported":1740503453,"current_range_meters":18000,"station_id":"ce4bhr12rcd13ifvqhpg","pricing_plan_id":"cebpf4jnsgd1na2vs0mg"},{"bike_id":"ad9571bc-5194-4f71-90ef-f1cb0835f36e","system_id":"levelo_inurba_marseille","lat":43.25488,"lon":5.37651,"is_reserved":false,"is_disabled":true,"rental_uris":{"android":"levelo://app?vid=ad9571bc-5194-4f71-90ef-f1cb0835f36e","ios":"levelo://app?vid=ad9571bc-5194-4f71-90ef-f1cb0835f36e"},"vehicle_type_id":"4","last_reported":1740503453,"current_range_meters":18000,"station_id":"ce4bhh12rcd13ifvqff0","pricing_plan_id":"cebpf4jnsgd1na2vs0mg"},{"bike_id":"6ef9096d-c39f-4123-832a-a63383e0613f","system_id":"levelo_inurba_marseille","lat":43.25088,"lon":5.39524,"is_reserved":false,"is_disabled":false,"rental_uris":{"android":"levelo://app?vid=6ef9096d-c39f-4123-832a-a63383e0613f","ios":"levelo://app?vid=6ef9096d-c39f-4123-832a-a63383e0613f"},"vehicle_type_id":"4","last_reported":1740503453,"current_range_meters":18000,"station_id":"ce4bhm12rcd13ifvqgkg","pricing_plan_id":"cebpf4jnsgd1na2vs0mg"},{"bike_id":"e4b61e67-5c22-4221-873e-01cee989859c","system_id":"levelo_inurba_marseille","lat":43.29899,"lon":5.43671,"is_reserved":false,"is_disabled":false,"rental_uris":{"android":"levelo://app?vid=e4b61e67-5c22-4221-873e-01cee989859c","ios":"levelo://app?vid=e4b61e67-5c22-4221-873e-01cee989859c"},"vehicle_type_id":"4","last_reported":1740503453,"current_range_meters":18000,"station_id":"ce4bhpp2rcd13ifvqhfg","pricing_plan_id":"cebpf4jnsgd1na2vs0mg"},{"bike_id":"1ca5b1d5-5a53-46dd-b1b2-e83fd71df428","system_id":"levelo_inurba_marseille","lat":43.27941,"lon":5.41035,"is_reserved":false,"is_disabled":false,"rental_uris":{"android":"levelo://app?vid=1ca5b1d5-5a53-46dd-b1b2-e83fd71df428","ios":"levelo://app?vid=1ca5b1d5-5a53-46dd-b1b2-e83fd71df428"},"vehicle_type_id":"4","last_reported":1740503453,"current_range_meters":18800,"station_id":"ce4bhnp2rcd13ifvqh0g","pricing_plan_id":"cebpf4jnsgd1na2vs0mg"},{"bike_id":"31dd4fdf-7c5c-4dd5-9f17-6b16ccf1528b","system_id":"levelo_inurba_marseille","lat":43.254899,"lon":5.401337,"is_reserved":false,"is_disabled":false,"rental_uris":{"android":"levelo://app?vid=31dd4fdf-7c5c-4dd5-9f17-6b16ccf1528b","ios":"levelo://app?vid=31dd4fdf-7c5c-4dd5-9f17-6b16ccf1528b"},"vehicle_type_id":"4","last_reported":1740503453,"current_range_meters":17600,"station_id":"ce4bhg12rcd13ifvqf60","pricing_plan_id":"cebpf4jnsgd1na2vs0mg"},{"bike_id":"3d04636c-a7c0-4d58-96cd-a82c095788e3","system_id":"levelo_inurba_marseille","lat":43.272083,"lon":5.391909,"is_reserved":false,"is_disabled":false,"rental_uris":{"android":"levelo://app?vid=3d04636c-a7c0-4d58-96cd-a82c095788e3","ios":"levelo://app?vid=3d04636c-a7c0-4d58-96cd-a82c095788e3"},"vehicle_type_id":"4","last_reported":1740503453,"current_range_meters":18000,"station_id":"ce4bhjp2rcd13ifvqg90","pricing_plan_id":"cebpf4jnsgd1na2vs0mg"},{"bike_id":"26784f1d-016d-42b9-9af0-c70c87c47092","system_id":"levelo_inurba_marseille","lat":43.3154,"lon":5.38017,"is_reserved":false,"is_disabled":false,"rental_uris":{"android":"levelo://app?vid=26784f1d-016d-42b9-9af0-c70c87c47092","ios":"levelo://app?vid=26784f1d-016d-42b9-9af0-c70c87c47092"},"vehicle_type_id":"4","last_reported":1740503453,"current_range_meters":19600,"station_id":"ce4bhsp2rcd13ifvqi50","pricing_plan_id":"cebpf4jnsgd1na2vs0mg"},{"bike_id":"8f106494-405e-4fab-8ea5-bf12740f9e29","system_id":"levelo_inurba_marseille","lat":43.301025,"lon":5.397517,"is_reserved":false,"is_disabled":false,"rental_uris":{"android":"levelo://app?vid=8f106494-405e-4fab-8ea5-bf12740f9e29","ios":"levelo://app?vid=8f106494-405e-4fab-8ea5-bf12740f9e29"},"vehicle_type_id":"4","last_reported":1740503453,"current_range_meters":18800,"station_id":"ce4bh0h2rcd13ifvqd50","pricing_plan_id":"cebpf4jnsgd1na2vs0mg"},{"bike_id":"d22dc0c0-1bfe-4bf5-90e1-538c8b2c5e57","system_id":"levelo_inurba_marseille","lat":43.27946,"lon":5.41043,"is_reserved":false,"is_disabled":false,"rental_uris":{"android":"levelo://app?vid=d22dc0c0-1bfe-4bf5-90e1-538c8b2c5e57","ios":"levelo://app?vid=d22dc0c0-1bfe-4bf5-90e1-538c8b2c5e57"},"vehicle_type_id":"4","last_reported":1740503453,"current_range_meters":18800,"station_id":"ce4bhnp2rcd13ifvqh0g","pricing_plan_id":"cebpf4jnsgd1na2vs0mg"},{"bike_id":"144385fa-a52f-4b48-be3e-a14d57ca4e42","system_id":"levelo_inurba_marseille","lat":43.28267,"lon":5.35062,"is_reserved":false,"is_disabled":false,"rental_uris":{"android":"levelo://app?vid=144385fa-a52f-4b48-be3e-a14d57ca4e42","ios":"levelo://app?vid=144385fa-a52f-4b48-be3e-a14d57ca4e42"},"vehicle_type_id":"4","last_reported":1740503453,"current_range_meters":18800,"station_id":"ce4bhbp2rcd13ifvqerg","pricing_plan_id":"cebpf4jnsgd1na2vs0mg"},{"bike_id":"7d0b43ea-b27e-47b4-acb5-9da26a272923","system_id":"levelo_inurba_marseille","lat":43.28011,"lon":5.36952,"is_reserved":false,"is_disabled":false,"rental_uris":{"android":"levelo://app?vid=7d0b43ea-b27e-47b4-acb5-9da26a272923","ios":"levelo://app?vid=7d0b43ea-b27e-47b4-acb5-9da26a272923"},"vehicle_type_id":"4","last_reported":1740503453,"current_range_meters":18800,"station_id":"ce4bha12rcd13ifvqef0","pricing_plan_id":"cebpf4jnsgd1na2vs0mg"},{"bike_id":"7ec77478-bbf0-49a0-8f8b-7a88cd17c2f7","system_id":"levelo_inurba_marseille","lat":43.30645,"lon":5.401,"is_reserved":false,"is_disabled":false,"rental_uris":{"android":"levelo://app?vid=7ec77478-bbf0-49a0-8f8b-7a88cd17c2f7","ios":"levelo://app?vid=7ec77478-bbf0-49a0-8f8b-7a88cd17c2f7"},"vehicle_type_id":"4","last_reported":1740503453,"current_range_meters":18800,"station_id":"ce4bh112rcd13ifvqda0","pricing_plan_id":"cebpf4jnsgd1na2vs0mg"},{"bike_id":"ba19121b-7bbd-44cf-95aa-125677b38a66","system_id":"levelo_inurba_marseille","lat":43.28951,"lon":5.3639,"is_reserved":false,"is_disabled":false,"rental_uris":{"android":"levelo://app?vid=ba19121b-7bbd-44cf-95aa-125677b38a66","ios":"levelo://app?vid=ba19121b-7bbd-44cf-95aa-125677b38a66"},"vehicle_type_id":"4","last_reported":1740503453,"current_range_meters":18800,"station_id":"ce4bhc92rcd13ifvqetg","pricing_plan_id":"cebpf4jnsgd1na2vs0mg"},{"bike_id":"66a2c1c1-36a2-4357-b771-5f667b2d9207","system_id":"levelo_inurba_marseille","lat":43.29794,"lon":5.381,"is_reserved":false,"is_disabled":false,"rental_uris":{"android":"levelo://app?vid=66a2c1c1-36a2-4357-b771-5f667b2d9207","ios":"levelo://app?vid=66a2c1c1-36a2-4357-b771-5f667b2d9207"},"vehicle_type_id":"4","last_reported":1740503453,"current_range_meters":19200,"station_id":"ce4bgip2rcd13ifvqbb0","pricing_plan_id":"cebpf4jnsgd1na2vs0mg"},{"bike_id":"b9d06ab8-9594-4fe7-8084-7efb3543e64f","system_id":"levelo_inurba_marseille","lat":43.27619,"lon":5.36106,"is_reserved":false,"is_disabled":false,"rental_uris":{"android":"levelo://app?vid=b9d06ab8-9594-4fe7-8084-7efb3543e64f","ios":"levelo://app?vid=b9d06ab8-9594-4fe7-8084-7efb3543e64f"},"vehicle_type_id":"4","last_reported":1740503453,"current_range_meters":19200,"station_id":"ce4bgj92rcd13ifvqbe0","pricing_plan_id":"cebpf4jnsgd1na2vs0mg"},{"bike_id":"1df32ffb-b6d0-42f0-8856-8dbb268b7110","system_id":"levelo_inurba_marseille","lat":43.3171,"lon":5.4374,"is_reserved":false,"is_disabled":false,"rental_uris":{"android":"levelo://app?vid=1df32ffb-b6d0-42f0-8856-8dbb268b7110","ios":"levelo://app?vid=1df32ffb-b6d0-42f0-8856-8dbb268b7110"},"vehicle_type_id":"4","last_reported":1740503453,"current_range_meters":19200,"station_id":"ce4bhp92rcd13ifvqhcg","pricing_plan_id":"cebpf4jnsgd1na2vs0mg"},{"bike_id":"7023ce13-e79b-4be2-9524-c0e726ff7df5","system_id":"levelo_inurba_marseille","lat":43.284813,"lon":5.384157,"is_reserved":false,"is_disabled":false,"rental_uris":{"android":"levelo://app?vid=7023ce13-e79b-4be2-9524-c0e726ff7df5","ios":"levelo://app?vid=7023ce13-e79b-4be2-9524-c0e726ff7df5"},"vehicle_type_id":"4","last_reported":1740503453,"current_range_meters":18800,"station_id":"ce4bgkh2rcd13ifvqbl0","pricing_plan_id":"cebpf4jnsgd1na2vs0mg"},{"bike_id":"7ef7ae66-858f-4a84-9bca-829c0d1cd141","system_id":"levelo_inurba_marseille","lat":43.30145,"lon":5.38077,"is_reserved":false,"is_disabled":false,"rental_uris":{"android":"levelo://app?vid=7ef7ae66-858f-4a84-9bca-829c0d1cd141","ios":"levelo://app?vid=7ef7ae66-858f-4a84-9bca-829c0d1cd141"},"vehicle_type_id":"4","last_reported":1740503453,"current_range_meters":19200,"station_id":"ce4bgjp2rcd13ifvqbh0","pricing_plan_id":"cebpf4jnsgd1na2vs0mg"},{"bike_id":"9dea161f-d9cd-4ebb-97b5-4fa3c4fe4d8e","system_id":"levelo_inurba_marseille","lat":43.29538,"lon":5.38537,"is_reserved":false,"is_disabled":false,"rental_uris":{"android":"levelo://app?vid=9dea161f-d9cd-4ebb-97b5-4fa3c4fe4d8e","ios":"levelo://app?vid=9dea161f-d9cd-4ebb-97b5-4fa3c4fe4d8e"},"vehicle_type_id":"4","last_reported":1740503453,"current_range_meters":12800,"station_id":"ce4bgih2rcd13ifvqba0","pricing_plan_id":"cebpf4jnsgd1na2vs0mg"},{"bike_id":"7e69074b-49d3-4e20-b975-6e6793bfa8ba","system_id":"levelo_inurba_marseille","lat":43.28469,"lon":5.35899,"is_reserved":false,"is_disabled":false,"rental_uris":{"android":"levelo://app?vid=7e69074b-49d3-4e20-b975-6e6793bfa8ba","ios":"levelo://app?vid=7e69074b-49d3-4e20-b975-6e6793bfa8ba"},"vehicle_type_id":"4","last_reported":1740503453,"current_range_meters":19200,"station_id":"ce4bhah2rcd13ifvqei0","pricing_plan_id":"cebpf4jnsgd1na2vs0mg"},{"bike_id":"5ac334a5-82a8-4afc-96ed-687a37ef57ef","system_id":"levelo_inurba_marseille","lat":43.29038,"lon":5.37566,"is_reserved":false,"is_disabled":false,"rental_uris":{"android":"levelo://app?vid=5ac334a5-82a8-4afc-96ed-687a37ef57ef","ios":"levelo://app?vid=5ac334a5-82a8-4afc-96ed-687a37ef57ef"},"vehicle_type_id":"4","last_reported":1740503453,"current_range_meters":20000,"station_id":"ce4bh692rcd13ifvqe90","pricing_plan_id":"cebpf4jnsgd1na2vs0mg"},{"bike_id":"f6a32ffb-07e9-48f9-a8ae-78cacbc99092","system_id":"levelo_inurba_marseille","lat":43.23151,"lon":5.43716,"is_reserved":false,"is_disabled":false,"rental_uris":{"android":"levelo://app?vid=f6a32ffb-07e9-48f9-a8ae-78cacbc99092","ios":"levelo://app?vid=f6a32ffb-07e9-48f9-a8ae-78cacbc99092"},"vehicle_type_id":"4","last_reported":1740503453,"current_range_meters":19600,"station_id":"ce4bhmp2rcd13ifvqgog","pricing_plan_id":"cebpf4jnsgd1na2vs0mg"},{"bike_id":"3fefd632-ceb6-4e6f-ac3b-6af1be92e2b5","system_id":"levelo_inurba_marseille","lat":43.2318,"lon":5.39992,"is_reserved":false,"is_disabled":false,"rental_uris":{"android":"levelo://app?vid=3fefd632-ceb6-4e6f-ac3b-6af1be92e2b5","ios":"levelo://app?vid=3fefd632-ceb6-4e6f-ac3b-6af1be92e2b5"},"vehicle_type_id":"4","last_reported":1740503453,"current_range_meters":19200,"station_id":"ce4bhn12rcd13ifvqgqg","pricing_plan_id":"cebpf4jnsgd1na2vs0mg"},{"bike_id":"658e10dc-9ec8-4c82-a86c-f0d37535b96d","system_id":"levelo_inurba_marseille","lat":43.23193,"lon":5.39973,"is_reserved":false,"is_disabled":false,"rental_uris":{"android":"levelo://app?vid=658e10dc-9ec8-4c82-a86c-f0d37535b96d","ios":"levelo://app?vid=658e10dc-9ec8-4c82-a86c-f0d37535b96d"},"vehicle_type_id":"4","last_reported":1740503453,"current_range_meters":19600,"station_id":"ce4bhn12rcd13ifvqgqg","pricing_plan_id":"cebpf4jnsgd1na2vs0mg"},{"bike_id":"3750fff6-da62-4849-92ae-6637debb53b7","system_id":"levelo_inurba_marseille","lat":43.30589,"lon":5.39359,"is_reserved":false,"is_disabled":false,"rental_uris":{"android":"levelo://app?vid=3750fff6-da62-4849-92ae-6637debb53b7","ios":"levelo://app?vid=3750fff6-da62-4849-92ae-6637debb53b7"},"vehicle_type_id":"4","last_reported":1740503453,"current_range_meters":19600,"station_id":"ce4bh0p2rcd13ifvqd80","pricing_plan_id":"cebpf4jnsgd1na2vs0mg"},{"bike_id":"1250c4cc-7c5a-4e6c-af50-f0e92b3b6698","system_id":"levelo_inurba_marseille","lat":43.273837,"lon":5.393597,"is_reserved":false,"is_disabled":false,"rental_uris":{"android":"levelo://app?vid=1250c4cc-7c5a-4e6c-af50-f0e92b3b6698","ios":"levelo://app?vid=1250c4cc-7c5a-4e6c-af50-f0e92b3b6698"},"vehicle_type_id":"4","last_reported":1740503453,"current_range_meters":19600,"station_id":"ce4bhdp2rcd13ifvqf20","pricing_plan_id":"cebpf4jnsgd1na2vs0mg"},{"bike_id":"1015abbd-7082-4ba1-86ea-5a0ad2804113","system_id":"levelo_inurba_marseille","lat":43.299,"lon":5.43663,"is_reserved":false,"is_disabled":false,"rental_uris":{"android":"levelo://app?vid=1015abbd-7082-4ba1-86ea-5a0ad2804113","ios":"levelo://app?vid=1015abbd-7082-4ba1-86ea-5a0ad2804113"},"vehicle_type_id":"4","last_reported":1740503453,"current_range_meters":20000,"station_id":"ce4bhpp2rcd13ifvqhfg","pricing_plan_id":"cebpf4jnsgd1na2vs0mg"},{"bike_id":"b7c09535-9389-45fc-8971-cbc7b7282bc9","system_id":"levelo_inurba_marseille","lat":43.25086,"lon":5.3953,"is_reserved":false,"is_disabled":false,"rental_uris":{"android":"levelo://app?vid=b7c09535-9389-45fc-8971-cbc7b7282bc9","ios":"levelo://app?vid=b7c09535-9389-45fc-8971-cbc7b7282bc9"},"vehicle_type_id":"4","last_reported":1740503453,"current_range_meters":20000,"station_id":"ce4bhm12rcd13ifvqgkg","pricing_plan_id":"cebpf4jnsgd1na2vs0mg"},{"bike_id":"f33f4e35-bd62-4cff-969a-d0b2639e328c","system_id":"levelo_inurba_marseille","lat":43.29225,"lon":5.36074,"is_reserved":false,"is_disabled":false,"rental_uris":{"android":"levelo://app?vid=f33f4e35-bd62-4cff-969a-d0b2639e328c","ios":"levelo://app?vid=f33f4e35-bd62-4cff-969a-d0b2639e328c"},"vehicle_type_id":"4","last_reported":1740503453,"current_range_meters":20000,"station_id":"ce4bhbh2rcd13ifvqeqg","pricing_plan_id":"cebpf4jnsgd1na2vs0mg"},{"bike_id":"b00ad056-1086-4b30-b2f1-504044cb6281","system_id":"levelo_inurba_marseille","lat":43.25582,"lon":5.38246,"is_reserved":false,"is_disabled":false,"rental_uris":{"android":"levelo://app?vid=b00ad056-1086-4b30-b2f1-504044cb6281","ios":"levelo://app?vid=b00ad056-1086-4b30-b2f1-504044cb6281"},"vehicle_type_id":"4","last_reported":1740503453,"current_range_meters":16000,"station_id":"ce4bhih2rcd13ifvqfs0","pricing_plan_id":"cebpf4jnsgd1na2vs0mg"},{"bike_id":"8a025ec0-a330-45a6-b7a0-ce7bcfd1d7b4","system_id":"levelo_inurba_marseille","lat":43.29066,"lon":5.37175,"is_reserved":false,"is_disabled":false,"rental_uris":{"android":"levelo://app?vid=8a025ec0-a330-45a6-b7a0-ce7bcfd1d7b4","ios":"levelo://app?vid=8a025ec0-a330-45a6-b7a0-ce7bcfd1d7b4"},"vehicle_type_id":"4","last_reported":1740503453,"current_range_meters":20000,"station_id":"ce4bh5p2rcd13ifvqe4g","pricing_plan_id":"cebpf4jnsgd1na2vs0mg"},{"bike_id":"a4a1c51a-d7db-458f-95c5-f8576b6dd187","system_id":"levelo_inurba_marseille","lat":43.28685,"lon":5.38327,"is_reserved":false,"is_disabled":false,"rental_uris":{"android":"levelo://app?vid=a4a1c51a-d7db-458f-95c5-f8576b6dd187","ios":"levelo://app?vid=a4a1c51a-d7db-458f-95c5-f8576b6dd187"},"vehicle_type_id":"4","last_reported":1740503453,"current_range_meters":20000,"station_id":"ce4bhg92rcd13ifvqf90","pricing_plan_id":"cebpf4jnsgd1na2vs0mg"},{"bike_id":"4d761b4b-27a8-43ef-9a31-d19b87368d43","system_id":"levelo_inurba_marseille","lat":43.29709,"lon":5.3662,"is_reserved":false,"is_disabled":false,"rental_uris":{"android":"levelo://app?vid=4d761b4b-27a8-43ef-9a31-d19b87368d43","ios":"levelo://app?vid=4d761b4b-27a8-43ef-9a31-d19b87368d43"},"vehicle_type_id":"4","last_reported":1740503453,"current_range_meters":18800,"station_id":"ce4bgn12rcd13ifvqbt0","pricing_plan_id":"cebpf4jnsgd1na2vs0mg"},{"bike_id":"17bd51fb-d30d-48de-9660-cc91290a537a","system_id":"levelo_inurba_marseille","lat":43.29425,"lon":5.38609,"is_reserved":false,"is_disabled":false,"rental_uris":{"android":"levelo://app?vid=17bd51fb-d30d-48de-9660-cc91290a537a","ios":"levelo://app?vid=17bd51fb-d30d-48de-9660-cc91290a537a"},"vehicle_type_id":"4","last_reported":1740503453,"current_range_meters":20400,"station_id":"ce4bh2h2rcd13ifvqdh0","pricing_plan_id":"cebpf4jnsgd1na2vs0mg"},{"bike_id":"1bd422cb-b0ff-4b77-bdca-898a5b637934","system_id":"levelo_inurba_marseille","lat":43.29783,"lon":5.39348,"is_reserved":false,"is_disabled":false,"rental_uris":{"android":"levelo://app?vid=1bd422cb-b0ff-4b77-bdca-898a5b637934","ios":"levelo://app?vid=1bd422cb-b0ff-4b77-bdca-898a5b637934"},"vehicle_type_id":"4","last_reported":1740503453,"current_range_meters":20400,"station_id":"","pricing_plan_id":"cebpf4jnsgd1na2vs0mg"},{"bike_id":"8ba44e66-307a-426a-82d9-b3feb8000ae7","system_id":"levelo_inurba_marseille","lat":43.29591,"lon":5.38125,"is_reserved":false,"is_disabled":false,"rental_uris":{"android":"levelo://app?vid=8ba44e66-307a-426a-82d9-b3feb8000ae7","ios":"levelo://app?vid=8ba44e66-307a-426a-82d9-b3feb8000ae7"},"vehicle_type_id":"4","last_reported":1740503453,"current_range_meters":20400,"station_id":"ce4bgl12rcd13ifvqbo0","pricing_plan_id":"cebpf4jnsgd1na2vs0mg"},{"bike_id":"9c9b783e-fc43-40ea-9266-f1ccc50ef259","system_id":"levelo_inurba_marseille","lat":43.27815,"lon":5.40713,"is_reserved":false,"is_disabled":false,"rental_uris":{"android":"levelo://app?vid=9c9b783e-fc43-40ea-9266-f1ccc50ef259","ios":"levelo://app?vid=9c9b783e-fc43-40ea-9266-f1ccc50ef259"},"vehicle_type_id":"4","last_reported":1740503453,"current_range_meters":20400,"station_id":"ce4bhnh2rcd13ifvqgtg","pricing_plan_id":"cebpf4jnsgd1na2vs0mg"},{"bike_id":"8190115f-5166-4d71-a895-253409a8232a","system_id":"levelo_inurba_marseille","lat":43.31073,"lon":5.38363,"is_reserved":false,"is_disabled":false,"rental_uris":{"android":"levelo://app?vid=8190115f-5166-4d71-a895-253409a8232a","ios":"levelo://app?vid=8190115f-5166-4d71-a895-253409a8232a"},"vehicle_type_id":"4","last_reported":1740503453,"current_range_meters":20400,"station_id":"ce4bgv92rcd13ifvqcr0","pricing_plan_id":"cebpf4jnsgd1na2vs0mg"},{"bike_id":"b8e8a21a-b609-491a-a91f-3114d85bf64a","system_id":"levelo_inurba_marseille","lat":43.29911,"lon":5.38139,"is_reserved":false,"is_disabled":false,"rental_uris":{"android":"levelo://app?vid=b8e8a21a-b609-491a-a91f-3114d85bf64a","ios":"levelo://app?vid=b8e8a21a-b609-491a-a91f-3114d85bf64a"},"vehicle_type_id":"4","last_reported":1740503453,"current_range_meters":20400,"station_id":"ce4bgj12rcd13ifvqbc0","pricing_plan_id":"cebpf4jnsgd1na2vs0mg"},{"bike_id":"0e2f9116-d239-470f-b646-176b17ff6862","system_id":"levelo_inurba_marseille","lat":43.28355,"lon":5.3811,"is_reserved":false,"is_disabled":false,"rental_uris":{"android":"levelo://app?vid=0e2f9116-d239-470f-b646-176b17ff6862","ios":"levelo://app?vid=0e2f9116-d239-470f-b646-176b17ff6862"},"vehicle_type_id":"4","last_reported":1740503453,"current_range_meters":20000,"station_id":"ce4bh412rcd13ifvqdr0","pricing_plan_id":"cebpf4jnsgd1na2vs0mg"},{"bike_id":"b69d2ca7-a48b-4651-a829-0793f0051084","system_id":"levelo_inurba_marseille","lat":43.28718,"lon":5.38609,"is_reserved":false,"is_disabled":false,"rental_uris":{"android":"levelo://app?vid=b69d2ca7-a48b-4651-a829-0793f0051084","ios":"levelo://app?vid=b69d2ca7-a48b-4651-a829-0793f0051084"},"vehicle_type_id":"4","last_reported":1740503453,"current_range_meters":20800,"station_id":"","pricing_plan_id":"cebpf4jnsgd1na2vs0mg"},{"bike_id":"7ba3aa33-5bbc-4bf7-a2b3-7e517b70afe7","system_id":"levelo_inurba_marseille","lat":43.29249,"lon":5.37628,"is_reserved":false,"is_disabled":false,"rental_uris":{"android":"levelo://app?vid=7ba3aa33-5bbc-4bf7-a2b3-7e517b70afe7","ios":"levelo://app?vid=7ba3aa33-5bbc-4bf7-a2b3-7e517b70afe7"},"vehicle_type_id":"4","last_reported":1740503453,"current_range_meters":20800,"station_id":"ce4bgi12rcd13ifvqb80","pricing_plan_id":"cebpf4jnsgd1na2vs0mg"},{"bike_id":"2b87e556-c7ea-41a9-975d-225f352a246f","system_id":"levelo_inurba_marseille","lat":43.29267,"lon":5.37625,"is_reserved":false,"is_disabled":false,"rental_uris":{"android":"levelo://app?vid=2b87e556-c7ea-41a9-975d-225f352a246f","ios":"levelo://app?vid=2b87e556-c7ea-41a9-975d-225f352a246f"},"vehicle_type_id":"4","last_reported":1740503453,"current_range_meters":20800,"station_id":"ce4bgi12rcd13ifvqb80","pricing_plan_id":"cebpf4jnsgd1na2vs0mg"},