{"last_updated":1747332898,"ttl":60,"version":"2.2","data":{"bikes":[{"bike_id":"c0b9fd4f-e181-46ce-b0bf-f5119973334f","system_id":"levelo_inurba_marseille","lat":43.33771,"lon":5.37424,"is_reserved":false,"is_disabled":false,"rental_uris":{"android":"levelo://app?vid=c0b9fd4f-e181-46ce-b0bf-f5119973334f","ios":"levelo://app?vid=c0b9fd4f-e181-46ce-b0bf-f5119973334f"},"vehicle_type_id":"4","last_reported":1747332898,"current_range_meters":13600,"station_id":"","pricing_plan_id":"cebpf4jnsgd1na2vs0mg"},{"bike_id":"fc2577e7-1497-425b-9d4f-ab8d7dc843c6","system_id":"levelo_inurba_marseille","lat":43.33771,"lon":5.37485,"is_reserved":false,"is_disabled":true,"rental_uris":{"android":"levelo://app?vid=fc2577e7-1497-425b-9d4f-ab8d7dc843c6","ios":"levelo://app?vid=fc2577e7-1497-425b-9d4f-ab8d7dc843c6"},"vehicle_type_id":"4","last_reported":1747332898,"current_range_meters":0,"station_id":"","pricing_plan_id":"cebpf4jnsgd1na2vs0mg"},{"bike_id":"6c620fda-6c06-49e6-b737-205be2ca2320","system_id":"levelo_inurba_marseille","lat":43.32547,"lon":5.36478,"is_reserved":false,"is_disabled":true,"rental_uris":{"android":"levelo://app?vid=6c620fda-6c06-49e6-b737-205be2ca2320","ios":"levelo://app?vid=6c620fda-6c06-49e6-b737-205be2ca2320"},"vehicle_type_id":"4","last_reported":1747332898,"current_range_meters":0,"station_id":"","pricing_plan_id":"cebpf4jnsgd1na2vs0mg"},{"bike_id":"893cee9f-22ed-4823-82b3-4da288b81784","system_id":"levelo_inurba_marseille","lat":43.31806,"lon":5.36951,"is_reserved":false,"is_disabled":true,"rental_uris":{"android":"levelo://app?vid=893cee9f-22ed-4823-82b3-4da288b81784","ios":"levelo://app?vid=893cee9f-22ed-4823-82b3-4da288b81784"},"vehicle_type_id":"4","last_reported":1747332898,"current_range_meters":0,"station_id":"","pricing_plan_id":"cebpf4jnsgd1na2vs0mg"},{"bike_id":"2b8fbf5f-4106-421b-bd48-29543ccb14db","system_id":"levelo_inurba_marseille","lat":43.2369,"lon":5.36284,"is_reserved":false,"is_disabled":true,"rental_uris":{"android":"levelo://app?vid=2b8fbf5f-4106-421b-bd48-29543ccb14db","ios":"levelo://app?vid=2b8fbf5f-4106-421b-bd48-29543ccb14db"},"vehicle_type_id":"4","last_reported":1747332898,"current_range_meters":0,"station_id":"","pricing_plan_id":"cebpf4jnsgd1na2vs0mg"},{"bike_id":"772b6fff-1447-445e-950b-c2e27d6bb6b1","system_id":"levelo_inurba_marseille","lat":43.31181,"lon":5.37607,"is_reserved":false,"is_disabled":true,"rental_uris":{"android":"levelo://app?vid=772b6fff-1447-445e-950b-c2e27d6bb6b1","ios":"levelo://app?vid=772b6fff-1447-445e-950b-c2e27d6bb6b1"},"vehicle_type_id":"4","last_reported":1747332898,"current_range_meters":0,"station_id":"","pricing_plan_id":"cebpf4jnsgd1na2vs0mg"},{"bike_id":"792567c6-0442-4011-aff0-9c05e25deb48","system_id":"levelo_inurba_marseille","lat":43.337444,"lon":5.374475,"is_reserved":false,"is_disabled":true,"rental_uris":{"android":"levelo://app?vid=792567c6-0442-4011-aff0-9c05e25deb48","ios":"levelo://app?vid=792567c6-0442-4011-aff0-9c05e25deb48"},"vehicle_type_id":"4","last_reported":1747332898,"current_range_meters":0,"station_id":"","pricing_plan_id":"cebpf4jnsgd1na2vs0mg"},{"bike_id":"d04e4038-14b2-48cd-ae33-a2234171bb1e","system_id":"levelo_inurba_marseille","lat":43.30171,"lon":5.37527,"is_reserved":false,"is_disabled":true,"rental_uris":{"android":"levelo://app?vid=d04e4038-14b2-48cd-ae33-a2234171bb1e","ios":"levelo://app?vid=d04e4038-14b2-48cd-ae33-a2234171bb1e"},"vehicle_type_id":"4","last_reported":1747332898,"current_range_meters":0,"station_id":"","pricing_plan_id":"cebpf4jnsgd1na2vs0mg"},{"bike_id":"3f2fb783-edf1-47fe-a543-bf299bd44119","system_id":"levelo_inurba_marseille","lat":43.29305,"lon":5.37149,"is_reserved":false,"is_disabled":true,"rental_uris":{"android":"levelo://app?vid=3f2fb783-edf1-47fe-a543-bf299bd44119","ios":"levelo://app?vid=3f2fb783-edf1-47fe-a543-bf299bd44119"},"vehicle_type_id":"4","last_reported":1747332898,"current_range_meters":0,"station_id":"ce4bgh92rcd13ifvqb40","pricing_plan_id":"cebpf4jnsgd1na2vs0mg"},{"bike_id":"b11bfb6e-7f49-4dbb-8128-62b6f419669e","system_id":"levelo_inurba_marseille","lat":43.29784,"lon":5.38103,"is_reserved":false,"is_disabled":true,"rental_uris":{"android":"levelo://app?vid=b11bfb6e-7f49-4dbb-8128-62b6f419669e","ios":"levelo://app?vid=b11bfb6e-7f49-4dbb-8128-62b6f419669e"},"vehicle_type_id":"4","last_reported":1747332898,"current_range_meters":0,"station_id":"ce4bgip2rcd13ifvqbb0","pricing_plan_id":"cebpf4jnsgd1na2vs0mg"},{"bike_id":"398caea1-248d-4e54-b931-73d50033a278","system_id":"levelo_inurba_marseille","lat":43.30457,"lon":5.37901,"is_reserved":false,"is_disabled":true,"rental_uris":{"android":"levelo://app?vid=398caea1-248d-4e54-b931-73d50033a278","ios":"levelo://app?vid=398caea1-248d-4e54-b931-73d50033a278"},"vehicle_type_id":"4","last_reported":1747332898,"current_range_meters":0,"station_id":"ce4bgup2rcd13ifvqcn0","pricing_plan_id":"cebpf4jnsgd1na2vs0mg"},{"bike_id":"6dee009c-cfc9-452b-961e-3f277158d91f","system_id":"levelo_inurba_marseille","lat":43.30945,"lon":5.39033,"is_reserved":false,"is_disabled":true,"rental_uris":{"android":"levelo://app?vid=6dee009c-cfc9-452b-961e-3f277158d91f","ios":"levelo://app?vid=6dee009c-cfc9-452b-961e-3f277158d91f"},"vehicle_type_id":"4","last_reported":1747332898,"current_range_meters":0,"station_id":"ce4bgup2rcd13ifvqco0","pricing_plan_id":"cebpf4jnsgd1na2vs0mg"},{"bike_id":"379abd77-17e4-45ab-9a6a-c12006d65a58","system_id":"levelo_inurba_marseille","lat":43.30952,"lon":5.39025,"is_reserved":false,"is_disabled":true,"rental_uris":{"android":"levelo://app?vid=379abd77-17e4-45ab-9a6a-c12006d65a58","ios":"levelo://app?vid=379abd77-17e4-45ab-9a6a-c12006d65a58"},"vehicle_type_id":"4","last_reported":1747332898,"current_range_meters":0,"station_id":"ce4bgup2rcd13ifvqco0","pricing_plan_id":"cebpf4jnsgd1na2vs0mg"},{"bike_id":"7b94582c-9354-40fd-8666-eae699c7ddf8","system_id":"levelo_inurba_marseille","lat":43.309518,"lon":5.390272,"is_reserved":false,"is_disabled":true,"rental_uris":{"android":"levelo://app?vid=7b94582c-9354-40fd-8666-eae699c7ddf8","ios":"levelo://app?vid=7b94582c-9354-40fd-8666-eae699c7ddf8"},"vehicle_type_id":"4","last_reported":1747332898,"current_range_meters":0,"station_id":"ce4bgup2rcd13ifvqco0","pricing_plan_id":"cebpf4jnsgd1na2vs0mg"},{"bike_id":"249910e5-95af-4534-8268-d9a6fe511179","system_id":"levelo_inurba_marseille","lat":43.302345,"lon":5.40056,"is_reserved":false,"is_disabled":true,"rental_uris":{"android":"levelo://app?vid=249910e5-95af-4534-8268-d9a6fe511179","ios":"levelo://app?vid=249910e5-95af-4534-8268-d9a6fe511179"},"vehicle_type_id":"4","last_reported":1747332898,"current_range_meters":0,"station_id":"ce4bgvh2rcd13ifvqcs0","pricing_plan_id":"cebpf4jnsgd1na2vs0mg"},{"bike_id":"42a107b2-7c8b-4ef9-8623-ce33afec46ab","system_id":"levelo_inurba_marseille","lat":43.29521,"lon":5.39383,"is_reserved":false,"is_disabled":true,"rental_uris":{"android":"levelo://app?vid=42a107b2-7c8b-4ef9-8623-ce33afec46ab","ios":"levelo://app?vid=42a107b2-7c8b-4ef9-8623-ce33afec46ab"},"vehicle_type_id":"4","last_reported":1747332898,"current_range_meters":0,"station_id":"ce4bh292rcd13ifvqdf0","pricing_plan_id":"cebpf4jnsgd1na2vs0mg"},{"bike_id":"cc8b78a6-692c-479a-9f51-2b8be8ebcaba","system_id":"levelo_inurba_marseille","lat":43.29416,"lon":5.38618,"is_reserved":false,"is_disabled":true,"rental_uris":{"android":"levelo://app?vid=cc8b78a6-692c-479a-9f51-2b8be8ebcaba","ios":"levelo://app?vid=cc8b78a6-692c-479a-9f51-2b8be8ebcaba"},"vehicle_type_id":"4","last_reported":1747332898,"current_range_meters":0,"station_id":"ce4bh2h2rcd13ifvqdh0","pricing_plan_id":"cebpf4jnsgd1na2vs0mg"},{"bike_id":"c4ad8d69-b706-4012-ae83-7e635ade2ec6","system_id":"levelo_inurba_marseille","lat":43.2928,"lon":5.40126,"is_reserved":false,"is_disabled":true,"rental_uris":{"android":"levelo://app?vid=c4ad8d69-b706-4012-ae83-7e635ade2ec6","ios":"levelo://app?vid=c4ad8d69-b706-4012-ae83-7e635ade2ec6"},"vehicle_type_id":"4","last_reported":1747332898,"current_range_meters":0,"station_id":"ce4bh312rcd13ifvqdk0","pricing_plan_id":"cebpf4jnsgd1na2vs0mg"},{"bike_id":"abe77501-76be-48cf-8c33-e3f0af603497","system_id":"levelo_inurba_marseille","lat":43.28406,"lon":5.37507,"is_reserved":false,"is_disabled":true,"rental_uris":{"android":"levelo://app?vid=abe77501-76be-48cf-8c33-e3f0af603497","ios":"levelo://app?vid=abe77501-76be-48cf-8c33-e3f0af603497"},"vehicle_type_id":"4","last_reported":1747332898,"current_range_meters":0,"station_id":"ce4bh412rcd13ifvqds0","pricing_plan_id":"cebpf4jnsgd1na2vs0mg"},{"bike_id":"4d31af3d-e1ab-44bd-9665-6c67b9efb59e","system_id":"levelo_inurba_marseille","lat":43.28402,"lon":5.37517,"is_reserved":false,"is_disabled":true,"rental_uris":{"android":"levelo://app?vid=4d31af3d-e1ab-44bd-9665-6c67b9efb59e","ios":"levelo://app?vid=4d31af3d-e1ab-44bd-9665-6c67b9efb59e"},"vehicle_type_id":"4","last_reported":1747332898,"current_range_meters":0,"station_id":"ce4bh412rcd13ifvqds0","pricing_plan_id":"cebpf4jnsgd1na2vs0mg"},{"bike_id":"fdf1cf85-a07e-4cdd-b949-a1ae43157ab7","system_id":"levelo_inurba_marseille","lat":43.29259,"lon":5.38437,"is_reserved":false,"is_disabled":true,"rental_uris":{"android":"levelo://app?vid=fdf1cf85-a07e-4cdd-b949-a1ae43157ab7","ios":"levelo://app?vid=fdf1cf85-a07e-4cdd-b949-a1ae43157ab7"},"vehicle_type_id":"4","last_reported":1747332898,"current_range_meters":0,"station_id":"ce4bh692rcd13ifvqea0","pricing_plan_id":"cebpf4jnsgd1na2vs0mg"},{"bike_id":"10480347-965f-4d2b-b0aa-061e78ae042d","system_id":"levelo_inurba_marseille","lat":43.28456,"lon":5.35885,"is_reserved":false,"is_disabled":true,"rental_uris":{"android":"levelo://app?vid=10480347-965f-4d2b-b0aa-061e78ae042d","ios":"levelo://app?vid=10480347-965f-4d2b-b0aa-061e78ae042d"},"vehicle_type_id":"4","last_reported":1747332898,"current_range_meters":0,"station_id":"ce4bhah2rcd13ifvqei0","pricing_plan_id":"cebpf4jnsgd1na2vs0mg"},{"bike_id":"543c2201-cfa8-4169-812c-0d7334bbfd67","system_id":"levelo_inurba_marseille","lat":43.29001,"lon":5.35613,"is_reserved":false,"is_disabled":true,"rental_uris":{"android":"levelo://app?vid=543c2201-cfa8-4169-812c-0d7334bbfd67","ios":"levelo://app?vid=543c2201-cfa8-4169-812c-0d7334bbfd67"},"vehicle_type_id":"4","last_reported":1747332898,"current_range_meters":0,"station_id":"ce4bhb92rcd13ifvqen0","pricing_plan_id":"cebpf4jnsgd1na2vs0mg"},{"bike_id":"445852d3-941f-4a2d-b849-4158f37d3c56","system_id":"levelo_inurba_marseille","lat":43.29233,"lon":5.36045,"is_reserved":false,"is_disabled":true,"rental_uris":{"android":"levelo://app?vid=445852d3-941f-4a2d-b849-4158f37d3c56","ios":"levelo://app?vid=445852d3-941f-4a2d-b849-4158f37d3c56"},"vehicle_type_id":"4","last_reported":1747332898,"current_range_meters":0,"station_id":"ce4bhbh2rcd13ifvqeqg","pricing_plan_id":"cebpf4jnsgd1na2vs0mg"},{"bike_id":"5c0fd154-26c5-4927-b10f-c5ad1b29f707","system_id":"levelo_inurba_marseille","lat":43.29222,"lon":5.36071,"is_reserved":false,"is_disabled":true,"rental_uris":{"android":"levelo://app?vid=5c0fd154-26c5-4927-b10f-c5ad1b29f707","ios":"levelo://app?vid=5c0fd154-26c5-4927-b10f-c5ad1b29f707"},"vehicle_type_id":"4","last_reported":1747332898,"current_range_meters":0,"station_id":"ce4bhbh2rcd13ifvqeqg","pricing_plan_id":"cebpf4jnsgd1na2vs0mg"},{"bike_id":"6c8affb9-c819-4659-a99d-a0ea93ac8dd6","system_id":"levelo_inurba_marseille","lat":43.282532,"lon":5.351033,"is_reserved":false,"is_disabled":true,"rental_uris":{"android":"levelo://app?vid=6c8affb9-c819-4659-a99d-a0ea93ac8dd6","ios":"levelo://app?vid=6c8affb9-c819-4659-a99d-a0ea93ac8dd6"},"vehicle_type_id":"4","last_reported":1747332898,"current_range_meters":0,"station_id":"ce4bhbp2rcd13ifvqerg","pricing_plan_id":"cebpf4jnsgd1na2vs0mg"},{"bike_id":"c406a584-1273-4390-8ec7-bc41b0dcee39","system_id":"levelo_inurba_marseille","lat":43.26074,"lon":5.39372,"is_reserved":false,"is_disabled":true,"rental_uris":{"android":"levelo://app?vid=c406a584-1273-4390-8ec7-bc41b0dcee39","ios":"levelo://app?vid=c406a584-1273-4390-8ec7-bc41b0dcee39"},"vehicle_type_id":"4","last_reported":1747332898,"current_range_meters":0,"station_id":"ce4bhh92rcd13ifvqfj0","pricing_plan_id":"cebpf4jnsgd1na2vs0mg"},{"bike_id":"9c5706df-7f5f-403d-9cad-82effb1bfb36","system_id":"levelo_inurba_marseille","lat":43.24666,"lon":5.38161,"is_reserved":false,"is_disabled":true,"rental_uris":{"android":"levelo://app?vid=9c5706df-7f5f-403d-9cad-82effb1bfb36","ios":"levelo://app?vid=9c5706df-7f5f-403d-9cad-82effb1bfb36"},"vehicle_type_id":"4","last_reported":1747332898,"current_range_meters":0,"station_id":"ce4bhih2rcd13ifvqfr0","pricing_plan_id":"cebpf4jnsgd1na2vs0mg"},{"bike_id":"59e9d225-035f-4b08-89c3-01f0541770cb","system_id":"levelo_inurba_marseille","lat":43.25113,"lon":5.4032,"is_reserved":false,"is_disabled":true,"rental_uris":{"android":"levelo://app?vid=59e9d225-035f-4b08-89c3-01f0541770cb","ios":"levelo://app?vid=59e9d225-035f-4b08-89c3-01f0541770cb"},"vehicle_type_id":"4","last_reported":1747332898,"current_range_meters":0,"station_id":"ce4bhlh2rcd13ifvqgig","pricing_plan_id":"cebpf4jnsgd1na2vs0mg"},{"bike_id":"9c6a9104-c2b7-4793-868a-5c90b9fa65c8","system_id":"levelo_inurba_marseille","lat":43.286484,"lon":5.399637,"is_reserved":false,"is_disabled":true,"rental_uris":{"android":"levelo://app?vid=9c6a9104-c2b7-4793-868a-5c90b9fa65c8","ios":"levelo://app?vid=9c6a9104-c2b7-4793-868a-5c90b9fa65c8"},"vehicle_type_id":"4","last_reported":1747332898,"current_range_meters":0,"station_id":"ce4bho92rcd13ifvqh3g","pricing_plan_id":"cebpf4jnsgd1na2vs0mg"},{"bike_id":"9314dddf-072c-4cc0-8876-ed2b90349374","system_id":"levelo_inurba_marseille","lat":43.32542,"lon":5.41437,"is_reserved":false,"is_disabled":true,"rental_uris":{"android":"levelo://app?vid=9314dddf-072c-4cc0-8876-ed2b90349374","ios":"levelo://app?vid=9314dddf-072c-4cc0-8876-ed2b90349374"},"vehicle_type_id":"4","last_reported":1747332898,"current_range_meters":0,"station_id":"ce4bhq12rcd13ifvqhhg","pricing_plan_id":"cebpf4jnsgd1na2vs0mg"},{"bike_id":"027f978f-20bd-4629-a9b6-c7dd30f4fc53","system_id":"levelo_inurba_marseille","lat":43.268018,"lon":5.40265,"is_reserved":false,"is_disabled":true,"rental_uris":{"android":"levelo://app?vid=027f978f-20bd-4629-a9b6-c7dd30f4fc53","ios":"levelo://app?vid=027f978f-20bd-4629-a9b6-c7dd30f4fc53"},"vehicle_type_id":"4","last_reported":1747332898,"current_range_meters":0,"station_id":"ce501612rcd8frsf0b60","pricing_plan_id":"cebpf4jnsgd1na2vs0mg"},{"bike_id":"747efad8-321e-4c65-9d44-24e3ba4b6978","system_id":"levelo_inurba_marseille","lat":43.24165,"lon":5.36398,"is_reserved":false,"is_disabled":true,"rental_uris":{"android":"levelo://app?vid=747efad8-321e-4c65-9d44-24e3ba4b6978","ios":"levelo://app?vid=747efad8-321e-4c65-9d44-24e3ba4b6978"},"vehicle_type_id":"4","last_reported":1747332898,"current_range_meters":0,"station_id":"cpo36qri1sfpv3e86is0","pricing_plan_id":"cebpf4jnsgd1na2vs0mg"},{"bike_id":"f9e7d873-88bb-4f94-a0d6-3fcae7d05021","system_id":"levelo_inurba_marseille","lat":43.30804,"lon":5.36979,"is_reserved":false,"is_disabled":true,"rental_uris":{"android":"levelo://app?vid=f9e7d873-88bb-4f94-a0d6-3fcae7d05021","ios":"levelo://app?vid=f9e7d873-88bb-4f94-a0d6-3fcae7d05021"},"vehicle_type_id":"4","last_reported":1747332898,"current_range_meters":400,"station_id":"","pricing_plan_id":"cebpf4jnsgd1na2vs0mg"},{"bike_id":"e62a2c8b-ebd4-4592-ae0f-ff5560db0b84","system_id":"levelo_inurba_marseille","lat":43.24706,"lon":5.39975,"is_reserved":false,"is_disabled":true,"rental_uris":{"android":"levelo://app?vid=e62a2c8b-ebd4-4592-ae0f-ff5560db0b84","ios":"levelo://app?vid=e62a2c8b-ebd4-4592-ae0f-ff5560db0b84"},"vehicle_type_id":"4","last_reported":1747332898,"current_range_meters":400,"station_id":"","pricing_plan_id":"cebpf4jnsgd1na2vs0mg"},{"bike_id":"d6bb9145-ef77-4ecd-8c0a-751e5b40cece","system_id":"levelo_inurba_marseille","lat":43.291923,"lon":5.393247,"is_reserved":false,"is_disabled":true,"rental_uris":{"android":"levelo://app?vid=d6bb9145-ef77-4ecd-8c0a-751e5b40cece","ios":"levelo://app?vid=d6bb9145-ef77-4ecd-8c0a-751e5b40cece"},"vehicle_type_id":"4","last_reported":1747332898,"current_range_meters":400,"station_id":"ce4bh192rcd13ifvqdd0","pricing_plan_id":"cebpf4jnsgd1na2vs0mg"},{"bike_id":"5212a276-9ae6-4c30-9900-b96eb48175a6","system_id":"levelo_inurba_marseille","lat":43.28707,"lon":5.37381,"is_reserved":false,"is_disabled":true,"rental_uris":{"android":"levelo://app?vid=5212a276-9ae6-4c30-9900-b96eb48175a6","ios":"levelo://app?vid=5212a276-9ae6-4c30-9900-b96eb48175a6"},"vehicle_type_id":"4","last_reported":1747332898,"current_range_meters":400,"station_id":"ce4bh3p2rcd13ifvqdq0","pricing_plan_id":"cebpf4jnsgd1na2vs0mg"},{"bike_id":"28fc39d2-e97f-4bbc-89a6-0fe82a19d8aa","system_id":"levelo_inurba_marseille","lat":43.27425,"lon":5.39423,"is_reserved":false,"is_disabled":true,"rental_uris":{"android":"levelo://app?vid=28fc39d2-e97f-4bbc-89a6-0fe82a19d8aa","ios":"levelo://app?vid=28fc39d2-e97f-4bbc-89a6-0fe82a19d8aa"},"vehicle_type_id":"4","last_reported":1747332898,"current_range_meters":400,"station_id":"ce4bhdp2rcd13ifvqf20","pricing_plan_id":"cebpf4jnsgd1na2vs0mg"},{"bike_id":"3e605f0d-22d7-48d9-8005-557da00a32e8","system_id":"levelo_inurba_marseille","lat":43.25885,"lon":5.398764,"is_reserved":false,"is_disabled":true,"rental_uris":{"android":"levelo://app?vid=3e605f0d-22d7-48d9-8005-557da00a32e8","ios":"levelo://app?vid=3e605f0d-22d7-48d9-8005-557da00a32e8"},"vehicle_type_id":"4","last_reported":1747332898,"current_range_meters":400,"station_id":"ce4bhl92rcd13ifvqghg","pricing_plan_id":"cebpf4jnsgd1na2vs0mg"},{"bike_id":"ce4325af-2448-4172-bdec-81d552ee0b62","system_id":"levelo_inurba_marseille","lat":43.26167,"lon":5.42017,"is_reserved":false,"is_disabled":true,"rental_uris":{"android":"levelo://app?vid=ce4325af-2448-4172-bdec-81d552ee0b62","ios":"levelo://app?vid=ce4325af-2448-4172-bdec-81d552ee0b62"},"vehicle_type_id":"4","last_reported":1747332898,"current_range_meters":800,"station_id":"","pricing_plan_id":"cebpf4jnsgd1na2vs0mg"},{"bike_id":"d091520e-b0ef-4370-a93e-03f6501b3967","system_id":"levelo_inurba_marseille","lat":43.302337,"lon":5.400572,"is_reserved":false,"is_disabled":true,"rental_uris":{"android":"levelo://app?vid=d091520e-b0ef-4370-a93e-03f6501b3967","ios":"levelo://app?vid=d091520e-b0ef-4370-a93e-03f6501b3967"},"vehicle_type_id":"4","last_reported":1747332898,"current_range_meters":800,"station_id":"ce4bgvh2rcd13ifvqcs0","pricing_plan_id":"cebpf4jnsgd1na2vs0mg"},{"bike_id":"b5a0122d-3a6d-47bb-8ee4-4895cc80d6c3","system_id":"levelo_inurba_marseille","lat":43.30884,"lon":5.39648,"is_reserved":false,"is_disabled":true,"rental_uris":{"android":"levelo://app?vid=b5a0122d-3a6d-47bb-8ee4-4895cc80d6c3","ios":"levelo://app?vid=b5a0122d-3a6d-47bb-8ee4-4895cc80d6c3"},"vehicle_type_id":"4","last_reported":1747332898,"current_range_meters":800,"station_id":"ce4bh012rcd13ifvqcv0","pricing_plan_id":"cebpf4jnsgd1na2vs0mg"},{"bike_id":"e6e64c52-8646-48dd-9eb7-2ff8f694ce76","system_id":"levelo_inurba_marseille","lat":43.296437,"lon":5.405743,"is_reserved":false,"is_disabled":true,"rental_uris":{"android":"levelo://app?vid=e6e64c52-8646-48dd-9eb7-2ff8f694ce76","ios":"levelo://app?vid=e6e64c52-8646-48dd-9eb7-2ff8f694ce76"},"vehicle_type_id":"4","last_reported":1747332898,"current_range_meters":800,"station_id":"ce4bh0h2rcd13ifvqd60","pricing_plan_id":"cebpf4jnsgd1na2vs0mg"},{"bike_id":"0cc67070-61dd-4d6e-927d-f8de9fc5dc69","system_id":"levelo_inurba_marseille","lat":43.29415,"lon":5.38607,"is_reserved":false,"is_disabled":true,"rental_uris":{"android":"levelo://app?vid=0cc67070-61dd-4d6e-927d-f8de9fc5dc69","ios":"levelo://app?vid=0cc67070-61dd-4d6e-927d-f8de9fc5dc69"},"vehicle_type_id":"4","last_reported":1747332898,"current_range_meters":800,"station_id":"ce4bh2h2rcd13ifvqdh0","pricing_plan_id":"cebpf4jnsgd1na2vs0mg"},{"bike_id":"94533bb0-41b8-404a-abb4-f285722e4e01","system_id":"levelo_inurba_marseille","lat":43.29277,"lon":5.40126,"is_reserved":false,"is_disabled":true,"rental_uris":{"android":"levelo://app?vid=94533bb0-41b8-404a-abb4-f285722e4e01","ios":"levelo://app?vid=94533bb0-41b8-404a-abb4-f285722e4e01"},"vehicle_type_id":"4","last_reported":1747332898,"current_range_meters":800,"station_id":"ce4bh312rcd13ifvqdk0","pricing_plan_id":"cebpf4jnsgd1na2vs0mg"},{"bike_id":"50f0eb23-5b0e-487e-8419-b1da69e5d44e","system_id":"levelo_inurba_marseille","lat":43.290246,"lon":5.381284,"is_reserved":false,"is_disabled":true,"rental_uris":{"android":"levelo://app?vid=50f0eb23-5b0e-487e-8419-b1da69e5d44e","ios":"levelo://app?vid=50f0eb23-5b0e-487e-8419-b1da69e5d44e"},"vehicle_type_id":"4","last_reported":1747332898,"current_range_meters":800,"station_id":"ce4bh4p2rcd13ifvqe1g","pricing_plan_id":"cebpf4jnsgd1na2vs0mg"},{"bike_id":"64786a93-e08e-484b-a345-11d70053d896","system_id":"levelo_inurba_marseille","lat":43.27374,"lon":5.3625,"is_reserved":false,"is_disabled":true,"rental_uris":{"android":"levelo://app?vid=64786a93-e08e-484b-a345-11d70053d896","ios":"levelo://app?vid=64786a93-e08e-484b-a345-11d70053d896"},"vehicle_type_id":"4","last_reported":1747332898,"current_range_meters":800,"station_id":"ce4bhbh2rcd13ifvqeo0","pricing_plan_id":"cebpf4jnsgd1na2vs0mg"},{"bike_id":"2db63d2d-eed4-4ada-b7fa-341515b56a8c","system_id":"levelo_inurba_marseille","lat":43.29224,"lon":5.3606,"is_reserved":false,"is_disabled":true,"rental_uris":{"android":"levelo://app?vid=2db63d2d-eed4-4ada-b7fa-341515b56a8c","ios":"levelo://app?vid=2db63d2d-eed4-4ada-b7fa-341515b56a8c"},"vehicle_type_id":"4","last_reported":1747332898,"current_range_meters":800,"station_id":"ce4bhbh2rcd13ifvqeqg","pricing_plan_id":"cebpf4jnsgd1na2vs0mg"},{"bike_id":"db4157f5-edd7-4145-ae5f-e07604a7e49a","system_id":"levelo_inurba_marseille","lat":43.28946,"lon":5.36384,"is_reserved":false,"is_disabled":true,"rental_uris":{"android":"levelo://app?vid=db4157f5-edd7-4145-ae5f-e07604a7e49a","ios":"levelo://app?vid=db4157f5-edd7-4145-ae5f-e07604a7e49a"},"vehicle_type_id":"4","last_reported":1747332898,"current_range_meters":800,"station_id":"ce4bhc92rcd13ifvqetg","pricing_plan_id":"cebpf4jnsgd1na2vs0mg"},{"bike_id":"bd70f886-522c-4314-a718-fdc69e28b542","system_id":"levelo_inurba_marseille","lat":43.28697,"lon":5.39982,"is_reserved":false,"is_disabled":true,"rental_uris":{"android":"levelo://app?vid=bd70f886-522c-4314-a718-fdc69e28b542","ios":"levelo://app?vid=bd70f886-522c-4314-a718-fdc69e28b542"},"vehicle_type_id":"4","last_reported":1747332898,"current_range_meters":800,"station_id":"ce4bho92rcd13ifvqh3g","pricing_plan_id":"cebpf4jnsgd1na2vs0mg"},{"bike_id":"84f518dc-50a3-4a16-9d63-3d1898cec109","system_id":"levelo_inurba_marseille","lat":43.326567,"lon":5.40977,"is_reserved":false,"is_disabled":true,"rental_uris":{"android":"levelo://app?vid=84f518dc-50a3-4a16-9d63-3d1898cec109","ios":"levelo://app?vid=84f518dc-50a3-4a16-9d63-3d1898cec109"},"vehicle_type_id":"4","last_reported":1747332898,"current_range_meters":800,"station_id":"ce4bhpp2rcd13ifvqhgg","pricing_plan_id":"cebpf4jnsgd1na2vs0mg"},{"bike_id":"420b922a-6c75-4199-a992-a4588e02630c","system_id":"levelo_inurba_marseille","lat":43.32358,"lon":5.38887,"is_reserved":false,"is_disabled":true,"rental_uris":{"android":"levelo://app?vid=420b922a-6c75-4199-a992-a4588e02630c","ios":"levelo://app?vid=420b922a-6c75-4199-a992-a4588e02630c"},"vehicle_type_id":"4","last_reported":1747332898,"current_range_meters":800,"station_id":"ce4bhqp2rcd13ifvqhog","pricing_plan_id":"cebpf4jnsgd1na2vs0mg"},{"bike_id":"7904e55c-80d5-4167-ba52-baa82330bb66","system_id":"levelo_inurba_marseille","lat":43.278667,"lon":5.387583,"is_reserved":false,"is_disabled":true,"rental_uris":{"android":"levelo://app?vid=7904e55c-80d5-4167-ba52-baa82330bb66","ios":"levelo://app?vid=7904e55c-80d5-4167-ba52-baa82330bb66"},"vehicle_type_id":"4","last_reported":1747332898,"current_range_meters":1200,"station_id":"","pricing_plan_id":"cebpf4jnsgd1na2vs0mg"},{"bike_id":"f3bf41a7-f2ab-41b4-ac16-1bf32fe2ec16","system_id":"levelo_inurba_marseille","lat":43.29599,"lon":5.38102,"is_reserved":false,"is_disabled":true,"rental_uris":{"android":"levelo://app?vid=f3bf41a7-f2ab-41b4-ac16-1bf32fe2ec16","ios":"levelo://app?vid=f3bf41a7-f2ab-41b4-ac16-1bf32fe2ec16"},"vehicle_type_id":"4","last_reported":1747332898,"current_range_meters":1200,"station_id":"ce4bgl12rcd13ifvqbo0","pricing_plan_id":"cebpf4jnsgd1na2vs0mg"},{"bike_id":"73ec4b4f-60b7-44a8-a1c9-0e2b395f5f39","system_id":"levelo_inurba_marseille","lat":43.29925,"lon":5.36544,"is_reserved":false,"is_disabled":true,"rental_uris":{"android":"levelo://app?vid=73ec4b4f-60b7-44a8-a1c9-0e2b395f5f39","ios":"levelo://app?vid=73ec4b4f-60b7-44a8-a1c9-0e2b395f5f39"},"vehicle_type_id":"4","last_reported":1747332898,"current_range_meters":1200,"station_id":"ce4bgm92rcd13ifvqbr0","pricing_plan_id":"cebpf4jnsgd1na2vs0mg"},{"bike_id":"cce7003d-7b1b-4339-8ec3-7fc4f448ad1d","system_id":"levelo_inurba_marseille","lat":43.31688,"lon":5.40468,"is_reserved":false,"is_disabled":true,"rental_uris":{"android":"levelo://app?vid=cce7003d-7b1b-4339-8ec3-7fc4f448ad1d","ios":"levelo://app?vid=cce7003d-7b1b-4339-8ec3-7fc4f448ad1d"},"vehicle_type_id":"4","last_reported":1747332898,"current_range_meters":1200,"station_id":"ce4bh012rcd13ifvqd00","pricing_plan_id":"cebpf4jnsgd1na2vs0mg"},{"bike_id":"d2d7e060-afae-41ac-bde0-0343d5612861","system_id":"levelo_inurba_marseille","lat":43.28934,"lon":5.38383,"is_reserved":false,"is_disabled":true,"rental_uris":{"android":"levelo://app?vid=d2d7e060-afae-41ac-bde0-0343d5612861","ios":"levelo://app?vid=d2d7e060-afae-41ac-bde0-0343d5612861"},"vehicle_type_id":"4","last_reported":1747332898,"current_range_meters":1200,"station_id":"ce4bh612rcd13ifvqe6g","pricing_plan_id":"cebpf4jnsgd1na2vs0mg"},{"bike_id":"787ab615-38e2-4c35-b4d2-b0b2a9d18cce","system_id":"levelo_inurba_marseille","lat":43.289347,"lon":5.366367,"is_reserved":false,"is_disabled":true,"rental_uris":{"android":"levelo://app?vid=787ab615-38e2-4c35-b4d2-b0b2a9d18cce","ios":"levelo://app?vid=787ab615-38e2-4c35-b4d2-b0b2a9d18cce"},"vehicle_type_id":"4","last_reported":1747332898,"current_range_meters":1200,"station_id":"ce4bhap2rcd13ifvqek0","pricing_plan_id":"cebpf4jnsgd1na2vs0mg"},{"bike_id":"553b617d-7e14-42ca-8872-c5cfe9104dce","system_id":"levelo_inurba_marseille","lat":43.27375,"lon":5.3625,"is_reserved":false,"is_disabled":true,"rental_uris":{"android":"levelo://app?vid=553b617d-7e14-42ca-8872-c5cfe9104dce","ios":"levelo://app?vid=553b617d-7e14-42ca-8872-c5cfe9104dce"},"vehicle_type_id":"4","last_reported":1747332898,"current_range_meters":1200,"station_id":"ce4bhbh2rcd13ifvqeo0","pricing_plan_id":"cebpf4jnsgd1na2vs0mg"},{"bike_id":"4e630156-07a4-48dc-b6e9-4a11dda25a5a","system_id":"levelo_inurba_marseille","lat":43.24808,"lon":5.37438,"is_reserved":false,"is_disabled":true,"rental_uris":{"android":"levelo://app?vid=4e630156-07a4-48dc-b6e9-4a11dda25a5a","ios":"levelo://app?vid=4e630156-07a4-48dc-b6e9-4a11dda25a5a"},"vehicle_type_id":"4","last_reported":1747332898,"current_range_meters":1200,"station_id":"ce4bhgh2rcd13ifvqfb0","pricing_plan_id":"cebpf4jnsgd1na2vs0mg"},{"bike_id":"5891a0b7-1797-48d5-97e3-5afc5bcfe168","system_id":"levelo_inurba_marseille","lat":43.2581,"lon":5.39431,"is_reserved":false,"is_disabled":true,"rental_uris":{"android":"levelo://app?vid=5891a0b7-1797-48d5-97e3-5afc5bcfe168","ios":"levelo://app?vid=5891a0b7-1797-48d5-97e3-5afc5bcfe168"},"vehicle_type_id":"4","last_reported":1747332898,"current_range_meters":1200,"station_id":"ce4bhip2rcd13ifvqft0","pricing_plan_id":"cebpf4jnsgd1na2vs0mg"},{"bike_id":"1b135997-a60e-4b08-9c96-354e28b4b9e6","system_id":"levelo_inurba_marseille","lat":43.28151,"lon":5.42638,"is_reserved":false,"is_disabled":true,"rental_uris":{"android":"levelo://app?vid=1b135997-a60e-4b08-9c96-354e28b4b9e6","ios":"levelo://app?vid=1b135997-a60e-4b08-9c96-354e28b4b9e6"},"vehicle_type_id":"4","last_reported":1747332898,"current_range_meters":1200,"station_id":"ce4bhnh2rcd13ifvqgug","pricing_plan_id":"cebpf4jnsgd1na2vs0mg"},{"bike_id":"c8626c02-82ed-45b1-829a-c90daf61599a","system_id":"levelo_inurba_marseille","lat":43.286026,"lon":5.350924,"is_reserved":false,"is_disabled":true,"rental_uris":{"android":"levelo://app?vid=c8626c02-82ed-45b1-829a-c90daf61599a","ios":"levelo://app?vid=c8626c02-82ed-45b1-829a-c90daf61599a"},"vehicle_type_id":"4","last_reported":1747332898,"current_range_meters":1600,"station_id":"","pricing_plan_id":"cebpf4jnsgd1na2vs0mg"},{"bike_id":"1d418863-dc6f-41af-aaa5-115529b953a0","system_id":"levelo_inurba_marseille","lat":43.30551,"lon":5.36547,"is_reserved":false,"is_disabled":true,"rental_uris":{"android":"levelo://app?vid=1d418863-dc6f-41af-aaa5-115529b953a0","ios":"levelo://app?vid=1d418863-dc6f-41af-aaa5-115529b953a0"},"vehicle_type_id":"4","last_reported":1747332898,"current_range_meters":1600,"station_id":"ce4bgs12rcd13ifvqcag","pricing_plan_id":"cebpf4jnsgd1na2vs0mg"},{"bike_id":"8cafbaf4-db5f-4f20-ba59-8ee50dd610b5","system_id":"levelo_inurba_marseille","lat":43.31332,"lon":5.39725,"is_reserved":false,"is_disabled":true,"rental_uris":{"android":"levelo://app?vid=8cafbaf4-db5f-4f20-ba59-8ee50dd610b5","ios":"levelo://app?vid=8cafbaf4-db5f-4f20-ba59-8ee50dd610b5"},"vehicle_type_id":"4","last_reported":1747332898,"current_range_meters":1600,"station_id":"ce4bgvp2rcd13ifvqcu0","pricing_plan_id":"cebpf4jnsgd1na2vs0mg"},{"bike_id":"2fd0c6f5-1af4-44b5-8328-2e66b8c79d6b","system_id":"levelo_inurba_marseille","lat":43.2902,"lon":5.38646,"is_reserved":false,"is_disabled":true,"rental_uris":{"android":"levelo://app?vid=2fd0c6f5-1af4-44b5-8328-2e66b8c79d6b","ios":"levelo://app?vid=2fd0c6f5-1af4-44b5-8328-2e66b8c79d6b"},"vehicle_type_id":"4","last_reported":1747332898,"current_range_meters":1600,"station_id":"ce4bh4p2rcd13ifvqe0g","pricing_plan_id":"cebpf4jnsgd1na2vs0mg"},{"bike_id":"b8fb6ebd-c6b7-4f13-9930-8ad0c0b75e81","system_id":"levelo_inurba_marseille","lat":43.29233,"lon":5.36044,"is_reserved":false,"is_disabled":true,"rental_uris":{"android":"levelo://app?vid=b8fb6ebd-c6b7-4f13-9930-8ad0c0b75e81","ios":"levelo://app?vid=b8fb6ebd-c6b7-4f13-9930-8ad0c0b75e81"},"vehicle_type_id":"4","last_reported":1747332898,"current_range_meters":1600,"station_id":"ce4bhbh2rcd13ifvqeqg","pricing_plan_id":"cebpf4jnsgd1na2vs0mg"},{"bike_id":"f0e60294-16fa-4c68-9436-ad9f44fcb057","system_id":"levelo_inurba_marseille","lat":43.22934,"lon":5.35381,"is_reserved":false,"is_disabled":true,"rental_uris":{"android":"levelo://app?vid=f0e60294-16fa-4c68-9436-ad9f44fcb057","ios":"levelo://app?vid=f0e60294-16fa-4c68-9436-ad9f44fcb057"},"vehicle_type_id":"4","last_reported":1747332898,"current_range_meters":1600,"station_id":"cpo3532slgdg3j2ikp40","pricing_plan_id":"cebpf4jnsgd1na2vs0mg"},{"bike_id":"e261bc05-ed06-4a3d-b634-4f7528c58a8e","system_id":"levelo_inurba_marseille","lat":43.30301,"lon":5.39199,"is_reserved":false,"is_disabled":true,"rental_uris":{"android":"levelo://app?vid=e261bc05-ed06-4a3d-b634-4f7528c58a8e","ios":"levelo://app?vid=e261bc05-ed06-4a3d-b634-4f7528c58a8e"},"vehicle_type_id":"4","last_reported":1747332898,"current_range_meters":2000,"station_id":"ce4bgkh2rcd13ifvqbk0","pricing_plan_id":"cebpf4jnsgd1na2vs0mg"},{"bike_id":"f06462db-b290-43c3-9794-1ab7d7211cb3","system_id":"levelo_inurba_marseille","lat":43.29254,"lon":5.40902,"is_reserved":false,"is_disabled":true,"rental_uris":{"android":"levelo://app?vid=f06462db-b290-43c3-9794-1ab7d7211cb3","ios":"levelo://app?vid=f06462db-b290-43c3-9794-1ab7d7211cb3"},"vehicle_type_id":"4","last_reported":1747332898,"current_range_meters":2000,"station_id":"ce4bh192rcd13ifvqdc0","pricing_plan_id":"cebpf4jnsgd1na2vs0mg"},{"bike_id":"3d008139-8bd1-402a-81f8-1466fa6e0d40","system_id":"levelo_inurba_marseille","lat":43.28478,"lon":5.38421,"is_reserved":false,"is_disabled":true,"rental_uris":{"android":"levelo://app?vid=3d008139-8bd1-402a-81f8-1466fa6e0d40","ios":"levelo://app?vid=3d008139-8bd1-402a-81f8-1466fa6e0d40"},"vehicle_type_id":"4","last_reported":1747332898,"current_range_meters":2000,"station_id":"ce4bh512rcd13ifvqe3g","pricing_plan_id":"cebpf4jnsgd1na2vs0mg"},{"bike_id":"b683fed3-64e8-4a0b-adf2-35f75bbe3c1a","system_id":"levelo_inurba_marseille","lat":43.29031,"lon":5.35916,"is_reserved":false,"is_disabled":true,"rental_uris":{"android":"levelo://app?vid=b683fed3-64e8-4a0b-adf2-35f75bbe3c1a","ios":"levelo://app?vid=b683fed3-64e8-4a0b-adf2-35f75bbe3c1a"},"vehicle_type_id":"4","last_reported":1747332898,"current_range_meters":2000,"station_id":"ce4bha92rcd13ifvqeg0","pricing_plan_id":"cebpf4jnsgd1na2vs0mg"},{"bike_id":"32f3187c-a8f3-4e9c-9ea9-d11b72f079b4","system_id":"levelo_inurba_marseille","lat":43.27914,"lon":5.39573,"is_reserved":false,"is_disabled":true,"rental_uris":{"android":"levelo://app?vid=32f3187c-a8f3-4e9c-9ea9-d11b72f079b4","ios":"levelo://app?vid=32f3187c-a8f3-4e9c-9ea9-d11b72f079b4"},"vehicle_type_id":"4","last_reported":1747332898,"current_range_meters":2000,"station_id":"ce4bhf92rcd13ifvqf40","pricing_plan_id":"cebpf4jnsgd1na2vs0mg"},{"bike_id":"c10ff901-ad61-4a57-b01b-53f9b2989769","system_id":"levelo_inurba_marseille","lat":43.26063,"lon":5.39392,"is_reserved":false,"is_disabled":true,"rental_uris":{"android":"levelo://app?vid=c10ff901-ad61-4a57-b01b-53f9b2989769","ios":"levelo://app?vid=c10ff901-ad61-4a57-b01b-53f9b2989769"},"vehicle_type_id":"4","last_reported":1747332898,"current_range_meters":2000,"station_id":"ce4bhh92rcd13ifvqfj0","pricing_plan_id":"cebpf4jnsgd1na2vs0mg"},{"bike_id":"95d0b8c0-60d1-48d5-89d1-997f007926d0","system_id":"levelo_inurba_marseille","lat":43.28078,"lon":5.39659,"is_reserved":false,"is_disabled":true,"rental_uris":{"android":"levelo://app?vid=95d0b8c0-60d1-48d5-89d1-997f007926d0","ios":"levelo://app?vid=95d0b8c0-60d1-48d5-89d1-997f007926d0"},"vehicle_type_id":"4","last_reported":1747332898,"current_range_meters":2000,"station_id":"ce4bho12rcd13ifvqh2g","pricing_plan_id":"cebpf4jnsgd1na2vs0mg"},{"bike_id":"0fd4bff8-7683-40d4-b0ae-c129cdc72cba","system_id":"levelo_inurba_marseille","lat":43.301343,"lon":5.398632,"is_reserved":false,"is_disabled":false,"rental_uris":{"android":"levelo://app?vid=0fd4bff8-7683-40d4-b0ae-c129cdc72cba","ios":"levelo://app?vid=0fd4bff8-7683-40d4-b0ae-c129cdc72cba"},"vehicle_type_id":"4","last_reported":1747332898,"current_range_meters":2800,"station_id":"","pricing_plan_id":"cebpf4jnsgd1na2vs0mg"},{"bike_id":"1ccef8a7-60fd-400b-8c6e-8b794900eb65","system_id":"levelo_inurba_marseille","lat":43.29531,"lon":5.38539,"is_reserved":false,"is_disabled":false,"rental_uris":{"android":"levelo://app?vid=1ccef8a7-60fd-400b-8c6e-8b794900eb65","ios":"levelo://app?vid=1ccef8a7-60fd-400b-8c6e-8b794900eb65"},"vehicle_type_id":"4","last_reported":1747332898,"current_range_meters":2800,"station_id":"ce4bgih2rcd13ifvqba0","pricing_plan_id":"cebpf4jnsgd1na2vs0mg"},{"bike_id":"3be54945-472b-4910-a010-b169abba71ad","system_id":"levelo_inurba_marseille","lat":43.286171,"lon":5.350997,"is_reserved":false,"is_disabled":false,"rental_uris":{"android":"levelo://app?vid=3be54945-472b-4910-a010-b169abba71ad","ios":"levelo://app?vid=3be54945-472b-4910-a010-b169abba71ad"},"vehicle_type_id":"4","last_reported":1747332898,"current_range_meters":2800,"station_id":"ce4bhch2rcd13ifvqeug","pricing_plan_id":"cebpf4jnsgd1na2vs0mg"},{"bike_id":"a9472fcb-3e63-42e7-a8b4-f00251a4903b","system_id":"levelo_inurba_marseille","lat":43.27422,"lon":5.39414,"is_reserved":false,"is_disabled":false,"rental_uris":{"android":"levelo://app?vid=a9472fcb-3e63-42e7-a8b4-f00251a4903b","ios":"levelo://app?vid=a9472fcb-3e63-42e7-a8b4-f00251a4903b"},"vehicle_type_id":"4","last_reported":1747332898,"current_range_meters":2800,"station_id":"ce4bhdp2rcd13ifvqf20","pricing_plan_id":"cebpf4jnsgd1na2vs0mg"},{"bike_id":"7164693d-c026-4a7f-bb1b-5de0bdc74a12","system_id":"levelo_inurba_marseille","lat":43.24812,"lon":5.37461,"is_reserved":false,"is_disabled":false,"rental_uris":{"android":"levelo://app?vid=7164693d-c026-4a7f-bb1b-5de0bdc74a12","ios":"levelo://app?vid=7164693d-c026-4a7f-bb1b-5de0bdc74a12"},"vehicle_type_id":"4","last_reported":1747332898,"current_range_meters":2800,"station_id":"ce4bhgh2rcd13ifvqfb0","pricing_plan_id":"cebpf4jnsgd1na2vs0mg"},{"bike_id":"6eebd83d-8099-4f5c-8ba3-ae49c8b6fb39","system_id":"levelo_inurba_marseille","lat":43.241771,"lon":5.397334,"is_reserved":false,"is_disabled":false,"rental_uris":{"android":"levelo://app?vid=6eebd83d-8099-4f5c-8ba3-ae49c8b6fb39","ios":"levelo://app?vid=6eebd83d-8099-4f5c-8ba3-ae49c8b6fb39"},"vehicle_type_id":"4","last_reported":1747332898,"current_range_meters":2800,"station_id":"ce4bhn12rcd13ifvqgpg","pricing_plan_id":"cebpf4jnsgd1na2vs0mg"},{"bike_id":"21e54135-13c7-41ef-9520-1138348f826c","system_id":"levelo_inurba_marseille","lat":43.22936,"lon":5.35376,"is_reserved":false,"is_disabled":false,"rental_uris":{"android":"levelo://app?vid=21e54135-13c7-41ef-9520-1138348f826c","ios":"levelo://app?vid=21e54135-13c7-41ef-9520-1138348f826c"},"vehicle_type_id":"4","last_reported":1747332898,"current_range_meters":2800,"station_id":"cpo3532slgdg3j2ikp40","pricing_plan_id":"cebpf4jnsgd1na2vs0mg"},{"bike_id":"5e9fa20e-1340-4d0d-b683-901a4275ba5d","system_id":"levelo_inurba_marseille","lat":43.28181,"lon":5.425331,"is_reserved":false,"is_disabled":false,"rental_uris":{"android":"levelo://app?vid=5e9fa20e-1340-4d0d-b683-901a4275ba5d","ios":"levelo://app?vid=5e9fa20e-1340-4d0d-b683-901a4275ba5d"},"vehicle_type_id":"4","last_reported":1747332898,"current_range_meters":3200,"station_id":"","pricing_plan_id":"cebpf4jnsgd1na2vs0mg"},{"bike_id":"6a479bcc-1f88-4fca-bcea-7f2af9c98f24","system_id":"levelo_inurba_marseille","lat":43.30877,"lon":5.37431,"is_reserved":false,"is_disabled":false,"rental_uris":{"android":"levelo://app?vid=6a479bcc-1f88-4fca-bcea-7f2af9c98f24","ios":"levelo://app?vid=6a479bcc-1f88-4fca-bcea-7f2af9c98f24"},"vehicle_type_id":"4","last_reported":1747332898,"current_range_meters":3200,"station_id":"","pricing_plan_id":"cebpf4jnsgd1na2vs0mg"},{"bike_id":"73e2d0b2-3bd3-4f26-a76e-112884861fd7","system_id":"levelo_inurba_marseille","lat":43.30921,"lon":5.40143,"is_reserved":false,"is_disabled":false,"rental_uris":{"android":"levelo://app?vid=73e2d0b2-3bd3-4f26-a76e-112884861fd7","ios":"levelo://app?vid=73e2d0b2-3bd3-4f26-a76e-112884861fd7"},"vehicle_type_id":"4","last_reported":1747332898,"current_range_meters":3200,"station_id":"ce4bgvp2rcd13ifvqct0","pricing_plan_id":"cebpf4jnsgd1na2vs0mg"},{"bike_id":"2a159e02-335f-42f0-ba6f-54148a50cd31","system_id":"levelo_inurba_marseille","lat":43.302147,"lon":5.394741,"is_reserved":false,"is_disabled":false,"rental_uris":{"android":"levelo://app?vid=2a159e02-335f-42f0-ba6f-54148a50cd31","ios":"levelo://app?vid=2a159e02-335f-42f0-ba6f-54148a50cd31"},"vehicle_type_id":"4","last_reported":1747332898,"current_range_meters":3200,"station_id":"ce4bh0p2rcd13ifvqd70","pricing_plan_id":"cebpf4jnsgd1na2vs0mg"},{"bike_id":"7e84994c-437d-4a0c-be78-454894c035b3","system_id":"levelo_inurba_marseille","lat":43.290205,"lon":5.38649,"is_reserved":false,"is_disabled":false,"rental_uris":{"android":"levelo://app?vid=7e84994c-437d-4a0c-be78-454894c035b3","ios":"levelo://app?vid=7e84994c-437d-4a0c-be78-454894c035b3"},"vehicle_type_id":"4","last_reported":1747332898,"current_range_meters":3200,"station_id":"ce4bh4p2rcd13ifvqe0g","pricing_plan_id":"cebpf4jnsgd1na2vs0mg"},{"bike_id":"38e8ccfa-0ab4-4065-887a-e69526648da9","system_id":"levelo_inurba_marseille","lat":43.29534,"lon":5.38537,"is_reserved":false,"is_disabled":false,"rental_uris":{"android":"levelo://app?vid=38e8ccfa-0ab4-4065-887a-e69526648da9","ios":"levelo://app?vid=38e8ccfa-0ab4-4065-887a-e69526648da9"},"vehicle_type_id":"4","last_reported":1747332898,"current_range_meters":3600,"station_id":"ce4bgih2rcd13ifvqba0","pricing_plan_id":"cebpf4jnsgd1na2vs0mg"},{"bike_id":"9eb0606b-75e4-4223-8e2a-f00136aa1720","system_id":"levelo_inurba_marseille","lat":43.29707,"lon":5.36616,"is_reserved":false,"is_disabled":false,"rental_uris":{"android":"levelo://app?vid=9eb0606b-75e4-4223-8e2a-f00136aa1720","ios":"levelo://app?vid=9eb0606b-75e4-4223-8e2a-f00136aa1720"},"vehicle_type_id":"4","last_reported":1747332898,"current_range_meters":3600,"station_id":"ce4bgn12rcd13ifvqbt0","pricing_plan_id":"cebpf4jnsgd1na2vs0mg"},{"bike_id":"f46abaf3-90e6-4f30-8536-3faceaeeaf63","system_id":"levelo_inurba_marseille","lat":43.2894,"lon":5.36638,"is_reserved":false,"is_disabled":false,"rental_uris":{"android":"levelo://app?vid=f46abaf3-90e6-4f30-8536-3faceaeeaf63","ios":"levelo://app?vid=f46abaf3-90e6-4f30-8536-3faceaeeaf63"},"vehicle_type_id":"4","last_reported":1747332898,"current_range_meters":3600,"station_id":"ce4bhap2rcd13ifvqek0","pricing_plan_id":"cebpf4jnsgd1na2vs0mg"},{"bike_id":"303388d0-2d8e-40b8-b83c-e9f80c5ad979","system_id":"levelo_inurba_marseille","lat":43.27369,"lon":5.36251,"is_reserved":false,"is_disabled":false,"rental_uris":{"android":"levelo://app?vid=303388d0-2d8e-40b8-b83c-e9f80c5ad979","ios":"levelo://app?vid=303388d0-2d8e-40b8-b83c-e9f80c5ad979"},"vehicle_type_id":"4","last_reported":1747332898,"current_range_meters":3600,"station_id":"ce4bhbh2rcd13ifvqeo0","pricing_plan_id":"cebpf4jnsgd1na2vs0mg"},{"bike_id":"a8bcd020-642e-439b-b3ec-b7e6d3c5a1df","system_id":"levelo_inurba_marseille","lat":43.28159,"lon":5.42655,"is_reserved":false,"is_disabled":false,"rental_uris":{"android":"levelo://app?vid=a8bcd020-642e-439b-b3ec-b7e6d3c5a1df","ios":"levelo://app?vid=a8bcd020-642e-439b-b3ec-b7e6d3c5a1df"},"vehicle_type_id":"4","last_reported":1747332898,"current_range_meters":3600,"station_id":"ce4bhnh2rcd13ifvqgug","pricing_plan_id":"cebpf4jnsgd1na2vs0mg"},{"bike_id":"b5732ae3-0cb6-45a9-930b-66d789d2b968","system_id":"levelo_inurba_marseille","lat":43.301442,"lon":5.380831,"is_reserved":false,"is_disabled":false,"rental_uris":{"android":"levelo://app?vid=b5732ae3-0cb6-45a9-930b-66d789d2b968","ios":"levelo://app?vid=b5732ae3-0cb6-45a9-930b-66d789d2b968"},"vehicle_type_id":"4","last_reported":1747332898,"current_range_meters":4000,"station_id":"ce4bgjp2rcd13ifvqbh0","pricing_plan_id":"cebpf4jnsgd1na2vs0mg"},{"bike_id":"e0b649e4-b76a-4761-9496-5cd153ff4a83","system_id":"levelo_inurba_marseille","lat":43.298711,"lon":5.397293,"is_reserved":false,"is_disabled":false,"rental_uris":{"android":"levelo://app?vid=e0b649e4-b76a-4761-9496-5cd153ff4a83","ios":"levelo://app?vid=e0b649e4-b76a-4761-9496-5cd153ff4a83"},"vehicle_type_id":"4","last_reported":1747332898,"current_range_meters":4000,"station_id":"ce4bh0h2rcd13ifvqd50","pricing_plan_id":"cebpf4jnsgd1na2vs0mg"},{"bike_id":"07a7e3eb-8c66-4da0-be57-4c4a59f424f3","system_id":"levelo_inurba_marseille","lat":43.24383,"lon":5.37059,"is_reserved":false,"is_disabled":false,"rental_uris":{"android":"levelo://app?vid=07a7e3eb-8c66-4da0-be57-4c4a59f424f3","ios":"levelo://app?vid=07a7e3eb-8c66-4da0-be57-4c4a59f424f3"},"vehicle_type_id":"4","last_reported":1747332898,"current_range_meters":4000,"station_id":"ce4bhhh2rcd13ifvqfk0","pricing_plan_id":"cebpf4jnsgd1na2vs0mg"},{"bike_id":"83354f45-be68-498c-a709-84a7363c3314","system_id":"levelo_inurba_marseille","lat":43.29539,"lon":5.38547,"is_reserved":false,"is_disabled":false,"rental_uris":{"android":"levelo://app?vid=83354f45-be68-498c-a709-84a7363c3314","ios":"levelo://app?vid=83354f45-be68-498c-a709-84a7363c3314"},"vehicle_type_id":"4","last_reported":1747332898,"current_range_meters":4400,"station_id":"ce4bgih2rcd13ifvqba0","pricing_plan_id":"cebpf4jnsgd1na2vs0mg"},{"bike_id":"f02b77b7-1c31-41e5-acc1-be39e7b66294","system_id":"levelo_inurba_marseille","lat":43.2926,"lon":5.38437,"is_reserved":false,"is_disabled":false,"rental_uris":{"android":"levelo://app?vid=f02b77b7-1c31-41e5-acc1-be39e7b66294","ios":"levelo://app?vid=f02b77b7-1c31-41e5-acc1-be39e7b66294"},"vehicle_type_id":"4","last_reported":1747332898,"current_range_meters":4400,"station_id":"ce4bh692rcd13ifvqea0","pricing_plan_id":"cebpf4jnsgd1na2vs0mg"},{"bike_id":"175b0af1-4865-45c2-8dc8-d5a32deb3590","system_id":"levelo_inurba_marseille","lat":43.31756,"lon":5.39012,"is_reserved":false,"is_disabled":false,"rental_uris":{"android":"levelo://app?vid=175b0af1-4865-45c2-8dc8-d5a32deb3590","ios":"levelo://app?vid=175b0af1-4865-45c2-8dc8-d5a32deb3590"},"vehicle_type_id":"4","last_reported":1747332898,"current_range_meters":4400,"station_id":"ce4bhqp2rcd13ifvqhng","pricing_plan_id":"cebpf4jnsgd1na2vs0mg"},{"bike_id":"47ec3762-d3d0-4fa2-80a3-73a752980cf9","system_id":"levelo_inurba_marseille","lat":43.29566,"lon":5.37499,"is_reserved":false,"is_disabled":false,"rental_uris":{"android":"levelo://app?vid=47ec3762-d3d0-4fa2-80a3-73a752980cf9","ios":"levelo://app?vid=47ec3762-d3d0-4fa2-80a3-73a752980cf9"},"vehicle_type_id":"4","last_reported":1747332898,"current_range_meters":4800,"station_id":"ce4bgh92rcd13ifvqb50","pricing_plan_id":"cebpf4jnsgd1na2vs0mg"},{"bike_id":"0666a445-dbb4-4c92-bab0-0ac6c826bd6a","system_id":"levelo_inurba_marseille","lat":43.31687,"lon":5.40479,"is_reserved":false,"is_disabled":false,"rental_uris":{"android":"levelo://app?vid=0666a445-dbb4-4c92-bab0-0ac6c826bd6a","ios":"levelo://app?vid=0666a445-dbb4-4c92-bab0-0ac6c826bd6a"},"vehicle_type_id":"4","last_reported":1747332898,"current_range_meters":4800,"station_id":"ce4bh012rcd13ifvqd00","pricing_plan_id":"cebpf4jnsgd1na2vs0mg"},{"bike_id":"7061a76f-90b0-418d-9de9-fba7b79a4930","system_id":"levelo_inurba_marseille","lat":43.29508,"lon":5.39411,"is_reserved":false,"is_disabled":false,"rental_uris":{"android":"levelo://app?vid=7061a76f-90b0-418d-9de9-fba7b79a4930","ios":"levelo://app?vid=7061a76f-90b0-418d-9de9-fba7b79a4930"},"vehicle_type_id":"4","last_reported":1747332898,"current_range_meters":4800,"station_id":"ce4bh292rcd13ifvqdf0","pricing_plan_id":"cebpf4jnsgd1na2vs0mg"},{"bike_id":"d4fc9686-7356-4ec5-9f10-f9e883af4e04","system_id":"levelo_inurba_marseille","lat":43.25111,"lon":5.40318,"is_reserved":false,"is_disabled":false,"rental_uris":{"android":"levelo://app?vid=d4fc9686-7356-4ec5-9f10-f9e883af4e04","ios":"levelo://app?vid=d4fc9686-7356-4ec5-9f10-f9e883af4e04"},"vehicle_type_id":"4","last_reported":1747332898,"current_range_meters":4800,"station_id":"ce4bhlh2rcd13ifvqgig","pricing_plan_id":"cebpf4jnsgd1na2vs0mg"},{"bike_id":"65b36386-a8ec-4217-978c-9ba420a602bd","system_id":"levelo_inurba_marseille","lat":43.29811,"lon":5.38091,"is_reserved":false,"is_disabled":false,"rental_uris":{"android":"levelo://app?vid=65b36386-a8ec-4217-978c-9ba420a602bd","ios":"levelo://app?vid=65b36386-a8ec-4217-978c-9ba420a602bd"},"vehicle_type_id":"4","last_reported":1747332898,"current_range_meters":5600,"station_id":"ce4bgip2rcd13ifvqbb0","pricing_plan_id":"cebpf4jnsgd1na2vs0mg"},{"bike_id":"88659891-61f2-4ff1-9f2a-40fe0a0c309e","system_id":"levelo_inurba_marseille","lat":43.29982,"lon":5.37169,"is_reserved":false,"is_disabled":false,"rental_uris":{"android":"levelo://app?vid=88659891-61f2-4ff1-9f2a-40fe0a0c309e","ios":"levelo://app?vid=88659891-61f2-4ff1-9f2a-40fe0a0c309e"},"vehicle_type_id":"4","last_reported":1747332898,"current_range_meters":5600,"station_id":"ce4bgr92rcd13ifvqc7g","pricing_plan_id":"cebpf4jnsgd1na2vs0mg"},{"bike_id":"abee116c-9347-44a4-ae39-08a23cc3d051","system_id":"levelo_inurba_marseille","lat":43.31689,"lon":5.40475,"is_reserved":false,"is_disabled":false,"rental_uris":{"android":"levelo://app?vid=abee116c-9347-44a4-ae39-08a23cc3d051","ios":"levelo://app?vid=abee116c-9347-44a4-ae39-08a23cc3d051"},"vehicle_type_id":"4","last_reported":1747332898,"current_range_meters":5600,"station_id":"ce4bh012rcd13ifvqd00","pricing_plan_id":"cebpf4jnsgd1na2vs0mg"},{"bike_id":"60e21f6a-43ce-4091-bcb1-7e3a836c1bde","system_id":"levelo_inurba_marseille","lat":43.28936,"lon":5.36636,"is_reserved":false,"is_disabled":false,"rental_uris":{"android":"levelo://app?vid=60e21f6a-43ce-4091-bcb1-7e3a836c1bde","ios":"levelo://app?vid=60e21f6a-43ce-4091-bcb1-7e3a836c1bde"},"vehicle_type_id":"4","last_reported":1747332898,"current_range_meters":5600,"station_id":"ce4bhap2rcd13ifvqek0","pricing_plan_id":"cebpf4jnsgd1na2vs0mg"},{"bike_id":"99c126db-0f57-4e92-abeb-de33ccb9f077","system_id":"levelo_inurba_marseille","lat":43.31109,"lon":5.37755,"is_reserved":false,"is_disabled":false,"rental_uris":{"android":"levelo://app?vid=99c126db-0f57-4e92-abeb-de33ccb9f077","ios":"levelo://app?vid=99c126db-0f57-4e92-abeb-de33ccb9f077"},"vehicle_type_id":"4","last_reported":1747332898,"current_range_meters":6000,"station_id":"ce4bgt92rcd13ifvqcg0","pricing_plan_id":"cebpf4jnsgd1na2vs0mg"},{"bike_id":"9a2afe38-0551-444e-adab-0aa037f17d1c","system_id":"levelo_inurba_marseille","lat":43.31716,"lon":5.37749,"is_reserved":false,"is_disabled":false,"rental_uris":{"android":"levelo://app?vid=9a2afe38-0551-444e-adab-0aa037f17d1c","ios":"levelo://app?vid=9a2afe38-0551-444e-adab-0aa037f17d1c"},"vehicle_type_id":"4","last_reported":1747332898,"current_range_meters":6000,"station_id":"ce4bgth2rcd13ifvqch0","pricing_plan_id":"cebpf4jnsgd1na2vs0mg"},{"bike_id":"347c770f-e483-4b08-b34f-17837be243e1","system_id":"levelo_inurba_marseille","lat":43.29262,"lon":5.38441,"is_reserved":false,"is_disabled":false,"rental_uris":{"android":"levelo://app?vid=347c770f-e483-4b08-b34f-17837be243e1","ios":"levelo://app?vid=347c770f-e483-4b08-b34f-17837be243e1"},"vehicle_type_id":"4","last_reported":1747332898,"current_range_meters":6000,"station_id":"ce4bh692rcd13ifvqea0","pricing_plan_id":"cebpf4jnsgd1na2vs0mg"},{"bike_id":"c6eba4b5-3db0-4d42-805c-48eeee3d27c8","system_id":"levelo_inurba_marseille","lat":43.29216,"lon":5.36011,"is_reserved":false,"is_disabled":false,"rental_uris":{"android":"levelo://app?vid=c6eba4b5-3db0-4d42-805c-48eeee3d27c8","ios":"levelo://app?vid=c6eba4b5-3db0-4d42-805c-48eeee3d27c8"},"vehicle_type_id":"4","last_reported":1747332898,"current_range_meters":6000,"station_id":"ce4bhbh2rcd13ifvqeqg","pricing_plan_id":"cebpf4jnsgd1na2vs0mg"},{"bike_id":"e5c6e2fe-a072-4a17-88fe-23207f7eb982","system_id":"levelo_inurba_marseille","lat":43.2862,"lon":5.35091,"is_reserved":false,"is_disabled":false,"rental_uris":{"android":"levelo://app?vid=e5c6e2fe-a072-4a17-88fe-23207f7eb982","ios":"levelo://app?vid=e5c6e2fe-a072-4a17-88fe-23207f7eb982"},"vehicle_type_id":"4","last_reported":1747332898,"current_range_meters":6000,"station_id":"ce4bhch2rcd13ifvqeug","pricing_plan_id":"cebpf4jnsgd1na2vs0mg"},{"bike_id":"f30bca9b-d06d-4d84-81cd-a015798ef208","system_id":"levelo_inurba_marseille","lat":43.24805,"lon":5.3746,"is_reserved":false,"is_disabled":false,"rental_uris":{"android":"levelo://app?vid=f30bca9b-d06d-4d84-81cd-a015798ef208","ios":"levelo://app?vid=f30bca9b-d06d-4d84-81cd-a015798ef208"},"vehicle_type_id":"4","last_reported":1747332898,"current_range_meters":6000,"station_id":"ce4bhgh2rcd13ifvqfb0","pricing_plan_id":"cebpf4jnsgd1na2vs0mg"},{"bike_id":"b995f58c-bbb7-49f7-92e9-f9b7dfb138cc","system_id":"levelo_inurba_marseille","lat":43.29551,"lon":5.42288,"is_reserved":false,"is_disabled":false,"rental_uris":{"android":"levelo://app?vid=b995f58c-bbb7-49f7-92e9-f9b7dfb138cc","ios":"levelo://app?vid=b995f58c-bbb7-49f7-92e9-f9b7dfb138cc"},"vehicle_type_id":"4","last_reported":1747332898,"current_range_meters":6000,"station_id":"ce4bhph2rcd13ifvqhdg","pricing_plan_id":"cebpf4jnsgd1na2vs0mg"},{"bike_id":"cdd5e593-3cdd-4c89-9812-66f813668114","system_id":"levelo_inurba_marseille","lat":43.31998,"lon":5.3816,"is_reserved":false,"is_disabled":false,"rental_uris":{"android":"levelo://app?vid=cdd5e593-3cdd-4c89-9812-66f813668114","ios":"levelo://app?vid=cdd5e593-3cdd-4c89-9812-66f813668114"},"vehicle_type_id":"4","last_reported":1747332898,"current_range_meters":6000,"station_id":"ce4bhr12rcd13ifvqhpg","pricing_plan_id":"cebpf4jnsgd1na2vs0mg"},{"bike_id":"e40101b2-21b0-4ae7-beed-756d924192c6","system_id":"levelo_inurba_marseille","lat":43.29596,"lon":5.38102,"is_reserved":false,"is_disabled":false,"rental_uris":{"android":"levelo://app?vid=e40101b2-21b0-4ae7-beed-756d924192c6","ios":"levelo://app?vid=e40101b2-21b0-4ae7-beed-756d924192c6"},"vehicle_type_id":"4","last_reported":1747332898,"current_range_meters":6400,"station_id":"ce4bgl12rcd13ifvqbo0","pricing_plan_id":"cebpf4jnsgd1na2vs0mg"},{"bike_id":"1a0267b8-2c27-454e-a98a-9771ffb632d7","system_id":"levelo_inurba_marseille","lat":43.29878,"lon":5.39744,"is_reserved":false,"is_disabled":false,"rental_uris":{"android":"levelo://app?vid=1a0267b8-2c27-454e-a98a-9771ffb632d7","ios":"levelo://app?vid=1a0267b8-2c27-454e-a98a-9771ffb632d7"},"vehicle_type_id":"4","last_reported":1747332898,"current_range_meters":6400,"station_id":"ce4bh0h2rcd13ifvqd50","pricing_plan_id":"cebpf4jnsgd1na2vs0mg"},{"bike_id":"72e9ce92-c2e6-45f2-aa53-fdc86d337219","system_id":"levelo_inurba_marseille","lat":43.29023,"lon":5.38642,"is_reserved":false,"is_disabled":false,"rental_uris":{"android":"levelo://app?vid=72e9ce92-c2e6-45f2-aa53-fdc86d337219","ios":"levelo://app?vid=72e9ce92-c2e6-45f2-aa53-fdc86d337219"},"vehicle_type_id":"4","last_reported":1747332898,"current_range_meters":6400,"station_id":"ce4bh4p2rcd13ifvqe0g","pricing_plan_id":"cebpf4jnsgd1na2vs0mg"},{"bike_id":"15f98f1f-dd3a-4baa-be14-e6e8847e6087","system_id":"levelo_inurba_marseille","lat":43.29031,"lon":5.3757,"is_reserved":false,"is_disabled":false,"rental_uris":{"android":"levelo://app?vid=15f98f1f-dd3a-4baa-be14-e6e8847e6087","ios":"levelo://app?vid=15f98f1f-dd3a-4baa-be14-e6e8847e6087"},"vehicle_type_id":"4","last_reported":1747332898,"current_range_meters":6400,"station_id":"ce4bh692rcd13ifvqe90","pricing_plan_id":"cebpf4jnsgd1na2vs0mg"},{"bike_id":"5baa7772-e2fe-4389-a345-745b93ef1034","system_id":"levelo_inurba_marseille","lat":43.28443,"lon":5.359,"is_reserved":false,"is_disabled":false,"rental_uris":{"android":"levelo://app?vid=5baa7772-e2fe-4389-a345-745b93ef1034","ios":"levelo://app?vid=5baa7772-e2fe-4389-a345-745b93ef1034"},"vehicle_type_id":"4","last_reported":1747332898,"current_range_meters":6400,"station_id":"ce4bhah2rcd13ifvqei0","pricing_plan_id":"cebpf4jnsgd1na2vs0mg"},{"bike_id":"3727a4e1-f8d2-4a2d-8f1f-0ea604dfbf65","system_id":"levelo_inurba_marseille","lat":43.27373,"lon":5.36252,"is_reserved":false,"is_disabled":false,"rental_uris":{"android":"levelo://app?vid=3727a4e1-f8d2-4a2d-8f1f-0ea604dfbf65","ios":"levelo://app?vid=3727a4e1-f8d2-4a2d-8f1f-0ea604dfbf65"},"vehicle_type_id":"4","last_reported":1747332898,"current_range_meters":6400,"station_id":"ce4bhbh2rcd13ifvqeo0","pricing_plan_id":"cebpf4jnsgd1na2vs0mg"},{"bike_id":"2c6f9f29-86b5-4c98-a0eb-a23a5914f8c2","system_id":"levelo_inurba_marseille","lat":43.296074,"lon":5.38153,"is_reserved":false,"is_disabled":false,"rental_uris":{"android":"levelo://app?vid=2c6f9f29-86b5-4c98-a0eb-a23a5914f8c2","ios":"levelo://app?vid=2c6f9f29-86b5-4c98-a0eb-a23a5914f8c2"},"vehicle_type_id":"4","last_reported":1747332898,"current_range_meters":6400,"station_id":"ce4bhch2rcd13ifvqeug","pricing_plan_id":"cebpf4jnsgd1na2vs0mg"},{"bike_id":"f63e2aba-dec9-46bd-87b1-4201bf251aef","system_id":"levelo_inurba_marseille","lat":43.27963,"lon":5.38744,"is_reserved":false,"is_disabled":false,"rental_uris":{"android":"levelo://app?vid=f63e2aba-dec9-46bd-87b1-4201bf251aef","ios":"levelo://app?vid=f63e2aba-dec9-46bd-87b1-4201bf251aef"},"vehicle_type_id":"4","last_reported":1747332898,"current_range_meters":6400,"station_id":"ce4bhg12rcd13ifvqf80","pricing_plan_id":"cebpf4jnsgd1na2vs0mg"},{"bike_id":"e6b5f22b-e13d-4a42-8ed7-278fe02698d5","system_id":"levelo_inurba_marseille","lat":43.23193,"lon":5.35547,"is_reserved":false,"is_disabled":false,"rental_uris":{"android":"levelo://app?vid=e6b5f22b-e13d-4a42-8ed7-278fe02698d5","ios":"levelo://app?vid=e6b5f22b-e13d-4a42-8ed7-278fe02698d5"},"vehicle_type_id":"4","last_reported":1747332898,"current_range_meters":6800,"station_id":"ce4bhu92rcd13ifvqi70","pricing_plan_id":"cebpf4jnsgd1na2vs0mg"},{"bike_id":"0a4a4ea1-af82-4164-a7d7-9c4180063df5","system_id":"levelo_inurba_marseille","lat":43.30926,"lon":5.40149,"is_reserved":false,"is_disabled":false,"rental_uris":{"android":"levelo://app?vid=0a4a4ea1-af82-4164-a7d7-9c4180063df5","ios":"levelo://app?vid=0a4a4ea1-af82-4164-a7d7-9c4180063df5"},"vehicle_type_id":"4","last_reported":1747332898,"current_range_meters":7200,"station_id":"ce4bgvp2rcd13ifvqct0","pricing_plan_id":"cebpf4jnsgd1na2vs0mg"},{"bike_id":"be022e1d-5a82-481a-a443-be549d82ca80","system_id":"levelo_inurba_marseille","lat":43.31675,"lon":5.40487,"is_reserved":false,"is_disabled":false,"rental_uris":{"android":"levelo://app?vid=be022e1d-5a82-481a-a443-be549d82ca80","ios":"levelo://app?vid=be022e1d-5a82-481a-a443-be549d82ca80"},"vehicle_type_id":"4","last_reported":1747332898,"current_range_meters":7200,"station_id":"ce4bh012rcd13ifvqd00","pricing_plan_id":"cebpf4jnsgd1na2vs0mg"},{"bike_id":"028d3e5b-e4fc-47ef-9c3a-b1fd8345044f","system_id":"levelo_inurba_marseille","lat":43.28617,"lon":5.35107,"is_reserved":false,"is_disabled":false,"rental_uris":{"android":"levelo://app?vid=028d3e5b-e4fc-47ef-9c3a-b1fd8345044f","ios":"levelo://app?vid=028d3e5b-e4fc-47ef-9c3a-b1fd8345044f"},"vehicle_type_id":"4","last_reported":1747332898,"current_range_meters":7200,"station_id":"ce4bhch2rcd13ifvqeug","pricing_plan_id":"cebpf4jnsgd1na2vs0mg"},{"bike_id":"454a879d-4bac-4ce3-b8b7-c2acc3c21cc7","system_id":"levelo_inurba_marseille","lat":43.28631,"lon":5.35088,"is_reserved":false,"is_disabled":false,"rental_uris":{"android":"levelo://app?vid=454a879d-4bac-4ce3-b8b7-c2acc3c21cc7","ios":"levelo://app?vid=454a879d-4bac-4ce3-b8b7-c2acc3c21cc7"},"vehicle_type_id":"4","last_reported":1747332898,"current_range_meters":7200,"station_id":"ce4bhch2rcd13ifvqeug","pricing_plan_id":"cebpf4jnsgd1na2vs0mg"},{"bike_id":"f4f1c3df-f05f-42d3-a581-5db42e9a1838","system_id":"levelo_inurba_marseille","lat":43.27903,"lon":5.38012,"is_reserved":false,"is_disabled":false,"rental_uris":{"android":"levelo://app?vid=f4f1c3df-f05f-42d3-a581-5db42e9a1838","ios":"levelo://app?vid=f4f1c3df-f05f-42d3-a581-5db42e9a1838"},"vehicle_type_id":"4","last_reported":1747332898,"current_range_meters":7200,"station_id":"ce4bhf92rcd13ifvqf50","pricing_plan_id":"cebpf4jnsgd1na2vs0mg"},{"bike_id":"5983738d-9d65-49a7-bf0b-3f551513f3c0","system_id":"levelo_inurba_marseille","lat":43.246561,"lon":5.381611,"is_reserved":false,"is_disabled":false,"rental_uris":{"android":"levelo://app?vid=5983738d-9d65-49a7-bf0b-3f551513f3c0","ios":"levelo://app?vid=5983738d-9d65-49a7-bf0b-3f551513f3c0"},"vehicle_type_id":"4","last_reported":1747332898,"current_range_meters":7200,"station_id":"ce4bhih2rcd13ifvqfr0","pricing_plan_id":"cebpf4jnsgd1na2vs0mg"},{"bike_id":"61570ad2-b6ee-4ae5-aa7c-6a507529bccc","system_id":"levelo_inurba_marseille","lat":43.251062,"lon":5.403365,"is_reserved":false,"is_disabled":false,"rental_uris":{"android":"levelo://app?vid=61570ad2-b6ee-4ae5-aa7c-6a507529bccc","ios":"levelo://app?vid=61570ad2-b6ee-4ae5-aa7c-6a507529bccc"},"vehicle_type_id":"4","last_reported":1747332898,"current_range_meters":7200,"station_id":"ce4bhlh2rcd13ifvqgig","pricing_plan_id":"cebpf4jnsgd1na2vs0mg"},{"bike_id":"484a786a-84b1-45e2-bd03-f93b12fb66f3","system_id":"levelo_inurba_marseille","lat":43.25119,"lon":5.40316,"is_reserved":false,"is_disabled":false,"rental_uris":{"android":"levelo://app?vid=484a786a-84b1-45e2-bd03-f93b12fb66f3","ios":"levelo://app?vid=484a786a-84b1-45e2-bd03-f93b12fb66f3"},"vehicle_type_id":"4","last_reported":1747332898,"current_range_meters":7200,"station_id":"ce4bhlh2rcd13ifvqgig","pricing_plan_id":"cebpf4jnsgd1na2vs0mg"},{"bike_id":"3225593a-ae7c-4690-ba47-2d2c33a61c10","system_id":"levelo_inurba_marseille","lat":43.24169,"lon":5.39728,"is_reserved":false,"is_disabled":false,"rental_uris":{"android":"levelo://app?vid=3225593a-ae7c-4690-ba47-2d2c33a61c10","ios":"levelo://app?vid=3225593a-ae7c-4690-ba47-2d2c33a61c10"},"vehicle_type_id":"4","last_reported":1747332898,"current_range_meters":7200,"station_id":"ce4bhn12rcd13ifvqgpg","pricing_plan_id":"cebpf4jnsgd1na2vs0mg"},{"bike_id":"e235b8fd-7e80-44fa-b201-a2afe08e70f7","system_id":"levelo_inurba_marseille","lat":43.323293,"lon":5.406377,"is_reserved":false,"is_disabled":false,"rental_uris":{"android":"levelo://app?vid=e235b8fd-7e80-44fa-b201-a2afe08e70f7","ios":"levelo://app?vid=e235b8fd-7e80-44fa-b201-a2afe08e70f7"},"vehicle_type_id":"4","last_reported":1747332898,"current_range_meters":7200,"station_id":"ce4bhq92rcd13ifvqhjg","pricing_plan_id":"cebpf4jnsgd1na2vs0mg"},{"bike_id":"0c4d88aa-d524-4ae2-bf44-37a32f7f889d","system_id":"levelo_inurba_marseille","lat":43.286114,"lon":5.350999,"is_reserved":false,"is_disabled":false,"rental_uris":{"android":"levelo://app?vid=0c4d88aa-d524-4ae2-bf44-37a32f7f889d","ios":"levelo://app?vid=0c4d88aa-d524-4ae2-bf44-37a32f7f889d"},"vehicle_type_id":"4","last_reported":1747332898,"current_range_meters":8000,"station_id":"ce4bhch2rcd13ifvqeug","pricing_plan_id":"cebpf4jnsgd1na2vs0mg"},{"bike_id":"66004ce6-c8ae-4563-9135-f68ae2d344ae","system_id":"levelo_inurba_marseille","lat":43.276647,"lon":5.388683,"is_reserved":false,"is_disabled":false,"rental_uris":{"android":"levelo://app?vid=66004ce6-c8ae-4563-9135-f68ae2d344ae","ios":"levelo://app?vid=66004ce6-c8ae-4563-9135-f68ae2d344ae"},"vehicle_type_id":"4","last_reported":1747332898,"current_range_meters":8000,"station_id":"ce4bhi12rcd13ifvqfo0","pricing_plan_id":"cebpf4jnsgd1na2vs0mg"},{"bike_id":"2c6d0412-351e-4625-b56a-3899483bad43","system_id":"levelo_inurba_marseille","lat":43.28605,"lon":5.37068,"is_reserved":false,"is_disabled":false,"rental_uris":{"android":"levelo://app?vid=2c6d0412-351e-4625-b56a-3899483bad43","ios":"levelo://app?vid=2c6d0412-351e-4625-b56a-3899483bad43"},"vehicle_type_id":"4","last_reported":1747332898,"current_range_meters":8000,"station_id":"ce4bht12rcd13ifvqi60","pricing_plan_id":"cebpf4jnsgd1na2vs0mg"},{"bike_id":"f29fc34e-3cb0-4308-8a78-2a386d10fa64","system_id":"levelo_inurba_marseille","lat":43.29528,"lon":5.38548,"is_reserved":false,"is_disabled":false,"rental_uris":{"android":"levelo://app?vid=f29fc34e-3cb0-4308-8a78-2a386d10fa64","ios":"levelo://app?vid=f29fc34e-3cb0-4308-8a78-2a386d10fa64"},"vehicle_type_id":"4","last_reported":1747332898,"current_range_meters":8400,"station_id":"ce4bgih2rcd13ifvqba0","pricing_plan_id":"cebpf4jnsgd1na2vs0mg"},{"bike_id":"747e34ec-c188-47b9-b0fb-45844b0f56c7","system_id":"levelo_inurba_marseille","lat":43.291946,"lon":5.357933,"is_reserved":false,"is_disabled":false,"rental_uris":{"android":"levelo://app?vid=747e34ec-c188-47b9-b0fb-45844b0f56c7","ios":"levelo://app?vid=747e34ec-c188-47b9-b0fb-45844b0f56c7"},"vehicle_type_id":"4","last_reported":1747332898,"current_range_meters":8400,"station_id":"ce4bhb12rcd13ifvqel0","pricing_plan_id":"cebpf4jnsgd1na2vs0mg"},{"bike_id":"b7cb570d-77f5-48d9-be33-70291761d5d7","system_id":"levelo_inurba_marseille","lat":43.21189,"lon":5.35075,"is_reserved":false,"is_disabled":false,"rental_uris":{"android":"levelo://app?vid=b7cb570d-77f5-48d9-be33-70291761d5d7","ios":"levelo://app?vid=b7cb570d-77f5-48d9-be33-70291761d5d7"},"vehicle_type_id":"4","last_reported":1747332898,"current_range_meters":8400,"station_id":"st_cvj6sg6p6f1abm77japg","pricing_plan_id":"cebpf4jnsgd1na2vs0mg"},{"bike_id":"0081a45b-3a2f-45c5-b9fa-8aaba976d0ea","system_id":"levelo_inurba_marseille","lat":43.30262,"lon":5.40078,"is_reserved":false,"is_disabled":false,"rental_uris":{"android":"levelo://app?vid=0081a45b-3a2f-45c5-b9fa-8aaba976d0ea","ios":"levelo://app?vid=0081a45b-3a2f-45c5-b9fa-8aaba976d0ea"},"vehicle_type_id":"4","last_reported":1747332898,"current_range_meters":8800,"station_id":"ce4bgvh2rcd13ifvqcs0","pricing_plan_id":"cebpf4jnsgd1na2vs0mg"},{"bike_id":"69d23962-8ba3-4f8f-ab09-b7cf1f74dc45","system_id":"levelo_inurba_marseille","lat":43.30413,"lon":5.39749,"is_reserved":false,"is_disabled":false,"rental_uris":{"android":"levelo://app?vid=69d23962-8ba3-4f8f-ab09-b7cf1f74dc45","ios":"levelo://app?vid=69d23962-8ba3-4f8f-ab09-b7cf1f74dc45"},"vehicle_type_id":"4","last_reported":1747332898,"current_range_meters":8800,"station_id":"ce4bh092rcd13ifvqd20","pricing_plan_id":"cebpf4jnsgd1na2vs0mg"},{"bike_id":"6f842b64-96de-40f9-bfd6-5639d7c1d222","system_id":"levelo_inurba_marseille","lat":43.306627,"lon":5.400823,"is_reserved":false,"is_disabled":false,"rental_uris":{"android":"levelo://app?vid=6f842b64-96de-40f9-bfd6-5639d7c1d222","ios":"levelo://app?vid=6f842b64-96de-40f9-bfd6-5639d7c1d222"},"vehicle_type_id":"4","last_reported":1747332898,"current_range_meters":8800,"station_id":"ce4bh112rcd13ifvqda0","pricing_plan_id":"cebpf4jnsgd1na2vs0mg"},{"bike_id":"6b925e33-0cca-4d4b-bfb0-05cde9fbdd37","system_id":"levelo_inurba_marseille","lat":43.24179,"lon":5.39734,"is_reserved":false,"is_disabled":false,"rental_uris":{"android":"levelo://app?vid=6b925e33-0cca-4d4b-bfb0-05cde9fbdd37","ios":"levelo://app?vid=6b925e33-0cca-4d4b-bfb0-05cde9fbdd37"},"vehicle_type_id":"4","last_reported":1747332898,"current_range_meters":8800,"station_id":"ce4bhn12rcd13ifvqgpg","pricing_plan_id":"cebpf4jnsgd1na2vs0mg"},{"bike_id":"2b3bf122-a923-4432-b150-082845fc3ed9","system_id":"levelo_inurba_marseille","lat":43.32348,"lon":5.40609,"is_reserved":false,"is_disabled":false,"rental_uris":{"android":"levelo://app?vid=2b3bf122-a923-4432-b150-082845fc3ed9","ios":"levelo://app?vid=2b3bf122-a923-4432-b150-082845fc3ed9"},"vehicle_type_id":"4","last_reported":1747332898,"current_range_meters":8800,"station_id":"ce4bhq92rcd13ifvqhjg","pricing_plan_id":"cebpf4jnsgd1na2vs0mg"},{"bike_id":"414d56c9-f1a7-4e20-9c42-836e3990fabb","system_id":"levelo_inurba_marseille","lat":43.22934,"lon":5.35372,"is_reserved":false,"is_disabled":false,"rental_uris":{"android":"levelo://app?vid=414d56c9-f1a7-4e20-9c42-836e3990fabb","ios":"levelo://app?vid=414d56c9-f1a7-4e20-9c42-836e3990fabb"},"vehicle_type_id":"4","last_reported":1747332898,"current_range_meters":8800,"station_id":"cpo3532slgdg3j2ikp40","pricing_plan_id":"cebpf4jnsgd1na2vs0mg"},{"bike_id":"464d93e2-87bf-44da-836c-6a523fc37f50","system_id":"levelo_inurba_marseille","lat":43.21194,"lon":5.35071,"is_reserved":false,"is_disabled":false,"rental_uris":{"android":"levelo://app?vid=464d93e2-87bf-44da-836c-6a523fc37f50","ios":"levelo://app?vid=464d93e2-87bf-44da-836c-6a523fc37f50"},"vehicle_type_id":"4","last_reported":1747332898,"current_range_meters":8800,"station_id":"st_cvj6sg6p6f1abm77japg","pricing_plan_id":"cebpf4jnsgd1na2vs0mg"},{"bike_id":"0e15afb0-a993-422b-89e4-99327c2648e2","system_id":"levelo_inurba_marseille","lat":43.24883,"lon":5.40687,"is_reserved":false,"is_disabled":false,"rental_uris":{"android":"levelo://app?vid=0e15afb0-a993-422b-89e4-99327c2648e2","ios":"levelo://app?vid=0e15afb0-a993-422b-89e4-99327c2648e2"},"vehicle_type_id":"4","last_reported":1747332898,"current_range_meters":9200,"station_id":"","pricing_plan_id":"cebpf4jnsgd1na2vs0mg"},{"bike_id":"efc0fc9e-64f1-4a48-94d0-bc99f2c1db96","system_id":"levelo_inurba_marseille","lat":43.31325,"lon":5.39706,"is_reserved":false,"is_disabled":false,"rental_uris":{"android":"levelo://app?vid=efc0fc9e-64f1-4a48-94d0-bc99f2c1db96","ios":"levelo://app?vid=efc0fc9e-64f1-4a48-94d0-bc99f2c1db96"},"vehicle_type_id":"4","last_reported":1747332898,"current_range_meters":9200,"station_id":"ce4bgvp2rcd13ifvqcu0","pricing_plan_id":"cebpf4jnsgd1na2vs0mg"},{"bike_id":"41723660-68a5-4b54-b9d6-3d783e123b74","system_id":"levelo_inurba_marseille","lat":43.30609,"lon":5.39332,"is_reserved":false,"is_disabled":false,"rental_uris":{"android":"levelo://app?vid=41723660-68a5-4b54-b9d6-3d783e123b74","ios":"levelo://app?vid=41723660-68a5-4b54-b9d6-3d783e123b74"},"vehicle_type_id":"4","last_reported":1747332898,"current_range_meters":9200,"station_id":"ce4bh0p2rcd13ifvqd80","pricing_plan_id":"cebpf4jnsgd1na2vs0mg"},{"bike_id":"97debd90-929f-4fac-82c1-32872a77ce7a","system_id":"levelo_inurba_marseille","lat":43.29192,"lon":5.39323,"is_reserved":false,"is_disabled":false,"rental_uris":{"android":"levelo://app?vid=97debd90-929f-4fac-82c1-32872a77ce7a","ios":"levelo://app?vid=97debd90-929f-4fac-82c1-32872a77ce7a"},"vehicle_type_id":"4","last_reported":1747332898,"current_range_meters":9200,"station_id":"ce4bh192rcd13ifvqdd0","pricing_plan_id":"cebpf4jnsgd1na2vs0mg"},{"bike_id":"59e028a5-b4e8-4eb5-9696-1a3995cab473","system_id":"levelo_inurba_marseille","lat":43.27668,"lon":5.38881,"is_reserved":false,"is_disabled":false,"rental_uris":{"android":"levelo://app?vid=59e028a5-b4e8-4eb5-9696-1a3995cab473","ios":"levelo://app?vid=59e028a5-b4e8-4eb5-9696-1a3995cab473"},"vehicle_type_id":"4","last_reported":1747332898,"current_range_meters":9200,"station_id":"ce4bhi12rcd13ifvqfo0","pricing_plan_id":"cebpf4jnsgd1na2vs0mg"},{"bike_id":"4f80d8b0-b599-4257-aa41-e72944594f11","system_id":"levelo_inurba_marseille","lat":43.32355,"lon":5.40606,"is_reserved":false,"is_disabled":false,"rental_uris":{"android":"levelo://app?vid=4f80d8b0-b599-4257-aa41-e72944594f11","ios":"levelo://app?vid=4f80d8b0-b599-4257-aa41-e72944594f11"},"vehicle_type_id":"4","last_reported":1747332898,"current_range_meters":9200,"station_id":"ce4bhq92rcd13ifvqhjg","pricing_plan_id":"cebpf4jnsgd1na2vs0mg"},{"bike_id":"3b327311-99b9-4891-801c-f1656e56ed9f","system_id":"levelo_inurba_marseille","lat":43.29306,"lon":5.37159,"is_reserved":false,"is_disabled":false,"rental_uris":{"android":"levelo://app?vid=3b327311-99b9-4891-801c-f1656e56ed9f","ios":"levelo://app?vid=3b327311-99b9-4891-801c-f1656e56ed9f"},"vehicle_type_id":"4","last_reported":1747332898,"current_range_meters":9600,"station_id":"ce4bgh92rcd13ifvqb40","pricing_plan_id":"cebpf4jnsgd1na2vs0mg"},{"bike_id":"353a5402-2550-473a-bdc0-2e9570eb38a8","system_id":"levelo_inurba_marseille","lat":43.31163,"lon":5.38723,"is_reserved":false,"is_disabled":false,"rental_uris":{"android":"levelo://app?vid=353a5402-2550-473a-bdc0-2e9570eb38a8","ios":"levelo://app?vid=353a5402-2550-473a-bdc0-2e9570eb38a8"},"vehicle_type_id":"4","last_reported":1747332898,"current_range_meters":9600,"station_id":"ce4bgv12rcd13ifvqcp0","pricing_plan_id":"cebpf4jnsgd1na2vs0mg"},{"bike_id":"659d4bde-15fa-4e48-81b3-3f076ee82d5c","system_id":"levelo_inurba_marseille","lat":43.29276,"lon":5.40117,"is_reserved":false,"is_disabled":false,"rental_uris":{"android":"levelo://app?vid=659d4bde-15fa-4e48-81b3-3f076ee82d5c","ios":"levelo://app?vid=659d4bde-15fa-4e48-81b3-3f076ee82d5c"},"vehicle_type_id":"4","last_reported":1747332898,"current_range_meters":9600,"station_id":"ce4bh312rcd13ifvqdk0","pricing_plan_id":"cebpf4jnsgd1na2vs0mg"},{"bike_id":"f0b95139-96aa-4516-a4e0-fb8901a278f4","system_id":"levelo_inurba_marseille","lat":43.24377,"lon":5.37052,"is_reserved":false,"is_disabled":false,"rental_uris":{"android":"levelo://app?vid=f0b95139-96aa-4516-a4e0-fb8901a278f4","ios":"levelo://app?vid=f0b95139-96aa-4516-a4e0-fb8901a278f4"},"vehicle_type_id":"4","last_reported":1747332898,"current_range_meters":9600,"station_id":"ce4bhhh2rcd13ifvqfk0","pricing_plan_id":"cebpf4jnsgd1na2vs0mg"},{"bike_id":"fd368a2c-24ee-4354-aec6-35cb06319654","system_id":"levelo_inurba_marseille","lat":43.32358,"lon":5.38864,"is_reserved":false,"is_disabled":false,"rental_uris":{"android":"levelo://app?vid=fd368a2c-24ee-4354-aec6-35cb06319654","ios":"levelo://app?vid=fd368a2c-24ee-4354-aec6-35cb06319654"},"vehicle_type_id":"4","last_reported":1747332898,"current_range_meters":9600,"station_id":"ce4bhqp2rcd13ifvqhog","pricing_plan_id":"cebpf4jnsgd1na2vs0mg"},{"bike_id":"2d868c7d-1773-4908-befa-cd0aaed09d96","system_id":"levelo_inurba_marseille","lat":43.32339,"lon":5.38886,"is_reserved":false,"is_disabled":false,"rental_uris":{"android":"levelo://app?vid=2d868c7d-1773-4908-befa-cd0aaed09d96","ios":"levelo://app?vid=2d868c7d-1773-4908-befa-cd0aaed09d96"},"vehicle_type_id":"4","last_reported":1747332898,"current_range_meters":9600,"station_id":"ce4bhqp2rcd13ifvqhog","pricing_plan_id":"cebpf4jnsgd1na2vs0mg"},{"bike_id":"7f4fc273-1360-4a47-aa6f-29da663bd116","system_id":"levelo_inurba_marseille","lat":43.24897,"lon":5.39394,"is_reserved":false,"is_disabled":false,"rental_uris":{"android":"levelo://app?vid=7f4fc273-1360-4a47-aa6f-29da663bd116","ios":"levelo://app?vid=7f4fc273-1360-4a47-aa6f-29da663bd116"},"vehicle_type_id":"4","last_reported":1747332898,"current_range_meters":10000,"station_id":"","pricing_plan_id":"cebpf4jnsgd1na2vs0mg"},{"bike_id":"4e716133-12bd-48ef-8462-cdade112f10c","system_id":"levelo_inurba_marseille","lat":43.27116,"lon":5.40003,"is_reserved":false,"is_disabled":false,"rental_uris":{"android":"levelo://app?vid=4e716133-12bd-48ef-8462-cdade112f10c","ios":"levelo://app?vid=4e716133-12bd-48ef-8462-cdade112f10c"},"vehicle_type_id":"4","last_reported":1747332898,"current_range_meters":10000,"station_id":"","pricing_plan_id":"cebpf4jnsgd1na2vs0mg"},{"bike_id":"0077f398-56b6-43bb-8eeb-9798d08de05c","system_id":"levelo_inurba_marseille","lat":43.309477,"lon":5.372617,"is_reserved":false,"is_disabled":false,"rental_uris":{"android":"levelo://app?vid=0077f398-56b6-43bb-8eeb-9798d08de05c","ios":"levelo://app?vid=0077f398-56b6-43bb-8eeb-9798d08de05c"},"vehicle_type_id":"4","last_reported":1747332898,"current_range_meters":10000,"station_id":"","pricing_plan_id":"cebpf4jnsgd1na2vs0mg"},{"bike_id":"24682083-1e41-4f62-9b6e-43dccd28fc8a","system_id":"levelo_inurba_marseille","lat":43.300981,"lon":5.391141,"is_reserved":false,"is_disabled":false,"rental_uris":{"android":"levelo://app?vid=24682083-1e41-4f62-9b6e-43dccd28fc8a","ios":"levelo://app?vid=24682083-1e41-4f62-9b6e-43dccd28fc8a"},"vehicle_type_id":"4","last_reported":1747332898,"current_range_meters":10000,"station_id":"ce4bh192rcd13ifvqdb0","pricing_plan_id":"cebpf4jnsgd1na2vs0mg"},{"bike_id":"3bbd92f2-6806-408b-a244-9d40163b65cd","system_id":"levelo_inurba_marseille","lat":43.29427,"lon":5.38617,"is_reserved":false,"is_disabled":false,"rental_uris":{"android":"levelo://app?vid=3bbd92f2-6806-408b-a244-9d40163b65cd","ios":"levelo://app?vid=3bbd92f2-6806-408b-a244-9d40163b65cd"},"vehicle_type_id":"4","last_reported":1747332898,"current_range_meters":10000,"station_id":"ce4bh2h2rcd13ifvqdh0","pricing_plan_id":"cebpf4jnsgd1na2vs0mg"},{"bike_id":"a6c49a68-0b27-4659-892e-48a7987fb11e","system_id":"levelo_inurba_marseille","lat":43.27372,"lon":5.36246,"is_reserved":false,"is_disabled":false,"rental_uris":{"android":"levelo://app?vid=a6c49a68-0b27-4659-892e-48a7987fb11e","ios":"levelo://app?vid=a6c49a68-0b27-4659-892e-48a7987fb11e"},"vehicle_type_id":"4","last_reported":1747332898,"current_range_meters":10000,"station_id":"ce4bhbh2rcd13ifvqeo0","pricing_plan_id":"cebpf4jnsgd1na2vs0mg"},{"bike_id":"bee35244-ec95-4b3d-8fae-96abe913294a","system_id":"levelo_inurba_marseille","lat":43.28632,"lon":5.35092,"is_reserved":false,"is_disabled":false,"rental_uris":{"android":"levelo://app?vid=bee35244-ec95-4b3d-8fae-96abe913294a","ios":"levelo://app?vid=bee35244-ec95-4b3d-8fae-96abe913294a"},"vehicle_type_id":"4","last_reported":1747332898,"current_range_meters":10000,"station_id":"ce4bhch2rcd13ifvqeug","pricing_plan_id":"cebpf4jnsgd1na2vs0mg"},{"bike_id":"c93156e1-944d-481a-82e8-1aa26fe31275","system_id":"levelo_inurba_marseille","lat":43.28448,"lon":5.39196,"is_reserved":false,"is_disabled":false,"rental_uris":{"android":"levelo://app?vid=c93156e1-944d-481a-82e8-1aa26fe31275","ios":"levelo://app?vid=c93156e1-944d-481a-82e8-1aa26fe31275"},"vehicle_type_id":"4","last_reported":1747332898,"current_range_meters":10000,"station_id":"ce4bhoh2rcd13ifvqh5g","pricing_plan_id":"cebpf4jnsgd1na2vs0mg"},{"bike_id":"ea83939e-519f-4a57-ab62-73ee8a20c4f1","system_id":"levelo_inurba_marseille","lat":43.28722,"lon":5.36092,"is_reserved":false,"is_disabled":false,"rental_uris":{"android":"levelo://app?vid=ea83939e-519f-4a57-ab62-73ee8a20c4f1","ios":"levelo://app?vid=ea83939e-519f-4a57-ab62-73ee8a20c4f1"},"vehicle_type_id":"4","last_reported":1747332898,"current_range_meters":10000,"station_id":"cki0cbj6b192h4jlfktg","pricing_plan_id":"cebpf4jnsgd1na2vs0mg"},{"bike_id":"5fbcd3a8-5fba-4859-a6da-5a3b617f4707","system_id":"levelo_inurba_marseille","lat":43.24162,"lon":5.36407,"is_reserved":false,"is_disabled":false,"rental_uris":{"android":"levelo://app?vid=5fbcd3a8-5fba-4859-a6da-5a3b617f4707","ios":"levelo://app?vid=5fbcd3a8-5fba-4859-a6da-5a3b617f4707"},"vehicle_type_id":"4","last_reported":1747332898,"current_range_meters":10000,"station_id":"cpo36qri1sfpv3e86is0","pricing_plan_id":"cebpf4jnsgd1na2vs0mg"},{"bike_id":"f768f02c-a770-46ed-b9fb-ed1e435a3c0f","system_id":"levelo_inurba_marseille","lat":43.32937,"lon":5.38997,"is_reserved":false,"is_disabled":false,"rental_uris":{"android":"levelo://app?vid=f768f02c-a770-46ed-b9fb-ed1e435a3c0f","ios":"levelo://app?vid=f768f02c-a770-46ed-b9fb-ed1e435a3c0f"},"vehicle_type_id":"4","last_reported":1747332898,"current_range_meters":10800,"station_id":"","pricing_plan_id":"cebpf4jnsgd1na2vs0mg"},{"bike_id":"f903efc6-69ea-445b-b828-5130717595cc","system_id":"levelo_inurba_marseille","lat":43.29616,"lon":5.37723,"is_reserved":false,"is_disabled":false,"rental_uris":{"android":"levelo://app?vid=f903efc6-69ea-445b-b828-5130717595cc","ios":"levelo://app?vid=f903efc6-69ea-445b-b828-5130717595cc"},"vehicle_type_id":"4","last_reported":1747332898,"current_range_meters":10800,"station_id":"ce4bgi92rcd13ifvqb90","pricing_plan_id":"cebpf4jnsgd1na2vs0mg"},{"bike_id":"5e10ea41-f5c0-489b-a997-15c512725847","system_id":"levelo_inurba_marseille","lat":43.29804,"lon":5.38082,"is_reserved":false,"is_disabled":false,"rental_uris":{"android":"levelo://app?vid=5e10ea41-f5c0-489b-a997-15c512725847","ios":"levelo://app?vid=5e10ea41-f5c0-489b-a997-15c512725847"},"vehicle_type_id":"4","last_reported":1747332898,"current_range_meters":10800,"station_id":"ce4bgip2rcd13ifvqbb0","pricing_plan_id":"cebpf4jnsgd1na2vs0mg"},{"bike_id":"151ae386-645b-4543-9f6d-73c38cb94151","system_id":"levelo_inurba_marseille","lat":43.31687,"lon":5.40465,"is_reserved":false,"is_disabled":false,"rental_uris":{"android":"levelo://app?vid=151ae386-645b-4543-9f6d-73c38cb94151","ios":"levelo://app?vid=151ae386-645b-4543-9f6d-73c38cb94151"},"vehicle_type_id":"4","last_reported":1747332898,"current_range_meters":10800,"station_id":"ce4bh012rcd13ifvqd00","pricing_plan_id":"cebpf4jnsgd1na2vs0mg"},{"bike_id":"f3506bf0-0d97-43c1-bdba-2c7b0c7bdc5c","system_id":"levelo_inurba_marseille","lat":43.28701,"lon":5.37386,"is_reserved":false,"is_disabled":false,"rental_uris":{"android":"levelo://app?vid=f3506bf0-0d97-43c1-bdba-2c7b0c7bdc5c","ios":"levelo://app?vid=f3506bf0-0d97-43c1-bdba-2c7b0c7bdc5c"},"vehicle_type_id":"4","last_reported":1747332898,"current_range_meters":10800,"station_id":"ce4bh3p2rcd13ifvqdq0","pricing_plan_id":"cebpf4jnsgd1na2vs0mg"},{"bike_id":"ab3a1b8d-598c-486d-94f8-293196bde362","system_id":"levelo_inurba_marseille","lat":43.29276,"lon":5.36845,"is_reserved":false,"is_disabled":false,"rental_uris":{"android":"levelo://app?vid=ab3a1b8d-598c-486d-94f8-293196bde362","ios":"levelo://app?vid=ab3a1b8d-598c-486d-94f8-293196bde362"},"vehicle_type_id":"4","last_reported":1747332898,"current_range_meters":10800,"station_id":"ce4bhbp2rcd13ifvqesg","pricing_plan_id":"cebpf4jnsgd1na2vs0mg"},{"bike_id":"6394f874-224d-4022-a588-0331c5a6858d","system_id":"levelo_inurba_marseille","lat":43.28626,"lon":5.35085,"is_reserved":false,"is_disabled":false,"rental_uris":{"android":"levelo://app?vid=6394f874-224d-4022-a588-0331c5a6858d","ios":"levelo://app?vid=6394f874-224d-4022-a588-0331c5a6858d"},"vehicle_type_id":"4","last_reported":1747332898,"current_range_meters":10800,"station_id":"ce4bhch2rcd13ifvqeug","pricing_plan_id":"cebpf4jnsgd1na2vs0mg"},{"bike_id":"a1dc1686-bcd8-4ed0-b326-bc4877c1e14c","system_id":"levelo_inurba_marseille","lat":43.28071,"lon":5.39654,"is_reserved":false,"is_disabled":false,"rental_uris":{"android":"levelo://app?vid=a1dc1686-bcd8-4ed0-b326-bc4877c1e14c","ios":"levelo://app?vid=a1dc1686-bcd8-4ed0-b326-bc4877c1e14c"},"vehicle_type_id":"4","last_reported":1747332898,"current_range_meters":10800,"station_id":"ce4bho12rcd13ifvqh2g","pricing_plan_id":"cebpf4jnsgd1na2vs0mg"},{"bike_id":"d7943f50-fb06-4cb5-a4fa-d286fc3b19c0","system_id":"levelo_inurba_marseille","lat":43.31114,"lon":5.3677,"is_reserved":false,"is_disabled":false,"rental_uris":{"android":"levelo://app?vid=d7943f50-fb06-4cb5-a4fa-d286fc3b19c0","ios":"levelo://app?vid=d7943f50-fb06-4cb5-a4fa-d286fc3b19c0"},"vehicle_type_id":"4","last_reported":1747332898,"current_range_meters":11200,"station_id":"","pricing_plan_id":"cebpf4jnsgd1na2vs0mg"},{"bike_id":"dc1018bb-02b0-4de5-b545-ca781d29dc9c","system_id":"levelo_inurba_marseille","lat":43.27619,"lon":5.36109,"is_reserved":false,"is_disabled":false,"rental_uris":{"android":"levelo://app?vid=dc1018bb-02b0-4de5-b545-ca781d29dc9c","ios":"levelo://app?vid=dc1018bb-02b0-4de5-b545-ca781d29dc9c"},"vehicle_type_id":"4","last_reported":1747332898,"current_range_meters":11200,"station_id":"ce4bgj92rcd13ifvqbe0","pricing_plan_id":"cebpf4jnsgd1na2vs0mg"},{"bike_id":"41c0d8d2-9980-4ac2-aea5-ccb27cf7ec83","system_id":"levelo_inurba_marseille","lat":43.30322,"lon":5.40433,"is_reserved":false,"is_disabled":false,"rental_uris":{"android":"levelo://app?vid=41c0d8d2-9980-4ac2-aea5-ccb27cf7ec83","ios":"levelo://app?vid=41c0d8d2-9980-4ac2-aea5-ccb27cf7ec83"},"vehicle_type_id":"4","last_reported":1747332898,"current_range_meters":11200,"station_id":"ce4bh012rcd13ifvqd10","pricing_plan_id":"cebpf4jnsgd1na2vs0mg"},{"bike_id":"6d0d02a8-2201-4979-bfe6-c75759b0036e","system_id":"levelo_inurba_marseille","lat":43.27361,"lon":5.36259,"is_reserved":false,"is_disabled":false,"rental_uris":{"android":"levelo://app?vid=6d0d02a8-2201-4979-bfe6-c75759b0036e","ios":"levelo://app?vid=6d0d02a8-2201-4979-bfe6-c75759b0036e"},"vehicle_type_id":"4","last_reported":1747332898,"current_range_meters":11200,"station_id":"ce4bhbh2rcd13ifvqeo0","pricing_plan_id":"cebpf4jnsgd1na2vs0mg"},{"bike_id":"dc1b5fc1-d5de-483b-8e61-0ae24119518c","system_id":"levelo_inurba_marseille","lat":43.24077,"lon":5.37749,"is_reserved":false,"is_disabled":false,"rental_uris":{"android":"levelo://app?vid=dc1b5fc1-d5de-483b-8e61-0ae24119518c","ios":"levelo://app?vid=dc1b5fc1-d5de-483b-8e61-0ae24119518c"},"vehicle_type_id":"4","last_reported":1747332898,"current_range_meters":11200,"station_id":"ce4bhnp2rcd13ifvqgvg","pricing_plan_id":"cebpf4jnsgd1na2vs0mg"},{"bike_id":"f8708533-c882-424d-919c-8da02599e742","system_id":"levelo_inurba_marseille","lat":43.32361,"lon":5.38887,"is_reserved":false,"is_disabled":false,"rental_uris":{"android":"levelo://app?vid=f8708533-c882-424d-919c-8da02599e742","ios":"levelo://app?vid=f8708533-c882-424d-919c-8da02599e742"},"vehicle_type_id":"4","last_reported":1747332898,"current_range_meters":11200,"station_id":"ce4bhqp2rcd13ifvqhog","pricing_plan_id":"cebpf4jnsgd1na2vs0mg"},{"bike_id":"51d3b89c-2d10-4160-9819-072de27b9894","system_id":"levelo_inurba_marseille","lat":43.284227,"lon":5.349877,"is_reserved":false,"is_disabled":false,"rental_uris":{"android":"levelo://app?vid=51d3b89c-2d10-4160-9819-072de27b9894","ios":"levelo://app?vid=51d3b89c-2d10-4160-9819-072de27b9894"},"vehicle_type_id":"4","last_reported":1747332898,"current_range_meters":11600,"station_id":"ce4bhbh2rcd13ifvqepg","pricing_plan_id":"cebpf4jnsgd1na2vs0mg"},{"bike_id":"fb7163f8-dcb5-4310-bbe2-ed83e8ffbae9","system_id":"levelo_inurba_marseille","lat":43.27428,"lon":5.39405,"is_reserved":false,"is_disabled":false,"rental_uris":{"android":"levelo://app?vid=fb7163f8-dcb5-4310-bbe2-ed83e8ffbae9","ios":"levelo://app?vid=fb7163f8-dcb5-4310-bbe2-ed83e8ffbae9"},"vehicle_type_id":"4","last_reported":1747332898,"current_range_meters":11600,"station_id":"ce4bhdp2rcd13ifvqf20","pricing_plan_id":"cebpf4jnsgd1na2vs0mg"},{"bike_id":"e9cc3c08-07b9-4920-a740-789ca341cd23","system_id":"levelo_inurba_marseille","lat":43.2558,"lon":5.38233,"is_reserved":false,"is_disabled":false,"rental_uris":{"android":"levelo://app?vid=e9cc3c08-07b9-4920-a740-789ca341cd23","ios":"levelo://app?vid=e9cc3c08-07b9-4920-a740-789ca341cd23"},"vehicle_type_id":"4","last_reported":1747332898,"current_range_meters":11600,"station_id":"ce4bhih2rcd13ifvqfs0","pricing_plan_id":"cebpf4jnsgd1na2vs0mg"},{"bike_id":"c34dee5f-4e06-4011-955b-1a275c558187","system_id":"levelo_inurba_marseille","lat":43.27281,"lon":5.41035,"is_reserved":false,"is_disabled":false,"rental_uris":{"android":"levelo://app?vid=c34dee5f-4e06-4011-955b-1a275c558187","ios":"levelo://app?vid=c34dee5f-4e06-4011-955b-1a275c558187"},"vehicle_type_id":"4","last_reported":1747332898,"current_range_meters":12000,"station_id":"","pricing_plan_id":"cebpf4jnsgd1na2vs0mg"},{"bike_id":"febd6000-a2e4-4a86-a27f-460158ad2b20","system_id":"levelo_inurba_marseille","lat":43.311725,"lon":5.3872,"is_reserved":false,"is_disabled":false,"rental_uris":{"android":"levelo://app?vid=febd6000-a2e4-4a86-a27f-460158ad2b20","ios":"levelo://app?vid=febd6000-a2e4-4a86-a27f-460158ad2b20"},"vehicle_type_id":"4","last_reported":1747332898,"current_range_meters":12000,"station_id":"ce4bgv12rcd13ifvqcp0","pricing_plan_id":"cebpf4jnsgd1na2vs0mg"},{"bike_id":"9b963bec-64ec-43af-a91f-6270da5b4ef3","system_id":"levelo_inurba_marseille","lat":43.29415,"lon":5.38618,"is_reserved":false,"is_disabled":false,"rental_uris":{"android":"levelo://app?vid=9b963bec-64ec-43af-a91f-6270da5b4ef3","ios":"levelo://app?vid=9b963bec-64ec-43af-a91f-6270da5b4ef3"},"vehicle_type_id":"4","last_reported":1747332898,"current_range_meters":12000,"station_id":"ce4bh2h2rcd13ifvqdh0","pricing_plan_id":"cebpf4jnsgd1na2vs0mg"},{"bike_id":"1ca372b2-144c-48a2-ac1f-4e82f694691e","system_id":"levelo_inurba_marseille","lat":43.28634,"lon":5.35096,"is_reserved":false,"is_disabled":false,"rental_uris":{"android":"levelo://app?vid=1ca372b2-144c-48a2-ac1f-4e82f694691e","ios":"levelo://app?vid=1ca372b2-144c-48a2-ac1f-4e82f694691e"},"vehicle_type_id":"4","last_reported":1747332898,"current_range_meters":12000,"station_id":"ce4bhch2rcd13ifvqeug","pricing_plan_id":"cebpf4jnsgd1na2vs0mg"},{"bike_id":"dc643886-ab96-41da-96d1-bd674f19bfdb","system_id":"levelo_inurba_marseille","lat":43.28625,"lon":5.35109,"is_reserved":false,"is_disabled":false,"rental_uris":{"android":"levelo://app?vid=dc643886-ab96-41da-96d1-bd674f19bfdb","ios":"levelo://app?vid=dc643886-ab96-41da-96d1-bd674f19bfdb"},"vehicle_type_id":"4","last_reported":1747332898,"current_range_meters":12000,"station_id":"ce4bhch2rcd13ifvqeug","pricing_plan_id":"cebpf4jnsgd1na2vs0mg"},{"bike_id":"31bedb95-5fc4-4b24-91b1-10c9cd7506c0","system_id":"levelo_inurba_marseille","lat":43.25843,"lon":5.3942,"is_reserved":false,"is_disabled":false,"rental_uris":{"android":"levelo://app?vid=31bedb95-5fc4-4b24-91b1-10c9cd7506c0","ios":"levelo://app?vid=31bedb95-5fc4-4b24-91b1-10c9cd7506c0"},"vehicle_type_id":"4","last_reported":1747332898,"current_range_meters":12000,"station_id":"ce4bhip2rcd13ifvqft0","pricing_plan_id":"cebpf4jnsgd1na2vs0mg"},{"bike_id":"dd5422d6-53cb-49fb-8efb-b898f8501e90","system_id":"levelo_inurba_marseille","lat":43.27602,"lon":5.36123,"is_reserved":false,"is_disabled":false,"rental_uris":{"android":"levelo://app?vid=dd5422d6-53cb-49fb-8efb-b898f8501e90","ios":"levelo://app?vid=dd5422d6-53cb-49fb-8efb-b898f8501e90"},"vehicle_type_id":"4","last_reported":1747332898,"current_range_meters":12400,"station_id":"ce4bgj92rcd13ifvqbe0","pricing_plan_id":"cebpf4jnsgd1na2vs0mg"},{"bike_id":"59576e81-0f19-4514-a47d-f8c875761719","system_id":"levelo_inurba_marseille","lat":43.28618,"lon":5.35095,"is_reserved":false,"is_disabled":false,"rental_uris":{"android":"levelo://app?vid=59576e81-0f19-4514-a47d-f8c875761719","ios":"levelo://app?vid=59576e81-0f19-4514-a47d-f8c875761719"},"vehicle_type_id":"4","last_reported":1747332898,"current_range_meters":12400,"station_id":"ce4bhch2rcd13ifvqeug","pricing_plan_id":"cebpf4jnsgd1na2vs0mg"},{"bike_id":"6d2645dc-f80d-4ff5-80c2-4e25bb671537","system_id":"levelo_inurba_marseille","lat":43.24404,"lon":5.37039,"is_reserved":false,"is_disabled":false,"rental_uris":{"android":"levelo://app?vid=6d2645dc-f80d-4ff5-80c2-4e25bb671537","ios":"levelo://app?vid=6d2645dc-f80d-4ff5-80c2-4e25bb671537"},"vehicle_type_id":"4","last_reported":1747332898,"current_range_meters":12400,"station_id":"ce4bhhh2rcd13ifvqfk0","pricing_plan_id":"cebpf4jnsgd1na2vs0mg"},{"bike_id":"8390fc2f-3b73-4f73-817d-739ed45568cc","system_id":"levelo_inurba_marseille","lat":43.27175,"lon":5.40996,"is_reserved":false,"is_disabled":false,"rental_uris":{"android":"levelo://app?vid=8390fc2f-3b73-4f73-817d-739ed45568cc","ios":"levelo://app?vid=8390fc2f-3b73-4f73-817d-739ed45568cc"},"vehicle_type_id":"4","last_reported":1747332898,"current_range_meters":12400,"station_id":"ce4bhl12rcd13ifvqgf0","pricing_plan_id":"cebpf4jnsgd1na2vs0mg"},{"bike_id":"f8e4732a-2ecf-431c-8f66-abc7aabb8aa1","system_id":"levelo_inurba_marseille","lat":43.32944,"lon":5.38995,"is_reserved":false,"is_disabled":false,"rental_uris":{"android":"levelo://app?vid=f8e4732a-2ecf-431c-8f66-abc7aabb8aa1","ios":"levelo://app?vid=f8e4732a-2ecf-431c-8f66-abc7aabb8aa1"},"vehicle_type_id":"4","last_reported":1747332898,"current_range_meters":12800,"station_id":"","pricing_plan_id":"cebpf4jnsgd1na2vs0mg"},{"bike_id":"f3a72af1-1864-4f80-b643-9506010f65f6","system_id":"levelo_inurba_marseille","lat":43.28706,"lon":5.37387,"is_reserved":false,"is_disabled":false,"rental_uris":{"android":"levelo://app?vid=f3a72af1-1864-4f80-b643-9506010f65f6","ios":"levelo://app?vid=f3a72af1-1864-4f80-b643-9506010f65f6"},"vehicle_type_id":"4","last_reported":1747332898,"current_range_meters":12800,"station_id":"ce4bh3p2rcd13ifvqdq0","pricing_plan_id":"cebpf4jnsgd1na2vs0mg"},{"bike_id":"6a6c1c40-3f5a-4fa5-80d8-90e18008cae6","system_id":"levelo_inurba_marseille","lat":43.27967,"lon":5.38741,"is_reserved":false,"is_disabled":false,"rental_uris":{"android":"levelo://app?vid=6a6c1c40-3f5a-4fa5-80d8-90e18008cae6","ios":"levelo://app?vid=6a6c1c40-3f5a-4fa5-80d8-90e18008cae6"},"vehicle_type_id":"4","last_reported":1747332898,"current_range_meters":12800,"station_id":"ce4bhg12rcd13ifvqf80","pricing_plan_id":"cebpf4jnsgd1na2vs0mg"},{"bike_id":"027f72d8-88c3-409a-9f83-3afde0954f18","system_id":"levelo_inurba_marseille","lat":43.30272,"lon":5.39684,"is_reserved":false,"is_disabled":false,"rental_uris":{"android":"levelo://app?vid=027f72d8-88c3-409a-9f83-3afde0954f18","ios":"levelo://app?vid=027f72d8-88c3-409a-9f83-3afde0954f18"},"vehicle_type_id":"4","last_reported":1747332898,"current_range_meters":13600,"station_id":"","pricing_plan_id":"cebpf4jnsgd1na2vs0mg"},{"bike_id":"60192f3c-8186-4b57-bebe-ce1e31a96111","system_id":"levelo_inurba_marseille","lat":43.275604,"lon":5.384221,"is_reserved":false,"is_disabled":false,"rental_uris":{"android":"levelo://app?vid=60192f3c-8186-4b57-bebe-ce1e31a96111","ios":"levelo://app?vid=60192f3c-8186-4b57-bebe-ce1e31a96111"},"vehicle_type_id":"4","last_reported":1747332898,"current_range_meters":13600,"station_id":"ce4bhh92rcd13ifvqfi0","pricing_plan_id":"cebpf4jnsgd1na2vs0mg"},{"bike_id":"238d7f52-41a9-4d4e-836b-955a6b2dfec8","system_id":"levelo_inurba_marseille","lat":43.28169,"lon":5.42625,"is_reserved":false,"is_disabled":false,"rental_uris":{"android":"levelo://app?vid=238d7f52-41a9-4d4e-836b-955a6b2dfec8","ios":"levelo://app?vid=238d7f52-41a9-4d4e-836b-955a6b2dfec8"},"vehicle_type_id":"4","last_reported":1747332898,"current_range_meters":13600,"station_id":"ce4bhnh2rcd13ifvqgug","pricing_plan_id":"cebpf4jnsgd1na2vs0mg"},{"bike_id":"ff778f67-fde9-4bfc-b834-4486034cbaeb","system_id":"levelo_inurba_marseille","lat":43.28717,"lon":5.36084,"is_reserved":false,"is_disabled":false,"rental_uris":{"android":"levelo://app?vid=ff778f67-fde9-4bfc-b834-4486034cbaeb","ios":"levelo://app?vid=ff778f67-fde9-4bfc-b834-4486034cbaeb"},"vehicle_type_id":"4","last_reported":1747332898,"current_range_meters":13600,"station_id":"cki0cbj6b192h4jlfktg","pricing_plan_id":"cebpf4jnsgd1na2vs0mg"},{"bike_id":"4e83019b-b172-449e-846a-46049de7cd76","system_id":"levelo_inurba_marseille","lat":43.230656,"lon":5.354891,"is_reserved":false,"is_disabled":false,"rental_uris":{"android":"levelo://app?vid=4e83019b-b172-449e-846a-46049de7cd76","ios":"levelo://app?vid=4e83019b-b172-449e-846a-46049de7cd76"},"vehicle_type_id":"4","last_reported":1747332898,"current_range_meters":13600,"station_id":"cpo3342slgdg3j2ifvpg","pricing_plan_id":"cebpf4jnsgd1na2vs0mg"},{"bike_id":"db494616-55c4-45d2-8c88-051c0d50ce40","system_id":"levelo_inurba_marseille","lat":43.23194,"lon":5.35563,"is_reserved":false,"is_disabled":false,"rental_uris":{"android":"levelo://app?vid=db494616-55c4-45d2-8c88-051c0d50ce40","ios":"levelo://app?vid=db494616-55c4-45d2-8c88-051c0d50ce40"},"vehicle_type_id":"4","last_reported":1747332898,"current_range_meters":14000,"station_id":"ce4bhu92rcd13ifvqi70","pricing_plan_id":"cebpf4jnsgd1na2vs0mg"},{"bike_id":"46a3e2c1-f297-4f25-9c99-f961a1accd8c","system_id":"levelo_inurba_marseille","lat":43.33123,"lon":5.3913,"is_reserved":false,"is_disabled":false,"rental_uris":{"android":"levelo://app?vid=46a3e2c1-f297-4f25-9c99-f961a1accd8c","ios":"levelo://app?vid=46a3e2c1-f297-4f25-9c99-f961a1accd8c"},"vehicle_type_id":"4","last_reported":1747332898,"current_range_meters":14400,"station_id":"","pricing_plan_id":"cebpf4jnsgd1na2vs0mg"},{"bike_id":"f86bff49-f428-42a7-96af-ace44757dd4a","system_id":"levelo_inurba_marseille","lat":43.3377,"lon":5.37462,"is_reserved":false,"is_disabled":false,"rental_uris":{"android":"levelo://app?vid=f86bff49-f428-42a7-96af-ace44757dd4a","ios":"levelo://app?vid=f86bff49-f428-42a7-96af-ace44757dd4a"},"vehicle_type_id":"4","last_reported":1747332898,"current_range_meters":14400,"station_id":"","pricing_plan_id":"cebpf4jnsgd1na2vs0mg"},{"bike_id":"75613052-2239-4760-9e59-8ccad4422762","system_id":"levelo_inurba_marseille","lat":43.29178,"lon":5.35803,"is_reserved":false,"is_disabled":false,"rental_uris":{"android":"levelo://app?vid=75613052-2239-4760-9e59-8ccad4422762","ios":"levelo://app?vid=75613052-2239-4760-9e59-8ccad4422762"},"vehicle_type_id":"4","last_reported":1747332898,"current_range_meters":14400,"station_id":"ce4bhb12rcd13ifvqel0","pricing_plan_id":"cebpf4jnsgd1na2vs0mg"},{"bike_id":"486a16ff-cf60-49ba-b11d-8f11be5c42c7","system_id":"levelo_inurba_marseille","lat":43.27418,"lon":5.39409,"is_reserved":false,"is_disabled":false,"rental_uris":{"android":"levelo://app?vid=486a16ff-cf60-49ba-b11d-8f11be5c42c7","ios":"levelo://app?vid=486a16ff-cf60-49ba-b11d-8f11be5c42c7"},"vehicle_type_id":"4","last_reported":1747332898,"current_range_meters":14400,"station_id":"ce4bhdp2rcd13ifvqf20","pricing_plan_id":"cebpf4jnsgd1na2vs0mg"},{"bike_id":"9a12f261-d2d8-4e36-a043-594317cc9bda","system_id":"levelo_inurba_marseille","lat":43.27204,"lon":5.39179,"is_reserved":false,"is_disabled":false,"rental_uris":{"android":"levelo://app?vid=9a12f261-d2d8-4e36-a043-594317cc9bda","ios":"levelo://app?vid=9a12f261-d2d8-4e36-a043-594317cc9bda"},"vehicle_type_id":"4","last_reported":1747332898,"current_range_meters":14400,"station_id":"ce4bhhp2rcd13ifvqfm0","pricing_plan_id":"cebpf4jnsgd1na2vs0mg"},{"bike_id":"c406d3a4-3f16-45aa-ac02-83aa2ab87040","system_id":"levelo_inurba_marseille","lat":43.25114,"lon":5.40316,"is_reserved":false,"is_disabled":false,"rental_uris":{"android":"levelo://app?vid=c406d3a4-3f16-45aa-ac02-83aa2ab87040","ios":"levelo://app?vid=c406d3a4-3f16-45aa-ac02-83aa2ab87040"},"vehicle_type_id":"4","last_reported":1747332898,"current_range_meters":14400,"station_id":"ce4bhlh2rcd13ifvqgig","pricing_plan_id":"cebpf4jnsgd1na2vs0mg"},{"bike_id":"d0a89aae-c505-48ac-89df-1ee664b2dd3d","system_id":"levelo_inurba_marseille","lat":43.29813,"lon":5.38084,"is_reserved":false,"is_disabled":false,"rental_uris":{"android":"levelo://app?vid=d0a89aae-c505-48ac-89df-1ee664b2dd3d","ios":"levelo://app?vid=d0a89aae-c505-48ac-89df-1ee664b2dd3d"},"vehicle_type_id":"4","last_reported":1747332898,"current_range_meters":14800,"station_id":"ce4bgip2rcd13ifvqbb0","pricing_plan_id":"cebpf4jnsgd1na2vs0mg"},{"bike_id":"b69af355-c250-46f3-af45-611af321193e","system_id":"levelo_inurba_marseille","lat":43.31179,"lon":5.38706,"is_reserved":false,"is_disabled":false,"rental_uris":{"android":"levelo://app?vid=b69af355-c250-46f3-af45-611af321193e","ios":"levelo://app?vid=b69af355-c250-46f3-af45-611af321193e"},"vehicle_type_id":"4","last_reported":1747332898,"current_range_meters":14800,"station_id":"ce4bgv12rcd13ifvqcp0","pricing_plan_id":"cebpf4jnsgd1na2vs0mg"},{"bike_id":"0fd67ccd-f309-4463-8771-fbb6690909a5","system_id":"levelo_inurba_marseille","lat":43.29192,"lon":5.393177,"is_reserved":false,"is_disabled":false,"rental_uris":{"android":"levelo://app?vid=0fd67ccd-f309-4463-8771-fbb6690909a5","ios":"levelo://app?vid=0fd67ccd-f309-4463-8771-fbb6690909a5"},"vehicle_type_id":"4","last_reported":1747332898,"current_range_meters":14800,"station_id":"ce4bh192rcd13ifvqdd0","pricing_plan_id":"cebpf4jnsgd1na2vs0mg"},{"bike_id":"de9a8f08-e9e1-4cf6-aba4-672849827c21","system_id":"levelo_inurba_marseille","lat":43.28947,"lon":5.39621,"is_reserved":false,"is_disabled":false,"rental_uris":{"android":"levelo://app?vid=de9a8f08-e9e1-4cf6-aba4-672849827c21","ios":"levelo://app?vid=de9a8f08-e9e1-4cf6-aba4-672849827c21"},"vehicle_type_id":"4","last_reported":1747332898,"current_range_meters":14800,"station_id":"ce4bh3h2rcd13ifvqdn0","pricing_plan_id":"cebpf4jnsgd1na2vs0mg"},{"bike_id":"7fb74ba0-6b8f-43e7-853f-8c87140c7a24","system_id":"levelo_inurba_marseille","lat":43.27606,"lon":5.36093,"is_reserved":false,"is_disabled":false,"rental_uris":{"android":"levelo://app?vid=7fb74ba0-6b8f-43e7-853f-8c87140c7a24","ios":"levelo://app?vid=7fb74ba0-6b8f-43e7-853f-8c87140c7a24"},"vehicle_type_id":"4","last_reported":1747332898,"current_range_meters":15200,"station_id":"ce4bgj92rcd13ifvqbe0","pricing_plan_id":"cebpf4jnsgd1na2vs0mg"},{"bike_id":"a73f1d7a-0eb7-450f-a942-ac88065f18b3","system_id":"levelo_inurba_marseille","lat":43.30535,"lon":5.38414,"is_reserved":false,"is_disabled":false,"rental_uris":{"android":"levelo://app?vid=a73f1d7a-0eb7-450f-a942-ac88065f18b3","ios":"levelo://app?vid=a73f1d7a-0eb7-450f-a942-ac88065f18b3"},"vehicle_type_id":"4","last_reported":1747332898,"current_range_meters":16000,"station_id":"ce4bgg92rcd13ifvqb30","pricing_plan_id":"cebpf4jnsgd1na2vs0mg"},{"bike_id":"d5336670-0419-4be7-b28e-9713a20f13db","system_id":"levelo_inurba_marseille","lat":43.27606,"lon":5.36104,"is_reserved":false,"is_disabled":false,"rental_uris":{"android":"levelo://app?vid=d5336670-0419-4be7-b28e-9713a20f13db","ios":"levelo://app?vid=d5336670-0419-4be7-b28e-9713a20f13db"},"vehicle_type_id":"4","last_reported":1747332898,"current_range_meters":16000,"station_id":"ce4bgj92rcd13ifvqbe0","pricing_plan_id":"cebpf4jnsgd1na2vs0mg"},{"bike_id":"d8eae1fd-ec48-4b2e-92c9-87825ba564d1","system_id":"levelo_inurba_marseille","lat":43.31772,"lon":5.39017,"is_reserved":false,"is_disabled":false,"rental_uris":{"android":"levelo://app?vid=d8eae1fd-ec48-4b2e-92c9-87825ba564d1","ios":"levelo://app?vid=d8eae1fd-ec48-4b2e-92c9-87825ba564d1"},"vehicle_type_id":"4","last_reported":1747332898,"current_range_meters":16000,"station_id":"ce4bhqp2rcd13ifvqhng","pricing_plan_id":"cebpf4jnsgd1na2vs0mg"},{"bike_id":"685abee6-954e-406c-8655-42494a07b5e2","system_id":"levelo_inurba_marseille","lat":43.31682,"lon":5.40476,"is_reserved":false,"is_disabled":false,"rental_uris":{"android":"levelo://app?vid=685abee6-954e-406c-8655-42494a07b5e2","ios":"levelo://app?vid=685abee6-954e-406c-8655-42494a07b5e2"},"vehicle_type_id":"4","last_reported":1747332898,"current_range_meters":16400,"station_id":"ce4bh012rcd13ifvqd00","pricing_plan_id":"cebpf4jnsgd1na2vs0mg"},{"bike_id":"b4d21c2c-7cf6-40a7-aa58-cc1ca0b68349","system_id":"levelo_inurba_marseille","lat":43.29189,"lon":5.35801,"is_reserved":false,"is_disabled":false,"rental_uris":{"android":"levelo://app?vid=b4d21c2c-7cf6-40a7-aa58-cc1ca0b68349","ios":"levelo://app?vid=b4d21c2c-7cf6-40a7-aa58-cc1ca0b68349"},"vehicle_type_id":"4","last_reported":1747332898,"current_range_meters":16400,"station_id":"ce4bhb12rcd13ifvqel0","pricing_plan_id":"cebpf4jnsgd1na2vs0mg"},