{"last_updated":1735769267,"ttl":60,"version":"2.2","data":{"bikes":[{"bike_id":"6921c701-675b-4411-b28e-a56903e4b8b7","system_id":"levelo_inurba_marseille","lat":43.28085,"lon":5.39651,"is_reserved":false,"is_disabled":false,"rental_uris":{"android":"levelo://app?vid=6921c701-675b-4411-b28e-a56903e4b8b7","ios":"levelo://app?vid=6921c701-675b-4411-b28e-a56903e4b8b7"},"vehicle_type_id":"4","last_reported":1735769267,"current_range_meters":32000,"station_id":"ce4bho12rcd13ifvqh2g","pricing_plan_id":"cebpf4jnsgd1na2vs0mg"},{"bike_id":"5ee06d1f-f474-4883-9d52-622f82f42531","system_id":"levelo_inurba_marseille","lat":43.32548,"lon":5.41484,"is_reserved":false,"is_disabled":false,"rental_uris":{"android":"levelo://app?vid=5ee06d1f-f474-4883-9d52-622f82f42531","ios":"levelo://app?vid=5ee06d1f-f474-4883-9d52-622f82f42531"},"vehicle_type_id":"4","last_reported":1735769267,"current_range_meters":39200,"station_id":"ce4bhq12rcd13ifvqhhg","pricing_plan_id":"cebpf4jnsgd1na2vs0mg"},{"bike_id":"172ccd61-d49f-41ee-9d70-c90aa70835fe","system_id":"levelo_inurba_marseille","lat":43.2744,"lon":5.39403,"is_reserved":false,"is_disabled":false,"rental_uris":{"android":"levelo://app?vid=172ccd61-d49f-41ee-9d70-c90aa70835fe","ios":"levelo://app?vid=172ccd61-d49f-41ee-9d70-c90aa70835fe"},"vehicle_type_id":"4","last_reported":1735769267,"current_range_meters":36800,"station_id":"ce4bhdp2rcd13ifvqf20","pricing_plan_id":"cebpf4jnsgd1na2vs0mg"},{"bike_id":"0750d2f4-8afa-40ed-9c4c-32e22a33c267","system_id":"levelo_inurba_marseille","lat":43.26803,"lon":5.40259,"is_reserved":false,"is_disabled":true,"rental_uris":{"android":"levelo://app?vid=0750d2f4-8afa-40ed-9c4c-32e22a33c267","ios":"levelo://app?vid=0750d2f4-8afa-40ed-9c4c-32e22a33c267"},"vehicle_type_id":"4","last_reported":1735769267,"current_range_meters":35600,"station_id":"ce501612rcd8frsf0b60","pricing_plan_id":"cebpf4jnsgd1na2vs0mg"},{"bike_id":"9f53e4dc-a826-426b-9ca9-adccc5d43e1f","system_id":"levelo_inurba_marseille","lat":43.25943,"lon":5.40917,"is_reserved":false,"is_disabled":false,"rental_uris":{"android":"levelo://app?vid=9f53e4dc-a826-426b-9ca9-adccc5d43e1f","ios":"levelo://app?vid=9f53e4dc-a826-426b-9ca9-adccc5d43e1f"},"vehicle_type_id":"4","last_reported":1735769267,"current_range_meters":28400,"station_id":"ce4bhm92rcd13ifvqglg","pricing_plan_id":"cebpf4jnsgd1na2vs0mg"},{"bike_id":"bc774450-9e82-4b77-bec0-9757df77a13c","system_id":"levelo_inurba_marseille","lat":43.26481,"lon":5.39558,"is_reserved":false,"is_disabled":false,"rental_uris":{"android":"levelo://app?vid=bc774450-9e82-4b77-bec0-9757df77a13c","ios":"levelo://app?vid=bc774450-9e82-4b77-bec0-9757df77a13c"},"vehicle_type_id":"4","last_reported":1735769267,"current_range_meters":38800,"station_id":"ce4bhi12rcd13ifvqfq0","pricing_plan_id":"cebpf4jnsgd1na2vs0mg"},{"bike_id":"30675ccc-9ef1-40b1-963e-228cee2b4741","system_id":"levelo_inurba_marseille","lat":43.27965,"lon":5.41035,"is_reserved":false,"is_disabled":true,"rental_uris":{"android":"levelo://app?vid=30675ccc-9ef1-40b1-963e-228cee2b4741","ios":"levelo://app?vid=30675ccc-9ef1-40b1-963e-228cee2b4741"},"vehicle_type_id":"4","last_reported":1735769267,"current_range_meters":18800,"station_id":"ce4bhnp2rcd13ifvqh0g","pricing_plan_id":"cebpf4jnsgd1na2vs0mg"},{"bike_id":"05b7f85e-bf88-49fb-bd38-5f64dd7307ea","system_id":"levelo_inurba_marseille","lat":43.29706,"lon":5.36617,"is_reserved":false,"is_disabled":false,"rental_uris":{"android":"levelo://app?vid=05b7f85e-bf88-49fb-bd38-5f64dd7307ea","ios":"levelo://app?vid=05b7f85e-bf88-49fb-bd38-5f64dd7307ea"},"vehicle_type_id":"4","last_reported":1735769267,"current_range_meters":24400,"station_id":"ce4bgn12rcd13ifvqbt0","pricing_plan_id":"cebpf4jnsgd1na2vs0mg"},{"bike_id":"259412ae-a9bb-43fa-89b0-91ce274ab21d","system_id":"levelo_inurba_marseille","lat":43.25726,"lon":5.41104,"is_reserved":false,"is_disabled":false,"rental_uris":{"android":"levelo://app?vid=259412ae-a9bb-43fa-89b0-91ce274ab21d","ios":"levelo://app?vid=259412ae-a9bb-43fa-89b0-91ce274ab21d"},"vehicle_type_id":"4","last_reported":1735769267,"current_range_meters":39200,"station_id":"ce4bhkp2rcd13ifvqgd0","pricing_plan_id":"cebpf4jnsgd1na2vs0mg"},{"bike_id":"fac1a9db-3d14-402b-97be-9d776351f485","system_id":"levelo_inurba_marseille","lat":43.31278,"lon":5.4016,"is_reserved":false,"is_disabled":false,"rental_uris":{"android":"levelo://app?vid=fac1a9db-3d14-402b-97be-9d776351f485","ios":"levelo://app?vid=fac1a9db-3d14-402b-97be-9d776351f485"},"vehicle_type_id":"4","last_reported":1735769267,"current_range_meters":37600,"station_id":"ce4bh092rcd13ifvqd30","pricing_plan_id":"cebpf4jnsgd1na2vs0mg"},{"bike_id":"20659d93-4d73-4c77-bdf3-5a50208f850c","system_id":"levelo_inurba_marseille","lat":43.24678,"lon":5.3815,"is_reserved":false,"is_disabled":false,"rental_uris":{"android":"levelo://app?vid=20659d93-4d73-4c77-bdf3-5a50208f850c","ios":"levelo://app?vid=20659d93-4d73-4c77-bdf3-5a50208f850c"},"vehicle_type_id":"4","last_reported":1735769267,"current_range_meters":28000,"station_id":"ce4bhih2rcd13ifvqfr0","pricing_plan_id":"cebpf4jnsgd1na2vs0mg"},{"bike_id":"4937a075-f19a-4dd2-ad27-ee8a180f6239","system_id":"levelo_inurba_marseille","lat":43.23197,"lon":5.39968,"is_reserved":false,"is_disabled":false,"rental_uris":{"android":"levelo://app?vid=4937a075-f19a-4dd2-ad27-ee8a180f6239","ios":"levelo://app?vid=4937a075-f19a-4dd2-ad27-ee8a180f6239"},"vehicle_type_id":"4","last_reported":1735769267,"current_range_meters":31200,"station_id":"ce4bhn12rcd13ifvqgqg","pricing_plan_id":"cebpf4jnsgd1na2vs0mg"},{"bike_id":"0ee7dbed-7540-4de9-94e5-dcf46398860b","system_id":"levelo_inurba_marseille","lat":43.26204,"lon":5.37444,"is_reserved":false,"is_disabled":false,"rental_uris":{"android":"levelo://app?vid=0ee7dbed-7540-4de9-94e5-dcf46398860b","ios":"levelo://app?vid=0ee7dbed-7540-4de9-94e5-dcf46398860b"},"vehicle_type_id":"4","last_reported":1735769267,"current_range_meters":28800,"station_id":"ce4bhgp2rcd13ifvqfc0","pricing_plan_id":"cebpf4jnsgd1na2vs0mg"},{"bike_id":"894955ae-53f5-4dd8-be6e-7b65b17c33af","system_id":"levelo_inurba_marseille","lat":43.29435,"lon":5.3976,"is_reserved":false,"is_disabled":false,"rental_uris":{"android":"levelo://app?vid=894955ae-53f5-4dd8-be6e-7b65b17c33af","ios":"levelo://app?vid=894955ae-53f5-4dd8-be6e-7b65b17c33af"},"vehicle_type_id":"4","last_reported":1735769267,"current_range_meters":37600,"station_id":"ce4bh3h2rcd13ifvqdo0","pricing_plan_id":"cebpf4jnsgd1na2vs0mg"},{"bike_id":"8ad09b60-3a79-4fc1-9f8d-63dc687108f3","system_id":"levelo_inurba_marseille","lat":43.33746,"lon":5.37452,"is_reserved":false,"is_disabled":false,"rental_uris":{"android":"levelo://app?vid=8ad09b60-3a79-4fc1-9f8d-63dc687108f3","ios":"levelo://app?vid=8ad09b60-3a79-4fc1-9f8d-63dc687108f3"},"vehicle_type_id":"4","last_reported":1735769267,"current_range_meters":36000,"station_id":"","pricing_plan_id":"cebpf4jnsgd1na2vs0mg"},{"bike_id":"116f92ae-65b4-4f7c-a23b-1117c0a69b33","system_id":"levelo_inurba_marseille","lat":43.28616,"lon":5.35115,"is_reserved":false,"is_disabled":false,"rental_uris":{"android":"levelo://app?vid=116f92ae-65b4-4f7c-a23b-1117c0a69b33","ios":"levelo://app?vid=116f92ae-65b4-4f7c-a23b-1117c0a69b33"},"vehicle_type_id":"4","last_reported":1735769267,"current_range_meters":34000,"station_id":"ce4bhch2rcd13ifvqeug","pricing_plan_id":"cebpf4jnsgd1na2vs0mg"},{"bike_id":"e423629e-caf1-4427-8702-b30357fe9b81","system_id":"levelo_inurba_marseille","lat":43.25015,"lon":5.38906,"is_reserved":false,"is_disabled":false,"rental_uris":{"android":"levelo://app?vid=e423629e-caf1-4427-8702-b30357fe9b81","ios":"levelo://app?vid=e423629e-caf1-4427-8702-b30357fe9b81"},"vehicle_type_id":"4","last_reported":1735769267,"current_range_meters":20000,"station_id":"ce4bhgp2rcd13ifvqfd0","pricing_plan_id":"cebpf4jnsgd1na2vs0mg"},{"bike_id":"5430a545-a0f1-45ad-a500-b4193006fdcf","system_id":"levelo_inurba_marseille","lat":43.23195,"lon":5.35564,"is_reserved":false,"is_disabled":false,"rental_uris":{"android":"levelo://app?vid=5430a545-a0f1-45ad-a500-b4193006fdcf","ios":"levelo://app?vid=5430a545-a0f1-45ad-a500-b4193006fdcf"},"vehicle_type_id":"4","last_reported":1735769267,"current_range_meters":24400,"station_id":"ce4bhu92rcd13ifvqi70","pricing_plan_id":"cebpf4jnsgd1na2vs0mg"},{"bike_id":"18391261-2da5-4823-915a-3973b5de088e","system_id":"levelo_inurba_marseille","lat":43.28703,"lon":5.37391,"is_reserved":false,"is_disabled":false,"rental_uris":{"android":"levelo://app?vid=18391261-2da5-4823-915a-3973b5de088e","ios":"levelo://app?vid=18391261-2da5-4823-915a-3973b5de088e"},"vehicle_type_id":"4","last_reported":1735769267,"current_range_meters":26000,"station_id":"ce4bh3p2rcd13ifvqdq0","pricing_plan_id":"cebpf4jnsgd1na2vs0mg"},{"bike_id":"dcbad84f-86fe-4379-b8f3-ab117412ab2b","system_id":"levelo_inurba_marseille","lat":43.30806,"lon":5.43522,"is_reserved":false,"is_disabled":false,"rental_uris":{"android":"levelo://app?vid=dcbad84f-86fe-4379-b8f3-ab117412ab2b","ios":"levelo://app?vid=dcbad84f-86fe-4379-b8f3-ab117412ab2b"},"vehicle_type_id":"4","last_reported":1735769267,"current_range_meters":37600,"station_id":"ce4bhph2rcd13ifvqheg","pricing_plan_id":"cebpf4jnsgd1na2vs0mg"},{"bike_id":"ebb56956-e2e2-4f51-8f7a-80ccc26c078c","system_id":"levelo_inurba_marseille","lat":43.28137,"lon":5.42637,"is_reserved":false,"is_disabled":false,"rental_uris":{"android":"levelo://app?vid=ebb56956-e2e2-4f51-8f7a-80ccc26c078c","ios":"levelo://app?vid=ebb56956-e2e2-4f51-8f7a-80ccc26c078c"},"vehicle_type_id":"4","last_reported":1735769267,"current_range_meters":36800,"station_id":"ce4bhnh2rcd13ifvqgug","pricing_plan_id":"cebpf4jnsgd1na2vs0mg"},{"bike_id":"231101e3-5552-421b-ad79-40d05dd09ca1","system_id":"levelo_inurba_marseille","lat":43.33724,"lon":5.39188,"is_reserved":false,"is_disabled":false,"rental_uris":{"android":"levelo://app?vid=231101e3-5552-421b-ad79-40d05dd09ca1","ios":"levelo://app?vid=231101e3-5552-421b-ad79-40d05dd09ca1"},"vehicle_type_id":"4","last_reported":1735769267,"current_range_meters":38800,"station_id":"ce4bhr92rcd13ifvqhsg","pricing_plan_id":"cebpf4jnsgd1na2vs0mg"},{"bike_id":"2da7d987-63ba-478c-8e6c-84247b4e60a0","system_id":"levelo_inurba_marseille","lat":43.30862,"lon":5.39651,"is_reserved":false,"is_disabled":false,"rental_uris":{"android":"levelo://app?vid=2da7d987-63ba-478c-8e6c-84247b4e60a0","ios":"levelo://app?vid=2da7d987-63ba-478c-8e6c-84247b4e60a0"},"vehicle_type_id":"4","last_reported":1735769267,"current_range_meters":31200,"station_id":"ce4bh012rcd13ifvqcv0","pricing_plan_id":"cebpf4jnsgd1na2vs0mg"},{"bike_id":"e9ad258e-f608-4eca-b135-befe9b76ced7","system_id":"levelo_inurba_marseille","lat":43.29281,"lon":5.37446,"is_reserved":false,"is_disabled":false,"rental_uris":{"android":"levelo://app?vid=e9ad258e-f608-4eca-b135-befe9b76ced7","ios":"levelo://app?vid=e9ad258e-f608-4eca-b135-befe9b76ced7"},"vehicle_type_id":"4","last_reported":1735769267,"current_range_meters":38800,"station_id":"ce4bgi12rcd13ifvqb70","pricing_plan_id":"cebpf4jnsgd1na2vs0mg"},{"bike_id":"406c72fc-c815-4840-861a-36d7f7f2fd01","system_id":"levelo_inurba_marseille","lat":43.23189,"lon":5.35544,"is_reserved":false,"is_disabled":false,"rental_uris":{"android":"levelo://app?vid=406c72fc-c815-4840-861a-36d7f7f2fd01","ios":"levelo://app?vid=406c72fc-c815-4840-861a-36d7f7f2fd01"},"vehicle_type_id":"4","last_reported":1735769267,"current_range_meters":39200,"station_id":"ce4bhu92rcd13ifvqi70","pricing_plan_id":"cebpf4jnsgd1na2vs0mg"},{"bike_id":"89dcc7b2-6e83-481a-8d85-32a7e16b5a26","system_id":"levelo_inurba_marseille","lat":43.29566,"lon":5.39976,"is_reserved":false,"is_disabled":false,"rental_uris":{"android":"levelo://app?vid=89dcc7b2-6e83-481a-8d85-32a7e16b5a26","ios":"levelo://app?vid=89dcc7b2-6e83-481a-8d85-32a7e16b5a26"},"vehicle_type_id":"4","last_reported":1735769267,"current_range_meters":32400,"station_id":"ce4bh312rcd13ifvqdj0","pricing_plan_id":"cebpf4jnsgd1na2vs0mg"},{"bike_id":"a1897298-635d-40f7-ad90-6dea8f3551fd","system_id":"levelo_inurba_marseille","lat":43.28358,"lon":5.38108,"is_reserved":false,"is_disabled":false,"rental_uris":{"android":"levelo://app?vid=a1897298-635d-40f7-ad90-6dea8f3551fd","ios":"levelo://app?vid=a1897298-635d-40f7-ad90-6dea8f3551fd"},"vehicle_type_id":"4","last_reported":1735769267,"current_range_meters":38800,"station_id":"ce4bh412rcd13ifvqdr0","pricing_plan_id":"cebpf4jnsgd1na2vs0mg"},{"bike_id":"832967be-0882-40d1-8642-5973b9ea3bdd","system_id":"levelo_inurba_marseille","lat":43.30593,"lon":5.39355,"is_reserved":false,"is_disabled":false,"rental_uris":{"android":"levelo://app?vid=832967be-0882-40d1-8642-5973b9ea3bdd","ios":"levelo://app?vid=832967be-0882-40d1-8642-5973b9ea3bdd"},"vehicle_type_id":"4","last_reported":1735769267,"current_range_meters":38000,"station_id":"ce4bh0p2rcd13ifvqd80","pricing_plan_id":"cebpf4jnsgd1na2vs0mg"},{"bike_id":"01fa9a0f-9f98-4d10-9075-9d7dbad43655","system_id":"levelo_inurba_marseille","lat":43.30503,"lon":5.36713,"is_reserved":false,"is_disabled":false,"rental_uris":{"android":"levelo://app?vid=01fa9a0f-9f98-4d10-9075-9d7dbad43655","ios":"levelo://app?vid=01fa9a0f-9f98-4d10-9075-9d7dbad43655"},"vehicle_type_id":"4","last_reported":1735769267,"current_range_meters":38000,"station_id":"ce4bgrp2rcd13ifvqc9g","pricing_plan_id":"cebpf4jnsgd1na2vs0mg"},{"bike_id":"a3517146-3a38-485e-9b65-46f28f14e1c6","system_id":"levelo_inurba_marseille","lat":43.26928,"lon":5.38916,"is_reserved":false,"is_disabled":false,"rental_uris":{"android":"levelo://app?vid=a3517146-3a38-485e-9b65-46f28f14e1c6","ios":"levelo://app?vid=a3517146-3a38-485e-9b65-46f28f14e1c6"},"vehicle_type_id":"4","last_reported":1735769267,"current_range_meters":30000,"station_id":"ce4bhhh2rcd13ifvqfl0","pricing_plan_id":"cebpf4jnsgd1na2vs0mg"},{"bike_id":"6d3379aa-0f1b-4ef6-a7dc-b0f6d379d543","system_id":"levelo_inurba_marseille","lat":43.25875,"lon":5.39914,"is_reserved":false,"is_disabled":false,"rental_uris":{"android":"levelo://app?vid=6d3379aa-0f1b-4ef6-a7dc-b0f6d379d543","ios":"levelo://app?vid=6d3379aa-0f1b-4ef6-a7dc-b0f6d379d543"},"vehicle_type_id":"4","last_reported":1735769267,"current_range_meters":38800,"station_id":"ce4bhl92rcd13ifvqghg","pricing_plan_id":"cebpf4jnsgd1na2vs0mg"},{"bike_id":"1bc86929-a7c5-4532-aa73-e694188946da","system_id":"levelo_inurba_marseille","lat":43.28666,"lon":5.3635,"is_reserved":false,"is_disabled":false,"rental_uris":{"android":"levelo://app?vid=1bc86929-a7c5-4532-aa73-e694188946da","ios":"levelo://app?vid=1bc86929-a7c5-4532-aa73-e694188946da"},"vehicle_type_id":"4","last_reported":1735769267,"current_range_meters":39200,"station_id":"ce4bhah2rcd13ifvqej0","pricing_plan_id":"cebpf4jnsgd1na2vs0mg"},{"bike_id":"0414a468-1219-4f8e-a750-d9badae394df","system_id":"levelo_inurba_marseille","lat":43.28085,"lon":5.39636,"is_reserved":false,"is_disabled":false,"rental_uris":{"android":"levelo://app?vid=0414a468-1219-4f8e-a750-d9badae394df","ios":"levelo://app?vid=0414a468-1219-4f8e-a750-d9badae394df"},"vehicle_type_id":"4","last_reported":1735769267,"current_range_meters":38800,"station_id":"ce4bho12rcd13ifvqh2g","pricing_plan_id":"cebpf4jnsgd1na2vs0mg"},{"bike_id":"63897349-1a46-416c-accd-1549bc376970","system_id":"levelo_inurba_marseille","lat":43.25828,"lon":5.39435,"is_reserved":false,"is_disabled":false,"rental_uris":{"android":"levelo://app?vid=63897349-1a46-416c-accd-1549bc376970","ios":"levelo://app?vid=63897349-1a46-416c-accd-1549bc376970"},"vehicle_type_id":"4","last_reported":1735769267,"current_range_meters":37600,"station_id":"ce4bhip2rcd13ifvqft0","pricing_plan_id":"cebpf4jnsgd1na2vs0mg"},{"bike_id":"ff49d49a-53c3-499a-b296-89a67f332a8a","system_id":"levelo_inurba_marseille","lat":43.2417,"lon":5.36399,"is_reserved":false,"is_disabled":false,"rental_uris":{"android":"levelo://app?vid=ff49d49a-53c3-499a-b296-89a67f332a8a","ios":"levelo://app?vid=ff49d49a-53c3-499a-b296-89a67f332a8a"},"vehicle_type_id":"4","last_reported":1735769267,"current_range_meters":32000,"station_id":"cpo36qri1sfpv3e86is0","pricing_plan_id":"cebpf4jnsgd1na2vs0mg"},{"bike_id":"9bda046f-4b0f-48f1-b8cf-fc74125c4d91","system_id":"levelo_inurba_marseille","lat":43.31325,"lon":5.39689,"is_reserved":false,"is_disabled":false,"rental_uris":{"android":"levelo://app?vid=9bda046f-4b0f-48f1-b8cf-fc74125c4d91","ios":"levelo://app?vid=9bda046f-4b0f-48f1-b8cf-fc74125c4d91"},"vehicle_type_id":"4","last_reported":1735769267,"current_range_meters":39200,"station_id":"ce4bgvp2rcd13ifvqcu0","pricing_plan_id":"cebpf4jnsgd1na2vs0mg"},{"bike_id":"be0e0304-336c-4d8e-ada3-33a38d0dd544","system_id":"levelo_inurba_marseille","lat":43.31361,"lon":5.36782,"is_reserved":false,"is_disabled":true,"rental_uris":{"android":"levelo://app?vid=be0e0304-336c-4d8e-ada3-33a38d0dd544","ios":"levelo://app?vid=be0e0304-336c-4d8e-ada3-33a38d0dd544"},"vehicle_type_id":"4","last_reported":1735769267,"current_range_meters":28000,"station_id":"","pricing_plan_id":"cebpf4jnsgd1na2vs0mg"},{"bike_id":"bcc47b98-405a-4d86-8e5f-bbe262abbd0d","system_id":"levelo_inurba_marseille","lat":43.3211,"lon":5.36773,"is_reserved":false,"is_disabled":false,"rental_uris":{"android":"levelo://app?vid=bcc47b98-405a-4d86-8e5f-bbe262abbd0d","ios":"levelo://app?vid=bcc47b98-405a-4d86-8e5f-bbe262abbd0d"},"vehicle_type_id":"4","last_reported":1735769267,"current_range_meters":32400,"station_id":"ce4bhrh2rcd13ifvqhug","pricing_plan_id":"cebpf4jnsgd1na2vs0mg"},{"bike_id":"fe2ed51f-6871-400c-b411-213d0c0c4c0b","system_id":"levelo_inurba_marseille","lat":43.28436,"lon":5.39207,"is_reserved":false,"is_disabled":false,"rental_uris":{"android":"levelo://app?vid=fe2ed51f-6871-400c-b411-213d0c0c4c0b","ios":"levelo://app?vid=fe2ed51f-6871-400c-b411-213d0c0c4c0b"},"vehicle_type_id":"4","last_reported":1735769267,"current_range_meters":38800,"station_id":"ce4bhoh2rcd13ifvqh5g","pricing_plan_id":"cebpf4jnsgd1na2vs0mg"},{"bike_id":"ec687720-4efc-448d-9ce8-fcfe4d3a5f30","system_id":"levelo_inurba_marseille","lat":43.27207,"lon":5.39196,"is_reserved":false,"is_disabled":true,"rental_uris":{"android":"levelo://app?vid=ec687720-4efc-448d-9ce8-fcfe4d3a5f30","ios":"levelo://app?vid=ec687720-4efc-448d-9ce8-fcfe4d3a5f30"},"vehicle_type_id":"4","last_reported":1735769267,"current_range_meters":25600,"station_id":"ce4bhhp2rcd13ifvqfm0","pricing_plan_id":"cebpf4jnsgd1na2vs0mg"},{"bike_id":"027085de-3c06-4c90-8099-b9537f78e863","system_id":"levelo_inurba_marseille","lat":43.23157,"lon":5.43659,"is_reserved":false,"is_disabled":false,"rental_uris":{"android":"levelo://app?vid=027085de-3c06-4c90-8099-b9537f78e863","ios":"levelo://app?vid=027085de-3c06-4c90-8099-b9537f78e863"},"vehicle_type_id":"4","last_reported":1735769267,"current_range_meters":33600,"station_id":"ce4bhmp2rcd13ifvqgog","pricing_plan_id":"cebpf4jnsgd1na2vs0mg"},{"bike_id":"7d79c402-dbee-4da9-b745-6b34728fd29a","system_id":"levelo_inurba_marseille","lat":43.29226,"lon":5.36068,"is_reserved":false,"is_disabled":false,"rental_uris":{"android":"levelo://app?vid=7d79c402-dbee-4da9-b745-6b34728fd29a","ios":"levelo://app?vid=7d79c402-dbee-4da9-b745-6b34728fd29a"},"vehicle_type_id":"4","last_reported":1735769267,"current_range_meters":22000,"station_id":"ce4bhbh2rcd13ifvqeqg","pricing_plan_id":"cebpf4jnsgd1na2vs0mg"},{"bike_id":"f585701f-ce56-4599-8126-d7d811fe7259","system_id":"levelo_inurba_marseille","lat":43.28581,"lon":5.39481,"is_reserved":false,"is_disabled":false,"rental_uris":{"android":"levelo://app?vid=f585701f-ce56-4599-8126-d7d811fe7259","ios":"levelo://app?vid=f585701f-ce56-4599-8126-d7d811fe7259"},"vehicle_type_id":"4","last_reported":1735769267,"current_range_meters":24400,"station_id":"ce4bh292rcd13ifvqdg0","pricing_plan_id":"cebpf4jnsgd1na2vs0mg"},{"bike_id":"dd43ec1a-328a-4f14-a1c5-2dfbd492ab23","system_id":"levelo_inurba_marseille","lat":43.31331,"lon":5.39689,"is_reserved":false,"is_disabled":false,"rental_uris":{"android":"levelo://app?vid=dd43ec1a-328a-4f14-a1c5-2dfbd492ab23","ios":"levelo://app?vid=dd43ec1a-328a-4f14-a1c5-2dfbd492ab23"},"vehicle_type_id":"4","last_reported":1735769267,"current_range_meters":32000,"station_id":"ce4bgvp2rcd13ifvqcu0","pricing_plan_id":"cebpf4jnsgd1na2vs0mg"},{"bike_id":"e7774da4-c308-4bfa-aba8-31efca07b3a0","system_id":"levelo_inurba_marseille","lat":43.33741,"lon":5.37467,"is_reserved":false,"is_disabled":true,"rental_uris":{"android":"levelo://app?vid=e7774da4-c308-4bfa-aba8-31efca07b3a0","ios":"levelo://app?vid=e7774da4-c308-4bfa-aba8-31efca07b3a0"},"vehicle_type_id":"4","last_reported":1735769267,"current_range_meters":6400,"station_id":"","pricing_plan_id":"cebpf4jnsgd1na2vs0mg"},{"bike_id":"9b5916a1-20b4-45b5-ae28-a04ea7106c34","system_id":"levelo_inurba_marseille","lat":43.27564,"lon":5.38422,"is_reserved":false,"is_disabled":false,"rental_uris":{"android":"levelo://app?vid=9b5916a1-20b4-45b5-ae28-a04ea7106c34","ios":"levelo://app?vid=9b5916a1-20b4-45b5-ae28-a04ea7106c34"},"vehicle_type_id":"4","last_reported":1735769267,"current_range_meters":28400,"station_id":"ce4bhh92rcd13ifvqfi0","pricing_plan_id":"cebpf4jnsgd1na2vs0mg"},{"bike_id":"ad09079b-2a66-443a-a13d-b1f84ab569d5","system_id":"levelo_inurba_marseille","lat":43.24992,"lon":5.38923,"is_reserved":false,"is_disabled":false,"rental_uris":{"android":"levelo://app?vid=ad09079b-2a66-443a-a13d-b1f84ab569d5","ios":"levelo://app?vid=ad09079b-2a66-443a-a13d-b1f84ab569d5"},"vehicle_type_id":"4","last_reported":1735769267,"current_range_meters":36800,"station_id":"ce4bhgp2rcd13ifvqfd0","pricing_plan_id":"cebpf4jnsgd1na2vs0mg"},{"bike_id":"3c7472a4-a45c-4f46-a692-aa44ebf92f21","system_id":"levelo_inurba_marseille","lat":43.27448,"lon":5.39395,"is_reserved":false,"is_disabled":false,"rental_uris":{"android":"levelo://app?vid=3c7472a4-a45c-4f46-a692-aa44ebf92f21","ios":"levelo://app?vid=3c7472a4-a45c-4f46-a692-aa44ebf92f21"},"vehicle_type_id":"4","last_reported":1735769267,"current_range_meters":38400,"station_id":"ce4bhdp2rcd13ifvqf20","pricing_plan_id":"cebpf4jnsgd1na2vs0mg"},{"bike_id":"1b9666de-703f-4874-9b63-e9d42533848b","system_id":"levelo_inurba_marseille","lat":43.31892,"lon":5.40723,"is_reserved":false,"is_disabled":false,"rental_uris":{"android":"levelo://app?vid=1b9666de-703f-4874-9b63-e9d42533848b","ios":"levelo://app?vid=1b9666de-703f-4874-9b63-e9d42533848b"},"vehicle_type_id":"4","last_reported":1735769267,"current_range_meters":39200,"station_id":"ce4bhq12rcd13ifvqhig","pricing_plan_id":"cebpf4jnsgd1na2vs0mg"},{"bike_id":"9b3dc9e2-5376-4946-8202-fd71dbdd0300","system_id":"levelo_inurba_marseille","lat":43.2998,"lon":5.37202,"is_reserved":false,"is_disabled":false,"rental_uris":{"android":"levelo://app?vid=9b3dc9e2-5376-4946-8202-fd71dbdd0300","ios":"levelo://app?vid=9b3dc9e2-5376-4946-8202-fd71dbdd0300"},"vehicle_type_id":"4","last_reported":1735769267,"current_range_meters":28400,"station_id":"ce4bgr92rcd13ifvqc7g","pricing_plan_id":"cebpf4jnsgd1na2vs0mg"},{"bike_id":"43b505ed-60be-483e-9629-146a396cb391","system_id":"levelo_inurba_marseille","lat":43.29193,"lon":5.3931,"is_reserved":false,"is_disabled":false,"rental_uris":{"android":"levelo://app?vid=43b505ed-60be-483e-9629-146a396cb391","ios":"levelo://app?vid=43b505ed-60be-483e-9629-146a396cb391"},"vehicle_type_id":"4","last_reported":1735769267,"current_range_meters":30400,"station_id":"ce4bh192rcd13ifvqdd0","pricing_plan_id":"cebpf4jnsgd1na2vs0mg"},{"bike_id":"461a91f7-abbd-4490-b359-539df559ba7b","system_id":"levelo_inurba_marseille","lat":43.26215,"lon":5.3744,"is_reserved":false,"is_disabled":false,"rental_uris":{"android":"levelo://app?vid=461a91f7-abbd-4490-b359-539df559ba7b","ios":"levelo://app?vid=461a91f7-abbd-4490-b359-539df559ba7b"},"vehicle_type_id":"4","last_reported":1735769267,"current_range_meters":33200,"station_id":"ce4bhgp2rcd13ifvqfc0","pricing_plan_id":"cebpf4jnsgd1na2vs0mg"},{"bike_id":"4b9b3c02-7773-410b-a74d-2537aad0fdc1","system_id":"levelo_inurba_marseille","lat":43.28418,"lon":5.37506,"is_reserved":false,"is_disabled":false,"rental_uris":{"android":"levelo://app?vid=4b9b3c02-7773-410b-a74d-2537aad0fdc1","ios":"levelo://app?vid=4b9b3c02-7773-410b-a74d-2537aad0fdc1"},"vehicle_type_id":"4","last_reported":1735769267,"current_range_meters":29600,"station_id":"ce4bh412rcd13ifvqds0","pricing_plan_id":"cebpf4jnsgd1na2vs0mg"},{"bike_id":"04c2476a-74d1-4af1-84e5-1a1934809c35","system_id":"levelo_inurba_marseille","lat":43.28709,"lon":5.37926,"is_reserved":false,"is_disabled":false,"rental_uris":{"android":"levelo://app?vid=04c2476a-74d1-4af1-84e5-1a1934809c35","ios":"levelo://app?vid=04c2476a-74d1-4af1-84e5-1a1934809c35"},"vehicle_type_id":"4","last_reported":1735769267,"current_range_meters":23200,"station_id":"ce4bh9p2rcd13ifvqec0","pricing_plan_id":"cebpf4jnsgd1na2vs0mg"},{"bike_id":"54f409ab-82fa-46b7-9531-9fdab74bf367","system_id":"levelo_inurba_marseille","lat":43.25632,"lon":5.37645,"is_reserved":false,"is_disabled":false,"rental_uris":{"android":"levelo://app?vid=54f409ab-82fa-46b7-9531-9fdab74bf367","ios":"levelo://app?vid=54f409ab-82fa-46b7-9531-9fdab74bf367"},"vehicle_type_id":"4","last_reported":1735769267,"current_range_meters":18800,"station_id":"","pricing_plan_id":"cebpf4jnsgd1na2vs0mg"},{"bike_id":"da3075ee-8070-42f9-8350-58e475a60c82","system_id":"levelo_inurba_marseille","lat":43.27573,"lon":5.38402,"is_reserved":false,"is_disabled":false,"rental_uris":{"android":"levelo://app?vid=da3075ee-8070-42f9-8350-58e475a60c82","ios":"levelo://app?vid=da3075ee-8070-42f9-8350-58e475a60c82"},"vehicle_type_id":"4","last_reported":1735769267,"current_range_meters":38800,"station_id":"ce4bhh92rcd13ifvqfi0","pricing_plan_id":"cebpf4jnsgd1na2vs0mg"},{"bike_id":"6aacec50-2926-4c88-b181-933e1d05a184","system_id":"levelo_inurba_marseille","lat":43.30611,"lon":5.37223,"is_reserved":false,"is_disabled":false,"rental_uris":{"android":"levelo://app?vid=6aacec50-2926-4c88-b181-933e1d05a184","ios":"levelo://app?vid=6aacec50-2926-4c88-b181-933e1d05a184"},"vehicle_type_id":"4","last_reported":1735769267,"current_range_meters":38000,"station_id":"ce4bgqh2rcd13ifvqc4g","pricing_plan_id":"cebpf4jnsgd1na2vs0mg"},{"bike_id":"f4e21194-bae0-47dd-9943-53bf3035cc9f","system_id":"levelo_inurba_marseille","lat":43.24646,"lon":5.38904,"is_reserved":false,"is_disabled":false,"rental_uris":{"android":"levelo://app?vid=f4e21194-bae0-47dd-9943-53bf3035cc9f","ios":"levelo://app?vid=f4e21194-bae0-47dd-9943-53bf3035cc9f"},"vehicle_type_id":"4","last_reported":1735769267,"current_range_meters":38800,"station_id":"ce4bhg12rcd13ifvqf60","pricing_plan_id":"cebpf4jnsgd1na2vs0mg"},{"bike_id":"edef67d7-5c40-4f54-afb7-0b1514203358","system_id":"levelo_inurba_marseille","lat":43.23196,"lon":5.39972,"is_reserved":false,"is_disabled":true,"rental_uris":{"android":"levelo://app?vid=edef67d7-5c40-4f54-afb7-0b1514203358","ios":"levelo://app?vid=edef67d7-5c40-4f54-afb7-0b1514203358"},"vehicle_type_id":"4","last_reported":1735769267,"current_range_meters":1200,"station_id":"ce4bhn12rcd13ifvqgqg","pricing_plan_id":"cebpf4jnsgd1na2vs0mg"},{"bike_id":"bf2271ab-8244-4014-b49a-8f4a14a65934","system_id":"levelo_inurba_marseille","lat":43.29303,"lon":5.36845,"is_reserved":false,"is_disabled":false,"rental_uris":{"android":"levelo://app?vid=bf2271ab-8244-4014-b49a-8f4a14a65934","ios":"levelo://app?vid=bf2271ab-8244-4014-b49a-8f4a14a65934"},"vehicle_type_id":"4","last_reported":1735769267,"current_range_meters":26800,"station_id":"ce4bhbp2rcd13ifvqesg","pricing_plan_id":"cebpf4jnsgd1na2vs0mg"},{"bike_id":"e5fc90b8-f4d7-48fe-9b1b-e04042412667","system_id":"levelo_inurba_marseille","lat":43.31975,"lon":5.38143,"is_reserved":false,"is_disabled":false,"rental_uris":{"android":"levelo://app?vid=e5fc90b8-f4d7-48fe-9b1b-e04042412667","ios":"levelo://app?vid=e5fc90b8-f4d7-48fe-9b1b-e04042412667"},"vehicle_type_id":"4","last_reported":1735769267,"current_range_meters":38800,"station_id":"ce4bhr12rcd13ifvqhpg","pricing_plan_id":"cebpf4jnsgd1na2vs0mg"},{"bike_id":"fee46216-9e86-4788-8daf-7a5c9a36225b","system_id":"levelo_inurba_marseille","lat":43.28424,"lon":5.39193,"is_reserved":false,"is_disabled":false,"rental_uris":{"android":"levelo://app?vid=fee46216-9e86-4788-8daf-7a5c9a36225b","ios":"levelo://app?vid=fee46216-9e86-4788-8daf-7a5c9a36225b"},"vehicle_type_id":"4","last_reported":1735769267,"current_range_meters":18800,"station_id":"ce4bhoh2rcd13ifvqh5g","pricing_plan_id":"cebpf4jnsgd1na2vs0mg"},{"bike_id":"fa339e12-8405-4f84-8580-3f43033745d7","system_id":"levelo_inurba_marseille","lat":43.27842,"lon":5.39205,"is_reserved":false,"is_disabled":false,"rental_uris":{"android":"levelo://app?vid=fa339e12-8405-4f84-8580-3f43033745d7","ios":"levelo://app?vid=fa339e12-8405-4f84-8580-3f43033745d7"},"vehicle_type_id":"4","last_reported":1735769267,"current_range_meters":36000,"station_id":"ce4bhjp2rcd13ifvqga0","pricing_plan_id":"cebpf4jnsgd1na2vs0mg"},{"bike_id":"d0137bba-5489-4449-9aa6-55a5ebb92ac7","system_id":"levelo_inurba_marseille","lat":43.28283,"lon":5.35083,"is_reserved":false,"is_disabled":false,"rental_uris":{"android":"levelo://app?vid=d0137bba-5489-4449-9aa6-55a5ebb92ac7","ios":"levelo://app?vid=d0137bba-5489-4449-9aa6-55a5ebb92ac7"},"vehicle_type_id":"4","last_reported":1735769267,"current_range_meters":35600,"station_id":"ce4bhbp2rcd13ifvqerg","pricing_plan_id":"cebpf4jnsgd1na2vs0mg"},{"bike_id":"f0039e3d-c9f7-45d9-8d8f-4c3b22cd867c","system_id":"levelo_inurba_marseille","lat":43.28088,"lon":5.3965,"is_reserved":false,"is_disabled":false,"rental_uris":{"android":"levelo://app?vid=f0039e3d-c9f7-45d9-8d8f-4c3b22cd867c","ios":"levelo://app?vid=f0039e3d-c9f7-45d9-8d8f-4c3b22cd867c"},"vehicle_type_id":"4","last_reported":1735769267,"current_range_meters":36000,"station_id":"ce4bho12rcd13ifvqh2g","pricing_plan_id":"cebpf4jnsgd1na2vs0mg"},{"bike_id":"b7b91e95-f896-44b7-b22d-af1cf0aa156d","system_id":"levelo_inurba_marseille","lat":43.29509,"lon":5.39035,"is_reserved":false,"is_disabled":false,"rental_uris":{"android":"levelo://app?vid=b7b91e95-f896-44b7-b22d-af1cf0aa156d","ios":"levelo://app?vid=b7b91e95-f896-44b7-b22d-af1cf0aa156d"},"vehicle_type_id":"4","last_reported":1735769267,"current_range_meters":9600,"station_id":"ce4bh3p2rcd13ifvqdp0","pricing_plan_id":"cebpf4jnsgd1na2vs0mg"},{"bike_id":"ea5d599e-d5d0-4166-be46-e65550957f69","system_id":"levelo_inurba_marseille","lat":43.30192,"lon":5.36599,"is_reserved":false,"is_disabled":false,"rental_uris":{"android":"levelo://app?vid=ea5d599e-d5d0-4166-be46-e65550957f69","ios":"levelo://app?vid=ea5d599e-d5d0-4166-be46-e65550957f69"},"vehicle_type_id":"4","last_reported":1735769267,"current_range_meters":22000,"station_id":"ce4bgrh2rcd13ifvqc8g","pricing_plan_id":"cebpf4jnsgd1na2vs0mg"},{"bike_id":"37fd69aa-45fe-4af6-b217-bec10957aebd","system_id":"levelo_inurba_marseille","lat":43.30807,"lon":5.38162,"is_reserved":false,"is_disabled":true,"rental_uris":{"android":"levelo://app?vid=37fd69aa-45fe-4af6-b217-bec10957aebd","ios":"levelo://app?vid=37fd69aa-45fe-4af6-b217-bec10957aebd"},"vehicle_type_id":"4","last_reported":1735769267,"current_range_meters":38800,"station_id":"ce4bgt12rcd13ifvqce0","pricing_plan_id":"cebpf4jnsgd1na2vs0mg"},{"bike_id":"c439bec9-a494-4591-bd88-09758b82fe1e","system_id":"levelo_inurba_marseille","lat":43.28575,"lon":5.395,"is_reserved":false,"is_disabled":false,"rental_uris":{"android":"levelo://app?vid=c439bec9-a494-4591-bd88-09758b82fe1e","ios":"levelo://app?vid=c439bec9-a494-4591-bd88-09758b82fe1e"},"vehicle_type_id":"4","last_reported":1735769267,"current_range_meters":17200,"station_id":"ce4bh292rcd13ifvqdg0","pricing_plan_id":"cebpf4jnsgd1na2vs0mg"},{"bike_id":"da9895f2-e09a-40e4-a1b6-9c5c87623f1b","system_id":"levelo_inurba_marseille","lat":43.25086,"lon":5.39522,"is_reserved":false,"is_disabled":false,"rental_uris":{"android":"levelo://app?vid=da9895f2-e09a-40e4-a1b6-9c5c87623f1b","ios":"levelo://app?vid=da9895f2-e09a-40e4-a1b6-9c5c87623f1b"},"vehicle_type_id":"4","last_reported":1735769267,"current_range_meters":39200,"station_id":"ce4bhm12rcd13ifvqgkg","pricing_plan_id":"cebpf4jnsgd1na2vs0mg"},{"bike_id":"67a6b95c-958b-4f02-8856-a5b2a8d5cdf1","system_id":"levelo_inurba_marseille","lat":43.31366,"lon":5.38497,"is_reserved":false,"is_disabled":false,"rental_uris":{"android":"levelo://app?vid=67a6b95c-958b-4f02-8856-a5b2a8d5cdf1","ios":"levelo://app?vid=67a6b95c-958b-4f02-8856-a5b2a8d5cdf1"},"vehicle_type_id":"4","last_reported":1735769267,"current_range_meters":34800,"station_id":"ce4bgt92rcd13ifvqcf0","pricing_plan_id":"cebpf4jnsgd1na2vs0mg"},{"bike_id":"af081420-37c8-4f32-9a8d-54dfed6cb71c","system_id":"levelo_inurba_marseille","lat":43.30278,"lon":5.39169,"is_reserved":false,"is_disabled":false,"rental_uris":{"android":"levelo://app?vid=af081420-37c8-4f32-9a8d-54dfed6cb71c","ios":"levelo://app?vid=af081420-37c8-4f32-9a8d-54dfed6cb71c"},"vehicle_type_id":"4","last_reported":1735769267,"current_range_meters":38400,"station_id":"ce4bgkh2rcd13ifvqbk0","pricing_plan_id":"cebpf4jnsgd1na2vs0mg"},{"bike_id":"a1c87532-6196-402b-916e-8ad945b95f72","system_id":"levelo_inurba_marseille","lat":43.25124,"lon":5.40334,"is_reserved":false,"is_disabled":false,"rental_uris":{"android":"levelo://app?vid=a1c87532-6196-402b-916e-8ad945b95f72","ios":"levelo://app?vid=a1c87532-6196-402b-916e-8ad945b95f72"},"vehicle_type_id":"4","last_reported":1735769267,"current_range_meters":16800,"station_id":"ce4bhlh2rcd13ifvqgig","pricing_plan_id":"cebpf4jnsgd1na2vs0mg"},{"bike_id":"4ce38f45-b3ef-4ce1-84b1-8cf7c7ee4592","system_id":"levelo_inurba_marseille","lat":43.27936,"lon":5.41028,"is_reserved":false,"is_disabled":false,"rental_uris":{"android":"levelo://app?vid=4ce38f45-b3ef-4ce1-84b1-8cf7c7ee4592","ios":"levelo://app?vid=4ce38f45-b3ef-4ce1-84b1-8cf7c7ee4592"},"vehicle_type_id":"4","last_reported":1735769267,"current_range_meters":36400,"station_id":"ce4bhnp2rcd13ifvqh0g","pricing_plan_id":"cebpf4jnsgd1na2vs0mg"},{"bike_id":"86eec8e7-8fb4-4114-aa18-b387b8a21c2e","system_id":"levelo_inurba_marseille","lat":43.31555,"lon":5.38918,"is_reserved":false,"is_disabled":false,"rental_uris":{"android":"levelo://app?vid=86eec8e7-8fb4-4114-aa18-b387b8a21c2e","ios":"levelo://app?vid=86eec8e7-8fb4-4114-aa18-b387b8a21c2e"},"vehicle_type_id":"4","last_reported":1735769267,"current_range_meters":28800,"station_id":"","pricing_plan_id":"cebpf4jnsgd1na2vs0mg"},{"bike_id":"849f7cfd-3f7e-49b1-9d6e-57047fbe1612","system_id":"levelo_inurba_marseille","lat":43.2815,"lon":5.4264,"is_reserved":false,"is_disabled":false,"rental_uris":{"android":"levelo://app?vid=849f7cfd-3f7e-49b1-9d6e-57047fbe1612","ios":"levelo://app?vid=849f7cfd-3f7e-49b1-9d6e-57047fbe1612"},"vehicle_type_id":"4","last_reported":1735769267,"current_range_meters":38800,"station_id":"ce4bhnh2rcd13ifvqgug","pricing_plan_id":"cebpf4jnsgd1na2vs0mg"},{"bike_id":"91e7990b-b48a-49b3-a727-d44988b59bfc","system_id":"levelo_inurba_marseille","lat":43.29634,"lon":5.37144,"is_reserved":false,"is_disabled":false,"rental_uris":{"android":"levelo://app?vid=91e7990b-b48a-49b3-a727-d44988b59bfc","ios":"levelo://app?vid=91e7990b-b48a-49b3-a727-d44988b59bfc"},"vehicle_type_id":"4","last_reported":1735769267,"current_range_meters":38800,"station_id":"ce4bgnh2rcd13ifvqc0g","pricing_plan_id":"cebpf4jnsgd1na2vs0mg"},{"bike_id":"ff321ead-cf20-4067-9f63-792f0b8ff09d","system_id":"levelo_inurba_marseille","lat":43.30522,"lon":5.36544,"is_reserved":false,"is_disabled":false,"rental_uris":{"android":"levelo://app?vid=ff321ead-cf20-4067-9f63-792f0b8ff09d","ios":"levelo://app?vid=ff321ead-cf20-4067-9f63-792f0b8ff09d"},"vehicle_type_id":"4","last_reported":1735769267,"current_range_meters":27600,"station_id":"ce4bgs12rcd13ifvqcag","pricing_plan_id":"cebpf4jnsgd1na2vs0mg"},{"bike_id":"6401e78c-e1bc-4ad8-a2aa-1922d8a91f43","system_id":"levelo_inurba_marseille","lat":43.29519,"lon":5.39035,"is_reserved":false,"is_disabled":false,"rental_uris":{"android":"levelo://app?vid=6401e78c-e1bc-4ad8-a2aa-1922d8a91f43","ios":"levelo://app?vid=6401e78c-e1bc-4ad8-a2aa-1922d8a91f43"},"vehicle_type_id":"4","last_reported":1735769267,"current_range_meters":24800,"station_id":"ce4bh3p2rcd13ifvqdp0","pricing_plan_id":"cebpf4jnsgd1na2vs0mg"},{"bike_id":"6539f3c8-e75c-417f-93c4-6409ce164b32","system_id":"levelo_inurba_marseille","lat":43.29707,"lon":5.36609,"is_reserved":false,"is_disabled":false,"rental_uris":{"android":"levelo://app?vid=6539f3c8-e75c-417f-93c4-6409ce164b32","ios":"levelo://app?vid=6539f3c8-e75c-417f-93c4-6409ce164b32"},"vehicle_type_id":"4","last_reported":1735769267,"current_range_meters":22000,"station_id":"ce4bgn12rcd13ifvqbt0","pricing_plan_id":"cebpf4jnsgd1na2vs0mg"},{"bike_id":"cb347289-eac0-449e-a1bc-34d1cde2eb07","system_id":"levelo_inurba_marseille","lat":43.25865,"lon":5.39897,"is_reserved":false,"is_disabled":false,"rental_uris":{"android":"levelo://app?vid=cb347289-eac0-449e-a1bc-34d1cde2eb07","ios":"levelo://app?vid=cb347289-eac0-449e-a1bc-34d1cde2eb07"},"vehicle_type_id":"4","last_reported":1735769267,"current_range_meters":23200,"station_id":"ce4bhl92rcd13ifvqghg","pricing_plan_id":"cebpf4jnsgd1na2vs0mg"},{"bike_id":"8ffa9f95-c4c2-43df-b231-947b5b813238","system_id":"levelo_inurba_marseille","lat":43.29882,"lon":5.39723,"is_reserved":false,"is_disabled":false,"rental_uris":{"android":"levelo://app?vid=8ffa9f95-c4c2-43df-b231-947b5b813238","ios":"levelo://app?vid=8ffa9f95-c4c2-43df-b231-947b5b813238"},"vehicle_type_id":"4","last_reported":1735769267,"current_range_meters":38000,"station_id":"ce4bh0h2rcd13ifvqd50","pricing_plan_id":"cebpf4jnsgd1na2vs0mg"},{"bike_id":"1b33b6d0-5a72-4a65-8926-f2cdeae6e3e3","system_id":"levelo_inurba_marseille","lat":43.31354,"lon":5.38503,"is_reserved":false,"is_disabled":true,"rental_uris":{"android":"levelo://app?vid=1b33b6d0-5a72-4a65-8926-f2cdeae6e3e3","ios":"levelo://app?vid=1b33b6d0-5a72-4a65-8926-f2cdeae6e3e3"},"vehicle_type_id":"4","last_reported":1735769267,"current_range_meters":24000,"station_id":"ce4bgt92rcd13ifvqcf0","pricing_plan_id":"cebpf4jnsgd1na2vs0mg"},{"bike_id":"8e43fa85-9764-4a8e-9f3b-20e1a8b81057","system_id":"levelo_inurba_marseille","lat":43.3384,"lon":5.4226,"is_reserved":false,"is_disabled":false,"rental_uris":{"android":"levelo://app?vid=8e43fa85-9764-4a8e-9f3b-20e1a8b81057","ios":"levelo://app?vid=8e43fa85-9764-4a8e-9f3b-20e1a8b81057"},"vehicle_type_id":"4","last_reported":1735769267,"current_range_meters":8000,"station_id":"","pricing_plan_id":"cebpf4jnsgd1na2vs0mg"},{"bike_id":"544f1707-8cee-4515-8c4e-024e8c5531e8","system_id":"levelo_inurba_marseille","lat":43.32546,"lon":5.36437,"is_reserved":false,"is_disabled":false,"rental_uris":{"android":"levelo://app?vid=544f1707-8cee-4515-8c4e-024e8c5531e8","ios":"levelo://app?vid=544f1707-8cee-4515-8c4e-024e8c5531e8"},"vehicle_type_id":"4","last_reported":1735769267,"current_range_meters":14000,"station_id":"","pricing_plan_id":"cebpf4jnsgd1na2vs0mg"},{"bike_id":"94657e78-df48-49dc-b1ba-58dd71b2ca0e","system_id":"levelo_inurba_marseille","lat":43.265544,"lon":5.372889,"is_reserved":false,"is_disabled":false,"rental_uris":{"android":"levelo://app?vid=94657e78-df48-49dc-b1ba-58dd71b2ca0e","ios":"levelo://app?vid=94657e78-df48-49dc-b1ba-58dd71b2ca0e"},"vehicle_type_id":"4","last_reported":1735769267,"current_range_meters":38800,"station_id":"ce4bhg12rcd13ifvqf70","pricing_plan_id":"cebpf4jnsgd1na2vs0mg"},{"bike_id":"a77cb61b-7bf4-4634-bc34-29d17b6073d0","system_id":"levelo_inurba_marseille","lat":43.24394,"lon":5.37051,"is_reserved":false,"is_disabled":false,"rental_uris":{"android":"levelo://app?vid=a77cb61b-7bf4-4634-bc34-29d17b6073d0","ios":"levelo://app?vid=a77cb61b-7bf4-4634-bc34-29d17b6073d0"},"vehicle_type_id":"4","last_reported":1735769267,"current_range_meters":38800,"station_id":"ce4bhhh2rcd13ifvqfk0","pricing_plan_id":"cebpf4jnsgd1na2vs0mg"},{"bike_id":"1c767333-f70f-4718-bcc9-6de55d631ae5","system_id":"levelo_inurba_marseille","lat":43.26815,"lon":5.40263,"is_reserved":false,"is_disabled":false,"rental_uris":{"android":"levelo://app?vid=1c767333-f70f-4718-bcc9-6de55d631ae5","ios":"levelo://app?vid=1c767333-f70f-4718-bcc9-6de55d631ae5"},"vehicle_type_id":"4","last_reported":1735769267,"current_range_meters":25600,"station_id":"ce501612rcd8frsf0b60","pricing_plan_id":"cebpf4jnsgd1na2vs0mg"},{"bike_id":"aec77826-2911-461c-95af-eb9adf8a9770","system_id":"levelo_inurba_marseille","lat":43.27573,"lon":5.3841,"is_reserved":false,"is_disabled":true,"rental_uris":{"android":"levelo://app?vid=aec77826-2911-461c-95af-eb9adf8a9770","ios":"levelo://app?vid=aec77826-2911-461c-95af-eb9adf8a9770"},"vehicle_type_id":"4","last_reported":1735769267,"current_range_meters":400,"station_id":"ce4bhh92rcd13ifvqfi0","pricing_plan_id":"cebpf4jnsgd1na2vs0mg"},{"bike_id":"55f092de-def1-4c6f-ae8a-e62832d8ed12","system_id":"levelo_inurba_marseille","lat":43.28328,"lon":5.38085,"is_reserved":false,"is_disabled":false,"rental_uris":{"android":"levelo://app?vid=55f092de-def1-4c6f-ae8a-e62832d8ed12","ios":"levelo://app?vid=55f092de-def1-4c6f-ae8a-e62832d8ed12"},"vehicle_type_id":"4","last_reported":1735769267,"current_range_meters":31200,"station_id":"ce4bh412rcd13ifvqdr0","pricing_plan_id":"cebpf4jnsgd1na2vs0mg"},{"bike_id":"19ffc8a9-5597-40c4-9942-7ed734cd3ec7","system_id":"levelo_inurba_marseille","lat":43.23142,"lon":5.4372,"is_reserved":false,"is_disabled":false,"rental_uris":{"android":"levelo://app?vid=19ffc8a9-5597-40c4-9942-7ed734cd3ec7","ios":"levelo://app?vid=19ffc8a9-5597-40c4-9942-7ed734cd3ec7"},"vehicle_type_id":"4","last_reported":1735769267,"current_range_meters":38000,"station_id":"ce4bhmp2rcd13ifvqgog","pricing_plan_id":"cebpf4jnsgd1na2vs0mg"},{"bike_id":"cd74a333-9a1d-4930-b287-4902bed467c1","system_id":"levelo_inurba_marseille","lat":43.30878,"lon":5.38067,"is_reserved":false,"is_disabled":false,"rental_uris":{"android":"levelo://app?vid=cd74a333-9a1d-4930-b287-4902bed467c1","ios":"levelo://app?vid=cd74a333-9a1d-4930-b287-4902bed467c1"},"vehicle_type_id":"4","last_reported":1735769267,"current_range_meters":38400,"station_id":"","pricing_plan_id":"cebpf4jnsgd1na2vs0mg"},{"bike_id":"85578774-6fa4-4df0-93d9-e107d4c8bc8c","system_id":"levelo_inurba_marseille","lat":43.29973,"lon":5.38489,"is_reserved":false,"is_disabled":false,"rental_uris":{"android":"levelo://app?vid=85578774-6fa4-4df0-93d9-e107d4c8bc8c","ios":"levelo://app?vid=85578774-6fa4-4df0-93d9-e107d4c8bc8c"},"vehicle_type_id":"4","last_reported":1735769267,"current_range_meters":26000,"station_id":"ce4bgj92rcd13ifvqbd0","pricing_plan_id":"cebpf4jnsgd1na2vs0mg"},{"bike_id":"c45e2261-bf08-4e91-9bc5-e0e48b416ff2","system_id":"levelo_inurba_marseille","lat":43.26558,"lon":5.38977,"is_reserved":false,"is_disabled":false,"rental_uris":{"android":"levelo://app?vid=c45e2261-bf08-4e91-9bc5-e0e48b416ff2","ios":"levelo://app?vid=c45e2261-bf08-4e91-9bc5-e0e48b416ff2"},"vehicle_type_id":"4","last_reported":1735769267,"current_range_meters":32400,"station_id":"ce4bhe12rcd13ifvqf30","pricing_plan_id":"cebpf4jnsgd1na2vs0mg"},{"bike_id":"71c8f6c4-4b62-4d76-a891-350fccb2f3ce","system_id":"levelo_inurba_marseille","lat":43.28426,"lon":5.34983,"is_reserved":false,"is_disabled":false,"rental_uris":{"android":"levelo://app?vid=71c8f6c4-4b62-4d76-a891-350fccb2f3ce","ios":"levelo://app?vid=71c8f6c4-4b62-4d76-a891-350fccb2f3ce"},"vehicle_type_id":"4","last_reported":1735769267,"current_range_meters":13600,"station_id":"ce4bhbh2rcd13ifvqepg","pricing_plan_id":"cebpf4jnsgd1na2vs0mg"},{"bike_id":"9f9baf82-ccc3-4af6-a9ba-b1f658ca83af","system_id":"levelo_inurba_marseille","lat":43.24177,"lon":5.39713,"is_reserved":false,"is_disabled":false,"rental_uris":{"android":"levelo://app?vid=9f9baf82-ccc3-4af6-a9ba-b1f658ca83af","ios":"levelo://app?vid=9f9baf82-ccc3-4af6-a9ba-b1f658ca83af"},"vehicle_type_id":"4","last_reported":1735769267,"current_range_meters":15200,"station_id":"ce4bhn12rcd13ifvqgpg","pricing_plan_id":"cebpf4jnsgd1na2vs0mg"},{"bike_id":"9296373e-a8da-4ff9-a488-98089ece75a4","system_id":"levelo_inurba_marseille","lat":43.28419,"lon":5.3499,"is_reserved":false,"is_disabled":false,"rental_uris":{"android":"levelo://app?vid=9296373e-a8da-4ff9-a488-98089ece75a4","ios":"levelo://app?vid=9296373e-a8da-4ff9-a488-98089ece75a4"},"vehicle_type_id":"4","last_reported":1735769267,"current_range_meters":35600,"station_id":"ce4bhbh2rcd13ifvqepg","pricing_plan_id":"cebpf4jnsgd1na2vs0mg"},{"bike_id":"e74c2f84-4812-4630-a239-a229eeb6af30","system_id":"levelo_inurba_marseille","lat":43.287247,"lon":5.360867,"is_reserved":false,"is_disabled":false,"rental_uris":{"android":"levelo://app?vid=e74c2f84-4812-4630-a239-a229eeb6af30","ios":"levelo://app?vid=e74c2f84-4812-4630-a239-a229eeb6af30"},"vehicle_type_id":"4","last_reported":1735769267,"current_range_meters":38000,"station_id":"cki0cbj6b192h4jlfktg","pricing_plan_id":"cebpf4jnsgd1na2vs0mg"},{"bike_id":"b774f9e2-8d0b-464a-b4fd-25edae1fdbb0","system_id":"levelo_inurba_marseille","lat":43.31178,"lon":5.36845,"is_reserved":false,"is_disabled":false,"rental_uris":{"android":"levelo://app?vid=b774f9e2-8d0b-464a-b4fd-25edae1fdbb0","ios":"levelo://app?vid=b774f9e2-8d0b-464a-b4fd-25edae1fdbb0"},"vehicle_type_id":"4","last_reported":1735769267,"current_range_meters":32400,"station_id":"","pricing_plan_id":"cebpf4jnsgd1na2vs0mg"},{"bike_id":"d2e7c051-6db7-4786-ab4b-44e6a6530b6c","system_id":"levelo_inurba_marseille","lat":43.30138,"lon":5.37378,"is_reserved":false,"is_disabled":false,"rental_uris":{"android":"levelo://app?vid=d2e7c051-6db7-4786-ab4b-44e6a6530b6c","ios":"levelo://app?vid=d2e7c051-6db7-4786-ab4b-44e6a6530b6c"},"vehicle_type_id":"4","last_reported":1735769267,"current_range_meters":16000,"station_id":"ce4bgs92rcd13ifvqcc0","pricing_plan_id":"cebpf4jnsgd1na2vs0mg"},{"bike_id":"5becd014-2ea4-4e6e-af75-6157a5a38862","system_id":"levelo_inurba_marseille","lat":43.29902,"lon":5.37463,"is_reserved":false,"is_disabled":false,"rental_uris":{"android":"levelo://app?vid=5becd014-2ea4-4e6e-af75-6157a5a38862","ios":"levelo://app?vid=5becd014-2ea4-4e6e-af75-6157a5a38862"},"vehicle_type_id":"4","last_reported":1735769267,"current_range_meters":38000,"station_id":"ce4bgjh2rcd13ifvqbg0","pricing_plan_id":"cebpf4jnsgd1na2vs0mg"},{"bike_id":"062bd3e7-a1b0-4a7b-be3e-67845610f912","system_id":"levelo_inurba_marseille","lat":43.31287,"lon":5.40158,"is_reserved":false,"is_disabled":false,"rental_uris":{"android":"levelo://app?vid=062bd3e7-a1b0-4a7b-be3e-67845610f912","ios":"levelo://app?vid=062bd3e7-a1b0-4a7b-be3e-67845610f912"},"vehicle_type_id":"4","last_reported":1735769267,"current_range_meters":28000,"station_id":"ce4bh092rcd13ifvqd30","pricing_plan_id":"cebpf4jnsgd1na2vs0mg"},{"bike_id":"b65446bf-e8cd-42c0-a605-66d7275adaf9","system_id":"levelo_inurba_marseille","lat":43.24077,"lon":5.37763,"is_reserved":false,"is_disabled":false,"rental_uris":{"android":"levelo://app?vid=b65446bf-e8cd-42c0-a605-66d7275adaf9","ios":"levelo://app?vid=b65446bf-e8cd-42c0-a605-66d7275adaf9"},"vehicle_type_id":"4","last_reported":1735769267,"current_range_meters":24800,"station_id":"ce4bhnp2rcd13ifvqgvg","pricing_plan_id":"cebpf4jnsgd1na2vs0mg"},{"bike_id":"65de1a48-837c-4d3e-8090-e3b21b858f34","system_id":"levelo_inurba_marseille","lat":43.28073,"lon":5.39623,"is_reserved":false,"is_disabled":false,"rental_uris":{"android":"levelo://app?vid=65de1a48-837c-4d3e-8090-e3b21b858f34","ios":"levelo://app?vid=65de1a48-837c-4d3e-8090-e3b21b858f34"},"vehicle_type_id":"4","last_reported":1735769267,"current_range_meters":38800,"station_id":"ce4bho12rcd13ifvqh2g","pricing_plan_id":"cebpf4jnsgd1na2vs0mg"},{"bike_id":"ddb487b9-8adc-4c65-a4da-ed1e737c5e1d","system_id":"levelo_inurba_marseille","lat":43.28852,"lon":5.39333,"is_reserved":false,"is_disabled":false,"rental_uris":{"android":"levelo://app?vid=ddb487b9-8adc-4c65-a4da-ed1e737c5e1d","ios":"levelo://app?vid=ddb487b9-8adc-4c65-a4da-ed1e737c5e1d"},"vehicle_type_id":"4","last_reported":1735769267,"current_range_meters":38800,"station_id":"ce4bh2p2rcd13ifvqdi0","pricing_plan_id":"cebpf4jnsgd1na2vs0mg"},{"bike_id":"42d9687b-df97-4218-b4aa-bb5d351494d7","system_id":"levelo_inurba_marseille","lat":43.28163,"lon":5.42655,"is_reserved":false,"is_disabled":false,"rental_uris":{"android":"levelo://app?vid=42d9687b-df97-4218-b4aa-bb5d351494d7","ios":"levelo://app?vid=42d9687b-df97-4218-b4aa-bb5d351494d7"},"vehicle_type_id":"4","last_reported":1735769267,"current_range_meters":12400,"station_id":"ce4bhnh2rcd13ifvqgug","pricing_plan_id":"cebpf4jnsgd1na2vs0mg"},{"bike_id":"6ef39cf2-9335-427d-88a0-a018f070fb57","system_id":"levelo_inurba_marseille","lat":43.31752,"lon":5.39007,"is_reserved":false,"is_disabled":false,"rental_uris":{"android":"levelo://app?vid=6ef39cf2-9335-427d-88a0-a018f070fb57","ios":"levelo://app?vid=6ef39cf2-9335-427d-88a0-a018f070fb57"},"vehicle_type_id":"4","last_reported":1735769267,"current_range_meters":25600,"station_id":"ce4bhqp2rcd13ifvqhng","pricing_plan_id":"cebpf4jnsgd1na2vs0mg"},{"bike_id":"4fbcaf20-cf0a-4c4c-92d5-e96f1d04da7c","system_id":"levelo_inurba_marseille","lat":43.2499,"lon":5.38938,"is_reserved":false,"is_disabled":false,"rental_uris":{"android":"levelo://app?vid=4fbcaf20-cf0a-4c4c-92d5-e96f1d04da7c","ios":"levelo://app?vid=4fbcaf20-cf0a-4c4c-92d5-e96f1d04da7c"},"vehicle_type_id":"4","last_reported":1735769267,"current_range_meters":8400,"station_id":"ce4bhgp2rcd13ifvqfd0","pricing_plan_id":"cebpf4jnsgd1na2vs0mg"},{"bike_id":"b3dc9ac6-d5fd-4462-b3a0-7552cc8666a3","system_id":"levelo_inurba_marseille","lat":43.28837,"lon":5.39319,"is_reserved":false,"is_disabled":false,"rental_uris":{"android":"levelo://app?vid=b3dc9ac6-d5fd-4462-b3a0-7552cc8666a3","ios":"levelo://app?vid=b3dc9ac6-d5fd-4462-b3a0-7552cc8666a3"},"vehicle_type_id":"4","last_reported":1735769267,"current_range_meters":38800,"station_id":"ce4bh2p2rcd13ifvqdi0","pricing_plan_id":"cebpf4jnsgd1na2vs0mg"},{"bike_id":"d9039fb6-1526-43a5-ab47-bf6c74051347","system_id":"levelo_inurba_marseille","lat":43.2815,"lon":5.42639,"is_reserved":false,"is_disabled":false,"rental_uris":{"android":"levelo://app?vid=d9039fb6-1526-43a5-ab47-bf6c74051347","ios":"levelo://app?vid=d9039fb6-1526-43a5-ab47-bf6c74051347"},"vehicle_type_id":"4","last_reported":1735769267,"current_range_meters":6000,"station_id":"ce4bhnh2rcd13ifvqgug","pricing_plan_id":"cebpf4jnsgd1na2vs0mg"},{"bike_id":"b5e3865b-10bc-4c4f-ad14-18834fa7a270","system_id":"levelo_inurba_marseille","lat":43.30307,"lon":5.3689,"is_reserved":false,"is_disabled":false,"rental_uris":{"android":"levelo://app?vid=b5e3865b-10bc-4c4f-ad14-18834fa7a270","ios":"levelo://app?vid=b5e3865b-10bc-4c4f-ad14-18834fa7a270"},"vehicle_type_id":"4","last_reported":1735769267,"current_range_meters":38800,"station_id":"ce4bgqh2rcd13ifvqc5g","pricing_plan_id":"cebpf4jnsgd1na2vs0mg"},{"bike_id":"29e74cc3-01c5-4c68-9cf1-710cc057bc39","system_id":"levelo_inurba_marseille","lat":43.28622,"lon":5.35101,"is_reserved":false,"is_disabled":false,"rental_uris":{"android":"levelo://app?vid=29e74cc3-01c5-4c68-9cf1-710cc057bc39","ios":"levelo://app?vid=29e74cc3-01c5-4c68-9cf1-710cc057bc39"},"vehicle_type_id":"4","last_reported":1735769267,"current_range_meters":22000,"station_id":"ce4bhch2rcd13ifvqeug","pricing_plan_id":"cebpf4jnsgd1na2vs0mg"},{"bike_id":"022d826a-d31d-48ef-b07e-f8dd0ceaa746","system_id":"levelo_inurba_marseille","lat":43.24996,"lon":5.38935,"is_reserved":false,"is_disabled":false,"rental_uris":{"android":"levelo://app?vid=022d826a-d31d-48ef-b07e-f8dd0ceaa746","ios":"levelo://app?vid=022d826a-d31d-48ef-b07e-f8dd0ceaa746"},"vehicle_type_id":"4","last_reported":1735769267,"current_range_meters":30800,"station_id":"ce4bhgp2rcd13ifvqfd0","pricing_plan_id":"cebpf4jnsgd1na2vs0mg"},{"bike_id":"a20a7c6b-5d25-4b6b-b14e-de0632342600","system_id":"levelo_inurba_marseille","lat":43.31176,"lon":5.38708,"is_reserved":false,"is_disabled":false,"rental_uris":{"android":"levelo://app?vid=a20a7c6b-5d25-4b6b-b14e-de0632342600","ios":"levelo://app?vid=a20a7c6b-5d25-4b6b-b14e-de0632342600"},"vehicle_type_id":"4","last_reported":1735769267,"current_range_meters":34000,"station_id":"ce4bgv12rcd13ifvqcp0","pricing_plan_id":"cebpf4jnsgd1na2vs0mg"},{"bike_id":"04e7867a-1371-4222-a6db-9d80083cea73","system_id":"levelo_inurba_marseille","lat":43.28844,"lon":5.35846,"is_reserved":false,"is_disabled":false,"rental_uris":{"android":"levelo://app?vid=04e7867a-1371-4222-a6db-9d80083cea73","ios":"levelo://app?vid=04e7867a-1371-4222-a6db-9d80083cea73"},"vehicle_type_id":"4","last_reported":1735769267,"current_range_meters":31200,"station_id":"ce4bhb12rcd13ifvqem0","pricing_plan_id":"cebpf4jnsgd1na2vs0mg"},{"bike_id":"a92606fe-c551-48ea-be8b-d84a287f1fee","system_id":"levelo_inurba_marseille","lat":43.25863,"lon":5.39896,"is_reserved":false,"is_disabled":false,"rental_uris":{"android":"levelo://app?vid=a92606fe-c551-48ea-be8b-d84a287f1fee","ios":"levelo://app?vid=a92606fe-c551-48ea-be8b-d84a287f1fee"},"vehicle_type_id":"4","last_reported":1735769267,"current_range_meters":19200,"station_id":"ce4bhl92rcd13ifvqghg","pricing_plan_id":"cebpf4jnsgd1na2vs0mg"},{"bike_id":"a723ce28-f7d0-48b7-8af4-639e73a4245c","system_id":"levelo_inurba_marseille","lat":43.29473,"lon":5.43821,"is_reserved":false,"is_disabled":false,"rental_uris":{"android":"levelo://app?vid=a723ce28-f7d0-48b7-8af4-639e73a4245c","ios":"levelo://app?vid=a723ce28-f7d0-48b7-8af4-639e73a4245c"},"vehicle_type_id":"4","last_reported":1735769267,"current_range_meters":17200,"station_id":"","pricing_plan_id":"cebpf4jnsgd1na2vs0mg"},{"bike_id":"7a8367d5-40de-4267-891e-98a0618690eb","system_id":"levelo_inurba_marseille","lat":43.29564,"lon":5.39972,"is_reserved":false,"is_disabled":false,"rental_uris":{"android":"levelo://app?vid=7a8367d5-40de-4267-891e-98a0618690eb","ios":"levelo://app?vid=7a8367d5-40de-4267-891e-98a0618690eb"},"vehicle_type_id":"4","last_reported":1735769267,"current_range_meters":37600,"station_id":"ce4bh312rcd13ifvqdj0","pricing_plan_id":"cebpf4jnsgd1na2vs0mg"},{"bike_id":"16fa307c-bc46-4c6c-be6d-9d204a724375","system_id":"levelo_inurba_marseille","lat":43.28609,"lon":5.35098,"is_reserved":false,"is_disabled":true,"rental_uris":{"android":"levelo://app?vid=16fa307c-bc46-4c6c-be6d-9d204a724375","ios":"levelo://app?vid=16fa307c-bc46-4c6c-be6d-9d204a724375"},"vehicle_type_id":"4","last_reported":1735769267,"current_range_meters":9200,"station_id":"ce4bhch2rcd13ifvqeug","pricing_plan_id":"cebpf4jnsgd1na2vs0mg"},{"bike_id":"c41f7245-b4f4-4b7e-b330-dacc9a7d647b","system_id":"levelo_inurba_marseille","lat":43.30132,"lon":5.39877,"is_reserved":false,"is_disabled":false,"rental_uris":{"android":"levelo://app?vid=c41f7245-b4f4-4b7e-b330-dacc9a7d647b","ios":"levelo://app?vid=c41f7245-b4f4-4b7e-b330-dacc9a7d647b"},"vehicle_type_id":"4","last_reported":1735769267,"current_range_meters":38800,"station_id":"ce4bh0h2rcd13ifvqd40","pricing_plan_id":"cebpf4jnsgd1na2vs0mg"},{"bike_id":"d159ce9e-4f2b-48e8-a8d3-449bfc5f8fd4","system_id":"levelo_inurba_marseille","lat":43.31327,"lon":5.39699,"is_reserved":false,"is_disabled":false,"rental_uris":{"android":"levelo://app?vid=d159ce9e-4f2b-48e8-a8d3-449bfc5f8fd4","ios":"levelo://app?vid=d159ce9e-4f2b-48e8-a8d3-449bfc5f8fd4"},"vehicle_type_id":"4","last_reported":1735769267,"current_range_meters":22000,"station_id":"ce4bgvp2rcd13ifvqcu0","pricing_plan_id":"cebpf4jnsgd1na2vs0mg"},{"bike_id":"50a1fe59-6de3-4565-8a2d-95a47c1519c3","system_id":"levelo_inurba_marseille","lat":43.27883,"lon":5.39593,"is_reserved":false,"is_disabled":false,"rental_uris":{"android":"levelo://app?vid=50a1fe59-6de3-4565-8a2d-95a47c1519c3","ios":"levelo://app?vid=50a1fe59-6de3-4565-8a2d-95a47c1519c3"},"vehicle_type_id":"4","last_reported":1735769267,"current_range_meters":20400,"station_id":"ce4bhf92rcd13ifvqf40","pricing_plan_id":"cebpf4jnsgd1na2vs0mg"},{"bike_id":"4fddba13-1e7b-4cbb-a7ff-2b7342e1322f","system_id":"levelo_inurba_marseille","lat":43.262,"lon":5.37443,"is_reserved":false,"is_disabled":false,"rental_uris":{"android":"levelo://app?vid=4fddba13-1e7b-4cbb-a7ff-2b7342e1322f","ios":"levelo://app?vid=4fddba13-1e7b-4cbb-a7ff-2b7342e1322f"},"vehicle_type_id":"4","last_reported":1735769267,"current_range_meters":16400,"station_id":"ce4bhgp2rcd13ifvqfc0","pricing_plan_id":"cebpf4jnsgd1na2vs0mg"},{"bike_id":"44d177c7-eea4-4936-8fb2-f4e78401eb94","system_id":"levelo_inurba_marseille","lat":43.25894,"lon":5.40926,"is_reserved":false,"is_disabled":false,"rental_uris":{"android":"levelo://app?vid=44d177c7-eea4-4936-8fb2-f4e78401eb94","ios":"levelo://app?vid=44d177c7-eea4-4936-8fb2-f4e78401eb94"},"vehicle_type_id":"4","last_reported":1735769267,"current_range_meters":38800,"station_id":"ce4bhm92rcd13ifvqglg","pricing_plan_id":"cebpf4jnsgd1na2vs0mg"},{"bike_id":"552f5602-11b7-481f-8b65-3fc56173b8bb","system_id":"levelo_inurba_marseille","lat":43.29902,"lon":5.4367,"is_reserved":false,"is_disabled":false,"rental_uris":{"android":"levelo://app?vid=552f5602-11b7-481f-8b65-3fc56173b8bb","ios":"levelo://app?vid=552f5602-11b7-481f-8b65-3fc56173b8bb"},"vehicle_type_id":"4","last_reported":1735769267,"current_range_meters":38800,"station_id":"ce4bhpp2rcd13ifvqhfg","pricing_plan_id":"cebpf4jnsgd1na2vs0mg"},{"bike_id":"0d1ff5cf-b7b0-4046-9349-217de0019d60","system_id":"levelo_inurba_marseille","lat":43.28155,"lon":5.4266,"is_reserved":false,"is_disabled":false,"rental_uris":{"android":"levelo://app?vid=0d1ff5cf-b7b0-4046-9349-217de0019d60","ios":"levelo://app?vid=0d1ff5cf-b7b0-4046-9349-217de0019d60"},"vehicle_type_id":"4","last_reported":1735769267,"current_range_meters":11600,"station_id":"ce4bhnh2rcd13ifvqgug","pricing_plan_id":"cebpf4jnsgd1na2vs0mg"},{"bike_id":"8e897204-3e88-4709-a6fe-c6d777430eb0","system_id":"levelo_inurba_marseille","lat":43.30465,"lon":5.37897,"is_reserved":false,"is_disabled":false,"rental_uris":{"android":"levelo://app?vid=8e897204-3e88-4709-a6fe-c6d777430eb0","ios":"levelo://app?vid=8e897204-3e88-4709-a6fe-c6d777430eb0"},"vehicle_type_id":"4","last_reported":1735769267,"current_range_meters":37600,"station_id":"ce4bgup2rcd13ifvqcn0","pricing_plan_id":"cebpf4jnsgd1na2vs0mg"},{"bike_id":"d9cdd14d-5b0e-4826-8b35-bdbc6fc9eceb","system_id":"levelo_inurba_marseille","lat":43.29156,"lon":5.36013,"is_reserved":false,"is_disabled":false,"rental_uris":{"android":"levelo://app?vid=d9cdd14d-5b0e-4826-8b35-bdbc6fc9eceb","ios":"levelo://app?vid=d9cdd14d-5b0e-4826-8b35-bdbc6fc9eceb"},"vehicle_type_id":"4","last_reported":1735769267,"current_range_meters":38400,"station_id":"ce4bhbh2rcd13ifvqeqg","pricing_plan_id":"cebpf4jnsgd1na2vs0mg"},{"bike_id":"ca16c776-2e50-4b16-9c6c-2a19719132b5","system_id":"levelo_inurba_marseille","lat":43.29332,"lon":5.37094,"is_reserved":false,"is_disabled":false,"rental_uris":{"android":"levelo://app?vid=ca16c776-2e50-4b16-9c6c-2a19719132b5","ios":"levelo://app?vid=ca16c776-2e50-4b16-9c6c-2a19719132b5"},"vehicle_type_id":"4","last_reported":1735769267,"current_range_meters":32800,"station_id":"","pricing_plan_id":"cebpf4jnsgd1na2vs0mg"},{"bike_id":"624a8e59-ef43-45a6-803a-3aa15936b2ff","system_id":"levelo_inurba_marseille","lat":43.25091,"lon":5.39511,"is_reserved":false,"is_disabled":true,"rental_uris":{"android":"levelo://app?vid=624a8e59-ef43-45a6-803a-3aa15936b2ff","ios":"levelo://app?vid=624a8e59-ef43-45a6-803a-3aa15936b2ff"},"vehicle_type_id":"4","last_reported":1735769267,"current_range_meters":39200,"station_id":"ce4bhm12rcd13ifvqgkg","pricing_plan_id":"cebpf4jnsgd1na2vs0mg"},{"bike_id":"575de015-57db-4606-a2e8-90d179a65e2f","system_id":"levelo_inurba_marseille","lat":43.29295,"lon":5.37155,"is_reserved":false,"is_disabled":false,"rental_uris":{"android":"levelo://app?vid=575de015-57db-4606-a2e8-90d179a65e2f","ios":"levelo://app?vid=575de015-57db-4606-a2e8-90d179a65e2f"},"vehicle_type_id":"4","last_reported":1735769267,"current_range_meters":10000,"station_id":"ce4bgh92rcd13ifvqb40","pricing_plan_id":"cebpf4jnsgd1na2vs0mg"},{"bike_id":"875ddf3d-2cfd-49c8-bd8d-f51a9265e541","system_id":"levelo_inurba_marseille","lat":43.26676,"lon":5.38261,"is_reserved":false,"is_disabled":false,"rental_uris":{"android":"levelo://app?vid=875ddf3d-2cfd-49c8-bd8d-f51a9265e541","ios":"levelo://app?vid=875ddf3d-2cfd-49c8-bd8d-f51a9265e541"},"vehicle_type_id":"4","last_reported":1735769267,"current_range_meters":26800,"station_id":"ce4bhg92rcd13ifvqf90","pricing_plan_id":"cebpf4jnsgd1na2vs0mg"},{"bike_id":"e7f232e6-9751-45f4-a24f-005b95d10947","system_id":"levelo_inurba_marseille","lat":43.29602,"lon":5.37702,"is_reserved":false,"is_disabled":true,"rental_uris":{"android":"levelo://app?vid=e7f232e6-9751-45f4-a24f-005b95d10947","ios":"levelo://app?vid=e7f232e6-9751-45f4-a24f-005b95d10947"},"vehicle_type_id":"4","last_reported":1735769267,"current_range_meters":6400,"station_id":"ce4bgi92rcd13ifvqb90","pricing_plan_id":"cebpf4jnsgd1na2vs0mg"},{"bike_id":"2124bfc2-7041-4239-86d3-4b503152cb3b","system_id":"levelo_inurba_marseille","lat":43.28843,"lon":5.35842,"is_reserved":false,"is_disabled":false,"rental_uris":{"android":"levelo://app?vid=2124bfc2-7041-4239-86d3-4b503152cb3b","ios":"levelo://app?vid=2124bfc2-7041-4239-86d3-4b503152cb3b"},"vehicle_type_id":"4","last_reported":1735769267,"current_range_meters":30400,"station_id":"ce4bhb12rcd13ifvqem0","pricing_plan_id":"cebpf4jnsgd1na2vs0mg"},{"bike_id":"f3998a04-3b93-4948-8eb7-aa16047370fd","system_id":"levelo_inurba_marseille","lat":43.27958,"lon":5.41046,"is_reserved":false,"is_disabled":false,"rental_uris":{"android":"levelo://app?vid=f3998a04-3b93-4948-8eb7-aa16047370fd","ios":"levelo://app?vid=f3998a04-3b93-4948-8eb7-aa16047370fd"},"vehicle_type_id":"4","last_reported":1735769267,"current_range_meters":25600,"station_id":"ce4bhnp2rcd13ifvqh0g","pricing_plan_id":"cebpf4jnsgd1na2vs0mg"},{"bike_id":"2654fdf8-b2db-47d2-91cd-285786082534","system_id":"levelo_inurba_marseille","lat":43.3088,"lon":5.37199,"is_reserved":false,"is_disabled":false,"rental_uris":{"android":"levelo://app?vid=2654fdf8-b2db-47d2-91cd-285786082534","ios":"levelo://app?vid=2654fdf8-b2db-47d2-91cd-285786082534"},"vehicle_type_id":"4","last_reported":1735769267,"current_range_meters":38800,"station_id":"ce4bguh2rcd13ifvqckg","pricing_plan_id":"cebpf4jnsgd1na2vs0mg"},{"bike_id":"4e5ddd94-96b7-43d6-9911-f47ef0293625","system_id":"levelo_inurba_marseille","lat":43.30355,"lon":5.41869,"is_reserved":false,"is_disabled":false,"rental_uris":{"android":"levelo://app?vid=4e5ddd94-96b7-43d6-9911-f47ef0293625","ios":"levelo://app?vid=4e5ddd94-96b7-43d6-9911-f47ef0293625"},"vehicle_type_id":"4","last_reported":1735769267,"current_range_meters":38800,"station_id":"ce4bhop2rcd13ifvqh7g","pricing_plan_id":"cebpf4jnsgd1na2vs0mg"},{"bike_id":"454e635a-fe63-4370-ba83-5de3ae3da3e0","system_id":"levelo_inurba_marseille","lat":43.28412,"lon":5.37531,"is_reserved":false,"is_disabled":true,"rental_uris":{"android":"levelo://app?vid=454e635a-fe63-4370-ba83-5de3ae3da3e0","ios":"levelo://app?vid=454e635a-fe63-4370-ba83-5de3ae3da3e0"},"vehicle_type_id":"4","last_reported":1735769267,"current_range_meters":35200,"station_id":"ce4bh412rcd13ifvqds0","pricing_plan_id":"cebpf4jnsgd1na2vs0mg"},{"bike_id":"8ead7e35-2ddd-4db1-b525-2dbe32578065","system_id":"levelo_inurba_marseille","lat":43.30307,"lon":5.369,"is_reserved":false,"is_disabled":true,"rental_uris":{"android":"levelo://app?vid=8ead7e35-2ddd-4db1-b525-2dbe32578065","ios":"levelo://app?vid=8ead7e35-2ddd-4db1-b525-2dbe32578065"},"vehicle_type_id":"4","last_reported":1735769267,"current_range_meters":33200,"station_id":"ce4bgqh2rcd13ifvqc5g","pricing_plan_id":"cebpf4jnsgd1na2vs0mg"},{"bike_id":"0dee81bc-eac7-4dd6-99bf-630930df9c0b","system_id":"levelo_inurba_marseille","lat":43.31181,"lon":5.38713,"is_reserved":false,"is_disabled":false,"rental_uris":{"android":"levelo://app?vid=0dee81bc-eac7-4dd6-99bf-630930df9c0b","ios":"levelo://app?vid=0dee81bc-eac7-4dd6-99bf-630930df9c0b"},"vehicle_type_id":"4","last_reported":1735769267,"current_range_meters":36400,"station_id":"ce4bgv12rcd13ifvqcp0","pricing_plan_id":"cebpf4jnsgd1na2vs0mg"},{"bike_id":"e157af35-862f-4ff3-a971-0cec14143385","system_id":"levelo_inurba_marseille","lat":43.27962,"lon":5.41019,"is_reserved":false,"is_disabled":false,"rental_uris":{"android":"levelo://app?vid=e157af35-862f-4ff3-a971-0cec14143385","ios":"levelo://app?vid=e157af35-862f-4ff3-a971-0cec14143385"},"vehicle_type_id":"4","last_reported":1735769267,"current_range_meters":30800,"station_id":"ce4bhnp2rcd13ifvqh0g","pricing_plan_id":"cebpf4jnsgd1na2vs0mg"},{"bike_id":"d81935cc-c2d8-41f1-87a6-1c6b256db8e0","system_id":"levelo_inurba_marseille","lat":43.3228,"lon":5.38998,"is_reserved":false,"is_disabled":false,"rental_uris":{"android":"levelo://app?vid=d81935cc-c2d8-41f1-87a6-1c6b256db8e0","ios":"levelo://app?vid=d81935cc-c2d8-41f1-87a6-1c6b256db8e0"},"vehicle_type_id":"4","last_reported":1735769267,"current_range_meters":30000,"station_id":"ce4bhqp2rcd13ifvqhog","pricing_plan_id":"cebpf4jnsgd1na2vs0mg"},{"bike_id":"703d0d5e-415c-49c6-943d-859388f28cf6","system_id":"levelo_inurba_marseille","lat":43.27178,"lon":5.40984,"is_reserved":false,"is_disabled":false,"rental_uris":{"android":"levelo://app?vid=703d0d5e-415c-49c6-943d-859388f28cf6","ios":"levelo://app?vid=703d0d5e-415c-49c6-943d-859388f28cf6"},"vehicle_type_id":"4","last_reported":1735769267,"current_range_meters":25200,"station_id":"ce4bhl12rcd13ifvqgf0","pricing_plan_id":"cebpf4jnsgd1na2vs0mg"},{"bike_id":"f5997a88-606e-48c9-933e-041b10894cea","system_id":"levelo_inurba_marseille","lat":43.27076,"lon":5.42285,"is_reserved":false,"is_disabled":false,"rental_uris":{"android":"levelo://app?vid=f5997a88-606e-48c9-933e-041b10894cea","ios":"levelo://app?vid=f5997a88-606e-48c9-933e-041b10894cea"},"vehicle_type_id":"4","last_reported":1735769267,"current_range_meters":16800,"station_id":"ce4bhk92rcd13ifvqgb0","pricing_plan_id":"cebpf4jnsgd1na2vs0mg"},{"bike_id":"311a57b6-ee6a-440d-800d-01c5b040ddaf","system_id":"levelo_inurba_marseille","lat":43.31116,"lon":5.37768,"is_reserved":false,"is_disabled":false,"rental_uris":{"android":"levelo://app?vid=311a57b6-ee6a-440d-800d-01c5b040ddaf","ios":"levelo://app?vid=311a57b6-ee6a-440d-800d-01c5b040ddaf"},"vehicle_type_id":"4","last_reported":1735769267,"current_range_meters":31200,"station_id":"ce4bgt92rcd13ifvqcg0","pricing_plan_id":"cebpf4jnsgd1na2vs0mg"},{"bike_id":"b2efc2c9-4c50-4ae0-9f7a-2ebbe60214c1","system_id":"levelo_inurba_marseille","lat":43.25117,"lon":5.40326,"is_reserved":false,"is_disabled":false,"rental_uris":{"android":"levelo://app?vid=b2efc2c9-4c50-4ae0-9f7a-2ebbe60214c1","ios":"levelo://app?vid=b2efc2c9-4c50-4ae0-9f7a-2ebbe60214c1"},"vehicle_type_id":"4","last_reported":1735769267,"current_range_meters":38800,"station_id":"ce4bhlh2rcd13ifvqgig","pricing_plan_id":"cebpf4jnsgd1na2vs0mg"},{"bike_id":"02b9e2b7-c456-4117-99f8-a5a1cc0170b4","system_id":"levelo_inurba_marseille","lat":43.31763,"lon":5.39002,"is_reserved":false,"is_disabled":false,"rental_uris":{"android":"levelo://app?vid=02b9e2b7-c456-4117-99f8-a5a1cc0170b4","ios":"levelo://app?vid=02b9e2b7-c456-4117-99f8-a5a1cc0170b4"},"vehicle_type_id":"4","last_reported":1735769267,"current_range_meters":36000,"station_id":"ce4bhqp2rcd13ifvqhng","pricing_plan_id":"cebpf4jnsgd1na2vs0mg"},{"bike_id":"96aa68ac-c7d0-4549-9fad-cd9958e2dfc7","system_id":"levelo_inurba_marseille","lat":43.29444,"lon":5.39752,"is_reserved":false,"is_disabled":false,"rental_uris":{"android":"levelo://app?vid=96aa68ac-c7d0-4549-9fad-cd9958e2dfc7","ios":"levelo://app?vid=96aa68ac-c7d0-4549-9fad-cd9958e2dfc7"},"vehicle_type_id":"4","last_reported":1735769267,"current_range_meters":26800,"station_id":"ce4bh3h2rcd13ifvqdo0","pricing_plan_id":"cebpf4jnsgd1na2vs0mg"},{"bike_id":"54a0f462-5615-4e56-ad72-7f076a7c39fe","system_id":"levelo_inurba_marseille","lat":43.28675,"lon":5.36359,"is_reserved":false,"is_disabled":false,"rental_uris":{"android":"levelo://app?vid=54a0f462-5615-4e56-ad72-7f076a7c39fe","ios":"levelo://app?vid=54a0f462-5615-4e56-ad72-7f076a7c39fe"},"vehicle_type_id":"4","last_reported":1735769267,"current_range_meters":38800,"station_id":"ce4bhah2rcd13ifvqej0","pricing_plan_id":"cebpf4jnsgd1na2vs0mg"},{"bike_id":"1758e404-548a-4b20-87fe-a9470e99ef0f","system_id":"levelo_inurba_marseille","lat":43.28368,"lon":5.38635,"is_reserved":false,"is_disabled":false,"rental_uris":{"android":"levelo://app?vid=1758e404-548a-4b20-87fe-a9470e99ef0f","ios":"levelo://app?vid=1758e404-548a-4b20-87fe-a9470e99ef0f"},"vehicle_type_id":"4","last_reported":1735769267,"current_range_meters":30400,"station_id":"ce4bh492rcd13ifvqdvg","pricing_plan_id":"cebpf4jnsgd1na2vs0mg"},{"bike_id":"b9cf1b45-0e60-41d7-8c8f-246b3d59da6a","system_id":"levelo_inurba_marseille","lat":43.29371,"lon":5.37855,"is_reserved":false,"is_disabled":false,"rental_uris":{"android":"levelo://app?vid=b9cf1b45-0e60-41d7-8c8f-246b3d59da6a","ios":"levelo://app?vid=b9cf1b45-0e60-41d7-8c8f-246b3d59da6a"},"vehicle_type_id":"4","last_reported":1735769267,"current_range_meters":30400,"station_id":"ce4bgjh2rcd13ifvqbf0","pricing_plan_id":"cebpf4jnsgd1na2vs0mg"},{"bike_id":"bcd20683-a7d2-4d73-b9c6-b696fde50e59","system_id":"levelo_inurba_marseille","lat":43.27066,"lon":5.42268,"is_reserved":false,"is_disabled":true,"rental_uris":{"android":"levelo://app?vid=bcd20683-a7d2-4d73-b9c6-b696fde50e59","ios":"levelo://app?vid=bcd20683-a7d2-4d73-b9c6-b696fde50e59"},"vehicle_type_id":"4","last_reported":1735769267,"current_range_meters":10800,"station_id":"ce4bhk92rcd13ifvqgb0","pricing_plan_id":"cebpf4jnsgd1na2vs0mg"},{"bike_id":"313a9a0d-cbde-465d-8a65-140655419224","system_id":"levelo_inurba_marseille","lat":43.25503,"lon":5.37657,"is_reserved":false,"is_disabled":false,"rental_uris":{"android":"levelo://app?vid=313a9a0d-cbde-465d-8a65-140655419224","ios":"levelo://app?vid=313a9a0d-cbde-465d-8a65-140655419224"},"vehicle_type_id":"4","last_reported":1735769267,"current_range_meters":38800,"station_id":"ce4bhh12rcd13ifvqff0","pricing_plan_id":"cebpf4jnsgd1na2vs0mg"},{"bike_id":"660aed1d-cdeb-4a3c-a6d4-d19ef9a2563b","system_id":"levelo_inurba_marseille","lat":43.29898,"lon":5.43662,"is_reserved":false,"is_disabled":false,"rental_uris":{"android":"levelo://app?vid=660aed1d-cdeb-4a3c-a6d4-d19ef9a2563b","ios":"levelo://app?vid=660aed1d-cdeb-4a3c-a6d4-d19ef9a2563b"},"vehicle_type_id":"4","last_reported":1735769267,"current_range_meters":22400,"station_id":"ce4bhpp2rcd13ifvqhfg","pricing_plan_id":"cebpf4jnsgd1na2vs0mg"},{"bike_id":"7d44431e-ed83-438c-86a7-892d7e053d01","system_id":"levelo_inurba_marseille","lat":43.32047,"lon":5.41558,"is_reserved":false,"is_disabled":false,"rental_uris":{"android":"levelo://app?vid=7d44431e-ed83-438c-86a7-892d7e053d01","ios":"levelo://app?vid=7d44431e-ed83-438c-86a7-892d7e053d01"},"vehicle_type_id":"4","last_reported":1735769267,"current_range_meters":39200,"station_id":"ce4bhq92rcd13ifvqhkg","pricing_plan_id":"cebpf4jnsgd1na2vs0mg"},{"bike_id":"84ff672c-254b-42d1-ad81-4f7d674dca47","system_id":"levelo_inurba_marseille","lat":43.24397,"lon":5.37039,"is_reserved":false,"is_disabled":false,"rental_uris":{"android":"levelo://app?vid=84ff672c-254b-42d1-ad81-4f7d674dca47","ios":"levelo://app?vid=84ff672c-254b-42d1-ad81-4f7d674dca47"},"vehicle_type_id":"4","last_reported":1735769267,"current_range_meters":38800,"station_id":"ce4bhhh2rcd13ifvqfk0","pricing_plan_id":"cebpf4jnsgd1na2vs0mg"},{"bike_id":"d1cc6b6d-73e2-4169-a036-4b8f55f5040c","system_id":"levelo_inurba_marseille","lat":43.31699,"lon":5.37804,"is_reserved":false,"is_disabled":false,"rental_uris":{"android":"levelo://app?vid=d1cc6b6d-73e2-4169-a036-4b8f55f5040c","ios":"levelo://app?vid=d1cc6b6d-73e2-4169-a036-4b8f55f5040c"},"vehicle_type_id":"4","last_reported":1735769267,"current_range_meters":38400,"station_id":"ce4bgth2rcd13ifvqch0","pricing_plan_id":"cebpf4jnsgd1na2vs0mg"},{"bike_id":"84574380-5e63-4a67-bbf0-475b0a817486","system_id":"levelo_inurba_marseille","lat":43.27667,"lon":5.38898,"is_reserved":false,"is_disabled":false,"rental_uris":{"android":"levelo://app?vid=84574380-5e63-4a67-bbf0-475b0a817486","ios":"levelo://app?vid=84574380-5e63-4a67-bbf0-475b0a817486"},"vehicle_type_id":"4","last_reported":1735769267,"current_range_meters":38800,"station_id":"ce4bhi12rcd13ifvqfo0","pricing_plan_id":"cebpf4jnsgd1na2vs0mg"},{"bike_id":"4774beea-a13e-41a7-88d9-b5b577030a1d","system_id":"levelo_inurba_marseille","lat":43.29584,"lon":5.39956,"is_reserved":false,"is_disabled":false,"rental_uris":{"android":"levelo://app?vid=4774beea-a13e-41a7-88d9-b5b577030a1d","ios":"levelo://app?vid=4774beea-a13e-41a7-88d9-b5b577030a1d"},"vehicle_type_id":"4","last_reported":1735769267,"current_range_meters":38400,"station_id":"ce4bh312rcd13ifvqdj0","pricing_plan_id":"cebpf4jnsgd1na2vs0mg"},{"bike_id":"cf71aac8-1e52-435d-bf91-cac39ef804d5","system_id":"levelo_inurba_marseille","lat":43.3415,"lon":5.40905,"is_reserved":false,"is_disabled":false,"rental_uris":{"android":"levelo://app?vid=cf71aac8-1e52-435d-bf91-cac39ef804d5","ios":"levelo://app?vid=cf71aac8-1e52-435d-bf91-cac39ef804d5"},"vehicle_type_id":"4","last_reported":1735769267,"current_range_meters":36800,"station_id":"ce4bhqh2rcd13ifvqhlg","pricing_plan_id":"cebpf4jnsgd1na2vs0mg"},{"bike_id":"145ea73e-8190-48e4-8331-13a1a1cfe545","system_id":"levelo_inurba_marseille","lat":43.33729,"lon":5.39175,"is_reserved":false,"is_disabled":false,"rental_uris":{"android":"levelo://app?vid=145ea73e-8190-48e4-8331-13a1a1cfe545","ios":"levelo://app?vid=145ea73e-8190-48e4-8331-13a1a1cfe545"},"vehicle_type_id":"4","last_reported":1735769267,"current_range_meters":38800,"station_id":"ce4bhr92rcd13ifvqhsg","pricing_plan_id":"cebpf4jnsgd1na2vs0mg"},{"bike_id":"594be97a-e1af-44d9-b33f-28de40fe66bb","system_id":"levelo_inurba_marseille","lat":43.27902,"lon":5.38003,"is_reserved":false,"is_disabled":false,"rental_uris":{"android":"levelo://app?vid=594be97a-e1af-44d9-b33f-28de40fe66bb","ios":"levelo://app?vid=594be97a-e1af-44d9-b33f-28de40fe66bb"},"vehicle_type_id":"4","last_reported":1735769267,"current_range_meters":38800,"station_id":"ce4bhf92rcd13ifvqf50","pricing_plan_id":"cebpf4jnsgd1na2vs0mg"},{"bike_id":"80918c45-89b7-4fd7-996f-c047d892f254","system_id":"levelo_inurba_marseille","lat":43.28411,"lon":5.34976,"is_reserved":false,"is_disabled":false,"rental_uris":{"android":"levelo://app?vid=80918c45-89b7-4fd7-996f-c047d892f254","ios":"levelo://app?vid=80918c45-89b7-4fd7-996f-c047d892f254"},"vehicle_type_id":"4","last_reported":1735769267,"current_range_meters":30800,"station_id":"ce4bhbh2rcd13ifvqepg","pricing_plan_id":"cebpf4jnsgd1na2vs0mg"},{"bike_id":"d502592a-d2f4-462b-a981-e532ff6a3185","system_id":"levelo_inurba_marseille","lat":43.28946,"lon":5.39626,"is_reserved":false,"is_disabled":false,"rental_uris":{"android":"levelo://app?vid=d502592a-d2f4-462b-a981-e532ff6a3185","ios":"levelo://app?vid=d502592a-d2f4-462b-a981-e532ff6a3185"},"vehicle_type_id":"4","last_reported":1735769267,"current_range_meters":38000,"station_id":"ce4bh3h2rcd13ifvqdn0","pricing_plan_id":"cebpf4jnsgd1na2vs0mg"},{"bike_id":"6ee7489a-d923-4bd5-83e0-c2114046ebb8","system_id":"levelo_inurba_marseille","lat":43.31164,"lon":5.38712,"is_reserved":false,"is_disabled":false,"rental_uris":{"android":"levelo://app?vid=6ee7489a-d923-4bd5-83e0-c2114046ebb8","ios":"levelo://app?vid=6ee7489a-d923-4bd5-83e0-c2114046ebb8"},"vehicle_type_id":"4","last_reported":1735769267,"current_range_meters":38000,"station_id":"ce4bgv12rcd13ifvqcp0","pricing_plan_id":"cebpf4jnsgd1na2vs0mg"},{"bike_id":"4e2e926a-cc62-4529-8b24-3abbcf0f0be2","system_id":"levelo_inurba_marseille","lat":43.23194,"lon":5.35553,"is_reserved":false,"is_disabled":false,"rental_uris":{"android":"levelo://app?vid=4e2e926a-cc62-4529-8b24-3abbcf0f0be2","ios":"levelo://app?vid=4e2e926a-cc62-4529-8b24-3abbcf0f0be2"},"vehicle_type_id":"4","last_reported":1735769267,"current_range_meters":38800,"station_id":"ce4bhu92rcd13ifvqi70","pricing_plan_id":"cebpf4jnsgd1na2vs0mg"},{"bike_id":"576c3c6b-bcf6-433f-9d79-5f33ae917960","system_id":"levelo_inurba_marseille","lat":43.29541,"lon":5.42266,"is_reserved":false,"is_disabled":false,"rental_uris":{"android":"levelo://app?vid=576c3c6b-bcf6-433f-9d79-5f33ae917960","ios":"levelo://app?vid=576c3c6b-bcf6-433f-9d79-5f33ae917960"},"vehicle_type_id":"4","last_reported":1735769267,"current_range_meters":38800,"station_id":"ce4bhph2rcd13ifvqhdg","pricing_plan_id":"cebpf4jnsgd1na2vs0mg"},{"bike_id":"5251a20e-25ee-4b23-be4c-b33060c57a4e","system_id":"levelo_inurba_marseille","lat":43.3032,"lon":5.39202,"is_reserved":false,"is_disabled":false,"rental_uris":{"android":"levelo://app?vid=5251a20e-25ee-4b23-be4c-b33060c57a4e","ios":"levelo://app?vid=5251a20e-25ee-4b23-be4c-b33060c57a4e"},"vehicle_type_id":"4","last_reported":1735769267,"current_range_meters":38800,"station_id":"ce4bgkh2rcd13ifvqbk0","pricing_plan_id":"cebpf4jnsgd1na2vs0mg"},{"bike_id":"c9bf4b20-cf8c-4e15-a218-0c2230fa420c","system_id":"levelo_inurba_marseille","lat":43.28083,"lon":5.3782,"is_reserved":false,"is_disabled":false,"rental_uris":{"android":"levelo://app?vid=c9bf4b20-cf8c-4e15-a218-0c2230fa420c","ios":"levelo://app?vid=c9bf4b20-cf8c-4e15-a218-0c2230fa420c"},"vehicle_type_id":"4","last_reported":1735769267,"current_range_meters":36400,"station_id":"ce4bha12rcd13ifvqee0","pricing_plan_id":"cebpf4jnsgd1na2vs0mg"},{"bike_id":"376806c9-42bf-4b79-847b-ff6ccf9014a8","system_id":"levelo_inurba_marseille","lat":43.29914,"lon":5.38116,"is_reserved":false,"is_disabled":false,"rental_uris":{"android":"levelo://app?vid=376806c9-42bf-4b79-847b-ff6ccf9014a8","ios":"levelo://app?vid=376806c9-42bf-4b79-847b-ff6ccf9014a8"},"vehicle_type_id":"4","last_reported":1735769267,"current_range_meters":12800,"station_id":"ce4bgj12rcd13ifvqbc0","pricing_plan_id":"cebpf4jnsgd1na2vs0mg"},{"bike_id":"e8bfb197-6499-4133-851b-4f477e31e3f9","system_id":"levelo_inurba_marseille","lat":43.33725,"lon":5.3918,"is_reserved":false,"is_disabled":false,"rental_uris":{"android":"levelo://app?vid=e8bfb197-6499-4133-851b-4f477e31e3f9","ios":"levelo://app?vid=e8bfb197-6499-4133-851b-4f477e31e3f9"},"vehicle_type_id":"4","last_reported":1735769267,"current_range_meters":32000,"station_id":"ce4bhr92rcd13ifvqhsg","pricing_plan_id":"cebpf4jnsgd1na2vs0mg"},{"bike_id":"0ca8a96e-5b6a-4829-afe8-ce192e780745","system_id":"levelo_inurba_marseille","lat":43.28481,"lon":5.38409,"is_reserved":false,"is_disabled":false,"rental_uris":{"android":"levelo://app?vid=0ca8a96e-5b6a-4829-afe8-ce192e780745","ios":"levelo://app?vid=0ca8a96e-5b6a-4829-afe8-ce192e780745"},"vehicle_type_id":"4","last_reported":1735769267,"current_range_meters":32800,"station_id":"ce4bh512rcd13ifvqe3g","pricing_plan_id":"cebpf4jnsgd1na2vs0mg"},{"bike_id":"5395315d-9fd0-4a43-a38d-2086ce86bcae","system_id":"levelo_inurba_marseille","lat":43.32829,"lon":5.36698,"is_reserved":false,"is_disabled":false,"rental_uris":{"android":"levelo://app?vid=5395315d-9fd0-4a43-a38d-2086ce86bcae","ios":"levelo://app?vid=5395315d-9fd0-4a43-a38d-2086ce86bcae"},"vehicle_type_id":"4","last_reported":1735769267,"current_range_meters":32000,"station_id":"","pricing_plan_id":"cebpf4jnsgd1na2vs0mg"},{"bike_id":"2f71d5d0-4248-4fd8-90b9-7615dc7e3077","system_id":"levelo_inurba_marseille","lat":43.25121,"lon":5.40318,"is_reserved":false,"is_disabled":false,"rental_uris":{"android":"levelo://app?vid=2f71d5d0-4248-4fd8-90b9-7615dc7e3077","ios":"levelo://app?vid=2f71d5d0-4248-4fd8-90b9-7615dc7e3077"},"vehicle_type_id":"4","last_reported":1735769267,"current_range_meters":38800,"station_id":"ce4bhlh2rcd13ifvqgig","pricing_plan_id":"cebpf4jnsgd1na2vs0mg"},{"bike_id":"f46bd378-e30f-485c-b539-9d29fba578aa","system_id":"levelo_inurba_marseille","lat":43.34143,"lon":5.40901,"is_reserved":false,"is_disabled":false,"rental_uris":{"android":"levelo://app?vid=f46bd378-e30f-485c-b539-9d29fba578aa","ios":"levelo://app?vid=f46bd378-e30f-485c-b539-9d29fba578aa"},"vehicle_type_id":"4","last_reported":1735769267,"current_range_meters":38800,"station_id":"ce4bhqh2rcd13ifvqhlg","pricing_plan_id":"cebpf4jnsgd1na2vs0mg"},{"bike_id":"583adf00-139d-403f-8366-744378ddbd7e","system_id":"levelo_inurba_marseille","lat":43.283651,"lon":5.386298,"is_reserved":false,"is_disabled":false,"rental_uris":{"android":"levelo://app?vid=583adf00-139d-403f-8366-744378ddbd7e","ios":"levelo://app?vid=583adf00-139d-403f-8366-744378ddbd7e"},"vehicle_type_id":"4","last_reported":1735769267,"current_range_meters":38400,"station_id":"ce4bh492rcd13ifvqdvg","pricing_plan_id":"cebpf4jnsgd1na2vs0mg"},{"bike_id":"198aa1dc-d73c-4de6-aee9-bd9c6a1a5f7e","system_id":"levelo_inurba_marseille","lat":43.30596,"lon":5.3935,"is_reserved":false,"is_disabled":false,"rental_uris":{"android":"levelo://app?vid=198aa1dc-d73c-4de6-aee9-bd9c6a1a5f7e","ios":"levelo://app?vid=198aa1dc-d73c-4de6-aee9-bd9c6a1a5f7e"},"vehicle_type_id":"4","last_reported":1735769267,"current_range_meters":38800,"station_id":"ce4bh0p2rcd13ifvqd80","pricing_plan_id":"cebpf4jnsgd1na2vs0mg"},{"bike_id":"aa508fbe-3c3b-47b0-805c-83abdcb4f95a","system_id":"levelo_inurba_marseille","lat":43.28702,"lon":5.37389,"is_reserved":false,"is_disabled":false,"rental_uris":{"android":"levelo://app?vid=aa508fbe-3c3b-47b0-805c-83abdcb4f95a","ios":"levelo://app?vid=aa508fbe-3c3b-47b0-805c-83abdcb4f95a"},"vehicle_type_id":"4","last_reported":1735769267,"current_range_meters":32800,"station_id":"ce4bh3p2rcd13ifvqdq0","pricing_plan_id":"cebpf4jnsgd1na2vs0mg"},{"bike_id":"df334d50-4421-42a5-a762-fb7f39807cc1","system_id":"levelo_inurba_marseille","lat":43.33755,"lon":5.37428,"is_reserved":false,"is_disabled":false,"rental_uris":{"android":"levelo://app?vid=df334d50-4421-42a5-a762-fb7f39807cc1","ios":"levelo://app?vid=df334d50-4421-42a5-a762-fb7f39807cc1"},"vehicle_type_id":"4","last_reported":1735769267,"current_range_meters":34800,"station_id":"","pricing_plan_id":"cebpf4jnsgd1na2vs0mg"},{"bike_id":"87b9a921-e93d-4ee9-818f-18845bfae0db","system_id":"levelo_inurba_marseille","lat":43.25019,"lon":5.38875,"is_reserved":false,"is_disabled":false,"rental_uris":{"android":"levelo://app?vid=87b9a921-e93d-4ee9-818f-18845bfae0db","ios":"levelo://app?vid=87b9a921-e93d-4ee9-818f-18845bfae0db"},"vehicle_type_id":"4","last_reported":1735769267,"current_range_meters":21600,"station_id":"ce4bhgp2rcd13ifvqfd0","pricing_plan_id":"cebpf4jnsgd1na2vs0mg"},{"bike_id":"35d7b981-f2f8-4e1f-bf58-6f3547d4e1f6","system_id":"levelo_inurba_marseille","lat":43.303,"lon":5.36894,"is_reserved":false,"is_disabled":true,"rental_uris":{"android":"levelo://app?vid=35d7b981-f2f8-4e1f-bf58-6f3547d4e1f6","ios":"levelo://app?vid=35d7b981-f2f8-4e1f-bf58-6f3547d4e1f6"},"vehicle_type_id":"4","last_reported":1735769267,"current_range_meters":22400,"station_id":"ce4bgqh2rcd13ifvqc5g","pricing_plan_id":"cebpf4jnsgd1na2vs0mg"},{"bike_id":"fb669f54-ad44-40e8-add0-eae135f57ab5","system_id":"levelo_inurba_marseille","lat":43.29514,"lon":5.39392,"is_reserved":false,"is_disabled":false,"rental_uris":{"android":"levelo://app?vid=fb669f54-ad44-40e8-add0-eae135f57ab5","ios":"levelo://app?vid=fb669f54-ad44-40e8-add0-eae135f57ab5"},"vehicle_type_id":"4","last_reported":1735769267,"current_range_meters":38800,"station_id":"ce4bh292rcd13ifvqdf0","pricing_plan_id":"cebpf4jnsgd1na2vs0mg"},{"bike_id":"d6b7bffe-8f80-427e-946d-3914bf2c39b8","system_id":"levelo_inurba_marseille","lat":43.27919,"lon":5.39575,"is_reserved":false,"is_disabled":false,"rental_uris":{"android":"levelo://app?vid=d6b7bffe-8f80-427e-946d-3914bf2c39b8","ios":"levelo://app?vid=d6b7bffe-8f80-427e-946d-3914bf2c39b8"},"vehicle_type_id":"4","last_reported":1735769267,"current_range_meters":37600,"station_id":"ce4bhf92rcd13ifvqf40","pricing_plan_id":"cebpf4jnsgd1na2vs0mg"},{"bike_id":"a9ff90c3-d757-4e04-8d1b-899fc1735178","system_id":"levelo_inurba_marseille","lat":43.28458,"lon":5.35882,"is_reserved":false,"is_disabled":false,"rental_uris":{"android":"levelo://app?vid=a9ff90c3-d757-4e04-8d1b-899fc1735178","ios":"levelo://app?vid=a9ff90c3-d757-4e04-8d1b-899fc1735178"},"vehicle_type_id":"4","last_reported":1735769267,"current_range_meters":35600,"station_id":"ce4bhah2rcd13ifvqei0","pricing_plan_id":"cebpf4jnsgd1na2vs0mg"},{"bike_id":"5367a292-5564-4681-91cd-97babb89fc00","system_id":"levelo_inurba_marseille","lat":43.22935,"lon":5.35365,"is_reserved":false,"is_disabled":false,"rental_uris":{"android":"levelo://app?vid=5367a292-5564-4681-91cd-97babb89fc00","ios":"levelo://app?vid=5367a292-5564-4681-91cd-97babb89fc00"},"vehicle_type_id":"4","last_reported":1735769267,"current_range_meters":21600,"station_id":"cpo3532slgdg3j2ikp40","pricing_plan_id":"cebpf4jnsgd1na2vs0mg"},{"bike_id":"1d5543c4-1c87-4447-ad2e-0cc64903ea75","system_id":"levelo_inurba_marseille","lat":43.25866,"lon":5.39915,"is_reserved":false,"is_disabled":false,"rental_uris":{"android":"levelo://app?vid=1d5543c4-1c87-4447-ad2e-0cc64903ea75","ios":"levelo://app?vid=1d5543c4-1c87-4447-ad2e-0cc64903ea75"},"vehicle_type_id":"4","last_reported":1735769267,"current_range_meters":38800,"station_id":"ce4bhl92rcd13ifvqghg","pricing_plan_id":"cebpf4jnsgd1na2vs0mg"},{"bike_id":"0483d5a5-12c2-4b90-8e6c-47d6d5a4b82c","system_id":"levelo_inurba_marseille","lat":43.25834,"lon":5.3942,"is_reserved":false,"is_disabled":false,"rental_uris":{"android":"levelo://app?vid=0483d5a5-12c2-4b90-8e6c-47d6d5a4b82c","ios":"levelo://app?vid=0483d5a5-12c2-4b90-8e6c-47d6d5a4b82c"},"vehicle_type_id":"4","last_reported":1735769267,"current_range_meters":38800,"station_id":"ce4bhip2rcd13ifvqft0","pricing_plan_id":"cebpf4jnsgd1na2vs0mg"},{"bike_id":"86be64a4-916d-409f-a530-ca3970124587","system_id":"levelo_inurba_marseille","lat":43.30921,"lon":5.40158,"is_reserved":false,"is_disabled":false,"rental_uris":{"android":"levelo://app?vid=86be64a4-916d-409f-a530-ca3970124587","ios":"levelo://app?vid=86be64a4-916d-409f-a530-ca3970124587"},"vehicle_type_id":"4","last_reported":1735769267,"current_range_meters":37600,"station_id":"ce4bgvp2rcd13ifvqct0","pricing_plan_id":"cebpf4jnsgd1na2vs0mg"},{"bike_id":"33497993-8215-4c68-b6f5-46b36801a14d","system_id":"levelo_inurba_marseille","lat":43.31242,"lon":5.36871,"is_reserved":false,"is_disabled":false,"rental_uris":{"android":"levelo://app?vid=33497993-8215-4c68-b6f5-46b36801a14d","ios":"levelo://app?vid=33497993-8215-4c68-b6f5-46b36801a14d"},"vehicle_type_id":"4","last_reported":1735769267,"current_range_meters":38800,"station_id":"ce4bgl92rcd13ifvqbq0","pricing_plan_id":"cebpf4jnsgd1na2vs0mg"},{"bike_id":"9320d020-4c62-4fe4-ac9b-ff56a3eaad5a","system_id":"levelo_inurba_marseille","lat":43.26024,"lon":5.37552,"is_reserved":false,"is_disabled":false,"rental_uris":{"android":"levelo://app?vid=9320d020-4c62-4fe4-ac9b-ff56a3eaad5a","ios":"levelo://app?vid=9320d020-4c62-4fe4-ac9b-ff56a3eaad5a"},"vehicle_type_id":"4","last_reported":1735769267,"current_range_meters":38800,"station_id":"ce4bhgh2rcd13ifvqfa0","pricing_plan_id":"cebpf4jnsgd1na2vs0mg"},{"bike_id":"5805dd1a-e108-430b-8b6a-b20a2cc619b1","system_id":"levelo_inurba_marseille","lat":43.29568,"lon":5.39967,"is_reserved":false,"is_disabled":false,"rental_uris":{"android":"levelo://app?vid=5805dd1a-e108-430b-8b6a-b20a2cc619b1","ios":"levelo://app?vid=5805dd1a-e108-430b-8b6a-b20a2cc619b1"},"vehicle_type_id":"4","last_reported":1735769267,"current_range_meters":38800,"station_id":"ce4bh312rcd13ifvqdj0","pricing_plan_id":"cebpf4jnsgd1na2vs0mg"},{"bike_id":"addd4f10-99f5-4e98-a77b-9d17d1d03a73","system_id":"levelo_inurba_marseille","lat":43.27361,"lon":5.36236,"is_reserved":false,"is_disabled":false,"rental_uris":{"android":"levelo://app?vid=addd4f10-99f5-4e98-a77b-9d17d1d03a73","ios":"levelo://app?vid=addd4f10-99f5-4e98-a77b-9d17d1d03a73"},"vehicle_type_id":"4","last_reported":1735769267,"current_range_meters":25600,"station_id":"ce4bhbh2rcd13ifvqeo0","pricing_plan_id":"cebpf4jnsgd1na2vs0mg"},{"bike_id":"62076514-d312-4a15-ad75-f85cfe6d3f46","system_id":"levelo_inurba_marseille","lat":43.22932,"lon":5.35375,"is_reserved":false,"is_disabled":false,"rental_uris":{"android":"levelo://app?vid=62076514-d312-4a15-ad75-f85cfe6d3f46","ios":"levelo://app?vid=62076514-d312-4a15-ad75-f85cfe6d3f46"},"vehicle_type_id":"4","last_reported":1735769267,"current_range_meters":19200,"station_id":"cpo3532slgdg3j2ikp40","pricing_plan_id":"cebpf4jnsgd1na2vs0mg"},{"bike_id":"921c161c-81a9-4f62-88c9-fa7031ed1ea4","system_id":"levelo_inurba_marseille","lat":43.30191,"lon":5.36628,"is_reserved":false,"is_disabled":false,"rental_uris":{"android":"levelo://app?vid=921c161c-81a9-4f62-88c9-fa7031ed1ea4","ios":"levelo://app?vid=921c161c-81a9-4f62-88c9-fa7031ed1ea4"},"vehicle_type_id":"4","last_reported":1735769267,"current_range_meters":39200,"station_id":"ce4bgrh2rcd13ifvqc8g","pricing_plan_id":"cebpf4jnsgd1na2vs0mg"},{"bike_id":"d3c3ecb6-59dd-4313-8afe-88cdbe30cb5c","system_id":"levelo_inurba_marseille","lat":43.24786,"lon":5.37446,"is_reserved":false,"is_disabled":false,"rental_uris":{"android":"levelo://app?vid=d3c3ecb6-59dd-4313-8afe-88cdbe30cb5c","ios":"levelo://app?vid=d3c3ecb6-59dd-4313-8afe-88cdbe30cb5c"},"vehicle_type_id":"4","last_reported":1735769267,"current_range_meters":38800,"station_id":"ce4bhgh2rcd13ifvqfb0","pricing_plan_id":"cebpf4jnsgd1na2vs0mg"},{"bike_id":"3e6b1c3b-cf11-4303-b4d7-0ec5c145e60f","system_id":"levelo_inurba_marseille","lat":43.28022,"lon":5.36941,"is_reserved":false,"is_disabled":false,"rental_uris":{"android":"levelo://app?vid=3e6b1c3b-cf11-4303-b4d7-0ec5c145e60f","ios":"levelo://app?vid=3e6b1c3b-cf11-4303-b4d7-0ec5c145e60f"},"vehicle_type_id":"4","last_reported":1735769267,"current_range_meters":24000,"station_id":"ce4bha12rcd13ifvqef0","pricing_plan_id":"cebpf4jnsgd1na2vs0mg"},{"bike_id":"21af484f-e6db-4362-8eaf-0907c1a79f47","system_id":"levelo_inurba_marseille","lat":43.29626,"lon":5.37726,"is_reserved":false,"is_disabled":false,"rental_uris":{"android":"levelo://app?vid=21af484f-e6db-4362-8eaf-0907c1a79f47","ios":"levelo://app?vid=21af484f-e6db-4362-8eaf-0907c1a79f47"},"vehicle_type_id":"4","last_reported":1735769267,"current_range_meters":38800,"station_id":"ce4bgi92rcd13ifvqb90","pricing_plan_id":"cebpf4jnsgd1na2vs0mg"},{"bike_id":"515e64d3-2742-40a4-9cbd-08e53c8330a3","system_id":"levelo_inurba_marseille","lat":43.28847,"lon":5.39308,"is_reserved":false,"is_disabled":false,"rental_uris":{"android":"levelo://app?vid=515e64d3-2742-40a4-9cbd-08e53c8330a3","ios":"levelo://app?vid=515e64d3-2742-40a4-9cbd-08e53c8330a3"},"vehicle_type_id":"4","last_reported":1735769267,"current_range_meters":39200,"station_id":"ce4bh2p2rcd13ifvqdi0","pricing_plan_id":"cebpf4jnsgd1na2vs0mg"},{"bike_id":"bbfc5010-5ad1-478a-9bf0-def17e142c1c","system_id":"levelo_inurba_marseille","lat":43.28027,"lon":5.36954,"is_reserved":false,"is_disabled":false,"rental_uris":{"android":"levelo://app?vid=bbfc5010-5ad1-478a-9bf0-def17e142c1c","ios":"levelo://app?vid=bbfc5010-5ad1-478a-9bf0-def17e142c1c"},"vehicle_type_id":"4","last_reported":1735769267,"current_range_meters":38800,"station_id":"ce4bha12rcd13ifvqef0","pricing_plan_id":"cebpf4jnsgd1na2vs0mg"},{"bike_id":"4aeaac5c-4860-424a-b352-bd8a44a65ae8","system_id":"levelo_inurba_marseille","lat":43.30434,"lon":5.39741,"is_reserved":false,"is_disabled":false,"rental_uris":{"android":"levelo://app?vid=4aeaac5c-4860-424a-b352-bd8a44a65ae8","ios":"levelo://app?vid=4aeaac5c-4860-424a-b352-bd8a44a65ae8"},"vehicle_type_id":"4","last_reported":1735769267,"current_range_meters":17200,"station_id":"ce4bh092rcd13ifvqd20","pricing_plan_id":"cebpf4jnsgd1na2vs0mg"},{"bike_id":"37f0ce5c-76d5-4305-bca4-29742d503cb6","system_id":"levelo_inurba_marseille","lat":43.28617,"lon":5.35098,"is_reserved":false,"is_disabled":false,"rental_uris":{"android":"levelo://app?vid=37f0ce5c-76d5-4305-bca4-29742d503cb6","ios":"levelo://app?vid=37f0ce5c-76d5-4305-bca4-29742d503cb6"},"vehicle_type_id":"4","last_reported":1735769267,"current_range_meters":26000,"station_id":"ce4bhch2rcd13ifvqeug","pricing_plan_id":"cebpf4jnsgd1na2vs0mg"},{"bike_id":"a3597e2d-fb98-407b-9432-8b4a2b613bde","system_id":"levelo_inurba_marseille","lat":43.30362,"lon":5.41873,"is_reserved":false,"is_disabled":false,"rental_uris":{"android":"levelo://app?vid=a3597e2d-fb98-407b-9432-8b4a2b613bde","ios":"levelo://app?vid=a3597e2d-fb98-407b-9432-8b4a2b613bde"},"vehicle_type_id":"4","last_reported":1735769267,"current_range_meters":38800,"station_id":"ce4bhop2rcd13ifvqh7g","pricing_plan_id":"cebpf4jnsgd1na2vs0mg"},{"bike_id":"9fc11948-a0d1-4b39-8d46-5ede6d39db06","system_id":"levelo_inurba_marseille","lat":43.26979,"lon":5.36573,"is_reserved":false,"is_disabled":false,"rental_uris":{"android":"levelo://app?vid=9fc11948-a0d1-4b39-8d46-5ede6d39db06","ios":"levelo://app?vid=9fc11948-a0d1-4b39-8d46-5ede6d39db06"},"vehicle_type_id":"4","last_reported":1735769267,"current_range_meters":6400,"station_id":"","pricing_plan_id":"cebpf4jnsgd1na2vs0mg"},{"bike_id":"dac94ecf-3203-4c89-acc0-21c14e979588","system_id":"levelo_inurba_marseille","lat":43.26679,"lon":5.38272,"is_reserved":false,"is_disabled":false,"rental_uris":{"android":"levelo://app?vid=dac94ecf-3203-4c89-acc0-21c14e979588","ios":"levelo://app?vid=dac94ecf-3203-4c89-acc0-21c14e979588"},"vehicle_type_id":"4","last_reported":1735769267,"current_range_meters":7200,"station_id":"ce4bhg92rcd13ifvqf90","pricing_plan_id":"cebpf4jnsgd1na2vs0mg"},{"bike_id":"9489e3c9-2bef-4e30-8edd-86890257135c","system_id":"levelo_inurba_marseille","lat":43.24546,"lon":5.39519,"is_reserved":false,"is_disabled":false,"rental_uris":{"android":"levelo://app?vid=9489e3c9-2bef-4e30-8edd-86890257135c","ios":"levelo://app?vid=9489e3c9-2bef-4e30-8edd-86890257135c"},"vehicle_type_id":"4","last_reported":1735769267,"current_range_meters":17600,"station_id":"ce4bhlp2rcd13ifvqgjg","pricing_plan_id":"cebpf4jnsgd1na2vs0mg"},{"bike_id":"4802f4cf-bdb4-4c46-ab2a-8cf4b2f0b54e","system_id":"levelo_inurba_marseille","lat":43.32374,"lon":5.38883,"is_reserved":false,"is_disabled":false,"rental_uris":{"android":"levelo://app?vid=4802f4cf-bdb4-4c46-ab2a-8cf4b2f0b54e","ios":"levelo://app?vid=4802f4cf-bdb4-4c46-ab2a-8cf4b2f0b54e"},"vehicle_type_id":"4","last_reported":1735769267,"current_range_meters":16000,"station_id":"ce4bhqp2rcd13ifvqhog","pricing_plan_id":"cebpf4jnsgd1na2vs0mg"},{"bike_id":"9c42c59a-a990-48ee-91ac-32ebebcaabf5","system_id":"levelo_inurba_marseille","lat":43.275753,"lon":5.384224,"is_reserved":false,"is_disabled":false,"rental_uris":{"android":"levelo://app?vid=9c42c59a-a990-48ee-91ac-32ebebcaabf5","ios":"levelo://app?vid=9c42c59a-a990-48ee-91ac-32ebebcaabf5"},"vehicle_type_id":"4","last_reported":1735769267,"current_range_meters":38800,"station_id":"ce4bhh92rcd13ifvqfi0","pricing_plan_id":"cebpf4jnsgd1na2vs0mg"},{"bike_id":"8718220a-6a37-41be-b92a-7cc1a59fedb2","system_id":"levelo_inurba_marseille","lat":43.27574,"lon":5.38413,"is_reserved":false,"is_disabled":false,"rental_uris":{"android":"levelo://app?vid=8718220a-6a37-41be-b92a-7cc1a59fedb2","ios":"levelo://app?vid=8718220a-6a37-41be-b92a-7cc1a59fedb2"},"vehicle_type_id":"4","last_reported":1735769267,"current_range_meters":9600,"station_id":"ce4bhh92rcd13ifvqfi0","pricing_plan_id":"cebpf4jnsgd1na2vs0mg"},{"bike_id":"ac4a50f1-7b84-4e9f-bca0-7ae6b4bd55d3","system_id":"levelo_inurba_marseille","lat":43.28027,"lon":5.36937,"is_reserved":false,"is_disabled":false,"rental_uris":{"android":"levelo://app?vid=ac4a50f1-7b84-4e9f-bca0-7ae6b4bd55d3","ios":"levelo://app?vid=ac4a50f1-7b84-4e9f-bca0-7ae6b4bd55d3"},"vehicle_type_id":"4","last_reported":1735769267,"current_range_meters":38800,"station_id":"ce4bha12rcd13ifvqef0","pricing_plan_id":"cebpf4jnsgd1na2vs0mg"},{"bike_id":"b60e9df9-4551-4eb0-a73f-8e907ebb6575","system_id":"levelo_inurba_marseille","lat":43.29567,"lon":5.39975,"is_reserved":false,"is_disabled":false,"rental_uris":{"android":"levelo://app?vid=b60e9df9-4551-4eb0-a73f-8e907ebb6575","ios":"levelo://app?vid=b60e9df9-4551-4eb0-a73f-8e907ebb6575"},"vehicle_type_id":"4","last_reported":1735769267,"current_range_meters":24400,"station_id":"ce4bh312rcd13ifvqdj0","pricing_plan_id":"cebpf4jnsgd1na2vs0mg"},{"bike_id":"e76a1997-5d04-4a9a-b1f4-294fd443f7eb","system_id":"levelo_inurba_marseille","lat":43.23193,"lon":5.39972,"is_reserved":false,"is_disabled":false,"rental_uris":{"android":"levelo://app?vid=e76a1997-5d04-4a9a-b1f4-294fd443f7eb","ios":"levelo://app?vid=e76a1997-5d04-4a9a-b1f4-294fd443f7eb"},"vehicle_type_id":"4","last_reported":1735769267,"current_range_meters":22400,"station_id":"ce4bhn12rcd13ifvqgqg","pricing_plan_id":"cebpf4jnsgd1na2vs0mg"},{"bike_id":"ed8bfe29-9ee8-403b-abb1-2548d831d298","system_id":"levelo_inurba_marseille","lat":43.30419,"lon":5.39756,"is_reserved":false,"is_disabled":false,"rental_uris":{"android":"levelo://app?vid=ed8bfe29-9ee8-403b-abb1-2548d831d298","ios":"levelo://app?vid=ed8bfe29-9ee8-403b-abb1-2548d831d298"},"vehicle_type_id":"4","last_reported":1735769267,"current_range_meters":30800,"station_id":"ce4bh092rcd13ifvqd20","pricing_plan_id":"cebpf4jnsgd1na2vs0mg"},{"bike_id":"d41d5945-5cc8-478b-aaaa-223a793c25f1","system_id":"levelo_inurba_marseille","lat":43.26056,"lon":5.39379,"is_reserved":false,"is_disabled":false,"rental_uris":{"android":"levelo://app?vid=d41d5945-5cc8-478b-aaaa-223a793c25f1","ios":"levelo://app?vid=d41d5945-5cc8-478b-aaaa-223a793c25f1"},"vehicle_type_id":"4","last_reported":1735769267,"current_range_meters":6000,"station_id":"ce4bhh92rcd13ifvqfj0","pricing_plan_id":"cebpf4jnsgd1na2vs0mg"},{"bike_id":"9bf2c934-e80a-4b69-9369-b6399c81de01","system_id":"levelo_inurba_marseille","lat":43.25089,"lon":5.40291,"is_reserved":false,"is_disabled":false,"rental_uris":{"android":"levelo://app?vid=9bf2c934-e80a-4b69-9369-b6399c81de01","ios":"levelo://app?vid=9bf2c934-e80a-4b69-9369-b6399c81de01"},"vehicle_type_id":"4","last_reported":1735769267,"current_range_meters":38800,"station_id":"ce4bhlh2rcd13ifvqgig","pricing_plan_id":"cebpf4jnsgd1na2vs0mg"},{"bike_id":"0e262d58-7106-4da0-9b5d-d3a41f0f4fb4","system_id":"levelo_inurba_marseille","lat":43.28438,"lon":5.39181,"is_reserved":false,"is_disabled":false,"rental_uris":{"android":"levelo://app?vid=0e262d58-7106-4da0-9b5d-d3a41f0f4fb4","ios":"levelo://app?vid=0e262d58-7106-4da0-9b5d-d3a41f0f4fb4"},"vehicle_type_id":"4","last_reported":1735769267,"current_range_meters":26000,"station_id":"ce4bhoh2rcd13ifvqh5g","pricing_plan_id":"cebpf4jnsgd1na2vs0mg"},{"bike_id":"88434d85-5918-4af2-82a2-5c4c90e50737","system_id":"levelo_inurba_marseille","lat":43.2997,"lon":5.38484,"is_reserved":false,"is_disabled":false,"rental_uris":{"android":"levelo://app?vid=88434d85-5918-4af2-82a2-5c4c90e50737","ios":"levelo://app?vid=88434d85-5918-4af2-82a2-5c4c90e50737"},"vehicle_type_id":"4","last_reported":1735769267,"current_range_meters":6400,"station_id":"ce4bgj92rcd13ifvqbd0","pricing_plan_id":"cebpf4jnsgd1na2vs0mg"},{"bike_id":"88d2043e-9a90-4ecd-9aa0-e8c16aff6b07","system_id":"levelo_inurba_marseille","lat":43.3013,"lon":5.39879,"is_reserved":false,"is_disabled":false,"rental_uris":{"android":"levelo://app?vid=88d2043e-9a90-4ecd-9aa0-e8c16aff6b07","ios":"levelo://app?vid=88d2043e-9a90-4ecd-9aa0-e8c16aff6b07"},"vehicle_type_id":"4","last_reported":1735769267,"current_range_meters":38800,"station_id":"ce4bh0h2rcd13ifvqd40","pricing_plan_id":"cebpf4jnsgd1na2vs0mg"},{"bike_id":"9a359eb1-d7de-4d5f-a325-39e22e69049f","system_id":"levelo_inurba_marseille","lat":43.28276,"lon":5.35079,"is_reserved":false,"is_disabled":false,"rental_uris":{"android":"levelo://app?vid=9a359eb1-d7de-4d5f-a325-39e22e69049f","ios":"levelo://app?vid=9a359eb1-d7de-4d5f-a325-39e22e69049f"},"vehicle_type_id":"4","last_reported":1735769267,"current_range_meters":19200,"station_id":"ce4bhbp2rcd13ifvqerg","pricing_plan_id":"cebpf4jnsgd1na2vs0mg"},{"bike_id":"9c23194b-edc8-4913-abc5-3db87f1bd370","system_id":"levelo_inurba_marseille","lat":43.28147,"lon":5.42646,"is_reserved":false,"is_disabled":false,"rental_uris":{"android":"levelo://app?vid=9c23194b-edc8-4913-abc5-3db87f1bd370","ios":"levelo://app?vid=9c23194b-edc8-4913-abc5-3db87f1bd370"},"vehicle_type_id":"4","last_reported":1735769267,"current_range_meters":22000,"station_id":"ce4bhnh2rcd13ifvqgug","pricing_plan_id":"cebpf4jnsgd1na2vs0mg"},