{"last_updated":1722222570,"ttl":30,"version":"2.2","data":{"bikes":[{"bike_id":"a31fa0fc-8964-4a99-ab05-b22f2c2adb45","system_id":"levelo_inurba_marseille","lat":43.313391,"lon":5.36706,"is_reserved":false,"is_disabled":false,"rental_uris":{"android":"levelo://app?vid=a31fa0fc-8964-4a99-ab05-b22f2c2adb45","ios":"levelo://app?vid=a31fa0fc-8964-4a99-ab05-b22f2c2adb45"},"vehicle_type_id":"4","last_reported":1722222570,"current_range_meters":13200,"station_id":"ce4bgr92rcd13ifvqc6g","pricing_plan_id":"cebpf4jnsgd1na2vs0mg"},{"bike_id":"a5da575b-3429-4545-8932-516930e39f5a","system_id":"levelo_inurba_marseille","lat":43.312239,"lon":5.368562,"is_reserved":false,"is_disabled":false,"rental_uris":{"android":"levelo://app?vid=a5da575b-3429-4545-8932-516930e39f5a","ios":"levelo://app?vid=a5da575b-3429-4545-8932-516930e39f5a"},"vehicle_type_id":"4","last_reported":1722222570,"current_range_meters":28400,"station_id":"ce4bgl92rcd13ifvqbq0","pricing_plan_id":"cebpf4jnsgd1na2vs0mg"},{"bike_id":"baa31c0f-6143-4558-b0d9-acb0765db671","system_id":"levelo_inurba_marseille","lat":43.314811,"lon":5.373103,"is_reserved":false,"is_disabled":false,"rental_uris":{"android":"levelo://app?vid=baa31c0f-6143-4558-b0d9-acb0765db671","ios":"levelo://app?vid=baa31c0f-6143-4558-b0d9-acb0765db671"},"vehicle_type_id":"4","last_reported":1722222570,"current_range_meters":31200,"station_id":"ce4bgt12rcd13ifvqcd0","pricing_plan_id":"cebpf4jnsgd1na2vs0mg"},{"bike_id":"ed5b9902-b437-4d6f-991d-b2f5cb5bee50","system_id":"levelo_inurba_marseille","lat":43.314811,"lon":5.373103,"is_reserved":false,"is_disabled":false,"rental_uris":{"android":"levelo://app?vid=ed5b9902-b437-4d6f-991d-b2f5cb5bee50","ios":"levelo://app?vid=ed5b9902-b437-4d6f-991d-b2f5cb5bee50"},"vehicle_type_id":"4","last_reported":1722222570,"current_range_meters":30800,"station_id":"ce4bgt12rcd13ifvqcd0","pricing_plan_id":"cebpf4jnsgd1na2vs0mg"},{"bike_id":"613f1255-39a6-4976-add4-2612658fbdf1","system_id":"levelo_inurba_marseille","lat":43.314811,"lon":5.373103,"is_reserved":false,"is_disabled":false,"rental_uris":{"android":"levelo://app?vid=613f1255-39a6-4976-add4-2612658fbdf1","ios":"levelo://app?vid=613f1255-39a6-4976-add4-2612658fbdf1"},"vehicle_type_id":"4","last_reported":1722222570,"current_range_meters":20800,"station_id":"ce4bgt12rcd13ifvqcd0","pricing_plan_id":"cebpf4jnsgd1na2vs0mg"},{"bike_id":"978a0795-7438-4c64-9a6a-b1e426d188d6","system_id":"levelo_inurba_marseille","lat":43.317499,"lon":5.368769,"is_reserved":false,"is_disabled":false,"rental_uris":{"android":"levelo://app?vid=978a0795-7438-4c64-9a6a-b1e426d188d6","ios":"levelo://app?vid=978a0795-7438-4c64-9a6a-b1e426d188d6"},"vehicle_type_id":"4","last_reported":1722222570,"current_range_meters":0,"station_id":"","pricing_plan_id":"cebpf4jnsgd1na2vs0mg"},{"bike_id":"b125fb8c-b1b9-4286-a6ef-6c86dfeb341e","system_id":"levelo_inurba_marseille","lat":43.314811,"lon":5.373103,"is_reserved":false,"is_disabled":false,"rental_uris":{"android":"levelo://app?vid=b125fb8c-b1b9-4286-a6ef-6c86dfeb341e","ios":"levelo://app?vid=b125fb8c-b1b9-4286-a6ef-6c86dfeb341e"},"vehicle_type_id":"4","last_reported":1722222570,"current_range_meters":22400,"station_id":"ce4bgt12rcd13ifvqcd0","pricing_plan_id":"cebpf4jnsgd1na2vs0mg"},{"bike_id":"1a68066c-123f-4d56-920e-4b276636c08a","system_id":"levelo_inurba_marseille","lat":43.314811,"lon":5.373103,"is_reserved":false,"is_disabled":false,"rental_uris":{"android":"levelo://app?vid=1a68066c-123f-4d56-920e-4b276636c08a","ios":"levelo://app?vid=1a68066c-123f-4d56-920e-4b276636c08a"},"vehicle_type_id":"4","last_reported":1722222570,"current_range_meters":4800,"station_id":"ce4bgt12rcd13ifvqcd0","pricing_plan_id":"cebpf4jnsgd1na2vs0mg"},{"bike_id":"6ea3fb5d-11df-48c5-b181-c652c965187f","system_id":"levelo_inurba_marseille","lat":43.309039,"lon":5.371797,"is_reserved":false,"is_disabled":false,"rental_uris":{"android":"levelo://app?vid=6ea3fb5d-11df-48c5-b181-c652c965187f","ios":"levelo://app?vid=6ea3fb5d-11df-48c5-b181-c652c965187f"},"vehicle_type_id":"4","last_reported":1722222570,"current_range_meters":23600,"station_id":"ce4bguh2rcd13ifvqckg","pricing_plan_id":"cebpf4jnsgd1na2vs0mg"},{"bike_id":"6d36b4cd-a787-49e6-ae7d-a35696d21e50","system_id":"levelo_inurba_marseille","lat":43.309039,"lon":5.371797,"is_reserved":false,"is_disabled":false,"rental_uris":{"android":"levelo://app?vid=6d36b4cd-a787-49e6-ae7d-a35696d21e50","ios":"levelo://app?vid=6d36b4cd-a787-49e6-ae7d-a35696d21e50"},"vehicle_type_id":"4","last_reported":1722222570,"current_range_meters":15200,"station_id":"ce4bguh2rcd13ifvqckg","pricing_plan_id":"cebpf4jnsgd1na2vs0mg"},{"bike_id":"b2502cc1-ed32-4173-8888-7ac14eb45aec","system_id":"levelo_inurba_marseille","lat":43.309034,"lon":5.371783,"is_reserved":false,"is_disabled":false,"rental_uris":{"android":"levelo://app?vid=b2502cc1-ed32-4173-8888-7ac14eb45aec","ios":"levelo://app?vid=b2502cc1-ed32-4173-8888-7ac14eb45aec"},"vehicle_type_id":"4","last_reported":1722222570,"current_range_meters":23200,"station_id":"ce4bguh2rcd13ifvqckg","pricing_plan_id":"cebpf4jnsgd1na2vs0mg"},{"bike_id":"a20cbcf3-06fa-42ad-bc2c-27ebe85b887a","system_id":"levelo_inurba_marseille","lat":43.309039,"lon":5.371797,"is_reserved":false,"is_disabled":false,"rental_uris":{"android":"levelo://app?vid=a20cbcf3-06fa-42ad-bc2c-27ebe85b887a","ios":"levelo://app?vid=a20cbcf3-06fa-42ad-bc2c-27ebe85b887a"},"vehicle_type_id":"4","last_reported":1722222570,"current_range_meters":11600,"station_id":"ce4bguh2rcd13ifvqckg","pricing_plan_id":"cebpf4jnsgd1na2vs0mg"},{"bike_id":"f6024057-0241-4587-9d26-7d60931fc578","system_id":"levelo_inurba_marseille","lat":43.305368,"lon":5.367343,"is_reserved":false,"is_disabled":false,"rental_uris":{"android":"levelo://app?vid=f6024057-0241-4587-9d26-7d60931fc578","ios":"levelo://app?vid=f6024057-0241-4587-9d26-7d60931fc578"},"vehicle_type_id":"4","last_reported":1722222570,"current_range_meters":19200,"station_id":"ce4bgrp2rcd13ifvqc9g","pricing_plan_id":"cebpf4jnsgd1na2vs0mg"},{"bike_id":"013d1b93-81dd-4d22-903a-d46422bf2b69","system_id":"levelo_inurba_marseille","lat":43.305989,"lon":5.37225,"is_reserved":false,"is_disabled":false,"rental_uris":{"android":"levelo://app?vid=013d1b93-81dd-4d22-903a-d46422bf2b69","ios":"levelo://app?vid=013d1b93-81dd-4d22-903a-d46422bf2b69"},"vehicle_type_id":"4","last_reported":1722222570,"current_range_meters":13200,"station_id":"ce4bgqh2rcd13ifvqc4g","pricing_plan_id":"cebpf4jnsgd1na2vs0mg"},{"bike_id":"90271727-3692-44b6-8b84-26dd23bdfb0c","system_id":"levelo_inurba_marseille","lat":43.305989,"lon":5.37225,"is_reserved":false,"is_disabled":false,"rental_uris":{"android":"levelo://app?vid=90271727-3692-44b6-8b84-26dd23bdfb0c","ios":"levelo://app?vid=90271727-3692-44b6-8b84-26dd23bdfb0c"},"vehicle_type_id":"4","last_reported":1722222570,"current_range_meters":26400,"station_id":"ce4bgqh2rcd13ifvqc4g","pricing_plan_id":"cebpf4jnsgd1na2vs0mg"},{"bike_id":"92ce7b38-f082-4dff-aca9-3a257ec2efc2","system_id":"levelo_inurba_marseille","lat":43.311131,"lon":5.377651,"is_reserved":false,"is_disabled":false,"rental_uris":{"android":"levelo://app?vid=92ce7b38-f082-4dff-aca9-3a257ec2efc2","ios":"levelo://app?vid=92ce7b38-f082-4dff-aca9-3a257ec2efc2"},"vehicle_type_id":"4","last_reported":1722222570,"current_range_meters":26000,"station_id":"ce4bgt92rcd13ifvqcg0","pricing_plan_id":"cebpf4jnsgd1na2vs0mg"},{"bike_id":"e26685c0-96cb-4680-b861-557a624cd12b","system_id":"levelo_inurba_marseille","lat":43.311131,"lon":5.377651,"is_reserved":false,"is_disabled":false,"rental_uris":{"android":"levelo://app?vid=e26685c0-96cb-4680-b861-557a624cd12b","ios":"levelo://app?vid=e26685c0-96cb-4680-b861-557a624cd12b"},"vehicle_type_id":"4","last_reported":1722222570,"current_range_meters":9200,"station_id":"ce4bgt92rcd13ifvqcg0","pricing_plan_id":"cebpf4jnsgd1na2vs0mg"},{"bike_id":"e25b5cae-f75f-4158-bfb3-e281b2f36a6e","system_id":"levelo_inurba_marseille","lat":43.311131,"lon":5.377651,"is_reserved":false,"is_disabled":false,"rental_uris":{"android":"levelo://app?vid=e25b5cae-f75f-4158-bfb3-e281b2f36a6e","ios":"levelo://app?vid=e25b5cae-f75f-4158-bfb3-e281b2f36a6e"},"vehicle_type_id":"4","last_reported":1722222570,"current_range_meters":24000,"station_id":"ce4bgt92rcd13ifvqcg0","pricing_plan_id":"cebpf4jnsgd1na2vs0mg"},{"bike_id":"f9c906f2-a926-440b-b49e-8e282808a9f3","system_id":"levelo_inurba_marseille","lat":43.311131,"lon":5.377651,"is_reserved":false,"is_disabled":false,"rental_uris":{"android":"levelo://app?vid=f9c906f2-a926-440b-b49e-8e282808a9f3","ios":"levelo://app?vid=f9c906f2-a926-440b-b49e-8e282808a9f3"},"vehicle_type_id":"4","last_reported":1722222570,"current_range_meters":31200,"station_id":"ce4bgt92rcd13ifvqcg0","pricing_plan_id":"cebpf4jnsgd1na2vs0mg"},{"bike_id":"bd10161c-1cfb-4b31-8609-395336c5555d","system_id":"levelo_inurba_marseille","lat":43.311125,"lon":5.377624,"is_reserved":false,"is_disabled":false,"rental_uris":{"android":"levelo://app?vid=bd10161c-1cfb-4b31-8609-395336c5555d","ios":"levelo://app?vid=bd10161c-1cfb-4b31-8609-395336c5555d"},"vehicle_type_id":"4","last_reported":1722222570,"current_range_meters":19200,"station_id":"ce4bgt92rcd13ifvqcg0","pricing_plan_id":"cebpf4jnsgd1na2vs0mg"},{"bike_id":"cc25fb76-484c-4905-b397-763841a393dc","system_id":"levelo_inurba_marseille","lat":43.311131,"lon":5.377651,"is_reserved":false,"is_disabled":false,"rental_uris":{"android":"levelo://app?vid=cc25fb76-484c-4905-b397-763841a393dc","ios":"levelo://app?vid=cc25fb76-484c-4905-b397-763841a393dc"},"vehicle_type_id":"4","last_reported":1722222570,"current_range_meters":19600,"station_id":"ce4bgt92rcd13ifvqcg0","pricing_plan_id":"cebpf4jnsgd1na2vs0mg"},{"bike_id":"700f1045-dad0-48f7-bf57-2a56db0ed0a3","system_id":"levelo_inurba_marseille","lat":43.311125,"lon":5.377624,"is_reserved":false,"is_disabled":false,"rental_uris":{"android":"levelo://app?vid=700f1045-dad0-48f7-bf57-2a56db0ed0a3","ios":"levelo://app?vid=700f1045-dad0-48f7-bf57-2a56db0ed0a3"},"vehicle_type_id":"4","last_reported":1722222570,"current_range_meters":2400,"station_id":"ce4bgt92rcd13ifvqcg0","pricing_plan_id":"cebpf4jnsgd1na2vs0mg"},{"bike_id":"ee221b18-af7e-47d8-b94f-026b71cb8c16","system_id":"levelo_inurba_marseille","lat":43.311131,"lon":5.377651,"is_reserved":false,"is_disabled":false,"rental_uris":{"android":"levelo://app?vid=ee221b18-af7e-47d8-b94f-026b71cb8c16","ios":"levelo://app?vid=ee221b18-af7e-47d8-b94f-026b71cb8c16"},"vehicle_type_id":"4","last_reported":1722222570,"current_range_meters":15200,"station_id":"ce4bgt92rcd13ifvqcg0","pricing_plan_id":"cebpf4jnsgd1na2vs0mg"},{"bike_id":"b3418391-b577-484e-9c13-faff95589cfe","system_id":"levelo_inurba_marseille","lat":43.308587,"lon":5.37631,"is_reserved":false,"is_disabled":false,"rental_uris":{"android":"levelo://app?vid=b3418391-b577-484e-9c13-faff95589cfe","ios":"levelo://app?vid=b3418391-b577-484e-9c13-faff95589cfe"},"vehicle_type_id":"4","last_reported":1722222570,"current_range_meters":16000,"station_id":"","pricing_plan_id":"cebpf4jnsgd1na2vs0mg"},{"bike_id":"3ff576a5-6f7d-4a3f-a108-99a306f1e5e9","system_id":"levelo_inurba_marseille","lat":43.311125,"lon":5.377624,"is_reserved":false,"is_disabled":false,"rental_uris":{"android":"levelo://app?vid=3ff576a5-6f7d-4a3f-a108-99a306f1e5e9","ios":"levelo://app?vid=3ff576a5-6f7d-4a3f-a108-99a306f1e5e9"},"vehicle_type_id":"4","last_reported":1722222570,"current_range_meters":14400,"station_id":"ce4bgt92rcd13ifvqcg0","pricing_plan_id":"cebpf4jnsgd1na2vs0mg"},{"bike_id":"868ec954-39ff-4e1a-ad16-7984205d8e4b","system_id":"levelo_inurba_marseille","lat":43.311125,"lon":5.377624,"is_reserved":false,"is_disabled":false,"rental_uris":{"android":"levelo://app?vid=868ec954-39ff-4e1a-ad16-7984205d8e4b","ios":"levelo://app?vid=868ec954-39ff-4e1a-ad16-7984205d8e4b"},"vehicle_type_id":"4","last_reported":1722222570,"current_range_meters":19200,"station_id":"ce4bgt92rcd13ifvqcg0","pricing_plan_id":"cebpf4jnsgd1na2vs0mg"},{"bike_id":"8e4b62c1-1b42-432e-a945-5a5d553b6f1f","system_id":"levelo_inurba_marseille","lat":43.311125,"lon":5.377624,"is_reserved":false,"is_disabled":false,"rental_uris":{"android":"levelo://app?vid=8e4b62c1-1b42-432e-a945-5a5d553b6f1f","ios":"levelo://app?vid=8e4b62c1-1b42-432e-a945-5a5d553b6f1f"},"vehicle_type_id":"4","last_reported":1722222570,"current_range_meters":2800,"station_id":"ce4bgt92rcd13ifvqcg0","pricing_plan_id":"cebpf4jnsgd1na2vs0mg"},{"bike_id":"df38549a-556f-4f13-a4d5-e2b2c4629fef","system_id":"levelo_inurba_marseille","lat":43.31108,"lon":5.377696,"is_reserved":false,"is_disabled":false,"rental_uris":{"android":"levelo://app?vid=df38549a-556f-4f13-a4d5-e2b2c4629fef","ios":"levelo://app?vid=df38549a-556f-4f13-a4d5-e2b2c4629fef"},"vehicle_type_id":"4","last_reported":1722222570,"current_range_meters":16800,"station_id":"ce4bgt92rcd13ifvqcg0","pricing_plan_id":"cebpf4jnsgd1na2vs0mg"},{"bike_id":"c44b0748-0b91-41e4-91ed-feb12d46e94e","system_id":"levelo_inurba_marseille","lat":43.311125,"lon":5.377624,"is_reserved":false,"is_disabled":false,"rental_uris":{"android":"levelo://app?vid=c44b0748-0b91-41e4-91ed-feb12d46e94e","ios":"levelo://app?vid=c44b0748-0b91-41e4-91ed-feb12d46e94e"},"vehicle_type_id":"4","last_reported":1722222570,"current_range_meters":12000,"station_id":"ce4bgt92rcd13ifvqcg0","pricing_plan_id":"cebpf4jnsgd1na2vs0mg"},{"bike_id":"fe81f82f-863e-4c8c-aa63-c6c6b92df1da","system_id":"levelo_inurba_marseille","lat":43.305368,"lon":5.367343,"is_reserved":false,"is_disabled":false,"rental_uris":{"android":"levelo://app?vid=fe81f82f-863e-4c8c-aa63-c6c6b92df1da","ios":"levelo://app?vid=fe81f82f-863e-4c8c-aa63-c6c6b92df1da"},"vehicle_type_id":"4","last_reported":1722222570,"current_range_meters":14000,"station_id":"ce4bgrp2rcd13ifvqc9g","pricing_plan_id":"cebpf4jnsgd1na2vs0mg"},{"bike_id":"2b33ff53-8786-4a11-8ba7-e98c3e8fb839","system_id":"levelo_inurba_marseille","lat":43.311163,"lon":5.378,"is_reserved":false,"is_disabled":false,"rental_uris":{"android":"levelo://app?vid=2b33ff53-8786-4a11-8ba7-e98c3e8fb839","ios":"levelo://app?vid=2b33ff53-8786-4a11-8ba7-e98c3e8fb839"},"vehicle_type_id":"4","last_reported":1722222570,"current_range_meters":28800,"station_id":"ce4bgt92rcd13ifvqcg0","pricing_plan_id":"cebpf4jnsgd1na2vs0mg"},{"bike_id":"766ea381-e6ed-48a0-a2e9-b1e5dd2ecc58","system_id":"levelo_inurba_marseille","lat":43.308146,"lon":5.37676,"is_reserved":false,"is_disabled":false,"rental_uris":{"android":"levelo://app?vid=766ea381-e6ed-48a0-a2e9-b1e5dd2ecc58","ios":"levelo://app?vid=766ea381-e6ed-48a0-a2e9-b1e5dd2ecc58"},"vehicle_type_id":"4","last_reported":1722222570,"current_range_meters":20400,"station_id":"ce4bgv92rcd13ifvqcq0","pricing_plan_id":"cebpf4jnsgd1na2vs0mg"},{"bike_id":"648eb5e8-e43e-44cd-8005-9adc6b0b3f3c","system_id":"levelo_inurba_marseille","lat":43.307945,"lon":5.376487,"is_reserved":false,"is_disabled":false,"rental_uris":{"android":"levelo://app?vid=648eb5e8-e43e-44cd-8005-9adc6b0b3f3c","ios":"levelo://app?vid=648eb5e8-e43e-44cd-8005-9adc6b0b3f3c"},"vehicle_type_id":"4","last_reported":1722222570,"current_range_meters":28800,"station_id":"ce4bgv92rcd13ifvqcq0","pricing_plan_id":"cebpf4jnsgd1na2vs0mg"},{"bike_id":"9bbf3a4a-60bd-4a4e-ad9f-ccc4a04e4982","system_id":"levelo_inurba_marseille","lat":43.307945,"lon":5.376487,"is_reserved":false,"is_disabled":false,"rental_uris":{"android":"levelo://app?vid=9bbf3a4a-60bd-4a4e-ad9f-ccc4a04e4982","ios":"levelo://app?vid=9bbf3a4a-60bd-4a4e-ad9f-ccc4a04e4982"},"vehicle_type_id":"4","last_reported":1722222570,"current_range_meters":31200,"station_id":"ce4bgv92rcd13ifvqcq0","pricing_plan_id":"cebpf4jnsgd1na2vs0mg"},{"bike_id":"8728c5a9-1436-4cc9-9b0e-27d6bcddf667","system_id":"levelo_inurba_marseille","lat":43.307945,"lon":5.376487,"is_reserved":false,"is_disabled":false,"rental_uris":{"android":"levelo://app?vid=8728c5a9-1436-4cc9-9b0e-27d6bcddf667","ios":"levelo://app?vid=8728c5a9-1436-4cc9-9b0e-27d6bcddf667"},"vehicle_type_id":"4","last_reported":1722222570,"current_range_meters":26000,"station_id":"ce4bgv92rcd13ifvqcq0","pricing_plan_id":"cebpf4jnsgd1na2vs0mg"},{"bike_id":"2dc77417-a227-4779-8fc8-126540aadacd","system_id":"levelo_inurba_marseille","lat":43.307945,"lon":5.376487,"is_reserved":false,"is_disabled":false,"rental_uris":{"android":"levelo://app?vid=2dc77417-a227-4779-8fc8-126540aadacd","ios":"levelo://app?vid=2dc77417-a227-4779-8fc8-126540aadacd"},"vehicle_type_id":"4","last_reported":1722222570,"current_range_meters":8800,"station_id":"ce4bgv92rcd13ifvqcq0","pricing_plan_id":"cebpf4jnsgd1na2vs0mg"},{"bike_id":"dd41edf8-a6a5-4774-bad0-8e56ffd9913e","system_id":"levelo_inurba_marseille","lat":43.307945,"lon":5.376487,"is_reserved":false,"is_disabled":false,"rental_uris":{"android":"levelo://app?vid=dd41edf8-a6a5-4774-bad0-8e56ffd9913e","ios":"levelo://app?vid=dd41edf8-a6a5-4774-bad0-8e56ffd9913e"},"vehicle_type_id":"4","last_reported":1722222570,"current_range_meters":30400,"station_id":"ce4bgv92rcd13ifvqcq0","pricing_plan_id":"cebpf4jnsgd1na2vs0mg"},{"bike_id":"31d4002c-67e4-46f5-a6ff-7daf82afdd86","system_id":"levelo_inurba_marseille","lat":43.317075,"lon":5.377367,"is_reserved":false,"is_disabled":false,"rental_uris":{"android":"levelo://app?vid=31d4002c-67e4-46f5-a6ff-7daf82afdd86","ios":"levelo://app?vid=31d4002c-67e4-46f5-a6ff-7daf82afdd86"},"vehicle_type_id":"4","last_reported":1722222570,"current_range_meters":28000,"station_id":"ce4bgth2rcd13ifvqch0","pricing_plan_id":"cebpf4jnsgd1na2vs0mg"},{"bike_id":"594acd35-e873-45ea-9900-1c2ff5a41484","system_id":"levelo_inurba_marseille","lat":43.317075,"lon":5.377367,"is_reserved":false,"is_disabled":false,"rental_uris":{"android":"levelo://app?vid=594acd35-e873-45ea-9900-1c2ff5a41484","ios":"levelo://app?vid=594acd35-e873-45ea-9900-1c2ff5a41484"},"vehicle_type_id":"4","last_reported":1722222570,"current_range_meters":26800,"station_id":"ce4bgth2rcd13ifvqch0","pricing_plan_id":"cebpf4jnsgd1na2vs0mg"},{"bike_id":"8e5d2a60-972f-45c2-9a4c-91a8a8d6b19d","system_id":"levelo_inurba_marseille","lat":43.31724,"lon":5.37758,"is_reserved":false,"is_disabled":false,"rental_uris":{"android":"levelo://app?vid=8e5d2a60-972f-45c2-9a4c-91a8a8d6b19d","ios":"levelo://app?vid=8e5d2a60-972f-45c2-9a4c-91a8a8d6b19d"},"vehicle_type_id":"4","last_reported":1722222570,"current_range_meters":16000,"station_id":"ce4bgth2rcd13ifvqch0","pricing_plan_id":"cebpf4jnsgd1na2vs0mg"},{"bike_id":"ab35743a-e22d-479e-a817-0468a1d4c8b8","system_id":"levelo_inurba_marseille","lat":43.31719,"lon":5.3778,"is_reserved":false,"is_disabled":false,"rental_uris":{"android":"levelo://app?vid=ab35743a-e22d-479e-a817-0468a1d4c8b8","ios":"levelo://app?vid=ab35743a-e22d-479e-a817-0468a1d4c8b8"},"vehicle_type_id":"4","last_reported":1722222570,"current_range_meters":30800,"station_id":"ce4bgth2rcd13ifvqch0","pricing_plan_id":"cebpf4jnsgd1na2vs0mg"},{"bike_id":"f393a3f2-4055-43e4-a11e-9d4d414c9a1f","system_id":"levelo_inurba_marseille","lat":43.30327,"lon":5.36597,"is_reserved":false,"is_disabled":false,"rental_uris":{"android":"levelo://app?vid=f393a3f2-4055-43e4-a11e-9d4d414c9a1f","ios":"levelo://app?vid=f393a3f2-4055-43e4-a11e-9d4d414c9a1f"},"vehicle_type_id":"4","last_reported":1722222570,"current_range_meters":11200,"station_id":"","pricing_plan_id":"cebpf4jnsgd1na2vs0mg"},{"bike_id":"2bbd9eb5-ef10-44a3-a004-70b8b2927dee","system_id":"levelo_inurba_marseille","lat":43.315289,"lon":5.380349,"is_reserved":false,"is_disabled":false,"rental_uris":{"android":"levelo://app?vid=2bbd9eb5-ef10-44a3-a004-70b8b2927dee","ios":"levelo://app?vid=2bbd9eb5-ef10-44a3-a004-70b8b2927dee"},"vehicle_type_id":"4","last_reported":1722222570,"current_range_meters":31600,"station_id":"ce4bhsp2rcd13ifvqi50","pricing_plan_id":"cebpf4jnsgd1na2vs0mg"},{"bike_id":"448c6822-2967-4aaf-88a8-e7e2f899bf97","system_id":"levelo_inurba_marseille","lat":43.315289,"lon":5.380349,"is_reserved":false,"is_disabled":false,"rental_uris":{"android":"levelo://app?vid=448c6822-2967-4aaf-88a8-e7e2f899bf97","ios":"levelo://app?vid=448c6822-2967-4aaf-88a8-e7e2f899bf97"},"vehicle_type_id":"4","last_reported":1722222570,"current_range_meters":19600,"station_id":"ce4bhsp2rcd13ifvqi50","pricing_plan_id":"cebpf4jnsgd1na2vs0mg"},{"bike_id":"622a202c-40b6-4589-ad83-1500d35e4f05","system_id":"levelo_inurba_marseille","lat":43.315289,"lon":5.380349,"is_reserved":false,"is_disabled":false,"rental_uris":{"android":"levelo://app?vid=622a202c-40b6-4589-ad83-1500d35e4f05","ios":"levelo://app?vid=622a202c-40b6-4589-ad83-1500d35e4f05"},"vehicle_type_id":"4","last_reported":1722222570,"current_range_meters":20800,"station_id":"ce4bhsp2rcd13ifvqi50","pricing_plan_id":"cebpf4jnsgd1na2vs0mg"},{"bike_id":"80b3344c-092f-4e97-a348-77a2a028d693","system_id":"levelo_inurba_marseille","lat":43.315289,"lon":5.380349,"is_reserved":false,"is_disabled":false,"rental_uris":{"android":"levelo://app?vid=80b3344c-092f-4e97-a348-77a2a028d693","ios":"levelo://app?vid=80b3344c-092f-4e97-a348-77a2a028d693"},"vehicle_type_id":"4","last_reported":1722222570,"current_range_meters":31200,"station_id":"ce4bhsp2rcd13ifvqi50","pricing_plan_id":"cebpf4jnsgd1na2vs0mg"},{"bike_id":"8d5df533-420b-4139-97cb-c9d668d97743","system_id":"levelo_inurba_marseille","lat":43.315289,"lon":5.380349,"is_reserved":false,"is_disabled":false,"rental_uris":{"android":"levelo://app?vid=8d5df533-420b-4139-97cb-c9d668d97743","ios":"levelo://app?vid=8d5df533-420b-4139-97cb-c9d668d97743"},"vehicle_type_id":"4","last_reported":1722222570,"current_range_meters":30800,"station_id":"ce4bhsp2rcd13ifvqi50","pricing_plan_id":"cebpf4jnsgd1na2vs0mg"},{"bike_id":"34a39733-b305-442f-b010-cf0228cd18cc","system_id":"levelo_inurba_marseille","lat":43.315289,"lon":5.380349,"is_reserved":false,"is_disabled":false,"rental_uris":{"android":"levelo://app?vid=34a39733-b305-442f-b010-cf0228cd18cc","ios":"levelo://app?vid=34a39733-b305-442f-b010-cf0228cd18cc"},"vehicle_type_id":"4","last_reported":1722222570,"current_range_meters":3600,"station_id":"ce4bhsp2rcd13ifvqi50","pricing_plan_id":"cebpf4jnsgd1na2vs0mg"},{"bike_id":"72b758ca-6e2d-4f6a-8b72-ef063568b00b","system_id":"levelo_inurba_marseille","lat":43.315293,"lon":5.380349,"is_reserved":false,"is_disabled":false,"rental_uris":{"android":"levelo://app?vid=72b758ca-6e2d-4f6a-8b72-ef063568b00b","ios":"levelo://app?vid=72b758ca-6e2d-4f6a-8b72-ef063568b00b"},"vehicle_type_id":"4","last_reported":1722222570,"current_range_meters":22800,"station_id":"ce4bhsp2rcd13ifvqi50","pricing_plan_id":"cebpf4jnsgd1na2vs0mg"},{"bike_id":"347f0b1c-d586-4e00-a810-2003beb0ca4c","system_id":"levelo_inurba_marseille","lat":43.301939,"lon":5.366286,"is_reserved":false,"is_disabled":false,"rental_uris":{"android":"levelo://app?vid=347f0b1c-d586-4e00-a810-2003beb0ca4c","ios":"levelo://app?vid=347f0b1c-d586-4e00-a810-2003beb0ca4c"},"vehicle_type_id":"4","last_reported":1722222570,"current_range_meters":14800,"station_id":"ce4bgrh2rcd13ifvqc8g","pricing_plan_id":"cebpf4jnsgd1na2vs0mg"},{"bike_id":"6c4f1025-b0c7-4743-b9f2-e624c99b9e57","system_id":"levelo_inurba_marseille","lat":43.308012,"lon":5.381511,"is_reserved":false,"is_disabled":false,"rental_uris":{"android":"levelo://app?vid=6c4f1025-b0c7-4743-b9f2-e624c99b9e57","ios":"levelo://app?vid=6c4f1025-b0c7-4743-b9f2-e624c99b9e57"},"vehicle_type_id":"4","last_reported":1722222570,"current_range_meters":17600,"station_id":"ce4bgt12rcd13ifvqce0","pricing_plan_id":"cebpf4jnsgd1na2vs0mg"},{"bike_id":"3bc1f457-3758-4b55-9080-1eaaa8206eae","system_id":"levelo_inurba_marseille","lat":43.308012,"lon":5.381511,"is_reserved":false,"is_disabled":false,"rental_uris":{"android":"levelo://app?vid=3bc1f457-3758-4b55-9080-1eaaa8206eae","ios":"levelo://app?vid=3bc1f457-3758-4b55-9080-1eaaa8206eae"},"vehicle_type_id":"4","last_reported":1722222570,"current_range_meters":30800,"station_id":"ce4bgt12rcd13ifvqce0","pricing_plan_id":"cebpf4jnsgd1na2vs0mg"},{"bike_id":"99908ba4-1961-43c5-9021-00176c00e605","system_id":"levelo_inurba_marseille","lat":43.308012,"lon":5.381511,"is_reserved":false,"is_disabled":false,"rental_uris":{"android":"levelo://app?vid=99908ba4-1961-43c5-9021-00176c00e605","ios":"levelo://app?vid=99908ba4-1961-43c5-9021-00176c00e605"},"vehicle_type_id":"4","last_reported":1722222570,"current_range_meters":31200,"station_id":"ce4bgt12rcd13ifvqce0","pricing_plan_id":"cebpf4jnsgd1na2vs0mg"},{"bike_id":"83521211-ded4-4bf8-ae4d-007acda76103","system_id":"levelo_inurba_marseille","lat":43.308012,"lon":5.381511,"is_reserved":false,"is_disabled":false,"rental_uris":{"android":"levelo://app?vid=83521211-ded4-4bf8-ae4d-007acda76103","ios":"levelo://app?vid=83521211-ded4-4bf8-ae4d-007acda76103"},"vehicle_type_id":"4","last_reported":1722222570,"current_range_meters":18400,"station_id":"ce4bgt12rcd13ifvqce0","pricing_plan_id":"cebpf4jnsgd1na2vs0mg"},{"bike_id":"bc9ba09b-9401-41d1-afd7-3e8baeb33031","system_id":"levelo_inurba_marseille","lat":43.308012,"lon":5.381511,"is_reserved":false,"is_disabled":false,"rental_uris":{"android":"levelo://app?vid=bc9ba09b-9401-41d1-afd7-3e8baeb33031","ios":"levelo://app?vid=bc9ba09b-9401-41d1-afd7-3e8baeb33031"},"vehicle_type_id":"4","last_reported":1722222570,"current_range_meters":24000,"station_id":"ce4bgt12rcd13ifvqce0","pricing_plan_id":"cebpf4jnsgd1na2vs0mg"},{"bike_id":"1656bb05-d46b-4264-8171-8a1552fb8f51","system_id":"levelo_inurba_marseille","lat":43.308012,"lon":5.381511,"is_reserved":false,"is_disabled":false,"rental_uris":{"android":"levelo://app?vid=1656bb05-d46b-4264-8171-8a1552fb8f51","ios":"levelo://app?vid=1656bb05-d46b-4264-8171-8a1552fb8f51"},"vehicle_type_id":"4","last_reported":1722222570,"current_range_meters":21200,"station_id":"ce4bgt12rcd13ifvqce0","pricing_plan_id":"cebpf4jnsgd1na2vs0mg"},{"bike_id":"9f4445fc-389b-44e4-b9d1-395bc35864f7","system_id":"levelo_inurba_marseille","lat":43.308012,"lon":5.381511,"is_reserved":false,"is_disabled":false,"rental_uris":{"android":"levelo://app?vid=9f4445fc-389b-44e4-b9d1-395bc35864f7","ios":"levelo://app?vid=9f4445fc-389b-44e4-b9d1-395bc35864f7"},"vehicle_type_id":"4","last_reported":1722222570,"current_range_meters":31200,"station_id":"ce4bgt12rcd13ifvqce0","pricing_plan_id":"cebpf4jnsgd1na2vs0mg"},{"bike_id":"2da2c2d6-c1be-49fd-b1d6-da0190d22f60","system_id":"levelo_inurba_marseille","lat":43.308012,"lon":5.381511,"is_reserved":false,"is_disabled":false,"rental_uris":{"android":"levelo://app?vid=2da2c2d6-c1be-49fd-b1d6-da0190d22f60","ios":"levelo://app?vid=2da2c2d6-c1be-49fd-b1d6-da0190d22f60"},"vehicle_type_id":"4","last_reported":1722222570,"current_range_meters":8000,"station_id":"ce4bgt12rcd13ifvqce0","pricing_plan_id":"cebpf4jnsgd1na2vs0mg"},{"bike_id":"2fbe1860-63bd-4028-b7b5-974ab920dfd6","system_id":"levelo_inurba_marseille","lat":43.308012,"lon":5.381511,"is_reserved":false,"is_disabled":false,"rental_uris":{"android":"levelo://app?vid=2fbe1860-63bd-4028-b7b5-974ab920dfd6","ios":"levelo://app?vid=2fbe1860-63bd-4028-b7b5-974ab920dfd6"},"vehicle_type_id":"4","last_reported":1722222570,"current_range_meters":12800,"station_id":"ce4bgt12rcd13ifvqce0","pricing_plan_id":"cebpf4jnsgd1na2vs0mg"},{"bike_id":"196aad49-f13f-4be8-af0d-a10e5801709c","system_id":"levelo_inurba_marseille","lat":43.308012,"lon":5.381511,"is_reserved":false,"is_disabled":false,"rental_uris":{"android":"levelo://app?vid=196aad49-f13f-4be8-af0d-a10e5801709c","ios":"levelo://app?vid=196aad49-f13f-4be8-af0d-a10e5801709c"},"vehicle_type_id":"4","last_reported":1722222570,"current_range_meters":14400,"station_id":"ce4bgt12rcd13ifvqce0","pricing_plan_id":"cebpf4jnsgd1na2vs0mg"},{"bike_id":"eefa551e-0ded-4f7b-9576-ca64f9d0c0a9","system_id":"levelo_inurba_marseille","lat":43.308012,"lon":5.381511,"is_reserved":false,"is_disabled":false,"rental_uris":{"android":"levelo://app?vid=eefa551e-0ded-4f7b-9576-ca64f9d0c0a9","ios":"levelo://app?vid=eefa551e-0ded-4f7b-9576-ca64f9d0c0a9"},"vehicle_type_id":"4","last_reported":1722222570,"current_range_meters":18000,"station_id":"ce4bgt12rcd13ifvqce0","pricing_plan_id":"cebpf4jnsgd1na2vs0mg"},{"bike_id":"2be52971-389f-4562-8813-4ecc5343caea","system_id":"levelo_inurba_marseille","lat":43.308012,"lon":5.381511,"is_reserved":false,"is_disabled":false,"rental_uris":{"android":"levelo://app?vid=2be52971-389f-4562-8813-4ecc5343caea","ios":"levelo://app?vid=2be52971-389f-4562-8813-4ecc5343caea"},"vehicle_type_id":"4","last_reported":1722222570,"current_range_meters":27600,"station_id":"ce4bgt12rcd13ifvqce0","pricing_plan_id":"cebpf4jnsgd1na2vs0mg"},{"bike_id":"6aa61125-181b-472e-ac4e-3a12a5d4934a","system_id":"levelo_inurba_marseille","lat":43.308012,"lon":5.381511,"is_reserved":false,"is_disabled":false,"rental_uris":{"android":"levelo://app?vid=6aa61125-181b-472e-ac4e-3a12a5d4934a","ios":"levelo://app?vid=6aa61125-181b-472e-ac4e-3a12a5d4934a"},"vehicle_type_id":"4","last_reported":1722222570,"current_range_meters":18800,"station_id":"ce4bgt12rcd13ifvqce0","pricing_plan_id":"cebpf4jnsgd1na2vs0mg"},{"bike_id":"4b7e71fb-ee98-4f3e-b19b-3b48c752fdf3","system_id":"levelo_inurba_marseille","lat":43.308012,"lon":5.381511,"is_reserved":false,"is_disabled":false,"rental_uris":{"android":"levelo://app?vid=4b7e71fb-ee98-4f3e-b19b-3b48c752fdf3","ios":"levelo://app?vid=4b7e71fb-ee98-4f3e-b19b-3b48c752fdf3"},"vehicle_type_id":"4","last_reported":1722222570,"current_range_meters":800,"station_id":"ce4bgt12rcd13ifvqce0","pricing_plan_id":"cebpf4jnsgd1na2vs0mg"},{"bike_id":"a8be494b-da3f-4de9-81d2-91db36d2f2e5","system_id":"levelo_inurba_marseille","lat":43.308012,"lon":5.381511,"is_reserved":false,"is_disabled":false,"rental_uris":{"android":"levelo://app?vid=a8be494b-da3f-4de9-81d2-91db36d2f2e5","ios":"levelo://app?vid=a8be494b-da3f-4de9-81d2-91db36d2f2e5"},"vehicle_type_id":"4","last_reported":1722222570,"current_range_meters":31600,"station_id":"ce4bgt12rcd13ifvqce0","pricing_plan_id":"cebpf4jnsgd1na2vs0mg"},{"bike_id":"d6b57a71-1feb-4850-9575-e2706560a5f9","system_id":"levelo_inurba_marseille","lat":43.308012,"lon":5.381511,"is_reserved":false,"is_disabled":false,"rental_uris":{"android":"levelo://app?vid=d6b57a71-1feb-4850-9575-e2706560a5f9","ios":"levelo://app?vid=d6b57a71-1feb-4850-9575-e2706560a5f9"},"vehicle_type_id":"4","last_reported":1722222570,"current_range_meters":13200,"station_id":"ce4bgt12rcd13ifvqce0","pricing_plan_id":"cebpf4jnsgd1na2vs0mg"},{"bike_id":"d5b9621f-a362-4cfd-b56f-1a89092b5dbd","system_id":"levelo_inurba_marseille","lat":43.308012,"lon":5.381511,"is_reserved":false,"is_disabled":false,"rental_uris":{"android":"levelo://app?vid=d5b9621f-a362-4cfd-b56f-1a89092b5dbd","ios":"levelo://app?vid=d5b9621f-a362-4cfd-b56f-1a89092b5dbd"},"vehicle_type_id":"4","last_reported":1722222570,"current_range_meters":13600,"station_id":"ce4bgt12rcd13ifvqce0","pricing_plan_id":"cebpf4jnsgd1na2vs0mg"},{"bike_id":"d29c87ce-5153-4f7a-a151-5534c8a7497e","system_id":"levelo_inurba_marseille","lat":43.308012,"lon":5.381511,"is_reserved":false,"is_disabled":false,"rental_uris":{"android":"levelo://app?vid=d29c87ce-5153-4f7a-a151-5534c8a7497e","ios":"levelo://app?vid=d29c87ce-5153-4f7a-a151-5534c8a7497e"},"vehicle_type_id":"4","last_reported":1722222570,"current_range_meters":14800,"station_id":"ce4bgt12rcd13ifvqce0","pricing_plan_id":"cebpf4jnsgd1na2vs0mg"},{"bike_id":"b0918606-dea7-4f74-b3ec-a8f654fa95b2","system_id":"levelo_inurba_marseille","lat":43.308012,"lon":5.381511,"is_reserved":false,"is_disabled":false,"rental_uris":{"android":"levelo://app?vid=b0918606-dea7-4f74-b3ec-a8f654fa95b2","ios":"levelo://app?vid=b0918606-dea7-4f74-b3ec-a8f654fa95b2"},"vehicle_type_id":"4","last_reported":1722222570,"current_range_meters":10400,"station_id":"ce4bgt12rcd13ifvqce0","pricing_plan_id":"cebpf4jnsgd1na2vs0mg"},{"bike_id":"99d3947b-c868-46bc-aa09-2d22c33e9d07","system_id":"levelo_inurba_marseille","lat":43.305934,"lon":5.380065,"is_reserved":false,"is_disabled":false,"rental_uris":{"android":"levelo://app?vid=99d3947b-c868-46bc-aa09-2d22c33e9d07","ios":"levelo://app?vid=99d3947b-c868-46bc-aa09-2d22c33e9d07"},"vehicle_type_id":"4","last_reported":1722222570,"current_range_meters":12000,"station_id":"","pricing_plan_id":"cebpf4jnsgd1na2vs0mg"},{"bike_id":"8c143f63-e15c-45a8-b4c2-dbd154462432","system_id":"levelo_inurba_marseille","lat":43.304606,"lon":5.379026,"is_reserved":false,"is_disabled":false,"rental_uris":{"android":"levelo://app?vid=8c143f63-e15c-45a8-b4c2-dbd154462432","ios":"levelo://app?vid=8c143f63-e15c-45a8-b4c2-dbd154462432"},"vehicle_type_id":"4","last_reported":1722222570,"current_range_meters":2000,"station_id":"ce4bgup2rcd13ifvqcn0","pricing_plan_id":"cebpf4jnsgd1na2vs0mg"},{"bike_id":"ba89a0db-4b19-472f-951c-4a766762e7fa","system_id":"levelo_inurba_marseille","lat":43.304606,"lon":5.379026,"is_reserved":false,"is_disabled":false,"rental_uris":{"android":"levelo://app?vid=ba89a0db-4b19-472f-951c-4a766762e7fa","ios":"levelo://app?vid=ba89a0db-4b19-472f-951c-4a766762e7fa"},"vehicle_type_id":"4","last_reported":1722222570,"current_range_meters":4000,"station_id":"ce4bgup2rcd13ifvqcn0","pricing_plan_id":"cebpf4jnsgd1na2vs0mg"},{"bike_id":"ce634d67-0a8e-448e-8a30-c90e5fd562ff","system_id":"levelo_inurba_marseille","lat":43.304606,"lon":5.379026,"is_reserved":false,"is_disabled":false,"rental_uris":{"android":"levelo://app?vid=ce634d67-0a8e-448e-8a30-c90e5fd562ff","ios":"levelo://app?vid=ce634d67-0a8e-448e-8a30-c90e5fd562ff"},"vehicle_type_id":"4","last_reported":1722222570,"current_range_meters":27600,"station_id":"ce4bgup2rcd13ifvqcn0","pricing_plan_id":"cebpf4jnsgd1na2vs0mg"},{"bike_id":"4c63c8cb-9263-442f-b3c6-4bc2f9e23bef","system_id":"levelo_inurba_marseille","lat":43.304606,"lon":5.379026,"is_reserved":false,"is_disabled":false,"rental_uris":{"android":"levelo://app?vid=4c63c8cb-9263-442f-b3c6-4bc2f9e23bef","ios":"levelo://app?vid=4c63c8cb-9263-442f-b3c6-4bc2f9e23bef"},"vehicle_type_id":"4","last_reported":1722222570,"current_range_meters":1600,"station_id":"ce4bgup2rcd13ifvqcn0","pricing_plan_id":"cebpf4jnsgd1na2vs0mg"},{"bike_id":"59fead70-93d9-450f-b6d3-1fe4113aaaae","system_id":"levelo_inurba_marseille","lat":43.324771,"lon":5.36557,"is_reserved":false,"is_disabled":false,"rental_uris":{"android":"levelo://app?vid=59fead70-93d9-450f-b6d3-1fe4113aaaae","ios":"levelo://app?vid=59fead70-93d9-450f-b6d3-1fe4113aaaae"},"vehicle_type_id":"4","last_reported":1722222570,"current_range_meters":30400,"station_id":"ce4bhs12rcd13ifvqhvg","pricing_plan_id":"cebpf4jnsgd1na2vs0mg"},{"bike_id":"be3f5830-29d9-4a0b-b531-a01795aca422","system_id":"levelo_inurba_marseille","lat":43.32477,"lon":5.365723,"is_reserved":false,"is_disabled":false,"rental_uris":{"android":"levelo://app?vid=be3f5830-29d9-4a0b-b531-a01795aca422","ios":"levelo://app?vid=be3f5830-29d9-4a0b-b531-a01795aca422"},"vehicle_type_id":"4","last_reported":1722222570,"current_range_meters":9600,"station_id":"ce4bhs12rcd13ifvqhvg","pricing_plan_id":"cebpf4jnsgd1na2vs0mg"},{"bike_id":"5a611f75-6d2d-47bc-9c12-511970371114","system_id":"levelo_inurba_marseille","lat":43.324771,"lon":5.36557,"is_reserved":false,"is_disabled":false,"rental_uris":{"android":"levelo://app?vid=5a611f75-6d2d-47bc-9c12-511970371114","ios":"levelo://app?vid=5a611f75-6d2d-47bc-9c12-511970371114"},"vehicle_type_id":"4","last_reported":1722222570,"current_range_meters":9600,"station_id":"ce4bhs12rcd13ifvqhvg","pricing_plan_id":"cebpf4jnsgd1na2vs0mg"},{"bike_id":"b3f59491-36f5-4574-ae2d-bfc8b08b61e1","system_id":"levelo_inurba_marseille","lat":43.324771,"lon":5.36557,"is_reserved":false,"is_disabled":false,"rental_uris":{"android":"levelo://app?vid=b3f59491-36f5-4574-ae2d-bfc8b08b61e1","ios":"levelo://app?vid=b3f59491-36f5-4574-ae2d-bfc8b08b61e1"},"vehicle_type_id":"4","last_reported":1722222570,"current_range_meters":18000,"station_id":"ce4bhs12rcd13ifvqhvg","pricing_plan_id":"cebpf4jnsgd1na2vs0mg"},{"bike_id":"dc225280-5ca4-4fe4-869c-4aa544dde70c","system_id":"levelo_inurba_marseille","lat":43.324771,"lon":5.36557,"is_reserved":false,"is_disabled":false,"rental_uris":{"android":"levelo://app?vid=dc225280-5ca4-4fe4-869c-4aa544dde70c","ios":"levelo://app?vid=dc225280-5ca4-4fe4-869c-4aa544dde70c"},"vehicle_type_id":"4","last_reported":1722222570,"current_range_meters":31200,"station_id":"ce4bhs12rcd13ifvqhvg","pricing_plan_id":"cebpf4jnsgd1na2vs0mg"},{"bike_id":"5fedab46-a29a-4df3-a1ee-103a38d11088","system_id":"levelo_inurba_marseille","lat":43.310804,"lon":5.38359,"is_reserved":false,"is_disabled":false,"rental_uris":{"android":"levelo://app?vid=5fedab46-a29a-4df3-a1ee-103a38d11088","ios":"levelo://app?vid=5fedab46-a29a-4df3-a1ee-103a38d11088"},"vehicle_type_id":"4","last_reported":1722222570,"current_range_meters":6000,"station_id":"ce4bgv92rcd13ifvqcr0","pricing_plan_id":"cebpf4jnsgd1na2vs0mg"},{"bike_id":"9a68c8ff-6813-401f-8c7a-fdfc32489356","system_id":"levelo_inurba_marseille","lat":43.324771,"lon":5.36557,"is_reserved":false,"is_disabled":false,"rental_uris":{"android":"levelo://app?vid=9a68c8ff-6813-401f-8c7a-fdfc32489356","ios":"levelo://app?vid=9a68c8ff-6813-401f-8c7a-fdfc32489356"},"vehicle_type_id":"4","last_reported":1722222570,"current_range_meters":15600,"station_id":"ce4bhs12rcd13ifvqhvg","pricing_plan_id":"cebpf4jnsgd1na2vs0mg"},{"bike_id":"e538162a-8d01-4b90-936f-7a05eabc5c0f","system_id":"levelo_inurba_marseille","lat":43.310804,"lon":5.38359,"is_reserved":false,"is_disabled":false,"rental_uris":{"android":"levelo://app?vid=e538162a-8d01-4b90-936f-7a05eabc5c0f","ios":"levelo://app?vid=e538162a-8d01-4b90-936f-7a05eabc5c0f"},"vehicle_type_id":"4","last_reported":1722222570,"current_range_meters":13600,"station_id":"ce4bgv92rcd13ifvqcr0","pricing_plan_id":"cebpf4jnsgd1na2vs0mg"},{"bike_id":"74cc53fe-08f4-4458-a5bb-e16201c707dd","system_id":"levelo_inurba_marseille","lat":43.32489,"lon":5.36575,"is_reserved":false,"is_disabled":false,"rental_uris":{"android":"levelo://app?vid=74cc53fe-08f4-4458-a5bb-e16201c707dd","ios":"levelo://app?vid=74cc53fe-08f4-4458-a5bb-e16201c707dd"},"vehicle_type_id":"4","last_reported":1722222570,"current_range_meters":26400,"station_id":"ce4bhs12rcd13ifvqhvg","pricing_plan_id":"cebpf4jnsgd1na2vs0mg"},{"bike_id":"572f1b68-7dcc-4fb4-9b09-8823f1277116","system_id":"levelo_inurba_marseille","lat":43.324771,"lon":5.36557,"is_reserved":false,"is_disabled":false,"rental_uris":{"android":"levelo://app?vid=572f1b68-7dcc-4fb4-9b09-8823f1277116","ios":"levelo://app?vid=572f1b68-7dcc-4fb4-9b09-8823f1277116"},"vehicle_type_id":"4","last_reported":1722222570,"current_range_meters":24800,"station_id":"ce4bhs12rcd13ifvqhvg","pricing_plan_id":"cebpf4jnsgd1na2vs0mg"},{"bike_id":"6d9bc55b-ba4a-499b-a994-5194f00d9d80","system_id":"levelo_inurba_marseille","lat":43.310804,"lon":5.38359,"is_reserved":false,"is_disabled":false,"rental_uris":{"android":"levelo://app?vid=6d9bc55b-ba4a-499b-a994-5194f00d9d80","ios":"levelo://app?vid=6d9bc55b-ba4a-499b-a994-5194f00d9d80"},"vehicle_type_id":"4","last_reported":1722222570,"current_range_meters":1200,"station_id":"ce4bgv92rcd13ifvqcr0","pricing_plan_id":"cebpf4jnsgd1na2vs0mg"},{"bike_id":"be8efa08-593b-4def-bfae-b7f812856985","system_id":"levelo_inurba_marseille","lat":43.310804,"lon":5.38359,"is_reserved":false,"is_disabled":false,"rental_uris":{"android":"levelo://app?vid=be8efa08-593b-4def-bfae-b7f812856985","ios":"levelo://app?vid=be8efa08-593b-4def-bfae-b7f812856985"},"vehicle_type_id":"4","last_reported":1722222570,"current_range_meters":5200,"station_id":"ce4bgv92rcd13ifvqcr0","pricing_plan_id":"cebpf4jnsgd1na2vs0mg"},{"bike_id":"411e0dcb-6ebf-4f7e-8a78-8808dd42828a","system_id":"levelo_inurba_marseille","lat":43.310804,"lon":5.38359,"is_reserved":false,"is_disabled":false,"rental_uris":{"android":"levelo://app?vid=411e0dcb-6ebf-4f7e-8a78-8808dd42828a","ios":"levelo://app?vid=411e0dcb-6ebf-4f7e-8a78-8808dd42828a"},"vehicle_type_id":"4","last_reported":1722222570,"current_range_meters":4800,"station_id":"ce4bgv92rcd13ifvqcr0","pricing_plan_id":"cebpf4jnsgd1na2vs0mg"},{"bike_id":"b663d3a8-f002-4f12-981e-59eaf1a2a655","system_id":"levelo_inurba_marseille","lat":43.310804,"lon":5.38359,"is_reserved":false,"is_disabled":false,"rental_uris":{"android":"levelo://app?vid=b663d3a8-f002-4f12-981e-59eaf1a2a655","ios":"levelo://app?vid=b663d3a8-f002-4f12-981e-59eaf1a2a655"},"vehicle_type_id":"4","last_reported":1722222570,"current_range_meters":800,"station_id":"ce4bgv92rcd13ifvqcr0","pricing_plan_id":"cebpf4jnsgd1na2vs0mg"},{"bike_id":"3b89f133-be78-4ff7-a0dd-b3b7391648a8","system_id":"levelo_inurba_marseille","lat":43.310804,"lon":5.38359,"is_reserved":false,"is_disabled":false,"rental_uris":{"android":"levelo://app?vid=3b89f133-be78-4ff7-a0dd-b3b7391648a8","ios":"levelo://app?vid=3b89f133-be78-4ff7-a0dd-b3b7391648a8"},"vehicle_type_id":"4","last_reported":1722222570,"current_range_meters":6000,"station_id":"ce4bgv92rcd13ifvqcr0","pricing_plan_id":"cebpf4jnsgd1na2vs0mg"},{"bike_id":"8b6a5053-8164-4838-913b-283072ed0f05","system_id":"levelo_inurba_marseille","lat":43.310804,"lon":5.38359,"is_reserved":false,"is_disabled":false,"rental_uris":{"android":"levelo://app?vid=8b6a5053-8164-4838-913b-283072ed0f05","ios":"levelo://app?vid=8b6a5053-8164-4838-913b-283072ed0f05"},"vehicle_type_id":"4","last_reported":1722222570,"current_range_meters":10400,"station_id":"ce4bgv92rcd13ifvqcr0","pricing_plan_id":"cebpf4jnsgd1na2vs0mg"},{"bike_id":"ff7a59aa-f7e5-40d8-9f7a-f3b063cfa928","system_id":"levelo_inurba_marseille","lat":43.310804,"lon":5.38359,"is_reserved":false,"is_disabled":false,"rental_uris":{"android":"levelo://app?vid=ff7a59aa-f7e5-40d8-9f7a-f3b063cfa928","ios":"levelo://app?vid=ff7a59aa-f7e5-40d8-9f7a-f3b063cfa928"},"vehicle_type_id":"4","last_reported":1722222570,"current_range_meters":19600,"station_id":"ce4bgv92rcd13ifvqcr0","pricing_plan_id":"cebpf4jnsgd1na2vs0mg"},{"bike_id":"84c2d4cc-b5ff-4241-8cc7-3bf97bbcd2de","system_id":"levelo_inurba_marseille","lat":43.310804,"lon":5.38359,"is_reserved":false,"is_disabled":false,"rental_uris":{"android":"levelo://app?vid=84c2d4cc-b5ff-4241-8cc7-3bf97bbcd2de","ios":"levelo://app?vid=84c2d4cc-b5ff-4241-8cc7-3bf97bbcd2de"},"vehicle_type_id":"4","last_reported":1722222570,"current_range_meters":5200,"station_id":"ce4bgv92rcd13ifvqcr0","pricing_plan_id":"cebpf4jnsgd1na2vs0mg"},{"bike_id":"8ff7c600-b52f-4b47-ab13-205a97bcb20b","system_id":"levelo_inurba_marseille","lat":43.310804,"lon":5.38359,"is_reserved":false,"is_disabled":false,"rental_uris":{"android":"levelo://app?vid=8ff7c600-b52f-4b47-ab13-205a97bcb20b","ios":"levelo://app?vid=8ff7c600-b52f-4b47-ab13-205a97bcb20b"},"vehicle_type_id":"4","last_reported":1722222570,"current_range_meters":22000,"station_id":"ce4bgv92rcd13ifvqcr0","pricing_plan_id":"cebpf4jnsgd1na2vs0mg"},{"bike_id":"b141f6a9-5817-4adf-b674-6acda5571f09","system_id":"levelo_inurba_marseille","lat":43.310804,"lon":5.38359,"is_reserved":false,"is_disabled":false,"rental_uris":{"android":"levelo://app?vid=b141f6a9-5817-4adf-b674-6acda5571f09","ios":"levelo://app?vid=b141f6a9-5817-4adf-b674-6acda5571f09"},"vehicle_type_id":"4","last_reported":1722222570,"current_range_meters":5600,"station_id":"ce4bgv92rcd13ifvqcr0","pricing_plan_id":"cebpf4jnsgd1na2vs0mg"},{"bike_id":"09d07885-6440-4f2b-8210-4d6c7bc3c07b","system_id":"levelo_inurba_marseille","lat":43.310804,"lon":5.38359,"is_reserved":false,"is_disabled":false,"rental_uris":{"android":"levelo://app?vid=09d07885-6440-4f2b-8210-4d6c7bc3c07b","ios":"levelo://app?vid=09d07885-6440-4f2b-8210-4d6c7bc3c07b"},"vehicle_type_id":"4","last_reported":1722222570,"current_range_meters":17600,"station_id":"ce4bgv92rcd13ifvqcr0","pricing_plan_id":"cebpf4jnsgd1na2vs0mg"},{"bike_id":"0c653501-29e3-481e-8e8c-25616cbd788c","system_id":"levelo_inurba_marseille","lat":43.319935,"lon":5.381699,"is_reserved":false,"is_disabled":false,"rental_uris":{"android":"levelo://app?vid=0c653501-29e3-481e-8e8c-25616cbd788c","ios":"levelo://app?vid=0c653501-29e3-481e-8e8c-25616cbd788c"},"vehicle_type_id":"4","last_reported":1722222570,"current_range_meters":31200,"station_id":"ce4bhr12rcd13ifvqhpg","pricing_plan_id":"cebpf4jnsgd1na2vs0mg"},{"bike_id":"0de0233d-c522-4627-9d5c-2a4fa9568ed7","system_id":"levelo_inurba_marseille","lat":43.319935,"lon":5.381699,"is_reserved":false,"is_disabled":false,"rental_uris":{"android":"levelo://app?vid=0de0233d-c522-4627-9d5c-2a4fa9568ed7","ios":"levelo://app?vid=0de0233d-c522-4627-9d5c-2a4fa9568ed7"},"vehicle_type_id":"4","last_reported":1722222570,"current_range_meters":31200,"station_id":"ce4bhr12rcd13ifvqhpg","pricing_plan_id":"cebpf4jnsgd1na2vs0mg"},{"bike_id":"021fb77c-ef54-41de-97b9-e5366fe67f0d","system_id":"levelo_inurba_marseille","lat":43.319935,"lon":5.381699,"is_reserved":false,"is_disabled":false,"rental_uris":{"android":"levelo://app?vid=021fb77c-ef54-41de-97b9-e5366fe67f0d","ios":"levelo://app?vid=021fb77c-ef54-41de-97b9-e5366fe67f0d"},"vehicle_type_id":"4","last_reported":1722222570,"current_range_meters":30000,"station_id":"ce4bhr12rcd13ifvqhpg","pricing_plan_id":"cebpf4jnsgd1na2vs0mg"},{"bike_id":"ae597df3-63f6-42ce-9ee1-16dc4d37beb0","system_id":"levelo_inurba_marseille","lat":43.319935,"lon":5.381699,"is_reserved":false,"is_disabled":false,"rental_uris":{"android":"levelo://app?vid=ae597df3-63f6-42ce-9ee1-16dc4d37beb0","ios":"levelo://app?vid=ae597df3-63f6-42ce-9ee1-16dc4d37beb0"},"vehicle_type_id":"4","last_reported":1722222570,"current_range_meters":31600,"station_id":"ce4bhr12rcd13ifvqhpg","pricing_plan_id":"cebpf4jnsgd1na2vs0mg"},{"bike_id":"4ce1f320-353a-4877-b337-14ebe4394225","system_id":"levelo_inurba_marseille","lat":43.319949,"lon":5.381533,"is_reserved":false,"is_disabled":false,"rental_uris":{"android":"levelo://app?vid=4ce1f320-353a-4877-b337-14ebe4394225","ios":"levelo://app?vid=4ce1f320-353a-4877-b337-14ebe4394225"},"vehicle_type_id":"4","last_reported":1722222570,"current_range_meters":29600,"station_id":"ce4bhr12rcd13ifvqhpg","pricing_plan_id":"cebpf4jnsgd1na2vs0mg"},{"bike_id":"38eb4d6e-2981-4c55-bc89-c8b340f372e2","system_id":"levelo_inurba_marseille","lat":43.319935,"lon":5.381699,"is_reserved":false,"is_disabled":false,"rental_uris":{"android":"levelo://app?vid=38eb4d6e-2981-4c55-bc89-c8b340f372e2","ios":"levelo://app?vid=38eb4d6e-2981-4c55-bc89-c8b340f372e2"},"vehicle_type_id":"4","last_reported":1722222570,"current_range_meters":29600,"station_id":"ce4bhr12rcd13ifvqhpg","pricing_plan_id":"cebpf4jnsgd1na2vs0mg"},{"bike_id":"c5998038-0bcf-4ada-aa72-f3fa64ee84af","system_id":"levelo_inurba_marseille","lat":43.319935,"lon":5.381699,"is_reserved":false,"is_disabled":false,"rental_uris":{"android":"levelo://app?vid=c5998038-0bcf-4ada-aa72-f3fa64ee84af","ios":"levelo://app?vid=c5998038-0bcf-4ada-aa72-f3fa64ee84af"},"vehicle_type_id":"4","last_reported":1722222570,"current_range_meters":31600,"station_id":"ce4bhr12rcd13ifvqhpg","pricing_plan_id":"cebpf4jnsgd1na2vs0mg"},{"bike_id":"31337444-bbd0-4f4b-a5c2-1c53b78ff090","system_id":"levelo_inurba_marseille","lat":43.319997,"lon":5.381687,"is_reserved":false,"is_disabled":false,"rental_uris":{"android":"levelo://app?vid=31337444-bbd0-4f4b-a5c2-1c53b78ff090","ios":"levelo://app?vid=31337444-bbd0-4f4b-a5c2-1c53b78ff090"},"vehicle_type_id":"4","last_reported":1722222570,"current_range_meters":0,"station_id":"ce4bhr12rcd13ifvqhpg","pricing_plan_id":"cebpf4jnsgd1na2vs0mg"},{"bike_id":"54f8ce6b-23e5-4df8-baec-a2dbf7ad7d14","system_id":"levelo_inurba_marseille","lat":43.313649,"lon":5.384922,"is_reserved":false,"is_disabled":false,"rental_uris":{"android":"levelo://app?vid=54f8ce6b-23e5-4df8-baec-a2dbf7ad7d14","ios":"levelo://app?vid=54f8ce6b-23e5-4df8-baec-a2dbf7ad7d14"},"vehicle_type_id":"4","last_reported":1722222570,"current_range_meters":14000,"station_id":"ce4bgt92rcd13ifvqcf0","pricing_plan_id":"cebpf4jnsgd1na2vs0mg"},{"bike_id":"8463d9d6-6979-4709-866d-a26a09cba72c","system_id":"levelo_inurba_marseille","lat":43.313585,"lon":5.384933,"is_reserved":false,"is_disabled":false,"rental_uris":{"android":"levelo://app?vid=8463d9d6-6979-4709-866d-a26a09cba72c","ios":"levelo://app?vid=8463d9d6-6979-4709-866d-a26a09cba72c"},"vehicle_type_id":"4","last_reported":1722222570,"current_range_meters":24000,"station_id":"ce4bgt92rcd13ifvqcf0","pricing_plan_id":"cebpf4jnsgd1na2vs0mg"},{"bike_id":"33ef7425-2ec0-4226-904d-d670d445e1eb","system_id":"levelo_inurba_marseille","lat":43.313611,"lon":5.384935,"is_reserved":false,"is_disabled":false,"rental_uris":{"android":"levelo://app?vid=33ef7425-2ec0-4226-904d-d670d445e1eb","ios":"levelo://app?vid=33ef7425-2ec0-4226-904d-d670d445e1eb"},"vehicle_type_id":"4","last_reported":1722222570,"current_range_meters":19600,"station_id":"ce4bgt92rcd13ifvqcf0","pricing_plan_id":"cebpf4jnsgd1na2vs0mg"},{"bike_id":"9ba6a11a-7b34-4fdd-90c9-351e33243b66","system_id":"levelo_inurba_marseille","lat":43.313603,"lon":5.384963,"is_reserved":false,"is_disabled":false,"rental_uris":{"android":"levelo://app?vid=9ba6a11a-7b34-4fdd-90c9-351e33243b66","ios":"levelo://app?vid=9ba6a11a-7b34-4fdd-90c9-351e33243b66"},"vehicle_type_id":"4","last_reported":1722222570,"current_range_meters":18000,"station_id":"ce4bgt92rcd13ifvqcf0","pricing_plan_id":"cebpf4jnsgd1na2vs0mg"},{"bike_id":"18d453e4-7805-431d-be3c-23a7d6e6c359","system_id":"levelo_inurba_marseille","lat":43.313571,"lon":5.384829,"is_reserved":false,"is_disabled":false,"rental_uris":{"android":"levelo://app?vid=18d453e4-7805-431d-be3c-23a7d6e6c359","ios":"levelo://app?vid=18d453e4-7805-431d-be3c-23a7d6e6c359"},"vehicle_type_id":"4","last_reported":1722222570,"current_range_meters":29200,"station_id":"ce4bgt92rcd13ifvqcf0","pricing_plan_id":"cebpf4jnsgd1na2vs0mg"},{"bike_id":"ebbad0dc-dea5-4baf-95ec-b55215fba989","system_id":"levelo_inurba_marseille","lat":43.31362,"lon":5.384964,"is_reserved":false,"is_disabled":false,"rental_uris":{"android":"levelo://app?vid=ebbad0dc-dea5-4baf-95ec-b55215fba989","ios":"levelo://app?vid=ebbad0dc-dea5-4baf-95ec-b55215fba989"},"vehicle_type_id":"4","last_reported":1722222570,"current_range_meters":25200,"station_id":"ce4bgt92rcd13ifvqcf0","pricing_plan_id":"cebpf4jnsgd1na2vs0mg"},{"bike_id":"bc492da2-32ed-43e2-9158-d21b05ff9dcb","system_id":"levelo_inurba_marseille","lat":43.313597,"lon":5.384978,"is_reserved":false,"is_disabled":false,"rental_uris":{"android":"levelo://app?vid=bc492da2-32ed-43e2-9158-d21b05ff9dcb","ios":"levelo://app?vid=bc492da2-32ed-43e2-9158-d21b05ff9dcb"},"vehicle_type_id":"4","last_reported":1722222570,"current_range_meters":31200,"station_id":"ce4bgt92rcd13ifvqcf0","pricing_plan_id":"cebpf4jnsgd1na2vs0mg"},{"bike_id":"7d8c487f-9a73-4662-9069-10ac2e7525c7","system_id":"levelo_inurba_marseille","lat":43.313571,"lon":5.384829,"is_reserved":false,"is_disabled":false,"rental_uris":{"android":"levelo://app?vid=7d8c487f-9a73-4662-9069-10ac2e7525c7","ios":"levelo://app?vid=7d8c487f-9a73-4662-9069-10ac2e7525c7"},"vehicle_type_id":"4","last_reported":1722222570,"current_range_meters":13200,"station_id":"ce4bgt92rcd13ifvqcf0","pricing_plan_id":"cebpf4jnsgd1na2vs0mg"},{"bike_id":"deadde53-ce40-4881-9f0c-b0e6ea972646","system_id":"levelo_inurba_marseille","lat":43.313628,"lon":5.384985,"is_reserved":false,"is_disabled":false,"rental_uris":{"android":"levelo://app?vid=deadde53-ce40-4881-9f0c-b0e6ea972646","ios":"levelo://app?vid=deadde53-ce40-4881-9f0c-b0e6ea972646"},"vehicle_type_id":"4","last_reported":1722222570,"current_range_meters":28400,"station_id":"ce4bgt92rcd13ifvqcf0","pricing_plan_id":"cebpf4jnsgd1na2vs0mg"},{"bike_id":"7879838f-8c49-4809-bcbd-5be8d9abe375","system_id":"levelo_inurba_marseille","lat":43.299222,"lon":5.365554,"is_reserved":false,"is_disabled":false,"rental_uris":{"android":"levelo://app?vid=7879838f-8c49-4809-bcbd-5be8d9abe375","ios":"levelo://app?vid=7879838f-8c49-4809-bcbd-5be8d9abe375"},"vehicle_type_id":"4","last_reported":1722222570,"current_range_meters":22400,"station_id":"ce4bgm92rcd13ifvqbr0","pricing_plan_id":"cebpf4jnsgd1na2vs0mg"},{"bike_id":"7c16f3f5-c2cd-4564-962a-c7b47737644c","system_id":"levelo_inurba_marseille","lat":43.299724,"lon":5.371829,"is_reserved":false,"is_disabled":false,"rental_uris":{"android":"levelo://app?vid=7c16f3f5-c2cd-4564-962a-c7b47737644c","ios":"levelo://app?vid=7c16f3f5-c2cd-4564-962a-c7b47737644c"},"vehicle_type_id":"4","last_reported":1722222570,"current_range_meters":12000,"station_id":"ce4bgr92rcd13ifvqc7g","pricing_plan_id":"cebpf4jnsgd1na2vs0mg"},{"bike_id":"ecefcbe1-24f4-43c1-a2c6-671ee6ff059d","system_id":"levelo_inurba_marseille","lat":43.299222,"lon":5.365554,"is_reserved":false,"is_disabled":false,"rental_uris":{"android":"levelo://app?vid=ecefcbe1-24f4-43c1-a2c6-671ee6ff059d","ios":"levelo://app?vid=ecefcbe1-24f4-43c1-a2c6-671ee6ff059d"},"vehicle_type_id":"4","last_reported":1722222570,"current_range_meters":14400,"station_id":"ce4bgm92rcd13ifvqbr0","pricing_plan_id":"cebpf4jnsgd1na2vs0mg"},{"bike_id":"854ac808-ac66-4d94-aeb8-69149b51267c","system_id":"levelo_inurba_marseille","lat":43.305364,"lon":5.384119,"is_reserved":false,"is_disabled":false,"rental_uris":{"android":"levelo://app?vid=854ac808-ac66-4d94-aeb8-69149b51267c","ios":"levelo://app?vid=854ac808-ac66-4d94-aeb8-69149b51267c"},"vehicle_type_id":"4","last_reported":1722222570,"current_range_meters":3200,"station_id":"ce4bgg92rcd13ifvqb30","pricing_plan_id":"cebpf4jnsgd1na2vs0mg"},{"bike_id":"ead704da-4088-445f-95b6-812ccba404ad","system_id":"levelo_inurba_marseille","lat":43.305364,"lon":5.384119,"is_reserved":false,"is_disabled":false,"rental_uris":{"android":"levelo://app?vid=ead704da-4088-445f-95b6-812ccba404ad","ios":"levelo://app?vid=ead704da-4088-445f-95b6-812ccba404ad"},"vehicle_type_id":"4","last_reported":1722222570,"current_range_meters":13600,"station_id":"ce4bgg92rcd13ifvqb30","pricing_plan_id":"cebpf4jnsgd1na2vs0mg"},{"bike_id":"16e2c939-9454-43de-87b5-04e64014b558","system_id":"levelo_inurba_marseille","lat":43.305364,"lon":5.384119,"is_reserved":false,"is_disabled":false,"rental_uris":{"android":"levelo://app?vid=16e2c939-9454-43de-87b5-04e64014b558","ios":"levelo://app?vid=16e2c939-9454-43de-87b5-04e64014b558"},"vehicle_type_id":"4","last_reported":1722222570,"current_range_meters":23600,"station_id":"ce4bgg92rcd13ifvqb30","pricing_plan_id":"cebpf4jnsgd1na2vs0mg"},{"bike_id":"698b6d19-492d-4034-bf8f-3145a2aca533","system_id":"levelo_inurba_marseille","lat":43.305364,"lon":5.384119,"is_reserved":false,"is_disabled":false,"rental_uris":{"android":"levelo://app?vid=698b6d19-492d-4034-bf8f-3145a2aca533","ios":"levelo://app?vid=698b6d19-492d-4034-bf8f-3145a2aca533"},"vehicle_type_id":"4","last_reported":1722222570,"current_range_meters":6800,"station_id":"ce4bgg92rcd13ifvqb30","pricing_plan_id":"cebpf4jnsgd1na2vs0mg"},{"bike_id":"be16a7ae-1545-41bd-9a0d-d24ff3decc82","system_id":"levelo_inurba_marseille","lat":43.305364,"lon":5.384119,"is_reserved":false,"is_disabled":false,"rental_uris":{"android":"levelo://app?vid=be16a7ae-1545-41bd-9a0d-d24ff3decc82","ios":"levelo://app?vid=be16a7ae-1545-41bd-9a0d-d24ff3decc82"},"vehicle_type_id":"4","last_reported":1722222570,"current_range_meters":11600,"station_id":"ce4bgg92rcd13ifvqb30","pricing_plan_id":"cebpf4jnsgd1na2vs0mg"},{"bike_id":"1210cef5-4fbb-41c7-830e-f310efaaa25d","system_id":"levelo_inurba_marseille","lat":43.305364,"lon":5.384119,"is_reserved":false,"is_disabled":false,"rental_uris":{"android":"levelo://app?vid=1210cef5-4fbb-41c7-830e-f310efaaa25d","ios":"levelo://app?vid=1210cef5-4fbb-41c7-830e-f310efaaa25d"},"vehicle_type_id":"4","last_reported":1722222570,"current_range_meters":31200,"station_id":"ce4bgg92rcd13ifvqb30","pricing_plan_id":"cebpf4jnsgd1na2vs0mg"},{"bike_id":"85a8a0fd-aaa9-4051-9607-e86416060232","system_id":"levelo_inurba_marseille","lat":43.305364,"lon":5.384119,"is_reserved":false,"is_disabled":false,"rental_uris":{"android":"levelo://app?vid=85a8a0fd-aaa9-4051-9607-e86416060232","ios":"levelo://app?vid=85a8a0fd-aaa9-4051-9607-e86416060232"},"vehicle_type_id":"4","last_reported":1722222570,"current_range_meters":12800,"station_id":"ce4bgg92rcd13ifvqb30","pricing_plan_id":"cebpf4jnsgd1na2vs0mg"},{"bike_id":"f6e8a765-64e1-47e0-9aa4-31277ef78d46","system_id":"levelo_inurba_marseille","lat":43.298433,"lon":5.362774,"is_reserved":false,"is_disabled":false,"rental_uris":{"android":"levelo://app?vid=f6e8a765-64e1-47e0-9aa4-31277ef78d46","ios":"levelo://app?vid=f6e8a765-64e1-47e0-9aa4-31277ef78d46"},"vehicle_type_id":"4","last_reported":1722222570,"current_range_meters":21200,"station_id":"ce4bgpp2rcd13ifvqc3g","pricing_plan_id":"cebpf4jnsgd1na2vs0mg"},{"bike_id":"191af202-68eb-4a06-9a5d-d86fd799300f","system_id":"levelo_inurba_marseille","lat":43.311722,"lon":5.387247,"is_reserved":false,"is_disabled":false,"rental_uris":{"android":"levelo://app?vid=191af202-68eb-4a06-9a5d-d86fd799300f","ios":"levelo://app?vid=191af202-68eb-4a06-9a5d-d86fd799300f"},"vehicle_type_id":"4","last_reported":1722222570,"current_range_meters":23200,"station_id":"ce4bgv12rcd13ifvqcp0","pricing_plan_id":"cebpf4jnsgd1na2vs0mg"},{"bike_id":"73bf8264-fc4a-45cd-8679-65440ff9c859","system_id":"levelo_inurba_marseille","lat":43.311722,"lon":5.387247,"is_reserved":false,"is_disabled":false,"rental_uris":{"android":"levelo://app?vid=73bf8264-fc4a-45cd-8679-65440ff9c859","ios":"levelo://app?vid=73bf8264-fc4a-45cd-8679-65440ff9c859"},"vehicle_type_id":"4","last_reported":1722222570,"current_range_meters":31200,"station_id":"ce4bgv12rcd13ifvqcp0","pricing_plan_id":"cebpf4jnsgd1na2vs0mg"},{"bike_id":"d1572e21-f2d6-4406-837f-654bfc112662","system_id":"levelo_inurba_marseille","lat":43.311722,"lon":5.387247,"is_reserved":false,"is_disabled":false,"rental_uris":{"android":"levelo://app?vid=d1572e21-f2d6-4406-837f-654bfc112662","ios":"levelo://app?vid=d1572e21-f2d6-4406-837f-654bfc112662"},"vehicle_type_id":"4","last_reported":1722222570,"current_range_meters":31600,"station_id":"ce4bgv12rcd13ifvqcp0","pricing_plan_id":"cebpf4jnsgd1na2vs0mg"},{"bike_id":"2bf81c29-2266-4a04-8d12-1b24d6a499d4","system_id":"levelo_inurba_marseille","lat":43.311722,"lon":5.387247,"is_reserved":false,"is_disabled":false,"rental_uris":{"android":"levelo://app?vid=2bf81c29-2266-4a04-8d12-1b24d6a499d4","ios":"levelo://app?vid=2bf81c29-2266-4a04-8d12-1b24d6a499d4"},"vehicle_type_id":"4","last_reported":1722222570,"current_range_meters":15200,"station_id":"ce4bgv12rcd13ifvqcp0","pricing_plan_id":"cebpf4jnsgd1na2vs0mg"},{"bike_id":"351869d6-7b9a-4dbf-98a9-a769197051e6","system_id":"levelo_inurba_marseille","lat":43.311722,"lon":5.387247,"is_reserved":false,"is_disabled":false,"rental_uris":{"android":"levelo://app?vid=351869d6-7b9a-4dbf-98a9-a769197051e6","ios":"levelo://app?vid=351869d6-7b9a-4dbf-98a9-a769197051e6"},"vehicle_type_id":"4","last_reported":1722222570,"current_range_meters":21600,"station_id":"ce4bgv12rcd13ifvqcp0","pricing_plan_id":"cebpf4jnsgd1na2vs0mg"},{"bike_id":"6d966ddf-fe46-4ef3-a1bc-a9129bec758d","system_id":"levelo_inurba_marseille","lat":43.311722,"lon":5.387247,"is_reserved":false,"is_disabled":false,"rental_uris":{"android":"levelo://app?vid=6d966ddf-fe46-4ef3-a1bc-a9129bec758d","ios":"levelo://app?vid=6d966ddf-fe46-4ef3-a1bc-a9129bec758d"},"vehicle_type_id":"4","last_reported":1722222570,"current_range_meters":24400,"station_id":"ce4bgv12rcd13ifvqcp0","pricing_plan_id":"cebpf4jnsgd1na2vs0mg"},{"bike_id":"930bdd79-e955-4858-b4a0-e0dfc904d217","system_id":"levelo_inurba_marseille","lat":43.30155,"lon":5.38085,"is_reserved":false,"is_disabled":false,"rental_uris":{"android":"levelo://app?vid=930bdd79-e955-4858-b4a0-e0dfc904d217","ios":"levelo://app?vid=930bdd79-e955-4858-b4a0-e0dfc904d217"},"vehicle_type_id":"4","last_reported":1722222570,"current_range_meters":12400,"station_id":"","pricing_plan_id":"cebpf4jnsgd1na2vs0mg"},{"bike_id":"c688db4c-b06e-45c3-95bb-4471fbcd9e20","system_id":"levelo_inurba_marseille","lat":43.30154,"lon":5.38087,"is_reserved":false,"is_disabled":false,"rental_uris":{"android":"levelo://app?vid=c688db4c-b06e-45c3-95bb-4471fbcd9e20","ios":"levelo://app?vid=c688db4c-b06e-45c3-95bb-4471fbcd9e20"},"vehicle_type_id":"4","last_reported":1722222570,"current_range_meters":31200,"station_id":"","pricing_plan_id":"cebpf4jnsgd1na2vs0mg"},{"bike_id":"f90131a6-0365-47af-9020-f438a68ac0a4","system_id":"levelo_inurba_marseille","lat":43.30146,"lon":5.38077,"is_reserved":false,"is_disabled":false,"rental_uris":{"android":"levelo://app?vid=f90131a6-0365-47af-9020-f438a68ac0a4","ios":"levelo://app?vid=f90131a6-0365-47af-9020-f438a68ac0a4"},"vehicle_type_id":"4","last_reported":1722222570,"current_range_meters":10400,"station_id":"","pricing_plan_id":"cebpf4jnsgd1na2vs0mg"},{"bike_id":"16503af2-6c55-494e-99d3-0ac55180a079","system_id":"levelo_inurba_marseille","lat":43.298768,"lon":5.43643,"is_reserved":false,"is_disabled":false,"rental_uris":{"android":"levelo://app?vid=16503af2-6c55-494e-99d3-0ac55180a079","ios":"levelo://app?vid=16503af2-6c55-494e-99d3-0ac55180a079"},"vehicle_type_id":"4","last_reported":1722222570,"current_range_meters":9600,"station_id":"ce4bhpp2rcd13ifvqhfg","pricing_plan_id":"cebpf4jnsgd1na2vs0mg"},{"bike_id":"e155e203-39c2-4909-8447-3407bb35a435","system_id":"levelo_inurba_marseille","lat":43.322872,"lon":5.382756,"is_reserved":false,"is_disabled":false,"rental_uris":{"android":"levelo://app?vid=e155e203-39c2-4909-8447-3407bb35a435","ios":"levelo://app?vid=e155e203-39c2-4909-8447-3407bb35a435"},"vehicle_type_id":"4","last_reported":1722222570,"current_range_meters":28000,"station_id":"ce4bhr12rcd13ifvqhqg","pricing_plan_id":"cebpf4jnsgd1na2vs0mg"},{"bike_id":"035feb10-d44e-4d22-bc19-490480ee2d4f","system_id":"levelo_inurba_marseille","lat":43.322872,"lon":5.382756,"is_reserved":false,"is_disabled":false,"rental_uris":{"android":"levelo://app?vid=035feb10-d44e-4d22-bc19-490480ee2d4f","ios":"levelo://app?vid=035feb10-d44e-4d22-bc19-490480ee2d4f"},"vehicle_type_id":"4","last_reported":1722222570,"current_range_meters":31600,"station_id":"ce4bhr12rcd13ifvqhqg","pricing_plan_id":"cebpf4jnsgd1na2vs0mg"},{"bike_id":"79a14e6b-20bb-4cb2-b74a-264a2b4ba097","system_id":"levelo_inurba_marseille","lat":43.322872,"lon":5.382756,"is_reserved":false,"is_disabled":false,"rental_uris":{"android":"levelo://app?vid=79a14e6b-20bb-4cb2-b74a-264a2b4ba097","ios":"levelo://app?vid=79a14e6b-20bb-4cb2-b74a-264a2b4ba097"},"vehicle_type_id":"4","last_reported":1722222570,"current_range_meters":28000,"station_id":"ce4bhr12rcd13ifvqhqg","pricing_plan_id":"cebpf4jnsgd1na2vs0mg"},{"bike_id":"0cb9fca5-bf3c-423f-a18e-2816fdd8b752","system_id":"levelo_inurba_marseille","lat":43.322872,"lon":5.382756,"is_reserved":false,"is_disabled":false,"rental_uris":{"android":"levelo://app?vid=0cb9fca5-bf3c-423f-a18e-2816fdd8b752","ios":"levelo://app?vid=0cb9fca5-bf3c-423f-a18e-2816fdd8b752"},"vehicle_type_id":"4","last_reported":1722222570,"current_range_meters":30400,"station_id":"ce4bhr12rcd13ifvqhqg","pricing_plan_id":"cebpf4jnsgd1na2vs0mg"},{"bike_id":"d79324ed-3c23-4fa3-a262-a4012c4f22ff","system_id":"levelo_inurba_marseille","lat":43.297163,"lon":5.365866,"is_reserved":false,"is_disabled":false,"rental_uris":{"android":"levelo://app?vid=d79324ed-3c23-4fa3-a262-a4012c4f22ff","ios":"levelo://app?vid=d79324ed-3c23-4fa3-a262-a4012c4f22ff"},"vehicle_type_id":"4","last_reported":1722222570,"current_range_meters":28800,"station_id":"ce4bgn12rcd13ifvqbt0","pricing_plan_id":"cebpf4jnsgd1na2vs0mg"},{"bike_id":"979a2007-8085-4191-ae3f-b4af52c0c04f","system_id":"levelo_inurba_marseille","lat":43.297163,"lon":5.365866,"is_reserved":false,"is_disabled":false,"rental_uris":{"android":"levelo://app?vid=979a2007-8085-4191-ae3f-b4af52c0c04f","ios":"levelo://app?vid=979a2007-8085-4191-ae3f-b4af52c0c04f"},"vehicle_type_id":"4","last_reported":1722222570,"current_range_meters":31200,"station_id":"ce4bgn12rcd13ifvqbt0","pricing_plan_id":"cebpf4jnsgd1na2vs0mg"},{"bike_id":"8cb65075-97ac-4988-8f1e-774d74e53aa6","system_id":"levelo_inurba_marseille","lat":43.297163,"lon":5.365866,"is_reserved":false,"is_disabled":false,"rental_uris":{"android":"levelo://app?vid=8cb65075-97ac-4988-8f1e-774d74e53aa6","ios":"levelo://app?vid=8cb65075-97ac-4988-8f1e-774d74e53aa6"},"vehicle_type_id":"4","last_reported":1722222570,"current_range_meters":30000,"station_id":"ce4bgn12rcd13ifvqbt0","pricing_plan_id":"cebpf4jnsgd1na2vs0mg"},{"bike_id":"77ebd6f7-0e15-4246-8feb-b1d720ac899a","system_id":"levelo_inurba_marseille","lat":43.30075,"lon":5.38124,"is_reserved":false,"is_disabled":false,"rental_uris":{"android":"levelo://app?vid=77ebd6f7-0e15-4246-8feb-b1d720ac899a","ios":"levelo://app?vid=77ebd6f7-0e15-4246-8feb-b1d720ac899a"},"vehicle_type_id":"4","last_reported":1722222570,"current_range_meters":12800,"station_id":"","pricing_plan_id":"cebpf4jnsgd1na2vs0mg"},{"bike_id":"ef797485-5159-4420-bda8-035f4112fe36","system_id":"levelo_inurba_marseille","lat":43.298922,"lon":5.377933,"is_reserved":false,"is_disabled":false,"rental_uris":{"android":"levelo://app?vid=ef797485-5159-4420-bda8-035f4112fe36","ios":"levelo://app?vid=ef797485-5159-4420-bda8-035f4112fe36"},"vehicle_type_id":"4","last_reported":1722222570,"current_range_meters":6400,"station_id":"","pricing_plan_id":"cebpf4jnsgd1na2vs0mg"},{"bike_id":"16361635-e3e1-4d04-a4c7-b861d7597b64","system_id":"levelo_inurba_marseille","lat":43.296983,"lon":5.372987,"is_reserved":false,"is_disabled":false,"rental_uris":{"android":"levelo://app?vid=16361635-e3e1-4d04-a4c7-b861d7597b64","ios":"levelo://app?vid=16361635-e3e1-4d04-a4c7-b861d7597b64"},"vehicle_type_id":"4","last_reported":1722222570,"current_range_meters":0,"station_id":"ce4bgk12rcd13ifvqbj0","pricing_plan_id":"cebpf4jnsgd1na2vs0mg"},{"bike_id":"f4ec52e6-e348-4813-bcb2-afb4ea2cf690","system_id":"levelo_inurba_marseille","lat":43.2968,"lon":5.37291,"is_reserved":false,"is_disabled":false,"rental_uris":{"android":"levelo://app?vid=f4ec52e6-e348-4813-bcb2-afb4ea2cf690","ios":"levelo://app?vid=f4ec52e6-e348-4813-bcb2-afb4ea2cf690"},"vehicle_type_id":"4","last_reported":1722222570,"current_range_meters":28400,"station_id":"ce4bgk12rcd13ifvqbj0","pricing_plan_id":"cebpf4jnsgd1na2vs0mg"},{"bike_id":"aabe5636-8b2c-4b07-b9b2-f6406a64fb3f","system_id":"levelo_inurba_marseille","lat":43.316346,"lon":5.389443,"is_reserved":false,"is_disabled":false,"rental_uris":{"android":"levelo://app?vid=aabe5636-8b2c-4b07-b9b2-f6406a64fb3f","ios":"levelo://app?vid=aabe5636-8b2c-4b07-b9b2-f6406a64fb3f"},"vehicle_type_id":"4","last_reported":1722222570,"current_range_meters":16000,"station_id":"","pricing_plan_id":"cebpf4jnsgd1na2vs0mg"},{"bike_id":"08500c29-9e67-474c-abb0-eee753dc4eae","system_id":"levelo_inurba_marseille","lat":43.29573,"lon":5.367355,"is_reserved":false,"is_disabled":false,"rental_uris":{"android":"levelo://app?vid=08500c29-9e67-474c-abb0-eee753dc4eae","ios":"levelo://app?vid=08500c29-9e67-474c-abb0-eee753dc4eae"},"vehicle_type_id":"4","last_reported":1722222570,"current_range_meters":25200,"station_id":"ce4bgph2rcd13ifvqc2g","pricing_plan_id":"cebpf4jnsgd1na2vs0mg"},{"bike_id":"56c40e5d-b7c2-40cd-9102-6a90f1952e1f","system_id":"levelo_inurba_marseille","lat":43.29603,"lon":5.37058,"is_reserved":false,"is_disabled":false,"rental_uris":{"android":"levelo://app?vid=56c40e5d-b7c2-40cd-9102-6a90f1952e1f","ios":"levelo://app?vid=56c40e5d-b7c2-40cd-9102-6a90f1952e1f"},"vehicle_type_id":"4","last_reported":1722222570,"current_range_meters":13600,"station_id":"","pricing_plan_id":"cebpf4jnsgd1na2vs0mg"},{"bike_id":"8fbb9c39-687d-4bd9-900b-fafda04a7f1b","system_id":"levelo_inurba_marseille","lat":43.300017,"lon":5.382647,"is_reserved":false,"is_disabled":false,"rental_uris":{"android":"levelo://app?vid=8fbb9c39-687d-4bd9-900b-fafda04a7f1b","ios":"levelo://app?vid=8fbb9c39-687d-4bd9-900b-fafda04a7f1b"},"vehicle_type_id":"4","last_reported":1722222570,"current_range_meters":5600,"station_id":"","pricing_plan_id":"cebpf4jnsgd1na2vs0mg"},{"bike_id":"787071f6-ecff-407c-b379-e9767c8ba897","system_id":"levelo_inurba_marseille","lat":43.299028,"lon":5.381509,"is_reserved":false,"is_disabled":false,"rental_uris":{"android":"levelo://app?vid=787071f6-ecff-407c-b379-e9767c8ba897","ios":"levelo://app?vid=787071f6-ecff-407c-b379-e9767c8ba897"},"vehicle_type_id":"4","last_reported":1722222570,"current_range_meters":27600,"station_id":"ce4bgj12rcd13ifvqbc0","pricing_plan_id":"cebpf4jnsgd1na2vs0mg"},{"bike_id":"4d7020f3-12eb-4137-bbb3-34c6feef97b2","system_id":"levelo_inurba_marseille","lat":43.299028,"lon":5.381509,"is_reserved":false,"is_disabled":false,"rental_uris":{"android":"levelo://app?vid=4d7020f3-12eb-4137-bbb3-34c6feef97b2","ios":"levelo://app?vid=4d7020f3-12eb-4137-bbb3-34c6feef97b2"},"vehicle_type_id":"4","last_reported":1722222570,"current_range_meters":14400,"station_id":"ce4bgj12rcd13ifvqbc0","pricing_plan_id":"cebpf4jnsgd1na2vs0mg"},{"bike_id":"002bb0d4-6320-4e15-b85c-0cd971d9fe44","system_id":"levelo_inurba_marseille","lat":43.309589,"lon":5.390258,"is_reserved":false,"is_disabled":false,"rental_uris":{"android":"levelo://app?vid=002bb0d4-6320-4e15-b85c-0cd971d9fe44","ios":"levelo://app?vid=002bb0d4-6320-4e15-b85c-0cd971d9fe44"},"vehicle_type_id":"4","last_reported":1722222570,"current_range_meters":28800,"station_id":"ce4bgup2rcd13ifvqco0","pricing_plan_id":"cebpf4jnsgd1na2vs0mg"},{"bike_id":"b02430b2-4a68-4527-b9b6-cc09d309e178","system_id":"levelo_inurba_marseille","lat":43.309589,"lon":5.390258,"is_reserved":false,"is_disabled":false,"rental_uris":{"android":"levelo://app?vid=b02430b2-4a68-4527-b9b6-cc09d309e178","ios":"levelo://app?vid=b02430b2-4a68-4527-b9b6-cc09d309e178"},"vehicle_type_id":"4","last_reported":1722222570,"current_range_meters":29600,"station_id":"ce4bgup2rcd13ifvqco0","pricing_plan_id":"cebpf4jnsgd1na2vs0mg"},{"bike_id":"4f885dca-64ad-48db-93ab-153f577573a5","system_id":"levelo_inurba_marseille","lat":43.309589,"lon":5.390258,"is_reserved":false,"is_disabled":false,"rental_uris":{"android":"levelo://app?vid=4f885dca-64ad-48db-93ab-153f577573a5","ios":"levelo://app?vid=4f885dca-64ad-48db-93ab-153f577573a5"},"vehicle_type_id":"4","last_reported":1722222570,"current_range_meters":10000,"station_id":"ce4bgup2rcd13ifvqco0","pricing_plan_id":"cebpf4jnsgd1na2vs0mg"},{"bike_id":"320f378d-ba69-430b-b669-fd004ae8824b","system_id":"levelo_inurba_marseille","lat":43.309589,"lon":5.390258,"is_reserved":false,"is_disabled":false,"rental_uris":{"android":"levelo://app?vid=320f378d-ba69-430b-b669-fd004ae8824b","ios":"levelo://app?vid=320f378d-ba69-430b-b669-fd004ae8824b"},"vehicle_type_id":"4","last_reported":1722222570,"current_range_meters":30000,"station_id":"ce4bgup2rcd13ifvqco0","pricing_plan_id":"cebpf4jnsgd1na2vs0mg"},{"bike_id":"9eef998c-d76f-431c-bcd1-b661a7d44e98","system_id":"levelo_inurba_marseille","lat":43.231919,"lon":5.355532,"is_reserved":false,"is_disabled":false,"rental_uris":{"android":"levelo://app?vid=9eef998c-d76f-431c-bcd1-b661a7d44e98","ios":"levelo://app?vid=9eef998c-d76f-431c-bcd1-b661a7d44e98"},"vehicle_type_id":"4","last_reported":1722222570,"current_range_meters":31200,"station_id":"ce4bhu92rcd13ifvqi70","pricing_plan_id":"cebpf4jnsgd1na2vs0mg"},{"bike_id":"773ad87e-5b9c-4a05-8112-ef34bbf508a5","system_id":"levelo_inurba_marseille","lat":43.317557,"lon":5.390173,"is_reserved":false,"is_disabled":false,"rental_uris":{"android":"levelo://app?vid=773ad87e-5b9c-4a05-8112-ef34bbf508a5","ios":"levelo://app?vid=773ad87e-5b9c-4a05-8112-ef34bbf508a5"},"vehicle_type_id":"4","last_reported":1722222570,"current_range_meters":29600,"station_id":"ce4bhqp2rcd13ifvqhng","pricing_plan_id":"cebpf4jnsgd1na2vs0mg"},{"bike_id":"ea151fb6-f653-4062-9c69-1edd0e9bbf9c","system_id":"levelo_inurba_marseille","lat":43.31749,"lon":5.39015,"is_reserved":false,"is_disabled":false,"rental_uris":{"android":"levelo://app?vid=ea151fb6-f653-4062-9c69-1edd0e9bbf9c","ios":"levelo://app?vid=ea151fb6-f653-4062-9c69-1edd0e9bbf9c"},"vehicle_type_id":"4","last_reported":1722222570,"current_range_meters":27600,"station_id":"ce4bhqp2rcd13ifvqhng","pricing_plan_id":"cebpf4jnsgd1na2vs0mg"},{"bike_id":"9469f5ee-74f1-42f8-b92e-cb91e35e412f","system_id":"levelo_inurba_marseille","lat":43.317557,"lon":5.390173,"is_reserved":false,"is_disabled":false,"rental_uris":{"android":"levelo://app?vid=9469f5ee-74f1-42f8-b92e-cb91e35e412f","ios":"levelo://app?vid=9469f5ee-74f1-42f8-b92e-cb91e35e412f"},"vehicle_type_id":"4","last_reported":1722222570,"current_range_meters":25600,"station_id":"ce4bhqp2rcd13ifvqhng","pricing_plan_id":"cebpf4jnsgd1na2vs0mg"},{"bike_id":"b5919ff1-c840-4267-82a3-276789f7577a","system_id":"levelo_inurba_marseille","lat":43.317557,"lon":5.390173,"is_reserved":false,"is_disabled":false,"rental_uris":{"android":"levelo://app?vid=b5919ff1-c840-4267-82a3-276789f7577a","ios":"levelo://app?vid=b5919ff1-c840-4267-82a3-276789f7577a"},"vehicle_type_id":"4","last_reported":1722222570,"current_range_meters":27200,"station_id":"ce4bhqp2rcd13ifvqhng","pricing_plan_id":"cebpf4jnsgd1na2vs0mg"},{"bike_id":"9aaadf88-50ce-4e15-844a-b19ba67c0ccf","system_id":"levelo_inurba_marseille","lat":43.317557,"lon":5.390173,"is_reserved":false,"is_disabled":false,"rental_uris":{"android":"levelo://app?vid=9aaadf88-50ce-4e15-844a-b19ba67c0ccf","ios":"levelo://app?vid=9aaadf88-50ce-4e15-844a-b19ba67c0ccf"},"vehicle_type_id":"4","last_reported":1722222570,"current_range_meters":22000,"station_id":"ce4bhqp2rcd13ifvqhng","pricing_plan_id":"cebpf4jnsgd1na2vs0mg"},{"bike_id":"ccc4f216-8df5-48bc-8647-f1e3030ca19b","system_id":"levelo_inurba_marseille","lat":43.317557,"lon":5.390173,"is_reserved":false,"is_disabled":false,"rental_uris":{"android":"levelo://app?vid=ccc4f216-8df5-48bc-8647-f1e3030ca19b","ios":"levelo://app?vid=ccc4f216-8df5-48bc-8647-f1e3030ca19b"},"vehicle_type_id":"4","last_reported":1722222570,"current_range_meters":20400,"station_id":"ce4bhqp2rcd13ifvqhng","pricing_plan_id":"cebpf4jnsgd1na2vs0mg"},{"bike_id":"82dda571-5d66-425f-9a45-956b96fa2fce","system_id":"levelo_inurba_marseille","lat":43.3176,"lon":5.390167,"is_reserved":false,"is_disabled":false,"rental_uris":{"android":"levelo://app?vid=82dda571-5d66-425f-9a45-956b96fa2fce","ios":"levelo://app?vid=82dda571-5d66-425f-9a45-956b96fa2fce"},"vehicle_type_id":"4","last_reported":1722222570,"current_range_meters":30000,"station_id":"ce4bhqp2rcd13ifvqhng","pricing_plan_id":"cebpf4jnsgd1na2vs0mg"},{"bike_id":"b38a7c2a-3c19-4484-9ca0-cb1b85acb456","system_id":"levelo_inurba_marseille","lat":43.317557,"lon":5.390173,"is_reserved":false,"is_disabled":false,"rental_uris":{"android":"levelo://app?vid=b38a7c2a-3c19-4484-9ca0-cb1b85acb456","ios":"levelo://app?vid=b38a7c2a-3c19-4484-9ca0-cb1b85acb456"},"vehicle_type_id":"4","last_reported":1722222570,"current_range_meters":25600,"station_id":"ce4bhqp2rcd13ifvqhng","pricing_plan_id":"cebpf4jnsgd1na2vs0mg"},{"bike_id":"25ef7f69-9de0-4205-9b5a-bf1d8382bfe1","system_id":"levelo_inurba_marseille","lat":43.317557,"lon":5.390173,"is_reserved":false,"is_disabled":false,"rental_uris":{"android":"levelo://app?vid=25ef7f69-9de0-4205-9b5a-bf1d8382bfe1","ios":"levelo://app?vid=25ef7f69-9de0-4205-9b5a-bf1d8382bfe1"},"vehicle_type_id":"4","last_reported":1722222570,"current_range_meters":19200,"station_id":"ce4bhqp2rcd13ifvqhng","pricing_plan_id":"cebpf4jnsgd1na2vs0mg"},{"bike_id":"04d9a27c-8662-401d-9c00-3c26a12db158","system_id":"levelo_inurba_marseille","lat":43.304278,"lon":5.388868,"is_reserved":false,"is_disabled":false,"rental_uris":{"android":"levelo://app?vid=04d9a27c-8662-401d-9c00-3c26a12db158","ios":"levelo://app?vid=04d9a27c-8662-401d-9c00-3c26a12db158"},"vehicle_type_id":"4","last_reported":1722222570,"current_range_meters":31600,"station_id":"ce4bgk12rcd13ifvqbi0","pricing_plan_id":"cebpf4jnsgd1na2vs0mg"},{"bike_id":"74c4feaa-148d-45c9-96ca-7aa16dbf2eed","system_id":"levelo_inurba_marseille","lat":43.3043,"lon":5.38884,"is_reserved":false,"is_disabled":false,"rental_uris":{"android":"levelo://app?vid=74c4feaa-148d-45c9-96ca-7aa16dbf2eed","ios":"levelo://app?vid=74c4feaa-148d-45c9-96ca-7aa16dbf2eed"},"vehicle_type_id":"4","last_reported":1722222570,"current_range_meters":20400,"station_id":"ce4bgk12rcd13ifvqbi0","pricing_plan_id":"cebpf4jnsgd1na2vs0mg"},{"bike_id":"46dee8de-c3db-4969-bc0d-b319bff3b700","system_id":"levelo_inurba_marseille","lat":43.304278,"lon":5.388868,"is_reserved":false,"is_disabled":false,"rental_uris":{"android":"levelo://app?vid=46dee8de-c3db-4969-bc0d-b319bff3b700","ios":"levelo://app?vid=46dee8de-c3db-4969-bc0d-b319bff3b700"},"vehicle_type_id":"4","last_reported":1722222570,"current_range_meters":29600,"station_id":"ce4bgk12rcd13ifvqbi0","pricing_plan_id":"cebpf4jnsgd1na2vs0mg"},{"bike_id":"884ee48e-4446-4413-bc81-c63a2ada8593","system_id":"levelo_inurba_marseille","lat":43.304278,"lon":5.388868,"is_reserved":false,"is_disabled":false,"rental_uris":{"android":"levelo://app?vid=884ee48e-4446-4413-bc81-c63a2ada8593","ios":"levelo://app?vid=884ee48e-4446-4413-bc81-c63a2ada8593"},"vehicle_type_id":"4","last_reported":1722222570,"current_range_meters":26000,"station_id":"ce4bgk12rcd13ifvqbi0","pricing_plan_id":"cebpf4jnsgd1na2vs0mg"},{"bike_id":"8deab0b2-96a7-40b1-9f3e-5607213df132","system_id":"levelo_inurba_marseille","lat":43.322052,"lon":5.389368,"is_reserved":false,"is_disabled":false,"rental_uris":{"android":"levelo://app?vid=8deab0b2-96a7-40b1-9f3e-5607213df132","ios":"levelo://app?vid=8deab0b2-96a7-40b1-9f3e-5607213df132"},"vehicle_type_id":"4","last_reported":1722222570,"current_range_meters":23600,"station_id":"","pricing_plan_id":"cebpf4jnsgd1na2vs0mg"},{"bike_id":"7a99e2f4-8158-4cb7-9d2f-a1566e7557de","system_id":"levelo_inurba_marseille","lat":43.301396,"lon":5.387812,"is_reserved":false,"is_disabled":false,"rental_uris":{"android":"levelo://app?vid=7a99e2f4-8158-4cb7-9d2f-a1566e7557de","ios":"levelo://app?vid=7a99e2f4-8158-4cb7-9d2f-a1566e7557de"},"vehicle_type_id":"4","last_reported":1722222570,"current_range_meters":22800,"station_id":"ce4bghh2rcd13ifvqb60","pricing_plan_id":"cebpf4jnsgd1na2vs0mg"},{"bike_id":"b27e4200-993e-4014-9631-19e4d95316f7","system_id":"levelo_inurba_marseille","lat":43.301396,"lon":5.387812,"is_reserved":false,"is_disabled":false,"rental_uris":{"android":"levelo://app?vid=b27e4200-993e-4014-9631-19e4d95316f7","ios":"levelo://app?vid=b27e4200-993e-4014-9631-19e4d95316f7"},"vehicle_type_id":"4","last_reported":1722222570,"current_range_meters":14800,"station_id":"ce4bghh2rcd13ifvqb60","pricing_plan_id":"cebpf4jnsgd1na2vs0mg"},{"bike_id":"7b4e5ed3-7212-45f8-8b69-d8c4b3f8bcdb","system_id":"levelo_inurba_marseille","lat":43.32367,"lon":5.388836,"is_reserved":false,"is_disabled":false,"rental_uris":{"android":"levelo://app?vid=7b4e5ed3-7212-45f8-8b69-d8c4b3f8bcdb","ios":"levelo://app?vid=7b4e5ed3-7212-45f8-8b69-d8c4b3f8bcdb"},"vehicle_type_id":"4","last_reported":1722222570,"current_range_meters":24000,"station_id":"ce4bhqp2rcd13ifvqhog","pricing_plan_id":"cebpf4jnsgd1na2vs0mg"},{"bike_id":"bcda2da4-3545-4f35-846b-175463b92ba4","system_id":"levelo_inurba_marseille","lat":43.32367,"lon":5.388836,"is_reserved":false,"is_disabled":false,"rental_uris":{"android":"levelo://app?vid=bcda2da4-3545-4f35-846b-175463b92ba4","ios":"levelo://app?vid=bcda2da4-3545-4f35-846b-175463b92ba4"},"vehicle_type_id":"4","last_reported":1722222570,"current_range_meters":22400,"station_id":"ce4bhqp2rcd13ifvqhog","pricing_plan_id":"cebpf4jnsgd1na2vs0mg"},{"bike_id":"54dc018e-9511-4c9c-b376-cd8a979ca73e","system_id":"levelo_inurba_marseille","lat":43.32367,"lon":5.388836,"is_reserved":false,"is_disabled":false,"rental_uris":{"android":"levelo://app?vid=54dc018e-9511-4c9c-b376-cd8a979ca73e","ios":"levelo://app?vid=54dc018e-9511-4c9c-b376-cd8a979ca73e"},"vehicle_type_id":"4","last_reported":1722222570,"current_range_meters":12400,"station_id":"ce4bhqp2rcd13ifvqhog","pricing_plan_id":"cebpf4jnsgd1na2vs0mg"},{"bike_id":"c96a40c0-fbb5-40f7-847f-236867c69378","system_id":"levelo_inurba_marseille","lat":43.32367,"lon":5.388836,"is_reserved":false,"is_disabled":false,"rental_uris":{"android":"levelo://app?vid=c96a40c0-fbb5-40f7-847f-236867c69378","ios":"levelo://app?vid=c96a40c0-fbb5-40f7-847f-236867c69378"},"vehicle_type_id":"4","last_reported":1722222570,"current_range_meters":19600,"station_id":"ce4bhqp2rcd13ifvqhog","pricing_plan_id":"cebpf4jnsgd1na2vs0mg"},{"bike_id":"cb7b9226-7861-4483-9c0a-ce4bd41643e5","system_id":"levelo_inurba_marseille","lat":43.323181,"lon":5.389301,"is_reserved":false,"is_disabled":false,"rental_uris":{"android":"levelo://app?vid=cb7b9226-7861-4483-9c0a-ce4bd41643e5","ios":"levelo://app?vid=cb7b9226-7861-4483-9c0a-ce4bd41643e5"},"vehicle_type_id":"4","last_reported":1722222570,"current_range_meters":17600,"station_id":"","pricing_plan_id":"cebpf4jnsgd1na2vs0mg"},{"bike_id":"7f4e09ee-91bb-473b-9e72-e47ab9457747","system_id":"levelo_inurba_marseille","lat":43.323179,"lon":5.38931,"is_reserved":false,"is_disabled":false,"rental_uris":{"android":"levelo://app?vid=7f4e09ee-91bb-473b-9e72-e47ab9457747","ios":"levelo://app?vid=7f4e09ee-91bb-473b-9e72-e47ab9457747"},"vehicle_type_id":"4","last_reported":1722222570,"current_range_meters":14800,"station_id":"","pricing_plan_id":"cebpf4jnsgd1na2vs0mg"},{"bike_id":"c15b24c4-b77e-49a6-bf53-30269e940a61","system_id":"levelo_inurba_marseille","lat":43.32367,"lon":5.388836,"is_reserved":false,"is_disabled":false,"rental_uris":{"android":"levelo://app?vid=c15b24c4-b77e-49a6-bf53-30269e940a61","ios":"levelo://app?vid=c15b24c4-b77e-49a6-bf53-30269e940a61"},"vehicle_type_id":"4","last_reported":1722222570,"current_range_meters":6400,"station_id":"ce4bhqp2rcd13ifvqhog","pricing_plan_id":"cebpf4jnsgd1na2vs0mg"},{"bike_id":"41973b53-1104-4bd8-8027-41d459eafe72","system_id":"levelo_inurba_marseille","lat":43.32367,"lon":5.388836,"is_reserved":false,"is_disabled":false,"rental_uris":{"android":"levelo://app?vid=41973b53-1104-4bd8-8027-41d459eafe72","ios":"levelo://app?vid=41973b53-1104-4bd8-8027-41d459eafe72"},"vehicle_type_id":"4","last_reported":1722222570,"current_range_meters":22400,"station_id":"ce4bhqp2rcd13ifvqhog","pricing_plan_id":"cebpf4jnsgd1na2vs0mg"},{"bike_id":"fff9ce80-e3a6-4300-a750-f133cdb858c3","system_id":"levelo_inurba_marseille","lat":43.29351,"lon":5.37132,"is_reserved":false,"is_disabled":false,"rental_uris":{"android":"levelo://app?vid=fff9ce80-e3a6-4300-a750-f133cdb858c3","ios":"levelo://app?vid=fff9ce80-e3a6-4300-a750-f133cdb858c3"},"vehicle_type_id":"4","last_reported":1722222570,"current_range_meters":8400,"station_id":"","pricing_plan_id":"cebpf4jnsgd1na2vs0mg"},{"bike_id":"74b44f0d-975a-427c-b4d4-73d83c0672c9","system_id":"levelo_inurba_marseille","lat":43.29602,"lon":5.381084,"is_reserved":false,"is_disabled":false,"rental_uris":{"android":"levelo://app?vid=74b44f0d-975a-427c-b4d4-73d83c0672c9","ios":"levelo://app?vid=74b44f0d-975a-427c-b4d4-73d83c0672c9"},"vehicle_type_id":"4","last_reported":1722222570,"current_range_meters":20800,"station_id":"ce4bgl12rcd13ifvqbo0","pricing_plan_id":"cebpf4jnsgd1na2vs0mg"},{"bike_id":"89c626f8-f5f8-4184-9855-78c8b0f4562c","system_id":"levelo_inurba_marseille","lat":43.305987,"lon":5.39353,"is_reserved":false,"is_disabled":false,"rental_uris":{"android":"levelo://app?vid=89c626f8-f5f8-4184-9855-78c8b0f4562c","ios":"levelo://app?vid=89c626f8-f5f8-4184-9855-78c8b0f4562c"},"vehicle_type_id":"4","last_reported":1722222570,"current_range_meters":29600,"station_id":"ce4bh0p2rcd13ifvqd80","pricing_plan_id":"cebpf4jnsgd1na2vs0mg"},{"bike_id":"5935e556-9bdd-4275-96a5-d120b58ba933","system_id":"levelo_inurba_marseille","lat":43.306071,"lon":5.393598,"is_reserved":false,"is_disabled":false,"rental_uris":{"android":"levelo://app?vid=5935e556-9bdd-4275-96a5-d120b58ba933","ios":"levelo://app?vid=5935e556-9bdd-4275-96a5-d120b58ba933"},"vehicle_type_id":"4","last_reported":1722222570,"current_range_meters":26400,"station_id":"ce4bh0p2rcd13ifvqd80","pricing_plan_id":"cebpf4jnsgd1na2vs0mg"},{"bike_id":"5e7953a1-b667-4fc5-a624-53415d374886","system_id":"levelo_inurba_marseille","lat":43.305903,"lon":5.39353,"is_reserved":false,"is_disabled":false,"rental_uris":{"android":"levelo://app?vid=5e7953a1-b667-4fc5-a624-53415d374886","ios":"levelo://app?vid=5e7953a1-b667-4fc5-a624-53415d374886"},"vehicle_type_id":"4","last_reported":1722222570,"current_range_meters":23200,"station_id":"ce4bh0p2rcd13ifvqd80","pricing_plan_id":"cebpf4jnsgd1na2vs0mg"},{"bike_id":"a550713f-fbb3-4da0-9609-a48221940660","system_id":"levelo_inurba_marseille","lat":43.303002,"lon":5.392142,"is_reserved":false,"is_disabled":false,"rental_uris":{"android":"levelo://app?vid=a550713f-fbb3-4da0-9609-a48221940660","ios":"levelo://app?vid=a550713f-fbb3-4da0-9609-a48221940660"},"vehicle_type_id":"4","last_reported":1722222570,"current_range_meters":19200,"station_id":"ce4bgkh2rcd13ifvqbk0","pricing_plan_id":"cebpf4jnsgd1na2vs0mg"},{"bike_id":"75e3099a-a387-4595-b2b2-39b621eeaa9d","system_id":"levelo_inurba_marseille","lat":43.303,"lon":5.39208,"is_reserved":false,"is_disabled":false,"rental_uris":{"android":"levelo://app?vid=75e3099a-a387-4595-b2b2-39b621eeaa9d","ios":"levelo://app?vid=75e3099a-a387-4595-b2b2-39b621eeaa9d"},"vehicle_type_id":"4","last_reported":1722222570,"current_range_meters":13600,"station_id":"ce4bgkh2rcd13ifvqbk0","pricing_plan_id":"cebpf4jnsgd1na2vs0mg"},{"bike_id":"78f2d7ac-619d-437f-b662-b41e5920dd87","system_id":"levelo_inurba_marseille","lat":43.302992,"lon":5.392136,"is_reserved":false,"is_disabled":false,"rental_uris":{"android":"levelo://app?vid=78f2d7ac-619d-437f-b662-b41e5920dd87","ios":"levelo://app?vid=78f2d7ac-619d-437f-b662-b41e5920dd87"},"vehicle_type_id":"4","last_reported":1722222570,"current_range_meters":5200,"station_id":"ce4bgkh2rcd13ifvqbk0","pricing_plan_id":"cebpf4jnsgd1na2vs0mg"},{"bike_id":"d8763617-0ff2-4966-859f-7ef538361000","system_id":"levelo_inurba_marseille","lat":43.303002,"lon":5.392142,"is_reserved":false,"is_disabled":false,"rental_uris":{"android":"levelo://app?vid=d8763617-0ff2-4966-859f-7ef538361000","ios":"levelo://app?vid=d8763617-0ff2-4966-859f-7ef538361000"},"vehicle_type_id":"4","last_reported":1722222570,"current_range_meters":23600,"station_id":"ce4bgkh2rcd13ifvqbk0","pricing_plan_id":"cebpf4jnsgd1na2vs0mg"},{"bike_id":"09125dcb-f5b6-4485-a993-65fdfff8e06e","system_id":"levelo_inurba_marseille","lat":43.302992,"lon":5.392136,"is_reserved":false,"is_disabled":false,"rental_uris":{"android":"levelo://app?vid=09125dcb-f5b6-4485-a993-65fdfff8e06e","ios":"levelo://app?vid=09125dcb-f5b6-4485-a993-65fdfff8e06e"},"vehicle_type_id":"4","last_reported":1722222570,"current_range_meters":32000,"station_id":"ce4bgkh2rcd13ifvqbk0","pricing_plan_id":"cebpf4jnsgd1na2vs0mg"},{"bike_id":"94c3a07c-ea64-49b5-934a-a8596562c102","system_id":"levelo_inurba_marseille","lat":43.302992,"lon":5.392136,"is_reserved":false,"is_disabled":false,"rental_uris":{"android":"levelo://app?vid=94c3a07c-ea64-49b5-934a-a8596562c102","ios":"levelo://app?vid=94c3a07c-ea64-49b5-934a-a8596562c102"},"vehicle_type_id":"4","last_reported":1722222570,"current_range_meters":29600,"station_id":"ce4bgkh2rcd13ifvqbk0","pricing_plan_id":"cebpf4jnsgd1na2vs0mg"},{"bike_id":"0f31fe3f-47b6-4af9-a7bd-c3a3d0738f50","system_id":"levelo_inurba_marseille","lat":43.2936,"lon":5.37835,"is_reserved":false,"is_disabled":false,"rental_uris":{"android":"levelo://app?vid=0f31fe3f-47b6-4af9-a7bd-c3a3d0738f50","ios":"levelo://app?vid=0f31fe3f-47b6-4af9-a7bd-c3a3d0738f50"},"vehicle_type_id":"4","last_reported":1722222570,"current_range_meters":30000,"station_id":"ce4bgjh2rcd13ifvqbf0","pricing_plan_id":"cebpf4jnsgd1na2vs0mg"},{"bike_id":"033662f6-5c29-4e66-9b58-6eef9bc3ec68","system_id":"levelo_inurba_marseille","lat":43.30094,"lon":5.390703,"is_reserved":false,"is_disabled":false,"rental_uris":{"android":"levelo://app?vid=033662f6-5c29-4e66-9b58-6eef9bc3ec68","ios":"levelo://app?vid=033662f6-5c29-4e66-9b58-6eef9bc3ec68"},"vehicle_type_id":"4","last_reported":1722222570,"current_range_meters":6000,"station_id":"ce4bh192rcd13ifvqdb0","pricing_plan_id":"cebpf4jnsgd1na2vs0mg"},{"bike_id":"82efe077-5128-41a7-867f-a697279c7b94","system_id":"levelo_inurba_marseille","lat":43.30085,"lon":5.390856,"is_reserved":false,"is_disabled":false,"rental_uris":{"android":"levelo://app?vid=82efe077-5128-41a7-867f-a697279c7b94","ios":"levelo://app?vid=82efe077-5128-41a7-867f-a697279c7b94"},"vehicle_type_id":"4","last_reported":1722222570,"current_range_meters":15600,"station_id":"ce4bh192rcd13ifvqdb0","pricing_plan_id":"cebpf4jnsgd1na2vs0mg"},{"bike_id":"66a2b585-4e4c-4bd6-896b-5ca8080137db","system_id":"levelo_inurba_marseille","lat":43.30085,"lon":5.390856,"is_reserved":false,"is_disabled":false,"rental_uris":{"android":"levelo://app?vid=66a2b585-4e4c-4bd6-896b-5ca8080137db","ios":"levelo://app?vid=66a2b585-4e4c-4bd6-896b-5ca8080137db"},"vehicle_type_id":"4","last_reported":1722222570,"current_range_meters":31600,"station_id":"ce4bh192rcd13ifvqdb0","pricing_plan_id":"cebpf4jnsgd1na2vs0mg"},{"bike_id":"0f2461ed-c152-47d5-afe7-910e2f7af6c1","system_id":"levelo_inurba_marseille","lat":43.29204,"lon":5.35809,"is_reserved":false,"is_disabled":false,"rental_uris":{"android":"levelo://app?vid=0f2461ed-c152-47d5-afe7-910e2f7af6c1","ios":"levelo://app?vid=0f2461ed-c152-47d5-afe7-910e2f7af6c1"},"vehicle_type_id":"4","last_reported":1722222570,"current_range_meters":0,"station_id":"ce4bhb12rcd13ifvqel0","pricing_plan_id":"cebpf4jnsgd1na2vs0mg"},{"bike_id":"d1c09c3b-aa9a-4c16-9aa3-a31c14e2e2f2","system_id":"levelo_inurba_marseille","lat":43.309047,"lon":5.396551,"is_reserved":false,"is_disabled":false,"rental_uris":{"android":"levelo://app?vid=d1c09c3b-aa9a-4c16-9aa3-a31c14e2e2f2","ios":"levelo://app?vid=d1c09c3b-aa9a-4c16-9aa3-a31c14e2e2f2"},"vehicle_type_id":"4","last_reported":1722222570,"current_range_meters":31200,"station_id":"ce4bh012rcd13ifvqcv0","pricing_plan_id":"cebpf4jnsgd1na2vs0mg"},{"bike_id":"6fd27ce9-d46c-4fe3-9410-11f6614b74e4","system_id":"levelo_inurba_marseille","lat":43.309038,"lon":5.396546,"is_reserved":false,"is_disabled":false,"rental_uris":{"android":"levelo://app?vid=6fd27ce9-d46c-4fe3-9410-11f6614b74e4","ios":"levelo://app?vid=6fd27ce9-d46c-4fe3-9410-11f6614b74e4"},"vehicle_type_id":"4","last_reported":1722222570,"current_range_meters":23600,"station_id":"ce4bh012rcd13ifvqcv0","pricing_plan_id":"cebpf4jnsgd1na2vs0mg"},{"bike_id":"9ce061f4-f747-4d79-84de-58aabdf4312b","system_id":"levelo_inurba_marseille","lat":43.309038,"lon":5.396546,"is_reserved":false,"is_disabled":false,"rental_uris":{"android":"levelo://app?vid=9ce061f4-f747-4d79-84de-58aabdf4312b","ios":"levelo://app?vid=9ce061f4-f747-4d79-84de-58aabdf4312b"},"vehicle_type_id":"4","last_reported":1722222570,"current_range_meters":28400,"station_id":"ce4bh012rcd13ifvqcv0","pricing_plan_id":"cebpf4jnsgd1na2vs0mg"},{"bike_id":"e4b7141e-8ab5-4025-a0f4-b96a1862dffe","system_id":"levelo_inurba_marseille","lat":43.313291,"lon":5.396838,"is_reserved":false,"is_disabled":false,"rental_uris":{"android":"levelo://app?vid=e4b7141e-8ab5-4025-a0f4-b96a1862dffe","ios":"levelo://app?vid=e4b7141e-8ab5-4025-a0f4-b96a1862dffe"},"vehicle_type_id":"4","last_reported":1722222570,"current_range_meters":24400,"station_id":"ce4bgvp2rcd13ifvqcu0","pricing_plan_id":"cebpf4jnsgd1na2vs0mg"},{"bike_id":"c7401dd2-6676-44aa-acf6-b484cbe4ff59","system_id":"levelo_inurba_marseille","lat":43.313291,"lon":5.396838,"is_reserved":false,"is_disabled":false,"rental_uris":{"android":"levelo://app?vid=c7401dd2-6676-44aa-acf6-b484cbe4ff59","ios":"levelo://app?vid=c7401dd2-6676-44aa-acf6-b484cbe4ff59"},"vehicle_type_id":"4","last_reported":1722222570,"current_range_meters":6000,"station_id":"ce4bgvp2rcd13ifvqcu0","pricing_plan_id":"cebpf4jnsgd1na2vs0mg"},{"bike_id":"27f90540-6e5f-4a66-aace-cff85b20204a","system_id":"levelo_inurba_marseille","lat":43.309038,"lon":5.396546,"is_reserved":false,"is_disabled":false,"rental_uris":{"android":"levelo://app?vid=27f90540-6e5f-4a66-aace-cff85b20204a","ios":"levelo://app?vid=27f90540-6e5f-4a66-aace-cff85b20204a"},"vehicle_type_id":"4","last_reported":1722222570,"current_range_meters":10400,"station_id":"ce4bh012rcd13ifvqcv0","pricing_plan_id":"cebpf4jnsgd1na2vs0mg"},{"bike_id":"3349778a-c2f2-4e4c-8bb7-db2302103e63","system_id":"levelo_inurba_marseille","lat":43.313291,"lon":5.396838,"is_reserved":false,"is_disabled":false,"rental_uris":{"android":"levelo://app?vid=3349778a-c2f2-4e4c-8bb7-db2302103e63","ios":"levelo://app?vid=3349778a-c2f2-4e4c-8bb7-db2302103e63"},"vehicle_type_id":"4","last_reported":1722222570,"current_range_meters":31200,"station_id":"ce4bgvp2rcd13ifvqcu0","pricing_plan_id":"cebpf4jnsgd1na2vs0mg"},{"bike_id":"434ba1fe-4805-4b40-8474-7d593ec51f26","system_id":"levelo_inurba_marseille","lat":43.309038,"lon":5.396546,"is_reserved":false,"is_disabled":false,"rental_uris":{"android":"levelo://app?vid=434ba1fe-4805-4b40-8474-7d593ec51f26","ios":"levelo://app?vid=434ba1fe-4805-4b40-8474-7d593ec51f26"},"vehicle_type_id":"4","last_reported":1722222570,"current_range_meters":16800,"station_id":"ce4bh012rcd13ifvqcv0","pricing_plan_id":"cebpf4jnsgd1na2vs0mg"},{"bike_id":"57c3c26c-87c3-4fd8-be31-2be14d6d6e5e","system_id":"levelo_inurba_marseille","lat":43.313291,"lon":5.396838,"is_reserved":false,"is_disabled":false,"rental_uris":{"android":"levelo://app?vid=57c3c26c-87c3-4fd8-be31-2be14d6d6e5e","ios":"levelo://app?vid=57c3c26c-87c3-4fd8-be31-2be14d6d6e5e"},"vehicle_type_id":"4","last_reported":1722222570,"current_range_meters":7200,"station_id":"ce4bgvp2rcd13ifvqcu0","pricing_plan_id":"cebpf4jnsgd1na2vs0mg"},{"bike_id":"1a7aa20b-8ede-4465-874a-4b320c5eb1c5","system_id":"levelo_inurba_marseille","lat":43.309038,"lon":5.396546,"is_reserved":false,"is_disabled":false,"rental_uris":{"android":"levelo://app?vid=1a7aa20b-8ede-4465-874a-4b320c5eb1c5","ios":"levelo://app?vid=1a7aa20b-8ede-4465-874a-4b320c5eb1c5"},"vehicle_type_id":"4","last_reported":1722222570,"current_range_meters":31600,"station_id":"ce4bh012rcd13ifvqcv0","pricing_plan_id":"cebpf4jnsgd1na2vs0mg"},{"bike_id":"c394fe6c-a981-4b3e-bb5a-9cba3501c2d5","system_id":"levelo_inurba_marseille","lat":43.313291,"lon":5.396838,"is_reserved":false,"is_disabled":false,"rental_uris":{"android":"levelo://app?vid=c394fe6c-a981-4b3e-bb5a-9cba3501c2d5","ios":"levelo://app?vid=c394fe6c-a981-4b3e-bb5a-9cba3501c2d5"},"vehicle_type_id":"4","last_reported":1722222570,"current_range_meters":31200,"station_id":"ce4bgvp2rcd13ifvqcu0","pricing_plan_id":"cebpf4jnsgd1na2vs0mg"},{"bike_id":"4ee235b5-6d80-413f-924f-0edb5057f25b","system_id":"levelo_inurba_marseille","lat":43.309038,"lon":5.396546,"is_reserved":false,"is_disabled":false,"rental_uris":{"android":"levelo://app?vid=4ee235b5-6d80-413f-924f-0edb5057f25b","ios":"levelo://app?vid=4ee235b5-6d80-413f-924f-0edb5057f25b"},"vehicle_type_id":"4","last_reported":1722222570,"current_range_meters":13600,"station_id":"ce4bh012rcd13ifvqcv0","pricing_plan_id":"cebpf4jnsgd1na2vs0mg"},{"bike_id":"2cb98afd-90e8-4b30-8c11-b99a9437afa2","system_id":"levelo_inurba_marseille","lat":43.313291,"lon":5.396838,"is_reserved":false,"is_disabled":false,"rental_uris":{"android":"levelo://app?vid=2cb98afd-90e8-4b30-8c11-b99a9437afa2","ios":"levelo://app?vid=2cb98afd-90e8-4b30-8c11-b99a9437afa2"},"vehicle_type_id":"4","last_reported":1722222570,"current_range_meters":31600,"station_id":"ce4bgvp2rcd13ifvqcu0","pricing_plan_id":"cebpf4jnsgd1na2vs0mg"},{"bike_id":"0037d1a7-6f68-4a15-9f2c-1de371183317","system_id":"levelo_inurba_marseille","lat":43.313291,"lon":5.396838,"is_reserved":false,"is_disabled":false,"rental_uris":{"android":"levelo://app?vid=0037d1a7-6f68-4a15-9f2c-1de371183317","ios":"levelo://app?vid=0037d1a7-6f68-4a15-9f2c-1de371183317"},"vehicle_type_id":"4","last_reported":1722222570,"current_range_meters":31200,"station_id":"ce4bgvp2rcd13ifvqcu0","pricing_plan_id":"cebpf4jnsgd1na2vs0mg"},{"bike_id":"086d5d76-aecb-4cf4-b7a9-5fb469ec96f2","system_id":"levelo_inurba_marseille","lat":43.313291,"lon":5.396838,"is_reserved":false,"is_disabled":false,"rental_uris":{"android":"levelo://app?vid=086d5d76-aecb-4cf4-b7a9-5fb469ec96f2","ios":"levelo://app?vid=086d5d76-aecb-4cf4-b7a9-5fb469ec96f2"},"vehicle_type_id":"4","last_reported":1722222570,"current_range_meters":31200,"station_id":"ce4bgvp2rcd13ifvqcu0","pricing_plan_id":"cebpf4jnsgd1na2vs0mg"},{"bike_id":"b7d45030-35cd-48c8-b486-7c61b0b90234","system_id":"levelo_inurba_marseille","lat":43.313291,"lon":5.396838,"is_reserved":false,"is_disabled":false,"rental_uris":{"android":"levelo://app?vid=b7d45030-35cd-48c8-b486-7c61b0b90234","ios":"levelo://app?vid=b7d45030-35cd-48c8-b486-7c61b0b90234"},"vehicle_type_id":"4","last_reported":1722222570,"current_range_meters":23200,"station_id":"ce4bgvp2rcd13ifvqcu0","pricing_plan_id":"cebpf4jnsgd1na2vs0mg"},{"bike_id":"d68343a2-eb78-4ad3-b9c0-8efc65a42649","system_id":"levelo_inurba_marseille","lat":43.313291,"lon":5.396838,"is_reserved":false,"is_disabled":false,"rental_uris":{"android":"levelo://app?vid=d68343a2-eb78-4ad3-b9c0-8efc65a42649","ios":"levelo://app?vid=d68343a2-eb78-4ad3-b9c0-8efc65a42649"},"vehicle_type_id":"4","last_reported":1722222570,"current_range_meters":19600,"station_id":"ce4bgvp2rcd13ifvqcu0","pricing_plan_id":"cebpf4jnsgd1na2vs0mg"},{"bike_id":"cd06a6b6-8779-4edc-9405-6996a39337d5","system_id":"levelo_inurba_marseille","lat":43.313291,"lon":5.396838,"is_reserved":false,"is_disabled":false,"rental_uris":{"android":"levelo://app?vid=cd06a6b6-8779-4edc-9405-6996a39337d5","ios":"levelo://app?vid=cd06a6b6-8779-4edc-9405-6996a39337d5"},"vehicle_type_id":"4","last_reported":1722222570,"current_range_meters":7600,"station_id":"ce4bgvp2rcd13ifvqcu0","pricing_plan_id":"cebpf4jnsgd1na2vs0mg"},{"bike_id":"43bc0fb9-4fcc-4435-9348-a86bb5ec873c","system_id":"levelo_inurba_marseille","lat":43.309038,"lon":5.396546,"is_reserved":false,"is_disabled":false,"rental_uris":{"android":"levelo://app?vid=43bc0fb9-4fcc-4435-9348-a86bb5ec873c","ios":"levelo://app?vid=43bc0fb9-4fcc-4435-9348-a86bb5ec873c"},"vehicle_type_id":"4","last_reported":1722222570,"current_range_meters":25600,"station_id":"ce4bh012rcd13ifvqcv0","pricing_plan_id":"cebpf4jnsgd1na2vs0mg"},{"bike_id":"cc6e4641-f928-4531-b854-6bc797fa58a6","system_id":"levelo_inurba_marseille","lat":43.313361,"lon":5.396957,"is_reserved":false,"is_disabled":false,"rental_uris":{"android":"levelo://app?vid=cc6e4641-f928-4531-b854-6bc797fa58a6","ios":"levelo://app?vid=cc6e4641-f928-4531-b854-6bc797fa58a6"},"vehicle_type_id":"4","last_reported":1722222570,"current_range_meters":6400,"station_id":"ce4bgvp2rcd13ifvqcu0","pricing_plan_id":"cebpf4jnsgd1na2vs0mg"},{"bike_id":"4391512c-33c2-40be-b762-2c6c9f8a3ad6","system_id":"levelo_inurba_marseille","lat":43.309038,"lon":5.396546,"is_reserved":false,"is_disabled":false,"rental_uris":{"android":"levelo://app?vid=4391512c-33c2-40be-b762-2c6c9f8a3ad6","ios":"levelo://app?vid=4391512c-33c2-40be-b762-2c6c9f8a3ad6"},"vehicle_type_id":"4","last_reported":1722222570,"current_range_meters":31200,"station_id":"ce4bh012rcd13ifvqcv0","pricing_plan_id":"cebpf4jnsgd1na2vs0mg"},{"bike_id":"19cf3bf2-dda4-4e70-b5a2-67ce35edf70a","system_id":"levelo_inurba_marseille","lat":43.309038,"lon":5.396546,"is_reserved":false,"is_disabled":false,"rental_uris":{"android":"levelo://app?vid=19cf3bf2-dda4-4e70-b5a2-67ce35edf70a","ios":"levelo://app?vid=19cf3bf2-dda4-4e70-b5a2-67ce35edf70a"},"vehicle_type_id":"4","last_reported":1722222570,"current_range_meters":3600,"station_id":"ce4bh012rcd13ifvqcv0","pricing_plan_id":"cebpf4jnsgd1na2vs0mg"},{"bike_id":"db52d9eb-98ac-41c2-94fe-60df815f1501","system_id":"levelo_inurba_marseille","lat":43.313291,"lon":5.396838,"is_reserved":false,"is_disabled":false,"rental_uris":{"android":"levelo://app?vid=db52d9eb-98ac-41c2-94fe-60df815f1501","ios":"levelo://app?vid=db52d9eb-98ac-41c2-94fe-60df815f1501"},"vehicle_type_id":"4","last_reported":1722222570,"current_range_meters":29600,"station_id":"ce4bgvp2rcd13ifvqcu0","pricing_plan_id":"cebpf4jnsgd1na2vs0mg"},{"bike_id":"91472e9c-d64f-4b84-a23a-1aa63efa10ac","system_id":"levelo_inurba_marseille","lat":43.313291,"lon":5.396838,"is_reserved":false,"is_disabled":false,"rental_uris":{"android":"levelo://app?vid=91472e9c-d64f-4b84-a23a-1aa63efa10ac","ios":"levelo://app?vid=91472e9c-d64f-4b84-a23a-1aa63efa10ac"},