{"last_updated":1762596582,"ttl":60,"version":"2.2","data":{"bikes":[{"bike_id":"78c6e346-1aec-4c47-995a-12f501d375dc","system_id":"levelo_inurba_marseille","lat":43.28153,"lon":5.42631,"is_reserved":false,"is_disabled":false,"rental_uris":{"android":"levelo://app?vid=78c6e346-1aec-4c47-995a-12f501d375dc","ios":"levelo://app?vid=78c6e346-1aec-4c47-995a-12f501d375dc"},"vehicle_type_id":"4","last_reported":1762596582,"current_range_meters":2800,"station_id":"ce4bhnh2rcd13ifvqgug","pricing_plan_id":"cebpf4jnsgd1na2vs0mg"},{"bike_id":"9ba0509c-e480-435a-a9dd-b4dc36ec7f62","system_id":"levelo_inurba_marseille","lat":43.29307,"lon":5.39424,"is_reserved":false,"is_disabled":false,"rental_uris":{"android":"levelo://app?vid=9ba0509c-e480-435a-a9dd-b4dc36ec7f62","ios":"levelo://app?vid=9ba0509c-e480-435a-a9dd-b4dc36ec7f62"},"vehicle_type_id":"4","last_reported":1762596582,"current_range_meters":2800,"station_id":"","pricing_plan_id":"cebpf4jnsgd1na2vs0mg"},{"bike_id":"46194fa9-6f7d-4625-a1a5-88ef7031e1e0","system_id":"levelo_inurba_marseille","lat":43.2621,"lon":5.37443,"is_reserved":false,"is_disabled":false,"rental_uris":{"android":"levelo://app?vid=46194fa9-6f7d-4625-a1a5-88ef7031e1e0","ios":"levelo://app?vid=46194fa9-6f7d-4625-a1a5-88ef7031e1e0"},"vehicle_type_id":"4","last_reported":1762596582,"current_range_meters":3200,"station_id":"ce4bhgp2rcd13ifvqfc0","pricing_plan_id":"cebpf4jnsgd1na2vs0mg"},{"bike_id":"a9209167-81d7-40c2-9e2e-d551de1eeaf3","system_id":"levelo_inurba_marseille","lat":43.30653,"lon":5.3735,"is_reserved":false,"is_disabled":false,"rental_uris":{"android":"levelo://app?vid=a9209167-81d7-40c2-9e2e-d551de1eeaf3","ios":"levelo://app?vid=a9209167-81d7-40c2-9e2e-d551de1eeaf3"},"vehicle_type_id":"4","last_reported":1762596582,"current_range_meters":3600,"station_id":"","pricing_plan_id":"cebpf4jnsgd1na2vs0mg"},{"bike_id":"aa073d3c-91f3-4920-9d1e-90bf82850b1e","system_id":"levelo_inurba_marseille","lat":43.33779,"lon":5.37442,"is_reserved":false,"is_disabled":false,"rental_uris":{"android":"levelo://app?vid=aa073d3c-91f3-4920-9d1e-90bf82850b1e","ios":"levelo://app?vid=aa073d3c-91f3-4920-9d1e-90bf82850b1e"},"vehicle_type_id":"4","last_reported":1762596582,"current_range_meters":4000,"station_id":"","pricing_plan_id":"cebpf4jnsgd1na2vs0mg"},{"bike_id":"bc9a55eb-c20b-454d-9da8-0f1718438310","system_id":"levelo_inurba_marseille","lat":43.30809,"lon":5.43535,"is_reserved":false,"is_disabled":true,"rental_uris":{"android":"levelo://app?vid=bc9a55eb-c20b-454d-9da8-0f1718438310","ios":"levelo://app?vid=bc9a55eb-c20b-454d-9da8-0f1718438310"},"vehicle_type_id":"4","last_reported":1762596582,"current_range_meters":4800,"station_id":"","pricing_plan_id":"cebpf4jnsgd1na2vs0mg"},{"bike_id":"58cd686b-c1f9-4939-bce5-bfb9173e1e34","system_id":"levelo_inurba_marseille","lat":43.26026,"lon":5.37549,"is_reserved":false,"is_disabled":false,"rental_uris":{"android":"levelo://app?vid=58cd686b-c1f9-4939-bce5-bfb9173e1e34","ios":"levelo://app?vid=58cd686b-c1f9-4939-bce5-bfb9173e1e34"},"vehicle_type_id":"4","last_reported":1762596582,"current_range_meters":4800,"station_id":"ce4bhgh2rcd13ifvqfa0","pricing_plan_id":"cebpf4jnsgd1na2vs0mg"},{"bike_id":"759ffaf6-e2ca-49b5-aac1-0bc4e1e02db6","system_id":"levelo_inurba_marseille","lat":43.26971,"lon":5.38629,"is_reserved":false,"is_disabled":false,"rental_uris":{"android":"levelo://app?vid=759ffaf6-e2ca-49b5-aac1-0bc4e1e02db6","ios":"levelo://app?vid=759ffaf6-e2ca-49b5-aac1-0bc4e1e02db6"},"vehicle_type_id":"4","last_reported":1762596582,"current_range_meters":4800,"station_id":"ce4bhh92rcd13ifvqfh0","pricing_plan_id":"cebpf4jnsgd1na2vs0mg"},{"bike_id":"30d0636f-8419-4f77-bdad-f86c5da21cc3","system_id":"levelo_inurba_marseille","lat":43.28478,"lon":5.38402,"is_reserved":false,"is_disabled":false,"rental_uris":{"android":"levelo://app?vid=30d0636f-8419-4f77-bdad-f86c5da21cc3","ios":"levelo://app?vid=30d0636f-8419-4f77-bdad-f86c5da21cc3"},"vehicle_type_id":"4","last_reported":1762596582,"current_range_meters":5600,"station_id":"ce4bh512rcd13ifvqe3g","pricing_plan_id":"cebpf4jnsgd1na2vs0mg"},{"bike_id":"f04b790f-cbe3-4738-8c85-32c3e8a8ec4b","system_id":"levelo_inurba_marseille","lat":43.2923,"lon":5.3608,"is_reserved":false,"is_disabled":false,"rental_uris":{"android":"levelo://app?vid=f04b790f-cbe3-4738-8c85-32c3e8a8ec4b","ios":"levelo://app?vid=f04b790f-cbe3-4738-8c85-32c3e8a8ec4b"},"vehicle_type_id":"4","last_reported":1762596582,"current_range_meters":5600,"station_id":"ce4bhbh2rcd13ifvqeqg","pricing_plan_id":"cebpf4jnsgd1na2vs0mg"},{"bike_id":"32c4054d-c111-4f1c-b188-9138aed42210","system_id":"levelo_inurba_marseille","lat":43.319755,"lon":5.415726,"is_reserved":false,"is_disabled":false,"rental_uris":{"android":"levelo://app?vid=32c4054d-c111-4f1c-b188-9138aed42210","ios":"levelo://app?vid=32c4054d-c111-4f1c-b188-9138aed42210"},"vehicle_type_id":"4","last_reported":1762596582,"current_range_meters":5600,"station_id":"","pricing_plan_id":"cebpf4jnsgd1na2vs0mg"},{"bike_id":"59b31ef2-3fe3-46e5-b5a5-685f264695ce","system_id":"levelo_inurba_marseille","lat":43.28479,"lon":5.48391,"is_reserved":false,"is_disabled":false,"rental_uris":{"android":"levelo://app?vid=59b31ef2-3fe3-46e5-b5a5-685f264695ce","ios":"levelo://app?vid=59b31ef2-3fe3-46e5-b5a5-685f264695ce"},"vehicle_type_id":"4","last_reported":1762596582,"current_range_meters":5600,"station_id":"","pricing_plan_id":"cebpf4jnsgd1na2vs0mg"},{"bike_id":"dc8e2380-63bf-4f7c-aa2d-d2919632f5f6","system_id":"levelo_inurba_marseille","lat":43.28854,"lon":5.39307,"is_reserved":false,"is_disabled":false,"rental_uris":{"android":"levelo://app?vid=dc8e2380-63bf-4f7c-aa2d-d2919632f5f6","ios":"levelo://app?vid=dc8e2380-63bf-4f7c-aa2d-d2919632f5f6"},"vehicle_type_id":"4","last_reported":1762596582,"current_range_meters":5600,"station_id":"ce4bh2p2rcd13ifvqdi0","pricing_plan_id":"cebpf4jnsgd1na2vs0mg"},{"bike_id":"0af68915-ce6b-4dc3-b6fb-b1058b8a275a","system_id":"levelo_inurba_marseille","lat":43.336035,"lon":5.410347,"is_reserved":false,"is_disabled":false,"rental_uris":{"android":"levelo://app?vid=0af68915-ce6b-4dc3-b6fb-b1058b8a275a","ios":"levelo://app?vid=0af68915-ce6b-4dc3-b6fb-b1058b8a275a"},"vehicle_type_id":"4","last_reported":1762596582,"current_range_meters":5600,"station_id":"ce4bhqh2rcd13ifvqhmg","pricing_plan_id":"cebpf4jnsgd1na2vs0mg"},{"bike_id":"ab3a4d6b-b442-44b9-8f02-c1c222f445ba","system_id":"levelo_inurba_marseille","lat":43.27475,"lon":5.39278,"is_reserved":false,"is_disabled":false,"rental_uris":{"android":"levelo://app?vid=ab3a4d6b-b442-44b9-8f02-c1c222f445ba","ios":"levelo://app?vid=ab3a4d6b-b442-44b9-8f02-c1c222f445ba"},"vehicle_type_id":"4","last_reported":1762596582,"current_range_meters":6000,"station_id":"","pricing_plan_id":"cebpf4jnsgd1na2vs0mg"},{"bike_id":"7ce68e08-b7a6-401d-8428-5130cc41d08b","system_id":"levelo_inurba_marseille","lat":43.29977,"lon":5.37169,"is_reserved":false,"is_disabled":false,"rental_uris":{"android":"levelo://app?vid=7ce68e08-b7a6-401d-8428-5130cc41d08b","ios":"levelo://app?vid=7ce68e08-b7a6-401d-8428-5130cc41d08b"},"vehicle_type_id":"4","last_reported":1762596582,"current_range_meters":6400,"station_id":"ce4bgr92rcd13ifvqc7g","pricing_plan_id":"cebpf4jnsgd1na2vs0mg"},{"bike_id":"62b597ad-0183-45ab-83ea-6b1f25540269","system_id":"levelo_inurba_marseille","lat":43.32753,"lon":5.45203,"is_reserved":false,"is_disabled":true,"rental_uris":{"android":"levelo://app?vid=62b597ad-0183-45ab-83ea-6b1f25540269","ios":"levelo://app?vid=62b597ad-0183-45ab-83ea-6b1f25540269"},"vehicle_type_id":"4","last_reported":1762596582,"current_range_meters":6400,"station_id":"","pricing_plan_id":"cebpf4jnsgd1na2vs0mg"},{"bike_id":"29286810-4e00-47d2-931c-f00791dac858","system_id":"levelo_inurba_marseille","lat":43.28757,"lon":5.38415,"is_reserved":false,"is_disabled":false,"rental_uris":{"android":"levelo://app?vid=29286810-4e00-47d2-931c-f00791dac858","ios":"levelo://app?vid=29286810-4e00-47d2-931c-f00791dac858"},"vehicle_type_id":"4","last_reported":1762596582,"current_range_meters":6400,"station_id":"","pricing_plan_id":"cebpf4jnsgd1na2vs0mg"},{"bike_id":"eb24abaa-42f8-4aa2-877a-ad1372d28e2a","system_id":"levelo_inurba_marseille","lat":43.21192,"lon":5.35082,"is_reserved":false,"is_disabled":false,"rental_uris":{"android":"levelo://app?vid=eb24abaa-42f8-4aa2-877a-ad1372d28e2a","ios":"levelo://app?vid=eb24abaa-42f8-4aa2-877a-ad1372d28e2a"},"vehicle_type_id":"4","last_reported":1762596582,"current_range_meters":6800,"station_id":"st_cvj6sg6p6f1abm77japg","pricing_plan_id":"cebpf4jnsgd1na2vs0mg"},{"bike_id":"ef2fe57e-ecba-4765-96d3-8349654ec56e","system_id":"levelo_inurba_marseille","lat":43.32928,"lon":5.364085,"is_reserved":false,"is_disabled":false,"rental_uris":{"android":"levelo://app?vid=ef2fe57e-ecba-4765-96d3-8349654ec56e","ios":"levelo://app?vid=ef2fe57e-ecba-4765-96d3-8349654ec56e"},"vehicle_type_id":"4","last_reported":1762596582,"current_range_meters":6800,"station_id":"","pricing_plan_id":"cebpf4jnsgd1na2vs0mg"},{"bike_id":"5371b3f6-d2ff-4c7e-b846-1a530efe816e","system_id":"levelo_inurba_marseille","lat":43.28856,"lon":5.39311,"is_reserved":false,"is_disabled":false,"rental_uris":{"android":"levelo://app?vid=5371b3f6-d2ff-4c7e-b846-1a530efe816e","ios":"levelo://app?vid=5371b3f6-d2ff-4c7e-b846-1a530efe816e"},"vehicle_type_id":"4","last_reported":1762596582,"current_range_meters":7200,"station_id":"ce4bh2p2rcd13ifvqdi0","pricing_plan_id":"cebpf4jnsgd1na2vs0mg"},{"bike_id":"05c639a2-6660-40ed-a12f-85b485fe188e","system_id":"levelo_inurba_marseille","lat":43.29211,"lon":5.35718,"is_reserved":false,"is_disabled":false,"rental_uris":{"android":"levelo://app?vid=05c639a2-6660-40ed-a12f-85b485fe188e","ios":"levelo://app?vid=05c639a2-6660-40ed-a12f-85b485fe188e"},"vehicle_type_id":"4","last_reported":1762596582,"current_range_meters":7200,"station_id":"","pricing_plan_id":"cebpf4jnsgd1na2vs0mg"},{"bike_id":"711b5184-06a1-46c6-b1ad-270408b914a4","system_id":"levelo_inurba_marseille","lat":43.29981,"lon":5.41015,"is_reserved":false,"is_disabled":false,"rental_uris":{"android":"levelo://app?vid=711b5184-06a1-46c6-b1ad-270408b914a4","ios":"levelo://app?vid=711b5184-06a1-46c6-b1ad-270408b914a4"},"vehicle_type_id":"4","last_reported":1762596582,"current_range_meters":7200,"station_id":"","pricing_plan_id":"cebpf4jnsgd1na2vs0mg"},{"bike_id":"517c50b9-1f0f-49a4-ae84-93dd7eb11a86","system_id":"levelo_inurba_marseille","lat":43.26215,"lon":5.37435,"is_reserved":false,"is_disabled":false,"rental_uris":{"android":"levelo://app?vid=517c50b9-1f0f-49a4-ae84-93dd7eb11a86","ios":"levelo://app?vid=517c50b9-1f0f-49a4-ae84-93dd7eb11a86"},"vehicle_type_id":"4","last_reported":1762596582,"current_range_meters":7200,"station_id":"ce4bhgp2rcd13ifvqfc0","pricing_plan_id":"cebpf4jnsgd1na2vs0mg"},{"bike_id":"da714ca3-7de4-4828-92a8-5df2950b92cc","system_id":"levelo_inurba_marseille","lat":43.28732,"lon":5.36079,"is_reserved":false,"is_disabled":false,"rental_uris":{"android":"levelo://app?vid=da714ca3-7de4-4828-92a8-5df2950b92cc","ios":"levelo://app?vid=da714ca3-7de4-4828-92a8-5df2950b92cc"},"vehicle_type_id":"4","last_reported":1762596582,"current_range_meters":7200,"station_id":"cki0cbj6b192h4jlfktg","pricing_plan_id":"cebpf4jnsgd1na2vs0mg"},{"bike_id":"c687f5b8-73fc-4bba-bdba-8dae557f7ae6","system_id":"levelo_inurba_marseille","lat":43.27383,"lon":5.36252,"is_reserved":false,"is_disabled":true,"rental_uris":{"android":"levelo://app?vid=c687f5b8-73fc-4bba-bdba-8dae557f7ae6","ios":"levelo://app?vid=c687f5b8-73fc-4bba-bdba-8dae557f7ae6"},"vehicle_type_id":"4","last_reported":1762596582,"current_range_meters":8000,"station_id":"ce4bhbh2rcd13ifvqeo0","pricing_plan_id":"cebpf4jnsgd1na2vs0mg"},{"bike_id":"af971368-0252-4e99-bd88-08652248168f","system_id":"levelo_inurba_marseille","lat":43.25822,"lon":5.39431,"is_reserved":false,"is_disabled":false,"rental_uris":{"android":"levelo://app?vid=af971368-0252-4e99-bd88-08652248168f","ios":"levelo://app?vid=af971368-0252-4e99-bd88-08652248168f"},"vehicle_type_id":"4","last_reported":1762596582,"current_range_meters":8000,"station_id":"ce4bhip2rcd13ifvqft0","pricing_plan_id":"cebpf4jnsgd1na2vs0mg"},{"bike_id":"6580beb2-f281-473f-9ef4-7b331653ef2e","system_id":"levelo_inurba_marseille","lat":43.29143,"lon":5.40785,"is_reserved":false,"is_disabled":false,"rental_uris":{"android":"levelo://app?vid=6580beb2-f281-473f-9ef4-7b331653ef2e","ios":"levelo://app?vid=6580beb2-f281-473f-9ef4-7b331653ef2e"},"vehicle_type_id":"4","last_reported":1762596582,"current_range_meters":8000,"station_id":"","pricing_plan_id":"cebpf4jnsgd1na2vs0mg"},{"bike_id":"ff52e6d2-0126-428b-8241-f19a2cd5a014","system_id":"levelo_inurba_marseille","lat":43.26959,"lon":5.38624,"is_reserved":false,"is_disabled":false,"rental_uris":{"android":"levelo://app?vid=ff52e6d2-0126-428b-8241-f19a2cd5a014","ios":"levelo://app?vid=ff52e6d2-0126-428b-8241-f19a2cd5a014"},"vehicle_type_id":"4","last_reported":1762596582,"current_range_meters":8000,"station_id":"ce4bhh92rcd13ifvqfh0","pricing_plan_id":"cebpf4jnsgd1na2vs0mg"},{"bike_id":"8cefcb6f-51aa-4d71-91c4-2b7705246859","system_id":"levelo_inurba_marseille","lat":43.3112,"lon":5.3776,"is_reserved":false,"is_disabled":false,"rental_uris":{"android":"levelo://app?vid=8cefcb6f-51aa-4d71-91c4-2b7705246859","ios":"levelo://app?vid=8cefcb6f-51aa-4d71-91c4-2b7705246859"},"vehicle_type_id":"4","last_reported":1762596582,"current_range_meters":8000,"station_id":"ce4bgt92rcd13ifvqcg0","pricing_plan_id":"cebpf4jnsgd1na2vs0mg"},{"bike_id":"34c14480-831b-41a9-b30b-a1e8f994a110","system_id":"levelo_inurba_marseille","lat":43.30838,"lon":5.37181,"is_reserved":false,"is_disabled":false,"rental_uris":{"android":"levelo://app?vid=34c14480-831b-41a9-b30b-a1e8f994a110","ios":"levelo://app?vid=34c14480-831b-41a9-b30b-a1e8f994a110"},"vehicle_type_id":"4","last_reported":1762596582,"current_range_meters":8400,"station_id":"","pricing_plan_id":"cebpf4jnsgd1na2vs0mg"},{"bike_id":"3c326e2b-0b29-483b-a4e5-160ccec152ce","system_id":"levelo_inurba_marseille","lat":43.305908,"lon":5.39355,"is_reserved":false,"is_disabled":false,"rental_uris":{"android":"levelo://app?vid=3c326e2b-0b29-483b-a4e5-160ccec152ce","ios":"levelo://app?vid=3c326e2b-0b29-483b-a4e5-160ccec152ce"},"vehicle_type_id":"4","last_reported":1762596582,"current_range_meters":8400,"station_id":"ce4bh0p2rcd13ifvqd80","pricing_plan_id":"cebpf4jnsgd1na2vs0mg"},{"bike_id":"bc039d18-7e72-458f-bafa-32939dfbb741","system_id":"levelo_inurba_marseille","lat":43.22561,"lon":5.41624,"is_reserved":false,"is_disabled":false,"rental_uris":{"android":"levelo://app?vid=bc039d18-7e72-458f-bafa-32939dfbb741","ios":"levelo://app?vid=bc039d18-7e72-458f-bafa-32939dfbb741"},"vehicle_type_id":"4","last_reported":1762596582,"current_range_meters":8400,"station_id":"st_d2o4gvlbi1j2169b742g","pricing_plan_id":"cebpf4jnsgd1na2vs0mg"},{"bike_id":"5bee8f0f-57fe-4257-a72a-04a4967570b5","system_id":"levelo_inurba_marseille","lat":43.30051,"lon":5.37709,"is_reserved":false,"is_disabled":false,"rental_uris":{"android":"levelo://app?vid=5bee8f0f-57fe-4257-a72a-04a4967570b5","ios":"levelo://app?vid=5bee8f0f-57fe-4257-a72a-04a4967570b5"},"vehicle_type_id":"4","last_reported":1762596582,"current_range_meters":8400,"station_id":"","pricing_plan_id":"cebpf4jnsgd1na2vs0mg"},{"bike_id":"5c17ed12-8897-4f84-bbfc-85419a7f8038","system_id":"levelo_inurba_marseille","lat":43.2708,"lon":5.39497,"is_reserved":false,"is_disabled":false,"rental_uris":{"android":"levelo://app?vid=5c17ed12-8897-4f84-bbfc-85419a7f8038","ios":"levelo://app?vid=5c17ed12-8897-4f84-bbfc-85419a7f8038"},"vehicle_type_id":"4","last_reported":1762596582,"current_range_meters":8800,"station_id":"","pricing_plan_id":"cebpf4jnsgd1na2vs0mg"},{"bike_id":"7c392732-2900-41fd-8c6d-e5b49cdf67b5","system_id":"levelo_inurba_marseille","lat":43.29719,"lon":5.38262,"is_reserved":false,"is_disabled":false,"rental_uris":{"android":"levelo://app?vid=7c392732-2900-41fd-8c6d-e5b49cdf67b5","ios":"levelo://app?vid=7c392732-2900-41fd-8c6d-e5b49cdf67b5"},"vehicle_type_id":"4","last_reported":1762596582,"current_range_meters":8800,"station_id":"","pricing_plan_id":"cebpf4jnsgd1na2vs0mg"},{"bike_id":"78bd5f74-b07f-4aac-b566-26ecec6fd5df","system_id":"levelo_inurba_marseille","lat":43.30681,"lon":5.38048,"is_reserved":false,"is_disabled":false,"rental_uris":{"android":"levelo://app?vid=78bd5f74-b07f-4aac-b566-26ecec6fd5df","ios":"levelo://app?vid=78bd5f74-b07f-4aac-b566-26ecec6fd5df"},"vehicle_type_id":"4","last_reported":1762596582,"current_range_meters":8800,"station_id":"","pricing_plan_id":"cebpf4jnsgd1na2vs0mg"},{"bike_id":"8a5a3ce7-f58f-4c0c-9911-7d755553cfb8","system_id":"levelo_inurba_marseille","lat":43.29916,"lon":5.3747,"is_reserved":false,"is_disabled":false,"rental_uris":{"android":"levelo://app?vid=8a5a3ce7-f58f-4c0c-9911-7d755553cfb8","ios":"levelo://app?vid=8a5a3ce7-f58f-4c0c-9911-7d755553cfb8"},"vehicle_type_id":"4","last_reported":1762596582,"current_range_meters":9200,"station_id":"ce4bgjh2rcd13ifvqbg0","pricing_plan_id":"cebpf4jnsgd1na2vs0mg"},{"bike_id":"a0ea519d-554f-42a0-93a3-d4c181552c78","system_id":"levelo_inurba_marseille","lat":43.31271,"lon":5.37752,"is_reserved":false,"is_disabled":false,"rental_uris":{"android":"levelo://app?vid=a0ea519d-554f-42a0-93a3-d4c181552c78","ios":"levelo://app?vid=a0ea519d-554f-42a0-93a3-d4c181552c78"},"vehicle_type_id":"4","last_reported":1762596582,"current_range_meters":9200,"station_id":"","pricing_plan_id":"cebpf4jnsgd1na2vs0mg"},{"bike_id":"cbdb5f90-a315-4ded-8fc1-63156a140e06","system_id":"levelo_inurba_marseille","lat":43.276251,"lon":5.361097,"is_reserved":false,"is_disabled":false,"rental_uris":{"android":"levelo://app?vid=cbdb5f90-a315-4ded-8fc1-63156a140e06","ios":"levelo://app?vid=cbdb5f90-a315-4ded-8fc1-63156a140e06"},"vehicle_type_id":"4","last_reported":1762596582,"current_range_meters":9200,"station_id":"ce4bgj92rcd13ifvqbe0","pricing_plan_id":"cebpf4jnsgd1na2vs0mg"},{"bike_id":"da0a9d5c-860b-4383-8050-0d50a711bc1b","system_id":"levelo_inurba_marseille","lat":43.29829,"lon":5.44075,"is_reserved":false,"is_disabled":false,"rental_uris":{"android":"levelo://app?vid=da0a9d5c-860b-4383-8050-0d50a711bc1b","ios":"levelo://app?vid=da0a9d5c-860b-4383-8050-0d50a711bc1b"},"vehicle_type_id":"4","last_reported":1762596582,"current_range_meters":9200,"station_id":"st_d3jp68qikq2c7381ktn0","pricing_plan_id":"cebpf4jnsgd1na2vs0mg"},{"bike_id":"451c4f52-5f8a-48bf-8d08-37cdee36fff2","system_id":"levelo_inurba_marseille","lat":43.28549,"lon":5.44097,"is_reserved":false,"is_disabled":false,"rental_uris":{"android":"levelo://app?vid=451c4f52-5f8a-48bf-8d08-37cdee36fff2","ios":"levelo://app?vid=451c4f52-5f8a-48bf-8d08-37cdee36fff2"},"vehicle_type_id":"4","last_reported":1762596582,"current_range_meters":9200,"station_id":"st_d3j3df2ikq2c7380ej80","pricing_plan_id":"cebpf4jnsgd1na2vs0mg"},{"bike_id":"591b61b5-10ee-4526-adc5-5194893cdab6","system_id":"levelo_inurba_marseille","lat":43.2558,"lon":5.38226,"is_reserved":false,"is_disabled":false,"rental_uris":{"android":"levelo://app?vid=591b61b5-10ee-4526-adc5-5194893cdab6","ios":"levelo://app?vid=591b61b5-10ee-4526-adc5-5194893cdab6"},"vehicle_type_id":"4","last_reported":1762596582,"current_range_meters":9600,"station_id":"ce4bhih2rcd13ifvqfs0","pricing_plan_id":"cebpf4jnsgd1na2vs0mg"},{"bike_id":"fcc67df6-d106-4007-b169-b70b369613ec","system_id":"levelo_inurba_marseille","lat":43.272049,"lon":5.391747,"is_reserved":false,"is_disabled":false,"rental_uris":{"android":"levelo://app?vid=fcc67df6-d106-4007-b169-b70b369613ec","ios":"levelo://app?vid=fcc67df6-d106-4007-b169-b70b369613ec"},"vehicle_type_id":"4","last_reported":1762596582,"current_range_meters":9600,"station_id":"ce4bhhp2rcd13ifvqfm0","pricing_plan_id":"cebpf4jnsgd1na2vs0mg"},{"bike_id":"e29dcacd-c5cb-4908-af39-1ab6b3c10bce","system_id":"levelo_inurba_marseille","lat":43.281,"lon":5.37839,"is_reserved":false,"is_disabled":false,"rental_uris":{"android":"levelo://app?vid=e29dcacd-c5cb-4908-af39-1ab6b3c10bce","ios":"levelo://app?vid=e29dcacd-c5cb-4908-af39-1ab6b3c10bce"},"vehicle_type_id":"4","last_reported":1762596582,"current_range_meters":9600,"station_id":"ce4bha12rcd13ifvqee0","pricing_plan_id":"cebpf4jnsgd1na2vs0mg"},{"bike_id":"3a6b939b-8483-4a00-8652-d825cdd856d7","system_id":"levelo_inurba_marseille","lat":43.22555,"lon":5.41617,"is_reserved":false,"is_disabled":false,"rental_uris":{"android":"levelo://app?vid=3a6b939b-8483-4a00-8652-d825cdd856d7","ios":"levelo://app?vid=3a6b939b-8483-4a00-8652-d825cdd856d7"},"vehicle_type_id":"4","last_reported":1762596582,"current_range_meters":9600,"station_id":"st_d2o4gvlbi1j2169b742g","pricing_plan_id":"cebpf4jnsgd1na2vs0mg"},{"bike_id":"310115a0-7bf2-4a4a-9d53-56bf6918e4d0","system_id":"levelo_inurba_marseille","lat":43.28476,"lon":5.4839,"is_reserved":false,"is_disabled":false,"rental_uris":{"android":"levelo://app?vid=310115a0-7bf2-4a4a-9d53-56bf6918e4d0","ios":"levelo://app?vid=310115a0-7bf2-4a4a-9d53-56bf6918e4d0"},"vehicle_type_id":"4","last_reported":1762596582,"current_range_meters":10000,"station_id":"st_d3svhcjqgbts73a3dn0g","pricing_plan_id":"cebpf4jnsgd1na2vs0mg"},{"bike_id":"4548bfb3-06f4-4b10-aaa4-465cca5b7e05","system_id":"levelo_inurba_marseille","lat":43.285398,"lon":5.441084,"is_reserved":false,"is_disabled":false,"rental_uris":{"android":"levelo://app?vid=4548bfb3-06f4-4b10-aaa4-465cca5b7e05","ios":"levelo://app?vid=4548bfb3-06f4-4b10-aaa4-465cca5b7e05"},"vehicle_type_id":"4","last_reported":1762596582,"current_range_meters":10000,"station_id":"st_d3j3df2ikq2c7380ej80","pricing_plan_id":"cebpf4jnsgd1na2vs0mg"},{"bike_id":"22918fb7-a391-4f35-8c21-8eb60e2ab03f","system_id":"levelo_inurba_marseille","lat":43.22554,"lon":5.41615,"is_reserved":false,"is_disabled":false,"rental_uris":{"android":"levelo://app?vid=22918fb7-a391-4f35-8c21-8eb60e2ab03f","ios":"levelo://app?vid=22918fb7-a391-4f35-8c21-8eb60e2ab03f"},"vehicle_type_id":"4","last_reported":1762596582,"current_range_meters":10000,"station_id":"st_d2o4gvlbi1j2169b742g","pricing_plan_id":"cebpf4jnsgd1na2vs0mg"},{"bike_id":"8e6ed807-f053-47d1-b4b3-1f37f36e767e","system_id":"levelo_inurba_marseille","lat":43.26794,"lon":5.40251,"is_reserved":false,"is_disabled":false,"rental_uris":{"android":"levelo://app?vid=8e6ed807-f053-47d1-b4b3-1f37f36e767e","ios":"levelo://app?vid=8e6ed807-f053-47d1-b4b3-1f37f36e767e"},"vehicle_type_id":"4","last_reported":1762596582,"current_range_meters":10800,"station_id":"ce501612rcd8frsf0b60","pricing_plan_id":"cebpf4jnsgd1na2vs0mg"},{"bike_id":"60c2843d-f2d7-4dfd-9606-aeac5cb1d069","system_id":"levelo_inurba_marseille","lat":43.30745,"lon":5.42426,"is_reserved":false,"is_disabled":false,"rental_uris":{"android":"levelo://app?vid=60c2843d-f2d7-4dfd-9606-aeac5cb1d069","ios":"levelo://app?vid=60c2843d-f2d7-4dfd-9606-aeac5cb1d069"},"vehicle_type_id":"4","last_reported":1762596582,"current_range_meters":10800,"station_id":"st_cvj6ca6bvosntc0bfgr0","pricing_plan_id":"cebpf4jnsgd1na2vs0mg"},{"bike_id":"676f9b84-4eb4-49d4-bb45-1c4cb446cd66","system_id":"levelo_inurba_marseille","lat":43.3303,"lon":5.39043,"is_reserved":false,"is_disabled":false,"rental_uris":{"android":"levelo://app?vid=676f9b84-4eb4-49d4-bb45-1c4cb446cd66","ios":"levelo://app?vid=676f9b84-4eb4-49d4-bb45-1c4cb446cd66"},"vehicle_type_id":"4","last_reported":1762596582,"current_range_meters":10800,"station_id":"ce4bhr92rcd13ifvqhrg","pricing_plan_id":"cebpf4jnsgd1na2vs0mg"},{"bike_id":"9af0687b-3e79-4e11-b844-dd239618aeba","system_id":"levelo_inurba_marseille","lat":43.28874,"lon":5.42514,"is_reserved":false,"is_disabled":false,"rental_uris":{"android":"levelo://app?vid=9af0687b-3e79-4e11-b844-dd239618aeba","ios":"levelo://app?vid=9af0687b-3e79-4e11-b844-dd239618aeba"},"vehicle_type_id":"4","last_reported":1762596582,"current_range_meters":10800,"station_id":"st_d3b462108ojc7389ooeg","pricing_plan_id":"cebpf4jnsgd1na2vs0mg"},{"bike_id":"8cdf5c66-c6a0-43fd-b10e-9c406d7805d3","system_id":"levelo_inurba_marseille","lat":43.30596,"lon":5.393652,"is_reserved":false,"is_disabled":false,"rental_uris":{"android":"levelo://app?vid=8cdf5c66-c6a0-43fd-b10e-9c406d7805d3","ios":"levelo://app?vid=8cdf5c66-c6a0-43fd-b10e-9c406d7805d3"},"vehicle_type_id":"4","last_reported":1762596582,"current_range_meters":10800,"station_id":"ce4bh0p2rcd13ifvqd80","pricing_plan_id":"cebpf4jnsgd1na2vs0mg"},{"bike_id":"401209f9-1098-407a-9275-182f209531f6","system_id":"levelo_inurba_marseille","lat":43.29554,"lon":5.42291,"is_reserved":false,"is_disabled":false,"rental_uris":{"android":"levelo://app?vid=401209f9-1098-407a-9275-182f209531f6","ios":"levelo://app?vid=401209f9-1098-407a-9275-182f209531f6"},"vehicle_type_id":"4","last_reported":1762596582,"current_range_meters":10800,"station_id":"ce4bhph2rcd13ifvqhdg","pricing_plan_id":"cebpf4jnsgd1na2vs0mg"},{"bike_id":"cbaf6e70-be37-4c92-8bb7-677f9be0a37d","system_id":"levelo_inurba_marseille","lat":43.301284,"lon":5.431089,"is_reserved":false,"is_disabled":false,"rental_uris":{"android":"levelo://app?vid=cbaf6e70-be37-4c92-8bb7-677f9be0a37d","ios":"levelo://app?vid=cbaf6e70-be37-4c92-8bb7-677f9be0a37d"},"vehicle_type_id":"4","last_reported":1762596582,"current_range_meters":11200,"station_id":"st_d3js3co5814s73ftftug","pricing_plan_id":"cebpf4jnsgd1na2vs0mg"},{"bike_id":"cb7f5392-ae0a-4ba8-b998-2f6fbc338fe1","system_id":"levelo_inurba_marseille","lat":43.22565,"lon":5.41624,"is_reserved":false,"is_disabled":false,"rental_uris":{"android":"levelo://app?vid=cb7f5392-ae0a-4ba8-b998-2f6fbc338fe1","ios":"levelo://app?vid=cb7f5392-ae0a-4ba8-b998-2f6fbc338fe1"},"vehicle_type_id":"4","last_reported":1762596582,"current_range_meters":11600,"station_id":"st_d2o4gvlbi1j2169b742g","pricing_plan_id":"cebpf4jnsgd1na2vs0mg"},{"bike_id":"7a399f82-0892-45c9-a828-80f939bd334e","system_id":"levelo_inurba_marseille","lat":43.27376,"lon":5.3625,"is_reserved":false,"is_disabled":false,"rental_uris":{"android":"levelo://app?vid=7a399f82-0892-45c9-a828-80f939bd334e","ios":"levelo://app?vid=7a399f82-0892-45c9-a828-80f939bd334e"},"vehicle_type_id":"4","last_reported":1762596582,"current_range_meters":11600,"station_id":"ce4bhbh2rcd13ifvqeo0","pricing_plan_id":"cebpf4jnsgd1na2vs0mg"},{"bike_id":"09802ffb-d49a-47c1-bcde-16ac20fc4918","system_id":"levelo_inurba_marseille","lat":43.24389,"lon":5.3706,"is_reserved":false,"is_disabled":false,"rental_uris":{"android":"levelo://app?vid=09802ffb-d49a-47c1-bcde-16ac20fc4918","ios":"levelo://app?vid=09802ffb-d49a-47c1-bcde-16ac20fc4918"},"vehicle_type_id":"4","last_reported":1762596582,"current_range_meters":11600,"station_id":"ce4bhhh2rcd13ifvqfk0","pricing_plan_id":"cebpf4jnsgd1na2vs0mg"},{"bike_id":"1bf477b3-55e6-4f59-a7a7-7034928d8403","system_id":"levelo_inurba_marseille","lat":43.25338,"lon":5.4216,"is_reserved":false,"is_disabled":false,"rental_uris":{"android":"levelo://app?vid=1bf477b3-55e6-4f59-a7a7-7034928d8403","ios":"levelo://app?vid=1bf477b3-55e6-4f59-a7a7-7034928d8403"},"vehicle_type_id":"4","last_reported":1762596582,"current_range_meters":11600,"station_id":"st_d2m65c5bi1j21697t3ng","pricing_plan_id":"cebpf4jnsgd1na2vs0mg"},{"bike_id":"2b52e46d-e96b-44bc-99bd-0d893692edbd","system_id":"levelo_inurba_marseille","lat":43.27563,"lon":5.38425,"is_reserved":false,"is_disabled":false,"rental_uris":{"android":"levelo://app?vid=2b52e46d-e96b-44bc-99bd-0d893692edbd","ios":"levelo://app?vid=2b52e46d-e96b-44bc-99bd-0d893692edbd"},"vehicle_type_id":"4","last_reported":1762596582,"current_range_meters":11600,"station_id":"ce4bhh92rcd13ifvqfi0","pricing_plan_id":"cebpf4jnsgd1na2vs0mg"},{"bike_id":"dc62b239-8bfa-4edb-a3fb-9be3555b60aa","system_id":"levelo_inurba_marseille","lat":43.26559,"lon":5.38992,"is_reserved":false,"is_disabled":false,"rental_uris":{"android":"levelo://app?vid=dc62b239-8bfa-4edb-a3fb-9be3555b60aa","ios":"levelo://app?vid=dc62b239-8bfa-4edb-a3fb-9be3555b60aa"},"vehicle_type_id":"4","last_reported":1762596582,"current_range_meters":11600,"station_id":"ce4bhe12rcd13ifvqf30","pricing_plan_id":"cebpf4jnsgd1na2vs0mg"},{"bike_id":"2f373a5f-e6e9-4abe-805d-f20b12d39ee9","system_id":"levelo_inurba_marseille","lat":43.24953,"lon":5.40493,"is_reserved":false,"is_disabled":false,"rental_uris":{"android":"levelo://app?vid=2f373a5f-e6e9-4abe-805d-f20b12d39ee9","ios":"levelo://app?vid=2f373a5f-e6e9-4abe-805d-f20b12d39ee9"},"vehicle_type_id":"4","last_reported":1762596582,"current_range_meters":12000,"station_id":"st_d2ngiaodas8pm72gd1h0","pricing_plan_id":"cebpf4jnsgd1na2vs0mg"},{"bike_id":"f7745271-a24c-4c95-81ab-54aab95d78f3","system_id":"levelo_inurba_marseille","lat":43.29097,"lon":5.38149,"is_reserved":false,"is_disabled":false,"rental_uris":{"android":"levelo://app?vid=f7745271-a24c-4c95-81ab-54aab95d78f3","ios":"levelo://app?vid=f7745271-a24c-4c95-81ab-54aab95d78f3"},"vehicle_type_id":"4","last_reported":1762596582,"current_range_meters":12000,"station_id":"ce4bh512rcd13ifvqe2g","pricing_plan_id":"cebpf4jnsgd1na2vs0mg"},{"bike_id":"a4b610ef-5dc5-47fb-9228-87e17fe490d3","system_id":"levelo_inurba_marseille","lat":43.27078,"lon":5.42261,"is_reserved":false,"is_disabled":true,"rental_uris":{"android":"levelo://app?vid=a4b610ef-5dc5-47fb-9228-87e17fe490d3","ios":"levelo://app?vid=a4b610ef-5dc5-47fb-9228-87e17fe490d3"},"vehicle_type_id":"4","last_reported":1762596582,"current_range_meters":12000,"station_id":"ce4bhk92rcd13ifvqgb0","pricing_plan_id":"cebpf4jnsgd1na2vs0mg"},{"bike_id":"e12b069e-6626-4ec5-9dbe-18cc71084546","system_id":"levelo_inurba_marseille","lat":43.292225,"lon":5.360601,"is_reserved":false,"is_disabled":false,"rental_uris":{"android":"levelo://app?vid=e12b069e-6626-4ec5-9dbe-18cc71084546","ios":"levelo://app?vid=e12b069e-6626-4ec5-9dbe-18cc71084546"},"vehicle_type_id":"4","last_reported":1762596582,"current_range_meters":12000,"station_id":"ce4bhbh2rcd13ifvqeqg","pricing_plan_id":"cebpf4jnsgd1na2vs0mg"},{"bike_id":"3b294fa9-3f9f-4381-a2a8-e3592d375a68","system_id":"levelo_inurba_marseille","lat":43.26707,"lon":5.39674,"is_reserved":false,"is_disabled":false,"rental_uris":{"android":"levelo://app?vid=3b294fa9-3f9f-4381-a2a8-e3592d375a68","ios":"levelo://app?vid=3b294fa9-3f9f-4381-a2a8-e3592d375a68"},"vehicle_type_id":"4","last_reported":1762596582,"current_range_meters":12000,"station_id":"","pricing_plan_id":"cebpf4jnsgd1na2vs0mg"},{"bike_id":"d510b29d-06c6-4a67-8cee-2182097a14e2","system_id":"levelo_inurba_marseille","lat":43.29267,"lon":5.37607,"is_reserved":false,"is_disabled":true,"rental_uris":{"android":"levelo://app?vid=d510b29d-06c6-4a67-8cee-2182097a14e2","ios":"levelo://app?vid=d510b29d-06c6-4a67-8cee-2182097a14e2"},"vehicle_type_id":"4","last_reported":1762596582,"current_range_meters":12400,"station_id":"ce4bgi12rcd13ifvqb80","pricing_plan_id":"cebpf4jnsgd1na2vs0mg"},{"bike_id":"29cf3847-f099-42d5-9c47-7deb0213c3ad","system_id":"levelo_inurba_marseille","lat":43.28055,"lon":5.40847,"is_reserved":false,"is_disabled":false,"rental_uris":{"android":"levelo://app?vid=29cf3847-f099-42d5-9c47-7deb0213c3ad","ios":"levelo://app?vid=29cf3847-f099-42d5-9c47-7deb0213c3ad"},"vehicle_type_id":"4","last_reported":1762596582,"current_range_meters":12400,"station_id":"","pricing_plan_id":"cebpf4jnsgd1na2vs0mg"},{"bike_id":"08800a7f-3058-4ed0-a60f-c12bee9e25dd","system_id":"levelo_inurba_marseille","lat":43.24625,"lon":5.4314,"is_reserved":false,"is_disabled":false,"rental_uris":{"android":"levelo://app?vid=08800a7f-3058-4ed0-a60f-c12bee9e25dd","ios":"levelo://app?vid=08800a7f-3058-4ed0-a60f-c12bee9e25dd"},"vehicle_type_id":"4","last_reported":1762596582,"current_range_meters":12800,"station_id":"st_d2m6c4gdas8pm72e190g","pricing_plan_id":"cebpf4jnsgd1na2vs0mg"},{"bike_id":"7a706d26-a0f7-4e63-89be-4dc83b1daaa9","system_id":"levelo_inurba_marseille","lat":43.30951,"lon":5.39025,"is_reserved":false,"is_disabled":false,"rental_uris":{"android":"levelo://app?vid=7a706d26-a0f7-4e63-89be-4dc83b1daaa9","ios":"levelo://app?vid=7a706d26-a0f7-4e63-89be-4dc83b1daaa9"},"vehicle_type_id":"4","last_reported":1762596582,"current_range_meters":12800,"station_id":"ce4bgup2rcd13ifvqco0","pricing_plan_id":"cebpf4jnsgd1na2vs0mg"},{"bike_id":"58df984d-f6ad-47ef-818a-7818e887c7c9","system_id":"levelo_inurba_marseille","lat":43.30136,"lon":5.43108,"is_reserved":false,"is_disabled":false,"rental_uris":{"android":"levelo://app?vid=58df984d-f6ad-47ef-818a-7818e887c7c9","ios":"levelo://app?vid=58df984d-f6ad-47ef-818a-7818e887c7c9"},"vehicle_type_id":"4","last_reported":1762596582,"current_range_meters":12800,"station_id":"st_d3js3co5814s73ftftug","pricing_plan_id":"cebpf4jnsgd1na2vs0mg"},{"bike_id":"46748178-17b8-4dc8-80b3-39159ff743e0","system_id":"levelo_inurba_marseille","lat":43.30058,"lon":5.38334,"is_reserved":false,"is_disabled":false,"rental_uris":{"android":"levelo://app?vid=46748178-17b8-4dc8-80b3-39159ff743e0","ios":"levelo://app?vid=46748178-17b8-4dc8-80b3-39159ff743e0"},"vehicle_type_id":"4","last_reported":1762596582,"current_range_meters":12800,"station_id":"","pricing_plan_id":"cebpf4jnsgd1na2vs0mg"},{"bike_id":"65c6be5e-7566-45a1-99cf-c105e6b5b495","system_id":"levelo_inurba_marseille","lat":43.30165,"lon":5.38071,"is_reserved":false,"is_disabled":false,"rental_uris":{"android":"levelo://app?vid=65c6be5e-7566-45a1-99cf-c105e6b5b495","ios":"levelo://app?vid=65c6be5e-7566-45a1-99cf-c105e6b5b495"},"vehicle_type_id":"4","last_reported":1762596582,"current_range_meters":12800,"station_id":"ce4bgjp2rcd13ifvqbh0","pricing_plan_id":"cebpf4jnsgd1na2vs0mg"},{"bike_id":"0c5c19f2-426c-43e3-b284-708f087fa98a","system_id":"levelo_inurba_marseille","lat":43.29944,"lon":5.36549,"is_reserved":false,"is_disabled":false,"rental_uris":{"android":"levelo://app?vid=0c5c19f2-426c-43e3-b284-708f087fa98a","ios":"levelo://app?vid=0c5c19f2-426c-43e3-b284-708f087fa98a"},"vehicle_type_id":"4","last_reported":1762596582,"current_range_meters":13600,"station_id":"ce4bgm92rcd13ifvqbr0","pricing_plan_id":"cebpf4jnsgd1na2vs0mg"},{"bike_id":"a718cc29-6f54-49e3-862a-351d7a32001f","system_id":"levelo_inurba_marseille","lat":43.284818,"lon":5.484007,"is_reserved":false,"is_disabled":false,"rental_uris":{"android":"levelo://app?vid=a718cc29-6f54-49e3-862a-351d7a32001f","ios":"levelo://app?vid=a718cc29-6f54-49e3-862a-351d7a32001f"},"vehicle_type_id":"4","last_reported":1762596582,"current_range_meters":13600,"station_id":"","pricing_plan_id":"cebpf4jnsgd1na2vs0mg"},{"bike_id":"05304b88-08bd-4258-888f-ad77e8550455","system_id":"levelo_inurba_marseille","lat":43.28031,"lon":5.36939,"is_reserved":false,"is_disabled":false,"rental_uris":{"android":"levelo://app?vid=05304b88-08bd-4258-888f-ad77e8550455","ios":"levelo://app?vid=05304b88-08bd-4258-888f-ad77e8550455"},"vehicle_type_id":"4","last_reported":1762596582,"current_range_meters":13600,"station_id":"ce4bha12rcd13ifvqef0","pricing_plan_id":"cebpf4jnsgd1na2vs0mg"},{"bike_id":"e77852c2-33bc-47ad-b7ea-d6c83bc7fe1a","system_id":"levelo_inurba_marseille","lat":43.29275,"lon":5.40144,"is_reserved":false,"is_disabled":true,"rental_uris":{"android":"levelo://app?vid=e77852c2-33bc-47ad-b7ea-d6c83bc7fe1a","ios":"levelo://app?vid=e77852c2-33bc-47ad-b7ea-d6c83bc7fe1a"},"vehicle_type_id":"4","last_reported":1762596582,"current_range_meters":14000,"station_id":"ce4bh312rcd13ifvqdk0","pricing_plan_id":"cebpf4jnsgd1na2vs0mg"},{"bike_id":"4727f303-b594-4cd2-8edb-045243dfbad9","system_id":"levelo_inurba_marseille","lat":43.30545,"lon":5.36559,"is_reserved":false,"is_disabled":false,"rental_uris":{"android":"levelo://app?vid=4727f303-b594-4cd2-8edb-045243dfbad9","ios":"levelo://app?vid=4727f303-b594-4cd2-8edb-045243dfbad9"},"vehicle_type_id":"4","last_reported":1762596582,"current_range_meters":14000,"station_id":"ce4bgs12rcd13ifvqcag","pricing_plan_id":"cebpf4jnsgd1na2vs0mg"},{"bike_id":"c006eebd-22d1-492e-aeb9-34fd1a08d045","system_id":"levelo_inurba_marseille","lat":43.2894,"lon":5.36651,"is_reserved":false,"is_disabled":false,"rental_uris":{"android":"levelo://app?vid=c006eebd-22d1-492e-aeb9-34fd1a08d045","ios":"levelo://app?vid=c006eebd-22d1-492e-aeb9-34fd1a08d045"},"vehicle_type_id":"4","last_reported":1762596582,"current_range_meters":14400,"station_id":"ce4bhap2rcd13ifvqek0","pricing_plan_id":"cebpf4jnsgd1na2vs0mg"},{"bike_id":"6ba0f1d1-5706-4a14-b89f-505a4c6aa756","system_id":"levelo_inurba_marseille","lat":43.29491,"lon":5.43299,"is_reserved":false,"is_disabled":false,"rental_uris":{"android":"levelo://app?vid=6ba0f1d1-5706-4a14-b89f-505a4c6aa756","ios":"levelo://app?vid=6ba0f1d1-5706-4a14-b89f-505a4c6aa756"},"vehicle_type_id":"4","last_reported":1762596582,"current_range_meters":14400,"station_id":"st_d3j5ugp08ojc73fj9d10","pricing_plan_id":"cebpf4jnsgd1na2vs0mg"},{"bike_id":"ca06630c-cd58-47fd-a4f0-6635c015d1a3","system_id":"levelo_inurba_marseille","lat":43.30156,"lon":5.38086,"is_reserved":false,"is_disabled":false,"rental_uris":{"android":"levelo://app?vid=ca06630c-cd58-47fd-a4f0-6635c015d1a3","ios":"levelo://app?vid=ca06630c-cd58-47fd-a4f0-6635c015d1a3"},"vehicle_type_id":"4","last_reported":1762596582,"current_range_meters":14400,"station_id":"ce4bgjp2rcd13ifvqbh0","pricing_plan_id":"cebpf4jnsgd1na2vs0mg"},{"bike_id":"d2991a60-dcfa-4252-8f9d-bfff4b1dc433","system_id":"levelo_inurba_marseille","lat":43.31058,"lon":5.37098,"is_reserved":false,"is_disabled":false,"rental_uris":{"android":"levelo://app?vid=d2991a60-dcfa-4252-8f9d-bfff4b1dc433","ios":"levelo://app?vid=d2991a60-dcfa-4252-8f9d-bfff4b1dc433"},"vehicle_type_id":"4","last_reported":1762596582,"current_range_meters":14800,"station_id":"","pricing_plan_id":"cebpf4jnsgd1na2vs0mg"},{"bike_id":"d480ddf7-1374-4766-a393-0dabcd17bf0c","system_id":"levelo_inurba_marseille","lat":43.292702,"lon":5.384396,"is_reserved":false,"is_disabled":false,"rental_uris":{"android":"levelo://app?vid=d480ddf7-1374-4766-a393-0dabcd17bf0c","ios":"levelo://app?vid=d480ddf7-1374-4766-a393-0dabcd17bf0c"},"vehicle_type_id":"4","last_reported":1762596582,"current_range_meters":15200,"station_id":"ce4bh692rcd13ifvqea0","pricing_plan_id":"cebpf4jnsgd1na2vs0mg"},{"bike_id":"4bce02cb-bdba-488a-a39f-eae80d4c7da8","system_id":"levelo_inurba_marseille","lat":43.28234,"lon":5.39074,"is_reserved":false,"is_disabled":true,"rental_uris":{"android":"levelo://app?vid=4bce02cb-bdba-488a-a39f-eae80d4c7da8","ios":"levelo://app?vid=4bce02cb-bdba-488a-a39f-eae80d4c7da8"},"vehicle_type_id":"4","last_reported":1762596582,"current_range_meters":15200,"station_id":"ce4bhn92rcd13ifvqgsg","pricing_plan_id":"cebpf4jnsgd1na2vs0mg"},{"bike_id":"3439a8cb-8214-4321-b614-d69fa7098072","system_id":"levelo_inurba_marseille","lat":43.31285,"lon":5.38953,"is_reserved":false,"is_disabled":false,"rental_uris":{"android":"levelo://app?vid=3439a8cb-8214-4321-b614-d69fa7098072","ios":"levelo://app?vid=3439a8cb-8214-4321-b614-d69fa7098072"},"vehicle_type_id":"4","last_reported":1762596582,"current_range_meters":16000,"station_id":"","pricing_plan_id":"cebpf4jnsgd1na2vs0mg"},{"bike_id":"bbf70108-510c-4f86-9f4b-23e9766d9b05","system_id":"levelo_inurba_marseille","lat":43.30168,"lon":5.38083,"is_reserved":false,"is_disabled":false,"rental_uris":{"android":"levelo://app?vid=bbf70108-510c-4f86-9f4b-23e9766d9b05","ios":"levelo://app?vid=bbf70108-510c-4f86-9f4b-23e9766d9b05"},"vehicle_type_id":"4","last_reported":1762596582,"current_range_meters":16000,"station_id":"ce4bgjp2rcd13ifvqbh0","pricing_plan_id":"cebpf4jnsgd1na2vs0mg"},{"bike_id":"cfe6041c-eeb8-4331-88ac-3d89c3a5f24a","system_id":"levelo_inurba_marseille","lat":43.29858,"lon":5.36272,"is_reserved":false,"is_disabled":false,"rental_uris":{"android":"levelo://app?vid=cfe6041c-eeb8-4331-88ac-3d89c3a5f24a","ios":"levelo://app?vid=cfe6041c-eeb8-4331-88ac-3d89c3a5f24a"},"vehicle_type_id":"4","last_reported":1762596582,"current_range_meters":16400,"station_id":"ce4bgpp2rcd13ifvqc3g","pricing_plan_id":"cebpf4jnsgd1na2vs0mg"},{"bike_id":"099d54dc-1153-468f-a2db-9faf8a27aefd","system_id":"levelo_inurba_marseille","lat":43.29628,"lon":5.37716,"is_reserved":false,"is_disabled":false,"rental_uris":{"android":"levelo://app?vid=099d54dc-1153-468f-a2db-9faf8a27aefd","ios":"levelo://app?vid=099d54dc-1153-468f-a2db-9faf8a27aefd"},"vehicle_type_id":"4","last_reported":1762596582,"current_range_meters":16400,"station_id":"ce4bgi92rcd13ifvqb90","pricing_plan_id":"cebpf4jnsgd1na2vs0mg"},{"bike_id":"0fe28076-79a4-4c58-8cb9-d4750cea7c8d","system_id":"levelo_inurba_marseille","lat":43.253368,"lon":5.421678,"is_reserved":false,"is_disabled":false,"rental_uris":{"android":"levelo://app?vid=0fe28076-79a4-4c58-8cb9-d4750cea7c8d","ios":"levelo://app?vid=0fe28076-79a4-4c58-8cb9-d4750cea7c8d"},"vehicle_type_id":"4","last_reported":1762596582,"current_range_meters":16400,"station_id":"st_d2m65c5bi1j21697t3ng","pricing_plan_id":"cebpf4jnsgd1na2vs0mg"},{"bike_id":"2922600f-d584-4950-aefa-70c5fe9180b6","system_id":"levelo_inurba_marseille","lat":43.29257,"lon":5.36132,"is_reserved":false,"is_disabled":false,"rental_uris":{"android":"levelo://app?vid=2922600f-d584-4950-aefa-70c5fe9180b6","ios":"levelo://app?vid=2922600f-d584-4950-aefa-70c5fe9180b6"},"vehicle_type_id":"4","last_reported":1762596582,"current_range_meters":16400,"station_id":"","pricing_plan_id":"cebpf4jnsgd1na2vs0mg"},{"bike_id":"6d1eb896-81cb-4518-898e-01bacd45c76f","system_id":"levelo_inurba_marseille","lat":43.29589,"lon":5.36733,"is_reserved":false,"is_disabled":false,"rental_uris":{"android":"levelo://app?vid=6d1eb896-81cb-4518-898e-01bacd45c76f","ios":"levelo://app?vid=6d1eb896-81cb-4518-898e-01bacd45c76f"},"vehicle_type_id":"4","last_reported":1762596582,"current_range_meters":16800,"station_id":"ce4bgph2rcd13ifvqc2g","pricing_plan_id":"cebpf4jnsgd1na2vs0mg"},{"bike_id":"eb493fb7-22d4-43e3-afb6-2c2db0dae41b","system_id":"levelo_inurba_marseille","lat":43.28261,"lon":5.35056,"is_reserved":false,"is_disabled":false,"rental_uris":{"android":"levelo://app?vid=eb493fb7-22d4-43e3-afb6-2c2db0dae41b","ios":"levelo://app?vid=eb493fb7-22d4-43e3-afb6-2c2db0dae41b"},"vehicle_type_id":"4","last_reported":1762596582,"current_range_meters":16800,"station_id":"ce4bhbp2rcd13ifvqerg","pricing_plan_id":"cebpf4jnsgd1na2vs0mg"},{"bike_id":"53529ee7-fa79-4bfe-8ac3-2ffb63a46b11","system_id":"levelo_inurba_marseille","lat":43.31821,"lon":5.3885,"is_reserved":false,"is_disabled":false,"rental_uris":{"android":"levelo://app?vid=53529ee7-fa79-4bfe-8ac3-2ffb63a46b11","ios":"levelo://app?vid=53529ee7-fa79-4bfe-8ac3-2ffb63a46b11"},"vehicle_type_id":"4","last_reported":1762596582,"current_range_meters":16800,"station_id":"","pricing_plan_id":"cebpf4jnsgd1na2vs0mg"},{"bike_id":"9012bcf8-bb63-442b-8823-1b956a32ae9e","system_id":"levelo_inurba_marseille","lat":43.30128,"lon":5.43098,"is_reserved":false,"is_disabled":false,"rental_uris":{"android":"levelo://app?vid=9012bcf8-bb63-442b-8823-1b956a32ae9e","ios":"levelo://app?vid=9012bcf8-bb63-442b-8823-1b956a32ae9e"},"vehicle_type_id":"4","last_reported":1762596582,"current_range_meters":16800,"station_id":"st_d3js3co5814s73ftftug","pricing_plan_id":"cebpf4jnsgd1na2vs0mg"},{"bike_id":"06b572d6-d95a-4f1a-9a9a-b316897ad6d5","system_id":"levelo_inurba_marseille","lat":43.29545,"lon":5.3752,"is_reserved":false,"is_disabled":false,"rental_uris":{"android":"levelo://app?vid=06b572d6-d95a-4f1a-9a9a-b316897ad6d5","ios":"levelo://app?vid=06b572d6-d95a-4f1a-9a9a-b316897ad6d5"},"vehicle_type_id":"4","last_reported":1762596582,"current_range_meters":16800,"station_id":"ce4bgkp2rcd13ifvqbmg","pricing_plan_id":"cebpf4jnsgd1na2vs0mg"},{"bike_id":"309a1e5e-51c8-4860-8bb7-12924ece393e","system_id":"levelo_inurba_marseille","lat":43.310098,"lon":5.374986,"is_reserved":false,"is_disabled":false,"rental_uris":{"android":"levelo://app?vid=309a1e5e-51c8-4860-8bb7-12924ece393e","ios":"levelo://app?vid=309a1e5e-51c8-4860-8bb7-12924ece393e"},"vehicle_type_id":"4","last_reported":1762596582,"current_range_meters":16800,"station_id":"","pricing_plan_id":"cebpf4jnsgd1na2vs0mg"},{"bike_id":"65d83eaf-428a-43cd-a356-ecaed95948ff","system_id":"levelo_inurba_marseille","lat":43.24841,"lon":5.39797,"is_reserved":false,"is_disabled":false,"rental_uris":{"android":"levelo://app?vid=65d83eaf-428a-43cd-a356-ecaed95948ff","ios":"levelo://app?vid=65d83eaf-428a-43cd-a356-ecaed95948ff"},"vehicle_type_id":"4","last_reported":1762596582,"current_range_meters":17200,"station_id":"","pricing_plan_id":"cebpf4jnsgd1na2vs0mg"},{"bike_id":"c73c5513-728d-4700-9395-e31e4399cd51","system_id":"levelo_inurba_marseille","lat":43.29219,"lon":5.40295,"is_reserved":false,"is_disabled":false,"rental_uris":{"android":"levelo://app?vid=c73c5513-728d-4700-9395-e31e4399cd51","ios":"levelo://app?vid=c73c5513-728d-4700-9395-e31e4399cd51"},"vehicle_type_id":"4","last_reported":1762596582,"current_range_meters":17200,"station_id":"","pricing_plan_id":"cebpf4jnsgd1na2vs0mg"},{"bike_id":"15db09df-59b0-446a-87c5-e354a3319258","system_id":"levelo_inurba_marseille","lat":43.28487,"lon":5.48399,"is_reserved":false,"is_disabled":false,"rental_uris":{"android":"levelo://app?vid=15db09df-59b0-446a-87c5-e354a3319258","ios":"levelo://app?vid=15db09df-59b0-446a-87c5-e354a3319258"},"vehicle_type_id":"4","last_reported":1762596582,"current_range_meters":17200,"station_id":"","pricing_plan_id":"cebpf4jnsgd1na2vs0mg"},{"bike_id":"d9406ae0-a7d7-4070-8130-6f1d39eec4aa","system_id":"levelo_inurba_marseille","lat":43.28609,"lon":5.37062,"is_reserved":false,"is_disabled":false,"rental_uris":{"android":"levelo://app?vid=d9406ae0-a7d7-4070-8130-6f1d39eec4aa","ios":"levelo://app?vid=d9406ae0-a7d7-4070-8130-6f1d39eec4aa"},"vehicle_type_id":"4","last_reported":1762596582,"current_range_meters":17200,"station_id":"ce4bht12rcd13ifvqi60","pricing_plan_id":"cebpf4jnsgd1na2vs0mg"},{"bike_id":"95c2a582-1eba-4ebc-bdda-a353604dc20d","system_id":"levelo_inurba_marseille","lat":43.31241,"lon":5.36892,"is_reserved":false,"is_disabled":false,"rental_uris":{"android":"levelo://app?vid=95c2a582-1eba-4ebc-bdda-a353604dc20d","ios":"levelo://app?vid=95c2a582-1eba-4ebc-bdda-a353604dc20d"},"vehicle_type_id":"4","last_reported":1762596582,"current_range_meters":17200,"station_id":"ce4bgl92rcd13ifvqbq0","pricing_plan_id":"cebpf4jnsgd1na2vs0mg"},{"bike_id":"f51d1ccd-a1ec-48b3-b995-f08e0103ff96","system_id":"levelo_inurba_marseille","lat":43.27689,"lon":5.38869,"is_reserved":false,"is_disabled":false,"rental_uris":{"android":"levelo://app?vid=f51d1ccd-a1ec-48b3-b995-f08e0103ff96","ios":"levelo://app?vid=f51d1ccd-a1ec-48b3-b995-f08e0103ff96"},"vehicle_type_id":"4","last_reported":1762596582,"current_range_meters":17200,"station_id":"ce4bhi12rcd13ifvqfo0","pricing_plan_id":"cebpf4jnsgd1na2vs0mg"},{"bike_id":"cf78c577-f784-4054-9298-4eadfd68926b","system_id":"levelo_inurba_marseille","lat":43.31171,"lon":5.39354,"is_reserved":false,"is_disabled":false,"rental_uris":{"android":"levelo://app?vid=cf78c577-f784-4054-9298-4eadfd68926b","ios":"levelo://app?vid=cf78c577-f784-4054-9298-4eadfd68926b"},"vehicle_type_id":"4","last_reported":1762596582,"current_range_meters":17200,"station_id":"","pricing_plan_id":"cebpf4jnsgd1na2vs0mg"},{"bike_id":"8582a586-3912-4818-9249-459b3c95239d","system_id":"levelo_inurba_marseille","lat":43.23161,"lon":5.43714,"is_reserved":false,"is_disabled":false,"rental_uris":{"android":"levelo://app?vid=8582a586-3912-4818-9249-459b3c95239d","ios":"levelo://app?vid=8582a586-3912-4818-9249-459b3c95239d"},"vehicle_type_id":"4","last_reported":1762596582,"current_range_meters":17600,"station_id":"ce4bhmp2rcd13ifvqgog","pricing_plan_id":"cebpf4jnsgd1na2vs0mg"},{"bike_id":"2fb7e599-67d9-4248-a320-dd2be3039c5f","system_id":"levelo_inurba_marseille","lat":43.29775,"lon":5.38999,"is_reserved":false,"is_disabled":false,"rental_uris":{"android":"levelo://app?vid=2fb7e599-67d9-4248-a320-dd2be3039c5f","ios":"levelo://app?vid=2fb7e599-67d9-4248-a320-dd2be3039c5f"},"vehicle_type_id":"4","last_reported":1762596582,"current_range_meters":17600,"station_id":"","pricing_plan_id":"cebpf4jnsgd1na2vs0mg"},{"bike_id":"378ef682-dcd4-4c48-ac4f-b07600e5cc4d","system_id":"levelo_inurba_marseille","lat":43.28716,"lon":5.37928,"is_reserved":false,"is_disabled":false,"rental_uris":{"android":"levelo://app?vid=378ef682-dcd4-4c48-ac4f-b07600e5cc4d","ios":"levelo://app?vid=378ef682-dcd4-4c48-ac4f-b07600e5cc4d"},"vehicle_type_id":"4","last_reported":1762596582,"current_range_meters":17600,"station_id":"ce4bh9p2rcd13ifvqec0","pricing_plan_id":"cebpf4jnsgd1na2vs0mg"},{"bike_id":"0e40b977-8772-43e1-98d4-439c6ff7226d","system_id":"levelo_inurba_marseille","lat":43.27357,"lon":5.36247,"is_reserved":false,"is_disabled":false,"rental_uris":{"android":"levelo://app?vid=0e40b977-8772-43e1-98d4-439c6ff7226d","ios":"levelo://app?vid=0e40b977-8772-43e1-98d4-439c6ff7226d"},"vehicle_type_id":"4","last_reported":1762596582,"current_range_meters":17600,"station_id":"ce4bhbh2rcd13ifvqeo0","pricing_plan_id":"cebpf4jnsgd1na2vs0mg"},{"bike_id":"f61d5205-9f56-4c50-901f-9e6ecb95d223","system_id":"levelo_inurba_marseille","lat":43.24078,"lon":5.37763,"is_reserved":false,"is_disabled":false,"rental_uris":{"android":"levelo://app?vid=f61d5205-9f56-4c50-901f-9e6ecb95d223","ios":"levelo://app?vid=f61d5205-9f56-4c50-901f-9e6ecb95d223"},"vehicle_type_id":"4","last_reported":1762596582,"current_range_meters":17600,"station_id":"ce4bhnp2rcd13ifvqgvg","pricing_plan_id":"cebpf4jnsgd1na2vs0mg"},{"bike_id":"ec3ac19f-2708-4c17-8ab9-77983f6aee60","system_id":"levelo_inurba_marseille","lat":43.23196,"lon":5.35549,"is_reserved":false,"is_disabled":false,"rental_uris":{"android":"levelo://app?vid=ec3ac19f-2708-4c17-8ab9-77983f6aee60","ios":"levelo://app?vid=ec3ac19f-2708-4c17-8ab9-77983f6aee60"},"vehicle_type_id":"4","last_reported":1762596582,"current_range_meters":17600,"station_id":"ce4bhu92rcd13ifvqi70","pricing_plan_id":"cebpf4jnsgd1na2vs0mg"},{"bike_id":"639e2119-feb2-41ef-a04a-8097682df0bb","system_id":"levelo_inurba_marseille","lat":43.31489,"lon":5.37325,"is_reserved":false,"is_disabled":false,"rental_uris":{"android":"levelo://app?vid=639e2119-feb2-41ef-a04a-8097682df0bb","ios":"levelo://app?vid=639e2119-feb2-41ef-a04a-8097682df0bb"},"vehicle_type_id":"4","last_reported":1762596582,"current_range_meters":17600,"station_id":"ce4bgt12rcd13ifvqcd0","pricing_plan_id":"cebpf4jnsgd1na2vs0mg"},{"bike_id":"ec15ef0d-7838-4f93-be38-edab469018f7","system_id":"levelo_inurba_marseille","lat":43.2927,"lon":5.38436,"is_reserved":false,"is_disabled":false,"rental_uris":{"android":"levelo://app?vid=ec15ef0d-7838-4f93-be38-edab469018f7","ios":"levelo://app?vid=ec15ef0d-7838-4f93-be38-edab469018f7"},"vehicle_type_id":"4","last_reported":1762596582,"current_range_meters":17600,"station_id":"ce4bh692rcd13ifvqea0","pricing_plan_id":"cebpf4jnsgd1na2vs0mg"},{"bike_id":"8311171f-809c-443a-8011-692afb49e5d2","system_id":"levelo_inurba_marseille","lat":43.28266,"lon":5.35057,"is_reserved":false,"is_disabled":false,"rental_uris":{"android":"levelo://app?vid=8311171f-809c-443a-8011-692afb49e5d2","ios":"levelo://app?vid=8311171f-809c-443a-8011-692afb49e5d2"},"vehicle_type_id":"4","last_reported":1762596582,"current_range_meters":17600,"station_id":"ce4bhbp2rcd13ifvqerg","pricing_plan_id":"cebpf4jnsgd1na2vs0mg"},{"bike_id":"ac1012d0-7872-4c6e-85e6-fc8eaff39396","system_id":"levelo_inurba_marseille","lat":43.28463,"lon":5.35882,"is_reserved":false,"is_disabled":true,"rental_uris":{"android":"levelo://app?vid=ac1012d0-7872-4c6e-85e6-fc8eaff39396","ios":"levelo://app?vid=ac1012d0-7872-4c6e-85e6-fc8eaff39396"},"vehicle_type_id":"4","last_reported":1762596582,"current_range_meters":17600,"station_id":"ce4bhah2rcd13ifvqei0","pricing_plan_id":"cebpf4jnsgd1na2vs0mg"},{"bike_id":"a3fc670e-6246-44cc-be04-017cbc4c499a","system_id":"levelo_inurba_marseille","lat":43.26482,"lon":5.3956,"is_reserved":false,"is_disabled":false,"rental_uris":{"android":"levelo://app?vid=a3fc670e-6246-44cc-be04-017cbc4c499a","ios":"levelo://app?vid=a3fc670e-6246-44cc-be04-017cbc4c499a"},"vehicle_type_id":"4","last_reported":1762596582,"current_range_meters":18000,"station_id":"ce4bhi12rcd13ifvqfq0","pricing_plan_id":"cebpf4jnsgd1na2vs0mg"},{"bike_id":"5ca7e156-456f-4551-95d1-e6d848f54d66","system_id":"levelo_inurba_marseille","lat":43.303832,"lon":5.424872,"is_reserved":false,"is_disabled":true,"rental_uris":{"android":"levelo://app?vid=5ca7e156-456f-4551-95d1-e6d848f54d66","ios":"levelo://app?vid=5ca7e156-456f-4551-95d1-e6d848f54d66"},"vehicle_type_id":"4","last_reported":1762596582,"current_range_meters":18000,"station_id":"ce4bhoh2rcd13ifvqh6g","pricing_plan_id":"cebpf4jnsgd1na2vs0mg"},{"bike_id":"20419e9b-f15b-48a7-8991-ce0ca6ef3309","system_id":"levelo_inurba_marseille","lat":43.314922,"lon":5.372839,"is_reserved":false,"is_disabled":false,"rental_uris":{"android":"levelo://app?vid=20419e9b-f15b-48a7-8991-ce0ca6ef3309","ios":"levelo://app?vid=20419e9b-f15b-48a7-8991-ce0ca6ef3309"},"vehicle_type_id":"4","last_reported":1762596582,"current_range_meters":18800,"station_id":"ce4bgt12rcd13ifvqcd0","pricing_plan_id":"cebpf4jnsgd1na2vs0mg"},{"bike_id":"968b325a-68d4-46c0-8df6-ac848293b1df","system_id":"levelo_inurba_marseille","lat":43.304328,"lon":5.388874,"is_reserved":false,"is_disabled":false,"rental_uris":{"android":"levelo://app?vid=968b325a-68d4-46c0-8df6-ac848293b1df","ios":"levelo://app?vid=968b325a-68d4-46c0-8df6-ac848293b1df"},"vehicle_type_id":"4","last_reported":1762596582,"current_range_meters":18800,"station_id":"ce4bgk12rcd13ifvqbi0","pricing_plan_id":"cebpf4jnsgd1na2vs0mg"},{"bike_id":"795dcb60-15e2-473d-8357-7eaddd3fe0e0","system_id":"levelo_inurba_marseille","lat":43.25577,"lon":5.38236,"is_reserved":false,"is_disabled":false,"rental_uris":{"android":"levelo://app?vid=795dcb60-15e2-473d-8357-7eaddd3fe0e0","ios":"levelo://app?vid=795dcb60-15e2-473d-8357-7eaddd3fe0e0"},"vehicle_type_id":"4","last_reported":1762596582,"current_range_meters":18800,"station_id":"ce4bhih2rcd13ifvqfs0","pricing_plan_id":"cebpf4jnsgd1na2vs0mg"},{"bike_id":"6e40ebcb-97cf-4e7d-83c4-17b6c04e849d","system_id":"levelo_inurba_marseille","lat":43.28862,"lon":5.42528,"is_reserved":false,"is_disabled":false,"rental_uris":{"android":"levelo://app?vid=6e40ebcb-97cf-4e7d-83c4-17b6c04e849d","ios":"levelo://app?vid=6e40ebcb-97cf-4e7d-83c4-17b6c04e849d"},"vehicle_type_id":"4","last_reported":1762596582,"current_range_meters":18800,"station_id":"st_d3b462108ojc7389ooeg","pricing_plan_id":"cebpf4jnsgd1na2vs0mg"},{"bike_id":"0b7c636d-c62f-4737-908a-d48f257ccc1a","system_id":"levelo_inurba_marseille","lat":43.30192,"lon":5.36623,"is_reserved":false,"is_disabled":false,"rental_uris":{"android":"levelo://app?vid=0b7c636d-c62f-4737-908a-d48f257ccc1a","ios":"levelo://app?vid=0b7c636d-c62f-4737-908a-d48f257ccc1a"},"vehicle_type_id":"4","last_reported":1762596582,"current_range_meters":18800,"station_id":"ce4bgrh2rcd13ifvqc8g","pricing_plan_id":"cebpf4jnsgd1na2vs0mg"},{"bike_id":"07925b9c-02f4-4f2c-91df-3e2d937b2d54","system_id":"levelo_inurba_marseille","lat":43.27992,"lon":5.41661,"is_reserved":false,"is_disabled":false,"rental_uris":{"android":"levelo://app?vid=07925b9c-02f4-4f2c-91df-3e2d937b2d54","ios":"levelo://app?vid=07925b9c-02f4-4f2c-91df-3e2d937b2d54"},"vehicle_type_id":"4","last_reported":1762596582,"current_range_meters":18800,"station_id":"ce4bho12rcd13ifvqh1g","pricing_plan_id":"cebpf4jnsgd1na2vs0mg"},{"bike_id":"07a45692-c485-40fe-a2fa-8a4aea90b388","system_id":"levelo_inurba_marseille","lat":43.30144,"lon":5.38091,"is_reserved":false,"is_disabled":false,"rental_uris":{"android":"levelo://app?vid=07a45692-c485-40fe-a2fa-8a4aea90b388","ios":"levelo://app?vid=07a45692-c485-40fe-a2fa-8a4aea90b388"},"vehicle_type_id":"4","last_reported":1762596582,"current_range_meters":18800,"station_id":"ce4bgjp2rcd13ifvqbh0","pricing_plan_id":"cebpf4jnsgd1na2vs0mg"},{"bike_id":"2a98206d-ae1c-4849-805c-a6471bf2e6ca","system_id":"levelo_inurba_marseille","lat":43.29933,"lon":5.365427,"is_reserved":false,"is_disabled":false,"rental_uris":{"android":"levelo://app?vid=2a98206d-ae1c-4849-805c-a6471bf2e6ca","ios":"levelo://app?vid=2a98206d-ae1c-4849-805c-a6471bf2e6ca"},"vehicle_type_id":"4","last_reported":1762596582,"current_range_meters":18800,"station_id":"ce4bgm92rcd13ifvqbr0","pricing_plan_id":"cebpf4jnsgd1na2vs0mg"},{"bike_id":"d8a2355e-a776-4b85-8a3e-22368796688d","system_id":"levelo_inurba_marseille","lat":43.30796,"lon":5.36826,"is_reserved":false,"is_disabled":false,"rental_uris":{"android":"levelo://app?vid=d8a2355e-a776-4b85-8a3e-22368796688d","ios":"levelo://app?vid=d8a2355e-a776-4b85-8a3e-22368796688d"},"vehicle_type_id":"4","last_reported":1762596582,"current_range_meters":18800,"station_id":"","pricing_plan_id":"cebpf4jnsgd1na2vs0mg"},{"bike_id":"2d9f7796-d251-44e2-b67f-2b3442558795","system_id":"levelo_inurba_marseille","lat":43.29536,"lon":5.38534,"is_reserved":false,"is_disabled":false,"rental_uris":{"android":"levelo://app?vid=2d9f7796-d251-44e2-b67f-2b3442558795","ios":"levelo://app?vid=2d9f7796-d251-44e2-b67f-2b3442558795"},"vehicle_type_id":"4","last_reported":1762596582,"current_range_meters":18800,"station_id":"ce4bgih2rcd13ifvqba0","pricing_plan_id":"cebpf4jnsgd1na2vs0mg"},{"bike_id":"3585dd0d-06ba-43cf-a48a-a08f0c0af516","system_id":"levelo_inurba_marseille","lat":43.27369,"lon":5.3625,"is_reserved":false,"is_disabled":false,"rental_uris":{"android":"levelo://app?vid=3585dd0d-06ba-43cf-a48a-a08f0c0af516","ios":"levelo://app?vid=3585dd0d-06ba-43cf-a48a-a08f0c0af516"},"vehicle_type_id":"4","last_reported":1762596582,"current_range_meters":19200,"station_id":"ce4bhbh2rcd13ifvqeo0","pricing_plan_id":"cebpf4jnsgd1na2vs0mg"},{"bike_id":"f4b3610c-ddfd-461d-9ea3-633c91510343","system_id":"levelo_inurba_marseille","lat":43.24631,"lon":5.4314,"is_reserved":false,"is_disabled":false,"rental_uris":{"android":"levelo://app?vid=f4b3610c-ddfd-461d-9ea3-633c91510343","ios":"levelo://app?vid=f4b3610c-ddfd-461d-9ea3-633c91510343"},"vehicle_type_id":"4","last_reported":1762596582,"current_range_meters":19200,"station_id":"st_d2m6c4gdas8pm72e190g","pricing_plan_id":"cebpf4jnsgd1na2vs0mg"},{"bike_id":"4674d9f4-3d44-468c-a3d6-5f45963b3858","system_id":"levelo_inurba_marseille","lat":43.21188,"lon":5.35074,"is_reserved":false,"is_disabled":false,"rental_uris":{"android":"levelo://app?vid=4674d9f4-3d44-468c-a3d6-5f45963b3858","ios":"levelo://app?vid=4674d9f4-3d44-468c-a3d6-5f45963b3858"},"vehicle_type_id":"4","last_reported":1762596582,"current_range_meters":19200,"station_id":"st_cvj6sg6p6f1abm77japg","pricing_plan_id":"cebpf4jnsgd1na2vs0mg"},{"bike_id":"95b9f51d-46f7-48a7-917f-8885cd6dcbdc","system_id":"levelo_inurba_marseille","lat":43.27356,"lon":5.41505,"is_reserved":false,"is_disabled":false,"rental_uris":{"android":"levelo://app?vid=95b9f51d-46f7-48a7-917f-8885cd6dcbdc","ios":"levelo://app?vid=95b9f51d-46f7-48a7-917f-8885cd6dcbdc"},"vehicle_type_id":"4","last_reported":1762596582,"current_range_meters":19200,"station_id":"","pricing_plan_id":"cebpf4jnsgd1na2vs0mg"},{"bike_id":"f4631bc2-f6ef-4dfb-bc8e-46a4d590fb08","system_id":"levelo_inurba_marseille","lat":43.240772,"lon":5.377536,"is_reserved":false,"is_disabled":false,"rental_uris":{"android":"levelo://app?vid=f4631bc2-f6ef-4dfb-bc8e-46a4d590fb08","ios":"levelo://app?vid=f4631bc2-f6ef-4dfb-bc8e-46a4d590fb08"},"vehicle_type_id":"4","last_reported":1762596582,"current_range_meters":19200,"station_id":"ce4bhnp2rcd13ifvqgvg","pricing_plan_id":"cebpf4jnsgd1na2vs0mg"},{"bike_id":"1f368cfc-ca04-4aa3-940e-fe1fe4a24959","system_id":"levelo_inurba_marseille","lat":43.296286,"lon":5.377103,"is_reserved":false,"is_disabled":false,"rental_uris":{"android":"levelo://app?vid=1f368cfc-ca04-4aa3-940e-fe1fe4a24959","ios":"levelo://app?vid=1f368cfc-ca04-4aa3-940e-fe1fe4a24959"},"vehicle_type_id":"4","last_reported":1762596582,"current_range_meters":19200,"station_id":"","pricing_plan_id":"cebpf4jnsgd1na2vs0mg"},{"bike_id":"239c858d-7982-4aa9-ac75-31cef5e5ac93","system_id":"levelo_inurba_marseille","lat":43.29592,"lon":5.36722,"is_reserved":false,"is_disabled":false,"rental_uris":{"android":"levelo://app?vid=239c858d-7982-4aa9-ac75-31cef5e5ac93","ios":"levelo://app?vid=239c858d-7982-4aa9-ac75-31cef5e5ac93"},"vehicle_type_id":"4","last_reported":1762596582,"current_range_meters":19200,"station_id":"ce4bgph2rcd13ifvqc2g","pricing_plan_id":"cebpf4jnsgd1na2vs0mg"},{"bike_id":"fe342343-3e33-47eb-b8e6-555d9219419f","system_id":"levelo_inurba_marseille","lat":43.30214,"lon":5.39458,"is_reserved":false,"is_disabled":false,"rental_uris":{"android":"levelo://app?vid=fe342343-3e33-47eb-b8e6-555d9219419f","ios":"levelo://app?vid=fe342343-3e33-47eb-b8e6-555d9219419f"},"vehicle_type_id":"4","last_reported":1762596582,"current_range_meters":19600,"station_id":"ce4bh0p2rcd13ifvqd70","pricing_plan_id":"cebpf4jnsgd1na2vs0mg"},{"bike_id":"e1d2ac3e-a5c1-45dd-a71e-8ef6269474fa","system_id":"levelo_inurba_marseille","lat":43.29829,"lon":5.38572,"is_reserved":false,"is_disabled":false,"rental_uris":{"android":"levelo://app?vid=e1d2ac3e-a5c1-45dd-a71e-8ef6269474fa","ios":"levelo://app?vid=e1d2ac3e-a5c1-45dd-a71e-8ef6269474fa"},"vehicle_type_id":"4","last_reported":1762596582,"current_range_meters":19600,"station_id":"","pricing_plan_id":"cebpf4jnsgd1na2vs0mg"},{"bike_id":"adc728c4-7d88-468c-be89-220c19218372","system_id":"levelo_inurba_marseille","lat":43.30967,"lon":5.38369,"is_reserved":false,"is_disabled":false,"rental_uris":{"android":"levelo://app?vid=adc728c4-7d88-468c-be89-220c19218372","ios":"levelo://app?vid=adc728c4-7d88-468c-be89-220c19218372"},"vehicle_type_id":"4","last_reported":1762596582,"current_range_meters":19600,"station_id":"","pricing_plan_id":"cebpf4jnsgd1na2vs0mg"},{"bike_id":"345285ad-10a7-49ef-b97f-7faa01587ccf","system_id":"levelo_inurba_marseille","lat":43.24618,"lon":5.43174,"is_reserved":false,"is_disabled":false,"rental_uris":{"android":"levelo://app?vid=345285ad-10a7-49ef-b97f-7faa01587ccf","ios":"levelo://app?vid=345285ad-10a7-49ef-b97f-7faa01587ccf"},"vehicle_type_id":"4","last_reported":1762596582,"current_range_meters":19600,"station_id":"st_d2m6c4gdas8pm72e190g","pricing_plan_id":"cebpf4jnsgd1na2vs0mg"},{"bike_id":"3fd95134-3ed7-4fd0-9793-bc954e2e42ea","system_id":"levelo_inurba_marseille","lat":43.284341,"lon":5.375058,"is_reserved":false,"is_disabled":true,"rental_uris":{"android":"levelo://app?vid=3fd95134-3ed7-4fd0-9793-bc954e2e42ea","ios":"levelo://app?vid=3fd95134-3ed7-4fd0-9793-bc954e2e42ea"},"vehicle_type_id":"4","last_reported":1762596582,"current_range_meters":19600,"station_id":"ce4bh412rcd13ifvqds0","pricing_plan_id":"cebpf4jnsgd1na2vs0mg"},{"bike_id":"6ae27e65-4b34-46fc-815d-2ae60ff8a279","system_id":"levelo_inurba_marseille","lat":43.29532,"lon":5.3751,"is_reserved":false,"is_disabled":false,"rental_uris":{"android":"levelo://app?vid=6ae27e65-4b34-46fc-815d-2ae60ff8a279","ios":"levelo://app?vid=6ae27e65-4b34-46fc-815d-2ae60ff8a279"},"vehicle_type_id":"4","last_reported":1762596582,"current_range_meters":19600,"station_id":"ce4bgkp2rcd13ifvqbmg","pricing_plan_id":"cebpf4jnsgd1na2vs0mg"},{"bike_id":"589ab2a7-08a3-44d1-978b-af053575cf94","system_id":"levelo_inurba_marseille","lat":43.304636,"lon":5.379111,"is_reserved":false,"is_disabled":false,"rental_uris":{"android":"levelo://app?vid=589ab2a7-08a3-44d1-978b-af053575cf94","ios":"levelo://app?vid=589ab2a7-08a3-44d1-978b-af053575cf94"},"vehicle_type_id":"4","last_reported":1762596582,"current_range_meters":19600,"station_id":"ce4bgup2rcd13ifvqcn0","pricing_plan_id":"cebpf4jnsgd1na2vs0mg"},{"bike_id":"88b73638-cbc0-400e-90f9-f006526b54c3","system_id":"levelo_inurba_marseille","lat":43.28945,"lon":5.36393,"is_reserved":false,"is_disabled":false,"rental_uris":{"android":"levelo://app?vid=88b73638-cbc0-400e-90f9-f006526b54c3","ios":"levelo://app?vid=88b73638-cbc0-400e-90f9-f006526b54c3"},"vehicle_type_id":"4","last_reported":1762596582,"current_range_meters":19600,"station_id":"ce4bhc92rcd13ifvqetg","pricing_plan_id":"cebpf4jnsgd1na2vs0mg"},{"bike_id":"0111257e-9335-4bbd-88a4-b7ae9c6d1b9a","system_id":"levelo_inurba_marseille","lat":43.28078,"lon":5.39075,"is_reserved":false,"is_disabled":false,"rental_uris":{"android":"levelo://app?vid=0111257e-9335-4bbd-88a4-b7ae9c6d1b9a","ios":"levelo://app?vid=0111257e-9335-4bbd-88a4-b7ae9c6d1b9a"},"vehicle_type_id":"4","last_reported":1762596582,"current_range_meters":19600,"station_id":"","pricing_plan_id":"cebpf4jnsgd1na2vs0mg"},{"bike_id":"c59a4c0b-541a-4cf4-ae18-597390d77672","system_id":"levelo_inurba_marseille","lat":43.240852,"lon":5.37761,"is_reserved":false,"is_disabled":false,"rental_uris":{"android":"levelo://app?vid=c59a4c0b-541a-4cf4-ae18-597390d77672","ios":"levelo://app?vid=c59a4c0b-541a-4cf4-ae18-597390d77672"},"vehicle_type_id":"4","last_reported":1762596582,"current_range_meters":19600,"station_id":"ce4bhnp2rcd13ifvqgvg","pricing_plan_id":"cebpf4jnsgd1na2vs0mg"},{"bike_id":"5f51530e-ad6d-4525-9dbe-df8ccdff7435","system_id":"levelo_inurba_marseille","lat":43.316135,"lon":5.382008,"is_reserved":false,"is_disabled":false,"rental_uris":{"android":"levelo://app?vid=5f51530e-ad6d-4525-9dbe-df8ccdff7435","ios":"levelo://app?vid=5f51530e-ad6d-4525-9dbe-df8ccdff7435"},"vehicle_type_id":"4","last_reported":1762596582,"current_range_meters":19600,"station_id":"","pricing_plan_id":"cebpf4jnsgd1na2vs0mg"},{"bike_id":"c20140d9-42e7-4f8a-af33-0379b6c3bab1","system_id":"levelo_inurba_marseille","lat":43.24076,"lon":5.3774,"is_reserved":false,"is_disabled":false,"rental_uris":{"android":"levelo://app?vid=c20140d9-42e7-4f8a-af33-0379b6c3bab1","ios":"levelo://app?vid=c20140d9-42e7-4f8a-af33-0379b6c3bab1"},"vehicle_type_id":"4","last_reported":1762596582,"current_range_meters":20000,"station_id":"ce4bhnp2rcd13ifvqgvg","pricing_plan_id":"cebpf4jnsgd1na2vs0mg"},{"bike_id":"edbab5ea-5fbf-43f9-9998-2230b6aa2905","system_id":"levelo_inurba_marseille","lat":43.2848,"lon":5.38425,"is_reserved":false,"is_disabled":false,"rental_uris":{"android":"levelo://app?vid=edbab5ea-5fbf-43f9-9998-2230b6aa2905","ios":"levelo://app?vid=edbab5ea-5fbf-43f9-9998-2230b6aa2905"},"vehicle_type_id":"4","last_reported":1762596582,"current_range_meters":20000,"station_id":"","pricing_plan_id":"cebpf4jnsgd1na2vs0mg"},{"bike_id":"a5a51bf9-9908-420d-8212-6ef8d2db5d39","system_id":"levelo_inurba_marseille","lat":43.27379,"lon":5.36243,"is_reserved":false,"is_disabled":false,"rental_uris":{"android":"levelo://app?vid=a5a51bf9-9908-420d-8212-6ef8d2db5d39","ios":"levelo://app?vid=a5a51bf9-9908-420d-8212-6ef8d2db5d39"},"vehicle_type_id":"4","last_reported":1762596582,"current_range_meters":20000,"station_id":"ce4bhbh2rcd13ifvqeo0","pricing_plan_id":"cebpf4jnsgd1na2vs0mg"},{"bike_id":"a0e54e31-a279-4abc-9e71-e56764854bff","system_id":"levelo_inurba_marseille","lat":43.27381,"lon":5.36247,"is_reserved":false,"is_disabled":false,"rental_uris":{"android":"levelo://app?vid=a0e54e31-a279-4abc-9e71-e56764854bff","ios":"levelo://app?vid=a0e54e31-a279-4abc-9e71-e56764854bff"},"vehicle_type_id":"4","last_reported":1762596582,"current_range_meters":20000,"station_id":"ce4bhbh2rcd13ifvqeo0","pricing_plan_id":"cebpf4jnsgd1na2vs0mg"},{"bike_id":"0624675e-eee0-4321-99e1-32672173e901","system_id":"levelo_inurba_marseille","lat":43.24175,"lon":5.36396,"is_reserved":false,"is_disabled":false,"rental_uris":{"android":"levelo://app?vid=0624675e-eee0-4321-99e1-32672173e901","ios":"levelo://app?vid=0624675e-eee0-4321-99e1-32672173e901"},"vehicle_type_id":"4","last_reported":1762596582,"current_range_meters":20000,"station_id":"cpo36qri1sfpv3e86is0","pricing_plan_id":"cebpf4jnsgd1na2vs0mg"},{"bike_id":"08a5ed99-8f81-411f-9ef1-95406e1abdf9","system_id":"levelo_inurba_marseille","lat":43.27742,"lon":5.41661,"is_reserved":false,"is_disabled":false,"rental_uris":{"android":"levelo://app?vid=08a5ed99-8f81-411f-9ef1-95406e1abdf9","ios":"levelo://app?vid=08a5ed99-8f81-411f-9ef1-95406e1abdf9"},"vehicle_type_id":"4","last_reported":1762596582,"current_range_meters":20000,"station_id":"","pricing_plan_id":"cebpf4jnsgd1na2vs0mg"},{"bike_id":"50b934ea-2e5e-4bfd-9f59-7765d8fb6050","system_id":"levelo_inurba_marseille","lat":43.26064,"lon":5.39397,"is_reserved":false,"is_disabled":false,"rental_uris":{"android":"levelo://app?vid=50b934ea-2e5e-4bfd-9f59-7765d8fb6050","ios":"levelo://app?vid=50b934ea-2e5e-4bfd-9f59-7765d8fb6050"},"vehicle_type_id":"4","last_reported":1762596582,"current_range_meters":20000,"station_id":"ce4bhh92rcd13ifvqfj0","pricing_plan_id":"cebpf4jnsgd1na2vs0mg"},{"bike_id":"a2065f9f-990a-43c3-a87b-80363570cf38","system_id":"levelo_inurba_marseille","lat":43.32462,"lon":5.36584,"is_reserved":false,"is_disabled":false,"rental_uris":{"android":"levelo://app?vid=a2065f9f-990a-43c3-a87b-80363570cf38","ios":"levelo://app?vid=a2065f9f-990a-43c3-a87b-80363570cf38"},"vehicle_type_id":"4","last_reported":1762596582,"current_range_meters":20000,"station_id":"ce4bhs12rcd13ifvqhvg","pricing_plan_id":"cebpf4jnsgd1na2vs0mg"},{"bike_id":"1acb33f3-8213-40fe-944c-e135d34695db","system_id":"levelo_inurba_marseille","lat":43.28597,"lon":5.39372,"is_reserved":false,"is_disabled":false,"rental_uris":{"android":"levelo://app?vid=1acb33f3-8213-40fe-944c-e135d34695db","ios":"levelo://app?vid=1acb33f3-8213-40fe-944c-e135d34695db"},"vehicle_type_id":"4","last_reported":1762596582,"current_range_meters":20000,"station_id":"","pricing_plan_id":"cebpf4jnsgd1na2vs0mg"},{"bike_id":"8e6e3336-b56b-463a-9856-72285a4af132","system_id":"levelo_inurba_marseille","lat":43.2706,"lon":5.40248,"is_reserved":false,"is_disabled":false,"rental_uris":{"android":"levelo://app?vid=8e6e3336-b56b-463a-9856-72285a4af132","ios":"levelo://app?vid=8e6e3336-b56b-463a-9856-72285a4af132"},"vehicle_type_id":"4","last_reported":1762596582,"current_range_meters":20000,"station_id":"ce4bhk92rcd13ifvqgc0","pricing_plan_id":"cebpf4jnsgd1na2vs0mg"},{"bike_id":"fee4f445-bba8-4be4-a3da-4decf51271b2","system_id":"levelo_inurba_marseille","lat":43.31841,"lon":5.40715,"is_reserved":false,"is_disabled":false,"rental_uris":{"android":"levelo://app?vid=fee4f445-bba8-4be4-a3da-4decf51271b2","ios":"levelo://app?vid=fee4f445-bba8-4be4-a3da-4decf51271b2"},"vehicle_type_id":"4","last_reported":1762596582,"current_range_meters":20400,"station_id":"","pricing_plan_id":"cebpf4jnsgd1na2vs0mg"},{"bike_id":"34287b7a-a13d-4508-86b2-e19fe6d9adcb","system_id":"levelo_inurba_marseille","lat":43.249483,"lon":5.404957,"is_reserved":false,"is_disabled":false,"rental_uris":{"android":"levelo://app?vid=34287b7a-a13d-4508-86b2-e19fe6d9adcb","ios":"levelo://app?vid=34287b7a-a13d-4508-86b2-e19fe6d9adcb"},"vehicle_type_id":"4","last_reported":1762596582,"current_range_meters":20400,"station_id":"st_d2ngiaodas8pm72gd1h0","pricing_plan_id":"cebpf4jnsgd1na2vs0mg"},{"bike_id":"6612d057-d04e-446c-84b0-f7489ba06db0","system_id":"levelo_inurba_marseille","lat":43.23156,"lon":5.43707,"is_reserved":false,"is_disabled":false,"rental_uris":{"android":"levelo://app?vid=6612d057-d04e-446c-84b0-f7489ba06db0","ios":"levelo://app?vid=6612d057-d04e-446c-84b0-f7489ba06db0"},"vehicle_type_id":"4","last_reported":1762596582,"current_range_meters":20400,"station_id":"ce4bhmp2rcd13ifvqgog","pricing_plan_id":"cebpf4jnsgd1na2vs0mg"},{"bike_id":"cd964824-1ef5-45fa-b6ba-e885af766e7f","system_id":"levelo_inurba_marseille","lat":43.28408,"lon":5.34979,"is_reserved":false,"is_disabled":false,"rental_uris":{"android":"levelo://app?vid=cd964824-1ef5-45fa-b6ba-e885af766e7f","ios":"levelo://app?vid=cd964824-1ef5-45fa-b6ba-e885af766e7f"},"vehicle_type_id":"4","last_reported":1762596582,"current_range_meters":20400,"station_id":"ce4bhbh2rcd13ifvqepg","pricing_plan_id":"cebpf4jnsgd1na2vs0mg"},{"bike_id":"c57215d2-21b5-42d7-89f1-b3de14ced29e","system_id":"levelo_inurba_marseille","lat":43.28978,"lon":5.37837,"is_reserved":false,"is_disabled":false,"rental_uris":{"android":"levelo://app?vid=c57215d2-21b5-42d7-89f1-b3de14ced29e","ios":"levelo://app?vid=c57215d2-21b5-42d7-89f1-b3de14ced29e"},"vehicle_type_id":"4","last_reported":1762596582,"current_range_meters":20400,"station_id":"ce4bh9p2rcd13ifvqed0","pricing_plan_id":"cebpf4jnsgd1na2vs0mg"},{"bike_id":"e8b6d1b2-9aeb-4db2-a322-897007e252db","system_id":"levelo_inurba_marseille","lat":43.30079,"lon":5.36627,"is_reserved":false,"is_disabled":false,"rental_uris":{"android":"levelo://app?vid=e8b6d1b2-9aeb-4db2-a322-897007e252db","ios":"levelo://app?vid=e8b6d1b2-9aeb-4db2-a322-897007e252db"},"vehicle_type_id":"4","last_reported":1762596582,"current_range_meters":20400,"station_id":"","pricing_plan_id":"cebpf4jnsgd1na2vs0mg"},{"bike_id":"f114550f-0e97-467f-a15f-491fe7ea5021","system_id":"levelo_inurba_marseille","lat":43.293034,"lon":5.37181,"is_reserved":false,"is_disabled":true,"rental_uris":{"android":"levelo://app?vid=f114550f-0e97-467f-a15f-491fe7ea5021","ios":"levelo://app?vid=f114550f-0e97-467f-a15f-491fe7ea5021"},"vehicle_type_id":"4","last_reported":1762596582,"current_range_meters":20800,"station_id":"ce4bgh92rcd13ifvqb40","pricing_plan_id":"cebpf4jnsgd1na2vs0mg"},{"bike_id":"2b077b78-5a8c-42b8-afe3-a4166193f769","system_id":"levelo_inurba_marseille","lat":43.301205,"lon":5.431178,"is_reserved":false,"is_disabled":false,"rental_uris":{"android":"levelo://app?vid=2b077b78-5a8c-42b8-afe3-a4166193f769","ios":"levelo://app?vid=2b077b78-5a8c-42b8-afe3-a4166193f769"},"vehicle_type_id":"4","last_reported":1762596582,"current_range_meters":20800,"station_id":"st_d3js3co5814s73ftftug","pricing_plan_id":"cebpf4jnsgd1na2vs0mg"},{"bike_id":"94dbf29a-9c3b-466d-9520-9a135a8f85b6","system_id":"levelo_inurba_marseille","lat":43.26224,"lon":5.40434,"is_reserved":false,"is_disabled":false,"rental_uris":{"android":"levelo://app?vid=94dbf29a-9c3b-466d-9520-9a135a8f85b6","ios":"levelo://app?vid=94dbf29a-9c3b-466d-9520-9a135a8f85b6"},"vehicle_type_id":"4","last_reported":1762596582,"current_range_meters":20800,"station_id":"ce4bhmh2rcd13ifvqgmg","pricing_plan_id":"cebpf4jnsgd1na2vs0mg"},{"bike_id":"57a7a133-ddd4-4485-9ee9-9a7fd31925f9","system_id":"levelo_inurba_marseille","lat":43.28914,"lon":5.354515,"is_reserved":false,"is_disabled":false,"rental_uris":{"android":"levelo://app?vid=57a7a133-ddd4-4485-9ee9-9a7fd31925f9","ios":"levelo://app?vid=57a7a133-ddd4-4485-9ee9-9a7fd31925f9"},"vehicle_type_id":"4","last_reported":1762596582,"current_range_meters":20800,"station_id":"ce4bht12rcd13ifvqi60","pricing_plan_id":"cebpf4jnsgd1na2vs0mg"},{"bike_id":"d960de7a-5ef1-4dee-ac7c-401f4c178df2","system_id":"levelo_inurba_marseille","lat":43.28614,"lon":5.37071,"is_reserved":false,"is_disabled":false,"rental_uris":{"android":"levelo://app?vid=d960de7a-5ef1-4dee-ac7c-401f4c178df2","ios":"levelo://app?vid=d960de7a-5ef1-4dee-ac7c-401f4c178df2"},"vehicle_type_id":"4","last_reported":1762596582,"current_range_meters":20800,"station_id":"ce4bht12rcd13ifvqi60","pricing_plan_id":"cebpf4jnsgd1na2vs0mg"},{"bike_id":"a3ec4ec7-9558-4a05-9238-5ff5eb3ac71d","system_id":"levelo_inurba_marseille","lat":43.24401,"lon":5.37034,"is_reserved":false,"is_disabled":false,"rental_uris":{"android":"levelo://app?vid=a3ec4ec7-9558-4a05-9238-5ff5eb3ac71d","ios":"levelo://app?vid=a3ec4ec7-9558-4a05-9238-5ff5eb3ac71d"},"vehicle_type_id":"4","last_reported":1762596582,"current_range_meters":21600,"station_id":"ce4bhhh2rcd13ifvqfk0","pricing_plan_id":"cebpf4jnsgd1na2vs0mg"},{"bike_id":"11e60ff5-b1c8-4230-9403-d58f2d0519ce","system_id":"levelo_inurba_marseille","lat":43.31171,"lon":5.38709,"is_reserved":false,"is_disabled":false,"rental_uris":{"android":"levelo://app?vid=11e60ff5-b1c8-4230-9403-d58f2d0519ce","ios":"levelo://app?vid=11e60ff5-b1c8-4230-9403-d58f2d0519ce"},"vehicle_type_id":"4","last_reported":1762596582,"current_range_meters":21600,"station_id":"ce4bgv12rcd13ifvqcp0","pricing_plan_id":"cebpf4jnsgd1na2vs0mg"},{"bike_id":"1c1a4c38-017e-41a8-ae7a-dcacc4672de2","system_id":"levelo_inurba_marseille","lat":43.28474,"lon":5.38405,"is_reserved":false,"is_disabled":false,"rental_uris":{"android":"levelo://app?vid=1c1a4c38-017e-41a8-ae7a-dcacc4672de2","ios":"levelo://app?vid=1c1a4c38-017e-41a8-ae7a-dcacc4672de2"},"vehicle_type_id":"4","last_reported":1762596582,"current_range_meters":21600,"station_id":"ce4bh512rcd13ifvqe3g","pricing_plan_id":"cebpf4jnsgd1na2vs0mg"},{"bike_id":"ec6340f8-7727-41b8-813c-c4fa4f858f84","system_id":"levelo_inurba_marseille","lat":43.30153,"lon":5.38076,"is_reserved":false,"is_disabled":false,"rental_uris":{"android":"levelo://app?vid=ec6340f8-7727-41b8-813c-c4fa4f858f84","ios":"levelo://app?vid=ec6340f8-7727-41b8-813c-c4fa4f858f84"},"vehicle_type_id":"4","last_reported":1762596582,"current_range_meters":21600,"station_id":"ce4bgjp2rcd13ifvqbh0","pricing_plan_id":"cebpf4jnsgd1na2vs0mg"},{"bike_id":"ab4ac132-5519-4aac-ac12-8b8c2929bb7e","system_id":"levelo_inurba_marseille","lat":43.3236,"lon":5.38492,"is_reserved":false,"is_disabled":false,"rental_uris":{"android":"levelo://app?vid=ab4ac132-5519-4aac-ac12-8b8c2929bb7e","ios":"levelo://app?vid=ab4ac132-5519-4aac-ac12-8b8c2929bb7e"},"vehicle_type_id":"4","last_reported":1762596582,"current_range_meters":21600,"station_id":"st_d45171o9ee8s73djdqug","pricing_plan_id":"cebpf4jnsgd1na2vs0mg"},{"bike_id":"6c7352c9-91e0-4ca0-ada7-3e87d414eec1","system_id":"levelo_inurba_marseille","lat":43.25501,"lon":5.37648,"is_reserved":false,"is_disabled":false,"rental_uris":{"android":"levelo://app?vid=6c7352c9-91e0-4ca0-ada7-3e87d414eec1","ios":"levelo://app?vid=6c7352c9-91e0-4ca0-ada7-3e87d414eec1"},"vehicle_type_id":"4","last_reported":1762596582,"current_range_meters":21600,"station_id":"ce4bhh12rcd13ifvqff0","pricing_plan_id":"cebpf4jnsgd1na2vs0mg"},{"bike_id":"8e570552-a09f-485b-84b2-78e34bf0aa93","system_id":"levelo_inurba_marseille","lat":43.24622,"lon":5.43135,"is_reserved":false,"is_disabled":false,"rental_uris":{"android":"levelo://app?vid=8e570552-a09f-485b-84b2-78e34bf0aa93","ios":"levelo://app?vid=8e570552-a09f-485b-84b2-78e34bf0aa93"},"vehicle_type_id":"4","last_reported":1762596582,"current_range_meters":21600,"station_id":"st_d2m6c4gdas8pm72e190g","pricing_plan_id":"cebpf4jnsgd1na2vs0mg"},{"bike_id":"52bf01b4-7a62-448a-a3bf-42f54e24f24a","system_id":"levelo_inurba_marseille","lat":43.30163,"lon":5.38101,"is_reserved":false,"is_disabled":false,"rental_uris":{"android":"levelo://app?vid=52bf01b4-7a62-448a-a3bf-42f54e24f24a","ios":"levelo://app?vid=52bf01b4-7a62-448a-a3bf-42f54e24f24a"},"vehicle_type_id":"4","last_reported":1762596582,"current_range_meters":21600,"station_id":"ce4bgjp2rcd13ifvqbh0","pricing_plan_id":"cebpf4jnsgd1na2vs0mg"},{"bike_id":"801e4d61-52e9-4f77-b7b7-238bd7f1ddaa","system_id":"levelo_inurba_marseille","lat":43.2293,"lon":5.35379,"is_reserved":false,"is_disabled":false,"rental_uris":{"android":"levelo://app?vid=801e4d61-52e9-4f77-b7b7-238bd7f1ddaa","ios":"levelo://app?vid=801e4d61-52e9-4f77-b7b7-238bd7f1ddaa"},"vehicle_type_id":"4","last_reported":1762596582,"current_range_meters":21600,"station_id":"cpo3532slgdg3j2ikp40","pricing_plan_id":"cebpf4jnsgd1na2vs0mg"},{"bike_id":"3b1d092d-fafd-4a2e-a804-e8dc8556923e","system_id":"levelo_inurba_marseille","lat":43.29045,"lon":5.35907,"is_reserved":false,"is_disabled":false,"rental_uris":{"android":"levelo://app?vid=3b1d092d-fafd-4a2e-a804-e8dc8556923e","ios":"levelo://app?vid=3b1d092d-fafd-4a2e-a804-e8dc8556923e"},"vehicle_type_id":"4","last_reported":1762596582,"current_range_meters":22000,"station_id":"ce4bha92rcd13ifvqeg0","pricing_plan_id":"cebpf4jnsgd1na2vs0mg"},{"bike_id":"4f6a8492-0f08-48dd-b6d2-6038ab89e278","system_id":"levelo_inurba_marseille","lat":43.27374,"lon":5.36244,"is_reserved":false,"is_disabled":false,"rental_uris":{"android":"levelo://app?vid=4f6a8492-0f08-48dd-b6d2-6038ab89e278","ios":"levelo://app?vid=4f6a8492-0f08-48dd-b6d2-6038ab89e278"},"vehicle_type_id":"4","last_reported":1762596582,"current_range_meters":22000,"station_id":"ce4bhbh2rcd13ifvqeo0","pricing_plan_id":"cebpf4jnsgd1na2vs0mg"},{"bike_id":"4a299e7b-fa77-4d39-93fa-a705e8d40c9f","system_id":"levelo_inurba_marseille","lat":43.3133,"lon":5.37923,"is_reserved":false,"is_disabled":false,"rental_uris":{"android":"levelo://app?vid=4a299e7b-fa77-4d39-93fa-a705e8d40c9f","ios":"levelo://app?vid=4a299e7b-fa77-4d39-93fa-a705e8d40c9f"},"vehicle_type_id":"4","last_reported":1762596582,"current_range_meters":22000,"station_id":"","pricing_plan_id":"cebpf4jnsgd1na2vs0mg"},{"bike_id":"d479bf52-1e7e-4cc3-8591-7c5507d6ecab","system_id":"levelo_inurba_marseille","lat":43.229401,"lon":5.35377,"is_reserved":false,"is_disabled":false,"rental_uris":{"android":"levelo://app?vid=d479bf52-1e7e-4cc3-8591-7c5507d6ecab","ios":"levelo://app?vid=d479bf52-1e7e-4cc3-8591-7c5507d6ecab"},"vehicle_type_id":"4","last_reported":1762596582,"current_range_meters":22000,"station_id":"cpo3532slgdg3j2ikp40","pricing_plan_id":"cebpf4jnsgd1na2vs0mg"},{"bike_id":"96807a8e-1b45-4a36-b7ed-92091f4bcaf6","system_id":"levelo_inurba_marseille","lat":43.309306,"lon":5.401424,"is_reserved":false,"is_disabled":true,"rental_uris":{"android":"levelo://app?vid=96807a8e-1b45-4a36-b7ed-92091f4bcaf6","ios":"levelo://app?vid=96807a8e-1b45-4a36-b7ed-92091f4bcaf6"},"vehicle_type_id":"4","last_reported":1762596582,"current_range_meters":22400,"station_id":"","pricing_plan_id":"cebpf4jnsgd1na2vs0mg"},{"bike_id":"f4cd1f76-686b-443b-bf62-c78f0f11dda9","system_id":"levelo_inurba_marseille","lat":43.28407,"lon":5.37514,"is_reserved":false,"is_disabled":true,"rental_uris":{"android":"levelo://app?vid=f4cd1f76-686b-443b-bf62-c78f0f11dda9","ios":"levelo://app?vid=f4cd1f76-686b-443b-bf62-c78f0f11dda9"},"vehicle_type_id":"4","last_reported":1762596582,"current_range_meters":22400,"station_id":"ce4bh412rcd13ifvqds0","pricing_plan_id":"cebpf4jnsgd1na2vs0mg"},{"bike_id":"3a78c201-e786-4e39-96ca-d21f313ce1e4","system_id":"levelo_inurba_marseille","lat":43.29172,"lon":5.37125,"is_reserved":false,"is_disabled":false,"rental_uris":{"android":"levelo://app?vid=3a78c201-e786-4e39-96ca-d21f313ce1e4","ios":"levelo://app?vid=3a78c201-e786-4e39-96ca-d21f313ce1e4"},"vehicle_type_id":"4","last_reported":1762596582,"current_range_meters":22400,"station_id":"ce4bha92rcd13ifvqeh0","pricing_plan_id":"cebpf4jnsgd1na2vs0mg"},{"bike_id":"896a0fc4-e98e-425f-b646-7db4d5ace172","system_id":"levelo_inurba_marseille","lat":43.3199,"lon":5.38155,"is_reserved":false,"is_disabled":false,"rental_uris":{"android":"levelo://app?vid=896a0fc4-e98e-425f-b646-7db4d5ace172","ios":"levelo://app?vid=896a0fc4-e98e-425f-b646-7db4d5ace172"},"vehicle_type_id":"4","last_reported":1762596582,"current_range_meters":22400,"station_id":"ce4bhr12rcd13ifvqhpg","pricing_plan_id":"cebpf4jnsgd1na2vs0mg"},{"bike_id":"7965323a-51d4-4eb8-acdb-c9e2c3e845c3","system_id":"levelo_inurba_marseille","lat":43.28163,"lon":5.42638,"is_reserved":false,"is_disabled":false,"rental_uris":{"android":"levelo://app?vid=7965323a-51d4-4eb8-acdb-c9e2c3e845c3","ios":"levelo://app?vid=7965323a-51d4-4eb8-acdb-c9e2c3e845c3"},"vehicle_type_id":"4","last_reported":1762596582,"current_range_meters":22400,"station_id":"ce4bhnh2rcd13ifvqgug","pricing_plan_id":"cebpf4jnsgd1na2vs0mg"},{"bike_id":"77dd386a-c491-4903-b512-c2486567c465","system_id":"levelo_inurba_marseille","lat":43.289473,"lon":5.36643,"is_reserved":false,"is_disabled":false,"rental_uris":{"android":"levelo://app?vid=77dd386a-c491-4903-b512-c2486567c465","ios":"levelo://app?vid=77dd386a-c491-4903-b512-c2486567c465"},"vehicle_type_id":"4","last_reported":1762596582,"current_range_meters":22400,"station_id":"ce4bhap2rcd13ifvqek0","pricing_plan_id":"cebpf4jnsgd1na2vs0mg"},{"bike_id":"39ff6a52-7c15-4e36-9056-950efe8be9ca","system_id":"levelo_inurba_marseille","lat":43.28488,"lon":5.48377,"is_reserved":false,"is_disabled":false,"rental_uris":{"android":"levelo://app?vid=39ff6a52-7c15-4e36-9056-950efe8be9ca","ios":"levelo://app?vid=39ff6a52-7c15-4e36-9056-950efe8be9ca"},"vehicle_type_id":"4","last_reported":1762596582,"current_range_meters":22400,"station_id":"","pricing_plan_id":"cebpf4jnsgd1na2vs0mg"},{"bike_id":"2d003246-289e-4235-87e3-d86a55465f5e","system_id":"levelo_inurba_marseille","lat":43.29892,"lon":5.37537,"is_reserved":false,"is_disabled":false,"rental_uris":{"android":"levelo://app?vid=2d003246-289e-4235-87e3-d86a55465f5e","ios":"levelo://app?vid=2d003246-289e-4235-87e3-d86a55465f5e"},"vehicle_type_id":"4","last_reported":1762596582,"current_range_meters":22800,"station_id":"","pricing_plan_id":"cebpf4jnsgd1na2vs0mg"},{"bike_id":"8d6b4679-b45c-4150-843a-a405a67bf27e","system_id":"levelo_inurba_marseille","lat":43.272857,"lon":5.416219,"is_reserved":false,"is_disabled":false,"rental_uris":{"android":"levelo://app?vid=8d6b4679-b45c-4150-843a-a405a67bf27e","ios":"levelo://app?vid=8d6b4679-b45c-4150-843a-a405a67bf27e"},"vehicle_type_id":"4","last_reported":1762596582,"current_range_meters":22800,"station_id":"","pricing_plan_id":"cebpf4jnsgd1na2vs0mg"},{"bike_id":"27bf3962-75f8-4cfd-942a-5c92a6ea4c99","system_id":"levelo_inurba_marseille","lat":43.309718,"lon":5.383027,"is_reserved":false,"is_disabled":false,"rental_uris":{"android":"levelo://app?vid=27bf3962-75f8-4cfd-942a-5c92a6ea4c99","ios":"levelo://app?vid=27bf3962-75f8-4cfd-942a-5c92a6ea4c99"},"vehicle_type_id":"4","last_reported":1762596582,"current_range_meters":22800,"station_id":"","pricing_plan_id":"cebpf4jnsgd1na2vs0mg"},{"bike_id":"30eb5362-1b7a-4b18-9118-99dd2fc0581e","system_id":"levelo_inurba_marseille","lat":43.21742,"lon":5.34599,"is_reserved":false,"is_disabled":false,"rental_uris":{"android":"levelo://app?vid=30eb5362-1b7a-4b18-9118-99dd2fc0581e","ios":"levelo://app?vid=30eb5362-1b7a-4b18-9118-99dd2fc0581e"},"vehicle_type_id":"4","last_reported":1762596582,"current_range_meters":22800,"station_id":"st_cvj6r9ubvosntc0bgbag","pricing_plan_id":"cebpf4jnsgd1na2vs0mg"},{"bike_id":"a17e4c74-5774-4556-8e8d-3f21edde9d59","system_id":"levelo_inurba_marseille","lat":43.30582,"lon":5.38977,"is_reserved":false,"is_disabled":false,"rental_uris":{"android":"levelo://app?vid=a17e4c74-5774-4556-8e8d-3f21edde9d59","ios":"levelo://app?vid=a17e4c74-5774-4556-8e8d-3f21edde9d59"},"vehicle_type_id":"4","last_reported":1762596582,"current_range_meters":23200,"station_id":"","pricing_plan_id":"cebpf4jnsgd1na2vs0mg"},{"bike_id":"61f95c25-c41d-403f-ac97-fe796814277d","system_id":"levelo_inurba_marseille","lat":43.2752,"lon":5.39554,"is_reserved":false,"is_disabled":false,"rental_uris":{"android":"levelo://app?vid=61f95c25-c41d-403f-ac97-fe796814277d","ios":"levelo://app?vid=61f95c25-c41d-403f-ac97-fe796814277d"},"vehicle_type_id":"4","last_reported":1762596582,"current_range_meters":23200,"station_id":"","pricing_plan_id":"cebpf4jnsgd1na2vs0mg"},{"bike_id":"56b9e3eb-d4b8-4344-9b37-971db1dfd39c","system_id":"levelo_inurba_marseille","lat":43.2734,"lon":5.39133,"is_reserved":false,"is_disabled":false,"rental_uris":{"android":"levelo://app?vid=56b9e3eb-d4b8-4344-9b37-971db1dfd39c","ios":"levelo://app?vid=56b9e3eb-d4b8-4344-9b37-971db1dfd39c"},"vehicle_type_id":"4","last_reported":1762596582,"current_range_meters":23200,"station_id":"","pricing_plan_id":"cebpf4jnsgd1na2vs0mg"},{"bike_id":"c193b800-cb05-4a5f-8fb8-1a20e6da848c","system_id":"levelo_inurba_marseille","lat":43.30156,"lon":5.38079,"is_reserved":false,"is_disabled":false,"rental_uris":{"android":"levelo://app?vid=c193b800-cb05-4a5f-8fb8-1a20e6da848c","ios":"levelo://app?vid=c193b800-cb05-4a5f-8fb8-1a20e6da848c"},"vehicle_type_id":"4","last_reported":1762596582,"current_range_meters":23200,"station_id":"ce4bgjp2rcd13ifvqbh0","pricing_plan_id":"cebpf4jnsgd1na2vs0mg"},{"bike_id":"ab6ace08-cc5a-4ead-a6bf-b1ef143a9bbb","system_id":"levelo_inurba_marseille","lat":43.27369,"lon":5.36242,"is_reserved":false,"is_disabled":false,"rental_uris":{"android":"levelo://app?vid=ab6ace08-cc5a-4ead-a6bf-b1ef143a9bbb","ios":"levelo://app?vid=ab6ace08-cc5a-4ead-a6bf-b1ef143a9bbb"},"vehicle_type_id":"4","last_reported":1762596582,"current_range_meters":23200,"station_id":"ce4bhbh2rcd13ifvqeo0","pricing_plan_id":"cebpf4jnsgd1na2vs0mg"},{"bike_id":"a62fa657-027c-4944-8c94-8d6f24d533fa","system_id":"levelo_inurba_marseille","lat":43.24389,"lon":5.37064,"is_reserved":false,"is_disabled":false,"rental_uris":{"android":"levelo://app?vid=a62fa657-027c-4944-8c94-8d6f24d533fa","ios":"levelo://app?vid=a62fa657-027c-4944-8c94-8d6f24d533fa"},"vehicle_type_id":"4","last_reported":1762596582,"current_range_meters":23200,"station_id":"ce4bhhh2rcd13ifvqfk0","pricing_plan_id":"cebpf4jnsgd1na2vs0mg"},{"bike_id":"f85eec26-0a53-4a4d-b3b2-d69230d21ac8","system_id":"levelo_inurba_marseille","lat":43.28616,"lon":5.37055,"is_reserved":false,"is_disabled":false,"rental_uris":{"android":"levelo://app?vid=f85eec26-0a53-4a4d-b3b2-d69230d21ac8","ios":"levelo://app?vid=f85eec26-0a53-4a4d-b3b2-d69230d21ac8"},"vehicle_type_id":"4","last_reported":1762596582,"current_range_meters":23200,"station_id":"ce4bht12rcd13ifvqi60","pricing_plan_id":"cebpf4jnsgd1na2vs0mg"},{"bike_id":"603c2c2e-b63d-496b-8de3-119ee8e49da4","system_id":"levelo_inurba_marseille","lat":43.232788,"lon":5.356837,"is_reserved":false,"is_disabled":false,"rental_uris":{"android":"levelo://app?vid=603c2c2e-b63d-496b-8de3-119ee8e49da4","ios":"levelo://app?vid=603c2c2e-b63d-496b-8de3-119ee8e49da4"},"vehicle_type_id":"4","last_reported":1762596582,"current_range_meters":23200,"station_id":"ce4bhu92rcd13ifvqi70","pricing_plan_id":"cebpf4jnsgd1na2vs0mg"},{"bike_id":"887717c5-8661-44a3-9d46-f2199f58f9cd","system_id":"levelo_inurba_marseille","lat":43.217377,"lon":5.346178,"is_reserved":false,"is_disabled":false,"rental_uris":{"android":"levelo://app?vid=887717c5-8661-44a3-9d46-f2199f58f9cd","ios":"levelo://app?vid=887717c5-8661-44a3-9d46-f2199f58f9cd"},"vehicle_type_id":"4","last_reported":1762596582,"current_range_meters":23200,"station_id":"","pricing_plan_id":"cebpf4jnsgd1na2vs0mg"},{"bike_id":"443e3bbf-2118-4f87-99ed-be5f90dc1847","system_id":"levelo_inurba_marseille","lat":43.29582,"lon":5.36735,"is_reserved":false,"is_disabled":false,"rental_uris":{"android":"levelo://app?vid=443e3bbf-2118-4f87-99ed-be5f90dc1847","ios":"levelo://app?vid=443e3bbf-2118-4f87-99ed-be5f90dc1847"},"vehicle_type_id":"4","last_reported":1762596582,"current_range_meters":24000,"station_id":"ce4bgph2rcd13ifvqc2g","pricing_plan_id":"cebpf4jnsgd1na2vs0mg"},{"bike_id":"1c6c8640-b108-4277-8d69-9014077e683f","system_id":"levelo_inurba_marseille","lat":43.33768,"lon":5.37483,"is_reserved":false,"is_disabled":false,"rental_uris":{"android":"levelo://app?vid=1c6c8640-b108-4277-8d69-9014077e683f","ios":"levelo://app?vid=1c6c8640-b108-4277-8d69-9014077e683f"},"vehicle_type_id":"4","last_reported":1762596582,"current_range_meters":24000,"station_id":"","pricing_plan_id":"cebpf4jnsgd1na2vs0mg"},{"bike_id":"0f505f76-6c31-4eb8-9a95-9fdf8c0f2ff9","system_id":"levelo_inurba_marseille","lat":43.291768,"lon":5.388358,"is_reserved":false,"is_disabled":false,"rental_uris":{"android":"levelo://app?vid=0f505f76-6c31-4eb8-9a95-9fdf8c0f2ff9","ios":"levelo://app?vid=0f505f76-6c31-4eb8-9a95-9fdf8c0f2ff9"},"vehicle_type_id":"4","last_reported":1762596582,"current_range_meters":24000,"station_id":"","pricing_plan_id":"cebpf4jnsgd1na2vs0mg"},{"bike_id":"67ddd096-09a7-4afa-b80d-fd7b0ac5befa","system_id":"levelo_inurba_marseille","lat":43.28415,"lon":5.34976,"is_reserved":false,"is_disabled":false,"rental_uris":{"android":"levelo://app?vid=67ddd096-09a7-4afa-b80d-fd7b0ac5befa","ios":"levelo://app?vid=67ddd096-09a7-4afa-b80d-fd7b0ac5befa"},"vehicle_type_id":"4","last_reported":1762596582,"current_range_meters":24000,"station_id":"ce4bhbh2rcd13ifvqepg","pricing_plan_id":"cebpf4jnsgd1na2vs0mg"},{"bike_id":"472a02f0-6aee-45f8-ac22-59f1946b979c","system_id":"levelo_inurba_marseille","lat":43.23193,"lon":5.35549,"is_reserved":false,"is_disabled":false,"rental_uris":{"android":"levelo://app?vid=472a02f0-6aee-45f8-ac22-59f1946b979c","ios":"levelo://app?vid=472a02f0-6aee-45f8-ac22-59f1946b979c"},"vehicle_type_id":"4","last_reported":1762596582,"current_range_meters":24000,"station_id":"ce4bhu92rcd13ifvqi70","pricing_plan_id":"cebpf4jnsgd1na2vs0mg"},{"bike_id":"c9bfee3c-a11a-409d-9c9a-48116800dfea","system_id":"levelo_inurba_marseille","lat":43.21204,"lon":5.35071,"is_reserved":false,"is_disabled":false,"rental_uris":{"android":"levelo://app?vid=c9bfee3c-a11a-409d-9c9a-48116800dfea","ios":"levelo://app?vid=c9bfee3c-a11a-409d-9c9a-48116800dfea"},"vehicle_type_id":"4","last_reported":1762596582,"current_range_meters":24000,"station_id":"st_cvj6sg6p6f1abm77japg","pricing_plan_id":"cebpf4jnsgd1na2vs0mg"},{"bike_id":"a09e9297-d0ef-4317-9852-e161aa0e06f1","system_id":"levelo_inurba_marseille","lat":43.30148,"lon":5.38065,"is_reserved":false,"is_disabled":false,"rental_uris":{"android":"levelo://app?vid=a09e9297-d0ef-4317-9852-e161aa0e06f1","ios":"levelo://app?vid=a09e9297-d0ef-4317-9852-e161aa0e06f1"},"vehicle_type_id":"4","last_reported":1762596582,"current_range_meters":24000,"station_id":"ce4bgjp2rcd13ifvqbh0","pricing_plan_id":"cebpf4jnsgd1na2vs0mg"},{"bike_id":"e17839a3-96d6-489d-881e-36b6da5aeb29","system_id":"levelo_inurba_marseille","lat":43.28596,"lon":5.37056,"is_reserved":false,"is_disabled":true,"rental_uris":{"android":"levelo://app?vid=e17839a3-96d6-489d-881e-36b6da5aeb29","ios":"levelo://app?vid=e17839a3-96d6-489d-881e-36b6da5aeb29"},"vehicle_type_id":"4","last_reported":1762596582,"current_range_meters":24000,"station_id":"ce4bht12rcd13ifvqi60","pricing_plan_id":"cebpf4jnsgd1na2vs0mg"},{"bike_id":"fc0bf271-829b-4b5e-ac9c-89cc6c591eac","system_id":"levelo_inurba_marseille","lat":43.296298,"lon":5.377132,"is_reserved":false,"is_disabled":false,"rental_uris":{"android":"levelo://app?vid=fc0bf271-829b-4b5e-ac9c-89cc6c591eac","ios":"levelo://app?vid=fc0bf271-829b-4b5e-ac9c-89cc6c591eac"},"vehicle_type_id":"4","last_reported":1762596582,"current_range_meters":24400,"station_id":"ce4bgi92rcd13ifvqb90","pricing_plan_id":"cebpf4jnsgd1na2vs0mg"},{"bike_id":"7a999c12-9516-40c9-a1b8-d0a17fd196d5","system_id":"levelo_inurba_marseille","lat":43.28102,"lon":5.37825,"is_reserved":false,"is_disabled":false,"rental_uris":{"android":"levelo://app?vid=7a999c12-9516-40c9-a1b8-d0a17fd196d5","ios":"levelo://app?vid=7a999c12-9516-40c9-a1b8-d0a17fd196d5"},"vehicle_type_id":"4","last_reported":1762596582,"current_range_meters":24400,"station_id":"ce4bha12rcd13ifvqee0","pricing_plan_id":"cebpf4jnsgd1na2vs0mg"},{"bike_id":"2e3fc2a4-88cd-4b9a-bdb5-4ea35a558ab6","system_id":"levelo_inurba_marseille","lat":43.24172,"lon":5.36394,"is_reserved":false,"is_disabled":false,"rental_uris":{"android":"levelo://app?vid=2e3fc2a4-88cd-4b9a-bdb5-4ea35a558ab6","ios":"levelo://app?vid=2e3fc2a4-88cd-4b9a-bdb5-4ea35a558ab6"},"vehicle_type_id":"4","last_reported":1762596582,"current_range_meters":24400,"station_id":"cpo36qri1sfpv3e86is0","pricing_plan_id":"cebpf4jnsgd1na2vs0mg"},{"bike_id":"99891c1d-9d50-4787-b2eb-1c68be846d92","system_id":"levelo_inurba_marseille","lat":43.32105,"lon":5.36776,"is_reserved":false,"is_disabled":false,"rental_uris":{"android":"levelo://app?vid=99891c1d-9d50-4787-b2eb-1c68be846d92","ios":"levelo://app?vid=99891c1d-9d50-4787-b2eb-1c68be846d92"},"vehicle_type_id":"4","last_reported":1762596582,"current_range_meters":24400,"station_id":"ce4bhrh2rcd13ifvqhug","pricing_plan_id":"cebpf4jnsgd1na2vs0mg"},{"bike_id":"25d6d65b-64bb-4aa1-a55c-525d2e92ce1c","system_id":"levelo_inurba_marseille","lat":43.269408,"lon":5.402625,"is_reserved":false,"is_disabled":false,"rental_uris":{"android":"levelo://app?vid=25d6d65b-64bb-4aa1-a55c-525d2e92ce1c","ios":"levelo://app?vid=25d6d65b-64bb-4aa1-a55c-525d2e92ce1c"},"vehicle_type_id":"4","last_reported":1762596582,"current_range_meters":24400,"station_id":"","pricing_plan_id":"cebpf4jnsgd1na2vs0mg"},{"bike_id":"5d7c861d-b872-4210-9e36-8e51948d6652","system_id":"levelo_inurba_marseille","lat":43.25519,"lon":5.3765,"is_reserved":false,"is_disabled":true,"rental_uris":{"android":"levelo://app?vid=5d7c861d-b872-4210-9e36-8e51948d6652","ios":"levelo://app?vid=5d7c861d-b872-4210-9e36-8e51948d6652"},"vehicle_type_id":"4","last_reported":1762596582,"current_range_meters":24400,"station_id":"ce4bhh12rcd13ifvqff0","pricing_plan_id":"cebpf4jnsgd1na2vs0mg"},{"bike_id":"7ac68617-61f2-4b5c-b393-1a6d76597555","system_id":"levelo_inurba_marseille","lat":43.30566,"lon":5.3811,"is_reserved":false,"is_disabled":false,"rental_uris":{"android":"levelo://app?vid=7ac68617-61f2-4b5c-b393-1a6d76597555","ios":"levelo://app?vid=7ac68617-61f2-4b5c-b393-1a6d76597555"},"vehicle_type_id":"4","last_reported":1762596582,"current_range_meters":24400,"station_id":"","pricing_plan_id":"cebpf4jnsgd1na2vs0mg"},{"bike_id":"f148d5ce-bdd7-4bb9-83f3-b0e235d51d5f","system_id":"levelo_inurba_marseille","lat":43.292595,"lon":5.409023,"is_reserved":false,"is_disabled":false,"rental_uris":{"android":"levelo://app?vid=f148d5ce-bdd7-4bb9-83f3-b0e235d51d5f","ios":"levelo://app?vid=f148d5ce-bdd7-4bb9-83f3-b0e235d51d5f"},"vehicle_type_id":"4","last_reported":1762596582,"current_range_meters":24400,"station_id":"","pricing_plan_id":"cebpf4jnsgd1na2vs0mg"},{"bike_id":"b0f72875-371c-4064-be25-05b7d91c7177","system_id":"levelo_inurba_marseille","lat":43.28264,"lon":5.35069,"is_reserved":false,"is_disabled":false,"rental_uris":{"android":"levelo://app?vid=b0f72875-371c-4064-be25-05b7d91c7177","ios":"levelo://app?vid=b0f72875-371c-4064-be25-05b7d91c7177"},"vehicle_type_id":"4","last_reported":1762596582,"current_range_meters":24400,"station_id":"ce4bhbp2rcd13ifvqerg","pricing_plan_id":"cebpf4jnsgd1na2vs0mg"},{"bike_id":"93b49ebf-d9fa-49cd-9da3-22e867a810f3","system_id":"levelo_inurba_marseille","lat":43.29756,"lon":5.411,"is_reserved":false,"is_disabled":false,"rental_uris":{"android":"levelo://app?vid=93b49ebf-d9fa-49cd-9da3-22e867a810f3","ios":"levelo://app?vid=93b49ebf-d9fa-49cd-9da3-22e867a810f3"},"vehicle_type_id":"4","last_reported":1762596582,"current_range_meters":24400,"station_id":"","pricing_plan_id":"cebpf4jnsgd1na2vs0mg"},{"bike_id":"f544e609-5f6e-49a9-8527-f1f86f491bca","system_id":"levelo_inurba_marseille","lat":43.24634,"lon":5.43135,"is_reserved":false,"is_disabled":false,"rental_uris":{"android":"levelo://app?vid=f544e609-5f6e-49a9-8527-f1f86f491bca","ios":"levelo://app?vid=f544e609-5f6e-49a9-8527-f1f86f491bca"},"vehicle_type_id":"4","last_reported":1762596582,"current_range_meters":24400,"station_id":"st_d2m6c4gdas8pm72e190g","pricing_plan_id":"cebpf4jnsgd1na2vs0mg"},{"bike_id":"716f51eb-985d-4b01-8538-0e55c9fd71d0","system_id":"levelo_inurba_marseille","lat":43.29585,"lon":5.36736,"is_reserved":false,"is_disabled":false,"rental_uris":{"android":"levelo://app?vid=716f51eb-985d-4b01-8538-0e55c9fd71d0","ios":"levelo://app?vid=716f51eb-985d-4b01-8538-0e55c9fd71d0"},"vehicle_type_id":"4","last_reported":1762596582,"current_range_meters":24400,"station_id":"ce4bgph2rcd13ifvqc2g","pricing_plan_id":"cebpf4jnsgd1na2vs0mg"},{"bike_id":"1cb4814f-4d42-4232-b8ef-dc9988cfe62c","system_id":"levelo_inurba_marseille","lat":43.27644,"lon":5.3612,"is_reserved":false,"is_disabled":false,"rental_uris":{"android":"levelo://app?vid=1cb4814f-4d42-4232-b8ef-dc9988cfe62c","ios":"levelo://app?vid=1cb4814f-4d42-4232-b8ef-dc9988cfe62c"},"vehicle_type_id":"4","last_reported":1762596582,"current_range_meters":24800,"station_id":"ce4bgj92rcd13ifvqbe0","pricing_plan_id":"cebpf4jnsgd1na2vs0mg"},{"bike_id":"457f76aa-7a5f-4d43-8098-6c003822a874","system_id":"levelo_inurba_marseille","lat":43.29618,"lon":5.37724,"is_reserved":false,"is_disabled":false,"rental_uris":{"android":"levelo://app?vid=457f76aa-7a5f-4d43-8098-6c003822a874","ios":"levelo://app?vid=457f76aa-7a5f-4d43-8098-6c003822a874"},"vehicle_type_id":"4","last_reported":1762596582,"current_range_meters":24800,"station_id":"ce4bgi92rcd13ifvqb90","pricing_plan_id":"cebpf4jnsgd1na2vs0mg"},{"bike_id":"937ac4b0-4a73-4ac5-a554-42643720eafc","system_id":"levelo_inurba_marseille","lat":43.262091,"lon":5.374358,"is_reserved":false,"is_disabled":false,"rental_uris":{"android":"levelo://app?vid=937ac4b0-4a73-4ac5-a554-42643720eafc","ios":"levelo://app?vid=937ac4b0-4a73-4ac5-a554-42643720eafc"},"vehicle_type_id":"4","last_reported":1762596582,"current_range_meters":24800,"station_id":"ce4bhgp2rcd13ifvqfc0","pricing_plan_id":"cebpf4jnsgd1na2vs0mg"},