{"last_updated":1728828438,"ttl":60,"version":"2.2","data":{"bikes":[{"bike_id":"8a36bb65-dd05-437f-adaf-66c35c91f8ff","system_id":"levelo_inurba_marseille","lat":43.24172,"lon":5.36399,"is_reserved":false,"is_disabled":false,"rental_uris":{"android":"levelo://app?vid=8a36bb65-dd05-437f-adaf-66c35c91f8ff","ios":"levelo://app?vid=8a36bb65-dd05-437f-adaf-66c35c91f8ff"},"vehicle_type_id":"4","last_reported":1728828439,"current_range_meters":35600,"station_id":"cpo36qri1sfpv3e86is0","pricing_plan_id":"cebpf4jnsgd1na2vs0mg"},{"bike_id":"d885d96e-d926-4227-9eec-639d1069044e","system_id":"levelo_inurba_marseille","lat":43.23194,"lon":5.35549,"is_reserved":false,"is_disabled":false,"rental_uris":{"android":"levelo://app?vid=d885d96e-d926-4227-9eec-639d1069044e","ios":"levelo://app?vid=d885d96e-d926-4227-9eec-639d1069044e"},"vehicle_type_id":"4","last_reported":1728828439,"current_range_meters":9600,"station_id":"ce4bhu92rcd13ifvqi70","pricing_plan_id":"cebpf4jnsgd1na2vs0mg"},{"bike_id":"480c36bc-dd66-41df-b09a-76735c76211b","system_id":"levelo_inurba_marseille","lat":43.27986,"lon":5.41659,"is_reserved":false,"is_disabled":false,"rental_uris":{"android":"levelo://app?vid=480c36bc-dd66-41df-b09a-76735c76211b","ios":"levelo://app?vid=480c36bc-dd66-41df-b09a-76735c76211b"},"vehicle_type_id":"4","last_reported":1728828439,"current_range_meters":36000,"station_id":"ce4bho12rcd13ifvqh1g","pricing_plan_id":"cebpf4jnsgd1na2vs0mg"},{"bike_id":"41b4be40-3534-430a-aa76-0d9a1d7bcff2","system_id":"levelo_inurba_marseille","lat":43.28428,"lon":5.34989,"is_reserved":false,"is_disabled":false,"rental_uris":{"android":"levelo://app?vid=41b4be40-3534-430a-aa76-0d9a1d7bcff2","ios":"levelo://app?vid=41b4be40-3534-430a-aa76-0d9a1d7bcff2"},"vehicle_type_id":"4","last_reported":1728828439,"current_range_meters":19600,"station_id":"ce4bhbh2rcd13ifvqepg","pricing_plan_id":"cebpf4jnsgd1na2vs0mg"},{"bike_id":"4d904558-a363-45e0-ad82-4f942f9da945","system_id":"levelo_inurba_marseille","lat":43.2958,"lon":5.36746,"is_reserved":false,"is_disabled":false,"rental_uris":{"android":"levelo://app?vid=4d904558-a363-45e0-ad82-4f942f9da945","ios":"levelo://app?vid=4d904558-a363-45e0-ad82-4f942f9da945"},"vehicle_type_id":"4","last_reported":1728828439,"current_range_meters":34800,"station_id":"ce4bgph2rcd13ifvqc2g","pricing_plan_id":"cebpf4jnsgd1na2vs0mg"},{"bike_id":"4e0bdb80-409e-4fe5-8e4b-3c00d81bf909","system_id":"levelo_inurba_marseille","lat":43.23055,"lon":5.35495,"is_reserved":false,"is_disabled":false,"rental_uris":{"android":"levelo://app?vid=4e0bdb80-409e-4fe5-8e4b-3c00d81bf909","ios":"levelo://app?vid=4e0bdb80-409e-4fe5-8e4b-3c00d81bf909"},"vehicle_type_id":"4","last_reported":1728828439,"current_range_meters":14000,"station_id":"cpo3342slgdg3j2ifvpg","pricing_plan_id":"cebpf4jnsgd1na2vs0mg"},{"bike_id":"fa2cd901-48cc-4491-91d3-01257e1d1678","system_id":"levelo_inurba_marseille","lat":43.312164,"lon":5.368278,"is_reserved":false,"is_disabled":false,"rental_uris":{"android":"levelo://app?vid=fa2cd901-48cc-4491-91d3-01257e1d1678","ios":"levelo://app?vid=fa2cd901-48cc-4491-91d3-01257e1d1678"},"vehicle_type_id":"4","last_reported":1728828439,"current_range_meters":33600,"station_id":"ce4bgl92rcd13ifvqbq0","pricing_plan_id":"cebpf4jnsgd1na2vs0mg"},{"bike_id":"61432fa4-e69a-43e1-a752-60da459a1e2e","system_id":"levelo_inurba_marseille","lat":43.33724,"lon":5.39182,"is_reserved":false,"is_disabled":false,"rental_uris":{"android":"levelo://app?vid=61432fa4-e69a-43e1-a752-60da459a1e2e","ios":"levelo://app?vid=61432fa4-e69a-43e1-a752-60da459a1e2e"},"vehicle_type_id":"4","last_reported":1728828439,"current_range_meters":32400,"station_id":"ce4bhr92rcd13ifvqhsg","pricing_plan_id":"cebpf4jnsgd1na2vs0mg"},{"bike_id":"bed89c2d-1e19-4280-9920-e5548850f1e7","system_id":"levelo_inurba_marseille","lat":43.31082,"lon":5.42428,"is_reserved":false,"is_disabled":false,"rental_uris":{"android":"levelo://app?vid=bed89c2d-1e19-4280-9920-e5548850f1e7","ios":"levelo://app?vid=bed89c2d-1e19-4280-9920-e5548850f1e7"},"vehicle_type_id":"4","last_reported":1728828439,"current_range_meters":10000,"station_id":"ce4bhp92rcd13ifvqhag","pricing_plan_id":"cebpf4jnsgd1na2vs0mg"},{"bike_id":"dc44f191-9a97-47a6-babd-c4a405208352","system_id":"levelo_inurba_marseille","lat":43.28426,"lon":5.34988,"is_reserved":false,"is_disabled":false,"rental_uris":{"android":"levelo://app?vid=dc44f191-9a97-47a6-babd-c4a405208352","ios":"levelo://app?vid=dc44f191-9a97-47a6-babd-c4a405208352"},"vehicle_type_id":"4","last_reported":1728828439,"current_range_meters":19600,"station_id":"ce4bhbh2rcd13ifvqepg","pricing_plan_id":"cebpf4jnsgd1na2vs0mg"},{"bike_id":"d3fdea00-a628-4b30-abc4-872725ce839f","system_id":"levelo_inurba_marseille","lat":43.24656,"lon":5.38159,"is_reserved":false,"is_disabled":false,"rental_uris":{"android":"levelo://app?vid=d3fdea00-a628-4b30-abc4-872725ce839f","ios":"levelo://app?vid=d3fdea00-a628-4b30-abc4-872725ce839f"},"vehicle_type_id":"4","last_reported":1728828439,"current_range_meters":4000,"station_id":"ce4bhih2rcd13ifvqfr0","pricing_plan_id":"cebpf4jnsgd1na2vs0mg"},{"bike_id":"c5c33660-077d-4f97-b2f0-40691ac09116","system_id":"levelo_inurba_marseille","lat":43.2439,"lon":5.37064,"is_reserved":false,"is_disabled":false,"rental_uris":{"android":"levelo://app?vid=c5c33660-077d-4f97-b2f0-40691ac09116","ios":"levelo://app?vid=c5c33660-077d-4f97-b2f0-40691ac09116"},"vehicle_type_id":"4","last_reported":1728828439,"current_range_meters":33600,"station_id":"ce4bhhh2rcd13ifvqfk0","pricing_plan_id":"cebpf4jnsgd1na2vs0mg"},{"bike_id":"931d1f9c-4cb2-40a2-a856-914a1c55fcf3","system_id":"levelo_inurba_marseille","lat":43.2457,"lon":5.41661,"is_reserved":false,"is_disabled":false,"rental_uris":{"android":"levelo://app?vid=931d1f9c-4cb2-40a2-a856-914a1c55fcf3","ios":"levelo://app?vid=931d1f9c-4cb2-40a2-a856-914a1c55fcf3"},"vehicle_type_id":"4","last_reported":1728828439,"current_range_meters":6800,"station_id":"","pricing_plan_id":"cebpf4jnsgd1na2vs0mg"},{"bike_id":"b8d3e178-77e6-4b2b-b8de-85af06fa4430","system_id":"levelo_inurba_marseille","lat":43.23064,"lon":5.35494,"is_reserved":false,"is_disabled":false,"rental_uris":{"android":"levelo://app?vid=b8d3e178-77e6-4b2b-b8de-85af06fa4430","ios":"levelo://app?vid=b8d3e178-77e6-4b2b-b8de-85af06fa4430"},"vehicle_type_id":"4","last_reported":1728828439,"current_range_meters":38800,"station_id":"cpo3342slgdg3j2ifvpg","pricing_plan_id":"cebpf4jnsgd1na2vs0mg"},{"bike_id":"2f497378-f33c-41a1-b3e1-b0ed73ef1be9","system_id":"levelo_inurba_marseille","lat":43.22935,"lon":5.35374,"is_reserved":false,"is_disabled":false,"rental_uris":{"android":"levelo://app?vid=2f497378-f33c-41a1-b3e1-b0ed73ef1be9","ios":"levelo://app?vid=2f497378-f33c-41a1-b3e1-b0ed73ef1be9"},"vehicle_type_id":"4","last_reported":1728828439,"current_range_meters":30000,"station_id":"cpo3532slgdg3j2ikp40","pricing_plan_id":"cebpf4jnsgd1na2vs0mg"},{"bike_id":"8dc16b34-072e-4264-b4bb-06c7f4492579","system_id":"levelo_inurba_marseille","lat":43.2905,"lon":5.35905,"is_reserved":false,"is_disabled":false,"rental_uris":{"android":"levelo://app?vid=8dc16b34-072e-4264-b4bb-06c7f4492579","ios":"levelo://app?vid=8dc16b34-072e-4264-b4bb-06c7f4492579"},"vehicle_type_id":"4","last_reported":1728828439,"current_range_meters":38800,"station_id":"ce4bha92rcd13ifvqeg0","pricing_plan_id":"cebpf4jnsgd1na2vs0mg"},{"bike_id":"6b3ed023-5d05-4e92-a782-fc8efb78fc3d","system_id":"levelo_inurba_marseille","lat":43.30139,"lon":5.37423,"is_reserved":false,"is_disabled":false,"rental_uris":{"android":"levelo://app?vid=6b3ed023-5d05-4e92-a782-fc8efb78fc3d","ios":"levelo://app?vid=6b3ed023-5d05-4e92-a782-fc8efb78fc3d"},"vehicle_type_id":"4","last_reported":1728828439,"current_range_meters":28800,"station_id":"ce4bgs92rcd13ifvqcc0","pricing_plan_id":"cebpf4jnsgd1na2vs0mg"},{"bike_id":"6b2daff3-9851-4dff-9081-e0ec010599e4","system_id":"levelo_inurba_marseille","lat":43.314515,"lon":5.37384,"is_reserved":false,"is_disabled":false,"rental_uris":{"android":"levelo://app?vid=6b2daff3-9851-4dff-9081-e0ec010599e4","ios":"levelo://app?vid=6b2daff3-9851-4dff-9081-e0ec010599e4"},"vehicle_type_id":"4","last_reported":1728828439,"current_range_meters":32400,"station_id":"","pricing_plan_id":"cebpf4jnsgd1na2vs0mg"},{"bike_id":"f8fd929e-ef12-4998-8e1d-12522bd05de2","system_id":"levelo_inurba_marseille","lat":43.33027,"lon":5.39044,"is_reserved":false,"is_disabled":false,"rental_uris":{"android":"levelo://app?vid=f8fd929e-ef12-4998-8e1d-12522bd05de2","ios":"levelo://app?vid=f8fd929e-ef12-4998-8e1d-12522bd05de2"},"vehicle_type_id":"4","last_reported":1728828439,"current_range_meters":38800,"station_id":"ce4bhr92rcd13ifvqhrg","pricing_plan_id":"cebpf4jnsgd1na2vs0mg"},{"bike_id":"592594c9-1b71-4a5b-94a7-ec6c3696bfca","system_id":"levelo_inurba_marseille","lat":43.27376,"lon":5.36261,"is_reserved":false,"is_disabled":false,"rental_uris":{"android":"levelo://app?vid=592594c9-1b71-4a5b-94a7-ec6c3696bfca","ios":"levelo://app?vid=592594c9-1b71-4a5b-94a7-ec6c3696bfca"},"vehicle_type_id":"4","last_reported":1728828439,"current_range_meters":28000,"station_id":"ce4bhbh2rcd13ifvqeo0","pricing_plan_id":"cebpf4jnsgd1na2vs0mg"},{"bike_id":"4a2b316e-7799-479f-b940-af3ab8737207","system_id":"levelo_inurba_marseille","lat":43.24169,"lon":5.36391,"is_reserved":false,"is_disabled":false,"rental_uris":{"android":"levelo://app?vid=4a2b316e-7799-479f-b940-af3ab8737207","ios":"levelo://app?vid=4a2b316e-7799-479f-b940-af3ab8737207"},"vehicle_type_id":"4","last_reported":1728828439,"current_range_meters":20000,"station_id":"cpo36qri1sfpv3e86is0","pricing_plan_id":"cebpf4jnsgd1na2vs0mg"},{"bike_id":"fa08456f-0316-46ca-b497-6c7d63a7f841","system_id":"levelo_inurba_marseille","lat":43.23197,"lon":5.35545,"is_reserved":false,"is_disabled":false,"rental_uris":{"android":"levelo://app?vid=fa08456f-0316-46ca-b497-6c7d63a7f841","ios":"levelo://app?vid=fa08456f-0316-46ca-b497-6c7d63a7f841"},"vehicle_type_id":"4","last_reported":1728828439,"current_range_meters":34800,"station_id":"ce4bhu92rcd13ifvqi70","pricing_plan_id":"cebpf4jnsgd1na2vs0mg"},{"bike_id":"86851483-6460-4f2a-8d92-b3b47e5c55aa","system_id":"levelo_inurba_marseille","lat":43.23958,"lon":5.36628,"is_reserved":false,"is_disabled":false,"rental_uris":{"android":"levelo://app?vid=86851483-6460-4f2a-8d92-b3b47e5c55aa","ios":"levelo://app?vid=86851483-6460-4f2a-8d92-b3b47e5c55aa"},"vehicle_type_id":"4","last_reported":1728828439,"current_range_meters":38800,"station_id":"ce4bhi12rcd13ifvqfp0","pricing_plan_id":"cebpf4jnsgd1na2vs0mg"},{"bike_id":"78b000f7-2034-4b44-90dc-7485d024b6b9","system_id":"levelo_inurba_marseille","lat":43.27217,"lon":5.39173,"is_reserved":false,"is_disabled":false,"rental_uris":{"android":"levelo://app?vid=78b000f7-2034-4b44-90dc-7485d024b6b9","ios":"levelo://app?vid=78b000f7-2034-4b44-90dc-7485d024b6b9"},"vehicle_type_id":"4","last_reported":1728828439,"current_range_meters":18000,"station_id":"ce4bhhp2rcd13ifvqfm0","pricing_plan_id":"cebpf4jnsgd1na2vs0mg"},{"bike_id":"d25cfebd-dac5-45bf-832a-66c042fd16f1","system_id":"levelo_inurba_marseille","lat":43.30958,"lon":5.39035,"is_reserved":false,"is_disabled":false,"rental_uris":{"android":"levelo://app?vid=d25cfebd-dac5-45bf-832a-66c042fd16f1","ios":"levelo://app?vid=d25cfebd-dac5-45bf-832a-66c042fd16f1"},"vehicle_type_id":"4","last_reported":1728828439,"current_range_meters":36400,"station_id":"ce4bgup2rcd13ifvqco0","pricing_plan_id":"cebpf4jnsgd1na2vs0mg"},{"bike_id":"900d410e-a263-4441-80a1-af67345a66d2","system_id":"levelo_inurba_marseille","lat":43.24391,"lon":5.37062,"is_reserved":false,"is_disabled":false,"rental_uris":{"android":"levelo://app?vid=900d410e-a263-4441-80a1-af67345a66d2","ios":"levelo://app?vid=900d410e-a263-4441-80a1-af67345a66d2"},"vehicle_type_id":"4","last_reported":1728828439,"current_range_meters":10800,"station_id":"ce4bhhh2rcd13ifvqfk0","pricing_plan_id":"cebpf4jnsgd1na2vs0mg"},{"bike_id":"7bfca5b2-1ddd-4e5d-b9fc-19e6379d40a0","system_id":"levelo_inurba_marseille","lat":43.28054,"lon":5.40987,"is_reserved":false,"is_disabled":false,"rental_uris":{"android":"levelo://app?vid=7bfca5b2-1ddd-4e5d-b9fc-19e6379d40a0","ios":"levelo://app?vid=7bfca5b2-1ddd-4e5d-b9fc-19e6379d40a0"},"vehicle_type_id":"4","last_reported":1728828439,"current_range_meters":30400,"station_id":"","pricing_plan_id":"cebpf4jnsgd1na2vs0mg"},{"bike_id":"a9a9a4b5-5c49-474f-8f41-09f9027f45b4","system_id":"levelo_inurba_marseille","lat":43.22935,"lon":5.35376,"is_reserved":false,"is_disabled":false,"rental_uris":{"android":"levelo://app?vid=a9a9a4b5-5c49-474f-8f41-09f9027f45b4","ios":"levelo://app?vid=a9a9a4b5-5c49-474f-8f41-09f9027f45b4"},"vehicle_type_id":"4","last_reported":1728828439,"current_range_meters":16400,"station_id":"cpo3532slgdg3j2ikp40","pricing_plan_id":"cebpf4jnsgd1na2vs0mg"},{"bike_id":"208e4205-90a6-4fb7-928d-1db671b8e50f","system_id":"levelo_inurba_marseille","lat":43.27375,"lon":5.36251,"is_reserved":false,"is_disabled":false,"rental_uris":{"android":"levelo://app?vid=208e4205-90a6-4fb7-928d-1db671b8e50f","ios":"levelo://app?vid=208e4205-90a6-4fb7-928d-1db671b8e50f"},"vehicle_type_id":"4","last_reported":1728828439,"current_range_meters":28000,"station_id":"ce4bhbh2rcd13ifvqeo0","pricing_plan_id":"cebpf4jnsgd1na2vs0mg"},{"bike_id":"18193494-d1d9-47f2-b3f0-37b334436605","system_id":"levelo_inurba_marseille","lat":43.31355,"lon":5.36729,"is_reserved":false,"is_disabled":false,"rental_uris":{"android":"levelo://app?vid=18193494-d1d9-47f2-b3f0-37b334436605","ios":"levelo://app?vid=18193494-d1d9-47f2-b3f0-37b334436605"},"vehicle_type_id":"4","last_reported":1728828439,"current_range_meters":8000,"station_id":"ce4bgr92rcd13ifvqc6g","pricing_plan_id":"cebpf4jnsgd1na2vs0mg"},{"bike_id":"9d10c00f-6442-41e2-b3e5-c86e4cf3ecf4","system_id":"levelo_inurba_marseille","lat":43.30138,"lon":5.3988,"is_reserved":false,"is_disabled":false,"rental_uris":{"android":"levelo://app?vid=9d10c00f-6442-41e2-b3e5-c86e4cf3ecf4","ios":"levelo://app?vid=9d10c00f-6442-41e2-b3e5-c86e4cf3ecf4"},"vehicle_type_id":"4","last_reported":1728828439,"current_range_meters":22400,"station_id":"ce4bh0h2rcd13ifvqd40","pricing_plan_id":"cebpf4jnsgd1na2vs0mg"},{"bike_id":"1872a4be-a10f-4102-9614-dca70367adaf","system_id":"levelo_inurba_marseille","lat":43.299286,"lon":5.373566,"is_reserved":false,"is_disabled":false,"rental_uris":{"android":"levelo://app?vid=1872a4be-a10f-4102-9614-dca70367adaf","ios":"levelo://app?vid=1872a4be-a10f-4102-9614-dca70367adaf"},"vehicle_type_id":"4","last_reported":1728828439,"current_range_meters":38800,"station_id":"ce4bgr92rcd13ifvqc7g","pricing_plan_id":"cebpf4jnsgd1na2vs0mg"},{"bike_id":"3e4f306a-0193-49a5-ae54-ea2787574907","system_id":"levelo_inurba_marseille","lat":43.2439,"lon":5.37064,"is_reserved":false,"is_disabled":false,"rental_uris":{"android":"levelo://app?vid=3e4f306a-0193-49a5-ae54-ea2787574907","ios":"levelo://app?vid=3e4f306a-0193-49a5-ae54-ea2787574907"},"vehicle_type_id":"4","last_reported":1728828439,"current_range_meters":36000,"station_id":"ce4bhhh2rcd13ifvqfk0","pricing_plan_id":"cebpf4jnsgd1na2vs0mg"},{"bike_id":"a2cc4af4-c475-4c55-b025-fb35bb1c3dce","system_id":"levelo_inurba_marseille","lat":43.28426,"lon":5.34986,"is_reserved":false,"is_disabled":false,"rental_uris":{"android":"levelo://app?vid=a2cc4af4-c475-4c55-b025-fb35bb1c3dce","ios":"levelo://app?vid=a2cc4af4-c475-4c55-b025-fb35bb1c3dce"},"vehicle_type_id":"4","last_reported":1728828439,"current_range_meters":10000,"station_id":"ce4bhbh2rcd13ifvqepg","pricing_plan_id":"cebpf4jnsgd1na2vs0mg"},{"bike_id":"99c49ab5-e0f8-4316-b25d-a08466a70f4c","system_id":"levelo_inurba_marseille","lat":43.28421,"lon":5.34987,"is_reserved":false,"is_disabled":false,"rental_uris":{"android":"levelo://app?vid=99c49ab5-e0f8-4316-b25d-a08466a70f4c","ios":"levelo://app?vid=99c49ab5-e0f8-4316-b25d-a08466a70f4c"},"vehicle_type_id":"4","last_reported":1728828439,"current_range_meters":39200,"station_id":"ce4bhbh2rcd13ifvqepg","pricing_plan_id":"cebpf4jnsgd1na2vs0mg"},{"bike_id":"a4f2b533-2c87-42aa-8514-71115cf27476","system_id":"levelo_inurba_marseille","lat":43.26209,"lon":5.37441,"is_reserved":false,"is_disabled":false,"rental_uris":{"android":"levelo://app?vid=a4f2b533-2c87-42aa-8514-71115cf27476","ios":"levelo://app?vid=a4f2b533-2c87-42aa-8514-71115cf27476"},"vehicle_type_id":"4","last_reported":1728828439,"current_range_meters":3200,"station_id":"ce4bhgp2rcd13ifvqfc0","pricing_plan_id":"cebpf4jnsgd1na2vs0mg"},{"bike_id":"b2e5b94c-97d6-4f5a-afc7-9b0b0acf7173","system_id":"levelo_inurba_marseille","lat":43.23197,"lon":5.35556,"is_reserved":false,"is_disabled":false,"rental_uris":{"android":"levelo://app?vid=b2e5b94c-97d6-4f5a-afc7-9b0b0acf7173","ios":"levelo://app?vid=b2e5b94c-97d6-4f5a-afc7-9b0b0acf7173"},"vehicle_type_id":"4","last_reported":1728828439,"current_range_meters":8000,"station_id":"ce4bhu92rcd13ifvqi70","pricing_plan_id":"cebpf4jnsgd1na2vs0mg"},{"bike_id":"ae619974-a7e1-4105-b7f2-f5d40a5ab682","system_id":"levelo_inurba_marseille","lat":43.29194,"lon":5.35792,"is_reserved":false,"is_disabled":false,"rental_uris":{"android":"levelo://app?vid=ae619974-a7e1-4105-b7f2-f5d40a5ab682","ios":"levelo://app?vid=ae619974-a7e1-4105-b7f2-f5d40a5ab682"},"vehicle_type_id":"4","last_reported":1728828439,"current_range_meters":28000,"station_id":"ce4bhb12rcd13ifvqel0","pricing_plan_id":"cebpf4jnsgd1na2vs0mg"},{"bike_id":"7125d56c-6747-41a0-95df-a7a0547a6d59","system_id":"levelo_inurba_marseille","lat":43.2603,"lon":5.37544,"is_reserved":false,"is_disabled":false,"rental_uris":{"android":"levelo://app?vid=7125d56c-6747-41a0-95df-a7a0547a6d59","ios":"levelo://app?vid=7125d56c-6747-41a0-95df-a7a0547a6d59"},"vehicle_type_id":"4","last_reported":1728828439,"current_range_meters":35200,"station_id":"ce4bhgh2rcd13ifvqfa0","pricing_plan_id":"cebpf4jnsgd1na2vs0mg"},{"bike_id":"3545951b-894d-4495-afdf-84cb7b3b25b3","system_id":"levelo_inurba_marseille","lat":43.23194,"lon":5.35556,"is_reserved":false,"is_disabled":false,"rental_uris":{"android":"levelo://app?vid=3545951b-894d-4495-afdf-84cb7b3b25b3","ios":"levelo://app?vid=3545951b-894d-4495-afdf-84cb7b3b25b3"},"vehicle_type_id":"4","last_reported":1728828439,"current_range_meters":38800,"station_id":"ce4bhu92rcd13ifvqi70","pricing_plan_id":"cebpf4jnsgd1na2vs0mg"},{"bike_id":"9d08ffe3-fceb-4b06-aa3f-3c701258f450","system_id":"levelo_inurba_marseille","lat":43.25495,"lon":5.37647,"is_reserved":false,"is_disabled":false,"rental_uris":{"android":"levelo://app?vid=9d08ffe3-fceb-4b06-aa3f-3c701258f450","ios":"levelo://app?vid=9d08ffe3-fceb-4b06-aa3f-3c701258f450"},"vehicle_type_id":"4","last_reported":1728828439,"current_range_meters":27200,"station_id":"ce4bhh12rcd13ifvqff0","pricing_plan_id":"cebpf4jnsgd1na2vs0mg"},{"bike_id":"19767c7e-4ed0-457f-bcde-dbef8a4b6308","system_id":"levelo_inurba_marseille","lat":43.24386,"lon":5.3706,"is_reserved":false,"is_disabled":false,"rental_uris":{"android":"levelo://app?vid=19767c7e-4ed0-457f-bcde-dbef8a4b6308","ios":"levelo://app?vid=19767c7e-4ed0-457f-bcde-dbef8a4b6308"},"vehicle_type_id":"4","last_reported":1728828439,"current_range_meters":32800,"station_id":"ce4bhhh2rcd13ifvqfk0","pricing_plan_id":"cebpf4jnsgd1na2vs0mg"},{"bike_id":"ddd8071c-e197-43f6-b7d5-51b8315e08bd","system_id":"levelo_inurba_marseille","lat":43.23194,"lon":5.35563,"is_reserved":false,"is_disabled":false,"rental_uris":{"android":"levelo://app?vid=ddd8071c-e197-43f6-b7d5-51b8315e08bd","ios":"levelo://app?vid=ddd8071c-e197-43f6-b7d5-51b8315e08bd"},"vehicle_type_id":"4","last_reported":1728828439,"current_range_meters":14000,"station_id":"ce4bhu92rcd13ifvqi70","pricing_plan_id":"cebpf4jnsgd1na2vs0mg"},{"bike_id":"25ed2710-8c35-44e6-81fd-8fc7cf6b54a8","system_id":"levelo_inurba_marseille","lat":43.274948,"lon":5.424466,"is_reserved":false,"is_disabled":false,"rental_uris":{"android":"levelo://app?vid=25ed2710-8c35-44e6-81fd-8fc7cf6b54a8","ios":"levelo://app?vid=25ed2710-8c35-44e6-81fd-8fc7cf6b54a8"},"vehicle_type_id":"4","last_reported":1728828439,"current_range_meters":20800,"station_id":"ce4bhn92rcd13ifvqgrg","pricing_plan_id":"cebpf4jnsgd1na2vs0mg"},{"bike_id":"885096f8-3dcf-4bf7-a286-1696102f1e97","system_id":"levelo_inurba_marseille","lat":43.29554,"lon":5.42295,"is_reserved":false,"is_disabled":false,"rental_uris":{"android":"levelo://app?vid=885096f8-3dcf-4bf7-a286-1696102f1e97","ios":"levelo://app?vid=885096f8-3dcf-4bf7-a286-1696102f1e97"},"vehicle_type_id":"4","last_reported":1728828439,"current_range_meters":30400,"station_id":"ce4bhph2rcd13ifvqhdg","pricing_plan_id":"cebpf4jnsgd1na2vs0mg"},{"bike_id":"3568bb6a-ff56-4932-b065-3f63a3c1d59e","system_id":"levelo_inurba_marseille","lat":43.26807,"lon":5.40263,"is_reserved":false,"is_disabled":false,"rental_uris":{"android":"levelo://app?vid=3568bb6a-ff56-4932-b065-3f63a3c1d59e","ios":"levelo://app?vid=3568bb6a-ff56-4932-b065-3f63a3c1d59e"},"vehicle_type_id":"4","last_reported":1728828439,"current_range_meters":38000,"station_id":"ce501612rcd8frsf0b60","pricing_plan_id":"cebpf4jnsgd1na2vs0mg"},{"bike_id":"11aa3681-f452-4c23-8b6c-3d7dc95510e5","system_id":"levelo_inurba_marseille","lat":43.30419,"lon":5.41285,"is_reserved":false,"is_disabled":false,"rental_uris":{"android":"levelo://app?vid=11aa3681-f452-4c23-8b6c-3d7dc95510e5","ios":"levelo://app?vid=11aa3681-f452-4c23-8b6c-3d7dc95510e5"},"vehicle_type_id":"4","last_reported":1728828439,"current_range_meters":27600,"station_id":"ce4bhop2rcd13ifvqh8g","pricing_plan_id":"cebpf4jnsgd1na2vs0mg"},{"bike_id":"54f7b29d-cc54-4a54-950e-bbaa77035094","system_id":"levelo_inurba_marseille","lat":43.29786,"lon":5.39331,"is_reserved":false,"is_disabled":false,"rental_uris":{"android":"levelo://app?vid=54f7b29d-cc54-4a54-950e-bbaa77035094","ios":"levelo://app?vid=54f7b29d-cc54-4a54-950e-bbaa77035094"},"vehicle_type_id":"4","last_reported":1728828439,"current_range_meters":10800,"station_id":"chh1huq6cuj3fo74tm60","pricing_plan_id":"cebpf4jnsgd1na2vs0mg"},{"bike_id":"109d18b6-bfcf-4cff-85dc-bd512ce6fb2f","system_id":"levelo_inurba_marseille","lat":43.23192,"lon":5.35553,"is_reserved":false,"is_disabled":false,"rental_uris":{"android":"levelo://app?vid=109d18b6-bfcf-4cff-85dc-bd512ce6fb2f","ios":"levelo://app?vid=109d18b6-bfcf-4cff-85dc-bd512ce6fb2f"},"vehicle_type_id":"4","last_reported":1728828439,"current_range_meters":7200,"station_id":"ce4bhu92rcd13ifvqi70","pricing_plan_id":"cebpf4jnsgd1na2vs0mg"},{"bike_id":"e3cd8953-9e5a-44ad-a5cd-debf49a539ae","system_id":"levelo_inurba_marseille","lat":43.21246,"lon":5.35442,"is_reserved":false,"is_disabled":false,"rental_uris":{"android":"levelo://app?vid=e3cd8953-9e5a-44ad-a5cd-debf49a539ae","ios":"levelo://app?vid=e3cd8953-9e5a-44ad-a5cd-debf49a539ae"},"vehicle_type_id":"4","last_reported":1728828439,"current_range_meters":20400,"station_id":"","pricing_plan_id":"cebpf4jnsgd1na2vs0mg"},{"bike_id":"726ea84d-d6f3-4f63-8d10-efa74cba9883","system_id":"levelo_inurba_marseille","lat":43.24386,"lon":5.37059,"is_reserved":false,"is_disabled":false,"rental_uris":{"android":"levelo://app?vid=726ea84d-d6f3-4f63-8d10-efa74cba9883","ios":"levelo://app?vid=726ea84d-d6f3-4f63-8d10-efa74cba9883"},"vehicle_type_id":"4","last_reported":1728828439,"current_range_meters":34000,"station_id":"ce4bhhh2rcd13ifvqfk0","pricing_plan_id":"cebpf4jnsgd1na2vs0mg"},{"bike_id":"744d7d46-a030-452d-827a-600610e2a098","system_id":"levelo_inurba_marseille","lat":43.231862,"lon":5.399966,"is_reserved":false,"is_disabled":false,"rental_uris":{"android":"levelo://app?vid=744d7d46-a030-452d-827a-600610e2a098","ios":"levelo://app?vid=744d7d46-a030-452d-827a-600610e2a098"},"vehicle_type_id":"4","last_reported":1728828439,"current_range_meters":33600,"station_id":"ce4bhn12rcd13ifvqgqg","pricing_plan_id":"cebpf4jnsgd1na2vs0mg"},{"bike_id":"e6a8aec1-d448-48fb-b2d3-480453e7edf3","system_id":"levelo_inurba_marseille","lat":43.31707,"lon":5.39822,"is_reserved":false,"is_disabled":false,"rental_uris":{"android":"levelo://app?vid=e6a8aec1-d448-48fb-b2d3-480453e7edf3","ios":"levelo://app?vid=e6a8aec1-d448-48fb-b2d3-480453e7edf3"},"vehicle_type_id":"4","last_reported":1728828439,"current_range_meters":4000,"station_id":"","pricing_plan_id":"cebpf4jnsgd1na2vs0mg"},{"bike_id":"b5323191-ac85-41a7-9de1-238668924669","system_id":"levelo_inurba_marseille","lat":43.28278,"lon":5.35082,"is_reserved":false,"is_disabled":false,"rental_uris":{"android":"levelo://app?vid=b5323191-ac85-41a7-9de1-238668924669","ios":"levelo://app?vid=b5323191-ac85-41a7-9de1-238668924669"},"vehicle_type_id":"4","last_reported":1728828439,"current_range_meters":38400,"station_id":"ce4bhbp2rcd13ifvqerg","pricing_plan_id":"cebpf4jnsgd1na2vs0mg"},{"bike_id":"d786daa7-6195-4ad4-9d67-6b3a9d97ab5c","system_id":"levelo_inurba_marseille","lat":43.2439,"lon":5.3705,"is_reserved":false,"is_disabled":false,"rental_uris":{"android":"levelo://app?vid=d786daa7-6195-4ad4-9d67-6b3a9d97ab5c","ios":"levelo://app?vid=d786daa7-6195-4ad4-9d67-6b3a9d97ab5c"},"vehicle_type_id":"4","last_reported":1728828439,"current_range_meters":6400,"station_id":"ce4bhhh2rcd13ifvqfk0","pricing_plan_id":"cebpf4jnsgd1na2vs0mg"},{"bike_id":"3b75fe99-810f-40ef-9f84-d5b1cf667dc9","system_id":"levelo_inurba_marseille","lat":43.23152,"lon":5.43714,"is_reserved":false,"is_disabled":false,"rental_uris":{"android":"levelo://app?vid=3b75fe99-810f-40ef-9f84-d5b1cf667dc9","ios":"levelo://app?vid=3b75fe99-810f-40ef-9f84-d5b1cf667dc9"},"vehicle_type_id":"4","last_reported":1728828439,"current_range_meters":24800,"station_id":"ce4bhmp2rcd13ifvqgog","pricing_plan_id":"cebpf4jnsgd1na2vs0mg"},{"bike_id":"6cb5b02c-2401-484a-8b7d-b4d2106d6b08","system_id":"levelo_inurba_marseille","lat":43.23194,"lon":5.35557,"is_reserved":false,"is_disabled":false,"rental_uris":{"android":"levelo://app?vid=6cb5b02c-2401-484a-8b7d-b4d2106d6b08","ios":"levelo://app?vid=6cb5b02c-2401-484a-8b7d-b4d2106d6b08"},"vehicle_type_id":"4","last_reported":1728828439,"current_range_meters":26000,"station_id":"ce4bhu92rcd13ifvqi70","pricing_plan_id":"cebpf4jnsgd1na2vs0mg"},{"bike_id":"aee981a5-c2b8-4719-88df-661a4526874a","system_id":"levelo_inurba_marseille","lat":43.26944,"lon":5.40259,"is_reserved":false,"is_disabled":false,"rental_uris":{"android":"levelo://app?vid=aee981a5-c2b8-4719-88df-661a4526874a","ios":"levelo://app?vid=aee981a5-c2b8-4719-88df-661a4526874a"},"vehicle_type_id":"4","last_reported":1728828439,"current_range_meters":24400,"station_id":"cjm6bp8fraef2m0cb0m0","pricing_plan_id":"cebpf4jnsgd1na2vs0mg"},{"bike_id":"d34e3713-8be1-4995-8125-c96ec064ddd0","system_id":"levelo_inurba_marseille","lat":43.2396,"lon":5.36623,"is_reserved":false,"is_disabled":false,"rental_uris":{"android":"levelo://app?vid=d34e3713-8be1-4995-8125-c96ec064ddd0","ios":"levelo://app?vid=d34e3713-8be1-4995-8125-c96ec064ddd0"},"vehicle_type_id":"4","last_reported":1728828439,"current_range_meters":38800,"station_id":"ce4bhi12rcd13ifvqfp0","pricing_plan_id":"cebpf4jnsgd1na2vs0mg"},{"bike_id":"c21f7968-6c8c-4dee-95af-9a2456205b49","system_id":"levelo_inurba_marseille","lat":43.22933,"lon":5.35378,"is_reserved":false,"is_disabled":false,"rental_uris":{"android":"levelo://app?vid=c21f7968-6c8c-4dee-95af-9a2456205b49","ios":"levelo://app?vid=c21f7968-6c8c-4dee-95af-9a2456205b49"},"vehicle_type_id":"4","last_reported":1728828439,"current_range_meters":38800,"station_id":"cpo3532slgdg3j2ikp40","pricing_plan_id":"cebpf4jnsgd1na2vs0mg"},{"bike_id":"4ae3e932-5141-4a40-a5b0-d95a104b4e83","system_id":"levelo_inurba_marseille","lat":43.26196,"lon":5.37449,"is_reserved":false,"is_disabled":false,"rental_uris":{"android":"levelo://app?vid=4ae3e932-5141-4a40-a5b0-d95a104b4e83","ios":"levelo://app?vid=4ae3e932-5141-4a40-a5b0-d95a104b4e83"},"vehicle_type_id":"4","last_reported":1728828439,"current_range_meters":32400,"station_id":"ce4bhgp2rcd13ifvqfc0","pricing_plan_id":"cebpf4jnsgd1na2vs0mg"},{"bike_id":"012562d0-677c-4131-9774-85df2480db48","system_id":"levelo_inurba_marseille","lat":43.28615,"lon":5.35102,"is_reserved":false,"is_disabled":false,"rental_uris":{"android":"levelo://app?vid=012562d0-677c-4131-9774-85df2480db48","ios":"levelo://app?vid=012562d0-677c-4131-9774-85df2480db48"},"vehicle_type_id":"4","last_reported":1728828439,"current_range_meters":32800,"station_id":"ce4bhch2rcd13ifvqeug","pricing_plan_id":"cebpf4jnsgd1na2vs0mg"},{"bike_id":"026dd352-271c-4f04-a3ac-62a65d5a15b3","system_id":"levelo_inurba_marseille","lat":43.2989,"lon":5.43666,"is_reserved":false,"is_disabled":false,"rental_uris":{"android":"levelo://app?vid=026dd352-271c-4f04-a3ac-62a65d5a15b3","ios":"levelo://app?vid=026dd352-271c-4f04-a3ac-62a65d5a15b3"},"vehicle_type_id":"4","last_reported":1728828439,"current_range_meters":36400,"station_id":"ce4bhpp2rcd13ifvqhfg","pricing_plan_id":"cebpf4jnsgd1na2vs0mg"},{"bike_id":"346eaa4c-559d-4b51-9ae3-b76287e4d604","system_id":"levelo_inurba_marseille","lat":43.258651,"lon":5.399007,"is_reserved":false,"is_disabled":false,"rental_uris":{"android":"levelo://app?vid=346eaa4c-559d-4b51-9ae3-b76287e4d604","ios":"levelo://app?vid=346eaa4c-559d-4b51-9ae3-b76287e4d604"},"vehicle_type_id":"4","last_reported":1728828439,"current_range_meters":32800,"station_id":"ce4bhl92rcd13ifvqghg","pricing_plan_id":"cebpf4jnsgd1na2vs0mg"},{"bike_id":"9d671549-67ad-4eb0-ace0-50f59d8a0c79","system_id":"levelo_inurba_marseille","lat":43.31109,"lon":5.38064,"is_reserved":false,"is_disabled":false,"rental_uris":{"android":"levelo://app?vid=9d671549-67ad-4eb0-ace0-50f59d8a0c79","ios":"levelo://app?vid=9d671549-67ad-4eb0-ace0-50f59d8a0c79"},"vehicle_type_id":"4","last_reported":1728828439,"current_range_meters":24000,"station_id":"ce4bgt92rcd13ifvqcf0","pricing_plan_id":"cebpf4jnsgd1na2vs0mg"},{"bike_id":"c870bdc0-380a-460e-af7b-b8476c015875","system_id":"levelo_inurba_marseille","lat":43.27372,"lon":5.36261,"is_reserved":false,"is_disabled":false,"rental_uris":{"android":"levelo://app?vid=c870bdc0-380a-460e-af7b-b8476c015875","ios":"levelo://app?vid=c870bdc0-380a-460e-af7b-b8476c015875"},"vehicle_type_id":"4","last_reported":1728828439,"current_range_meters":24400,"station_id":"ce4bhbh2rcd13ifvqeo0","pricing_plan_id":"cebpf4jnsgd1na2vs0mg"},{"bike_id":"4e368e00-5748-4df7-9ea0-08fda0460533","system_id":"levelo_inurba_marseille","lat":43.28265,"lon":5.35062,"is_reserved":false,"is_disabled":false,"rental_uris":{"android":"levelo://app?vid=4e368e00-5748-4df7-9ea0-08fda0460533","ios":"levelo://app?vid=4e368e00-5748-4df7-9ea0-08fda0460533"},"vehicle_type_id":"4","last_reported":1728828439,"current_range_meters":22400,"station_id":"ce4bgup2rcd13ifvqco0","pricing_plan_id":"cebpf4jnsgd1na2vs0mg"},{"bike_id":"25e59862-8a09-482d-b3a5-7138deb4afc5","system_id":"levelo_inurba_marseille","lat":43.2306,"lon":5.35491,"is_reserved":false,"is_disabled":false,"rental_uris":{"android":"levelo://app?vid=25e59862-8a09-482d-b3a5-7138deb4afc5","ios":"levelo://app?vid=25e59862-8a09-482d-b3a5-7138deb4afc5"},"vehicle_type_id":"4","last_reported":1728828439,"current_range_meters":4800,"station_id":"cpo3342slgdg3j2ifvpg","pricing_plan_id":"cebpf4jnsgd1na2vs0mg"},{"bike_id":"11f3ba84-f0a8-4aaa-8ae2-a4cd79be7de4","system_id":"levelo_inurba_marseille","lat":43.25724,"lon":5.4111,"is_reserved":false,"is_disabled":false,"rental_uris":{"android":"levelo://app?vid=11f3ba84-f0a8-4aaa-8ae2-a4cd79be7de4","ios":"levelo://app?vid=11f3ba84-f0a8-4aaa-8ae2-a4cd79be7de4"},"vehicle_type_id":"4","last_reported":1728828439,"current_range_meters":20800,"station_id":"ce4bhkp2rcd13ifvqgd0","pricing_plan_id":"cebpf4jnsgd1na2vs0mg"},{"bike_id":"b933402b-d1ca-49a8-bbf7-fb19281d941c","system_id":"levelo_inurba_marseille","lat":43.23192,"lon":5.35547,"is_reserved":false,"is_disabled":false,"rental_uris":{"android":"levelo://app?vid=b933402b-d1ca-49a8-bbf7-fb19281d941c","ios":"levelo://app?vid=b933402b-d1ca-49a8-bbf7-fb19281d941c"},"vehicle_type_id":"4","last_reported":1728828439,"current_range_meters":15200,"station_id":"ce4bhu92rcd13ifvqi70","pricing_plan_id":"cebpf4jnsgd1na2vs0mg"},{"bike_id":"0c1ecff5-69ed-46a2-bcca-316b26b87952","system_id":"levelo_inurba_marseille","lat":43.25577,"lon":5.38229,"is_reserved":false,"is_disabled":false,"rental_uris":{"android":"levelo://app?vid=0c1ecff5-69ed-46a2-bcca-316b26b87952","ios":"levelo://app?vid=0c1ecff5-69ed-46a2-bcca-316b26b87952"},"vehicle_type_id":"4","last_reported":1728828439,"current_range_meters":29600,"station_id":"ce4bhih2rcd13ifvqfs0","pricing_plan_id":"cebpf4jnsgd1na2vs0mg"},{"bike_id":"1dc8e446-5719-49ba-870d-df2b243fa334","system_id":"levelo_inurba_marseille","lat":43.26214,"lon":5.3744,"is_reserved":false,"is_disabled":false,"rental_uris":{"android":"levelo://app?vid=1dc8e446-5719-49ba-870d-df2b243fa334","ios":"levelo://app?vid=1dc8e446-5719-49ba-870d-df2b243fa334"},"vehicle_type_id":"4","last_reported":1728828439,"current_range_meters":38800,"station_id":"ce4bhgp2rcd13ifvqfc0","pricing_plan_id":"cebpf4jnsgd1na2vs0mg"},{"bike_id":"2b13767f-d174-435e-a0a2-106642984c04","system_id":"levelo_inurba_marseille","lat":43.2861,"lon":5.3511,"is_reserved":false,"is_disabled":false,"rental_uris":{"android":"levelo://app?vid=2b13767f-d174-435e-a0a2-106642984c04","ios":"levelo://app?vid=2b13767f-d174-435e-a0a2-106642984c04"},"vehicle_type_id":"4","last_reported":1728828439,"current_range_meters":22800,"station_id":"ce4bhch2rcd13ifvqeug","pricing_plan_id":"cebpf4jnsgd1na2vs0mg"},{"bike_id":"23759937-8928-426f-b6ac-1c6111c4d5c2","system_id":"levelo_inurba_marseille","lat":43.29577,"lon":5.37516,"is_reserved":false,"is_disabled":false,"rental_uris":{"android":"levelo://app?vid=23759937-8928-426f-b6ac-1c6111c4d5c2","ios":"levelo://app?vid=23759937-8928-426f-b6ac-1c6111c4d5c2"},"vehicle_type_id":"4","last_reported":1728828439,"current_range_meters":31200,"station_id":"ce4bgh92rcd13ifvqb50","pricing_plan_id":"cebpf4jnsgd1na2vs0mg"},{"bike_id":"e7cdcb9b-cae1-4fb7-9b12-1bb8991bafa9","system_id":"levelo_inurba_marseille","lat":43.27374,"lon":5.36253,"is_reserved":false,"is_disabled":false,"rental_uris":{"android":"levelo://app?vid=e7cdcb9b-cae1-4fb7-9b12-1bb8991bafa9","ios":"levelo://app?vid=e7cdcb9b-cae1-4fb7-9b12-1bb8991bafa9"},"vehicle_type_id":"4","last_reported":1728828439,"current_range_meters":8800,"station_id":"ce4bhbh2rcd13ifvqeo0","pricing_plan_id":"cebpf4jnsgd1na2vs0mg"},{"bike_id":"9d0e307c-cca0-4b29-be05-f1dd1610130d","system_id":"levelo_inurba_marseille","lat":43.24387,"lon":5.3705,"is_reserved":false,"is_disabled":false,"rental_uris":{"android":"levelo://app?vid=9d0e307c-cca0-4b29-be05-f1dd1610130d","ios":"levelo://app?vid=9d0e307c-cca0-4b29-be05-f1dd1610130d"},"vehicle_type_id":"4","last_reported":1728828439,"current_range_meters":4800,"station_id":"ce4bhhh2rcd13ifvqfk0","pricing_plan_id":"cebpf4jnsgd1na2vs0mg"},{"bike_id":"549d6d74-2989-4262-84f7-d0467c6c02f7","system_id":"levelo_inurba_marseille","lat":43.29894,"lon":5.43667,"is_reserved":false,"is_disabled":false,"rental_uris":{"android":"levelo://app?vid=549d6d74-2989-4262-84f7-d0467c6c02f7","ios":"levelo://app?vid=549d6d74-2989-4262-84f7-d0467c6c02f7"},"vehicle_type_id":"4","last_reported":1728828439,"current_range_meters":17600,"station_id":"ce4bhpp2rcd13ifvqhfg","pricing_plan_id":"cebpf4jnsgd1na2vs0mg"},{"bike_id":"c40cde4b-bc5e-4dc1-9318-6dd3ef186583","system_id":"levelo_inurba_marseille","lat":43.28436,"lon":5.39205,"is_reserved":false,"is_disabled":false,"rental_uris":{"android":"levelo://app?vid=c40cde4b-bc5e-4dc1-9318-6dd3ef186583","ios":"levelo://app?vid=c40cde4b-bc5e-4dc1-9318-6dd3ef186583"},"vehicle_type_id":"4","last_reported":1728828439,"current_range_meters":12000,"station_id":"ce4bhoh2rcd13ifvqh5g","pricing_plan_id":"cebpf4jnsgd1na2vs0mg"},{"bike_id":"ad384203-41b2-41a3-bdd9-e89e71f4a9b5","system_id":"levelo_inurba_marseille","lat":43.24387,"lon":5.37053,"is_reserved":false,"is_disabled":false,"rental_uris":{"android":"levelo://app?vid=ad384203-41b2-41a3-bdd9-e89e71f4a9b5","ios":"levelo://app?vid=ad384203-41b2-41a3-bdd9-e89e71f4a9b5"},"vehicle_type_id":"4","last_reported":1728828439,"current_range_meters":16800,"station_id":"ce4bhhh2rcd13ifvqfk0","pricing_plan_id":"cebpf4jnsgd1na2vs0mg"},{"bike_id":"88328bd5-b438-49ba-80fa-ccaaa13b27b7","system_id":"levelo_inurba_marseille","lat":43.2417,"lon":5.39732,"is_reserved":false,"is_disabled":false,"rental_uris":{"android":"levelo://app?vid=88328bd5-b438-49ba-80fa-ccaaa13b27b7","ios":"levelo://app?vid=88328bd5-b438-49ba-80fa-ccaaa13b27b7"},"vehicle_type_id":"4","last_reported":1728828439,"current_range_meters":24000,"station_id":"ce4bhn12rcd13ifvqgpg","pricing_plan_id":"cebpf4jnsgd1na2vs0mg"},{"bike_id":"1f381961-fe29-4382-85d0-c6019f4fe444","system_id":"levelo_inurba_marseille","lat":43.25866,"lon":5.3991,"is_reserved":false,"is_disabled":false,"rental_uris":{"android":"levelo://app?vid=1f381961-fe29-4382-85d0-c6019f4fe444","ios":"levelo://app?vid=1f381961-fe29-4382-85d0-c6019f4fe444"},"vehicle_type_id":"4","last_reported":1728828439,"current_range_meters":29600,"station_id":"ce4bhh12rcd13ifvqfg0","pricing_plan_id":"cebpf4jnsgd1na2vs0mg"},{"bike_id":"b5452b0f-d05f-4acc-aca0-4ef9ab05c917","system_id":"levelo_inurba_marseille","lat":43.22933,"lon":5.35377,"is_reserved":false,"is_disabled":false,"rental_uris":{"android":"levelo://app?vid=b5452b0f-d05f-4acc-aca0-4ef9ab05c917","ios":"levelo://app?vid=b5452b0f-d05f-4acc-aca0-4ef9ab05c917"},"vehicle_type_id":"4","last_reported":1728828439,"current_range_meters":38800,"station_id":"cpo3532slgdg3j2ikp40","pricing_plan_id":"cebpf4jnsgd1na2vs0mg"},{"bike_id":"f470ca21-d7ce-4354-bd3b-c104a3fb30b3","system_id":"levelo_inurba_marseille","lat":43.29219,"lon":5.36056,"is_reserved":false,"is_disabled":false,"rental_uris":{"android":"levelo://app?vid=f470ca21-d7ce-4354-bd3b-c104a3fb30b3","ios":"levelo://app?vid=f470ca21-d7ce-4354-bd3b-c104a3fb30b3"},"vehicle_type_id":"4","last_reported":1728828439,"current_range_meters":26000,"station_id":"ce4bhbh2rcd13ifvqeqg","pricing_plan_id":"cebpf4jnsgd1na2vs0mg"},{"bike_id":"b07d947f-da80-474c-85d5-8ab68230fd90","system_id":"levelo_inurba_marseille","lat":43.33728,"lon":5.39187,"is_reserved":false,"is_disabled":false,"rental_uris":{"android":"levelo://app?vid=b07d947f-da80-474c-85d5-8ab68230fd90","ios":"levelo://app?vid=b07d947f-da80-474c-85d5-8ab68230fd90"},"vehicle_type_id":"4","last_reported":1728828439,"current_range_meters":17200,"station_id":"ce4bhr92rcd13ifvqhsg","pricing_plan_id":"cebpf4jnsgd1na2vs0mg"},{"bike_id":"b47e73dc-365d-4303-adc6-d984762e2abf","system_id":"levelo_inurba_marseille","lat":43.297927,"lon":5.393353,"is_reserved":false,"is_disabled":false,"rental_uris":{"android":"levelo://app?vid=b47e73dc-365d-4303-adc6-d984762e2abf","ios":"levelo://app?vid=b47e73dc-365d-4303-adc6-d984762e2abf"},"vehicle_type_id":"4","last_reported":1728828439,"current_range_meters":7200,"station_id":"chh1huq6cuj3fo74tm60","pricing_plan_id":"cebpf4jnsgd1na2vs0mg"},{"bike_id":"f03e7044-fb37-40e3-aa8b-59c60948bc31","system_id":"levelo_inurba_marseille","lat":43.2693,"lon":5.38916,"is_reserved":false,"is_disabled":false,"rental_uris":{"android":"levelo://app?vid=f03e7044-fb37-40e3-aa8b-59c60948bc31","ios":"levelo://app?vid=f03e7044-fb37-40e3-aa8b-59c60948bc31"},"vehicle_type_id":"4","last_reported":1728828439,"current_range_meters":38800,"station_id":"ce4bhhh2rcd13ifvqfl0","pricing_plan_id":"cebpf4jnsgd1na2vs0mg"},{"bike_id":"562f9f05-b692-42c8-a8ae-9ad0b4efeb05","system_id":"levelo_inurba_marseille","lat":43.24172,"lon":5.36389,"is_reserved":false,"is_disabled":false,"rental_uris":{"android":"levelo://app?vid=562f9f05-b692-42c8-a8ae-9ad0b4efeb05","ios":"levelo://app?vid=562f9f05-b692-42c8-a8ae-9ad0b4efeb05"},"vehicle_type_id":"4","last_reported":1728828439,"current_range_meters":34800,"station_id":"cpo36qri1sfpv3e86is0","pricing_plan_id":"cebpf4jnsgd1na2vs0mg"},{"bike_id":"00be4435-61ae-465e-a6eb-7d2dc9bb4325","system_id":"levelo_inurba_marseille","lat":43.29194,"lon":5.35808,"is_reserved":false,"is_disabled":false,"rental_uris":{"android":"levelo://app?vid=00be4435-61ae-465e-a6eb-7d2dc9bb4325","ios":"levelo://app?vid=00be4435-61ae-465e-a6eb-7d2dc9bb4325"},"vehicle_type_id":"4","last_reported":1728828439,"current_range_meters":8800,"station_id":"ce4bhb12rcd13ifvqel0","pricing_plan_id":"cebpf4jnsgd1na2vs0mg"},{"bike_id":"e1f9486c-3843-42a6-aacd-4c828c67520a","system_id":"levelo_inurba_marseille","lat":43.23052,"lon":5.35489,"is_reserved":false,"is_disabled":false,"rental_uris":{"android":"levelo://app?vid=e1f9486c-3843-42a6-aacd-4c828c67520a","ios":"levelo://app?vid=e1f9486c-3843-42a6-aacd-4c828c67520a"},"vehicle_type_id":"4","last_reported":1728828439,"current_range_meters":30000,"station_id":"cpo3342slgdg3j2ifvpg","pricing_plan_id":"cebpf4jnsgd1na2vs0mg"},{"bike_id":"17f0a58b-fa96-470d-a1b0-89c2a0c2bfbe","system_id":"levelo_inurba_marseille","lat":43.23193,"lon":5.35556,"is_reserved":false,"is_disabled":false,"rental_uris":{"android":"levelo://app?vid=17f0a58b-fa96-470d-a1b0-89c2a0c2bfbe","ios":"levelo://app?vid=17f0a58b-fa96-470d-a1b0-89c2a0c2bfbe"},"vehicle_type_id":"4","last_reported":1728828439,"current_range_meters":16800,"station_id":"ce4bhu92rcd13ifvqi70","pricing_plan_id":"cebpf4jnsgd1na2vs0mg"},{"bike_id":"e6d821dd-d3db-400a-905c-be9d28556ac0","system_id":"levelo_inurba_marseille","lat":43.24173,"lon":5.39735,"is_reserved":false,"is_disabled":false,"rental_uris":{"android":"levelo://app?vid=e6d821dd-d3db-400a-905c-be9d28556ac0","ios":"levelo://app?vid=e6d821dd-d3db-400a-905c-be9d28556ac0"},"vehicle_type_id":"4","last_reported":1728828439,"current_range_meters":8800,"station_id":"ce4bhn12rcd13ifvqgpg","pricing_plan_id":"cebpf4jnsgd1na2vs0mg"},{"bike_id":"bca91271-9a12-4b75-92ea-62cc22275cd0","system_id":"levelo_inurba_marseille","lat":43.28416,"lon":5.3498,"is_reserved":false,"is_disabled":false,"rental_uris":{"android":"levelo://app?vid=bca91271-9a12-4b75-92ea-62cc22275cd0","ios":"levelo://app?vid=bca91271-9a12-4b75-92ea-62cc22275cd0"},"vehicle_type_id":"4","last_reported":1728828439,"current_range_meters":29600,"station_id":"ce4bhbh2rcd13ifvqepg","pricing_plan_id":"cebpf4jnsgd1na2vs0mg"},{"bike_id":"b25409bc-df4d-476a-893e-c6a5838692b2","system_id":"levelo_inurba_marseille","lat":43.23193,"lon":5.35554,"is_reserved":false,"is_disabled":false,"rental_uris":{"android":"levelo://app?vid=b25409bc-df4d-476a-893e-c6a5838692b2","ios":"levelo://app?vid=b25409bc-df4d-476a-893e-c6a5838692b2"},"vehicle_type_id":"4","last_reported":1728828439,"current_range_meters":39200,"station_id":"ce4bhu92rcd13ifvqi70","pricing_plan_id":"cebpf4jnsgd1na2vs0mg"},{"bike_id":"0c988b74-1146-4916-ae24-07fd58d50211","system_id":"levelo_inurba_marseille","lat":43.270594,"lon":5.40256,"is_reserved":false,"is_disabled":false,"rental_uris":{"android":"levelo://app?vid=0c988b74-1146-4916-ae24-07fd58d50211","ios":"levelo://app?vid=0c988b74-1146-4916-ae24-07fd58d50211"},"vehicle_type_id":"4","last_reported":1728828439,"current_range_meters":35600,"station_id":"ce4bhk92rcd13ifvqgc0","pricing_plan_id":"cebpf4jnsgd1na2vs0mg"},{"bike_id":"c0ba6486-f212-4dcc-9e9d-0bcd4174be5f","system_id":"levelo_inurba_marseille","lat":43.25939,"lon":5.409,"is_reserved":false,"is_disabled":false,"rental_uris":{"android":"levelo://app?vid=c0ba6486-f212-4dcc-9e9d-0bcd4174be5f","ios":"levelo://app?vid=c0ba6486-f212-4dcc-9e9d-0bcd4174be5f"},"vehicle_type_id":"4","last_reported":1728828439,"current_range_meters":19600,"station_id":"ce4bhm92rcd13ifvqglg","pricing_plan_id":"cebpf4jnsgd1na2vs0mg"},{"bike_id":"8fb2b431-bcb9-46ba-80fb-e26e84592fc5","system_id":"levelo_inurba_marseille","lat":43.23191,"lon":5.35545,"is_reserved":false,"is_disabled":false,"rental_uris":{"android":"levelo://app?vid=8fb2b431-bcb9-46ba-80fb-e26e84592fc5","ios":"levelo://app?vid=8fb2b431-bcb9-46ba-80fb-e26e84592fc5"},"vehicle_type_id":"4","last_reported":1728828439,"current_range_meters":27200,"station_id":"ce4bhu92rcd13ifvqi70","pricing_plan_id":"cebpf4jnsgd1na2vs0mg"},{"bike_id":"0201f3d5-7f11-44f9-b98f-64f18258c683","system_id":"levelo_inurba_marseille","lat":43.27375,"lon":5.36255,"is_reserved":false,"is_disabled":false,"rental_uris":{"android":"levelo://app?vid=0201f3d5-7f11-44f9-b98f-64f18258c683","ios":"levelo://app?vid=0201f3d5-7f11-44f9-b98f-64f18258c683"},"vehicle_type_id":"4","last_reported":1728828439,"current_range_meters":26000,"station_id":"ce4bhbh2rcd13ifvqeo0","pricing_plan_id":"cebpf4jnsgd1na2vs0mg"},{"bike_id":"18188052-b5e0-4e20-9935-92f056eb2bbf","system_id":"levelo_inurba_marseille","lat":43.28272,"lon":5.35059,"is_reserved":false,"is_disabled":false,"rental_uris":{"android":"levelo://app?vid=18188052-b5e0-4e20-9935-92f056eb2bbf","ios":"levelo://app?vid=18188052-b5e0-4e20-9935-92f056eb2bbf"},"vehicle_type_id":"4","last_reported":1728828439,"current_range_meters":18800,"station_id":"ce4bhbp2rcd13ifvqerg","pricing_plan_id":"cebpf4jnsgd1na2vs0mg"},{"bike_id":"6746abcb-d28b-4802-b21a-150ec671a4ca","system_id":"levelo_inurba_marseille","lat":43.23194,"lon":5.35552,"is_reserved":false,"is_disabled":false,"rental_uris":{"android":"levelo://app?vid=6746abcb-d28b-4802-b21a-150ec671a4ca","ios":"levelo://app?vid=6746abcb-d28b-4802-b21a-150ec671a4ca"},"vehicle_type_id":"4","last_reported":1728828439,"current_range_meters":22400,"station_id":"ce4bhu92rcd13ifvqi70","pricing_plan_id":"cebpf4jnsgd1na2vs0mg"},{"bike_id":"262d51d4-10f8-4fbb-b176-39b58fcf2581","system_id":"levelo_inurba_marseille","lat":43.24806,"lon":5.37455,"is_reserved":false,"is_disabled":false,"rental_uris":{"android":"levelo://app?vid=262d51d4-10f8-4fbb-b176-39b58fcf2581","ios":"levelo://app?vid=262d51d4-10f8-4fbb-b176-39b58fcf2581"},"vehicle_type_id":"4","last_reported":1728828439,"current_range_meters":38400,"station_id":"ce4bhgh2rcd13ifvqfb0","pricing_plan_id":"cebpf4jnsgd1na2vs0mg"},{"bike_id":"2ab423a0-58a0-4125-b3de-29c6611f5114","system_id":"levelo_inurba_marseille","lat":43.25087,"lon":5.39519,"is_reserved":false,"is_disabled":false,"rental_uris":{"android":"levelo://app?vid=2ab423a0-58a0-4125-b3de-29c6611f5114","ios":"levelo://app?vid=2ab423a0-58a0-4125-b3de-29c6611f5114"},"vehicle_type_id":"4","last_reported":1728828439,"current_range_meters":38800,"station_id":"ce4bhm12rcd13ifvqgkg","pricing_plan_id":"cebpf4jnsgd1na2vs0mg"},{"bike_id":"5d0b2349-b815-49ca-a368-d0f94f9daa51","system_id":"levelo_inurba_marseille","lat":43.24393,"lon":5.37066,"is_reserved":false,"is_disabled":false,"rental_uris":{"android":"levelo://app?vid=5d0b2349-b815-49ca-a368-d0f94f9daa51","ios":"levelo://app?vid=5d0b2349-b815-49ca-a368-d0f94f9daa51"},"vehicle_type_id":"4","last_reported":1728828439,"current_range_meters":28800,"station_id":"ce4bhhh2rcd13ifvqfk0","pricing_plan_id":"cebpf4jnsgd1na2vs0mg"},{"bike_id":"8df76210-c1cb-4a21-b1a3-10b5629722e8","system_id":"levelo_inurba_marseille","lat":43.23183,"lon":5.3999,"is_reserved":false,"is_disabled":false,"rental_uris":{"android":"levelo://app?vid=8df76210-c1cb-4a21-b1a3-10b5629722e8","ios":"levelo://app?vid=8df76210-c1cb-4a21-b1a3-10b5629722e8"},"vehicle_type_id":"4","last_reported":1728828439,"current_range_meters":38800,"station_id":"ce4bhn12rcd13ifvqgqg","pricing_plan_id":"cebpf4jnsgd1na2vs0mg"},{"bike_id":"8e15d06f-6af1-4d46-b19d-d2107efe5e99","system_id":"levelo_inurba_marseille","lat":43.28096,"lon":5.37835,"is_reserved":false,"is_disabled":false,"rental_uris":{"android":"levelo://app?vid=8e15d06f-6af1-4d46-b19d-d2107efe5e99","ios":"levelo://app?vid=8e15d06f-6af1-4d46-b19d-d2107efe5e99"},"vehicle_type_id":"4","last_reported":1728828439,"current_range_meters":18800,"station_id":"ce4bha12rcd13ifvqee0","pricing_plan_id":"cebpf4jnsgd1na2vs0mg"},{"bike_id":"a9d8d00f-2b10-40cd-af9b-04b4ae45f2bc","system_id":"levelo_inurba_marseille","lat":43.24386,"lon":5.37054,"is_reserved":false,"is_disabled":false,"rental_uris":{"android":"levelo://app?vid=a9d8d00f-2b10-40cd-af9b-04b4ae45f2bc","ios":"levelo://app?vid=a9d8d00f-2b10-40cd-af9b-04b4ae45f2bc"},"vehicle_type_id":"4","last_reported":1728828439,"current_range_meters":22800,"station_id":"ce4bhhh2rcd13ifvqfk0","pricing_plan_id":"cebpf4jnsgd1na2vs0mg"},{"bike_id":"0f64fbfa-ab76-4571-a8c9-7109be1276be","system_id":"levelo_inurba_marseille","lat":43.293,"lon":5.37454,"is_reserved":false,"is_disabled":false,"rental_uris":{"android":"levelo://app?vid=0f64fbfa-ab76-4571-a8c9-7109be1276be","ios":"levelo://app?vid=0f64fbfa-ab76-4571-a8c9-7109be1276be"},"vehicle_type_id":"4","last_reported":1728828439,"current_range_meters":29600,"station_id":"ce4bgi12rcd13ifvqb70","pricing_plan_id":"cebpf4jnsgd1na2vs0mg"},{"bike_id":"80a33221-11ef-427b-8444-adbc7837ed02","system_id":"levelo_inurba_marseille","lat":43.305939,"lon":5.393317,"is_reserved":false,"is_disabled":false,"rental_uris":{"android":"levelo://app?vid=80a33221-11ef-427b-8444-adbc7837ed02","ios":"levelo://app?vid=80a33221-11ef-427b-8444-adbc7837ed02"},"vehicle_type_id":"4","last_reported":1728828439,"current_range_meters":24400,"station_id":"ce4bh392rcd13ifvqdl0","pricing_plan_id":"cebpf4jnsgd1na2vs0mg"},{"bike_id":"ebb6b673-a96f-4057-89cb-5a18e55d6f55","system_id":"levelo_inurba_marseille","lat":43.280344,"lon":5.369391,"is_reserved":false,"is_disabled":false,"rental_uris":{"android":"levelo://app?vid=ebb6b673-a96f-4057-89cb-5a18e55d6f55","ios":"levelo://app?vid=ebb6b673-a96f-4057-89cb-5a18e55d6f55"},"vehicle_type_id":"4","last_reported":1728828439,"current_range_meters":10800,"station_id":"ce4bha12rcd13ifvqef0","pricing_plan_id":"cebpf4jnsgd1na2vs0mg"},{"bike_id":"255c020e-1d64-4c7a-ba51-a5e0c06f44ee","system_id":"levelo_inurba_marseille","lat":43.29851,"lon":5.36286,"is_reserved":false,"is_disabled":false,"rental_uris":{"android":"levelo://app?vid=255c020e-1d64-4c7a-ba51-a5e0c06f44ee","ios":"levelo://app?vid=255c020e-1d64-4c7a-ba51-a5e0c06f44ee"},"vehicle_type_id":"4","last_reported":1728828439,"current_range_meters":20400,"station_id":"ce4bgpp2rcd13ifvqc3g","pricing_plan_id":"cebpf4jnsgd1na2vs0mg"},{"bike_id":"e53d9dac-6d16-4334-ad56-d0d38fcf4eb7","system_id":"levelo_inurba_marseille","lat":43.27965,"lon":5.41807,"is_reserved":false,"is_disabled":false,"rental_uris":{"android":"levelo://app?vid=e53d9dac-6d16-4334-ad56-d0d38fcf4eb7","ios":"levelo://app?vid=e53d9dac-6d16-4334-ad56-d0d38fcf4eb7"},"vehicle_type_id":"4","last_reported":1728828439,"current_range_meters":24400,"station_id":"","pricing_plan_id":"cebpf4jnsgd1na2vs0mg"},{"bike_id":"c611aef4-6d5d-40aa-878f-a8ebd960836b","system_id":"levelo_inurba_marseille","lat":43.23962,"lon":5.36634,"is_reserved":false,"is_disabled":false,"rental_uris":{"android":"levelo://app?vid=c611aef4-6d5d-40aa-878f-a8ebd960836b","ios":"levelo://app?vid=c611aef4-6d5d-40aa-878f-a8ebd960836b"},"vehicle_type_id":"4","last_reported":1728828439,"current_range_meters":38800,"station_id":"ce4bhi12rcd13ifvqfp0","pricing_plan_id":"cebpf4jnsgd1na2vs0mg"},{"bike_id":"aa94dfd2-1ed1-43df-a438-34e39f771f63","system_id":"levelo_inurba_marseille","lat":43.24393,"lon":5.3707,"is_reserved":false,"is_disabled":false,"rental_uris":{"android":"levelo://app?vid=aa94dfd2-1ed1-43df-a438-34e39f771f63","ios":"levelo://app?vid=aa94dfd2-1ed1-43df-a438-34e39f771f63"},"vehicle_type_id":"4","last_reported":1728828439,"current_range_meters":10000,"station_id":"ce4bhhh2rcd13ifvqfk0","pricing_plan_id":"cebpf4jnsgd1na2vs0mg"},{"bike_id":"c167cdf7-5aed-449a-bdd2-8f515812e27f","system_id":"levelo_inurba_marseille","lat":43.29032,"lon":5.37567,"is_reserved":false,"is_disabled":false,"rental_uris":{"android":"levelo://app?vid=c167cdf7-5aed-449a-bdd2-8f515812e27f","ios":"levelo://app?vid=c167cdf7-5aed-449a-bdd2-8f515812e27f"},"vehicle_type_id":"4","last_reported":1728828439,"current_range_meters":35200,"station_id":"ce4bh692rcd13ifvqe90","pricing_plan_id":"cebpf4jnsgd1na2vs0mg"},{"bike_id":"cdde71fa-933f-47ef-8a23-39142a076aea","system_id":"levelo_inurba_marseille","lat":43.29557,"lon":5.42284,"is_reserved":false,"is_disabled":false,"rental_uris":{"android":"levelo://app?vid=cdde71fa-933f-47ef-8a23-39142a076aea","ios":"levelo://app?vid=cdde71fa-933f-47ef-8a23-39142a076aea"},"vehicle_type_id":"4","last_reported":1728828439,"current_range_meters":38800,"station_id":"ce4bhph2rcd13ifvqhdg","pricing_plan_id":"cebpf4jnsgd1na2vs0mg"},{"bike_id":"d04c3a25-9e86-42a0-833a-b06bd4f0b4bd","system_id":"levelo_inurba_marseille","lat":43.24174,"lon":5.36388,"is_reserved":false,"is_disabled":false,"rental_uris":{"android":"levelo://app?vid=d04c3a25-9e86-42a0-833a-b06bd4f0b4bd","ios":"levelo://app?vid=d04c3a25-9e86-42a0-833a-b06bd4f0b4bd"},"vehicle_type_id":"4","last_reported":1728828439,"current_range_meters":17600,"station_id":"cpo36qri1sfpv3e86is0","pricing_plan_id":"cebpf4jnsgd1na2vs0mg"},{"bike_id":"49316722-f5ca-469e-b328-cdeaebfb0c7f","system_id":"levelo_inurba_marseille","lat":43.23957,"lon":5.36627,"is_reserved":false,"is_disabled":false,"rental_uris":{"android":"levelo://app?vid=49316722-f5ca-469e-b328-cdeaebfb0c7f","ios":"levelo://app?vid=49316722-f5ca-469e-b328-cdeaebfb0c7f"},"vehicle_type_id":"4","last_reported":1728828439,"current_range_meters":38800,"station_id":"ce4bhi12rcd13ifvqfp0","pricing_plan_id":"cebpf4jnsgd1na2vs0mg"},{"bike_id":"7b20509d-3e68-45a9-908c-1764325c91a4","system_id":"levelo_inurba_marseille","lat":43.23195,"lon":5.3555,"is_reserved":false,"is_disabled":false,"rental_uris":{"android":"levelo://app?vid=7b20509d-3e68-45a9-908c-1764325c91a4","ios":"levelo://app?vid=7b20509d-3e68-45a9-908c-1764325c91a4"},"vehicle_type_id":"4","last_reported":1728828439,"current_range_meters":4800,"station_id":"ce4bhu92rcd13ifvqi70","pricing_plan_id":"cebpf4jnsgd1na2vs0mg"},{"bike_id":"aad69708-28ac-43e6-945e-619f5a7c6bfd","system_id":"levelo_inurba_marseille","lat":43.33781,"lon":5.37443,"is_reserved":false,"is_disabled":false,"rental_uris":{"android":"levelo://app?vid=aad69708-28ac-43e6-945e-619f5a7c6bfd","ios":"levelo://app?vid=aad69708-28ac-43e6-945e-619f5a7c6bfd"},"vehicle_type_id":"4","last_reported":1728828439,"current_range_meters":33200,"station_id":"","pricing_plan_id":"cebpf4jnsgd1na2vs0mg"},{"bike_id":"0569f9ff-2c72-484f-9bb3-6180b164df30","system_id":"levelo_inurba_marseille","lat":43.26032,"lon":5.37547,"is_reserved":false,"is_disabled":false,"rental_uris":{"android":"levelo://app?vid=0569f9ff-2c72-484f-9bb3-6180b164df30","ios":"levelo://app?vid=0569f9ff-2c72-484f-9bb3-6180b164df30"},"vehicle_type_id":"4","last_reported":1728828439,"current_range_meters":13600,"station_id":"ce4bhgh2rcd13ifvqfa0","pricing_plan_id":"cebpf4jnsgd1na2vs0mg"},{"bike_id":"59f64bf5-fbfb-4716-b297-421bcb52cdd8","system_id":"levelo_inurba_marseille","lat":43.27941,"lon":5.41047,"is_reserved":false,"is_disabled":false,"rental_uris":{"android":"levelo://app?vid=59f64bf5-fbfb-4716-b297-421bcb52cdd8","ios":"levelo://app?vid=59f64bf5-fbfb-4716-b297-421bcb52cdd8"},"vehicle_type_id":"4","last_reported":1728828439,"current_range_meters":15200,"station_id":"ce4bhnp2rcd13ifvqh0g","pricing_plan_id":"cebpf4jnsgd1na2vs0mg"},{"bike_id":"5a29100d-0deb-49ca-b97a-5350fb9c93fb","system_id":"levelo_inurba_marseille","lat":43.25009,"lon":5.38911,"is_reserved":false,"is_disabled":false,"rental_uris":{"android":"levelo://app?vid=5a29100d-0deb-49ca-b97a-5350fb9c93fb","ios":"levelo://app?vid=5a29100d-0deb-49ca-b97a-5350fb9c93fb"},"vehicle_type_id":"4","last_reported":1728828439,"current_range_meters":26000,"station_id":"ce4bhgp2rcd13ifvqfd0","pricing_plan_id":"cebpf4jnsgd1na2vs0mg"},{"bike_id":"71cf7286-1207-48ea-9905-84e8b1d59926","system_id":"levelo_inurba_marseille","lat":43.23155,"lon":5.43702,"is_reserved":false,"is_disabled":false,"rental_uris":{"android":"levelo://app?vid=71cf7286-1207-48ea-9905-84e8b1d59926","ios":"levelo://app?vid=71cf7286-1207-48ea-9905-84e8b1d59926"},"vehicle_type_id":"4","last_reported":1728828439,"current_range_meters":31200,"station_id":"ce4bhmp2rcd13ifvqgog","pricing_plan_id":"cebpf4jnsgd1na2vs0mg"},{"bike_id":"f7e2a549-9cc8-4859-b9f2-d0c4c32b3ee8","system_id":"levelo_inurba_marseille","lat":43.24805,"lon":5.37439,"is_reserved":false,"is_disabled":false,"rental_uris":{"android":"levelo://app?vid=f7e2a549-9cc8-4859-b9f2-d0c4c32b3ee8","ios":"levelo://app?vid=f7e2a549-9cc8-4859-b9f2-d0c4c32b3ee8"},"vehicle_type_id":"4","last_reported":1728828439,"current_range_meters":22800,"station_id":"ce4bhgh2rcd13ifvqfb0","pricing_plan_id":"cebpf4jnsgd1na2vs0mg"},{"bike_id":"4ea8bc5f-00d8-4ec8-b275-616b75fdf0e2","system_id":"levelo_inurba_marseille","lat":43.28439,"lon":5.39202,"is_reserved":false,"is_disabled":false,"rental_uris":{"android":"levelo://app?vid=4ea8bc5f-00d8-4ec8-b275-616b75fdf0e2","ios":"levelo://app?vid=4ea8bc5f-00d8-4ec8-b275-616b75fdf0e2"},"vehicle_type_id":"4","last_reported":1728828439,"current_range_meters":2000,"station_id":"ce4bhoh2rcd13ifvqh5g","pricing_plan_id":"cebpf4jnsgd1na2vs0mg"},{"bike_id":"9b63e08c-92a9-474f-94c2-a5402b510f01","system_id":"levelo_inurba_marseille","lat":43.2319,"lon":5.35555,"is_reserved":false,"is_disabled":false,"rental_uris":{"android":"levelo://app?vid=9b63e08c-92a9-474f-94c2-a5402b510f01","ios":"levelo://app?vid=9b63e08c-92a9-474f-94c2-a5402b510f01"},"vehicle_type_id":"4","last_reported":1728828439,"current_range_meters":2800,"station_id":"ce4bhu92rcd13ifvqi70","pricing_plan_id":"cebpf4jnsgd1na2vs0mg"},{"bike_id":"8509fa5d-c6d9-4cb2-b4b1-4f2065b2666e","system_id":"levelo_inurba_marseille","lat":43.28344,"lon":5.41016,"is_reserved":false,"is_disabled":false,"rental_uris":{"android":"levelo://app?vid=8509fa5d-c6d9-4cb2-b4b1-4f2065b2666e","ios":"levelo://app?vid=8509fa5d-c6d9-4cb2-b4b1-4f2065b2666e"},"vehicle_type_id":"4","last_reported":1728828439,"current_range_meters":3200,"station_id":"","pricing_plan_id":"cebpf4jnsgd1na2vs0mg"},{"bike_id":"652d902d-aee2-45c9-b946-e64da95c8044","system_id":"levelo_inurba_marseille","lat":43.296063,"lon":5.381002,"is_reserved":false,"is_disabled":false,"rental_uris":{"android":"levelo://app?vid=652d902d-aee2-45c9-b946-e64da95c8044","ios":"levelo://app?vid=652d902d-aee2-45c9-b946-e64da95c8044"},"vehicle_type_id":"4","last_reported":1728828439,"current_range_meters":20400,"station_id":"ce4bh412rcd13ifvqdr0","pricing_plan_id":"cebpf4jnsgd1na2vs0mg"},{"bike_id":"f9deceb6-28a5-4114-9300-91a207614eec","system_id":"levelo_inurba_marseille","lat":43.24663,"lon":5.38164,"is_reserved":false,"is_disabled":false,"rental_uris":{"android":"levelo://app?vid=f9deceb6-28a5-4114-9300-91a207614eec","ios":"levelo://app?vid=f9deceb6-28a5-4114-9300-91a207614eec"},"vehicle_type_id":"4","last_reported":1728828439,"current_range_meters":18000,"station_id":"ce4bhih2rcd13ifvqfr0","pricing_plan_id":"cebpf4jnsgd1na2vs0mg"},{"bike_id":"27311a75-ebb6-43d6-9fb5-f3ba72a10e0e","system_id":"levelo_inurba_marseille","lat":43.29907,"lon":5.436629,"is_reserved":false,"is_disabled":false,"rental_uris":{"android":"levelo://app?vid=27311a75-ebb6-43d6-9fb5-f3ba72a10e0e","ios":"levelo://app?vid=27311a75-ebb6-43d6-9fb5-f3ba72a10e0e"},"vehicle_type_id":"4","last_reported":1728828439,"current_range_meters":17200,"station_id":"ce4bhpp2rcd13ifvqhfg","pricing_plan_id":"cebpf4jnsgd1na2vs0mg"},{"bike_id":"4e28be52-5ccc-4188-b6d4-f6fd8ee4c8c3","system_id":"levelo_inurba_marseille","lat":43.22935,"lon":5.35375,"is_reserved":false,"is_disabled":false,"rental_uris":{"android":"levelo://app?vid=4e28be52-5ccc-4188-b6d4-f6fd8ee4c8c3","ios":"levelo://app?vid=4e28be52-5ccc-4188-b6d4-f6fd8ee4c8c3"},"vehicle_type_id":"4","last_reported":1728828439,"current_range_meters":22400,"station_id":"cpo3532slgdg3j2ikp40","pricing_plan_id":"cebpf4jnsgd1na2vs0mg"},{"bike_id":"72cd16f5-1959-4267-a978-bdabf8ba2e6a","system_id":"levelo_inurba_marseille","lat":43.24808,"lon":5.37456,"is_reserved":false,"is_disabled":false,"rental_uris":{"android":"levelo://app?vid=72cd16f5-1959-4267-a978-bdabf8ba2e6a","ios":"levelo://app?vid=72cd16f5-1959-4267-a978-bdabf8ba2e6a"},"vehicle_type_id":"4","last_reported":1728828439,"current_range_meters":24800,"station_id":"ce4bhgh2rcd13ifvqfb0","pricing_plan_id":"cebpf4jnsgd1na2vs0mg"},{"bike_id":"b1483e38-92bb-491a-bacd-a2dca6f92aca","system_id":"levelo_inurba_marseille","lat":43.23061,"lon":5.35489,"is_reserved":false,"is_disabled":false,"rental_uris":{"android":"levelo://app?vid=b1483e38-92bb-491a-bacd-a2dca6f92aca","ios":"levelo://app?vid=b1483e38-92bb-491a-bacd-a2dca6f92aca"},"vehicle_type_id":"4","last_reported":1728828439,"current_range_meters":7200,"station_id":"cpo3342slgdg3j2ifvpg","pricing_plan_id":"cebpf4jnsgd1na2vs0mg"},{"bike_id":"664b0f9f-11b4-4040-be81-0da132eb8e3a","system_id":"levelo_inurba_marseille","lat":43.29003,"lon":5.35611,"is_reserved":false,"is_disabled":false,"rental_uris":{"android":"levelo://app?vid=664b0f9f-11b4-4040-be81-0da132eb8e3a","ios":"levelo://app?vid=664b0f9f-11b4-4040-be81-0da132eb8e3a"},"vehicle_type_id":"4","last_reported":1728828439,"current_range_meters":16400,"station_id":"ce4bhb92rcd13ifvqen0","pricing_plan_id":"cebpf4jnsgd1na2vs0mg"},{"bike_id":"c125659c-958d-46e0-903b-368579960dd5","system_id":"levelo_inurba_marseille","lat":43.24389,"lon":5.37052,"is_reserved":false,"is_disabled":false,"rental_uris":{"android":"levelo://app?vid=c125659c-958d-46e0-903b-368579960dd5","ios":"levelo://app?vid=c125659c-958d-46e0-903b-368579960dd5"},"vehicle_type_id":"4","last_reported":1728828439,"current_range_meters":27600,"station_id":"ce4bhhh2rcd13ifvqfk0","pricing_plan_id":"cebpf4jnsgd1na2vs0mg"},{"bike_id":"dafbeed0-2d2a-4f71-9dd3-21fc3284dd7c","system_id":"levelo_inurba_marseille","lat":43.27971,"lon":5.38741,"is_reserved":false,"is_disabled":false,"rental_uris":{"android":"levelo://app?vid=dafbeed0-2d2a-4f71-9dd3-21fc3284dd7c","ios":"levelo://app?vid=dafbeed0-2d2a-4f71-9dd3-21fc3284dd7c"},"vehicle_type_id":"4","last_reported":1728828439,"current_range_meters":24800,"station_id":"ce4bhg12rcd13ifvqf80","pricing_plan_id":"cebpf4jnsgd1na2vs0mg"},{"bike_id":"0a7f4f8b-83db-4348-be70-5e0a5f67a62f","system_id":"levelo_inurba_marseille","lat":43.28265,"lon":5.35045,"is_reserved":false,"is_disabled":false,"rental_uris":{"android":"levelo://app?vid=0a7f4f8b-83db-4348-be70-5e0a5f67a62f","ios":"levelo://app?vid=0a7f4f8b-83db-4348-be70-5e0a5f67a62f"},"vehicle_type_id":"4","last_reported":1728828439,"current_range_meters":37600,"station_id":"ce4bhbp2rcd13ifvqerg","pricing_plan_id":"cebpf4jnsgd1na2vs0mg"},{"bike_id":"69f9c6bd-3fdc-42b0-b673-5bdf263f16bc","system_id":"levelo_inurba_marseille","lat":43.281852,"lon":5.406385,"is_reserved":false,"is_disabled":false,"rental_uris":{"android":"levelo://app?vid=69f9c6bd-3fdc-42b0-b673-5bdf263f16bc","ios":"levelo://app?vid=69f9c6bd-3fdc-42b0-b673-5bdf263f16bc"},"vehicle_type_id":"4","last_reported":1728828439,"current_range_meters":12800,"station_id":"ce4bhnh2rcd13ifvqgtg","pricing_plan_id":"cebpf4jnsgd1na2vs0mg"},{"bike_id":"a3a84477-5d10-49c6-9fb2-19ecf72eca2a","system_id":"levelo_inurba_marseille","lat":43.23054,"lon":5.35495,"is_reserved":false,"is_disabled":false,"rental_uris":{"android":"levelo://app?vid=a3a84477-5d10-49c6-9fb2-19ecf72eca2a","ios":"levelo://app?vid=a3a84477-5d10-49c6-9fb2-19ecf72eca2a"},"vehicle_type_id":"4","last_reported":1728828439,"current_range_meters":7200,"station_id":"cpo3342slgdg3j2ifvpg","pricing_plan_id":"cebpf4jnsgd1na2vs0mg"},{"bike_id":"5966e661-4360-49c8-b8f3-ac1dfa7368f0","system_id":"levelo_inurba_marseille","lat":43.296,"lon":5.38102,"is_reserved":false,"is_disabled":false,"rental_uris":{"android":"levelo://app?vid=5966e661-4360-49c8-b8f3-ac1dfa7368f0","ios":"levelo://app?vid=5966e661-4360-49c8-b8f3-ac1dfa7368f0"},"vehicle_type_id":"4","last_reported":1728828439,"current_range_meters":3600,"station_id":"ce4bgl12rcd13ifvqbo0","pricing_plan_id":"cebpf4jnsgd1na2vs0mg"},{"bike_id":"c5a187db-e278-4e0a-b184-28c59c5e6a1a","system_id":"levelo_inurba_marseille","lat":43.32535,"lon":5.4145,"is_reserved":false,"is_disabled":false,"rental_uris":{"android":"levelo://app?vid=c5a187db-e278-4e0a-b184-28c59c5e6a1a","ios":"levelo://app?vid=c5a187db-e278-4e0a-b184-28c59c5e6a1a"},"vehicle_type_id":"4","last_reported":1728828439,"current_range_meters":36800,"station_id":"ce4bhq12rcd13ifvqhhg","pricing_plan_id":"cebpf4jnsgd1na2vs0mg"},{"bike_id":"cba59919-95e6-42ff-83c9-6bcf45674d60","system_id":"levelo_inurba_marseille","lat":43.32288,"lon":5.38267,"is_reserved":false,"is_disabled":false,"rental_uris":{"android":"levelo://app?vid=cba59919-95e6-42ff-83c9-6bcf45674d60","ios":"levelo://app?vid=cba59919-95e6-42ff-83c9-6bcf45674d60"},"vehicle_type_id":"4","last_reported":1728828439,"current_range_meters":38800,"station_id":"ce4bhr12rcd13ifvqhqg","pricing_plan_id":"cebpf4jnsgd1na2vs0mg"},{"bike_id":"610bfb8b-3e91-4e90-b1f9-7f3d953e2cb4","system_id":"levelo_inurba_marseille","lat":43.24396,"lon":5.37067,"is_reserved":false,"is_disabled":false,"rental_uris":{"android":"levelo://app?vid=610bfb8b-3e91-4e90-b1f9-7f3d953e2cb4","ios":"levelo://app?vid=610bfb8b-3e91-4e90-b1f9-7f3d953e2cb4"},"vehicle_type_id":"4","last_reported":1728828439,"current_range_meters":21600,"station_id":"ce4bhhh2rcd13ifvqfk0","pricing_plan_id":"cebpf4jnsgd1na2vs0mg"},{"bike_id":"b0685f0b-a65d-412f-9834-673d98a45357","system_id":"levelo_inurba_marseille","lat":43.23195,"lon":5.35544,"is_reserved":false,"is_disabled":false,"rental_uris":{"android":"levelo://app?vid=b0685f0b-a65d-412f-9834-673d98a45357","ios":"levelo://app?vid=b0685f0b-a65d-412f-9834-673d98a45357"},"vehicle_type_id":"4","last_reported":1728828439,"current_range_meters":16000,"station_id":"ce4bhu92rcd13ifvqi70","pricing_plan_id":"cebpf4jnsgd1na2vs0mg"},{"bike_id":"0ed8f63f-9f74-4061-8d2c-9f8a962a36c5","system_id":"levelo_inurba_marseille","lat":43.28075,"lon":5.39661,"is_reserved":false,"is_disabled":false,"rental_uris":{"android":"levelo://app?vid=0ed8f63f-9f74-4061-8d2c-9f8a962a36c5","ios":"levelo://app?vid=0ed8f63f-9f74-4061-8d2c-9f8a962a36c5"},"vehicle_type_id":"4","last_reported":1728828439,"current_range_meters":25600,"station_id":"ce4bho12rcd13ifvqh2g","pricing_plan_id":"cebpf4jnsgd1na2vs0mg"},{"bike_id":"0a2e7d32-fc88-4b13-96cd-14f2b1718ddb","system_id":"levelo_inurba_marseille","lat":43.24549,"lon":5.39522,"is_reserved":false,"is_disabled":false,"rental_uris":{"android":"levelo://app?vid=0a2e7d32-fc88-4b13-96cd-14f2b1718ddb","ios":"levelo://app?vid=0a2e7d32-fc88-4b13-96cd-14f2b1718ddb"},"vehicle_type_id":"4","last_reported":1728828439,"current_range_meters":39200,"station_id":"ce4bhlp2rcd13ifvqgjg","pricing_plan_id":"cebpf4jnsgd1na2vs0mg"},{"bike_id":"37faf882-339d-4723-b43e-7fbb2b9b920f","system_id":"levelo_inurba_marseille","lat":43.24388,"lon":5.37068,"is_reserved":false,"is_disabled":false,"rental_uris":{"android":"levelo://app?vid=37faf882-339d-4723-b43e-7fbb2b9b920f","ios":"levelo://app?vid=37faf882-339d-4723-b43e-7fbb2b9b920f"},"vehicle_type_id":"4","last_reported":1728828439,"current_range_meters":24400,"station_id":"ce4bhhh2rcd13ifvqfk0","pricing_plan_id":"cebpf4jnsgd1na2vs0mg"},{"bike_id":"099d3b80-1f23-4f46-ba66-ae8aba144658","system_id":"levelo_inurba_marseille","lat":43.2901,"lon":5.35613,"is_reserved":false,"is_disabled":false,"rental_uris":{"android":"levelo://app?vid=099d3b80-1f23-4f46-ba66-ae8aba144658","ios":"levelo://app?vid=099d3b80-1f23-4f46-ba66-ae8aba144658"},"vehicle_type_id":"4","last_reported":1728828439,"current_range_meters":7200,"station_id":"ce4bhb92rcd13ifvqen0","pricing_plan_id":"cebpf4jnsgd1na2vs0mg"},{"bike_id":"8eb5e8c7-5ba5-4d04-9248-917b20970616","system_id":"levelo_inurba_marseille","lat":43.24172,"lon":5.36403,"is_reserved":false,"is_disabled":false,"rental_uris":{"android":"levelo://app?vid=8eb5e8c7-5ba5-4d04-9248-917b20970616","ios":"levelo://app?vid=8eb5e8c7-5ba5-4d04-9248-917b20970616"},"vehicle_type_id":"4","last_reported":1728828439,"current_range_meters":33200,"station_id":"cpo36qri1sfpv3e86is0","pricing_plan_id":"cebpf4jnsgd1na2vs0mg"},{"bike_id":"66602543-996d-43fd-9ce6-82c51c84fa58","system_id":"levelo_inurba_marseille","lat":43.27902,"lon":5.38029,"is_reserved":false,"is_disabled":false,"rental_uris":{"android":"levelo://app?vid=66602543-996d-43fd-9ce6-82c51c84fa58","ios":"levelo://app?vid=66602543-996d-43fd-9ce6-82c51c84fa58"},"vehicle_type_id":"4","last_reported":1728828439,"current_range_meters":17200,"station_id":"ce4bhf92rcd13ifvqf50","pricing_plan_id":"cebpf4jnsgd1na2vs0mg"},{"bike_id":"7054d3fe-1636-41b1-af8a-ce12a779ebeb","system_id":"levelo_inurba_marseille","lat":43.23069,"lon":5.35489,"is_reserved":false,"is_disabled":false,"rental_uris":{"android":"levelo://app?vid=7054d3fe-1636-41b1-af8a-ce12a779ebeb","ios":"levelo://app?vid=7054d3fe-1636-41b1-af8a-ce12a779ebeb"},"vehicle_type_id":"4","last_reported":1728828439,"current_range_meters":17600,"station_id":"cpo3342slgdg3j2ifvpg","pricing_plan_id":"cebpf4jnsgd1na2vs0mg"},{"bike_id":"adf7f252-dbc1-459a-8043-ad1f1eca0157","system_id":"levelo_inurba_marseille","lat":43.3373,"lon":5.39181,"is_reserved":false,"is_disabled":false,"rental_uris":{"android":"levelo://app?vid=adf7f252-dbc1-459a-8043-ad1f1eca0157","ios":"levelo://app?vid=adf7f252-dbc1-459a-8043-ad1f1eca0157"},"vehicle_type_id":"4","last_reported":1728828439,"current_range_meters":34000,"station_id":"ce4bhr92rcd13ifvqhsg","pricing_plan_id":"cebpf4jnsgd1na2vs0mg"},{"bike_id":"0b4afb29-37be-41d6-88fa-21e23bce8b94","system_id":"levelo_inurba_marseille","lat":43.24173,"lon":5.36396,"is_reserved":false,"is_disabled":false,"rental_uris":{"android":"levelo://app?vid=0b4afb29-37be-41d6-88fa-21e23bce8b94","ios":"levelo://app?vid=0b4afb29-37be-41d6-88fa-21e23bce8b94"},"vehicle_type_id":"4","last_reported":1728828439,"current_range_meters":10800,"station_id":"cpo36qri1sfpv3e86is0","pricing_plan_id":"cebpf4jnsgd1na2vs0mg"},{"bike_id":"cdd4c603-7993-46ee-819a-ece648ea3cd6","system_id":"levelo_inurba_marseille","lat":43.27208,"lon":5.39182,"is_reserved":false,"is_disabled":false,"rental_uris":{"android":"levelo://app?vid=cdd4c603-7993-46ee-819a-ece648ea3cd6","ios":"levelo://app?vid=cdd4c603-7993-46ee-819a-ece648ea3cd6"},"vehicle_type_id":"4","last_reported":1728828439,"current_range_meters":24000,"station_id":"ce4bhhp2rcd13ifvqfm0","pricing_plan_id":"cebpf4jnsgd1na2vs0mg"},{"bike_id":"d74ec44b-9cea-4248-a2e4-6a3f2f9cc937","system_id":"levelo_inurba_marseille","lat":43.28423,"lon":5.34993,"is_reserved":false,"is_disabled":false,"rental_uris":{"android":"levelo://app?vid=d74ec44b-9cea-4248-a2e4-6a3f2f9cc937","ios":"levelo://app?vid=d74ec44b-9cea-4248-a2e4-6a3f2f9cc937"},"vehicle_type_id":"4","last_reported":1728828439,"current_range_meters":26000,"station_id":"ce4bhbh2rcd13ifvqepg","pricing_plan_id":"cebpf4jnsgd1na2vs0mg"},{"bike_id":"75a9ec36-d628-425b-8f28-3dfba3d5b08e","system_id":"levelo_inurba_marseille","lat":43.31473,"lon":5.37209,"is_reserved":false,"is_disabled":false,"rental_uris":{"android":"levelo://app?vid=75a9ec36-d628-425b-8f28-3dfba3d5b08e","ios":"levelo://app?vid=75a9ec36-d628-425b-8f28-3dfba3d5b08e"},"vehicle_type_id":"4","last_reported":1728828439,"current_range_meters":38800,"station_id":"","pricing_plan_id":"cebpf4jnsgd1na2vs0mg"},{"bike_id":"1ecf3397-006e-479c-850a-e2d7f7215b9e","system_id":"levelo_inurba_marseille","lat":43.31998,"lon":5.3817,"is_reserved":false,"is_disabled":false,"rental_uris":{"android":"levelo://app?vid=1ecf3397-006e-479c-850a-e2d7f7215b9e","ios":"levelo://app?vid=1ecf3397-006e-479c-850a-e2d7f7215b9e"},"vehicle_type_id":"4","last_reported":1728828439,"current_range_meters":16000,"station_id":"ce4bhr12rcd13ifvqhpg","pricing_plan_id":"cebpf4jnsgd1na2vs0mg"},{"bike_id":"37003959-7cf3-4fd8-9950-23b593c95b9f","system_id":"levelo_inurba_marseille","lat":43.24662,"lon":5.38166,"is_reserved":false,"is_disabled":false,"rental_uris":{"android":"levelo://app?vid=37003959-7cf3-4fd8-9950-23b593c95b9f","ios":"levelo://app?vid=37003959-7cf3-4fd8-9950-23b593c95b9f"},"vehicle_type_id":"4","last_reported":1728828439,"current_range_meters":7200,"station_id":"ce4bhih2rcd13ifvqfr0","pricing_plan_id":"cebpf4jnsgd1na2vs0mg"},{"bike_id":"89577cae-bbd9-4dd4-875c-04f9bc403451","system_id":"levelo_inurba_marseille","lat":43.29713,"lon":5.37701,"is_reserved":false,"is_disabled":false,"rental_uris":{"android":"levelo://app?vid=89577cae-bbd9-4dd4-875c-04f9bc403451","ios":"levelo://app?vid=89577cae-bbd9-4dd4-875c-04f9bc403451"},"vehicle_type_id":"4","last_reported":1728828439,"current_range_meters":7200,"station_id":"ce4bgkh2rcd13ifvqbl0","pricing_plan_id":"cebpf4jnsgd1na2vs0mg"},{"bike_id":"d19ed2ab-47c0-4ff9-88fc-08ff75cf7db2","system_id":"levelo_inurba_marseille","lat":43.31755,"lon":5.39011,"is_reserved":false,"is_disabled":false,"rental_uris":{"android":"levelo://app?vid=d19ed2ab-47c0-4ff9-88fc-08ff75cf7db2","ios":"levelo://app?vid=d19ed2ab-47c0-4ff9-88fc-08ff75cf7db2"},"vehicle_type_id":"4","last_reported":1728828439,"current_range_meters":9200,"station_id":"ce4bhqp2rcd13ifvqhng","pricing_plan_id":"cebpf4jnsgd1na2vs0mg"},{"bike_id":"40f4a0a9-e4f3-46a2-a2da-83ab9f6b18da","system_id":"levelo_inurba_marseille","lat":43.30356,"lon":5.41888,"is_reserved":false,"is_disabled":false,"rental_uris":{"android":"levelo://app?vid=40f4a0a9-e4f3-46a2-a2da-83ab9f6b18da","ios":"levelo://app?vid=40f4a0a9-e4f3-46a2-a2da-83ab9f6b18da"},"vehicle_type_id":"4","last_reported":1728828439,"current_range_meters":26800,"station_id":"ce4bhop2rcd13ifvqh7g","pricing_plan_id":"cebpf4jnsgd1na2vs0mg"},{"bike_id":"2f19d9b2-60a0-45bf-bf48-04c9ce231242","system_id":"levelo_inurba_marseille","lat":43.25583,"lon":5.38239,"is_reserved":false,"is_disabled":false,"rental_uris":{"android":"levelo://app?vid=2f19d9b2-60a0-45bf-bf48-04c9ce231242","ios":"levelo://app?vid=2f19d9b2-60a0-45bf-bf48-04c9ce231242"},"vehicle_type_id":"4","last_reported":1728828439,"current_range_meters":8000,"station_id":"ce4bhih2rcd13ifvqfs0","pricing_plan_id":"cebpf4jnsgd1na2vs0mg"},{"bike_id":"dd12a81b-df1d-4332-b478-6d95ccb259ca","system_id":"levelo_inurba_marseille","lat":43.23068,"lon":5.35489,"is_reserved":false,"is_disabled":false,"rental_uris":{"android":"levelo://app?vid=dd12a81b-df1d-4332-b478-6d95ccb259ca","ios":"levelo://app?vid=dd12a81b-df1d-4332-b478-6d95ccb259ca"},"vehicle_type_id":"4","last_reported":1728828439,"current_range_meters":35600,"station_id":"cpo3342slgdg3j2ifvpg","pricing_plan_id":"cebpf4jnsgd1na2vs0mg"},{"bike_id":"904466af-25d0-423c-9edb-fb7fc8114abe","system_id":"levelo_inurba_marseille","lat":43.23192,"lon":5.35545,"is_reserved":false,"is_disabled":false,"rental_uris":{"android":"levelo://app?vid=904466af-25d0-423c-9edb-fb7fc8114abe","ios":"levelo://app?vid=904466af-25d0-423c-9edb-fb7fc8114abe"},"vehicle_type_id":"4","last_reported":1728828439,"current_range_meters":10000,"station_id":"ce4bhu92rcd13ifvqi70","pricing_plan_id":"cebpf4jnsgd1na2vs0mg"},{"bike_id":"b977fed7-7b8c-49cc-b630-0e958883aa69","system_id":"levelo_inurba_marseille","lat":43.28938,"lon":5.39621,"is_reserved":false,"is_disabled":false,"rental_uris":{"android":"levelo://app?vid=b977fed7-7b8c-49cc-b630-0e958883aa69","ios":"levelo://app?vid=b977fed7-7b8c-49cc-b630-0e958883aa69"},"vehicle_type_id":"4","last_reported":1728828439,"current_range_meters":16800,"station_id":"ce4bh3h2rcd13ifvqdn0","pricing_plan_id":"cebpf4jnsgd1na2vs0mg"},{"bike_id":"7b44e1ad-e3d4-449d-a4f2-c264fde8bb79","system_id":"levelo_inurba_marseille","lat":43.24813,"lon":5.37458,"is_reserved":false,"is_disabled":false,"rental_uris":{"android":"levelo://app?vid=7b44e1ad-e3d4-449d-a4f2-c264fde8bb79","ios":"levelo://app?vid=7b44e1ad-e3d4-449d-a4f2-c264fde8bb79"},"vehicle_type_id":"4","last_reported":1728828439,"current_range_meters":22000,"station_id":"ce4bhgh2rcd13ifvqfb0","pricing_plan_id":"cebpf4jnsgd1na2vs0mg"},{"bike_id":"1dd1695f-b19f-4de0-981e-c3cf53797626","system_id":"levelo_inurba_marseille","lat":43.29192,"lon":5.35795,"is_reserved":false,"is_disabled":false,"rental_uris":{"android":"levelo://app?vid=1dd1695f-b19f-4de0-981e-c3cf53797626","ios":"levelo://app?vid=1dd1695f-b19f-4de0-981e-c3cf53797626"},"vehicle_type_id":"4","last_reported":1728828439,"current_range_meters":4000,"station_id":"ce4bhb12rcd13ifvqel0","pricing_plan_id":"cebpf4jnsgd1na2vs0mg"},{"bike_id":"63f00d18-d297-464f-aedc-5d650a6128d5","system_id":"levelo_inurba_marseille","lat":43.22926,"lon":5.35372,"is_reserved":false,"is_disabled":false,"rental_uris":{"android":"levelo://app?vid=63f00d18-d297-464f-aedc-5d650a6128d5","ios":"levelo://app?vid=63f00d18-d297-464f-aedc-5d650a6128d5"},"vehicle_type_id":"4","last_reported":1728828439,"current_range_meters":3200,"station_id":"cpo3532slgdg3j2ikp40","pricing_plan_id":"cebpf4jnsgd1na2vs0mg"},{"bike_id":"ef6ff362-f6fc-4048-91bc-c48790dfa1b8","system_id":"levelo_inurba_marseille","lat":43.27373,"lon":5.36259,"is_reserved":false,"is_disabled":false,"rental_uris":{"android":"levelo://app?vid=ef6ff362-f6fc-4048-91bc-c48790dfa1b8","ios":"levelo://app?vid=ef6ff362-f6fc-4048-91bc-c48790dfa1b8"},"vehicle_type_id":"4","last_reported":1728828439,"current_range_meters":12000,"station_id":"ce4bhbh2rcd13ifvqeo0","pricing_plan_id":"cebpf4jnsgd1na2vs0mg"},{"bike_id":"600a6ea5-5c70-4f25-9b57-c621b8210681","system_id":"levelo_inurba_marseille","lat":43.32666,"lon":5.40983,"is_reserved":false,"is_disabled":false,"rental_uris":{"android":"levelo://app?vid=600a6ea5-5c70-4f25-9b57-c621b8210681","ios":"levelo://app?vid=600a6ea5-5c70-4f25-9b57-c621b8210681"},"vehicle_type_id":"4","last_reported":1728828439,"current_range_meters":28000,"station_id":"ce4bhpp2rcd13ifvqhgg","pricing_plan_id":"cebpf4jnsgd1na2vs0mg"},{"bike_id":"9bfc1a27-a014-42a1-a665-d1f792274e65","system_id":"levelo_inurba_marseille","lat":43.30786,"lon":5.37644,"is_reserved":false,"is_disabled":false,"rental_uris":{"android":"levelo://app?vid=9bfc1a27-a014-42a1-a665-d1f792274e65","ios":"levelo://app?vid=9bfc1a27-a014-42a1-a665-d1f792274e65"},"vehicle_type_id":"4","last_reported":1728828439,"current_range_meters":5600,"station_id":"ce4bgv92rcd13ifvqcq0","pricing_plan_id":"cebpf4jnsgd1na2vs0mg"},{"bike_id":"8775238e-5d41-4474-9a9d-40eb1c4ce9df","system_id":"levelo_inurba_marseille","lat":43.28616,"lon":5.35103,"is_reserved":false,"is_disabled":false,"rental_uris":{"android":"levelo://app?vid=8775238e-5d41-4474-9a9d-40eb1c4ce9df","ios":"levelo://app?vid=8775238e-5d41-4474-9a9d-40eb1c4ce9df"},"vehicle_type_id":"4","last_reported":1728828439,"current_range_meters":15200,"station_id":"ce4bhch2rcd13ifvqeug","pricing_plan_id":"cebpf4jnsgd1na2vs0mg"},{"bike_id":"6624b9d8-1734-4c69-b27b-12ce48cf311f","system_id":"levelo_inurba_marseille","lat":43.23189,"lon":5.35546,"is_reserved":false,"is_disabled":false,"rental_uris":{"android":"levelo://app?vid=6624b9d8-1734-4c69-b27b-12ce48cf311f","ios":"levelo://app?vid=6624b9d8-1734-4c69-b27b-12ce48cf311f"},"vehicle_type_id":"4","last_reported":1728828439,"current_range_meters":12400,"station_id":"ce4bhu92rcd13ifvqi70","pricing_plan_id":"cebpf4jnsgd1na2vs0mg"},{"bike_id":"70927fb1-5d6c-4473-8e36-df44b8a5b131","system_id":"levelo_inurba_marseille","lat":43.28613,"lon":5.35107,"is_reserved":false,"is_disabled":false,"rental_uris":{"android":"levelo://app?vid=70927fb1-5d6c-4473-8e36-df44b8a5b131","ios":"levelo://app?vid=70927fb1-5d6c-4473-8e36-df44b8a5b131"},"vehicle_type_id":"4","last_reported":1728828439,"current_range_meters":1200,"station_id":"ce4bhch2rcd13ifvqeug","pricing_plan_id":"cebpf4jnsgd1na2vs0mg"},{"bike_id":"ec459838-8836-4c06-b999-7605dedea091","system_id":"levelo_inurba_marseille","lat":43.23197,"lon":5.35547,"is_reserved":false,"is_disabled":false,"rental_uris":{"android":"levelo://app?vid=ec459838-8836-4c06-b999-7605dedea091","ios":"levelo://app?vid=ec459838-8836-4c06-b999-7605dedea091"},"vehicle_type_id":"4","last_reported":1728828439,"current_range_meters":25200,"station_id":"ce4bhu92rcd13ifvqi70","pricing_plan_id":"cebpf4jnsgd1na2vs0mg"},{"bike_id":"e86618bd-1146-4649-bb46-be1413093abe","system_id":"levelo_inurba_marseille","lat":43.27202,"lon":5.39183,"is_reserved":false,"is_disabled":false,"rental_uris":{"android":"levelo://app?vid=e86618bd-1146-4649-bb46-be1413093abe","ios":"levelo://app?vid=e86618bd-1146-4649-bb46-be1413093abe"},"vehicle_type_id":"4","last_reported":1728828439,"current_range_meters":30400,"station_id":"ce4bhhp2rcd13ifvqfm0","pricing_plan_id":"cebpf4jnsgd1na2vs0mg"},{"bike_id":"35c9fee2-6674-42a8-bffd-24e108a38a63","system_id":"levelo_inurba_marseille","lat":43.28617,"lon":5.35101,"is_reserved":false,"is_disabled":false,"rental_uris":{"android":"levelo://app?vid=35c9fee2-6674-42a8-bffd-24e108a38a63","ios":"levelo://app?vid=35c9fee2-6674-42a8-bffd-24e108a38a63"},"vehicle_type_id":"4","last_reported":1728828439,"current_range_meters":38400,"station_id":"ce4bhch2rcd13ifvqeug","pricing_plan_id":"cebpf4jnsgd1na2vs0mg"},{"bike_id":"97b1749c-9a97-4bae-8ede-021ea8713f8a","system_id":"levelo_inurba_marseille","lat":43.28947,"lon":5.35726,"is_reserved":false,"is_disabled":false,"rental_uris":{"android":"levelo://app?vid=97b1749c-9a97-4bae-8ede-021ea8713f8a","ios":"levelo://app?vid=97b1749c-9a97-4bae-8ede-021ea8713f8a"},"vehicle_type_id":"4","last_reported":1728828439,"current_range_meters":28400,"station_id":"ce4bgjh2rcd13ifvqbf0","pricing_plan_id":"cebpf4jnsgd1na2vs0mg"},{"bike_id":"387e8bfe-6760-4bf3-afd5-8d5f48e4b3ad","system_id":"levelo_inurba_marseille","lat":43.26198,"lon":5.37447,"is_reserved":false,"is_disabled":false,"rental_uris":{"android":"levelo://app?vid=387e8bfe-6760-4bf3-afd5-8d5f48e4b3ad","ios":"levelo://app?vid=387e8bfe-6760-4bf3-afd5-8d5f48e4b3ad"},"vehicle_type_id":"4","last_reported":1728828439,"current_range_meters":22800,"station_id":"ce4bhgp2rcd13ifvqfc0","pricing_plan_id":"cebpf4jnsgd1na2vs0mg"},{"bike_id":"3c25dded-f8d5-4193-a336-9fad641c4aac","system_id":"levelo_inurba_marseille","lat":43.33752,"lon":5.3748,"is_reserved":false,"is_disabled":false,"rental_uris":{"android":"levelo://app?vid=3c25dded-f8d5-4193-a336-9fad641c4aac","ios":"levelo://app?vid=3c25dded-f8d5-4193-a336-9fad641c4aac"},"vehicle_type_id":"4","last_reported":1728828439,"current_range_meters":30000,"station_id":"","pricing_plan_id":"cebpf4jnsgd1na2vs0mg"},{"bike_id":"d376e732-619b-4958-b822-328a86218e89","system_id":"levelo_inurba_marseille","lat":43.2439,"lon":5.37061,"is_reserved":false,"is_disabled":false,"rental_uris":{"android":"levelo://app?vid=d376e732-619b-4958-b822-328a86218e89","ios":"levelo://app?vid=d376e732-619b-4958-b822-328a86218e89"},"vehicle_type_id":"4","last_reported":1728828439,"current_range_meters":27600,"station_id":"ce4bhhh2rcd13ifvqfk0","pricing_plan_id":"cebpf4jnsgd1na2vs0mg"},{"bike_id":"37cbfdc8-72cf-43c9-87b6-d309a1c7aa28","system_id":"levelo_inurba_marseille","lat":43.32294,"lon":5.38275,"is_reserved":false,"is_disabled":false,"rental_uris":{"android":"levelo://app?vid=37cbfdc8-72cf-43c9-87b6-d309a1c7aa28","ios":"levelo://app?vid=37cbfdc8-72cf-43c9-87b6-d309a1c7aa28"},"vehicle_type_id":"4","last_reported":1728828439,"current_range_meters":18000,"station_id":"ce4bhr12rcd13ifvqhqg","pricing_plan_id":"cebpf4jnsgd1na2vs0mg"},{"bike_id":"1dab1c1a-691a-4ab5-ac6b-dba145af2b34","system_id":"levelo_inurba_marseille","lat":43.2985,"lon":5.36287,"is_reserved":false,"is_disabled":false,"rental_uris":{"android":"levelo://app?vid=1dab1c1a-691a-4ab5-ac6b-dba145af2b34","ios":"levelo://app?vid=1dab1c1a-691a-4ab5-ac6b-dba145af2b34"},"vehicle_type_id":"4","last_reported":1728828439,"current_range_meters":7200,"station_id":"ce4bgpp2rcd13ifvqc3g","pricing_plan_id":"cebpf4jnsgd1na2vs0mg"},{"bike_id":"7975faaf-f260-41c7-87cd-147b9a3b3ebf","system_id":"levelo_inurba_marseille","lat":43.23057,"lon":5.35494,"is_reserved":false,"is_disabled":false,"rental_uris":{"android":"levelo://app?vid=7975faaf-f260-41c7-87cd-147b9a3b3ebf","ios":"levelo://app?vid=7975faaf-f260-41c7-87cd-147b9a3b3ebf"},"vehicle_type_id":"4","last_reported":1728828439,"current_range_meters":29600,"station_id":"cpo3342slgdg3j2ifvpg","pricing_plan_id":"cebpf4jnsgd1na2vs0mg"},{"bike_id":"cc450442-09b5-48c3-8d85-f842dcc424ec","system_id":"levelo_inurba_marseille","lat":43.28421,"lon":5.34986,"is_reserved":false,"is_disabled":false,"rental_uris":{"android":"levelo://app?vid=cc450442-09b5-48c3-8d85-f842dcc424ec","ios":"levelo://app?vid=cc450442-09b5-48c3-8d85-f842dcc424ec"},"vehicle_type_id":"4","last_reported":1728828439,"current_range_meters":30400,"station_id":"ce4bhbh2rcd13ifvqepg","pricing_plan_id":"cebpf4jnsgd1na2vs0mg"},{"bike_id":"208e043b-f932-4a94-a56c-83231da92c43","system_id":"levelo_inurba_marseille","lat":43.23189,"lon":5.35549,"is_reserved":false,"is_disabled":false,"rental_uris":{"android":"levelo://app?vid=208e043b-f932-4a94-a56c-83231da92c43","ios":"levelo://app?vid=208e043b-f932-4a94-a56c-83231da92c43"},"vehicle_type_id":"4","last_reported":1728828439,"current_range_meters":17200,"station_id":"ce4bhu92rcd13ifvqi70","pricing_plan_id":"cebpf4jnsgd1na2vs0mg"},{"bike_id":"62025a61-2434-4ecd-b35c-8ad16aac52d7","system_id":"levelo_inurba_marseille","lat":43.25578,"lon":5.3823,"is_reserved":false,"is_disabled":false,"rental_uris":{"android":"levelo://app?vid=62025a61-2434-4ecd-b35c-8ad16aac52d7","ios":"levelo://app?vid=62025a61-2434-4ecd-b35c-8ad16aac52d7"},"vehicle_type_id":"4","last_reported":1728828439,"current_range_meters":2800,"station_id":"ce4bhih2rcd13ifvqfs0","pricing_plan_id":"cebpf4jnsgd1na2vs0mg"},{"bike_id":"bc1c28cd-f9c2-411a-89f9-fa27ec35400d","system_id":"levelo_inurba_marseille","lat":43.27314,"lon":5.39077,"is_reserved":false,"is_disabled":false,"rental_uris":{"android":"levelo://app?vid=bc1c28cd-f9c2-411a-89f9-fa27ec35400d","ios":"levelo://app?vid=bc1c28cd-f9c2-411a-89f9-fa27ec35400d"},"vehicle_type_id":"4","last_reported":1728828439,"current_range_meters":6800,"station_id":"ce4bhgp2rcd13ifvqfe0","pricing_plan_id":"cebpf4jnsgd1na2vs0mg"},{"bike_id":"deb62c9e-acb4-4b40-8262-f4faae509174","system_id":"levelo_inurba_marseille","lat":43.24386,"lon":5.37062,"is_reserved":false,"is_disabled":false,"rental_uris":{"android":"levelo://app?vid=deb62c9e-acb4-4b40-8262-f4faae509174","ios":"levelo://app?vid=deb62c9e-acb4-4b40-8262-f4faae509174"},"vehicle_type_id":"4","last_reported":1728828439,"current_range_meters":28000,"station_id":"ce4bhhh2rcd13ifvqfk0","pricing_plan_id":"cebpf4jnsgd1na2vs0mg"},{"bike_id":"983d451d-7868-46d7-afad-2d3c29e29086","system_id":"levelo_inurba_marseille","lat":43.28421,"lon":5.34986,"is_reserved":false,"is_disabled":false,"rental_uris":{"android":"levelo://app?vid=983d451d-7868-46d7-afad-2d3c29e29086","ios":"levelo://app?vid=983d451d-7868-46d7-afad-2d3c29e29086"},"vehicle_type_id":"4","last_reported":1728828439,"current_range_meters":32400,"station_id":"ce4bhbh2rcd13ifvqepg","pricing_plan_id":"cebpf4jnsgd1na2vs0mg"},{"bike_id":"e865adf6-50dd-4ff9-9f71-5661e03a112d","system_id":"levelo_inurba_marseille","lat":43.30551,"lon":5.38427,"is_reserved":false,"is_disabled":false,"rental_uris":{"android":"levelo://app?vid=e865adf6-50dd-4ff9-9f71-5661e03a112d","ios":"levelo://app?vid=e865adf6-50dd-4ff9-9f71-5661e03a112d"},"vehicle_type_id":"4","last_reported":1728828439,"current_range_meters":36800,"station_id":"ce4bgg92rcd13ifvqb30","pricing_plan_id":"cebpf4jnsgd1na2vs0mg"},{"bike_id":"5c7311ef-059b-4401-b898-f386a3fec8dc","system_id":"levelo_inurba_marseille","lat":43.28266,"lon":5.3506,"is_reserved":false,"is_disabled":false,"rental_uris":{"android":"levelo://app?vid=5c7311ef-059b-4401-b898-f386a3fec8dc","ios":"levelo://app?vid=5c7311ef-059b-4401-b898-f386a3fec8dc"},"vehicle_type_id":"4","last_reported":1728828439,"current_range_meters":4400,"station_id":"ce4bhbp2rcd13ifvqerg","pricing_plan_id":"cebpf4jnsgd1na2vs0mg"},{"bike_id":"79f612ab-c384-43fd-bb03-c921a5687285","system_id":"levelo_inurba_marseille","lat":43.2396,"lon":5.36629,"is_reserved":false,"is_disabled":false,"rental_uris":{"android":"levelo://app?vid=79f612ab-c384-43fd-bb03-c921a5687285","ios":"levelo://app?vid=79f612ab-c384-43fd-bb03-c921a5687285"},"vehicle_type_id":"4","last_reported":1728828439,"current_range_meters":14400,"station_id":"ce4bhi12rcd13ifvqfp0","pricing_plan_id":"cebpf4jnsgd1na2vs0mg"},{"bike_id":"8e020c93-193c-4a21-a14d-db267dfe3001","system_id":"levelo_inurba_marseille","lat":43.29847,"lon":5.36289,"is_reserved":false,"is_disabled":false,"rental_uris":{"android":"levelo://app?vid=8e020c93-193c-4a21-a14d-db267dfe3001","ios":"levelo://app?vid=8e020c93-193c-4a21-a14d-db267dfe3001"},"vehicle_type_id":"4","last_reported":1728828439,"current_range_meters":17600,"station_id":"ce4bgpp2rcd13ifvqc3g","pricing_plan_id":"cebpf4jnsgd1na2vs0mg"},{"bike_id":"f26d9773-5d64-4ce0-b0ae-83a6de365891","system_id":"levelo_inurba_marseille","lat":43.30131,"lon":5.39873,"is_reserved":false,"is_disabled":false,"rental_uris":{"android":"levelo://app?vid=f26d9773-5d64-4ce0-b0ae-83a6de365891","ios":"levelo://app?vid=f26d9773-5d64-4ce0-b0ae-83a6de365891"},"vehicle_type_id":"4","last_reported":1728828439,"current_range_meters":6800,"station_id":"","pricing_plan_id":"cebpf4jnsgd1na2vs0mg"},{"bike_id":"f7ed8710-aab0-4d45-9df7-a0ee56ab0d92","system_id":"levelo_inurba_marseille","lat":43.22932,"lon":5.35371,"is_reserved":false,"is_disabled":false,"rental_uris":{"android":"levelo://app?vid=f7ed8710-aab0-4d45-9df7-a0ee56ab0d92","ios":"levelo://app?vid=f7ed8710-aab0-4d45-9df7-a0ee56ab0d92"},"vehicle_type_id":"4","last_reported":1728828439,"current_range_meters":38800,"station_id":"cpo3532slgdg3j2ikp40","pricing_plan_id":"cebpf4jnsgd1na2vs0mg"},{"bike_id":"37a9ef15-0738-4d36-96b8-a47554704b59","system_id":"levelo_inurba_marseille","lat":43.29213,"lon":5.36032,"is_reserved":false,"is_disabled":false,"rental_uris":{"android":"levelo://app?vid=37a9ef15-0738-4d36-96b8-a47554704b59","ios":"levelo://app?vid=37a9ef15-0738-4d36-96b8-a47554704b59"},"vehicle_type_id":"4","last_reported":1728828439,"current_range_meters":34800,"station_id":"ce4bhbh2rcd13ifvqeqg","pricing_plan_id":"cebpf4jnsgd1na2vs0mg"},{"bike_id":"35c1aa3b-8226-487f-abe1-25022f6b8858","system_id":"levelo_inurba_marseille","lat":43.260236,"lon":5.375491,"is_reserved":false,"is_disabled":false,"rental_uris":{"android":"levelo://app?vid=35c1aa3b-8226-487f-abe1-25022f6b8858","ios":"levelo://app?vid=35c1aa3b-8226-487f-abe1-25022f6b8858"},"vehicle_type_id":"4","last_reported":1728828439,"current_range_meters":18000,"station_id":"ce4bhgh2rcd13ifvqfa0","pricing_plan_id":"cebpf4jnsgd1na2vs0mg"},{"bike_id":"cf5059c1-8165-46ed-ba92-f29241d79098","system_id":"levelo_inurba_marseille","lat":43.28617,"lon":5.35099,"is_reserved":false,"is_disabled":false,"rental_uris":{"android":"levelo://app?vid=cf5059c1-8165-46ed-ba92-f29241d79098","ios":"levelo://app?vid=cf5059c1-8165-46ed-ba92-f29241d79098"},"vehicle_type_id":"4","last_reported":1728828439,"current_range_meters":38800,"station_id":"ce4bhch2rcd13ifvqeug","pricing_plan_id":"cebpf4jnsgd1na2vs0mg"},{"bike_id":"8af4aa04-71c6-48e0-b118-119c9302970d","system_id":"levelo_inurba_marseille","lat":43.23197,"lon":5.35546,"is_reserved":false,"is_disabled":false,"rental_uris":{"android":"levelo://app?vid=8af4aa04-71c6-48e0-b118-119c9302970d","ios":"levelo://app?vid=8af4aa04-71c6-48e0-b118-119c9302970d"},"vehicle_type_id":"4","last_reported":1728828439,"current_range_meters":27200,"station_id":"ce4bhu92rcd13ifvqi70","pricing_plan_id":"cebpf4jnsgd1na2vs0mg"},{"bike_id":"1f484c19-a23c-4940-9e62-b3c659d33d53","system_id":"levelo_inurba_marseille","lat":43.29218,"lon":5.3605,"is_reserved":false,"is_disabled":false,"rental_uris":{"android":"levelo://app?vid=1f484c19-a23c-4940-9e62-b3c659d33d53","ios":"levelo://app?vid=1f484c19-a23c-4940-9e62-b3c659d33d53"},"vehicle_type_id":"4","last_reported":1728828439,"current_range_meters":30000,"station_id":"ce4bhbh2rcd13ifvqeqg","pricing_plan_id":"cebpf4jnsgd1na2vs0mg"},{"bike_id":"210bc098-e088-451f-93ca-c93392185d0d","system_id":"levelo_inurba_marseille","lat":43.2827,"lon":5.35055,"is_reserved":false,"is_disabled":false,"rental_uris":{"android":"levelo://app?vid=210bc098-e088-451f-93ca-c93392185d0d","ios":"levelo://app?vid=210bc098-e088-451f-93ca-c93392185d0d"},"vehicle_type_id":"4","last_reported":1728828439,"current_range_meters":27200,"station_id":"ce4bhbp2rcd13ifvqerg","pricing_plan_id":"cebpf4jnsgd1na2vs0mg"},{"bike_id":"3e794241-52a0-493f-92ae-acfbb7dfd993","system_id":"levelo_inurba_marseille","lat":43.23149,"lon":5.43716,"is_reserved":false,"is_disabled":false,"rental_uris":{"android":"levelo://app?vid=3e794241-52a0-493f-92ae-acfbb7dfd993","ios":"levelo://app?vid=3e794241-52a0-493f-92ae-acfbb7dfd993"},"vehicle_type_id":"4","last_reported":1728828439,"current_range_meters":11200,"station_id":"ce4bhmp2rcd13ifvqgog","pricing_plan_id":"cebpf4jnsgd1na2vs0mg"},{"bike_id":"62914b4f-1383-4682-8b2d-caef6dd99726","system_id":"levelo_inurba_marseille","lat":43.21651,"lon":5.34296,"is_reserved":false,"is_disabled":false,"rental_uris":{"android":"levelo://app?vid=62914b4f-1383-4682-8b2d-caef6dd99726","ios":"levelo://app?vid=62914b4f-1383-4682-8b2d-caef6dd99726"},"vehicle_type_id":"4","last_reported":1728828439,"current_range_meters":9600,"station_id":"","pricing_plan_id":"cebpf4jnsgd1na2vs0mg"},{"bike_id":"f2412a83-c118-4289-bc72-f6b91c0e262b","system_id":"levelo_inurba_marseille","lat":43.33027,"lon":5.39031,"is_reserved":false,"is_disabled":false,"rental_uris":{"android":"levelo://app?vid=f2412a83-c118-4289-bc72-f6b91c0e262b","ios":"levelo://app?vid=f2412a83-c118-4289-bc72-f6b91c0e262b"},"vehicle_type_id":"4","last_reported":1728828439,"current_range_meters":20800,"station_id":"ce4bhr92rcd13ifvqhrg","pricing_plan_id":"cebpf4jnsgd1na2vs0mg"},{"bike_id":"d0af47d5-71a2-4e6e-a4f7-a2d225b8e53a","system_id":"levelo_inurba_marseille","lat":43.23055,"lon":5.35491,"is_reserved":false,"is_disabled":false,"rental_uris":{"android":"levelo://app?vid=d0af47d5-71a2-4e6e-a4f7-a2d225b8e53a","ios":"levelo://app?vid=d0af47d5-71a2-4e6e-a4f7-a2d225b8e53a"},"vehicle_type_id":"4","last_reported":1728828439,"current_range_meters":28400,"station_id":"cpo3342slgdg3j2ifvpg","pricing_plan_id":"cebpf4jnsgd1na2vs0mg"},{"bike_id":"94818ec7-dd6c-446b-b369-d8fbc7691831","system_id":"levelo_inurba_marseille","lat":43.23189,"lon":5.35544,"is_reserved":false,"is_disabled":false,"rental_uris":{"android":"levelo://app?vid=94818ec7-dd6c-446b-b369-d8fbc7691831","ios":"levelo://app?vid=94818ec7-dd6c-446b-b369-d8fbc7691831"},"vehicle_type_id":"4","last_reported":1728828439,"current_range_meters":14800,"station_id":"ce4bhu92rcd13ifvqi70","pricing_plan_id":"cebpf4jnsgd1na2vs0mg"},{"bike_id":"4353b912-0529-4851-bd72-f4dbfb60a8a7","system_id":"levelo_inurba_marseille","lat":43.301296,"lon":5.398623,"is_reserved":false,"is_disabled":false,"rental_uris":{"android":"levelo://app?vid=4353b912-0529-4851-bd72-f4dbfb60a8a7","ios":"levelo://app?vid=4353b912-0529-4851-bd72-f4dbfb60a8a7"},"vehicle_type_id":"4","last_reported":1728828439,"current_range_meters":37600,"station_id":"ce4bhph2rcd13ifvqhdg","pricing_plan_id":"cebpf4jnsgd1na2vs0mg"},{"bike_id":"5e6ec154-956d-477c-b562-3656bd374604","system_id":"levelo_inurba_marseille","lat":43.248,"lon":5.37449,"is_reserved":false,"is_disabled":false,"rental_uris":{"android":"levelo://app?vid=5e6ec154-956d-477c-b562-3656bd374604","ios":"levelo://app?vid=5e6ec154-956d-477c-b562-3656bd374604"},"vehicle_type_id":"4","last_reported":1728828439,"current_range_meters":11600,"station_id":"ce4bhgh2rcd13ifvqfb0","pricing_plan_id":"cebpf4jnsgd1na2vs0mg"},{"bike_id":"638b3c24-06a6-4b06-812c-e97f0cf75845","system_id":"levelo_inurba_marseille","lat":43.24179,"lon":5.39717,"is_reserved":false,"is_disabled":false,"rental_uris":{"android":"levelo://app?vid=638b3c24-06a6-4b06-812c-e97f0cf75845","ios":"levelo://app?vid=638b3c24-06a6-4b06-812c-e97f0cf75845"},"vehicle_type_id":"4","last_reported":1728828439,"current_range_meters":30800,"station_id":"ce4bhn12rcd13ifvqgpg","pricing_plan_id":"cebpf4jnsgd1na2vs0mg"},{"bike_id":"7c65656f-536e-43ac-91f6-0d3c4ca2f6e7","system_id":"levelo_inurba_marseille","lat":43.30906,"lon":5.368492,"is_reserved":false,"is_disabled":false,"rental_uris":{"android":"levelo://app?vid=7c65656f-536e-43ac-91f6-0d3c4ca2f6e7","ios":"levelo://app?vid=7c65656f-536e-43ac-91f6-0d3c4ca2f6e7"},"vehicle_type_id":"4","last_reported":1728828439,"current_range_meters":22400,"station_id":"ce4bgn92rcd13ifvqbvg","pricing_plan_id":"cebpf4jnsgd1na2vs0mg"},{"bike_id":"62af9a84-0097-4d92-9b81-3b225b933b35","system_id":"levelo_inurba_marseille","lat":43.31172,"lon":5.38708,"is_reserved":false,"is_disabled":false,"rental_uris":{"android":"levelo://app?vid=62af9a84-0097-4d92-9b81-3b225b933b35","ios":"levelo://app?vid=62af9a84-0097-4d92-9b81-3b225b933b35"},"vehicle_type_id":"4","last_reported":1728828439,"current_range_meters":8000,"station_id":"ce4bgv12rcd13ifvqcp0","pricing_plan_id":"cebpf4jnsgd1na2vs0mg"},{"bike_id":"27c0b43d-95cd-498c-b20f-d7b74a3aca6c","system_id":"levelo_inurba_marseille","lat":43.28424,"lon":5.34982,"is_reserved":false,"is_disabled":false,"rental_uris":{"android":"levelo://app?vid=27c0b43d-95cd-498c-b20f-d7b74a3aca6c","ios":"levelo://app?vid=27c0b43d-95cd-498c-b20f-d7b74a3aca6c"},"vehicle_type_id":"4","last_reported":1728828439,"current_range_meters":26000,"station_id":"ce4bhbh2rcd13ifvqepg","pricing_plan_id":"cebpf4jnsgd1na2vs0mg"},{"bike_id":"02d79aec-031a-476e-acef-da9c34364fd6","system_id":"levelo_inurba_marseille","lat":43.27497,"lon":5.42447,"is_reserved":false,"is_disabled":false,"rental_uris":{"android":"levelo://app?vid=02d79aec-031a-476e-acef-da9c34364fd6","ios":"levelo://app?vid=02d79aec-031a-476e-acef-da9c34364fd6"},"vehicle_type_id":"4","last_reported":1728828439,"current_range_meters":34800,"station_id":"ce4bhn92rcd13ifvqgrg","pricing_plan_id":"cebpf4jnsgd1na2vs0mg"},{"bike_id":"87b8dd1d-9a63-4f06-a51c-63b63bde9e4e","system_id":"levelo_inurba_marseille","lat":43.2439,"lon":5.3706,"is_reserved":false,"is_disabled":false,"rental_uris":{"android":"levelo://app?vid=87b8dd1d-9a63-4f06-a51c-63b63bde9e4e","ios":"levelo://app?vid=87b8dd1d-9a63-4f06-a51c-63b63bde9e4e"},"vehicle_type_id":"4","last_reported":1728828439,"current_range_meters":28800,"station_id":"ce4bhhh2rcd13ifvqfk0","pricing_plan_id":"cebpf4jnsgd1na2vs0mg"},{"bike_id":"f15a72b9-72ee-42ca-a186-72a4382dcd69","system_id":"levelo_inurba_marseille","lat":43.28618,"lon":5.35102,"is_reserved":false,"is_disabled":false,"rental_uris":{"android":"levelo://app?vid=f15a72b9-72ee-42ca-a186-72a4382dcd69","ios":"levelo://app?vid=f15a72b9-72ee-42ca-a186-72a4382dcd69"},"vehicle_type_id":"4","last_reported":1728828439,"current_range_meters":36400,"station_id":"ce4bhch2rcd13ifvqeug","pricing_plan_id":"cebpf4jnsgd1na2vs0mg"},{"bike_id":"da78c74a-3516-4c14-8a5a-83d27364019e","system_id":"levelo_inurba_marseille","lat":43.29503,"lon":5.37517,"is_reserved":false,"is_disabled":false,"rental_uris":{"android":"levelo://app?vid=da78c74a-3516-4c14-8a5a-83d27364019e","ios":"levelo://app?vid=da78c74a-3516-4c14-8a5a-83d27364019e"},"vehicle_type_id":"4","last_reported":1728828439,"current_range_meters":33600,"station_id":"ce4bgkp2rcd13ifvqbmg","pricing_plan_id":"cebpf4jnsgd1na2vs0mg"},{"bike_id":"973175c0-c6ce-458c-9206-3917169880f8","system_id":"levelo_inurba_marseille","lat":43.25578,"lon":5.38235,"is_reserved":false,"is_disabled":false,"rental_uris":{"android":"levelo://app?vid=973175c0-c6ce-458c-9206-3917169880f8","ios":"levelo://app?vid=973175c0-c6ce-458c-9206-3917169880f8"},"vehicle_type_id":"4","last_reported":1728828439,"current_range_meters":12800,"station_id":"ce4bhih2rcd13ifvqfs0","pricing_plan_id":"cebpf4jnsgd1na2vs0mg"},{"bike_id":"6234d29c-d8b6-4285-83e9-3e373b7adf85","system_id":"levelo_inurba_marseille","lat":43.28278,"lon":5.35054,"is_reserved":false,"is_disabled":false,"rental_uris":{"android":"levelo://app?vid=6234d29c-d8b6-4285-83e9-3e373b7adf85","ios":"levelo://app?vid=6234d29c-d8b6-4285-83e9-3e373b7adf85"},"vehicle_type_id":"4","last_reported":1728828439,"current_range_meters":4000,"station_id":"ce4bhbp2rcd13ifvqerg","pricing_plan_id":"cebpf4jnsgd1na2vs0mg"},{"bike_id":"ede70757-a28f-4fcc-bc1a-9d816037b457","system_id":"levelo_inurba_marseille","lat":43.28413,"lon":5.34978,"is_reserved":false,"is_disabled":false,"rental_uris":{"android":"levelo://app?vid=ede70757-a28f-4fcc-bc1a-9d816037b457","ios":"levelo://app?vid=ede70757-a28f-4fcc-bc1a-9d816037b457"},"vehicle_type_id":"4","last_reported":1728828439,"current_range_meters":11600,"station_id":"ce4bhbh2rcd13ifvqepg","pricing_plan_id":"cebpf4jnsgd1na2vs0mg"},