{"last_updated":1744344757,"ttl":60,"version":"2.2","data":{"bikes":[{"bike_id":"cdf7f30c-b91f-42b3-b758-22ad26becd66","system_id":"levelo_inurba_marseille","lat":43.290379,"lon":5.359185,"is_reserved":false,"is_disabled":true,"rental_uris":{"android":"levelo://app?vid=cdf7f30c-b91f-42b3-b758-22ad26becd66","ios":"levelo://app?vid=cdf7f30c-b91f-42b3-b758-22ad26becd66"},"vehicle_type_id":"4","last_reported":1744344758,"current_range_meters":2800,"station_id":"ce4bha92rcd13ifvqeg0","pricing_plan_id":"cebpf4jnsgd1na2vs0mg"},{"bike_id":"96eb7c1b-15b6-4535-abd6-f05b6b8fed97","system_id":"levelo_inurba_marseille","lat":43.292467,"lon":5.409016,"is_reserved":false,"is_disabled":false,"rental_uris":{"android":"levelo://app?vid=96eb7c1b-15b6-4535-abd6-f05b6b8fed97","ios":"levelo://app?vid=96eb7c1b-15b6-4535-abd6-f05b6b8fed97"},"vehicle_type_id":"4","last_reported":1744344758,"current_range_meters":2800,"station_id":"ce4bh192rcd13ifvqdc0","pricing_plan_id":"cebpf4jnsgd1na2vs0mg"},{"bike_id":"cb41d0c4-cc09-4e4d-9b72-6df340ab1210","system_id":"levelo_inurba_marseille","lat":43.30274,"lon":5.37722,"is_reserved":false,"is_disabled":false,"rental_uris":{"android":"levelo://app?vid=cb41d0c4-cc09-4e4d-9b72-6df340ab1210","ios":"levelo://app?vid=cb41d0c4-cc09-4e4d-9b72-6df340ab1210"},"vehicle_type_id":"4","last_reported":1744344758,"current_range_meters":2800,"station_id":"ce4bguh2rcd13ifvqcj0","pricing_plan_id":"cebpf4jnsgd1na2vs0mg"},{"bike_id":"08f9c0c8-8b33-4578-8a03-20f44d582241","system_id":"levelo_inurba_marseille","lat":43.30522,"lon":5.3694,"is_reserved":false,"is_disabled":false,"rental_uris":{"android":"levelo://app?vid=08f9c0c8-8b33-4578-8a03-20f44d582241","ios":"levelo://app?vid=08f9c0c8-8b33-4578-8a03-20f44d582241"},"vehicle_type_id":"4","last_reported":1744344758,"current_range_meters":2800,"station_id":"","pricing_plan_id":"cebpf4jnsgd1na2vs0mg"},{"bike_id":"2e305a41-d005-4b31-8c53-a76f6b2345c0","system_id":"levelo_inurba_marseille","lat":43.28966,"lon":5.37142,"is_reserved":false,"is_disabled":false,"rental_uris":{"android":"levelo://app?vid=2e305a41-d005-4b31-8c53-a76f6b2345c0","ios":"levelo://app?vid=2e305a41-d005-4b31-8c53-a76f6b2345c0"},"vehicle_type_id":"4","last_reported":1744344758,"current_range_meters":3600,"station_id":"","pricing_plan_id":"cebpf4jnsgd1na2vs0mg"},{"bike_id":"c7352aa9-58f5-4570-a406-7bfc8199cb4c","system_id":"levelo_inurba_marseille","lat":43.27499,"lon":5.42451,"is_reserved":false,"is_disabled":false,"rental_uris":{"android":"levelo://app?vid=c7352aa9-58f5-4570-a406-7bfc8199cb4c","ios":"levelo://app?vid=c7352aa9-58f5-4570-a406-7bfc8199cb4c"},"vehicle_type_id":"4","last_reported":1744344758,"current_range_meters":3600,"station_id":"ce4bhn92rcd13ifvqgrg","pricing_plan_id":"cebpf4jnsgd1na2vs0mg"},{"bike_id":"24350ec8-77b3-448b-986d-848774961b0c","system_id":"levelo_inurba_marseille","lat":43.28451,"lon":5.35893,"is_reserved":false,"is_disabled":false,"rental_uris":{"android":"levelo://app?vid=24350ec8-77b3-448b-986d-848774961b0c","ios":"levelo://app?vid=24350ec8-77b3-448b-986d-848774961b0c"},"vehicle_type_id":"4","last_reported":1744344758,"current_range_meters":3600,"station_id":"ce4bhah2rcd13ifvqei0","pricing_plan_id":"cebpf4jnsgd1na2vs0mg"},{"bike_id":"f311426c-422b-4ff3-956b-17c0d0daf6fe","system_id":"levelo_inurba_marseille","lat":43.29695,"lon":5.36643,"is_reserved":false,"is_disabled":false,"rental_uris":{"android":"levelo://app?vid=f311426c-422b-4ff3-956b-17c0d0daf6fe","ios":"levelo://app?vid=f311426c-422b-4ff3-956b-17c0d0daf6fe"},"vehicle_type_id":"4","last_reported":1744344758,"current_range_meters":3600,"station_id":"ce4bgn12rcd13ifvqbt0","pricing_plan_id":"cebpf4jnsgd1na2vs0mg"},{"bike_id":"597aee93-c763-4126-8ea8-497cbf8a2c86","system_id":"levelo_inurba_marseille","lat":43.3043,"lon":5.39768,"is_reserved":false,"is_disabled":false,"rental_uris":{"android":"levelo://app?vid=597aee93-c763-4126-8ea8-497cbf8a2c86","ios":"levelo://app?vid=597aee93-c763-4126-8ea8-497cbf8a2c86"},"vehicle_type_id":"4","last_reported":1744344758,"current_range_meters":3600,"station_id":"ce4bh092rcd13ifvqd20","pricing_plan_id":"cebpf4jnsgd1na2vs0mg"},{"bike_id":"24043099-91ca-4392-a138-dccb25072ff0","system_id":"levelo_inurba_marseille","lat":43.309278,"lon":5.401402,"is_reserved":false,"is_disabled":false,"rental_uris":{"android":"levelo://app?vid=24043099-91ca-4392-a138-dccb25072ff0","ios":"levelo://app?vid=24043099-91ca-4392-a138-dccb25072ff0"},"vehicle_type_id":"4","last_reported":1744344758,"current_range_meters":3600,"station_id":"ce4bgvp2rcd13ifvqct0","pricing_plan_id":"cebpf4jnsgd1na2vs0mg"},{"bike_id":"290fb81b-803d-4b7e-91ee-09972e3eadb1","system_id":"levelo_inurba_marseille","lat":43.29682,"lon":5.36645,"is_reserved":false,"is_disabled":false,"rental_uris":{"android":"levelo://app?vid=290fb81b-803d-4b7e-91ee-09972e3eadb1","ios":"levelo://app?vid=290fb81b-803d-4b7e-91ee-09972e3eadb1"},"vehicle_type_id":"4","last_reported":1744344758,"current_range_meters":3600,"station_id":"ce4bgn12rcd13ifvqbt0","pricing_plan_id":"cebpf4jnsgd1na2vs0mg"},{"bike_id":"74fb6ada-5912-4908-9bc3-7b7c6b0830fc","system_id":"levelo_inurba_marseille","lat":43.24708,"lon":5.41201,"is_reserved":false,"is_disabled":false,"rental_uris":{"android":"levelo://app?vid=74fb6ada-5912-4908-9bc3-7b7c6b0830fc","ios":"levelo://app?vid=74fb6ada-5912-4908-9bc3-7b7c6b0830fc"},"vehicle_type_id":"4","last_reported":1744344758,"current_range_meters":4000,"station_id":"","pricing_plan_id":"cebpf4jnsgd1na2vs0mg"},{"bike_id":"9b704737-af43-40c2-b70e-9e4ddeb764b6","system_id":"levelo_inurba_marseille","lat":43.23072,"lon":5.35521,"is_reserved":false,"is_disabled":false,"rental_uris":{"android":"levelo://app?vid=9b704737-af43-40c2-b70e-9e4ddeb764b6","ios":"levelo://app?vid=9b704737-af43-40c2-b70e-9e4ddeb764b6"},"vehicle_type_id":"4","last_reported":1744344758,"current_range_meters":4400,"station_id":"cpo3342slgdg3j2ifvpg","pricing_plan_id":"cebpf4jnsgd1na2vs0mg"},{"bike_id":"e05c1e2a-1ed0-4ae5-8a58-08e26deb95b9","system_id":"levelo_inurba_marseille","lat":43.28724,"lon":5.44801,"is_reserved":false,"is_disabled":false,"rental_uris":{"android":"levelo://app?vid=e05c1e2a-1ed0-4ae5-8a58-08e26deb95b9","ios":"levelo://app?vid=e05c1e2a-1ed0-4ae5-8a58-08e26deb95b9"},"vehicle_type_id":"4","last_reported":1744344758,"current_range_meters":4800,"station_id":"","pricing_plan_id":"cebpf4jnsgd1na2vs0mg"},{"bike_id":"488970c7-ad85-4166-a4ad-456252c5bcc5","system_id":"levelo_inurba_marseille","lat":43.273006,"lon":5.429163,"is_reserved":false,"is_disabled":false,"rental_uris":{"android":"levelo://app?vid=488970c7-ad85-4166-a4ad-456252c5bcc5","ios":"levelo://app?vid=488970c7-ad85-4166-a4ad-456252c5bcc5"},"vehicle_type_id":"4","last_reported":1744344758,"current_range_meters":4800,"station_id":"","pricing_plan_id":"cebpf4jnsgd1na2vs0mg"},{"bike_id":"98bde375-1946-4247-9779-ef60c95239a6","system_id":"levelo_inurba_marseille","lat":43.308051,"lon":5.435257,"is_reserved":false,"is_disabled":false,"rental_uris":{"android":"levelo://app?vid=98bde375-1946-4247-9779-ef60c95239a6","ios":"levelo://app?vid=98bde375-1946-4247-9779-ef60c95239a6"},"vehicle_type_id":"4","last_reported":1744344758,"current_range_meters":5600,"station_id":"ce4bhph2rcd13ifvqheg","pricing_plan_id":"cebpf4jnsgd1na2vs0mg"},{"bike_id":"8c876ded-2351-4a40-b46f-d37e31decbcd","system_id":"levelo_inurba_marseille","lat":43.23175,"lon":5.40009,"is_reserved":false,"is_disabled":false,"rental_uris":{"android":"levelo://app?vid=8c876ded-2351-4a40-b46f-d37e31decbcd","ios":"levelo://app?vid=8c876ded-2351-4a40-b46f-d37e31decbcd"},"vehicle_type_id":"4","last_reported":1744344758,"current_range_meters":5600,"station_id":"ce4bhn12rcd13ifvqgqg","pricing_plan_id":"cebpf4jnsgd1na2vs0mg"},{"bike_id":"8decf391-6722-4e4f-a981-dcf2dc34ed97","system_id":"levelo_inurba_marseille","lat":43.30423,"lon":5.3975,"is_reserved":false,"is_disabled":false,"rental_uris":{"android":"levelo://app?vid=8decf391-6722-4e4f-a981-dcf2dc34ed97","ios":"levelo://app?vid=8decf391-6722-4e4f-a981-dcf2dc34ed97"},"vehicle_type_id":"4","last_reported":1744344758,"current_range_meters":5600,"station_id":"ce4bh092rcd13ifvqd20","pricing_plan_id":"cebpf4jnsgd1na2vs0mg"},{"bike_id":"a1451a1f-835a-4861-997a-faa2bbe05c1b","system_id":"levelo_inurba_marseille","lat":43.28099,"lon":5.37833,"is_reserved":false,"is_disabled":false,"rental_uris":{"android":"levelo://app?vid=a1451a1f-835a-4861-997a-faa2bbe05c1b","ios":"levelo://app?vid=a1451a1f-835a-4861-997a-faa2bbe05c1b"},"vehicle_type_id":"4","last_reported":1744344758,"current_range_meters":6000,"station_id":"ce4bha12rcd13ifvqee0","pricing_plan_id":"cebpf4jnsgd1na2vs0mg"},{"bike_id":"fff87a7f-6766-4f8a-8d22-1d9d21fe9e0d","system_id":"levelo_inurba_marseille","lat":43.288485,"lon":5.393385,"is_reserved":false,"is_disabled":true,"rental_uris":{"android":"levelo://app?vid=fff87a7f-6766-4f8a-8d22-1d9d21fe9e0d","ios":"levelo://app?vid=fff87a7f-6766-4f8a-8d22-1d9d21fe9e0d"},"vehicle_type_id":"4","last_reported":1744344758,"current_range_meters":6000,"station_id":"ce4bh2p2rcd13ifvqdi0","pricing_plan_id":"cebpf4jnsgd1na2vs0mg"},{"bike_id":"2de0f1c2-453b-4a02-9bde-1cd104c577c5","system_id":"levelo_inurba_marseille","lat":43.28367,"lon":5.38648,"is_reserved":false,"is_disabled":false,"rental_uris":{"android":"levelo://app?vid=2de0f1c2-453b-4a02-9bde-1cd104c577c5","ios":"levelo://app?vid=2de0f1c2-453b-4a02-9bde-1cd104c577c5"},"vehicle_type_id":"4","last_reported":1744344758,"current_range_meters":6000,"station_id":"ce4bh492rcd13ifvqdvg","pricing_plan_id":"cebpf4jnsgd1na2vs0mg"},{"bike_id":"1f55d0ea-3b38-4db5-a21c-afb63736744f","system_id":"levelo_inurba_marseille","lat":43.29625,"lon":5.40627,"is_reserved":false,"is_disabled":false,"rental_uris":{"android":"levelo://app?vid=1f55d0ea-3b38-4db5-a21c-afb63736744f","ios":"levelo://app?vid=1f55d0ea-3b38-4db5-a21c-afb63736744f"},"vehicle_type_id":"4","last_reported":1744344758,"current_range_meters":6000,"station_id":"ce4bh0h2rcd13ifvqd60","pricing_plan_id":"cebpf4jnsgd1na2vs0mg"},{"bike_id":"a1216ca3-ea71-41ea-9599-16ad83b59722","system_id":"levelo_inurba_marseille","lat":43.30288,"lon":5.36607,"is_reserved":false,"is_disabled":false,"rental_uris":{"android":"levelo://app?vid=a1216ca3-ea71-41ea-9599-16ad83b59722","ios":"levelo://app?vid=a1216ca3-ea71-41ea-9599-16ad83b59722"},"vehicle_type_id":"4","last_reported":1744344758,"current_range_meters":6400,"station_id":"","pricing_plan_id":"cebpf4jnsgd1na2vs0mg"},{"bike_id":"61176b24-97cc-449e-bd5a-111e6c711271","system_id":"levelo_inurba_marseille","lat":43.284561,"lon":5.358808,"is_reserved":false,"is_disabled":false,"rental_uris":{"android":"levelo://app?vid=61176b24-97cc-449e-bd5a-111e6c711271","ios":"levelo://app?vid=61176b24-97cc-449e-bd5a-111e6c711271"},"vehicle_type_id":"4","last_reported":1744344758,"current_range_meters":6400,"station_id":"ce4bhah2rcd13ifvqei0","pricing_plan_id":"cebpf4jnsgd1na2vs0mg"},{"bike_id":"474221ad-292d-4b8a-bb43-d057af094ad8","system_id":"levelo_inurba_marseille","lat":43.29788,"lon":5.38113,"is_reserved":false,"is_disabled":false,"rental_uris":{"android":"levelo://app?vid=474221ad-292d-4b8a-bb43-d057af094ad8","ios":"levelo://app?vid=474221ad-292d-4b8a-bb43-d057af094ad8"},"vehicle_type_id":"4","last_reported":1744344758,"current_range_meters":6400,"station_id":"ce4bgip2rcd13ifvqbb0","pricing_plan_id":"cebpf4jnsgd1na2vs0mg"},{"bike_id":"83c132b1-a954-4d5a-a32d-9f99af4faa3c","system_id":"levelo_inurba_marseille","lat":43.30924,"lon":5.41523,"is_reserved":false,"is_disabled":false,"rental_uris":{"android":"levelo://app?vid=83c132b1-a954-4d5a-a32d-9f99af4faa3c","ios":"levelo://app?vid=83c132b1-a954-4d5a-a32d-9f99af4faa3c"},"vehicle_type_id":"4","last_reported":1744344758,"current_range_meters":6400,"station_id":"","pricing_plan_id":"cebpf4jnsgd1na2vs0mg"},{"bike_id":"c243072f-6bd2-4d94-ba83-04162cf2a05c","system_id":"levelo_inurba_marseille","lat":43.271876,"lon":5.401408,"is_reserved":false,"is_disabled":false,"rental_uris":{"android":"levelo://app?vid=c243072f-6bd2-4d94-ba83-04162cf2a05c","ios":"levelo://app?vid=c243072f-6bd2-4d94-ba83-04162cf2a05c"},"vehicle_type_id":"4","last_reported":1744344758,"current_range_meters":6400,"station_id":"","pricing_plan_id":"cebpf4jnsgd1na2vs0mg"},{"bike_id":"a214e99d-b99a-4f98-870d-535e7f3ee3e1","system_id":"levelo_inurba_marseille","lat":43.271817,"lon":5.409935,"is_reserved":false,"is_disabled":false,"rental_uris":{"android":"levelo://app?vid=a214e99d-b99a-4f98-870d-535e7f3ee3e1","ios":"levelo://app?vid=a214e99d-b99a-4f98-870d-535e7f3ee3e1"},"vehicle_type_id":"4","last_reported":1744344758,"current_range_meters":6800,"station_id":"ce4bhl12rcd13ifvqgf0","pricing_plan_id":"cebpf4jnsgd1na2vs0mg"},{"bike_id":"0b27a068-eb9c-434f-b643-a15f24e5d3d7","system_id":"levelo_inurba_marseille","lat":43.281537,"lon":5.426541,"is_reserved":false,"is_disabled":false,"rental_uris":{"android":"levelo://app?vid=0b27a068-eb9c-434f-b643-a15f24e5d3d7","ios":"levelo://app?vid=0b27a068-eb9c-434f-b643-a15f24e5d3d7"},"vehicle_type_id":"4","last_reported":1744344758,"current_range_meters":6800,"station_id":"ce4bhnh2rcd13ifvqgug","pricing_plan_id":"cebpf4jnsgd1na2vs0mg"},{"bike_id":"01e31f15-bc9b-4d18-bebd-edf19bcedef2","system_id":"levelo_inurba_marseille","lat":43.28713,"lon":5.379419,"is_reserved":false,"is_disabled":true,"rental_uris":{"android":"levelo://app?vid=01e31f15-bc9b-4d18-bebd-edf19bcedef2","ios":"levelo://app?vid=01e31f15-bc9b-4d18-bebd-edf19bcedef2"},"vehicle_type_id":"4","last_reported":1744344758,"current_range_meters":6800,"station_id":"ce4bh9p2rcd13ifvqec0","pricing_plan_id":"cebpf4jnsgd1na2vs0mg"},{"bike_id":"5f30a5a4-de9f-499e-b151-b811ebb3b43a","system_id":"levelo_inurba_marseille","lat":43.31068,"lon":5.38402,"is_reserved":false,"is_disabled":true,"rental_uris":{"android":"levelo://app?vid=5f30a5a4-de9f-499e-b151-b811ebb3b43a","ios":"levelo://app?vid=5f30a5a4-de9f-499e-b151-b811ebb3b43a"},"vehicle_type_id":"4","last_reported":1744344758,"current_range_meters":6800,"station_id":"ce4bgv92rcd13ifvqcr0","pricing_plan_id":"cebpf4jnsgd1na2vs0mg"},{"bike_id":"c93b8155-102a-45aa-905a-566f8b1c281d","system_id":"levelo_inurba_marseille","lat":43.292811,"lon":5.401249,"is_reserved":false,"is_disabled":false,"rental_uris":{"android":"levelo://app?vid=c93b8155-102a-45aa-905a-566f8b1c281d","ios":"levelo://app?vid=c93b8155-102a-45aa-905a-566f8b1c281d"},"vehicle_type_id":"4","last_reported":1744344758,"current_range_meters":6800,"station_id":"ce4bh312rcd13ifvqdk0","pricing_plan_id":"cebpf4jnsgd1na2vs0mg"},{"bike_id":"77681eb7-0ca7-4181-8f4d-dc0d81e04ff3","system_id":"levelo_inurba_marseille","lat":43.24154,"lon":5.36427,"is_reserved":false,"is_disabled":false,"rental_uris":{"android":"levelo://app?vid=77681eb7-0ca7-4181-8f4d-dc0d81e04ff3","ios":"levelo://app?vid=77681eb7-0ca7-4181-8f4d-dc0d81e04ff3"},"vehicle_type_id":"4","last_reported":1744344758,"current_range_meters":6800,"station_id":"cpo36qri1sfpv3e86is0","pricing_plan_id":"cebpf4jnsgd1na2vs0mg"},{"bike_id":"10f72831-a14e-4eee-8e16-4a84e6f3ae45","system_id":"levelo_inurba_marseille","lat":43.30799,"lon":5.38188,"is_reserved":false,"is_disabled":false,"rental_uris":{"android":"levelo://app?vid=10f72831-a14e-4eee-8e16-4a84e6f3ae45","ios":"levelo://app?vid=10f72831-a14e-4eee-8e16-4a84e6f3ae45"},"vehicle_type_id":"4","last_reported":1744344758,"current_range_meters":7200,"station_id":"ce4bgt12rcd13ifvqce0","pricing_plan_id":"cebpf4jnsgd1na2vs0mg"},{"bike_id":"922aad61-4970-400d-aca6-905e06b6909a","system_id":"levelo_inurba_marseille","lat":43.2815,"lon":5.42639,"is_reserved":false,"is_disabled":false,"rental_uris":{"android":"levelo://app?vid=922aad61-4970-400d-aca6-905e06b6909a","ios":"levelo://app?vid=922aad61-4970-400d-aca6-905e06b6909a"},"vehicle_type_id":"4","last_reported":1744344758,"current_range_meters":7200,"station_id":"ce4bhnh2rcd13ifvqgug","pricing_plan_id":"cebpf4jnsgd1na2vs0mg"},{"bike_id":"b2a68182-0296-46b5-b1e6-959be548277d","system_id":"levelo_inurba_marseille","lat":43.30769,"lon":5.37228,"is_reserved":false,"is_disabled":false,"rental_uris":{"android":"levelo://app?vid=b2a68182-0296-46b5-b1e6-959be548277d","ios":"levelo://app?vid=b2a68182-0296-46b5-b1e6-959be548277d"},"vehicle_type_id":"4","last_reported":1744344758,"current_range_meters":7200,"station_id":"","pricing_plan_id":"cebpf4jnsgd1na2vs0mg"},{"bike_id":"4c1f7691-a169-4713-b675-2a5153227ffe","system_id":"levelo_inurba_marseille","lat":43.27795,"lon":5.40734,"is_reserved":false,"is_disabled":false,"rental_uris":{"android":"levelo://app?vid=4c1f7691-a169-4713-b675-2a5153227ffe","ios":"levelo://app?vid=4c1f7691-a169-4713-b675-2a5153227ffe"},"vehicle_type_id":"4","last_reported":1744344758,"current_range_meters":7200,"station_id":"ce4bhnh2rcd13ifvqgtg","pricing_plan_id":"cebpf4jnsgd1na2vs0mg"},{"bike_id":"07cc6c28-4c90-4a27-a829-295d10e64a1b","system_id":"levelo_inurba_marseille","lat":43.28418,"lon":5.39207,"is_reserved":false,"is_disabled":false,"rental_uris":{"android":"levelo://app?vid=07cc6c28-4c90-4a27-a829-295d10e64a1b","ios":"levelo://app?vid=07cc6c28-4c90-4a27-a829-295d10e64a1b"},"vehicle_type_id":"4","last_reported":1744344758,"current_range_meters":7200,"station_id":"ce4bhoh2rcd13ifvqh5g","pricing_plan_id":"cebpf4jnsgd1na2vs0mg"},{"bike_id":"3102b6c5-7de9-4edb-84c1-78cca2d45726","system_id":"levelo_inurba_marseille","lat":43.27156,"lon":5.41016,"is_reserved":false,"is_disabled":false,"rental_uris":{"android":"levelo://app?vid=3102b6c5-7de9-4edb-84c1-78cca2d45726","ios":"levelo://app?vid=3102b6c5-7de9-4edb-84c1-78cca2d45726"},"vehicle_type_id":"4","last_reported":1744344758,"current_range_meters":7200,"station_id":"ce4bhl12rcd13ifvqgf0","pricing_plan_id":"cebpf4jnsgd1na2vs0mg"},{"bike_id":"0674074c-d22a-4f12-8a52-74091023d4b5","system_id":"levelo_inurba_marseille","lat":43.29674,"lon":5.36621,"is_reserved":false,"is_disabled":false,"rental_uris":{"android":"levelo://app?vid=0674074c-d22a-4f12-8a52-74091023d4b5","ios":"levelo://app?vid=0674074c-d22a-4f12-8a52-74091023d4b5"},"vehicle_type_id":"4","last_reported":1744344758,"current_range_meters":7200,"station_id":"ce4bgn12rcd13ifvqbt0","pricing_plan_id":"cebpf4jnsgd1na2vs0mg"},{"bike_id":"293ffd2e-5de7-4b40-b2e6-cc4cad17e213","system_id":"levelo_inurba_marseille","lat":43.28402,"lon":5.37524,"is_reserved":false,"is_disabled":false,"rental_uris":{"android":"levelo://app?vid=293ffd2e-5de7-4b40-b2e6-cc4cad17e213","ios":"levelo://app?vid=293ffd2e-5de7-4b40-b2e6-cc4cad17e213"},"vehicle_type_id":"4","last_reported":1744344758,"current_range_meters":7200,"station_id":"ce4bh412rcd13ifvqds0","pricing_plan_id":"cebpf4jnsgd1na2vs0mg"},{"bike_id":"1101751a-8a01-4d76-ae7e-72a60d35ec3d","system_id":"levelo_inurba_marseille","lat":43.28855,"lon":5.39322,"is_reserved":false,"is_disabled":false,"rental_uris":{"android":"levelo://app?vid=1101751a-8a01-4d76-ae7e-72a60d35ec3d","ios":"levelo://app?vid=1101751a-8a01-4d76-ae7e-72a60d35ec3d"},"vehicle_type_id":"4","last_reported":1744344758,"current_range_meters":7200,"station_id":"ce4bh2p2rcd13ifvqdi0","pricing_plan_id":"cebpf4jnsgd1na2vs0mg"},{"bike_id":"4a3e0919-27c2-445a-a961-2bd3243a227d","system_id":"levelo_inurba_marseille","lat":43.31646,"lon":5.37321,"is_reserved":false,"is_disabled":false,"rental_uris":{"android":"levelo://app?vid=4a3e0919-27c2-445a-a961-2bd3243a227d","ios":"levelo://app?vid=4a3e0919-27c2-445a-a961-2bd3243a227d"},"vehicle_type_id":"4","last_reported":1744344758,"current_range_meters":8000,"station_id":"","pricing_plan_id":"cebpf4jnsgd1na2vs0mg"},{"bike_id":"d37408de-b5d7-4466-8973-ab7c2a7000bc","system_id":"levelo_inurba_marseille","lat":43.29263,"lon":5.36818,"is_reserved":false,"is_disabled":true,"rental_uris":{"android":"levelo://app?vid=d37408de-b5d7-4466-8973-ab7c2a7000bc","ios":"levelo://app?vid=d37408de-b5d7-4466-8973-ab7c2a7000bc"},"vehicle_type_id":"4","last_reported":1744344758,"current_range_meters":8000,"station_id":"ce4bhbp2rcd13ifvqesg","pricing_plan_id":"cebpf4jnsgd1na2vs0mg"},{"bike_id":"a1fdd794-2cd0-4fb6-96b3-8dafaa593e65","system_id":"levelo_inurba_marseille","lat":43.33778,"lon":5.37459,"is_reserved":false,"is_disabled":true,"rental_uris":{"android":"levelo://app?vid=a1fdd794-2cd0-4fb6-96b3-8dafaa593e65","ios":"levelo://app?vid=a1fdd794-2cd0-4fb6-96b3-8dafaa593e65"},"vehicle_type_id":"4","last_reported":1744344758,"current_range_meters":8000,"station_id":"","pricing_plan_id":"cebpf4jnsgd1na2vs0mg"},{"bike_id":"a08fdf65-f7c3-4eb9-83c1-6d1abed3497e","system_id":"levelo_inurba_marseille","lat":43.286966,"lon":5.39983,"is_reserved":false,"is_disabled":true,"rental_uris":{"android":"levelo://app?vid=a08fdf65-f7c3-4eb9-83c1-6d1abed3497e","ios":"levelo://app?vid=a08fdf65-f7c3-4eb9-83c1-6d1abed3497e"},"vehicle_type_id":"4","last_reported":1744344758,"current_range_meters":8000,"station_id":"ce4bho92rcd13ifvqh3g","pricing_plan_id":"cebpf4jnsgd1na2vs0mg"},{"bike_id":"383b3fd1-af92-4338-8167-08780a3ded94","system_id":"levelo_inurba_marseille","lat":43.298,"lon":5.40403,"is_reserved":false,"is_disabled":false,"rental_uris":{"android":"levelo://app?vid=383b3fd1-af92-4338-8167-08780a3ded94","ios":"levelo://app?vid=383b3fd1-af92-4338-8167-08780a3ded94"},"vehicle_type_id":"4","last_reported":1744344758,"current_range_meters":8000,"station_id":"ce4bh112rcd13ifvqd90","pricing_plan_id":"cebpf4jnsgd1na2vs0mg"},{"bike_id":"cec94938-5836-4fb1-b107-6be08662aa0a","system_id":"levelo_inurba_marseille","lat":43.274979,"lon":5.42456,"is_reserved":false,"is_disabled":false,"rental_uris":{"android":"levelo://app?vid=cec94938-5836-4fb1-b107-6be08662aa0a","ios":"levelo://app?vid=cec94938-5836-4fb1-b107-6be08662aa0a"},"vehicle_type_id":"4","last_reported":1744344758,"current_range_meters":8000,"station_id":"ce4bhn92rcd13ifvqgrg","pricing_plan_id":"cebpf4jnsgd1na2vs0mg"},{"bike_id":"da33d3e1-078a-490e-bdcf-05f338351ccc","system_id":"levelo_inurba_marseille","lat":43.278371,"lon":5.392129,"is_reserved":false,"is_disabled":false,"rental_uris":{"android":"levelo://app?vid=da33d3e1-078a-490e-bdcf-05f338351ccc","ios":"levelo://app?vid=da33d3e1-078a-490e-bdcf-05f338351ccc"},"vehicle_type_id":"4","last_reported":1744344758,"current_range_meters":8000,"station_id":"ce4bhjp2rcd13ifvqga0","pricing_plan_id":"cebpf4jnsgd1na2vs0mg"},{"bike_id":"9ce80678-2ca4-4baa-a7d2-19d4fc944020","system_id":"levelo_inurba_marseille","lat":43.24165,"lon":5.36409,"is_reserved":false,"is_disabled":false,"rental_uris":{"android":"levelo://app?vid=9ce80678-2ca4-4baa-a7d2-19d4fc944020","ios":"levelo://app?vid=9ce80678-2ca4-4baa-a7d2-19d4fc944020"},"vehicle_type_id":"4","last_reported":1744344758,"current_range_meters":8000,"station_id":"cpo36qri1sfpv3e86is0","pricing_plan_id":"cebpf4jnsgd1na2vs0mg"},{"bike_id":"ba2c16f2-a8de-459f-a35d-6bd74f3cc715","system_id":"levelo_inurba_marseille","lat":43.23061,"lon":5.35502,"is_reserved":false,"is_disabled":false,"rental_uris":{"android":"levelo://app?vid=ba2c16f2-a8de-459f-a35d-6bd74f3cc715","ios":"levelo://app?vid=ba2c16f2-a8de-459f-a35d-6bd74f3cc715"},"vehicle_type_id":"4","last_reported":1744344758,"current_range_meters":8400,"station_id":"cpo3342slgdg3j2ifvpg","pricing_plan_id":"cebpf4jnsgd1na2vs0mg"},{"bike_id":"b679a569-40c8-4aa5-9dd5-f42f649b2be2","system_id":"levelo_inurba_marseille","lat":43.30281,"lon":5.37718,"is_reserved":false,"is_disabled":false,"rental_uris":{"android":"levelo://app?vid=b679a569-40c8-4aa5-9dd5-f42f649b2be2","ios":"levelo://app?vid=b679a569-40c8-4aa5-9dd5-f42f649b2be2"},"vehicle_type_id":"4","last_reported":1744344758,"current_range_meters":8400,"station_id":"ce4bguh2rcd13ifvqcj0","pricing_plan_id":"cebpf4jnsgd1na2vs0mg"},{"bike_id":"bff67837-c676-4b88-9fdc-8db7fe587121","system_id":"levelo_inurba_marseille","lat":43.30241,"lon":5.4006,"is_reserved":false,"is_disabled":true,"rental_uris":{"android":"levelo://app?vid=bff67837-c676-4b88-9fdc-8db7fe587121","ios":"levelo://app?vid=bff67837-c676-4b88-9fdc-8db7fe587121"},"vehicle_type_id":"4","last_reported":1744344758,"current_range_meters":8400,"station_id":"ce4bgvh2rcd13ifvqcs0","pricing_plan_id":"cebpf4jnsgd1na2vs0mg"},{"bike_id":"818034d3-704e-4d85-9ab2-72de705bb74a","system_id":"levelo_inurba_marseille","lat":43.25102,"lon":5.40342,"is_reserved":false,"is_disabled":false,"rental_uris":{"android":"levelo://app?vid=818034d3-704e-4d85-9ab2-72de705bb74a","ios":"levelo://app?vid=818034d3-704e-4d85-9ab2-72de705bb74a"},"vehicle_type_id":"4","last_reported":1744344758,"current_range_meters":8400,"station_id":"ce4bhlh2rcd13ifvqgig","pricing_plan_id":"cebpf4jnsgd1na2vs0mg"},{"bike_id":"72c3168c-baf7-40e8-868c-731da670395c","system_id":"levelo_inurba_marseille","lat":43.309329,"lon":5.401459,"is_reserved":false,"is_disabled":false,"rental_uris":{"android":"levelo://app?vid=72c3168c-baf7-40e8-868c-731da670395c","ios":"levelo://app?vid=72c3168c-baf7-40e8-868c-731da670395c"},"vehicle_type_id":"4","last_reported":1744344758,"current_range_meters":8800,"station_id":"ce4bgvp2rcd13ifvqct0","pricing_plan_id":"cebpf4jnsgd1na2vs0mg"},{"bike_id":"c7922c9e-df40-4d6f-92a1-640cc6bd2ff7","system_id":"levelo_inurba_marseille","lat":43.24164,"lon":5.36415,"is_reserved":false,"is_disabled":false,"rental_uris":{"android":"levelo://app?vid=c7922c9e-df40-4d6f-92a1-640cc6bd2ff7","ios":"levelo://app?vid=c7922c9e-df40-4d6f-92a1-640cc6bd2ff7"},"vehicle_type_id":"4","last_reported":1744344758,"current_range_meters":8800,"station_id":"cpo36qri1sfpv3e86is0","pricing_plan_id":"cebpf4jnsgd1na2vs0mg"},{"bike_id":"13927290-c79e-42f4-abe5-c08d8e48ab74","system_id":"levelo_inurba_marseille","lat":43.30467,"lon":5.37907,"is_reserved":false,"is_disabled":false,"rental_uris":{"android":"levelo://app?vid=13927290-c79e-42f4-abe5-c08d8e48ab74","ios":"levelo://app?vid=13927290-c79e-42f4-abe5-c08d8e48ab74"},"vehicle_type_id":"4","last_reported":1744344758,"current_range_meters":8800,"station_id":"ce4bgup2rcd13ifvqcn0","pricing_plan_id":"cebpf4jnsgd1na2vs0mg"},{"bike_id":"e9c0bd2a-86fe-408a-8f6b-fb39232f4a9e","system_id":"levelo_inurba_marseille","lat":43.29539,"lon":5.3751,"is_reserved":false,"is_disabled":true,"rental_uris":{"android":"levelo://app?vid=e9c0bd2a-86fe-408a-8f6b-fb39232f4a9e","ios":"levelo://app?vid=e9c0bd2a-86fe-408a-8f6b-fb39232f4a9e"},"vehicle_type_id":"4","last_reported":1744344758,"current_range_meters":8800,"station_id":"ce4bgkp2rcd13ifvqbmg","pricing_plan_id":"cebpf4jnsgd1na2vs0mg"},{"bike_id":"3cce7e82-3b3f-4afe-8abe-b91b82f9d784","system_id":"levelo_inurba_marseille","lat":43.28549,"lon":5.37083,"is_reserved":false,"is_disabled":false,"rental_uris":{"android":"levelo://app?vid=3cce7e82-3b3f-4afe-8abe-b91b82f9d784","ios":"levelo://app?vid=3cce7e82-3b3f-4afe-8abe-b91b82f9d784"},"vehicle_type_id":"4","last_reported":1744344758,"current_range_meters":8800,"station_id":"","pricing_plan_id":"cebpf4jnsgd1na2vs0mg"},{"bike_id":"cd94694b-42fa-44d6-807a-2d5a6758fe67","system_id":"levelo_inurba_marseille","lat":43.28156,"lon":5.42646,"is_reserved":false,"is_disabled":true,"rental_uris":{"android":"levelo://app?vid=cd94694b-42fa-44d6-807a-2d5a6758fe67","ios":"levelo://app?vid=cd94694b-42fa-44d6-807a-2d5a6758fe67"},"vehicle_type_id":"4","last_reported":1744344758,"current_range_meters":8800,"station_id":"ce4bhnh2rcd13ifvqgug","pricing_plan_id":"cebpf4jnsgd1na2vs0mg"},{"bike_id":"33443bd1-63f0-4476-823e-4549241d83bd","system_id":"levelo_inurba_marseille","lat":43.22933,"lon":5.35389,"is_reserved":false,"is_disabled":false,"rental_uris":{"android":"levelo://app?vid=33443bd1-63f0-4476-823e-4549241d83bd","ios":"levelo://app?vid=33443bd1-63f0-4476-823e-4549241d83bd"},"vehicle_type_id":"4","last_reported":1744344758,"current_range_meters":9200,"station_id":"cpo3532slgdg3j2ikp40","pricing_plan_id":"cebpf4jnsgd1na2vs0mg"},{"bike_id":"9cc31833-c44a-42a9-bfe0-2165a64fe727","system_id":"levelo_inurba_marseille","lat":43.27955,"lon":5.41009,"is_reserved":false,"is_disabled":false,"rental_uris":{"android":"levelo://app?vid=9cc31833-c44a-42a9-bfe0-2165a64fe727","ios":"levelo://app?vid=9cc31833-c44a-42a9-bfe0-2165a64fe727"},"vehicle_type_id":"4","last_reported":1744344758,"current_range_meters":9200,"station_id":"ce4bhnp2rcd13ifvqh0g","pricing_plan_id":"cebpf4jnsgd1na2vs0mg"},{"bike_id":"2e3fc202-4684-4d64-b201-b745cfc357fe","system_id":"levelo_inurba_marseille","lat":43.24795,"lon":5.37483,"is_reserved":false,"is_disabled":false,"rental_uris":{"android":"levelo://app?vid=2e3fc202-4684-4d64-b201-b745cfc357fe","ios":"levelo://app?vid=2e3fc202-4684-4d64-b201-b745cfc357fe"},"vehicle_type_id":"4","last_reported":1744344758,"current_range_meters":9200,"station_id":"ce4bhgh2rcd13ifvqfb0","pricing_plan_id":"cebpf4jnsgd1na2vs0mg"},{"bike_id":"cdb818a6-fd2a-4195-84c0-ff94cd0f3a81","system_id":"levelo_inurba_marseille","lat":43.28683,"lon":5.40015,"is_reserved":false,"is_disabled":false,"rental_uris":{"android":"levelo://app?vid=cdb818a6-fd2a-4195-84c0-ff94cd0f3a81","ios":"levelo://app?vid=cdb818a6-fd2a-4195-84c0-ff94cd0f3a81"},"vehicle_type_id":"4","last_reported":1744344758,"current_range_meters":9200,"station_id":"ce4bho92rcd13ifvqh3g","pricing_plan_id":"cebpf4jnsgd1na2vs0mg"},{"bike_id":"3864ca11-eba3-4ea9-aa8d-c2b29b8c6d15","system_id":"levelo_inurba_marseille","lat":43.27189,"lon":5.40971,"is_reserved":false,"is_disabled":false,"rental_uris":{"android":"levelo://app?vid=3864ca11-eba3-4ea9-aa8d-c2b29b8c6d15","ios":"levelo://app?vid=3864ca11-eba3-4ea9-aa8d-c2b29b8c6d15"},"vehicle_type_id":"4","last_reported":1744344758,"current_range_meters":9200,"station_id":"ce4bhl12rcd13ifvqgf0","pricing_plan_id":"cebpf4jnsgd1na2vs0mg"},{"bike_id":"4e47d0fb-2760-4784-8c81-8e8fb738bf29","system_id":"levelo_inurba_marseille","lat":43.258675,"lon":5.399013,"is_reserved":false,"is_disabled":false,"rental_uris":{"android":"levelo://app?vid=4e47d0fb-2760-4784-8c81-8e8fb738bf29","ios":"levelo://app?vid=4e47d0fb-2760-4784-8c81-8e8fb738bf29"},"vehicle_type_id":"4","last_reported":1744344758,"current_range_meters":9200,"station_id":"ce4bhl92rcd13ifvqghg","pricing_plan_id":"cebpf4jnsgd1na2vs0mg"},{"bike_id":"82522d85-616f-4b70-b6f0-591320032371","system_id":"levelo_inurba_marseille","lat":43.317218,"lon":5.423944,"is_reserved":false,"is_disabled":false,"rental_uris":{"android":"levelo://app?vid=82522d85-616f-4b70-b6f0-591320032371","ios":"levelo://app?vid=82522d85-616f-4b70-b6f0-591320032371"},"vehicle_type_id":"4","last_reported":1744344758,"current_range_meters":9200,"station_id":"ce4bhp92rcd13ifvqhbg","pricing_plan_id":"cebpf4jnsgd1na2vs0mg"},{"bike_id":"d6bbcb9a-1b3c-480b-a4cc-1791ba809291","system_id":"levelo_inurba_marseille","lat":43.287065,"lon":5.399911,"is_reserved":false,"is_disabled":false,"rental_uris":{"android":"levelo://app?vid=d6bbcb9a-1b3c-480b-a4cc-1791ba809291","ios":"levelo://app?vid=d6bbcb9a-1b3c-480b-a4cc-1791ba809291"},"vehicle_type_id":"4","last_reported":1744344758,"current_range_meters":9200,"station_id":"ce4bho92rcd13ifvqh3g","pricing_plan_id":"cebpf4jnsgd1na2vs0mg"},{"bike_id":"3baae6a5-5d93-4f4e-8d05-e15c000058d0","system_id":"levelo_inurba_marseille","lat":43.29257,"lon":5.40906,"is_reserved":false,"is_disabled":false,"rental_uris":{"android":"levelo://app?vid=3baae6a5-5d93-4f4e-8d05-e15c000058d0","ios":"levelo://app?vid=3baae6a5-5d93-4f4e-8d05-e15c000058d0"},"vehicle_type_id":"4","last_reported":1744344758,"current_range_meters":9200,"station_id":"ce4bh192rcd13ifvqdc0","pricing_plan_id":"cebpf4jnsgd1na2vs0mg"},{"bike_id":"74bb5d65-537b-4c7c-9102-bad931df68ad","system_id":"levelo_inurba_marseille","lat":43.30311,"lon":5.40438,"is_reserved":false,"is_disabled":false,"rental_uris":{"android":"levelo://app?vid=74bb5d65-537b-4c7c-9102-bad931df68ad","ios":"levelo://app?vid=74bb5d65-537b-4c7c-9102-bad931df68ad"},"vehicle_type_id":"4","last_reported":1744344758,"current_range_meters":9200,"station_id":"ce4bh012rcd13ifvqd10","pricing_plan_id":"cebpf4jnsgd1na2vs0mg"},{"bike_id":"6eb61986-8e92-47db-8c9a-ad77976386e7","system_id":"levelo_inurba_marseille","lat":43.30537,"lon":5.38428,"is_reserved":false,"is_disabled":true,"rental_uris":{"android":"levelo://app?vid=6eb61986-8e92-47db-8c9a-ad77976386e7","ios":"levelo://app?vid=6eb61986-8e92-47db-8c9a-ad77976386e7"},"vehicle_type_id":"4","last_reported":1744344758,"current_range_meters":9200,"station_id":"ce4bgg92rcd13ifvqb30","pricing_plan_id":"cebpf4jnsgd1na2vs0mg"},{"bike_id":"1bdaf11b-d657-4b49-afc7-b8d41d2ea170","system_id":"levelo_inurba_marseille","lat":43.31055,"lon":5.38353,"is_reserved":false,"is_disabled":false,"rental_uris":{"android":"levelo://app?vid=1bdaf11b-d657-4b49-afc7-b8d41d2ea170","ios":"levelo://app?vid=1bdaf11b-d657-4b49-afc7-b8d41d2ea170"},"vehicle_type_id":"4","last_reported":1744344758,"current_range_meters":9200,"station_id":"ce4bgv92rcd13ifvqcr0","pricing_plan_id":"cebpf4jnsgd1na2vs0mg"},{"bike_id":"65f52e07-c7c1-4b0b-a98a-2cb0cb6e9ef2","system_id":"levelo_inurba_marseille","lat":43.2407,"lon":5.37723,"is_reserved":false,"is_disabled":false,"rental_uris":{"android":"levelo://app?vid=65f52e07-c7c1-4b0b-a98a-2cb0cb6e9ef2","ios":"levelo://app?vid=65f52e07-c7c1-4b0b-a98a-2cb0cb6e9ef2"},"vehicle_type_id":"4","last_reported":1744344758,"current_range_meters":9200,"station_id":"ce4bhnp2rcd13ifvqgvg","pricing_plan_id":"cebpf4jnsgd1na2vs0mg"},{"bike_id":"eb2a2906-4519-49e5-b09f-221125aa377a","system_id":"levelo_inurba_marseille","lat":43.30392,"lon":5.41295,"is_reserved":false,"is_disabled":false,"rental_uris":{"android":"levelo://app?vid=eb2a2906-4519-49e5-b09f-221125aa377a","ios":"levelo://app?vid=eb2a2906-4519-49e5-b09f-221125aa377a"},"vehicle_type_id":"4","last_reported":1744344758,"current_range_meters":9600,"station_id":"ce4bhop2rcd13ifvqh8g","pricing_plan_id":"cebpf4jnsgd1na2vs0mg"},{"bike_id":"c60b8836-cbba-4ee9-8729-bc9b46e42524","system_id":"levelo_inurba_marseille","lat":43.30093,"lon":5.391,"is_reserved":false,"is_disabled":false,"rental_uris":{"android":"levelo://app?vid=c60b8836-cbba-4ee9-8729-bc9b46e42524","ios":"levelo://app?vid=c60b8836-cbba-4ee9-8729-bc9b46e42524"},"vehicle_type_id":"4","last_reported":1744344758,"current_range_meters":9600,"station_id":"ce4bh192rcd13ifvqdb0","pricing_plan_id":"cebpf4jnsgd1na2vs0mg"},{"bike_id":"68e0119a-8645-4479-b5b1-70d812883054","system_id":"levelo_inurba_marseille","lat":43.281081,"lon":5.378319,"is_reserved":false,"is_disabled":false,"rental_uris":{"android":"levelo://app?vid=68e0119a-8645-4479-b5b1-70d812883054","ios":"levelo://app?vid=68e0119a-8645-4479-b5b1-70d812883054"},"vehicle_type_id":"4","last_reported":1744344758,"current_range_meters":9600,"station_id":"ce4bha12rcd13ifvqee0","pricing_plan_id":"cebpf4jnsgd1na2vs0mg"},{"bike_id":"5bb125d9-b23d-4fd1-92cb-d46d3b6177ec","system_id":"levelo_inurba_marseille","lat":43.30316,"lon":5.4045,"is_reserved":false,"is_disabled":false,"rental_uris":{"android":"levelo://app?vid=5bb125d9-b23d-4fd1-92cb-d46d3b6177ec","ios":"levelo://app?vid=5bb125d9-b23d-4fd1-92cb-d46d3b6177ec"},"vehicle_type_id":"4","last_reported":1744344758,"current_range_meters":9600,"station_id":"ce4bh012rcd13ifvqd10","pricing_plan_id":"cebpf4jnsgd1na2vs0mg"},{"bike_id":"4c023299-68c6-4fe1-82cc-ec03fbc45384","system_id":"levelo_inurba_marseille","lat":43.30299,"lon":5.36907,"is_reserved":false,"is_disabled":false,"rental_uris":{"android":"levelo://app?vid=4c023299-68c6-4fe1-82cc-ec03fbc45384","ios":"levelo://app?vid=4c023299-68c6-4fe1-82cc-ec03fbc45384"},"vehicle_type_id":"4","last_reported":1744344758,"current_range_meters":9600,"station_id":"ce4bgqh2rcd13ifvqc5g","pricing_plan_id":"cebpf4jnsgd1na2vs0mg"},{"bike_id":"8864c112-fa7e-4e0e-8c4a-13a369d75113","system_id":"levelo_inurba_marseille","lat":43.304143,"lon":5.41295,"is_reserved":false,"is_disabled":false,"rental_uris":{"android":"levelo://app?vid=8864c112-fa7e-4e0e-8c4a-13a369d75113","ios":"levelo://app?vid=8864c112-fa7e-4e0e-8c4a-13a369d75113"},"vehicle_type_id":"4","last_reported":1744344758,"current_range_meters":9600,"station_id":"ce4bhop2rcd13ifvqh8g","pricing_plan_id":"cebpf4jnsgd1na2vs0mg"},{"bike_id":"a8ce148c-c646-49c7-bc93-8e16c53d9a41","system_id":"levelo_inurba_marseille","lat":43.231887,"lon":5.399793,"is_reserved":false,"is_disabled":false,"rental_uris":{"android":"levelo://app?vid=a8ce148c-c646-49c7-bc93-8e16c53d9a41","ios":"levelo://app?vid=a8ce148c-c646-49c7-bc93-8e16c53d9a41"},"vehicle_type_id":"4","last_reported":1744344758,"current_range_meters":9600,"station_id":"ce4bhn12rcd13ifvqgqg","pricing_plan_id":"cebpf4jnsgd1na2vs0mg"},{"bike_id":"3003a1ec-7f1f-480d-a2a7-9dfb6de7e727","system_id":"levelo_inurba_marseille","lat":43.297913,"lon":5.393467,"is_reserved":false,"is_disabled":false,"rental_uris":{"android":"levelo://app?vid=3003a1ec-7f1f-480d-a2a7-9dfb6de7e727","ios":"levelo://app?vid=3003a1ec-7f1f-480d-a2a7-9dfb6de7e727"},"vehicle_type_id":"4","last_reported":1744344758,"current_range_meters":10000,"station_id":"chh1huq6cuj3fo74tm60","pricing_plan_id":"cebpf4jnsgd1na2vs0mg"},{"bike_id":"7986f528-e014-4751-bc08-903178eb0939","system_id":"levelo_inurba_marseille","lat":43.297846,"lon":5.393571,"is_reserved":false,"is_disabled":false,"rental_uris":{"android":"levelo://app?vid=7986f528-e014-4751-bc08-903178eb0939","ios":"levelo://app?vid=7986f528-e014-4751-bc08-903178eb0939"},"vehicle_type_id":"4","last_reported":1744344758,"current_range_meters":10000,"station_id":"chh1huq6cuj3fo74tm60","pricing_plan_id":"cebpf4jnsgd1na2vs0mg"},{"bike_id":"766488c0-e8c9-45da-a7ef-ba95d1783edc","system_id":"levelo_inurba_marseille","lat":43.28415,"lon":5.37513,"is_reserved":false,"is_disabled":false,"rental_uris":{"android":"levelo://app?vid=766488c0-e8c9-45da-a7ef-ba95d1783edc","ios":"levelo://app?vid=766488c0-e8c9-45da-a7ef-ba95d1783edc"},"vehicle_type_id":"4","last_reported":1744344758,"current_range_meters":10000,"station_id":"ce4bh412rcd13ifvqds0","pricing_plan_id":"cebpf4jnsgd1na2vs0mg"},{"bike_id":"b74ccc2f-e8ef-41bb-ab70-412b1cdf0515","system_id":"levelo_inurba_marseille","lat":43.30928,"lon":5.40174,"is_reserved":false,"is_disabled":false,"rental_uris":{"android":"levelo://app?vid=b74ccc2f-e8ef-41bb-ab70-412b1cdf0515","ios":"levelo://app?vid=b74ccc2f-e8ef-41bb-ab70-412b1cdf0515"},"vehicle_type_id":"4","last_reported":1744344758,"current_range_meters":10000,"station_id":"ce4bgvp2rcd13ifvqct0","pricing_plan_id":"cebpf4jnsgd1na2vs0mg"},{"bike_id":"2000497b-6d4b-416f-b43b-2a4143aad53b","system_id":"levelo_inurba_marseille","lat":43.32292,"lon":5.38665,"is_reserved":false,"is_disabled":false,"rental_uris":{"android":"levelo://app?vid=2000497b-6d4b-416f-b43b-2a4143aad53b","ios":"levelo://app?vid=2000497b-6d4b-416f-b43b-2a4143aad53b"},"vehicle_type_id":"4","last_reported":1744344758,"current_range_meters":10000,"station_id":"","pricing_plan_id":"cebpf4jnsgd1na2vs0mg"},{"bike_id":"a50ba3b3-ad34-4398-b71e-4df32bf58c7d","system_id":"levelo_inurba_marseille","lat":43.30788,"lon":5.38145,"is_reserved":false,"is_disabled":false,"rental_uris":{"android":"levelo://app?vid=a50ba3b3-ad34-4398-b71e-4df32bf58c7d","ios":"levelo://app?vid=a50ba3b3-ad34-4398-b71e-4df32bf58c7d"},"vehicle_type_id":"4","last_reported":1744344758,"current_range_meters":10000,"station_id":"ce4bgt12rcd13ifvqce0","pricing_plan_id":"cebpf4jnsgd1na2vs0mg"},{"bike_id":"04e74939-45c7-4674-bdb2-a942e20709ed","system_id":"levelo_inurba_marseille","lat":43.27929,"lon":5.41036,"is_reserved":false,"is_disabled":false,"rental_uris":{"android":"levelo://app?vid=04e74939-45c7-4674-bdb2-a942e20709ed","ios":"levelo://app?vid=04e74939-45c7-4674-bdb2-a942e20709ed"},"vehicle_type_id":"4","last_reported":1744344758,"current_range_meters":10000,"station_id":"ce4bhnp2rcd13ifvqh0g","pricing_plan_id":"cebpf4jnsgd1na2vs0mg"},{"bike_id":"30d8b146-7e40-497a-bf81-ef99daf73b2a","system_id":"levelo_inurba_marseille","lat":43.31366,"lon":5.36718,"is_reserved":false,"is_disabled":false,"rental_uris":{"android":"levelo://app?vid=30d8b146-7e40-497a-bf81-ef99daf73b2a","ios":"levelo://app?vid=30d8b146-7e40-497a-bf81-ef99daf73b2a"},"vehicle_type_id":"4","last_reported":1744344758,"current_range_meters":9600,"station_id":"ce4bgr92rcd13ifvqc6g","pricing_plan_id":"cebpf4jnsgd1na2vs0mg"},{"bike_id":"9720b8b2-bab5-4ee6-b22e-33551c8f8095","system_id":"levelo_inurba_marseille","lat":43.28662,"lon":5.3636,"is_reserved":false,"is_disabled":false,"rental_uris":{"android":"levelo://app?vid=9720b8b2-bab5-4ee6-b22e-33551c8f8095","ios":"levelo://app?vid=9720b8b2-bab5-4ee6-b22e-33551c8f8095"},"vehicle_type_id":"4","last_reported":1744344758,"current_range_meters":11200,"station_id":"ce4bhah2rcd13ifvqej0","pricing_plan_id":"cebpf4jnsgd1na2vs0mg"},{"bike_id":"fb616cd3-23a4-48e3-9a4e-7023a427b4b8","system_id":"levelo_inurba_marseille","lat":43.29641,"lon":5.39589,"is_reserved":false,"is_disabled":false,"rental_uris":{"android":"levelo://app?vid=fb616cd3-23a4-48e3-9a4e-7023a427b4b8","ios":"levelo://app?vid=fb616cd3-23a4-48e3-9a4e-7023a427b4b8"},"vehicle_type_id":"4","last_reported":1744344758,"current_range_meters":10800,"station_id":"","pricing_plan_id":"cebpf4jnsgd1na2vs0mg"},{"bike_id":"bb860c5d-3678-41cc-9db3-5494163b0a3e","system_id":"levelo_inurba_marseille","lat":43.30135,"lon":5.38092,"is_reserved":false,"is_disabled":false,"rental_uris":{"android":"levelo://app?vid=bb860c5d-3678-41cc-9db3-5494163b0a3e","ios":"levelo://app?vid=bb860c5d-3678-41cc-9db3-5494163b0a3e"},"vehicle_type_id":"4","last_reported":1744344758,"current_range_meters":10800,"station_id":"ce4bgjp2rcd13ifvqbh0","pricing_plan_id":"cebpf4jnsgd1na2vs0mg"},{"bike_id":"eab6cbfa-cb8e-47d7-b0d6-226ab7facec7","system_id":"levelo_inurba_marseille","lat":43.31711,"lon":5.42419,"is_reserved":false,"is_disabled":true,"rental_uris":{"android":"levelo://app?vid=eab6cbfa-cb8e-47d7-b0d6-226ab7facec7","ios":"levelo://app?vid=eab6cbfa-cb8e-47d7-b0d6-226ab7facec7"},"vehicle_type_id":"4","last_reported":1744344758,"current_range_meters":10800,"station_id":"ce4bhp92rcd13ifvqhbg","pricing_plan_id":"cebpf4jnsgd1na2vs0mg"},{"bike_id":"36dd2f5e-4014-41b9-8f6e-aa54636e0b8b","system_id":"levelo_inurba_marseille","lat":43.241601,"lon":5.363938,"is_reserved":false,"is_disabled":false,"rental_uris":{"android":"levelo://app?vid=36dd2f5e-4014-41b9-8f6e-aa54636e0b8b","ios":"levelo://app?vid=36dd2f5e-4014-41b9-8f6e-aa54636e0b8b"},"vehicle_type_id":"4","last_reported":1744344758,"current_range_meters":10800,"station_id":"cpo36qri1sfpv3e86is0","pricing_plan_id":"cebpf4jnsgd1na2vs0mg"},{"bike_id":"de07953f-a368-43dd-aba2-34a7197efe50","system_id":"levelo_inurba_marseille","lat":43.256115,"lon":5.405147,"is_reserved":false,"is_disabled":false,"rental_uris":{"android":"levelo://app?vid=de07953f-a368-43dd-aba2-34a7197efe50","ios":"levelo://app?vid=de07953f-a368-43dd-aba2-34a7197efe50"},"vehicle_type_id":"4","last_reported":1744344758,"current_range_meters":11200,"station_id":"","pricing_plan_id":"cebpf4jnsgd1na2vs0mg"},{"bike_id":"c95b9089-1c33-4eee-b033-e37e6269370c","system_id":"levelo_inurba_marseille","lat":43.30599,"lon":5.3937,"is_reserved":false,"is_disabled":false,"rental_uris":{"android":"levelo://app?vid=c95b9089-1c33-4eee-b033-e37e6269370c","ios":"levelo://app?vid=c95b9089-1c33-4eee-b033-e37e6269370c"},"vehicle_type_id":"4","last_reported":1744344758,"current_range_meters":11200,"station_id":"ce4bh0p2rcd13ifvqd80","pricing_plan_id":"cebpf4jnsgd1na2vs0mg"},{"bike_id":"e4584e81-d0ff-45d4-a366-ed824c8de9b6","system_id":"levelo_inurba_marseille","lat":43.23147,"lon":5.43749,"is_reserved":false,"is_disabled":false,"rental_uris":{"android":"levelo://app?vid=e4584e81-d0ff-45d4-a366-ed824c8de9b6","ios":"levelo://app?vid=e4584e81-d0ff-45d4-a366-ed824c8de9b6"},"vehicle_type_id":"4","last_reported":1744344758,"current_range_meters":11200,"station_id":"ce4bhmp2rcd13ifvqgog","pricing_plan_id":"cebpf4jnsgd1na2vs0mg"},{"bike_id":"35760107-f7e7-476e-880c-0f7c3535e881","system_id":"levelo_inurba_marseille","lat":43.31066,"lon":5.38348,"is_reserved":false,"is_disabled":false,"rental_uris":{"android":"levelo://app?vid=35760107-f7e7-476e-880c-0f7c3535e881","ios":"levelo://app?vid=35760107-f7e7-476e-880c-0f7c3535e881"},"vehicle_type_id":"4","last_reported":1744344758,"current_range_meters":11200,"station_id":"ce4bgv92rcd13ifvqcr0","pricing_plan_id":"cebpf4jnsgd1na2vs0mg"},{"bike_id":"33f764f3-1958-431c-a50f-d5fe60e86d22","system_id":"levelo_inurba_marseille","lat":43.3093,"lon":5.40182,"is_reserved":false,"is_disabled":false,"rental_uris":{"android":"levelo://app?vid=33f764f3-1958-431c-a50f-d5fe60e86d22","ios":"levelo://app?vid=33f764f3-1958-431c-a50f-d5fe60e86d22"},"vehicle_type_id":"4","last_reported":1744344758,"current_range_meters":11200,"station_id":"ce4bgvp2rcd13ifvqct0","pricing_plan_id":"cebpf4jnsgd1na2vs0mg"},{"bike_id":"5c1f11c5-87b7-479e-b5dd-768ef8d07ce8","system_id":"levelo_inurba_marseille","lat":43.31162,"lon":5.38725,"is_reserved":false,"is_disabled":false,"rental_uris":{"android":"levelo://app?vid=5c1f11c5-87b7-479e-b5dd-768ef8d07ce8","ios":"levelo://app?vid=5c1f11c5-87b7-479e-b5dd-768ef8d07ce8"},"vehicle_type_id":"4","last_reported":1744344758,"current_range_meters":11600,"station_id":"ce4bgv12rcd13ifvqcp0","pricing_plan_id":"cebpf4jnsgd1na2vs0mg"},{"bike_id":"bd2f5995-27ec-4e39-9257-a3bd08cd44e1","system_id":"levelo_inurba_marseille","lat":43.28396,"lon":5.37523,"is_reserved":false,"is_disabled":false,"rental_uris":{"android":"levelo://app?vid=bd2f5995-27ec-4e39-9257-a3bd08cd44e1","ios":"levelo://app?vid=bd2f5995-27ec-4e39-9257-a3bd08cd44e1"},"vehicle_type_id":"4","last_reported":1744344758,"current_range_meters":11600,"station_id":"ce4bh412rcd13ifvqds0","pricing_plan_id":"cebpf4jnsgd1na2vs0mg"},{"bike_id":"037b1d37-e484-4907-b25c-9225f3c24703","system_id":"levelo_inurba_marseille","lat":43.26559,"lon":5.39054,"is_reserved":false,"is_disabled":false,"rental_uris":{"android":"levelo://app?vid=037b1d37-e484-4907-b25c-9225f3c24703","ios":"levelo://app?vid=037b1d37-e484-4907-b25c-9225f3c24703"},"vehicle_type_id":"4","last_reported":1744344758,"current_range_meters":11600,"station_id":"ce4bhe12rcd13ifvqf30","pricing_plan_id":"cebpf4jnsgd1na2vs0mg"},{"bike_id":"0922821c-4e1d-4817-9469-860e55f8f0d1","system_id":"levelo_inurba_marseille","lat":43.225,"lon":5.34798,"is_reserved":false,"is_disabled":false,"rental_uris":{"android":"levelo://app?vid=0922821c-4e1d-4817-9469-860e55f8f0d1","ios":"levelo://app?vid=0922821c-4e1d-4817-9469-860e55f8f0d1"},"vehicle_type_id":"4","last_reported":1744344758,"current_range_meters":11600,"station_id":"st_cvj5dfep6f1abm77gieg","pricing_plan_id":"cebpf4jnsgd1na2vs0mg"},{"bike_id":"8c01c616-33d3-4f21-a94b-3bf76ab48ae7","system_id":"levelo_inurba_marseille","lat":43.28936,"lon":5.366248,"is_reserved":false,"is_disabled":true,"rental_uris":{"android":"levelo://app?vid=8c01c616-33d3-4f21-a94b-3bf76ab48ae7","ios":"levelo://app?vid=8c01c616-33d3-4f21-a94b-3bf76ab48ae7"},"vehicle_type_id":"4","last_reported":1744344758,"current_range_meters":12000,"station_id":"ce4bhap2rcd13ifvqek0","pricing_plan_id":"cebpf4jnsgd1na2vs0mg"},{"bike_id":"a1be7942-93cf-48f2-9853-15a5ec50f101","system_id":"levelo_inurba_marseille","lat":43.231884,"lon":5.399854,"is_reserved":false,"is_disabled":false,"rental_uris":{"android":"levelo://app?vid=a1be7942-93cf-48f2-9853-15a5ec50f101","ios":"levelo://app?vid=a1be7942-93cf-48f2-9853-15a5ec50f101"},"vehicle_type_id":"4","last_reported":1744344758,"current_range_meters":12000,"station_id":"ce4bhn12rcd13ifvqgqg","pricing_plan_id":"cebpf4jnsgd1na2vs0mg"},{"bike_id":"508b362c-971e-41d0-9a97-522956b1a8d5","system_id":"levelo_inurba_marseille","lat":43.297162,"lon":5.366103,"is_reserved":false,"is_disabled":false,"rental_uris":{"android":"levelo://app?vid=508b362c-971e-41d0-9a97-522956b1a8d5","ios":"levelo://app?vid=508b362c-971e-41d0-9a97-522956b1a8d5"},"vehicle_type_id":"4","last_reported":1744344758,"current_range_meters":12400,"station_id":"ce4bgn12rcd13ifvqbt0","pricing_plan_id":"cebpf4jnsgd1na2vs0mg"},{"bike_id":"2f604b1b-d5c1-4825-8a1c-02d30e0bb26a","system_id":"levelo_inurba_marseille","lat":43.310638,"lon":5.383456,"is_reserved":false,"is_disabled":false,"rental_uris":{"android":"levelo://app?vid=2f604b1b-d5c1-4825-8a1c-02d30e0bb26a","ios":"levelo://app?vid=2f604b1b-d5c1-4825-8a1c-02d30e0bb26a"},"vehicle_type_id":"4","last_reported":1744344758,"current_range_meters":12400,"station_id":"ce4bgv92rcd13ifvqcr0","pricing_plan_id":"cebpf4jnsgd1na2vs0mg"},{"bike_id":"25241e57-b9f0-44b1-bbcd-54b9d3822c45","system_id":"levelo_inurba_marseille","lat":43.323379,"lon":5.406256,"is_reserved":false,"is_disabled":false,"rental_uris":{"android":"levelo://app?vid=25241e57-b9f0-44b1-bbcd-54b9d3822c45","ios":"levelo://app?vid=25241e57-b9f0-44b1-bbcd-54b9d3822c45"},"vehicle_type_id":"4","last_reported":1744344758,"current_range_meters":12400,"station_id":"ce4bhq92rcd13ifvqhjg","pricing_plan_id":"cebpf4jnsgd1na2vs0mg"},{"bike_id":"1e1c77f6-afd0-4c67-9a93-d4edcd309776","system_id":"levelo_inurba_marseille","lat":43.287278,"lon":5.360859,"is_reserved":false,"is_disabled":false,"rental_uris":{"android":"levelo://app?vid=1e1c77f6-afd0-4c67-9a93-d4edcd309776","ios":"levelo://app?vid=1e1c77f6-afd0-4c67-9a93-d4edcd309776"},"vehicle_type_id":"4","last_reported":1744344758,"current_range_meters":12400,"station_id":"cki0cbj6b192h4jlfktg","pricing_plan_id":"cebpf4jnsgd1na2vs0mg"},{"bike_id":"aca070cc-ba66-44c8-adde-e4314d297936","system_id":"levelo_inurba_marseille","lat":43.295903,"lon":5.386405,"is_reserved":false,"is_disabled":false,"rental_uris":{"android":"levelo://app?vid=aca070cc-ba66-44c8-adde-e4314d297936","ios":"levelo://app?vid=aca070cc-ba66-44c8-adde-e4314d297936"},"vehicle_type_id":"4","last_reported":1744344758,"current_range_meters":12400,"station_id":"","pricing_plan_id":"cebpf4jnsgd1na2vs0mg"},{"bike_id":"a892d889-aa61-4cb5-8b7f-2797225bd9c4","system_id":"levelo_inurba_marseille","lat":43.265613,"lon":5.390143,"is_reserved":false,"is_disabled":false,"rental_uris":{"android":"levelo://app?vid=a892d889-aa61-4cb5-8b7f-2797225bd9c4","ios":"levelo://app?vid=a892d889-aa61-4cb5-8b7f-2797225bd9c4"},"vehicle_type_id":"4","last_reported":1744344758,"current_range_meters":12400,"station_id":"ce4bhe12rcd13ifvqf30","pricing_plan_id":"cebpf4jnsgd1na2vs0mg"},{"bike_id":"190bed17-6627-4f7f-9040-d999c64b1fa9","system_id":"levelo_inurba_marseille","lat":43.30448,"lon":5.41301,"is_reserved":false,"is_disabled":false,"rental_uris":{"android":"levelo://app?vid=190bed17-6627-4f7f-9040-d999c64b1fa9","ios":"levelo://app?vid=190bed17-6627-4f7f-9040-d999c64b1fa9"},"vehicle_type_id":"4","last_reported":1744344758,"current_range_meters":12400,"station_id":"ce4bhop2rcd13ifvqh8g","pricing_plan_id":"cebpf4jnsgd1na2vs0mg"},{"bike_id":"1a952879-6c88-4fe1-be76-32006d5594ff","system_id":"levelo_inurba_marseille","lat":43.2903,"lon":5.39987,"is_reserved":false,"is_disabled":false,"rental_uris":{"android":"levelo://app?vid=1a952879-6c88-4fe1-be76-32006d5594ff","ios":"levelo://app?vid=1a952879-6c88-4fe1-be76-32006d5594ff"},"vehicle_type_id":"4","last_reported":1744344758,"current_range_meters":12400,"station_id":"ce4bh392rcd13ifvqdm0","pricing_plan_id":"cebpf4jnsgd1na2vs0mg"},{"bike_id":"23718e9a-5ce7-4d28-99a5-8f754f56e13c","system_id":"levelo_inurba_marseille","lat":43.22495,"lon":5.3479,"is_reserved":false,"is_disabled":false,"rental_uris":{"android":"levelo://app?vid=23718e9a-5ce7-4d28-99a5-8f754f56e13c","ios":"levelo://app?vid=23718e9a-5ce7-4d28-99a5-8f754f56e13c"},"vehicle_type_id":"4","last_reported":1744344758,"current_range_meters":12800,"station_id":"st_cvj5dfep6f1abm77gieg","pricing_plan_id":"cebpf4jnsgd1na2vs0mg"},{"bike_id":"989cfda3-e11f-45b5-a08c-71c9a276e15d","system_id":"levelo_inurba_marseille","lat":43.29784,"lon":5.39344,"is_reserved":false,"is_disabled":false,"rental_uris":{"android":"levelo://app?vid=989cfda3-e11f-45b5-a08c-71c9a276e15d","ios":"levelo://app?vid=989cfda3-e11f-45b5-a08c-71c9a276e15d"},"vehicle_type_id":"4","last_reported":1744344758,"current_range_meters":12800,"station_id":"chh1huq6cuj3fo74tm60","pricing_plan_id":"cebpf4jnsgd1na2vs0mg"},{"bike_id":"c266cdc4-c7b8-499b-9979-d13187952b82","system_id":"levelo_inurba_marseille","lat":43.269289,"lon":5.389109,"is_reserved":false,"is_disabled":false,"rental_uris":{"android":"levelo://app?vid=c266cdc4-c7b8-499b-9979-d13187952b82","ios":"levelo://app?vid=c266cdc4-c7b8-499b-9979-d13187952b82"},"vehicle_type_id":"4","last_reported":1744344758,"current_range_meters":12800,"station_id":"ce4bhhh2rcd13ifvqfl0","pricing_plan_id":"cebpf4jnsgd1na2vs0mg"},{"bike_id":"9c07b687-0cca-4a28-82f6-66c50d295640","system_id":"levelo_inurba_marseille","lat":43.32342,"lon":5.38328,"is_reserved":false,"is_disabled":false,"rental_uris":{"android":"levelo://app?vid=9c07b687-0cca-4a28-82f6-66c50d295640","ios":"levelo://app?vid=9c07b687-0cca-4a28-82f6-66c50d295640"},"vehicle_type_id":"4","last_reported":1744344758,"current_range_meters":12800,"station_id":"","pricing_plan_id":"cebpf4jnsgd1na2vs0mg"},{"bike_id":"784f6f6f-9f28-47b2-878e-a7ec8d21c437","system_id":"levelo_inurba_marseille","lat":43.337729,"lon":5.374693,"is_reserved":false,"is_disabled":false,"rental_uris":{"android":"levelo://app?vid=784f6f6f-9f28-47b2-878e-a7ec8d21c437","ios":"levelo://app?vid=784f6f6f-9f28-47b2-878e-a7ec8d21c437"},"vehicle_type_id":"4","last_reported":1744344758,"current_range_meters":12800,"station_id":"","pricing_plan_id":"cebpf4jnsgd1na2vs0mg"},{"bike_id":"9f945758-9c31-4af1-844c-96a43b6dd16d","system_id":"levelo_inurba_marseille","lat":43.303735,"lon":5.424771,"is_reserved":false,"is_disabled":false,"rental_uris":{"android":"levelo://app?vid=9f945758-9c31-4af1-844c-96a43b6dd16d","ios":"levelo://app?vid=9f945758-9c31-4af1-844c-96a43b6dd16d"},"vehicle_type_id":"4","last_reported":1744344758,"current_range_meters":12800,"station_id":"ce4bhoh2rcd13ifvqh6g","pricing_plan_id":"cebpf4jnsgd1na2vs0mg"},{"bike_id":"4f3acd91-ce8e-4583-bef1-d80af5069254","system_id":"levelo_inurba_marseille","lat":43.24148,"lon":5.39706,"is_reserved":false,"is_disabled":false,"rental_uris":{"android":"levelo://app?vid=4f3acd91-ce8e-4583-bef1-d80af5069254","ios":"levelo://app?vid=4f3acd91-ce8e-4583-bef1-d80af5069254"},"vehicle_type_id":"4","last_reported":1744344758,"current_range_meters":13600,"station_id":"ce4bhn12rcd13ifvqgpg","pricing_plan_id":"cebpf4jnsgd1na2vs0mg"},{"bike_id":"a4cb75f8-85cb-4f4a-8281-971d890f52c2","system_id":"levelo_inurba_marseille","lat":43.24813,"lon":5.37473,"is_reserved":false,"is_disabled":false,"rental_uris":{"android":"levelo://app?vid=a4cb75f8-85cb-4f4a-8281-971d890f52c2","ios":"levelo://app?vid=a4cb75f8-85cb-4f4a-8281-971d890f52c2"},"vehicle_type_id":"4","last_reported":1744344758,"current_range_meters":13600,"station_id":"ce4bhgh2rcd13ifvqfb0","pricing_plan_id":"cebpf4jnsgd1na2vs0mg"},{"bike_id":"078a6dc5-3c98-4f01-aecd-ecf8c0f132d9","system_id":"levelo_inurba_marseille","lat":43.29985,"lon":5.3852,"is_reserved":false,"is_disabled":true,"rental_uris":{"android":"levelo://app?vid=078a6dc5-3c98-4f01-aecd-ecf8c0f132d9","ios":"levelo://app?vid=078a6dc5-3c98-4f01-aecd-ecf8c0f132d9"},"vehicle_type_id":"4","last_reported":1744344758,"current_range_meters":13600,"station_id":"ce4bgj92rcd13ifvqbd0","pricing_plan_id":"cebpf4jnsgd1na2vs0mg"},{"bike_id":"da6a57ea-c38f-48a5-89c8-6054329a947b","system_id":"levelo_inurba_marseille","lat":43.271781,"lon":5.409914,"is_reserved":false,"is_disabled":false,"rental_uris":{"android":"levelo://app?vid=da6a57ea-c38f-48a5-89c8-6054329a947b","ios":"levelo://app?vid=da6a57ea-c38f-48a5-89c8-6054329a947b"},"vehicle_type_id":"4","last_reported":1744344758,"current_range_meters":14000,"station_id":"ce4bhl12rcd13ifvqgf0","pricing_plan_id":"cebpf4jnsgd1na2vs0mg"},{"bike_id":"a737f5db-dfb3-4dd8-aeff-67617975e190","system_id":"levelo_inurba_marseille","lat":43.29599,"lon":5.37715,"is_reserved":false,"is_disabled":true,"rental_uris":{"android":"levelo://app?vid=a737f5db-dfb3-4dd8-aeff-67617975e190","ios":"levelo://app?vid=a737f5db-dfb3-4dd8-aeff-67617975e190"},"vehicle_type_id":"4","last_reported":1744344758,"current_range_meters":14000,"station_id":"ce4bgi92rcd13ifvqb90","pricing_plan_id":"cebpf4jnsgd1na2vs0mg"},{"bike_id":"88b76a37-b923-434f-94b0-a0e6250c97d1","system_id":"levelo_inurba_marseille","lat":43.30328,"lon":5.404423,"is_reserved":false,"is_disabled":false,"rental_uris":{"android":"levelo://app?vid=88b76a37-b923-434f-94b0-a0e6250c97d1","ios":"levelo://app?vid=88b76a37-b923-434f-94b0-a0e6250c97d1"},"vehicle_type_id":"4","last_reported":1744344758,"current_range_meters":14000,"station_id":"ce4bh012rcd13ifvqd10","pricing_plan_id":"cebpf4jnsgd1na2vs0mg"},{"bike_id":"94455896-0f19-4fae-bd72-9879f01fcd6e","system_id":"levelo_inurba_marseille","lat":43.29537,"lon":5.42285,"is_reserved":false,"is_disabled":true,"rental_uris":{"android":"levelo://app?vid=94455896-0f19-4fae-bd72-9879f01fcd6e","ios":"levelo://app?vid=94455896-0f19-4fae-bd72-9879f01fcd6e"},"vehicle_type_id":"4","last_reported":1744344758,"current_range_meters":14000,"station_id":"ce4bhph2rcd13ifvqhdg","pricing_plan_id":"cebpf4jnsgd1na2vs0mg"},{"bike_id":"e2caf266-2651-477b-85a4-aac441bb46ab","system_id":"levelo_inurba_marseille","lat":43.281035,"lon":5.378442,"is_reserved":false,"is_disabled":false,"rental_uris":{"android":"levelo://app?vid=e2caf266-2651-477b-85a4-aac441bb46ab","ios":"levelo://app?vid=e2caf266-2651-477b-85a4-aac441bb46ab"},"vehicle_type_id":"4","last_reported":1744344758,"current_range_meters":14000,"station_id":"ce4bha12rcd13ifvqee0","pricing_plan_id":"cebpf4jnsgd1na2vs0mg"},{"bike_id":"d1de17d8-8473-459c-ab85-65418194e22a","system_id":"levelo_inurba_marseille","lat":43.26559,"lon":5.39058,"is_reserved":false,"is_disabled":false,"rental_uris":{"android":"levelo://app?vid=d1de17d8-8473-459c-ab85-65418194e22a","ios":"levelo://app?vid=d1de17d8-8473-459c-ab85-65418194e22a"},"vehicle_type_id":"4","last_reported":1744344758,"current_range_meters":14400,"station_id":"ce4bhe12rcd13ifvqf30","pricing_plan_id":"cebpf4jnsgd1na2vs0mg"},{"bike_id":"1a8675f7-96a5-4fc2-8fd4-53f39f26b59b","system_id":"levelo_inurba_marseille","lat":43.32397,"lon":5.38997,"is_reserved":false,"is_disabled":false,"rental_uris":{"android":"levelo://app?vid=1a8675f7-96a5-4fc2-8fd4-53f39f26b59b","ios":"levelo://app?vid=1a8675f7-96a5-4fc2-8fd4-53f39f26b59b"},"vehicle_type_id":"4","last_reported":1744344758,"current_range_meters":14400,"station_id":"ce4bhr12rcd13ifvqhqg","pricing_plan_id":"cebpf4jnsgd1na2vs0mg"},{"bike_id":"182650a6-9433-4951-80ba-44b6e3878dab","system_id":"levelo_inurba_marseille","lat":43.305309,"lon":5.384189,"is_reserved":false,"is_disabled":true,"rental_uris":{"android":"levelo://app?vid=182650a6-9433-4951-80ba-44b6e3878dab","ios":"levelo://app?vid=182650a6-9433-4951-80ba-44b6e3878dab"},"vehicle_type_id":"4","last_reported":1744344758,"current_range_meters":14400,"station_id":"ce4bgg92rcd13ifvqb30","pricing_plan_id":"cebpf4jnsgd1na2vs0mg"},{"bike_id":"b44f7c5a-872e-47cb-9231-cd7a4e8aad72","system_id":"levelo_inurba_marseille","lat":43.297,"lon":5.36649,"is_reserved":false,"is_disabled":false,"rental_uris":{"android":"levelo://app?vid=b44f7c5a-872e-47cb-9231-cd7a4e8aad72","ios":"levelo://app?vid=b44f7c5a-872e-47cb-9231-cd7a4e8aad72"},"vehicle_type_id":"4","last_reported":1744344758,"current_range_meters":14400,"station_id":"ce4bgn12rcd13ifvqbt0","pricing_plan_id":"cebpf4jnsgd1na2vs0mg"},{"bike_id":"e6f2667a-967d-45e2-b958-44177a82c2c2","system_id":"levelo_inurba_marseille","lat":43.2794,"lon":5.41072,"is_reserved":false,"is_disabled":false,"rental_uris":{"android":"levelo://app?vid=e6f2667a-967d-45e2-b958-44177a82c2c2","ios":"levelo://app?vid=e6f2667a-967d-45e2-b958-44177a82c2c2"},"vehicle_type_id":"4","last_reported":1744344758,"current_range_meters":14800,"station_id":"ce4bhnp2rcd13ifvqh0g","pricing_plan_id":"cebpf4jnsgd1na2vs0mg"},{"bike_id":"965f43a6-4a0d-40a9-b4ab-5ea8390b4769","system_id":"levelo_inurba_marseille","lat":43.23192,"lon":5.39991,"is_reserved":false,"is_disabled":false,"rental_uris":{"android":"levelo://app?vid=965f43a6-4a0d-40a9-b4ab-5ea8390b4769","ios":"levelo://app?vid=965f43a6-4a0d-40a9-b4ab-5ea8390b4769"},"vehicle_type_id":"4","last_reported":1744344758,"current_range_meters":14800,"station_id":"ce4bhn12rcd13ifvqgqg","pricing_plan_id":"cebpf4jnsgd1na2vs0mg"},{"bike_id":"467924d9-889a-4591-a26d-c954ba0abb33","system_id":"levelo_inurba_marseille","lat":43.32381,"lon":5.38992,"is_reserved":false,"is_disabled":false,"rental_uris":{"android":"levelo://app?vid=467924d9-889a-4591-a26d-c954ba0abb33","ios":"levelo://app?vid=467924d9-889a-4591-a26d-c954ba0abb33"},"vehicle_type_id":"4","last_reported":1744344758,"current_range_meters":14800,"station_id":"","pricing_plan_id":"cebpf4jnsgd1na2vs0mg"},{"bike_id":"463b41fd-37bb-48c0-a6e4-12f737a3d7cf","system_id":"levelo_inurba_marseille","lat":43.26963,"lon":5.40243,"is_reserved":false,"is_disabled":true,"rental_uris":{"android":"levelo://app?vid=463b41fd-37bb-48c0-a6e4-12f737a3d7cf","ios":"levelo://app?vid=463b41fd-37bb-48c0-a6e4-12f737a3d7cf"},"vehicle_type_id":"4","last_reported":1744344758,"current_range_meters":14800,"station_id":"cjm6bp8fraef2m0cb0m0","pricing_plan_id":"cebpf4jnsgd1na2vs0mg"},{"bike_id":"923cd337-07e7-4598-88d9-f7475f9f2325","system_id":"levelo_inurba_marseille","lat":43.28096,"lon":5.3787,"is_reserved":false,"is_disabled":false,"rental_uris":{"android":"levelo://app?vid=923cd337-07e7-4598-88d9-f7475f9f2325","ios":"levelo://app?vid=923cd337-07e7-4598-88d9-f7475f9f2325"},"vehicle_type_id":"4","last_reported":1744344758,"current_range_meters":14800,"station_id":"ce4bha12rcd13ifvqee0","pricing_plan_id":"cebpf4jnsgd1na2vs0mg"},{"bike_id":"4eb301e2-77f1-4208-aa3a-82260449b4aa","system_id":"levelo_inurba_marseille","lat":43.30922,"lon":5.40185,"is_reserved":false,"is_disabled":false,"rental_uris":{"android":"levelo://app?vid=4eb301e2-77f1-4208-aa3a-82260449b4aa","ios":"levelo://app?vid=4eb301e2-77f1-4208-aa3a-82260449b4aa"},"vehicle_type_id":"4","last_reported":1744344758,"current_range_meters":14800,"station_id":"ce4bgvp2rcd13ifvqct0","pricing_plan_id":"cebpf4jnsgd1na2vs0mg"},{"bike_id":"5df14b04-bd3a-46d6-91f9-ce86b1f8ad51","system_id":"levelo_inurba_marseille","lat":43.30475,"lon":5.37919,"is_reserved":false,"is_disabled":false,"rental_uris":{"android":"levelo://app?vid=5df14b04-bd3a-46d6-91f9-ce86b1f8ad51","ios":"levelo://app?vid=5df14b04-bd3a-46d6-91f9-ce86b1f8ad51"},"vehicle_type_id":"4","last_reported":1744344758,"current_range_meters":14800,"station_id":"ce4bgup2rcd13ifvqcn0","pricing_plan_id":"cebpf4jnsgd1na2vs0mg"},{"bike_id":"ce452e81-7f28-415f-85bc-f32107dc6383","system_id":"levelo_inurba_marseille","lat":43.3235,"lon":5.40613,"is_reserved":false,"is_disabled":false,"rental_uris":{"android":"levelo://app?vid=ce452e81-7f28-415f-85bc-f32107dc6383","ios":"levelo://app?vid=ce452e81-7f28-415f-85bc-f32107dc6383"},"vehicle_type_id":"4","last_reported":1744344758,"current_range_meters":15200,"station_id":"ce4bhq92rcd13ifvqhjg","pricing_plan_id":"cebpf4jnsgd1na2vs0mg"},{"bike_id":"8805ec8a-501d-414a-afa7-02f93ec255f0","system_id":"levelo_inurba_marseille","lat":43.30778,"lon":5.38182,"is_reserved":false,"is_disabled":false,"rental_uris":{"android":"levelo://app?vid=8805ec8a-501d-414a-afa7-02f93ec255f0","ios":"levelo://app?vid=8805ec8a-501d-414a-afa7-02f93ec255f0"},"vehicle_type_id":"4","last_reported":1744344758,"current_range_meters":15200,"station_id":"ce4bgt12rcd13ifvqce0","pricing_plan_id":"cebpf4jnsgd1na2vs0mg"},{"bike_id":"3cc21430-ad05-4c1f-ae42-1925c305c6c3","system_id":"levelo_inurba_marseille","lat":43.281053,"lon":5.378399,"is_reserved":false,"is_disabled":false,"rental_uris":{"android":"levelo://app?vid=3cc21430-ad05-4c1f-ae42-1925c305c6c3","ios":"levelo://app?vid=3cc21430-ad05-4c1f-ae42-1925c305c6c3"},"vehicle_type_id":"4","last_reported":1744344758,"current_range_meters":15200,"station_id":"ce4bha12rcd13ifvqee0","pricing_plan_id":"cebpf4jnsgd1na2vs0mg"},{"bike_id":"d3d9cd65-8151-402d-bb2b-ab24c1581d73","system_id":"levelo_inurba_marseille","lat":43.32019,"lon":5.41538,"is_reserved":false,"is_disabled":false,"rental_uris":{"android":"levelo://app?vid=d3d9cd65-8151-402d-bb2b-ab24c1581d73","ios":"levelo://app?vid=d3d9cd65-8151-402d-bb2b-ab24c1581d73"},"vehicle_type_id":"4","last_reported":1744344758,"current_range_meters":15200,"station_id":"ce4bhq92rcd13ifvqhkg","pricing_plan_id":"cebpf4jnsgd1na2vs0mg"},{"bike_id":"736eddc2-3840-4903-8185-09191dc96ccf","system_id":"levelo_inurba_marseille","lat":43.287026,"lon":5.399812,"is_reserved":false,"is_disabled":false,"rental_uris":{"android":"levelo://app?vid=736eddc2-3840-4903-8185-09191dc96ccf","ios":"levelo://app?vid=736eddc2-3840-4903-8185-09191dc96ccf"},"vehicle_type_id":"4","last_reported":1744344758,"current_range_meters":15200,"station_id":"ce4bho92rcd13ifvqh3g","pricing_plan_id":"cebpf4jnsgd1na2vs0mg"},{"bike_id":"97e1cf13-6cae-4046-8135-09aeffc329ab","system_id":"levelo_inurba_marseille","lat":43.287009,"lon":5.37396,"is_reserved":false,"is_disabled":true,"rental_uris":{"android":"levelo://app?vid=97e1cf13-6cae-4046-8135-09aeffc329ab","ios":"levelo://app?vid=97e1cf13-6cae-4046-8135-09aeffc329ab"},"vehicle_type_id":"4","last_reported":1744344758,"current_range_meters":16000,"station_id":"ce4bh3p2rcd13ifvqdq0","pricing_plan_id":"cebpf4jnsgd1na2vs0mg"},{"bike_id":"35230919-daa6-49d3-a6a8-cf3871852fdd","system_id":"levelo_inurba_marseille","lat":43.2512,"lon":5.40335,"is_reserved":false,"is_disabled":false,"rental_uris":{"android":"levelo://app?vid=35230919-daa6-49d3-a6a8-cf3871852fdd","ios":"levelo://app?vid=35230919-daa6-49d3-a6a8-cf3871852fdd"},"vehicle_type_id":"4","last_reported":1744344758,"current_range_meters":16000,"station_id":"ce4bhlh2rcd13ifvqgig","pricing_plan_id":"cebpf4jnsgd1na2vs0mg"},{"bike_id":"627403f8-4468-4a41-8798-323347b58cc9","system_id":"levelo_inurba_marseille","lat":43.27179,"lon":5.40998,"is_reserved":false,"is_disabled":false,"rental_uris":{"android":"levelo://app?vid=627403f8-4468-4a41-8798-323347b58cc9","ios":"levelo://app?vid=627403f8-4468-4a41-8798-323347b58cc9"},"vehicle_type_id":"4","last_reported":1744344758,"current_range_meters":16000,"station_id":"ce4bhl12rcd13ifvqgf0","pricing_plan_id":"cebpf4jnsgd1na2vs0mg"},{"bike_id":"bbdb582d-0808-4364-9404-10888e8930c5","system_id":"levelo_inurba_marseille","lat":43.29033,"lon":5.39995,"is_reserved":false,"is_disabled":false,"rental_uris":{"android":"levelo://app?vid=bbdb582d-0808-4364-9404-10888e8930c5","ios":"levelo://app?vid=bbdb582d-0808-4364-9404-10888e8930c5"},"vehicle_type_id":"4","last_reported":1744344758,"current_range_meters":16000,"station_id":"ce4bh392rcd13ifvqdm0","pricing_plan_id":"cebpf4jnsgd1na2vs0mg"},{"bike_id":"09b23838-ef8a-400d-9175-f211d64a4290","system_id":"levelo_inurba_marseille","lat":43.25719,"lon":5.41112,"is_reserved":false,"is_disabled":false,"rental_uris":{"android":"levelo://app?vid=09b23838-ef8a-400d-9175-f211d64a4290","ios":"levelo://app?vid=09b23838-ef8a-400d-9175-f211d64a4290"},"vehicle_type_id":"4","last_reported":1744344758,"current_range_meters":16000,"station_id":"ce4bhkp2rcd13ifvqgd0","pricing_plan_id":"cebpf4jnsgd1na2vs0mg"},{"bike_id":"9231697b-6013-4739-8145-946afd92531f","system_id":"levelo_inurba_marseille","lat":43.30021,"lon":5.40023,"is_reserved":false,"is_disabled":false,"rental_uris":{"android":"levelo://app?vid=9231697b-6013-4739-8145-946afd92531f","ios":"levelo://app?vid=9231697b-6013-4739-8145-946afd92531f"},"vehicle_type_id":"4","last_reported":1744344758,"current_range_meters":16000,"station_id":"","pricing_plan_id":"cebpf4jnsgd1na2vs0mg"},{"bike_id":"1b28a96e-ff57-4bf5-85d0-8da089b3d3cd","system_id":"levelo_inurba_marseille","lat":43.266925,"lon":5.382627,"is_reserved":false,"is_disabled":true,"rental_uris":{"android":"levelo://app?vid=1b28a96e-ff57-4bf5-85d0-8da089b3d3cd","ios":"levelo://app?vid=1b28a96e-ff57-4bf5-85d0-8da089b3d3cd"},"vehicle_type_id":"4","last_reported":1744344758,"current_range_meters":16000,"station_id":"ce4bhg92rcd13ifvqf90","pricing_plan_id":"cebpf4jnsgd1na2vs0mg"},{"bike_id":"872c2c56-2ca2-429f-bf74-abf0a69eeaca","system_id":"levelo_inurba_marseille","lat":43.30437,"lon":5.38907,"is_reserved":false,"is_disabled":false,"rental_uris":{"android":"levelo://app?vid=872c2c56-2ca2-429f-bf74-abf0a69eeaca","ios":"levelo://app?vid=872c2c56-2ca2-429f-bf74-abf0a69eeaca"},"vehicle_type_id":"4","last_reported":1744344758,"current_range_meters":16000,"station_id":"ce4bgk12rcd13ifvqbi0","pricing_plan_id":"cebpf4jnsgd1na2vs0mg"},{"bike_id":"6d1f80b1-80e0-4012-99d1-3f8172cadb63","system_id":"levelo_inurba_marseille","lat":43.24167,"lon":5.36376,"is_reserved":false,"is_disabled":false,"rental_uris":{"android":"levelo://app?vid=6d1f80b1-80e0-4012-99d1-3f8172cadb63","ios":"levelo://app?vid=6d1f80b1-80e0-4012-99d1-3f8172cadb63"},"vehicle_type_id":"4","last_reported":1744344758,"current_range_meters":16000,"station_id":"cpo36qri1sfpv3e86is0","pricing_plan_id":"cebpf4jnsgd1na2vs0mg"},{"bike_id":"8901bb4b-63ee-41d7-825f-22963c0e6b59","system_id":"levelo_inurba_marseille","lat":43.30315,"lon":5.40451,"is_reserved":false,"is_disabled":false,"rental_uris":{"android":"levelo://app?vid=8901bb4b-63ee-41d7-825f-22963c0e6b59","ios":"levelo://app?vid=8901bb4b-63ee-41d7-825f-22963c0e6b59"},"vehicle_type_id":"4","last_reported":1744344758,"current_range_meters":16000,"station_id":"ce4bh012rcd13ifvqd10","pricing_plan_id":"cebpf4jnsgd1na2vs0mg"},{"bike_id":"5e7d0457-f5ee-4493-97f8-5a21f1298ee9","system_id":"levelo_inurba_marseille","lat":43.306432,"lon":5.400745,"is_reserved":false,"is_disabled":false,"rental_uris":{"android":"levelo://app?vid=5e7d0457-f5ee-4493-97f8-5a21f1298ee9","ios":"levelo://app?vid=5e7d0457-f5ee-4493-97f8-5a21f1298ee9"},"vehicle_type_id":"4","last_reported":1744344758,"current_range_meters":16000,"station_id":"ce4bh112rcd13ifvqda0","pricing_plan_id":"cebpf4jnsgd1na2vs0mg"},{"bike_id":"f67d7abe-c297-4957-b269-6e3ec729c773","system_id":"levelo_inurba_marseille","lat":43.2784,"lon":5.39219,"is_reserved":false,"is_disabled":false,"rental_uris":{"android":"levelo://app?vid=f67d7abe-c297-4957-b269-6e3ec729c773","ios":"levelo://app?vid=f67d7abe-c297-4957-b269-6e3ec729c773"},"vehicle_type_id":"4","last_reported":1744344758,"current_range_meters":16000,"station_id":"ce4bhjp2rcd13ifvqga0","pricing_plan_id":"cebpf4jnsgd1na2vs0mg"},{"bike_id":"d3733724-f81e-49a0-9b35-7f1e48992c30","system_id":"levelo_inurba_marseille","lat":43.318959,"lon":5.407316,"is_reserved":false,"is_disabled":false,"rental_uris":{"android":"levelo://app?vid=d3733724-f81e-49a0-9b35-7f1e48992c30","ios":"levelo://app?vid=d3733724-f81e-49a0-9b35-7f1e48992c30"},"vehicle_type_id":"4","last_reported":1744344758,"current_range_meters":16000,"station_id":"ce4bhq12rcd13ifvqhig","pricing_plan_id":"cebpf4jnsgd1na2vs0mg"},{"bike_id":"cd5cd798-03bf-4411-a16f-e7360d877391","system_id":"levelo_inurba_marseille","lat":43.27938,"lon":5.41062,"is_reserved":false,"is_disabled":false,"rental_uris":{"android":"levelo://app?vid=cd5cd798-03bf-4411-a16f-e7360d877391","ios":"levelo://app?vid=cd5cd798-03bf-4411-a16f-e7360d877391"},"vehicle_type_id":"4","last_reported":1744344758,"current_range_meters":16000,"station_id":"ce4bhnp2rcd13ifvqh0g","pricing_plan_id":"cebpf4jnsgd1na2vs0mg"},{"bike_id":"586d4bfc-c6e9-40ef-a5b4-76722cbc0f98","system_id":"levelo_inurba_marseille","lat":43.268065,"lon":5.402531,"is_reserved":false,"is_disabled":false,"rental_uris":{"android":"levelo://app?vid=586d4bfc-c6e9-40ef-a5b4-76722cbc0f98","ios":"levelo://app?vid=586d4bfc-c6e9-40ef-a5b4-76722cbc0f98"},"vehicle_type_id":"4","last_reported":1744344758,"current_range_meters":16400,"station_id":"ce501612rcd8frsf0b60","pricing_plan_id":"cebpf4jnsgd1na2vs0mg"},{"bike_id":"062b1ee1-d059-4792-8f14-745a52fbbd9b","system_id":"levelo_inurba_marseille","lat":43.30931,"lon":5.401449,"is_reserved":false,"is_disabled":false,"rental_uris":{"android":"levelo://app?vid=062b1ee1-d059-4792-8f14-745a52fbbd9b","ios":"levelo://app?vid=062b1ee1-d059-4792-8f14-745a52fbbd9b"},"vehicle_type_id":"4","last_reported":1744344758,"current_range_meters":16400,"station_id":"ce4bgvp2rcd13ifvqct0","pricing_plan_id":"cebpf4jnsgd1na2vs0mg"},{"bike_id":"7d3b44e2-e41b-45a7-b28a-d5034c0720d0","system_id":"levelo_inurba_marseille","lat":43.29041,"lon":5.39993,"is_reserved":false,"is_disabled":false,"rental_uris":{"android":"levelo://app?vid=7d3b44e2-e41b-45a7-b28a-d5034c0720d0","ios":"levelo://app?vid=7d3b44e2-e41b-45a7-b28a-d5034c0720d0"},"vehicle_type_id":"4","last_reported":1744344758,"current_range_meters":16400,"station_id":"ce4bh392rcd13ifvqdm0","pricing_plan_id":"cebpf4jnsgd1na2vs0mg"},{"bike_id":"549918be-d79a-4899-a870-6473907900ee","system_id":"levelo_inurba_marseille","lat":43.29851,"lon":5.36303,"is_reserved":false,"is_disabled":true,"rental_uris":{"android":"levelo://app?vid=549918be-d79a-4899-a870-6473907900ee","ios":"levelo://app?vid=549918be-d79a-4899-a870-6473907900ee"},"vehicle_type_id":"4","last_reported":1744344758,"current_range_meters":16400,"station_id":"ce4bgpp2rcd13ifvqc3g","pricing_plan_id":"cebpf4jnsgd1na2vs0mg"},{"bike_id":"0a12228f-61f9-48c1-9f2f-bd8159dce7a6","system_id":"levelo_inurba_marseille","lat":43.26181,"lon":5.37473,"is_reserved":false,"is_disabled":true,"rental_uris":{"android":"levelo://app?vid=0a12228f-61f9-48c1-9f2f-bd8159dce7a6","ios":"levelo://app?vid=0a12228f-61f9-48c1-9f2f-bd8159dce7a6"},"vehicle_type_id":"4","last_reported":1744344758,"current_range_meters":16400,"station_id":"ce4bhgp2rcd13ifvqfc0","pricing_plan_id":"cebpf4jnsgd1na2vs0mg"},{"bike_id":"c8552130-95bb-4240-8124-6420637dba94","system_id":"levelo_inurba_marseille","lat":43.28429,"lon":5.39191,"is_reserved":false,"is_disabled":false,"rental_uris":{"android":"levelo://app?vid=c8552130-95bb-4240-8124-6420637dba94","ios":"levelo://app?vid=c8552130-95bb-4240-8124-6420637dba94"},"vehicle_type_id":"4","last_reported":1744344758,"current_range_meters":16400,"station_id":"ce4bhoh2rcd13ifvqh5g","pricing_plan_id":"cebpf4jnsgd1na2vs0mg"},{"bike_id":"a165140a-6d67-490c-a0e6-9861ce3970d4","system_id":"levelo_inurba_marseille","lat":43.2715,"lon":5.407,"is_reserved":false,"is_disabled":false,"rental_uris":{"android":"levelo://app?vid=a165140a-6d67-490c-a0e6-9861ce3970d4","ios":"levelo://app?vid=a165140a-6d67-490c-a0e6-9861ce3970d4"},"vehicle_type_id":"4","last_reported":1744344758,"current_range_meters":16400,"station_id":"","pricing_plan_id":"cebpf4jnsgd1na2vs0mg"},{"bike_id":"0e71cfe5-d9f0-41e8-bfdf-03608f9bdb77","system_id":"levelo_inurba_marseille","lat":43.3093,"lon":5.40141,"is_reserved":false,"is_disabled":false,"rental_uris":{"android":"levelo://app?vid=0e71cfe5-d9f0-41e8-bfdf-03608f9bdb77","ios":"levelo://app?vid=0e71cfe5-d9f0-41e8-bfdf-03608f9bdb77"},"vehicle_type_id":"4","last_reported":1744344758,"current_range_meters":16400,"station_id":"ce4bgvp2rcd13ifvqct0","pricing_plan_id":"cebpf4jnsgd1na2vs0mg"},{"bike_id":"55f56f92-131a-48ea-be0d-6935144846b3","system_id":"levelo_inurba_marseille","lat":43.310779,"lon":5.424349,"is_reserved":false,"is_disabled":false,"rental_uris":{"android":"levelo://app?vid=55f56f92-131a-48ea-be0d-6935144846b3","ios":"levelo://app?vid=55f56f92-131a-48ea-be0d-6935144846b3"},"vehicle_type_id":"4","last_reported":1744344758,"current_range_meters":16400,"station_id":"ce4bhp92rcd13ifvqhag","pricing_plan_id":"cebpf4jnsgd1na2vs0mg"},{"bike_id":"7dae892c-e628-48ac-a4f7-362869bb9d1b","system_id":"levelo_inurba_marseille","lat":43.309306,"lon":5.401397,"is_reserved":false,"is_disabled":false,"rental_uris":{"android":"levelo://app?vid=7dae892c-e628-48ac-a4f7-362869bb9d1b","ios":"levelo://app?vid=7dae892c-e628-48ac-a4f7-362869bb9d1b"},"vehicle_type_id":"4","last_reported":1744344758,"current_range_meters":16400,"station_id":"ce4bgvp2rcd13ifvqct0","pricing_plan_id":"cebpf4jnsgd1na2vs0mg"},{"bike_id":"6596d3ef-1fb1-4021-b608-c5c3a532ea65","system_id":"levelo_inurba_marseille","lat":43.306406,"lon":5.40072,"is_reserved":false,"is_disabled":false,"rental_uris":{"android":"levelo://app?vid=6596d3ef-1fb1-4021-b608-c5c3a532ea65","ios":"levelo://app?vid=6596d3ef-1fb1-4021-b608-c5c3a532ea65"},"vehicle_type_id":"4","last_reported":1744344758,"current_range_meters":16800,"station_id":"ce4bh112rcd13ifvqda0","pricing_plan_id":"cebpf4jnsgd1na2vs0mg"},{"bike_id":"4c893399-b4ed-40ed-a49f-713da320f269","system_id":"levelo_inurba_marseille","lat":43.29861,"lon":5.37841,"is_reserved":false,"is_disabled":false,"rental_uris":{"android":"levelo://app?vid=4c893399-b4ed-40ed-a49f-713da320f269","ios":"levelo://app?vid=4c893399-b4ed-40ed-a49f-713da320f269"},"vehicle_type_id":"4","last_reported":1744344758,"current_range_meters":16800,"station_id":"","pricing_plan_id":"cebpf4jnsgd1na2vs0mg"},{"bike_id":"8c58f2fa-99e1-41f8-bf90-9c1648b679b1","system_id":"levelo_inurba_marseille","lat":43.27301,"lon":5.41493,"is_reserved":false,"is_disabled":false,"rental_uris":{"android":"levelo://app?vid=8c58f2fa-99e1-41f8-bf90-9c1648b679b1","ios":"levelo://app?vid=8c58f2fa-99e1-41f8-bf90-9c1648b679b1"},"vehicle_type_id":"4","last_reported":1744344758,"current_range_meters":16800,"station_id":"","pricing_plan_id":"cebpf4jnsgd1na2vs0mg"},{"bike_id":"ef291804-1477-432e-b153-82ea15725418","system_id":"levelo_inurba_marseille","lat":43.33742,"lon":5.37454,"is_reserved":false,"is_disabled":false,"rental_uris":{"android":"levelo://app?vid=ef291804-1477-432e-b153-82ea15725418","ios":"levelo://app?vid=ef291804-1477-432e-b153-82ea15725418"},"vehicle_type_id":"4","last_reported":1744344758,"current_range_meters":17200,"station_id":"","pricing_plan_id":"cebpf4jnsgd1na2vs0mg"},{"bike_id":"3c30d560-4424-42f3-861d-9100e4177d69","system_id":"levelo_inurba_marseille","lat":43.29885,"lon":5.39736,"is_reserved":false,"is_disabled":false,"rental_uris":{"android":"levelo://app?vid=3c30d560-4424-42f3-861d-9100e4177d69","ios":"levelo://app?vid=3c30d560-4424-42f3-861d-9100e4177d69"},"vehicle_type_id":"4","last_reported":1744344758,"current_range_meters":17200,"station_id":"ce4bh0h2rcd13ifvqd50","pricing_plan_id":"cebpf4jnsgd1na2vs0mg"},{"bike_id":"bd26530b-0f92-4e11-b8b3-926bb281a2c1","system_id":"levelo_inurba_marseille","lat":43.308068,"lon":5.381506,"is_reserved":false,"is_disabled":false,"rental_uris":{"android":"levelo://app?vid=bd26530b-0f92-4e11-b8b3-926bb281a2c1","ios":"levelo://app?vid=bd26530b-0f92-4e11-b8b3-926bb281a2c1"},"vehicle_type_id":"4","last_reported":1744344758,"current_range_meters":17600,"station_id":"ce4bgt12rcd13ifvqce0","pricing_plan_id":"cebpf4jnsgd1na2vs0mg"},{"bike_id":"54a7d26a-c5f8-4008-b945-bcc5a036c746","system_id":"levelo_inurba_marseille","lat":43.23317,"lon":5.361527,"is_reserved":false,"is_disabled":false,"rental_uris":{"android":"levelo://app?vid=54a7d26a-c5f8-4008-b945-bcc5a036c746","ios":"levelo://app?vid=54a7d26a-c5f8-4008-b945-bcc5a036c746"},"vehicle_type_id":"4","last_reported":1744344758,"current_range_meters":17600,"station_id":"","pricing_plan_id":"cebpf4jnsgd1na2vs0mg"},{"bike_id":"1167028c-7459-4619-b0df-13900c4ef2cf","system_id":"levelo_inurba_marseille","lat":43.35274,"lon":5.36415,"is_reserved":false,"is_disabled":false,"rental_uris":{"android":"levelo://app?vid=1167028c-7459-4619-b0df-13900c4ef2cf","ios":"levelo://app?vid=1167028c-7459-4619-b0df-13900c4ef2cf"},"vehicle_type_id":"4","last_reported":1744344758,"current_range_meters":17600,"station_id":"","pricing_plan_id":"cebpf4jnsgd1na2vs0mg"},{"bike_id":"f4c869aa-66cd-4d6c-8b94-ecf6ae1111a8","system_id":"levelo_inurba_marseille","lat":43.29487,"lon":5.41832,"is_reserved":false,"is_disabled":true,"rental_uris":{"android":"levelo://app?vid=f4c869aa-66cd-4d6c-8b94-ecf6ae1111a8","ios":"levelo://app?vid=f4c869aa-66cd-4d6c-8b94-ecf6ae1111a8"},"vehicle_type_id":"4","last_reported":1744344758,"current_range_meters":17600,"station_id":"","pricing_plan_id":"cebpf4jnsgd1na2vs0mg"},{"bike_id":"c0e1eb8b-6b19-424f-be34-f40f3fc1efbf","system_id":"levelo_inurba_marseille","lat":43.30441,"lon":5.38891,"is_reserved":false,"is_disabled":false,"rental_uris":{"android":"levelo://app?vid=c0e1eb8b-6b19-424f-be34-f40f3fc1efbf","ios":"levelo://app?vid=c0e1eb8b-6b19-424f-be34-f40f3fc1efbf"},"vehicle_type_id":"4","last_reported":1744344758,"current_range_meters":17600,"station_id":"ce4bgk12rcd13ifvqbi0","pricing_plan_id":"cebpf4jnsgd1na2vs0mg"},{"bike_id":"6fda0caf-a8ef-4887-bf2f-6a004969b4f2","system_id":"levelo_inurba_marseille","lat":43.31489,"lon":5.37311,"is_reserved":false,"is_disabled":false,"rental_uris":{"android":"levelo://app?vid=6fda0caf-a8ef-4887-bf2f-6a004969b4f2","ios":"levelo://app?vid=6fda0caf-a8ef-4887-bf2f-6a004969b4f2"},"vehicle_type_id":"4","last_reported":1744344758,"current_range_meters":17600,"station_id":"ce4bgt12rcd13ifvqcd0","pricing_plan_id":"cebpf4jnsgd1na2vs0mg"},{"bike_id":"72a9dab1-164a-4342-ab13-5fc5b2ea5c60","system_id":"levelo_inurba_marseille","lat":43.29005,"lon":5.38149,"is_reserved":false,"is_disabled":true,"rental_uris":{"android":"levelo://app?vid=72a9dab1-164a-4342-ab13-5fc5b2ea5c60","ios":"levelo://app?vid=72a9dab1-164a-4342-ab13-5fc5b2ea5c60"},"vehicle_type_id":"4","last_reported":1744344758,"current_range_meters":17600,"station_id":"ce4bh4p2rcd13ifvqe1g","pricing_plan_id":"cebpf4jnsgd1na2vs0mg"},{"bike_id":"100f371f-9ccb-4f09-89d9-390909d12e47","system_id":"levelo_inurba_marseille","lat":43.29783,"lon":5.39345,"is_reserved":false,"is_disabled":false,"rental_uris":{"android":"levelo://app?vid=100f371f-9ccb-4f09-89d9-390909d12e47","ios":"levelo://app?vid=100f371f-9ccb-4f09-89d9-390909d12e47"},"vehicle_type_id":"4","last_reported":1744344758,"current_range_meters":17600,"station_id":"chh1huq6cuj3fo74tm60","pricing_plan_id":"cebpf4jnsgd1na2vs0mg"},{"bike_id":"2b22fed0-411d-45e5-8213-1ed68bfe78ac","system_id":"levelo_inurba_marseille","lat":43.23178,"lon":5.3999,"is_reserved":false,"is_disabled":false,"rental_uris":{"android":"levelo://app?vid=2b22fed0-411d-45e5-8213-1ed68bfe78ac","ios":"levelo://app?vid=2b22fed0-411d-45e5-8213-1ed68bfe78ac"},"vehicle_type_id":"4","last_reported":1744344758,"current_range_meters":17600,"station_id":"ce4bhn12rcd13ifvqgqg","pricing_plan_id":"cebpf4jnsgd1na2vs0mg"},{"bike_id":"0b038a1f-e858-436e-a7a1-95f6b304f9a8","system_id":"levelo_inurba_marseille","lat":43.23192,"lon":5.40001,"is_reserved":false,"is_disabled":false,"rental_uris":{"android":"levelo://app?vid=0b038a1f-e858-436e-a7a1-95f6b304f9a8","ios":"levelo://app?vid=0b038a1f-e858-436e-a7a1-95f6b304f9a8"},"vehicle_type_id":"4","last_reported":1744344758,"current_range_meters":17600,"station_id":"ce4bhn12rcd13ifvqgqg","pricing_plan_id":"cebpf4jnsgd1na2vs0mg"},{"bike_id":"56b60e90-433b-438c-8ce1-d14fdb2623f9","system_id":"levelo_inurba_marseille","lat":43.30921,"lon":5.40166,"is_reserved":false,"is_disabled":false,"rental_uris":{"android":"levelo://app?vid=56b60e90-433b-438c-8ce1-d14fdb2623f9","ios":"levelo://app?vid=56b60e90-433b-438c-8ce1-d14fdb2623f9"},"vehicle_type_id":"4","last_reported":1744344758,"current_range_meters":17600,"station_id":"ce4bgvp2rcd13ifvqct0","pricing_plan_id":"cebpf4jnsgd1na2vs0mg"},{"bike_id":"aa36dfbf-f715-4783-bab7-c3482fffd87d","system_id":"levelo_inurba_marseille","lat":43.30622,"lon":5.40106,"is_reserved":false,"is_disabled":false,"rental_uris":{"android":"levelo://app?vid=aa36dfbf-f715-4783-bab7-c3482fffd87d","ios":"levelo://app?vid=aa36dfbf-f715-4783-bab7-c3482fffd87d"},"vehicle_type_id":"4","last_reported":1744344758,"current_range_meters":17600,"station_id":"ce4bh112rcd13ifvqda0","pricing_plan_id":"cebpf4jnsgd1na2vs0mg"},{"bike_id":"afabcd61-0ae7-4011-ae42-d486774f83ff","system_id":"levelo_inurba_marseille","lat":43.33771,"lon":5.37465,"is_reserved":false,"is_disabled":false,"rental_uris":{"android":"levelo://app?vid=afabcd61-0ae7-4011-ae42-d486774f83ff","ios":"levelo://app?vid=afabcd61-0ae7-4011-ae42-d486774f83ff"},"vehicle_type_id":"4","last_reported":1744344758,"current_range_meters":17600,"station_id":"","pricing_plan_id":"cebpf4jnsgd1na2vs0mg"},{"bike_id":"4f4de84c-1176-4d21-abc8-1518f353f391","system_id":"levelo_inurba_marseille","lat":43.28407,"lon":5.37521,"is_reserved":false,"is_disabled":false,"rental_uris":{"android":"levelo://app?vid=4f4de84c-1176-4d21-abc8-1518f353f391","ios":"levelo://app?vid=4f4de84c-1176-4d21-abc8-1518f353f391"},"vehicle_type_id":"4","last_reported":1744344758,"current_range_meters":17600,"station_id":"ce4bh412rcd13ifvqds0","pricing_plan_id":"cebpf4jnsgd1na2vs0mg"},{"bike_id":"b23c94b8-d5d3-4e0b-8152-41fe9d7297e8","system_id":"levelo_inurba_marseille","lat":43.3234,"lon":5.36776,"is_reserved":false,"is_disabled":false,"rental_uris":{"android":"levelo://app?vid=b23c94b8-d5d3-4e0b-8152-41fe9d7297e8","ios":"levelo://app?vid=b23c94b8-d5d3-4e0b-8152-41fe9d7297e8"},"vehicle_type_id":"4","last_reported":1744344758,"current_range_meters":18000,"station_id":"ce4bhsh2rcd13ifvqi2g","pricing_plan_id":"cebpf4jnsgd1na2vs0mg"},{"bike_id":"ac6f3f78-a447-485b-a3d1-0fde050e38a0","system_id":"levelo_inurba_marseille","lat":43.28397,"lon":5.37532,"is_reserved":false,"is_disabled":false,"rental_uris":{"android":"levelo://app?vid=ac6f3f78-a447-485b-a3d1-0fde050e38a0","ios":"levelo://app?vid=ac6f3f78-a447-485b-a3d1-0fde050e38a0"},"vehicle_type_id":"4","last_reported":1744344758,"current_range_meters":18000,"station_id":"ce4bh412rcd13ifvqds0","pricing_plan_id":"cebpf4jnsgd1na2vs0mg"},{"bike_id":"217beddd-cd4c-4ed9-a5ca-13d55da6e6eb","system_id":"levelo_inurba_marseille","lat":43.31128,"lon":5.37766,"is_reserved":false,"is_disabled":false,"rental_uris":{"android":"levelo://app?vid=217beddd-cd4c-4ed9-a5ca-13d55da6e6eb","ios":"levelo://app?vid=217beddd-cd4c-4ed9-a5ca-13d55da6e6eb"},"vehicle_type_id":"4","last_reported":1744344758,"current_range_meters":18000,"station_id":"ce4bgt92rcd13ifvqcg0","pricing_plan_id":"cebpf4jnsgd1na2vs0mg"},{"bike_id":"84b31b9a-3639-4a49-ba1b-b8657db4f117","system_id":"levelo_inurba_marseille","lat":43.308989,"lon":5.368643,"is_reserved":false,"is_disabled":true,"rental_uris":{"android":"levelo://app?vid=84b31b9a-3639-4a49-ba1b-b8657db4f117","ios":"levelo://app?vid=84b31b9a-3639-4a49-ba1b-b8657db4f117"},"vehicle_type_id":"4","last_reported":1744344758,"current_range_meters":18000,"station_id":"ce4bgn92rcd13ifvqbvg","pricing_plan_id":"cebpf4jnsgd1na2vs0mg"},{"bike_id":"a14445a7-8352-4579-b436-c4c39505d461","system_id":"levelo_inurba_marseille","lat":43.31325,"lon":5.396859,"is_reserved":false,"is_disabled":false,"rental_uris":{"android":"levelo://app?vid=a14445a7-8352-4579-b436-c4c39505d461","ios":"levelo://app?vid=a14445a7-8352-4579-b436-c4c39505d461"},"vehicle_type_id":"4","last_reported":1744344758,"current_range_meters":18000,"station_id":"ce4bgvp2rcd13ifvqcu0","pricing_plan_id":"cebpf4jnsgd1na2vs0mg"},{"bike_id":"38eb924a-c0a1-47a8-a85d-d2b9a789cafb","system_id":"levelo_inurba_marseille","lat":43.251227,"lon":5.403193,"is_reserved":false,"is_disabled":false,"rental_uris":{"android":"levelo://app?vid=38eb924a-c0a1-47a8-a85d-d2b9a789cafb","ios":"levelo://app?vid=38eb924a-c0a1-47a8-a85d-d2b9a789cafb"},"vehicle_type_id":"4","last_reported":1744344758,"current_range_meters":18800,"station_id":"ce4bhlh2rcd13ifvqgig","pricing_plan_id":"cebpf4jnsgd1na2vs0mg"},{"bike_id":"46437bc3-d6e2-4d0e-9af4-ba573ce7dfb3","system_id":"levelo_inurba_marseille","lat":43.309206,"lon":5.401426,"is_reserved":false,"is_disabled":false,"rental_uris":{"android":"levelo://app?vid=46437bc3-d6e2-4d0e-9af4-ba573ce7dfb3","ios":"levelo://app?vid=46437bc3-d6e2-4d0e-9af4-ba573ce7dfb3"},"vehicle_type_id":"4","last_reported":1744344758,"current_range_meters":18800,"station_id":"ce4bgvp2rcd13ifvqct0","pricing_plan_id":"cebpf4jnsgd1na2vs0mg"},{"bike_id":"17060317-2020-46da-b8d8-1bcd183ddced","system_id":"levelo_inurba_marseille","lat":43.29806,"lon":5.40406,"is_reserved":false,"is_disabled":false,"rental_uris":{"android":"levelo://app?vid=17060317-2020-46da-b8d8-1bcd183ddced","ios":"levelo://app?vid=17060317-2020-46da-b8d8-1bcd183ddced"},"vehicle_type_id":"4","last_reported":1744344758,"current_range_meters":18800,"station_id":"ce4bh112rcd13ifvqd90","pricing_plan_id":"cebpf4jnsgd1na2vs0mg"},{"bike_id":"fe56b600-c810-44df-bbdd-7b227f972d12","system_id":"levelo_inurba_marseille","lat":43.2511,"lon":5.40323,"is_reserved":false,"is_disabled":false,"rental_uris":{"android":"levelo://app?vid=fe56b600-c810-44df-bbdd-7b227f972d12","ios":"levelo://app?vid=fe56b600-c810-44df-bbdd-7b227f972d12"},"vehicle_type_id":"4","last_reported":1744344758,"current_range_meters":18800,"station_id":"ce4bhnh2rcd13ifvqgug","pricing_plan_id":"cebpf4jnsgd1na2vs0mg"},{"bike_id":"94285f83-3b5d-462b-97b6-1d5eba6c8ae0","system_id":"levelo_inurba_marseille","lat":43.3046,"lon":5.3791,"is_reserved":false,"is_disabled":false,"rental_uris":{"android":"levelo://app?vid=94285f83-3b5d-462b-97b6-1d5eba6c8ae0","ios":"levelo://app?vid=94285f83-3b5d-462b-97b6-1d5eba6c8ae0"},"vehicle_type_id":"4","last_reported":1744344758,"current_range_meters":18800,"station_id":"ce4bgup2rcd13ifvqcn0","pricing_plan_id":"cebpf4jnsgd1na2vs0mg"},{"bike_id":"6c89a360-ebfb-4f12-9f06-0ea498422bcf","system_id":"levelo_inurba_marseille","lat":43.28662,"lon":5.36363,"is_reserved":false,"is_disabled":false,"rental_uris":{"android":"levelo://app?vid=6c89a360-ebfb-4f12-9f06-0ea498422bcf","ios":"levelo://app?vid=6c89a360-ebfb-4f12-9f06-0ea498422bcf"},"vehicle_type_id":"4","last_reported":1744344758,"current_range_meters":18800,"station_id":"ce4bhah2rcd13ifvqej0","pricing_plan_id":"cebpf4jnsgd1na2vs0mg"},{"bike_id":"0e7bf4ae-5aed-4055-a1f8-96debbb9847e","system_id":"levelo_inurba_marseille","lat":43.24172,"lon":5.3641,"is_reserved":false,"is_disabled":false,"rental_uris":{"android":"levelo://app?vid=0e7bf4ae-5aed-4055-a1f8-96debbb9847e","ios":"levelo://app?vid=0e7bf4ae-5aed-4055-a1f8-96debbb9847e"},"vehicle_type_id":"4","last_reported":1744344758,"current_range_meters":18800,"station_id":"cpo36qri1sfpv3e86is0","pricing_plan_id":"cebpf4jnsgd1na2vs0mg"},{"bike_id":"fd7bf403-f44e-49bc-add2-9071b0ca820b","system_id":"levelo_inurba_marseille","lat":43.26502,"lon":5.39571,"is_reserved":false,"is_disabled":false,"rental_uris":{"android":"levelo://app?vid=fd7bf403-f44e-49bc-add2-9071b0ca820b","ios":"levelo://app?vid=fd7bf403-f44e-49bc-add2-9071b0ca820b"},"vehicle_type_id":"4","last_reported":1744344758,"current_range_meters":18800,"station_id":"ce4bhi12rcd13ifvqfq0","pricing_plan_id":"cebpf4jnsgd1na2vs0mg"},{"bike_id":"5b77a833-8185-45c2-9fe3-07eb40df54ca","system_id":"levelo_inurba_marseille","lat":43.33995,"lon":5.38057,"is_reserved":false,"is_disabled":false,"rental_uris":{"android":"levelo://app?vid=5b77a833-8185-45c2-9fe3-07eb40df54ca","ios":"levelo://app?vid=5b77a833-8185-45c2-9fe3-07eb40df54ca"},"vehicle_type_id":"4","last_reported":1744344758,"current_range_meters":18800,"station_id":"","pricing_plan_id":"cebpf4jnsgd1na2vs0mg"},{"bike_id":"eb137e41-b7c3-4dbb-8c1a-f2852147a346","system_id":"levelo_inurba_marseille","lat":43.31283,"lon":5.40159,"is_reserved":false,"is_disabled":false,"rental_uris":{"android":"levelo://app?vid=eb137e41-b7c3-4dbb-8c1a-f2852147a346","ios":"levelo://app?vid=eb137e41-b7c3-4dbb-8c1a-f2852147a346"},"vehicle_type_id":"4","last_reported":1744344758,"current_range_meters":19200,"station_id":"ce4bh092rcd13ifvqd30","pricing_plan_id":"cebpf4jnsgd1na2vs0mg"},{"bike_id":"b9af6bbc-652a-42b6-a5ee-69693e5e4583","system_id":"levelo_inurba_marseille","lat":43.283694,"lon":5.386281,"is_reserved":false,"is_disabled":false,"rental_uris":{"android":"levelo://app?vid=b9af6bbc-652a-42b6-a5ee-69693e5e4583","ios":"levelo://app?vid=b9af6bbc-652a-42b6-a5ee-69693e5e4583"},"vehicle_type_id":"4","last_reported":1744344758,"current_range_meters":19200,"station_id":"ce4bh492rcd13ifvqdvg","pricing_plan_id":"cebpf4jnsgd1na2vs0mg"},{"bike_id":"90e2b8c4-48de-4087-92b6-327b079b2968","system_id":"levelo_inurba_marseille","lat":43.28699,"lon":5.39986,"is_reserved":false,"is_disabled":false,"rental_uris":{"android":"levelo://app?vid=90e2b8c4-48de-4087-92b6-327b079b2968","ios":"levelo://app?vid=90e2b8c4-48de-4087-92b6-327b079b2968"},"vehicle_type_id":"4","last_reported":1744344758,"current_range_meters":19200,"station_id":"ce4bho92rcd13ifvqh3g","pricing_plan_id":"cebpf4jnsgd1na2vs0mg"},{"bike_id":"39c199bd-8c3f-4896-8ebc-d237fb06a7ff","system_id":"levelo_inurba_marseille","lat":43.247942,"lon":5.374575,"is_reserved":false,"is_disabled":false,"rental_uris":{"android":"levelo://app?vid=39c199bd-8c3f-4896-8ebc-d237fb06a7ff","ios":"levelo://app?vid=39c199bd-8c3f-4896-8ebc-d237fb06a7ff"},"vehicle_type_id":"4","last_reported":1744344758,"current_range_meters":19200,"station_id":"ce4bhgh2rcd13ifvqfb0","pricing_plan_id":"cebpf4jnsgd1na2vs0mg"},{"bike_id":"4a27859c-6b99-4afc-ada0-05caa7b965ad","system_id":"levelo_inurba_marseille","lat":43.279563,"lon":5.38753,"is_reserved":false,"is_disabled":false,"rental_uris":{"android":"levelo://app?vid=4a27859c-6b99-4afc-ada0-05caa7b965ad","ios":"levelo://app?vid=4a27859c-6b99-4afc-ada0-05caa7b965ad"},"vehicle_type_id":"4","last_reported":1744344758,"current_range_meters":19200,"station_id":"ce4bhg12rcd13ifvqf80","pricing_plan_id":"cebpf4jnsgd1na2vs0mg"},{"bike_id":"7accb9a4-44d3-4ba3-b3b9-089a266ab8a9","system_id":"levelo_inurba_marseille","lat":43.287081,"lon":5.399887,"is_reserved":false,"is_disabled":false,"rental_uris":{"android":"levelo://app?vid=7accb9a4-44d3-4ba3-b3b9-089a266ab8a9","ios":"levelo://app?vid=7accb9a4-44d3-4ba3-b3b9-089a266ab8a9"},"vehicle_type_id":"4","last_reported":1744344758,"current_range_meters":19200,"station_id":"ce4bho92rcd13ifvqh3g","pricing_plan_id":"cebpf4jnsgd1na2vs0mg"},{"bike_id":"c7618aae-a918-4dbc-9908-a066748aae03","system_id":"levelo_inurba_marseille","lat":43.295133,"lon":5.393958,"is_reserved":false,"is_disabled":true,"rental_uris":{"android":"levelo://app?vid=c7618aae-a918-4dbc-9908-a066748aae03","ios":"levelo://app?vid=c7618aae-a918-4dbc-9908-a066748aae03"},"vehicle_type_id":"4","last_reported":1744344758,"current_range_meters":19600,"station_id":"ce4bh292rcd13ifvqdf0","pricing_plan_id":"cebpf4jnsgd1na2vs0mg"},{"bike_id":"7c4545c3-c1b1-465e-91cc-14a8c8097af0","system_id":"levelo_inurba_marseille","lat":43.30609,"lon":5.39358,"is_reserved":false,"is_disabled":true,"rental_uris":{"android":"levelo://app?vid=7c4545c3-c1b1-465e-91cc-14a8c8097af0","ios":"levelo://app?vid=7c4545c3-c1b1-465e-91cc-14a8c8097af0"},"vehicle_type_id":"4","last_reported":1744344758,"current_range_meters":19600,"station_id":"ce4bh0p2rcd13ifvqd80","pricing_plan_id":"cebpf4jnsgd1na2vs0mg"},{"bike_id":"7a5c9c76-4e30-46ad-a0c8-64088d059970","system_id":"levelo_inurba_marseille","lat":43.2408,"lon":5.37735,"is_reserved":false,"is_disabled":false,"rental_uris":{"android":"levelo://app?vid=7a5c9c76-4e30-46ad-a0c8-64088d059970","ios":"levelo://app?vid=7a5c9c76-4e30-46ad-a0c8-64088d059970"},"vehicle_type_id":"4","last_reported":1744344758,"current_range_meters":19600,"station_id":"ce4bhnp2rcd13ifvqgvg","pricing_plan_id":"cebpf4jnsgd1na2vs0mg"},{"bike_id":"9c068bc2-47c8-40c8-b9e7-a0fdc34e2ed7","system_id":"levelo_inurba_marseille","lat":43.308036,"lon":5.381511,"is_reserved":false,"is_disabled":false,"rental_uris":{"android":"levelo://app?vid=9c068bc2-47c8-40c8-b9e7-a0fdc34e2ed7","ios":"levelo://app?vid=9c068bc2-47c8-40c8-b9e7-a0fdc34e2ed7"},"vehicle_type_id":"4","last_reported":1744344758,"current_range_meters":19600,"station_id":"ce4bgt12rcd13ifvqce0","pricing_plan_id":"cebpf4jnsgd1na2vs0mg"},{"bike_id":"0c6f1472-f240-483d-b5dd-14617235d047","system_id":"levelo_inurba_marseille","lat":43.3015,"lon":5.38082,"is_reserved":false,"is_disabled":false,"rental_uris":{"android":"levelo://app?vid=0c6f1472-f240-483d-b5dd-14617235d047","ios":"levelo://app?vid=0c6f1472-f240-483d-b5dd-14617235d047"},"vehicle_type_id":"4","last_reported":1744344758,"current_range_meters":20000,"station_id":"ce4bgjp2rcd13ifvqbh0","pricing_plan_id":"cebpf4jnsgd1na2vs0mg"},{"bike_id":"ae2b16a9-bf4c-4094-9fda-8d249d692cd8","system_id":"levelo_inurba_marseille","lat":43.295064,"lon":5.417848,"is_reserved":false,"is_disabled":false,"rental_uris":{"android":"levelo://app?vid=ae2b16a9-bf4c-4094-9fda-8d249d692cd8","ios":"levelo://app?vid=ae2b16a9-bf4c-4094-9fda-8d249d692cd8"},"vehicle_type_id":"4","last_reported":1744344758,"current_range_meters":20000,"station_id":"","pricing_plan_id":"cebpf4jnsgd1na2vs0mg"},{"bike_id":"772d659d-a13b-46dd-a26c-3b011bf76ef1","system_id":"levelo_inurba_marseille","lat":43.30648,"lon":5.40094,"is_reserved":false,"is_disabled":false,"rental_uris":{"android":"levelo://app?vid=772d659d-a13b-46dd-a26c-3b011bf76ef1","ios":"levelo://app?vid=772d659d-a13b-46dd-a26c-3b011bf76ef1"},"vehicle_type_id":"4","last_reported":1744344758,"current_range_meters":20000,"station_id":"ce4bh112rcd13ifvqda0","pricing_plan_id":"cebpf4jnsgd1na2vs0mg"},{"bike_id":"8be5fbd6-08b3-4bca-a4f6-a440bb49d90f","system_id":"levelo_inurba_marseille","lat":43.279441,"lon":5.410505,"is_reserved":false,"is_disabled":false,"rental_uris":{"android":"levelo://app?vid=8be5fbd6-08b3-4bca-a4f6-a440bb49d90f","ios":"levelo://app?vid=8be5fbd6-08b3-4bca-a4f6-a440bb49d90f"},"vehicle_type_id":"4","last_reported":1744344758,"current_range_meters":20000,"station_id":"ce4bhnp2rcd13ifvqh0g","pricing_plan_id":"cebpf4jnsgd1na2vs0mg"},{"bike_id":"54efb31a-9abc-4304-a382-f972e36723b5","system_id":"levelo_inurba_marseille","lat":43.27892,"lon":5.38009,"is_reserved":false,"is_disabled":false,"rental_uris":{"android":"levelo://app?vid=54efb31a-9abc-4304-a382-f972e36723b5","ios":"levelo://app?vid=54efb31a-9abc-4304-a382-f972e36723b5"},"vehicle_type_id":"4","last_reported":1744344758,"current_range_meters":20000,"station_id":"ce4bhf92rcd13ifvqf50","pricing_plan_id":"cebpf4jnsgd1na2vs0mg"},{"bike_id":"a52d7977-ba45-464c-88c5-c9fa8f536b42","system_id":"levelo_inurba_marseille","lat":43.22503,"lon":5.347864,"is_reserved":false,"is_disabled":false,"rental_uris":{"android":"levelo://app?vid=a52d7977-ba45-464c-88c5-c9fa8f536b42","ios":"levelo://app?vid=a52d7977-ba45-464c-88c5-c9fa8f536b42"},"vehicle_type_id":"4","last_reported":1744344758,"current_range_meters":20000,"station_id":"st_cvj5dfep6f1abm77gieg","pricing_plan_id":"cebpf4jnsgd1na2vs0mg"},{"bike_id":"38bb33d8-577c-4490-b19e-3126b11bb352","system_id":"levelo_inurba_marseille","lat":43.30936,"lon":5.4015,"is_reserved":false,"is_disabled":false,"rental_uris":{"android":"levelo://app?vid=38bb33d8-577c-4490-b19e-3126b11bb352","ios":"levelo://app?vid=38bb33d8-577c-4490-b19e-3126b11bb352"},"vehicle_type_id":"4","last_reported":1744344758,"current_range_meters":20000,"station_id":"ce4bgvp2rcd13ifvqct0","pricing_plan_id":"cebpf4jnsgd1na2vs0mg"},{"bike_id":"44ea3182-88eb-4a7d-bbc8-aa868967f1bc","system_id":"levelo_inurba_marseille","lat":43.3202,"lon":5.36738,"is_reserved":false,"is_disabled":false,"rental_uris":{"android":"levelo://app?vid=44ea3182-88eb-4a7d-bbc8-aa868967f1bc","ios":"levelo://app?vid=44ea3182-88eb-4a7d-bbc8-aa868967f1bc"},"vehicle_type_id":"4","last_reported":1744344758,"current_range_meters":20000,"station_id":"","pricing_plan_id":"cebpf4jnsgd1na2vs0mg"},{"bike_id":"90cddebc-2506-42ee-9df1-36a6154dff75","system_id":"levelo_inurba_marseille","lat":43.24161,"lon":5.36413,"is_reserved":false,"is_disabled":false,"rental_uris":{"android":"levelo://app?vid=90cddebc-2506-42ee-9df1-36a6154dff75","ios":"levelo://app?vid=90cddebc-2506-42ee-9df1-36a6154dff75"},"vehicle_type_id":"4","last_reported":1744344758,"current_range_meters":20000,"station_id":"cpo36qri1sfpv3e86is0","pricing_plan_id":"cebpf4jnsgd1na2vs0mg"},{"bike_id":"6da7ed18-5a5f-467e-8b00-c46a534110a8","system_id":"levelo_inurba_marseille","lat":43.29894,"lon":5.43645,"is_reserved":false,"is_disabled":false,"rental_uris":{"android":"levelo://app?vid=6da7ed18-5a5f-467e-8b00-c46a534110a8","ios":"levelo://app?vid=6da7ed18-5a5f-467e-8b00-c46a534110a8"},"vehicle_type_id":"4","last_reported":1744344758,"current_range_meters":20400,"station_id":"ce4bhpp2rcd13ifvqhfg","pricing_plan_id":"cebpf4jnsgd1na2vs0mg"},{"bike_id":"e13de261-883a-4080-affc-a7ed7ac621f8","system_id":"levelo_inurba_marseille","lat":43.30922,"lon":5.40156,"is_reserved":false,"is_disabled":false,"rental_uris":{"android":"levelo://app?vid=e13de261-883a-4080-affc-a7ed7ac621f8","ios":"levelo://app?vid=e13de261-883a-4080-affc-a7ed7ac621f8"},"vehicle_type_id":"4","last_reported":1744344758,"current_range_meters":20400,"station_id":"ce4bgvp2rcd13ifvqct0","pricing_plan_id":"cebpf4jnsgd1na2vs0mg"},