{"last_updated":1740319652,"ttl":60,"version":"2.2","data":{"bikes":[{"bike_id":"7fec3c84-f7c1-498f-b188-a99fae96cb2b","system_id":"levelo_inurba_marseille","lat":43.29215,"lon":5.36038,"is_reserved":false,"is_disabled":false,"rental_uris":{"android":"levelo://app?vid=7fec3c84-f7c1-498f-b188-a99fae96cb2b","ios":"levelo://app?vid=7fec3c84-f7c1-498f-b188-a99fae96cb2b"},"vehicle_type_id":"4","last_reported":1740319652,"current_range_meters":2800,"station_id":"ce4bhbh2rcd13ifvqeqg","pricing_plan_id":"cebpf4jnsgd1na2vs0mg"},{"bike_id":"79c427d0-b1d1-4cf9-847b-bd9dcc006e2b","system_id":"levelo_inurba_marseille","lat":43.258652,"lon":5.39886,"is_reserved":false,"is_disabled":false,"rental_uris":{"android":"levelo://app?vid=79c427d0-b1d1-4cf9-847b-bd9dcc006e2b","ios":"levelo://app?vid=79c427d0-b1d1-4cf9-847b-bd9dcc006e2b"},"vehicle_type_id":"4","last_reported":1740319652,"current_range_meters":2800,"station_id":"ce4bhl92rcd13ifvqghg","pricing_plan_id":"cebpf4jnsgd1na2vs0mg"},{"bike_id":"91cd9c50-a708-4ca7-8c38-9684716b8855","system_id":"levelo_inurba_marseille","lat":43.33786,"lon":5.37437,"is_reserved":false,"is_disabled":false,"rental_uris":{"android":"levelo://app?vid=91cd9c50-a708-4ca7-8c38-9684716b8855","ios":"levelo://app?vid=91cd9c50-a708-4ca7-8c38-9684716b8855"},"vehicle_type_id":"4","last_reported":1740319652,"current_range_meters":3600,"station_id":"","pricing_plan_id":"cebpf4jnsgd1na2vs0mg"},{"bike_id":"395caf72-dd35-4100-8b6c-5fce3b375197","system_id":"levelo_inurba_marseille","lat":43.29848,"lon":5.36284,"is_reserved":false,"is_disabled":false,"rental_uris":{"android":"levelo://app?vid=395caf72-dd35-4100-8b6c-5fce3b375197","ios":"levelo://app?vid=395caf72-dd35-4100-8b6c-5fce3b375197"},"vehicle_type_id":"4","last_reported":1740319652,"current_range_meters":3600,"station_id":"ce4bgpp2rcd13ifvqc3g","pricing_plan_id":"cebpf4jnsgd1na2vs0mg"},{"bike_id":"5772a8af-fe8b-4cee-b16b-ab998dde510c","system_id":"levelo_inurba_marseille","lat":43.30982,"lon":5.40183,"is_reserved":false,"is_disabled":false,"rental_uris":{"android":"levelo://app?vid=5772a8af-fe8b-4cee-b16b-ab998dde510c","ios":"levelo://app?vid=5772a8af-fe8b-4cee-b16b-ab998dde510c"},"vehicle_type_id":"4","last_reported":1740319652,"current_range_meters":3600,"station_id":"","pricing_plan_id":"cebpf4jnsgd1na2vs0mg"},{"bike_id":"62c0c2ac-aa70-41d9-9e60-e47d3a21e71f","system_id":"levelo_inurba_marseille","lat":43.29273,"lon":5.36852,"is_reserved":false,"is_disabled":false,"rental_uris":{"android":"levelo://app?vid=62c0c2ac-aa70-41d9-9e60-e47d3a21e71f","ios":"levelo://app?vid=62c0c2ac-aa70-41d9-9e60-e47d3a21e71f"},"vehicle_type_id":"4","last_reported":1740319652,"current_range_meters":4400,"station_id":"ce4bhbp2rcd13ifvqesg","pricing_plan_id":"cebpf4jnsgd1na2vs0mg"},{"bike_id":"ab46b189-6bae-4129-a7fd-10b3ccd5a48e","system_id":"levelo_inurba_marseille","lat":43.272,"lon":5.4,"is_reserved":false,"is_disabled":false,"rental_uris":{"android":"levelo://app?vid=ab46b189-6bae-4129-a7fd-10b3ccd5a48e","ios":"levelo://app?vid=ab46b189-6bae-4129-a7fd-10b3ccd5a48e"},"vehicle_type_id":"4","last_reported":1740319652,"current_range_meters":4400,"station_id":"","pricing_plan_id":"cebpf4jnsgd1na2vs0mg"},{"bike_id":"fa83beb1-2405-4db0-9826-c091cb751783","system_id":"levelo_inurba_marseille","lat":43.25096,"lon":5.40323,"is_reserved":false,"is_disabled":true,"rental_uris":{"android":"levelo://app?vid=fa83beb1-2405-4db0-9826-c091cb751783","ios":"levelo://app?vid=fa83beb1-2405-4db0-9826-c091cb751783"},"vehicle_type_id":"4","last_reported":1740319652,"current_range_meters":4400,"station_id":"ce4bhlh2rcd13ifvqgig","pricing_plan_id":"cebpf4jnsgd1na2vs0mg"},{"bike_id":"5c4e1d7e-4360-4967-a289-9ca0ccdc8e82","system_id":"levelo_inurba_marseille","lat":43.29932,"lon":5.36554,"is_reserved":false,"is_disabled":false,"rental_uris":{"android":"levelo://app?vid=5c4e1d7e-4360-4967-a289-9ca0ccdc8e82","ios":"levelo://app?vid=5c4e1d7e-4360-4967-a289-9ca0ccdc8e82"},"vehicle_type_id":"4","last_reported":1740319652,"current_range_meters":4800,"station_id":"ce4bgm92rcd13ifvqbr0","pricing_plan_id":"cebpf4jnsgd1na2vs0mg"},{"bike_id":"ffcc9844-13cc-4a0f-bf05-5f6f7ee73691","system_id":"levelo_inurba_marseille","lat":43.28613,"lon":5.35105,"is_reserved":false,"is_disabled":false,"rental_uris":{"android":"levelo://app?vid=ffcc9844-13cc-4a0f-bf05-5f6f7ee73691","ios":"levelo://app?vid=ffcc9844-13cc-4a0f-bf05-5f6f7ee73691"},"vehicle_type_id":"4","last_reported":1740319652,"current_range_meters":4800,"station_id":"ce4bhch2rcd13ifvqeug","pricing_plan_id":"cebpf4jnsgd1na2vs0mg"},{"bike_id":"d6868d56-c5c0-470c-ab6e-b31ddd65ab07","system_id":"levelo_inurba_marseille","lat":43.28713,"lon":5.39978,"is_reserved":false,"is_disabled":false,"rental_uris":{"android":"levelo://app?vid=d6868d56-c5c0-470c-ab6e-b31ddd65ab07","ios":"levelo://app?vid=d6868d56-c5c0-470c-ab6e-b31ddd65ab07"},"vehicle_type_id":"4","last_reported":1740319652,"current_range_meters":5600,"station_id":"ce4bho92rcd13ifvqh3g","pricing_plan_id":"cebpf4jnsgd1na2vs0mg"},{"bike_id":"3d4b3468-7d16-483f-8715-2c2d3fcb7db6","system_id":"levelo_inurba_marseille","lat":43.25097,"lon":5.40372,"is_reserved":false,"is_disabled":false,"rental_uris":{"android":"levelo://app?vid=3d4b3468-7d16-483f-8715-2c2d3fcb7db6","ios":"levelo://app?vid=3d4b3468-7d16-483f-8715-2c2d3fcb7db6"},"vehicle_type_id":"4","last_reported":1740319652,"current_range_meters":5600,"station_id":"ce4bhlh2rcd13ifvqgig","pricing_plan_id":"cebpf4jnsgd1na2vs0mg"},{"bike_id":"d5015d39-44fd-4360-87fa-3d78dfff65ad","system_id":"levelo_inurba_marseille","lat":43.27992,"lon":5.41658,"is_reserved":false,"is_disabled":false,"rental_uris":{"android":"levelo://app?vid=d5015d39-44fd-4360-87fa-3d78dfff65ad","ios":"levelo://app?vid=d5015d39-44fd-4360-87fa-3d78dfff65ad"},"vehicle_type_id":"4","last_reported":1740319652,"current_range_meters":5600,"station_id":"ce4bho12rcd13ifvqh1g","pricing_plan_id":"cebpf4jnsgd1na2vs0mg"},{"bike_id":"aa0e3288-aaac-4830-a1d7-6c8c3e45e36f","system_id":"levelo_inurba_marseille","lat":43.26551,"lon":5.37286,"is_reserved":false,"is_disabled":false,"rental_uris":{"android":"levelo://app?vid=aa0e3288-aaac-4830-a1d7-6c8c3e45e36f","ios":"levelo://app?vid=aa0e3288-aaac-4830-a1d7-6c8c3e45e36f"},"vehicle_type_id":"4","last_reported":1740319652,"current_range_meters":5600,"station_id":"ce4bhg12rcd13ifvqf70","pricing_plan_id":"cebpf4jnsgd1na2vs0mg"},{"bike_id":"c0eb7731-415d-4d31-b872-c50c7ef99c9f","system_id":"levelo_inurba_marseille","lat":43.27218,"lon":5.39206,"is_reserved":false,"is_disabled":false,"rental_uris":{"android":"levelo://app?vid=c0eb7731-415d-4d31-b872-c50c7ef99c9f","ios":"levelo://app?vid=c0eb7731-415d-4d31-b872-c50c7ef99c9f"},"vehicle_type_id":"4","last_reported":1740319652,"current_range_meters":6000,"station_id":"ce4bhhp2rcd13ifvqfm0","pricing_plan_id":"cebpf4jnsgd1na2vs0mg"},{"bike_id":"f32fe46d-1120-4c2c-97c5-cdbf2de4ccec","system_id":"levelo_inurba_marseille","lat":43.259454,"lon":5.408909,"is_reserved":false,"is_disabled":false,"rental_uris":{"android":"levelo://app?vid=f32fe46d-1120-4c2c-97c5-cdbf2de4ccec","ios":"levelo://app?vid=f32fe46d-1120-4c2c-97c5-cdbf2de4ccec"},"vehicle_type_id":"4","last_reported":1740319652,"current_range_meters":6000,"station_id":"ce4bhm92rcd13ifvqglg","pricing_plan_id":"cebpf4jnsgd1na2vs0mg"},{"bike_id":"d292a1a3-87fe-4d35-a377-62a1e32d2ef9","system_id":"levelo_inurba_marseille","lat":43.28271,"lon":5.35055,"is_reserved":false,"is_disabled":false,"rental_uris":{"android":"levelo://app?vid=d292a1a3-87fe-4d35-a377-62a1e32d2ef9","ios":"levelo://app?vid=d292a1a3-87fe-4d35-a377-62a1e32d2ef9"},"vehicle_type_id":"4","last_reported":1740319652,"current_range_meters":6000,"station_id":"ce4bhbp2rcd13ifvqerg","pricing_plan_id":"cebpf4jnsgd1na2vs0mg"},{"bike_id":"0c46a59a-710b-4d55-a0bd-6494860b12e3","system_id":"levelo_inurba_marseille","lat":43.217375,"lon":5.346199,"is_reserved":false,"is_disabled":false,"rental_uris":{"android":"levelo://app?vid=0c46a59a-710b-4d55-a0bd-6494860b12e3","ios":"levelo://app?vid=0c46a59a-710b-4d55-a0bd-6494860b12e3"},"vehicle_type_id":"4","last_reported":1740319652,"current_range_meters":6000,"station_id":"ce4bgjh2rcd13ifvqbg0","pricing_plan_id":"cebpf4jnsgd1na2vs0mg"},{"bike_id":"498fd156-74e1-4d37-a852-67eabfe4e583","system_id":"levelo_inurba_marseille","lat":43.24673,"lon":5.38153,"is_reserved":false,"is_disabled":false,"rental_uris":{"android":"levelo://app?vid=498fd156-74e1-4d37-a852-67eabfe4e583","ios":"levelo://app?vid=498fd156-74e1-4d37-a852-67eabfe4e583"},"vehicle_type_id":"4","last_reported":1740319652,"current_range_meters":6400,"station_id":"ce4bhih2rcd13ifvqfr0","pricing_plan_id":"cebpf4jnsgd1na2vs0mg"},{"bike_id":"91dbf563-1a8a-411b-af95-51ba538b1126","system_id":"levelo_inurba_marseille","lat":43.2396,"lon":5.36617,"is_reserved":false,"is_disabled":false,"rental_uris":{"android":"levelo://app?vid=91dbf563-1a8a-411b-af95-51ba538b1126","ios":"levelo://app?vid=91dbf563-1a8a-411b-af95-51ba538b1126"},"vehicle_type_id":"4","last_reported":1740319652,"current_range_meters":6400,"station_id":"ce4bhi12rcd13ifvqfp0","pricing_plan_id":"cebpf4jnsgd1na2vs0mg"},{"bike_id":"2a7165b4-60a1-4418-90cd-83d9915280e2","system_id":"levelo_inurba_marseille","lat":43.28019,"lon":5.40605,"is_reserved":false,"is_disabled":false,"rental_uris":{"android":"levelo://app?vid=2a7165b4-60a1-4418-90cd-83d9915280e2","ios":"levelo://app?vid=2a7165b4-60a1-4418-90cd-83d9915280e2"},"vehicle_type_id":"4","last_reported":1740319652,"current_range_meters":6400,"station_id":"","pricing_plan_id":"cebpf4jnsgd1na2vs0mg"},{"bike_id":"9116b8ac-629d-459b-b44d-248b2c2649b7","system_id":"levelo_inurba_marseille","lat":43.279403,"lon":5.410407,"is_reserved":false,"is_disabled":true,"rental_uris":{"android":"levelo://app?vid=9116b8ac-629d-459b-b44d-248b2c2649b7","ios":"levelo://app?vid=9116b8ac-629d-459b-b44d-248b2c2649b7"},"vehicle_type_id":"4","last_reported":1740319652,"current_range_meters":6400,"station_id":"ce4bhnp2rcd13ifvqh0g","pricing_plan_id":"cebpf4jnsgd1na2vs0mg"},{"bike_id":"d366e43e-2081-470b-b108-feb7e6ca4202","system_id":"levelo_inurba_marseille","lat":43.2827,"lon":5.35073,"is_reserved":false,"is_disabled":false,"rental_uris":{"android":"levelo://app?vid=d366e43e-2081-470b-b108-feb7e6ca4202","ios":"levelo://app?vid=d366e43e-2081-470b-b108-feb7e6ca4202"},"vehicle_type_id":"4","last_reported":1740319652,"current_range_meters":6400,"station_id":"ce4bhbp2rcd13ifvqerg","pricing_plan_id":"cebpf4jnsgd1na2vs0mg"},{"bike_id":"6d48938c-9b80-49b7-89e5-950ba7a6ce63","system_id":"levelo_inurba_marseille","lat":43.25937,"lon":5.40912,"is_reserved":false,"is_disabled":false,"rental_uris":{"android":"levelo://app?vid=6d48938c-9b80-49b7-89e5-950ba7a6ce63","ios":"levelo://app?vid=6d48938c-9b80-49b7-89e5-950ba7a6ce63"},"vehicle_type_id":"4","last_reported":1740319652,"current_range_meters":6400,"station_id":"ce4bhm92rcd13ifvqglg","pricing_plan_id":"cebpf4jnsgd1na2vs0mg"},{"bike_id":"1341cea5-85e6-47ca-a4a5-86bf6d280b10","system_id":"levelo_inurba_marseille","lat":43.27366,"lon":5.36255,"is_reserved":false,"is_disabled":false,"rental_uris":{"android":"levelo://app?vid=1341cea5-85e6-47ca-a4a5-86bf6d280b10","ios":"levelo://app?vid=1341cea5-85e6-47ca-a4a5-86bf6d280b10"},"vehicle_type_id":"4","last_reported":1740319652,"current_range_meters":6400,"station_id":"ce4bhbh2rcd13ifvqeo0","pricing_plan_id":"cebpf4jnsgd1na2vs0mg"},{"bike_id":"4144aa9b-c02a-4ec4-b371-46062209b576","system_id":"levelo_inurba_marseille","lat":43.294159,"lon":5.38619,"is_reserved":false,"is_disabled":false,"rental_uris":{"android":"levelo://app?vid=4144aa9b-c02a-4ec4-b371-46062209b576","ios":"levelo://app?vid=4144aa9b-c02a-4ec4-b371-46062209b576"},"vehicle_type_id":"4","last_reported":1740319652,"current_range_meters":6400,"station_id":"ce4bh2h2rcd13ifvqdh0","pricing_plan_id":"cebpf4jnsgd1na2vs0mg"},{"bike_id":"ddbb1c56-9870-4231-b735-ca6f231bf9f0","system_id":"levelo_inurba_marseille","lat":43.2407,"lon":5.37761,"is_reserved":false,"is_disabled":false,"rental_uris":{"android":"levelo://app?vid=ddbb1c56-9870-4231-b735-ca6f231bf9f0","ios":"levelo://app?vid=ddbb1c56-9870-4231-b735-ca6f231bf9f0"},"vehicle_type_id":"4","last_reported":1740319652,"current_range_meters":6400,"station_id":"ce4bhnp2rcd13ifvqgvg","pricing_plan_id":"cebpf4jnsgd1na2vs0mg"},{"bike_id":"b985ad1f-1942-453b-b5eb-7462cafd1e31","system_id":"levelo_inurba_marseille","lat":43.23187,"lon":5.35559,"is_reserved":false,"is_disabled":false,"rental_uris":{"android":"levelo://app?vid=b985ad1f-1942-453b-b5eb-7462cafd1e31","ios":"levelo://app?vid=b985ad1f-1942-453b-b5eb-7462cafd1e31"},"vehicle_type_id":"4","last_reported":1740319652,"current_range_meters":6400,"station_id":"ce4bhu92rcd13ifvqi70","pricing_plan_id":"cebpf4jnsgd1na2vs0mg"},{"bike_id":"b91e0f62-9be8-4516-b6c1-6012e213690c","system_id":"levelo_inurba_marseille","lat":43.25116,"lon":5.40318,"is_reserved":false,"is_disabled":false,"rental_uris":{"android":"levelo://app?vid=b91e0f62-9be8-4516-b6c1-6012e213690c","ios":"levelo://app?vid=b91e0f62-9be8-4516-b6c1-6012e213690c"},"vehicle_type_id":"4","last_reported":1740319652,"current_range_meters":6800,"station_id":"ce4bhlh2rcd13ifvqgig","pricing_plan_id":"cebpf4jnsgd1na2vs0mg"},{"bike_id":"2e4d9ef6-4dd9-45eb-8687-42db3850d70a","system_id":"levelo_inurba_marseille","lat":43.27465,"lon":5.40783,"is_reserved":false,"is_disabled":false,"rental_uris":{"android":"levelo://app?vid=2e4d9ef6-4dd9-45eb-8687-42db3850d70a","ios":"levelo://app?vid=2e4d9ef6-4dd9-45eb-8687-42db3850d70a"},"vehicle_type_id":"4","last_reported":1740319652,"current_range_meters":6800,"station_id":"","pricing_plan_id":"cebpf4jnsgd1na2vs0mg"},{"bike_id":"d7f85e65-5126-4f47-9b50-b524ec8b70e1","system_id":"levelo_inurba_marseille","lat":43.29269,"lon":5.3684,"is_reserved":false,"is_disabled":false,"rental_uris":{"android":"levelo://app?vid=d7f85e65-5126-4f47-9b50-b524ec8b70e1","ios":"levelo://app?vid=d7f85e65-5126-4f47-9b50-b524ec8b70e1"},"vehicle_type_id":"4","last_reported":1740319652,"current_range_meters":6800,"station_id":"ce4bhbp2rcd13ifvqesg","pricing_plan_id":"cebpf4jnsgd1na2vs0mg"},{"bike_id":"a6639e28-84d8-4d2a-99b4-962f190f3758","system_id":"levelo_inurba_marseille","lat":43.26205,"lon":5.37444,"is_reserved":false,"is_disabled":false,"rental_uris":{"android":"levelo://app?vid=a6639e28-84d8-4d2a-99b4-962f190f3758","ios":"levelo://app?vid=a6639e28-84d8-4d2a-99b4-962f190f3758"},"vehicle_type_id":"4","last_reported":1740319652,"current_range_meters":7200,"station_id":"ce4bhgp2rcd13ifvqfc0","pricing_plan_id":"cebpf4jnsgd1na2vs0mg"},{"bike_id":"eaa833da-d08a-4459-92f0-bbfc51bf0623","system_id":"levelo_inurba_marseille","lat":43.2827,"lon":5.35081,"is_reserved":false,"is_disabled":false,"rental_uris":{"android":"levelo://app?vid=eaa833da-d08a-4459-92f0-bbfc51bf0623","ios":"levelo://app?vid=eaa833da-d08a-4459-92f0-bbfc51bf0623"},"vehicle_type_id":"4","last_reported":1740319652,"current_range_meters":7200,"station_id":"ce4bhbp2rcd13ifvqerg","pricing_plan_id":"cebpf4jnsgd1na2vs0mg"},{"bike_id":"4d91e9cd-324f-4f64-bafc-9441a28051c5","system_id":"levelo_inurba_marseille","lat":43.28268,"lon":5.35092,"is_reserved":false,"is_disabled":false,"rental_uris":{"android":"levelo://app?vid=4d91e9cd-324f-4f64-bafc-9441a28051c5","ios":"levelo://app?vid=4d91e9cd-324f-4f64-bafc-9441a28051c5"},"vehicle_type_id":"4","last_reported":1740319652,"current_range_meters":7200,"station_id":"ce4bhbp2rcd13ifvqerg","pricing_plan_id":"cebpf4jnsgd1na2vs0mg"},{"bike_id":"f4c73116-43d3-41d9-88bb-9461dbbb405f","system_id":"levelo_inurba_marseille","lat":43.25443,"lon":5.41571,"is_reserved":false,"is_disabled":false,"rental_uris":{"android":"levelo://app?vid=f4c73116-43d3-41d9-88bb-9461dbbb405f","ios":"levelo://app?vid=f4c73116-43d3-41d9-88bb-9461dbbb405f"},"vehicle_type_id":"4","last_reported":1740319652,"current_range_meters":7200,"station_id":"","pricing_plan_id":"cebpf4jnsgd1na2vs0mg"},{"bike_id":"1d4a2f67-5f7c-4550-87dd-1b4d03caeb26","system_id":"levelo_inurba_marseille","lat":43.30948,"lon":5.39037,"is_reserved":false,"is_disabled":false,"rental_uris":{"android":"levelo://app?vid=1d4a2f67-5f7c-4550-87dd-1b4d03caeb26","ios":"levelo://app?vid=1d4a2f67-5f7c-4550-87dd-1b4d03caeb26"},"vehicle_type_id":"4","last_reported":1740319652,"current_range_meters":7200,"station_id":"ce4bgup2rcd13ifvqco0","pricing_plan_id":"cebpf4jnsgd1na2vs0mg"},{"bike_id":"b3026796-ee60-4276-99b1-e0877edc9db0","system_id":"levelo_inurba_marseille","lat":43.2407,"lon":5.37755,"is_reserved":false,"is_disabled":false,"rental_uris":{"android":"levelo://app?vid=b3026796-ee60-4276-99b1-e0877edc9db0","ios":"levelo://app?vid=b3026796-ee60-4276-99b1-e0877edc9db0"},"vehicle_type_id":"4","last_reported":1740319652,"current_range_meters":7200,"station_id":"ce4bhnp2rcd13ifvqgvg","pricing_plan_id":"cebpf4jnsgd1na2vs0mg"},{"bike_id":"cc7e6ba9-8c4b-4862-a209-561315924157","system_id":"levelo_inurba_marseille","lat":43.34146,"lon":5.40895,"is_reserved":false,"is_disabled":false,"rental_uris":{"android":"levelo://app?vid=cc7e6ba9-8c4b-4862-a209-561315924157","ios":"levelo://app?vid=cc7e6ba9-8c4b-4862-a209-561315924157"},"vehicle_type_id":"4","last_reported":1740319652,"current_range_meters":7200,"station_id":"ce4bhqh2rcd13ifvqhlg","pricing_plan_id":"cebpf4jnsgd1na2vs0mg"},{"bike_id":"1284377d-613e-4b0e-b8b9-30807af03316","system_id":"levelo_inurba_marseille","lat":43.27827,"lon":5.39196,"is_reserved":false,"is_disabled":true,"rental_uris":{"android":"levelo://app?vid=1284377d-613e-4b0e-b8b9-30807af03316","ios":"levelo://app?vid=1284377d-613e-4b0e-b8b9-30807af03316"},"vehicle_type_id":"4","last_reported":1740319652,"current_range_meters":7200,"station_id":"ce4bhjp2rcd13ifvqga0","pricing_plan_id":"cebpf4jnsgd1na2vs0mg"},{"bike_id":"827ec7e5-1ae5-45b8-890e-b6822ea9bc11","system_id":"levelo_inurba_marseille","lat":43.23959,"lon":5.36629,"is_reserved":false,"is_disabled":false,"rental_uris":{"android":"levelo://app?vid=827ec7e5-1ae5-45b8-890e-b6822ea9bc11","ios":"levelo://app?vid=827ec7e5-1ae5-45b8-890e-b6822ea9bc11"},"vehicle_type_id":"4","last_reported":1740319652,"current_range_meters":7200,"station_id":"ce4bhi12rcd13ifvqfp0","pricing_plan_id":"cebpf4jnsgd1na2vs0mg"},{"bike_id":"519c0d90-c598-4074-9c80-d5e1565ff705","system_id":"levelo_inurba_marseille","lat":43.23064,"lon":5.35507,"is_reserved":false,"is_disabled":false,"rental_uris":{"android":"levelo://app?vid=519c0d90-c598-4074-9c80-d5e1565ff705","ios":"levelo://app?vid=519c0d90-c598-4074-9c80-d5e1565ff705"},"vehicle_type_id":"4","last_reported":1740319652,"current_range_meters":8000,"station_id":"cpo3342slgdg3j2ifvpg","pricing_plan_id":"cebpf4jnsgd1na2vs0mg"},{"bike_id":"ee0f64a5-b0d4-4bef-9ddd-873290d45b48","system_id":"levelo_inurba_marseille","lat":43.25501,"lon":5.37654,"is_reserved":false,"is_disabled":false,"rental_uris":{"android":"levelo://app?vid=ee0f64a5-b0d4-4bef-9ddd-873290d45b48","ios":"levelo://app?vid=ee0f64a5-b0d4-4bef-9ddd-873290d45b48"},"vehicle_type_id":"4","last_reported":1740319652,"current_range_meters":8000,"station_id":"ce4bhh12rcd13ifvqff0","pricing_plan_id":"cebpf4jnsgd1na2vs0mg"},{"bike_id":"0b35ef10-1d1d-4e8a-949e-c3122c5e3874","system_id":"levelo_inurba_marseille","lat":43.23948,"lon":5.36632,"is_reserved":false,"is_disabled":false,"rental_uris":{"android":"levelo://app?vid=0b35ef10-1d1d-4e8a-949e-c3122c5e3874","ios":"levelo://app?vid=0b35ef10-1d1d-4e8a-949e-c3122c5e3874"},"vehicle_type_id":"4","last_reported":1740319652,"current_range_meters":8000,"station_id":"ce4bhi12rcd13ifvqfp0","pricing_plan_id":"cebpf4jnsgd1na2vs0mg"},{"bike_id":"8f8610d0-ce9c-4c78-83d8-e69ee57c9a5e","system_id":"levelo_inurba_marseille","lat":43.30931,"lon":5.4015,"is_reserved":false,"is_disabled":false,"rental_uris":{"android":"levelo://app?vid=8f8610d0-ce9c-4c78-83d8-e69ee57c9a5e","ios":"levelo://app?vid=8f8610d0-ce9c-4c78-83d8-e69ee57c9a5e"},"vehicle_type_id":"4","last_reported":1740319652,"current_range_meters":7200,"station_id":"ce4bgvp2rcd13ifvqct0","pricing_plan_id":"cebpf4jnsgd1na2vs0mg"},{"bike_id":"074a8113-e323-4485-94ff-42bb9ce3b359","system_id":"levelo_inurba_marseille","lat":43.23962,"lon":5.36617,"is_reserved":false,"is_disabled":false,"rental_uris":{"android":"levelo://app?vid=074a8113-e323-4485-94ff-42bb9ce3b359","ios":"levelo://app?vid=074a8113-e323-4485-94ff-42bb9ce3b359"},"vehicle_type_id":"4","last_reported":1740319652,"current_range_meters":8000,"station_id":"ce4bhi12rcd13ifvqfp0","pricing_plan_id":"cebpf4jnsgd1na2vs0mg"},{"bike_id":"7dbbdb94-3c59-40e9-872a-f95d3e6a0bf5","system_id":"levelo_inurba_marseille","lat":43.27172,"lon":5.40992,"is_reserved":false,"is_disabled":false,"rental_uris":{"android":"levelo://app?vid=7dbbdb94-3c59-40e9-872a-f95d3e6a0bf5","ios":"levelo://app?vid=7dbbdb94-3c59-40e9-872a-f95d3e6a0bf5"},"vehicle_type_id":"4","last_reported":1740319652,"current_range_meters":7200,"station_id":"ce4bhl12rcd13ifvqgf0","pricing_plan_id":"cebpf4jnsgd1na2vs0mg"},{"bike_id":"590c2d4d-a6f8-41f2-86bc-cf779452c419","system_id":"levelo_inurba_marseille","lat":43.27175,"lon":5.41007,"is_reserved":false,"is_disabled":false,"rental_uris":{"android":"levelo://app?vid=590c2d4d-a6f8-41f2-86bc-cf779452c419","ios":"levelo://app?vid=590c2d4d-a6f8-41f2-86bc-cf779452c419"},"vehicle_type_id":"4","last_reported":1740319652,"current_range_meters":8000,"station_id":"ce4bhl12rcd13ifvqgf0","pricing_plan_id":"cebpf4jnsgd1na2vs0mg"},{"bike_id":"29446d80-b7b1-487d-a0d9-0d18f846b216","system_id":"levelo_inurba_marseille","lat":43.30484,"lon":5.37963,"is_reserved":false,"is_disabled":false,"rental_uris":{"android":"levelo://app?vid=29446d80-b7b1-487d-a0d9-0d18f846b216","ios":"levelo://app?vid=29446d80-b7b1-487d-a0d9-0d18f846b216"},"vehicle_type_id":"4","last_reported":1740319652,"current_range_meters":8000,"station_id":"ce4bgup2rcd13ifvqcn0","pricing_plan_id":"cebpf4jnsgd1na2vs0mg"},{"bike_id":"7edad6f1-bb02-4747-8467-5494540e990b","system_id":"levelo_inurba_marseille","lat":43.25001,"lon":5.38911,"is_reserved":false,"is_disabled":false,"rental_uris":{"android":"levelo://app?vid=7edad6f1-bb02-4747-8467-5494540e990b","ios":"levelo://app?vid=7edad6f1-bb02-4747-8467-5494540e990b"},"vehicle_type_id":"4","last_reported":1740319652,"current_range_meters":8000,"station_id":"ce4bhgp2rcd13ifvqfd0","pricing_plan_id":"cebpf4jnsgd1na2vs0mg"},{"bike_id":"d4b2d05e-cced-4ce8-8de9-610a1d0491de","system_id":"levelo_inurba_marseille","lat":43.29535,"lon":5.38543,"is_reserved":false,"is_disabled":false,"rental_uris":{"android":"levelo://app?vid=d4b2d05e-cced-4ce8-8de9-610a1d0491de","ios":"levelo://app?vid=d4b2d05e-cced-4ce8-8de9-610a1d0491de"},"vehicle_type_id":"4","last_reported":1740319652,"current_range_meters":8000,"station_id":"ce4bgih2rcd13ifvqba0","pricing_plan_id":"cebpf4jnsgd1na2vs0mg"},{"bike_id":"5d52fe5a-dfb3-40bb-a0d1-9a7b3f23529e","system_id":"levelo_inurba_marseille","lat":43.26215,"lon":5.40426,"is_reserved":false,"is_disabled":false,"rental_uris":{"android":"levelo://app?vid=5d52fe5a-dfb3-40bb-a0d1-9a7b3f23529e","ios":"levelo://app?vid=5d52fe5a-dfb3-40bb-a0d1-9a7b3f23529e"},"vehicle_type_id":"4","last_reported":1740319652,"current_range_meters":8400,"station_id":"ce4bhmh2rcd13ifvqgmg","pricing_plan_id":"cebpf4jnsgd1na2vs0mg"},{"bike_id":"a064d59b-f759-4d98-a77b-c1fed32d887e","system_id":"levelo_inurba_marseille","lat":43.30948,"lon":5.3905,"is_reserved":false,"is_disabled":false,"rental_uris":{"android":"levelo://app?vid=a064d59b-f759-4d98-a77b-c1fed32d887e","ios":"levelo://app?vid=a064d59b-f759-4d98-a77b-c1fed32d887e"},"vehicle_type_id":"4","last_reported":1740319652,"current_range_meters":8400,"station_id":"ce4bgup2rcd13ifvqco0","pricing_plan_id":"cebpf4jnsgd1na2vs0mg"},{"bike_id":"cd8a04f2-9f2f-4394-8a24-94a01fdcfda9","system_id":"levelo_inurba_marseille","lat":43.28262,"lon":5.35077,"is_reserved":false,"is_disabled":false,"rental_uris":{"android":"levelo://app?vid=cd8a04f2-9f2f-4394-8a24-94a01fdcfda9","ios":"levelo://app?vid=cd8a04f2-9f2f-4394-8a24-94a01fdcfda9"},"vehicle_type_id":"4","last_reported":1740319652,"current_range_meters":8400,"station_id":"ce4bhbp2rcd13ifvqerg","pricing_plan_id":"cebpf4jnsgd1na2vs0mg"},{"bike_id":"bb127142-502c-4b61-b74c-d7410317905c","system_id":"levelo_inurba_marseille","lat":43.26805,"lon":5.40235,"is_reserved":false,"is_disabled":false,"rental_uris":{"android":"levelo://app?vid=bb127142-502c-4b61-b74c-d7410317905c","ios":"levelo://app?vid=bb127142-502c-4b61-b74c-d7410317905c"},"vehicle_type_id":"4","last_reported":1740319652,"current_range_meters":8800,"station_id":"ce501612rcd8frsf0b60","pricing_plan_id":"cebpf4jnsgd1na2vs0mg"},{"bike_id":"09486dc5-7654-4904-afc6-3b8a40308aeb","system_id":"levelo_inurba_marseille","lat":43.25428,"lon":5.41578,"is_reserved":false,"is_disabled":false,"rental_uris":{"android":"levelo://app?vid=09486dc5-7654-4904-afc6-3b8a40308aeb","ios":"levelo://app?vid=09486dc5-7654-4904-afc6-3b8a40308aeb"},"vehicle_type_id":"4","last_reported":1740319652,"current_range_meters":8800,"station_id":"","pricing_plan_id":"cebpf4jnsgd1na2vs0mg"},{"bike_id":"532c4564-7f0d-4d1e-af8f-ca7853199c8e","system_id":"levelo_inurba_marseille","lat":43.28427,"lon":5.3498,"is_reserved":false,"is_disabled":false,"rental_uris":{"android":"levelo://app?vid=532c4564-7f0d-4d1e-af8f-ca7853199c8e","ios":"levelo://app?vid=532c4564-7f0d-4d1e-af8f-ca7853199c8e"},"vehicle_type_id":"4","last_reported":1740319652,"current_range_meters":8800,"station_id":"ce4bhbh2rcd13ifvqepg","pricing_plan_id":"cebpf4jnsgd1na2vs0mg"},{"bike_id":"cece93b6-fd03-4829-aeb2-efcd213ca863","system_id":"levelo_inurba_marseille","lat":43.27428,"lon":5.39422,"is_reserved":false,"is_disabled":false,"rental_uris":{"android":"levelo://app?vid=cece93b6-fd03-4829-aeb2-efcd213ca863","ios":"levelo://app?vid=cece93b6-fd03-4829-aeb2-efcd213ca863"},"vehicle_type_id":"4","last_reported":1740319652,"current_range_meters":8800,"station_id":"ce4bhdp2rcd13ifvqf20","pricing_plan_id":"cebpf4jnsgd1na2vs0mg"},{"bike_id":"dcd03dba-9292-4614-8ec0-01d5308cbc07","system_id":"levelo_inurba_marseille","lat":43.29894,"lon":5.43671,"is_reserved":false,"is_disabled":false,"rental_uris":{"android":"levelo://app?vid=dcd03dba-9292-4614-8ec0-01d5308cbc07","ios":"levelo://app?vid=dcd03dba-9292-4614-8ec0-01d5308cbc07"},"vehicle_type_id":"4","last_reported":1740319652,"current_range_meters":8800,"station_id":"ce4bhpp2rcd13ifvqhfg","pricing_plan_id":"cebpf4jnsgd1na2vs0mg"},{"bike_id":"f00c61fb-ec65-4c44-adf0-658e6c00b6f6","system_id":"levelo_inurba_marseille","lat":43.28256,"lon":5.35074,"is_reserved":false,"is_disabled":false,"rental_uris":{"android":"levelo://app?vid=f00c61fb-ec65-4c44-adf0-658e6c00b6f6","ios":"levelo://app?vid=f00c61fb-ec65-4c44-adf0-658e6c00b6f6"},"vehicle_type_id":"4","last_reported":1740319652,"current_range_meters":8800,"station_id":"ce4bhbp2rcd13ifvqerg","pricing_plan_id":"cebpf4jnsgd1na2vs0mg"},{"bike_id":"26a2d076-f5f2-45a7-98f5-29542790fe7d","system_id":"levelo_inurba_marseille","lat":43.32351,"lon":5.36728,"is_reserved":false,"is_disabled":false,"rental_uris":{"android":"levelo://app?vid=26a2d076-f5f2-45a7-98f5-29542790fe7d","ios":"levelo://app?vid=26a2d076-f5f2-45a7-98f5-29542790fe7d"},"vehicle_type_id":"4","last_reported":1740319652,"current_range_meters":8800,"station_id":"ce4bhsh2rcd13ifvqi2g","pricing_plan_id":"cebpf4jnsgd1na2vs0mg"},{"bike_id":"7708fbf5-53e6-4f3b-812e-0efcc616e96d","system_id":"levelo_inurba_marseille","lat":43.27372,"lon":5.36259,"is_reserved":false,"is_disabled":false,"rental_uris":{"android":"levelo://app?vid=7708fbf5-53e6-4f3b-812e-0efcc616e96d","ios":"levelo://app?vid=7708fbf5-53e6-4f3b-812e-0efcc616e96d"},"vehicle_type_id":"4","last_reported":1740319652,"current_range_meters":8800,"station_id":"ce4bhbh2rcd13ifvqeo0","pricing_plan_id":"cebpf4jnsgd1na2vs0mg"},{"bike_id":"ba26c5b5-2bce-4009-9fc1-e4a01f5d8a5b","system_id":"levelo_inurba_marseille","lat":43.26494,"lon":5.3954,"is_reserved":false,"is_disabled":false,"rental_uris":{"android":"levelo://app?vid=ba26c5b5-2bce-4009-9fc1-e4a01f5d8a5b","ios":"levelo://app?vid=ba26c5b5-2bce-4009-9fc1-e4a01f5d8a5b"},"vehicle_type_id":"4","last_reported":1740319652,"current_range_meters":8800,"station_id":"ce4bhi12rcd13ifvqfq0","pricing_plan_id":"cebpf4jnsgd1na2vs0mg"},{"bike_id":"ab8a1292-86e1-442e-b215-24fb48472e0f","system_id":"levelo_inurba_marseille","lat":43.25503,"lon":5.37651,"is_reserved":false,"is_disabled":false,"rental_uris":{"android":"levelo://app?vid=ab8a1292-86e1-442e-b215-24fb48472e0f","ios":"levelo://app?vid=ab8a1292-86e1-442e-b215-24fb48472e0f"},"vehicle_type_id":"4","last_reported":1740319652,"current_range_meters":8800,"station_id":"ce4bhh12rcd13ifvqff0","pricing_plan_id":"cebpf4jnsgd1na2vs0mg"},{"bike_id":"0aa74af1-3dfa-46cf-8301-7587d7c9c64a","system_id":"levelo_inurba_marseille","lat":43.28555,"lon":5.3948,"is_reserved":false,"is_disabled":false,"rental_uris":{"android":"levelo://app?vid=0aa74af1-3dfa-46cf-8301-7587d7c9c64a","ios":"levelo://app?vid=0aa74af1-3dfa-46cf-8301-7587d7c9c64a"},"vehicle_type_id":"4","last_reported":1740319652,"current_range_meters":9200,"station_id":"ce4bh292rcd13ifvqdg0","pricing_plan_id":"cebpf4jnsgd1na2vs0mg"},{"bike_id":"2a32d548-512c-4d86-9503-3c0bb033329c","system_id":"levelo_inurba_marseille","lat":43.28411,"lon":5.35003,"is_reserved":false,"is_disabled":false,"rental_uris":{"android":"levelo://app?vid=2a32d548-512c-4d86-9503-3c0bb033329c","ios":"levelo://app?vid=2a32d548-512c-4d86-9503-3c0bb033329c"},"vehicle_type_id":"4","last_reported":1740319652,"current_range_meters":9200,"station_id":"ce4bhbh2rcd13ifvqepg","pricing_plan_id":"cebpf4jnsgd1na2vs0mg"},{"bike_id":"49e1c317-c43a-4e17-be08-ea23dc8d6739","system_id":"levelo_inurba_marseille","lat":43.301759,"lon":5.395793,"is_reserved":false,"is_disabled":true,"rental_uris":{"android":"levelo://app?vid=49e1c317-c43a-4e17-be08-ea23dc8d6739","ios":"levelo://app?vid=49e1c317-c43a-4e17-be08-ea23dc8d6739"},"vehicle_type_id":"4","last_reported":1740319652,"current_range_meters":9200,"station_id":"","pricing_plan_id":"cebpf4jnsgd1na2vs0mg"},{"bike_id":"66a916df-30a0-4597-8e0f-a9964599bb27","system_id":"levelo_inurba_marseille","lat":43.273376,"lon":5.362565,"is_reserved":false,"is_disabled":false,"rental_uris":{"android":"levelo://app?vid=66a916df-30a0-4597-8e0f-a9964599bb27","ios":"levelo://app?vid=66a916df-30a0-4597-8e0f-a9964599bb27"},"vehicle_type_id":"4","last_reported":1740319652,"current_range_meters":9200,"station_id":"ce4bhbh2rcd13ifvqeo0","pricing_plan_id":"cebpf4jnsgd1na2vs0mg"},{"bike_id":"1f7411cd-9379-4bab-a8bc-411b928d8602","system_id":"levelo_inurba_marseille","lat":43.27488,"lon":5.42456,"is_reserved":false,"is_disabled":false,"rental_uris":{"android":"levelo://app?vid=1f7411cd-9379-4bab-a8bc-411b928d8602","ios":"levelo://app?vid=1f7411cd-9379-4bab-a8bc-411b928d8602"},"vehicle_type_id":"4","last_reported":1740319652,"current_range_meters":9600,"station_id":"ce4bhn92rcd13ifvqgrg","pricing_plan_id":"cebpf4jnsgd1na2vs0mg"},{"bike_id":"a66ad186-e54b-4982-b13a-f15916d0ed89","system_id":"levelo_inurba_marseille","lat":43.25584,"lon":5.38229,"is_reserved":false,"is_disabled":false,"rental_uris":{"android":"levelo://app?vid=a66ad186-e54b-4982-b13a-f15916d0ed89","ios":"levelo://app?vid=a66ad186-e54b-4982-b13a-f15916d0ed89"},"vehicle_type_id":"4","last_reported":1740319652,"current_range_meters":9600,"station_id":"ce4bhih2rcd13ifvqfs0","pricing_plan_id":"cebpf4jnsgd1na2vs0mg"},{"bike_id":"1b0d6542-f74d-4dd5-b78b-1cd1115ff80b","system_id":"levelo_inurba_marseille","lat":43.30577,"lon":5.37436,"is_reserved":false,"is_disabled":false,"rental_uris":{"android":"levelo://app?vid=1b0d6542-f74d-4dd5-b78b-1cd1115ff80b","ios":"levelo://app?vid=1b0d6542-f74d-4dd5-b78b-1cd1115ff80b"},"vehicle_type_id":"4","last_reported":1740319652,"current_range_meters":9600,"station_id":"","pricing_plan_id":"cebpf4jnsgd1na2vs0mg"},{"bike_id":"2b68e173-ca1c-410c-ae67-fdb4ea3e3f2a","system_id":"levelo_inurba_marseille","lat":43.24714,"lon":5.38141,"is_reserved":false,"is_disabled":false,"rental_uris":{"android":"levelo://app?vid=2b68e173-ca1c-410c-ae67-fdb4ea3e3f2a","ios":"levelo://app?vid=2b68e173-ca1c-410c-ae67-fdb4ea3e3f2a"},"vehicle_type_id":"4","last_reported":1740319652,"current_range_meters":9600,"station_id":"ce4bhih2rcd13ifvqfr0","pricing_plan_id":"cebpf4jnsgd1na2vs0mg"},{"bike_id":"8dc51aab-29d3-43fa-a37e-6c47cc4c2e69","system_id":"levelo_inurba_marseille","lat":43.24164,"lon":5.36401,"is_reserved":false,"is_disabled":false,"rental_uris":{"android":"levelo://app?vid=8dc51aab-29d3-43fa-a37e-6c47cc4c2e69","ios":"levelo://app?vid=8dc51aab-29d3-43fa-a37e-6c47cc4c2e69"},"vehicle_type_id":"4","last_reported":1740319652,"current_range_meters":10000,"station_id":"cpo36qri1sfpv3e86is0","pricing_plan_id":"cebpf4jnsgd1na2vs0mg"},{"bike_id":"2e7bb708-5023-4450-86cb-e2e265576aa1","system_id":"levelo_inurba_marseille","lat":43.26818,"lon":5.40251,"is_reserved":false,"is_disabled":false,"rental_uris":{"android":"levelo://app?vid=2e7bb708-5023-4450-86cb-e2e265576aa1","ios":"levelo://app?vid=2e7bb708-5023-4450-86cb-e2e265576aa1"},"vehicle_type_id":"4","last_reported":1740319652,"current_range_meters":10000,"station_id":"ce501612rcd8frsf0b60","pricing_plan_id":"cebpf4jnsgd1na2vs0mg"},{"bike_id":"80e30e07-59ff-4807-b06b-c6dc1a9e08e2","system_id":"levelo_inurba_marseille","lat":43.33613,"lon":5.41033,"is_reserved":false,"is_disabled":true,"rental_uris":{"android":"levelo://app?vid=80e30e07-59ff-4807-b06b-c6dc1a9e08e2","ios":"levelo://app?vid=80e30e07-59ff-4807-b06b-c6dc1a9e08e2"},"vehicle_type_id":"4","last_reported":1740319652,"current_range_meters":10000,"station_id":"ce4bhqh2rcd13ifvqhmg","pricing_plan_id":"cebpf4jnsgd1na2vs0mg"},{"bike_id":"54a6b0ba-8381-4a72-830c-622766c32199","system_id":"levelo_inurba_marseille","lat":43.32111,"lon":5.36764,"is_reserved":false,"is_disabled":false,"rental_uris":{"android":"levelo://app?vid=54a6b0ba-8381-4a72-830c-622766c32199","ios":"levelo://app?vid=54a6b0ba-8381-4a72-830c-622766c32199"},"vehicle_type_id":"4","last_reported":1740319652,"current_range_meters":10000,"station_id":"ce4bhrh2rcd13ifvqhug","pricing_plan_id":"cebpf4jnsgd1na2vs0mg"},{"bike_id":"d48f3532-b245-4d5e-9eef-a86a93b7cf01","system_id":"levelo_inurba_marseille","lat":43.282518,"lon":5.350585,"is_reserved":false,"is_disabled":false,"rental_uris":{"android":"levelo://app?vid=d48f3532-b245-4d5e-9eef-a86a93b7cf01","ios":"levelo://app?vid=d48f3532-b245-4d5e-9eef-a86a93b7cf01"},"vehicle_type_id":"4","last_reported":1740319652,"current_range_meters":10000,"station_id":"ce4bhbp2rcd13ifvqerg","pricing_plan_id":"cebpf4jnsgd1na2vs0mg"},{"bike_id":"3fd2a98c-7939-498c-8625-9658300a849b","system_id":"levelo_inurba_marseille","lat":43.25932,"lon":5.40906,"is_reserved":false,"is_disabled":false,"rental_uris":{"android":"levelo://app?vid=3fd2a98c-7939-498c-8625-9658300a849b","ios":"levelo://app?vid=3fd2a98c-7939-498c-8625-9658300a849b"},"vehicle_type_id":"4","last_reported":1740319652,"current_range_meters":10000,"station_id":"ce4bhm92rcd13ifvqglg","pricing_plan_id":"cebpf4jnsgd1na2vs0mg"},{"bike_id":"66cd9c9f-b51c-4961-b5d4-79885a50e8b5","system_id":"levelo_inurba_marseille","lat":43.27426,"lon":5.39423,"is_reserved":false,"is_disabled":false,"rental_uris":{"android":"levelo://app?vid=66cd9c9f-b51c-4961-b5d4-79885a50e8b5","ios":"levelo://app?vid=66cd9c9f-b51c-4961-b5d4-79885a50e8b5"},"vehicle_type_id":"4","last_reported":1740319652,"current_range_meters":10000,"station_id":"ce4bhdp2rcd13ifvqf20","pricing_plan_id":"cebpf4jnsgd1na2vs0mg"},{"bike_id":"42d88978-3822-4baf-ba56-fcefce721b55","system_id":"levelo_inurba_marseille","lat":43.27072,"lon":5.42278,"is_reserved":false,"is_disabled":false,"rental_uris":{"android":"levelo://app?vid=42d88978-3822-4baf-ba56-fcefce721b55","ios":"levelo://app?vid=42d88978-3822-4baf-ba56-fcefce721b55"},"vehicle_type_id":"4","last_reported":1740319652,"current_range_meters":10000,"station_id":"ce4bhk92rcd13ifvqgb0","pricing_plan_id":"cebpf4jnsgd1na2vs0mg"},{"bike_id":"e0c1d965-9bb5-48f6-93c4-81a00c3e7849","system_id":"levelo_inurba_marseille","lat":43.27072,"lon":5.42273,"is_reserved":false,"is_disabled":false,"rental_uris":{"android":"levelo://app?vid=e0c1d965-9bb5-48f6-93c4-81a00c3e7849","ios":"levelo://app?vid=e0c1d965-9bb5-48f6-93c4-81a00c3e7849"},"vehicle_type_id":"4","last_reported":1740319652,"current_range_meters":10000,"station_id":"ce4bhk92rcd13ifvqgb0","pricing_plan_id":"cebpf4jnsgd1na2vs0mg"},{"bike_id":"1ccf745e-f1b6-4dc3-9209-1d7ba695f681","system_id":"levelo_inurba_marseille","lat":43.292551,"lon":5.376089,"is_reserved":false,"is_disabled":false,"rental_uris":{"android":"levelo://app?vid=1ccf745e-f1b6-4dc3-9209-1d7ba695f681","ios":"levelo://app?vid=1ccf745e-f1b6-4dc3-9209-1d7ba695f681"},"vehicle_type_id":"4","last_reported":1740319652,"current_range_meters":10000,"station_id":"ce4bgi12rcd13ifvqb80","pricing_plan_id":"cebpf4jnsgd1na2vs0mg"},{"bike_id":"54f35916-0924-4e31-9b69-12c603b55322","system_id":"levelo_inurba_marseille","lat":43.28269,"lon":5.35068,"is_reserved":false,"is_disabled":false,"rental_uris":{"android":"levelo://app?vid=54f35916-0924-4e31-9b69-12c603b55322","ios":"levelo://app?vid=54f35916-0924-4e31-9b69-12c603b55322"},"vehicle_type_id":"4","last_reported":1740319652,"current_range_meters":10000,"station_id":"ce4bhbp2rcd13ifvqerg","pricing_plan_id":"cebpf4jnsgd1na2vs0mg"},{"bike_id":"daff1329-8e97-464b-8e79-f1ab4f0fb795","system_id":"levelo_inurba_marseille","lat":43.25585,"lon":5.3824,"is_reserved":false,"is_disabled":false,"rental_uris":{"android":"levelo://app?vid=daff1329-8e97-464b-8e79-f1ab4f0fb795","ios":"levelo://app?vid=daff1329-8e97-464b-8e79-f1ab4f0fb795"},"vehicle_type_id":"4","last_reported":1740319652,"current_range_meters":10800,"station_id":"ce4bhih2rcd13ifvqfs0","pricing_plan_id":"cebpf4jnsgd1na2vs0mg"},{"bike_id":"a6877c76-970d-4e1a-bcf5-a42d5cbc8bb0","system_id":"levelo_inurba_marseille","lat":43.29276,"lon":5.36848,"is_reserved":false,"is_disabled":false,"rental_uris":{"android":"levelo://app?vid=a6877c76-970d-4e1a-bcf5-a42d5cbc8bb0","ios":"levelo://app?vid=a6877c76-970d-4e1a-bcf5-a42d5cbc8bb0"},"vehicle_type_id":"4","last_reported":1740319652,"current_range_meters":10800,"station_id":"ce4bhbp2rcd13ifvqesg","pricing_plan_id":"cebpf4jnsgd1na2vs0mg"},{"bike_id":"095d5026-b6cb-411c-ab71-6c60703e2b2f","system_id":"levelo_inurba_marseille","lat":43.23053,"lon":5.3549,"is_reserved":false,"is_disabled":true,"rental_uris":{"android":"levelo://app?vid=095d5026-b6cb-411c-ab71-6c60703e2b2f","ios":"levelo://app?vid=095d5026-b6cb-411c-ab71-6c60703e2b2f"},"vehicle_type_id":"4","last_reported":1740319652,"current_range_meters":10800,"station_id":"cpo3342slgdg3j2ifvpg","pricing_plan_id":"cebpf4jnsgd1na2vs0mg"},{"bike_id":"9c2468d8-0869-4488-970c-a7cb2127486a","system_id":"levelo_inurba_marseille","lat":43.23199,"lon":5.3555,"is_reserved":false,"is_disabled":false,"rental_uris":{"android":"levelo://app?vid=9c2468d8-0869-4488-970c-a7cb2127486a","ios":"levelo://app?vid=9c2468d8-0869-4488-970c-a7cb2127486a"},"vehicle_type_id":"4","last_reported":1740319652,"current_range_meters":10800,"station_id":"ce4bhu92rcd13ifvqi70","pricing_plan_id":"cebpf4jnsgd1na2vs0mg"},{"bike_id":"53c39e7e-3e01-44ee-a42d-9b2da32577a3","system_id":"levelo_inurba_marseille","lat":43.26211,"lon":5.37443,"is_reserved":false,"is_disabled":false,"rental_uris":{"android":"levelo://app?vid=53c39e7e-3e01-44ee-a42d-9b2da32577a3","ios":"levelo://app?vid=53c39e7e-3e01-44ee-a42d-9b2da32577a3"},"vehicle_type_id":"4","last_reported":1740319652,"current_range_meters":11200,"station_id":"ce4bhgp2rcd13ifvqfc0","pricing_plan_id":"cebpf4jnsgd1na2vs0mg"},{"bike_id":"595cb27f-c551-4223-a595-754b68654f41","system_id":"levelo_inurba_marseille","lat":43.3057,"lon":5.36535,"is_reserved":false,"is_disabled":false,"rental_uris":{"android":"levelo://app?vid=595cb27f-c551-4223-a595-754b68654f41","ios":"levelo://app?vid=595cb27f-c551-4223-a595-754b68654f41"},"vehicle_type_id":"4","last_reported":1740319652,"current_range_meters":11200,"station_id":"ce4bgs12rcd13ifvqcag","pricing_plan_id":"cebpf4jnsgd1na2vs0mg"},{"bike_id":"3d175c1f-0760-4c62-b7e3-7708410ea509","system_id":"levelo_inurba_marseille","lat":43.29872,"lon":5.39727,"is_reserved":false,"is_disabled":false,"rental_uris":{"android":"levelo://app?vid=3d175c1f-0760-4c62-b7e3-7708410ea509","ios":"levelo://app?vid=3d175c1f-0760-4c62-b7e3-7708410ea509"},"vehicle_type_id":"4","last_reported":1740319652,"current_range_meters":11600,"station_id":"ce4bh0h2rcd13ifvqd50","pricing_plan_id":"cebpf4jnsgd1na2vs0mg"},{"bike_id":"ee63e74a-ffb1-415f-a991-66b600693a15","system_id":"levelo_inurba_marseille","lat":43.29868,"lon":5.3973,"is_reserved":false,"is_disabled":false,"rental_uris":{"android":"levelo://app?vid=ee63e74a-ffb1-415f-a991-66b600693a15","ios":"levelo://app?vid=ee63e74a-ffb1-415f-a991-66b600693a15"},"vehicle_type_id":"4","last_reported":1740319652,"current_range_meters":11600,"station_id":"ce4bh0h2rcd13ifvqd50","pricing_plan_id":"cebpf4jnsgd1na2vs0mg"},{"bike_id":"ea0742c7-de60-4964-a065-3d059013b05c","system_id":"levelo_inurba_marseille","lat":43.25503,"lon":5.3765,"is_reserved":false,"is_disabled":false,"rental_uris":{"android":"levelo://app?vid=ea0742c7-de60-4964-a065-3d059013b05c","ios":"levelo://app?vid=ea0742c7-de60-4964-a065-3d059013b05c"},"vehicle_type_id":"4","last_reported":1740319652,"current_range_meters":11600,"station_id":"ce4bhh12rcd13ifvqff0","pricing_plan_id":"cebpf4jnsgd1na2vs0mg"},{"bike_id":"6e7453d3-b596-416f-a44e-21daef2820ad","system_id":"levelo_inurba_marseille","lat":43.25578,"lon":5.382418,"is_reserved":false,"is_disabled":false,"rental_uris":{"android":"levelo://app?vid=6e7453d3-b596-416f-a44e-21daef2820ad","ios":"levelo://app?vid=6e7453d3-b596-416f-a44e-21daef2820ad"},"vehicle_type_id":"4","last_reported":1740319652,"current_range_meters":12000,"station_id":"ce4bhih2rcd13ifvqfs0","pricing_plan_id":"cebpf4jnsgd1na2vs0mg"},{"bike_id":"385d7307-e183-42a8-82a3-6bef8a311a76","system_id":"levelo_inurba_marseille","lat":43.27456,"lon":5.39418,"is_reserved":false,"is_disabled":false,"rental_uris":{"android":"levelo://app?vid=385d7307-e183-42a8-82a3-6bef8a311a76","ios":"levelo://app?vid=385d7307-e183-42a8-82a3-6bef8a311a76"},"vehicle_type_id":"4","last_reported":1740319652,"current_range_meters":12000,"station_id":"","pricing_plan_id":"cebpf4jnsgd1na2vs0mg"},{"bike_id":"1b218dd3-cbf0-4126-858c-bdfc514e6cf8","system_id":"levelo_inurba_marseille","lat":43.30317,"lon":5.36911,"is_reserved":false,"is_disabled":false,"rental_uris":{"android":"levelo://app?vid=1b218dd3-cbf0-4126-858c-bdfc514e6cf8","ios":"levelo://app?vid=1b218dd3-cbf0-4126-858c-bdfc514e6cf8"},"vehicle_type_id":"4","last_reported":1740319652,"current_range_meters":12000,"station_id":"ce4bgqh2rcd13ifvqc5g","pricing_plan_id":"cebpf4jnsgd1na2vs0mg"},{"bike_id":"6cee15f5-f5b0-4f78-80d2-62dd5deb5a0a","system_id":"levelo_inurba_marseille","lat":43.26572,"lon":5.39047,"is_reserved":false,"is_disabled":false,"rental_uris":{"android":"levelo://app?vid=6cee15f5-f5b0-4f78-80d2-62dd5deb5a0a","ios":"levelo://app?vid=6cee15f5-f5b0-4f78-80d2-62dd5deb5a0a"},"vehicle_type_id":"4","last_reported":1740319652,"current_range_meters":12400,"station_id":"ce4bhe12rcd13ifvqf30","pricing_plan_id":"cebpf4jnsgd1na2vs0mg"},{"bike_id":"ab7da9df-c7ed-482b-9961-43b5cca3e34b","system_id":"levelo_inurba_marseille","lat":43.31119,"lon":5.3779,"is_reserved":false,"is_disabled":true,"rental_uris":{"android":"levelo://app?vid=ab7da9df-c7ed-482b-9961-43b5cca3e34b","ios":"levelo://app?vid=ab7da9df-c7ed-482b-9961-43b5cca3e34b"},"vehicle_type_id":"4","last_reported":1740319652,"current_range_meters":12400,"station_id":"ce4bgt92rcd13ifvqcg0","pricing_plan_id":"cebpf4jnsgd1na2vs0mg"},{"bike_id":"2bdc35be-c87d-4858-a812-b27d436edeb5","system_id":"levelo_inurba_marseille","lat":43.28276,"lon":5.35082,"is_reserved":false,"is_disabled":false,"rental_uris":{"android":"levelo://app?vid=2bdc35be-c87d-4858-a812-b27d436edeb5","ios":"levelo://app?vid=2bdc35be-c87d-4858-a812-b27d436edeb5"},"vehicle_type_id":"4","last_reported":1740319652,"current_range_meters":12400,"station_id":"ce4bhbp2rcd13ifvqerg","pricing_plan_id":"cebpf4jnsgd1na2vs0mg"},{"bike_id":"afd08507-8302-47e3-b3ce-5a1aa85b211b","system_id":"levelo_inurba_marseille","lat":43.336,"lon":5.41039,"is_reserved":false,"is_disabled":false,"rental_uris":{"android":"levelo://app?vid=afd08507-8302-47e3-b3ce-5a1aa85b211b","ios":"levelo://app?vid=afd08507-8302-47e3-b3ce-5a1aa85b211b"},"vehicle_type_id":"4","last_reported":1740319652,"current_range_meters":12400,"station_id":"ce4bhn12rcd13ifvqgqg","pricing_plan_id":"cebpf4jnsgd1na2vs0mg"},{"bike_id":"c5fd30ef-19c5-4e68-a884-ba82fec410b0","system_id":"levelo_inurba_marseille","lat":43.29261,"lon":5.40901,"is_reserved":false,"is_disabled":false,"rental_uris":{"android":"levelo://app?vid=c5fd30ef-19c5-4e68-a884-ba82fec410b0","ios":"levelo://app?vid=c5fd30ef-19c5-4e68-a884-ba82fec410b0"},"vehicle_type_id":"4","last_reported":1740319652,"current_range_meters":12400,"station_id":"ce4bh192rcd13ifvqdc0","pricing_plan_id":"cebpf4jnsgd1na2vs0mg"},{"bike_id":"47c58b1f-0f04-4a95-ba73-4d794abee5f2","system_id":"levelo_inurba_marseille","lat":43.30433,"lon":5.38896,"is_reserved":false,"is_disabled":true,"rental_uris":{"android":"levelo://app?vid=47c58b1f-0f04-4a95-ba73-4d794abee5f2","ios":"levelo://app?vid=47c58b1f-0f04-4a95-ba73-4d794abee5f2"},"vehicle_type_id":"4","last_reported":1740319652,"current_range_meters":12800,"station_id":"ce4bgk12rcd13ifvqbi0","pricing_plan_id":"cebpf4jnsgd1na2vs0mg"},{"bike_id":"855caca9-cd59-4c97-ad51-a64e28ee341f","system_id":"levelo_inurba_marseille","lat":43.308842,"lon":5.396377,"is_reserved":false,"is_disabled":true,"rental_uris":{"android":"levelo://app?vid=855caca9-cd59-4c97-ad51-a64e28ee341f","ios":"levelo://app?vid=855caca9-cd59-4c97-ad51-a64e28ee341f"},"vehicle_type_id":"4","last_reported":1740319652,"current_range_meters":12800,"station_id":"ce4bh012rcd13ifvqcv0","pricing_plan_id":"cebpf4jnsgd1na2vs0mg"},{"bike_id":"fb44b31f-7afc-4a5c-8b14-6d56005aa669","system_id":"levelo_inurba_marseille","lat":43.29005,"lon":5.43241,"is_reserved":false,"is_disabled":false,"rental_uris":{"android":"levelo://app?vid=fb44b31f-7afc-4a5c-8b14-6d56005aa669","ios":"levelo://app?vid=fb44b31f-7afc-4a5c-8b14-6d56005aa669"},"vehicle_type_id":"4","last_reported":1740319652,"current_range_meters":12800,"station_id":"","pricing_plan_id":"cebpf4jnsgd1na2vs0mg"},{"bike_id":"06d25136-d907-4083-a973-b02afae2bfe8","system_id":"levelo_inurba_marseille","lat":43.24995,"lon":5.38942,"is_reserved":false,"is_disabled":false,"rental_uris":{"android":"levelo://app?vid=06d25136-d907-4083-a973-b02afae2bfe8","ios":"levelo://app?vid=06d25136-d907-4083-a973-b02afae2bfe8"},"vehicle_type_id":"4","last_reported":1740319652,"current_range_meters":12800,"station_id":"ce4bhgp2rcd13ifvqfd0","pricing_plan_id":"cebpf4jnsgd1na2vs0mg"},{"bike_id":"a3610751-bbe4-4d3e-a717-1a0eebd2fb2a","system_id":"levelo_inurba_marseille","lat":43.30769,"lon":5.37533,"is_reserved":false,"is_disabled":false,"rental_uris":{"android":"levelo://app?vid=a3610751-bbe4-4d3e-a717-1a0eebd2fb2a","ios":"levelo://app?vid=a3610751-bbe4-4d3e-a717-1a0eebd2fb2a"},"vehicle_type_id":"4","last_reported":1740319652,"current_range_meters":12800,"station_id":"","pricing_plan_id":"cebpf4jnsgd1na2vs0mg"},{"bike_id":"0e17628e-77f1-4b2d-9900-e51a8c9f0181","system_id":"levelo_inurba_marseille","lat":43.28897,"lon":5.44993,"is_reserved":false,"is_disabled":false,"rental_uris":{"android":"levelo://app?vid=0e17628e-77f1-4b2d-9900-e51a8c9f0181","ios":"levelo://app?vid=0e17628e-77f1-4b2d-9900-e51a8c9f0181"},"vehicle_type_id":"4","last_reported":1740319652,"current_range_meters":13600,"station_id":"","pricing_plan_id":"cebpf4jnsgd1na2vs0mg"},{"bike_id":"d44b4840-8c17-493a-8eb8-cc465547f18f","system_id":"levelo_inurba_marseille","lat":43.28263,"lon":5.35096,"is_reserved":false,"is_disabled":false,"rental_uris":{"android":"levelo://app?vid=d44b4840-8c17-493a-8eb8-cc465547f18f","ios":"levelo://app?vid=d44b4840-8c17-493a-8eb8-cc465547f18f"},"vehicle_type_id":"4","last_reported":1740319652,"current_range_meters":13600,"station_id":"ce4bhbp2rcd13ifvqerg","pricing_plan_id":"cebpf4jnsgd1na2vs0mg"},{"bike_id":"5e360339-1ec7-42b8-9557-61b0e1ea6f97","system_id":"levelo_inurba_marseille","lat":43.30379,"lon":5.41869,"is_reserved":false,"is_disabled":false,"rental_uris":{"android":"levelo://app?vid=5e360339-1ec7-42b8-9557-61b0e1ea6f97","ios":"levelo://app?vid=5e360339-1ec7-42b8-9557-61b0e1ea6f97"},"vehicle_type_id":"4","last_reported":1740319652,"current_range_meters":13600,"station_id":"ce4bhop2rcd13ifvqh7g","pricing_plan_id":"cebpf4jnsgd1na2vs0mg"},{"bike_id":"4931989e-0750-4b09-9658-c245d9901d90","system_id":"levelo_inurba_marseille","lat":43.29439,"lon":5.39743,"is_reserved":false,"is_disabled":false,"rental_uris":{"android":"levelo://app?vid=4931989e-0750-4b09-9658-c245d9901d90","ios":"levelo://app?vid=4931989e-0750-4b09-9658-c245d9901d90"},"vehicle_type_id":"4","last_reported":1740319652,"current_range_meters":13600,"station_id":"ce4bh3h2rcd13ifvqdo0","pricing_plan_id":"cebpf4jnsgd1na2vs0mg"},{"bike_id":"7e68d2dc-c00f-4e58-8247-38224da8b835","system_id":"levelo_inurba_marseille","lat":43.231529,"lon":5.437196,"is_reserved":false,"is_disabled":false,"rental_uris":{"android":"levelo://app?vid=7e68d2dc-c00f-4e58-8247-38224da8b835","ios":"levelo://app?vid=7e68d2dc-c00f-4e58-8247-38224da8b835"},"vehicle_type_id":"4","last_reported":1740319652,"current_range_meters":13600,"station_id":"ce4bhmp2rcd13ifvqgog","pricing_plan_id":"cebpf4jnsgd1na2vs0mg"},{"bike_id":"d6fb0dc3-8483-48d9-bfe5-008712444fb2","system_id":"levelo_inurba_marseille","lat":43.26681,"lon":5.38269,"is_reserved":false,"is_disabled":false,"rental_uris":{"android":"levelo://app?vid=d6fb0dc3-8483-48d9-bfe5-008712444fb2","ios":"levelo://app?vid=d6fb0dc3-8483-48d9-bfe5-008712444fb2"},"vehicle_type_id":"4","last_reported":1740319652,"current_range_meters":13600,"station_id":"ce4bhg92rcd13ifvqf90","pricing_plan_id":"cebpf4jnsgd1na2vs0mg"},{"bike_id":"4caf490d-10e5-4073-8dae-a68a285775aa","system_id":"levelo_inurba_marseille","lat":43.24414,"lon":5.37027,"is_reserved":false,"is_disabled":false,"rental_uris":{"android":"levelo://app?vid=4caf490d-10e5-4073-8dae-a68a285775aa","ios":"levelo://app?vid=4caf490d-10e5-4073-8dae-a68a285775aa"},"vehicle_type_id":"4","last_reported":1740319652,"current_range_meters":14000,"station_id":"ce4bhhh2rcd13ifvqfk0","pricing_plan_id":"cebpf4jnsgd1na2vs0mg"},{"bike_id":"6e15618d-4d2d-4cdc-9d90-2b87c6806ce4","system_id":"levelo_inurba_marseille","lat":43.27181,"lon":5.41008,"is_reserved":false,"is_disabled":false,"rental_uris":{"android":"levelo://app?vid=6e15618d-4d2d-4cdc-9d90-2b87c6806ce4","ios":"levelo://app?vid=6e15618d-4d2d-4cdc-9d90-2b87c6806ce4"},"vehicle_type_id":"4","last_reported":1740319652,"current_range_meters":14000,"station_id":"ce4bhl12rcd13ifvqgf0","pricing_plan_id":"cebpf4jnsgd1na2vs0mg"},{"bike_id":"5f5cc93c-a9f9-42a0-aaad-01c1df5a6bd9","system_id":"levelo_inurba_marseille","lat":43.2693,"lon":5.40251,"is_reserved":false,"is_disabled":false,"rental_uris":{"android":"levelo://app?vid=5f5cc93c-a9f9-42a0-aaad-01c1df5a6bd9","ios":"levelo://app?vid=5f5cc93c-a9f9-42a0-aaad-01c1df5a6bd9"},"vehicle_type_id":"4","last_reported":1740319652,"current_range_meters":13600,"station_id":"cjm6bp8fraef2m0cb0m0","pricing_plan_id":"cebpf4jnsgd1na2vs0mg"},{"bike_id":"3a65e98c-6fc0-442b-97a2-ccd814e231ae","system_id":"levelo_inurba_marseille","lat":43.24071,"lon":5.37762,"is_reserved":false,"is_disabled":false,"rental_uris":{"android":"levelo://app?vid=3a65e98c-6fc0-442b-97a2-ccd814e231ae","ios":"levelo://app?vid=3a65e98c-6fc0-442b-97a2-ccd814e231ae"},"vehicle_type_id":"4","last_reported":1740319652,"current_range_meters":14400,"station_id":"ce4bhnp2rcd13ifvqgvg","pricing_plan_id":"cebpf4jnsgd1na2vs0mg"},{"bike_id":"6aa4dde2-57d1-4271-91d7-3249e7118204","system_id":"levelo_inurba_marseille","lat":43.30299,"lon":5.36879,"is_reserved":false,"is_disabled":false,"rental_uris":{"android":"levelo://app?vid=6aa4dde2-57d1-4271-91d7-3249e7118204","ios":"levelo://app?vid=6aa4dde2-57d1-4271-91d7-3249e7118204"},"vehicle_type_id":"4","last_reported":1740319652,"current_range_meters":14400,"station_id":"ce4bgqh2rcd13ifvqc5g","pricing_plan_id":"cebpf4jnsgd1na2vs0mg"},{"bike_id":"f70d1008-b4a3-44ae-91cf-aa696ba44eb8","system_id":"levelo_inurba_marseille","lat":43.29618,"lon":5.37148,"is_reserved":false,"is_disabled":false,"rental_uris":{"android":"levelo://app?vid=f70d1008-b4a3-44ae-91cf-aa696ba44eb8","ios":"levelo://app?vid=f70d1008-b4a3-44ae-91cf-aa696ba44eb8"},"vehicle_type_id":"4","last_reported":1740319652,"current_range_meters":14400,"station_id":"ce4bgnh2rcd13ifvqc0g","pricing_plan_id":"cebpf4jnsgd1na2vs0mg"},{"bike_id":"d11f8e8f-64ba-4e30-9bb1-e71abe31654c","system_id":"levelo_inurba_marseille","lat":43.30315,"lon":5.36883,"is_reserved":false,"is_disabled":false,"rental_uris":{"android":"levelo://app?vid=d11f8e8f-64ba-4e30-9bb1-e71abe31654c","ios":"levelo://app?vid=d11f8e8f-64ba-4e30-9bb1-e71abe31654c"},"vehicle_type_id":"4","last_reported":1740319652,"current_range_meters":14400,"station_id":"ce4bgqh2rcd13ifvqc5g","pricing_plan_id":"cebpf4jnsgd1na2vs0mg"},{"bike_id":"9fdc5228-e835-4793-ad30-e5834cfd975b","system_id":"levelo_inurba_marseille","lat":43.2586,"lon":5.39904,"is_reserved":false,"is_disabled":false,"rental_uris":{"android":"levelo://app?vid=9fdc5228-e835-4793-ad30-e5834cfd975b","ios":"levelo://app?vid=9fdc5228-e835-4793-ad30-e5834cfd975b"},"vehicle_type_id":"4","last_reported":1740319652,"current_range_meters":14400,"station_id":"ce4bhl92rcd13ifvqghg","pricing_plan_id":"cebpf4jnsgd1na2vs0mg"},{"bike_id":"94d81672-f077-455d-ad5d-d4332136c2a8","system_id":"levelo_inurba_marseille","lat":43.22893,"lon":5.35409,"is_reserved":false,"is_disabled":false,"rental_uris":{"android":"levelo://app?vid=94d81672-f077-455d-ad5d-d4332136c2a8","ios":"levelo://app?vid=94d81672-f077-455d-ad5d-d4332136c2a8"},"vehicle_type_id":"4","last_reported":1740319652,"current_range_meters":14800,"station_id":"cpo3532slgdg3j2ikp40","pricing_plan_id":"cebpf4jnsgd1na2vs0mg"},{"bike_id":"9faf844a-413f-419f-bdea-64830f7f2bfb","system_id":"levelo_inurba_marseille","lat":43.29938,"lon":5.37871,"is_reserved":false,"is_disabled":false,"rental_uris":{"android":"levelo://app?vid=9faf844a-413f-419f-bdea-64830f7f2bfb","ios":"levelo://app?vid=9faf844a-413f-419f-bdea-64830f7f2bfb"},"vehicle_type_id":"4","last_reported":1740319652,"current_range_meters":14800,"station_id":"","pricing_plan_id":"cebpf4jnsgd1na2vs0mg"},{"bike_id":"35f7fe5f-b05d-405c-a155-dda0758733e2","system_id":"levelo_inurba_marseille","lat":43.28166,"lon":5.42625,"is_reserved":false,"is_disabled":true,"rental_uris":{"android":"levelo://app?vid=35f7fe5f-b05d-405c-a155-dda0758733e2","ios":"levelo://app?vid=35f7fe5f-b05d-405c-a155-dda0758733e2"},"vehicle_type_id":"4","last_reported":1740319652,"current_range_meters":14800,"station_id":"ce4bhnh2rcd13ifvqgug","pricing_plan_id":"cebpf4jnsgd1na2vs0mg"},{"bike_id":"333fb55f-f600-4c25-9a39-f9d1d1824728","system_id":"levelo_inurba_marseille","lat":43.295201,"lon":5.393983,"is_reserved":false,"is_disabled":false,"rental_uris":{"android":"levelo://app?vid=333fb55f-f600-4c25-9a39-f9d1d1824728","ios":"levelo://app?vid=333fb55f-f600-4c25-9a39-f9d1d1824728"},"vehicle_type_id":"4","last_reported":1740319652,"current_range_meters":14800,"station_id":"ce4bh292rcd13ifvqdf0","pricing_plan_id":"cebpf4jnsgd1na2vs0mg"},{"bike_id":"85b5bbcd-7da2-4232-8e5a-a25680dad453","system_id":"levelo_inurba_marseille","lat":43.23954,"lon":5.36655,"is_reserved":false,"is_disabled":false,"rental_uris":{"android":"levelo://app?vid=85b5bbcd-7da2-4232-8e5a-a25680dad453","ios":"levelo://app?vid=85b5bbcd-7da2-4232-8e5a-a25680dad453"},"vehicle_type_id":"4","last_reported":1740319652,"current_range_meters":15200,"station_id":"ce4bhi12rcd13ifvqfp0","pricing_plan_id":"cebpf4jnsgd1na2vs0mg"},{"bike_id":"2bacb06a-d5e6-4c6b-b77c-c0d1f02d1e9a","system_id":"levelo_inurba_marseille","lat":43.2961,"lon":5.37706,"is_reserved":false,"is_disabled":false,"rental_uris":{"android":"levelo://app?vid=2bacb06a-d5e6-4c6b-b77c-c0d1f02d1e9a","ios":"levelo://app?vid=2bacb06a-d5e6-4c6b-b77c-c0d1f02d1e9a"},"vehicle_type_id":"4","last_reported":1740319652,"current_range_meters":15200,"station_id":"ce4bgi92rcd13ifvqb90","pricing_plan_id":"cebpf4jnsgd1na2vs0mg"},{"bike_id":"39bd7a90-a9a8-4c18-9b17-e35edfae36cb","system_id":"levelo_inurba_marseille","lat":43.27372,"lon":5.36251,"is_reserved":false,"is_disabled":false,"rental_uris":{"android":"levelo://app?vid=39bd7a90-a9a8-4c18-9b17-e35edfae36cb","ios":"levelo://app?vid=39bd7a90-a9a8-4c18-9b17-e35edfae36cb"},"vehicle_type_id":"4","last_reported":1740319652,"current_range_meters":16000,"station_id":"ce4bhbh2rcd13ifvqeo0","pricing_plan_id":"cebpf4jnsgd1na2vs0mg"},{"bike_id":"1e9c176a-b144-4cf1-8527-8101d3f40b07","system_id":"levelo_inurba_marseille","lat":43.28268,"lon":5.35086,"is_reserved":false,"is_disabled":false,"rental_uris":{"android":"levelo://app?vid=1e9c176a-b144-4cf1-8527-8101d3f40b07","ios":"levelo://app?vid=1e9c176a-b144-4cf1-8527-8101d3f40b07"},"vehicle_type_id":"4","last_reported":1740319652,"current_range_meters":16000,"station_id":"ce4bhbp2rcd13ifvqerg","pricing_plan_id":"cebpf4jnsgd1na2vs0mg"},{"bike_id":"85e8afb1-9e86-402e-b27e-579a3a8c2b54","system_id":"levelo_inurba_marseille","lat":43.28706,"lon":5.37923,"is_reserved":false,"is_disabled":false,"rental_uris":{"android":"levelo://app?vid=85e8afb1-9e86-402e-b27e-579a3a8c2b54","ios":"levelo://app?vid=85e8afb1-9e86-402e-b27e-579a3a8c2b54"},"vehicle_type_id":"4","last_reported":1740319652,"current_range_meters":16000,"station_id":"ce4bh9p2rcd13ifvqec0","pricing_plan_id":"cebpf4jnsgd1na2vs0mg"},{"bike_id":"6d3a28fb-ad8e-4099-ab7e-2f1842cf0da6","system_id":"levelo_inurba_marseille","lat":43.319941,"lon":5.381535,"is_reserved":false,"is_disabled":false,"rental_uris":{"android":"levelo://app?vid=6d3a28fb-ad8e-4099-ab7e-2f1842cf0da6","ios":"levelo://app?vid=6d3a28fb-ad8e-4099-ab7e-2f1842cf0da6"},"vehicle_type_id":"4","last_reported":1740319652,"current_range_meters":16000,"station_id":"ce4bhr12rcd13ifvqhpg","pricing_plan_id":"cebpf4jnsgd1na2vs0mg"},{"bike_id":"f4434e29-5640-48c8-baa8-5cca863a5ca0","system_id":"levelo_inurba_marseille","lat":43.25827,"lon":5.39431,"is_reserved":false,"is_disabled":false,"rental_uris":{"android":"levelo://app?vid=f4434e29-5640-48c8-baa8-5cca863a5ca0","ios":"levelo://app?vid=f4434e29-5640-48c8-baa8-5cca863a5ca0"},"vehicle_type_id":"4","last_reported":1740319652,"current_range_meters":16000,"station_id":"ce4bhip2rcd13ifvqft0","pricing_plan_id":"cebpf4jnsgd1na2vs0mg"},{"bike_id":"68c1cb49-7da1-4934-a025-4e78e338d091","system_id":"levelo_inurba_marseille","lat":43.337638,"lon":5.374412,"is_reserved":false,"is_disabled":false,"rental_uris":{"android":"levelo://app?vid=68c1cb49-7da1-4934-a025-4e78e338d091","ios":"levelo://app?vid=68c1cb49-7da1-4934-a025-4e78e338d091"},"vehicle_type_id":"4","last_reported":1740319652,"current_range_meters":16000,"station_id":"","pricing_plan_id":"cebpf4jnsgd1na2vs0mg"},{"bike_id":"45fb24fd-97c0-4da8-b3a6-d3651ebff086","system_id":"levelo_inurba_marseille","lat":43.31248,"lon":5.40195,"is_reserved":false,"is_disabled":false,"rental_uris":{"android":"levelo://app?vid=45fb24fd-97c0-4da8-b3a6-d3651ebff086","ios":"levelo://app?vid=45fb24fd-97c0-4da8-b3a6-d3651ebff086"},"vehicle_type_id":"4","last_reported":1740319652,"current_range_meters":16400,"station_id":"ce4bh092rcd13ifvqd30","pricing_plan_id":"cebpf4jnsgd1na2vs0mg"},{"bike_id":"d83c0657-070e-4c0a-818a-ed95033b62b2","system_id":"levelo_inurba_marseille","lat":43.24809,"lon":5.37444,"is_reserved":false,"is_disabled":false,"rental_uris":{"android":"levelo://app?vid=d83c0657-070e-4c0a-818a-ed95033b62b2","ios":"levelo://app?vid=d83c0657-070e-4c0a-818a-ed95033b62b2"},"vehicle_type_id":"4","last_reported":1740319652,"current_range_meters":16400,"station_id":"ce4bhgh2rcd13ifvqfb0","pricing_plan_id":"cebpf4jnsgd1na2vs0mg"},{"bike_id":"5fa8c988-8578-494c-9a08-836ca8c5ab20","system_id":"levelo_inurba_marseille","lat":43.29311,"lon":5.3682,"is_reserved":false,"is_disabled":false,"rental_uris":{"android":"levelo://app?vid=5fa8c988-8578-494c-9a08-836ca8c5ab20","ios":"levelo://app?vid=5fa8c988-8578-494c-9a08-836ca8c5ab20"},"vehicle_type_id":"4","last_reported":1740319652,"current_range_meters":16400,"station_id":"ce4bhbp2rcd13ifvqesg","pricing_plan_id":"cebpf4jnsgd1na2vs0mg"},{"bike_id":"0bd5e867-131e-4811-90a3-e42274ba5fe2","system_id":"levelo_inurba_marseille","lat":43.28718,"lon":5.361,"is_reserved":false,"is_disabled":false,"rental_uris":{"android":"levelo://app?vid=0bd5e867-131e-4811-90a3-e42274ba5fe2","ios":"levelo://app?vid=0bd5e867-131e-4811-90a3-e42274ba5fe2"},"vehicle_type_id":"4","last_reported":1740319652,"current_range_meters":16400,"station_id":"cki0cbj6b192h4jlfktg","pricing_plan_id":"cebpf4jnsgd1na2vs0mg"},{"bike_id":"e672cd00-72b0-400a-8535-9ab04e4611c6","system_id":"levelo_inurba_marseille","lat":43.24388,"lon":5.3707,"is_reserved":false,"is_disabled":false,"rental_uris":{"android":"levelo://app?vid=e672cd00-72b0-400a-8535-9ab04e4611c6","ios":"levelo://app?vid=e672cd00-72b0-400a-8535-9ab04e4611c6"},"vehicle_type_id":"4","last_reported":1740319652,"current_range_meters":16400,"station_id":"ce4bhhh2rcd13ifvqfk0","pricing_plan_id":"cebpf4jnsgd1na2vs0mg"},{"bike_id":"ed27ce49-3c1d-4291-bdaf-fec0eba21532","system_id":"levelo_inurba_marseille","lat":43.26218,"lon":5.37443,"is_reserved":false,"is_disabled":false,"rental_uris":{"android":"levelo://app?vid=ed27ce49-3c1d-4291-bdaf-fec0eba21532","ios":"levelo://app?vid=ed27ce49-3c1d-4291-bdaf-fec0eba21532"},"vehicle_type_id":"4","last_reported":1740319652,"current_range_meters":16400,"station_id":"ce4bhgp2rcd13ifvqfc0","pricing_plan_id":"cebpf4jnsgd1na2vs0mg"},{"bike_id":"fd3d46bd-afc6-4e6d-a90f-2ee24e1a0159","system_id":"levelo_inurba_marseille","lat":43.27202,"lon":5.3919,"is_reserved":false,"is_disabled":false,"rental_uris":{"android":"levelo://app?vid=fd3d46bd-afc6-4e6d-a90f-2ee24e1a0159","ios":"levelo://app?vid=fd3d46bd-afc6-4e6d-a90f-2ee24e1a0159"},"vehicle_type_id":"4","last_reported":1740319652,"current_range_meters":16400,"station_id":"ce4bhhp2rcd13ifvqfm0","pricing_plan_id":"cebpf4jnsgd1na2vs0mg"},{"bike_id":"fc93a0cd-d658-4fe7-9e6a-52a49333f268","system_id":"levelo_inurba_marseille","lat":43.30816,"lon":5.38201,"is_reserved":false,"is_disabled":false,"rental_uris":{"android":"levelo://app?vid=fc93a0cd-d658-4fe7-9e6a-52a49333f268","ios":"levelo://app?vid=fc93a0cd-d658-4fe7-9e6a-52a49333f268"},"vehicle_type_id":"4","last_reported":1740319652,"current_range_meters":16400,"station_id":"ce4bgt12rcd13ifvqce0","pricing_plan_id":"cebpf4jnsgd1na2vs0mg"},{"bike_id":"5f88ec27-2ee5-48f3-86c0-444fde651678","system_id":"levelo_inurba_marseille","lat":43.27447,"lon":5.39395,"is_reserved":false,"is_disabled":false,"rental_uris":{"android":"levelo://app?vid=5f88ec27-2ee5-48f3-86c0-444fde651678","ios":"levelo://app?vid=5f88ec27-2ee5-48f3-86c0-444fde651678"},"vehicle_type_id":"4","last_reported":1740319652,"current_range_meters":16800,"station_id":"ce4bhdp2rcd13ifvqf20","pricing_plan_id":"cebpf4jnsgd1na2vs0mg"},{"bike_id":"02113bed-98b2-43c1-b135-956b928f7277","system_id":"levelo_inurba_marseille","lat":43.28272,"lon":5.35073,"is_reserved":false,"is_disabled":false,"rental_uris":{"android":"levelo://app?vid=02113bed-98b2-43c1-b135-956b928f7277","ios":"levelo://app?vid=02113bed-98b2-43c1-b135-956b928f7277"},"vehicle_type_id":"4","last_reported":1740319652,"current_range_meters":16800,"station_id":"ce4bhbp2rcd13ifvqerg","pricing_plan_id":"cebpf4jnsgd1na2vs0mg"},{"bike_id":"51c7c09f-82e9-4a4b-a201-54869c0fba8f","system_id":"levelo_inurba_marseille","lat":43.25083,"lon":5.39519,"is_reserved":false,"is_disabled":true,"rental_uris":{"android":"levelo://app?vid=51c7c09f-82e9-4a4b-a201-54869c0fba8f","ios":"levelo://app?vid=51c7c09f-82e9-4a4b-a201-54869c0fba8f"},"vehicle_type_id":"4","last_reported":1740319652,"current_range_meters":16800,"station_id":"ce4bhm12rcd13ifvqgkg","pricing_plan_id":"cebpf4jnsgd1na2vs0mg"},{"bike_id":"61920834-994e-4574-9a2f-d927074ecc78","system_id":"levelo_inurba_marseille","lat":43.24999,"lon":5.38931,"is_reserved":false,"is_disabled":false,"rental_uris":{"android":"levelo://app?vid=61920834-994e-4574-9a2f-d927074ecc78","ios":"levelo://app?vid=61920834-994e-4574-9a2f-d927074ecc78"},"vehicle_type_id":"4","last_reported":1740319652,"current_range_meters":16800,"station_id":"ce4bhgp2rcd13ifvqfd0","pricing_plan_id":"cebpf4jnsgd1na2vs0mg"},{"bike_id":"ee82f77f-f9d3-4009-b8ec-39bce07c2f58","system_id":"levelo_inurba_marseille","lat":43.27497,"lon":5.42452,"is_reserved":false,"is_disabled":false,"rental_uris":{"android":"levelo://app?vid=ee82f77f-f9d3-4009-b8ec-39bce07c2f58","ios":"levelo://app?vid=ee82f77f-f9d3-4009-b8ec-39bce07c2f58"},"vehicle_type_id":"4","last_reported":1740319652,"current_range_meters":16800,"station_id":"ce4bhn92rcd13ifvqgrg","pricing_plan_id":"cebpf4jnsgd1na2vs0mg"},{"bike_id":"10ef97ed-34d8-4649-924a-f68e48b166be","system_id":"levelo_inurba_marseille","lat":43.26193,"lon":5.40484,"is_reserved":false,"is_disabled":false,"rental_uris":{"android":"levelo://app?vid=10ef97ed-34d8-4649-924a-f68e48b166be","ios":"levelo://app?vid=10ef97ed-34d8-4649-924a-f68e48b166be"},"vehicle_type_id":"4","last_reported":1740319652,"current_range_meters":16800,"station_id":"ce4bhmh2rcd13ifvqgmg","pricing_plan_id":"cebpf4jnsgd1na2vs0mg"},{"bike_id":"cee028b0-c11a-4e7d-8d12-c304232e2d75","system_id":"levelo_inurba_marseille","lat":43.2862,"lon":5.35099,"is_reserved":false,"is_disabled":false,"rental_uris":{"android":"levelo://app?vid=cee028b0-c11a-4e7d-8d12-c304232e2d75","ios":"levelo://app?vid=cee028b0-c11a-4e7d-8d12-c304232e2d75"},"vehicle_type_id":"4","last_reported":1740319652,"current_range_meters":17200,"station_id":"ce4bhch2rcd13ifvqeug","pricing_plan_id":"cebpf4jnsgd1na2vs0mg"},{"bike_id":"149bfec4-ca6e-40a9-ad13-9dbb5388bae5","system_id":"levelo_inurba_marseille","lat":43.29612,"lon":5.38106,"is_reserved":false,"is_disabled":false,"rental_uris":{"android":"levelo://app?vid=149bfec4-ca6e-40a9-ad13-9dbb5388bae5","ios":"levelo://app?vid=149bfec4-ca6e-40a9-ad13-9dbb5388bae5"},"vehicle_type_id":"4","last_reported":1740319652,"current_range_meters":17200,"station_id":"ce4bgl12rcd13ifvqbo0","pricing_plan_id":"cebpf4jnsgd1na2vs0mg"},{"bike_id":"c96e6a95-3544-40e0-9c3b-ec85881ba6ff","system_id":"levelo_inurba_marseille","lat":43.292777,"lon":5.401406,"is_reserved":false,"is_disabled":false,"rental_uris":{"android":"levelo://app?vid=c96e6a95-3544-40e0-9c3b-ec85881ba6ff","ios":"levelo://app?vid=c96e6a95-3544-40e0-9c3b-ec85881ba6ff"},"vehicle_type_id":"4","last_reported":1740319652,"current_range_meters":17200,"station_id":"ce4bh112rcd13ifvqda0","pricing_plan_id":"cebpf4jnsgd1na2vs0mg"},{"bike_id":"87c93845-143c-4613-9a0d-08836448a26d","system_id":"levelo_inurba_marseille","lat":43.23964,"lon":5.36616,"is_reserved":false,"is_disabled":false,"rental_uris":{"android":"levelo://app?vid=87c93845-143c-4613-9a0d-08836448a26d","ios":"levelo://app?vid=87c93845-143c-4613-9a0d-08836448a26d"},"vehicle_type_id":"4","last_reported":1740319652,"current_range_meters":17200,"station_id":"ce4bhi12rcd13ifvqfp0","pricing_plan_id":"cebpf4jnsgd1na2vs0mg"},{"bike_id":"1f724299-518e-43e9-b32e-7282b81b7214","system_id":"levelo_inurba_marseille","lat":43.25954,"lon":5.40916,"is_reserved":false,"is_disabled":false,"rental_uris":{"android":"levelo://app?vid=1f724299-518e-43e9-b32e-7282b81b7214","ios":"levelo://app?vid=1f724299-518e-43e9-b32e-7282b81b7214"},"vehicle_type_id":"4","last_reported":1740319652,"current_range_meters":17200,"station_id":"ce4bhm92rcd13ifvqglg","pricing_plan_id":"cebpf4jnsgd1na2vs0mg"},{"bike_id":"4c15acf8-77c8-42db-b7be-f930ce3bfad3","system_id":"levelo_inurba_marseille","lat":43.26785,"lon":5.39414,"is_reserved":false,"is_disabled":false,"rental_uris":{"android":"levelo://app?vid=4c15acf8-77c8-42db-b7be-f930ce3bfad3","ios":"levelo://app?vid=4c15acf8-77c8-42db-b7be-f930ce3bfad3"},"vehicle_type_id":"4","last_reported":1740319652,"current_range_meters":17200,"station_id":"ce4bhh12rcd13ifvqfg0","pricing_plan_id":"cebpf4jnsgd1na2vs0mg"},{"bike_id":"b7a3a30a-42de-4cd8-b82e-d130ecf806b5","system_id":"levelo_inurba_marseille","lat":43.29199,"lon":5.39323,"is_reserved":false,"is_disabled":false,"rental_uris":{"android":"levelo://app?vid=b7a3a30a-42de-4cd8-b82e-d130ecf806b5","ios":"levelo://app?vid=b7a3a30a-42de-4cd8-b82e-d130ecf806b5"},"vehicle_type_id":"4","last_reported":1740319652,"current_range_meters":17600,"station_id":"ce4bh192rcd13ifvqdd0","pricing_plan_id":"cebpf4jnsgd1na2vs0mg"},{"bike_id":"40cc4cbd-2965-4207-8acc-baf1eedd795f","system_id":"levelo_inurba_marseille","lat":43.2623,"lon":5.40448,"is_reserved":false,"is_disabled":false,"rental_uris":{"android":"levelo://app?vid=40cc4cbd-2965-4207-8acc-baf1eedd795f","ios":"levelo://app?vid=40cc4cbd-2965-4207-8acc-baf1eedd795f"},"vehicle_type_id":"4","last_reported":1740319652,"current_range_meters":17600,"station_id":"ce4bhmh2rcd13ifvqgmg","pricing_plan_id":"cebpf4jnsgd1na2vs0mg"},{"bike_id":"7fe0996e-2e24-4a3a-b975-03a2a20f6506","system_id":"levelo_inurba_marseille","lat":43.32366,"lon":5.36771,"is_reserved":false,"is_disabled":false,"rental_uris":{"android":"levelo://app?vid=7fe0996e-2e24-4a3a-b975-03a2a20f6506","ios":"levelo://app?vid=7fe0996e-2e24-4a3a-b975-03a2a20f6506"},"vehicle_type_id":"4","last_reported":1740319652,"current_range_meters":17600,"station_id":"ce4bhsh2rcd13ifvqi2g","pricing_plan_id":"cebpf4jnsgd1na2vs0mg"},{"bike_id":"dd7ebbe4-9905-46a3-9ae3-b83956cdf31b","system_id":"levelo_inurba_marseille","lat":43.29895,"lon":5.38167,"is_reserved":false,"is_disabled":false,"rental_uris":{"android":"levelo://app?vid=dd7ebbe4-9905-46a3-9ae3-b83956cdf31b","ios":"levelo://app?vid=dd7ebbe4-9905-46a3-9ae3-b83956cdf31b"},"vehicle_type_id":"4","last_reported":1740319652,"current_range_meters":17600,"station_id":"ce4bgj12rcd13ifvqbc0","pricing_plan_id":"cebpf4jnsgd1na2vs0mg"},{"bike_id":"09c7c772-92a5-4a21-b3b3-b4ad4070a736","system_id":"levelo_inurba_marseille","lat":43.22929,"lon":5.35375,"is_reserved":false,"is_disabled":false,"rental_uris":{"android":"levelo://app?vid=09c7c772-92a5-4a21-b3b3-b4ad4070a736","ios":"levelo://app?vid=09c7c772-92a5-4a21-b3b3-b4ad4070a736"},"vehicle_type_id":"4","last_reported":1740319652,"current_range_meters":17200,"station_id":"cpo3532slgdg3j2ikp40","pricing_plan_id":"cebpf4jnsgd1na2vs0mg"},{"bike_id":"c0daf38f-0a60-4c17-bf48-92b8e3f5a6c6","system_id":"levelo_inurba_marseille","lat":43.28279,"lon":5.35083,"is_reserved":false,"is_disabled":false,"rental_uris":{"android":"levelo://app?vid=c0daf38f-0a60-4c17-bf48-92b8e3f5a6c6","ios":"levelo://app?vid=c0daf38f-0a60-4c17-bf48-92b8e3f5a6c6"},"vehicle_type_id":"4","last_reported":1740319652,"current_range_meters":17600,"station_id":"ce4bhbp2rcd13ifvqerg","pricing_plan_id":"cebpf4jnsgd1na2vs0mg"},{"bike_id":"1ef41376-cd3a-40a3-ae4a-f23a2a34fc30","system_id":"levelo_inurba_marseille","lat":43.27677,"lon":5.38907,"is_reserved":false,"is_disabled":true,"rental_uris":{"android":"levelo://app?vid=1ef41376-cd3a-40a3-ae4a-f23a2a34fc30","ios":"levelo://app?vid=1ef41376-cd3a-40a3-ae4a-f23a2a34fc30"},"vehicle_type_id":"4","last_reported":1740319652,"current_range_meters":18000,"station_id":"ce4bhi12rcd13ifvqfo0","pricing_plan_id":"cebpf4jnsgd1na2vs0mg"},{"bike_id":"496602af-0396-44d4-a7d6-089c02ca54ff","system_id":"levelo_inurba_marseille","lat":43.27963,"lon":5.38681,"is_reserved":false,"is_disabled":false,"rental_uris":{"android":"levelo://app?vid=496602af-0396-44d4-a7d6-089c02ca54ff","ios":"levelo://app?vid=496602af-0396-44d4-a7d6-089c02ca54ff"},"vehicle_type_id":"4","last_reported":1740319652,"current_range_meters":18000,"station_id":"ce4bhg12rcd13ifvqf80","pricing_plan_id":"cebpf4jnsgd1na2vs0mg"},{"bike_id":"d412c8ee-7e0a-4a20-ba9c-d6e982daf53e","system_id":"levelo_inurba_marseille","lat":43.26561,"lon":5.39005,"is_reserved":false,"is_disabled":false,"rental_uris":{"android":"levelo://app?vid=d412c8ee-7e0a-4a20-ba9c-d6e982daf53e","ios":"levelo://app?vid=d412c8ee-7e0a-4a20-ba9c-d6e982daf53e"},"vehicle_type_id":"4","last_reported":1740319652,"current_range_meters":18000,"station_id":"ce4bhe12rcd13ifvqf30","pricing_plan_id":"cebpf4jnsgd1na2vs0mg"},{"bike_id":"092edd37-1372-4d8a-af2d-059012b84d58","system_id":"levelo_inurba_marseille","lat":43.28264,"lon":5.35093,"is_reserved":false,"is_disabled":false,"rental_uris":{"android":"levelo://app?vid=092edd37-1372-4d8a-af2d-059012b84d58","ios":"levelo://app?vid=092edd37-1372-4d8a-af2d-059012b84d58"},"vehicle_type_id":"4","last_reported":1740319652,"current_range_meters":18000,"station_id":"ce4bhbp2rcd13ifvqerg","pricing_plan_id":"cebpf4jnsgd1na2vs0mg"},{"bike_id":"a2d6ae3f-66f4-4649-ba0a-99967149441d","system_id":"levelo_inurba_marseille","lat":43.29516,"lon":5.36123,"is_reserved":false,"is_disabled":false,"rental_uris":{"android":"levelo://app?vid=a2d6ae3f-66f4-4649-ba0a-99967149441d","ios":"levelo://app?vid=a2d6ae3f-66f4-4649-ba0a-99967149441d"},"vehicle_type_id":"4","last_reported":1740319652,"current_range_meters":18000,"station_id":"","pricing_plan_id":"cebpf4jnsgd1na2vs0mg"},{"bike_id":"9fabdfa7-a0ef-44ff-b626-33a9b5d52aad","system_id":"levelo_inurba_marseille","lat":43.30132,"lon":5.38783,"is_reserved":false,"is_disabled":true,"rental_uris":{"android":"levelo://app?vid=9fabdfa7-a0ef-44ff-b626-33a9b5d52aad","ios":"levelo://app?vid=9fabdfa7-a0ef-44ff-b626-33a9b5d52aad"},"vehicle_type_id":"4","last_reported":1740319652,"current_range_meters":18000,"station_id":"ce4bghh2rcd13ifvqb60","pricing_plan_id":"cebpf4jnsgd1na2vs0mg"},{"bike_id":"556145a0-4c6a-4875-a8d6-0c7dfa26bbd2","system_id":"levelo_inurba_marseille","lat":43.27369,"lon":5.36262,"is_reserved":false,"is_disabled":false,"rental_uris":{"android":"levelo://app?vid=556145a0-4c6a-4875-a8d6-0c7dfa26bbd2","ios":"levelo://app?vid=556145a0-4c6a-4875-a8d6-0c7dfa26bbd2"},"vehicle_type_id":"4","last_reported":1740319652,"current_range_meters":18800,"station_id":"ce4bhbh2rcd13ifvqeo0","pricing_plan_id":"cebpf4jnsgd1na2vs0mg"},{"bike_id":"5826361e-90be-4717-9fc8-819ab0c96984","system_id":"levelo_inurba_marseille","lat":43.28703,"lon":5.3739,"is_reserved":false,"is_disabled":false,"rental_uris":{"android":"levelo://app?vid=5826361e-90be-4717-9fc8-819ab0c96984","ios":"levelo://app?vid=5826361e-90be-4717-9fc8-819ab0c96984"},"vehicle_type_id":"4","last_reported":1740319652,"current_range_meters":18800,"station_id":"ce4bh3p2rcd13ifvqdq0","pricing_plan_id":"cebpf4jnsgd1na2vs0mg"},{"bike_id":"90725b13-9eff-47d3-a65e-2cc9696384eb","system_id":"levelo_inurba_marseille","lat":43.30143,"lon":5.37419,"is_reserved":false,"is_disabled":false,"rental_uris":{"android":"levelo://app?vid=90725b13-9eff-47d3-a65e-2cc9696384eb","ios":"levelo://app?vid=90725b13-9eff-47d3-a65e-2cc9696384eb"},"vehicle_type_id":"4","last_reported":1740319652,"current_range_meters":18000,"station_id":"ce4bgs92rcd13ifvqcc0","pricing_plan_id":"cebpf4jnsgd1na2vs0mg"},{"bike_id":"2ea42c9c-73ca-4aad-9c72-73fed6330028","system_id":"levelo_inurba_marseille","lat":43.312928,"lon":5.380404,"is_reserved":false,"is_disabled":false,"rental_uris":{"android":"levelo://app?vid=2ea42c9c-73ca-4aad-9c72-73fed6330028","ios":"levelo://app?vid=2ea42c9c-73ca-4aad-9c72-73fed6330028"},"vehicle_type_id":"4","last_reported":1740319652,"current_range_meters":18800,"station_id":"ce4bgg92rcd13ifvqb30","pricing_plan_id":"cebpf4jnsgd1na2vs0mg"},{"bike_id":"d80e5f56-1200-4b6a-b8e3-36e1076b9904","system_id":"levelo_inurba_marseille","lat":43.31172,"lon":5.387335,"is_reserved":false,"is_disabled":false,"rental_uris":{"android":"levelo://app?vid=d80e5f56-1200-4b6a-b8e3-36e1076b9904","ios":"levelo://app?vid=d80e5f56-1200-4b6a-b8e3-36e1076b9904"},"vehicle_type_id":"4","last_reported":1740319652,"current_range_meters":18800,"station_id":"ce4bgv12rcd13ifvqcp0","pricing_plan_id":"cebpf4jnsgd1na2vs0mg"},{"bike_id":"9db7ae3a-c201-4d5e-99f1-e577399936a7","system_id":"levelo_inurba_marseille","lat":43.24815,"lon":5.37454,"is_reserved":false,"is_disabled":false,"rental_uris":{"android":"levelo://app?vid=9db7ae3a-c201-4d5e-99f1-e577399936a7","ios":"levelo://app?vid=9db7ae3a-c201-4d5e-99f1-e577399936a7"},"vehicle_type_id":"4","last_reported":1740319652,"current_range_meters":18800,"station_id":"ce4bhgh2rcd13ifvqfb0","pricing_plan_id":"cebpf4jnsgd1na2vs0mg"},{"bike_id":"6f9ddc47-0df4-44cb-8421-9eb2cc2caa0a","system_id":"levelo_inurba_marseille","lat":43.29624,"lon":5.37152,"is_reserved":false,"is_disabled":false,"rental_uris":{"android":"levelo://app?vid=6f9ddc47-0df4-44cb-8421-9eb2cc2caa0a","ios":"levelo://app?vid=6f9ddc47-0df4-44cb-8421-9eb2cc2caa0a"},"vehicle_type_id":"4","last_reported":1740319652,"current_range_meters":18800,"station_id":"ce4bgnh2rcd13ifvqc0g","pricing_plan_id":"cebpf4jnsgd1na2vs0mg"},{"bike_id":"8a0b1fc3-884e-4260-b088-185601204901","system_id":"levelo_inurba_marseille","lat":43.25113,"lon":5.40322,"is_reserved":false,"is_disabled":false,"rental_uris":{"android":"levelo://app?vid=8a0b1fc3-884e-4260-b088-185601204901","ios":"levelo://app?vid=8a0b1fc3-884e-4260-b088-185601204901"},"vehicle_type_id":"4","last_reported":1740319652,"current_range_meters":17600,"station_id":"ce4bhlh2rcd13ifvqgig","pricing_plan_id":"cebpf4jnsgd1na2vs0mg"},{"bike_id":"b5a1d484-9e63-43b3-9bbc-06f2df1a2c91","system_id":"levelo_inurba_marseille","lat":43.291941,"lon":5.39316,"is_reserved":false,"is_disabled":false,"rental_uris":{"android":"levelo://app?vid=b5a1d484-9e63-43b3-9bbc-06f2df1a2c91","ios":"levelo://app?vid=b5a1d484-9e63-43b3-9bbc-06f2df1a2c91"},"vehicle_type_id":"4","last_reported":1740319652,"current_range_meters":19200,"station_id":"ce4bh192rcd13ifvqdd0","pricing_plan_id":"cebpf4jnsgd1na2vs0mg"},{"bike_id":"41a2216f-8b22-4f4f-9eac-5e2283bcdb4b","system_id":"levelo_inurba_marseille","lat":43.28152,"lon":5.42648,"is_reserved":false,"is_disabled":true,"rental_uris":{"android":"levelo://app?vid=41a2216f-8b22-4f4f-9eac-5e2283bcdb4b","ios":"levelo://app?vid=41a2216f-8b22-4f4f-9eac-5e2283bcdb4b"},"vehicle_type_id":"4","last_reported":1740319652,"current_range_meters":19200,"station_id":"ce4bhnh2rcd13ifvqgug","pricing_plan_id":"cebpf4jnsgd1na2vs0mg"},{"bike_id":"8ca06677-b1b9-472e-a44c-d767e4da9357","system_id":"levelo_inurba_marseille","lat":43.291992,"lon":5.393149,"is_reserved":false,"is_disabled":false,"rental_uris":{"android":"levelo://app?vid=8ca06677-b1b9-472e-a44c-d767e4da9357","ios":"levelo://app?vid=8ca06677-b1b9-472e-a44c-d767e4da9357"},"vehicle_type_id":"4","last_reported":1740319652,"current_range_meters":19200,"station_id":"ce4bh192rcd13ifvqdd0","pricing_plan_id":"cebpf4jnsgd1na2vs0mg"},{"bike_id":"9ec80d5d-5365-4fe8-b1b8-741c81741c1c","system_id":"levelo_inurba_marseille","lat":43.27697,"lon":5.40812,"is_reserved":false,"is_disabled":false,"rental_uris":{"android":"levelo://app?vid=9ec80d5d-5365-4fe8-b1b8-741c81741c1c","ios":"levelo://app?vid=9ec80d5d-5365-4fe8-b1b8-741c81741c1c"},"vehicle_type_id":"4","last_reported":1740319652,"current_range_meters":19200,"station_id":"","pricing_plan_id":"cebpf4jnsgd1na2vs0mg"},{"bike_id":"7da5d039-1e27-4ef7-8897-d82b4245516d","system_id":"levelo_inurba_marseille","lat":43.31485,"lon":5.37308,"is_reserved":false,"is_disabled":false,"rental_uris":{"android":"levelo://app?vid=7da5d039-1e27-4ef7-8897-d82b4245516d","ios":"levelo://app?vid=7da5d039-1e27-4ef7-8897-d82b4245516d"},"vehicle_type_id":"4","last_reported":1740319652,"current_range_meters":19200,"station_id":"ce4bgt12rcd13ifvqcd0","pricing_plan_id":"cebpf4jnsgd1na2vs0mg"},{"bike_id":"fe3ae4ab-b74c-4e5f-bbd6-489ceedc0623","system_id":"levelo_inurba_marseille","lat":43.28144,"lon":5.42618,"is_reserved":false,"is_disabled":false,"rental_uris":{"android":"levelo://app?vid=fe3ae4ab-b74c-4e5f-bbd6-489ceedc0623","ios":"levelo://app?vid=fe3ae4ab-b74c-4e5f-bbd6-489ceedc0623"},"vehicle_type_id":"4","last_reported":1740319652,"current_range_meters":19200,"station_id":"ce4bhnh2rcd13ifvqgug","pricing_plan_id":"cebpf4jnsgd1na2vs0mg"},{"bike_id":"0121f1b8-521b-4b06-8f46-2b972be82da3","system_id":"levelo_inurba_marseille","lat":43.28275,"lon":5.35074,"is_reserved":false,"is_disabled":false,"rental_uris":{"android":"levelo://app?vid=0121f1b8-521b-4b06-8f46-2b972be82da3","ios":"levelo://app?vid=0121f1b8-521b-4b06-8f46-2b972be82da3"},"vehicle_type_id":"4","last_reported":1740319652,"current_range_meters":19200,"station_id":"ce4bhbp2rcd13ifvqerg","pricing_plan_id":"cebpf4jnsgd1na2vs0mg"},{"bike_id":"c0553ce2-1e21-4424-ae14-30f158e9755d","system_id":"levelo_inurba_marseille","lat":43.29857,"lon":5.38909,"is_reserved":false,"is_disabled":true,"rental_uris":{"android":"levelo://app?vid=c0553ce2-1e21-4424-ae14-30f158e9755d","ios":"levelo://app?vid=c0553ce2-1e21-4424-ae14-30f158e9755d"},"vehicle_type_id":"4","last_reported":1740319652,"current_range_meters":19200,"station_id":"ce4bh392rcd13ifvqdl0","pricing_plan_id":"cebpf4jnsgd1na2vs0mg"},{"bike_id":"3b5b875c-7a6f-493d-9505-33c7fbb8fea3","system_id":"levelo_inurba_marseille","lat":43.28925,"lon":5.36638,"is_reserved":false,"is_disabled":false,"rental_uris":{"android":"levelo://app?vid=3b5b875c-7a6f-493d-9505-33c7fbb8fea3","ios":"levelo://app?vid=3b5b875c-7a6f-493d-9505-33c7fbb8fea3"},"vehicle_type_id":"4","last_reported":1740319652,"current_range_meters":19600,"station_id":"ce4bhap2rcd13ifvqek0","pricing_plan_id":"cebpf4jnsgd1na2vs0mg"},{"bike_id":"72f0fcb4-fc14-42ed-82cf-5a613057a4c1","system_id":"levelo_inurba_marseille","lat":43.30958,"lon":5.39044,"is_reserved":false,"is_disabled":false,"rental_uris":{"android":"levelo://app?vid=72f0fcb4-fc14-42ed-82cf-5a613057a4c1","ios":"levelo://app?vid=72f0fcb4-fc14-42ed-82cf-5a613057a4c1"},"vehicle_type_id":"4","last_reported":1740319652,"current_range_meters":19600,"station_id":"ce4bgup2rcd13ifvqco0","pricing_plan_id":"cebpf4jnsgd1na2vs0mg"},{"bike_id":"742ca9f5-02bb-4b6a-931f-e560f65b51cf","system_id":"levelo_inurba_marseille","lat":43.25929,"lon":5.4091,"is_reserved":false,"is_disabled":false,"rental_uris":{"android":"levelo://app?vid=742ca9f5-02bb-4b6a-931f-e560f65b51cf","ios":"levelo://app?vid=742ca9f5-02bb-4b6a-931f-e560f65b51cf"},"vehicle_type_id":"4","last_reported":1740319652,"current_range_meters":19600,"station_id":"ce4bhm92rcd13ifvqglg","pricing_plan_id":"cebpf4jnsgd1na2vs0mg"},{"bike_id":"30cbce76-9e88-46d7-bd0c-af6a1c8c4bf9","system_id":"levelo_inurba_marseille","lat":43.292,"lon":5.3933,"is_reserved":false,"is_disabled":false,"rental_uris":{"android":"levelo://app?vid=30cbce76-9e88-46d7-bd0c-af6a1c8c4bf9","ios":"levelo://app?vid=30cbce76-9e88-46d7-bd0c-af6a1c8c4bf9"},"vehicle_type_id":"4","last_reported":1740319652,"current_range_meters":19600,"station_id":"ce4bh192rcd13ifvqdd0","pricing_plan_id":"cebpf4jnsgd1na2vs0mg"},{"bike_id":"2cb3f284-7b8f-46db-a012-ff6c476270a8","system_id":"levelo_inurba_marseille","lat":43.23193,"lon":5.35563,"is_reserved":false,"is_disabled":false,"rental_uris":{"android":"levelo://app?vid=2cb3f284-7b8f-46db-a012-ff6c476270a8","ios":"levelo://app?vid=2cb3f284-7b8f-46db-a012-ff6c476270a8"},"vehicle_type_id":"4","last_reported":1740319652,"current_range_meters":19600,"station_id":"ce4bhu92rcd13ifvqi70","pricing_plan_id":"cebpf4jnsgd1na2vs0mg"},{"bike_id":"2be26d79-2eed-40f2-9548-8e92206449be","system_id":"levelo_inurba_marseille","lat":43.23962,"lon":5.36632,"is_reserved":false,"is_disabled":false,"rental_uris":{"android":"levelo://app?vid=2be26d79-2eed-40f2-9548-8e92206449be","ios":"levelo://app?vid=2be26d79-2eed-40f2-9548-8e92206449be"},"vehicle_type_id":"4","last_reported":1740319652,"current_range_meters":19600,"station_id":"ce4bhi12rcd13ifvqfp0","pricing_plan_id":"cebpf4jnsgd1na2vs0mg"},{"bike_id":"2ff59cb4-4cd5-47f8-8902-6984c91121b3","system_id":"levelo_inurba_marseille","lat":43.28272,"lon":5.35079,"is_reserved":false,"is_disabled":false,"rental_uris":{"android":"levelo://app?vid=2ff59cb4-4cd5-47f8-8902-6984c91121b3","ios":"levelo://app?vid=2ff59cb4-4cd5-47f8-8902-6984c91121b3"},"vehicle_type_id":"4","last_reported":1740319652,"current_range_meters":20000,"station_id":"ce4bhbp2rcd13ifvqerg","pricing_plan_id":"cebpf4jnsgd1na2vs0mg"},{"bike_id":"af5f066b-7c77-4814-a587-ef4003e54455","system_id":"levelo_inurba_marseille","lat":43.29599,"lon":5.38095,"is_reserved":false,"is_disabled":false,"rental_uris":{"android":"levelo://app?vid=af5f066b-7c77-4814-a587-ef4003e54455","ios":"levelo://app?vid=af5f066b-7c77-4814-a587-ef4003e54455"},"vehicle_type_id":"4","last_reported":1740319652,"current_range_meters":20000,"station_id":"ce4bgl12rcd13ifvqbo0","pricing_plan_id":"cebpf4jnsgd1na2vs0mg"},{"bike_id":"d17b5c45-a01a-44d2-a14d-32b828b876cd","system_id":"levelo_inurba_marseille","lat":43.26789,"lon":5.39411,"is_reserved":false,"is_disabled":false,"rental_uris":{"android":"levelo://app?vid=d17b5c45-a01a-44d2-a14d-32b828b876cd","ios":"levelo://app?vid=d17b5c45-a01a-44d2-a14d-32b828b876cd"},"vehicle_type_id":"4","last_reported":1740319652,"current_range_meters":20000,"station_id":"ce4bhh12rcd13ifvqfg0","pricing_plan_id":"cebpf4jnsgd1na2vs0mg"},{"bike_id":"67b8b3f6-1135-41e1-9b4f-c98e6799dec8","system_id":"levelo_inurba_marseille","lat":43.30803,"lon":5.4353,"is_reserved":false,"is_disabled":false,"rental_uris":{"android":"levelo://app?vid=67b8b3f6-1135-41e1-9b4f-c98e6799dec8","ios":"levelo://app?vid=67b8b3f6-1135-41e1-9b4f-c98e6799dec8"},"vehicle_type_id":"4","last_reported":1740319652,"current_range_meters":20000,"station_id":"ce4bhph2rcd13ifvqheg","pricing_plan_id":"cebpf4jnsgd1na2vs0mg"},{"bike_id":"578163f3-33db-44e0-9e22-c7ffbce2768d","system_id":"levelo_inurba_marseille","lat":43.26494,"lon":5.39538,"is_reserved":false,"is_disabled":false,"rental_uris":{"android":"levelo://app?vid=578163f3-33db-44e0-9e22-c7ffbce2768d","ios":"levelo://app?vid=578163f3-33db-44e0-9e22-c7ffbce2768d"},"vehicle_type_id":"4","last_reported":1740319652,"current_range_meters":20400,"station_id":"ce4bhi12rcd13ifvqfq0","pricing_plan_id":"cebpf4jnsgd1na2vs0mg"},{"bike_id":"cdf89f84-1d45-4ce1-b985-6a2c8b69ccf3","system_id":"levelo_inurba_marseille","lat":43.30579,"lon":5.36479,"is_reserved":false,"is_disabled":true,"rental_uris":{"android":"levelo://app?vid=cdf89f84-1d45-4ce1-b985-6a2c8b69ccf3","ios":"levelo://app?vid=cdf89f84-1d45-4ce1-b985-6a2c8b69ccf3"},"vehicle_type_id":"4","last_reported":1740319652,"current_range_meters":20400,"station_id":"ce4bgs12rcd13ifvqcag","pricing_plan_id":"cebpf4jnsgd1na2vs0mg"},{"bike_id":"ebbf6217-465f-4269-8ee4-4515a862b241","system_id":"levelo_inurba_marseille","lat":43.29873,"lon":5.389,"is_reserved":false,"is_disabled":true,"rental_uris":{"android":"levelo://app?vid=ebbf6217-465f-4269-8ee4-4515a862b241","ios":"levelo://app?vid=ebbf6217-465f-4269-8ee4-4515a862b241"},"vehicle_type_id":"4","last_reported":1740319652,"current_range_meters":20400,"station_id":"ce4bh392rcd13ifvqdl0","pricing_plan_id":"cebpf4jnsgd1na2vs0mg"},{"bike_id":"79dc9653-9b64-4ab3-a22b-6cb029ac5465","system_id":"levelo_inurba_marseille","lat":43.28464,"lon":5.38418,"is_reserved":false,"is_disabled":false,"rental_uris":{"android":"levelo://app?vid=79dc9653-9b64-4ab3-a22b-6cb029ac5465","ios":"levelo://app?vid=79dc9653-9b64-4ab3-a22b-6cb029ac5465"},"vehicle_type_id":"4","last_reported":1740319652,"current_range_meters":20400,"station_id":"ce4bh512rcd13ifvqe3g","pricing_plan_id":"cebpf4jnsgd1na2vs0mg"},{"bike_id":"1103d28b-8801-477c-8a26-574aa231ff2b","system_id":"levelo_inurba_marseille","lat":43.26568,"lon":5.38999,"is_reserved":false,"is_disabled":false,"rental_uris":{"android":"levelo://app?vid=1103d28b-8801-477c-8a26-574aa231ff2b","ios":"levelo://app?vid=1103d28b-8801-477c-8a26-574aa231ff2b"},"vehicle_type_id":"4","last_reported":1740319652,"current_range_meters":20400,"station_id":"ce4bhe12rcd13ifvqf30","pricing_plan_id":"cebpf4jnsgd1na2vs0mg"},{"bike_id":"7f5aae77-407d-4966-a802-dcf0bc20ffbf","system_id":"levelo_inurba_marseille","lat":43.26795,"lon":5.40273,"is_reserved":false,"is_disabled":false,"rental_uris":{"android":"levelo://app?vid=7f5aae77-407d-4966-a802-dcf0bc20ffbf","ios":"levelo://app?vid=7f5aae77-407d-4966-a802-dcf0bc20ffbf"},"vehicle_type_id":"4","last_reported":1740319652,"current_range_meters":20800,"station_id":"ce501612rcd8frsf0b60","pricing_plan_id":"cebpf4jnsgd1na2vs0mg"},{"bike_id":"ac2dbf14-6d93-413b-80c0-5f6db284ee21","system_id":"levelo_inurba_marseille","lat":43.29005,"lon":5.35613,"is_reserved":false,"is_disabled":false,"rental_uris":{"android":"levelo://app?vid=ac2dbf14-6d93-413b-80c0-5f6db284ee21","ios":"levelo://app?vid=ac2dbf14-6d93-413b-80c0-5f6db284ee21"},"vehicle_type_id":"4","last_reported":1740319652,"current_range_meters":20800,"station_id":"ce4bhb92rcd13ifvqen0","pricing_plan_id":"cebpf4jnsgd1na2vs0mg"},{"bike_id":"bd03ce46-6d3c-4602-af19-0efc4dd86936","system_id":"levelo_inurba_marseille","lat":43.25019,"lon":5.38902,"is_reserved":false,"is_disabled":false,"rental_uris":{"android":"levelo://app?vid=bd03ce46-6d3c-4602-af19-0efc4dd86936","ios":"levelo://app?vid=bd03ce46-6d3c-4602-af19-0efc4dd86936"},"vehicle_type_id":"4","last_reported":1740319652,"current_range_meters":20800,"station_id":"ce4bhgp2rcd13ifvqfd0","pricing_plan_id":"cebpf4jnsgd1na2vs0mg"},{"bike_id":"c0ef010f-322c-4497-a7ef-9a5875b74056","system_id":"levelo_inurba_marseille","lat":43.29197,"lon":5.39315,"is_reserved":false,"is_disabled":false,"rental_uris":{"android":"levelo://app?vid=c0ef010f-322c-4497-a7ef-9a5875b74056","ios":"levelo://app?vid=c0ef010f-322c-4497-a7ef-9a5875b74056"},"vehicle_type_id":"4","last_reported":1740319652,"current_range_meters":20800,"station_id":"ce4bh192rcd13ifvqdd0","pricing_plan_id":"cebpf4jnsgd1na2vs0mg"},{"bike_id":"177004c9-8e3d-4045-b86c-80e259016939","system_id":"levelo_inurba_marseille","lat":43.28718,"lon":5.36077,"is_reserved":false,"is_disabled":false,"rental_uris":{"android":"levelo://app?vid=177004c9-8e3d-4045-b86c-80e259016939","ios":"levelo://app?vid=177004c9-8e3d-4045-b86c-80e259016939"},"vehicle_type_id":"4","last_reported":1740319652,"current_range_meters":20800,"station_id":"cki0cbj6b192h4jlfktg","pricing_plan_id":"cebpf4jnsgd1na2vs0mg"},{"bike_id":"b39a3160-6073-4312-8d3d-938336370c39","system_id":"levelo_inurba_marseille","lat":43.28276,"lon":5.35089,"is_reserved":false,"is_disabled":false,"rental_uris":{"android":"levelo://app?vid=b39a3160-6073-4312-8d3d-938336370c39","ios":"levelo://app?vid=b39a3160-6073-4312-8d3d-938336370c39"},"vehicle_type_id":"4","last_reported":1740319652,"current_range_meters":21600,"station_id":"ce4bhbp2rcd13ifvqerg","pricing_plan_id":"cebpf4jnsgd1na2vs0mg"},{"bike_id":"dd68f2fc-1282-41ec-b4e9-8cae32810187","system_id":"levelo_inurba_marseille","lat":43.26965,"lon":5.40288,"is_reserved":false,"is_disabled":false,"rental_uris":{"android":"levelo://app?vid=dd68f2fc-1282-41ec-b4e9-8cae32810187","ios":"levelo://app?vid=dd68f2fc-1282-41ec-b4e9-8cae32810187"},"vehicle_type_id":"4","last_reported":1740319652,"current_range_meters":21600,"station_id":"cjm6bp8fraef2m0cb0m0","pricing_plan_id":"cebpf4jnsgd1na2vs0mg"},{"bike_id":"31f22dd6-b64e-47dc-a1e2-0e184779765a","system_id":"levelo_inurba_marseille","lat":43.29028,"lon":5.379053,"is_reserved":false,"is_disabled":false,"rental_uris":{"android":"levelo://app?vid=31f22dd6-b64e-47dc-a1e2-0e184779765a","ios":"levelo://app?vid=31f22dd6-b64e-47dc-a1e2-0e184779765a"},"vehicle_type_id":"4","last_reported":1740319652,"current_range_meters":21600,"station_id":"","pricing_plan_id":"cebpf4jnsgd1na2vs0mg"},{"bike_id":"53899e2c-901f-4684-921b-47370fcd206b","system_id":"levelo_inurba_marseille","lat":43.30102,"lon":5.39099,"is_reserved":false,"is_disabled":true,"rental_uris":{"android":"levelo://app?vid=53899e2c-901f-4684-921b-47370fcd206b","ios":"levelo://app?vid=53899e2c-901f-4684-921b-47370fcd206b"},"vehicle_type_id":"4","last_reported":1740319652,"current_range_meters":21600,"station_id":"ce4bh192rcd13ifvqdb0","pricing_plan_id":"cebpf4jnsgd1na2vs0mg"},{"bike_id":"073518a5-4dc0-447e-9477-a67f73b2a5a2","system_id":"levelo_inurba_marseille","lat":43.3235,"lon":5.36746,"is_reserved":false,"is_disabled":false,"rental_uris":{"android":"levelo://app?vid=073518a5-4dc0-447e-9477-a67f73b2a5a2","ios":"levelo://app?vid=073518a5-4dc0-447e-9477-a67f73b2a5a2"},"vehicle_type_id":"4","last_reported":1740319652,"current_range_meters":21600,"station_id":"ce4bhsh2rcd13ifvqi2g","pricing_plan_id":"cebpf4jnsgd1na2vs0mg"},{"bike_id":"96d24455-5213-4f5c-8b20-b43b5bd8cf14","system_id":"levelo_inurba_marseille","lat":43.29529,"lon":5.38536,"is_reserved":false,"is_disabled":false,"rental_uris":{"android":"levelo://app?vid=96d24455-5213-4f5c-8b20-b43b5bd8cf14","ios":"levelo://app?vid=96d24455-5213-4f5c-8b20-b43b5bd8cf14"},"vehicle_type_id":"4","last_reported":1740319652,"current_range_meters":20800,"station_id":"ce4bgih2rcd13ifvqba0","pricing_plan_id":"cebpf4jnsgd1na2vs0mg"},{"bike_id":"0f36dcdd-b97b-4ae8-afcd-d5c2384b3d87","system_id":"levelo_inurba_marseille","lat":43.28427,"lon":5.34986,"is_reserved":false,"is_disabled":false,"rental_uris":{"android":"levelo://app?vid=0f36dcdd-b97b-4ae8-afcd-d5c2384b3d87","ios":"levelo://app?vid=0f36dcdd-b97b-4ae8-afcd-d5c2384b3d87"},"vehicle_type_id":"4","last_reported":1740319652,"current_range_meters":22000,"station_id":"ce4bhbh2rcd13ifvqepg","pricing_plan_id":"cebpf4jnsgd1na2vs0mg"},{"bike_id":"09237259-c900-4a4c-86ad-d4ceb3d40366","system_id":"levelo_inurba_marseille","lat":43.29975,"lon":5.38548,"is_reserved":false,"is_disabled":false,"rental_uris":{"android":"levelo://app?vid=09237259-c900-4a4c-86ad-d4ceb3d40366","ios":"levelo://app?vid=09237259-c900-4a4c-86ad-d4ceb3d40366"},"vehicle_type_id":"4","last_reported":1740319652,"current_range_meters":22000,"station_id":"ce4bgj92rcd13ifvqbd0","pricing_plan_id":"cebpf4jnsgd1na2vs0mg"},{"bike_id":"01da0b14-81d8-4a03-b64e-0a55d2dc390d","system_id":"levelo_inurba_marseille","lat":43.29598,"lon":5.38097,"is_reserved":false,"is_disabled":false,"rental_uris":{"android":"levelo://app?vid=01da0b14-81d8-4a03-b64e-0a55d2dc390d","ios":"levelo://app?vid=01da0b14-81d8-4a03-b64e-0a55d2dc390d"},"vehicle_type_id":"4","last_reported":1740319652,"current_range_meters":22000,"station_id":"ce4bgl12rcd13ifvqbo0","pricing_plan_id":"cebpf4jnsgd1na2vs0mg"},{"bike_id":"328f32ad-b45e-4650-b5c4-cdacab0bea16","system_id":"levelo_inurba_marseille","lat":43.26195,"lon":5.37449,"is_reserved":false,"is_disabled":false,"rental_uris":{"android":"levelo://app?vid=328f32ad-b45e-4650-b5c4-cdacab0bea16","ios":"levelo://app?vid=328f32ad-b45e-4650-b5c4-cdacab0bea16"},"vehicle_type_id":"4","last_reported":1740319652,"current_range_meters":22000,"station_id":"ce4bhgp2rcd13ifvqfc0","pricing_plan_id":"cebpf4jnsgd1na2vs0mg"},{"bike_id":"d1530cd6-d354-44d4-b371-5e708ae5110a","system_id":"levelo_inurba_marseille","lat":43.232,"lon":5.35546,"is_reserved":false,"is_disabled":false,"rental_uris":{"android":"levelo://app?vid=d1530cd6-d354-44d4-b371-5e708ae5110a","ios":"levelo://app?vid=d1530cd6-d354-44d4-b371-5e708ae5110a"},"vehicle_type_id":"4","last_reported":1740319652,"current_range_meters":22000,"station_id":"ce4bhu92rcd13ifvqi70","pricing_plan_id":"cebpf4jnsgd1na2vs0mg"},{"bike_id":"6b6f5a15-470a-426e-9283-09f0a8e3ab8e","system_id":"levelo_inurba_marseille","lat":43.32126,"lon":5.36783,"is_reserved":false,"is_disabled":false,"rental_uris":{"android":"levelo://app?vid=6b6f5a15-470a-426e-9283-09f0a8e3ab8e","ios":"levelo://app?vid=6b6f5a15-470a-426e-9283-09f0a8e3ab8e"},"vehicle_type_id":"4","last_reported":1740319652,"current_range_meters":22000,"station_id":"ce4bhrh2rcd13ifvqhug","pricing_plan_id":"cebpf4jnsgd1na2vs0mg"},{"bike_id":"cd5753ce-af91-4b97-af7a-7133f30d5822","system_id":"levelo_inurba_marseille","lat":43.29899,"lon":5.4367,"is_reserved":false,"is_disabled":false,"rental_uris":{"android":"levelo://app?vid=cd5753ce-af91-4b97-af7a-7133f30d5822","ios":"levelo://app?vid=cd5753ce-af91-4b97-af7a-7133f30d5822"},"vehicle_type_id":"4","last_reported":1740319652,"current_range_meters":22000,"station_id":"ce4bhpp2rcd13ifvqhfg","pricing_plan_id":"cebpf4jnsgd1na2vs0mg"},{"bike_id":"8b9b7581-b242-45ec-889d-dff3ef38622e","system_id":"levelo_inurba_marseille","lat":43.23959,"lon":5.36637,"is_reserved":false,"is_disabled":false,"rental_uris":{"android":"levelo://app?vid=8b9b7581-b242-45ec-889d-dff3ef38622e","ios":"levelo://app?vid=8b9b7581-b242-45ec-889d-dff3ef38622e"},"vehicle_type_id":"4","last_reported":1740319652,"current_range_meters":22000,"station_id":"ce4bhi12rcd13ifvqfp0","pricing_plan_id":"cebpf4jnsgd1na2vs0mg"},{"bike_id":"2bef2f87-7c45-47de-89af-b5ee85aed3a7","system_id":"levelo_inurba_marseille","lat":43.2957,"lon":5.37484,"is_reserved":false,"is_disabled":true,"rental_uris":{"android":"levelo://app?vid=2bef2f87-7c45-47de-89af-b5ee85aed3a7","ios":"levelo://app?vid=2bef2f87-7c45-47de-89af-b5ee85aed3a7"},"vehicle_type_id":"4","last_reported":1740319652,"current_range_meters":22400,"station_id":"ce4bgh92rcd13ifvqb50","pricing_plan_id":"cebpf4jnsgd1na2vs0mg"},{"bike_id":"67350e3b-ced3-434f-8df5-0f50029c572e","system_id":"levelo_inurba_marseille","lat":43.231845,"lon":5.355766,"is_reserved":false,"is_disabled":false,"rental_uris":{"android":"levelo://app?vid=67350e3b-ced3-434f-8df5-0f50029c572e","ios":"levelo://app?vid=67350e3b-ced3-434f-8df5-0f50029c572e"},"vehicle_type_id":"4","last_reported":1740319652,"current_range_meters":22400,"station_id":"ce4bhu92rcd13ifvqi70","pricing_plan_id":"cebpf4jnsgd1na2vs0mg"},{"bike_id":"c911274e-5176-401b-a6b9-14fbde5abd40","system_id":"levelo_inurba_marseille","lat":43.297089,"lon":5.362588,"is_reserved":false,"is_disabled":false,"rental_uris":{"android":"levelo://app?vid=c911274e-5176-401b-a6b9-14fbde5abd40","ios":"levelo://app?vid=c911274e-5176-401b-a6b9-14fbde5abd40"},"vehicle_type_id":"4","last_reported":1740319652,"current_range_meters":22400,"station_id":"ce4bgqh2rcd13ifvqc4g","pricing_plan_id":"cebpf4jnsgd1na2vs0mg"},{"bike_id":"cb91f89f-302d-40a5-ad20-08751ba3e1b1","system_id":"levelo_inurba_marseille","lat":43.29519,"lon":5.39397,"is_reserved":false,"is_disabled":false,"rental_uris":{"android":"levelo://app?vid=cb91f89f-302d-40a5-ad20-08751ba3e1b1","ios":"levelo://app?vid=cb91f89f-302d-40a5-ad20-08751ba3e1b1"},"vehicle_type_id":"4","last_reported":1740319652,"current_range_meters":22400,"station_id":"ce4bh292rcd13ifvqdf0","pricing_plan_id":"cebpf4jnsgd1na2vs0mg"},{"bike_id":"86669f33-8519-423e-9dec-1b624217baeb","system_id":"levelo_inurba_marseille","lat":43.251,"lon":5.39495,"is_reserved":false,"is_disabled":true,"rental_uris":{"android":"levelo://app?vid=86669f33-8519-423e-9dec-1b624217baeb","ios":"levelo://app?vid=86669f33-8519-423e-9dec-1b624217baeb"},"vehicle_type_id":"4","last_reported":1740319652,"current_range_meters":22400,"station_id":"ce4bhm12rcd13ifvqgkg","pricing_plan_id":"cebpf4jnsgd1na2vs0mg"},{"bike_id":"e0a974b6-ebb6-4643-b3b6-b282d529bc0a","system_id":"levelo_inurba_marseille","lat":43.31704,"lon":5.43693,"is_reserved":false,"is_disabled":true,"rental_uris":{"android":"levelo://app?vid=e0a974b6-ebb6-4643-b3b6-b282d529bc0a","ios":"levelo://app?vid=e0a974b6-ebb6-4643-b3b6-b282d529bc0a"},"vehicle_type_id":"4","last_reported":1740319652,"current_range_meters":22400,"station_id":"ce4bhp92rcd13ifvqhcg","pricing_plan_id":"cebpf4jnsgd1na2vs0mg"},{"bike_id":"67353ec5-ce91-46f3-8df8-86128e85fd44","system_id":"levelo_inurba_marseille","lat":43.28155,"lon":5.42635,"is_reserved":false,"is_disabled":true,"rental_uris":{"android":"levelo://app?vid=67353ec5-ce91-46f3-8df8-86128e85fd44","ios":"levelo://app?vid=67353ec5-ce91-46f3-8df8-86128e85fd44"},"vehicle_type_id":"4","last_reported":1740319652,"current_range_meters":22400,"station_id":"ce4bhnh2rcd13ifvqgug","pricing_plan_id":"cebpf4jnsgd1na2vs0mg"},{"bike_id":"0cc4abad-faf2-4a58-aa28-c018b2e092ca","system_id":"levelo_inurba_marseille","lat":43.292389,"lon":5.366608,"is_reserved":false,"is_disabled":false,"rental_uris":{"android":"levelo://app?vid=0cc4abad-faf2-4a58-aa28-c018b2e092ca","ios":"levelo://app?vid=0cc4abad-faf2-4a58-aa28-c018b2e092ca"},