{"last_updated":1692457530,"ttl":30,"version":"2.2","data":{"bikes":[{"bike_id":"f22ca441-4e4e-4660-b824-b2f46943e54d","system_id":"levelo_inurba_marseille","lat":43.312239,"lon":5.368562,"is_reserved":false,"is_disabled":false,"rental_uris":{"android":"levelo://app?vid=f22ca441-4e4e-4660-b824-b2f46943e54d","ios":"levelo://app?vid=f22ca441-4e4e-4660-b824-b2f46943e54d"},"vehicle_type_id":"4","last_reported":1692457530,"current_range_meters":31200,"station_id":"ce4bgl92rcd13ifvqbq0","pricing_plan_id":"free"},{"bike_id":"cc0bddc4-403d-45fc-8b4a-c35198d4741b","system_id":"levelo_inurba_marseille","lat":43.312239,"lon":5.368562,"is_reserved":false,"is_disabled":false,"rental_uris":{"android":"levelo://app?vid=cc0bddc4-403d-45fc-8b4a-c35198d4741b","ios":"levelo://app?vid=cc0bddc4-403d-45fc-8b4a-c35198d4741b"},"vehicle_type_id":"4","last_reported":1692457530,"current_range_meters":31200,"station_id":"ce4bgl92rcd13ifvqbq0","pricing_plan_id":"free"},{"bike_id":"28e7cf53-575d-41ed-b334-437a597705b5","system_id":"levelo_inurba_marseille","lat":43.312239,"lon":5.368562,"is_reserved":false,"is_disabled":false,"rental_uris":{"android":"levelo://app?vid=28e7cf53-575d-41ed-b334-437a597705b5","ios":"levelo://app?vid=28e7cf53-575d-41ed-b334-437a597705b5"},"vehicle_type_id":"4","last_reported":1692457530,"current_range_meters":31200,"station_id":"ce4bgl92rcd13ifvqbq0","pricing_plan_id":"free"},{"bike_id":"551d0656-3361-4e0c-88ea-5db1254628c5","system_id":"levelo_inurba_marseille","lat":43.312239,"lon":5.368562,"is_reserved":false,"is_disabled":false,"rental_uris":{"android":"levelo://app?vid=551d0656-3361-4e0c-88ea-5db1254628c5","ios":"levelo://app?vid=551d0656-3361-4e0c-88ea-5db1254628c5"},"vehicle_type_id":"4","last_reported":1692457530,"current_range_meters":30000,"station_id":"ce4bgl92rcd13ifvqbq0","pricing_plan_id":"free"},{"bike_id":"d968abd3-56a4-4d70-b2e2-d7ac7ecfa54b","system_id":"levelo_inurba_marseille","lat":43.312239,"lon":5.368562,"is_reserved":false,"is_disabled":false,"rental_uris":{"android":"levelo://app?vid=d968abd3-56a4-4d70-b2e2-d7ac7ecfa54b","ios":"levelo://app?vid=d968abd3-56a4-4d70-b2e2-d7ac7ecfa54b"},"vehicle_type_id":"4","last_reported":1692457530,"current_range_meters":31200,"station_id":"ce4bgl92rcd13ifvqbq0","pricing_plan_id":"free"},{"bike_id":"a580b134-d447-4f71-841b-05e4e4f0e58a","system_id":"levelo_inurba_marseille","lat":43.312239,"lon":5.368562,"is_reserved":false,"is_disabled":false,"rental_uris":{"android":"levelo://app?vid=a580b134-d447-4f71-841b-05e4e4f0e58a","ios":"levelo://app?vid=a580b134-d447-4f71-841b-05e4e4f0e58a"},"vehicle_type_id":"4","last_reported":1692457530,"current_range_meters":22400,"station_id":"ce4bgl92rcd13ifvqbq0","pricing_plan_id":"free"},{"bike_id":"798484b3-d62c-4b6b-8973-f9fadb03d90c","system_id":"levelo_inurba_marseille","lat":43.312239,"lon":5.368562,"is_reserved":false,"is_disabled":false,"rental_uris":{"android":"levelo://app?vid=798484b3-d62c-4b6b-8973-f9fadb03d90c","ios":"levelo://app?vid=798484b3-d62c-4b6b-8973-f9fadb03d90c"},"vehicle_type_id":"4","last_reported":1692457530,"current_range_meters":31200,"station_id":"ce4bgl92rcd13ifvqbq0","pricing_plan_id":"free"},{"bike_id":"364dc0f9-c722-4a74-bc78-d8f7a5c4f1b7","system_id":"levelo_inurba_marseille","lat":43.312239,"lon":5.368562,"is_reserved":false,"is_disabled":false,"rental_uris":{"android":"levelo://app?vid=364dc0f9-c722-4a74-bc78-d8f7a5c4f1b7","ios":"levelo://app?vid=364dc0f9-c722-4a74-bc78-d8f7a5c4f1b7"},"vehicle_type_id":"4","last_reported":1692457530,"current_range_meters":30000,"station_id":"ce4bgl92rcd13ifvqbq0","pricing_plan_id":"free"},{"bike_id":"bc87bca4-24df-4796-abff-ca9583d327cb","system_id":"levelo_inurba_marseille","lat":43.30904,"lon":5.36852,"is_reserved":false,"is_disabled":false,"rental_uris":{"android":"levelo://app?vid=bc87bca4-24df-4796-abff-ca9583d327cb","ios":"levelo://app?vid=bc87bca4-24df-4796-abff-ca9583d327cb"},"vehicle_type_id":"4","last_reported":1692457530,"current_range_meters":30800,"station_id":"ce4bgn92rcd13ifvqbvg","pricing_plan_id":"free"},{"bike_id":"6ff9a574-ecf5-43a0-92e9-df1edb4cbd25","system_id":"levelo_inurba_marseille","lat":43.314811,"lon":5.373103,"is_reserved":false,"is_disabled":false,"rental_uris":{"android":"levelo://app?vid=6ff9a574-ecf5-43a0-92e9-df1edb4cbd25","ios":"levelo://app?vid=6ff9a574-ecf5-43a0-92e9-df1edb4cbd25"},"vehicle_type_id":"4","last_reported":1692457530,"current_range_meters":19200,"station_id":"ce4bgt12rcd13ifvqcd0","pricing_plan_id":"free"},{"bike_id":"1602eda8-bb57-43aa-af62-bf3665455c83","system_id":"levelo_inurba_marseille","lat":43.314811,"lon":5.373103,"is_reserved":false,"is_disabled":false,"rental_uris":{"android":"levelo://app?vid=1602eda8-bb57-43aa-af62-bf3665455c83","ios":"levelo://app?vid=1602eda8-bb57-43aa-af62-bf3665455c83"},"vehicle_type_id":"4","last_reported":1692457530,"current_range_meters":18400,"station_id":"ce4bgt12rcd13ifvqcd0","pricing_plan_id":"free"},{"bike_id":"6abdba0a-9eab-4a64-8f66-b1456f134c42","system_id":"levelo_inurba_marseille","lat":43.314811,"lon":5.373103,"is_reserved":false,"is_disabled":false,"rental_uris":{"android":"levelo://app?vid=6abdba0a-9eab-4a64-8f66-b1456f134c42","ios":"levelo://app?vid=6abdba0a-9eab-4a64-8f66-b1456f134c42"},"vehicle_type_id":"4","last_reported":1692457530,"current_range_meters":19600,"station_id":"ce4bgt12rcd13ifvqcd0","pricing_plan_id":"free"},{"bike_id":"8139ffac-4b98-4769-921d-d4b82e49fad0","system_id":"levelo_inurba_marseille","lat":43.314811,"lon":5.373103,"is_reserved":false,"is_disabled":false,"rental_uris":{"android":"levelo://app?vid=8139ffac-4b98-4769-921d-d4b82e49fad0","ios":"levelo://app?vid=8139ffac-4b98-4769-921d-d4b82e49fad0"},"vehicle_type_id":"4","last_reported":1692457530,"current_range_meters":21200,"station_id":"ce4bgt12rcd13ifvqcd0","pricing_plan_id":"free"},{"bike_id":"98e4e250-7f4c-4fae-81db-495e2a650c5d","system_id":"levelo_inurba_marseille","lat":43.309039,"lon":5.371797,"is_reserved":false,"is_disabled":false,"rental_uris":{"android":"levelo://app?vid=98e4e250-7f4c-4fae-81db-495e2a650c5d","ios":"levelo://app?vid=98e4e250-7f4c-4fae-81db-495e2a650c5d"},"vehicle_type_id":"4","last_reported":1692457530,"current_range_meters":20400,"station_id":"ce4bguh2rcd13ifvqckg","pricing_plan_id":"free"},{"bike_id":"9fbe6e18-d192-44c2-98b5-cafb68b41aa4","system_id":"levelo_inurba_marseille","lat":43.30547,"lon":5.36535,"is_reserved":false,"is_disabled":false,"rental_uris":{"android":"levelo://app?vid=9fbe6e18-d192-44c2-98b5-cafb68b41aa4","ios":"levelo://app?vid=9fbe6e18-d192-44c2-98b5-cafb68b41aa4"},"vehicle_type_id":"4","last_reported":1692457530,"current_range_meters":11200,"station_id":"ce4bgs12rcd13ifvqcag","pricing_plan_id":"free"},{"bike_id":"386ed8e3-b71e-4f68-86af-202c5b76503e","system_id":"levelo_inurba_marseille","lat":43.30536,"lon":5.36705,"is_reserved":false,"is_disabled":false,"rental_uris":{"android":"levelo://app?vid=386ed8e3-b71e-4f68-86af-202c5b76503e","ios":"levelo://app?vid=386ed8e3-b71e-4f68-86af-202c5b76503e"},"vehicle_type_id":"4","last_reported":1692457530,"current_range_meters":24800,"station_id":"ce4bgrp2rcd13ifvqc9g","pricing_plan_id":"free"},{"bike_id":"e4337297-ab04-4226-826d-84473e751140","system_id":"levelo_inurba_marseille","lat":43.305706,"lon":5.365654,"is_reserved":false,"is_disabled":false,"rental_uris":{"android":"levelo://app?vid=e4337297-ab04-4226-826d-84473e751140","ios":"levelo://app?vid=e4337297-ab04-4226-826d-84473e751140"},"vehicle_type_id":"4","last_reported":1692457530,"current_range_meters":21600,"station_id":"ce4bgs12rcd13ifvqcag","pricing_plan_id":"free"},{"bike_id":"ab083b4e-bc50-44a2-a6b7-c08b6f9a1f50","system_id":"levelo_inurba_marseille","lat":43.3078,"lon":5.37656,"is_reserved":false,"is_disabled":false,"rental_uris":{"android":"levelo://app?vid=ab083b4e-bc50-44a2-a6b7-c08b6f9a1f50","ios":"levelo://app?vid=ab083b4e-bc50-44a2-a6b7-c08b6f9a1f50"},"vehicle_type_id":"4","last_reported":1692457530,"current_range_meters":12000,"station_id":"ce4bgv92rcd13ifvqcq0","pricing_plan_id":"free"},{"bike_id":"e92c44c6-bfb0-45fa-b2fe-a367fd139d46","system_id":"levelo_inurba_marseille","lat":43.317075,"lon":5.377367,"is_reserved":false,"is_disabled":false,"rental_uris":{"android":"levelo://app?vid=e92c44c6-bfb0-45fa-b2fe-a367fd139d46","ios":"levelo://app?vid=e92c44c6-bfb0-45fa-b2fe-a367fd139d46"},"vehicle_type_id":"4","last_reported":1692457530,"current_range_meters":21600,"station_id":"ce4bgth2rcd13ifvqch0","pricing_plan_id":"free"},{"bike_id":"afed6de6-bfcf-43e9-bfd4-eba25170a42b","system_id":"levelo_inurba_marseille","lat":43.317075,"lon":5.377367,"is_reserved":false,"is_disabled":false,"rental_uris":{"android":"levelo://app?vid=afed6de6-bfcf-43e9-bfd4-eba25170a42b","ios":"levelo://app?vid=afed6de6-bfcf-43e9-bfd4-eba25170a42b"},"vehicle_type_id":"4","last_reported":1692457530,"current_range_meters":29200,"station_id":"ce4bgth2rcd13ifvqch0","pricing_plan_id":"free"},{"bike_id":"784dd607-42ba-4c87-aa30-553f0fab1303","system_id":"levelo_inurba_marseille","lat":43.315293,"lon":5.380349,"is_reserved":false,"is_disabled":false,"rental_uris":{"android":"levelo://app?vid=784dd607-42ba-4c87-aa30-553f0fab1303","ios":"levelo://app?vid=784dd607-42ba-4c87-aa30-553f0fab1303"},"vehicle_type_id":"4","last_reported":1692457530,"current_range_meters":13600,"station_id":"ce4bhsp2rcd13ifvqi50","pricing_plan_id":"free"},{"bike_id":"4c666611-cdcd-4613-90d6-53469c26664b","system_id":"levelo_inurba_marseille","lat":43.304606,"lon":5.379026,"is_reserved":false,"is_disabled":false,"rental_uris":{"android":"levelo://app?vid=4c666611-cdcd-4613-90d6-53469c26664b","ios":"levelo://app?vid=4c666611-cdcd-4613-90d6-53469c26664b"},"vehicle_type_id":"4","last_reported":1692457530,"current_range_meters":27600,"station_id":"ce4bgup2rcd13ifvqcn0","pricing_plan_id":"free"},{"bike_id":"c7bf3b6f-ef00-4024-a56e-fb58d90c7e1b","system_id":"levelo_inurba_marseille","lat":43.304606,"lon":5.379026,"is_reserved":false,"is_disabled":false,"rental_uris":{"android":"levelo://app?vid=c7bf3b6f-ef00-4024-a56e-fb58d90c7e1b","ios":"levelo://app?vid=c7bf3b6f-ef00-4024-a56e-fb58d90c7e1b"},"vehicle_type_id":"4","last_reported":1692457530,"current_range_meters":4000,"station_id":"ce4bgup2rcd13ifvqcn0","pricing_plan_id":"free"},{"bike_id":"b56100e3-7b72-4a87-bb44-9a3bb350ee61","system_id":"levelo_inurba_marseille","lat":43.302784,"lon":5.377158,"is_reserved":false,"is_disabled":false,"rental_uris":{"android":"levelo://app?vid=b56100e3-7b72-4a87-bb44-9a3bb350ee61","ios":"levelo://app?vid=b56100e3-7b72-4a87-bb44-9a3bb350ee61"},"vehicle_type_id":"4","last_reported":1692457530,"current_range_meters":30000,"station_id":"ce4bguh2rcd13ifvqcj0","pricing_plan_id":"free"},{"bike_id":"026a8ca0-fb8b-4497-8dc3-c420c362577c","system_id":"levelo_inurba_marseille","lat":43.302784,"lon":5.377158,"is_reserved":false,"is_disabled":false,"rental_uris":{"android":"levelo://app?vid=026a8ca0-fb8b-4497-8dc3-c420c362577c","ios":"levelo://app?vid=026a8ca0-fb8b-4497-8dc3-c420c362577c"},"vehicle_type_id":"4","last_reported":1692457530,"current_range_meters":30000,"station_id":"ce4bguh2rcd13ifvqcj0","pricing_plan_id":"free"},{"bike_id":"6fb2fca4-dbd4-4a56-a961-8a7a6d721efc","system_id":"levelo_inurba_marseille","lat":43.31996,"lon":5.38146,"is_reserved":false,"is_disabled":false,"rental_uris":{"android":"levelo://app?vid=6fb2fca4-dbd4-4a56-a961-8a7a6d721efc","ios":"levelo://app?vid=6fb2fca4-dbd4-4a56-a961-8a7a6d721efc"},"vehicle_type_id":"4","last_reported":1692457530,"current_range_meters":24000,"station_id":"ce4bhr12rcd13ifvqhpg","pricing_plan_id":"free"},{"bike_id":"8f9423b6-2f75-4d37-9601-472d76ede970","system_id":"levelo_inurba_marseille","lat":43.31361,"lon":5.38477,"is_reserved":false,"is_disabled":false,"rental_uris":{"android":"levelo://app?vid=8f9423b6-2f75-4d37-9601-472d76ede970","ios":"levelo://app?vid=8f9423b6-2f75-4d37-9601-472d76ede970"},"vehicle_type_id":"4","last_reported":1692457530,"current_range_meters":7200,"station_id":"ce4bgt92rcd13ifvqcf0","pricing_plan_id":"free"},{"bike_id":"3a4429a6-a59b-4811-8149-3e00db215708","system_id":"levelo_inurba_marseille","lat":43.298433,"lon":5.362774,"is_reserved":false,"is_disabled":false,"rental_uris":{"android":"levelo://app?vid=3a4429a6-a59b-4811-8149-3e00db215708","ios":"levelo://app?vid=3a4429a6-a59b-4811-8149-3e00db215708"},"vehicle_type_id":"4","last_reported":1692457530,"current_range_meters":15200,"station_id":"ce4bgpp2rcd13ifvqc3g","pricing_plan_id":"free"},{"bike_id":"b885f463-e8c5-42cc-902f-7152167ce1c7","system_id":"levelo_inurba_marseille","lat":43.299243,"lon":5.374807,"is_reserved":false,"is_disabled":false,"rental_uris":{"android":"levelo://app?vid=b885f463-e8c5-42cc-902f-7152167ce1c7","ios":"levelo://app?vid=b885f463-e8c5-42cc-902f-7152167ce1c7"},"vehicle_type_id":"4","last_reported":1692457530,"current_range_meters":31200,"station_id":"ce4bgjh2rcd13ifvqbg0","pricing_plan_id":"free"},{"bike_id":"36a0a893-98e4-4939-ab77-57b6c42cb3eb","system_id":"levelo_inurba_marseille","lat":43.30209,"lon":5.38103,"is_reserved":false,"is_disabled":false,"rental_uris":{"android":"levelo://app?vid=36a0a893-98e4-4939-ab77-57b6c42cb3eb","ios":"levelo://app?vid=36a0a893-98e4-4939-ab77-57b6c42cb3eb"},"vehicle_type_id":"4","last_reported":1692457530,"current_range_meters":0,"station_id":"","pricing_plan_id":"free"},{"bike_id":"5f91fc7d-0833-4a7c-a0d8-21ec0ad5455a","system_id":"levelo_inurba_marseille","lat":43.32285,"lon":5.3826,"is_reserved":false,"is_disabled":false,"rental_uris":{"android":"levelo://app?vid=5f91fc7d-0833-4a7c-a0d8-21ec0ad5455a","ios":"levelo://app?vid=5f91fc7d-0833-4a7c-a0d8-21ec0ad5455a"},"vehicle_type_id":"4","last_reported":1692457530,"current_range_meters":21200,"station_id":"ce4bhr12rcd13ifvqhqg","pricing_plan_id":"free"},{"bike_id":"b9784bc4-a1f4-4e7b-a996-3746dcc4c656","system_id":"levelo_inurba_marseille","lat":43.32289,"lon":5.38271,"is_reserved":false,"is_disabled":false,"rental_uris":{"android":"levelo://app?vid=b9784bc4-a1f4-4e7b-a996-3746dcc4c656","ios":"levelo://app?vid=b9784bc4-a1f4-4e7b-a996-3746dcc4c656"},"vehicle_type_id":"4","last_reported":1692457530,"current_range_meters":10400,"station_id":"ce4bhr12rcd13ifvqhqg","pricing_plan_id":"free"},{"bike_id":"5b5c8cae-b425-4976-9ba8-5ae205664d6b","system_id":"levelo_inurba_marseille","lat":43.32291,"lon":5.38269,"is_reserved":false,"is_disabled":false,"rental_uris":{"android":"levelo://app?vid=5b5c8cae-b425-4976-9ba8-5ae205664d6b","ios":"levelo://app?vid=5b5c8cae-b425-4976-9ba8-5ae205664d6b"},"vehicle_type_id":"4","last_reported":1692457530,"current_range_meters":19200,"station_id":"ce4bhr12rcd13ifvqhqg","pricing_plan_id":"free"},{"bike_id":"a1f7b084-f437-4e0c-8b20-334f54c48d59","system_id":"levelo_inurba_marseille","lat":43.32284,"lon":5.38279,"is_reserved":false,"is_disabled":false,"rental_uris":{"android":"levelo://app?vid=a1f7b084-f437-4e0c-8b20-334f54c48d59","ios":"levelo://app?vid=a1f7b084-f437-4e0c-8b20-334f54c48d59"},"vehicle_type_id":"4","last_reported":1692457530,"current_range_meters":19200,"station_id":"ce4bhr12rcd13ifvqhqg","pricing_plan_id":"free"},{"bike_id":"1b980555-d968-4010-9e58-8aaa96e9eae0","system_id":"levelo_inurba_marseille","lat":43.32289,"lon":5.38274,"is_reserved":false,"is_disabled":false,"rental_uris":{"android":"levelo://app?vid=1b980555-d968-4010-9e58-8aaa96e9eae0","ios":"levelo://app?vid=1b980555-d968-4010-9e58-8aaa96e9eae0"},"vehicle_type_id":"4","last_reported":1692457530,"current_range_meters":31200,"station_id":"ce4bhr12rcd13ifvqhqg","pricing_plan_id":"free"},{"bike_id":"673200d6-9c00-4797-bd65-06254571f6fe","system_id":"levelo_inurba_marseille","lat":43.32289,"lon":5.38275,"is_reserved":false,"is_disabled":false,"rental_uris":{"android":"levelo://app?vid=673200d6-9c00-4797-bd65-06254571f6fe","ios":"levelo://app?vid=673200d6-9c00-4797-bd65-06254571f6fe"},"vehicle_type_id":"4","last_reported":1692457530,"current_range_meters":23200,"station_id":"ce4bhr12rcd13ifvqhqg","pricing_plan_id":"free"},{"bike_id":"20066552-063e-4d3e-9e10-e0e8a6d2c838","system_id":"levelo_inurba_marseille","lat":43.32286,"lon":5.38281,"is_reserved":false,"is_disabled":false,"rental_uris":{"android":"levelo://app?vid=20066552-063e-4d3e-9e10-e0e8a6d2c838","ios":"levelo://app?vid=20066552-063e-4d3e-9e10-e0e8a6d2c838"},"vehicle_type_id":"4","last_reported":1692457530,"current_range_meters":30000,"station_id":"ce4bhr12rcd13ifvqhqg","pricing_plan_id":"free"},{"bike_id":"648dadf8-ff22-438c-bfb7-5c83267bdf3f","system_id":"levelo_inurba_marseille","lat":43.32293,"lon":5.38273,"is_reserved":false,"is_disabled":false,"rental_uris":{"android":"levelo://app?vid=648dadf8-ff22-438c-bfb7-5c83267bdf3f","ios":"levelo://app?vid=648dadf8-ff22-438c-bfb7-5c83267bdf3f"},"vehicle_type_id":"4","last_reported":1692457530,"current_range_meters":31200,"station_id":"ce4bhr12rcd13ifvqhqg","pricing_plan_id":"free"},{"bike_id":"e3a21d07-f446-4608-85be-12a81574bffc","system_id":"levelo_inurba_marseille","lat":43.3283,"lon":5.36686,"is_reserved":false,"is_disabled":false,"rental_uris":{"android":"levelo://app?vid=e3a21d07-f446-4608-85be-12a81574bffc","ios":"levelo://app?vid=e3a21d07-f446-4608-85be-12a81574bffc"},"vehicle_type_id":"4","last_reported":1692457530,"current_range_meters":16400,"station_id":"ce4bhs92rcd13ifvqi0g","pricing_plan_id":"free"},{"bike_id":"dd789220-e7b5-42c1-b9dc-dc4243148021","system_id":"levelo_inurba_marseille","lat":43.297163,"lon":5.365866,"is_reserved":false,"is_disabled":false,"rental_uris":{"android":"levelo://app?vid=dd789220-e7b5-42c1-b9dc-dc4243148021","ios":"levelo://app?vid=dd789220-e7b5-42c1-b9dc-dc4243148021"},"vehicle_type_id":"4","last_reported":1692457530,"current_range_meters":31200,"station_id":"ce4bgn12rcd13ifvqbt0","pricing_plan_id":"free"},{"bike_id":"418f40db-23bc-4b66-8945-04cfb5eeb137","system_id":"levelo_inurba_marseille","lat":43.328371,"lon":5.366909,"is_reserved":false,"is_disabled":false,"rental_uris":{"android":"levelo://app?vid=418f40db-23bc-4b66-8945-04cfb5eeb137","ios":"levelo://app?vid=418f40db-23bc-4b66-8945-04cfb5eeb137"},"vehicle_type_id":"4","last_reported":1692457530,"current_range_meters":31200,"station_id":"ce4bhs92rcd13ifvqi0g","pricing_plan_id":"free"},{"bike_id":"5f3e3bfc-85ed-4d8c-8b92-e1a6257584a3","system_id":"levelo_inurba_marseille","lat":43.328371,"lon":5.366909,"is_reserved":false,"is_disabled":false,"rental_uris":{"android":"levelo://app?vid=5f3e3bfc-85ed-4d8c-8b92-e1a6257584a3","ios":"levelo://app?vid=5f3e3bfc-85ed-4d8c-8b92-e1a6257584a3"},"vehicle_type_id":"4","last_reported":1692457530,"current_range_meters":22800,"station_id":"ce4bhs92rcd13ifvqi0g","pricing_plan_id":"free"},{"bike_id":"2ddd90e7-349a-4b85-8df6-298a58c64c73","system_id":"levelo_inurba_marseille","lat":43.328371,"lon":5.366909,"is_reserved":false,"is_disabled":false,"rental_uris":{"android":"levelo://app?vid=2ddd90e7-349a-4b85-8df6-298a58c64c73","ios":"levelo://app?vid=2ddd90e7-349a-4b85-8df6-298a58c64c73"},"vehicle_type_id":"4","last_reported":1692457530,"current_range_meters":4400,"station_id":"ce4bhs92rcd13ifvqi0g","pricing_plan_id":"free"},{"bike_id":"d3139180-8ba9-4c91-b6e4-8baae3c22113","system_id":"levelo_inurba_marseille","lat":43.296131,"lon":5.370773,"is_reserved":false,"is_disabled":false,"rental_uris":{"android":"levelo://app?vid=d3139180-8ba9-4c91-b6e4-8baae3c22113","ios":"levelo://app?vid=d3139180-8ba9-4c91-b6e4-8baae3c22113"},"vehicle_type_id":"4","last_reported":1692457530,"current_range_meters":31200,"station_id":"ce4bgnh2rcd13ifvqc0g","pricing_plan_id":"free"},{"bike_id":"bb155e93-116e-494a-9911-2df351c7dae8","system_id":"levelo_inurba_marseille","lat":43.296131,"lon":5.370791,"is_reserved":false,"is_disabled":false,"rental_uris":{"android":"levelo://app?vid=bb155e93-116e-494a-9911-2df351c7dae8","ios":"levelo://app?vid=bb155e93-116e-494a-9911-2df351c7dae8"},"vehicle_type_id":"4","last_reported":1692457530,"current_range_meters":30000,"station_id":"ce4bgnh2rcd13ifvqc0g","pricing_plan_id":"free"},{"bike_id":"a4df99ce-0488-49dd-a888-94686f562e88","system_id":"levelo_inurba_marseille","lat":43.295748,"lon":5.37522,"is_reserved":false,"is_disabled":false,"rental_uris":{"android":"levelo://app?vid=a4df99ce-0488-49dd-a888-94686f562e88","ios":"levelo://app?vid=a4df99ce-0488-49dd-a888-94686f562e88"},"vehicle_type_id":"4","last_reported":1692457530,"current_range_meters":28800,"station_id":"ce4bgh92rcd13ifvqb50","pricing_plan_id":"free"},{"bike_id":"207f2f90-5396-4fe6-bd95-d438ab16c0b7","system_id":"levelo_inurba_marseille","lat":43.32364,"lon":5.38882,"is_reserved":false,"is_disabled":false,"rental_uris":{"android":"levelo://app?vid=207f2f90-5396-4fe6-bd95-d438ab16c0b7","ios":"levelo://app?vid=207f2f90-5396-4fe6-bd95-d438ab16c0b7"},"vehicle_type_id":"4","last_reported":1692457530,"current_range_meters":30000,"station_id":"ce4bhqp2rcd13ifvqhog","pricing_plan_id":"free"},{"bike_id":"21fcea45-e491-4a85-bcbf-bf5cd0b62ccf","system_id":"levelo_inurba_marseille","lat":43.32368,"lon":5.38879,"is_reserved":false,"is_disabled":false,"rental_uris":{"android":"levelo://app?vid=21fcea45-e491-4a85-bcbf-bf5cd0b62ccf","ios":"levelo://app?vid=21fcea45-e491-4a85-bcbf-bf5cd0b62ccf"},"vehicle_type_id":"4","last_reported":1692457530,"current_range_meters":31200,"station_id":"ce4bhqp2rcd13ifvqhog","pricing_plan_id":"free"},{"bike_id":"55f08f4d-333e-4077-9882-16e72e12ddbf","system_id":"levelo_inurba_marseille","lat":43.32367,"lon":5.388836,"is_reserved":false,"is_disabled":false,"rental_uris":{"android":"levelo://app?vid=55f08f4d-333e-4077-9882-16e72e12ddbf","ios":"levelo://app?vid=55f08f4d-333e-4077-9882-16e72e12ddbf"},"vehicle_type_id":"4","last_reported":1692457530,"current_range_meters":28000,"station_id":"ce4bhqp2rcd13ifvqhog","pricing_plan_id":"free"},{"bike_id":"a97f77a2-1520-4bfc-9df0-0f9c62851caa","system_id":"levelo_inurba_marseille","lat":43.32358,"lon":5.38891,"is_reserved":false,"is_disabled":false,"rental_uris":{"android":"levelo://app?vid=a97f77a2-1520-4bfc-9df0-0f9c62851caa","ios":"levelo://app?vid=a97f77a2-1520-4bfc-9df0-0f9c62851caa"},"vehicle_type_id":"4","last_reported":1692457530,"current_range_meters":28000,"station_id":"ce4bhqp2rcd13ifvqhog","pricing_plan_id":"free"},{"bike_id":"d49c7be8-2f16-4455-8835-7143b891d27c","system_id":"levelo_inurba_marseille","lat":43.32364,"lon":5.38888,"is_reserved":false,"is_disabled":false,"rental_uris":{"android":"levelo://app?vid=d49c7be8-2f16-4455-8835-7143b891d27c","ios":"levelo://app?vid=d49c7be8-2f16-4455-8835-7143b891d27c"},"vehicle_type_id":"4","last_reported":1692457530,"current_range_meters":26800,"station_id":"ce4bhqp2rcd13ifvqhog","pricing_plan_id":"free"},{"bike_id":"6b6cba89-d2b8-44bb-8454-5df08cf65f67","system_id":"levelo_inurba_marseille","lat":43.32367,"lon":5.38886,"is_reserved":false,"is_disabled":false,"rental_uris":{"android":"levelo://app?vid=6b6cba89-d2b8-44bb-8454-5df08cf65f67","ios":"levelo://app?vid=6b6cba89-d2b8-44bb-8454-5df08cf65f67"},"vehicle_type_id":"4","last_reported":1692457530,"current_range_meters":12800,"station_id":"ce4bhqp2rcd13ifvqhog","pricing_plan_id":"free"},{"bike_id":"03f2098f-b50c-4ca4-a765-8806d474ecf2","system_id":"levelo_inurba_marseille","lat":43.32367,"lon":5.388836,"is_reserved":false,"is_disabled":false,"rental_uris":{"android":"levelo://app?vid=03f2098f-b50c-4ca4-a765-8806d474ecf2","ios":"levelo://app?vid=03f2098f-b50c-4ca4-a765-8806d474ecf2"},"vehicle_type_id":"4","last_reported":1692457530,"current_range_meters":9200,"station_id":"ce4bhqp2rcd13ifvqhog","pricing_plan_id":"free"},{"bike_id":"3ca3f621-3ed1-46b4-b4f6-37a71d187fa3","system_id":"levelo_inurba_marseille","lat":43.3237,"lon":5.38889,"is_reserved":false,"is_disabled":false,"rental_uris":{"android":"levelo://app?vid=3ca3f621-3ed1-46b4-b4f6-37a71d187fa3","ios":"levelo://app?vid=3ca3f621-3ed1-46b4-b4f6-37a71d187fa3"},"vehicle_type_id":"4","last_reported":1692457530,"current_range_meters":26800,"station_id":"ce4bhqp2rcd13ifvqhog","pricing_plan_id":"free"},{"bike_id":"0126f869-77bb-4690-a14f-53e2dd9d4689","system_id":"levelo_inurba_marseille","lat":43.32368,"lon":5.38894,"is_reserved":false,"is_disabled":false,"rental_uris":{"android":"levelo://app?vid=0126f869-77bb-4690-a14f-53e2dd9d4689","ios":"levelo://app?vid=0126f869-77bb-4690-a14f-53e2dd9d4689"},"vehicle_type_id":"4","last_reported":1692457530,"current_range_meters":25600,"station_id":"ce4bhqp2rcd13ifvqhog","pricing_plan_id":"free"},{"bike_id":"0f5b98b9-0566-40dc-8b10-cca8f64eb83b","system_id":"levelo_inurba_marseille","lat":43.29602,"lon":5.381084,"is_reserved":false,"is_disabled":false,"rental_uris":{"android":"levelo://app?vid=0f5b98b9-0566-40dc-8b10-cca8f64eb83b","ios":"levelo://app?vid=0f5b98b9-0566-40dc-8b10-cca8f64eb83b"},"vehicle_type_id":"4","last_reported":1692457530,"current_range_meters":2000,"station_id":"ce4bgl12rcd13ifvqbo0","pricing_plan_id":"free"},{"bike_id":"1808970a-dac0-4b79-9f3a-9a05f3d82f58","system_id":"levelo_inurba_marseille","lat":43.292749,"lon":5.368402,"is_reserved":false,"is_disabled":false,"rental_uris":{"android":"levelo://app?vid=1808970a-dac0-4b79-9f3a-9a05f3d82f58","ios":"levelo://app?vid=1808970a-dac0-4b79-9f3a-9a05f3d82f58"},"vehicle_type_id":"4","last_reported":1692457530,"current_range_meters":31200,"station_id":"ce4bhbp2rcd13ifvqesg","pricing_plan_id":"free"},{"bike_id":"cf981db2-a977-494f-8398-c4622a1eb6e6","system_id":"levelo_inurba_marseille","lat":43.292749,"lon":5.368402,"is_reserved":false,"is_disabled":false,"rental_uris":{"android":"levelo://app?vid=cf981db2-a977-494f-8398-c4622a1eb6e6","ios":"levelo://app?vid=cf981db2-a977-494f-8398-c4622a1eb6e6"},"vehicle_type_id":"4","last_reported":1692457530,"current_range_meters":31200,"station_id":"ce4bhbp2rcd13ifvqesg","pricing_plan_id":"free"},{"bike_id":"714f7bef-230d-4a9d-9fa1-7a1ba17c0dcc","system_id":"levelo_inurba_marseille","lat":43.292749,"lon":5.368402,"is_reserved":false,"is_disabled":false,"rental_uris":{"android":"levelo://app?vid=714f7bef-230d-4a9d-9fa1-7a1ba17c0dcc","ios":"levelo://app?vid=714f7bef-230d-4a9d-9fa1-7a1ba17c0dcc"},"vehicle_type_id":"4","last_reported":1692457530,"current_range_meters":17200,"station_id":"ce4bhbp2rcd13ifvqesg","pricing_plan_id":"free"},{"bike_id":"bd05017f-74d8-406f-884b-4f9008706478","system_id":"levelo_inurba_marseille","lat":43.293009,"lon":5.374584,"is_reserved":false,"is_disabled":false,"rental_uris":{"android":"levelo://app?vid=bd05017f-74d8-406f-884b-4f9008706478","ios":"levelo://app?vid=bd05017f-74d8-406f-884b-4f9008706478"},"vehicle_type_id":"4","last_reported":1692457530,"current_range_meters":2000,"station_id":"ce4bgi12rcd13ifvqb70","pricing_plan_id":"free"},{"bike_id":"38fef587-7cc5-4800-b069-87b8f296a10a","system_id":"levelo_inurba_marseille","lat":43.293009,"lon":5.374584,"is_reserved":false,"is_disabled":false,"rental_uris":{"android":"levelo://app?vid=38fef587-7cc5-4800-b069-87b8f296a10a","ios":"levelo://app?vid=38fef587-7cc5-4800-b069-87b8f296a10a"},"vehicle_type_id":"4","last_reported":1692457530,"current_range_meters":31200,"station_id":"ce4bgi12rcd13ifvqb70","pricing_plan_id":"free"},{"bike_id":"925e2d7c-871d-4a44-8e00-c2625b744080","system_id":"levelo_inurba_marseille","lat":43.294162,"lon":5.386292,"is_reserved":false,"is_disabled":false,"rental_uris":{"android":"levelo://app?vid=925e2d7c-871d-4a44-8e00-c2625b744080","ios":"levelo://app?vid=925e2d7c-871d-4a44-8e00-c2625b744080"},"vehicle_type_id":"4","last_reported":1692457530,"current_range_meters":3200,"station_id":"ce4bh2h2rcd13ifvqdh0","pricing_plan_id":"free"},{"bike_id":"ad4d51d9-ca2a-49fb-ad39-1ac7e7c615f2","system_id":"levelo_inurba_marseille","lat":43.302008,"lon":5.394694,"is_reserved":false,"is_disabled":false,"rental_uris":{"android":"levelo://app?vid=ad4d51d9-ca2a-49fb-ad39-1ac7e7c615f2","ios":"levelo://app?vid=ad4d51d9-ca2a-49fb-ad39-1ac7e7c615f2"},"vehicle_type_id":"4","last_reported":1692457530,"current_range_meters":0,"station_id":"ce4bh0p2rcd13ifvqd70","pricing_plan_id":"free"},{"bike_id":"e229ac2f-a21d-4dbf-b9bc-ce789ac22cbd","system_id":"levelo_inurba_marseille","lat":43.33045,"lon":5.38911,"is_reserved":false,"is_disabled":false,"rental_uris":{"android":"levelo://app?vid=e229ac2f-a21d-4dbf-b9bc-ce789ac22cbd","ios":"levelo://app?vid=e229ac2f-a21d-4dbf-b9bc-ce789ac22cbd"},"vehicle_type_id":"4","last_reported":1692457530,"current_range_meters":26400,"station_id":"ce4bhr92rcd13ifvqhrg","pricing_plan_id":"free"},{"bike_id":"8cec0a5e-a013-4bb5-bdd5-903ebe627f90","system_id":"levelo_inurba_marseille","lat":43.33045,"lon":5.38911,"is_reserved":false,"is_disabled":false,"rental_uris":{"android":"levelo://app?vid=8cec0a5e-a013-4bb5-bdd5-903ebe627f90","ios":"levelo://app?vid=8cec0a5e-a013-4bb5-bdd5-903ebe627f90"},"vehicle_type_id":"4","last_reported":1692457530,"current_range_meters":29600,"station_id":"ce4bhr92rcd13ifvqhrg","pricing_plan_id":"free"},{"bike_id":"7d19a255-9f7a-4d0e-beba-2bfebb3c7b5e","system_id":"levelo_inurba_marseille","lat":43.33043,"lon":5.38915,"is_reserved":false,"is_disabled":false,"rental_uris":{"android":"levelo://app?vid=7d19a255-9f7a-4d0e-beba-2bfebb3c7b5e","ios":"levelo://app?vid=7d19a255-9f7a-4d0e-beba-2bfebb3c7b5e"},"vehicle_type_id":"4","last_reported":1692457530,"current_range_meters":24000,"station_id":"ce4bhr92rcd13ifvqhrg","pricing_plan_id":"free"},{"bike_id":"932f3bab-515f-4791-9ce8-f1a24041f1ab","system_id":"levelo_inurba_marseille","lat":43.33041,"lon":5.38919,"is_reserved":false,"is_disabled":false,"rental_uris":{"android":"levelo://app?vid=932f3bab-515f-4791-9ce8-f1a24041f1ab","ios":"levelo://app?vid=932f3bab-515f-4791-9ce8-f1a24041f1ab"},"vehicle_type_id":"4","last_reported":1692457530,"current_range_meters":31200,"station_id":"ce4bhr92rcd13ifvqhrg","pricing_plan_id":"free"},{"bike_id":"78f1a325-e5b4-4a72-bb0e-b29d3285ba24","system_id":"levelo_inurba_marseille","lat":43.290104,"lon":5.356111,"is_reserved":false,"is_disabled":false,"rental_uris":{"android":"levelo://app?vid=78f1a325-e5b4-4a72-bb0e-b29d3285ba24","ios":"levelo://app?vid=78f1a325-e5b4-4a72-bb0e-b29d3285ba24"},"vehicle_type_id":"4","last_reported":1692457530,"current_range_meters":30800,"station_id":"ce4bhb92rcd13ifvqen0","pricing_plan_id":"free"},{"bike_id":"86eac789-1e56-496d-abfa-705e29d378c7","system_id":"levelo_inurba_marseille","lat":43.33046,"lon":5.38912,"is_reserved":false,"is_disabled":false,"rental_uris":{"android":"levelo://app?vid=86eac789-1e56-496d-abfa-705e29d378c7","ios":"levelo://app?vid=86eac789-1e56-496d-abfa-705e29d378c7"},"vehicle_type_id":"4","last_reported":1692457530,"current_range_meters":31200,"station_id":"ce4bhr92rcd13ifvqhrg","pricing_plan_id":"free"},{"bike_id":"70576a93-fbdb-4696-908e-c08c0f1995f8","system_id":"levelo_inurba_marseille","lat":43.33047,"lon":5.38912,"is_reserved":false,"is_disabled":false,"rental_uris":{"android":"levelo://app?vid=70576a93-fbdb-4696-908e-c08c0f1995f8","ios":"levelo://app?vid=70576a93-fbdb-4696-908e-c08c0f1995f8"},"vehicle_type_id":"4","last_reported":1692457530,"current_range_meters":28000,"station_id":"ce4bhr92rcd13ifvqhrg","pricing_plan_id":"free"},{"bike_id":"b2277181-7878-4194-aebd-a2a3903700da","system_id":"levelo_inurba_marseille","lat":43.33046,"lon":5.38918,"is_reserved":false,"is_disabled":false,"rental_uris":{"android":"levelo://app?vid=b2277181-7878-4194-aebd-a2a3903700da","ios":"levelo://app?vid=b2277181-7878-4194-aebd-a2a3903700da"},"vehicle_type_id":"4","last_reported":1692457530,"current_range_meters":5200,"station_id":"ce4bhr92rcd13ifvqhrg","pricing_plan_id":"free"},{"bike_id":"5036c72a-6252-47f4-a9fb-50fd514d506a","system_id":"levelo_inurba_marseille","lat":43.33046,"lon":5.38919,"is_reserved":false,"is_disabled":false,"rental_uris":{"android":"levelo://app?vid=5036c72a-6252-47f4-a9fb-50fd514d506a","ios":"levelo://app?vid=5036c72a-6252-47f4-a9fb-50fd514d506a"},"vehicle_type_id":"4","last_reported":1692457530,"current_range_meters":24400,"station_id":"ce4bhr92rcd13ifvqhrg","pricing_plan_id":"free"},{"bike_id":"708f7f21-b221-4c14-94b6-b5d8e3289350","system_id":"levelo_inurba_marseille","lat":43.33048,"lon":5.38919,"is_reserved":false,"is_disabled":false,"rental_uris":{"android":"levelo://app?vid=708f7f21-b221-4c14-94b6-b5d8e3289350","ios":"levelo://app?vid=708f7f21-b221-4c14-94b6-b5d8e3289350"},"vehicle_type_id":"4","last_reported":1692457530,"current_range_meters":22400,"station_id":"ce4bhr92rcd13ifvqhrg","pricing_plan_id":"free"},{"bike_id":"c2b69bac-bda9-4261-b39a-8c335d43eeb9","system_id":"levelo_inurba_marseille","lat":43.33049,"lon":5.38919,"is_reserved":false,"is_disabled":false,"rental_uris":{"android":"levelo://app?vid=c2b69bac-bda9-4261-b39a-8c335d43eeb9","ios":"levelo://app?vid=c2b69bac-bda9-4261-b39a-8c335d43eeb9"},"vehicle_type_id":"4","last_reported":1692457530,"current_range_meters":31200,"station_id":"ce4bhr92rcd13ifvqhrg","pricing_plan_id":"free"},{"bike_id":"de450cac-4370-4660-9455-3e94463307a2","system_id":"levelo_inurba_marseille","lat":43.33047,"lon":5.38923,"is_reserved":false,"is_disabled":false,"rental_uris":{"android":"levelo://app?vid=de450cac-4370-4660-9455-3e94463307a2","ios":"levelo://app?vid=de450cac-4370-4660-9455-3e94463307a2"},"vehicle_type_id":"4","last_reported":1692457530,"current_range_meters":19600,"station_id":"ce4bhr92rcd13ifvqhrg","pricing_plan_id":"free"},{"bike_id":"16105e4d-cb4a-4aae-91bb-2ecd41a7406b","system_id":"levelo_inurba_marseille","lat":43.33049,"lon":5.38925,"is_reserved":false,"is_disabled":false,"rental_uris":{"android":"levelo://app?vid=16105e4d-cb4a-4aae-91bb-2ecd41a7406b","ios":"levelo://app?vid=16105e4d-cb4a-4aae-91bb-2ecd41a7406b"},"vehicle_type_id":"4","last_reported":1692457530,"current_range_meters":24400,"station_id":"ce4bhr92rcd13ifvqhrg","pricing_plan_id":"free"},{"bike_id":"f9155036-d2c2-46d5-a040-6769b5cd0ba7","system_id":"levelo_inurba_marseille","lat":43.290995,"lon":5.381361,"is_reserved":false,"is_disabled":false,"rental_uris":{"android":"levelo://app?vid=f9155036-d2c2-46d5-a040-6769b5cd0ba7","ios":"levelo://app?vid=f9155036-d2c2-46d5-a040-6769b5cd0ba7"},"vehicle_type_id":"4","last_reported":1692457530,"current_range_meters":7600,"station_id":"ce4bh512rcd13ifvqe2g","pricing_plan_id":"free"},{"bike_id":"c18013bf-1169-4bf2-bf27-6d68b737397d","system_id":"levelo_inurba_marseille","lat":43.290995,"lon":5.381361,"is_reserved":false,"is_disabled":false,"rental_uris":{"android":"levelo://app?vid=c18013bf-1169-4bf2-bf27-6d68b737397d","ios":"levelo://app?vid=c18013bf-1169-4bf2-bf27-6d68b737397d"},"vehicle_type_id":"4","last_reported":1692457530,"current_range_meters":10000,"station_id":"ce4bh512rcd13ifvqe2g","pricing_plan_id":"free"},{"bike_id":"0987a4a4-9a9c-4cdf-9f6a-20285c88ffa5","system_id":"levelo_inurba_marseille","lat":43.29791,"lon":5.39339,"is_reserved":false,"is_disabled":false,"rental_uris":{"android":"levelo://app?vid=0987a4a4-9a9c-4cdf-9f6a-20285c88ffa5","ios":"levelo://app?vid=0987a4a4-9a9c-4cdf-9f6a-20285c88ffa5"},"vehicle_type_id":"4","last_reported":1692457530,"current_range_meters":29600,"station_id":"chh1huq6cuj3fo74tm60","pricing_plan_id":"free"},{"bike_id":"c46524b0-27dc-4d47-9c88-00602a9c5d7e","system_id":"levelo_inurba_marseille","lat":43.289743,"lon":5.378304,"is_reserved":false,"is_disabled":false,"rental_uris":{"android":"levelo://app?vid=c46524b0-27dc-4d47-9c88-00602a9c5d7e","ios":"levelo://app?vid=c46524b0-27dc-4d47-9c88-00602a9c5d7e"},"vehicle_type_id":"4","last_reported":1692457530,"current_range_meters":9600,"station_id":"ce4bh9p2rcd13ifvqed0","pricing_plan_id":"free"},{"bike_id":"ebea3e90-b4a3-4a58-9d43-4dfbd0e962f3","system_id":"levelo_inurba_marseille","lat":43.337457,"lon":5.374633,"is_reserved":false,"is_disabled":false,"rental_uris":{"android":"levelo://app?vid=ebea3e90-b4a3-4a58-9d43-4dfbd0e962f3","ios":"levelo://app?vid=ebea3e90-b4a3-4a58-9d43-4dfbd0e962f3"},"vehicle_type_id":"4","last_reported":1692457530,"current_range_meters":30800,"station_id":"","pricing_plan_id":"free"},{"bike_id":"f1e17bc6-e442-4582-8201-5fb582f9741f","system_id":"levelo_inurba_marseille","lat":43.286591,"lon":5.363346,"is_reserved":false,"is_disabled":false,"rental_uris":{"android":"levelo://app?vid=f1e17bc6-e442-4582-8201-5fb582f9741f","ios":"levelo://app?vid=f1e17bc6-e442-4582-8201-5fb582f9741f"},"vehicle_type_id":"4","last_reported":1692457530,"current_range_meters":29200,"station_id":"ce4bhah2rcd13ifvqej0","pricing_plan_id":"free"},{"bike_id":"75199276-b705-4ad7-b6a9-49aeaa84628a","system_id":"levelo_inurba_marseille","lat":43.286591,"lon":5.363346,"is_reserved":false,"is_disabled":false,"rental_uris":{"android":"levelo://app?vid=75199276-b705-4ad7-b6a9-49aeaa84628a","ios":"levelo://app?vid=75199276-b705-4ad7-b6a9-49aeaa84628a"},"vehicle_type_id":"4","last_reported":1692457530,"current_range_meters":30800,"station_id":"ce4bhah2rcd13ifvqej0","pricing_plan_id":"free"},{"bike_id":"1b0b1c8c-ff48-46d7-b199-6118ef1a2ba7","system_id":"levelo_inurba_marseille","lat":43.290345,"lon":5.38646,"is_reserved":false,"is_disabled":false,"rental_uris":{"android":"levelo://app?vid=1b0b1c8c-ff48-46d7-b199-6118ef1a2ba7","ios":"levelo://app?vid=1b0b1c8c-ff48-46d7-b199-6118ef1a2ba7"},"vehicle_type_id":"4","last_reported":1692457530,"current_range_meters":22400,"station_id":"ce4bh4p2rcd13ifvqe0g","pricing_plan_id":"free"},{"bike_id":"d80d5a2f-d3d5-4a30-80d2-1f02beb1b207","system_id":"levelo_inurba_marseille","lat":43.286039,"lon":5.370679,"is_reserved":false,"is_disabled":false,"rental_uris":{"android":"levelo://app?vid=d80d5a2f-d3d5-4a30-80d2-1f02beb1b207","ios":"levelo://app?vid=d80d5a2f-d3d5-4a30-80d2-1f02beb1b207"},"vehicle_type_id":"4","last_reported":1692457530,"current_range_meters":10800,"station_id":"ce4bht12rcd13ifvqi60","pricing_plan_id":"free"},{"bike_id":"f80d0aba-5fbd-4cd3-9b5d-e67077507196","system_id":"levelo_inurba_marseille","lat":43.287184,"lon":5.37937,"is_reserved":false,"is_disabled":false,"rental_uris":{"android":"levelo://app?vid=f80d0aba-5fbd-4cd3-9b5d-e67077507196","ios":"levelo://app?vid=f80d0aba-5fbd-4cd3-9b5d-e67077507196"},"vehicle_type_id":"4","last_reported":1692457530,"current_range_meters":10000,"station_id":"ce4bh9p2rcd13ifvqec0","pricing_plan_id":"free"},{"bike_id":"055160d3-6207-4d9b-9bc2-dfb0e71ca1d3","system_id":"levelo_inurba_marseille","lat":43.287184,"lon":5.37937,"is_reserved":false,"is_disabled":false,"rental_uris":{"android":"levelo://app?vid=055160d3-6207-4d9b-9bc2-dfb0e71ca1d3","ios":"levelo://app?vid=055160d3-6207-4d9b-9bc2-dfb0e71ca1d3"},"vehicle_type_id":"4","last_reported":1692457530,"current_range_meters":9600,"station_id":"ce4bh9p2rcd13ifvqec0","pricing_plan_id":"free"},{"bike_id":"aef9b334-0a52-44cb-a91f-941bfa9abdc8","system_id":"levelo_inurba_marseille","lat":43.287184,"lon":5.37937,"is_reserved":false,"is_disabled":false,"rental_uris":{"android":"levelo://app?vid=aef9b334-0a52-44cb-a91f-941bfa9abdc8","ios":"levelo://app?vid=aef9b334-0a52-44cb-a91f-941bfa9abdc8"},"vehicle_type_id":"4","last_reported":1692457530,"current_range_meters":24400,"station_id":"ce4bh9p2rcd13ifvqec0","pricing_plan_id":"free"},{"bike_id":"1277a4f4-2162-49a1-9cc7-c2e6d4e0dc21","system_id":"levelo_inurba_marseille","lat":43.287185,"lon":5.379373,"is_reserved":false,"is_disabled":false,"rental_uris":{"android":"levelo://app?vid=1277a4f4-2162-49a1-9cc7-c2e6d4e0dc21","ios":"levelo://app?vid=1277a4f4-2162-49a1-9cc7-c2e6d4e0dc21"},"vehicle_type_id":"4","last_reported":1692457530,"current_range_meters":10400,"station_id":"ce4bh9p2rcd13ifvqec0","pricing_plan_id":"free"},{"bike_id":"7da9e437-1e79-4b5f-9ab0-65254ac17dd7","system_id":"levelo_inurba_marseille","lat":43.31644,"lon":5.40436,"is_reserved":false,"is_disabled":false,"rental_uris":{"android":"levelo://app?vid=7da9e437-1e79-4b5f-9ab0-65254ac17dd7","ios":"levelo://app?vid=7da9e437-1e79-4b5f-9ab0-65254ac17dd7"},"vehicle_type_id":"4","last_reported":1692457530,"current_range_meters":26000,"station_id":"ce4bh012rcd13ifvqd00","pricing_plan_id":"free"},{"bike_id":"f7bd7668-8e41-4acd-8b56-2fb3ca4fdc97","system_id":"levelo_inurba_marseille","lat":43.316517,"lon":5.404375,"is_reserved":false,"is_disabled":false,"rental_uris":{"android":"levelo://app?vid=f7bd7668-8e41-4acd-8b56-2fb3ca4fdc97","ios":"levelo://app?vid=f7bd7668-8e41-4acd-8b56-2fb3ca4fdc97"},"vehicle_type_id":"4","last_reported":1692457530,"current_range_meters":0,"station_id":"ce4bh012rcd13ifvqd00","pricing_plan_id":"free"},{"bike_id":"9ebebf4c-56d0-4768-a25b-9de14af0c56d","system_id":"levelo_inurba_marseille","lat":43.284538,"lon":5.358657,"is_reserved":false,"is_disabled":false,"rental_uris":{"android":"levelo://app?vid=9ebebf4c-56d0-4768-a25b-9de14af0c56d","ios":"levelo://app?vid=9ebebf4c-56d0-4768-a25b-9de14af0c56d"},"vehicle_type_id":"4","last_reported":1692457530,"current_range_meters":25200,"station_id":"ce4bhah2rcd13ifvqei0","pricing_plan_id":"free"},{"bike_id":"872c572c-a473-42e8-9f04-49af5a0ce8cc","system_id":"levelo_inurba_marseille","lat":43.2862,"lon":5.35109,"is_reserved":false,"is_disabled":false,"rental_uris":{"android":"levelo://app?vid=872c572c-a473-42e8-9f04-49af5a0ce8cc","ios":"levelo://app?vid=872c572c-a473-42e8-9f04-49af5a0ce8cc"},"vehicle_type_id":"4","last_reported":1692457530,"current_range_meters":6400,"station_id":"ce4bhch2rcd13ifvqeug","pricing_plan_id":"free"},{"bike_id":"35eec3a1-aa54-4990-8eb4-78e6c0dd24d0","system_id":"levelo_inurba_marseille","lat":43.285856,"lon":5.350771,"is_reserved":false,"is_disabled":false,"rental_uris":{"android":"levelo://app?vid=35eec3a1-aa54-4990-8eb4-78e6c0dd24d0","ios":"levelo://app?vid=35eec3a1-aa54-4990-8eb4-78e6c0dd24d0"},"vehicle_type_id":"4","last_reported":1692457530,"current_range_meters":10800,"station_id":"ce4bhch2rcd13ifvqeug","pricing_plan_id":"free"},{"bike_id":"4ad02b38-8453-451c-9fc4-c60da2307134","system_id":"levelo_inurba_marseille","lat":43.28616,"lon":5.35109,"is_reserved":false,"is_disabled":false,"rental_uris":{"android":"levelo://app?vid=4ad02b38-8453-451c-9fc4-c60da2307134","ios":"levelo://app?vid=4ad02b38-8453-451c-9fc4-c60da2307134"},"vehicle_type_id":"4","last_reported":1692457530,"current_range_meters":17200,"station_id":"ce4bhch2rcd13ifvqeug","pricing_plan_id":"free"},{"bike_id":"ccbe4560-c767-4736-ba42-ef66ccfaf216","system_id":"levelo_inurba_marseille","lat":43.28616,"lon":5.35106,"is_reserved":false,"is_disabled":false,"rental_uris":{"android":"levelo://app?vid=ccbe4560-c767-4736-ba42-ef66ccfaf216","ios":"levelo://app?vid=ccbe4560-c767-4736-ba42-ef66ccfaf216"},"vehicle_type_id":"4","last_reported":1692457530,"current_range_meters":20000,"station_id":"ce4bhch2rcd13ifvqeug","pricing_plan_id":"free"},{"bike_id":"53b57b27-9436-4796-a882-7c5144d48d6c","system_id":"levelo_inurba_marseille","lat":43.28617,"lon":5.35101,"is_reserved":false,"is_disabled":false,"rental_uris":{"android":"levelo://app?vid=53b57b27-9436-4796-a882-7c5144d48d6c","ios":"levelo://app?vid=53b57b27-9436-4796-a882-7c5144d48d6c"},"vehicle_type_id":"4","last_reported":1692457530,"current_range_meters":2800,"station_id":"ce4bhch2rcd13ifvqeug","pricing_plan_id":"free"},{"bike_id":"de892531-f03a-49fb-8fe9-fa7eb0d07844","system_id":"levelo_inurba_marseille","lat":43.28617,"lon":5.351,"is_reserved":false,"is_disabled":false,"rental_uris":{"android":"levelo://app?vid=de892531-f03a-49fb-8fe9-fa7eb0d07844","ios":"levelo://app?vid=de892531-f03a-49fb-8fe9-fa7eb0d07844"},"vehicle_type_id":"4","last_reported":1692457530,"current_range_meters":31200,"station_id":"ce4bhch2rcd13ifvqeug","pricing_plan_id":"free"},{"bike_id":"4b59f899-d3c7-45c5-98ce-1a6aa907e9c2","system_id":"levelo_inurba_marseille","lat":43.28615,"lon":5.35097,"is_reserved":false,"is_disabled":false,"rental_uris":{"android":"levelo://app?vid=4b59f899-d3c7-45c5-98ce-1a6aa907e9c2","ios":"levelo://app?vid=4b59f899-d3c7-45c5-98ce-1a6aa907e9c2"},"vehicle_type_id":"4","last_reported":1692457530,"current_range_meters":31200,"station_id":"ce4bhch2rcd13ifvqeug","pricing_plan_id":"free"},{"bike_id":"04ef29ec-5233-4275-adb0-f8bd17ab9921","system_id":"levelo_inurba_marseille","lat":43.286092,"lon":5.351154,"is_reserved":false,"is_disabled":false,"rental_uris":{"android":"levelo://app?vid=04ef29ec-5233-4275-adb0-f8bd17ab9921","ios":"levelo://app?vid=04ef29ec-5233-4275-adb0-f8bd17ab9921"},"vehicle_type_id":"4","last_reported":1692457530,"current_range_meters":30800,"station_id":"ce4bhch2rcd13ifvqeug","pricing_plan_id":"free"},{"bike_id":"776eec84-d085-4a47-9ed0-fec31796d532","system_id":"levelo_inurba_marseille","lat":43.2842,"lon":5.37518,"is_reserved":false,"is_disabled":false,"rental_uris":{"android":"levelo://app?vid=776eec84-d085-4a47-9ed0-fec31796d532","ios":"levelo://app?vid=776eec84-d085-4a47-9ed0-fec31796d532"},"vehicle_type_id":"4","last_reported":1692457530,"current_range_meters":0,"station_id":"ce4bh412rcd13ifvqds0","pricing_plan_id":"free"},{"bike_id":"2363d3b5-6c15-401a-a59c-ee80bd4af927","system_id":"levelo_inurba_marseille","lat":43.28415,"lon":5.37522,"is_reserved":false,"is_disabled":false,"rental_uris":{"android":"levelo://app?vid=2363d3b5-6c15-401a-a59c-ee80bd4af927","ios":"levelo://app?vid=2363d3b5-6c15-401a-a59c-ee80bd4af927"},"vehicle_type_id":"4","last_reported":1692457530,"current_range_meters":20400,"station_id":"ce4bh412rcd13ifvqds0","pricing_plan_id":"free"},{"bike_id":"f86b4b44-22b0-4863-b79d-e30f2414c92e","system_id":"levelo_inurba_marseille","lat":43.286595,"lon":5.386795,"is_reserved":false,"is_disabled":false,"rental_uris":{"android":"levelo://app?vid=f86b4b44-22b0-4863-b79d-e30f2414c92e","ios":"levelo://app?vid=f86b4b44-22b0-4863-b79d-e30f2414c92e"},"vehicle_type_id":"4","last_reported":1692457530,"current_range_meters":12400,"station_id":"ce4bh492rcd13ifvqdug","pricing_plan_id":"free"},{"bike_id":"80327fbb-81b5-48bd-8533-6ffa2bda0b7c","system_id":"levelo_inurba_marseille","lat":43.28666,"lon":5.38669,"is_reserved":false,"is_disabled":false,"rental_uris":{"android":"levelo://app?vid=80327fbb-81b5-48bd-8533-6ffa2bda0b7c","ios":"levelo://app?vid=80327fbb-81b5-48bd-8533-6ffa2bda0b7c"},"vehicle_type_id":"4","last_reported":1692457530,"current_range_meters":6400,"station_id":"ce4bh492rcd13ifvqdug","pricing_plan_id":"free"},{"bike_id":"c83175c1-dc44-41ba-8c30-632824b8a336","system_id":"levelo_inurba_marseille","lat":43.31888,"lon":5.40733,"is_reserved":false,"is_disabled":false,"rental_uris":{"android":"levelo://app?vid=c83175c1-dc44-41ba-8c30-632824b8a336","ios":"levelo://app?vid=c83175c1-dc44-41ba-8c30-632824b8a336"},"vehicle_type_id":"4","last_reported":1692457530,"current_range_meters":26800,"station_id":"ce4bhq12rcd13ifvqhig","pricing_plan_id":"free"},{"bike_id":"15ffcac1-c8a6-4a54-933d-481ec42727cf","system_id":"levelo_inurba_marseille","lat":43.28496,"lon":5.35093,"is_reserved":false,"is_disabled":false,"rental_uris":{"android":"levelo://app?vid=15ffcac1-c8a6-4a54-933d-481ec42727cf","ios":"levelo://app?vid=15ffcac1-c8a6-4a54-933d-481ec42727cf"},"vehicle_type_id":"4","last_reported":1692457530,"current_range_meters":16400,"station_id":"","pricing_plan_id":"free"},{"bike_id":"e78bd4e4-c14d-4a01-b72e-65351e2b8a18","system_id":"levelo_inurba_marseille","lat":43.30317,"lon":5.4063,"is_reserved":false,"is_disabled":false,"rental_uris":{"android":"levelo://app?vid=e78bd4e4-c14d-4a01-b72e-65351e2b8a18","ios":"levelo://app?vid=e78bd4e4-c14d-4a01-b72e-65351e2b8a18"},"vehicle_type_id":"4","last_reported":1692457530,"current_range_meters":1600,"station_id":"","pricing_plan_id":"free"},{"bike_id":"17105054-6fd8-493b-b0be-1ed88688055c","system_id":"levelo_inurba_marseille","lat":43.33722,"lon":5.39177,"is_reserved":false,"is_disabled":false,"rental_uris":{"android":"levelo://app?vid=17105054-6fd8-493b-b0be-1ed88688055c","ios":"levelo://app?vid=17105054-6fd8-493b-b0be-1ed88688055c"},"vehicle_type_id":"4","last_reported":1692457530,"current_range_meters":30400,"station_id":"ce4bhr92rcd13ifvqhsg","pricing_plan_id":"free"},{"bike_id":"2b3f06e0-8f2d-4133-9563-f19f57fe46e5","system_id":"levelo_inurba_marseille","lat":43.33724,"lon":5.39178,"is_reserved":false,"is_disabled":false,"rental_uris":{"android":"levelo://app?vid=2b3f06e0-8f2d-4133-9563-f19f57fe46e5","ios":"levelo://app?vid=2b3f06e0-8f2d-4133-9563-f19f57fe46e5"},"vehicle_type_id":"4","last_reported":1692457530,"current_range_meters":11200,"station_id":"ce4bhr92rcd13ifvqhsg","pricing_plan_id":"free"},{"bike_id":"01f563c5-7ac0-4d44-b1b3-0549f3b949f3","system_id":"levelo_inurba_marseille","lat":43.3372,"lon":5.3919,"is_reserved":false,"is_disabled":false,"rental_uris":{"android":"levelo://app?vid=01f563c5-7ac0-4d44-b1b3-0549f3b949f3","ios":"levelo://app?vid=01f563c5-7ac0-4d44-b1b3-0549f3b949f3"},"vehicle_type_id":"4","last_reported":1692457530,"current_range_meters":30000,"station_id":"ce4bhr92rcd13ifvqhsg","pricing_plan_id":"free"},{"bike_id":"7d2969ab-a065-4a23-b19e-667095d799c9","system_id":"levelo_inurba_marseille","lat":43.33726,"lon":5.39183,"is_reserved":false,"is_disabled":false,"rental_uris":{"android":"levelo://app?vid=7d2969ab-a065-4a23-b19e-667095d799c9","ios":"levelo://app?vid=7d2969ab-a065-4a23-b19e-667095d799c9"},"vehicle_type_id":"4","last_reported":1692457530,"current_range_meters":11600,"station_id":"ce4bhr92rcd13ifvqhsg","pricing_plan_id":"free"},{"bike_id":"72fc020d-a1d4-460a-a3d1-6187a1ea65d2","system_id":"levelo_inurba_marseille","lat":43.33723,"lon":5.39189,"is_reserved":false,"is_disabled":false,"rental_uris":{"android":"levelo://app?vid=72fc020d-a1d4-460a-a3d1-6187a1ea65d2","ios":"levelo://app?vid=72fc020d-a1d4-460a-a3d1-6187a1ea65d2"},"vehicle_type_id":"4","last_reported":1692457530,"current_range_meters":28000,"station_id":"ce4bhr92rcd13ifvqhsg","pricing_plan_id":"free"},{"bike_id":"0dda2562-498f-4f90-abfb-f3c666db2d2e","system_id":"levelo_inurba_marseille","lat":43.33728,"lon":5.3918,"is_reserved":false,"is_disabled":false,"rental_uris":{"android":"levelo://app?vid=0dda2562-498f-4f90-abfb-f3c666db2d2e","ios":"levelo://app?vid=0dda2562-498f-4f90-abfb-f3c666db2d2e"},"vehicle_type_id":"4","last_reported":1692457530,"current_range_meters":24800,"station_id":"ce4bhr92rcd13ifvqhsg","pricing_plan_id":"free"},{"bike_id":"186ddf38-a5ca-44a9-9dd3-9bfe2a53544b","system_id":"levelo_inurba_marseille","lat":43.33726,"lon":5.39184,"is_reserved":false,"is_disabled":false,"rental_uris":{"android":"levelo://app?vid=186ddf38-a5ca-44a9-9dd3-9bfe2a53544b","ios":"levelo://app?vid=186ddf38-a5ca-44a9-9dd3-9bfe2a53544b"},"vehicle_type_id":"4","last_reported":1692457530,"current_range_meters":29600,"station_id":"ce4bhr92rcd13ifvqhsg","pricing_plan_id":"free"},{"bike_id":"c90c94e3-64fa-45e9-9fee-ad8bf120c218","system_id":"levelo_inurba_marseille","lat":43.337168,"lon":5.391825,"is_reserved":false,"is_disabled":false,"rental_uris":{"android":"levelo://app?vid=c90c94e3-64fa-45e9-9fee-ad8bf120c218","ios":"levelo://app?vid=c90c94e3-64fa-45e9-9fee-ad8bf120c218"},"vehicle_type_id":"4","last_reported":1692457530,"current_range_meters":28000,"station_id":"ce4bhr92rcd13ifvqhsg","pricing_plan_id":"free"},{"bike_id":"6ac884cc-b74d-40a5-8e3a-f019457ca89a","system_id":"levelo_inurba_marseille","lat":43.323464,"lon":5.406297,"is_reserved":false,"is_disabled":false,"rental_uris":{"android":"levelo://app?vid=6ac884cc-b74d-40a5-8e3a-f019457ca89a","ios":"levelo://app?vid=6ac884cc-b74d-40a5-8e3a-f019457ca89a"},"vehicle_type_id":"4","last_reported":1692457530,"current_range_meters":31200,"station_id":"ce4bhq92rcd13ifvqhjg","pricing_plan_id":"free"},{"bike_id":"c3f1a799-40b8-4098-9115-0b78fcf6eb78","system_id":"levelo_inurba_marseille","lat":43.32344,"lon":5.40623,"is_reserved":false,"is_disabled":false,"rental_uris":{"android":"levelo://app?vid=c3f1a799-40b8-4098-9115-0b78fcf6eb78","ios":"levelo://app?vid=c3f1a799-40b8-4098-9115-0b78fcf6eb78"},"vehicle_type_id":"4","last_reported":1692457530,"current_range_meters":29600,"station_id":"ce4bhq92rcd13ifvqhjg","pricing_plan_id":"free"},{"bike_id":"13c8ff33-a39b-43d5-ba08-92f155d4a21e","system_id":"levelo_inurba_marseille","lat":43.323464,"lon":5.406297,"is_reserved":false,"is_disabled":false,"rental_uris":{"android":"levelo://app?vid=13c8ff33-a39b-43d5-ba08-92f155d4a21e","ios":"levelo://app?vid=13c8ff33-a39b-43d5-ba08-92f155d4a21e"},"vehicle_type_id":"4","last_reported":1692457530,"current_range_meters":31200,"station_id":"ce4bhq92rcd13ifvqhjg","pricing_plan_id":"free"},{"bike_id":"02f29c2d-847e-4148-9200-bdb4c19acc46","system_id":"levelo_inurba_marseille","lat":43.33731,"lon":5.39185,"is_reserved":false,"is_disabled":false,"rental_uris":{"android":"levelo://app?vid=02f29c2d-847e-4148-9200-bdb4c19acc46","ios":"levelo://app?vid=02f29c2d-847e-4148-9200-bdb4c19acc46"},"vehicle_type_id":"4","last_reported":1692457530,"current_range_meters":30000,"station_id":"ce4bhr92rcd13ifvqhsg","pricing_plan_id":"free"},{"bike_id":"0cbfb6a8-9b06-4430-8280-ebadac27271d","system_id":"levelo_inurba_marseille","lat":43.323464,"lon":5.406297,"is_reserved":false,"is_disabled":false,"rental_uris":{"android":"levelo://app?vid=0cbfb6a8-9b06-4430-8280-ebadac27271d","ios":"levelo://app?vid=0cbfb6a8-9b06-4430-8280-ebadac27271d"},"vehicle_type_id":"4","last_reported":1692457530,"current_range_meters":28800,"station_id":"ce4bhq92rcd13ifvqhjg","pricing_plan_id":"free"},{"bike_id":"33aba6b2-5ed1-4e7c-af4c-fff3b257e3e7","system_id":"levelo_inurba_marseille","lat":43.323464,"lon":5.406297,"is_reserved":false,"is_disabled":false,"rental_uris":{"android":"levelo://app?vid=33aba6b2-5ed1-4e7c-af4c-fff3b257e3e7","ios":"levelo://app?vid=33aba6b2-5ed1-4e7c-af4c-fff3b257e3e7"},"vehicle_type_id":"4","last_reported":1692457530,"current_range_meters":31200,"station_id":"ce4bhq92rcd13ifvqhjg","pricing_plan_id":"free"},{"bike_id":"e45012d8-673a-4bd6-93d3-a427f767a00d","system_id":"levelo_inurba_marseille","lat":43.33729,"lon":5.39192,"is_reserved":false,"is_disabled":false,"rental_uris":{"android":"levelo://app?vid=e45012d8-673a-4bd6-93d3-a427f767a00d","ios":"levelo://app?vid=e45012d8-673a-4bd6-93d3-a427f767a00d"},"vehicle_type_id":"4","last_reported":1692457530,"current_range_meters":28400,"station_id":"ce4bhr92rcd13ifvqhsg","pricing_plan_id":"free"},{"bike_id":"12c0f407-4ac2-49d3-b1e8-783bd26a8644","system_id":"levelo_inurba_marseille","lat":43.33731,"lon":5.39191,"is_reserved":false,"is_disabled":false,"rental_uris":{"android":"levelo://app?vid=12c0f407-4ac2-49d3-b1e8-783bd26a8644","ios":"levelo://app?vid=12c0f407-4ac2-49d3-b1e8-783bd26a8644"},"vehicle_type_id":"4","last_reported":1692457530,"current_range_meters":30000,"station_id":"ce4bhr92rcd13ifvqhsg","pricing_plan_id":"free"},{"bike_id":"6fb36002-bc24-427c-a16e-585470e55deb","system_id":"levelo_inurba_marseille","lat":43.32602,"lon":5.40481,"is_reserved":false,"is_disabled":false,"rental_uris":{"android":"levelo://app?vid=6fb36002-bc24-427c-a16e-585470e55deb","ios":"levelo://app?vid=6fb36002-bc24-427c-a16e-585470e55deb"},"vehicle_type_id":"4","last_reported":1692457530,"current_range_meters":20400,"station_id":"","pricing_plan_id":"free"},{"bike_id":"c24cecf2-0503-470c-b3d3-fc37f377f710","system_id":"levelo_inurba_marseille","lat":43.33737,"lon":5.3919,"is_reserved":false,"is_disabled":false,"rental_uris":{"android":"levelo://app?vid=c24cecf2-0503-470c-b3d3-fc37f377f710","ios":"levelo://app?vid=c24cecf2-0503-470c-b3d3-fc37f377f710"},"vehicle_type_id":"4","last_reported":1692457530,"current_range_meters":29600,"station_id":"ce4bhr92rcd13ifvqhsg","pricing_plan_id":"free"},{"bike_id":"8bd09c71-02ae-4371-8b55-ce1e7e2bf2df","system_id":"levelo_inurba_marseille","lat":43.33734,"lon":5.39198,"is_reserved":false,"is_disabled":false,"rental_uris":{"android":"levelo://app?vid=8bd09c71-02ae-4371-8b55-ce1e7e2bf2df","ios":"levelo://app?vid=8bd09c71-02ae-4371-8b55-ce1e7e2bf2df"},"vehicle_type_id":"4","last_reported":1692457530,"current_range_meters":30400,"station_id":"ce4bhr92rcd13ifvqhsg","pricing_plan_id":"free"},{"bike_id":"fab4687e-d191-45df-8c1d-9a065286ceeb","system_id":"levelo_inurba_marseille","lat":43.28481,"lon":5.3842,"is_reserved":false,"is_disabled":false,"rental_uris":{"android":"levelo://app?vid=fab4687e-d191-45df-8c1d-9a065286ceeb","ios":"levelo://app?vid=fab4687e-d191-45df-8c1d-9a065286ceeb"},"vehicle_type_id":"4","last_reported":1692457530,"current_range_meters":26000,"station_id":"ce4bh512rcd13ifvqe3g","pricing_plan_id":"free"},{"bike_id":"923c7893-ada0-44c7-a1f1-6c3fd310546d","system_id":"levelo_inurba_marseille","lat":43.284219,"lon":5.3497,"is_reserved":false,"is_disabled":false,"rental_uris":{"android":"levelo://app?vid=923c7893-ada0-44c7-a1f1-6c3fd310546d","ios":"levelo://app?vid=923c7893-ada0-44c7-a1f1-6c3fd310546d"},"vehicle_type_id":"4","last_reported":1692457530,"current_range_meters":23600,"station_id":"ce4bhbh2rcd13ifvqepg","pricing_plan_id":"free"},{"bike_id":"aa5a6ee2-6826-462a-a046-79d07098bb42","system_id":"levelo_inurba_marseille","lat":43.28425,"lon":5.34993,"is_reserved":false,"is_disabled":false,"rental_uris":{"android":"levelo://app?vid=aa5a6ee2-6826-462a-a046-79d07098bb42","ios":"levelo://app?vid=aa5a6ee2-6826-462a-a046-79d07098bb42"},"vehicle_type_id":"4","last_reported":1692457530,"current_range_meters":31200,"station_id":"ce4bhbh2rcd13ifvqepg","pricing_plan_id":"free"},{"bike_id":"66185e82-fa2e-44c2-aa7f-cde5fed472d8","system_id":"levelo_inurba_marseille","lat":43.28423,"lon":5.34995,"is_reserved":false,"is_disabled":false,"rental_uris":{"android":"levelo://app?vid=66185e82-fa2e-44c2-aa7f-cde5fed472d8","ios":"levelo://app?vid=66185e82-fa2e-44c2-aa7f-cde5fed472d8"},"vehicle_type_id":"4","last_reported":1692457530,"current_range_meters":20400,"station_id":"ce4bhbh2rcd13ifvqepg","pricing_plan_id":"free"},{"bike_id":"376175fe-7047-409d-8bc5-b62cb0313755","system_id":"levelo_inurba_marseille","lat":43.28424,"lon":5.34991,"is_reserved":false,"is_disabled":false,"rental_uris":{"android":"levelo://app?vid=376175fe-7047-409d-8bc5-b62cb0313755","ios":"levelo://app?vid=376175fe-7047-409d-8bc5-b62cb0313755"},"vehicle_type_id":"4","last_reported":1692457530,"current_range_meters":15600,"station_id":"ce4bhbh2rcd13ifvqepg","pricing_plan_id":"free"},{"bike_id":"663d2d81-93f4-4c21-83eb-d651c806a1b6","system_id":"levelo_inurba_marseille","lat":43.28426,"lon":5.34984,"is_reserved":false,"is_disabled":false,"rental_uris":{"android":"levelo://app?vid=663d2d81-93f4-4c21-83eb-d651c806a1b6","ios":"levelo://app?vid=663d2d81-93f4-4c21-83eb-d651c806a1b6"},"vehicle_type_id":"4","last_reported":1692457530,"current_range_meters":14800,"station_id":"ce4bhbh2rcd13ifvqepg","pricing_plan_id":"free"},{"bike_id":"4a6f79a1-ea0d-472e-a0b1-1e13f2724959","system_id":"levelo_inurba_marseille","lat":43.28424,"lon":5.3499,"is_reserved":false,"is_disabled":false,"rental_uris":{"android":"levelo://app?vid=4a6f79a1-ea0d-472e-a0b1-1e13f2724959","ios":"levelo://app?vid=4a6f79a1-ea0d-472e-a0b1-1e13f2724959"},"vehicle_type_id":"4","last_reported":1692457530,"current_range_meters":16000,"station_id":"ce4bhbh2rcd13ifvqepg","pricing_plan_id":"free"},{"bike_id":"585fde72-3fbd-4e2c-ab1c-ab534f19433a","system_id":"levelo_inurba_marseille","lat":43.28424,"lon":5.34989,"is_reserved":false,"is_disabled":false,"rental_uris":{"android":"levelo://app?vid=585fde72-3fbd-4e2c-ab1c-ab534f19433a","ios":"levelo://app?vid=585fde72-3fbd-4e2c-ab1c-ab534f19433a"},"vehicle_type_id":"4","last_reported":1692457530,"current_range_meters":10000,"station_id":"ce4bhbh2rcd13ifvqepg","pricing_plan_id":"free"},{"bike_id":"281abc2c-bb2b-495c-a478-e4ea1cfb0382","system_id":"levelo_inurba_marseille","lat":43.284217,"lon":5.349697,"is_reserved":false,"is_disabled":false,"rental_uris":{"android":"levelo://app?vid=281abc2c-bb2b-495c-a478-e4ea1cfb0382","ios":"levelo://app?vid=281abc2c-bb2b-495c-a478-e4ea1cfb0382"},"vehicle_type_id":"4","last_reported":1692457530,"current_range_meters":28000,"station_id":"ce4bhbh2rcd13ifvqepg","pricing_plan_id":"free"},{"bike_id":"1289af83-c80b-4260-b6a2-4f7490998cfd","system_id":"levelo_inurba_marseille","lat":43.284219,"lon":5.3497,"is_reserved":false,"is_disabled":false,"rental_uris":{"android":"levelo://app?vid=1289af83-c80b-4260-b6a2-4f7490998cfd","ios":"levelo://app?vid=1289af83-c80b-4260-b6a2-4f7490998cfd"},"vehicle_type_id":"4","last_reported":1692457530,"current_range_meters":28800,"station_id":"ce4bhbh2rcd13ifvqepg","pricing_plan_id":"free"},{"bike_id":"46d68b48-dcc3-40b4-ac72-b9ed0ce5602f","system_id":"levelo_inurba_marseille","lat":43.28422,"lon":5.34994,"is_reserved":false,"is_disabled":false,"rental_uris":{"android":"levelo://app?vid=46d68b48-dcc3-40b4-ac72-b9ed0ce5602f","ios":"levelo://app?vid=46d68b48-dcc3-40b4-ac72-b9ed0ce5602f"},"vehicle_type_id":"4","last_reported":1692457530,"current_range_meters":27200,"station_id":"ce4bhbh2rcd13ifvqepg","pricing_plan_id":"free"},{"bike_id":"fbf94f4f-6616-4ec4-bf95-a5062e319425","system_id":"levelo_inurba_marseille","lat":43.28424,"lon":5.34986,"is_reserved":false,"is_disabled":false,"rental_uris":{"android":"levelo://app?vid=fbf94f4f-6616-4ec4-bf95-a5062e319425","ios":"levelo://app?vid=fbf94f4f-6616-4ec4-bf95-a5062e319425"},"vehicle_type_id":"4","last_reported":1692457530,"current_range_meters":30400,"station_id":"ce4bhbh2rcd13ifvqepg","pricing_plan_id":"free"},{"bike_id":"ca3ab461-685d-4a27-a41b-4cff294c3a5b","system_id":"levelo_inurba_marseille","lat":43.28424,"lon":5.34985,"is_reserved":false,"is_disabled":false,"rental_uris":{"android":"levelo://app?vid=ca3ab461-685d-4a27-a41b-4cff294c3a5b","ios":"levelo://app?vid=ca3ab461-685d-4a27-a41b-4cff294c3a5b"},"vehicle_type_id":"4","last_reported":1692457530,"current_range_meters":1600,"station_id":"ce4bhbh2rcd13ifvqepg","pricing_plan_id":"free"},{"bike_id":"037353d0-3736-4d07-adf9-946f48000882","system_id":"levelo_inurba_marseille","lat":43.28422,"lon":5.34988,"is_reserved":false,"is_disabled":false,"rental_uris":{"android":"levelo://app?vid=037353d0-3736-4d07-adf9-946f48000882","ios":"levelo://app?vid=037353d0-3736-4d07-adf9-946f48000882"},"vehicle_type_id":"4","last_reported":1692457530,"current_range_meters":15200,"station_id":"ce4bhbh2rcd13ifvqepg","pricing_plan_id":"free"},{"bike_id":"93276f61-2bbc-4576-9b90-47ceae877432","system_id":"levelo_inurba_marseille","lat":43.28424,"lon":5.3498,"is_reserved":false,"is_disabled":false,"rental_uris":{"android":"levelo://app?vid=93276f61-2bbc-4576-9b90-47ceae877432","ios":"levelo://app?vid=93276f61-2bbc-4576-9b90-47ceae877432"},"vehicle_type_id":"4","last_reported":1692457530,"current_range_meters":22400,"station_id":"ce4bhbh2rcd13ifvqepg","pricing_plan_id":"free"},{"bike_id":"91879e64-b1e8-42e4-882a-d221ba2e97bf","system_id":"levelo_inurba_marseille","lat":43.284217,"lon":5.349697,"is_reserved":false,"is_disabled":false,"rental_uris":{"android":"levelo://app?vid=91879e64-b1e8-42e4-882a-d221ba2e97bf","ios":"levelo://app?vid=91879e64-b1e8-42e4-882a-d221ba2e97bf"},"vehicle_type_id":"4","last_reported":1692457530,"current_range_meters":31600,"station_id":"ce4bhbh2rcd13ifvqepg","pricing_plan_id":"free"},{"bike_id":"b85a90c0-ad78-4721-ac53-884ade846322","system_id":"levelo_inurba_marseille","lat":43.284217,"lon":5.349697,"is_reserved":false,"is_disabled":false,"rental_uris":{"android":"levelo://app?vid=b85a90c0-ad78-4721-ac53-884ade846322","ios":"levelo://app?vid=b85a90c0-ad78-4721-ac53-884ade846322"},"vehicle_type_id":"4","last_reported":1692457530,"current_range_meters":31200,"station_id":"ce4bhbh2rcd13ifvqepg","pricing_plan_id":"free"},{"bike_id":"aded1766-0e9d-46f7-ba09-f88bcc3bbee7","system_id":"levelo_inurba_marseille","lat":43.284217,"lon":5.349697,"is_reserved":false,"is_disabled":false,"rental_uris":{"android":"levelo://app?vid=aded1766-0e9d-46f7-ba09-f88bcc3bbee7","ios":"levelo://app?vid=aded1766-0e9d-46f7-ba09-f88bcc3bbee7"},"vehicle_type_id":"4","last_reported":1692457530,"current_range_meters":31200,"station_id":"ce4bhbh2rcd13ifvqepg","pricing_plan_id":"free"},{"bike_id":"ecf3c212-507b-4d9d-af27-73cd24cf07b4","system_id":"levelo_inurba_marseille","lat":43.284191,"lon":5.349843,"is_reserved":false,"is_disabled":false,"rental_uris":{"android":"levelo://app?vid=ecf3c212-507b-4d9d-af27-73cd24cf07b4","ios":"levelo://app?vid=ecf3c212-507b-4d9d-af27-73cd24cf07b4"},"vehicle_type_id":"4","last_reported":1692457530,"current_range_meters":30000,"station_id":"ce4bhbh2rcd13ifvqepg","pricing_plan_id":"free"},{"bike_id":"cf423aef-ba44-4c6b-b6db-60411a1dc20a","system_id":"levelo_inurba_marseille","lat":43.28419,"lon":5.34984,"is_reserved":false,"is_disabled":false,"rental_uris":{"android":"levelo://app?vid=cf423aef-ba44-4c6b-b6db-60411a1dc20a","ios":"levelo://app?vid=cf423aef-ba44-4c6b-b6db-60411a1dc20a"},"vehicle_type_id":"4","last_reported":1692457530,"current_range_meters":15200,"station_id":"ce4bhbh2rcd13ifvqepg","pricing_plan_id":"free"},{"bike_id":"076d1f57-8a63-43e0-86ff-5a2a6a002145","system_id":"levelo_inurba_marseille","lat":43.284217,"lon":5.349697,"is_reserved":false,"is_disabled":false,"rental_uris":{"android":"levelo://app?vid=076d1f57-8a63-43e0-86ff-5a2a6a002145","ios":"levelo://app?vid=076d1f57-8a63-43e0-86ff-5a2a6a002145"},"vehicle_type_id":"4","last_reported":1692457530,"current_range_meters":31200,"station_id":"ce4bhbh2rcd13ifvqepg","pricing_plan_id":"free"},{"bike_id":"994edc58-ed4b-46c3-aa05-169c582f4c38","system_id":"levelo_inurba_marseille","lat":43.28419,"lon":5.3498,"is_reserved":false,"is_disabled":false,"rental_uris":{"android":"levelo://app?vid=994edc58-ed4b-46c3-aa05-169c582f4c38","ios":"levelo://app?vid=994edc58-ed4b-46c3-aa05-169c582f4c38"},"vehicle_type_id":"4","last_reported":1692457530,"current_range_meters":24400,"station_id":"ce4bhbh2rcd13ifvqepg","pricing_plan_id":"free"},{"bike_id":"0e28ea22-5428-4a2e-9438-fad8b4713bd2","system_id":"levelo_inurba_marseille","lat":43.28418,"lon":5.34981,"is_reserved":false,"is_disabled":false,"rental_uris":{"android":"levelo://app?vid=0e28ea22-5428-4a2e-9438-fad8b4713bd2","ios":"levelo://app?vid=0e28ea22-5428-4a2e-9438-fad8b4713bd2"},"vehicle_type_id":"4","last_reported":1692457530,"current_range_meters":26800,"station_id":"ce4bhbh2rcd13ifvqepg","pricing_plan_id":"free"},{"bike_id":"781c0cb1-6761-4920-8660-25d89ea761b2","system_id":"levelo_inurba_marseille","lat":43.28417,"lon":5.34981,"is_reserved":false,"is_disabled":false,"rental_uris":{"android":"levelo://app?vid=781c0cb1-6761-4920-8660-25d89ea761b2","ios":"levelo://app?vid=781c0cb1-6761-4920-8660-25d89ea761b2"},"vehicle_type_id":"4","last_reported":1692457530,"current_range_meters":20800,"station_id":"ce4bhbh2rcd13ifvqepg","pricing_plan_id":"free"},{"bike_id":"22193103-51c7-4cfa-ab39-f022dd3ffbc2","system_id":"levelo_inurba_marseille","lat":43.28417,"lon":5.3498,"is_reserved":false,"is_disabled":false,"rental_uris":{"android":"levelo://app?vid=22193103-51c7-4cfa-ab39-f022dd3ffbc2","ios":"levelo://app?vid=22193103-51c7-4cfa-ab39-f022dd3ffbc2"},"vehicle_type_id":"4","last_reported":1692457530,"current_range_meters":20000,"station_id":"ce4bhbh2rcd13ifvqepg","pricing_plan_id":"free"},{"bike_id":"5543c719-b280-42b6-b01e-86f5b4adcbd5","system_id":"levelo_inurba_marseille","lat":43.28417,"lon":5.34978,"is_reserved":false,"is_disabled":false,"rental_uris":{"android":"levelo://app?vid=5543c719-b280-42b6-b01e-86f5b4adcbd5","ios":"levelo://app?vid=5543c719-b280-42b6-b01e-86f5b4adcbd5"},"vehicle_type_id":"4","last_reported":1692457530,"current_range_meters":22800,"station_id":"ce4bhbh2rcd13ifvqepg","pricing_plan_id":"free"},{"bike_id":"fac083ac-05e8-4825-b3e7-d59a3c1a16d9","system_id":"levelo_inurba_marseille","lat":43.284217,"lon":5.349697,"is_reserved":false,"is_disabled":false,"rental_uris":{"android":"levelo://app?vid=fac083ac-05e8-4825-b3e7-d59a3c1a16d9","ios":"levelo://app?vid=fac083ac-05e8-4825-b3e7-d59a3c1a16d9"},"vehicle_type_id":"4","last_reported":1692457530,"current_range_meters":25600,"station_id":"ce4bhbh2rcd13ifvqepg","pricing_plan_id":"free"},{"bike_id":"71953eb7-9886-4efd-a362-29476a0a0546","system_id":"levelo_inurba_marseille","lat":43.284217,"lon":5.349697,"is_reserved":false,"is_disabled":false,"rental_uris":{"android":"levelo://app?vid=71953eb7-9886-4efd-a362-29476a0a0546","ios":"levelo://app?vid=71953eb7-9886-4efd-a362-29476a0a0546"},"vehicle_type_id":"4","last_reported":1692457530,"current_range_meters":16800,"station_id":"ce4bhbh2rcd13ifvqepg","pricing_plan_id":"free"},{"bike_id":"f50aca5f-cf5b-4020-925f-826a2e34874f","system_id":"levelo_inurba_marseille","lat":43.289363,"lon":5.396322,"is_reserved":false,"is_disabled":false,"rental_uris":{"android":"levelo://app?vid=f50aca5f-cf5b-4020-925f-826a2e34874f","ios":"levelo://app?vid=f50aca5f-cf5b-4020-925f-826a2e34874f"},"vehicle_type_id":"4","last_reported":1692457530,"current_range_meters":29200,"station_id":"ce4bh3h2rcd13ifvqdn0","pricing_plan_id":"free"},{"bike_id":"f7646770-4134-45ae-a162-680b6fe0ee5d","system_id":"levelo_inurba_marseille","lat":43.292724,"lon":5.401131,"is_reserved":false,"is_disabled":false,"rental_uris":{"android":"levelo://app?vid=f7646770-4134-45ae-a162-680b6fe0ee5d","ios":"levelo://app?vid=f7646770-4134-45ae-a162-680b6fe0ee5d"},"vehicle_type_id":"4","last_reported":1692457530,"current_range_meters":20000,"station_id":"ce4bh312rcd13ifvqdk0","pricing_plan_id":"free"},{"bike_id":"0be6e247-c282-4009-8063-99a8a187f4b6","system_id":"levelo_inurba_marseille","lat":43.292724,"lon":5.401131,"is_reserved":false,"is_disabled":false,"rental_uris":{"android":"levelo://app?vid=0be6e247-c282-4009-8063-99a8a187f4b6","ios":"levelo://app?vid=0be6e247-c282-4009-8063-99a8a187f4b6"},"vehicle_type_id":"4","last_reported":1692457530,"current_range_meters":24800,"station_id":"ce4bh312rcd13ifvqdk0","pricing_plan_id":"free"},{"bike_id":"5cec26ac-344f-432b-af34-450b75305b9b","system_id":"levelo_inurba_marseille","lat":43.292724,"lon":5.401131,"is_reserved":false,"is_disabled":false,"rental_uris":{"android":"levelo://app?vid=5cec26ac-344f-432b-af34-450b75305b9b","ios":"levelo://app?vid=5cec26ac-344f-432b-af34-450b75305b9b"},"vehicle_type_id":"4","last_reported":1692457530,"current_range_meters":30400,"station_id":"ce4bh312rcd13ifvqdk0","pricing_plan_id":"free"},{"bike_id":"5b72c66f-9b7c-4747-b09c-f20c879216f8","system_id":"levelo_inurba_marseille","lat":43.28287,"lon":5.35063,"is_reserved":false,"is_disabled":false,"rental_uris":{"android":"levelo://app?vid=5b72c66f-9b7c-4747-b09c-f20c879216f8","ios":"levelo://app?vid=5b72c66f-9b7c-4747-b09c-f20c879216f8"},"vehicle_type_id":"4","last_reported":1692457530,"current_range_meters":16800,"station_id":"ce4bhbp2rcd13ifvqerg","pricing_plan_id":"free"},{"bike_id":"04b5e856-8998-4270-aff8-c1e5cf89a08e","system_id":"levelo_inurba_marseille","lat":43.28282,"lon":5.35078,"is_reserved":false,"is_disabled":false,"rental_uris":{"android":"levelo://app?vid=04b5e856-8998-4270-aff8-c1e5cf89a08e","ios":"levelo://app?vid=04b5e856-8998-4270-aff8-c1e5cf89a08e"},"vehicle_type_id":"4","last_reported":1692457530,"current_range_meters":22400,"station_id":"ce4bhbp2rcd13ifvqerg","pricing_plan_id":"free"},{"bike_id":"11782008-ab28-4adc-9567-07e641ec570e","system_id":"levelo_inurba_marseille","lat":43.2828,"lon":5.3507,"is_reserved":false,"is_disabled":false,"rental_uris":{"android":"levelo://app?vid=11782008-ab28-4adc-9567-07e641ec570e","ios":"levelo://app?vid=11782008-ab28-4adc-9567-07e641ec570e"},"vehicle_type_id":"4","last_reported":1692457530,"current_range_meters":20400,"station_id":"ce4bhbp2rcd13ifvqerg","pricing_plan_id":"free"},{"bike_id":"e5c56f38-dd77-4657-a893-676920e82430","system_id":"levelo_inurba_marseille","lat":43.28277,"lon":5.35077,"is_reserved":false,"is_disabled":false,"rental_uris":{"android":"levelo://app?vid=e5c56f38-dd77-4657-a893-676920e82430","ios":"levelo://app?vid=e5c56f38-dd77-4657-a893-676920e82430"},"vehicle_type_id":"4","last_reported":1692457530,"current_range_meters":29200,"station_id":"ce4bhbp2rcd13ifvqerg","pricing_plan_id":"free"},{"bike_id":"a3bf40e5-0e8c-49a8-83ed-79360293c5ce","system_id":"levelo_inurba_marseille","lat":43.28279,"lon":5.35069,"is_reserved":false,"is_disabled":false,"rental_uris":{"android":"levelo://app?vid=a3bf40e5-0e8c-49a8-83ed-79360293c5ce","ios":"levelo://app?vid=a3bf40e5-0e8c-49a8-83ed-79360293c5ce"},"vehicle_type_id":"4","last_reported":1692457530,"current_range_meters":25200,"station_id":"ce4bhbp2rcd13ifvqerg","pricing_plan_id":"free"},{"bike_id":"1cc1cf33-5475-4bcf-a8db-997366c440e0","system_id":"levelo_inurba_marseille","lat":43.28279,"lon":5.35068,"is_reserved":false,"is_disabled":false,"rental_uris":{"android":"levelo://app?vid=1cc1cf33-5475-4bcf-a8db-997366c440e0","ios":"levelo://app?vid=1cc1cf33-5475-4bcf-a8db-997366c440e0"},"vehicle_type_id":"4","last_reported":1692457530,"current_range_meters":28000,"station_id":"ce4bhbp2rcd13ifvqerg","pricing_plan_id":"free"},{"bike_id":"ca46187a-8af0-4325-942e-0a6924d674b4","system_id":"levelo_inurba_marseille","lat":43.28276,"lon":5.35076,"is_reserved":false,"is_disabled":false,"rental_uris":{"android":"levelo://app?vid=ca46187a-8af0-4325-942e-0a6924d674b4","ios":"levelo://app?vid=ca46187a-8af0-4325-942e-0a6924d674b4"},"vehicle_type_id":"4","last_reported":1692457530,"current_range_meters":23200,"station_id":"ce4bhbp2rcd13ifvqerg","pricing_plan_id":"free"},{"bike_id":"7019ca0c-b21f-4a52-b039-4f2e2e32a89c","system_id":"levelo_inurba_marseille","lat":43.28278,"lon":5.35066,"is_reserved":false,"is_disabled":false,"rental_uris":{"android":"levelo://app?vid=7019ca0c-b21f-4a52-b039-4f2e2e32a89c","ios":"levelo://app?vid=7019ca0c-b21f-4a52-b039-4f2e2e32a89c"},"vehicle_type_id":"4","last_reported":1692457530,"current_range_meters":31200,"station_id":"ce4bhbp2rcd13ifvqerg","pricing_plan_id":"free"},{"bike_id":"3038b227-a2c0-4c5a-a347-5172921ca3a8","system_id":"levelo_inurba_marseille","lat":43.28276,"lon":5.3507,"is_reserved":false,"is_disabled":false,"rental_uris":{"android":"levelo://app?vid=3038b227-a2c0-4c5a-a347-5172921ca3a8","ios":"levelo://app?vid=3038b227-a2c0-4c5a-a347-5172921ca3a8"},"vehicle_type_id":"4","last_reported":1692457530,"current_range_meters":22000,"station_id":"ce4bhbp2rcd13ifvqerg","pricing_plan_id":"free"},{"bike_id":"36a67ad8-cfe7-4ea0-a954-b2ac79271b68","system_id":"levelo_inurba_marseille","lat":43.28275,"lon":5.35072,"is_reserved":false,"is_disabled":false,"rental_uris":{"android":"levelo://app?vid=36a67ad8-cfe7-4ea0-a954-b2ac79271b68","ios":"levelo://app?vid=36a67ad8-cfe7-4ea0-a954-b2ac79271b68"},"vehicle_type_id":"4","last_reported":1692457530,"current_range_meters":18000,"station_id":"ce4bhbp2rcd13ifvqerg","pricing_plan_id":"free"},{"bike_id":"722fdba4-d5e1-4a27-90a9-0184a1b94131","system_id":"levelo_inurba_marseille","lat":43.28275,"lon":5.35063,"is_reserved":false,"is_disabled":false,"rental_uris":{"android":"levelo://app?vid=722fdba4-d5e1-4a27-90a9-0184a1b94131","ios":"levelo://app?vid=722fdba4-d5e1-4a27-90a9-0184a1b94131"},"vehicle_type_id":"4","last_reported":1692457530,"current_range_meters":21200,"station_id":"ce4bhbp2rcd13ifvqerg","pricing_plan_id":"free"},{"bike_id":"4ac8f7ae-3414-46cb-9052-7e27dc315dcf","system_id":"levelo_inurba_marseille","lat":43.28273,"lon":5.35063,"is_reserved":false,"is_disabled":false,"rental_uris":{"android":"levelo://app?vid=4ac8f7ae-3414-46cb-9052-7e27dc315dcf","ios":"levelo://app?vid=4ac8f7ae-3414-46cb-9052-7e27dc315dcf"},"vehicle_type_id":"4","last_reported":1692457530,"current_range_meters":31200,"station_id":"ce4bhbp2rcd13ifvqerg","pricing_plan_id":"free"},{"bike_id":"e14d45e9-ed8d-4530-88d3-e30e495e673f","system_id":"levelo_inurba_marseille","lat":43.282735,"lon":5.350594,"is_reserved":false,"is_disabled":false,"rental_uris":{"android":"levelo://app?vid=e14d45e9-ed8d-4530-88d3-e30e495e673f","ios":"levelo://app?vid=e14d45e9-ed8d-4530-88d3-e30e495e673f"},"vehicle_type_id":"4","last_reported":1692457530,"current_range_meters":31200,"station_id":"ce4bhbp2rcd13ifvqerg","pricing_plan_id":"free"},{"bike_id":"10247ba6-71ae-45f9-8153-22a2c3a97b56","system_id":"levelo_inurba_marseille","lat":43.282714,"lon":5.350601,"is_reserved":false,"is_disabled":false,"rental_uris":{"android":"levelo://app?vid=10247ba6-71ae-45f9-8153-22a2c3a97b56","ios":"levelo://app?vid=10247ba6-71ae-45f9-8153-22a2c3a97b56"},"vehicle_type_id":"4","last_reported":1692457530,"current_range_meters":18400,"station_id":"ce4bhbp2rcd13ifvqerg","pricing_plan_id":"free"},{"bike_id":"9479208c-e6c1-4313-aa37-06ebf0b134fd","system_id":"levelo_inurba_marseille","lat":43.28265,"lon":5.35079,"is_reserved":false,"is_disabled":false,"rental_uris":{"android":"levelo://app?vid=9479208c-e6c1-4313-aa37-06ebf0b134fd","ios":"levelo://app?vid=9479208c-e6c1-4313-aa37-06ebf0b134fd"},"vehicle_type_id":"4","last_reported":1692457530,"current_range_meters":11200,"station_id":"ce4bhbp2rcd13ifvqerg","pricing_plan_id":"free"},{"bike_id":"248b4af1-cebb-4b11-a45e-11d87517973a","system_id":"levelo_inurba_marseille","lat":43.28267,"lon":5.35071,"is_reserved":false,"is_disabled":false,"rental_uris":{"android":"levelo://app?vid=248b4af1-cebb-4b11-a45e-11d87517973a","ios":"levelo://app?vid=248b4af1-cebb-4b11-a45e-11d87517973a"},"vehicle_type_id":"4","last_reported":1692457530,"current_range_meters":15600,"station_id":"ce4bhbp2rcd13ifvqerg","pricing_plan_id":"free"},{"bike_id":"88c9fa49-1f6b-4d8a-8177-16686038e112","system_id":"levelo_inurba_marseille","lat":43.28269,"lon":5.35064,"is_reserved":false,"is_disabled":false,"rental_uris":{"android":"levelo://app?vid=88c9fa49-1f6b-4d8a-8177-16686038e112","ios":"levelo://app?vid=88c9fa49-1f6b-4d8a-8177-16686038e112"},"vehicle_type_id":"4","last_reported":1692457530,"current_range_meters":20000,"station_id":"ce4bhbp2rcd13ifvqerg","pricing_plan_id":"free"},{"bike_id":"8f8ddd72-4dd2-4bae-b02b-04f90e62c39d","system_id":"levelo_inurba_marseille","lat":43.282689,"lon":5.350628,"is_reserved":false,"is_disabled":false,"rental_uris":{"android":"levelo://app?vid=8f8ddd72-4dd2-4bae-b02b-04f90e62c39d","ios":"levelo://app?vid=8f8ddd72-4dd2-4bae-b02b-04f90e62c39d"},"vehicle_type_id":"4","last_reported":1692457530,"current_range_meters":21600,"station_id":"ce4bhbp2rcd13ifvqerg","pricing_plan_id":"free"},{"bike_id":"e217543b-49c0-4a5f-91f5-395a64a2b7ae","system_id":"levelo_inurba_marseille","lat":43.28268,"lon":5.35061,"is_reserved":false,"is_disabled":false,"rental_uris":{"android":"levelo://app?vid=e217543b-49c0-4a5f-91f5-395a64a2b7ae","ios":"levelo://app?vid=e217543b-49c0-4a5f-91f5-395a64a2b7ae"},"vehicle_type_id":"4","last_reported":1692457530,"current_range_meters":29200,"station_id":"ce4bhbp2rcd13ifvqerg","pricing_plan_id":"free"},{"bike_id":"9897a276-0506-4a04-b24e-c6bc1879aa9c","system_id":"levelo_inurba_marseille","lat":43.28266,"lon":5.35067,"is_reserved":false,"is_disabled":false,"rental_uris":{"android":"levelo://app?vid=9897a276-0506-4a04-b24e-c6bc1879aa9c","ios":"levelo://app?vid=9897a276-0506-4a04-b24e-c6bc1879aa9c"},"vehicle_type_id":"4","last_reported":1692457530,"current_range_meters":31200,"station_id":"ce4bhbp2rcd13ifvqerg","pricing_plan_id":"free"},{"bike_id":"cd191653-e1ed-4400-ac47-f373db112c3f","system_id":"levelo_inurba_marseille","lat":43.28268,"lon":5.3506,"is_reserved":false,"is_disabled":false,"rental_uris":{"android":"levelo://app?vid=cd191653-e1ed-4400-ac47-f373db112c3f","ios":"levelo://app?vid=cd191653-e1ed-4400-ac47-f373db112c3f"},"vehicle_type_id":"4","last_reported":1692457530,"current_range_meters":26400,"station_id":"ce4bhbp2rcd13ifvqerg","pricing_plan_id":"free"},{"bike_id":"8307e079-e318-42ca-9b24-71f6602b3aa7","system_id":"levelo_inurba_marseille","lat":43.28268,"lon":5.35059,"is_reserved":false,"is_disabled":false,"rental_uris":{"android":"levelo://app?vid=8307e079-e318-42ca-9b24-71f6602b3aa7","ios":"levelo://app?vid=8307e079-e318-42ca-9b24-71f6602b3aa7"},"vehicle_type_id":"4","last_reported":1692457530,"current_range_meters":21600,"station_id":"ce4bhbp2rcd13ifvqerg","pricing_plan_id":"free"},{"bike_id":"fe783032-ff40-46dc-be24-dd12fc35e995","system_id":"levelo_inurba_marseille","lat":43.282679,"lon":5.350573,"is_reserved":false,"is_disabled":false,"rental_uris":{"android":"levelo://app?vid=fe783032-ff40-46dc-be24-dd12fc35e995","ios":"levelo://app?vid=fe783032-ff40-46dc-be24-dd12fc35e995"},"vehicle_type_id":"4","last_reported":1692457530,"current_range_meters":31200,"station_id":"ce4bhbp2rcd13ifvqerg","pricing_plan_id":"free"},{"bike_id":"88940920-727e-47f8-bee6-24feedff1167","system_id":"levelo_inurba_marseille","lat":43.282672,"lon":5.350574,"is_reserved":false,"is_disabled":false,"rental_uris":{"android":"levelo://app?vid=88940920-727e-47f8-bee6-24feedff1167","ios":"levelo://app?vid=88940920-727e-47f8-bee6-24feedff1167"},"vehicle_type_id":"4","last_reported":1692457530,"current_range_meters":30400,"station_id":"ce4bhbp2rcd13ifvqerg","pricing_plan_id":"free"},{"bike_id":"aaba12ca-ebb7-469a-b1c3-38961bea9c6f","system_id":"levelo_inurba_marseille","lat":43.28265,"lon":5.35064,"is_reserved":false,"is_disabled":false,"rental_uris":{"android":"levelo://app?vid=aaba12ca-ebb7-469a-b1c3-38961bea9c6f","ios":"levelo://app?vid=aaba12ca-ebb7-469a-b1c3-38961bea9c6f"},"vehicle_type_id":"4","last_reported":1692457530,"current_range_meters":28800,"station_id":"ce4bhbp2rcd13ifvqerg","pricing_plan_id":"free"},{"bike_id":"061dfcc8-8f93-405f-afec-7d5bb40f64fb","system_id":"levelo_inurba_marseille","lat":43.28266,"lon":5.350564,"is_reserved":false,"is_disabled":false,"rental_uris":{"android":"levelo://app?vid=061dfcc8-8f93-405f-afec-7d5bb40f64fb","ios":"levelo://app?vid=061dfcc8-8f93-405f-afec-7d5bb40f64fb"},"vehicle_type_id":"4","last_reported":1692457530,"current_range_meters":27200,"station_id":"ce4bhbp2rcd13ifvqerg","pricing_plan_id":"free"},{"bike_id":"698ab569-3165-412a-85a0-1064420976af","system_id":"levelo_inurba_marseille","lat":43.282659,"lon":5.350568,"is_reserved":false,"is_disabled":false,"rental_uris":{"android":"levelo://app?vid=698ab569-3165-412a-85a0-1064420976af","ios":"levelo://app?vid=698ab569-3165-412a-85a0-1064420976af"},"vehicle_type_id":"4","last_reported":1692457530,"current_range_meters":31200,"station_id":"ce4bhbp2rcd13ifvqerg","pricing_plan_id":"free"},{"bike_id":"ed307e7e-8c4e-4248-aefb-d53722504bbb","system_id":"levelo_inurba_marseille","lat":43.282613,"lon":5.35067,"is_reserved":false,"is_disabled":false,"rental_uris":{"android":"levelo://app?vid=ed307e7e-8c4e-4248-aefb-d53722504bbb","ios":"levelo://app?vid=ed307e7e-8c4e-4248-aefb-d53722504bbb"},"vehicle_type_id":"4","last_reported":1692457530,"current_range_meters":16000,"station_id":"ce4bhbp2rcd13ifvqerg","pricing_plan_id":"free"},{"bike_id":"2678d364-dd03-407d-a270-a2748b252704","system_id":"levelo_inurba_marseille","lat":43.28262,"lon":5.35062,"is_reserved":false,"is_disabled":false,"rental_uris":{"android":"levelo://app?vid=2678d364-dd03-407d-a270-a2748b252704","ios":"levelo://app?vid=2678d364-dd03-407d-a270-a2748b252704"},"vehicle_type_id":"4","last_reported":1692457530,"current_range_meters":29600,"station_id":"ce4bhbp2rcd13ifvqerg","pricing_plan_id":"free"},{"bike_id":"96c2d6eb-6cdd-4458-b52a-23bfdc2ef773","system_id":"levelo_inurba_marseille","lat":43.282547,"lon":5.350712,"is_reserved":false,"is_disabled":false,"rental_uris":{"android":"levelo://app?vid=96c2d6eb-6cdd-4458-b52a-23bfdc2ef773","ios":"levelo://app?vid=96c2d6eb-6cdd-4458-b52a-23bfdc2ef773"},"vehicle_type_id":"4","last_reported":1692457530,"current_range_meters":10800,"station_id":"ce4bhbp2rcd13ifvqerg","pricing_plan_id":"free"},{"bike_id":"57b105aa-3b80-400a-beea-fc5495920f61","system_id":"levelo_inurba_marseille","lat":43.282545,"lon":5.350714,"is_reserved":false,"is_disabled":false,"rental_uris":{"android":"levelo://app?vid=57b105aa-3b80-400a-beea-fc5495920f61","ios":"levelo://app?vid=57b105aa-3b80-400a-beea-fc5495920f61"},"vehicle_type_id":"4","last_reported":1692457530,"current_range_meters":22800,"station_id":"ce4bhbp2rcd13ifvqerg","pricing_plan_id":"free"},{"bike_id":"fb9aac7e-9160-45de-8ab3-d9a3b4bbdb13","system_id":"levelo_inurba_marseille","lat":43.282543,"lon":5.350718,"is_reserved":false,"is_disabled":false,"rental_uris":{"android":"levelo://app?vid=fb9aac7e-9160-45de-8ab3-d9a3b4bbdb13","ios":"levelo://app?vid=fb9aac7e-9160-45de-8ab3-d9a3b4bbdb13"},"vehicle_type_id":"4","last_reported":1692457530,"current_range_meters":23200,"station_id":"ce4bhbp2rcd13ifvqerg","pricing_plan_id":"free"},{"bike_id":"88d6e2d1-3904-45cb-91e6-f3779359c8cd","system_id":"levelo_inurba_marseille","lat":43.282548,"lon":5.35067,"is_reserved":false,"is_disabled":false,"rental_uris":{"android":"levelo://app?vid=88d6e2d1-3904-45cb-91e6-f3779359c8cd","ios":"levelo://app?vid=88d6e2d1-3904-45cb-91e6-f3779359c8cd"},"vehicle_type_id":"4","last_reported":1692457530,"current_range_meters":11200,"station_id":"ce4bhbp2rcd13ifvqerg","pricing_plan_id":"free"},{"bike_id":"2005c6f9-50f7-4d49-8239-dbe3708f7175","system_id":"levelo_inurba_marseille","lat":43.282505,"lon":5.350811,"is_reserved":false,"is_disabled":false,"rental_uris":{"android":"levelo://app?vid=2005c6f9-50f7-4d49-8239-dbe3708f7175","ios":"levelo://app?vid=2005c6f9-50f7-4d49-8239-dbe3708f7175"},"vehicle_type_id":"4","last_reported":1692457530,"current_range_meters":16800,"station_id":"ce4bhbp2rcd13ifvqerg","pricing_plan_id":"free"},{"bike_id":"b0938a47-3cd7-4735-a275-76b2b1f24831","system_id":"levelo_inurba_marseille","lat":43.282565,"lon":5.350584,"is_reserved":false,"is_disabled":false,"rental_uris":{"android":"levelo://app?vid=b0938a47-3cd7-4735-a275-76b2b1f24831","ios":"levelo://app?vid=b0938a47-3cd7-4735-a275-76b2b1f24831"},"vehicle_type_id":"4","last_reported":1692457530,"current_range_meters":31200,"station_id":"ce4bhbp2rcd13ifvqerg","pricing_plan_id":"free"},{"bike_id":"15e23eb1-3035-4a2e-b283-5213cee389c3","system_id":"levelo_inurba_marseille","lat":43.282552,"lon":5.350578,"is_reserved":false,"is_disabled":false,"rental_uris":{"android":"levelo://app?vid=15e23eb1-3035-4a2e-b283-5213cee389c3","ios":"levelo://app?vid=15e23eb1-3035-4a2e-b283-5213cee389c3"},"vehicle_type_id":"4","last_reported":1692457530,"current_range_meters":29600,"station_id":"ce4bhbp2rcd13ifvqerg","pricing_plan_id":"free"},{"bike_id":"9b209bdc-9551-4008-9ce5-7af839294f7d","system_id":"levelo_inurba_marseille","lat":43.282549,"lon":5.350577,"is_reserved":false,"is_disabled":false,"rental_uris":{"android":"levelo://app?vid=9b209bdc-9551-4008-9ce5-7af839294f7d","ios":"levelo://app?vid=9b209bdc-9551-4008-9ce5-7af839294f7d"},"vehicle_type_id":"4","last_reported":1692457530,"current_range_meters":16400,"station_id":"ce4bhbp2rcd13ifvqerg","pricing_plan_id":"free"},{"bike_id":"16304175-9d02-4b0e-a9cd-e3c67ecb850d","system_id":"levelo_inurba_marseille","lat":43.282537,"lon":5.350568,"is_reserved":false,"is_disabled":false,"rental_uris":{"android":"levelo://app?vid=16304175-9d02-4b0e-a9cd-e3c67ecb850d","ios":"levelo://app?vid=16304175-9d02-4b0e-a9cd-e3c67ecb850d"},"vehicle_type_id":"4","last_reported":1692457530,"current_range_meters":28400,"station_id":"ce4bhbp2rcd13ifvqerg","pricing_plan_id":"free"},{"bike_id":"9f46cfde-4f76-4076-bade-5765c2d3d473","system_id":"levelo_inurba_marseille","lat":43.28039,"lon":5.369297,"is_reserved":false,"is_disabled":false,"rental_uris":{"android":"levelo://app?vid=9f46cfde-4f76-4076-bade-5765c2d3d473","ios":"levelo://app?vid=9f46cfde-4f76-4076-bade-5765c2d3d473"},"vehicle_type_id":"4","last_reported":1692457530,"current_range_meters":31200,"station_id":"ce4bha12rcd13ifvqef0","pricing_plan_id":"free"},{"bike_id":"ab95aa95-05ca-4f44-9615-d58e08afc09f","system_id":"levelo_inurba_marseille","lat":43.282531,"lon":5.350503,"is_reserved":false,"is_disabled":false,"rental_uris":{"android":"levelo://app?vid=ab95aa95-05ca-4f44-9615-d58e08afc09f","ios":"levelo://app?vid=ab95aa95-05ca-4f44-9615-d58e08afc09f"},"vehicle_type_id":"4","last_reported":1692457530,"current_range_meters":31200,"station_id":"ce4bhbp2rcd13ifvqerg","pricing_plan_id":"free"},{"bike_id":"19e35119-8040-4c1b-af66-94b0199164f4","system_id":"levelo_inurba_marseille","lat":43.29035,"lon":5.39973,"is_reserved":false,"is_disabled":false,"rental_uris":{"android":"levelo://app?vid=19e35119-8040-4c1b-af66-94b0199164f4","ios":"levelo://app?vid=19e35119-8040-4c1b-af66-94b0199164f4"},"vehicle_type_id":"4","last_reported":1692457530,"current_range_meters":20800,"station_id":"ce4bh392rcd13ifvqdm0","pricing_plan_id":"free"},{"bike_id":"3a0d42ea-b0ff-4a47-ab30-837e39f4f838","system_id":"levelo_inurba_marseille","lat":43.29031,"lon":5.39978,"is_reserved":false,"is_disabled":false,"rental_uris":{"android":"levelo://app?vid=3a0d42ea-b0ff-4a47-ab30-837e39f4f838","ios":"levelo://app?vid=3a0d42ea-b0ff-4a47-ab30-837e39f4f838"},"vehicle_type_id":"4","last_reported":1692457530,"current_range_meters":28800,"station_id":"ce4bh392rcd13ifvqdm0","pricing_plan_id":"free"},{"bike_id":"3fdd9ab2-2c8e-4973-942c-40daa13e8d98","system_id":"levelo_inurba_marseille","lat":43.290412,"lon":5.399633,"is_reserved":false,"is_disabled":false,"rental_uris":{"android":"levelo://app?vid=3fdd9ab2-2c8e-4973-942c-40daa13e8d98","ios":"levelo://app?vid=3fdd9ab2-2c8e-4973-942c-40daa13e8d98"},"vehicle_type_id":"4","last_reported":1692457530,"current_range_meters":11200,"station_id":"ce4bh392rcd13ifvqdm0","pricing_plan_id":"free"},{"bike_id":"ee181bcc-966f-4287-b0da-1a6889e908cd","system_id":"levelo_inurba_marseille","lat":43.285742,"lon":5.395004,"is_reserved":false,"is_disabled":false,"rental_uris":{"android":"levelo://app?vid=ee181bcc-966f-4287-b0da-1a6889e908cd","ios":"levelo://app?vid=ee181bcc-966f-4287-b0da-1a6889e908cd"},"vehicle_type_id":"4","last_reported":1692457530,"current_range_meters":8400,"station_id":"ce4bh292rcd13ifvqdg0","pricing_plan_id":"free"},{"bike_id":"f8ef4f78-badc-40d1-a4a9-077301466e56","system_id":"levelo_inurba_marseille","lat":43.32662,"lon":5.40978,"is_reserved":false,"is_disabled":false,"rental_uris":{"android":"levelo://app?vid=f8ef4f78-badc-40d1-a4a9-077301466e56","ios":"levelo://app?vid=f8ef4f78-badc-40d1-a4a9-077301466e56"},"vehicle_type_id":"4","last_reported":1692457530,"current_range_meters":12800,"station_id":"ce4bhpp2rcd13ifvqhgg","pricing_plan_id":"free"},{"bike_id":"194e6000-deb6-4729-b2f1-db2c5b44b069","system_id":"levelo_inurba_marseille","lat":43.29967,"lon":5.41316,"is_reserved":false,"is_disabled":false,"rental_uris":{"android":"levelo://app?vid=194e6000-deb6-4729-b2f1-db2c5b44b069","ios":"levelo://app?vid=194e6000-deb6-4729-b2f1-db2c5b44b069"},"vehicle_type_id":"4","last_reported":1692457530,"current_range_meters":17200,"station_id":"ce4bhp12rcd13ifvqh9g","pricing_plan_id":"free"},{"bike_id":"3b4496bf-b89d-4097-9845-ebff2f027088","system_id":"levelo_inurba_marseille","lat":43.299579,"lon":5.413255,"is_reserved":false,"is_disabled":false,"rental_uris":{"android":"levelo://app?vid=3b4496bf-b89d-4097-9845-ebff2f027088","ios":"levelo://app?vid=3b4496bf-b89d-4097-9845-ebff2f027088"},"vehicle_type_id":"4","last_reported":1692457530,"current_range_meters":3200,"station_id":"ce4bhp12rcd13ifvqh9g","pricing_plan_id":"free"},{"bike_id":"3eb17d3c-6b3e-4d47-8b8b-711f56f764a6","system_id":"levelo_inurba_marseille","lat":43.299579,"lon":5.413255,"is_reserved":false,"is_disabled":false,"rental_uris":{"android":"levelo://app?vid=3eb17d3c-6b3e-4d47-8b8b-711f56f764a6","ios":"levelo://app?vid=3eb17d3c-6b3e-4d47-8b8b-711f56f764a6"},"vehicle_type_id":"4","last_reported":1692457530,"current_range_meters":31200,"station_id":"ce4bhp12rcd13ifvqh9g","pricing_plan_id":"free"},{"bike_id":"3478cc95-b5dc-4a2a-9973-3f8b246b2b16","system_id":"levelo_inurba_marseille","lat":43.320045,"lon":5.415048,"is_reserved":false,"is_disabled":false,"rental_uris":{"android":"levelo://app?vid=3478cc95-b5dc-4a2a-9973-3f8b246b2b16","ios":"levelo://app?vid=3478cc95-b5dc-4a2a-9973-3f8b246b2b16"},"vehicle_type_id":"4","last_reported":1692457530,"current_range_meters":0,"station_id":"ce4bhq92rcd13ifvqhkg","pricing_plan_id":"free"},{"bike_id":"8a026d53-88fa-495b-b4fa-d5a83e9e7f8a","system_id":"levelo_inurba_marseille","lat":43.29964,"lon":5.41319,"is_reserved":false,"is_disabled":false,"rental_uris":{"android":"levelo://app?vid=8a026d53-88fa-495b-b4fa-d5a83e9e7f8a","ios":"levelo://app?vid=8a026d53-88fa-495b-b4fa-d5a83e9e7f8a"},"vehicle_type_id":"4","last_reported":1692457530,"current_range_meters":28400,"station_id":"ce4bhp12rcd13ifvqh9g","pricing_plan_id":"free"},{"bike_id":"a32a39d0-a8d3-42f8-bde2-27a8ca911b9d","system_id":"levelo_inurba_marseille","lat":43.29966,"lon":5.41321,"is_reserved":false,"is_disabled":false,"rental_uris":{"android":"levelo://app?vid=a32a39d0-a8d3-42f8-bde2-27a8ca911b9d","ios":"levelo://app?vid=a32a39d0-a8d3-42f8-bde2-27a8ca911b9d"},"vehicle_type_id":"4","last_reported":1692457530,"current_range_meters":28400,"station_id":"ce4bhp12rcd13ifvqh9g","pricing_plan_id":"free"},{"bike_id":"e50afae3-4ae7-4457-9cda-84fcc64ac2e1","system_id":"levelo_inurba_marseille","lat":43.299577,"lon":5.413277,"is_reserved":false,"is_disabled":false,"rental_uris":{"android":"levelo://app?vid=e50afae3-4ae7-4457-9cda-84fcc64ac2e1","ios":"levelo://app?vid=e50afae3-4ae7-4457-9cda-84fcc64ac2e1"},"vehicle_type_id":"4","last_reported":1692457530,"current_range_meters":29600,"station_id":"ce4bhp12rcd13ifvqh9g","pricing_plan_id":"free"},{"bike_id":"c327718a-8fe6-4791-a349-aba0f8f94e82","system_id":"levelo_inurba_marseille","lat":43.279742,"lon":5.38744,"is_reserved":false,"is_disabled":false,"rental_uris":{"android":"levelo://app?vid=c327718a-8fe6-4791-a349-aba0f8f94e82","ios":"levelo://app?vid=c327718a-8fe6-4791-a349-aba0f8f94e82"},"vehicle_type_id":"4","last_reported":1692457530,"current_range_meters":25200,"station_id":"ce4bhg12rcd13ifvqf80","pricing_plan_id":"free"},{"bike_id":"f8798cb1-e506-4464-89ce-3cad3fe66b84","system_id":"levelo_inurba_marseille","lat":43.320045,"lon":5.415046,"is_reserved":false,"is_disabled":false,"rental_uris":{"android":"levelo://app?vid=f8798cb1-e506-4464-89ce-3cad3fe66b84","ios":"levelo://app?vid=f8798cb1-e506-4464-89ce-3cad3fe66b84"},"vehicle_type_id":"4","last_reported":1692457530,"current_range_meters":9200,"station_id":"ce4bhq92rcd13ifvqhkg","pricing_plan_id":"free"},{"bike_id":"b367d684-4be5-4990-a23c-376e0a1a22f0","system_id":"levelo_inurba_marseille","lat":43.2762,"lon":5.36109,"is_reserved":false,"is_disabled":false,"rental_uris":{"android":"levelo://app?vid=b367d684-4be5-4990-a23c-376e0a1a22f0","ios":"levelo://app?vid=b367d684-4be5-4990-a23c-376e0a1a22f0"},"vehicle_type_id":"4","last_reported":1692457530,"current_range_meters":25200,"station_id":"ce4bgj92rcd13ifvqbe0","pricing_plan_id":"free"},{"bike_id":"de742b71-9f90-4e21-90b7-63e970898f70","system_id":"levelo_inurba_marseille","lat":43.27618,"lon":5.361009,"is_reserved":false,"is_disabled":false,"rental_uris":{"android":"levelo://app?vid=de742b71-9f90-4e21-90b7-63e970898f70","ios":"levelo://app?vid=de742b71-9f90-4e21-90b7-63e970898f70"},"vehicle_type_id":"4","last_reported":1692457530,"current_range_meters":17600,"station_id":"ce4bgj92rcd13ifvqbe0","pricing_plan_id":"free"},{"bike_id":"61d3e3db-6839-4365-88dd-be2b90aa6fdf","system_id":"levelo_inurba_marseille","lat":43.27618,"lon":5.361009,"is_reserved":false,"is_disabled":false,"rental_uris":{"android":"levelo://app?vid=61d3e3db-6839-4365-88dd-be2b90aa6fdf","ios":"levelo://app?vid=61d3e3db-6839-4365-88dd-be2b90aa6fdf"},"vehicle_type_id":"4","last_reported":1692457530,"current_range_meters":23600,"station_id":"ce4bgj92rcd13ifvqbe0","pricing_plan_id":"free"},{"bike_id":"82e288c7-4c70-4309-9abd-bad664715eae","system_id":"levelo_inurba_marseille","lat":43.27618,"lon":5.361009,"is_reserved":false,"is_disabled":false,"rental_uris":{"android":"levelo://app?vid=82e288c7-4c70-4309-9abd-bad664715eae","ios":"levelo://app?vid=82e288c7-4c70-4309-9abd-bad664715eae"},"vehicle_type_id":"4","last_reported":1692457530,"current_range_meters":21600,"station_id":"ce4bgj92rcd13ifvqbe0","pricing_plan_id":"free"},{"bike_id":"46f71b12-fc11-4d5b-884f-52af4652ef81","system_id":"levelo_inurba_marseille","lat":43.276179,"lon":5.361009,"is_reserved":false,"is_disabled":false,"rental_uris":{"android":"levelo://app?vid=46f71b12-fc11-4d5b-884f-52af4652ef81","ios":"levelo://app?vid=46f71b12-fc11-4d5b-884f-52af4652ef81"},"vehicle_type_id":"4","last_reported":1692457530,"current_range_meters":31200,"station_id":"ce4bgj92rcd13ifvqbe0","pricing_plan_id":"free"},{"bike_id":"1dd995ff-8354-4fca-8b3b-fe8c0606188d","system_id":"levelo_inurba_marseille","lat":43.3035,"lon":5.41872,"is_reserved":false,"is_disabled":false,"rental_uris":{"android":"levelo://app?vid=1dd995ff-8354-4fca-8b3b-fe8c0606188d","ios":"levelo://app?vid=1dd995ff-8354-4fca-8b3b-fe8c0606188d"},"vehicle_type_id":"4","last_reported":1692457530,"current_range_meters":18800,"station_id":"ce4bhop2rcd13ifvqh7g","pricing_plan_id":"free"},{"bike_id":"3d7d7866-ec2b-4039-b575-755a1a55496e","system_id":"levelo_inurba_marseille","lat":43.27383,"lon":5.36253,"is_reserved":false,"is_disabled":false,"rental_uris":{"android":"levelo://app?vid=3d7d7866-ec2b-4039-b575-755a1a55496e","ios":"levelo://app?vid=3d7d7866-ec2b-4039-b575-755a1a55496e"},"vehicle_type_id":"4","last_reported":1692457530,"current_range_meters":31200,"station_id":"ce4bhbh2rcd13ifvqeo0","pricing_plan_id":"free"},{"bike_id":"11164e1a-0d09-405c-9e42-d6e8e0b01c97","system_id":"levelo_inurba_marseille","lat":43.2738,"lon":5.36265,"is_reserved":false,"is_disabled":false,"rental_uris":{"android":"levelo://app?vid=11164e1a-0d09-405c-9e42-d6e8e0b01c97","ios":"levelo://app?vid=11164e1a-0d09-405c-9e42-d6e8e0b01c97"},"vehicle_type_id":"4","last_reported":1692457530,"current_range_meters":13600,"station_id":"ce4bhbh2rcd13ifvqeo0","pricing_plan_id":"free"},{"bike_id":"f93f8985-fb3f-41a0-9b6f-af984003642b","system_id":"levelo_inurba_marseille","lat":43.273613,"lon":5.362705,"is_reserved":false,"is_disabled":false,"rental_uris":{"android":"levelo://app?vid=f93f8985-fb3f-41a0-9b6f-af984003642b","ios":"levelo://app?vid=f93f8985-fb3f-41a0-9b6f-af984003642b"},"vehicle_type_id":"4","last_reported":1692457530,"current_range_meters":31200,"station_id":"ce4bhbh2rcd13ifvqeo0","pricing_plan_id":"free"},{"bike_id":"cd2c5a86-49ce-4703-abeb-c3c88c693a49","system_id":"levelo_inurba_marseille","lat":43.273613,"lon":5.362705,"is_reserved":false,"is_disabled":false,"rental_uris":{"android":"levelo://app?vid=cd2c5a86-49ce-4703-abeb-c3c88c693a49","ios":"levelo://app?vid=cd2c5a86-49ce-4703-abeb-c3c88c693a49"},"vehicle_type_id":"4","last_reported":1692457530,"current_range_meters":26800,"station_id":"ce4bhbh2rcd13ifvqeo0","pricing_plan_id":"free"},{"bike_id":"4911e5b2-e98f-4649-97d3-e4fa02b1942c","system_id":"levelo_inurba_marseille","lat":43.273613,"lon":5.362705,"is_reserved":false,"is_disabled":false,"rental_uris":{"android":"levelo://app?vid=4911e5b2-e98f-4649-97d3-e4fa02b1942c","ios":"levelo://app?vid=4911e5b2-e98f-4649-97d3-e4fa02b1942c"},"vehicle_type_id":"4","last_reported":1692457530,"current_range_meters":28800,"station_id":"ce4bhbh2rcd13ifvqeo0","pricing_plan_id":"free"},{"bike_id":"df474698-75e6-4b3f-a136-499119a9b87b","system_id":"levelo_inurba_marseille","lat":43.273613,"lon":5.362705,"is_reserved":false,"is_disabled":false,"rental_uris":{"android":"levelo://app?vid=df474698-75e6-4b3f-a136-499119a9b87b","ios":"levelo://app?vid=df474698-75e6-4b3f-a136-499119a9b87b"},"vehicle_type_id":"4","last_reported":1692457530,"current_range_meters":26400,"station_id":"ce4bhbh2rcd13ifvqeo0","pricing_plan_id":"free"},{"bike_id":"1ed81940-5270-45ea-87d7-d58a3481460e","system_id":"levelo_inurba_marseille","lat":43.273609,"lon":5.362708,"is_reserved":false,"is_disabled":false,"rental_uris":{"android":"levelo://app?vid=1ed81940-5270-45ea-87d7-d58a3481460e","ios":"levelo://app?vid=1ed81940-5270-45ea-87d7-d58a3481460e"},"vehicle_type_id":"4","last_reported":1692457530,"current_range_meters":31200,"station_id":"ce4bhbh2rcd13ifvqeo0","pricing_plan_id":"free"},{"bike_id":"163d6351-06f2-4b34-9550-1e508656811f","system_id":"levelo_inurba_marseille","lat":43.273609,"lon":5.362708,"is_reserved":false,"is_disabled":false,"rental_uris":{"android":"levelo://app?vid=163d6351-06f2-4b34-9550-1e508656811f","ios":"levelo://app?vid=163d6351-06f2-4b34-9550-1e508656811f"},"vehicle_type_id":"4","last_reported":1692457530,"current_range_meters":20800,"station_id":"ce4bhbh2rcd13ifvqeo0","pricing_plan_id":"free"},