{"last_updated":1734027239,"ttl":60,"version":"2.2","data":{"bikes":[{"bike_id":"98175192-1d6d-40d8-a967-606ad6acbc7a","system_id":"levelo_inurba_marseille","lat":43.29811,"lon":5.40416,"is_reserved":false,"is_disabled":false,"rental_uris":{"android":"levelo://app?vid=98175192-1d6d-40d8-a967-606ad6acbc7a","ios":"levelo://app?vid=98175192-1d6d-40d8-a967-606ad6acbc7a"},"vehicle_type_id":"4","last_reported":1734027239,"current_range_meters":18800,"station_id":"ce4bh112rcd13ifvqd90","pricing_plan_id":"cebpf4jnsgd1na2vs0mg"},{"bike_id":"907fec12-a848-4864-ae30-c2b590a6dd5f","system_id":"levelo_inurba_marseille","lat":43.26235,"lon":5.37428,"is_reserved":false,"is_disabled":true,"rental_uris":{"android":"levelo://app?vid=907fec12-a848-4864-ae30-c2b590a6dd5f","ios":"levelo://app?vid=907fec12-a848-4864-ae30-c2b590a6dd5f"},"vehicle_type_id":"4","last_reported":1734027239,"current_range_meters":400,"station_id":"","pricing_plan_id":"cebpf4jnsgd1na2vs0mg"},{"bike_id":"60e9ed68-c2d5-4fcc-b1fe-df98992a2ea5","system_id":"levelo_inurba_marseille","lat":43.30764,"lon":5.36837,"is_reserved":false,"is_disabled":true,"rental_uris":{"android":"levelo://app?vid=60e9ed68-c2d5-4fcc-b1fe-df98992a2ea5","ios":"levelo://app?vid=60e9ed68-c2d5-4fcc-b1fe-df98992a2ea5"},"vehicle_type_id":"4","last_reported":1734027239,"current_range_meters":0,"station_id":"","pricing_plan_id":"cebpf4jnsgd1na2vs0mg"},{"bike_id":"72d1483c-0a6c-45ce-98fc-4d0b7df8001d","system_id":"levelo_inurba_marseille","lat":43.26572,"lon":5.39015,"is_reserved":false,"is_disabled":false,"rental_uris":{"android":"levelo://app?vid=72d1483c-0a6c-45ce-98fc-4d0b7df8001d","ios":"levelo://app?vid=72d1483c-0a6c-45ce-98fc-4d0b7df8001d"},"vehicle_type_id":"4","last_reported":1734027239,"current_range_meters":3200,"station_id":"ce4bhe12rcd13ifvqf30","pricing_plan_id":"cebpf4jnsgd1na2vs0mg"},{"bike_id":"ccee4576-3251-4ef6-b2ed-f91da78c8438","system_id":"levelo_inurba_marseille","lat":43.26792,"lon":5.39412,"is_reserved":false,"is_disabled":false,"rental_uris":{"android":"levelo://app?vid=ccee4576-3251-4ef6-b2ed-f91da78c8438","ios":"levelo://app?vid=ccee4576-3251-4ef6-b2ed-f91da78c8438"},"vehicle_type_id":"4","last_reported":1734027239,"current_range_meters":36000,"station_id":"ce4bhh12rcd13ifvqfg0","pricing_plan_id":"cebpf4jnsgd1na2vs0mg"},{"bike_id":"45a0184d-d6d5-4b76-98ad-c13311566c8b","system_id":"levelo_inurba_marseille","lat":43.2926,"lon":5.40901,"is_reserved":false,"is_disabled":false,"rental_uris":{"android":"levelo://app?vid=45a0184d-d6d5-4b76-98ad-c13311566c8b","ios":"levelo://app?vid=45a0184d-d6d5-4b76-98ad-c13311566c8b"},"vehicle_type_id":"4","last_reported":1734027239,"current_range_meters":9200,"station_id":"ce4bh192rcd13ifvqdc0","pricing_plan_id":"cebpf4jnsgd1na2vs0mg"},{"bike_id":"9895f6d3-3e90-4d41-8b6f-3b0e731d3542","system_id":"levelo_inurba_marseille","lat":43.27997,"lon":5.40007,"is_reserved":false,"is_disabled":true,"rental_uris":{"android":"levelo://app?vid=9895f6d3-3e90-4d41-8b6f-3b0e731d3542","ios":"levelo://app?vid=9895f6d3-3e90-4d41-8b6f-3b0e731d3542"},"vehicle_type_id":"4","last_reported":1734027239,"current_range_meters":0,"station_id":"ce4bho92rcd13ifvqh4g","pricing_plan_id":"cebpf4jnsgd1na2vs0mg"},{"bike_id":"458165b2-e31e-4e79-8f9e-df708f702045","system_id":"levelo_inurba_marseille","lat":43.31886,"lon":5.40739,"is_reserved":false,"is_disabled":false,"rental_uris":{"android":"levelo://app?vid=458165b2-e31e-4e79-8f9e-df708f702045","ios":"levelo://app?vid=458165b2-e31e-4e79-8f9e-df708f702045"},"vehicle_type_id":"4","last_reported":1734027239,"current_range_meters":2800,"station_id":"ce4bhq12rcd13ifvqhig","pricing_plan_id":"cebpf4jnsgd1na2vs0mg"},{"bike_id":"ea8f679b-0799-4c1b-aaee-6a97a63239ec","system_id":"levelo_inurba_marseille","lat":43.30918,"lon":5.36837,"is_reserved":false,"is_disabled":false,"rental_uris":{"android":"levelo://app?vid=ea8f679b-0799-4c1b-aaee-6a97a63239ec","ios":"levelo://app?vid=ea8f679b-0799-4c1b-aaee-6a97a63239ec"},"vehicle_type_id":"4","last_reported":1734027239,"current_range_meters":23200,"station_id":"ce4bgn92rcd13ifvqbvg","pricing_plan_id":"cebpf4jnsgd1na2vs0mg"},{"bike_id":"980f96eb-32c9-4906-98f6-c44dbf4c84a1","system_id":"levelo_inurba_marseille","lat":43.27455,"lon":5.40073,"is_reserved":false,"is_disabled":true,"rental_uris":{"android":"levelo://app?vid=980f96eb-32c9-4906-98f6-c44dbf4c84a1","ios":"levelo://app?vid=980f96eb-32c9-4906-98f6-c44dbf4c84a1"},"vehicle_type_id":"4","last_reported":1734027239,"current_range_meters":0,"station_id":"","pricing_plan_id":"cebpf4jnsgd1na2vs0mg"},{"bike_id":"8eb40f25-fc14-4288-9dd7-aae13b0a9b04","system_id":"levelo_inurba_marseille","lat":43.26948,"lon":5.40237,"is_reserved":false,"is_disabled":true,"rental_uris":{"android":"levelo://app?vid=8eb40f25-fc14-4288-9dd7-aae13b0a9b04","ios":"levelo://app?vid=8eb40f25-fc14-4288-9dd7-aae13b0a9b04"},"vehicle_type_id":"4","last_reported":1734027239,"current_range_meters":33600,"station_id":"cjm6bp8fraef2m0cb0m0","pricing_plan_id":"cebpf4jnsgd1na2vs0mg"},{"bike_id":"a4dd4851-0d23-45d6-bb50-c9af909e6865","system_id":"levelo_inurba_marseille","lat":43.26567,"lon":5.39001,"is_reserved":false,"is_disabled":false,"rental_uris":{"android":"levelo://app?vid=a4dd4851-0d23-45d6-bb50-c9af909e6865","ios":"levelo://app?vid=a4dd4851-0d23-45d6-bb50-c9af909e6865"},"vehicle_type_id":"4","last_reported":1734027239,"current_range_meters":35600,"station_id":"ce4bhe12rcd13ifvqf30","pricing_plan_id":"cebpf4jnsgd1na2vs0mg"},{"bike_id":"f3a40a5d-cef7-4614-9a73-c675fabca9fa","system_id":"levelo_inurba_marseille","lat":43.24806,"lon":5.3746,"is_reserved":false,"is_disabled":false,"rental_uris":{"android":"levelo://app?vid=f3a40a5d-cef7-4614-9a73-c675fabca9fa","ios":"levelo://app?vid=f3a40a5d-cef7-4614-9a73-c675fabca9fa"},"vehicle_type_id":"4","last_reported":1734027239,"current_range_meters":21600,"station_id":"ce4bhgh2rcd13ifvqfb0","pricing_plan_id":"cebpf4jnsgd1na2vs0mg"},{"bike_id":"ce4c7390-3de8-4776-bab7-8b30799fdcc8","system_id":"levelo_inurba_marseille","lat":43.29192,"lon":5.358,"is_reserved":false,"is_disabled":true,"rental_uris":{"android":"levelo://app?vid=ce4c7390-3de8-4776-bab7-8b30799fdcc8","ios":"levelo://app?vid=ce4c7390-3de8-4776-bab7-8b30799fdcc8"},"vehicle_type_id":"4","last_reported":1734027239,"current_range_meters":34800,"station_id":"ce4bhb12rcd13ifvqel0","pricing_plan_id":"cebpf4jnsgd1na2vs0mg"},{"bike_id":"3d300f0f-daf4-4b14-a27e-dcb2c7f97d16","system_id":"levelo_inurba_marseille","lat":43.31114,"lon":5.37773,"is_reserved":false,"is_disabled":false,"rental_uris":{"android":"levelo://app?vid=3d300f0f-daf4-4b14-a27e-dcb2c7f97d16","ios":"levelo://app?vid=3d300f0f-daf4-4b14-a27e-dcb2c7f97d16"},"vehicle_type_id":"4","last_reported":1734027239,"current_range_meters":32000,"station_id":"ce4bgt92rcd13ifvqcg0","pricing_plan_id":"cebpf4jnsgd1na2vs0mg"},{"bike_id":"976e1536-7249-425f-8cfa-22b5b9a9e0e3","system_id":"levelo_inurba_marseille","lat":43.28076,"lon":5.39659,"is_reserved":false,"is_disabled":true,"rental_uris":{"android":"levelo://app?vid=976e1536-7249-425f-8cfa-22b5b9a9e0e3","ios":"levelo://app?vid=976e1536-7249-425f-8cfa-22b5b9a9e0e3"},"vehicle_type_id":"4","last_reported":1734027239,"current_range_meters":800,"station_id":"ce4bho12rcd13ifvqh2g","pricing_plan_id":"cebpf4jnsgd1na2vs0mg"},{"bike_id":"fe87f8f2-6e97-4611-93da-1318a830eb3c","system_id":"levelo_inurba_marseille","lat":43.27993,"lon":5.41661,"is_reserved":false,"is_disabled":true,"rental_uris":{"android":"levelo://app?vid=fe87f8f2-6e97-4611-93da-1318a830eb3c","ios":"levelo://app?vid=fe87f8f2-6e97-4611-93da-1318a830eb3c"},"vehicle_type_id":"4","last_reported":1734027239,"current_range_meters":38800,"station_id":"ce4bho12rcd13ifvqh1g","pricing_plan_id":"cebpf4jnsgd1na2vs0mg"},{"bike_id":"2b646eb8-8034-476d-b307-1fe9e5d7b7aa","system_id":"levelo_inurba_marseille","lat":43.28724,"lon":5.37937,"is_reserved":false,"is_disabled":false,"rental_uris":{"android":"levelo://app?vid=2b646eb8-8034-476d-b307-1fe9e5d7b7aa","ios":"levelo://app?vid=2b646eb8-8034-476d-b307-1fe9e5d7b7aa"},"vehicle_type_id":"4","last_reported":1734027239,"current_range_meters":38800,"station_id":"ce4bh9p2rcd13ifvqec0","pricing_plan_id":"cebpf4jnsgd1na2vs0mg"},{"bike_id":"ff4cbef7-4ac3-42f9-85ff-f93dc8c3fea0","system_id":"levelo_inurba_marseille","lat":43.28155,"lon":5.42646,"is_reserved":false,"is_disabled":true,"rental_uris":{"android":"levelo://app?vid=ff4cbef7-4ac3-42f9-85ff-f93dc8c3fea0","ios":"levelo://app?vid=ff4cbef7-4ac3-42f9-85ff-f93dc8c3fea0"},"vehicle_type_id":"4","last_reported":1734027239,"current_range_meters":0,"station_id":"ce4bhnh2rcd13ifvqgug","pricing_plan_id":"cebpf4jnsgd1na2vs0mg"},{"bike_id":"d87e9792-0951-490b-8e0c-7a6f1b5ad4d6","system_id":"levelo_inurba_marseille","lat":43.28708,"lon":5.37389,"is_reserved":false,"is_disabled":false,"rental_uris":{"android":"levelo://app?vid=d87e9792-0951-490b-8e0c-7a6f1b5ad4d6","ios":"levelo://app?vid=d87e9792-0951-490b-8e0c-7a6f1b5ad4d6"},"vehicle_type_id":"4","last_reported":1734027239,"current_range_meters":14400,"station_id":"ce4bh3p2rcd13ifvqdq0","pricing_plan_id":"cebpf4jnsgd1na2vs0mg"},{"bike_id":"f62b422b-5659-41c8-b5c9-14c33f78fe1e","system_id":"levelo_inurba_marseille","lat":43.28459,"lon":5.35885,"is_reserved":false,"is_disabled":false,"rental_uris":{"android":"levelo://app?vid=f62b422b-5659-41c8-b5c9-14c33f78fe1e","ios":"levelo://app?vid=f62b422b-5659-41c8-b5c9-14c33f78fe1e"},"vehicle_type_id":"4","last_reported":1734027239,"current_range_meters":30400,"station_id":"ce4bhah2rcd13ifvqei0","pricing_plan_id":"cebpf4jnsgd1na2vs0mg"},{"bike_id":"9adbaaae-97a2-4d16-9676-ac344bccc81a","system_id":"levelo_inurba_marseille","lat":43.29958,"lon":5.41321,"is_reserved":false,"is_disabled":false,"rental_uris":{"android":"levelo://app?vid=9adbaaae-97a2-4d16-9676-ac344bccc81a","ios":"levelo://app?vid=9adbaaae-97a2-4d16-9676-ac344bccc81a"},"vehicle_type_id":"4","last_reported":1734027239,"current_range_meters":38800,"station_id":"ce4bhp12rcd13ifvqh9g","pricing_plan_id":"cebpf4jnsgd1na2vs0mg"},{"bike_id":"0c3dd50b-c3e5-4af5-9cb3-0d200d12a110","system_id":"levelo_inurba_marseille","lat":43.23184,"lon":5.39979,"is_reserved":false,"is_disabled":false,"rental_uris":{"android":"levelo://app?vid=0c3dd50b-c3e5-4af5-9cb3-0d200d12a110","ios":"levelo://app?vid=0c3dd50b-c3e5-4af5-9cb3-0d200d12a110"},"vehicle_type_id":"4","last_reported":1734027239,"current_range_meters":20400,"station_id":"ce4bhn12rcd13ifvqgqg","pricing_plan_id":"cebpf4jnsgd1na2vs0mg"},{"bike_id":"38eb172d-a077-4ca7-9a48-d1565bc55b20","system_id":"levelo_inurba_marseille","lat":43.32296,"lon":5.38269,"is_reserved":false,"is_disabled":false,"rental_uris":{"android":"levelo://app?vid=38eb172d-a077-4ca7-9a48-d1565bc55b20","ios":"levelo://app?vid=38eb172d-a077-4ca7-9a48-d1565bc55b20"},"vehicle_type_id":"4","last_reported":1734027239,"current_range_meters":2800,"station_id":"ce4bhr12rcd13ifvqhqg","pricing_plan_id":"cebpf4jnsgd1na2vs0mg"},{"bike_id":"23b203e2-b068-4fc8-9a12-e11cba490e91","system_id":"levelo_inurba_marseille","lat":43.25565,"lon":5.38254,"is_reserved":false,"is_disabled":false,"rental_uris":{"android":"levelo://app?vid=23b203e2-b068-4fc8-9a12-e11cba490e91","ios":"levelo://app?vid=23b203e2-b068-4fc8-9a12-e11cba490e91"},"vehicle_type_id":"4","last_reported":1734027239,"current_range_meters":38800,"station_id":"ce4bhih2rcd13ifvqfs0","pricing_plan_id":"cebpf4jnsgd1na2vs0mg"},{"bike_id":"724020fd-7c94-4257-aa49-82fb895a2886","system_id":"levelo_inurba_marseille","lat":43.33019,"lon":5.39035,"is_reserved":false,"is_disabled":false,"rental_uris":{"android":"levelo://app?vid=724020fd-7c94-4257-aa49-82fb895a2886","ios":"levelo://app?vid=724020fd-7c94-4257-aa49-82fb895a2886"},"vehicle_type_id":"4","last_reported":1734027239,"current_range_meters":19200,"station_id":"ce4bhr92rcd13ifvqhrg","pricing_plan_id":"cebpf4jnsgd1na2vs0mg"},{"bike_id":"80f66b82-54aa-4843-b64e-91d3afce4948","system_id":"levelo_inurba_marseille","lat":43.30798,"lon":5.37305,"is_reserved":false,"is_disabled":true,"rental_uris":{"android":"levelo://app?vid=80f66b82-54aa-4843-b64e-91d3afce4948","ios":"levelo://app?vid=80f66b82-54aa-4843-b64e-91d3afce4948"},"vehicle_type_id":"4","last_reported":1734027239,"current_range_meters":26000,"station_id":"","pricing_plan_id":"cebpf4jnsgd1na2vs0mg"},{"bike_id":"a63958b5-e1f7-4b1a-9554-85840167b0f7","system_id":"levelo_inurba_marseille","lat":43.231815,"lon":5.399856,"is_reserved":false,"is_disabled":false,"rental_uris":{"android":"levelo://app?vid=a63958b5-e1f7-4b1a-9554-85840167b0f7","ios":"levelo://app?vid=a63958b5-e1f7-4b1a-9554-85840167b0f7"},"vehicle_type_id":"4","last_reported":1734027239,"current_range_meters":38800,"station_id":"ce4bhn12rcd13ifvqgqg","pricing_plan_id":"cebpf4jnsgd1na2vs0mg"},{"bike_id":"a9a24054-382a-47ab-b570-6097c604a4cb","system_id":"levelo_inurba_marseille","lat":43.29165,"lon":5.37159,"is_reserved":false,"is_disabled":false,"rental_uris":{"android":"levelo://app?vid=a9a24054-382a-47ab-b570-6097c604a4cb","ios":"levelo://app?vid=a9a24054-382a-47ab-b570-6097c604a4cb"},"vehicle_type_id":"4","last_reported":1734027239,"current_range_meters":36800,"station_id":"ce4bha92rcd13ifvqeh0","pricing_plan_id":"cebpf4jnsgd1na2vs0mg"},{"bike_id":"87fce182-3296-4aa0-bc7c-a2decdf4c36c","system_id":"levelo_inurba_marseille","lat":43.28412,"lon":5.37517,"is_reserved":false,"is_disabled":false,"rental_uris":{"android":"levelo://app?vid=87fce182-3296-4aa0-bc7c-a2decdf4c36c","ios":"levelo://app?vid=87fce182-3296-4aa0-bc7c-a2decdf4c36c"},"vehicle_type_id":"4","last_reported":1734027239,"current_range_meters":16800,"station_id":"ce4bh412rcd13ifvqds0","pricing_plan_id":"cebpf4jnsgd1na2vs0mg"},{"bike_id":"3a56946e-b571-4f0a-89c3-228266a44430","system_id":"levelo_inurba_marseille","lat":43.26597,"lon":5.38971,"is_reserved":false,"is_disabled":true,"rental_uris":{"android":"levelo://app?vid=3a56946e-b571-4f0a-89c3-228266a44430","ios":"levelo://app?vid=3a56946e-b571-4f0a-89c3-228266a44430"},"vehicle_type_id":"4","last_reported":1734027239,"current_range_meters":2000,"station_id":"","pricing_plan_id":"cebpf4jnsgd1na2vs0mg"},{"bike_id":"5da35048-365f-4c26-b899-7414eb3a70fd","system_id":"levelo_inurba_marseille","lat":43.30935,"lon":5.40141,"is_reserved":false,"is_disabled":true,"rental_uris":{"android":"levelo://app?vid=5da35048-365f-4c26-b899-7414eb3a70fd","ios":"levelo://app?vid=5da35048-365f-4c26-b899-7414eb3a70fd"},"vehicle_type_id":"4","last_reported":1734027239,"current_range_meters":0,"station_id":"ce4bgvp2rcd13ifvqct0","pricing_plan_id":"cebpf4jnsgd1na2vs0mg"},{"bike_id":"bf731455-ee53-4a05-9e68-dc9a3c272897","system_id":"levelo_inurba_marseille","lat":43.2781,"lon":5.40712,"is_reserved":false,"is_disabled":false,"rental_uris":{"android":"levelo://app?vid=bf731455-ee53-4a05-9e68-dc9a3c272897","ios":"levelo://app?vid=bf731455-ee53-4a05-9e68-dc9a3c272897"},"vehicle_type_id":"4","last_reported":1734027239,"current_range_meters":22000,"station_id":"ce4bhnh2rcd13ifvqgtg","pricing_plan_id":"cebpf4jnsgd1na2vs0mg"},{"bike_id":"c7d894cd-93e6-4072-a8ed-8a33ea2aba97","system_id":"levelo_inurba_marseille","lat":43.2894,"lon":5.36638,"is_reserved":false,"is_disabled":false,"rental_uris":{"android":"levelo://app?vid=c7d894cd-93e6-4072-a8ed-8a33ea2aba97","ios":"levelo://app?vid=c7d894cd-93e6-4072-a8ed-8a33ea2aba97"},"vehicle_type_id":"4","last_reported":1734027239,"current_range_meters":9200,"station_id":"ce4bhap2rcd13ifvqek0","pricing_plan_id":"cebpf4jnsgd1na2vs0mg"},{"bike_id":"7ee39421-2b07-4468-84bc-80ece1430d1b","system_id":"levelo_inurba_marseille","lat":43.24807,"lon":5.37454,"is_reserved":false,"is_disabled":false,"rental_uris":{"android":"levelo://app?vid=7ee39421-2b07-4468-84bc-80ece1430d1b","ios":"levelo://app?vid=7ee39421-2b07-4468-84bc-80ece1430d1b"},"vehicle_type_id":"4","last_reported":1734027239,"current_range_meters":38800,"station_id":"ce4bhgh2rcd13ifvqfb0","pricing_plan_id":"cebpf4jnsgd1na2vs0mg"},{"bike_id":"48f89538-caef-48c0-b76c-a236ac0f81eb","system_id":"levelo_inurba_marseille","lat":43.29537,"lon":5.38544,"is_reserved":false,"is_disabled":true,"rental_uris":{"android":"levelo://app?vid=48f89538-caef-48c0-b76c-a236ac0f81eb","ios":"levelo://app?vid=48f89538-caef-48c0-b76c-a236ac0f81eb"},"vehicle_type_id":"4","last_reported":1734027239,"current_range_meters":24400,"station_id":"ce4bgih2rcd13ifvqba0","pricing_plan_id":"cebpf4jnsgd1na2vs0mg"},{"bike_id":"edaea664-24e0-4d6c-aa7a-497f5c5f88f6","system_id":"levelo_inurba_marseille","lat":43.27004,"lon":5.39153,"is_reserved":false,"is_disabled":true,"rental_uris":{"android":"levelo://app?vid=edaea664-24e0-4d6c-aa7a-497f5c5f88f6","ios":"levelo://app?vid=edaea664-24e0-4d6c-aa7a-497f5c5f88f6"},"vehicle_type_id":"4","last_reported":1734027239,"current_range_meters":1200,"station_id":"","pricing_plan_id":"cebpf4jnsgd1na2vs0mg"},{"bike_id":"a1a44e09-563e-4212-bf69-97aeda8c18b6","system_id":"levelo_inurba_marseille","lat":43.27316,"lon":5.39076,"is_reserved":false,"is_disabled":false,"rental_uris":{"android":"levelo://app?vid=a1a44e09-563e-4212-bf69-97aeda8c18b6","ios":"levelo://app?vid=a1a44e09-563e-4212-bf69-97aeda8c18b6"},"vehicle_type_id":"4","last_reported":1734027239,"current_range_meters":31200,"station_id":"ce4bhgp2rcd13ifvqfe0","pricing_plan_id":"cebpf4jnsgd1na2vs0mg"},{"bike_id":"b13f7988-892d-489e-89d4-b900be8b8ffb","system_id":"levelo_inurba_marseille","lat":43.2969,"lon":5.3728,"is_reserved":false,"is_disabled":true,"rental_uris":{"android":"levelo://app?vid=b13f7988-892d-489e-89d4-b900be8b8ffb","ios":"levelo://app?vid=b13f7988-892d-489e-89d4-b900be8b8ffb"},"vehicle_type_id":"4","last_reported":1734027239,"current_range_meters":38800,"station_id":"ce4bgk12rcd13ifvqbj0","pricing_plan_id":"cebpf4jnsgd1na2vs0mg"},{"bike_id":"974daa15-7f16-440b-a88d-ca78984ed77d","system_id":"levelo_inurba_marseille","lat":43.28118,"lon":5.37853,"is_reserved":false,"is_disabled":false,"rental_uris":{"android":"levelo://app?vid=974daa15-7f16-440b-a88d-ca78984ed77d","ios":"levelo://app?vid=974daa15-7f16-440b-a88d-ca78984ed77d"},"vehicle_type_id":"4","last_reported":1734027239,"current_range_meters":6800,"station_id":"ce4bha12rcd13ifvqee0","pricing_plan_id":"cebpf4jnsgd1na2vs0mg"},{"bike_id":"d7569264-715e-4f1c-ae9e-0a379e66eb14","system_id":"levelo_inurba_marseille","lat":43.27811,"lon":5.40719,"is_reserved":false,"is_disabled":false,"rental_uris":{"android":"levelo://app?vid=d7569264-715e-4f1c-ae9e-0a379e66eb14","ios":"levelo://app?vid=d7569264-715e-4f1c-ae9e-0a379e66eb14"},"vehicle_type_id":"4","last_reported":1734027239,"current_range_meters":27600,"station_id":"ce4bhnh2rcd13ifvqgtg","pricing_plan_id":"cebpf4jnsgd1na2vs0mg"},{"bike_id":"27fd3180-1bfb-4398-a7fa-2e138c59562d","system_id":"levelo_inurba_marseille","lat":43.26937,"lon":5.40259,"is_reserved":false,"is_disabled":false,"rental_uris":{"android":"levelo://app?vid=27fd3180-1bfb-4398-a7fa-2e138c59562d","ios":"levelo://app?vid=27fd3180-1bfb-4398-a7fa-2e138c59562d"},"vehicle_type_id":"4","last_reported":1734027239,"current_range_meters":36400,"station_id":"cjm6bp8fraef2m0cb0m0","pricing_plan_id":"cebpf4jnsgd1na2vs0mg"},{"bike_id":"4d2978b4-64fc-4618-b1f7-9871842f99fb","system_id":"levelo_inurba_marseille","lat":43.29707,"lon":5.36607,"is_reserved":false,"is_disabled":false,"rental_uris":{"android":"levelo://app?vid=4d2978b4-64fc-4618-b1f7-9871842f99fb","ios":"levelo://app?vid=4d2978b4-64fc-4618-b1f7-9871842f99fb"},"vehicle_type_id":"4","last_reported":1734027239,"current_range_meters":4800,"station_id":"ce4bgn12rcd13ifvqbt0","pricing_plan_id":"cebpf4jnsgd1na2vs0mg"},{"bike_id":"11933e04-d81a-4d25-aa83-cc295172b3a1","system_id":"levelo_inurba_marseille","lat":43.25408,"lon":5.38273,"is_reserved":false,"is_disabled":true,"rental_uris":{"android":"levelo://app?vid=11933e04-d81a-4d25-aa83-cc295172b3a1","ios":"levelo://app?vid=11933e04-d81a-4d25-aa83-cc295172b3a1"},"vehicle_type_id":"4","last_reported":1734027239,"current_range_meters":28800,"station_id":"","pricing_plan_id":"cebpf4jnsgd1na2vs0mg"},{"bike_id":"7ca4522b-cf41-4791-84c4-af694191733e","system_id":"levelo_inurba_marseille","lat":43.30884,"lon":5.37195,"is_reserved":false,"is_disabled":false,"rental_uris":{"android":"levelo://app?vid=7ca4522b-cf41-4791-84c4-af694191733e","ios":"levelo://app?vid=7ca4522b-cf41-4791-84c4-af694191733e"},"vehicle_type_id":"4","last_reported":1734027239,"current_range_meters":6000,"station_id":"ce4bguh2rcd13ifvqckg","pricing_plan_id":"cebpf4jnsgd1na2vs0mg"},{"bike_id":"12175c96-000e-4bce-801b-86bf743a503c","system_id":"levelo_inurba_marseille","lat":43.284053,"lon":5.375193,"is_reserved":false,"is_disabled":false,"rental_uris":{"android":"levelo://app?vid=12175c96-000e-4bce-801b-86bf743a503c","ios":"levelo://app?vid=12175c96-000e-4bce-801b-86bf743a503c"},"vehicle_type_id":"4","last_reported":1734027239,"current_range_meters":4000,"station_id":"ce4bh412rcd13ifvqds0","pricing_plan_id":"cebpf4jnsgd1na2vs0mg"},{"bike_id":"bf883a44-fa3b-47d6-bede-63c4737eb08e","system_id":"levelo_inurba_marseille","lat":43.293155,"lon":5.371755,"is_reserved":false,"is_disabled":false,"rental_uris":{"android":"levelo://app?vid=bf883a44-fa3b-47d6-bede-63c4737eb08e","ios":"levelo://app?vid=bf883a44-fa3b-47d6-bede-63c4737eb08e"},"vehicle_type_id":"4","last_reported":1734027239,"current_range_meters":27600,"station_id":"ce4bgh92rcd13ifvqb40","pricing_plan_id":"cebpf4jnsgd1na2vs0mg"},{"bike_id":"30b7f7b0-cffb-44e8-9e23-86428fe1183d","system_id":"levelo_inurba_marseille","lat":43.23062,"lon":5.35498,"is_reserved":false,"is_disabled":false,"rental_uris":{"android":"levelo://app?vid=30b7f7b0-cffb-44e8-9e23-86428fe1183d","ios":"levelo://app?vid=30b7f7b0-cffb-44e8-9e23-86428fe1183d"},"vehicle_type_id":"4","last_reported":1734027239,"current_range_meters":7200,"station_id":"cpo3342slgdg3j2ifvpg","pricing_plan_id":"cebpf4jnsgd1na2vs0mg"},{"bike_id":"6ce3866c-64ed-4d51-8cbe-6040986bf8ff","system_id":"levelo_inurba_marseille","lat":43.31333,"lon":5.39693,"is_reserved":false,"is_disabled":false,"rental_uris":{"android":"levelo://app?vid=6ce3866c-64ed-4d51-8cbe-6040986bf8ff","ios":"levelo://app?vid=6ce3866c-64ed-4d51-8cbe-6040986bf8ff"},"vehicle_type_id":"4","last_reported":1734027239,"current_range_meters":24400,"station_id":"ce4bgvp2rcd13ifvqcu0","pricing_plan_id":"cebpf4jnsgd1na2vs0mg"},{"bike_id":"044d6d04-6e0b-4bb2-a48b-3ab035cabc64","system_id":"levelo_inurba_marseille","lat":43.26219,"lon":5.37413,"is_reserved":false,"is_disabled":false,"rental_uris":{"android":"levelo://app?vid=044d6d04-6e0b-4bb2-a48b-3ab035cabc64","ios":"levelo://app?vid=044d6d04-6e0b-4bb2-a48b-3ab035cabc64"},"vehicle_type_id":"4","last_reported":1734027239,"current_range_meters":18800,"station_id":"ce4bhgp2rcd13ifvqfc0","pricing_plan_id":"cebpf4jnsgd1na2vs0mg"},{"bike_id":"c962957d-ec10-4997-96e1-a869343f922e","system_id":"levelo_inurba_marseille","lat":43.32669,"lon":5.3609,"is_reserved":false,"is_disabled":false,"rental_uris":{"android":"levelo://app?vid=c962957d-ec10-4997-96e1-a869343f922e","ios":"levelo://app?vid=c962957d-ec10-4997-96e1-a869343f922e"},"vehicle_type_id":"4","last_reported":1734027239,"current_range_meters":8800,"station_id":"","pricing_plan_id":"cebpf4jnsgd1na2vs0mg"},{"bike_id":"de8a29ec-927d-4344-b072-779700f97fd0","system_id":"levelo_inurba_marseille","lat":43.32366,"lon":5.38888,"is_reserved":false,"is_disabled":false,"rental_uris":{"android":"levelo://app?vid=de8a29ec-927d-4344-b072-779700f97fd0","ios":"levelo://app?vid=de8a29ec-927d-4344-b072-779700f97fd0"},"vehicle_type_id":"4","last_reported":1734027239,"current_range_meters":28400,"station_id":"ce4bhqp2rcd13ifvqhog","pricing_plan_id":"cebpf4jnsgd1na2vs0mg"},{"bike_id":"80e7d90a-8050-4fc6-8802-63867dac5ff2","system_id":"levelo_inurba_marseille","lat":43.287,"lon":5.37396,"is_reserved":false,"is_disabled":true,"rental_uris":{"android":"levelo://app?vid=80e7d90a-8050-4fc6-8802-63867dac5ff2","ios":"levelo://app?vid=80e7d90a-8050-4fc6-8802-63867dac5ff2"},"vehicle_type_id":"4","last_reported":1734027239,"current_range_meters":36800,"station_id":"ce4bh3p2rcd13ifvqdq0","pricing_plan_id":"cebpf4jnsgd1na2vs0mg"},{"bike_id":"357266a6-aef1-4804-a4e5-9103c1cf3c49","system_id":"levelo_inurba_marseille","lat":43.31331,"lon":5.39686,"is_reserved":false,"is_disabled":false,"rental_uris":{"android":"levelo://app?vid=357266a6-aef1-4804-a4e5-9103c1cf3c49","ios":"levelo://app?vid=357266a6-aef1-4804-a4e5-9103c1cf3c49"},"vehicle_type_id":"4","last_reported":1734027239,"current_range_meters":33600,"station_id":"ce4bgvp2rcd13ifvqcu0","pricing_plan_id":"cebpf4jnsgd1na2vs0mg"},{"bike_id":"c29dfa9d-addd-45b5-81ed-335bca339fcc","system_id":"levelo_inurba_marseille","lat":43.26679,"lon":5.38265,"is_reserved":false,"is_disabled":true,"rental_uris":{"android":"levelo://app?vid=c29dfa9d-addd-45b5-81ed-335bca339fcc","ios":"levelo://app?vid=c29dfa9d-addd-45b5-81ed-335bca339fcc"},"vehicle_type_id":"4","last_reported":1734027239,"current_range_meters":0,"station_id":"ce4bhg92rcd13ifvqf90","pricing_plan_id":"cebpf4jnsgd1na2vs0mg"},{"bike_id":"f0dd55a5-6d24-4977-b540-e32383db0b3e","system_id":"levelo_inurba_marseille","lat":43.24076,"lon":5.37762,"is_reserved":false,"is_disabled":true,"rental_uris":{"android":"levelo://app?vid=f0dd55a5-6d24-4977-b540-e32383db0b3e","ios":"levelo://app?vid=f0dd55a5-6d24-4977-b540-e32383db0b3e"},"vehicle_type_id":"4","last_reported":1734027239,"current_range_meters":0,"station_id":"ce4bhnp2rcd13ifvqgvg","pricing_plan_id":"cebpf4jnsgd1na2vs0mg"},{"bike_id":"3cc49aec-0146-4bd6-8ced-13dc2b354f47","system_id":"levelo_inurba_marseille","lat":43.2319,"lon":5.39971,"is_reserved":false,"is_disabled":false,"rental_uris":{"android":"levelo://app?vid=3cc49aec-0146-4bd6-8ced-13dc2b354f47","ios":"levelo://app?vid=3cc49aec-0146-4bd6-8ced-13dc2b354f47"},"vehicle_type_id":"4","last_reported":1734027239,"current_range_meters":39200,"station_id":"ce4bhn12rcd13ifvqgqg","pricing_plan_id":"cebpf4jnsgd1na2vs0mg"},{"bike_id":"e79247d7-f349-4d85-b8cc-75ca92971f51","system_id":"levelo_inurba_marseille","lat":43.33024,"lon":5.3904,"is_reserved":false,"is_disabled":true,"rental_uris":{"android":"levelo://app?vid=e79247d7-f349-4d85-b8cc-75ca92971f51","ios":"levelo://app?vid=e79247d7-f349-4d85-b8cc-75ca92971f51"},"vehicle_type_id":"4","last_reported":1734027239,"current_range_meters":0,"station_id":"ce4bhr92rcd13ifvqhrg","pricing_plan_id":"cebpf4jnsgd1na2vs0mg"},{"bike_id":"b773f0c7-24dd-42e5-8c06-4f4f47ee5974","system_id":"levelo_inurba_marseille","lat":43.25867,"lon":5.39898,"is_reserved":false,"is_disabled":false,"rental_uris":{"android":"levelo://app?vid=b773f0c7-24dd-42e5-8c06-4f4f47ee5974","ios":"levelo://app?vid=b773f0c7-24dd-42e5-8c06-4f4f47ee5974"},"vehicle_type_id":"4","last_reported":1734027239,"current_range_meters":36800,"station_id":"ce4bhl92rcd13ifvqghg","pricing_plan_id":"cebpf4jnsgd1na2vs0mg"},{"bike_id":"18351016-0a75-4df6-afe3-5519bc429cee","system_id":"levelo_inurba_marseille","lat":43.31691,"lon":5.40487,"is_reserved":false,"is_disabled":false,"rental_uris":{"android":"levelo://app?vid=18351016-0a75-4df6-afe3-5519bc429cee","ios":"levelo://app?vid=18351016-0a75-4df6-afe3-5519bc429cee"},"vehicle_type_id":"4","last_reported":1734027239,"current_range_meters":6000,"station_id":"ce4bh012rcd13ifvqd00","pricing_plan_id":"cebpf4jnsgd1na2vs0mg"},{"bike_id":"5d2f0372-ab78-4b59-a3b0-1994027e8196","system_id":"levelo_inurba_marseille","lat":43.28834,"lon":5.35834,"is_reserved":false,"is_disabled":false,"rental_uris":{"android":"levelo://app?vid=5d2f0372-ab78-4b59-a3b0-1994027e8196","ios":"levelo://app?vid=5d2f0372-ab78-4b59-a3b0-1994027e8196"},"vehicle_type_id":"4","last_reported":1734027239,"current_range_meters":38800,"station_id":"ce4bhb12rcd13ifvqem0","pricing_plan_id":"cebpf4jnsgd1na2vs0mg"},{"bike_id":"05383bc6-c2de-47c1-b1f9-2afa812b2ad2","system_id":"levelo_inurba_marseille","lat":43.29196,"lon":5.35794,"is_reserved":false,"is_disabled":true,"rental_uris":{"android":"levelo://app?vid=05383bc6-c2de-47c1-b1f9-2afa812b2ad2","ios":"levelo://app?vid=05383bc6-c2de-47c1-b1f9-2afa812b2ad2"},"vehicle_type_id":"4","last_reported":1734027239,"current_range_meters":0,"station_id":"ce4bhb12rcd13ifvqel0","pricing_plan_id":"cebpf4jnsgd1na2vs0mg"},{"bike_id":"3914827a-bcca-4e45-9b0d-b19aca053483","system_id":"levelo_inurba_marseille","lat":43.29795,"lon":5.38107,"is_reserved":false,"is_disabled":false,"rental_uris":{"android":"levelo://app?vid=3914827a-bcca-4e45-9b0d-b19aca053483","ios":"levelo://app?vid=3914827a-bcca-4e45-9b0d-b19aca053483"},"vehicle_type_id":"4","last_reported":1734027239,"current_range_meters":18800,"station_id":"ce4bgip2rcd13ifvqbb0","pricing_plan_id":"cebpf4jnsgd1na2vs0mg"},{"bike_id":"e43eb1f6-3ba6-4ad6-96a6-9bab6d7b3199","system_id":"levelo_inurba_marseille","lat":43.27065,"lon":5.40269,"is_reserved":false,"is_disabled":true,"rental_uris":{"android":"levelo://app?vid=e43eb1f6-3ba6-4ad6-96a6-9bab6d7b3199","ios":"levelo://app?vid=e43eb1f6-3ba6-4ad6-96a6-9bab6d7b3199"},"vehicle_type_id":"4","last_reported":1734027239,"current_range_meters":36400,"station_id":"ce4bhk92rcd13ifvqgc0","pricing_plan_id":"cebpf4jnsgd1na2vs0mg"},{"bike_id":"d2a98a1f-64a2-40e5-aa0b-ffab91cc3d62","system_id":"levelo_inurba_marseille","lat":43.29014,"lon":5.38147,"is_reserved":false,"is_disabled":true,"rental_uris":{"android":"levelo://app?vid=d2a98a1f-64a2-40e5-aa0b-ffab91cc3d62","ios":"levelo://app?vid=d2a98a1f-64a2-40e5-aa0b-ffab91cc3d62"},"vehicle_type_id":"4","last_reported":1734027239,"current_range_meters":24800,"station_id":"ce4bh4p2rcd13ifvqe1g","pricing_plan_id":"cebpf4jnsgd1na2vs0mg"},{"bike_id":"e351e90f-f216-4d28-8a67-9a8384a013d2","system_id":"levelo_inurba_marseille","lat":43.31685,"lon":5.4048,"is_reserved":false,"is_disabled":false,"rental_uris":{"android":"levelo://app?vid=e351e90f-f216-4d28-8a67-9a8384a013d2","ios":"levelo://app?vid=e351e90f-f216-4d28-8a67-9a8384a013d2"},"vehicle_type_id":"4","last_reported":1734027239,"current_range_meters":13600,"station_id":"ce4bh012rcd13ifvqd00","pricing_plan_id":"cebpf4jnsgd1na2vs0mg"},{"bike_id":"af67ac53-ba21-4ff0-8334-95679e9ff2cc","system_id":"levelo_inurba_marseille","lat":43.278805,"lon":5.388003,"is_reserved":false,"is_disabled":true,"rental_uris":{"android":"levelo://app?vid=af67ac53-ba21-4ff0-8334-95679e9ff2cc","ios":"levelo://app?vid=af67ac53-ba21-4ff0-8334-95679e9ff2cc"},"vehicle_type_id":"4","last_reported":1734027239,"current_range_meters":0,"station_id":"","pricing_plan_id":"cebpf4jnsgd1na2vs0mg"},{"bike_id":"63f6aee0-060f-4eac-b095-960be15afb68","system_id":"levelo_inurba_marseille","lat":43.31687,"lon":5.40473,"is_reserved":false,"is_disabled":false,"rental_uris":{"android":"levelo://app?vid=63f6aee0-060f-4eac-b095-960be15afb68","ios":"levelo://app?vid=63f6aee0-060f-4eac-b095-960be15afb68"},"vehicle_type_id":"4","last_reported":1734027239,"current_range_meters":12400,"station_id":"ce4bh012rcd13ifvqd00","pricing_plan_id":"cebpf4jnsgd1na2vs0mg"},{"bike_id":"6ed5027f-5661-4769-b45b-4ceca7e0002a","system_id":"levelo_inurba_marseille","lat":43.30426,"lon":5.39738,"is_reserved":false,"is_disabled":true,"rental_uris":{"android":"levelo://app?vid=6ed5027f-5661-4769-b45b-4ceca7e0002a","ios":"levelo://app?vid=6ed5027f-5661-4769-b45b-4ceca7e0002a"},"vehicle_type_id":"4","last_reported":1734027239,"current_range_meters":800,"station_id":"ce4bh092rcd13ifvqd20","pricing_plan_id":"cebpf4jnsgd1na2vs0mg"},{"bike_id":"a8952a43-ed45-4b45-98c8-1bb60ae3ae5a","system_id":"levelo_inurba_marseille","lat":43.3078,"lon":5.37657,"is_reserved":false,"is_disabled":true,"rental_uris":{"android":"levelo://app?vid=a8952a43-ed45-4b45-98c8-1bb60ae3ae5a","ios":"levelo://app?vid=a8952a43-ed45-4b45-98c8-1bb60ae3ae5a"},"vehicle_type_id":"4","last_reported":1734027239,"current_range_meters":2800,"station_id":"ce4bgv92rcd13ifvqcq0","pricing_plan_id":"cebpf4jnsgd1na2vs0mg"},{"bike_id":"e629dc09-435c-49ef-9023-81bcbfdc66e3","system_id":"levelo_inurba_marseille","lat":43.29062,"lon":5.3716,"is_reserved":false,"is_disabled":true,"rental_uris":{"android":"levelo://app?vid=e629dc09-435c-49ef-9023-81bcbfdc66e3","ios":"levelo://app?vid=e629dc09-435c-49ef-9023-81bcbfdc66e3"},"vehicle_type_id":"4","last_reported":1734027239,"current_range_meters":24800,"station_id":"ce4bh5p2rcd13ifvqe4g","pricing_plan_id":"cebpf4jnsgd1na2vs0mg"},{"bike_id":"8b90a771-a06f-410e-9739-c040262ff543","system_id":"levelo_inurba_marseille","lat":43.33023,"lon":5.39033,"is_reserved":false,"is_disabled":false,"rental_uris":{"android":"levelo://app?vid=8b90a771-a06f-410e-9739-c040262ff543","ios":"levelo://app?vid=8b90a771-a06f-410e-9739-c040262ff543"},"vehicle_type_id":"4","last_reported":1734027239,"current_range_meters":31200,"station_id":"ce4bhr92rcd13ifvqhrg","pricing_plan_id":"cebpf4jnsgd1na2vs0mg"},{"bike_id":"d65fcea9-51ba-41f0-86fd-e798dfdd6f09","system_id":"levelo_inurba_marseille","lat":43.2867,"lon":5.38291,"is_reserved":false,"is_disabled":true,"rental_uris":{"android":"levelo://app?vid=d65fcea9-51ba-41f0-86fd-e798dfdd6f09","ios":"levelo://app?vid=d65fcea9-51ba-41f0-86fd-e798dfdd6f09"},"vehicle_type_id":"4","last_reported":1734027239,"current_range_meters":1600,"station_id":"","pricing_plan_id":"cebpf4jnsgd1na2vs0mg"},{"bike_id":"254af1b0-323a-4623-85c7-36e72befe1aa","system_id":"levelo_inurba_marseille","lat":43.26562,"lon":5.39,"is_reserved":false,"is_disabled":false,"rental_uris":{"android":"levelo://app?vid=254af1b0-323a-4623-85c7-36e72befe1aa","ios":"levelo://app?vid=254af1b0-323a-4623-85c7-36e72befe1aa"},"vehicle_type_id":"4","last_reported":1734027239,"current_range_meters":16000,"station_id":"ce4bhe12rcd13ifvqf30","pricing_plan_id":"cebpf4jnsgd1na2vs0mg"},{"bike_id":"0a2ff15b-7083-46de-bbe3-0cf5955b285c","system_id":"levelo_inurba_marseille","lat":43.30804,"lon":5.43525,"is_reserved":false,"is_disabled":false,"rental_uris":{"android":"levelo://app?vid=0a2ff15b-7083-46de-bbe3-0cf5955b285c","ios":"levelo://app?vid=0a2ff15b-7083-46de-bbe3-0cf5955b285c"},"vehicle_type_id":"4","last_reported":1734027239,"current_range_meters":6000,"station_id":"ce4bhph2rcd13ifvqheg","pricing_plan_id":"cebpf4jnsgd1na2vs0mg"},{"bike_id":"812146ef-5497-4746-b4ff-5d5d828fb6ac","system_id":"levelo_inurba_marseille","lat":43.31716,"lon":5.42408,"is_reserved":false,"is_disabled":true,"rental_uris":{"android":"levelo://app?vid=812146ef-5497-4746-b4ff-5d5d828fb6ac","ios":"levelo://app?vid=812146ef-5497-4746-b4ff-5d5d828fb6ac"},"vehicle_type_id":"4","last_reported":1734027239,"current_range_meters":1200,"station_id":"ce4bhp92rcd13ifvqhbg","pricing_plan_id":"cebpf4jnsgd1na2vs0mg"},{"bike_id":"2a3d6429-71bf-408b-be81-90665a5988de","system_id":"levelo_inurba_marseille","lat":43.25869,"lon":5.39905,"is_reserved":false,"is_disabled":false,"rental_uris":{"android":"levelo://app?vid=2a3d6429-71bf-408b-be81-90665a5988de","ios":"levelo://app?vid=2a3d6429-71bf-408b-be81-90665a5988de"},"vehicle_type_id":"4","last_reported":1734027239,"current_range_meters":38800,"station_id":"ce4bhl92rcd13ifvqghg","pricing_plan_id":"cebpf4jnsgd1na2vs0mg"},{"bike_id":"5a987527-0a96-4fd6-987d-23bd6b89e6b2","system_id":"levelo_inurba_marseille","lat":43.26951,"lon":5.40253,"is_reserved":false,"is_disabled":false,"rental_uris":{"android":"levelo://app?vid=5a987527-0a96-4fd6-987d-23bd6b89e6b2","ios":"levelo://app?vid=5a987527-0a96-4fd6-987d-23bd6b89e6b2"},"vehicle_type_id":"4","last_reported":1734027239,"current_range_meters":38800,"station_id":"cjm6bp8fraef2m0cb0m0","pricing_plan_id":"cebpf4jnsgd1na2vs0mg"},{"bike_id":"4873c46e-cb28-4a7f-a38b-62bd40ae6e70","system_id":"levelo_inurba_marseille","lat":43.27924,"lon":5.39562,"is_reserved":false,"is_disabled":true,"rental_uris":{"android":"levelo://app?vid=4873c46e-cb28-4a7f-a38b-62bd40ae6e70","ios":"levelo://app?vid=4873c46e-cb28-4a7f-a38b-62bd40ae6e70"},"vehicle_type_id":"4","last_reported":1734027239,"current_range_meters":30400,"station_id":"ce4bhf92rcd13ifvqf40","pricing_plan_id":"cebpf4jnsgd1na2vs0mg"},{"bike_id":"21df3e35-5766-45ec-8fda-03d6d78971de","system_id":"levelo_inurba_marseille","lat":43.29684,"lon":5.37295,"is_reserved":false,"is_disabled":false,"rental_uris":{"android":"levelo://app?vid=21df3e35-5766-45ec-8fda-03d6d78971de","ios":"levelo://app?vid=21df3e35-5766-45ec-8fda-03d6d78971de"},"vehicle_type_id":"4","last_reported":1734027239,"current_range_meters":9200,"station_id":"ce4bgk12rcd13ifvqbj0","pricing_plan_id":"cebpf4jnsgd1na2vs0mg"},{"bike_id":"fb8fcee5-1fa3-401d-9e51-debd126ae86c","system_id":"levelo_inurba_marseille","lat":43.28408,"lon":5.37508,"is_reserved":false,"is_disabled":false,"rental_uris":{"android":"levelo://app?vid=fb8fcee5-1fa3-401d-9e51-debd126ae86c","ios":"levelo://app?vid=fb8fcee5-1fa3-401d-9e51-debd126ae86c"},"vehicle_type_id":"4","last_reported":1734027239,"current_range_meters":12800,"station_id":"ce4bh412rcd13ifvqds0","pricing_plan_id":"cebpf4jnsgd1na2vs0mg"},{"bike_id":"ffc190f4-797d-4e57-a253-94dc85edc482","system_id":"levelo_inurba_marseille","lat":43.26927,"lon":5.38916,"is_reserved":false,"is_disabled":false,"rental_uris":{"android":"levelo://app?vid=ffc190f4-797d-4e57-a253-94dc85edc482","ios":"levelo://app?vid=ffc190f4-797d-4e57-a253-94dc85edc482"},"vehicle_type_id":"4","last_reported":1734027239,"current_range_meters":22800,"station_id":"ce4bhhh2rcd13ifvqfl0","pricing_plan_id":"cebpf4jnsgd1na2vs0mg"},{"bike_id":"076f3262-62b9-493a-8f9c-911880825376","system_id":"levelo_inurba_marseille","lat":43.29917,"lon":5.37471,"is_reserved":false,"is_disabled":false,"rental_uris":{"android":"levelo://app?vid=076f3262-62b9-493a-8f9c-911880825376","ios":"levelo://app?vid=076f3262-62b9-493a-8f9c-911880825376"},"vehicle_type_id":"4","last_reported":1734027239,"current_range_meters":3600,"station_id":"ce4bgjh2rcd13ifvqbg0","pricing_plan_id":"cebpf4jnsgd1na2vs0mg"},{"bike_id":"bc37448c-8c0c-4059-8096-adb0bab7f8b6","system_id":"levelo_inurba_marseille","lat":43.31732,"lon":5.37643,"is_reserved":false,"is_disabled":false,"rental_uris":{"android":"levelo://app?vid=bc37448c-8c0c-4059-8096-adb0bab7f8b6","ios":"levelo://app?vid=bc37448c-8c0c-4059-8096-adb0bab7f8b6"},"vehicle_type_id":"4","last_reported":1734027239,"current_range_meters":20800,"station_id":"","pricing_plan_id":"cebpf4jnsgd1na2vs0mg"},{"bike_id":"0bb8a7f4-4a2e-4f5e-8713-3e322b460945","system_id":"levelo_inurba_marseille","lat":43.31281,"lon":5.40178,"is_reserved":false,"is_disabled":false,"rental_uris":{"android":"levelo://app?vid=0bb8a7f4-4a2e-4f5e-8713-3e322b460945","ios":"levelo://app?vid=0bb8a7f4-4a2e-4f5e-8713-3e322b460945"},"vehicle_type_id":"4","last_reported":1734027239,"current_range_meters":38800,"station_id":"ce4bh092rcd13ifvqd30","pricing_plan_id":"cebpf4jnsgd1na2vs0mg"},{"bike_id":"e1c4092d-7afb-447e-904a-caf651e36ce2","system_id":"levelo_inurba_marseille","lat":43.31264,"lon":5.374,"is_reserved":false,"is_disabled":true,"rental_uris":{"android":"levelo://app?vid=e1c4092d-7afb-447e-904a-caf651e36ce2","ios":"levelo://app?vid=e1c4092d-7afb-447e-904a-caf651e36ce2"},"vehicle_type_id":"4","last_reported":1734027239,"current_range_meters":1600,"station_id":"","pricing_plan_id":"cebpf4jnsgd1na2vs0mg"},{"bike_id":"88fd6081-e8a1-4b8c-a88f-ce6e40a6b4bf","system_id":"levelo_inurba_marseille","lat":43.26809,"lon":5.40263,"is_reserved":false,"is_disabled":true,"rental_uris":{"android":"levelo://app?vid=88fd6081-e8a1-4b8c-a88f-ce6e40a6b4bf","ios":"levelo://app?vid=88fd6081-e8a1-4b8c-a88f-ce6e40a6b4bf"},"vehicle_type_id":"4","last_reported":1734027239,"current_range_meters":0,"station_id":"ce501612rcd8frsf0b60","pricing_plan_id":"cebpf4jnsgd1na2vs0mg"},{"bike_id":"9b113118-f269-4fee-9233-a39c056dbfe2","system_id":"levelo_inurba_marseille","lat":43.31704,"lon":5.37768,"is_reserved":false,"is_disabled":true,"rental_uris":{"android":"levelo://app?vid=9b113118-f269-4fee-9233-a39c056dbfe2","ios":"levelo://app?vid=9b113118-f269-4fee-9233-a39c056dbfe2"},"vehicle_type_id":"4","last_reported":1734027239,"current_range_meters":0,"station_id":"ce4bgth2rcd13ifvqch0","pricing_plan_id":"cebpf4jnsgd1na2vs0mg"},{"bike_id":"0fad1fa1-4b40-42cb-873a-c0e41b1edfbd","system_id":"levelo_inurba_marseille","lat":43.262116,"lon":5.374437,"is_reserved":false,"is_disabled":false,"rental_uris":{"android":"levelo://app?vid=0fad1fa1-4b40-42cb-873a-c0e41b1edfbd","ios":"levelo://app?vid=0fad1fa1-4b40-42cb-873a-c0e41b1edfbd"},"vehicle_type_id":"4","last_reported":1734027239,"current_range_meters":17600,"station_id":"ce4bhgp2rcd13ifvqfc0","pricing_plan_id":"cebpf4jnsgd1na2vs0mg"},{"bike_id":"637e1327-ccd9-47ec-a181-f2414ca4d3e4","system_id":"levelo_inurba_marseille","lat":43.26576,"lon":5.39005,"is_reserved":false,"is_disabled":false,"rental_uris":{"android":"levelo://app?vid=637e1327-ccd9-47ec-a181-f2414ca4d3e4","ios":"levelo://app?vid=637e1327-ccd9-47ec-a181-f2414ca4d3e4"},"vehicle_type_id":"4","last_reported":1734027239,"current_range_meters":27200,"station_id":"ce4bhe12rcd13ifvqf30","pricing_plan_id":"cebpf4jnsgd1na2vs0mg"},{"bike_id":"18449eca-7cd4-4637-aad8-d740a9109818","system_id":"levelo_inurba_marseille","lat":43.26808,"lon":5.4027,"is_reserved":false,"is_disabled":false,"rental_uris":{"android":"levelo://app?vid=18449eca-7cd4-4637-aad8-d740a9109818","ios":"levelo://app?vid=18449eca-7cd4-4637-aad8-d740a9109818"},"vehicle_type_id":"4","last_reported":1734027239,"current_range_meters":38000,"station_id":"ce501612rcd8frsf0b60","pricing_plan_id":"cebpf4jnsgd1na2vs0mg"},{"bike_id":"875e1e70-a4d6-4de2-a9b5-49d5f2778c60","system_id":"levelo_inurba_marseille","lat":43.24802,"lon":5.37457,"is_reserved":false,"is_disabled":false,"rental_uris":{"android":"levelo://app?vid=875e1e70-a4d6-4de2-a9b5-49d5f2778c60","ios":"levelo://app?vid=875e1e70-a4d6-4de2-a9b5-49d5f2778c60"},"vehicle_type_id":"4","last_reported":1734027239,"current_range_meters":19200,"station_id":"ce4bhgh2rcd13ifvqfb0","pricing_plan_id":"cebpf4jnsgd1na2vs0mg"},{"bike_id":"3888a69b-a227-446c-9ee0-0e069b6a22ce","system_id":"levelo_inurba_marseille","lat":43.28104,"lon":5.37824,"is_reserved":false,"is_disabled":false,"rental_uris":{"android":"levelo://app?vid=3888a69b-a227-446c-9ee0-0e069b6a22ce","ios":"levelo://app?vid=3888a69b-a227-446c-9ee0-0e069b6a22ce"},"vehicle_type_id":"4","last_reported":1734027239,"current_range_meters":12800,"station_id":"ce4bha12rcd13ifvqee0","pricing_plan_id":"cebpf4jnsgd1na2vs0mg"},{"bike_id":"3d91e3c5-7cef-4a6b-b72c-1f72f9823e2d","system_id":"levelo_inurba_marseille","lat":43.29705,"lon":5.36105,"is_reserved":false,"is_disabled":true,"rental_uris":{"android":"levelo://app?vid=3d91e3c5-7cef-4a6b-b72c-1f72f9823e2d","ios":"levelo://app?vid=3d91e3c5-7cef-4a6b-b72c-1f72f9823e2d"},"vehicle_type_id":"4","last_reported":1734027239,"current_range_meters":400,"station_id":"","pricing_plan_id":"cebpf4jnsgd1na2vs0mg"},{"bike_id":"571e3d23-ce6a-4c51-bb70-34469d85eed2","system_id":"levelo_inurba_marseille","lat":43.28723,"lon":5.37938,"is_reserved":false,"is_disabled":false,"rental_uris":{"android":"levelo://app?vid=571e3d23-ce6a-4c51-bb70-34469d85eed2","ios":"levelo://app?vid=571e3d23-ce6a-4c51-bb70-34469d85eed2"},"vehicle_type_id":"4","last_reported":1734027239,"current_range_meters":36800,"station_id":"ce4bh9p2rcd13ifvqec0","pricing_plan_id":"cebpf4jnsgd1na2vs0mg"},{"bike_id":"a2c6b5ab-88a3-428b-915b-ae7b224c3f80","system_id":"levelo_inurba_marseille","lat":43.27983,"lon":5.4166,"is_reserved":false,"is_disabled":true,"rental_uris":{"android":"levelo://app?vid=a2c6b5ab-88a3-428b-915b-ae7b224c3f80","ios":"levelo://app?vid=a2c6b5ab-88a3-428b-915b-ae7b224c3f80"},"vehicle_type_id":"4","last_reported":1734027239,"current_range_meters":0,"station_id":"ce4bho12rcd13ifvqh1g","pricing_plan_id":"cebpf4jnsgd1na2vs0mg"},{"bike_id":"e939de06-d909-4758-b8f3-8d43330311ae","system_id":"levelo_inurba_marseille","lat":43.2558,"lon":5.3824,"is_reserved":false,"is_disabled":false,"rental_uris":{"android":"levelo://app?vid=e939de06-d909-4758-b8f3-8d43330311ae","ios":"levelo://app?vid=e939de06-d909-4758-b8f3-8d43330311ae"},"vehicle_type_id":"4","last_reported":1734027239,"current_range_meters":38800,"station_id":"ce4bhih2rcd13ifvqfs0","pricing_plan_id":"cebpf4jnsgd1na2vs0mg"},{"bike_id":"efb655cb-2785-4efc-abaf-ae9549ebe3e6","system_id":"levelo_inurba_marseille","lat":43.2404,"lon":5.37699,"is_reserved":false,"is_disabled":false,"rental_uris":{"android":"levelo://app?vid=efb655cb-2785-4efc-abaf-ae9549ebe3e6","ios":"levelo://app?vid=efb655cb-2785-4efc-abaf-ae9549ebe3e6"},"vehicle_type_id":"4","last_reported":1734027239,"current_range_meters":38000,"station_id":"ce4bhnp2rcd13ifvqgvg","pricing_plan_id":"cebpf4jnsgd1na2vs0mg"},{"bike_id":"f8ab37ff-3900-4aec-a455-c377e571b1cd","system_id":"levelo_inurba_marseille","lat":43.27422,"lon":5.3941,"is_reserved":false,"is_disabled":false,"rental_uris":{"android":"levelo://app?vid=f8ab37ff-3900-4aec-a455-c377e571b1cd","ios":"levelo://app?vid=f8ab37ff-3900-4aec-a455-c377e571b1cd"},"vehicle_type_id":"4","last_reported":1734027239,"current_range_meters":37600,"station_id":"ce4bhdp2rcd13ifvqf20","pricing_plan_id":"cebpf4jnsgd1na2vs0mg"},{"bike_id":"41b8591a-32e7-4b54-8293-24eaf942ffe0","system_id":"levelo_inurba_marseille","lat":43.262224,"lon":5.375449,"is_reserved":false,"is_disabled":false,"rental_uris":{"android":"levelo://app?vid=41b8591a-32e7-4b54-8293-24eaf942ffe0","ios":"levelo://app?vid=41b8591a-32e7-4b54-8293-24eaf942ffe0"},"vehicle_type_id":"4","last_reported":1734027239,"current_range_meters":38800,"station_id":"ce4bhgp2rcd13ifvqfc0","pricing_plan_id":"cebpf4jnsgd1na2vs0mg"},{"bike_id":"6bcae189-bfbf-4d49-b342-470958698813","system_id":"levelo_inurba_marseille","lat":43.28104,"lon":5.37837,"is_reserved":false,"is_disabled":false,"rental_uris":{"android":"levelo://app?vid=6bcae189-bfbf-4d49-b342-470958698813","ios":"levelo://app?vid=6bcae189-bfbf-4d49-b342-470958698813"},"vehicle_type_id":"4","last_reported":1734027239,"current_range_meters":30800,"station_id":"ce4bha12rcd13ifvqee0","pricing_plan_id":"cebpf4jnsgd1na2vs0mg"},{"bike_id":"e88f72be-0ed4-4a2d-9927-0de228a41be5","system_id":"levelo_inurba_marseille","lat":43.31094,"lon":5.42428,"is_reserved":false,"is_disabled":false,"rental_uris":{"android":"levelo://app?vid=e88f72be-0ed4-4a2d-9927-0de228a41be5","ios":"levelo://app?vid=e88f72be-0ed4-4a2d-9927-0de228a41be5"},"vehicle_type_id":"4","last_reported":1734027239,"current_range_meters":33200,"station_id":"ce4bhp92rcd13ifvqhag","pricing_plan_id":"cebpf4jnsgd1na2vs0mg"},{"bike_id":"77dfa0ba-b8e6-4999-baa9-f2f5a9ff3ce4","system_id":"levelo_inurba_marseille","lat":43.28354,"lon":5.38103,"is_reserved":false,"is_disabled":true,"rental_uris":{"android":"levelo://app?vid=77dfa0ba-b8e6-4999-baa9-f2f5a9ff3ce4","ios":"levelo://app?vid=77dfa0ba-b8e6-4999-baa9-f2f5a9ff3ce4"},"vehicle_type_id":"4","last_reported":1734027239,"current_range_meters":2000,"station_id":"ce4bh412rcd13ifvqdr0","pricing_plan_id":"cebpf4jnsgd1na2vs0mg"},{"bike_id":"85fc7ebc-e1ee-4e0e-81f6-502ecea0cb12","system_id":"levelo_inurba_marseille","lat":43.33021,"lon":5.39046,"is_reserved":false,"is_disabled":false,"rental_uris":{"android":"levelo://app?vid=85fc7ebc-e1ee-4e0e-81f6-502ecea0cb12","ios":"levelo://app?vid=85fc7ebc-e1ee-4e0e-81f6-502ecea0cb12"},"vehicle_type_id":"4","last_reported":1734027239,"current_range_meters":38800,"station_id":"ce4bhr92rcd13ifvqhrg","pricing_plan_id":"cebpf4jnsgd1na2vs0mg"},{"bike_id":"106a928a-d607-43dd-aa91-21d4c666d1e5","system_id":"levelo_inurba_marseille","lat":43.29518,"lon":5.37494,"is_reserved":false,"is_disabled":false,"rental_uris":{"android":"levelo://app?vid=106a928a-d607-43dd-aa91-21d4c666d1e5","ios":"levelo://app?vid=106a928a-d607-43dd-aa91-21d4c666d1e5"},"vehicle_type_id":"4","last_reported":1734027239,"current_range_meters":8000,"station_id":"ce4bgkp2rcd13ifvqbmg","pricing_plan_id":"cebpf4jnsgd1na2vs0mg"},{"bike_id":"e37030e4-0dd2-4190-b662-a70f879aa3b6","system_id":"levelo_inurba_marseille","lat":43.24273,"lon":5.36967,"is_reserved":false,"is_disabled":false,"rental_uris":{"android":"levelo://app?vid=e37030e4-0dd2-4190-b662-a70f879aa3b6","ios":"levelo://app?vid=e37030e4-0dd2-4190-b662-a70f879aa3b6"},"vehicle_type_id":"4","last_reported":1734027239,"current_range_meters":25600,"station_id":"","pricing_plan_id":"cebpf4jnsgd1na2vs0mg"},{"bike_id":"6bc7401a-ad66-4e4d-bfd6-a954bc5b40c0","system_id":"levelo_inurba_marseille","lat":43.337527,"lon":5.37441,"is_reserved":false,"is_disabled":false,"rental_uris":{"android":"levelo://app?vid=6bc7401a-ad66-4e4d-bfd6-a954bc5b40c0","ios":"levelo://app?vid=6bc7401a-ad66-4e4d-bfd6-a954bc5b40c0"},"vehicle_type_id":"4","last_reported":1734027239,"current_range_meters":33600,"station_id":"","pricing_plan_id":"cebpf4jnsgd1na2vs0mg"},{"bike_id":"f8e23b6a-d127-4b2a-bb85-ced8c24b00a9","system_id":"levelo_inurba_marseille","lat":43.28845,"lon":5.3585,"is_reserved":false,"is_disabled":false,"rental_uris":{"android":"levelo://app?vid=f8e23b6a-d127-4b2a-bb85-ced8c24b00a9","ios":"levelo://app?vid=f8e23b6a-d127-4b2a-bb85-ced8c24b00a9"},"vehicle_type_id":"4","last_reported":1734027239,"current_range_meters":34800,"station_id":"ce4bhb12rcd13ifvqem0","pricing_plan_id":"cebpf4jnsgd1na2vs0mg"},{"bike_id":"f0a4f587-2333-4a7a-8819-09121e495e1b","system_id":"levelo_inurba_marseille","lat":43.22925,"lon":5.35374,"is_reserved":false,"is_disabled":false,"rental_uris":{"android":"levelo://app?vid=f0a4f587-2333-4a7a-8819-09121e495e1b","ios":"levelo://app?vid=f0a4f587-2333-4a7a-8819-09121e495e1b"},"vehicle_type_id":"4","last_reported":1734027239,"current_range_meters":8000,"station_id":"cpo3532slgdg3j2ikp40","pricing_plan_id":"cebpf4jnsgd1na2vs0mg"},{"bike_id":"e716e25e-7428-4073-a5e4-495f6f95fe27","system_id":"levelo_inurba_marseille","lat":43.3024,"lon":5.40085,"is_reserved":false,"is_disabled":false,"rental_uris":{"android":"levelo://app?vid=e716e25e-7428-4073-a5e4-495f6f95fe27","ios":"levelo://app?vid=e716e25e-7428-4073-a5e4-495f6f95fe27"},"vehicle_type_id":"4","last_reported":1734027239,"current_range_meters":36800,"station_id":"ce4bgvh2rcd13ifvqcs0","pricing_plan_id":"cebpf4jnsgd1na2vs0mg"},{"bike_id":"89aa5a57-e353-4b15-a90c-5e477fa4d751","system_id":"levelo_inurba_marseille","lat":43.295083,"lon":5.393923,"is_reserved":false,"is_disabled":false,"rental_uris":{"android":"levelo://app?vid=89aa5a57-e353-4b15-a90c-5e477fa4d751","ios":"levelo://app?vid=89aa5a57-e353-4b15-a90c-5e477fa4d751"},"vehicle_type_id":"4","last_reported":1734027239,"current_range_meters":38800,"station_id":"ce4bh292rcd13ifvqdf0","pricing_plan_id":"cebpf4jnsgd1na2vs0mg"},{"bike_id":"e2b090ff-7c7f-4d4a-8f5b-c317e750043e","system_id":"levelo_inurba_marseille","lat":43.27065,"lon":5.42275,"is_reserved":false,"is_disabled":true,"rental_uris":{"android":"levelo://app?vid=e2b090ff-7c7f-4d4a-8f5b-c317e750043e","ios":"levelo://app?vid=e2b090ff-7c7f-4d4a-8f5b-c317e750043e"},"vehicle_type_id":"4","last_reported":1734027239,"current_range_meters":0,"station_id":"ce4bhk92rcd13ifvqgb0","pricing_plan_id":"cebpf4jnsgd1na2vs0mg"},{"bike_id":"1be4dfd7-b95c-4558-b62a-debc1f52eb94","system_id":"levelo_inurba_marseille","lat":43.27055,"lon":5.42256,"is_reserved":false,"is_disabled":false,"rental_uris":{"android":"levelo://app?vid=1be4dfd7-b95c-4558-b62a-debc1f52eb94","ios":"levelo://app?vid=1be4dfd7-b95c-4558-b62a-debc1f52eb94"},"vehicle_type_id":"4","last_reported":1734027239,"current_range_meters":38800,"station_id":"ce4bhk92rcd13ifvqgb0","pricing_plan_id":"cebpf4jnsgd1na2vs0mg"},{"bike_id":"78b8be59-61ca-43aa-af1c-ba8537ef07ec","system_id":"levelo_inurba_marseille","lat":43.26567,"lon":5.39002,"is_reserved":false,"is_disabled":false,"rental_uris":{"android":"levelo://app?vid=78b8be59-61ca-43aa-af1c-ba8537ef07ec","ios":"levelo://app?vid=78b8be59-61ca-43aa-af1c-ba8537ef07ec"},"vehicle_type_id":"4","last_reported":1734027239,"current_range_meters":6400,"station_id":"ce4bhe12rcd13ifvqf30","pricing_plan_id":"cebpf4jnsgd1na2vs0mg"},{"bike_id":"f3152ea7-684c-44a3-b264-f16f85aaea9a","system_id":"levelo_inurba_marseille","lat":43.2926,"lon":5.38448,"is_reserved":false,"is_disabled":false,"rental_uris":{"android":"levelo://app?vid=f3152ea7-684c-44a3-b264-f16f85aaea9a","ios":"levelo://app?vid=f3152ea7-684c-44a3-b264-f16f85aaea9a"},"vehicle_type_id":"4","last_reported":1734027239,"current_range_meters":32000,"station_id":"ce4bh692rcd13ifvqea0","pricing_plan_id":"cebpf4jnsgd1na2vs0mg"},{"bike_id":"21f9ec22-c921-4886-91dd-a6e302eb5e31","system_id":"levelo_inurba_marseille","lat":43.28079,"lon":5.39643,"is_reserved":false,"is_disabled":false,"rental_uris":{"android":"levelo://app?vid=21f9ec22-c921-4886-91dd-a6e302eb5e31","ios":"levelo://app?vid=21f9ec22-c921-4886-91dd-a6e302eb5e31"},"vehicle_type_id":"4","last_reported":1734027239,"current_range_meters":9200,"station_id":"ce4bho12rcd13ifvqh2g","pricing_plan_id":"cebpf4jnsgd1na2vs0mg"},{"bike_id":"a29ec15a-0267-4de8-b687-0d568e0a6a18","system_id":"levelo_inurba_marseille","lat":43.30982,"lon":5.37932,"is_reserved":false,"is_disabled":false,"rental_uris":{"android":"levelo://app?vid=a29ec15a-0267-4de8-b687-0d568e0a6a18","ios":"levelo://app?vid=a29ec15a-0267-4de8-b687-0d568e0a6a18"},"vehicle_type_id":"4","last_reported":1734027239,"current_range_meters":3200,"station_id":"","pricing_plan_id":"cebpf4jnsgd1na2vs0mg"},{"bike_id":"e7468417-1e3c-483c-bbea-6d43c523ebdb","system_id":"levelo_inurba_marseille","lat":43.31715,"lon":5.37766,"is_reserved":false,"is_disabled":false,"rental_uris":{"android":"levelo://app?vid=e7468417-1e3c-483c-bbea-6d43c523ebdb","ios":"levelo://app?vid=e7468417-1e3c-483c-bbea-6d43c523ebdb"},"vehicle_type_id":"4","last_reported":1734027239,"current_range_meters":38800,"station_id":"ce4bgth2rcd13ifvqch0","pricing_plan_id":"cebpf4jnsgd1na2vs0mg"},{"bike_id":"097a41bf-6635-41a6-b7a7-1173cae29ada","system_id":"levelo_inurba_marseille","lat":43.22935,"lon":5.35378,"is_reserved":false,"is_disabled":false,"rental_uris":{"android":"levelo://app?vid=097a41bf-6635-41a6-b7a7-1173cae29ada","ios":"levelo://app?vid=097a41bf-6635-41a6-b7a7-1173cae29ada"},"vehicle_type_id":"4","last_reported":1734027239,"current_range_meters":38800,"station_id":"cpo3532slgdg3j2ikp40","pricing_plan_id":"cebpf4jnsgd1na2vs0mg"},{"bike_id":"4d5881bc-1b66-4424-9cca-37b7d62f3c7f","system_id":"levelo_inurba_marseille","lat":43.29942,"lon":5.38489,"is_reserved":false,"is_disabled":false,"rental_uris":{"android":"levelo://app?vid=4d5881bc-1b66-4424-9cca-37b7d62f3c7f","ios":"levelo://app?vid=4d5881bc-1b66-4424-9cca-37b7d62f3c7f"},"vehicle_type_id":"4","last_reported":1734027239,"current_range_meters":37600,"station_id":"ce4bgj92rcd13ifvqbd0","pricing_plan_id":"cebpf4jnsgd1na2vs0mg"},{"bike_id":"f1ac6ac3-50c4-45a3-807d-dc2a982c9232","system_id":"levelo_inurba_marseille","lat":43.24805,"lon":5.37449,"is_reserved":false,"is_disabled":false,"rental_uris":{"android":"levelo://app?vid=f1ac6ac3-50c4-45a3-807d-dc2a982c9232","ios":"levelo://app?vid=f1ac6ac3-50c4-45a3-807d-dc2a982c9232"},"vehicle_type_id":"4","last_reported":1734027239,"current_range_meters":37600,"station_id":"ce4bhgh2rcd13ifvqfb0","pricing_plan_id":"cebpf4jnsgd1na2vs0mg"},{"bike_id":"ebcfa04e-910e-4307-b65f-ee52e8f1bcda","system_id":"levelo_inurba_marseille","lat":43.2957,"lon":5.39978,"is_reserved":false,"is_disabled":true,"rental_uris":{"android":"levelo://app?vid=ebcfa04e-910e-4307-b65f-ee52e8f1bcda","ios":"levelo://app?vid=ebcfa04e-910e-4307-b65f-ee52e8f1bcda"},"vehicle_type_id":"4","last_reported":1734027239,"current_range_meters":0,"station_id":"ce4bh312rcd13ifvqdj0","pricing_plan_id":"cebpf4jnsgd1na2vs0mg"},{"bike_id":"73c649f1-573c-4ef2-b7fd-0a6363ea8204","system_id":"levelo_inurba_marseille","lat":43.25083,"lon":5.39514,"is_reserved":false,"is_disabled":false,"rental_uris":{"android":"levelo://app?vid=73c649f1-573c-4ef2-b7fd-0a6363ea8204","ios":"levelo://app?vid=73c649f1-573c-4ef2-b7fd-0a6363ea8204"},"vehicle_type_id":"4","last_reported":1734027239,"current_range_meters":38400,"station_id":"ce4bhm12rcd13ifvqgkg","pricing_plan_id":"cebpf4jnsgd1na2vs0mg"},{"bike_id":"c105de93-e3e8-40fe-bca3-ba5aeed4e7af","system_id":"levelo_inurba_marseille","lat":43.31722,"lon":5.37769,"is_reserved":false,"is_disabled":true,"rental_uris":{"android":"levelo://app?vid=c105de93-e3e8-40fe-bca3-ba5aeed4e7af","ios":"levelo://app?vid=c105de93-e3e8-40fe-bca3-ba5aeed4e7af"},"vehicle_type_id":"4","last_reported":1734027239,"current_range_meters":400,"station_id":"ce4bgth2rcd13ifvqch0","pricing_plan_id":"cebpf4jnsgd1na2vs0mg"},{"bike_id":"e74372ac-2a6c-47ae-afc7-e1b4e1c3d13f","system_id":"levelo_inurba_marseille","lat":43.2306,"lon":5.35488,"is_reserved":false,"is_disabled":false,"rental_uris":{"android":"levelo://app?vid=e74372ac-2a6c-47ae-afc7-e1b4e1c3d13f","ios":"levelo://app?vid=e74372ac-2a6c-47ae-afc7-e1b4e1c3d13f"},"vehicle_type_id":"4","last_reported":1734027239,"current_range_meters":13600,"station_id":"cpo3342slgdg3j2ifvpg","pricing_plan_id":"cebpf4jnsgd1na2vs0mg"},{"bike_id":"68584535-84d5-428f-9e50-8b8ee3afd291","system_id":"levelo_inurba_marseille","lat":43.28073,"lon":5.39609,"is_reserved":false,"is_disabled":false,"rental_uris":{"android":"levelo://app?vid=68584535-84d5-428f-9e50-8b8ee3afd291","ios":"levelo://app?vid=68584535-84d5-428f-9e50-8b8ee3afd291"},"vehicle_type_id":"4","last_reported":1734027239,"current_range_meters":10000,"station_id":"ce4bho12rcd13ifvqh2g","pricing_plan_id":"cebpf4jnsgd1na2vs0mg"},{"bike_id":"4bb15ff9-2ba0-4711-8326-4d78deb38f14","system_id":"levelo_inurba_marseille","lat":43.24076,"lon":5.37753,"is_reserved":false,"is_disabled":false,"rental_uris":{"android":"levelo://app?vid=4bb15ff9-2ba0-4711-8326-4d78deb38f14","ios":"levelo://app?vid=4bb15ff9-2ba0-4711-8326-4d78deb38f14"},"vehicle_type_id":"4","last_reported":1734027239,"current_range_meters":38800,"station_id":"ce4bhnp2rcd13ifvqgvg","pricing_plan_id":"cebpf4jnsgd1na2vs0mg"},{"bike_id":"0fd72ef9-d743-451e-9e0e-f810c941e112","system_id":"levelo_inurba_marseille","lat":43.28458,"lon":5.35886,"is_reserved":false,"is_disabled":false,"rental_uris":{"android":"levelo://app?vid=0fd72ef9-d743-451e-9e0e-f810c941e112","ios":"levelo://app?vid=0fd72ef9-d743-451e-9e0e-f810c941e112"},"vehicle_type_id":"4","last_reported":1734027239,"current_range_meters":24000,"station_id":"ce4bhah2rcd13ifvqei0","pricing_plan_id":"cebpf4jnsgd1na2vs0mg"},{"bike_id":"a9acf0d0-6eaa-4032-a27d-f76d0117d08c","system_id":"levelo_inurba_marseille","lat":43.29037,"lon":5.37399,"is_reserved":false,"is_disabled":false,"rental_uris":{"android":"levelo://app?vid=a9acf0d0-6eaa-4032-a27d-f76d0117d08c","ios":"levelo://app?vid=a9acf0d0-6eaa-4032-a27d-f76d0117d08c"},"vehicle_type_id":"4","last_reported":1734027239,"current_range_meters":8000,"station_id":"ce4bh612rcd13ifvqe6g","pricing_plan_id":"cebpf4jnsgd1na2vs0mg"},{"bike_id":"7d47cff3-5c52-4309-a404-3e935e778d97","system_id":"levelo_inurba_marseille","lat":43.29783,"lon":5.37098,"is_reserved":false,"is_disabled":true,"rental_uris":{"android":"levelo://app?vid=7d47cff3-5c52-4309-a404-3e935e778d97","ios":"levelo://app?vid=7d47cff3-5c52-4309-a404-3e935e778d97"},"vehicle_type_id":"4","last_reported":1734027239,"current_range_meters":2000,"station_id":"ce4bgop2rcd13ifvqc1g","pricing_plan_id":"cebpf4jnsgd1na2vs0mg"},{"bike_id":"fe218123-8a4a-42eb-883f-f2564a296efb","system_id":"levelo_inurba_marseille","lat":43.28025,"lon":5.36938,"is_reserved":false,"is_disabled":false,"rental_uris":{"android":"levelo://app?vid=fe218123-8a4a-42eb-883f-f2564a296efb","ios":"levelo://app?vid=fe218123-8a4a-42eb-883f-f2564a296efb"},"vehicle_type_id":"4","last_reported":1734027239,"current_range_meters":38800,"station_id":"ce4bha12rcd13ifvqef0","pricing_plan_id":"cebpf4jnsgd1na2vs0mg"},{"bike_id":"95dc0bab-2f2d-4dd1-91d3-e1b5a959effb","system_id":"levelo_inurba_marseille","lat":43.27971,"lon":5.38748,"is_reserved":false,"is_disabled":true,"rental_uris":{"android":"levelo://app?vid=95dc0bab-2f2d-4dd1-91d3-e1b5a959effb","ios":"levelo://app?vid=95dc0bab-2f2d-4dd1-91d3-e1b5a959effb"},"vehicle_type_id":"4","last_reported":1734027239,"current_range_meters":1200,"station_id":"ce4bhg12rcd13ifvqf80","pricing_plan_id":"cebpf4jnsgd1na2vs0mg"},{"bike_id":"d2a7ca58-51af-4348-8d17-0db312ac402f","system_id":"levelo_inurba_marseille","lat":43.24078,"lon":5.37757,"is_reserved":false,"is_disabled":false,"rental_uris":{"android":"levelo://app?vid=d2a7ca58-51af-4348-8d17-0db312ac402f","ios":"levelo://app?vid=d2a7ca58-51af-4348-8d17-0db312ac402f"},"vehicle_type_id":"4","last_reported":1734027239,"current_range_meters":36000,"station_id":"ce4bhnp2rcd13ifvqgvg","pricing_plan_id":"cebpf4jnsgd1na2vs0mg"},{"bike_id":"83464f63-c9cf-40ae-a99a-00bbfe0ed22a","system_id":"levelo_inurba_marseille","lat":43.31331,"lon":5.39694,"is_reserved":false,"is_disabled":false,"rental_uris":{"android":"levelo://app?vid=83464f63-c9cf-40ae-a99a-00bbfe0ed22a","ios":"levelo://app?vid=83464f63-c9cf-40ae-a99a-00bbfe0ed22a"},"vehicle_type_id":"4","last_reported":1734027239,"current_range_meters":38800,"station_id":"ce4bgvp2rcd13ifvqcu0","pricing_plan_id":"cebpf4jnsgd1na2vs0mg"},{"bike_id":"7c11a115-e8c4-4306-ae78-4244d47aabf0","system_id":"levelo_inurba_marseille","lat":43.2979,"lon":5.38117,"is_reserved":false,"is_disabled":true,"rental_uris":{"android":"levelo://app?vid=7c11a115-e8c4-4306-ae78-4244d47aabf0","ios":"levelo://app?vid=7c11a115-e8c4-4306-ae78-4244d47aabf0"},"vehicle_type_id":"4","last_reported":1734027239,"current_range_meters":800,"station_id":"ce4bgip2rcd13ifvqbb0","pricing_plan_id":"cebpf4jnsgd1na2vs0mg"},{"bike_id":"4c7d4aa2-cd85-42cc-acb9-8102cd58c17e","system_id":"levelo_inurba_marseille","lat":43.27951,"lon":5.41048,"is_reserved":false,"is_disabled":true,"rental_uris":{"android":"levelo://app?vid=4c7d4aa2-cd85-42cc-acb9-8102cd58c17e","ios":"levelo://app?vid=4c7d4aa2-cd85-42cc-acb9-8102cd58c17e"},"vehicle_type_id":"4","last_reported":1734027239,"current_range_meters":0,"station_id":"ce4bhnp2rcd13ifvqh0g","pricing_plan_id":"cebpf4jnsgd1na2vs0mg"},{"bike_id":"a66c4b95-337e-4b9a-950c-e8c8d8e7a3a1","system_id":"levelo_inurba_marseille","lat":43.324799,"lon":5.365716,"is_reserved":false,"is_disabled":true,"rental_uris":{"android":"levelo://app?vid=a66c4b95-337e-4b9a-950c-e8c8d8e7a3a1","ios":"levelo://app?vid=a66c4b95-337e-4b9a-950c-e8c8d8e7a3a1"},"vehicle_type_id":"4","last_reported":1734027239,"current_range_meters":0,"station_id":"","pricing_plan_id":"cebpf4jnsgd1na2vs0mg"},{"bike_id":"021da959-8b05-44e2-9e52-905b2428e174","system_id":"levelo_inurba_marseille","lat":43.23183,"lon":5.3999,"is_reserved":false,"is_disabled":false,"rental_uris":{"android":"levelo://app?vid=021da959-8b05-44e2-9e52-905b2428e174","ios":"levelo://app?vid=021da959-8b05-44e2-9e52-905b2428e174"},"vehicle_type_id":"4","last_reported":1734027239,"current_range_meters":20400,"station_id":"ce4bhn12rcd13ifvqgqg","pricing_plan_id":"cebpf4jnsgd1na2vs0mg"},{"bike_id":"3aa675bf-e140-4eb0-a03c-90dc1dbcecc3","system_id":"levelo_inurba_marseille","lat":43.31332,"lon":5.39697,"is_reserved":false,"is_disabled":false,"rental_uris":{"android":"levelo://app?vid=3aa675bf-e140-4eb0-a03c-90dc1dbcecc3","ios":"levelo://app?vid=3aa675bf-e140-4eb0-a03c-90dc1dbcecc3"},"vehicle_type_id":"4","last_reported":1734027239,"current_range_meters":39200,"station_id":"ce4bgvp2rcd13ifvqcu0","pricing_plan_id":"cebpf4jnsgd1na2vs0mg"},{"bike_id":"6cf75715-8205-4e88-8dbe-d31d60b9c12e","system_id":"levelo_inurba_marseille","lat":43.28156,"lon":5.4265,"is_reserved":false,"is_disabled":true,"rental_uris":{"android":"levelo://app?vid=6cf75715-8205-4e88-8dbe-d31d60b9c12e","ios":"levelo://app?vid=6cf75715-8205-4e88-8dbe-d31d60b9c12e"},"vehicle_type_id":"4","last_reported":1734027239,"current_range_meters":0,"station_id":"ce4bhnh2rcd13ifvqgug","pricing_plan_id":"cebpf4jnsgd1na2vs0mg"},{"bike_id":"67ea53be-ec72-4668-a452-027f706dcb22","system_id":"levelo_inurba_marseille","lat":43.25497,"lon":5.37648,"is_reserved":false,"is_disabled":false,"rental_uris":{"android":"levelo://app?vid=67ea53be-ec72-4668-a452-027f706dcb22","ios":"levelo://app?vid=67ea53be-ec72-4668-a452-027f706dcb22"},"vehicle_type_id":"4","last_reported":1734027239,"current_range_meters":38800,"station_id":"ce4bhh12rcd13ifvqff0","pricing_plan_id":"cebpf4jnsgd1na2vs0mg"},{"bike_id":"0dc53ed0-703c-41c7-a7ba-e5fe121ea6cc","system_id":"levelo_inurba_marseille","lat":43.27851,"lon":5.39192,"is_reserved":false,"is_disabled":true,"rental_uris":{"android":"levelo://app?vid=0dc53ed0-703c-41c7-a7ba-e5fe121ea6cc","ios":"levelo://app?vid=0dc53ed0-703c-41c7-a7ba-e5fe121ea6cc"},"vehicle_type_id":"4","last_reported":1734027239,"current_range_meters":35200,"station_id":"ce4bhjp2rcd13ifvqga0","pricing_plan_id":"cebpf4jnsgd1na2vs0mg"},{"bike_id":"a1b3e7ef-122c-4c3b-8be9-c3cc1fd01590","system_id":"levelo_inurba_marseille","lat":43.24542,"lon":5.39513,"is_reserved":false,"is_disabled":false,"rental_uris":{"android":"levelo://app?vid=a1b3e7ef-122c-4c3b-8be9-c3cc1fd01590","ios":"levelo://app?vid=a1b3e7ef-122c-4c3b-8be9-c3cc1fd01590"},"vehicle_type_id":"4","last_reported":1734027239,"current_range_meters":8000,"station_id":"ce4bhlp2rcd13ifvqgjg","pricing_plan_id":"cebpf4jnsgd1na2vs0mg"},{"bike_id":"1e09aea1-6592-4606-838e-01c5295332d1","system_id":"levelo_inurba_marseille","lat":43.32662,"lon":5.40984,"is_reserved":false,"is_disabled":true,"rental_uris":{"android":"levelo://app?vid=1e09aea1-6592-4606-838e-01c5295332d1","ios":"levelo://app?vid=1e09aea1-6592-4606-838e-01c5295332d1"},"vehicle_type_id":"4","last_reported":1734027239,"current_range_meters":35600,"station_id":"ce4bhpp2rcd13ifvqhgg","pricing_plan_id":"cebpf4jnsgd1na2vs0mg"},{"bike_id":"e48c597b-2725-40dc-811b-7504d090be38","system_id":"levelo_inurba_marseille","lat":43.28703,"lon":5.39979,"is_reserved":false,"is_disabled":true,"rental_uris":{"android":"levelo://app?vid=e48c597b-2725-40dc-811b-7504d090be38","ios":"levelo://app?vid=e48c597b-2725-40dc-811b-7504d090be38"},"vehicle_type_id":"4","last_reported":1734027239,"current_range_meters":1600,"station_id":"ce4bho92rcd13ifvqh3g","pricing_plan_id":"cebpf4jnsgd1na2vs0mg"},{"bike_id":"cc66f151-2460-4bd1-9c55-81df03cdad0d","system_id":"levelo_inurba_marseille","lat":43.30508,"lon":5.36894,"is_reserved":false,"is_disabled":true,"rental_uris":{"android":"levelo://app?vid=cc66f151-2460-4bd1-9c55-81df03cdad0d","ios":"levelo://app?vid=cc66f151-2460-4bd1-9c55-81df03cdad0d"},"vehicle_type_id":"4","last_reported":1734027239,"current_range_meters":800,"station_id":"","pricing_plan_id":"cebpf4jnsgd1na2vs0mg"},{"bike_id":"e299c1c0-aac0-40f8-8726-74baf3d247f0","system_id":"levelo_inurba_marseille","lat":43.26571,"lon":5.39006,"is_reserved":false,"is_disabled":false,"rental_uris":{"android":"levelo://app?vid=e299c1c0-aac0-40f8-8726-74baf3d247f0","ios":"levelo://app?vid=e299c1c0-aac0-40f8-8726-74baf3d247f0"},"vehicle_type_id":"4","last_reported":1734027239,"current_range_meters":34800,"station_id":"ce4bhe12rcd13ifvqf30","pricing_plan_id":"cebpf4jnsgd1na2vs0mg"},{"bike_id":"d3148480-0118-4460-90b5-07f095843da8","system_id":"levelo_inurba_marseille","lat":43.2468,"lon":5.3814,"is_reserved":false,"is_disabled":false,"rental_uris":{"android":"levelo://app?vid=d3148480-0118-4460-90b5-07f095843da8","ios":"levelo://app?vid=d3148480-0118-4460-90b5-07f095843da8"},"vehicle_type_id":"4","last_reported":1734027239,"current_range_meters":38800,"station_id":"ce4bhih2rcd13ifvqfr0","pricing_plan_id":"cebpf4jnsgd1na2vs0mg"},{"bike_id":"153b91d9-6761-4975-9f15-6379d54006a3","system_id":"levelo_inurba_marseille","lat":43.29424,"lon":5.38609,"is_reserved":false,"is_disabled":true,"rental_uris":{"android":"levelo://app?vid=153b91d9-6761-4975-9f15-6379d54006a3","ios":"levelo://app?vid=153b91d9-6761-4975-9f15-6379d54006a3"},"vehicle_type_id":"4","last_reported":1734027239,"current_range_meters":38800,"station_id":"ce4bh2h2rcd13ifvqdh0","pricing_plan_id":"cebpf4jnsgd1na2vs0mg"},{"bike_id":"899a013e-55c2-4fb3-9716-bd32e35c16c9","system_id":"levelo_inurba_marseille","lat":43.30907,"lon":5.36847,"is_reserved":false,"is_disabled":false,"rental_uris":{"android":"levelo://app?vid=899a013e-55c2-4fb3-9716-bd32e35c16c9","ios":"levelo://app?vid=899a013e-55c2-4fb3-9716-bd32e35c16c9"},"vehicle_type_id":"4","last_reported":1734027239,"current_range_meters":18800,"station_id":"ce4bgn92rcd13ifvqbvg","pricing_plan_id":"cebpf4jnsgd1na2vs0mg"},{"bike_id":"c68bbccf-8694-4cac-a9d3-c4ed3e9663a0","system_id":"levelo_inurba_marseille","lat":43.26943,"lon":5.40247,"is_reserved":false,"is_disabled":false,"rental_uris":{"android":"levelo://app?vid=c68bbccf-8694-4cac-a9d3-c4ed3e9663a0","ios":"levelo://app?vid=c68bbccf-8694-4cac-a9d3-c4ed3e9663a0"},"vehicle_type_id":"4","last_reported":1734027239,"current_range_meters":16800,"station_id":"cjm6bp8fraef2m0cb0m0","pricing_plan_id":"cebpf4jnsgd1na2vs0mg"},{"bike_id":"05b957a6-e027-4792-8009-def2e7286b61","system_id":"levelo_inurba_marseille","lat":43.31496,"lon":5.37396,"is_reserved":false,"is_disabled":false,"rental_uris":{"android":"levelo://app?vid=05b957a6-e027-4792-8009-def2e7286b61","ios":"levelo://app?vid=05b957a6-e027-4792-8009-def2e7286b61"},"vehicle_type_id":"4","last_reported":1734027239,"current_range_meters":12400,"station_id":"","pricing_plan_id":"cebpf4jnsgd1na2vs0mg"},{"bike_id":"9332f19c-96e3-47ac-8807-c5c2384614c0","system_id":"levelo_inurba_marseille","lat":43.23058,"lon":5.35487,"is_reserved":false,"is_disabled":false,"rental_uris":{"android":"levelo://app?vid=9332f19c-96e3-47ac-8807-c5c2384614c0","ios":"levelo://app?vid=9332f19c-96e3-47ac-8807-c5c2384614c0"},"vehicle_type_id":"4","last_reported":1734027239,"current_range_meters":10000,"station_id":"cpo3342slgdg3j2ifvpg","pricing_plan_id":"cebpf4jnsgd1na2vs0mg"},{"bike_id":"507a9668-9123-4b65-b9a1-3df80fdee677","system_id":"levelo_inurba_marseille","lat":43.306,"lon":5.39357,"is_reserved":false,"is_disabled":true,"rental_uris":{"android":"levelo://app?vid=507a9668-9123-4b65-b9a1-3df80fdee677","ios":"levelo://app?vid=507a9668-9123-4b65-b9a1-3df80fdee677"},"vehicle_type_id":"4","last_reported":1734027239,"current_range_meters":28000,"station_id":"ce4bh0p2rcd13ifvqd80","pricing_plan_id":"cebpf4jnsgd1na2vs0mg"},{"bike_id":"cf9cdbef-8cc1-4cc7-824a-a2ea22365d45","system_id":"levelo_inurba_marseille","lat":43.29517,"lon":5.39057,"is_reserved":false,"is_disabled":false,"rental_uris":{"android":"levelo://app?vid=cf9cdbef-8cc1-4cc7-824a-a2ea22365d45","ios":"levelo://app?vid=cf9cdbef-8cc1-4cc7-824a-a2ea22365d45"},"vehicle_type_id":"4","last_reported":1734027239,"current_range_meters":16000,"station_id":"ce4bh3p2rcd13ifvqdp0","pricing_plan_id":"cebpf4jnsgd1na2vs0mg"},{"bike_id":"a8942e43-f3d6-46fd-8576-2cc6b2787f3e","system_id":"levelo_inurba_marseille","lat":43.33026,"lon":5.39029,"is_reserved":false,"is_disabled":false,"rental_uris":{"android":"levelo://app?vid=a8942e43-f3d6-46fd-8576-2cc6b2787f3e","ios":"levelo://app?vid=a8942e43-f3d6-46fd-8576-2cc6b2787f3e"},"vehicle_type_id":"4","last_reported":1734027239,"current_range_meters":24000,"station_id":"ce4bhr92rcd13ifvqhrg","pricing_plan_id":"cebpf4jnsgd1na2vs0mg"},{"bike_id":"84682a94-758c-4345-a527-a3b3b78fb980","system_id":"levelo_inurba_marseille","lat":43.29265,"lon":5.38432,"is_reserved":false,"is_disabled":false,"rental_uris":{"android":"levelo://app?vid=84682a94-758c-4345-a527-a3b3b78fb980","ios":"levelo://app?vid=84682a94-758c-4345-a527-a3b3b78fb980"},"vehicle_type_id":"4","last_reported":1734027239,"current_range_meters":32800,"station_id":"ce4bh692rcd13ifvqea0","pricing_plan_id":"cebpf4jnsgd1na2vs0mg"},{"bike_id":"0f6184b4-b937-4df0-970e-36ce03cdba32","system_id":"levelo_inurba_marseille","lat":43.24651,"lon":5.38894,"is_reserved":false,"is_disabled":false,"rental_uris":{"android":"levelo://app?vid=0f6184b4-b937-4df0-970e-36ce03cdba32","ios":"levelo://app?vid=0f6184b4-b937-4df0-970e-36ce03cdba32"},"vehicle_type_id":"4","last_reported":1734027239,"current_range_meters":22800,"station_id":"ce4bhg12rcd13ifvqf60","pricing_plan_id":"cebpf4jnsgd1na2vs0mg"},{"bike_id":"208886c0-de2e-43ca-abbf-3e8665653f84","system_id":"levelo_inurba_marseille","lat":43.30419,"lon":5.3783,"is_reserved":false,"is_disabled":true,"rental_uris":{"android":"levelo://app?vid=208886c0-de2e-43ca-abbf-3e8665653f84","ios":"levelo://app?vid=208886c0-de2e-43ca-abbf-3e8665653f84"},"vehicle_type_id":"4","last_reported":1734027239,"current_range_meters":1200,"station_id":"","pricing_plan_id":"cebpf4jnsgd1na2vs0mg"},{"bike_id":"547ee225-3bb9-4420-a73c-bc355b21e705","system_id":"levelo_inurba_marseille","lat":43.31332,"lon":5.39705,"is_reserved":false,"is_disabled":false,"rental_uris":{"android":"levelo://app?vid=547ee225-3bb9-4420-a73c-bc355b21e705","ios":"levelo://app?vid=547ee225-3bb9-4420-a73c-bc355b21e705"},"vehicle_type_id":"4","last_reported":1734027239,"current_range_meters":39200,"station_id":"ce4bgvp2rcd13ifvqcu0","pricing_plan_id":"cebpf4jnsgd1na2vs0mg"},{"bike_id":"b9254bc7-fb14-45fb-9c01-07d90c2afe20","system_id":"levelo_inurba_marseille","lat":43.31326,"lon":5.3971,"is_reserved":false,"is_disabled":false,"rental_uris":{"android":"levelo://app?vid=b9254bc7-fb14-45fb-9c01-07d90c2afe20","ios":"levelo://app?vid=b9254bc7-fb14-45fb-9c01-07d90c2afe20"},"vehicle_type_id":"4","last_reported":1734027239,"current_range_meters":6000,"station_id":"ce4bgvp2rcd13ifvqcu0","pricing_plan_id":"cebpf4jnsgd1na2vs0mg"},{"bike_id":"36a6aaf7-7942-4cf8-a178-14100534e00e","system_id":"levelo_inurba_marseille","lat":43.28442,"lon":5.39178,"is_reserved":false,"is_disabled":true,"rental_uris":{"android":"levelo://app?vid=36a6aaf7-7942-4cf8-a178-14100534e00e","ios":"levelo://app?vid=36a6aaf7-7942-4cf8-a178-14100534e00e"},"vehicle_type_id":"4","last_reported":1734027239,"current_range_meters":32000,"station_id":"ce4bhoh2rcd13ifvqh5g","pricing_plan_id":"cebpf4jnsgd1na2vs0mg"},{"bike_id":"696b3385-94b5-456a-ab71-944440a62e81","system_id":"levelo_inurba_marseille","lat":43.29261,"lon":5.38439,"is_reserved":false,"is_disabled":false,"rental_uris":{"android":"levelo://app?vid=696b3385-94b5-456a-ab71-944440a62e81","ios":"levelo://app?vid=696b3385-94b5-456a-ab71-944440a62e81"},"vehicle_type_id":"4","last_reported":1734027239,"current_range_meters":14000,"station_id":"ce4bh692rcd13ifvqea0","pricing_plan_id":"cebpf4jnsgd1na2vs0mg"},{"bike_id":"06f66dfc-67e3-46bb-8e23-90ef22aa2f49","system_id":"levelo_inurba_marseille","lat":43.33041,"lon":5.39035,"is_reserved":false,"is_disabled":false,"rental_uris":{"android":"levelo://app?vid=06f66dfc-67e3-46bb-8e23-90ef22aa2f49","ios":"levelo://app?vid=06f66dfc-67e3-46bb-8e23-90ef22aa2f49"},"vehicle_type_id":"4","last_reported":1734027239,"current_range_meters":27600,"station_id":"ce4bhr92rcd13ifvqhrg","pricing_plan_id":"cebpf4jnsgd1na2vs0mg"},{"bike_id":"011f752a-1a6f-4a81-bef9-dc57be253340","system_id":"levelo_inurba_marseille","lat":43.273733,"lon":5.362573,"is_reserved":false,"is_disabled":false,"rental_uris":{"android":"levelo://app?vid=011f752a-1a6f-4a81-bef9-dc57be253340","ios":"levelo://app?vid=011f752a-1a6f-4a81-bef9-dc57be253340"},"vehicle_type_id":"4","last_reported":1734027239,"current_range_meters":38000,"station_id":"ce4bhbh2rcd13ifvqeo0","pricing_plan_id":"cebpf4jnsgd1na2vs0mg"},{"bike_id":"4d3a41f5-959c-4dbb-9d11-8fbbf2d6345c","system_id":"levelo_inurba_marseille","lat":43.26923,"lon":5.38907,"is_reserved":false,"is_disabled":false,"rental_uris":{"android":"levelo://app?vid=4d3a41f5-959c-4dbb-9d11-8fbbf2d6345c","ios":"levelo://app?vid=4d3a41f5-959c-4dbb-9d11-8fbbf2d6345c"},"vehicle_type_id":"4","last_reported":1734027239,"current_range_meters":26000,"station_id":"ce4bhhh2rcd13ifvqfl0","pricing_plan_id":"cebpf4jnsgd1na2vs0mg"},{"bike_id":"574f8e6d-35b6-46f8-85df-1e722f18f2b0","system_id":"levelo_inurba_marseille","lat":43.30353,"lon":5.41873,"is_reserved":false,"is_disabled":false,"rental_uris":{"android":"levelo://app?vid=574f8e6d-35b6-46f8-85df-1e722f18f2b0","ios":"levelo://app?vid=574f8e6d-35b6-46f8-85df-1e722f18f2b0"},"vehicle_type_id":"4","last_reported":1734027239,"current_range_meters":6800,"station_id":"ce4bhop2rcd13ifvqh7g","pricing_plan_id":"cebpf4jnsgd1na2vs0mg"},{"bike_id":"14845a8f-c0c8-4311-843d-ef820014914a","system_id":"levelo_inurba_marseille","lat":43.26807,"lon":5.40274,"is_reserved":false,"is_disabled":true,"rental_uris":{"android":"levelo://app?vid=14845a8f-c0c8-4311-843d-ef820014914a","ios":"levelo://app?vid=14845a8f-c0c8-4311-843d-ef820014914a"},"vehicle_type_id":"4","last_reported":1734027239,"current_range_meters":0,"station_id":"ce501612rcd8frsf0b60","pricing_plan_id":"cebpf4jnsgd1na2vs0mg"},{"bike_id":"dd643bc6-5b37-42ec-9cd1-25f6f7772e52","system_id":"levelo_inurba_marseille","lat":43.31756,"lon":5.39021,"is_reserved":false,"is_disabled":true,"rental_uris":{"android":"levelo://app?vid=dd643bc6-5b37-42ec-9cd1-25f6f7772e52","ios":"levelo://app?vid=dd643bc6-5b37-42ec-9cd1-25f6f7772e52"},"vehicle_type_id":"4","last_reported":1734027239,"current_range_meters":36400,"station_id":"ce4bhqp2rcd13ifvqhng","pricing_plan_id":"cebpf4jnsgd1na2vs0mg"},{"bike_id":"b65c3b52-4fb4-4697-9d1e-b9c5d5d27b08","system_id":"levelo_inurba_marseille","lat":43.29425,"lon":5.3862,"is_reserved":false,"is_disabled":false,"rental_uris":{"android":"levelo://app?vid=b65c3b52-4fb4-4697-9d1e-b9c5d5d27b08","ios":"levelo://app?vid=b65c3b52-4fb4-4697-9d1e-b9c5d5d27b08"},"vehicle_type_id":"4","last_reported":1734027239,"current_range_meters":20000,"station_id":"ce4bh2h2rcd13ifvqdh0","pricing_plan_id":"cebpf4jnsgd1na2vs0mg"},{"bike_id":"e738fcc8-c725-46f1-b7fe-8f522bd56ad4","system_id":"levelo_inurba_marseille","lat":43.22932,"lon":5.35375,"is_reserved":false,"is_disabled":false,"rental_uris":{"android":"levelo://app?vid=e738fcc8-c725-46f1-b7fe-8f522bd56ad4","ios":"levelo://app?vid=e738fcc8-c725-46f1-b7fe-8f522bd56ad4"},"vehicle_type_id":"4","last_reported":1734027239,"current_range_meters":8800,"station_id":"cpo3532slgdg3j2ikp40","pricing_plan_id":"cebpf4jnsgd1na2vs0mg"},{"bike_id":"2dfa098f-3bf6-4129-87c7-bf67fea012f6","system_id":"levelo_inurba_marseille","lat":43.30187,"lon":5.3661,"is_reserved":false,"is_disabled":false,"rental_uris":{"android":"levelo://app?vid=2dfa098f-3bf6-4129-87c7-bf67fea012f6","ios":"levelo://app?vid=2dfa098f-3bf6-4129-87c7-bf67fea012f6"},"vehicle_type_id":"4","last_reported":1734027239,"current_range_meters":9200,"station_id":"ce4bgrh2rcd13ifvqc8g","pricing_plan_id":"cebpf4jnsgd1na2vs0mg"},{"bike_id":"280acb0d-18ba-4f3c-8666-d9bb1f9c0a8b","system_id":"levelo_inurba_marseille","lat":43.32291,"lon":5.3827,"is_reserved":false,"is_disabled":false,"rental_uris":{"android":"levelo://app?vid=280acb0d-18ba-4f3c-8666-d9bb1f9c0a8b","ios":"levelo://app?vid=280acb0d-18ba-4f3c-8666-d9bb1f9c0a8b"},"vehicle_type_id":"4","last_reported":1734027239,"current_range_meters":34800,"station_id":"ce4bhr12rcd13ifvqhqg","pricing_plan_id":"cebpf4jnsgd1na2vs0mg"},{"bike_id":"7965bd8b-65b9-4460-9e65-36f253ebc53b","system_id":"levelo_inurba_marseille","lat":43.32054,"lon":5.41513,"is_reserved":false,"is_disabled":false,"rental_uris":{"android":"levelo://app?vid=7965bd8b-65b9-4460-9e65-36f253ebc53b","ios":"levelo://app?vid=7965bd8b-65b9-4460-9e65-36f253ebc53b"},"vehicle_type_id":"4","last_reported":1734027239,"current_range_meters":26800,"station_id":"ce4bhq92rcd13ifvqhkg","pricing_plan_id":"cebpf4jnsgd1na2vs0mg"},{"bike_id":"84ddb806-aa72-4d60-a864-ce9d12392ed2","system_id":"levelo_inurba_marseille","lat":43.29958,"lon":5.4132,"is_reserved":false,"is_disabled":false,"rental_uris":{"android":"levelo://app?vid=84ddb806-aa72-4d60-a864-ce9d12392ed2","ios":"levelo://app?vid=84ddb806-aa72-4d60-a864-ce9d12392ed2"},"vehicle_type_id":"4","last_reported":1734027239,"current_range_meters":14000,"station_id":"ce4bhp12rcd13ifvqh9g","pricing_plan_id":"cebpf4jnsgd1na2vs0mg"},{"bike_id":"d688bcf5-c1fe-4710-a773-782871a1825b","system_id":"levelo_inurba_marseille","lat":43.23178,"lon":5.39987,"is_reserved":false,"is_disabled":false,"rental_uris":{"android":"levelo://app?vid=d688bcf5-c1fe-4710-a773-782871a1825b","ios":"levelo://app?vid=d688bcf5-c1fe-4710-a773-782871a1825b"},"vehicle_type_id":"4","last_reported":1734027239,"current_range_meters":18800,"station_id":"ce4bhn12rcd13ifvqgqg","pricing_plan_id":"cebpf4jnsgd1na2vs0mg"},{"bike_id":"467a8ed9-8f9d-4f9c-a7a2-b2a4bc21bd4a","system_id":"levelo_inurba_marseille","lat":43.24656,"lon":5.3889,"is_reserved":false,"is_disabled":false,"rental_uris":{"android":"levelo://app?vid=467a8ed9-8f9d-4f9c-a7a2-b2a4bc21bd4a","ios":"levelo://app?vid=467a8ed9-8f9d-4f9c-a7a2-b2a4bc21bd4a"},"vehicle_type_id":"4","last_reported":1734027239,"current_range_meters":35200,"station_id":"ce4bhg12rcd13ifvqf60","pricing_plan_id":"cebpf4jnsgd1na2vs0mg"},{"bike_id":"3f376398-b9b7-4419-aed9-9595c8c18ff6","system_id":"levelo_inurba_marseille","lat":43.29553,"lon":5.42282,"is_reserved":false,"is_disabled":false,"rental_uris":{"android":"levelo://app?vid=3f376398-b9b7-4419-aed9-9595c8c18ff6","ios":"levelo://app?vid=3f376398-b9b7-4419-aed9-9595c8c18ff6"},"vehicle_type_id":"4","last_reported":1734027239,"current_range_meters":38000,"station_id":"ce4bhph2rcd13ifvqhdg","pricing_plan_id":"cebpf4jnsgd1na2vs0mg"},{"bike_id":"cd310349-e3f2-443c-8f0f-42df3ae9f687","system_id":"levelo_inurba_marseille","lat":43.28082,"lon":5.39664,"is_reserved":false,"is_disabled":false,"rental_uris":{"android":"levelo://app?vid=cd310349-e3f2-443c-8f0f-42df3ae9f687","ios":"levelo://app?vid=cd310349-e3f2-443c-8f0f-42df3ae9f687"},"vehicle_type_id":"4","last_reported":1734027239,"current_range_meters":8800,"station_id":"ce4bho12rcd13ifvqh2g","pricing_plan_id":"cebpf4jnsgd1na2vs0mg"},{"bike_id":"a5589391-a7e4-412b-9a87-f917b2322580","system_id":"levelo_inurba_marseille","lat":43.23071,"lon":5.35485,"is_reserved":false,"is_disabled":false,"rental_uris":{"android":"levelo://app?vid=a5589391-a7e4-412b-9a87-f917b2322580","ios":"levelo://app?vid=a5589391-a7e4-412b-9a87-f917b2322580"},"vehicle_type_id":"4","last_reported":1734027239,"current_range_meters":12000,"station_id":"cpo3342slgdg3j2ifvpg","pricing_plan_id":"cebpf4jnsgd1na2vs0mg"},{"bike_id":"103e9cb3-a529-4d55-b047-75adf6d60c18","system_id":"levelo_inurba_marseille","lat":43.27967,"lon":5.39916,"is_reserved":false,"is_disabled":true,"rental_uris":{"android":"levelo://app?vid=103e9cb3-a529-4d55-b047-75adf6d60c18","ios":"levelo://app?vid=103e9cb3-a529-4d55-b047-75adf6d60c18"},"vehicle_type_id":"4","last_reported":1734027239,"current_range_meters":0,"station_id":"","pricing_plan_id":"cebpf4jnsgd1na2vs0mg"},{"bike_id":"2ba712f9-e92f-42ff-9886-5e06a6947236","system_id":"levelo_inurba_marseille","lat":43.29038,"lon":5.37613,"is_reserved":false,"is_disabled":false,"rental_uris":{"android":"levelo://app?vid=2ba712f9-e92f-42ff-9886-5e06a6947236","ios":"levelo://app?vid=2ba712f9-e92f-42ff-9886-5e06a6947236"},"vehicle_type_id":"4","last_reported":1734027239,"current_range_meters":25200,"station_id":"ce4bh692rcd13ifvqe90","pricing_plan_id":"cebpf4jnsgd1na2vs0mg"},{"bike_id":"a6742d3f-23a0-403f-9dd0-630f9abdd0c0","system_id":"levelo_inurba_marseille","lat":43.33021,"lon":5.39042,"is_reserved":false,"is_disabled":false,"rental_uris":{"android":"levelo://app?vid=a6742d3f-23a0-403f-9dd0-630f9abdd0c0","ios":"levelo://app?vid=a6742d3f-23a0-403f-9dd0-630f9abdd0c0"},"vehicle_type_id":"4","last_reported":1734027239,"current_range_meters":34800,"station_id":"ce4bhr92rcd13ifvqhrg","pricing_plan_id":"cebpf4jnsgd1na2vs0mg"},{"bike_id":"7f218b15-e3fc-43c4-8703-acd68250579b","system_id":"levelo_inurba_marseille","lat":43.337444,"lon":5.374475,"is_reserved":false,"is_disabled":false,"rental_uris":{"android":"levelo://app?vid=7f218b15-e3fc-43c4-8703-acd68250579b","ios":"levelo://app?vid=7f218b15-e3fc-43c4-8703-acd68250579b"},"vehicle_type_id":"4","last_reported":1734027239,"current_range_meters":32800,"station_id":"","pricing_plan_id":"cebpf4jnsgd1na2vs0mg"},{"bike_id":"5cd0227d-828f-4635-a4e6-90752f4b4e94","system_id":"levelo_inurba_marseille","lat":43.29194,"lon":5.35795,"is_reserved":false,"is_disabled":true,"rental_uris":{"android":"levelo://app?vid=5cd0227d-828f-4635-a4e6-90752f4b4e94","ios":"levelo://app?vid=5cd0227d-828f-4635-a4e6-90752f4b4e94"},"vehicle_type_id":"4","last_reported":1734027239,"current_range_meters":38800,"station_id":"ce4bhb12rcd13ifvqel0","pricing_plan_id":"cebpf4jnsgd1na2vs0mg"},{"bike_id":"bf26ba67-e67a-47f2-aeb5-22efb7770553","system_id":"levelo_inurba_marseille","lat":43.28613,"lon":5.35098,"is_reserved":false,"is_disabled":true,"rental_uris":{"android":"levelo://app?vid=bf26ba67-e67a-47f2-aeb5-22efb7770553","ios":"levelo://app?vid=bf26ba67-e67a-47f2-aeb5-22efb7770553"},"vehicle_type_id":"4","last_reported":1734027239,"current_range_meters":32800,"station_id":"ce4bhch2rcd13ifvqeug","pricing_plan_id":"cebpf4jnsgd1na2vs0mg"},{"bike_id":"1edcb435-be97-41f8-aa8c-4a20808cef7c","system_id":"levelo_inurba_marseille","lat":43.26816,"lon":5.40238,"is_reserved":false,"is_disabled":false,"rental_uris":{"android":"levelo://app?vid=1edcb435-be97-41f8-aa8c-4a20808cef7c","ios":"levelo://app?vid=1edcb435-be97-41f8-aa8c-4a20808cef7c"},"vehicle_type_id":"4","last_reported":1734027239,"current_range_meters":8400,"station_id":"ce501612rcd8frsf0b60","pricing_plan_id":"cebpf4jnsgd1na2vs0mg"},{"bike_id":"79efbb5a-a5a0-4710-a47a-ff1244106665","system_id":"levelo_inurba_marseille","lat":43.29529,"lon":5.38545,"is_reserved":false,"is_disabled":true,"rental_uris":{"android":"levelo://app?vid=79efbb5a-a5a0-4710-a47a-ff1244106665","ios":"levelo://app?vid=79efbb5a-a5a0-4710-a47a-ff1244106665"},"vehicle_type_id":"4","last_reported":1734027239,"current_range_meters":800,"station_id":"ce4bgih2rcd13ifvqba0","pricing_plan_id":"cebpf4jnsgd1na2vs0mg"},{"bike_id":"61df4582-7c9f-489e-b7da-d6a0cfdcd7c7","system_id":"levelo_inurba_marseille","lat":43.28656,"lon":5.36355,"is_reserved":false,"is_disabled":true,"rental_uris":{"android":"levelo://app?vid=61df4582-7c9f-489e-b7da-d6a0cfdcd7c7","ios":"levelo://app?vid=61df4582-7c9f-489e-b7da-d6a0cfdcd7c7"},"vehicle_type_id":"4","last_reported":1734027239,"current_range_meters":0,"station_id":"ce4bhah2rcd13ifvqej0","pricing_plan_id":"cebpf4jnsgd1na2vs0mg"},{"bike_id":"101f11c0-d0df-4db7-8cbf-d437ee429d15","system_id":"levelo_inurba_marseille","lat":43.33025,"lon":5.39044,"is_reserved":false,"is_disabled":true,"rental_uris":{"android":"levelo://app?vid=101f11c0-d0df-4db7-8cbf-d437ee429d15","ios":"levelo://app?vid=101f11c0-d0df-4db7-8cbf-d437ee429d15"},"vehicle_type_id":"4","last_reported":1734027239,"current_range_meters":0,"station_id":"ce4bhr92rcd13ifvqhrg","pricing_plan_id":"cebpf4jnsgd1na2vs0mg"},{"bike_id":"48e7288e-0cc6-46e9-9ee6-76af6cec7f10","system_id":"levelo_inurba_marseille","lat":43.31167,"lon":5.38718,"is_reserved":false,"is_disabled":true,"rental_uris":{"android":"levelo://app?vid=48e7288e-0cc6-46e9-9ee6-76af6cec7f10","ios":"levelo://app?vid=48e7288e-0cc6-46e9-9ee6-76af6cec7f10"},"vehicle_type_id":"4","last_reported":1734027239,"current_range_meters":0,"station_id":"ce4bgv12rcd13ifvqcp0","pricing_plan_id":"cebpf4jnsgd1na2vs0mg"},{"bike_id":"ddaedf4d-493c-4aa9-9d24-bb7f618ed1a9","system_id":"levelo_inurba_marseille","lat":43.30302,"lon":5.392,"is_reserved":false,"is_disabled":true,"rental_uris":{"android":"levelo://app?vid=ddaedf4d-493c-4aa9-9d24-bb7f618ed1a9","ios":"levelo://app?vid=ddaedf4d-493c-4aa9-9d24-bb7f618ed1a9"},"vehicle_type_id":"4","last_reported":1734027239,"current_range_meters":34000,"station_id":"ce4bgkh2rcd13ifvqbk0","pricing_plan_id":"cebpf4jnsgd1na2vs0mg"},{"bike_id":"ca3bf6a0-806c-4046-b219-bbea4c2ba646","system_id":"levelo_inurba_marseille","lat":43.23192,"lon":5.35549,"is_reserved":false,"is_disabled":false,"rental_uris":{"android":"levelo://app?vid=ca3bf6a0-806c-4046-b219-bbea4c2ba646","ios":"levelo://app?vid=ca3bf6a0-806c-4046-b219-bbea4c2ba646"},"vehicle_type_id":"4","last_reported":1734027239,"current_range_meters":38800,"station_id":"ce4bhu92rcd13ifvqi70","pricing_plan_id":"cebpf4jnsgd1na2vs0mg"},{"bike_id":"68eba3cf-a59b-44c7-b5f7-69152b212857","system_id":"levelo_inurba_marseille","lat":43.24648,"lon":5.38892,"is_reserved":false,"is_disabled":false,"rental_uris":{"android":"levelo://app?vid=68eba3cf-a59b-44c7-b5f7-69152b212857","ios":"levelo://app?vid=68eba3cf-a59b-44c7-b5f7-69152b212857"},"vehicle_type_id":"4","last_reported":1734027239,"current_range_meters":13600,"station_id":"ce4bhg12rcd13ifvqf60","pricing_plan_id":"cebpf4jnsgd1na2vs0mg"},{"bike_id":"8d66bec7-f1de-4dd5-b83d-4ea1df8e3039","system_id":"levelo_inurba_marseille","lat":43.269385,"lon":5.402535,"is_reserved":false,"is_disabled":false,"rental_uris":{"android":"levelo://app?vid=8d66bec7-f1de-4dd5-b83d-4ea1df8e3039","ios":"levelo://app?vid=8d66bec7-f1de-4dd5-b83d-4ea1df8e3039"},"vehicle_type_id":"4","last_reported":1734027239,"current_range_meters":6400,"station_id":"cjm6bp8fraef2m0cb0m0","pricing_plan_id":"cebpf4jnsgd1na2vs0mg"},{"bike_id":"46b2fdec-0870-4ae2-84dc-b1f57512351e","system_id":"levelo_inurba_marseille","lat":43.337444,"lon":5.374475,"is_reserved":false,"is_disabled":true,"rental_uris":{"android":"levelo://app?vid=46b2fdec-0870-4ae2-84dc-b1f57512351e","ios":"levelo://app?vid=46b2fdec-0870-4ae2-84dc-b1f57512351e"},"vehicle_type_id":"4","last_reported":1734027239,"current_range_meters":0,"station_id":"","pricing_plan_id":"cebpf4jnsgd1na2vs0mg"},{"bike_id":"ad8a8566-76f1-486f-a5c3-1b919241c9cc","system_id":"levelo_inurba_marseille","lat":43.30798,"lon":5.43514,"is_reserved":false,"is_disabled":true,"rental_uris":{"android":"levelo://app?vid=ad8a8566-76f1-486f-a5c3-1b919241c9cc","ios":"levelo://app?vid=ad8a8566-76f1-486f-a5c3-1b919241c9cc"},"vehicle_type_id":"4","last_reported":1734027239,"current_range_meters":800,"station_id":"ce4bhph2rcd13ifvqheg","pricing_plan_id":"cebpf4jnsgd1na2vs0mg"},{"bike_id":"cbe01e99-0ff7-479e-ac8d-a89f5a65b0d8","system_id":"levelo_inurba_marseille","lat":43.25579,"lon":5.3823,"is_reserved":false,"is_disabled":false,"rental_uris":{"android":"levelo://app?vid=cbe01e99-0ff7-479e-ac8d-a89f5a65b0d8","ios":"levelo://app?vid=cbe01e99-0ff7-479e-ac8d-a89f5a65b0d8"},"vehicle_type_id":"4","last_reported":1734027239,"current_range_meters":38800,"station_id":"ce4bhih2rcd13ifvqfs0","pricing_plan_id":"cebpf4jnsgd1na2vs0mg"},{"bike_id":"0fb22192-fcc5-4b0f-9072-972f99ce3b28","system_id":"levelo_inurba_marseille","lat":43.28414,"lon":5.37503,"is_reserved":false,"is_disabled":false,"rental_uris":{"android":"levelo://app?vid=0fb22192-fcc5-4b0f-9072-972f99ce3b28","ios":"levelo://app?vid=0fb22192-fcc5-4b0f-9072-972f99ce3b28"},"vehicle_type_id":"4","last_reported":1734027239,"current_range_meters":10800,"station_id":"ce4bh412rcd13ifvqds0","pricing_plan_id":"cebpf4jnsgd1na2vs0mg"},{"bike_id":"aba79769-f1db-48ab-b9f5-45c8990bee62","system_id":"levelo_inurba_marseille","lat":43.29043,"lon":5.3588,"is_reserved":false,"is_disabled":false,"rental_uris":{"android":"levelo://app?vid=aba79769-f1db-48ab-b9f5-45c8990bee62","ios":"levelo://app?vid=aba79769-f1db-48ab-b9f5-45c8990bee62"},"vehicle_type_id":"4","last_reported":1734027239,"current_range_meters":26800,"station_id":"ce4bha92rcd13ifvqeg0","pricing_plan_id":"cebpf4jnsgd1na2vs0mg"},{"bike_id":"f3192379-2793-4fbb-a524-8e87d8d08a29","system_id":"levelo_inurba_marseille","lat":43.27955,"lon":5.41039,"is_reserved":false,"is_disabled":true,"rental_uris":{"android":"levelo://app?vid=f3192379-2793-4fbb-a524-8e87d8d08a29","ios":"levelo://app?vid=f3192379-2793-4fbb-a524-8e87d8d08a29"},"vehicle_type_id":"4","last_reported":1734027239,"current_range_meters":800,"station_id":"ce4bhnp2rcd13ifvqh0g","pricing_plan_id":"cebpf4jnsgd1na2vs0mg"},{"bike_id":"d1c02024-3ea7-4d90-9be2-e9bf0c186c91","system_id":"levelo_inurba_marseille","lat":43.29848,"lon":5.36284,"is_reserved":false,"is_disabled":false,"rental_uris":{"android":"levelo://app?vid=d1c02024-3ea7-4d90-9be2-e9bf0c186c91","ios":"levelo://app?vid=d1c02024-3ea7-4d90-9be2-e9bf0c186c91"},"vehicle_type_id":"4","last_reported":1734027239,"current_range_meters":38800,"station_id":"ce4bgpp2rcd13ifvqc3g","pricing_plan_id":"cebpf4jnsgd1na2vs0mg"},{"bike_id":"69ef6e13-6d74-4067-a25e-0d94d6f9f54f","system_id":"levelo_inurba_marseille","lat":43.25587,"lon":5.3823,"is_reserved":false,"is_disabled":false,"rental_uris":{"android":"levelo://app?vid=69ef6e13-6d74-4067-a25e-0d94d6f9f54f","ios":"levelo://app?vid=69ef6e13-6d74-4067-a25e-0d94d6f9f54f"},"vehicle_type_id":"4","last_reported":1734027239,"current_range_meters":38800,"station_id":"ce4bhih2rcd13ifvqfs0","pricing_plan_id":"cebpf4jnsgd1na2vs0mg"},{"bike_id":"ae5f0248-833d-4835-9338-a9af76715786","system_id":"levelo_inurba_marseille","lat":43.29366,"lon":5.37843,"is_reserved":false,"is_disabled":false,"rental_uris":{"android":"levelo://app?vid=ae5f0248-833d-4835-9338-a9af76715786","ios":"levelo://app?vid=ae5f0248-833d-4835-9338-a9af76715786"},"vehicle_type_id":"4","last_reported":1734027239,"current_range_meters":12800,"station_id":"ce4bgjh2rcd13ifvqbf0","pricing_plan_id":"cebpf4jnsgd1na2vs0mg"},{"bike_id":"2448f112-093b-44a4-8c49-c482af2ba024","system_id":"levelo_inurba_marseille","lat":43.23082,"lon":5.35472,"is_reserved":false,"is_disabled":false,"rental_uris":{"android":"levelo://app?vid=2448f112-093b-44a4-8c49-c482af2ba024","ios":"levelo://app?vid=2448f112-093b-44a4-8c49-c482af2ba024"},"vehicle_type_id":"4","last_reported":1734027239,"current_range_meters":30000,"station_id":"cpo3342slgdg3j2ifvpg","pricing_plan_id":"cebpf4jnsgd1na2vs0mg"},{"bike_id":"dedcfdb0-6537-4a9d-bc26-22b9e221661e","system_id":"levelo_inurba_marseille","lat":43.30152,"lon":5.37408,"is_reserved":false,"is_disabled":true,"rental_uris":{"android":"levelo://app?vid=dedcfdb0-6537-4a9d-bc26-22b9e221661e","ios":"levelo://app?vid=dedcfdb0-6537-4a9d-bc26-22b9e221661e"},"vehicle_type_id":"4","last_reported":1734027239,"current_range_meters":26800,"station_id":"ce4bgs92rcd13ifvqcc0","pricing_plan_id":"cebpf4jnsgd1na2vs0mg"},{"bike_id":"0de08381-6215-4d2e-9e86-f25f01a5a905","system_id":"levelo_inurba_marseille","lat":43.30938,"lon":5.40141,"is_reserved":false,"is_disabled":false,"rental_uris":{"android":"levelo://app?vid=0de08381-6215-4d2e-9e86-f25f01a5a905","ios":"levelo://app?vid=0de08381-6215-4d2e-9e86-f25f01a5a905"},"vehicle_type_id":"4","last_reported":1734027239,"current_range_meters":38800,"station_id":"ce4bgvp2rcd13ifvqct0","pricing_plan_id":"cebpf4jnsgd1na2vs0mg"},{"bike_id":"728c249b-c3e3-487a-83e2-143535ab34ea","system_id":"levelo_inurba_marseille","lat":43.29266,"lon":5.38436,"is_reserved":false,"is_disabled":false,"rental_uris":{"android":"levelo://app?vid=728c249b-c3e3-487a-83e2-143535ab34ea","ios":"levelo://app?vid=728c249b-c3e3-487a-83e2-143535ab34ea"},"vehicle_type_id":"4","last_reported":1734027239,"current_range_meters":32800,"station_id":"ce4bh692rcd13ifvqea0","pricing_plan_id":"cebpf4jnsgd1na2vs0mg"},{"bike_id":"6d05f7ba-808a-4403-b1f3-f8483fec843c","system_id":"levelo_inurba_marseille","lat":43.23195,"lon":5.35556,"is_reserved":false,"is_disabled":false,"rental_uris":{"android":"levelo://app?vid=6d05f7ba-808a-4403-b1f3-f8483fec843c","ios":"levelo://app?vid=6d05f7ba-808a-4403-b1f3-f8483fec843c"},"vehicle_type_id":"4","last_reported":1734027239,"current_range_meters":30400,"station_id":"ce4bhu92rcd13ifvqi70","pricing_plan_id":"cebpf4jnsgd1na2vs0mg"},{"bike_id":"5b216ce0-5fe7-4327-a32a-feac1a44ddf5","system_id":"levelo_inurba_marseille","lat":43.27958,"lon":5.38717,"is_reserved":false,"is_disabled":true,"rental_uris":{"android":"levelo://app?vid=5b216ce0-5fe7-4327-a32a-feac1a44ddf5","ios":"levelo://app?vid=5b216ce0-5fe7-4327-a32a-feac1a44ddf5"},"vehicle_type_id":"4","last_reported":1734027239,"current_range_meters":26800,"station_id":"ce4bhg12rcd13ifvqf80","pricing_plan_id":"cebpf4jnsgd1na2vs0mg"},{"bike_id":"33facd5e-5de2-474a-a3f3-c451aa59912c","system_id":"levelo_inurba_marseille","lat":43.29889,"lon":5.38899,"is_reserved":false,"is_disabled":false,"rental_uris":{"android":"levelo://app?vid=33facd5e-5de2-474a-a3f3-c451aa59912c","ios":"levelo://app?vid=33facd5e-5de2-474a-a3f3-c451aa59912c"},"vehicle_type_id":"4","last_reported":1734027239,"current_range_meters":16400,"station_id":"ce4bh392rcd13ifvqdl0","pricing_plan_id":"cebpf4jnsgd1na2vs0mg"},{"bike_id":"88ddbd8b-666d-446e-883e-59a43dfe1802","system_id":"levelo_inurba_marseille","lat":43.23164,"lon":5.43725,"is_reserved":false,"is_disabled":false,"rental_uris":{"android":"levelo://app?vid=88ddbd8b-666d-446e-883e-59a43dfe1802","ios":"levelo://app?vid=88ddbd8b-666d-446e-883e-59a43dfe1802"},"vehicle_type_id":"4","last_reported":1734027239,"current_range_meters":8800,"station_id":"ce4bhmp2rcd13ifvqgog","pricing_plan_id":"cebpf4jnsgd1na2vs0mg"},{"bike_id":"fb19e513-dfa4-4192-8001-fec74e7ffca2","system_id":"levelo_inurba_marseille","lat":43.3133,"lon":5.39691,"is_reserved":false,"is_disabled":false,"rental_uris":{"android":"levelo://app?vid=fb19e513-dfa4-4192-8001-fec74e7ffca2","ios":"levelo://app?vid=fb19e513-dfa4-4192-8001-fec74e7ffca2"},"vehicle_type_id":"4","last_reported":1734027239,"current_range_meters":34000,"station_id":"ce4bgvp2rcd13ifvqcu0","pricing_plan_id":"cebpf4jnsgd1na2vs0mg"},{"bike_id":"b9ae2981-3d7f-4716-a9f4-023f5f75451c","system_id":"levelo_inurba_marseille","lat":43.2808,"lon":5.39647,"is_reserved":false,"is_disabled":false,"rental_uris":{"android":"levelo://app?vid=b9ae2981-3d7f-4716-a9f4-023f5f75451c","ios":"levelo://app?vid=b9ae2981-3d7f-4716-a9f4-023f5f75451c"},"vehicle_type_id":"4","last_reported":1734027239,"current_range_meters":29600,"station_id":"ce4bho12rcd13ifvqh2g","pricing_plan_id":"cebpf4jnsgd1na2vs0mg"},{"bike_id":"9c8c1480-9ffa-4086-913c-c2125a6eb848","system_id":"levelo_inurba_marseille","lat":43.22933,"lon":5.35378,"is_reserved":false,"is_disabled":false,"rental_uris":{"android":"levelo://app?vid=9c8c1480-9ffa-4086-913c-c2125a6eb848","ios":"levelo://app?vid=9c8c1480-9ffa-4086-913c-c2125a6eb848"},"vehicle_type_id":"4","last_reported":1734027239,"current_range_meters":36400,"station_id":"cpo3532slgdg3j2ikp40","pricing_plan_id":"cebpf4jnsgd1na2vs0mg"},{"bike_id":"36e3e8e1-fc32-422a-b5e3-28c73d9175ee","system_id":"levelo_inurba_marseille","lat":43.2808,"lon":5.39659,"is_reserved":false,"is_disabled":true,"rental_uris":{"android":"levelo://app?vid=36e3e8e1-fc32-422a-b5e3-28c73d9175ee","ios":"levelo://app?vid=36e3e8e1-fc32-422a-b5e3-28c73d9175ee"},"vehicle_type_id":"4","last_reported":1734027239,"current_range_meters":1600,"station_id":"ce4bho12rcd13ifvqh2g","pricing_plan_id":"cebpf4jnsgd1na2vs0mg"},{"bike_id":"3e5e7259-e859-4bde-9ae1-44575ec429f8","system_id":"levelo_inurba_marseille","lat":43.28412,"lon":5.3751,"is_reserved":false,"is_disabled":false,"rental_uris":{"android":"levelo://app?vid=3e5e7259-e859-4bde-9ae1-44575ec429f8","ios":"levelo://app?vid=3e5e7259-e859-4bde-9ae1-44575ec429f8"},"vehicle_type_id":"4","last_reported":1734027239,"current_range_meters":25600,"station_id":"ce4bh412rcd13ifvqds0","pricing_plan_id":"cebpf4jnsgd1na2vs0mg"},{"bike_id":"2edcd021-cde1-4fb0-9e43-6279930c08d2","system_id":"levelo_inurba_marseille","lat":43.32544,"lon":5.41458,"is_reserved":false,"is_disabled":true,"rental_uris":{"android":"levelo://app?vid=2edcd021-cde1-4fb0-9e43-6279930c08d2","ios":"levelo://app?vid=2edcd021-cde1-4fb0-9e43-6279930c08d2"},"vehicle_type_id":"4","last_reported":1734027239,"current_range_meters":0,"station_id":"ce4bhq12rcd13ifvqhhg","pricing_plan_id":"cebpf4jnsgd1na2vs0mg"},{"bike_id":"2444cfeb-efe3-4f70-ab10-5cf40fe0d8e8","system_id":"levelo_inurba_marseille","lat":43.29172,"lon":5.37143,"is_reserved":false,"is_disabled":false,"rental_uris":{"android":"levelo://app?vid=2444cfeb-efe3-4f70-ab10-5cf40fe0d8e8","ios":"levelo://app?vid=2444cfeb-efe3-4f70-ab10-5cf40fe0d8e8"},"vehicle_type_id":"4","last_reported":1734027239,"current_range_meters":20400,"station_id":"ce4bha92rcd13ifvqeh0","pricing_plan_id":"cebpf4jnsgd1na2vs0mg"},{"bike_id":"8e139535-c232-45d9-a4ae-bc43a5c40606","system_id":"levelo_inurba_marseille","lat":43.28701,"lon":5.37399,"is_reserved":false,"is_disabled":true,"rental_uris":{"android":"levelo://app?vid=8e139535-c232-45d9-a4ae-bc43a5c40606","ios":"levelo://app?vid=8e139535-c232-45d9-a4ae-bc43a5c40606"},"vehicle_type_id":"4","last_reported":1734027239,"current_range_meters":32400,"station_id":"ce4bh3p2rcd13ifvqdq0","pricing_plan_id":"cebpf4jnsgd1na2vs0mg"},