{"last_updated":1739358442,"ttl":60,"version":"2.2","data":{"bikes":[{"bike_id":"9ae4959d-6de9-4c98-bb63-3a430a52595d","system_id":"levelo_inurba_marseille","lat":43.31346,"lon":5.3673,"is_reserved":false,"is_disabled":false,"rental_uris":{"android":"levelo://app?vid=9ae4959d-6de9-4c98-bb63-3a430a52595d","ios":"levelo://app?vid=9ae4959d-6de9-4c98-bb63-3a430a52595d"},"vehicle_type_id":"4","last_reported":1739358442,"current_range_meters":18000,"station_id":"ce4bgr92rcd13ifvqc6g","pricing_plan_id":"cebpf4jnsgd1na2vs0mg"},{"bike_id":"2497365b-9ec2-4685-a24e-2e493a29480a","system_id":"levelo_inurba_marseille","lat":43.28473,"lon":5.38423,"is_reserved":false,"is_disabled":false,"rental_uris":{"android":"levelo://app?vid=2497365b-9ec2-4685-a24e-2e493a29480a","ios":"levelo://app?vid=2497365b-9ec2-4685-a24e-2e493a29480a"},"vehicle_type_id":"4","last_reported":1739358442,"current_range_meters":26000,"station_id":"ce4bh512rcd13ifvqe3g","pricing_plan_id":"cebpf4jnsgd1na2vs0mg"},{"bike_id":"7803dd1a-a242-4883-848b-e4cbfccf197b","system_id":"levelo_inurba_marseille","lat":43.31364,"lon":5.36788,"is_reserved":false,"is_disabled":false,"rental_uris":{"android":"levelo://app?vid=7803dd1a-a242-4883-848b-e4cbfccf197b","ios":"levelo://app?vid=7803dd1a-a242-4883-848b-e4cbfccf197b"},"vehicle_type_id":"4","last_reported":1739358442,"current_range_meters":9200,"station_id":"","pricing_plan_id":"cebpf4jnsgd1na2vs0mg"},{"bike_id":"a173b609-6f6c-45fd-922e-a3a0e329e57c","system_id":"levelo_inurba_marseille","lat":43.24069,"lon":5.37764,"is_reserved":false,"is_disabled":false,"rental_uris":{"android":"levelo://app?vid=a173b609-6f6c-45fd-922e-a3a0e329e57c","ios":"levelo://app?vid=a173b609-6f6c-45fd-922e-a3a0e329e57c"},"vehicle_type_id":"4","last_reported":1739358442,"current_range_meters":11600,"station_id":"ce4bhnp2rcd13ifvqgvg","pricing_plan_id":"cebpf4jnsgd1na2vs0mg"},{"bike_id":"849bdedb-98ac-4738-9791-fd9c539dfa5e","system_id":"levelo_inurba_marseille","lat":43.28476,"lon":5.38415,"is_reserved":false,"is_disabled":false,"rental_uris":{"android":"levelo://app?vid=849bdedb-98ac-4738-9791-fd9c539dfa5e","ios":"levelo://app?vid=849bdedb-98ac-4738-9791-fd9c539dfa5e"},"vehicle_type_id":"4","last_reported":1739358442,"current_range_meters":39200,"station_id":"ce4bh512rcd13ifvqe3g","pricing_plan_id":"cebpf4jnsgd1na2vs0mg"},{"bike_id":"9c9e6dfa-122e-4154-8057-4016db8e7671","system_id":"levelo_inurba_marseille","lat":43.33733,"lon":5.39189,"is_reserved":false,"is_disabled":false,"rental_uris":{"android":"levelo://app?vid=9c9e6dfa-122e-4154-8057-4016db8e7671","ios":"levelo://app?vid=9c9e6dfa-122e-4154-8057-4016db8e7671"},"vehicle_type_id":"4","last_reported":1739358442,"current_range_meters":30000,"station_id":"ce4bhr92rcd13ifvqhsg","pricing_plan_id":"cebpf4jnsgd1na2vs0mg"},{"bike_id":"f6b092f8-0138-4b49-9a97-15a2d87c7981","system_id":"levelo_inurba_marseille","lat":43.2649,"lon":5.39566,"is_reserved":false,"is_disabled":true,"rental_uris":{"android":"levelo://app?vid=f6b092f8-0138-4b49-9a97-15a2d87c7981","ios":"levelo://app?vid=f6b092f8-0138-4b49-9a97-15a2d87c7981"},"vehicle_type_id":"4","last_reported":1739358442,"current_range_meters":35200,"station_id":"ce4bhi12rcd13ifvqfq0","pricing_plan_id":"cebpf4jnsgd1na2vs0mg"},{"bike_id":"f6ef4f9a-c914-4d4b-a06e-00485b64285e","system_id":"levelo_inurba_marseille","lat":43.32484,"lon":5.365728,"is_reserved":false,"is_disabled":false,"rental_uris":{"android":"levelo://app?vid=f6ef4f9a-c914-4d4b-a06e-00485b64285e","ios":"levelo://app?vid=f6ef4f9a-c914-4d4b-a06e-00485b64285e"},"vehicle_type_id":"4","last_reported":1739358442,"current_range_meters":38800,"station_id":"ce4bhs12rcd13ifvqhvg","pricing_plan_id":"cebpf4jnsgd1na2vs0mg"},{"bike_id":"d4a8521c-c54c-4fbb-8f3c-fd7527641f17","system_id":"levelo_inurba_marseille","lat":43.30123,"lon":5.39846,"is_reserved":false,"is_disabled":false,"rental_uris":{"android":"levelo://app?vid=d4a8521c-c54c-4fbb-8f3c-fd7527641f17","ios":"levelo://app?vid=d4a8521c-c54c-4fbb-8f3c-fd7527641f17"},"vehicle_type_id":"4","last_reported":1739358442,"current_range_meters":38800,"station_id":"ce4bh0h2rcd13ifvqd40","pricing_plan_id":"cebpf4jnsgd1na2vs0mg"},{"bike_id":"154c3d10-560a-48c8-8975-f28b510614e3","system_id":"levelo_inurba_marseille","lat":43.30249,"lon":5.37716,"is_reserved":false,"is_disabled":false,"rental_uris":{"android":"levelo://app?vid=154c3d10-560a-48c8-8975-f28b510614e3","ios":"levelo://app?vid=154c3d10-560a-48c8-8975-f28b510614e3"},"vehicle_type_id":"4","last_reported":1739358442,"current_range_meters":28800,"station_id":"ce4bguh2rcd13ifvqcj0","pricing_plan_id":"cebpf4jnsgd1na2vs0mg"},{"bike_id":"8b1c9bed-283d-4644-9673-1058c0737c9c","system_id":"levelo_inurba_marseille","lat":43.30457,"lon":5.37908,"is_reserved":false,"is_disabled":false,"rental_uris":{"android":"levelo://app?vid=8b1c9bed-283d-4644-9673-1058c0737c9c","ios":"levelo://app?vid=8b1c9bed-283d-4644-9673-1058c0737c9c"},"vehicle_type_id":"4","last_reported":1739358442,"current_range_meters":38800,"station_id":"ce4bgup2rcd13ifvqcn0","pricing_plan_id":"cebpf4jnsgd1na2vs0mg"},{"bike_id":"01eb5cc3-4b96-41ce-ba17-7989ee6d222a","system_id":"levelo_inurba_marseille","lat":43.28952,"lon":5.36413,"is_reserved":false,"is_disabled":false,"rental_uris":{"android":"levelo://app?vid=01eb5cc3-4b96-41ce-ba17-7989ee6d222a","ios":"levelo://app?vid=01eb5cc3-4b96-41ce-ba17-7989ee6d222a"},"vehicle_type_id":"4","last_reported":1739358442,"current_range_meters":33200,"station_id":"ce4bhc92rcd13ifvqetg","pricing_plan_id":"cebpf4jnsgd1na2vs0mg"},{"bike_id":"f711750d-fe6b-4e97-a163-0212ddabd620","system_id":"levelo_inurba_marseille","lat":43.3048,"lon":5.37929,"is_reserved":false,"is_disabled":false,"rental_uris":{"android":"levelo://app?vid=f711750d-fe6b-4e97-a163-0212ddabd620","ios":"levelo://app?vid=f711750d-fe6b-4e97-a163-0212ddabd620"},"vehicle_type_id":"4","last_reported":1739358442,"current_range_meters":18000,"station_id":"ce4bgup2rcd13ifvqcn0","pricing_plan_id":"cebpf4jnsgd1na2vs0mg"},{"bike_id":"0497d784-c056-45f5-a997-c997e3fb1a75","system_id":"levelo_inurba_marseille","lat":43.31698,"lon":5.40442,"is_reserved":false,"is_disabled":false,"rental_uris":{"android":"levelo://app?vid=0497d784-c056-45f5-a997-c997e3fb1a75","ios":"levelo://app?vid=0497d784-c056-45f5-a997-c997e3fb1a75"},"vehicle_type_id":"4","last_reported":1739358442,"current_range_meters":34800,"station_id":"ce4bh012rcd13ifvqd00","pricing_plan_id":"cebpf4jnsgd1na2vs0mg"},{"bike_id":"9e4564f0-0519-46c9-beea-73f529a3ce6a","system_id":"levelo_inurba_marseille","lat":43.24817,"lon":5.37454,"is_reserved":false,"is_disabled":false,"rental_uris":{"android":"levelo://app?vid=9e4564f0-0519-46c9-beea-73f529a3ce6a","ios":"levelo://app?vid=9e4564f0-0519-46c9-beea-73f529a3ce6a"},"vehicle_type_id":"4","last_reported":1739358442,"current_range_meters":28400,"station_id":"ce4bhgh2rcd13ifvqfb0","pricing_plan_id":"cebpf4jnsgd1na2vs0mg"},{"bike_id":"e8b98b7c-5d68-4a57-8bb7-0cc04267f30a","system_id":"levelo_inurba_marseille","lat":43.27995,"lon":5.40015,"is_reserved":false,"is_disabled":false,"rental_uris":{"android":"levelo://app?vid=e8b98b7c-5d68-4a57-8bb7-0cc04267f30a","ios":"levelo://app?vid=e8b98b7c-5d68-4a57-8bb7-0cc04267f30a"},"vehicle_type_id":"4","last_reported":1739358442,"current_range_meters":24400,"station_id":"ce4bho92rcd13ifvqh4g","pricing_plan_id":"cebpf4jnsgd1na2vs0mg"},{"bike_id":"a94d2018-f678-4713-bf2d-5da0b28f3e59","system_id":"levelo_inurba_marseille","lat":43.297714,"lon":5.371268,"is_reserved":false,"is_disabled":false,"rental_uris":{"android":"levelo://app?vid=a94d2018-f678-4713-bf2d-5da0b28f3e59","ios":"levelo://app?vid=a94d2018-f678-4713-bf2d-5da0b28f3e59"},"vehicle_type_id":"4","last_reported":1739358442,"current_range_meters":34000,"station_id":"ce4bgop2rcd13ifvqc1g","pricing_plan_id":"cebpf4jnsgd1na2vs0mg"},{"bike_id":"3df3041b-27b7-4def-8d60-99d6191bfdce","system_id":"levelo_inurba_marseille","lat":43.27501,"lon":5.42464,"is_reserved":false,"is_disabled":false,"rental_uris":{"android":"levelo://app?vid=3df3041b-27b7-4def-8d60-99d6191bfdce","ios":"levelo://app?vid=3df3041b-27b7-4def-8d60-99d6191bfdce"},"vehicle_type_id":"4","last_reported":1739358442,"current_range_meters":38800,"station_id":"ce4bhn92rcd13ifvqgrg","pricing_plan_id":"cebpf4jnsgd1na2vs0mg"},{"bike_id":"3557e281-7344-4c56-b643-42ea2f500ef3","system_id":"levelo_inurba_marseille","lat":43.25717,"lon":5.41118,"is_reserved":false,"is_disabled":false,"rental_uris":{"android":"levelo://app?vid=3557e281-7344-4c56-b643-42ea2f500ef3","ios":"levelo://app?vid=3557e281-7344-4c56-b643-42ea2f500ef3"},"vehicle_type_id":"4","last_reported":1739358442,"current_range_meters":22000,"station_id":"ce4bhkp2rcd13ifvqgd0","pricing_plan_id":"cebpf4jnsgd1na2vs0mg"},{"bike_id":"52cf5c0b-d0b6-4f8b-a0fe-c8e306a36ba3","system_id":"levelo_inurba_marseille","lat":43.2737,"lon":5.36254,"is_reserved":false,"is_disabled":false,"rental_uris":{"android":"levelo://app?vid=52cf5c0b-d0b6-4f8b-a0fe-c8e306a36ba3","ios":"levelo://app?vid=52cf5c0b-d0b6-4f8b-a0fe-c8e306a36ba3"},"vehicle_type_id":"4","last_reported":1739358442,"current_range_meters":39200,"station_id":"ce4bhbh2rcd13ifvqeo0","pricing_plan_id":"cebpf4jnsgd1na2vs0mg"},{"bike_id":"a9eb76ae-d2f9-4fe3-87ec-b061f4429926","system_id":"levelo_inurba_marseille","lat":43.27366,"lon":5.36255,"is_reserved":false,"is_disabled":false,"rental_uris":{"android":"levelo://app?vid=a9eb76ae-d2f9-4fe3-87ec-b061f4429926","ios":"levelo://app?vid=a9eb76ae-d2f9-4fe3-87ec-b061f4429926"},"vehicle_type_id":"4","last_reported":1739358442,"current_range_meters":36000,"station_id":"ce4bhbh2rcd13ifvqeo0","pricing_plan_id":"cebpf4jnsgd1na2vs0mg"},{"bike_id":"26c79ef5-6f5f-49d9-b4aa-17fb6a7df4bb","system_id":"levelo_inurba_marseille","lat":43.29849,"lon":5.36295,"is_reserved":false,"is_disabled":false,"rental_uris":{"android":"levelo://app?vid=26c79ef5-6f5f-49d9-b4aa-17fb6a7df4bb","ios":"levelo://app?vid=26c79ef5-6f5f-49d9-b4aa-17fb6a7df4bb"},"vehicle_type_id":"4","last_reported":1739358442,"current_range_meters":38400,"station_id":"ce4bgpp2rcd13ifvqc3g","pricing_plan_id":"cebpf4jnsgd1na2vs0mg"},{"bike_id":"39e55a90-fe76-4904-bf9c-9841fe168f13","system_id":"levelo_inurba_marseille","lat":43.33733,"lon":5.39191,"is_reserved":false,"is_disabled":false,"rental_uris":{"android":"levelo://app?vid=39e55a90-fe76-4904-bf9c-9841fe168f13","ios":"levelo://app?vid=39e55a90-fe76-4904-bf9c-9841fe168f13"},"vehicle_type_id":"4","last_reported":1739358442,"current_range_meters":38800,"station_id":"ce4bhr92rcd13ifvqhsg","pricing_plan_id":"cebpf4jnsgd1na2vs0mg"},{"bike_id":"dc8941a8-8680-4d52-b8df-60622dd7ec58","system_id":"levelo_inurba_marseille","lat":43.29407,"lon":5.37874,"is_reserved":false,"is_disabled":false,"rental_uris":{"android":"levelo://app?vid=dc8941a8-8680-4d52-b8df-60622dd7ec58","ios":"levelo://app?vid=dc8941a8-8680-4d52-b8df-60622dd7ec58"},"vehicle_type_id":"4","last_reported":1739358442,"current_range_meters":38000,"station_id":"ce4bgjh2rcd13ifvqbf0","pricing_plan_id":"cebpf4jnsgd1na2vs0mg"},{"bike_id":"8bc42e94-1322-42ab-8325-b3ee1e30df55","system_id":"levelo_inurba_marseille","lat":43.26501,"lon":5.39539,"is_reserved":false,"is_disabled":true,"rental_uris":{"android":"levelo://app?vid=8bc42e94-1322-42ab-8325-b3ee1e30df55","ios":"levelo://app?vid=8bc42e94-1322-42ab-8325-b3ee1e30df55"},"vehicle_type_id":"4","last_reported":1739358442,"current_range_meters":400,"station_id":"ce4bhi12rcd13ifvqfq0","pricing_plan_id":"cebpf4jnsgd1na2vs0mg"},{"bike_id":"5917b50e-263d-44f0-bc92-9b811108e42d","system_id":"levelo_inurba_marseille","lat":43.30292,"lon":5.377119,"is_reserved":false,"is_disabled":false,"rental_uris":{"android":"levelo://app?vid=5917b50e-263d-44f0-bc92-9b811108e42d","ios":"levelo://app?vid=5917b50e-263d-44f0-bc92-9b811108e42d"},"vehicle_type_id":"4","last_reported":1739358442,"current_range_meters":27200,"station_id":"ce4bguh2rcd13ifvqcj0","pricing_plan_id":"cebpf4jnsgd1na2vs0mg"},{"bike_id":"731da6c6-f7ca-4a26-90c2-82e3497d26ff","system_id":"levelo_inurba_marseille","lat":43.31366,"lon":5.36729,"is_reserved":false,"is_disabled":false,"rental_uris":{"android":"levelo://app?vid=731da6c6-f7ca-4a26-90c2-82e3497d26ff","ios":"levelo://app?vid=731da6c6-f7ca-4a26-90c2-82e3497d26ff"},"vehicle_type_id":"4","last_reported":1739358442,"current_range_meters":30000,"station_id":"ce4bgr92rcd13ifvqc6g","pricing_plan_id":"cebpf4jnsgd1na2vs0mg"},{"bike_id":"9259a6aa-9930-4e48-b365-8afc48a92395","system_id":"levelo_inurba_marseille","lat":43.2441,"lon":5.37048,"is_reserved":false,"is_disabled":false,"rental_uris":{"android":"levelo://app?vid=9259a6aa-9930-4e48-b365-8afc48a92395","ios":"levelo://app?vid=9259a6aa-9930-4e48-b365-8afc48a92395"},"vehicle_type_id":"4","last_reported":1739358442,"current_range_meters":32000,"station_id":"ce4bhhh2rcd13ifvqfk0","pricing_plan_id":"cebpf4jnsgd1na2vs0mg"},{"bike_id":"bc0beb7a-5b3e-44a0-bc68-16dd218ec9dd","system_id":"levelo_inurba_marseille","lat":43.30139,"lon":5.37418,"is_reserved":false,"is_disabled":true,"rental_uris":{"android":"levelo://app?vid=bc0beb7a-5b3e-44a0-bc68-16dd218ec9dd","ios":"levelo://app?vid=bc0beb7a-5b3e-44a0-bc68-16dd218ec9dd"},"vehicle_type_id":"4","last_reported":1739358442,"current_range_meters":38800,"station_id":"ce4bgs92rcd13ifvqcc0","pricing_plan_id":"cebpf4jnsgd1na2vs0mg"},{"bike_id":"13572197-8e3d-48bb-aac8-76c0f3a98db5","system_id":"levelo_inurba_marseille","lat":43.29553,"lon":5.42292,"is_reserved":false,"is_disabled":false,"rental_uris":{"android":"levelo://app?vid=13572197-8e3d-48bb-aac8-76c0f3a98db5","ios":"levelo://app?vid=13572197-8e3d-48bb-aac8-76c0f3a98db5"},"vehicle_type_id":"4","last_reported":1739358442,"current_range_meters":38000,"station_id":"ce4bhph2rcd13ifvqhdg","pricing_plan_id":"cebpf4jnsgd1na2vs0mg"},{"bike_id":"bf8cd02e-ccdc-4523-894a-3fce83d782e3","system_id":"levelo_inurba_marseille","lat":43.33729,"lon":5.39187,"is_reserved":false,"is_disabled":false,"rental_uris":{"android":"levelo://app?vid=bf8cd02e-ccdc-4523-894a-3fce83d782e3","ios":"levelo://app?vid=bf8cd02e-ccdc-4523-894a-3fce83d782e3"},"vehicle_type_id":"4","last_reported":1739358442,"current_range_meters":39200,"station_id":"ce4bhr92rcd13ifvqhsg","pricing_plan_id":"cebpf4jnsgd1na2vs0mg"},{"bike_id":"b737ae82-c86e-4ede-80b2-31fc6f755e14","system_id":"levelo_inurba_marseille","lat":43.29539,"lon":5.38562,"is_reserved":false,"is_disabled":true,"rental_uris":{"android":"levelo://app?vid=b737ae82-c86e-4ede-80b2-31fc6f755e14","ios":"levelo://app?vid=b737ae82-c86e-4ede-80b2-31fc6f755e14"},"vehicle_type_id":"4","last_reported":1739358442,"current_range_meters":38800,"station_id":"ce4bgih2rcd13ifvqba0","pricing_plan_id":"cebpf4jnsgd1na2vs0mg"},{"bike_id":"eeb1ef79-8555-45e1-8f1d-2dc23ab42fd9","system_id":"levelo_inurba_marseille","lat":43.27822,"lon":5.40722,"is_reserved":false,"is_disabled":false,"rental_uris":{"android":"levelo://app?vid=eeb1ef79-8555-45e1-8f1d-2dc23ab42fd9","ios":"levelo://app?vid=eeb1ef79-8555-45e1-8f1d-2dc23ab42fd9"},"vehicle_type_id":"4","last_reported":1739358442,"current_range_meters":38800,"station_id":"ce4bhnh2rcd13ifvqgtg","pricing_plan_id":"cebpf4jnsgd1na2vs0mg"},{"bike_id":"20cff2ea-df40-43e9-9e60-e9c41ce0ec64","system_id":"levelo_inurba_marseille","lat":43.23151,"lon":5.43708,"is_reserved":false,"is_disabled":false,"rental_uris":{"android":"levelo://app?vid=20cff2ea-df40-43e9-9e60-e9c41ce0ec64","ios":"levelo://app?vid=20cff2ea-df40-43e9-9e60-e9c41ce0ec64"},"vehicle_type_id":"4","last_reported":1739358442,"current_range_meters":39200,"station_id":"ce4bhmp2rcd13ifvqgog","pricing_plan_id":"cebpf4jnsgd1na2vs0mg"},{"bike_id":"e96824e9-86eb-4eda-b79f-29b3890e615e","system_id":"levelo_inurba_marseille","lat":43.29024,"lon":5.39967,"is_reserved":false,"is_disabled":false,"rental_uris":{"android":"levelo://app?vid=e96824e9-86eb-4eda-b79f-29b3890e615e","ios":"levelo://app?vid=e96824e9-86eb-4eda-b79f-29b3890e615e"},"vehicle_type_id":"4","last_reported":1739358442,"current_range_meters":32000,"station_id":"ce4bh392rcd13ifvqdm0","pricing_plan_id":"cebpf4jnsgd1na2vs0mg"},{"bike_id":"c179f179-1614-4d6a-9586-627695823c73","system_id":"levelo_inurba_marseille","lat":43.26815,"lon":5.40275,"is_reserved":false,"is_disabled":false,"rental_uris":{"android":"levelo://app?vid=c179f179-1614-4d6a-9586-627695823c73","ios":"levelo://app?vid=c179f179-1614-4d6a-9586-627695823c73"},"vehicle_type_id":"4","last_reported":1739358442,"current_range_meters":26800,"station_id":"ce501612rcd8frsf0b60","pricing_plan_id":"cebpf4jnsgd1na2vs0mg"},{"bike_id":"c573048d-b0bb-4a11-b456-07d3f804372d","system_id":"levelo_inurba_marseille","lat":43.28862,"lon":5.3932,"is_reserved":false,"is_disabled":false,"rental_uris":{"android":"levelo://app?vid=c573048d-b0bb-4a11-b456-07d3f804372d","ios":"levelo://app?vid=c573048d-b0bb-4a11-b456-07d3f804372d"},"vehicle_type_id":"4","last_reported":1739358442,"current_range_meters":33600,"station_id":"ce4bh2p2rcd13ifvqdi0","pricing_plan_id":"cebpf4jnsgd1na2vs0mg"},{"bike_id":"6852b113-7fe4-4dd9-a08e-b69361c21046","system_id":"levelo_inurba_marseille","lat":43.23159,"lon":5.4374,"is_reserved":false,"is_disabled":false,"rental_uris":{"android":"levelo://app?vid=6852b113-7fe4-4dd9-a08e-b69361c21046","ios":"levelo://app?vid=6852b113-7fe4-4dd9-a08e-b69361c21046"},"vehicle_type_id":"4","last_reported":1739358442,"current_range_meters":28400,"station_id":"ce4bhmp2rcd13ifvqgog","pricing_plan_id":"cebpf4jnsgd1na2vs0mg"},{"bike_id":"3900d08b-8693-4bd9-848b-faf62990505d","system_id":"levelo_inurba_marseille","lat":43.30125,"lon":5.39853,"is_reserved":false,"is_disabled":false,"rental_uris":{"android":"levelo://app?vid=3900d08b-8693-4bd9-848b-faf62990505d","ios":"levelo://app?vid=3900d08b-8693-4bd9-848b-faf62990505d"},"vehicle_type_id":"4","last_reported":1739358442,"current_range_meters":38800,"station_id":"ce4bh0h2rcd13ifvqd40","pricing_plan_id":"cebpf4jnsgd1na2vs0mg"},{"bike_id":"1aeff086-7105-4d13-8a23-2869e1c35658","system_id":"levelo_inurba_marseille","lat":43.30596,"lon":5.37238,"is_reserved":false,"is_disabled":false,"rental_uris":{"android":"levelo://app?vid=1aeff086-7105-4d13-8a23-2869e1c35658","ios":"levelo://app?vid=1aeff086-7105-4d13-8a23-2869e1c35658"},"vehicle_type_id":"4","last_reported":1739358442,"current_range_meters":36400,"station_id":"ce4bgqh2rcd13ifvqc4g","pricing_plan_id":"cebpf4jnsgd1na2vs0mg"},{"bike_id":"753e916d-21cb-412c-8f75-d67bee02d5d5","system_id":"levelo_inurba_marseille","lat":43.30529,"lon":5.3671,"is_reserved":false,"is_disabled":false,"rental_uris":{"android":"levelo://app?vid=753e916d-21cb-412c-8f75-d67bee02d5d5","ios":"levelo://app?vid=753e916d-21cb-412c-8f75-d67bee02d5d5"},"vehicle_type_id":"4","last_reported":1739358442,"current_range_meters":38800,"station_id":"ce4bgrp2rcd13ifvqc9g","pricing_plan_id":"cebpf4jnsgd1na2vs0mg"},{"bike_id":"cff6a758-8e1d-45ad-819c-88cdde4823b4","system_id":"levelo_inurba_marseille","lat":43.30915,"lon":5.40146,"is_reserved":false,"is_disabled":false,"rental_uris":{"android":"levelo://app?vid=cff6a758-8e1d-45ad-819c-88cdde4823b4","ios":"levelo://app?vid=cff6a758-8e1d-45ad-819c-88cdde4823b4"},"vehicle_type_id":"4","last_reported":1739358442,"current_range_meters":38000,"station_id":"ce4bgvp2rcd13ifvqct0","pricing_plan_id":"cebpf4jnsgd1na2vs0mg"},{"bike_id":"0946e1d0-cc5c-4db2-a494-cafba877eb11","system_id":"levelo_inurba_marseille","lat":43.30477,"lon":5.37905,"is_reserved":false,"is_disabled":false,"rental_uris":{"android":"levelo://app?vid=0946e1d0-cc5c-4db2-a494-cafba877eb11","ios":"levelo://app?vid=0946e1d0-cc5c-4db2-a494-cafba877eb11"},"vehicle_type_id":"4","last_reported":1739358442,"current_range_meters":38800,"station_id":"ce4bgup2rcd13ifvqcn0","pricing_plan_id":"cebpf4jnsgd1na2vs0mg"},{"bike_id":"b14aea54-1b48-400c-910a-0a988c322c3e","system_id":"levelo_inurba_marseille","lat":43.28672,"lon":5.38666,"is_reserved":false,"is_disabled":false,"rental_uris":{"android":"levelo://app?vid=b14aea54-1b48-400c-910a-0a988c322c3e","ios":"levelo://app?vid=b14aea54-1b48-400c-910a-0a988c322c3e"},"vehicle_type_id":"4","last_reported":1739358442,"current_range_meters":32000,"station_id":"ce4bh492rcd13ifvqdug","pricing_plan_id":"cebpf4jnsgd1na2vs0mg"},{"bike_id":"02451db6-91ee-4f9a-b443-a4ac662c5553","system_id":"levelo_inurba_marseille","lat":43.30423,"lon":5.39752,"is_reserved":false,"is_disabled":false,"rental_uris":{"android":"levelo://app?vid=02451db6-91ee-4f9a-b443-a4ac662c5553","ios":"levelo://app?vid=02451db6-91ee-4f9a-b443-a4ac662c5553"},"vehicle_type_id":"4","last_reported":1739358442,"current_range_meters":29600,"station_id":"ce4bh092rcd13ifvqd20","pricing_plan_id":"cebpf4jnsgd1na2vs0mg"},{"bike_id":"8dc60ba6-d690-49b8-8adf-a6261b5bfebb","system_id":"levelo_inurba_marseille","lat":43.24394,"lon":5.37068,"is_reserved":false,"is_disabled":false,"rental_uris":{"android":"levelo://app?vid=8dc60ba6-d690-49b8-8adf-a6261b5bfebb","ios":"levelo://app?vid=8dc60ba6-d690-49b8-8adf-a6261b5bfebb"},"vehicle_type_id":"4","last_reported":1739358442,"current_range_meters":29600,"station_id":"ce4bhhh2rcd13ifvqfk0","pricing_plan_id":"cebpf4jnsgd1na2vs0mg"},{"bike_id":"5ec5dad3-2aa4-4468-abda-cdb85c06529e","system_id":"levelo_inurba_marseille","lat":43.29984,"lon":5.37185,"is_reserved":false,"is_disabled":false,"rental_uris":{"android":"levelo://app?vid=5ec5dad3-2aa4-4468-abda-cdb85c06529e","ios":"levelo://app?vid=5ec5dad3-2aa4-4468-abda-cdb85c06529e"},"vehicle_type_id":"4","last_reported":1739358442,"current_range_meters":39200,"station_id":"ce4bgr92rcd13ifvqc7g","pricing_plan_id":"cebpf4jnsgd1na2vs0mg"},{"bike_id":"c0cfc794-c230-4fb7-a9c1-43639d852c61","system_id":"levelo_inurba_marseille","lat":43.28475,"lon":5.38417,"is_reserved":false,"is_disabled":false,"rental_uris":{"android":"levelo://app?vid=c0cfc794-c230-4fb7-a9c1-43639d852c61","ios":"levelo://app?vid=c0cfc794-c230-4fb7-a9c1-43639d852c61"},"vehicle_type_id":"4","last_reported":1739358442,"current_range_meters":38800,"station_id":"ce4bh512rcd13ifvqe3g","pricing_plan_id":"cebpf4jnsgd1na2vs0mg"},{"bike_id":"93c8f7a3-ba54-4843-9916-1ade6abbdb95","system_id":"levelo_inurba_marseille","lat":43.32474,"lon":5.36592,"is_reserved":false,"is_disabled":false,"rental_uris":{"android":"levelo://app?vid=93c8f7a3-ba54-4843-9916-1ade6abbdb95","ios":"levelo://app?vid=93c8f7a3-ba54-4843-9916-1ade6abbdb95"},"vehicle_type_id":"4","last_reported":1739358442,"current_range_meters":28400,"station_id":"ce4bhs12rcd13ifvqhvg","pricing_plan_id":"cebpf4jnsgd1na2vs0mg"},{"bike_id":"a3337449-cf52-432e-85e2-dfa7302d24fa","system_id":"levelo_inurba_marseille","lat":43.305,"lon":5.36701,"is_reserved":false,"is_disabled":false,"rental_uris":{"android":"levelo://app?vid=a3337449-cf52-432e-85e2-dfa7302d24fa","ios":"levelo://app?vid=a3337449-cf52-432e-85e2-dfa7302d24fa"},"vehicle_type_id":"4","last_reported":1739358442,"current_range_meters":33600,"station_id":"ce4bgrp2rcd13ifvqc9g","pricing_plan_id":"cebpf4jnsgd1na2vs0mg"},{"bike_id":"e47720ec-64ed-45a5-9f1a-487927c70996","system_id":"levelo_inurba_marseille","lat":43.2594,"lon":5.40906,"is_reserved":false,"is_disabled":false,"rental_uris":{"android":"levelo://app?vid=e47720ec-64ed-45a5-9f1a-487927c70996","ios":"levelo://app?vid=e47720ec-64ed-45a5-9f1a-487927c70996"},"vehicle_type_id":"4","last_reported":1739358442,"current_range_meters":36800,"station_id":"ce4bhm92rcd13ifvqglg","pricing_plan_id":"cebpf4jnsgd1na2vs0mg"},{"bike_id":"f61f0289-db11-4f78-af36-f70fd4404161","system_id":"levelo_inurba_marseille","lat":43.290051,"lon":5.356176,"is_reserved":false,"is_disabled":true,"rental_uris":{"android":"levelo://app?vid=f61f0289-db11-4f78-af36-f70fd4404161","ios":"levelo://app?vid=f61f0289-db11-4f78-af36-f70fd4404161"},"vehicle_type_id":"4","last_reported":1739358442,"current_range_meters":34800,"station_id":"","pricing_plan_id":"cebpf4jnsgd1na2vs0mg"},{"bike_id":"39a640ed-fd8c-4b56-84e0-fe67663afd2d","system_id":"levelo_inurba_marseille","lat":43.23158,"lon":5.43702,"is_reserved":false,"is_disabled":false,"rental_uris":{"android":"levelo://app?vid=39a640ed-fd8c-4b56-84e0-fe67663afd2d","ios":"levelo://app?vid=39a640ed-fd8c-4b56-84e0-fe67663afd2d"},"vehicle_type_id":"4","last_reported":1739358442,"current_range_meters":28000,"station_id":"ce4bhmp2rcd13ifvqgog","pricing_plan_id":"cebpf4jnsgd1na2vs0mg"},{"bike_id":"b03c6d48-9fd6-4bf2-bc41-8e49175a4e58","system_id":"levelo_inurba_marseille","lat":43.3266,"lon":5.40993,"is_reserved":false,"is_disabled":false,"rental_uris":{"android":"levelo://app?vid=b03c6d48-9fd6-4bf2-bc41-8e49175a4e58","ios":"levelo://app?vid=b03c6d48-9fd6-4bf2-bc41-8e49175a4e58"},"vehicle_type_id":"4","last_reported":1739358442,"current_range_meters":38400,"station_id":"ce4bhpp2rcd13ifvqhgg","pricing_plan_id":"cebpf4jnsgd1na2vs0mg"},{"bike_id":"76ebc75d-2fe5-45e0-9f44-dea2f5f86814","system_id":"levelo_inurba_marseille","lat":43.24385,"lon":5.37056,"is_reserved":false,"is_disabled":false,"rental_uris":{"android":"levelo://app?vid=76ebc75d-2fe5-45e0-9f44-dea2f5f86814","ios":"levelo://app?vid=76ebc75d-2fe5-45e0-9f44-dea2f5f86814"},"vehicle_type_id":"4","last_reported":1739358442,"current_range_meters":28400,"station_id":"ce4bhhh2rcd13ifvqfk0","pricing_plan_id":"cebpf4jnsgd1na2vs0mg"},{"bike_id":"7e4baaff-43df-45ac-ba99-60d4ee3b5a14","system_id":"levelo_inurba_marseille","lat":43.32455,"lon":5.36613,"is_reserved":false,"is_disabled":false,"rental_uris":{"android":"levelo://app?vid=7e4baaff-43df-45ac-ba99-60d4ee3b5a14","ios":"levelo://app?vid=7e4baaff-43df-45ac-ba99-60d4ee3b5a14"},"vehicle_type_id":"4","last_reported":1739358442,"current_range_meters":8400,"station_id":"","pricing_plan_id":"cebpf4jnsgd1na2vs0mg"},{"bike_id":"76305925-afef-4e0d-9960-6de968abbadf","system_id":"levelo_inurba_marseille","lat":43.24811,"lon":5.37471,"is_reserved":false,"is_disabled":false,"rental_uris":{"android":"levelo://app?vid=76305925-afef-4e0d-9960-6de968abbadf","ios":"levelo://app?vid=76305925-afef-4e0d-9960-6de968abbadf"},"vehicle_type_id":"4","last_reported":1739358442,"current_range_meters":35200,"station_id":"ce4bhgh2rcd13ifvqfb0","pricing_plan_id":"cebpf4jnsgd1na2vs0mg"},{"bike_id":"1fb1a03a-258b-416a-92dc-66b98dcbe7d9","system_id":"levelo_inurba_marseille","lat":43.337258,"lon":5.3919,"is_reserved":false,"is_disabled":false,"rental_uris":{"android":"levelo://app?vid=1fb1a03a-258b-416a-92dc-66b98dcbe7d9","ios":"levelo://app?vid=1fb1a03a-258b-416a-92dc-66b98dcbe7d9"},"vehicle_type_id":"4","last_reported":1739358442,"current_range_meters":39200,"station_id":"ce4bhr92rcd13ifvqhsg","pricing_plan_id":"cebpf4jnsgd1na2vs0mg"},{"bike_id":"80b55b9b-3311-4f84-bd1e-e3b2f430b33c","system_id":"levelo_inurba_marseille","lat":43.30552,"lon":5.36712,"is_reserved":false,"is_disabled":false,"rental_uris":{"android":"levelo://app?vid=80b55b9b-3311-4f84-bd1e-e3b2f430b33c","ios":"levelo://app?vid=80b55b9b-3311-4f84-bd1e-e3b2f430b33c"},"vehicle_type_id":"4","last_reported":1739358442,"current_range_meters":38800,"station_id":"ce4bgrp2rcd13ifvqc9g","pricing_plan_id":"cebpf4jnsgd1na2vs0mg"},{"bike_id":"51ab7186-5043-4bed-baca-73708608a302","system_id":"levelo_inurba_marseille","lat":43.29584,"lon":5.37026,"is_reserved":false,"is_disabled":true,"rental_uris":{"android":"levelo://app?vid=51ab7186-5043-4bed-baca-73708608a302","ios":"levelo://app?vid=51ab7186-5043-4bed-baca-73708608a302"},"vehicle_type_id":"4","last_reported":1739358442,"current_range_meters":3200,"station_id":"","pricing_plan_id":"cebpf4jnsgd1na2vs0mg"},{"bike_id":"10a0492e-c5ef-4265-a4af-1a34c6828f85","system_id":"levelo_inurba_marseille","lat":43.30428,"lon":5.38887,"is_reserved":false,"is_disabled":false,"rental_uris":{"android":"levelo://app?vid=10a0492e-c5ef-4265-a4af-1a34c6828f85","ios":"levelo://app?vid=10a0492e-c5ef-4265-a4af-1a34c6828f85"},"vehicle_type_id":"4","last_reported":1739358442,"current_range_meters":39200,"station_id":"ce4bgk12rcd13ifvqbi0","pricing_plan_id":"cebpf4jnsgd1na2vs0mg"},{"bike_id":"cfed1087-ae34-4484-99e0-27be9512e890","system_id":"levelo_inurba_marseille","lat":43.28464,"lon":5.38568,"is_reserved":false,"is_disabled":true,"rental_uris":{"android":"levelo://app?vid=cfed1087-ae34-4484-99e0-27be9512e890","ios":"levelo://app?vid=cfed1087-ae34-4484-99e0-27be9512e890"},"vehicle_type_id":"4","last_reported":1739358442,"current_range_meters":38800,"station_id":"ce4bh8p2rcd13ifvqeb0","pricing_plan_id":"cebpf4jnsgd1na2vs0mg"},{"bike_id":"7263b1f0-c8c5-4fd4-b6de-91daf2ffabf3","system_id":"levelo_inurba_marseille","lat":43.29024,"lon":5.39985,"is_reserved":false,"is_disabled":false,"rental_uris":{"android":"levelo://app?vid=7263b1f0-c8c5-4fd4-b6de-91daf2ffabf3","ios":"levelo://app?vid=7263b1f0-c8c5-4fd4-b6de-91daf2ffabf3"},"vehicle_type_id":"4","last_reported":1739358442,"current_range_meters":26000,"station_id":"ce4bh392rcd13ifvqdm0","pricing_plan_id":"cebpf4jnsgd1na2vs0mg"},{"bike_id":"4a64ece0-ade0-4398-bd9a-7915c991c761","system_id":"levelo_inurba_marseille","lat":43.32458,"lon":5.36559,"is_reserved":false,"is_disabled":false,"rental_uris":{"android":"levelo://app?vid=4a64ece0-ade0-4398-bd9a-7915c991c761","ios":"levelo://app?vid=4a64ece0-ade0-4398-bd9a-7915c991c761"},"vehicle_type_id":"4","last_reported":1739358442,"current_range_meters":11200,"station_id":"ce4bhs12rcd13ifvqhvg","pricing_plan_id":"cebpf4jnsgd1na2vs0mg"},{"bike_id":"5f3b22db-c642-4d1e-9809-4595536c2756","system_id":"levelo_inurba_marseille","lat":43.29797,"lon":5.38095,"is_reserved":false,"is_disabled":false,"rental_uris":{"android":"levelo://app?vid=5f3b22db-c642-4d1e-9809-4595536c2756","ios":"levelo://app?vid=5f3b22db-c642-4d1e-9809-4595536c2756"},"vehicle_type_id":"4","last_reported":1739358442,"current_range_meters":32400,"station_id":"ce4bgip2rcd13ifvqbb0","pricing_plan_id":"cebpf4jnsgd1na2vs0mg"},{"bike_id":"3022a390-1c44-4221-b627-b981bb6953c7","system_id":"levelo_inurba_marseille","lat":43.27993,"lon":5.40063,"is_reserved":false,"is_disabled":false,"rental_uris":{"android":"levelo://app?vid=3022a390-1c44-4221-b627-b981bb6953c7","ios":"levelo://app?vid=3022a390-1c44-4221-b627-b981bb6953c7"},"vehicle_type_id":"4","last_reported":1739358442,"current_range_meters":24800,"station_id":"ce4bho92rcd13ifvqh4g","pricing_plan_id":"cebpf4jnsgd1na2vs0mg"},{"bike_id":"d884a206-2c74-44f2-873c-f515c2e9f68a","system_id":"levelo_inurba_marseille","lat":43.287,"lon":5.40032,"is_reserved":false,"is_disabled":false,"rental_uris":{"android":"levelo://app?vid=d884a206-2c74-44f2-873c-f515c2e9f68a","ios":"levelo://app?vid=d884a206-2c74-44f2-873c-f515c2e9f68a"},"vehicle_type_id":"4","last_reported":1739358442,"current_range_meters":20800,"station_id":"ce4bho92rcd13ifvqh3g","pricing_plan_id":"cebpf4jnsgd1na2vs0mg"},{"bike_id":"d1e173a7-7a13-459d-aa61-e912781d87f3","system_id":"levelo_inurba_marseille","lat":43.27322,"lon":5.39097,"is_reserved":false,"is_disabled":false,"rental_uris":{"android":"levelo://app?vid=d1e173a7-7a13-459d-aa61-e912781d87f3","ios":"levelo://app?vid=d1e173a7-7a13-459d-aa61-e912781d87f3"},"vehicle_type_id":"4","last_reported":1739358442,"current_range_meters":28000,"station_id":"ce4bhgp2rcd13ifvqfe0","pricing_plan_id":"cebpf4jnsgd1na2vs0mg"},{"bike_id":"10dce821-bd6f-48b5-a755-f2a3c840842c","system_id":"levelo_inurba_marseille","lat":43.23147,"lon":5.43734,"is_reserved":false,"is_disabled":true,"rental_uris":{"android":"levelo://app?vid=10dce821-bd6f-48b5-a755-f2a3c840842c","ios":"levelo://app?vid=10dce821-bd6f-48b5-a755-f2a3c840842c"},"vehicle_type_id":"4","last_reported":1739358442,"current_range_meters":0,"station_id":"ce4bhmp2rcd13ifvqgog","pricing_plan_id":"cebpf4jnsgd1na2vs0mg"},{"bike_id":"4b6a43e1-59ee-455d-a868-09ef3b0a4c33","system_id":"levelo_inurba_marseille","lat":43.29029,"lon":5.39991,"is_reserved":false,"is_disabled":false,"rental_uris":{"android":"levelo://app?vid=4b6a43e1-59ee-455d-a868-09ef3b0a4c33","ios":"levelo://app?vid=4b6a43e1-59ee-455d-a868-09ef3b0a4c33"},"vehicle_type_id":"4","last_reported":1739358442,"current_range_meters":28000,"station_id":"ce4bh392rcd13ifvqdm0","pricing_plan_id":"cebpf4jnsgd1na2vs0mg"},{"bike_id":"de77abfa-6f74-40e9-8131-b7884eda37eb","system_id":"levelo_inurba_marseille","lat":43.29941,"lon":5.39413,"is_reserved":false,"is_disabled":false,"rental_uris":{"android":"levelo://app?vid=de77abfa-6f74-40e9-8131-b7884eda37eb","ios":"levelo://app?vid=de77abfa-6f74-40e9-8131-b7884eda37eb"},"vehicle_type_id":"4","last_reported":1739358442,"current_range_meters":26000,"station_id":"","pricing_plan_id":"cebpf4jnsgd1na2vs0mg"},{"bike_id":"71814b93-120c-4d9f-92d9-68aad7e70d4c","system_id":"levelo_inurba_marseille","lat":43.27988,"lon":5.40023,"is_reserved":false,"is_disabled":false,"rental_uris":{"android":"levelo://app?vid=71814b93-120c-4d9f-92d9-68aad7e70d4c","ios":"levelo://app?vid=71814b93-120c-4d9f-92d9-68aad7e70d4c"},"vehicle_type_id":"4","last_reported":1739358442,"current_range_meters":33200,"station_id":"ce4bho92rcd13ifvqh4g","pricing_plan_id":"cebpf4jnsgd1na2vs0mg"},{"bike_id":"aa081435-b5f9-4834-b16c-7f35c836b33a","system_id":"levelo_inurba_marseille","lat":43.30159,"lon":5.37418,"is_reserved":false,"is_disabled":false,"rental_uris":{"android":"levelo://app?vid=aa081435-b5f9-4834-b16c-7f35c836b33a","ios":"levelo://app?vid=aa081435-b5f9-4834-b16c-7f35c836b33a"},"vehicle_type_id":"4","last_reported":1739358442,"current_range_meters":37600,"station_id":"ce4bgs92rcd13ifvqcc0","pricing_plan_id":"cebpf4jnsgd1na2vs0mg"},{"bike_id":"ee079ffa-4416-4a91-bc98-3bd665acea3b","system_id":"levelo_inurba_marseille","lat":43.3372,"lon":5.39179,"is_reserved":false,"is_disabled":false,"rental_uris":{"android":"levelo://app?vid=ee079ffa-4416-4a91-bc98-3bd665acea3b","ios":"levelo://app?vid=ee079ffa-4416-4a91-bc98-3bd665acea3b"},"vehicle_type_id":"4","last_reported":1739358442,"current_range_meters":39200,"station_id":"ce4bhr92rcd13ifvqhsg","pricing_plan_id":"cebpf4jnsgd1na2vs0mg"},{"bike_id":"1fa82dc6-47d4-4356-bbca-393bf4461726","system_id":"levelo_inurba_marseille","lat":43.23959,"lon":5.36629,"is_reserved":false,"is_disabled":false,"rental_uris":{"android":"levelo://app?vid=1fa82dc6-47d4-4356-bbca-393bf4461726","ios":"levelo://app?vid=1fa82dc6-47d4-4356-bbca-393bf4461726"},"vehicle_type_id":"4","last_reported":1739358442,"current_range_meters":13600,"station_id":"ce4bhi12rcd13ifvqfp0","pricing_plan_id":"cebpf4jnsgd1na2vs0mg"},{"bike_id":"e237757a-a50d-4da0-9dc5-06277203005e","system_id":"levelo_inurba_marseille","lat":43.31687,"lon":5.40467,"is_reserved":false,"is_disabled":false,"rental_uris":{"android":"levelo://app?vid=e237757a-a50d-4da0-9dc5-06277203005e","ios":"levelo://app?vid=e237757a-a50d-4da0-9dc5-06277203005e"},"vehicle_type_id":"4","last_reported":1739358442,"current_range_meters":2800,"station_id":"ce4bh012rcd13ifvqd00","pricing_plan_id":"cebpf4jnsgd1na2vs0mg"},{"bike_id":"23d748fe-d2fd-4357-8c0a-18133dabd7ec","system_id":"levelo_inurba_marseille","lat":43.32475,"lon":5.36577,"is_reserved":false,"is_disabled":false,"rental_uris":{"android":"levelo://app?vid=23d748fe-d2fd-4357-8c0a-18133dabd7ec","ios":"levelo://app?vid=23d748fe-d2fd-4357-8c0a-18133dabd7ec"},"vehicle_type_id":"4","last_reported":1739358442,"current_range_meters":39200,"station_id":"ce4bhs12rcd13ifvqhvg","pricing_plan_id":"cebpf4jnsgd1na2vs0mg"},{"bike_id":"bc9b283e-d1e3-4ecc-baae-e649ca388761","system_id":"levelo_inurba_marseille","lat":43.30165,"lon":5.37409,"is_reserved":false,"is_disabled":false,"rental_uris":{"android":"levelo://app?vid=bc9b283e-d1e3-4ecc-baae-e649ca388761","ios":"levelo://app?vid=bc9b283e-d1e3-4ecc-baae-e649ca388761"},"vehicle_type_id":"4","last_reported":1739358442,"current_range_meters":33600,"station_id":"ce4bgs92rcd13ifvqcc0","pricing_plan_id":"cebpf4jnsgd1na2vs0mg"},{"bike_id":"3adb6699-f719-4456-92ab-1968693e97fb","system_id":"levelo_inurba_marseille","lat":43.24158,"lon":5.36415,"is_reserved":false,"is_disabled":false,"rental_uris":{"android":"levelo://app?vid=3adb6699-f719-4456-92ab-1968693e97fb","ios":"levelo://app?vid=3adb6699-f719-4456-92ab-1968693e97fb"},"vehicle_type_id":"4","last_reported":1739358442,"current_range_meters":27600,"station_id":"cpo36qri1sfpv3e86is0","pricing_plan_id":"cebpf4jnsgd1na2vs0mg"},{"bike_id":"496fa2ad-a547-4095-b8b9-a29f1a78ab4b","system_id":"levelo_inurba_marseille","lat":43.2783,"lon":5.40737,"is_reserved":false,"is_disabled":false,"rental_uris":{"android":"levelo://app?vid=496fa2ad-a547-4095-b8b9-a29f1a78ab4b","ios":"levelo://app?vid=496fa2ad-a547-4095-b8b9-a29f1a78ab4b"},"vehicle_type_id":"4","last_reported":1739358442,"current_range_meters":32800,"station_id":"ce4bhnh2rcd13ifvqgtg","pricing_plan_id":"cebpf4jnsgd1na2vs0mg"},{"bike_id":"2d708f40-fafd-4352-afb2-83f671d6d30f","system_id":"levelo_inurba_marseille","lat":43.29583,"lon":5.37717,"is_reserved":false,"is_disabled":false,"rental_uris":{"android":"levelo://app?vid=2d708f40-fafd-4352-afb2-83f671d6d30f","ios":"levelo://app?vid=2d708f40-fafd-4352-afb2-83f671d6d30f"},"vehicle_type_id":"4","last_reported":1739358442,"current_range_meters":18000,"station_id":"","pricing_plan_id":"cebpf4jnsgd1na2vs0mg"},{"bike_id":"49755494-159f-4648-b2cf-3265a6a32989","system_id":"levelo_inurba_marseille","lat":43.280972,"lon":5.378306,"is_reserved":false,"is_disabled":true,"rental_uris":{"android":"levelo://app?vid=49755494-159f-4648-b2cf-3265a6a32989","ios":"levelo://app?vid=49755494-159f-4648-b2cf-3265a6a32989"},"vehicle_type_id":"4","last_reported":1739358442,"current_range_meters":27600,"station_id":"ce4bha12rcd13ifvqee0","pricing_plan_id":"cebpf4jnsgd1na2vs0mg"},{"bike_id":"211cb129-dca9-4da8-8639-5498c4f8bbc8","system_id":"levelo_inurba_marseille","lat":43.23082,"lon":5.35488,"is_reserved":false,"is_disabled":false,"rental_uris":{"android":"levelo://app?vid=211cb129-dca9-4da8-8639-5498c4f8bbc8","ios":"levelo://app?vid=211cb129-dca9-4da8-8639-5498c4f8bbc8"},"vehicle_type_id":"4","last_reported":1739358442,"current_range_meters":26000,"station_id":"cpo3342slgdg3j2ifvpg","pricing_plan_id":"cebpf4jnsgd1na2vs0mg"},{"bike_id":"3aeb5cdf-f333-43fd-9c06-e99bd36b32d2","system_id":"levelo_inurba_marseille","lat":43.29949,"lon":5.41328,"is_reserved":false,"is_disabled":false,"rental_uris":{"android":"levelo://app?vid=3aeb5cdf-f333-43fd-9c06-e99bd36b32d2","ios":"levelo://app?vid=3aeb5cdf-f333-43fd-9c06-e99bd36b32d2"},"vehicle_type_id":"4","last_reported":1739358442,"current_range_meters":38800,"station_id":"ce4bhp12rcd13ifvqh9g","pricing_plan_id":"cebpf4jnsgd1na2vs0mg"},{"bike_id":"3d01ee57-be5d-4165-815d-c5b06c8be331","system_id":"levelo_inurba_marseille","lat":43.25045,"lon":5.3893,"is_reserved":false,"is_disabled":false,"rental_uris":{"android":"levelo://app?vid=3d01ee57-be5d-4165-815d-c5b06c8be331","ios":"levelo://app?vid=3d01ee57-be5d-4165-815d-c5b06c8be331"},"vehicle_type_id":"4","last_reported":1739358442,"current_range_meters":39200,"station_id":"ce4bhgp2rcd13ifvqfd0","pricing_plan_id":"cebpf4jnsgd1na2vs0mg"},{"bike_id":"1b6cda19-130d-43d5-8530-c50565fc64e0","system_id":"levelo_inurba_marseille","lat":43.28484,"lon":5.38416,"is_reserved":false,"is_disabled":false,"rental_uris":{"android":"levelo://app?vid=1b6cda19-130d-43d5-8530-c50565fc64e0","ios":"levelo://app?vid=1b6cda19-130d-43d5-8530-c50565fc64e0"},"vehicle_type_id":"4","last_reported":1739358442,"current_range_meters":34000,"station_id":"ce4bh512rcd13ifvqe3g","pricing_plan_id":"cebpf4jnsgd1na2vs0mg"},{"bike_id":"6decb778-2a50-4682-bebd-1b3d956ffb80","system_id":"levelo_inurba_marseille","lat":43.29244,"lon":5.40912,"is_reserved":false,"is_disabled":false,"rental_uris":{"android":"levelo://app?vid=6decb778-2a50-4682-bebd-1b3d956ffb80","ios":"levelo://app?vid=6decb778-2a50-4682-bebd-1b3d956ffb80"},"vehicle_type_id":"4","last_reported":1739358442,"current_range_meters":38800,"station_id":"ce4bh192rcd13ifvqdc0","pricing_plan_id":"cebpf4jnsgd1na2vs0mg"},{"bike_id":"c07ffd3b-1b45-4f4f-af96-2b31373f9d65","system_id":"levelo_inurba_marseille","lat":43.24161,"lon":5.36411,"is_reserved":false,"is_disabled":false,"rental_uris":{"android":"levelo://app?vid=c07ffd3b-1b45-4f4f-af96-2b31373f9d65","ios":"levelo://app?vid=c07ffd3b-1b45-4f4f-af96-2b31373f9d65"},"vehicle_type_id":"4","last_reported":1739358442,"current_range_meters":28000,"station_id":"cpo36qri1sfpv3e86is0","pricing_plan_id":"cebpf4jnsgd1na2vs0mg"},{"bike_id":"76ed4e97-7fa9-4836-bcd3-e52753ef31b4","system_id":"levelo_inurba_marseille","lat":43.2984,"lon":5.36277,"is_reserved":false,"is_disabled":false,"rental_uris":{"android":"levelo://app?vid=76ed4e97-7fa9-4836-bcd3-e52753ef31b4","ios":"levelo://app?vid=76ed4e97-7fa9-4836-bcd3-e52753ef31b4"},"vehicle_type_id":"4","last_reported":1739358442,"current_range_meters":38800,"station_id":"ce4bgpp2rcd13ifvqc3g","pricing_plan_id":"cebpf4jnsgd1na2vs0mg"},{"bike_id":"4df2ae8d-a4b4-497c-96ad-357c27fdec6d","system_id":"levelo_inurba_marseille","lat":43.26553,"lon":5.37286,"is_reserved":false,"is_disabled":true,"rental_uris":{"android":"levelo://app?vid=4df2ae8d-a4b4-497c-96ad-357c27fdec6d","ios":"levelo://app?vid=4df2ae8d-a4b4-497c-96ad-357c27fdec6d"},"vehicle_type_id":"4","last_reported":1739358442,"current_range_meters":0,"station_id":"ce4bhg12rcd13ifvqf70","pricing_plan_id":"cebpf4jnsgd1na2vs0mg"},{"bike_id":"d32849cf-4c14-4032-9063-172d06d3f04f","system_id":"levelo_inurba_marseille","lat":43.23223,"lon":5.35495,"is_reserved":false,"is_disabled":false,"rental_uris":{"android":"levelo://app?vid=d32849cf-4c14-4032-9063-172d06d3f04f","ios":"levelo://app?vid=d32849cf-4c14-4032-9063-172d06d3f04f"},"vehicle_type_id":"4","last_reported":1739358442,"current_range_meters":31200,"station_id":"ce4bhu92rcd13ifvqi70","pricing_plan_id":"cebpf4jnsgd1na2vs0mg"},{"bike_id":"2ff86c0c-69fd-4294-8842-114f3593748f","system_id":"levelo_inurba_marseille","lat":43.31359,"lon":5.367023,"is_reserved":false,"is_disabled":false,"rental_uris":{"android":"levelo://app?vid=2ff86c0c-69fd-4294-8842-114f3593748f","ios":"levelo://app?vid=2ff86c0c-69fd-4294-8842-114f3593748f"},"vehicle_type_id":"4","last_reported":1739358442,"current_range_meters":36800,"station_id":"ce4bgr92rcd13ifvqc6g","pricing_plan_id":"cebpf4jnsgd1na2vs0mg"},{"bike_id":"4bb4af83-e61e-4f75-9787-d8bfa4ce6d16","system_id":"levelo_inurba_marseille","lat":43.30949,"lon":5.39057,"is_reserved":false,"is_disabled":false,"rental_uris":{"android":"levelo://app?vid=4bb4af83-e61e-4f75-9787-d8bfa4ce6d16","ios":"levelo://app?vid=4bb4af83-e61e-4f75-9787-d8bfa4ce6d16"},"vehicle_type_id":"4","last_reported":1739358442,"current_range_meters":39200,"station_id":"ce4bgup2rcd13ifvqco0","pricing_plan_id":"cebpf4jnsgd1na2vs0mg"},{"bike_id":"1718508b-a124-4004-b648-bc715139650e","system_id":"levelo_inurba_marseille","lat":43.28947,"lon":5.36417,"is_reserved":false,"is_disabled":false,"rental_uris":{"android":"levelo://app?vid=1718508b-a124-4004-b648-bc715139650e","ios":"levelo://app?vid=1718508b-a124-4004-b648-bc715139650e"},"vehicle_type_id":"4","last_reported":1739358442,"current_range_meters":38800,"station_id":"ce4bhc92rcd13ifvqetg","pricing_plan_id":"cebpf4jnsgd1na2vs0mg"},{"bike_id":"536366d2-282b-48e8-9268-35b7ee369088","system_id":"levelo_inurba_marseille","lat":43.25006,"lon":5.38962,"is_reserved":false,"is_disabled":false,"rental_uris":{"android":"levelo://app?vid=536366d2-282b-48e8-9268-35b7ee369088","ios":"levelo://app?vid=536366d2-282b-48e8-9268-35b7ee369088"},"vehicle_type_id":"4","last_reported":1739358442,"current_range_meters":30400,"station_id":"ce4bhgp2rcd13ifvqfd0","pricing_plan_id":"cebpf4jnsgd1na2vs0mg"},{"bike_id":"09a31e22-31a3-4a8b-a8f3-c6b84a9cc357","system_id":"levelo_inurba_marseille","lat":43.27574,"lon":5.38432,"is_reserved":false,"is_disabled":false,"rental_uris":{"android":"levelo://app?vid=09a31e22-31a3-4a8b-a8f3-c6b84a9cc357","ios":"levelo://app?vid=09a31e22-31a3-4a8b-a8f3-c6b84a9cc357"},"vehicle_type_id":"4","last_reported":1739358442,"current_range_meters":24400,"station_id":"ce4bhh92rcd13ifvqfi0","pricing_plan_id":"cebpf4jnsgd1na2vs0mg"},{"bike_id":"b7cfafc0-fba3-47fa-8c3d-d96c6bee1f7a","system_id":"levelo_inurba_marseille","lat":43.24379,"lon":5.37065,"is_reserved":false,"is_disabled":false,"rental_uris":{"android":"levelo://app?vid=b7cfafc0-fba3-47fa-8c3d-d96c6bee1f7a","ios":"levelo://app?vid=b7cfafc0-fba3-47fa-8c3d-d96c6bee1f7a"},"vehicle_type_id":"4","last_reported":1739358442,"current_range_meters":30400,"station_id":"ce4bhhh2rcd13ifvqfk0","pricing_plan_id":"cebpf4jnsgd1na2vs0mg"},{"bike_id":"9ba133ba-7b58-4607-8737-7fb5bce66e58","system_id":"levelo_inurba_marseille","lat":43.24395,"lon":5.37064,"is_reserved":false,"is_disabled":false,"rental_uris":{"android":"levelo://app?vid=9ba133ba-7b58-4607-8737-7fb5bce66e58","ios":"levelo://app?vid=9ba133ba-7b58-4607-8737-7fb5bce66e58"},"vehicle_type_id":"4","last_reported":1739358442,"current_range_meters":38800,"station_id":"ce4bhhh2rcd13ifvqfk0","pricing_plan_id":"cebpf4jnsgd1na2vs0mg"},{"bike_id":"24d2a29b-fa24-4c85-a726-541b11d56bc0","system_id":"levelo_inurba_marseille","lat":43.31367,"lon":5.36737,"is_reserved":false,"is_disabled":false,"rental_uris":{"android":"levelo://app?vid=24d2a29b-fa24-4c85-a726-541b11d56bc0","ios":"levelo://app?vid=24d2a29b-fa24-4c85-a726-541b11d56bc0"},"vehicle_type_id":"4","last_reported":1739358442,"current_range_meters":14400,"station_id":"ce4bgr92rcd13ifvqc6g","pricing_plan_id":"cebpf4jnsgd1na2vs0mg"},{"bike_id":"3e05173f-c640-4ed3-a2ba-c06426ae393a","system_id":"levelo_inurba_marseille","lat":43.29883,"lon":5.39741,"is_reserved":false,"is_disabled":false,"rental_uris":{"android":"levelo://app?vid=3e05173f-c640-4ed3-a2ba-c06426ae393a","ios":"levelo://app?vid=3e05173f-c640-4ed3-a2ba-c06426ae393a"},"vehicle_type_id":"4","last_reported":1739358442,"current_range_meters":38000,"station_id":"ce4bh0h2rcd13ifvqd50","pricing_plan_id":"cebpf4jnsgd1na2vs0mg"},{"bike_id":"8ec577f3-8ca3-449b-97e8-b869a3caa09d","system_id":"levelo_inurba_marseille","lat":43.29553,"lon":5.37537,"is_reserved":false,"is_disabled":false,"rental_uris":{"android":"levelo://app?vid=8ec577f3-8ca3-449b-97e8-b869a3caa09d","ios":"levelo://app?vid=8ec577f3-8ca3-449b-97e8-b869a3caa09d"},"vehicle_type_id":"4","last_reported":1739358442,"current_range_meters":20000,"station_id":"ce4bgh92rcd13ifvqb50","pricing_plan_id":"cebpf4jnsgd1na2vs0mg"},{"bike_id":"1864790b-e782-4bb5-9af4-32a808bf7844","system_id":"levelo_inurba_marseille","lat":43.29528,"lon":5.385533,"is_reserved":false,"is_disabled":false,"rental_uris":{"android":"levelo://app?vid=1864790b-e782-4bb5-9af4-32a808bf7844","ios":"levelo://app?vid=1864790b-e782-4bb5-9af4-32a808bf7844"},"vehicle_type_id":"4","last_reported":1739358442,"current_range_meters":38800,"station_id":"ce4bgih2rcd13ifvqba0","pricing_plan_id":"cebpf4jnsgd1na2vs0mg"},{"bike_id":"14b2070b-6ddc-42e3-b1e8-9c0cbc081f72","system_id":"levelo_inurba_marseille","lat":43.3371,"lon":5.39187,"is_reserved":false,"is_disabled":false,"rental_uris":{"android":"levelo://app?vid=14b2070b-6ddc-42e3-b1e8-9c0cbc081f72","ios":"levelo://app?vid=14b2070b-6ddc-42e3-b1e8-9c0cbc081f72"},"vehicle_type_id":"4","last_reported":1739358442,"current_range_meters":38800,"station_id":"ce4bhr92rcd13ifvqhsg","pricing_plan_id":"cebpf4jnsgd1na2vs0mg"},{"bike_id":"6bbd4eb5-7a4e-4050-b294-258559322377","system_id":"levelo_inurba_marseille","lat":43.28474,"lon":5.38419,"is_reserved":false,"is_disabled":false,"rental_uris":{"android":"levelo://app?vid=6bbd4eb5-7a4e-4050-b294-258559322377","ios":"levelo://app?vid=6bbd4eb5-7a4e-4050-b294-258559322377"},"vehicle_type_id":"4","last_reported":1739358442,"current_range_meters":19200,"station_id":"ce4bh512rcd13ifvqe3g","pricing_plan_id":"cebpf4jnsgd1na2vs0mg"},{"bike_id":"912c2311-31e6-4148-8004-3e554643b0df","system_id":"levelo_inurba_marseille","lat":43.29797,"lon":5.38102,"is_reserved":false,"is_disabled":false,"rental_uris":{"android":"levelo://app?vid=912c2311-31e6-4148-8004-3e554643b0df","ios":"levelo://app?vid=912c2311-31e6-4148-8004-3e554643b0df"},"vehicle_type_id":"4","last_reported":1739358442,"current_range_meters":31200,"station_id":"ce4bgip2rcd13ifvqbb0","pricing_plan_id":"cebpf4jnsgd1na2vs0mg"},{"bike_id":"3ad78980-d954-4439-b88d-56e0dcfe7b89","system_id":"levelo_inurba_marseille","lat":43.23956,"lon":5.36643,"is_reserved":false,"is_disabled":false,"rental_uris":{"android":"levelo://app?vid=3ad78980-d954-4439-b88d-56e0dcfe7b89","ios":"levelo://app?vid=3ad78980-d954-4439-b88d-56e0dcfe7b89"},"vehicle_type_id":"4","last_reported":1739358442,"current_range_meters":6800,"station_id":"ce4bhi12rcd13ifvqfp0","pricing_plan_id":"cebpf4jnsgd1na2vs0mg"},{"bike_id":"7d26e065-f8ab-410b-9a72-625a8483430f","system_id":"levelo_inurba_marseille","lat":43.29418,"lon":5.38623,"is_reserved":false,"is_disabled":true,"rental_uris":{"android":"levelo://app?vid=7d26e065-f8ab-410b-9a72-625a8483430f","ios":"levelo://app?vid=7d26e065-f8ab-410b-9a72-625a8483430f"},"vehicle_type_id":"4","last_reported":1739358442,"current_range_meters":1200,"station_id":"ce4bh2h2rcd13ifvqdh0","pricing_plan_id":"cebpf4jnsgd1na2vs0mg"},{"bike_id":"5510ff8d-806d-4715-bcc9-014cc9344dc2","system_id":"levelo_inurba_marseille","lat":43.31206,"lon":5.36879,"is_reserved":false,"is_disabled":false,"rental_uris":{"android":"levelo://app?vid=5510ff8d-806d-4715-bcc9-014cc9344dc2","ios":"levelo://app?vid=5510ff8d-806d-4715-bcc9-014cc9344dc2"},"vehicle_type_id":"4","last_reported":1739358442,"current_range_meters":39200,"station_id":"ce4bgl92rcd13ifvqbq0","pricing_plan_id":"cebpf4jnsgd1na2vs0mg"},{"bike_id":"72dcdbd8-6454-45d9-a70f-b140c9e866d2","system_id":"levelo_inurba_marseille","lat":43.29908,"lon":5.43633,"is_reserved":false,"is_disabled":false,"rental_uris":{"android":"levelo://app?vid=72dcdbd8-6454-45d9-a70f-b140c9e866d2","ios":"levelo://app?vid=72dcdbd8-6454-45d9-a70f-b140c9e866d2"},"vehicle_type_id":"4","last_reported":1739358442,"current_range_meters":38800,"station_id":"ce4bhpp2rcd13ifvqhfg","pricing_plan_id":"cebpf4jnsgd1na2vs0mg"},{"bike_id":"f2bbe9cd-66c5-4084-8491-9389ab1f2528","system_id":"levelo_inurba_marseille","lat":43.32548,"lon":5.41479,"is_reserved":false,"is_disabled":false,"rental_uris":{"android":"levelo://app?vid=f2bbe9cd-66c5-4084-8491-9389ab1f2528","ios":"levelo://app?vid=f2bbe9cd-66c5-4084-8491-9389ab1f2528"},"vehicle_type_id":"4","last_reported":1739358442,"current_range_meters":38800,"station_id":"ce4bhq12rcd13ifvqhhg","pricing_plan_id":"cebpf4jnsgd1na2vs0mg"},{"bike_id":"f08d674a-33c1-4e82-878e-e249dad63d7c","system_id":"levelo_inurba_marseille","lat":43.28035,"lon":5.36948,"is_reserved":false,"is_disabled":false,"rental_uris":{"android":"levelo://app?vid=f08d674a-33c1-4e82-878e-e249dad63d7c","ios":"levelo://app?vid=f08d674a-33c1-4e82-878e-e249dad63d7c"},"vehicle_type_id":"4","last_reported":1739358442,"current_range_meters":16800,"station_id":"ce4bha12rcd13ifvqef0","pricing_plan_id":"cebpf4jnsgd1na2vs0mg"},{"bike_id":"acd088e7-dc82-4cb8-8e19-47754c61567c","system_id":"levelo_inurba_marseille","lat":43.31362,"lon":5.36708,"is_reserved":false,"is_disabled":false,"rental_uris":{"android":"levelo://app?vid=acd088e7-dc82-4cb8-8e19-47754c61567c","ios":"levelo://app?vid=acd088e7-dc82-4cb8-8e19-47754c61567c"},"vehicle_type_id":"4","last_reported":1739358442,"current_range_meters":34800,"station_id":"ce4bgr92rcd13ifvqc6g","pricing_plan_id":"cebpf4jnsgd1na2vs0mg"},{"bike_id":"201b14f4-65c7-45ff-8010-fe136e6675ac","system_id":"levelo_inurba_marseille","lat":43.24175,"lon":5.39727,"is_reserved":false,"is_disabled":false,"rental_uris":{"android":"levelo://app?vid=201b14f4-65c7-45ff-8010-fe136e6675ac","ios":"levelo://app?vid=201b14f4-65c7-45ff-8010-fe136e6675ac"},"vehicle_type_id":"4","last_reported":1739358442,"current_range_meters":20800,"station_id":"ce4bhn12rcd13ifvqgpg","pricing_plan_id":"cebpf4jnsgd1na2vs0mg"},{"bike_id":"f4379ffa-d405-4bc5-bc54-4ecf2b401aef","system_id":"levelo_inurba_marseille","lat":43.30953,"lon":5.39065,"is_reserved":false,"is_disabled":false,"rental_uris":{"android":"levelo://app?vid=f4379ffa-d405-4bc5-bc54-4ecf2b401aef","ios":"levelo://app?vid=f4379ffa-d405-4bc5-bc54-4ecf2b401aef"},"vehicle_type_id":"4","last_reported":1739358442,"current_range_meters":38400,"station_id":"","pricing_plan_id":"cebpf4jnsgd1na2vs0mg"},{"bike_id":"417113bd-8ea5-409a-89c6-42681861a1bb","system_id":"levelo_inurba_marseille","lat":43.29926,"lon":5.37488,"is_reserved":false,"is_disabled":false,"rental_uris":{"android":"levelo://app?vid=417113bd-8ea5-409a-89c6-42681861a1bb","ios":"levelo://app?vid=417113bd-8ea5-409a-89c6-42681861a1bb"},"vehicle_type_id":"4","last_reported":1739358442,"current_range_meters":16400,"station_id":"ce4bgjh2rcd13ifvqbg0","pricing_plan_id":"cebpf4jnsgd1na2vs0mg"},{"bike_id":"6e7d3d9b-4a1e-44cb-a74d-08fc3df39ea4","system_id":"levelo_inurba_marseille","lat":43.25717,"lon":5.41109,"is_reserved":false,"is_disabled":false,"rental_uris":{"android":"levelo://app?vid=6e7d3d9b-4a1e-44cb-a74d-08fc3df39ea4","ios":"levelo://app?vid=6e7d3d9b-4a1e-44cb-a74d-08fc3df39ea4"},"vehicle_type_id":"4","last_reported":1739358442,"current_range_meters":24000,"station_id":"ce4bhkp2rcd13ifvqgd0","pricing_plan_id":"cebpf4jnsgd1na2vs0mg"},{"bike_id":"3fffe3db-771a-4c12-a037-1f9c428998bc","system_id":"levelo_inurba_marseille","lat":43.3056,"lon":5.36519,"is_reserved":false,"is_disabled":false,"rental_uris":{"android":"levelo://app?vid=3fffe3db-771a-4c12-a037-1f9c428998bc","ios":"levelo://app?vid=3fffe3db-771a-4c12-a037-1f9c428998bc"},"vehicle_type_id":"4","last_reported":1739358442,"current_range_meters":31200,"station_id":"ce4bgs12rcd13ifvqcag","pricing_plan_id":"cebpf4jnsgd1na2vs0mg"},{"bike_id":"ddbfc913-16cf-4d9f-a892-35d08e1e6767","system_id":"levelo_inurba_marseille","lat":43.29597,"lon":5.36771,"is_reserved":false,"is_disabled":false,"rental_uris":{"android":"levelo://app?vid=ddbfc913-16cf-4d9f-a892-35d08e1e6767","ios":"levelo://app?vid=ddbfc913-16cf-4d9f-a892-35d08e1e6767"},"vehicle_type_id":"4","last_reported":1739358442,"current_range_meters":11600,"station_id":"ce4bgph2rcd13ifvqc2g","pricing_plan_id":"cebpf4jnsgd1na2vs0mg"},{"bike_id":"0a77f424-9d7d-4010-bd33-1687a2ffd57e","system_id":"levelo_inurba_marseille","lat":43.24821,"lon":5.37445,"is_reserved":false,"is_disabled":false,"rental_uris":{"android":"levelo://app?vid=0a77f424-9d7d-4010-bd33-1687a2ffd57e","ios":"levelo://app?vid=0a77f424-9d7d-4010-bd33-1687a2ffd57e"},"vehicle_type_id":"4","last_reported":1739358442,"current_range_meters":10000,"station_id":"ce4bhgh2rcd13ifvqfb0","pricing_plan_id":"cebpf4jnsgd1na2vs0mg"},{"bike_id":"15c8d317-fbc9-41d6-8e07-f6f8c9ef394a","system_id":"levelo_inurba_marseille","lat":43.28429,"lon":5.38473,"is_reserved":false,"is_disabled":false,"rental_uris":{"android":"levelo://app?vid=15c8d317-fbc9-41d6-8e07-f6f8c9ef394a","ios":"levelo://app?vid=15c8d317-fbc9-41d6-8e07-f6f8c9ef394a"},"vehicle_type_id":"4","last_reported":1739358442,"current_range_meters":38800,"station_id":"","pricing_plan_id":"cebpf4jnsgd1na2vs0mg"},{"bike_id":"c2250f20-2283-4e17-b7ce-382f2f740aa1","system_id":"levelo_inurba_marseille","lat":43.24806,"lon":5.37464,"is_reserved":false,"is_disabled":false,"rental_uris":{"android":"levelo://app?vid=c2250f20-2283-4e17-b7ce-382f2f740aa1","ios":"levelo://app?vid=c2250f20-2283-4e17-b7ce-382f2f740aa1"},"vehicle_type_id":"4","last_reported":1739358442,"current_range_meters":38800,"station_id":"ce4bhgh2rcd13ifvqfb0","pricing_plan_id":"cebpf4jnsgd1na2vs0mg"},{"bike_id":"4bbd744f-d066-40c6-adb0-590ab819737a","system_id":"levelo_inurba_marseille","lat":43.28675,"lon":5.38655,"is_reserved":false,"is_disabled":false,"rental_uris":{"android":"levelo://app?vid=4bbd744f-d066-40c6-adb0-590ab819737a","ios":"levelo://app?vid=4bbd744f-d066-40c6-adb0-590ab819737a"},"vehicle_type_id":"4","last_reported":1739358442,"current_range_meters":28000,"station_id":"ce4bh492rcd13ifvqdug","pricing_plan_id":"cebpf4jnsgd1na2vs0mg"},{"bike_id":"d52467fa-3015-4742-aee2-f7ab48c12d28","system_id":"levelo_inurba_marseille","lat":43.30302,"lon":5.36884,"is_reserved":false,"is_disabled":false,"rental_uris":{"android":"levelo://app?vid=d52467fa-3015-4742-aee2-f7ab48c12d28","ios":"levelo://app?vid=d52467fa-3015-4742-aee2-f7ab48c12d28"},"vehicle_type_id":"4","last_reported":1739358442,"current_range_meters":15200,"station_id":"ce4bgqh2rcd13ifvqc5g","pricing_plan_id":"cebpf4jnsgd1na2vs0mg"},{"bike_id":"a3c8e50a-9da9-4b45-8e30-2a10a638adc8","system_id":"levelo_inurba_marseille","lat":43.30927,"lon":5.40163,"is_reserved":false,"is_disabled":false,"rental_uris":{"android":"levelo://app?vid=a3c8e50a-9da9-4b45-8e30-2a10a638adc8","ios":"levelo://app?vid=a3c8e50a-9da9-4b45-8e30-2a10a638adc8"},"vehicle_type_id":"4","last_reported":1739358442,"current_range_meters":38800,"station_id":"ce4bgvp2rcd13ifvqct0","pricing_plan_id":"cebpf4jnsgd1na2vs0mg"},{"bike_id":"512d4444-b98a-4f94-a9a8-c4337047ddd8","system_id":"levelo_inurba_marseille","lat":43.30421,"lon":5.39754,"is_reserved":false,"is_disabled":false,"rental_uris":{"android":"levelo://app?vid=512d4444-b98a-4f94-a9a8-c4337047ddd8","ios":"levelo://app?vid=512d4444-b98a-4f94-a9a8-c4337047ddd8"},"vehicle_type_id":"4","last_reported":1739358442,"current_range_meters":38800,"station_id":"ce4bh092rcd13ifvqd20","pricing_plan_id":"cebpf4jnsgd1na2vs0mg"},{"bike_id":"f85fd452-5bde-4296-ab83-dac7111c9b77","system_id":"levelo_inurba_marseille","lat":43.32539,"lon":5.41459,"is_reserved":false,"is_disabled":false,"rental_uris":{"android":"levelo://app?vid=f85fd452-5bde-4296-ab83-dac7111c9b77","ios":"levelo://app?vid=f85fd452-5bde-4296-ab83-dac7111c9b77"},"vehicle_type_id":"4","last_reported":1739358442,"current_range_meters":36400,"station_id":"ce4bhq12rcd13ifvqhhg","pricing_plan_id":"cebpf4jnsgd1na2vs0mg"},{"bike_id":"d3b58dda-3b0c-4227-b0cb-8890146ef189","system_id":"levelo_inurba_marseille","lat":43.30518,"lon":5.36539,"is_reserved":false,"is_disabled":false,"rental_uris":{"android":"levelo://app?vid=d3b58dda-3b0c-4227-b0cb-8890146ef189","ios":"levelo://app?vid=d3b58dda-3b0c-4227-b0cb-8890146ef189"},"vehicle_type_id":"4","last_reported":1739358442,"current_range_meters":38800,"station_id":"ce4bgs12rcd13ifvqcag","pricing_plan_id":"cebpf4jnsgd1na2vs0mg"},{"bike_id":"30b76049-e41b-4adb-862f-755fe2524e05","system_id":"levelo_inurba_marseille","lat":43.288513,"lon":5.393247,"is_reserved":false,"is_disabled":true,"rental_uris":{"android":"levelo://app?vid=30b76049-e41b-4adb-862f-755fe2524e05","ios":"levelo://app?vid=30b76049-e41b-4adb-862f-755fe2524e05"},"vehicle_type_id":"4","last_reported":1739358442,"current_range_meters":36400,"station_id":"","pricing_plan_id":"cebpf4jnsgd1na2vs0mg"},{"bike_id":"635543fe-6114-4369-91d2-b63a5133d0a1","system_id":"levelo_inurba_marseille","lat":43.27936,"lon":5.4105,"is_reserved":false,"is_disabled":false,"rental_uris":{"android":"levelo://app?vid=635543fe-6114-4369-91d2-b63a5133d0a1","ios":"levelo://app?vid=635543fe-6114-4369-91d2-b63a5133d0a1"},"vehicle_type_id":"4","last_reported":1739358442,"current_range_meters":38800,"station_id":"ce4bhnp2rcd13ifvqh0g","pricing_plan_id":"cebpf4jnsgd1na2vs0mg"},{"bike_id":"1a61f4d8-e48e-44c3-9f73-6ddc6ba904c6","system_id":"levelo_inurba_marseille","lat":43.31327,"lon":5.397,"is_reserved":false,"is_disabled":false,"rental_uris":{"android":"levelo://app?vid=1a61f4d8-e48e-44c3-9f73-6ddc6ba904c6","ios":"levelo://app?vid=1a61f4d8-e48e-44c3-9f73-6ddc6ba904c6"},"vehicle_type_id":"4","last_reported":1739358442,"current_range_meters":38800,"station_id":"ce4bgvp2rcd13ifvqcu0","pricing_plan_id":"cebpf4jnsgd1na2vs0mg"},{"bike_id":"b5c6d8e3-df4e-4921-be7d-a4e22b9e9116","system_id":"levelo_inurba_marseille","lat":43.30521,"lon":5.36734,"is_reserved":false,"is_disabled":false,"rental_uris":{"android":"levelo://app?vid=b5c6d8e3-df4e-4921-be7d-a4e22b9e9116","ios":"levelo://app?vid=b5c6d8e3-df4e-4921-be7d-a4e22b9e9116"},"vehicle_type_id":"4","last_reported":1739358442,"current_range_meters":20400,"station_id":"ce4bgrp2rcd13ifvqc9g","pricing_plan_id":"cebpf4jnsgd1na2vs0mg"},{"bike_id":"5cd67958-15a0-4488-9b50-6d2f3504b21f","system_id":"levelo_inurba_marseille","lat":43.30443,"lon":5.3889,"is_reserved":false,"is_disabled":false,"rental_uris":{"android":"levelo://app?vid=5cd67958-15a0-4488-9b50-6d2f3504b21f","ios":"levelo://app?vid=5cd67958-15a0-4488-9b50-6d2f3504b21f"},"vehicle_type_id":"4","last_reported":1739358442,"current_range_meters":39200,"station_id":"ce4bgk12rcd13ifvqbi0","pricing_plan_id":"cebpf4jnsgd1na2vs0mg"},{"bike_id":"fe0c7aeb-f36b-4665-bd60-b1469898c76d","system_id":"levelo_inurba_marseille","lat":43.26923,"lon":5.38928,"is_reserved":false,"is_disabled":false,"rental_uris":{"android":"levelo://app?vid=fe0c7aeb-f36b-4665-bd60-b1469898c76d","ios":"levelo://app?vid=fe0c7aeb-f36b-4665-bd60-b1469898c76d"},"vehicle_type_id":"4","last_reported":1739358442,"current_range_meters":33200,"station_id":"ce4bhhh2rcd13ifvqfl0","pricing_plan_id":"cebpf4jnsgd1na2vs0mg"},{"bike_id":"6f6dba09-9ceb-4ec0-a4eb-10d8b83b36e7","system_id":"levelo_inurba_marseille","lat":43.295227,"lon":5.390535,"is_reserved":false,"is_disabled":false,"rental_uris":{"android":"levelo://app?vid=6f6dba09-9ceb-4ec0-a4eb-10d8b83b36e7","ios":"levelo://app?vid=6f6dba09-9ceb-4ec0-a4eb-10d8b83b36e7"},"vehicle_type_id":"4","last_reported":1739358442,"current_range_meters":22800,"station_id":"ce4bhr92rcd13ifvqhsg","pricing_plan_id":"cebpf4jnsgd1na2vs0mg"},{"bike_id":"6dba28b7-02b9-4b59-9d6d-a9d4179bfb24","system_id":"levelo_inurba_marseille","lat":43.29307,"lon":5.37172,"is_reserved":false,"is_disabled":false,"rental_uris":{"android":"levelo://app?vid=6dba28b7-02b9-4b59-9d6d-a9d4179bfb24","ios":"levelo://app?vid=6dba28b7-02b9-4b59-9d6d-a9d4179bfb24"},"vehicle_type_id":"4","last_reported":1739358442,"current_range_meters":38800,"station_id":"ce4bgh92rcd13ifvqb40","pricing_plan_id":"cebpf4jnsgd1na2vs0mg"},{"bike_id":"87b12664-364b-4d5c-9305-ea1eaf32be2a","system_id":"levelo_inurba_marseille","lat":43.29054,"lon":5.39946,"is_reserved":false,"is_disabled":false,"rental_uris":{"android":"levelo://app?vid=87b12664-364b-4d5c-9305-ea1eaf32be2a","ios":"levelo://app?vid=87b12664-364b-4d5c-9305-ea1eaf32be2a"},"vehicle_type_id":"4","last_reported":1739358442,"current_range_meters":32400,"station_id":"ce4bh392rcd13ifvqdm0","pricing_plan_id":"cebpf4jnsgd1na2vs0mg"},{"bike_id":"e7317b5b-173d-4060-8e4e-467fa10d516f","system_id":"levelo_inurba_marseille","lat":43.30241,"lon":5.40057,"is_reserved":false,"is_disabled":true,"rental_uris":{"android":"levelo://app?vid=e7317b5b-173d-4060-8e4e-467fa10d516f","ios":"levelo://app?vid=e7317b5b-173d-4060-8e4e-467fa10d516f"},"vehicle_type_id":"4","last_reported":1739358442,"current_range_meters":8000,"station_id":"ce4bgvh2rcd13ifvqcs0","pricing_plan_id":"cebpf4jnsgd1na2vs0mg"},{"bike_id":"8f958795-1d0e-4a72-96cf-46fac3cf00bf","system_id":"levelo_inurba_marseille","lat":43.25724,"lon":5.41107,"is_reserved":false,"is_disabled":false,"rental_uris":{"android":"levelo://app?vid=8f958795-1d0e-4a72-96cf-46fac3cf00bf","ios":"levelo://app?vid=8f958795-1d0e-4a72-96cf-46fac3cf00bf"},"vehicle_type_id":"4","last_reported":1739358442,"current_range_meters":24000,"station_id":"ce4bhkp2rcd13ifvqgd0","pricing_plan_id":"cebpf4jnsgd1na2vs0mg"},{"bike_id":"11d0e484-9f72-4924-9c89-a026f85ce928","system_id":"levelo_inurba_marseille","lat":43.29566,"lon":5.37533,"is_reserved":false,"is_disabled":false,"rental_uris":{"android":"levelo://app?vid=11d0e484-9f72-4924-9c89-a026f85ce928","ios":"levelo://app?vid=11d0e484-9f72-4924-9c89-a026f85ce928"},"vehicle_type_id":"4","last_reported":1739358442,"current_range_meters":17600,"station_id":"ce4bgh92rcd13ifvqb50","pricing_plan_id":"cebpf4jnsgd1na2vs0mg"},{"bike_id":"04d4b8ab-1d4d-44ab-9d49-e10f569c0553","system_id":"levelo_inurba_marseille","lat":43.29853,"lon":5.36287,"is_reserved":false,"is_disabled":false,"rental_uris":{"android":"levelo://app?vid=04d4b8ab-1d4d-44ab-9d49-e10f569c0553","ios":"levelo://app?vid=04d4b8ab-1d4d-44ab-9d49-e10f569c0553"},"vehicle_type_id":"4","last_reported":1739358442,"current_range_meters":34000,"station_id":"ce4bgpp2rcd13ifvqc3g","pricing_plan_id":"cebpf4jnsgd1na2vs0mg"},{"bike_id":"4f4294db-4614-40dc-b6eb-a03d32160871","system_id":"levelo_inurba_marseille","lat":43.30537,"lon":5.36526,"is_reserved":false,"is_disabled":false,"rental_uris":{"android":"levelo://app?vid=4f4294db-4614-40dc-b6eb-a03d32160871","ios":"levelo://app?vid=4f4294db-4614-40dc-b6eb-a03d32160871"},"vehicle_type_id":"4","last_reported":1739358442,"current_range_meters":38800,"station_id":"ce4bgs12rcd13ifvqcag","pricing_plan_id":"cebpf4jnsgd1na2vs0mg"},{"bike_id":"02185e1f-8f2d-4166-b82a-9c67e778c7a6","system_id":"levelo_inurba_marseille","lat":43.28468,"lon":5.38428,"is_reserved":false,"is_disabled":false,"rental_uris":{"android":"levelo://app?vid=02185e1f-8f2d-4166-b82a-9c67e778c7a6","ios":"levelo://app?vid=02185e1f-8f2d-4166-b82a-9c67e778c7a6"},"vehicle_type_id":"4","last_reported":1739358442,"current_range_meters":31200,"station_id":"ce4bh512rcd13ifvqe3g","pricing_plan_id":"cebpf4jnsgd1na2vs0mg"},{"bike_id":"0106c6ce-b869-4e6f-8579-ca009b14cff1","system_id":"levelo_inurba_marseille","lat":43.29373,"lon":5.37853,"is_reserved":false,"is_disabled":false,"rental_uris":{"android":"levelo://app?vid=0106c6ce-b869-4e6f-8579-ca009b14cff1","ios":"levelo://app?vid=0106c6ce-b869-4e6f-8579-ca009b14cff1"},"vehicle_type_id":"4","last_reported":1739358442,"current_range_meters":38800,"station_id":"ce4bgjh2rcd13ifvqbf0","pricing_plan_id":"cebpf4jnsgd1na2vs0mg"},{"bike_id":"c4813b27-4250-43ea-8be5-ccd7321d2af3","system_id":"levelo_inurba_marseille","lat":43.28215,"lon":5.36989,"is_reserved":false,"is_disabled":false,"rental_uris":{"android":"levelo://app?vid=c4813b27-4250-43ea-8be5-ccd7321d2af3","ios":"levelo://app?vid=c4813b27-4250-43ea-8be5-ccd7321d2af3"},"vehicle_type_id":"4","last_reported":1739358442,"current_range_meters":18000,"station_id":"","pricing_plan_id":"cebpf4jnsgd1na2vs0mg"},{"bike_id":"87671df1-0575-4c1b-9230-115ab0f108f4","system_id":"levelo_inurba_marseille","lat":43.248,"lon":5.37459,"is_reserved":false,"is_disabled":true,"rental_uris":{"android":"levelo://app?vid=87671df1-0575-4c1b-9230-115ab0f108f4","ios":"levelo://app?vid=87671df1-0575-4c1b-9230-115ab0f108f4"},"vehicle_type_id":"4","last_reported":1739358442,"current_range_meters":0,"station_id":"ce4bhgh2rcd13ifvqfb0","pricing_plan_id":"cebpf4jnsgd1na2vs0mg"},{"bike_id":"2f6ca5c9-7339-425d-96d9-1012c8a7d24d","system_id":"levelo_inurba_marseille","lat":43.23145,"lon":5.43731,"is_reserved":false,"is_disabled":false,"rental_uris":{"android":"levelo://app?vid=2f6ca5c9-7339-425d-96d9-1012c8a7d24d","ios":"levelo://app?vid=2f6ca5c9-7339-425d-96d9-1012c8a7d24d"},"vehicle_type_id":"4","last_reported":1739358442,"current_range_meters":20400,"station_id":"ce4bhmp2rcd13ifvqgog","pricing_plan_id":"cebpf4jnsgd1na2vs0mg"},{"bike_id":"d861dd30-e6ef-4f59-a980-d65f79755ea4","system_id":"levelo_inurba_marseille","lat":43.30949,"lon":5.39045,"is_reserved":false,"is_disabled":false,"rental_uris":{"android":"levelo://app?vid=d861dd30-e6ef-4f59-a980-d65f79755ea4","ios":"levelo://app?vid=d861dd30-e6ef-4f59-a980-d65f79755ea4"},"vehicle_type_id":"4","last_reported":1739358442,"current_range_meters":25600,"station_id":"ce4bgup2rcd13ifvqco0","pricing_plan_id":"cebpf4jnsgd1na2vs0mg"},{"bike_id":"20406b32-4add-46fa-9e43-e570c77b6cd9","system_id":"levelo_inurba_marseille","lat":43.29091,"lon":5.38153,"is_reserved":false,"is_disabled":false,"rental_uris":{"android":"levelo://app?vid=20406b32-4add-46fa-9e43-e570c77b6cd9","ios":"levelo://app?vid=20406b32-4add-46fa-9e43-e570c77b6cd9"},"vehicle_type_id":"4","last_reported":1739358442,"current_range_meters":39200,"station_id":"ce4bh512rcd13ifvqe2g","pricing_plan_id":"cebpf4jnsgd1na2vs0mg"},{"bike_id":"d5c48af9-2459-4242-90ca-2a3682d70e4c","system_id":"levelo_inurba_marseille","lat":43.29307,"lon":5.37181,"is_reserved":false,"is_disabled":false,"rental_uris":{"android":"levelo://app?vid=d5c48af9-2459-4242-90ca-2a3682d70e4c","ios":"levelo://app?vid=d5c48af9-2459-4242-90ca-2a3682d70e4c"},"vehicle_type_id":"4","last_reported":1739358442,"current_range_meters":36800,"station_id":"ce4bgh92rcd13ifvqb40","pricing_plan_id":"cebpf4jnsgd1na2vs0mg"},{"bike_id":"36ff92ad-ebc1-4fd8-8dd7-e924b8bea389","system_id":"levelo_inurba_marseille","lat":43.3045,"lon":5.37909,"is_reserved":false,"is_disabled":true,"rental_uris":{"android":"levelo://app?vid=36ff92ad-ebc1-4fd8-8dd7-e924b8bea389","ios":"levelo://app?vid=36ff92ad-ebc1-4fd8-8dd7-e924b8bea389"},"vehicle_type_id":"4","last_reported":1739358442,"current_range_meters":18000,"station_id":"ce4bho92rcd13ifvqh3g","pricing_plan_id":"cebpf4jnsgd1na2vs0mg"},{"bike_id":"7399132f-cac0-47dd-97c2-a8a020c2c9ec","system_id":"levelo_inurba_marseille","lat":43.25949,"lon":5.40919,"is_reserved":false,"is_disabled":false,"rental_uris":{"android":"levelo://app?vid=7399132f-cac0-47dd-97c2-a8a020c2c9ec","ios":"levelo://app?vid=7399132f-cac0-47dd-97c2-a8a020c2c9ec"},"vehicle_type_id":"4","last_reported":1739358442,"current_range_meters":30800,"station_id":"ce4bhm92rcd13ifvqglg","pricing_plan_id":"cebpf4jnsgd1na2vs0mg"},{"bike_id":"27473ea3-e65b-42e5-ab9c-3b677648fd65","system_id":"levelo_inurba_marseille","lat":43.29793,"lon":5.39345,"is_reserved":false,"is_disabled":false,"rental_uris":{"android":"levelo://app?vid=27473ea3-e65b-42e5-ab9c-3b677648fd65","ios":"levelo://app?vid=27473ea3-e65b-42e5-ab9c-3b677648fd65"},"vehicle_type_id":"4","last_reported":1739358442,"current_range_meters":12400,"station_id":"chh1huq6cuj3fo74tm60","pricing_plan_id":"cebpf4jnsgd1na2vs0mg"},{"bike_id":"ca8a5279-544b-4153-bef1-c9511e7c0ee9","system_id":"levelo_inurba_marseille","lat":43.23162,"lon":5.43698,"is_reserved":false,"is_disabled":false,"rental_uris":{"android":"levelo://app?vid=ca8a5279-544b-4153-bef1-c9511e7c0ee9","ios":"levelo://app?vid=ca8a5279-544b-4153-bef1-c9511e7c0ee9"},"vehicle_type_id":"4","last_reported":1739358442,"current_range_meters":13600,"station_id":"ce4bhmp2rcd13ifvqgog","pricing_plan_id":"cebpf4jnsgd1na2vs0mg"},{"bike_id":"9996157f-25d4-4b42-b3b3-540e8965c829","system_id":"levelo_inurba_marseille","lat":43.29267,"lon":5.4017,"is_reserved":false,"is_disabled":false,"rental_uris":{"android":"levelo://app?vid=9996157f-25d4-4b42-b3b3-540e8965c829","ios":"levelo://app?vid=9996157f-25d4-4b42-b3b3-540e8965c829"},"vehicle_type_id":"4","last_reported":1739358442,"current_range_meters":30800,"station_id":"ce4bh312rcd13ifvqdk0","pricing_plan_id":"cebpf4jnsgd1na2vs0mg"},{"bike_id":"d25ee3e8-855e-4c6c-a4d7-6dd3de45a53d","system_id":"levelo_inurba_marseille","lat":43.27977,"lon":5.41645,"is_reserved":false,"is_disabled":false,"rental_uris":{"android":"levelo://app?vid=d25ee3e8-855e-4c6c-a4d7-6dd3de45a53d","ios":"levelo://app?vid=d25ee3e8-855e-4c6c-a4d7-6dd3de45a53d"},"vehicle_type_id":"4","last_reported":1739358442,"current_range_meters":24800,"station_id":"ce4bho12rcd13ifvqh1g","pricing_plan_id":"cebpf4jnsgd1na2vs0mg"},{"bike_id":"eefc91b1-3836-4d49-8a00-838da59c5c1c","system_id":"levelo_inurba_marseille","lat":43.30158,"lon":5.38083,"is_reserved":false,"is_disabled":false,"rental_uris":{"android":"levelo://app?vid=eefc91b1-3836-4d49-8a00-838da59c5c1c","ios":"levelo://app?vid=eefc91b1-3836-4d49-8a00-838da59c5c1c"},"vehicle_type_id":"4","last_reported":1739358442,"current_range_meters":12000,"station_id":"ce4bgjp2rcd13ifvqbh0","pricing_plan_id":"cebpf4jnsgd1na2vs0mg"},{"bike_id":"0f9b18df-62a8-493e-89b2-f9b94f6383a7","system_id":"levelo_inurba_marseille","lat":43.26941,"lon":5.40257,"is_reserved":false,"is_disabled":false,"rental_uris":{"android":"levelo://app?vid=0f9b18df-62a8-493e-89b2-f9b94f6383a7","ios":"levelo://app?vid=0f9b18df-62a8-493e-89b2-f9b94f6383a7"},"vehicle_type_id":"4","last_reported":1739358442,"current_range_meters":36000,"station_id":"cjm6bp8fraef2m0cb0m0","pricing_plan_id":"cebpf4jnsgd1na2vs0mg"},{"bike_id":"ba47bf06-9e19-4690-a25c-532b7a574d60","system_id":"levelo_inurba_marseille","lat":43.284491,"lon":5.386288,"is_reserved":false,"is_disabled":false,"rental_uris":{"android":"levelo://app?vid=ba47bf06-9e19-4690-a25c-532b7a574d60","ios":"levelo://app?vid=ba47bf06-9e19-4690-a25c-532b7a574d60"},"vehicle_type_id":"4","last_reported":1739358442,"current_range_meters":22000,"station_id":"ce4bh8p2rcd13ifvqeb0","pricing_plan_id":"cebpf4jnsgd1na2vs0mg"},{"bike_id":"ee2e1f34-7a57-4fc7-881f-b33a3e6cdadf","system_id":"levelo_inurba_marseille","lat":43.29624,"lon":5.3718,"is_reserved":false,"is_disabled":false,"rental_uris":{"android":"levelo://app?vid=ee2e1f34-7a57-4fc7-881f-b33a3e6cdadf","ios":"levelo://app?vid=ee2e1f34-7a57-4fc7-881f-b33a3e6cdadf"},"vehicle_type_id":"4","last_reported":1739358442,"current_range_meters":36400,"station_id":"ce4bgnh2rcd13ifvqc0g","pricing_plan_id":"cebpf4jnsgd1na2vs0mg"},{"bike_id":"a839bfaf-06c5-46d4-8542-37d7c1b2a0bb","system_id":"levelo_inurba_marseille","lat":43.30467,"lon":5.3791,"is_reserved":false,"is_disabled":false,"rental_uris":{"android":"levelo://app?vid=a839bfaf-06c5-46d4-8542-37d7c1b2a0bb","ios":"levelo://app?vid=a839bfaf-06c5-46d4-8542-37d7c1b2a0bb"},"vehicle_type_id":"4","last_reported":1739358442,"current_range_meters":28000,"station_id":"ce4bgup2rcd13ifvqcn0","pricing_plan_id":"cebpf4jnsgd1na2vs0mg"},{"bike_id":"8d2d4012-ff69-4800-927a-45caff6cd054","system_id":"levelo_inurba_marseille","lat":43.23147,"lon":5.43705,"is_reserved":false,"is_disabled":false,"rental_uris":{"android":"levelo://app?vid=8d2d4012-ff69-4800-927a-45caff6cd054","ios":"levelo://app?vid=8d2d4012-ff69-4800-927a-45caff6cd054"},"vehicle_type_id":"4","last_reported":1739358442,"current_range_meters":16400,"station_id":"ce4bhmp2rcd13ifvqgog","pricing_plan_id":"cebpf4jnsgd1na2vs0mg"},{"bike_id":"1ec14052-2d33-4aa1-9ab8-58cc71db74d1","system_id":"levelo_inurba_marseille","lat":43.24168,"lon":5.36406,"is_reserved":false,"is_disabled":false,"rental_uris":{"android":"levelo://app?vid=1ec14052-2d33-4aa1-9ab8-58cc71db74d1","ios":"levelo://app?vid=1ec14052-2d33-4aa1-9ab8-58cc71db74d1"},"vehicle_type_id":"4","last_reported":1739358442,"current_range_meters":10000,"station_id":"cpo36qri1sfpv3e86is0","pricing_plan_id":"cebpf4jnsgd1na2vs0mg"},{"bike_id":"863aee5d-150b-4314-830f-39ef194fc6f9","system_id":"levelo_inurba_marseille","lat":43.23065,"lon":5.35489,"is_reserved":false,"is_disabled":false,"rental_uris":{"android":"levelo://app?vid=863aee5d-150b-4314-830f-39ef194fc6f9","ios":"levelo://app?vid=863aee5d-150b-4314-830f-39ef194fc6f9"},"vehicle_type_id":"4","last_reported":1739358442,"current_range_meters":9200,"station_id":"cpo3342slgdg3j2ifvpg","pricing_plan_id":"cebpf4jnsgd1na2vs0mg"},{"bike_id":"483ca482-42b6-4ced-874f-fa21419a4ba6","system_id":"levelo_inurba_marseille","lat":43.30103,"lon":5.3909,"is_reserved":false,"is_disabled":false,"rental_uris":{"android":"levelo://app?vid=483ca482-42b6-4ced-874f-fa21419a4ba6","ios":"levelo://app?vid=483ca482-42b6-4ced-874f-fa21419a4ba6"},"vehicle_type_id":"4","last_reported":1739358442,"current_range_meters":37600,"station_id":"ce4bh192rcd13ifvqdb0","pricing_plan_id":"cebpf4jnsgd1na2vs0mg"},{"bike_id":"d62cce82-0ee7-4b57-aae7-6e75b69937c2","system_id":"levelo_inurba_marseille","lat":43.29278,"lon":5.4015,"is_reserved":false,"is_disabled":false,"rental_uris":{"android":"levelo://app?vid=d62cce82-0ee7-4b57-aae7-6e75b69937c2","ios":"levelo://app?vid=d62cce82-0ee7-4b57-aae7-6e75b69937c2"},"vehicle_type_id":"4","last_reported":1739358442,"current_range_meters":37600,"station_id":"ce4bh312rcd13ifvqdk0","pricing_plan_id":"cebpf4jnsgd1na2vs0mg"},{"bike_id":"791f5948-6c26-4c55-a8be-ca9b6a94c182","system_id":"levelo_inurba_marseille","lat":43.24396,"lon":5.37057,"is_reserved":false,"is_disabled":false,"rental_uris":{"android":"levelo://app?vid=791f5948-6c26-4c55-a8be-ca9b6a94c182","ios":"levelo://app?vid=791f5948-6c26-4c55-a8be-ca9b6a94c182"},"vehicle_type_id":"4","last_reported":1739358442,"current_range_meters":38800,"station_id":"ce4bhhh2rcd13ifvqfk0","pricing_plan_id":"cebpf4jnsgd1na2vs0mg"},{"bike_id":"a8fc6373-236b-4c06-9d3b-2a6dce076200","system_id":"levelo_inurba_marseille","lat":43.336068,"lon":5.410227,"is_reserved":false,"is_disabled":false,"rental_uris":{"android":"levelo://app?vid=a8fc6373-236b-4c06-9d3b-2a6dce076200","ios":"levelo://app?vid=a8fc6373-236b-4c06-9d3b-2a6dce076200"},"vehicle_type_id":"4","last_reported":1739358442,"current_range_meters":10800,"station_id":"ce4bhqh2rcd13ifvqhmg","pricing_plan_id":"cebpf4jnsgd1na2vs0mg"},{"bike_id":"3b223bb0-9a60-42b1-b1a9-6cf049a5235d","system_id":"levelo_inurba_marseille","lat":43.24402,"lon":5.37043,"is_reserved":false,"is_disabled":false,"rental_uris":{"android":"levelo://app?vid=3b223bb0-9a60-42b1-b1a9-6cf049a5235d","ios":"levelo://app?vid=3b223bb0-9a60-42b1-b1a9-6cf049a5235d"},"vehicle_type_id":"4","last_reported":1739358442,"current_range_meters":19600,"station_id":"ce4bhhh2rcd13ifvqfk0","pricing_plan_id":"cebpf4jnsgd1na2vs0mg"},{"bike_id":"5b7ad55d-7f29-4d02-a070-71b5574c5828","system_id":"levelo_inurba_marseille","lat":43.28615,"lon":5.35106,"is_reserved":false,"is_disabled":false,"rental_uris":{"android":"levelo://app?vid=5b7ad55d-7f29-4d02-a070-71b5574c5828","ios":"levelo://app?vid=5b7ad55d-7f29-4d02-a070-71b5574c5828"},"vehicle_type_id":"4","last_reported":1739358442,"current_range_meters":35600,"station_id":"ce4bhch2rcd13ifvqeug","pricing_plan_id":"cebpf4jnsgd1na2vs0mg"},{"bike_id":"fc855d4e-cf92-48ad-b751-57eb2469a89a","system_id":"levelo_inurba_marseille","lat":43.32467,"lon":5.36589,"is_reserved":false,"is_disabled":false,"rental_uris":{"android":"levelo://app?vid=fc855d4e-cf92-48ad-b751-57eb2469a89a","ios":"levelo://app?vid=fc855d4e-cf92-48ad-b751-57eb2469a89a"},"vehicle_type_id":"4","last_reported":1739358442,"current_range_meters":39200,"station_id":"ce4bhs12rcd13ifvqhvg","pricing_plan_id":"cebpf4jnsgd1na2vs0mg"},{"bike_id":"79df8d93-a019-4f4d-ad9b-607d770a7910","system_id":"levelo_inurba_marseille","lat":43.29407,"lon":5.38893,"is_reserved":false,"is_disabled":false,"rental_uris":{"android":"levelo://app?vid=79df8d93-a019-4f4d-ad9b-607d770a7910","ios":"levelo://app?vid=79df8d93-a019-4f4d-ad9b-607d770a7910"},"vehicle_type_id":"4","last_reported":1739358442,"current_range_meters":22400,"station_id":"","pricing_plan_id":"cebpf4jnsgd1na2vs0mg"},{"bike_id":"eefbb263-393d-4e57-9638-f71d68745d96","system_id":"levelo_inurba_marseille","lat":43.30879,"lon":5.39656,"is_reserved":false,"is_disabled":false,"rental_uris":{"android":"levelo://app?vid=eefbb263-393d-4e57-9638-f71d68745d96","ios":"levelo://app?vid=eefbb263-393d-4e57-9638-f71d68745d96"},"vehicle_type_id":"4","last_reported":1739358442,"current_range_meters":38000,"station_id":"ce4bh012rcd13ifvqcv0","pricing_plan_id":"cebpf4jnsgd1na2vs0mg"},{"bike_id":"5fb6cffe-d471-40bb-98f9-95bdbdd162a4","system_id":"levelo_inurba_marseille","lat":43.25946,"lon":5.40917,"is_reserved":false,"is_disabled":false,"rental_uris":{"android":"levelo://app?vid=5fb6cffe-d471-40bb-98f9-95bdbdd162a4","ios":"levelo://app?vid=5fb6cffe-d471-40bb-98f9-95bdbdd162a4"},"vehicle_type_id":"4","last_reported":1739358442,"current_range_meters":37600,"station_id":"ce4bhm92rcd13ifvqglg","pricing_plan_id":"cebpf4jnsgd1na2vs0mg"},{"bike_id":"9b02ba68-14be-47ff-96d9-441235861991","system_id":"levelo_inurba_marseille","lat":43.30529,"lon":5.36529,"is_reserved":false,"is_disabled":false,"rental_uris":{"android":"levelo://app?vid=9b02ba68-14be-47ff-96d9-441235861991","ios":"levelo://app?vid=9b02ba68-14be-47ff-96d9-441235861991"},"vehicle_type_id":"4","last_reported":1739358442,"current_range_meters":35200,"station_id":"ce4bgs12rcd13ifvqcag","pricing_plan_id":"cebpf4jnsgd1na2vs0mg"},{"bike_id":"8e3d9685-a8bf-4a5d-ba58-02bc4dfd2de6","system_id":"levelo_inurba_marseille","lat":43.24082,"lon":5.37763,"is_reserved":false,"is_disabled":false,"rental_uris":{"android":"levelo://app?vid=8e3d9685-a8bf-4a5d-ba58-02bc4dfd2de6","ios":"levelo://app?vid=8e3d9685-a8bf-4a5d-ba58-02bc4dfd2de6"},"vehicle_type_id":"4","last_reported":1739358442,"current_range_meters":30000,"station_id":"ce4bhnp2rcd13ifvqgvg","pricing_plan_id":"cebpf4jnsgd1na2vs0mg"},{"bike_id":"3015fbe8-cd75-46e1-adf4-2b93a1a611ba","system_id":"levelo_inurba_marseille","lat":43.30476,"lon":5.37901,"is_reserved":false,"is_disabled":false,"rental_uris":{"android":"levelo://app?vid=3015fbe8-cd75-46e1-adf4-2b93a1a611ba","ios":"levelo://app?vid=3015fbe8-cd75-46e1-adf4-2b93a1a611ba"},"vehicle_type_id":"4","last_reported":1739358442,"current_range_meters":30400,"station_id":"ce4bgup2rcd13ifvqcn0","pricing_plan_id":"cebpf4jnsgd1na2vs0mg"},{"bike_id":"18db5a5b-698f-4b53-a652-998bb2486d1b","system_id":"levelo_inurba_marseille","lat":43.30932,"lon":5.40147,"is_reserved":false,"is_disabled":false,"rental_uris":{"android":"levelo://app?vid=18db5a5b-698f-4b53-a652-998bb2486d1b","ios":"levelo://app?vid=18db5a5b-698f-4b53-a652-998bb2486d1b"},"vehicle_type_id":"4","last_reported":1739358442,"current_range_meters":29600,"station_id":"ce4bgvp2rcd13ifvqct0","pricing_plan_id":"cebpf4jnsgd1na2vs0mg"},{"bike_id":"3be4d193-80e7-4256-95e9-28a410f4a372","system_id":"levelo_inurba_marseille","lat":43.28456,"lon":5.359,"is_reserved":false,"is_disabled":false,"rental_uris":{"android":"levelo://app?vid=3be4d193-80e7-4256-95e9-28a410f4a372","ios":"levelo://app?vid=3be4d193-80e7-4256-95e9-28a410f4a372"},"vehicle_type_id":"4","last_reported":1739358442,"current_range_meters":37600,"station_id":"ce4bhah2rcd13ifvqei0","pricing_plan_id":"cebpf4jnsgd1na2vs0mg"},{"bike_id":"e74edd37-0ec7-4f56-b77f-e7249fd01314","system_id":"levelo_inurba_marseille","lat":43.30542,"lon":5.36537,"is_reserved":false,"is_disabled":false,"rental_uris":{"android":"levelo://app?vid=e74edd37-0ec7-4f56-b77f-e7249fd01314","ios":"levelo://app?vid=e74edd37-0ec7-4f56-b77f-e7249fd01314"},"vehicle_type_id":"4","last_reported":1739358442,"current_range_meters":38800,"station_id":"ce4bgs12rcd13ifvqcag","pricing_plan_id":"cebpf4jnsgd1na2vs0mg"},{"bike_id":"9e959baa-c12c-421b-ae7e-498336eaac08","system_id":"levelo_inurba_marseille","lat":43.25001,"lon":5.38933,"is_reserved":false,"is_disabled":false,"rental_uris":{"android":"levelo://app?vid=9e959baa-c12c-421b-ae7e-498336eaac08","ios":"levelo://app?vid=9e959baa-c12c-421b-ae7e-498336eaac08"},"vehicle_type_id":"4","last_reported":1739358442,"current_range_meters":30400,"station_id":"ce4bhgp2rcd13ifvqfd0","pricing_plan_id":"cebpf4jnsgd1na2vs0mg"},{"bike_id":"405a9e07-24cf-4e83-8939-072d47df9ac8","system_id":"levelo_inurba_marseille","lat":43.29289,"lon":5.37445,"is_reserved":false,"is_disabled":false,"rental_uris":{"android":"levelo://app?vid=405a9e07-24cf-4e83-8939-072d47df9ac8","ios":"levelo://app?vid=405a9e07-24cf-4e83-8939-072d47df9ac8"},"vehicle_type_id":"4","last_reported":1739358442,"current_range_meters":38800,"station_id":"ce4bgi12rcd13ifvqb70","pricing_plan_id":"cebpf4jnsgd1na2vs0mg"},{"bike_id":"95238438-aee1-472d-8c03-6f5da0f062d1","system_id":"levelo_inurba_marseille","lat":43.313643,"lon":5.367083,"is_reserved":false,"is_disabled":false,"rental_uris":{"android":"levelo://app?vid=95238438-aee1-472d-8c03-6f5da0f062d1","ios":"levelo://app?vid=95238438-aee1-472d-8c03-6f5da0f062d1"},"vehicle_type_id":"4","last_reported":1739358442,"current_range_meters":16800,"station_id":"ce4bgr92rcd13ifvqc6g","pricing_plan_id":"cebpf4jnsgd1na2vs0mg"},{"bike_id":"fbc38eb3-477b-4a8d-b40c-9d6255508dfd","system_id":"levelo_inurba_marseille","lat":43.28003,"lon":5.39998,"is_reserved":false,"is_disabled":false,"rental_uris":{"android":"levelo://app?vid=fbc38eb3-477b-4a8d-b40c-9d6255508dfd","ios":"levelo://app?vid=fbc38eb3-477b-4a8d-b40c-9d6255508dfd"},"vehicle_type_id":"4","last_reported":1739358442,"current_range_meters":18800,"station_id":"ce4bho92rcd13ifvqh4g","pricing_plan_id":"cebpf4jnsgd1na2vs0mg"},{"bike_id":"b1898baf-b8a9-4a30-b162-de94b403ca66","system_id":"levelo_inurba_marseille","lat":43.30468,"lon":5.37918,"is_reserved":false,"is_disabled":false,"rental_uris":{"android":"levelo://app?vid=b1898baf-b8a9-4a30-b162-de94b403ca66","ios":"levelo://app?vid=b1898baf-b8a9-4a30-b162-de94b403ca66"},"vehicle_type_id":"4","last_reported":1739358442,"current_range_meters":37600,"station_id":"ce4bgup2rcd13ifvqcn0","pricing_plan_id":"cebpf4jnsgd1na2vs0mg"},{"bike_id":"dd7e4e2f-f2db-4c41-9b95-8e20b6da1267","system_id":"levelo_inurba_marseille","lat":43.32459,"lon":5.36616,"is_reserved":false,"is_disabled":false,"rental_uris":{"android":"levelo://app?vid=dd7e4e2f-f2db-4c41-9b95-8e20b6da1267","ios":"levelo://app?vid=dd7e4e2f-f2db-4c41-9b95-8e20b6da1267"},"vehicle_type_id":"4","last_reported":1739358442,"current_range_meters":12400,"station_id":"","pricing_plan_id":"cebpf4jnsgd1na2vs0mg"},{"bike_id":"d06b3b54-dc24-493e-97db-e54b37ab5416","system_id":"levelo_inurba_marseille","lat":43.30532,"lon":5.3656,"is_reserved":false,"is_disabled":false,"rental_uris":{"android":"levelo://app?vid=d06b3b54-dc24-493e-97db-e54b37ab5416","ios":"levelo://app?vid=d06b3b54-dc24-493e-97db-e54b37ab5416"},"vehicle_type_id":"4","last_reported":1739358442,"current_range_meters":27200,"station_id":"ce4bgs12rcd13ifvqcag","pricing_plan_id":"cebpf4jnsgd1na2vs0mg"},{"bike_id":"0a7d28ac-16e5-459a-9e3d-51b36dee94ec","system_id":"levelo_inurba_marseille","lat":43.30545,"lon":5.36532,"is_reserved":false,"is_disabled":false,"rental_uris":{"android":"levelo://app?vid=0a7d28ac-16e5-459a-9e3d-51b36dee94ec","ios":"levelo://app?vid=0a7d28ac-16e5-459a-9e3d-51b36dee94ec"},"vehicle_type_id":"4","last_reported":1739358442,"current_range_meters":25200,"station_id":"ce4bgs12rcd13ifvqcag","pricing_plan_id":"cebpf4jnsgd1na2vs0mg"},{"bike_id":"15ee7139-10dc-4fac-a480-f569a3ba5357","system_id":"levelo_inurba_marseille","lat":43.30162,"lon":5.3809,"is_reserved":false,"is_disabled":false,"rental_uris":{"android":"levelo://app?vid=15ee7139-10dc-4fac-a480-f569a3ba5357","ios":"levelo://app?vid=15ee7139-10dc-4fac-a480-f569a3ba5357"},"vehicle_type_id":"4","last_reported":1739358442,"current_range_meters":38800,"station_id":"ce4bgjp2rcd13ifvqbh0","pricing_plan_id":"cebpf4jnsgd1na2vs0mg"},{"bike_id":"7c91a076-5814-4379-8439-824333f763de","system_id":"levelo_inurba_marseille","lat":43.29885,"lon":5.38913,"is_reserved":false,"is_disabled":false,"rental_uris":{"android":"levelo://app?vid=7c91a076-5814-4379-8439-824333f763de","ios":"levelo://app?vid=7c91a076-5814-4379-8439-824333f763de"},"vehicle_type_id":"4","last_reported":1739358442,"current_range_meters":36400,"station_id":"ce4bh392rcd13ifvqdl0","pricing_plan_id":"cebpf4jnsgd1na2vs0mg"},{"bike_id":"ab909ba3-48d2-452b-b4b4-0bfd6be14168","system_id":"levelo_inurba_marseille","lat":43.33614,"lon":5.41026,"is_reserved":false,"is_disabled":false,"rental_uris":{"android":"levelo://app?vid=ab909ba3-48d2-452b-b4b4-0bfd6be14168","ios":"levelo://app?vid=ab909ba3-48d2-452b-b4b4-0bfd6be14168"},"vehicle_type_id":"4","last_reported":1739358442,"current_range_meters":38800,"station_id":"ce4bhqh2rcd13ifvqhmg","pricing_plan_id":"cebpf4jnsgd1na2vs0mg"},{"bike_id":"beac2093-e3f1-4a43-875b-f5700b6484b8","system_id":"levelo_inurba_marseille","lat":43.32533,"lon":5.41463,"is_reserved":false,"is_disabled":false,"rental_uris":{"android":"levelo://app?vid=beac2093-e3f1-4a43-875b-f5700b6484b8","ios":"levelo://app?vid=beac2093-e3f1-4a43-875b-f5700b6484b8"},"vehicle_type_id":"4","last_reported":1739358442,"current_range_meters":36000,"station_id":"ce4bhq12rcd13ifvqhhg","pricing_plan_id":"cebpf4jnsgd1na2vs0mg"},{"bike_id":"0fb30756-cd50-4cd1-ba06-1ebd026d9274","system_id":"levelo_inurba_marseille","lat":43.25017,"lon":5.38904,"is_reserved":false,"is_disabled":false,"rental_uris":{"android":"levelo://app?vid=0fb30756-cd50-4cd1-ba06-1ebd026d9274","ios":"levelo://app?vid=0fb30756-cd50-4cd1-ba06-1ebd026d9274"},"vehicle_type_id":"4","last_reported":1739358442,"current_range_meters":27600,"station_id":"ce4bhgp2rcd13ifvqfd0","pricing_plan_id":"cebpf4jnsgd1na2vs0mg"},{"bike_id":"b0f70249-6360-4dc3-a83a-fd73a6b534c8","system_id":"levelo_inurba_marseille","lat":43.32158,"lon":5.38471,"is_reserved":false,"is_disabled":false,"rental_uris":{"android":"levelo://app?vid=b0f70249-6360-4dc3-a83a-fd73a6b534c8","ios":"levelo://app?vid=b0f70249-6360-4dc3-a83a-fd73a6b534c8"},"vehicle_type_id":"4","last_reported":1739358442,"current_range_meters":34000,"station_id":"","pricing_plan_id":"cebpf4jnsgd1na2vs0mg"},{"bike_id":"54ce597b-1ca1-4d62-923d-d4b29eec04b3","system_id":"levelo_inurba_marseille","lat":43.31131,"lon":5.38261,"is_reserved":false,"is_disabled":false,"rental_uris":{"android":"levelo://app?vid=54ce597b-1ca1-4d62-923d-d4b29eec04b3","ios":"levelo://app?vid=54ce597b-1ca1-4d62-923d-d4b29eec04b3"},"vehicle_type_id":"4","last_reported":1739358442,"current_range_meters":16000,"station_id":"","pricing_plan_id":"cebpf4jnsgd1na2vs0mg"},{"bike_id":"b4765ae2-b7fb-4718-bf68-ce7ba2c817f9","system_id":"levelo_inurba_marseille","lat":43.27068,"lon":5.42285,"is_reserved":false,"is_disabled":false,"rental_uris":{"android":"levelo://app?vid=b4765ae2-b7fb-4718-bf68-ce7ba2c817f9","ios":"levelo://app?vid=b4765ae2-b7fb-4718-bf68-ce7ba2c817f9"},"vehicle_type_id":"4","last_reported":1739358442,"current_range_meters":18000,"station_id":"ce4bhk92rcd13ifvqgb0","pricing_plan_id":"cebpf4jnsgd1na2vs0mg"},{"bike_id":"3ab15547-1531-4de3-8b36-d6db588c4bfa","system_id":"levelo_inurba_marseille","lat":43.31257,"lon":5.36865,"is_reserved":false,"is_disabled":false,"rental_uris":{"android":"levelo://app?vid=3ab15547-1531-4de3-8b36-d6db588c4bfa","ios":"levelo://app?vid=3ab15547-1531-4de3-8b36-d6db588c4bfa"},"vehicle_type_id":"4","last_reported":1739358442,"current_range_meters":25600,"station_id":"ce4bgl92rcd13ifvqbq0","pricing_plan_id":"cebpf4jnsgd1na2vs0mg"},{"bike_id":"ef21d2aa-e17b-4739-a1c8-6fbc2e9df327","system_id":"levelo_inurba_marseille","lat":43.25031,"lon":5.38944,"is_reserved":false,"is_disabled":false,"rental_uris":{"android":"levelo://app?vid=ef21d2aa-e17b-4739-a1c8-6fbc2e9df327","ios":"levelo://app?vid=ef21d2aa-e17b-4739-a1c8-6fbc2e9df327"},"vehicle_type_id":"4","last_reported":1739358442,"current_range_meters":32400,"station_id":"ce4bhgp2rcd13ifvqfd0","pricing_plan_id":"cebpf4jnsgd1na2vs0mg"},{"bike_id":"b2bb2d68-e730-4f65-8eef-5b22ceeb4bc7","system_id":"levelo_inurba_marseille","lat":43.29375,"lon":5.37855,"is_reserved":false,"is_disabled":false,"rental_uris":{"android":"levelo://app?vid=b2bb2d68-e730-4f65-8eef-5b22ceeb4bc7","ios":"levelo://app?vid=b2bb2d68-e730-4f65-8eef-5b22ceeb4bc7"},"vehicle_type_id":"4","last_reported":1739358442,"current_range_meters":14800,"station_id":"ce4bgjh2rcd13ifvqbf0","pricing_plan_id":"cebpf4jnsgd1na2vs0mg"},{"bike_id":"e09e0c1a-4e03-41a6-8f38-cffd074b465f","system_id":"levelo_inurba_marseille","lat":43.2307,"lon":5.35499,"is_reserved":false,"is_disabled":false,"rental_uris":{"android":"levelo://app?vid=e09e0c1a-4e03-41a6-8f38-cffd074b465f","ios":"levelo://app?vid=e09e0c1a-4e03-41a6-8f38-cffd074b465f"},"vehicle_type_id":"4","last_reported":1739358442,"current_range_meters":16400,"station_id":"cpo3342slgdg3j2ifvpg","pricing_plan_id":"cebpf4jnsgd1na2vs0mg"},{"bike_id":"d3c04f09-c0eb-4fd0-9120-c3759954cbd0","system_id":"levelo_inurba_marseille","lat":43.30586,"lon":5.36527,"is_reserved":false,"is_disabled":false,"rental_uris":{"android":"levelo://app?vid=d3c04f09-c0eb-4fd0-9120-c3759954cbd0","ios":"levelo://app?vid=d3c04f09-c0eb-4fd0-9120-c3759954cbd0"},"vehicle_type_id":"4","last_reported":1739358442,"current_range_meters":29600,"station_id":"ce4bgs12rcd13ifvqcag","pricing_plan_id":"cebpf4jnsgd1na2vs0mg"},{"bike_id":"4985f4e8-357c-45d1-92f1-5e51b059536f","system_id":"levelo_inurba_marseille","lat":43.3057,"lon":5.36526,"is_reserved":false,"is_disabled":false,"rental_uris":{"android":"levelo://app?vid=4985f4e8-357c-45d1-92f1-5e51b059536f","ios":"levelo://app?vid=4985f4e8-357c-45d1-92f1-5e51b059536f"},"vehicle_type_id":"4","last_reported":1739358442,"current_range_meters":11200,"station_id":"ce4bgs12rcd13ifvqcag","pricing_plan_id":"cebpf4jnsgd1na2vs0mg"},{"bike_id":"1816de7e-d993-47e9-af2b-6ccea723f2c8","system_id":"levelo_inurba_marseille","lat":43.30958,"lon":5.39069,"is_reserved":false,"is_disabled":false,"rental_uris":{"android":"levelo://app?vid=1816de7e-d993-47e9-af2b-6ccea723f2c8","ios":"levelo://app?vid=1816de7e-d993-47e9-af2b-6ccea723f2c8"},"vehicle_type_id":"4","last_reported":1739358442,"current_range_meters":30400,"station_id":"ce4bgup2rcd13ifvqco0","pricing_plan_id":"cebpf4jnsgd1na2vs0mg"},{"bike_id":"af9c4cc8-7d89-47f5-833f-e114dfd1c44a","system_id":"levelo_inurba_marseille","lat":43.29168,"lon":5.37174,"is_reserved":false,"is_disabled":false,"rental_uris":{"android":"levelo://app?vid=af9c4cc8-7d89-47f5-833f-e114dfd1c44a","ios":"levelo://app?vid=af9c4cc8-7d89-47f5-833f-e114dfd1c44a"},"vehicle_type_id":"4","last_reported":1739358442,"current_range_meters":6800,"station_id":"ce4bha92rcd13ifvqeh0","pricing_plan_id":"cebpf4jnsgd1na2vs0mg"},{"bike_id":"58a923a1-50e5-4bcc-a5c7-59fd5ea18680","system_id":"levelo_inurba_marseille","lat":43.23158,"lon":5.43702,"is_reserved":false,"is_disabled":false,"rental_uris":{"android":"levelo://app?vid=58a923a1-50e5-4bcc-a5c7-59fd5ea18680","ios":"levelo://app?vid=58a923a1-50e5-4bcc-a5c7-59fd5ea18680"},"vehicle_type_id":"4","last_reported":1739358442,"current_range_meters":20400,"station_id":"ce4bhmp2rcd13ifvqgog","pricing_plan_id":"cebpf4jnsgd1na2vs0mg"},{"bike_id":"e9bd3df1-2ba5-4a9c-8114-dea03103e535","system_id":"levelo_inurba_marseille","lat":43.28618,"lon":5.35103,"is_reserved":false,"is_disabled":true,"rental_uris":{"android":"levelo://app?vid=e9bd3df1-2ba5-4a9c-8114-dea03103e535","ios":"levelo://app?vid=e9bd3df1-2ba5-4a9c-8114-dea03103e535"},"vehicle_type_id":"4","last_reported":1739358442,"current_range_meters":36800,"station_id":"ce4bhch2rcd13ifvqeug","pricing_plan_id":"cebpf4jnsgd1na2vs0mg"},{"bike_id":"339e404d-9d28-4510-9210-0bbfdd4c3efd","system_id":"levelo_inurba_marseille","lat":43.29436,"lon":5.39753,"is_reserved":false,"is_disabled":false,"rental_uris":{"android":"levelo://app?vid=339e404d-9d28-4510-9210-0bbfdd4c3efd","ios":"levelo://app?vid=339e404d-9d28-4510-9210-0bbfdd4c3efd"},"vehicle_type_id":"4","last_reported":1739358442,"current_range_meters":24000,"station_id":"ce4bh3h2rcd13ifvqdo0","pricing_plan_id":"cebpf4jnsgd1na2vs0mg"},{"bike_id":"9fcdab55-6d1d-456d-84cd-a4b15d39fdcf","system_id":"levelo_inurba_marseille","lat":43.25012,"lon":5.38949,"is_reserved":false,"is_disabled":false,"rental_uris":{"android":"levelo://app?vid=9fcdab55-6d1d-456d-84cd-a4b15d39fdcf","ios":"levelo://app?vid=9fcdab55-6d1d-456d-84cd-a4b15d39fdcf"},"vehicle_type_id":"4","last_reported":1739358442,"current_range_meters":8000,"station_id":"ce4bhgp2rcd13ifvqfd0","pricing_plan_id":"cebpf4jnsgd1na2vs0mg"},{"bike_id":"13d964e3-b6cd-4072-8cf7-fea6f5b2c126","system_id":"levelo_inurba_marseille","lat":43.286947,"lon":5.374018,"is_reserved":false,"is_disabled":true,"rental_uris":{"android":"levelo://app?vid=13d964e3-b6cd-4072-8cf7-fea6f5b2c126","ios":"levelo://app?vid=13d964e3-b6cd-4072-8cf7-fea6f5b2c126"},"vehicle_type_id":"4","last_reported":1739358442,"current_range_meters":19200,"station_id":"ce4bh3p2rcd13ifvqdq0","pricing_plan_id":"cebpf4jnsgd1na2vs0mg"},{"bike_id":"619581f3-dc46-4c56-8038-13beaa6d0afa","system_id":"levelo_inurba_marseille","lat":43.31986,"lon":5.38153,"is_reserved":false,"is_disabled":false,"rental_uris":{"android":"levelo://app?vid=619581f3-dc46-4c56-8038-13beaa6d0afa","ios":"levelo://app?vid=619581f3-dc46-4c56-8038-13beaa6d0afa"},"vehicle_type_id":"4","last_reported":1739358442,"current_range_meters":36800,"station_id":"ce4bhr12rcd13ifvqhpg","pricing_plan_id":"cebpf4jnsgd1na2vs0mg"},{"bike_id":"aa73f3e1-5d29-48cf-86fc-acab720e3734","system_id":"levelo_inurba_marseille","lat":43.2396,"lon":5.36596,"is_reserved":false,"is_disabled":false,"rental_uris":{"android":"levelo://app?vid=aa73f3e1-5d29-48cf-86fc-acab720e3734","ios":"levelo://app?vid=aa73f3e1-5d29-48cf-86fc-acab720e3734"},"vehicle_type_id":"4","last_reported":1739358442,"current_range_meters":7200,"station_id":"ce4bhi12rcd13ifvqfp0","pricing_plan_id":"cebpf4jnsgd1na2vs0mg"},{"bike_id":"f17f084e-b6c7-45c8-92c0-b718ab2f3029","system_id":"levelo_inurba_marseille","lat":43.24396,"lon":5.37061,"is_reserved":false,"is_disabled":false,"rental_uris":{"android":"levelo://app?vid=f17f084e-b6c7-45c8-92c0-b718ab2f3029","ios":"levelo://app?vid=f17f084e-b6c7-45c8-92c0-b718ab2f3029"},"vehicle_type_id":"4","last_reported":1739358442,"current_range_meters":33600,"station_id":"ce4bhhh2rcd13ifvqfk0","pricing_plan_id":"cebpf4jnsgd1na2vs0mg"},{"bike_id":"d3460b7b-e380-4b3a-92a9-5f7cd890c05f","system_id":"levelo_inurba_marseille","lat":43.23151,"lon":5.4371,"is_reserved":false,"is_disabled":false,"rental_uris":{"android":"levelo://app?vid=d3460b7b-e380-4b3a-92a9-5f7cd890c05f","ios":"levelo://app?vid=d3460b7b-e380-4b3a-92a9-5f7cd890c05f"},"vehicle_type_id":"4","last_reported":1739358442,"current_range_meters":19200,"station_id":"ce4bhmp2rcd13ifvqgog","pricing_plan_id":"cebpf4jnsgd1na2vs0mg"},{"bike_id":"d81e91d8-e797-42a2-b210-b4bb3dc89a0c","system_id":"levelo_inurba_marseille","lat":43.30438,"lon":5.39746,"is_reserved":false,"is_disabled":false,"rental_uris":{"android":"levelo://app?vid=d81e91d8-e797-42a2-b210-b4bb3dc89a0c","ios":"levelo://app?vid=d81e91d8-e797-42a2-b210-b4bb3dc89a0c"},"vehicle_type_id":"4","last_reported":1739358442,"current_range_meters":24800,"station_id":"ce4bh092rcd13ifvqd20","pricing_plan_id":"cebpf4jnsgd1na2vs0mg"},{"bike_id":"d157203c-3a5b-4bbc-9638-6eefce740d5e","system_id":"levelo_inurba_marseille","lat":43.23185,"lon":5.35564,"is_reserved":false,"is_disabled":false,"rental_uris":{"android":"levelo://app?vid=d157203c-3a5b-4bbc-9638-6eefce740d5e","ios":"levelo://app?vid=d157203c-3a5b-4bbc-9638-6eefce740d5e"},"vehicle_type_id":"4","last_reported":1739358442,"current_range_meters":35600,"station_id":"ce4bhu92rcd13ifvqi70","pricing_plan_id":"cebpf4jnsgd1na2vs0mg"},{"bike_id":"d9fd01f7-0adf-4397-8052-adf8d30ee713","system_id":"levelo_inurba_marseille","lat":43.30165,"lon":5.38088,"is_reserved":false,"is_disabled":false,"rental_uris":{"android":"levelo://app?vid=d9fd01f7-0adf-4397-8052-adf8d30ee713","ios":"levelo://app?vid=d9fd01f7-0adf-4397-8052-adf8d30ee713"},"vehicle_type_id":"4","last_reported":1739358442,"current_range_meters":37600,"station_id":"ce4bgjp2rcd13ifvqbh0","pricing_plan_id":"cebpf4jnsgd1na2vs0mg"},{"bike_id":"ea0590d8-618f-4aa9-a2d1-c4953674a834","system_id":"levelo_inurba_marseille","lat":43.3174,"lon":5.39045,"is_reserved":false,"is_disabled":false,"rental_uris":{"android":"levelo://app?vid=ea0590d8-618f-4aa9-a2d1-c4953674a834","ios":"levelo://app?vid=ea0590d8-618f-4aa9-a2d1-c4953674a834"},"vehicle_type_id":"4","last_reported":1739358442,"current_range_meters":39200,"station_id":"ce4bhqp2rcd13ifvqhng","pricing_plan_id":"cebpf4jnsgd1na2vs0mg"},{"bike_id":"6477f7d9-757f-4fec-8c2c-6f528ed204dc","system_id":"levelo_inurba_marseille","lat":43.24165,"lon":5.36394,"is_reserved":false,"is_disabled":false,"rental_uris":{"android":"levelo://app?vid=6477f7d9-757f-4fec-8c2c-6f528ed204dc","ios":"levelo://app?vid=6477f7d9-757f-4fec-8c2c-6f528ed204dc"},"vehicle_type_id":"4","last_reported":1739358442,"current_range_meters":37600,"station_id":"cpo36qri1sfpv3e86is0","pricing_plan_id":"cebpf4jnsgd1na2vs0mg"},{"bike_id":"ecbc50bb-def5-4dc0-8bdc-828655010a68","system_id":"levelo_inurba_marseille","lat":43.29847,"lon":5.36291,"is_reserved":false,"is_disabled":false,"rental_uris":{"android":"levelo://app?vid=ecbc50bb-def5-4dc0-8bdc-828655010a68","ios":"levelo://app?vid=ecbc50bb-def5-4dc0-8bdc-828655010a68"},"vehicle_type_id":"4","last_reported":1739358442,"current_range_meters":34000,"station_id":"","pricing_plan_id":"cebpf4jnsgd1na2vs0mg"},{"bike_id":"a540faae-6dd2-440f-8d2d-c8492a6d1cb8","system_id":"levelo_inurba_marseille","lat":43.29846,"lon":5.36273,"is_reserved":false,"is_disabled":false,"rental_uris":{"android":"levelo://app?vid=a540faae-6dd2-440f-8d2d-c8492a6d1cb8","ios":"levelo://app?vid=a540faae-6dd2-440f-8d2d-c8492a6d1cb8"},"vehicle_type_id":"4","last_reported":1739358442,"current_range_meters":38400,"station_id":"ce4bgpp2rcd13ifvqc3g","pricing_plan_id":"cebpf4jnsgd1na2vs0mg"},