{"last_updated":1745881785,"ttl":60,"version":"2.2","data":{"bikes":[{"bike_id":"957a0512-dcf1-4c9f-8a46-75042608e9f7","system_id":"levelo_inurba_marseille","lat":43.276773,"lon":5.389183,"is_reserved":false,"is_disabled":true,"rental_uris":{"android":"levelo://app?vid=957a0512-dcf1-4c9f-8a46-75042608e9f7","ios":"levelo://app?vid=957a0512-dcf1-4c9f-8a46-75042608e9f7"},"vehicle_type_id":"4","last_reported":1745881786,"current_range_meters":2800,"station_id":"ce4bhi12rcd13ifvqfo0","pricing_plan_id":"cebpf4jnsgd1na2vs0mg"},{"bike_id":"74677f28-3596-4c5b-98de-ba4120a70f9d","system_id":"levelo_inurba_marseille","lat":43.25619,"lon":5.41191,"is_reserved":false,"is_disabled":false,"rental_uris":{"android":"levelo://app?vid=74677f28-3596-4c5b-98de-ba4120a70f9d","ios":"levelo://app?vid=74677f28-3596-4c5b-98de-ba4120a70f9d"},"vehicle_type_id":"4","last_reported":1745881786,"current_range_meters":2800,"station_id":"","pricing_plan_id":"cebpf4jnsgd1na2vs0mg"},{"bike_id":"a2a86ca1-65c9-460e-91d0-7de99ed83b62","system_id":"levelo_inurba_marseille","lat":43.265553,"lon":5.372879,"is_reserved":false,"is_disabled":true,"rental_uris":{"android":"levelo://app?vid=a2a86ca1-65c9-460e-91d0-7de99ed83b62","ios":"levelo://app?vid=a2a86ca1-65c9-460e-91d0-7de99ed83b62"},"vehicle_type_id":"4","last_reported":1745881786,"current_range_meters":3200,"station_id":"ce4bhg12rcd13ifvqf70","pricing_plan_id":"cebpf4jnsgd1na2vs0mg"},{"bike_id":"525202d3-9abd-420b-aefd-dd54ac27ef04","system_id":"levelo_inurba_marseille","lat":43.240713,"lon":5.37763,"is_reserved":false,"is_disabled":false,"rental_uris":{"android":"levelo://app?vid=525202d3-9abd-420b-aefd-dd54ac27ef04","ios":"levelo://app?vid=525202d3-9abd-420b-aefd-dd54ac27ef04"},"vehicle_type_id":"4","last_reported":1745881786,"current_range_meters":3600,"station_id":"ce4bhnp2rcd13ifvqgvg","pricing_plan_id":"cebpf4jnsgd1na2vs0mg"},{"bike_id":"5c634152-8612-498f-bc6f-93b4d5da1eff","system_id":"levelo_inurba_marseille","lat":43.2804,"lon":5.36944,"is_reserved":false,"is_disabled":false,"rental_uris":{"android":"levelo://app?vid=5c634152-8612-498f-bc6f-93b4d5da1eff","ios":"levelo://app?vid=5c634152-8612-498f-bc6f-93b4d5da1eff"},"vehicle_type_id":"4","last_reported":1745881786,"current_range_meters":3600,"station_id":"ce4bha12rcd13ifvqef0","pricing_plan_id":"cebpf4jnsgd1na2vs0mg"},{"bike_id":"f62c08cd-4620-4739-a857-99492abdf253","system_id":"levelo_inurba_marseille","lat":43.265596,"lon":5.372818,"is_reserved":false,"is_disabled":false,"rental_uris":{"android":"levelo://app?vid=f62c08cd-4620-4739-a857-99492abdf253","ios":"levelo://app?vid=f62c08cd-4620-4739-a857-99492abdf253"},"vehicle_type_id":"4","last_reported":1745881786,"current_range_meters":4000,"station_id":"ce4bhg12rcd13ifvqf70","pricing_plan_id":"cebpf4jnsgd1na2vs0mg"},{"bike_id":"d9cd1294-5d0b-43d3-9258-deda946961d1","system_id":"levelo_inurba_marseille","lat":43.22522,"lon":5.34788,"is_reserved":false,"is_disabled":true,"rental_uris":{"android":"levelo://app?vid=d9cd1294-5d0b-43d3-9258-deda946961d1","ios":"levelo://app?vid=d9cd1294-5d0b-43d3-9258-deda946961d1"},"vehicle_type_id":"4","last_reported":1745881786,"current_range_meters":4000,"station_id":"st_cvj5dfep6f1abm77gieg","pricing_plan_id":"cebpf4jnsgd1na2vs0mg"},{"bike_id":"59ca24f2-2a70-4347-b369-ba9243e29662","system_id":"levelo_inurba_marseille","lat":43.30733,"lon":5.42431,"is_reserved":false,"is_disabled":false,"rental_uris":{"android":"levelo://app?vid=59ca24f2-2a70-4347-b369-ba9243e29662","ios":"levelo://app?vid=59ca24f2-2a70-4347-b369-ba9243e29662"},"vehicle_type_id":"4","last_reported":1745881786,"current_range_meters":4400,"station_id":"st_cvj6ca6bvosntc0bfgr0","pricing_plan_id":"cebpf4jnsgd1na2vs0mg"},{"bike_id":"cbec0076-95d0-4f8f-8339-66de29997492","system_id":"levelo_inurba_marseille","lat":43.25579,"lon":5.38231,"is_reserved":false,"is_disabled":false,"rental_uris":{"android":"levelo://app?vid=cbec0076-95d0-4f8f-8339-66de29997492","ios":"levelo://app?vid=cbec0076-95d0-4f8f-8339-66de29997492"},"vehicle_type_id":"4","last_reported":1745881786,"current_range_meters":4400,"station_id":"ce4bhih2rcd13ifvqfs0","pricing_plan_id":"cebpf4jnsgd1na2vs0mg"},{"bike_id":"eabc659d-49bd-4061-af98-20052a80f1d8","system_id":"levelo_inurba_marseille","lat":43.24661,"lon":5.38147,"is_reserved":false,"is_disabled":false,"rental_uris":{"android":"levelo://app?vid=eabc659d-49bd-4061-af98-20052a80f1d8","ios":"levelo://app?vid=eabc659d-49bd-4061-af98-20052a80f1d8"},"vehicle_type_id":"4","last_reported":1745881786,"current_range_meters":4400,"station_id":"ce4bhih2rcd13ifvqfr0","pricing_plan_id":"cebpf4jnsgd1na2vs0mg"},{"bike_id":"ef5a622e-aa0a-4359-b3fd-ef466748c455","system_id":"levelo_inurba_marseille","lat":43.23197,"lon":5.35552,"is_reserved":false,"is_disabled":false,"rental_uris":{"android":"levelo://app?vid=ef5a622e-aa0a-4359-b3fd-ef466748c455","ios":"levelo://app?vid=ef5a622e-aa0a-4359-b3fd-ef466748c455"},"vehicle_type_id":"4","last_reported":1745881786,"current_range_meters":4400,"station_id":"ce4bhu92rcd13ifvqi70","pricing_plan_id":"cebpf4jnsgd1na2vs0mg"},{"bike_id":"476d5457-f8ed-4790-ba4f-941ab585cf7b","system_id":"levelo_inurba_marseille","lat":43.26558,"lon":5.37281,"is_reserved":false,"is_disabled":false,"rental_uris":{"android":"levelo://app?vid=476d5457-f8ed-4790-ba4f-941ab585cf7b","ios":"levelo://app?vid=476d5457-f8ed-4790-ba4f-941ab585cf7b"},"vehicle_type_id":"4","last_reported":1745881786,"current_range_meters":4400,"station_id":"ce4bhg12rcd13ifvqf70","pricing_plan_id":"cebpf4jnsgd1na2vs0mg"},{"bike_id":"8ae79fb7-0582-444e-8dab-1d22e31e0f2e","system_id":"levelo_inurba_marseille","lat":43.239562,"lon":5.366303,"is_reserved":false,"is_disabled":false,"rental_uris":{"android":"levelo://app?vid=8ae79fb7-0582-444e-8dab-1d22e31e0f2e","ios":"levelo://app?vid=8ae79fb7-0582-444e-8dab-1d22e31e0f2e"},"vehicle_type_id":"4","last_reported":1745881786,"current_range_meters":5600,"station_id":"ce4bhi12rcd13ifvqfp0","pricing_plan_id":"cebpf4jnsgd1na2vs0mg"},{"bike_id":"4bedb4d8-0071-4dfb-a08a-28b6cf93bd3f","system_id":"levelo_inurba_marseille","lat":43.304181,"lon":5.389064,"is_reserved":false,"is_disabled":true,"rental_uris":{"android":"levelo://app?vid=4bedb4d8-0071-4dfb-a08a-28b6cf93bd3f","ios":"levelo://app?vid=4bedb4d8-0071-4dfb-a08a-28b6cf93bd3f"},"vehicle_type_id":"4","last_reported":1745881786,"current_range_meters":5600,"station_id":"ce4bgk12rcd13ifvqbi0","pricing_plan_id":"cebpf4jnsgd1na2vs0mg"},{"bike_id":"5cf37c7e-c3ed-4a02-b872-ba1b00adc3b4","system_id":"levelo_inurba_marseille","lat":43.246525,"lon":5.388947,"is_reserved":false,"is_disabled":false,"rental_uris":{"android":"levelo://app?vid=5cf37c7e-c3ed-4a02-b872-ba1b00adc3b4","ios":"levelo://app?vid=5cf37c7e-c3ed-4a02-b872-ba1b00adc3b4"},"vehicle_type_id":"4","last_reported":1745881786,"current_range_meters":6000,"station_id":"ce4bhg12rcd13ifvqf60","pricing_plan_id":"cebpf4jnsgd1na2vs0mg"},{"bike_id":"61ffaa74-f23c-450f-a9ee-eb45d749f9a5","system_id":"levelo_inurba_marseille","lat":43.24668,"lon":5.38155,"is_reserved":false,"is_disabled":false,"rental_uris":{"android":"levelo://app?vid=61ffaa74-f23c-450f-a9ee-eb45d749f9a5","ios":"levelo://app?vid=61ffaa74-f23c-450f-a9ee-eb45d749f9a5"},"vehicle_type_id":"4","last_reported":1745881786,"current_range_meters":6000,"station_id":"ce4bhih2rcd13ifvqfr0","pricing_plan_id":"cebpf4jnsgd1na2vs0mg"},{"bike_id":"51fddad3-d023-471d-86e3-c00bdd233807","system_id":"levelo_inurba_marseille","lat":43.30463,"lon":5.37902,"is_reserved":false,"is_disabled":false,"rental_uris":{"android":"levelo://app?vid=51fddad3-d023-471d-86e3-c00bdd233807","ios":"levelo://app?vid=51fddad3-d023-471d-86e3-c00bdd233807"},"vehicle_type_id":"4","last_reported":1745881786,"current_range_meters":6800,"station_id":"ce4bgup2rcd13ifvqcn0","pricing_plan_id":"cebpf4jnsgd1na2vs0mg"},{"bike_id":"2170e8a2-0b50-454a-a8c3-90edc68a4e7f","system_id":"levelo_inurba_marseille","lat":43.22924,"lon":5.35372,"is_reserved":false,"is_disabled":false,"rental_uris":{"android":"levelo://app?vid=2170e8a2-0b50-454a-a8c3-90edc68a4e7f","ios":"levelo://app?vid=2170e8a2-0b50-454a-a8c3-90edc68a4e7f"},"vehicle_type_id":"4","last_reported":1745881786,"current_range_meters":6800,"station_id":"cpo3532slgdg3j2ikp40","pricing_plan_id":"cebpf4jnsgd1na2vs0mg"},{"bike_id":"4141a4ac-c499-4bea-ac60-899e617d90d3","system_id":"levelo_inurba_marseille","lat":43.243922,"lon":5.370716,"is_reserved":false,"is_disabled":false,"rental_uris":{"android":"levelo://app?vid=4141a4ac-c499-4bea-ac60-899e617d90d3","ios":"levelo://app?vid=4141a4ac-c499-4bea-ac60-899e617d90d3"},"vehicle_type_id":"4","last_reported":1745881786,"current_range_meters":6800,"station_id":"ce4bhhh2rcd13ifvqfk0","pricing_plan_id":"cebpf4jnsgd1na2vs0mg"},{"bike_id":"06b5ace7-f5f7-4090-82a9-b0bedb4f32f3","system_id":"levelo_inurba_marseille","lat":43.27174,"lon":5.40988,"is_reserved":false,"is_disabled":false,"rental_uris":{"android":"levelo://app?vid=06b5ace7-f5f7-4090-82a9-b0bedb4f32f3","ios":"levelo://app?vid=06b5ace7-f5f7-4090-82a9-b0bedb4f32f3"},"vehicle_type_id":"4","last_reported":1745881786,"current_range_meters":6800,"station_id":"ce4bhl12rcd13ifvqgf0","pricing_plan_id":"cebpf4jnsgd1na2vs0mg"},{"bike_id":"a4c8a335-745b-4d95-97e0-7bac3cb18549","system_id":"levelo_inurba_marseille","lat":43.28082,"lon":5.3983,"is_reserved":false,"is_disabled":false,"rental_uris":{"android":"levelo://app?vid=a4c8a335-745b-4d95-97e0-7bac3cb18549","ios":"levelo://app?vid=a4c8a335-745b-4d95-97e0-7bac3cb18549"},"vehicle_type_id":"4","last_reported":1745881786,"current_range_meters":6800,"station_id":"","pricing_plan_id":"cebpf4jnsgd1na2vs0mg"},{"bike_id":"1db14274-463d-4180-bece-00dba6656848","system_id":"levelo_inurba_marseille","lat":43.23964,"lon":5.36631,"is_reserved":false,"is_disabled":false,"rental_uris":{"android":"levelo://app?vid=1db14274-463d-4180-bece-00dba6656848","ios":"levelo://app?vid=1db14274-463d-4180-bece-00dba6656848"},"vehicle_type_id":"4","last_reported":1745881786,"current_range_meters":6800,"station_id":"ce4bhi12rcd13ifvqfp0","pricing_plan_id":"cebpf4jnsgd1na2vs0mg"},{"bike_id":"59f6b8a5-9a4d-4f93-882c-fa6684eb7537","system_id":"levelo_inurba_marseille","lat":43.27675,"lon":5.38914,"is_reserved":false,"is_disabled":true,"rental_uris":{"android":"levelo://app?vid=59f6b8a5-9a4d-4f93-882c-fa6684eb7537","ios":"levelo://app?vid=59f6b8a5-9a4d-4f93-882c-fa6684eb7537"},"vehicle_type_id":"4","last_reported":1745881786,"current_range_meters":7200,"station_id":"ce4bhi12rcd13ifvqfo0","pricing_plan_id":"cebpf4jnsgd1na2vs0mg"},{"bike_id":"2dff66f9-4487-4ca2-8e32-6af5132ce7d8","system_id":"levelo_inurba_marseille","lat":43.29871,"lon":5.39737,"is_reserved":false,"is_disabled":false,"rental_uris":{"android":"levelo://app?vid=2dff66f9-4487-4ca2-8e32-6af5132ce7d8","ios":"levelo://app?vid=2dff66f9-4487-4ca2-8e32-6af5132ce7d8"},"vehicle_type_id":"4","last_reported":1745881786,"current_range_meters":7200,"station_id":"ce4bh0h2rcd13ifvqd50","pricing_plan_id":"cebpf4jnsgd1na2vs0mg"},{"bike_id":"aec336d6-9939-4bb1-9969-16430941df15","system_id":"levelo_inurba_marseille","lat":43.27918,"lon":5.39585,"is_reserved":false,"is_disabled":false,"rental_uris":{"android":"levelo://app?vid=aec336d6-9939-4bb1-9969-16430941df15","ios":"levelo://app?vid=aec336d6-9939-4bb1-9969-16430941df15"},"vehicle_type_id":"4","last_reported":1745881786,"current_range_meters":7200,"station_id":"ce4bhf92rcd13ifvqf40","pricing_plan_id":"cebpf4jnsgd1na2vs0mg"},{"bike_id":"c6b81f33-8a4a-4d90-9b7a-b61623090b82","system_id":"levelo_inurba_marseille","lat":43.24414,"lon":5.37045,"is_reserved":false,"is_disabled":false,"rental_uris":{"android":"levelo://app?vid=c6b81f33-8a4a-4d90-9b7a-b61623090b82","ios":"levelo://app?vid=c6b81f33-8a4a-4d90-9b7a-b61623090b82"},"vehicle_type_id":"4","last_reported":1745881786,"current_range_meters":8000,"station_id":"ce4bhhh2rcd13ifvqfk0","pricing_plan_id":"cebpf4jnsgd1na2vs0mg"},{"bike_id":"679a1104-bb2f-4313-81ae-490e909d7dd6","system_id":"levelo_inurba_marseille","lat":43.296116,"lon":5.377202,"is_reserved":false,"is_disabled":true,"rental_uris":{"android":"levelo://app?vid=679a1104-bb2f-4313-81ae-490e909d7dd6","ios":"levelo://app?vid=679a1104-bb2f-4313-81ae-490e909d7dd6"},"vehicle_type_id":"4","last_reported":1745881786,"current_range_meters":8000,"station_id":"ce4bgi92rcd13ifvqb90","pricing_plan_id":"cebpf4jnsgd1na2vs0mg"},{"bike_id":"26deac1f-c435-40bc-9469-9ae0b266bb77","system_id":"levelo_inurba_marseille","lat":43.30205,"lon":5.38473,"is_reserved":false,"is_disabled":false,"rental_uris":{"android":"levelo://app?vid=26deac1f-c435-40bc-9469-9ae0b266bb77","ios":"levelo://app?vid=26deac1f-c435-40bc-9469-9ae0b266bb77"},"vehicle_type_id":"4","last_reported":1745881786,"current_range_meters":8000,"station_id":"","pricing_plan_id":"cebpf4jnsgd1na2vs0mg"},{"bike_id":"a927ad15-b129-4085-9072-8cc54f2c8cf2","system_id":"levelo_inurba_marseille","lat":43.321122,"lon":5.367699,"is_reserved":false,"is_disabled":false,"rental_uris":{"android":"levelo://app?vid=a927ad15-b129-4085-9072-8cc54f2c8cf2","ios":"levelo://app?vid=a927ad15-b129-4085-9072-8cc54f2c8cf2"},"vehicle_type_id":"4","last_reported":1745881786,"current_range_meters":8000,"station_id":"ce4bhrh2rcd13ifvqhug","pricing_plan_id":"cebpf4jnsgd1na2vs0mg"},{"bike_id":"af4f0c69-e62d-4155-b1d1-a67b45271ae1","system_id":"levelo_inurba_marseille","lat":43.24752,"lon":5.41159,"is_reserved":false,"is_disabled":false,"rental_uris":{"android":"levelo://app?vid=af4f0c69-e62d-4155-b1d1-a67b45271ae1","ios":"levelo://app?vid=af4f0c69-e62d-4155-b1d1-a67b45271ae1"},"vehicle_type_id":"4","last_reported":1745881786,"current_range_meters":8400,"station_id":"","pricing_plan_id":"cebpf4jnsgd1na2vs0mg"},{"bike_id":"caa3c169-4893-4207-a47b-db2543c3e67f","system_id":"levelo_inurba_marseille","lat":43.27844,"lon":5.39192,"is_reserved":false,"is_disabled":false,"rental_uris":{"android":"levelo://app?vid=caa3c169-4893-4207-a47b-db2543c3e67f","ios":"levelo://app?vid=caa3c169-4893-4207-a47b-db2543c3e67f"},"vehicle_type_id":"4","last_reported":1745881786,"current_range_meters":8400,"station_id":"ce4bhjp2rcd13ifvqga0","pricing_plan_id":"cebpf4jnsgd1na2vs0mg"},{"bike_id":"37462fd3-bd44-40e0-8a59-f04677802edf","system_id":"levelo_inurba_marseille","lat":43.24668,"lon":5.38154,"is_reserved":false,"is_disabled":false,"rental_uris":{"android":"levelo://app?vid=37462fd3-bd44-40e0-8a59-f04677802edf","ios":"levelo://app?vid=37462fd3-bd44-40e0-8a59-f04677802edf"},"vehicle_type_id":"4","last_reported":1745881786,"current_range_meters":8400,"station_id":"ce4bhih2rcd13ifvqfr0","pricing_plan_id":"cebpf4jnsgd1na2vs0mg"},{"bike_id":"c9a86ac7-7b19-40e0-8204-2ba2f18392ef","system_id":"levelo_inurba_marseille","lat":43.298635,"lon":5.397258,"is_reserved":false,"is_disabled":true,"rental_uris":{"android":"levelo://app?vid=c9a86ac7-7b19-40e0-8204-2ba2f18392ef","ios":"levelo://app?vid=c9a86ac7-7b19-40e0-8204-2ba2f18392ef"},"vehicle_type_id":"4","last_reported":1745881786,"current_range_meters":8400,"station_id":"","pricing_plan_id":"cebpf4jnsgd1na2vs0mg"},{"bike_id":"57a41005-dba4-4995-a65d-3cc07a95ba9a","system_id":"levelo_inurba_marseille","lat":43.30211,"lon":5.3946,"is_reserved":false,"is_disabled":true,"rental_uris":{"android":"levelo://app?vid=57a41005-dba4-4995-a65d-3cc07a95ba9a","ios":"levelo://app?vid=57a41005-dba4-4995-a65d-3cc07a95ba9a"},"vehicle_type_id":"4","last_reported":1745881786,"current_range_meters":8400,"station_id":"ce4bh0p2rcd13ifvqd70","pricing_plan_id":"cebpf4jnsgd1na2vs0mg"},{"bike_id":"1f60866e-1eaf-44dc-8e9a-4dca75cf6c04","system_id":"levelo_inurba_marseille","lat":43.32331,"lon":5.38931,"is_reserved":false,"is_disabled":false,"rental_uris":{"android":"levelo://app?vid=1f60866e-1eaf-44dc-8e9a-4dca75cf6c04","ios":"levelo://app?vid=1f60866e-1eaf-44dc-8e9a-4dca75cf6c04"},"vehicle_type_id":"4","last_reported":1745881786,"current_range_meters":8400,"station_id":"","pricing_plan_id":"cebpf4jnsgd1na2vs0mg"},{"bike_id":"b9022854-efe3-4bc0-8b29-6580553b1d4b","system_id":"levelo_inurba_marseille","lat":43.26936,"lon":5.40267,"is_reserved":false,"is_disabled":false,"rental_uris":{"android":"levelo://app?vid=b9022854-efe3-4bc0-8b29-6580553b1d4b","ios":"levelo://app?vid=b9022854-efe3-4bc0-8b29-6580553b1d4b"},"vehicle_type_id":"4","last_reported":1745881786,"current_range_meters":8800,"station_id":"cjm6bp8fraef2m0cb0m0","pricing_plan_id":"cebpf4jnsgd1na2vs0mg"},{"bike_id":"c1bf65ce-71d6-4921-8984-132b1418ff13","system_id":"levelo_inurba_marseille","lat":43.26944,"lon":5.4026,"is_reserved":false,"is_disabled":false,"rental_uris":{"android":"levelo://app?vid=c1bf65ce-71d6-4921-8984-132b1418ff13","ios":"levelo://app?vid=c1bf65ce-71d6-4921-8984-132b1418ff13"},"vehicle_type_id":"4","last_reported":1745881786,"current_range_meters":8800,"station_id":"cjm6bp8fraef2m0cb0m0","pricing_plan_id":"cebpf4jnsgd1na2vs0mg"},{"bike_id":"e6d77530-cec4-4eb5-8c74-cac47d4adfa9","system_id":"levelo_inurba_marseille","lat":43.279424,"lon":5.410435,"is_reserved":false,"is_disabled":false,"rental_uris":{"android":"levelo://app?vid=e6d77530-cec4-4eb5-8c74-cac47d4adfa9","ios":"levelo://app?vid=e6d77530-cec4-4eb5-8c74-cac47d4adfa9"},"vehicle_type_id":"4","last_reported":1745881786,"current_range_meters":8800,"station_id":"ce4bhnp2rcd13ifvqh0g","pricing_plan_id":"cebpf4jnsgd1na2vs0mg"},{"bike_id":"a7163810-2fee-4f07-bc17-d96aabf9a498","system_id":"levelo_inurba_marseille","lat":43.30802,"lon":5.43516,"is_reserved":false,"is_disabled":false,"rental_uris":{"android":"levelo://app?vid=a7163810-2fee-4f07-bc17-d96aabf9a498","ios":"levelo://app?vid=a7163810-2fee-4f07-bc17-d96aabf9a498"},"vehicle_type_id":"4","last_reported":1745881786,"current_range_meters":8800,"station_id":"ce4bhph2rcd13ifvqheg","pricing_plan_id":"cebpf4jnsgd1na2vs0mg"},{"bike_id":"32eca611-111c-4689-bb0d-8c20e0341828","system_id":"levelo_inurba_marseille","lat":43.2558,"lon":5.38226,"is_reserved":false,"is_disabled":false,"rental_uris":{"android":"levelo://app?vid=32eca611-111c-4689-bb0d-8c20e0341828","ios":"levelo://app?vid=32eca611-111c-4689-bb0d-8c20e0341828"},"vehicle_type_id":"4","last_reported":1745881786,"current_range_meters":9200,"station_id":"ce4bhih2rcd13ifvqfs0","pricing_plan_id":"cebpf4jnsgd1na2vs0mg"},{"bike_id":"1f19ae80-a633-40e2-944b-c9ca822ccc97","system_id":"levelo_inurba_marseille","lat":43.331018,"lon":5.407338,"is_reserved":false,"is_disabled":false,"rental_uris":{"android":"levelo://app?vid=1f19ae80-a633-40e2-944b-c9ca822ccc97","ios":"levelo://app?vid=1f19ae80-a633-40e2-944b-c9ca822ccc97"},"vehicle_type_id":"4","last_reported":1745881786,"current_range_meters":9200,"station_id":"","pricing_plan_id":"cebpf4jnsgd1na2vs0mg"},{"bike_id":"0601db71-6a78-497f-b205-23cf0bd13a21","system_id":"levelo_inurba_marseille","lat":43.27616,"lon":5.36121,"is_reserved":false,"is_disabled":false,"rental_uris":{"android":"levelo://app?vid=0601db71-6a78-497f-b205-23cf0bd13a21","ios":"levelo://app?vid=0601db71-6a78-497f-b205-23cf0bd13a21"},"vehicle_type_id":"4","last_reported":1745881786,"current_range_meters":9200,"station_id":"ce4bgj92rcd13ifvqbe0","pricing_plan_id":"cebpf4jnsgd1na2vs0mg"},{"bike_id":"05145c84-b9e3-47c2-91f6-efba0dd3a65c","system_id":"levelo_inurba_marseille","lat":43.250135,"lon":5.389166,"is_reserved":false,"is_disabled":true,"rental_uris":{"android":"levelo://app?vid=05145c84-b9e3-47c2-91f6-efba0dd3a65c","ios":"levelo://app?vid=05145c84-b9e3-47c2-91f6-efba0dd3a65c"},"vehicle_type_id":"4","last_reported":1745881786,"current_range_meters":9200,"station_id":"ce4bhgp2rcd13ifvqfd0","pricing_plan_id":"cebpf4jnsgd1na2vs0mg"},{"bike_id":"25f7b21a-e2b1-4889-9f8f-662577f39d62","system_id":"levelo_inurba_marseille","lat":43.27945,"lon":5.4105,"is_reserved":false,"is_disabled":false,"rental_uris":{"android":"levelo://app?vid=25f7b21a-e2b1-4889-9f8f-662577f39d62","ios":"levelo://app?vid=25f7b21a-e2b1-4889-9f8f-662577f39d62"},"vehicle_type_id":"4","last_reported":1745881786,"current_range_meters":9200,"station_id":"ce4bhnp2rcd13ifvqh0g","pricing_plan_id":"cebpf4jnsgd1na2vs0mg"},{"bike_id":"114074cb-6bca-4123-b1e8-66d0b2aadd4b","system_id":"levelo_inurba_marseille","lat":43.295145,"lon":5.393973,"is_reserved":false,"is_disabled":false,"rental_uris":{"android":"levelo://app?vid=114074cb-6bca-4123-b1e8-66d0b2aadd4b","ios":"levelo://app?vid=114074cb-6bca-4123-b1e8-66d0b2aadd4b"},"vehicle_type_id":"4","last_reported":1745881786,"current_range_meters":9600,"station_id":"ce4bh292rcd13ifvqdf0","pricing_plan_id":"cebpf4jnsgd1na2vs0mg"},{"bike_id":"ce2acb9b-3791-4000-822d-c542d629429b","system_id":"levelo_inurba_marseille","lat":43.26108,"lon":5.41445,"is_reserved":false,"is_disabled":false,"rental_uris":{"android":"levelo://app?vid=ce2acb9b-3791-4000-822d-c542d629429b","ios":"levelo://app?vid=ce2acb9b-3791-4000-822d-c542d629429b"},"vehicle_type_id":"4","last_reported":1745881786,"current_range_meters":9600,"station_id":"","pricing_plan_id":"cebpf4jnsgd1na2vs0mg"},{"bike_id":"1cf63bd9-d13d-4781-8167-f45afc711709","system_id":"levelo_inurba_marseille","lat":43.26212,"lon":5.40405,"is_reserved":false,"is_disabled":false,"rental_uris":{"android":"levelo://app?vid=1cf63bd9-d13d-4781-8167-f45afc711709","ios":"levelo://app?vid=1cf63bd9-d13d-4781-8167-f45afc711709"},"vehicle_type_id":"4","last_reported":1745881786,"current_range_meters":9600,"station_id":"ce4bhmh2rcd13ifvqgmg","pricing_plan_id":"cebpf4jnsgd1na2vs0mg"},{"bike_id":"e0fe11ff-3615-47db-8f84-f7a3a3e04b01","system_id":"levelo_inurba_marseille","lat":43.240707,"lon":5.377521,"is_reserved":false,"is_disabled":false,"rental_uris":{"android":"levelo://app?vid=e0fe11ff-3615-47db-8f84-f7a3a3e04b01","ios":"levelo://app?vid=e0fe11ff-3615-47db-8f84-f7a3a3e04b01"},"vehicle_type_id":"4","last_reported":1745881786,"current_range_meters":9600,"station_id":"ce4bhnp2rcd13ifvqgvg","pricing_plan_id":"cebpf4jnsgd1na2vs0mg"},{"bike_id":"20d410f8-8f48-44fc-b81f-a6598afbfddb","system_id":"levelo_inurba_marseille","lat":43.32343,"lon":5.40616,"is_reserved":false,"is_disabled":false,"rental_uris":{"android":"levelo://app?vid=20d410f8-8f48-44fc-b81f-a6598afbfddb","ios":"levelo://app?vid=20d410f8-8f48-44fc-b81f-a6598afbfddb"},"vehicle_type_id":"4","last_reported":1745881786,"current_range_meters":10000,"station_id":"ce4bhq92rcd13ifvqhjg","pricing_plan_id":"cebpf4jnsgd1na2vs0mg"},{"bike_id":"c2380613-1576-47db-9817-a29fad74989f","system_id":"levelo_inurba_marseille","lat":43.29282,"lon":5.40136,"is_reserved":false,"is_disabled":false,"rental_uris":{"android":"levelo://app?vid=c2380613-1576-47db-9817-a29fad74989f","ios":"levelo://app?vid=c2380613-1576-47db-9817-a29fad74989f"},"vehicle_type_id":"4","last_reported":1745881786,"current_range_meters":10000,"station_id":"ce4bh312rcd13ifvqdk0","pricing_plan_id":"cebpf4jnsgd1na2vs0mg"},{"bike_id":"e5b4b90d-e268-4de2-98f4-f6d0513f8801","system_id":"levelo_inurba_marseille","lat":43.26559,"lon":5.42183,"is_reserved":false,"is_disabled":false,"rental_uris":{"android":"levelo://app?vid=e5b4b90d-e268-4de2-98f4-f6d0513f8801","ios":"levelo://app?vid=e5b4b90d-e268-4de2-98f4-f6d0513f8801"},"vehicle_type_id":"4","last_reported":1745881786,"current_range_meters":10000,"station_id":"","pricing_plan_id":"cebpf4jnsgd1na2vs0mg"},{"bike_id":"ed7e5b95-3704-45ee-bd5f-f228b35ce1a9","system_id":"levelo_inurba_marseille","lat":43.3248,"lon":5.36594,"is_reserved":false,"is_disabled":false,"rental_uris":{"android":"levelo://app?vid=ed7e5b95-3704-45ee-bd5f-f228b35ce1a9","ios":"levelo://app?vid=ed7e5b95-3704-45ee-bd5f-f228b35ce1a9"},"vehicle_type_id":"4","last_reported":1745881786,"current_range_meters":10000,"station_id":"ce4bhs12rcd13ifvqhvg","pricing_plan_id":"cebpf4jnsgd1na2vs0mg"},{"bike_id":"ec39f74a-f9d7-49fa-b961-97420ac55e71","system_id":"levelo_inurba_marseille","lat":43.26977,"lon":5.40312,"is_reserved":false,"is_disabled":false,"rental_uris":{"android":"levelo://app?vid=ec39f74a-f9d7-49fa-b961-97420ac55e71","ios":"levelo://app?vid=ec39f74a-f9d7-49fa-b961-97420ac55e71"},"vehicle_type_id":"4","last_reported":1745881786,"current_range_meters":10000,"station_id":"cjm6bp8fraef2m0cb0m0","pricing_plan_id":"cebpf4jnsgd1na2vs0mg"},{"bike_id":"d7f47121-b2fe-4c56-a9ea-2d5e9d309b60","system_id":"levelo_inurba_marseille","lat":43.31487,"lon":5.37296,"is_reserved":false,"is_disabled":false,"rental_uris":{"android":"levelo://app?vid=d7f47121-b2fe-4c56-a9ea-2d5e9d309b60","ios":"levelo://app?vid=d7f47121-b2fe-4c56-a9ea-2d5e9d309b60"},"vehicle_type_id":"4","last_reported":1745881786,"current_range_meters":10800,"station_id":"ce4bgt12rcd13ifvqcd0","pricing_plan_id":"cebpf4jnsgd1na2vs0mg"},{"bike_id":"f8527f98-9dba-4767-9c49-2ee5632fd2af","system_id":"levelo_inurba_marseille","lat":43.278581,"lon":5.4071,"is_reserved":false,"is_disabled":true,"rental_uris":{"android":"levelo://app?vid=f8527f98-9dba-4767-9c49-2ee5632fd2af","ios":"levelo://app?vid=f8527f98-9dba-4767-9c49-2ee5632fd2af"},"vehicle_type_id":"4","last_reported":1745881786,"current_range_meters":10800,"station_id":"","pricing_plan_id":"cebpf4jnsgd1na2vs0mg"},{"bike_id":"3566469e-5adf-4ae7-9fad-25ede3e08c1b","system_id":"levelo_inurba_marseille","lat":43.292586,"lon":5.384349,"is_reserved":false,"is_disabled":true,"rental_uris":{"android":"levelo://app?vid=3566469e-5adf-4ae7-9fad-25ede3e08c1b","ios":"levelo://app?vid=3566469e-5adf-4ae7-9fad-25ede3e08c1b"},"vehicle_type_id":"4","last_reported":1745881786,"current_range_meters":10800,"station_id":"ce4bh692rcd13ifvqea0","pricing_plan_id":"cebpf4jnsgd1na2vs0mg"},{"bike_id":"86c0598b-4818-471f-9a8b-081ecdc96572","system_id":"levelo_inurba_marseille","lat":43.255822,"lon":5.382188,"is_reserved":false,"is_disabled":false,"rental_uris":{"android":"levelo://app?vid=86c0598b-4818-471f-9a8b-081ecdc96572","ios":"levelo://app?vid=86c0598b-4818-471f-9a8b-081ecdc96572"},"vehicle_type_id":"4","last_reported":1745881786,"current_range_meters":11200,"station_id":"ce4bhih2rcd13ifvqfs0","pricing_plan_id":"cebpf4jnsgd1na2vs0mg"},{"bike_id":"dacbba50-691c-4c1b-8e2b-35e4dc6754f9","system_id":"levelo_inurba_marseille","lat":43.239604,"lon":5.366271,"is_reserved":false,"is_disabled":false,"rental_uris":{"android":"levelo://app?vid=dacbba50-691c-4c1b-8e2b-35e4dc6754f9","ios":"levelo://app?vid=dacbba50-691c-4c1b-8e2b-35e4dc6754f9"},"vehicle_type_id":"4","last_reported":1745881786,"current_range_meters":11200,"station_id":"ce4bhi12rcd13ifvqfp0","pricing_plan_id":"cebpf4jnsgd1na2vs0mg"},{"bike_id":"4a059a2d-b3a6-4e0b-9fd3-b714abc8d3bb","system_id":"levelo_inurba_marseille","lat":43.32003,"lon":5.38134,"is_reserved":false,"is_disabled":true,"rental_uris":{"android":"levelo://app?vid=4a059a2d-b3a6-4e0b-9fd3-b714abc8d3bb","ios":"levelo://app?vid=4a059a2d-b3a6-4e0b-9fd3-b714abc8d3bb"},"vehicle_type_id":"4","last_reported":1745881786,"current_range_meters":11200,"station_id":"ce4bhr12rcd13ifvqhpg","pricing_plan_id":"cebpf4jnsgd1na2vs0mg"},{"bike_id":"ab4612c3-85f5-4cb4-9ce2-46373d9c1c69","system_id":"levelo_inurba_marseille","lat":43.25794,"lon":5.38579,"is_reserved":false,"is_disabled":false,"rental_uris":{"android":"levelo://app?vid=ab4612c3-85f5-4cb4-9ce2-46373d9c1c69","ios":"levelo://app?vid=ab4612c3-85f5-4cb4-9ce2-46373d9c1c69"},"vehicle_type_id":"4","last_reported":1745881786,"current_range_meters":11600,"station_id":"","pricing_plan_id":"cebpf4jnsgd1na2vs0mg"},{"bike_id":"e44b5142-b41f-4d14-b6f7-a12d6c5ab15d","system_id":"levelo_inurba_marseille","lat":43.27323,"lon":5.39077,"is_reserved":false,"is_disabled":false,"rental_uris":{"android":"levelo://app?vid=e44b5142-b41f-4d14-b6f7-a12d6c5ab15d","ios":"levelo://app?vid=e44b5142-b41f-4d14-b6f7-a12d6c5ab15d"},"vehicle_type_id":"4","last_reported":1745881786,"current_range_meters":11200,"station_id":"ce4bhgp2rcd13ifvqfe0","pricing_plan_id":"cebpf4jnsgd1na2vs0mg"},{"bike_id":"6242f143-06d6-4fad-bae2-f8138a179039","system_id":"levelo_inurba_marseille","lat":43.26232,"lon":5.40454,"is_reserved":false,"is_disabled":false,"rental_uris":{"android":"levelo://app?vid=6242f143-06d6-4fad-bae2-f8138a179039","ios":"levelo://app?vid=6242f143-06d6-4fad-bae2-f8138a179039"},"vehicle_type_id":"4","last_reported":1745881786,"current_range_meters":12000,"station_id":"ce4bhmh2rcd13ifvqgmg","pricing_plan_id":"cebpf4jnsgd1na2vs0mg"},{"bike_id":"a6c80b0c-536c-4a45-884f-2e1d125500ab","system_id":"levelo_inurba_marseille","lat":43.22505,"lon":5.34773,"is_reserved":false,"is_disabled":false,"rental_uris":{"android":"levelo://app?vid=a6c80b0c-536c-4a45-884f-2e1d125500ab","ios":"levelo://app?vid=a6c80b0c-536c-4a45-884f-2e1d125500ab"},"vehicle_type_id":"4","last_reported":1745881786,"current_range_meters":12000,"station_id":"st_cvj5dfep6f1abm77gieg","pricing_plan_id":"cebpf4jnsgd1na2vs0mg"},{"bike_id":"a273dd95-99e2-4bb8-bee8-19cb9b13f516","system_id":"levelo_inurba_marseille","lat":43.299009,"lon":5.43664,"is_reserved":false,"is_disabled":false,"rental_uris":{"android":"levelo://app?vid=a273dd95-99e2-4bb8-bee8-19cb9b13f516","ios":"levelo://app?vid=a273dd95-99e2-4bb8-bee8-19cb9b13f516"},"vehicle_type_id":"4","last_reported":1745881786,"current_range_meters":12000,"station_id":"ce4bhpp2rcd13ifvqhfg","pricing_plan_id":"cebpf4jnsgd1na2vs0mg"},{"bike_id":"5d96e4d9-b66f-4960-8c93-098b0b1b2e41","system_id":"levelo_inurba_marseille","lat":43.31166,"lon":5.38699,"is_reserved":false,"is_disabled":false,"rental_uris":{"android":"levelo://app?vid=5d96e4d9-b66f-4960-8c93-098b0b1b2e41","ios":"levelo://app?vid=5d96e4d9-b66f-4960-8c93-098b0b1b2e41"},"vehicle_type_id":"4","last_reported":1745881786,"current_range_meters":14400,"station_id":"ce4bgv12rcd13ifvqcp0","pricing_plan_id":"cebpf4jnsgd1na2vs0mg"},{"bike_id":"781aeb85-8256-4c52-9d73-26970095e701","system_id":"levelo_inurba_marseille","lat":43.28846,"lon":5.39336,"is_reserved":false,"is_disabled":false,"rental_uris":{"android":"levelo://app?vid=781aeb85-8256-4c52-9d73-26970095e701","ios":"levelo://app?vid=781aeb85-8256-4c52-9d73-26970095e701"},"vehicle_type_id":"4","last_reported":1745881786,"current_range_meters":12000,"station_id":"ce4bh2p2rcd13ifvqdi0","pricing_plan_id":"cebpf4jnsgd1na2vs0mg"},{"bike_id":"6b88ae52-4470-4609-9540-2ec7e9358c2c","system_id":"levelo_inurba_marseille","lat":43.23966,"lon":5.3664,"is_reserved":false,"is_disabled":false,"rental_uris":{"android":"levelo://app?vid=6b88ae52-4470-4609-9540-2ec7e9358c2c","ios":"levelo://app?vid=6b88ae52-4470-4609-9540-2ec7e9358c2c"},"vehicle_type_id":"4","last_reported":1745881786,"current_range_meters":12400,"station_id":"ce4bhi12rcd13ifvqfp0","pricing_plan_id":"cebpf4jnsgd1na2vs0mg"},{"bike_id":"aa967c82-b60d-44c9-9070-22158595c29a","system_id":"levelo_inurba_marseille","lat":43.28674,"lon":5.38665,"is_reserved":false,"is_disabled":false,"rental_uris":{"android":"levelo://app?vid=aa967c82-b60d-44c9-9070-22158595c29a","ios":"levelo://app?vid=aa967c82-b60d-44c9-9070-22158595c29a"},"vehicle_type_id":"4","last_reported":1745881786,"current_range_meters":12400,"station_id":"ce4bh492rcd13ifvqdug","pricing_plan_id":"cebpf4jnsgd1na2vs0mg"},{"bike_id":"56d3126a-5caf-4303-83cc-6be1581e9786","system_id":"levelo_inurba_marseille","lat":43.248143,"lon":5.374573,"is_reserved":false,"is_disabled":false,"rental_uris":{"android":"levelo://app?vid=56d3126a-5caf-4303-83cc-6be1581e9786","ios":"levelo://app?vid=56d3126a-5caf-4303-83cc-6be1581e9786"},"vehicle_type_id":"4","last_reported":1745881786,"current_range_meters":12800,"station_id":"ce4bhgh2rcd13ifvqfb0","pricing_plan_id":"cebpf4jnsgd1na2vs0mg"},{"bike_id":"99e160df-8dd3-49ed-a48b-c9d5787c4dfe","system_id":"levelo_inurba_marseille","lat":43.28782,"lon":5.37482,"is_reserved":false,"is_disabled":false,"rental_uris":{"android":"levelo://app?vid=99e160df-8dd3-49ed-a48b-c9d5787c4dfe","ios":"levelo://app?vid=99e160df-8dd3-49ed-a48b-c9d5787c4dfe"},"vehicle_type_id":"4","last_reported":1745881786,"current_range_meters":12800,"station_id":"","pricing_plan_id":"cebpf4jnsgd1na2vs0mg"},{"bike_id":"b02d0ff3-3eae-4c6b-86b8-c9be8dce5c33","system_id":"levelo_inurba_marseille","lat":43.3128,"lon":5.40176,"is_reserved":false,"is_disabled":false,"rental_uris":{"android":"levelo://app?vid=b02d0ff3-3eae-4c6b-86b8-c9be8dce5c33","ios":"levelo://app?vid=b02d0ff3-3eae-4c6b-86b8-c9be8dce5c33"},"vehicle_type_id":"4","last_reported":1745881786,"current_range_meters":12800,"station_id":"ce4bh092rcd13ifvqd30","pricing_plan_id":"cebpf4jnsgd1na2vs0mg"},{"bike_id":"a17dfbc6-c24a-4f6f-a28a-8c7675d89f62","system_id":"levelo_inurba_marseille","lat":43.304191,"lon":5.412767,"is_reserved":false,"is_disabled":true,"rental_uris":{"android":"levelo://app?vid=a17dfbc6-c24a-4f6f-a28a-8c7675d89f62","ios":"levelo://app?vid=a17dfbc6-c24a-4f6f-a28a-8c7675d89f62"},"vehicle_type_id":"4","last_reported":1745881786,"current_range_meters":12800,"station_id":"ce4bhop2rcd13ifvqh8g","pricing_plan_id":"cebpf4jnsgd1na2vs0mg"},{"bike_id":"f7de7479-45c0-4c25-bdd1-a2c17c0f8b8f","system_id":"levelo_inurba_marseille","lat":43.2396,"lon":5.36644,"is_reserved":false,"is_disabled":false,"rental_uris":{"android":"levelo://app?vid=f7de7479-45c0-4c25-bdd1-a2c17c0f8b8f","ios":"levelo://app?vid=f7de7479-45c0-4c25-bdd1-a2c17c0f8b8f"},"vehicle_type_id":"4","last_reported":1745881786,"current_range_meters":13600,"station_id":"ce4bhi12rcd13ifvqfp0","pricing_plan_id":"cebpf4jnsgd1na2vs0mg"},{"bike_id":"64b4a0f6-eb4e-4a58-a49c-c2fdffc72cda","system_id":"levelo_inurba_marseille","lat":43.27551,"lon":5.384261,"is_reserved":false,"is_disabled":true,"rental_uris":{"android":"levelo://app?vid=64b4a0f6-eb4e-4a58-a49c-c2fdffc72cda","ios":"levelo://app?vid=64b4a0f6-eb4e-4a58-a49c-c2fdffc72cda"},"vehicle_type_id":"4","last_reported":1745881786,"current_range_meters":14000,"station_id":"ce4bhh92rcd13ifvqfi0","pricing_plan_id":"cebpf4jnsgd1na2vs0mg"},{"bike_id":"b3d7cca2-7d35-4030-8d40-4a8257616573","system_id":"levelo_inurba_marseille","lat":43.22499,"lon":5.3478,"is_reserved":false,"is_disabled":false,"rental_uris":{"android":"levelo://app?vid=b3d7cca2-7d35-4030-8d40-4a8257616573","ios":"levelo://app?vid=b3d7cca2-7d35-4030-8d40-4a8257616573"},"vehicle_type_id":"4","last_reported":1745881786,"current_range_meters":14000,"station_id":"st_cvj5dfep6f1abm77gieg","pricing_plan_id":"cebpf4jnsgd1na2vs0mg"},{"bike_id":"acc873a6-462b-45b6-b485-2a3efc9466e8","system_id":"levelo_inurba_marseille","lat":43.30814,"lon":5.38175,"is_reserved":false,"is_disabled":false,"rental_uris":{"android":"levelo://app?vid=acc873a6-462b-45b6-b485-2a3efc9466e8","ios":"levelo://app?vid=acc873a6-462b-45b6-b485-2a3efc9466e8"},"vehicle_type_id":"4","last_reported":1745881786,"current_range_meters":13600,"station_id":"ce4bgt12rcd13ifvqce0","pricing_plan_id":"cebpf4jnsgd1na2vs0mg"},{"bike_id":"b13f9913-27dd-4197-ba83-0d6b671b36d4","system_id":"levelo_inurba_marseille","lat":43.324837,"lon":5.365753,"is_reserved":false,"is_disabled":false,"rental_uris":{"android":"levelo://app?vid=b13f9913-27dd-4197-ba83-0d6b671b36d4","ios":"levelo://app?vid=b13f9913-27dd-4197-ba83-0d6b671b36d4"},"vehicle_type_id":"4","last_reported":1745881786,"current_range_meters":14000,"station_id":"ce4bhs12rcd13ifvqhvg","pricing_plan_id":"cebpf4jnsgd1na2vs0mg"},{"bike_id":"923f8501-7d40-44db-85bf-a51b2ea797ac","system_id":"levelo_inurba_marseille","lat":43.269421,"lon":5.402804,"is_reserved":false,"is_disabled":true,"rental_uris":{"android":"levelo://app?vid=923f8501-7d40-44db-85bf-a51b2ea797ac","ios":"levelo://app?vid=923f8501-7d40-44db-85bf-a51b2ea797ac"},"vehicle_type_id":"4","last_reported":1745881786,"current_range_meters":14000,"station_id":"cjm6bp8fraef2m0cb0m0","pricing_plan_id":"cebpf4jnsgd1na2vs0mg"},{"bike_id":"b7815b71-508c-4fe8-9dde-46183ba2d0be","system_id":"levelo_inurba_marseille","lat":43.2965,"lon":5.40594,"is_reserved":false,"is_disabled":false,"rental_uris":{"android":"levelo://app?vid=b7815b71-508c-4fe8-9dde-46183ba2d0be","ios":"levelo://app?vid=b7815b71-508c-4fe8-9dde-46183ba2d0be"},"vehicle_type_id":"4","last_reported":1745881786,"current_range_meters":14400,"station_id":"ce4bh0h2rcd13ifvqd60","pricing_plan_id":"cebpf4jnsgd1na2vs0mg"},{"bike_id":"28894e81-ede6-4351-84e3-e6b48081a345","system_id":"levelo_inurba_marseille","lat":43.33465,"lon":5.400537,"is_reserved":false,"is_disabled":false,"rental_uris":{"android":"levelo://app?vid=28894e81-ede6-4351-84e3-e6b48081a345","ios":"levelo://app?vid=28894e81-ede6-4351-84e3-e6b48081a345"},"vehicle_type_id":"4","last_reported":1745881786,"current_range_meters":14400,"station_id":"","pricing_plan_id":"cebpf4jnsgd1na2vs0mg"},{"bike_id":"d58e03bb-19b9-469a-bcd7-0c3ce91d40b5","system_id":"levelo_inurba_marseille","lat":43.213473,"lon":5.349674,"is_reserved":false,"is_disabled":false,"rental_uris":{"android":"levelo://app?vid=d58e03bb-19b9-469a-bcd7-0c3ce91d40b5","ios":"levelo://app?vid=d58e03bb-19b9-469a-bcd7-0c3ce91d40b5"},"vehicle_type_id":"4","last_reported":1745881786,"current_range_meters":14400,"station_id":"","pricing_plan_id":"cebpf4jnsgd1na2vs0mg"},{"bike_id":"d09dd09b-ed8d-4486-91fc-c0b74741be12","system_id":"levelo_inurba_marseille","lat":43.31174,"lon":5.38713,"is_reserved":false,"is_disabled":false,"rental_uris":{"android":"levelo://app?vid=d09dd09b-ed8d-4486-91fc-c0b74741be12","ios":"levelo://app?vid=d09dd09b-ed8d-4486-91fc-c0b74741be12"},"vehicle_type_id":"4","last_reported":1745881786,"current_range_meters":14400,"station_id":"ce4bgv12rcd13ifvqcp0","pricing_plan_id":"cebpf4jnsgd1na2vs0mg"},{"bike_id":"b7ca510d-1171-4ecc-996c-224d46372e70","system_id":"levelo_inurba_marseille","lat":43.3237,"lon":5.38882,"is_reserved":false,"is_disabled":false,"rental_uris":{"android":"levelo://app?vid=b7ca510d-1171-4ecc-996c-224d46372e70","ios":"levelo://app?vid=b7ca510d-1171-4ecc-996c-224d46372e70"},"vehicle_type_id":"4","last_reported":1745881786,"current_range_meters":14800,"station_id":"ce4bhqp2rcd13ifvqhog","pricing_plan_id":"cebpf4jnsgd1na2vs0mg"},{"bike_id":"41c8e810-17f3-494e-8c96-c80bdddf215c","system_id":"levelo_inurba_marseille","lat":43.26503,"lon":5.39537,"is_reserved":false,"is_disabled":false,"rental_uris":{"android":"levelo://app?vid=41c8e810-17f3-494e-8c96-c80bdddf215c","ios":"levelo://app?vid=41c8e810-17f3-494e-8c96-c80bdddf215c"},"vehicle_type_id":"4","last_reported":1745881786,"current_range_meters":14800,"station_id":"ce4bhi12rcd13ifvqfq0","pricing_plan_id":"cebpf4jnsgd1na2vs0mg"},{"bike_id":"a958bd06-9a50-497e-aef9-55e910bf12d1","system_id":"levelo_inurba_marseille","lat":43.29915,"lon":5.381367,"is_reserved":false,"is_disabled":true,"rental_uris":{"android":"levelo://app?vid=a958bd06-9a50-497e-aef9-55e910bf12d1","ios":"levelo://app?vid=a958bd06-9a50-497e-aef9-55e910bf12d1"},"vehicle_type_id":"4","last_reported":1745881786,"current_range_meters":14800,"station_id":"ce4bgj12rcd13ifvqbc0","pricing_plan_id":"cebpf4jnsgd1na2vs0mg"},{"bike_id":"a4a783f9-a7ce-4e74-abf5-1388cb9377a4","system_id":"levelo_inurba_marseille","lat":43.28348,"lon":5.38111,"is_reserved":false,"is_disabled":false,"rental_uris":{"android":"levelo://app?vid=a4a783f9-a7ce-4e74-abf5-1388cb9377a4","ios":"levelo://app?vid=a4a783f9-a7ce-4e74-abf5-1388cb9377a4"},"vehicle_type_id":"4","last_reported":1745881786,"current_range_meters":14800,"station_id":"ce4bh412rcd13ifvqdr0","pricing_plan_id":"cebpf4jnsgd1na2vs0mg"},{"bike_id":"1c71dd62-5c1a-42e0-8da7-81eceebfb73e","system_id":"levelo_inurba_marseille","lat":43.21192,"lon":5.35065,"is_reserved":false,"is_disabled":false,"rental_uris":{"android":"levelo://app?vid=1c71dd62-5c1a-42e0-8da7-81eceebfb73e","ios":"levelo://app?vid=1c71dd62-5c1a-42e0-8da7-81eceebfb73e"},"vehicle_type_id":"4","last_reported":1745881786,"current_range_meters":14800,"station_id":"st_cvj6sg6p6f1abm77japg","pricing_plan_id":"cebpf4jnsgd1na2vs0mg"},{"bike_id":"d22004f2-51a7-48b6-be3e-04c1f5ac94e1","system_id":"levelo_inurba_marseille","lat":43.28688,"lon":5.38641,"is_reserved":false,"is_disabled":false,"rental_uris":{"android":"levelo://app?vid=d22004f2-51a7-48b6-be3e-04c1f5ac94e1","ios":"levelo://app?vid=d22004f2-51a7-48b6-be3e-04c1f5ac94e1"},"vehicle_type_id":"4","last_reported":1745881786,"current_range_meters":14800,"station_id":"ce4bh492rcd13ifvqdug","pricing_plan_id":"cebpf4jnsgd1na2vs0mg"},{"bike_id":"43e6b8ea-4fb3-4e0e-8c12-a4bb8339f040","system_id":"levelo_inurba_marseille","lat":43.26501,"lon":5.39538,"is_reserved":false,"is_disabled":false,"rental_uris":{"android":"levelo://app?vid=43e6b8ea-4fb3-4e0e-8c12-a4bb8339f040","ios":"levelo://app?vid=43e6b8ea-4fb3-4e0e-8c12-a4bb8339f040"},"vehicle_type_id":"4","last_reported":1745881786,"current_range_meters":15200,"station_id":"ce4bhi12rcd13ifvqfq0","pricing_plan_id":"cebpf4jnsgd1na2vs0mg"},{"bike_id":"a640b5aa-9396-4827-8f57-dd7ffd2f1a84","system_id":"levelo_inurba_marseille","lat":43.29773,"lon":5.38088,"is_reserved":false,"is_disabled":true,"rental_uris":{"android":"levelo://app?vid=a640b5aa-9396-4827-8f57-dd7ffd2f1a84","ios":"levelo://app?vid=a640b5aa-9396-4827-8f57-dd7ffd2f1a84"},"vehicle_type_id":"4","last_reported":1745881786,"current_range_meters":15200,"station_id":"ce4bgip2rcd13ifvqbb0","pricing_plan_id":"cebpf4jnsgd1na2vs0mg"},{"bike_id":"5d12ee4a-52f1-4f1a-af38-ad7a19a5a489","system_id":"levelo_inurba_marseille","lat":43.305464,"lon":5.36535,"is_reserved":false,"is_disabled":true,"rental_uris":{"android":"levelo://app?vid=5d12ee4a-52f1-4f1a-af38-ad7a19a5a489","ios":"levelo://app?vid=5d12ee4a-52f1-4f1a-af38-ad7a19a5a489"},"vehicle_type_id":"4","last_reported":1745881786,"current_range_meters":15200,"station_id":"ce4bgs12rcd13ifvqcag","pricing_plan_id":"cebpf4jnsgd1na2vs0mg"},{"bike_id":"a6117330-746b-475e-a4ba-370d1f809cb2","system_id":"levelo_inurba_marseille","lat":43.27826,"lon":5.39203,"is_reserved":false,"is_disabled":false,"rental_uris":{"android":"levelo://app?vid=a6117330-746b-475e-a4ba-370d1f809cb2","ios":"levelo://app?vid=a6117330-746b-475e-a4ba-370d1f809cb2"},"vehicle_type_id":"4","last_reported":1745881786,"current_range_meters":15200,"station_id":"ce4bhjp2rcd13ifvqga0","pricing_plan_id":"cebpf4jnsgd1na2vs0mg"},{"bike_id":"c561163e-a003-49a9-bf4f-8ad31b0bbaac","system_id":"levelo_inurba_marseille","lat":43.25736,"lon":5.41829,"is_reserved":false,"is_disabled":false,"rental_uris":{"android":"levelo://app?vid=c561163e-a003-49a9-bf4f-8ad31b0bbaac","ios":"levelo://app?vid=c561163e-a003-49a9-bf4f-8ad31b0bbaac"},"vehicle_type_id":"4","last_reported":1745881786,"current_range_meters":16000,"station_id":"","pricing_plan_id":"cebpf4jnsgd1na2vs0mg"},{"bike_id":"53c5c8dd-fe15-4077-b48a-b489ee28763b","system_id":"levelo_inurba_marseille","lat":43.28415,"lon":5.37512,"is_reserved":false,"is_disabled":false,"rental_uris":{"android":"levelo://app?vid=53c5c8dd-fe15-4077-b48a-b489ee28763b","ios":"levelo://app?vid=53c5c8dd-fe15-4077-b48a-b489ee28763b"},"vehicle_type_id":"4","last_reported":1745881786,"current_range_meters":16400,"station_id":"ce4bh412rcd13ifvqds0","pricing_plan_id":"cebpf4jnsgd1na2vs0mg"},{"bike_id":"d62ddf27-5b02-45fd-bd0c-48edab448e0e","system_id":"levelo_inurba_marseille","lat":43.32383,"lon":5.38875,"is_reserved":false,"is_disabled":false,"rental_uris":{"android":"levelo://app?vid=d62ddf27-5b02-45fd-bd0c-48edab448e0e","ios":"levelo://app?vid=d62ddf27-5b02-45fd-bd0c-48edab448e0e"},"vehicle_type_id":"4","last_reported":1745881786,"current_range_meters":16000,"station_id":"ce4bhqp2rcd13ifvqhog","pricing_plan_id":"cebpf4jnsgd1na2vs0mg"},{"bike_id":"3d8b5600-c249-47ec-9a2e-850e68bd4577","system_id":"levelo_inurba_marseille","lat":43.28413,"lon":5.37523,"is_reserved":false,"is_disabled":false,"rental_uris":{"android":"levelo://app?vid=3d8b5600-c249-47ec-9a2e-850e68bd4577","ios":"levelo://app?vid=3d8b5600-c249-47ec-9a2e-850e68bd4577"},"vehicle_type_id":"4","last_reported":1745881786,"current_range_meters":16000,"station_id":"ce4bh412rcd13ifvqds0","pricing_plan_id":"cebpf4jnsgd1na2vs0mg"},{"bike_id":"90ec756e-7d75-44ae-9837-bcc6f8c453df","system_id":"levelo_inurba_marseille","lat":43.23196,"lon":5.35558,"is_reserved":false,"is_disabled":false,"rental_uris":{"android":"levelo://app?vid=90ec756e-7d75-44ae-9837-bcc6f8c453df","ios":"levelo://app?vid=90ec756e-7d75-44ae-9837-bcc6f8c453df"},"vehicle_type_id":"4","last_reported":1745881786,"current_range_meters":16000,"station_id":"ce4bhu92rcd13ifvqi70","pricing_plan_id":"cebpf4jnsgd1na2vs0mg"},{"bike_id":"888538ce-4dc3-4f2e-8404-8ea4d633e1aa","system_id":"levelo_inurba_marseille","lat":43.26183,"lon":5.37439,"is_reserved":false,"is_disabled":true,"rental_uris":{"android":"levelo://app?vid=888538ce-4dc3-4f2e-8404-8ea4d633e1aa","ios":"levelo://app?vid=888538ce-4dc3-4f2e-8404-8ea4d633e1aa"},"vehicle_type_id":"4","last_reported":1745881786,"current_range_meters":16000,"station_id":"ce4bhgp2rcd13ifvqfc0","pricing_plan_id":"cebpf4jnsgd1na2vs0mg"},{"bike_id":"756382b5-ff4f-4389-b460-2667f1020a0b","system_id":"levelo_inurba_marseille","lat":43.29807,"lon":5.40413,"is_reserved":false,"is_disabled":false,"rental_uris":{"android":"levelo://app?vid=756382b5-ff4f-4389-b460-2667f1020a0b","ios":"levelo://app?vid=756382b5-ff4f-4389-b460-2667f1020a0b"},"vehicle_type_id":"4","last_reported":1745881786,"current_range_meters":16000,"station_id":"ce4bh112rcd13ifvqd90","pricing_plan_id":"cebpf4jnsgd1na2vs0mg"},{"bike_id":"4b895ffc-93de-4c0a-9a5a-22699c8c0ef4","system_id":"levelo_inurba_marseille","lat":43.30734,"lon":5.42434,"is_reserved":false,"is_disabled":false,"rental_uris":{"android":"levelo://app?vid=4b895ffc-93de-4c0a-9a5a-22699c8c0ef4","ios":"levelo://app?vid=4b895ffc-93de-4c0a-9a5a-22699c8c0ef4"},"vehicle_type_id":"4","last_reported":1745881786,"current_range_meters":16000,"station_id":"st_cvj6ca6bvosntc0bfgr0","pricing_plan_id":"cebpf4jnsgd1na2vs0mg"},{"bike_id":"b2a07034-13e6-4a86-9547-0b3170a7acfd","system_id":"levelo_inurba_marseille","lat":43.27494,"lon":5.4245,"is_reserved":false,"is_disabled":false,"rental_uris":{"android":"levelo://app?vid=b2a07034-13e6-4a86-9547-0b3170a7acfd","ios":"levelo://app?vid=b2a07034-13e6-4a86-9547-0b3170a7acfd"},"vehicle_type_id":"4","last_reported":1745881786,"current_range_meters":16400,"station_id":"ce4bhn92rcd13ifvqgrg","pricing_plan_id":"cebpf4jnsgd1na2vs0mg"},{"bike_id":"489415b8-9254-45c1-b00c-e7554d56755c","system_id":"levelo_inurba_marseille","lat":43.24516,"lon":5.41204,"is_reserved":false,"is_disabled":false,"rental_uris":{"android":"levelo://app?vid=489415b8-9254-45c1-b00c-e7554d56755c","ios":"levelo://app?vid=489415b8-9254-45c1-b00c-e7554d56755c"},"vehicle_type_id":"4","last_reported":1745881786,"current_range_meters":16400,"station_id":"","pricing_plan_id":"cebpf4jnsgd1na2vs0mg"},{"bike_id":"d7179719-66f8-48f3-8013-d8cc9295cd89","system_id":"levelo_inurba_marseille","lat":43.27941,"lon":5.41041,"is_reserved":false,"is_disabled":false,"rental_uris":{"android":"levelo://app?vid=d7179719-66f8-48f3-8013-d8cc9295cd89","ios":"levelo://app?vid=d7179719-66f8-48f3-8013-d8cc9295cd89"},"vehicle_type_id":"4","last_reported":1745881786,"current_range_meters":16400,"station_id":"ce4bhnp2rcd13ifvqh0g","pricing_plan_id":"cebpf4jnsgd1na2vs0mg"},{"bike_id":"9366d0f7-d227-4995-badb-e85de9ed01d7","system_id":"levelo_inurba_marseille","lat":43.31696,"lon":5.37759,"is_reserved":false,"is_disabled":true,"rental_uris":{"android":"levelo://app?vid=9366d0f7-d227-4995-badb-e85de9ed01d7","ios":"levelo://app?vid=9366d0f7-d227-4995-badb-e85de9ed01d7"},"vehicle_type_id":"4","last_reported":1745881786,"current_range_meters":16400,"station_id":"ce4bgth2rcd13ifvqch0","pricing_plan_id":"cebpf4jnsgd1na2vs0mg"},{"bike_id":"19577cbf-2a55-4ce1-9416-c81046bbac9f","system_id":"levelo_inurba_marseille","lat":43.304409,"lon":5.388993,"is_reserved":false,"is_disabled":false,"rental_uris":{"android":"levelo://app?vid=19577cbf-2a55-4ce1-9416-c81046bbac9f","ios":"levelo://app?vid=19577cbf-2a55-4ce1-9416-c81046bbac9f"},"vehicle_type_id":"4","last_reported":1745881786,"current_range_meters":16400,"station_id":"ce4bgk12rcd13ifvqbi0","pricing_plan_id":"cebpf4jnsgd1na2vs0mg"},{"bike_id":"9173922a-f107-41af-a094-25f7cf17a35b","system_id":"levelo_inurba_marseille","lat":43.24074,"lon":5.37756,"is_reserved":false,"is_disabled":true,"rental_uris":{"android":"levelo://app?vid=9173922a-f107-41af-a094-25f7cf17a35b","ios":"levelo://app?vid=9173922a-f107-41af-a094-25f7cf17a35b"},"vehicle_type_id":"4","last_reported":1745881786,"current_range_meters":16400,"station_id":"ce4bhnp2rcd13ifvqgvg","pricing_plan_id":"cebpf4jnsgd1na2vs0mg"},{"bike_id":"0152c1f9-7fe0-4ca8-baa7-28760592a88b","system_id":"levelo_inurba_marseille","lat":43.25111,"lon":5.40311,"is_reserved":false,"is_disabled":false,"rental_uris":{"android":"levelo://app?vid=0152c1f9-7fe0-4ca8-baa7-28760592a88b","ios":"levelo://app?vid=0152c1f9-7fe0-4ca8-baa7-28760592a88b"},"vehicle_type_id":"4","last_reported":1745881786,"current_range_meters":16400,"station_id":"ce4bhlh2rcd13ifvqgig","pricing_plan_id":"cebpf4jnsgd1na2vs0mg"},{"bike_id":"39f18c8b-df43-4308-a98e-40efc694b971","system_id":"levelo_inurba_marseille","lat":43.240791,"lon":5.377513,"is_reserved":false,"is_disabled":false,"rental_uris":{"android":"levelo://app?vid=39f18c8b-df43-4308-a98e-40efc694b971","ios":"levelo://app?vid=39f18c8b-df43-4308-a98e-40efc694b971"},"vehicle_type_id":"4","last_reported":1745881786,"current_range_meters":16400,"station_id":"ce4bhnp2rcd13ifvqgvg","pricing_plan_id":"cebpf4jnsgd1na2vs0mg"},{"bike_id":"70fbc956-14ce-4f94-8c06-1dcde704840a","system_id":"levelo_inurba_marseille","lat":43.27687,"lon":5.38907,"is_reserved":false,"is_disabled":true,"rental_uris":{"android":"levelo://app?vid=70fbc956-14ce-4f94-8c06-1dcde704840a","ios":"levelo://app?vid=70fbc956-14ce-4f94-8c06-1dcde704840a"},"vehicle_type_id":"4","last_reported":1745881786,"current_range_meters":16800,"station_id":"ce4bhi12rcd13ifvqfo0","pricing_plan_id":"cebpf4jnsgd1na2vs0mg"},{"bike_id":"8d7d861b-aae8-4bc8-8426-739cae3ce664","system_id":"levelo_inurba_marseille","lat":43.27957,"lon":5.41032,"is_reserved":false,"is_disabled":false,"rental_uris":{"android":"levelo://app?vid=8d7d861b-aae8-4bc8-8426-739cae3ce664","ios":"levelo://app?vid=8d7d861b-aae8-4bc8-8426-739cae3ce664"},"vehicle_type_id":"4","last_reported":1745881786,"current_range_meters":16800,"station_id":"ce4bhnp2rcd13ifvqh0g","pricing_plan_id":"cebpf4jnsgd1na2vs0mg"},{"bike_id":"56931cd4-0350-4151-af9a-c478ec6276e2","system_id":"levelo_inurba_marseille","lat":43.31355,"lon":5.39723,"is_reserved":false,"is_disabled":false,"rental_uris":{"android":"levelo://app?vid=56931cd4-0350-4151-af9a-c478ec6276e2","ios":"levelo://app?vid=56931cd4-0350-4151-af9a-c478ec6276e2"},"vehicle_type_id":"4","last_reported":1745881786,"current_range_meters":16800,"station_id":"ce4bgvp2rcd13ifvqcu0","pricing_plan_id":"cebpf4jnsgd1na2vs0mg"},{"bike_id":"d3c96024-51de-4bd6-bef7-7b8a21a42f98","system_id":"levelo_inurba_marseille","lat":43.313312,"lon":5.396924,"is_reserved":false,"is_disabled":false,"rental_uris":{"android":"levelo://app?vid=d3c96024-51de-4bd6-bef7-7b8a21a42f98","ios":"levelo://app?vid=d3c96024-51de-4bd6-bef7-7b8a21a42f98"},"vehicle_type_id":"4","last_reported":1745881786,"current_range_meters":17200,"station_id":"ce4bgvp2rcd13ifvqcu0","pricing_plan_id":"cebpf4jnsgd1na2vs0mg"},{"bike_id":"f0e3aec9-922a-4fa0-87ae-130851eefc1a","system_id":"levelo_inurba_marseille","lat":43.31277,"lon":5.40173,"is_reserved":false,"is_disabled":false,"rental_uris":{"android":"levelo://app?vid=f0e3aec9-922a-4fa0-87ae-130851eefc1a","ios":"levelo://app?vid=f0e3aec9-922a-4fa0-87ae-130851eefc1a"},"vehicle_type_id":"4","last_reported":1745881786,"current_range_meters":17200,"station_id":"ce4bh092rcd13ifvqd30","pricing_plan_id":"cebpf4jnsgd1na2vs0mg"},{"bike_id":"b228c03a-244c-4a66-90aa-d8e86b552f96","system_id":"levelo_inurba_marseille","lat":43.2918,"lon":5.39324,"is_reserved":false,"is_disabled":false,"rental_uris":{"android":"levelo://app?vid=b228c03a-244c-4a66-90aa-d8e86b552f96","ios":"levelo://app?vid=b228c03a-244c-4a66-90aa-d8e86b552f96"},"vehicle_type_id":"4","last_reported":1745881786,"current_range_meters":17200,"station_id":"ce4bh192rcd13ifvqdd0","pricing_plan_id":"cebpf4jnsgd1na2vs0mg"},{"bike_id":"ab566342-f92c-435a-a238-04939b89345b","system_id":"levelo_inurba_marseille","lat":43.296034,"lon":5.381059,"is_reserved":false,"is_disabled":true,"rental_uris":{"android":"levelo://app?vid=ab566342-f92c-435a-a238-04939b89345b","ios":"levelo://app?vid=ab566342-f92c-435a-a238-04939b89345b"},"vehicle_type_id":"4","last_reported":1745881786,"current_range_meters":17200,"station_id":"ce4bgl12rcd13ifvqbo0","pricing_plan_id":"cebpf4jnsgd1na2vs0mg"},{"bike_id":"0ee08f66-e84c-41f3-9ab4-9a7a5d49bd94","system_id":"levelo_inurba_marseille","lat":43.31076,"lon":5.38367,"is_reserved":false,"is_disabled":false,"rental_uris":{"android":"levelo://app?vid=0ee08f66-e84c-41f3-9ab4-9a7a5d49bd94","ios":"levelo://app?vid=0ee08f66-e84c-41f3-9ab4-9a7a5d49bd94"},"vehicle_type_id":"4","last_reported":1745881786,"current_range_meters":17600,"station_id":"ce4bgv92rcd13ifvqcr0","pricing_plan_id":"cebpf4jnsgd1na2vs0mg"},{"bike_id":"fcdb5fc6-3e38-4cc7-8692-5340ac27ff4b","system_id":"levelo_inurba_marseille","lat":43.24074,"lon":5.377573,"is_reserved":false,"is_disabled":false,"rental_uris":{"android":"levelo://app?vid=fcdb5fc6-3e38-4cc7-8692-5340ac27ff4b","ios":"levelo://app?vid=fcdb5fc6-3e38-4cc7-8692-5340ac27ff4b"},"vehicle_type_id":"4","last_reported":1745881786,"current_range_meters":17600,"station_id":"ce4bhnp2rcd13ifvqgvg","pricing_plan_id":"cebpf4jnsgd1na2vs0mg"},{"bike_id":"a8f32f6f-0b82-4f9f-8053-870b24be6f03","system_id":"levelo_inurba_marseille","lat":43.30132,"lon":5.39845,"is_reserved":false,"is_disabled":false,"rental_uris":{"android":"levelo://app?vid=a8f32f6f-0b82-4f9f-8053-870b24be6f03","ios":"levelo://app?vid=a8f32f6f-0b82-4f9f-8053-870b24be6f03"},"vehicle_type_id":"4","last_reported":1745881786,"current_range_meters":17200,"station_id":"ce4bh0h2rcd13ifvqd40","pricing_plan_id":"cebpf4jnsgd1na2vs0mg"},{"bike_id":"a439637d-dbae-491d-93f2-642ad200cd8c","system_id":"levelo_inurba_marseille","lat":43.283271,"lon":5.388959,"is_reserved":false,"is_disabled":false,"rental_uris":{"android":"levelo://app?vid=a439637d-dbae-491d-93f2-642ad200cd8c","ios":"levelo://app?vid=a439637d-dbae-491d-93f2-642ad200cd8c"},"vehicle_type_id":"4","last_reported":1745881786,"current_range_meters":17600,"station_id":"","pricing_plan_id":"cebpf4jnsgd1na2vs0mg"},{"bike_id":"e7303701-8b1d-49be-9397-bb3979d1a3e2","system_id":"levelo_inurba_marseille","lat":43.29008,"lon":5.35621,"is_reserved":false,"is_disabled":false,"rental_uris":{"android":"levelo://app?vid=e7303701-8b1d-49be-9397-bb3979d1a3e2","ios":"levelo://app?vid=e7303701-8b1d-49be-9397-bb3979d1a3e2"},"vehicle_type_id":"4","last_reported":1745881786,"current_range_meters":17200,"station_id":"ce4bhb92rcd13ifvqen0","pricing_plan_id":"cebpf4jnsgd1na2vs0mg"},{"bike_id":"6106a89b-72f1-4407-9419-6bbd8337b802","system_id":"levelo_inurba_marseille","lat":43.29147,"lon":5.40307,"is_reserved":false,"is_disabled":false,"rental_uris":{"android":"levelo://app?vid=6106a89b-72f1-4407-9419-6bbd8337b802","ios":"levelo://app?vid=6106a89b-72f1-4407-9419-6bbd8337b802"},"vehicle_type_id":"4","last_reported":1745881786,"current_range_meters":18000,"station_id":"","pricing_plan_id":"cebpf4jnsgd1na2vs0mg"},{"bike_id":"4f793177-3c41-4f88-96d3-b9a7ceb41fe6","system_id":"levelo_inurba_marseille","lat":43.32365,"lon":5.3886,"is_reserved":false,"is_disabled":false,"rental_uris":{"android":"levelo://app?vid=4f793177-3c41-4f88-96d3-b9a7ceb41fe6","ios":"levelo://app?vid=4f793177-3c41-4f88-96d3-b9a7ceb41fe6"},"vehicle_type_id":"4","last_reported":1745881786,"current_range_meters":17600,"station_id":"ce4bhqp2rcd13ifvqhog","pricing_plan_id":"cebpf4jnsgd1na2vs0mg"},{"bike_id":"0e029be7-dc71-4b12-9a63-21358668bf5b","system_id":"levelo_inurba_marseille","lat":43.326561,"lon":5.409911,"is_reserved":false,"is_disabled":false,"rental_uris":{"android":"levelo://app?vid=0e029be7-dc71-4b12-9a63-21358668bf5b","ios":"levelo://app?vid=0e029be7-dc71-4b12-9a63-21358668bf5b"},"vehicle_type_id":"4","last_reported":1745881786,"current_range_meters":17600,"station_id":"ce4bhpp2rcd13ifvqhgg","pricing_plan_id":"cebpf4jnsgd1na2vs0mg"},{"bike_id":"30e585b6-a1a7-4d47-a9c6-d0ac4b00d0db","system_id":"levelo_inurba_marseille","lat":43.32113,"lon":5.36789,"is_reserved":false,"is_disabled":false,"rental_uris":{"android":"levelo://app?vid=30e585b6-a1a7-4d47-a9c6-d0ac4b00d0db","ios":"levelo://app?vid=30e585b6-a1a7-4d47-a9c6-d0ac4b00d0db"},"vehicle_type_id":"4","last_reported":1745881786,"current_range_meters":18000,"station_id":"ce4bhrh2rcd13ifvqhug","pricing_plan_id":"cebpf4jnsgd1na2vs0mg"},{"bike_id":"0660ccf6-0004-4fb7-a5bc-632b512e7c76","system_id":"levelo_inurba_marseille","lat":43.27914,"lon":5.39575,"is_reserved":false,"is_disabled":false,"rental_uris":{"android":"levelo://app?vid=0660ccf6-0004-4fb7-a5bc-632b512e7c76","ios":"levelo://app?vid=0660ccf6-0004-4fb7-a5bc-632b512e7c76"},"vehicle_type_id":"4","last_reported":1745881786,"current_range_meters":18000,"station_id":"ce4bhf92rcd13ifvqf40","pricing_plan_id":"cebpf4jnsgd1na2vs0mg"},{"bike_id":"bdddaa28-2496-4a86-8126-f0d942937669","system_id":"levelo_inurba_marseille","lat":43.32102,"lon":5.3682,"is_reserved":false,"is_disabled":false,"rental_uris":{"android":"levelo://app?vid=bdddaa28-2496-4a86-8126-f0d942937669","ios":"levelo://app?vid=bdddaa28-2496-4a86-8126-f0d942937669"},"vehicle_type_id":"4","last_reported":1745881786,"current_range_meters":18000,"station_id":"ce4bhrh2rcd13ifvqhug","pricing_plan_id":"cebpf4jnsgd1na2vs0mg"},{"bike_id":"ae50c1de-8c80-4ad2-a1d9-2fbb08d50e7b","system_id":"levelo_inurba_marseille","lat":43.257,"lon":5.41071,"is_reserved":false,"is_disabled":true,"rental_uris":{"android":"levelo://app?vid=ae50c1de-8c80-4ad2-a1d9-2fbb08d50e7b","ios":"levelo://app?vid=ae50c1de-8c80-4ad2-a1d9-2fbb08d50e7b"},"vehicle_type_id":"4","last_reported":1745881786,"current_range_meters":18000,"station_id":"ce4bhkp2rcd13ifvqgd0","pricing_plan_id":"cebpf4jnsgd1na2vs0mg"},{"bike_id":"d5bcaa38-e142-4c16-be8f-f84303a7c28a","system_id":"levelo_inurba_marseille","lat":43.28,"lon":5.4165,"is_reserved":false,"is_disabled":true,"rental_uris":{"android":"levelo://app?vid=d5bcaa38-e142-4c16-be8f-f84303a7c28a","ios":"levelo://app?vid=d5bcaa38-e142-4c16-be8f-f84303a7c28a"},"vehicle_type_id":"4","last_reported":1745881786,"current_range_meters":18000,"station_id":"ce4bho12rcd13ifvqh1g","pricing_plan_id":"cebpf4jnsgd1na2vs0mg"},{"bike_id":"3a7f6ce1-05cf-4b62-8be2-0e0e6392f98c","system_id":"levelo_inurba_marseille","lat":43.29185,"lon":5.39296,"is_reserved":false,"is_disabled":false,"rental_uris":{"android":"levelo://app?vid=3a7f6ce1-05cf-4b62-8be2-0e0e6392f98c","ios":"levelo://app?vid=3a7f6ce1-05cf-4b62-8be2-0e0e6392f98c"},"vehicle_type_id":"4","last_reported":1745881786,"current_range_meters":18000,"station_id":"ce4bh192rcd13ifvqdd0","pricing_plan_id":"cebpf4jnsgd1na2vs0mg"},{"bike_id":"d314eac0-6a53-48b5-940b-52b183db42eb","system_id":"levelo_inurba_marseille","lat":43.298648,"lon":5.397298,"is_reserved":false,"is_disabled":false,"rental_uris":{"android":"levelo://app?vid=d314eac0-6a53-48b5-940b-52b183db42eb","ios":"levelo://app?vid=d314eac0-6a53-48b5-940b-52b183db42eb"},"vehicle_type_id":"4","last_reported":1745881786,"current_range_meters":18000,"station_id":"ce4bh0h2rcd13ifvqd50","pricing_plan_id":"cebpf4jnsgd1na2vs0mg"},{"bike_id":"07693e24-7000-4fd3-8fe1-8644dd3f1e08","system_id":"levelo_inurba_marseille","lat":43.274035,"lon":5.389618,"is_reserved":false,"is_disabled":false,"rental_uris":{"android":"levelo://app?vid=07693e24-7000-4fd3-8fe1-8644dd3f1e08","ios":"levelo://app?vid=07693e24-7000-4fd3-8fe1-8644dd3f1e08"},"vehicle_type_id":"4","last_reported":1745881786,"current_range_meters":18000,"station_id":"","pricing_plan_id":"cebpf4jnsgd1na2vs0mg"},{"bike_id":"62ea5d5b-ee6f-42b7-9cd0-c945fcac7364","system_id":"levelo_inurba_marseille","lat":43.3078,"lon":5.43463,"is_reserved":false,"is_disabled":false,"rental_uris":{"android":"levelo://app?vid=62ea5d5b-ee6f-42b7-9cd0-c945fcac7364","ios":"levelo://app?vid=62ea5d5b-ee6f-42b7-9cd0-c945fcac7364"},"vehicle_type_id":"4","last_reported":1745881786,"current_range_meters":18800,"station_id":"","pricing_plan_id":"cebpf4jnsgd1na2vs0mg"},{"bike_id":"61144dfe-675f-4e9a-9e34-e211c9859fc4","system_id":"levelo_inurba_marseille","lat":43.2509,"lon":5.39514,"is_reserved":false,"is_disabled":false,"rental_uris":{"android":"levelo://app?vid=61144dfe-675f-4e9a-9e34-e211c9859fc4","ios":"levelo://app?vid=61144dfe-675f-4e9a-9e34-e211c9859fc4"},"vehicle_type_id":"4","last_reported":1745881786,"current_range_meters":18800,"station_id":"ce4bhm12rcd13ifvqgkg","pricing_plan_id":"cebpf4jnsgd1na2vs0mg"},{"bike_id":"de795570-c9a3-4d67-8ccc-d8ae59f399fb","system_id":"levelo_inurba_marseille","lat":43.30447,"lon":5.38904,"is_reserved":false,"is_disabled":false,"rental_uris":{"android":"levelo://app?vid=de795570-c9a3-4d67-8ccc-d8ae59f399fb","ios":"levelo://app?vid=de795570-c9a3-4d67-8ccc-d8ae59f399fb"},"vehicle_type_id":"4","last_reported":1745881786,"current_range_meters":19200,"station_id":"ce4bgk12rcd13ifvqbi0","pricing_plan_id":"cebpf4jnsgd1na2vs0mg"},{"bike_id":"e902df82-3f4e-4be2-82fa-374a8ba1fc49","system_id":"levelo_inurba_marseille","lat":43.29954,"lon":5.39781,"is_reserved":false,"is_disabled":false,"rental_uris":{"android":"levelo://app?vid=e902df82-3f4e-4be2-82fa-374a8ba1fc49","ios":"levelo://app?vid=e902df82-3f4e-4be2-82fa-374a8ba1fc49"},"vehicle_type_id":"4","last_reported":1745881786,"current_range_meters":19200,"station_id":"","pricing_plan_id":"cebpf4jnsgd1na2vs0mg"},{"bike_id":"8022040d-94cd-48b0-a9d8-7bae0ce9d7ea","system_id":"levelo_inurba_marseille","lat":43.31535,"lon":5.38007,"is_reserved":false,"is_disabled":false,"rental_uris":{"android":"levelo://app?vid=8022040d-94cd-48b0-a9d8-7bae0ce9d7ea","ios":"levelo://app?vid=8022040d-94cd-48b0-a9d8-7bae0ce9d7ea"},"vehicle_type_id":"4","last_reported":1745881786,"current_range_meters":19200,"station_id":"ce4bhsp2rcd13ifvqi50","pricing_plan_id":"cebpf4jnsgd1na2vs0mg"},{"bike_id":"50b5da2f-3a79-425d-9a03-6248036b4ea9","system_id":"levelo_inurba_marseille","lat":43.250894,"lon":5.395239,"is_reserved":false,"is_disabled":false,"rental_uris":{"android":"levelo://app?vid=50b5da2f-3a79-425d-9a03-6248036b4ea9","ios":"levelo://app?vid=50b5da2f-3a79-425d-9a03-6248036b4ea9"},"vehicle_type_id":"4","last_reported":1745881786,"current_range_meters":19200,"station_id":"ce4bhm12rcd13ifvqgkg","pricing_plan_id":"cebpf4jnsgd1na2vs0mg"},{"bike_id":"a9e73118-aca0-4279-a09d-0250c87a2cbd","system_id":"levelo_inurba_marseille","lat":43.25112,"lon":5.4031,"is_reserved":false,"is_disabled":false,"rental_uris":{"android":"levelo://app?vid=a9e73118-aca0-4279-a09d-0250c87a2cbd","ios":"levelo://app?vid=a9e73118-aca0-4279-a09d-0250c87a2cbd"},"vehicle_type_id":"4","last_reported":1745881786,"current_range_meters":19200,"station_id":"ce4bhlh2rcd13ifvqgig","pricing_plan_id":"cebpf4jnsgd1na2vs0mg"},{"bike_id":"30854ee7-bfc3-4dbc-8d33-74e203d195a5","system_id":"levelo_inurba_marseille","lat":43.28723,"lon":5.37937,"is_reserved":false,"is_disabled":false,"rental_uris":{"android":"levelo://app?vid=30854ee7-bfc3-4dbc-8d33-74e203d195a5","ios":"levelo://app?vid=30854ee7-bfc3-4dbc-8d33-74e203d195a5"},"vehicle_type_id":"4","last_reported":1745881786,"current_range_meters":19200,"station_id":"ce4bh9p2rcd13ifvqec0","pricing_plan_id":"cebpf4jnsgd1na2vs0mg"},{"bike_id":"f771a545-16b0-41dd-b3bf-3d33a3b0b762","system_id":"levelo_inurba_marseille","lat":43.32338,"lon":5.40616,"is_reserved":false,"is_disabled":false,"rental_uris":{"android":"levelo://app?vid=f771a545-16b0-41dd-b3bf-3d33a3b0b762","ios":"levelo://app?vid=f771a545-16b0-41dd-b3bf-3d33a3b0b762"},"vehicle_type_id":"4","last_reported":1745881786,"current_range_meters":19200,"station_id":"ce4bhq92rcd13ifvqhjg","pricing_plan_id":"cebpf4jnsgd1na2vs0mg"},{"bike_id":"1ff7221b-8e1e-4dce-9e57-4aed861ca4b9","system_id":"levelo_inurba_marseille","lat":43.33735,"lon":5.39151,"is_reserved":false,"is_disabled":false,"rental_uris":{"android":"levelo://app?vid=1ff7221b-8e1e-4dce-9e57-4aed861ca4b9","ios":"levelo://app?vid=1ff7221b-8e1e-4dce-9e57-4aed861ca4b9"},"vehicle_type_id":"4","last_reported":1745881786,"current_range_meters":19200,"station_id":"ce4bhr92rcd13ifvqhsg","pricing_plan_id":"cebpf4jnsgd1na2vs0mg"},{"bike_id":"9b40f4bc-eea4-40c3-8685-925a7d071f39","system_id":"levelo_inurba_marseille","lat":43.30439,"lon":5.38892,"is_reserved":false,"is_disabled":false,"rental_uris":{"android":"levelo://app?vid=9b40f4bc-eea4-40c3-8685-925a7d071f39","ios":"levelo://app?vid=9b40f4bc-eea4-40c3-8685-925a7d071f39"},"vehicle_type_id":"4","last_reported":1745881786,"current_range_meters":19600,"station_id":"ce4bgk12rcd13ifvqbi0","pricing_plan_id":"cebpf4jnsgd1na2vs0mg"},{"bike_id":"73bdaf62-584c-4aef-b388-35b847199721","system_id":"levelo_inurba_marseille","lat":43.280309,"lon":5.36938,"is_reserved":false,"is_disabled":false,"rental_uris":{"android":"levelo://app?vid=73bdaf62-584c-4aef-b388-35b847199721","ios":"levelo://app?vid=73bdaf62-584c-4aef-b388-35b847199721"},"vehicle_type_id":"4","last_reported":1745881786,"current_range_meters":20000,"station_id":"ce4bha12rcd13ifvqef0","pricing_plan_id":"cebpf4jnsgd1na2vs0mg"},{"bike_id":"96cc1431-27a6-4398-8102-cdabee430427","system_id":"levelo_inurba_marseille","lat":43.30282,"lon":5.37708,"is_reserved":false,"is_disabled":false,"rental_uris":{"android":"levelo://app?vid=96cc1431-27a6-4398-8102-cdabee430427","ios":"levelo://app?vid=96cc1431-27a6-4398-8102-cdabee430427"},"vehicle_type_id":"4","last_reported":1745881786,"current_range_meters":20000,"station_id":"ce4bguh2rcd13ifvqcj0","pricing_plan_id":"cebpf4jnsgd1na2vs0mg"},{"bike_id":"b400b635-ddfb-4fc0-8874-f9394f1d48a5","system_id":"levelo_inurba_marseille","lat":43.28454,"lon":5.35878,"is_reserved":false,"is_disabled":false,"rental_uris":{"android":"levelo://app?vid=b400b635-ddfb-4fc0-8874-f9394f1d48a5","ios":"levelo://app?vid=b400b635-ddfb-4fc0-8874-f9394f1d48a5"},"vehicle_type_id":"4","last_reported":1745881786,"current_range_meters":20000,"station_id":"ce4bhah2rcd13ifvqei0","pricing_plan_id":"cebpf4jnsgd1na2vs0mg"},{"bike_id":"d768fc81-ef3c-45b5-bca5-b3b9757bb982","system_id":"levelo_inurba_marseille","lat":43.22933,"lon":5.35375,"is_reserved":false,"is_disabled":false,"rental_uris":{"android":"levelo://app?vid=d768fc81-ef3c-45b5-bca5-b3b9757bb982","ios":"levelo://app?vid=d768fc81-ef3c-45b5-bca5-b3b9757bb982"},"vehicle_type_id":"4","last_reported":1745881786,"current_range_meters":20000,"station_id":"cpo3532slgdg3j2ikp40","pricing_plan_id":"cebpf4jnsgd1na2vs0mg"},{"bike_id":"2a9a4ab6-8999-4c68-bfd6-b1c3fd498f51","system_id":"levelo_inurba_marseille","lat":43.29583,"lon":5.39961,"is_reserved":false,"is_disabled":false,"rental_uris":{"android":"levelo://app?vid=2a9a4ab6-8999-4c68-bfd6-b1c3fd498f51","ios":"levelo://app?vid=2a9a4ab6-8999-4c68-bfd6-b1c3fd498f51"},"vehicle_type_id":"4","last_reported":1745881786,"current_range_meters":20000,"station_id":"ce4bh312rcd13ifvqdj0","pricing_plan_id":"cebpf4jnsgd1na2vs0mg"},{"bike_id":"bf3dbc16-a8a7-42a9-a13c-7d55eb791e58","system_id":"levelo_inurba_marseille","lat":43.32482,"lon":5.36576,"is_reserved":false,"is_disabled":false,"rental_uris":{"android":"levelo://app?vid=bf3dbc16-a8a7-42a9-a13c-7d55eb791e58","ios":"levelo://app?vid=bf3dbc16-a8a7-42a9-a13c-7d55eb791e58"},"vehicle_type_id":"4","last_reported":1745881786,"current_range_meters":20000,"station_id":"ce4bhs12rcd13ifvqhvg","pricing_plan_id":"cebpf4jnsgd1na2vs0mg"},{"bike_id":"37630d4f-abe1-4ef3-97e2-22868d113cc0","system_id":"levelo_inurba_marseille","lat":43.29534,"lon":5.394007,"is_reserved":false,"is_disabled":false,"rental_uris":{"android":"levelo://app?vid=37630d4f-abe1-4ef3-97e2-22868d113cc0","ios":"levelo://app?vid=37630d4f-abe1-4ef3-97e2-22868d113cc0"},"vehicle_type_id":"4","last_reported":1745881786,"current_range_meters":20400,"station_id":"ce4bh292rcd13ifvqdf0","pricing_plan_id":"cebpf4jnsgd1na2vs0mg"},{"bike_id":"184bce07-c69f-4ddf-a243-274fb2945d3d","system_id":"levelo_inurba_marseille","lat":43.27949,"lon":5.41066,"is_reserved":false,"is_disabled":false,"rental_uris":{"android":"levelo://app?vid=184bce07-c69f-4ddf-a243-274fb2945d3d","ios":"levelo://app?vid=184bce07-c69f-4ddf-a243-274fb2945d3d"},"vehicle_type_id":"4","last_reported":1745881786,"current_range_meters":20400,"station_id":"ce4bhnp2rcd13ifvqh0g","pricing_plan_id":"cebpf4jnsgd1na2vs0mg"},{"bike_id":"4678f98c-9605-485e-9f52-d38650b7e3f9","system_id":"levelo_inurba_marseille","lat":43.32486,"lon":5.36606,"is_reserved":false,"is_disabled":false,"rental_uris":{"android":"levelo://app?vid=4678f98c-9605-485e-9f52-d38650b7e3f9","ios":"levelo://app?vid=4678f98c-9605-485e-9f52-d38650b7e3f9"},"vehicle_type_id":"4","last_reported":1745881786,"current_range_meters":20400,"station_id":"ce4bhs12rcd13ifvqhvg","pricing_plan_id":"cebpf4jnsgd1na2vs0mg"},{"bike_id":"940b7320-b328-4afe-85a6-d4d069ced16a","system_id":"levelo_inurba_marseille","lat":43.30938,"lon":5.40128,"is_reserved":false,"is_disabled":true,"rental_uris":{"android":"levelo://app?vid=940b7320-b328-4afe-85a6-d4d069ced16a","ios":"levelo://app?vid=940b7320-b328-4afe-85a6-d4d069ced16a"},"vehicle_type_id":"4","last_reported":1745881786,"current_range_meters":20800,"station_id":"ce4bgvp2rcd13ifvqct0","pricing_plan_id":"cebpf4jnsgd1na2vs0mg"},{"bike_id":"0200abdd-06d0-46c2-a10c-d26c9d82513f","system_id":"levelo_inurba_marseille","lat":43.29897,"lon":5.39736,"is_reserved":false,"is_disabled":false,"rental_uris":{"android":"levelo://app?vid=0200abdd-06d0-46c2-a10c-d26c9d82513f","ios":"levelo://app?vid=0200abdd-06d0-46c2-a10c-d26c9d82513f"},"vehicle_type_id":"4","last_reported":1745881786,"current_range_meters":20800,"station_id":"ce4bh0h2rcd13ifvqd50","pricing_plan_id":"cebpf4jnsgd1na2vs0mg"},{"bike_id":"14c40bbc-ec5d-436d-9173-4d6aa10e2ff5","system_id":"levelo_inurba_marseille","lat":43.23966,"lon":5.36632,"is_reserved":false,"is_disabled":false,"rental_uris":{"android":"levelo://app?vid=14c40bbc-ec5d-436d-9173-4d6aa10e2ff5","ios":"levelo://app?vid=14c40bbc-ec5d-436d-9173-4d6aa10e2ff5"},"vehicle_type_id":"4","last_reported":1745881786,"current_range_meters":20800,"station_id":"ce4bhi12rcd13ifvqfp0","pricing_plan_id":"cebpf4jnsgd1na2vs0mg"},{"bike_id":"4373719c-83cc-4e04-8f48-8c0c45de6196","system_id":"levelo_inurba_marseille","lat":43.29291,"lon":5.40122,"is_reserved":false,"is_disabled":false,"rental_uris":{"android":"levelo://app?vid=4373719c-83cc-4e04-8f48-8c0c45de6196","ios":"levelo://app?vid=4373719c-83cc-4e04-8f48-8c0c45de6196"},"vehicle_type_id":"4","last_reported":1745881786,"current_range_meters":20800,"station_id":"ce4bh312rcd13ifvqdk0","pricing_plan_id":"cebpf4jnsgd1na2vs0mg"},{"bike_id":"639a8685-dd60-4055-9b8b-8e5783c51e7a","system_id":"levelo_inurba_marseille","lat":43.291955,"lon":5.393294,"is_reserved":false,"is_disabled":false,"rental_uris":{"android":"levelo://app?vid=639a8685-dd60-4055-9b8b-8e5783c51e7a","ios":"levelo://app?vid=639a8685-dd60-4055-9b8b-8e5783c51e7a"},"vehicle_type_id":"4","last_reported":1745881786,"current_range_meters":21600,"station_id":"ce4bh192rcd13ifvqdd0","pricing_plan_id":"cebpf4jnsgd1na2vs0mg"},{"bike_id":"a4d84cb8-6860-44ea-85de-d66185be58e0","system_id":"levelo_inurba_marseille","lat":43.305743,"lon":5.384211,"is_reserved":false,"is_disabled":true,"rental_uris":{"android":"levelo://app?vid=a4d84cb8-6860-44ea-85de-d66185be58e0","ios":"levelo://app?vid=a4d84cb8-6860-44ea-85de-d66185be58e0"},"vehicle_type_id":"4","last_reported":1745881786,"current_range_meters":21600,"station_id":"ce4bgg92rcd13ifvqb30","pricing_plan_id":"cebpf4jnsgd1na2vs0mg"},{"bike_id":"fce2c520-92d3-4d18-810b-8d643fc15a1a","system_id":"levelo_inurba_marseille","lat":43.2306,"lon":5.35485,"is_reserved":false,"is_disabled":false,"rental_uris":{"android":"levelo://app?vid=fce2c520-92d3-4d18-810b-8d643fc15a1a","ios":"levelo://app?vid=fce2c520-92d3-4d18-810b-8d643fc15a1a"},"vehicle_type_id":"4","last_reported":1745881786,"current_range_meters":21600,"station_id":"cpo3342slgdg3j2ifvpg","pricing_plan_id":"cebpf4jnsgd1na2vs0mg"},{"bike_id":"7bc940b6-47ad-4627-aa5b-3c1d848c2ffe","system_id":"levelo_inurba_marseille","lat":43.27839,"lon":5.39216,"is_reserved":false,"is_disabled":false,"rental_uris":{"android":"levelo://app?vid=7bc940b6-47ad-4627-aa5b-3c1d848c2ffe","ios":"levelo://app?vid=7bc940b6-47ad-4627-aa5b-3c1d848c2ffe"},"vehicle_type_id":"4","last_reported":1745881786,"current_range_meters":21600,"station_id":"ce4bhjp2rcd13ifvqga0","pricing_plan_id":"cebpf4jnsgd1na2vs0mg"},{"bike_id":"aa8d6287-b95a-4e16-8b3a-83cecfb5c05d","system_id":"levelo_inurba_marseille","lat":43.241685,"lon":5.363908,"is_reserved":false,"is_disabled":false,"rental_uris":{"android":"levelo://app?vid=aa8d6287-b95a-4e16-8b3a-83cecfb5c05d","ios":"levelo://app?vid=aa8d6287-b95a-4e16-8b3a-83cecfb5c05d"},"vehicle_type_id":"4","last_reported":1745881786,"current_range_meters":21600,"station_id":"cpo36qri1sfpv3e86is0","pricing_plan_id":"cebpf4jnsgd1na2vs0mg"},{"bike_id":"cfdbbfdc-3480-404d-908b-4db64a2559b4","system_id":"levelo_inurba_marseille","lat":43.25719,"lon":5.41109,"is_reserved":false,"is_disabled":false,"rental_uris":{"android":"levelo://app?vid=cfdbbfdc-3480-404d-908b-4db64a2559b4","ios":"levelo://app?vid=cfdbbfdc-3480-404d-908b-4db64a2559b4"},"vehicle_type_id":"4","last_reported":1745881786,"current_range_meters":21600,"station_id":"ce4bhkp2rcd13ifvqgd0","pricing_plan_id":"cebpf4jnsgd1na2vs0mg"},{"bike_id":"7d5a37e6-0e33-435e-86cf-30b34c213a12","system_id":"levelo_inurba_marseille","lat":43.27916,"lon":5.39573,"is_reserved":false,"is_disabled":false,"rental_uris":{"android":"levelo://app?vid=7d5a37e6-0e33-435e-86cf-30b34c213a12","ios":"levelo://app?vid=7d5a37e6-0e33-435e-86cf-30b34c213a12"},"vehicle_type_id":"4","last_reported":1745881786,"current_range_meters":22000,"station_id":"ce4bhf92rcd13ifvqf40","pricing_plan_id":"cebpf4jnsgd1na2vs0mg"},{"bike_id":"b26a0b33-650f-4f7b-8536-58a942167ba4","system_id":"levelo_inurba_marseille","lat":43.232014,"lon":5.355499,"is_reserved":false,"is_disabled":false,"rental_uris":{"android":"levelo://app?vid=b26a0b33-650f-4f7b-8536-58a942167ba4","ios":"levelo://app?vid=b26a0b33-650f-4f7b-8536-58a942167ba4"},"vehicle_type_id":"4","last_reported":1745881786,"current_range_meters":22000,"station_id":"ce4bhu92rcd13ifvqi70","pricing_plan_id":"cebpf4jnsgd1na2vs0mg"},{"bike_id":"991af426-9c93-4d4c-bd36-cbc53f7ba46c","system_id":"levelo_inurba_marseille","lat":43.239659,"lon":5.366315,"is_reserved":false,"is_disabled":false,"rental_uris":{"android":"levelo://app?vid=991af426-9c93-4d4c-bd36-cbc53f7ba46c","ios":"levelo://app?vid=991af426-9c93-4d4c-bd36-cbc53f7ba46c"},"vehicle_type_id":"4","last_reported":1745881786,"current_range_meters":22000,"station_id":"ce4bhi12rcd13ifvqfp0","pricing_plan_id":"cebpf4jnsgd1na2vs0mg"},{"bike_id":"e4e76b6b-2fc7-4916-aa21-7cec24c0e4e8","system_id":"levelo_inurba_marseille","lat":43.28,"lon":5.387465,"is_reserved":false,"is_disabled":true,"rental_uris":{"android":"levelo://app?vid=e4e76b6b-2fc7-4916-aa21-7cec24c0e4e8","ios":"levelo://app?vid=e4e76b6b-2fc7-4916-aa21-7cec24c0e4e8"},"vehicle_type_id":"4","last_reported":1745881786,"current_range_meters":22000,"station_id":"ce4bhg12rcd13ifvqf80","pricing_plan_id":"cebpf4jnsgd1na2vs0mg"},{"bike_id":"86c2979e-8cf6-48ed-bdb1-835ff11e3adc","system_id":"levelo_inurba_marseille","lat":43.25393,"lon":5.41854,"is_reserved":false,"is_disabled":false,"rental_uris":{"android":"levelo://app?vid=86c2979e-8cf6-48ed-bdb1-835ff11e3adc","ios":"levelo://app?vid=86c2979e-8cf6-48ed-bdb1-835ff11e3adc"},"vehicle_type_id":"4","last_reported":1745881786,"current_range_meters":22000,"station_id":"","pricing_plan_id":"cebpf4jnsgd1na2vs0mg"},{"bike_id":"2767110b-46f6-461f-9053-309ad1bd2e5a","system_id":"levelo_inurba_marseille","lat":43.229529,"lon":5.353627,"is_reserved":false,"is_disabled":false,"rental_uris":{"android":"levelo://app?vid=2767110b-46f6-461f-9053-309ad1bd2e5a","ios":"levelo://app?vid=2767110b-46f6-461f-9053-309ad1bd2e5a"},"vehicle_type_id":"4","last_reported":1745881786,"current_range_meters":22000,"station_id":"cpo3532slgdg3j2ikp40","pricing_plan_id":"cebpf4jnsgd1na2vs0mg"},{"bike_id":"36589065-9777-4275-9498-24a04bf80734","system_id":"levelo_inurba_marseille","lat":43.22934,"lon":5.353859,"is_reserved":false,"is_disabled":false,"rental_uris":{"android":"levelo://app?vid=36589065-9777-4275-9498-24a04bf80734","ios":"levelo://app?vid=36589065-9777-4275-9498-24a04bf80734"},"vehicle_type_id":"4","last_reported":1745881786,"current_range_meters":22400,"station_id":"cpo3532slgdg3j2ikp40","pricing_plan_id":"cebpf4jnsgd1na2vs0mg"},{"bike_id":"1eecfb39-b550-4ec7-bb58-e2d9ab82678d","system_id":"levelo_inurba_marseille","lat":43.231939,"lon":5.355418,"is_reserved":false,"is_disabled":false,"rental_uris":{"android":"levelo://app?vid=1eecfb39-b550-4ec7-bb58-e2d9ab82678d","ios":"levelo://app?vid=1eecfb39-b550-4ec7-bb58-e2d9ab82678d"},"vehicle_type_id":"4","last_reported":1745881786,"current_range_meters":22400,"station_id":"ce4bhu92rcd13ifvqi70","pricing_plan_id":"cebpf4jnsgd1na2vs0mg"},{"bike_id":"b2861b2d-3b9e-4211-a006-ecf419331232","system_id":"levelo_inurba_marseille","lat":43.295283,"lon":5.393971,"is_reserved":false,"is_disabled":false,"rental_uris":{"android":"levelo://app?vid=b2861b2d-3b9e-4211-a006-ecf419331232","ios":"levelo://app?vid=b2861b2d-3b9e-4211-a006-ecf419331232"},"vehicle_type_id":"4","last_reported":1745881786,"current_range_meters":22400,"station_id":"ce4bh292rcd13ifvqdf0","pricing_plan_id":"cebpf4jnsgd1na2vs0mg"},{"bike_id":"7fe1858c-ab83-41eb-b743-cdf1d413a1c7","system_id":"levelo_inurba_marseille","lat":43.289408,"lon":5.363976,"is_reserved":false,"is_disabled":false,"rental_uris":{"android":"levelo://app?vid=7fe1858c-ab83-41eb-b743-cdf1d413a1c7","ios":"levelo://app?vid=7fe1858c-ab83-41eb-b743-cdf1d413a1c7"},"vehicle_type_id":"4","last_reported":1745881786,"current_range_meters":22400,"station_id":"ce4bhc92rcd13ifvqetg","pricing_plan_id":"cebpf4jnsgd1na2vs0mg"},{"bike_id":"5b58391e-c391-4329-8400-dfb17c4b320d","system_id":"levelo_inurba_marseille","lat":43.27928,"lon":5.39581,"is_reserved":false,"is_disabled":false,"rental_uris":{"android":"levelo://app?vid=5b58391e-c391-4329-8400-dfb17c4b320d","ios":"levelo://app?vid=5b58391e-c391-4329-8400-dfb17c4b320d"},"vehicle_type_id":"4","last_reported":1745881786,"current_range_meters":22400,"station_id":"ce4bhf92rcd13ifvqf40","pricing_plan_id":"cebpf4jnsgd1na2vs0mg"},{"bike_id":"44ff7261-e51a-4419-8ffa-a0d39d5b60ba","system_id":"levelo_inurba_marseille","lat":43.28336,"lon":5.38106,"is_reserved":false,"is_disabled":true,"rental_uris":{"android":"levelo://app?vid=44ff7261-e51a-4419-8ffa-a0d39d5b60ba","ios":"levelo://app?vid=44ff7261-e51a-4419-8ffa-a0d39d5b60ba"},"vehicle_type_id":"4","last_reported":1745881786,"current_range_meters":22800,"station_id":"ce4bh412rcd13ifvqdr0","pricing_plan_id":"cebpf4jnsgd1na2vs0mg"},{"bike_id":"2792008d-ab0b-4a87-900d-2ba575e691be","system_id":"levelo_inurba_marseille","lat":43.28712,"lon":5.39971,"is_reserved":false,"is_disabled":false,"rental_uris":{"android":"levelo://app?vid=2792008d-ab0b-4a87-900d-2ba575e691be","ios":"levelo://app?vid=2792008d-ab0b-4a87-900d-2ba575e691be"},"vehicle_type_id":"4","last_reported":1745881786,"current_range_meters":22800,"station_id":"ce4bho92rcd13ifvqh3g","pricing_plan_id":"cebpf4jnsgd1na2vs0mg"},{"bike_id":"dc28fc6e-d680-4477-bbc1-f4611ff292f9","system_id":"levelo_inurba_marseille","lat":43.24657,"lon":5.38177,"is_reserved":false,"is_disabled":false,"rental_uris":{"android":"levelo://app?vid=dc28fc6e-d680-4477-bbc1-f4611ff292f9","ios":"levelo://app?vid=dc28fc6e-d680-4477-bbc1-f4611ff292f9"},"vehicle_type_id":"4","last_reported":1745881786,"current_range_meters":22800,"station_id":"ce4bhih2rcd13ifvqfr0","pricing_plan_id":"cebpf4jnsgd1na2vs0mg"},{"bike_id":"d7e7fed2-2221-47d9-af4b-b33aebfa611c","system_id":"levelo_inurba_marseille","lat":43.26201,"lon":5.40456,"is_reserved":false,"is_disabled":false,"rental_uris":{"android":"levelo://app?vid=d7e7fed2-2221-47d9-af4b-b33aebfa611c","ios":"levelo://app?vid=d7e7fed2-2221-47d9-af4b-b33aebfa611c"},"vehicle_type_id":"4","last_reported":1745881786,"current_range_meters":22800,"station_id":"ce4bhmh2rcd13ifvqgmg","pricing_plan_id":"cebpf4jnsgd1na2vs0mg"},{"bike_id":"8074d6d0-e7ba-4452-8c1f-9937cd62ff0a","system_id":"levelo_inurba_marseille","lat":43.28439,"lon":5.37511,"is_reserved":false,"is_disabled":false,"rental_uris":{"android":"levelo://app?vid=8074d6d0-e7ba-4452-8c1f-9937cd62ff0a","ios":"levelo://app?vid=8074d6d0-e7ba-4452-8c1f-9937cd62ff0a"},"vehicle_type_id":"4","last_reported":1745881786,"current_range_meters":22800,"station_id":"ce4bh412rcd13ifvqds0","pricing_plan_id":"cebpf4jnsgd1na2vs0mg"},{"bike_id":"62bc10f9-8bc6-4b8f-a2c6-c9500cdd5250","system_id":"levelo_inurba_marseille","lat":43.243888,"lon":5.370581,"is_reserved":false,"is_disabled":false,"rental_uris":{"android":"levelo://app?vid=62bc10f9-8bc6-4b8f-a2c6-c9500cdd5250","ios":"levelo://app?vid=62bc10f9-8bc6-4b8f-a2c6-c9500cdd5250"},"vehicle_type_id":"4","last_reported":1745881786,"current_range_meters":22800,"station_id":"ce4bhhh2rcd13ifvqfk0","pricing_plan_id":"cebpf4jnsgd1na2vs0mg"},{"bike_id":"334f0609-b51b-492a-8482-a689c46d4ff0","system_id":"levelo_inurba_marseille","lat":43.28473,"lon":5.384355,"is_reserved":false,"is_disabled":true,"rental_uris":{"android":"levelo://app?vid=334f0609-b51b-492a-8482-a689c46d4ff0","ios":"levelo://app?vid=334f0609-b51b-492a-8482-a689c46d4ff0"},"vehicle_type_id":"4","last_reported":1745881786,"current_range_meters":22800,"station_id":"ce4bh512rcd13ifvqe3g","pricing_plan_id":"cebpf4jnsgd1na2vs0mg"},{"bike_id":"750b37f4-0312-424d-8787-8c7fa359a8d6","system_id":"levelo_inurba_marseille","lat":43.33603,"lon":5.41028,"is_reserved":false,"is_disabled":false,"rental_uris":{"android":"levelo://app?vid=750b37f4-0312-424d-8787-8c7fa359a8d6","ios":"levelo://app?vid=750b37f4-0312-424d-8787-8c7fa359a8d6"},"vehicle_type_id":"4","last_reported":1745881786,"current_range_meters":22800,"station_id":"ce4bhqh2rcd13ifvqhmg","pricing_plan_id":"cebpf4jnsgd1na2vs0mg"},{"bike_id":"ddb8316e-1365-448a-a8aa-0cbad9411035","system_id":"levelo_inurba_marseille","lat":43.288611,"lon":5.358304,"is_reserved":false,"is_disabled":false,"rental_uris":{"android":"levelo://app?vid=ddb8316e-1365-448a-a8aa-0cbad9411035","ios":"levelo://app?vid=ddb8316e-1365-448a-a8aa-0cbad9411035"},"vehicle_type_id":"4","last_reported":1745881786,"current_range_meters":22800,"station_id":"ce4bhb12rcd13ifvqem0","pricing_plan_id":"cebpf4jnsgd1na2vs0mg"},{"bike_id":"adc44d8b-db45-47a0-b0cb-74959fb103db","system_id":"levelo_inurba_marseille","lat":43.31174,"lon":5.38716,"is_reserved":false,"is_disabled":false,"rental_uris":{"android":"levelo://app?vid=adc44d8b-db45-47a0-b0cb-74959fb103db","ios":"levelo://app?vid=adc44d8b-db45-47a0-b0cb-74959fb103db"},"vehicle_type_id":"4","last_reported":1745881786,"current_range_meters":23200,"station_id":"ce4bgv12rcd13ifvqcp0","pricing_plan_id":"cebpf4jnsgd1na2vs0mg"},{"bike_id":"ae23a65e-7234-4b38-b7da-e11c7dcd230c","system_id":"levelo_inurba_marseille","lat":43.25228,"lon":5.40425,"is_reserved":false,"is_disabled":false,"rental_uris":{"android":"levelo://app?vid=ae23a65e-7234-4b38-b7da-e11c7dcd230c","ios":"levelo://app?vid=ae23a65e-7234-4b38-b7da-e11c7dcd230c"},"vehicle_type_id":"4","last_reported":1745881786,"current_range_meters":23200,"station_id":"","pricing_plan_id":"cebpf4jnsgd1na2vs0mg"},{"bike_id":"476d6e23-e0d6-4515-acd8-e9a58c14fa45","system_id":"levelo_inurba_marseille","lat":43.32676,"lon":5.40985,"is_reserved":false,"is_disabled":false,"rental_uris":{"android":"levelo://app?vid=476d6e23-e0d6-4515-acd8-e9a58c14fa45","ios":"levelo://app?vid=476d6e23-e0d6-4515-acd8-e9a58c14fa45"},"vehicle_type_id":"4","last_reported":1745881786,"current_range_meters":23200,"station_id":"ce4bhpp2rcd13ifvqhgg","pricing_plan_id":"cebpf4jnsgd1na2vs0mg"},{"bike_id":"c904117e-23c8-4f08-b0bb-a929630f1d54","system_id":"levelo_inurba_marseille","lat":43.28106,"lon":5.37867,"is_reserved":false,"is_disabled":false,"rental_uris":{"android":"levelo://app?vid=c904117e-23c8-4f08-b0bb-a929630f1d54","ios":"levelo://app?vid=c904117e-23c8-4f08-b0bb-a929630f1d54"},"vehicle_type_id":"4","last_reported":1745881786,"current_range_meters":23200,"station_id":"ce4bha12rcd13ifvqee0","pricing_plan_id":"cebpf4jnsgd1na2vs0mg"},{"bike_id":"f1358a47-a9d9-46f7-ab10-46943d59f922","system_id":"levelo_inurba_marseille","lat":43.31703,"lon":5.40454,"is_reserved":false,"is_disabled":false,"rental_uris":{"android":"levelo://app?vid=f1358a47-a9d9-46f7-ab10-46943d59f922","ios":"levelo://app?vid=f1358a47-a9d9-46f7-ab10-46943d59f922"},"vehicle_type_id":"4","last_reported":1745881786,"current_range_meters":23200,"station_id":"ce4bh012rcd13ifvqd00","pricing_plan_id":"cebpf4jnsgd1na2vs0mg"},{"bike_id":"4561fee1-0e59-47fa-8a60-d713b55bd720","system_id":"levelo_inurba_marseille","lat":43.29451,"lon":5.39742,"is_reserved":false,"is_disabled":false,"rental_uris":{"android":"levelo://app?vid=4561fee1-0e59-47fa-8a60-d713b55bd720","ios":"levelo://app?vid=4561fee1-0e59-47fa-8a60-d713b55bd720"},"vehicle_type_id":"4","last_reported":1745881786,"current_range_meters":23200,"station_id":"ce4bh3h2rcd13ifvqdo0","pricing_plan_id":"cebpf4jnsgd1na2vs0mg"},{"bike_id":"cfc035fb-b338-45e7-9d5a-22dfe937685e","system_id":"levelo_inurba_marseille","lat":43.2623,"lon":5.40461,"is_reserved":false,"is_disabled":false,"rental_uris":{"android":"levelo://app?vid=cfc035fb-b338-45e7-9d5a-22dfe937685e","ios":"levelo://app?vid=cfc035fb-b338-45e7-9d5a-22dfe937685e"},"vehicle_type_id":"4","last_reported":1745881786,"current_range_meters":23200,"station_id":"ce4bhmh2rcd13ifvqgmg","pricing_plan_id":"cebpf4jnsgd1na2vs0mg"},{"bike_id":"a5236b1c-ebbf-468c-a0ef-8cc8f74238a6","system_id":"levelo_inurba_marseille","lat":43.28864,"lon":5.35833,"is_reserved":false,"is_disabled":false,"rental_uris":{"android":"levelo://app?vid=a5236b1c-ebbf-468c-a0ef-8cc8f74238a6","ios":"levelo://app?vid=a5236b1c-ebbf-468c-a0ef-8cc8f74238a6"},"vehicle_type_id":"4","last_reported":1745881786,"current_range_meters":23200,"station_id":"ce4bhb12rcd13ifvqem0","pricing_plan_id":"cebpf4jnsgd1na2vs0mg"},{"bike_id":"43d46a28-bb61-4f48-bd25-81c2ab7ddde1","system_id":"levelo_inurba_marseille","lat":43.25717,"lon":5.41094,"is_reserved":false,"is_disabled":false,"rental_uris":{"android":"levelo://app?vid=43d46a28-bb61-4f48-bd25-81c2ab7ddde1","ios":"levelo://app?vid=43d46a28-bb61-4f48-bd25-81c2ab7ddde1"},"vehicle_type_id":"4","last_reported":1745881786,"current_range_meters":22800,"station_id":"ce4bhkp2rcd13ifvqgd0","pricing_plan_id":"cebpf4jnsgd1na2vs0mg"},{"bike_id":"26b3ad9b-916a-4fd6-8b03-de51888c7274","system_id":"levelo_inurba_marseille","lat":43.31174,"lon":5.38711,"is_reserved":false,"is_disabled":false,"rental_uris":{"android":"levelo://app?vid=26b3ad9b-916a-4fd6-8b03-de51888c7274","ios":"levelo://app?vid=26b3ad9b-916a-4fd6-8b03-de51888c7274"},"vehicle_type_id":"4","last_reported":1745881786,"current_range_meters":23200,"station_id":"ce4bgv12rcd13ifvqcp0","pricing_plan_id":"cebpf4jnsgd1na2vs0mg"},{"bike_id":"9b6a4d73-c1ff-445a-af71-a256e0265b4c","system_id":"levelo_inurba_marseille","lat":43.28442,"lon":5.3918,"is_reserved":false,"is_disabled":false,"rental_uris":{"android":"levelo://app?vid=9b6a4d73-c1ff-445a-af71-a256e0265b4c","ios":"levelo://app?vid=9b6a4d73-c1ff-445a-af71-a256e0265b4c"},"vehicle_type_id":"4","last_reported":1745881786,"current_range_meters":23200,"station_id":"ce4bhoh2rcd13ifvqh5g","pricing_plan_id":"cebpf4jnsgd1na2vs0mg"},{"bike_id":"5305078a-127d-4e22-a2af-62a613566d20","system_id":"levelo_inurba_marseille","lat":43.284557,"lon":5.358915,"is_reserved":false,"is_disabled":false,"rental_uris":{"android":"levelo://app?vid=5305078a-127d-4e22-a2af-62a613566d20","ios":"levelo://app?vid=5305078a-127d-4e22-a2af-62a613566d20"},"vehicle_type_id":"4","last_reported":1745881786,"current_range_meters":24000,"station_id":"ce4bhah2rcd13ifvqei0","pricing_plan_id":"cebpf4jnsgd1na2vs0mg"},{"bike_id":"2372f7c6-1089-4c13-bafe-c3d7862aadcc","system_id":"levelo_inurba_marseille","lat":43.31706,"lon":5.43696,"is_reserved":false,"is_disabled":false,"rental_uris":{"android":"levelo://app?vid=2372f7c6-1089-4c13-bafe-c3d7862aadcc","ios":"levelo://app?vid=2372f7c6-1089-4c13-bafe-c3d7862aadcc"},"vehicle_type_id":"4","last_reported":1745881786,"current_range_meters":24000,"station_id":"ce4bhp92rcd13ifvqhcg","pricing_plan_id":"cebpf4jnsgd1na2vs0mg"},{"bike_id":"8cee2362-a9b7-4279-b6b8-92bde5f2464d","system_id":"levelo_inurba_marseille","lat":43.298808,"lon":5.397338,"is_reserved":false,"is_disabled":false,"rental_uris":{"android":"levelo://app?vid=8cee2362-a9b7-4279-b6b8-92bde5f2464d","ios":"levelo://app?vid=8cee2362-a9b7-4279-b6b8-92bde5f2464d"},"vehicle_type_id":"4","last_reported":1745881786,"current_range_meters":24000,"station_id":"ce4bh0h2rcd13ifvqd50","pricing_plan_id":"cebpf4jnsgd1na2vs0mg"},{"bike_id":"f73ebae7-7d33-4937-bf07-2f6d4e7b035a","system_id":"levelo_inurba_marseille","lat":43.28705,"lon":5.39983,"is_reserved":false,"is_disabled":false,"rental_uris":{"android":"levelo://app?vid=f73ebae7-7d33-4937-bf07-2f6d4e7b035a","ios":"levelo://app?vid=f73ebae7-7d33-4937-bf07-2f6d4e7b035a"},"vehicle_type_id":"4","last_reported":1745881786,"current_range_meters":24000,"station_id":"ce4bho92rcd13ifvqh3g","pricing_plan_id":"cebpf4jnsgd1na2vs0mg"},{"bike_id":"9eac9edc-c3d5-43dc-8ebc-c05868539cb4","system_id":"levelo_inurba_marseille","lat":43.249987,"lon":5.379662,"is_reserved":false,"is_disabled":false,"rental_uris":{"android":"levelo://app?vid=9eac9edc-c3d5-43dc-8ebc-c05868539cb4","ios":"levelo://app?vid=9eac9edc-c3d5-43dc-8ebc-c05868539cb4"},"vehicle_type_id":"4","last_reported":1745881786,"current_range_meters":24000,"station_id":"","pricing_plan_id":"cebpf4jnsgd1na2vs0mg"},{"bike_id":"f1554015-1333-46b5-8c38-f6ed8d6276bb","system_id":"levelo_inurba_marseille","lat":43.292647,"lon":5.3762,"is_reserved":false,"is_disabled":false,"rental_uris":{"android":"levelo://app?vid=f1554015-1333-46b5-8c38-f6ed8d6276bb","ios":"levelo://app?vid=f1554015-1333-46b5-8c38-f6ed8d6276bb"},"vehicle_type_id":"4","last_reported":1745881786,"current_range_meters":24000,"station_id":"ce4bgi12rcd13ifvqb80","pricing_plan_id":"cebpf4jnsgd1na2vs0mg"},{"bike_id":"2a4f5dfa-513d-46a0-923b-e5be40c3c2bc","system_id":"levelo_inurba_marseille","lat":43.284421,"lon":5.391907,"is_reserved":false,"is_disabled":true,"rental_uris":{"android":"levelo://app?vid=2a4f5dfa-513d-46a0-923b-e5be40c3c2bc","ios":"levelo://app?vid=2a4f5dfa-513d-46a0-923b-e5be40c3c2bc"},"vehicle_type_id":"4","last_reported":1745881786,"current_range_meters":24000,"station_id":"ce4bhoh2rcd13ifvqh5g","pricing_plan_id":"cebpf4jnsgd1na2vs0mg"},{"bike_id":"faf4c844-c26b-4d1f-b8c1-8da52988ae36","system_id":"levelo_inurba_marseille","lat":43.29923,"lon":5.38282,"is_reserved":false,"is_disabled":false,"rental_uris":{"android":"levelo://app?vid=faf4c844-c26b-4d1f-b8c1-8da52988ae36","ios":"levelo://app?vid=faf4c844-c26b-4d1f-b8c1-8da52988ae36"},"vehicle_type_id":"4","last_reported":1745881786,"current_range_meters":24000,"station_id":"","pricing_plan_id":"cebpf4jnsgd1na2vs0mg"},{"bike_id":"7940bc1b-eaa7-4f49-a435-46dc9391f6a1","system_id":"levelo_inurba_marseille","lat":43.21195,"lon":5.35068,"is_reserved":false,"is_disabled":false,"rental_uris":{"android":"levelo://app?vid=7940bc1b-eaa7-4f49-a435-46dc9391f6a1","ios":"levelo://app?vid=7940bc1b-eaa7-4f49-a435-46dc9391f6a1"},"vehicle_type_id":"4","last_reported":1745881786,"current_range_meters":24000,"station_id":"st_cvj6sg6p6f1abm77japg","pricing_plan_id":"cebpf4jnsgd1na2vs0mg"},{"bike_id":"0c52ba8e-5dbb-4af8-a7d6-9ec82133a650","system_id":"levelo_inurba_marseille","lat":43.30894,"lon":5.39641,"is_reserved":false,"is_disabled":false,"rental_uris":{"android":"levelo://app?vid=0c52ba8e-5dbb-4af8-a7d6-9ec82133a650","ios":"levelo://app?vid=0c52ba8e-5dbb-4af8-a7d6-9ec82133a650"},"vehicle_type_id":"4","last_reported":1745881786,"current_range_meters":24000,"station_id":"ce4bh012rcd13ifvqcv0","pricing_plan_id":"cebpf4jnsgd1na2vs0mg"},{"bike_id":"27a99994-d8ce-457a-8437-acb45569429f","system_id":"levelo_inurba_marseille","lat":43.30335,"lon":5.40434,"is_reserved":false,"is_disabled":false,"rental_uris":{"android":"levelo://app?vid=27a99994-d8ce-457a-8437-acb45569429f","ios":"levelo://app?vid=27a99994-d8ce-457a-8437-acb45569429f"},"vehicle_type_id":"4","last_reported":1745881786,"current_range_meters":24000,"station_id":"ce4bh012rcd13ifvqd10","pricing_plan_id":"cebpf4jnsgd1na2vs0mg"},{"bike_id":"69c3fa2a-08d1-4501-9d8e-766e0ed626ed","system_id":"levelo_inurba_marseille","lat":43.246672,"lon":5.381475,"is_reserved":false,"is_disabled":false,"rental_uris":{"android":"levelo://app?vid=69c3fa2a-08d1-4501-9d8e-766e0ed626ed","ios":"levelo://app?vid=69c3fa2a-08d1-4501-9d8e-766e0ed626ed"},"vehicle_type_id":"4","last_reported":1745881786,"current_range_meters":24000,"station_id":"ce4bhih2rcd13ifvqfr0","pricing_plan_id":"cebpf4jnsgd1na2vs0mg"},{"bike_id":"89c74b08-636e-4fa3-bf7f-99c2752bc1d1","system_id":"levelo_inurba_marseille","lat":43.303318,"lon":5.404284,"is_reserved":false,"is_disabled":false,"rental_uris":{"android":"levelo://app?vid=89c74b08-636e-4fa3-bf7f-99c2752bc1d1","ios":"levelo://app?vid=89c74b08-636e-4fa3-bf7f-99c2752bc1d1"},"vehicle_type_id":"4","last_reported":1745881786,"current_range_meters":24000,"station_id":"ce4bh012rcd13ifvqd10","pricing_plan_id":"cebpf4jnsgd1na2vs0mg"},{"bike_id":"125c185d-8482-489a-87ad-9d3f026ee049","system_id":"levelo_inurba_marseille","lat":43.30765,"lon":5.38097,"is_reserved":false,"is_disabled":false,"rental_uris":{"android":"levelo://app?vid=125c185d-8482-489a-87ad-9d3f026ee049","ios":"levelo://app?vid=125c185d-8482-489a-87ad-9d3f026ee049"},"vehicle_type_id":"4","last_reported":1745881786,"current_range_meters":24400,"station_id":"","pricing_plan_id":"cebpf4jnsgd1na2vs0mg"},{"bike_id":"e796717e-f02b-4f67-b159-56cb2ccc13bc","system_id":"levelo_inurba_marseille","lat":43.32416,"lon":5.36571,"is_reserved":false,"is_disabled":false,"rental_uris":{"android":"levelo://app?vid=e796717e-f02b-4f67-b159-56cb2ccc13bc","ios":"levelo://app?vid=e796717e-f02b-4f67-b159-56cb2ccc13bc"},"vehicle_type_id":"4","last_reported":1745881786,"current_range_meters":24400,"station_id":"","pricing_plan_id":"cebpf4jnsgd1na2vs0mg"},{"bike_id":"111c1998-4230-4789-add4-3e3731da2f78","system_id":"levelo_inurba_marseille","lat":43.276713,"lon":5.420879,"is_reserved":false,"is_disabled":false,"rental_uris":{"android":"levelo://app?vid=111c1998-4230-4789-add4-3e3731da2f78","ios":"levelo://app?vid=111c1998-4230-4789-add4-3e3731da2f78"},"vehicle_type_id":"4","last_reported":1745881786,"current_range_meters":24400,"station_id":"","pricing_plan_id":"cebpf4jnsgd1na2vs0mg"},{"bike_id":"775ee98d-2ff4-4422-a6a0-98adb410b287","system_id":"levelo_inurba_marseille","lat":43.260284,"lon":5.37549,"is_reserved":false,"is_disabled":false,"rental_uris":{"android":"levelo://app?vid=775ee98d-2ff4-4422-a6a0-98adb410b287","ios":"levelo://app?vid=775ee98d-2ff4-4422-a6a0-98adb410b287"},"vehicle_type_id":"4","last_reported":1745881786,"current_range_meters":24400,"station_id":"ce4bhgh2rcd13ifvqfa0","pricing_plan_id":"cebpf4jnsgd1na2vs0mg"},{"bike_id":"1704efd4-bf8c-442b-b492-8c5efc81221c","system_id":"levelo_inurba_marseille","lat":43.29038,"lon":5.39971,"is_reserved":false,"is_disabled":false,"rental_uris":{"android":"levelo://app?vid=1704efd4-bf8c-442b-b492-8c5efc81221c","ios":"levelo://app?vid=1704efd4-bf8c-442b-b492-8c5efc81221c"},"vehicle_type_id":"4","last_reported":1745881786,"current_range_meters":24400,"station_id":"ce4bh392rcd13ifvqdm0","pricing_plan_id":"cebpf4jnsgd1na2vs0mg"},{"bike_id":"e932c0f4-05c1-4eb4-b3a1-9a7195a328ea","system_id":"levelo_inurba_marseille","lat":43.28155,"lon":5.40603,"is_reserved":false,"is_disabled":false,"rental_uris":{"android":"levelo://app?vid=e932c0f4-05c1-4eb4-b3a1-9a7195a328ea","ios":"levelo://app?vid=e932c0f4-05c1-4eb4-b3a1-9a7195a328ea"},"vehicle_type_id":"4","last_reported":1745881786,"current_range_meters":24400,"station_id":"","pricing_plan_id":"cebpf4jnsgd1na2vs0mg"},{"bike_id":"fdd1b7d2-a2df-4cad-8f9f-356c6d307cd1","system_id":"levelo_inurba_marseille","lat":43.30255,"lon":5.40084,"is_reserved":false,"is_disabled":false,"rental_uris":{"android":"levelo://app?vid=fdd1b7d2-a2df-4cad-8f9f-356c6d307cd1","ios":"levelo://app?vid=fdd1b7d2-a2df-4cad-8f9f-356c6d307cd1"},"vehicle_type_id":"4","last_reported":1745881786,"current_range_meters":24400,"station_id":"ce4bgvh2rcd13ifvqcs0","pricing_plan_id":"cebpf4jnsgd1na2vs0mg"},{"bike_id":"2602dafc-a23e-4a27-8921-7d989c9dcfdd","system_id":"levelo_inurba_marseille","lat":43.313264,"lon":5.396954,"is_reserved":false,"is_disabled":false,"rental_uris":{"android":"levelo://app?vid=2602dafc-a23e-4a27-8921-7d989c9dcfdd","ios":"levelo://app?vid=2602dafc-a23e-4a27-8921-7d989c9dcfdd"},"vehicle_type_id":"4","last_reported":1745881786,"current_range_meters":24400,"station_id":"ce4bgvp2rcd13ifvqcu0","pricing_plan_id":"cebpf4jnsgd1na2vs0mg"},{"bike_id":"fb03f4b6-df29-4a31-abfd-26d1b74beff6","system_id":"levelo_inurba_marseille","lat":43.28085,"lon":5.39655,"is_reserved":false,"is_disabled":false,"rental_uris":{"android":"levelo://app?vid=fb03f4b6-df29-4a31-abfd-26d1b74beff6","ios":"levelo://app?vid=fb03f4b6-df29-4a31-abfd-26d1b74beff6"},"vehicle_type_id":"4","last_reported":1745881786,"current_range_meters":24400,"station_id":"ce4bho12rcd13ifvqh2g","pricing_plan_id":"cebpf4jnsgd1na2vs0mg"},{"bike_id":"0282c0ff-ad1e-456c-b959-227d6d359913","system_id":"levelo_inurba_marseille","lat":43.32279,"lon":5.38269,"is_reserved":false,"is_disabled":false,"rental_uris":{"android":"levelo://app?vid=0282c0ff-ad1e-456c-b959-227d6d359913","ios":"levelo://app?vid=0282c0ff-ad1e-456c-b959-227d6d359913"},"vehicle_type_id":"4","last_reported":1745881786,"current_range_meters":24400,"station_id":"ce4bhr12rcd13ifvqhqg","pricing_plan_id":"cebpf4jnsgd1na2vs0mg"},{"bike_id":"1af3e0d0-2745-4622-ae06-b55ee5929019","system_id":"levelo_inurba_marseille","lat":43.30602,"lon":5.39359,"is_reserved":false,"is_disabled":false,"rental_uris":{"android":"levelo://app?vid=1af3e0d0-2745-4622-ae06-b55ee5929019","ios":"levelo://app?vid=1af3e0d0-2745-4622-ae06-b55ee5929019"},"vehicle_type_id":"4","last_reported":1745881786,"current_range_meters":24400,"station_id":"ce4bh0p2rcd13ifvqd80","pricing_plan_id":"cebpf4jnsgd1na2vs0mg"},{"bike_id":"02110202-d2f5-4df0-bd17-313d2def8fec","system_id":"levelo_inurba_marseille","lat":43.25722,"lon":5.41111,"is_reserved":false,"is_disabled":false,"rental_uris":{"android":"levelo://app?vid=02110202-d2f5-4df0-bd17-313d2def8fec","ios":"levelo://app?vid=02110202-d2f5-4df0-bd17-313d2def8fec"},"vehicle_type_id":"4","last_reported":1745881786,"current_range_meters":24400,"station_id":"ce4bhkp2rcd13ifvqgd0","pricing_plan_id":"cebpf4jnsgd1na2vs0mg"},{"bike_id":"900006cd-4ca8-4340-9b3d-a55f3eb4f0da","system_id":"levelo_inurba_marseille","lat":43.28081,"lon":5.39654,"is_reserved":false,"is_disabled":false,"rental_uris":{"android":"levelo://app?vid=900006cd-4ca8-4340-9b3d-a55f3eb4f0da","ios":"levelo://app?vid=900006cd-4ca8-4340-9b3d-a55f3eb4f0da"},"vehicle_type_id":"4","last_reported":1745881786,"current_range_meters":24800,"station_id":"ce4bho12rcd13ifvqh2g","pricing_plan_id":"cebpf4jnsgd1na2vs0mg"},{"bike_id":"b2f30969-ddb8-472a-9a53-11379320d88c","system_id":"levelo_inurba_marseille","lat":43.281043,"lon":5.378417,"is_reserved":false,"is_disabled":false,"rental_uris":{"android":"levelo://app?vid=b2f30969-ddb8-472a-9a53-11379320d88c","ios":"levelo://app?vid=b2f30969-ddb8-472a-9a53-11379320d88c"},"vehicle_type_id":"4","last_reported":1745881786,"current_range_meters":24800,"station_id":"ce4bha12rcd13ifvqee0","pricing_plan_id":"cebpf4jnsgd1na2vs0mg"},{"bike_id":"1e18bfa8-5ebe-456e-93b7-8a4169e446f7","system_id":"levelo_inurba_marseille","lat":43.2843,"lon":5.37511,"is_reserved":false,"is_disabled":false,"rental_uris":{"android":"levelo://app?vid=1e18bfa8-5ebe-456e-93b7-8a4169e446f7","ios":"levelo://app?vid=1e18bfa8-5ebe-456e-93b7-8a4169e446f7"},