{"last_updated":1746166482,"ttl":60,"version":"2.2","data":{"bikes":[{"bike_id":"39ccc3a0-baae-41ad-bd60-2cf8edcfd4fa","system_id":"levelo_inurba_marseille","lat":43.26017,"lon":5.37554,"is_reserved":false,"is_disabled":true,"rental_uris":{"android":"levelo://app?vid=39ccc3a0-baae-41ad-bd60-2cf8edcfd4fa","ios":"levelo://app?vid=39ccc3a0-baae-41ad-bd60-2cf8edcfd4fa"},"vehicle_type_id":"4","last_reported":1746166482,"current_range_meters":2800,"station_id":"ce4bhgh2rcd13ifvqfa0","pricing_plan_id":"cebpf4jnsgd1na2vs0mg"},{"bike_id":"52830158-5597-4281-ada5-f35019ea2843","system_id":"levelo_inurba_marseille","lat":43.28939,"lon":5.36636,"is_reserved":false,"is_disabled":false,"rental_uris":{"android":"levelo://app?vid=52830158-5597-4281-ada5-f35019ea2843","ios":"levelo://app?vid=52830158-5597-4281-ada5-f35019ea2843"},"vehicle_type_id":"4","last_reported":1746166482,"current_range_meters":2800,"station_id":"ce4bhap2rcd13ifvqek0","pricing_plan_id":"cebpf4jnsgd1na2vs0mg"},{"bike_id":"5a46a972-f412-47bc-918e-2491313c9726","system_id":"levelo_inurba_marseille","lat":43.29039,"lon":5.39989,"is_reserved":false,"is_disabled":false,"rental_uris":{"android":"levelo://app?vid=5a46a972-f412-47bc-918e-2491313c9726","ios":"levelo://app?vid=5a46a972-f412-47bc-918e-2491313c9726"},"vehicle_type_id":"4","last_reported":1746166482,"current_range_meters":3200,"station_id":"ce4bh392rcd13ifvqdm0","pricing_plan_id":"cebpf4jnsgd1na2vs0mg"},{"bike_id":"6b6aea7a-a77c-437a-b74e-2ebb5ccf97d6","system_id":"levelo_inurba_marseille","lat":43.24177,"lon":5.36395,"is_reserved":false,"is_disabled":false,"rental_uris":{"android":"levelo://app?vid=6b6aea7a-a77c-437a-b74e-2ebb5ccf97d6","ios":"levelo://app?vid=6b6aea7a-a77c-437a-b74e-2ebb5ccf97d6"},"vehicle_type_id":"4","last_reported":1746166482,"current_range_meters":2800,"station_id":"cpo36qri1sfpv3e86is0","pricing_plan_id":"cebpf4jnsgd1na2vs0mg"},{"bike_id":"740f9c18-fb0c-4438-afbd-660fa91a3bc7","system_id":"levelo_inurba_marseille","lat":43.27488,"lon":5.42456,"is_reserved":false,"is_disabled":false,"rental_uris":{"android":"levelo://app?vid=740f9c18-fb0c-4438-afbd-660fa91a3bc7","ios":"levelo://app?vid=740f9c18-fb0c-4438-afbd-660fa91a3bc7"},"vehicle_type_id":"4","last_reported":1746166482,"current_range_meters":2800,"station_id":"ce4bhn92rcd13ifvqgrg","pricing_plan_id":"cebpf4jnsgd1na2vs0mg"},{"bike_id":"7b98437d-6d7a-44a0-889c-43f3a70b44ec","system_id":"levelo_inurba_marseille","lat":43.2886,"lon":5.35852,"is_reserved":false,"is_disabled":false,"rental_uris":{"android":"levelo://app?vid=7b98437d-6d7a-44a0-889c-43f3a70b44ec","ios":"levelo://app?vid=7b98437d-6d7a-44a0-889c-43f3a70b44ec"},"vehicle_type_id":"4","last_reported":1746166482,"current_range_meters":3200,"station_id":"ce4bhb12rcd13ifvqem0","pricing_plan_id":"cebpf4jnsgd1na2vs0mg"},{"bike_id":"ba1291bf-568d-477b-8e17-c284858000b8","system_id":"levelo_inurba_marseille","lat":43.35915,"lon":5.35689,"is_reserved":false,"is_disabled":false,"rental_uris":{"android":"levelo://app?vid=ba1291bf-568d-477b-8e17-c284858000b8","ios":"levelo://app?vid=ba1291bf-568d-477b-8e17-c284858000b8"},"vehicle_type_id":"4","last_reported":1746166482,"current_range_meters":3200,"station_id":"","pricing_plan_id":"cebpf4jnsgd1na2vs0mg"},{"bike_id":"9993632a-4b57-4af1-b3f7-ae52baf8c31d","system_id":"levelo_inurba_marseille","lat":43.29416,"lon":5.38615,"is_reserved":false,"is_disabled":true,"rental_uris":{"android":"levelo://app?vid=9993632a-4b57-4af1-b3f7-ae52baf8c31d","ios":"levelo://app?vid=9993632a-4b57-4af1-b3f7-ae52baf8c31d"},"vehicle_type_id":"4","last_reported":1746166482,"current_range_meters":3200,"station_id":"ce4bh2h2rcd13ifvqdh0","pricing_plan_id":"cebpf4jnsgd1na2vs0mg"},{"bike_id":"c36e8d63-3928-46ff-b7d9-282cd3c94e88","system_id":"levelo_inurba_marseille","lat":43.284859,"lon":5.395188,"is_reserved":false,"is_disabled":false,"rental_uris":{"android":"levelo://app?vid=c36e8d63-3928-46ff-b7d9-282cd3c94e88","ios":"levelo://app?vid=c36e8d63-3928-46ff-b7d9-282cd3c94e88"},"vehicle_type_id":"4","last_reported":1746166482,"current_range_meters":3600,"station_id":"ce4bh292rcd13ifvqdg0","pricing_plan_id":"cebpf4jnsgd1na2vs0mg"},{"bike_id":"5d3b05a5-2bb8-4020-b7ec-e6c9888f170c","system_id":"levelo_inurba_marseille","lat":43.29699,"lon":5.39485,"is_reserved":false,"is_disabled":false,"rental_uris":{"android":"levelo://app?vid=5d3b05a5-2bb8-4020-b7ec-e6c9888f170c","ios":"levelo://app?vid=5d3b05a5-2bb8-4020-b7ec-e6c9888f170c"},"vehicle_type_id":"4","last_reported":1746166482,"current_range_meters":3600,"station_id":"","pricing_plan_id":"cebpf4jnsgd1na2vs0mg"},{"bike_id":"6b5c34c1-52ad-4390-9560-3fa489fd74d6","system_id":"levelo_inurba_marseille","lat":43.2418,"lon":5.39722,"is_reserved":false,"is_disabled":false,"rental_uris":{"android":"levelo://app?vid=6b5c34c1-52ad-4390-9560-3fa489fd74d6","ios":"levelo://app?vid=6b5c34c1-52ad-4390-9560-3fa489fd74d6"},"vehicle_type_id":"4","last_reported":1746166482,"current_range_meters":3600,"station_id":"ce4bhn12rcd13ifvqgpg","pricing_plan_id":"cebpf4jnsgd1na2vs0mg"},{"bike_id":"7f770ba9-2e48-47c9-8bb4-942855273bad","system_id":"levelo_inurba_marseille","lat":43.253357,"lon":5.424025,"is_reserved":false,"is_disabled":false,"rental_uris":{"android":"levelo://app?vid=7f770ba9-2e48-47c9-8bb4-942855273bad","ios":"levelo://app?vid=7f770ba9-2e48-47c9-8bb4-942855273bad"},"vehicle_type_id":"4","last_reported":1746166482,"current_range_meters":3600,"station_id":"","pricing_plan_id":"cebpf4jnsgd1na2vs0mg"},{"bike_id":"416a62a1-11be-4d1a-be6c-9ee8ee8229ab","system_id":"levelo_inurba_marseille","lat":43.31758,"lon":5.39011,"is_reserved":false,"is_disabled":false,"rental_uris":{"android":"levelo://app?vid=416a62a1-11be-4d1a-be6c-9ee8ee8229ab","ios":"levelo://app?vid=416a62a1-11be-4d1a-be6c-9ee8ee8229ab"},"vehicle_type_id":"4","last_reported":1746166482,"current_range_meters":4000,"station_id":"ce4bhqp2rcd13ifvqhng","pricing_plan_id":"cebpf4jnsgd1na2vs0mg"},{"bike_id":"6a7ad3f3-01e1-4566-90d5-83514119798b","system_id":"levelo_inurba_marseille","lat":43.27951,"lon":5.38735,"is_reserved":false,"is_disabled":false,"rental_uris":{"android":"levelo://app?vid=6a7ad3f3-01e1-4566-90d5-83514119798b","ios":"levelo://app?vid=6a7ad3f3-01e1-4566-90d5-83514119798b"},"vehicle_type_id":"4","last_reported":1746166482,"current_range_meters":4000,"station_id":"ce4bhg12rcd13ifvqf80","pricing_plan_id":"cebpf4jnsgd1na2vs0mg"},{"bike_id":"67f67770-cd81-4b47-b869-d1a151921647","system_id":"levelo_inurba_marseille","lat":43.29043,"lon":5.39965,"is_reserved":false,"is_disabled":false,"rental_uris":{"android":"levelo://app?vid=67f67770-cd81-4b47-b869-d1a151921647","ios":"levelo://app?vid=67f67770-cd81-4b47-b869-d1a151921647"},"vehicle_type_id":"4","last_reported":1746166482,"current_range_meters":4000,"station_id":"ce4bh392rcd13ifvqdm0","pricing_plan_id":"cebpf4jnsgd1na2vs0mg"},{"bike_id":"d901647f-aef6-4e5f-b7ba-7cb0dfd0a264","system_id":"levelo_inurba_marseille","lat":43.30784,"lon":5.3766,"is_reserved":false,"is_disabled":true,"rental_uris":{"android":"levelo://app?vid=d901647f-aef6-4e5f-b7ba-7cb0dfd0a264","ios":"levelo://app?vid=d901647f-aef6-4e5f-b7ba-7cb0dfd0a264"},"vehicle_type_id":"4","last_reported":1746166482,"current_range_meters":4400,"station_id":"ce4bgv92rcd13ifvqcq0","pricing_plan_id":"cebpf4jnsgd1na2vs0mg"},{"bike_id":"1d23fd2e-cfe0-4746-b63b-27ebab2bfc4a","system_id":"levelo_inurba_marseille","lat":43.2668,"lon":5.38266,"is_reserved":false,"is_disabled":false,"rental_uris":{"android":"levelo://app?vid=1d23fd2e-cfe0-4746-b63b-27ebab2bfc4a","ios":"levelo://app?vid=1d23fd2e-cfe0-4746-b63b-27ebab2bfc4a"},"vehicle_type_id":"4","last_reported":1746166482,"current_range_meters":4400,"station_id":"ce4bhg92rcd13ifvqf90","pricing_plan_id":"cebpf4jnsgd1na2vs0mg"},{"bike_id":"39ec9e96-1adf-4b4e-a95a-ba1dc0a94d26","system_id":"levelo_inurba_marseille","lat":43.25547,"lon":5.37714,"is_reserved":false,"is_disabled":true,"rental_uris":{"android":"levelo://app?vid=39ec9e96-1adf-4b4e-a95a-ba1dc0a94d26","ios":"levelo://app?vid=39ec9e96-1adf-4b4e-a95a-ba1dc0a94d26"},"vehicle_type_id":"4","last_reported":1746166482,"current_range_meters":4400,"station_id":"","pricing_plan_id":"cebpf4jnsgd1na2vs0mg"},{"bike_id":"f78e6e2a-8107-47fb-b969-25345ac001d6","system_id":"levelo_inurba_marseille","lat":43.300749,"lon":5.377984,"is_reserved":false,"is_disabled":false,"rental_uris":{"android":"levelo://app?vid=f78e6e2a-8107-47fb-b969-25345ac001d6","ios":"levelo://app?vid=f78e6e2a-8107-47fb-b969-25345ac001d6"},"vehicle_type_id":"4","last_reported":1746166482,"current_range_meters":4800,"station_id":"","pricing_plan_id":"cebpf4jnsgd1na2vs0mg"},{"bike_id":"df47fe42-c12f-4d77-9831-8977dcd4cc37","system_id":"levelo_inurba_marseille","lat":43.2848,"lon":5.38431,"is_reserved":false,"is_disabled":false,"rental_uris":{"android":"levelo://app?vid=df47fe42-c12f-4d77-9831-8977dcd4cc37","ios":"levelo://app?vid=df47fe42-c12f-4d77-9831-8977dcd4cc37"},"vehicle_type_id":"4","last_reported":1746166482,"current_range_meters":4800,"station_id":"ce4bh512rcd13ifvqe3g","pricing_plan_id":"cebpf4jnsgd1na2vs0mg"},{"bike_id":"c609995c-1dd0-45d2-b795-aa654bb4725f","system_id":"levelo_inurba_marseille","lat":43.3043,"lon":5.38894,"is_reserved":false,"is_disabled":false,"rental_uris":{"android":"levelo://app?vid=c609995c-1dd0-45d2-b795-aa654bb4725f","ios":"levelo://app?vid=c609995c-1dd0-45d2-b795-aa654bb4725f"},"vehicle_type_id":"4","last_reported":1746166482,"current_range_meters":5600,"station_id":"ce4bgk12rcd13ifvqbi0","pricing_plan_id":"cebpf4jnsgd1na2vs0mg"},{"bike_id":"4af62b9a-7259-45f3-b15a-51fcc63c51c5","system_id":"levelo_inurba_marseille","lat":43.25713,"lon":5.41123,"is_reserved":false,"is_disabled":false,"rental_uris":{"android":"levelo://app?vid=4af62b9a-7259-45f3-b15a-51fcc63c51c5","ios":"levelo://app?vid=4af62b9a-7259-45f3-b15a-51fcc63c51c5"},"vehicle_type_id":"4","last_reported":1746166482,"current_range_meters":5600,"station_id":"ce4bhkp2rcd13ifvqgd0","pricing_plan_id":"cebpf4jnsgd1na2vs0mg"},{"bike_id":"c7da9ef9-1744-4e5e-a809-ff041badbe27","system_id":"levelo_inurba_marseille","lat":43.29051,"lon":5.39967,"is_reserved":false,"is_disabled":false,"rental_uris":{"android":"levelo://app?vid=c7da9ef9-1744-4e5e-a809-ff041badbe27","ios":"levelo://app?vid=c7da9ef9-1744-4e5e-a809-ff041badbe27"},"vehicle_type_id":"4","last_reported":1746166482,"current_range_meters":5600,"station_id":"ce4bh392rcd13ifvqdm0","pricing_plan_id":"cebpf4jnsgd1na2vs0mg"},{"bike_id":"58aeaae7-c5c3-43c8-b357-1670f0ccae58","system_id":"levelo_inurba_marseille","lat":43.26946,"lon":5.38638,"is_reserved":false,"is_disabled":false,"rental_uris":{"android":"levelo://app?vid=58aeaae7-c5c3-43c8-b357-1670f0ccae58","ios":"levelo://app?vid=58aeaae7-c5c3-43c8-b357-1670f0ccae58"},"vehicle_type_id":"4","last_reported":1746166482,"current_range_meters":5600,"station_id":"ce4bhh92rcd13ifvqfh0","pricing_plan_id":"cebpf4jnsgd1na2vs0mg"},{"bike_id":"215bdf6f-59e9-4581-ab6a-3306c221d929","system_id":"levelo_inurba_marseille","lat":43.24572,"lon":5.39861,"is_reserved":false,"is_disabled":false,"rental_uris":{"android":"levelo://app?vid=215bdf6f-59e9-4581-ab6a-3306c221d929","ios":"levelo://app?vid=215bdf6f-59e9-4581-ab6a-3306c221d929"},"vehicle_type_id":"4","last_reported":1746166482,"current_range_meters":5600,"station_id":"","pricing_plan_id":"cebpf4jnsgd1na2vs0mg"},{"bike_id":"96a71552-7031-4b2d-91d9-f39c70077322","system_id":"levelo_inurba_marseille","lat":43.31353,"lon":5.39707,"is_reserved":false,"is_disabled":false,"rental_uris":{"android":"levelo://app?vid=96a71552-7031-4b2d-91d9-f39c70077322","ios":"levelo://app?vid=96a71552-7031-4b2d-91d9-f39c70077322"},"vehicle_type_id":"4","last_reported":1746166482,"current_range_meters":5600,"station_id":"ce4bgvp2rcd13ifvqcu0","pricing_plan_id":"cebpf4jnsgd1na2vs0mg"},{"bike_id":"2b62823b-85e7-40e7-afdb-83071be64541","system_id":"levelo_inurba_marseille","lat":43.24079,"lon":5.37759,"is_reserved":false,"is_disabled":false,"rental_uris":{"android":"levelo://app?vid=2b62823b-85e7-40e7-afdb-83071be64541","ios":"levelo://app?vid=2b62823b-85e7-40e7-afdb-83071be64541"},"vehicle_type_id":"4","last_reported":1746166482,"current_range_meters":5600,"station_id":"ce4bhnp2rcd13ifvqgvg","pricing_plan_id":"cebpf4jnsgd1na2vs0mg"},{"bike_id":"8b8a7521-6380-408e-8650-f4890e8f6c38","system_id":"levelo_inurba_marseille","lat":43.29623,"lon":5.40627,"is_reserved":false,"is_disabled":false,"rental_uris":{"android":"levelo://app?vid=8b8a7521-6380-408e-8650-f4890e8f6c38","ios":"levelo://app?vid=8b8a7521-6380-408e-8650-f4890e8f6c38"},"vehicle_type_id":"4","last_reported":1746166482,"current_range_meters":5600,"station_id":"ce4bh0h2rcd13ifvqd60","pricing_plan_id":"cebpf4jnsgd1na2vs0mg"},{"bike_id":"0840f843-3a67-4e05-a048-29d3d9d53dba","system_id":"levelo_inurba_marseille","lat":43.25704,"lon":5.41115,"is_reserved":false,"is_disabled":false,"rental_uris":{"android":"levelo://app?vid=0840f843-3a67-4e05-a048-29d3d9d53dba","ios":"levelo://app?vid=0840f843-3a67-4e05-a048-29d3d9d53dba"},"vehicle_type_id":"4","last_reported":1746166482,"current_range_meters":6000,"station_id":"ce4bhkp2rcd13ifvqgd0","pricing_plan_id":"cebpf4jnsgd1na2vs0mg"},{"bike_id":"4a47a7af-6028-411e-ad5a-a9ced22a7cab","system_id":"levelo_inurba_marseille","lat":43.29267,"lon":5.38437,"is_reserved":false,"is_disabled":false,"rental_uris":{"android":"levelo://app?vid=4a47a7af-6028-411e-ad5a-a9ced22a7cab","ios":"levelo://app?vid=4a47a7af-6028-411e-ad5a-a9ced22a7cab"},"vehicle_type_id":"4","last_reported":1746166482,"current_range_meters":6000,"station_id":"ce4bh692rcd13ifvqea0","pricing_plan_id":"cebpf4jnsgd1na2vs0mg"},{"bike_id":"72f21d42-9b79-41ff-846f-92175ae32219","system_id":"levelo_inurba_marseille","lat":43.29047,"lon":5.39966,"is_reserved":false,"is_disabled":false,"rental_uris":{"android":"levelo://app?vid=72f21d42-9b79-41ff-846f-92175ae32219","ios":"levelo://app?vid=72f21d42-9b79-41ff-846f-92175ae32219"},"vehicle_type_id":"4","last_reported":1746166482,"current_range_meters":6000,"station_id":"ce4bh392rcd13ifvqdm0","pricing_plan_id":"cebpf4jnsgd1na2vs0mg"},{"bike_id":"13820df1-8f36-4c5e-82ad-bbce09498a74","system_id":"levelo_inurba_marseille","lat":43.29192,"lon":5.35801,"is_reserved":false,"is_disabled":false,"rental_uris":{"android":"levelo://app?vid=13820df1-8f36-4c5e-82ad-bbce09498a74","ios":"levelo://app?vid=13820df1-8f36-4c5e-82ad-bbce09498a74"},"vehicle_type_id":"4","last_reported":1746166482,"current_range_meters":6000,"station_id":"ce4bhb12rcd13ifvqel0","pricing_plan_id":"cebpf4jnsgd1na2vs0mg"},{"bike_id":"47de6562-ba72-42e5-ace3-2d5a54c7c0d3","system_id":"levelo_inurba_marseille","lat":43.27946,"lon":5.41041,"is_reserved":false,"is_disabled":true,"rental_uris":{"android":"levelo://app?vid=47de6562-ba72-42e5-ace3-2d5a54c7c0d3","ios":"levelo://app?vid=47de6562-ba72-42e5-ace3-2d5a54c7c0d3"},"vehicle_type_id":"4","last_reported":1746166482,"current_range_meters":6400,"station_id":"ce4bhnp2rcd13ifvqh0g","pricing_plan_id":"cebpf4jnsgd1na2vs0mg"},{"bike_id":"b0c6bc4f-7001-4f83-8040-bc80f6bdee62","system_id":"levelo_inurba_marseille","lat":43.30594,"lon":5.39355,"is_reserved":false,"is_disabled":false,"rental_uris":{"android":"levelo://app?vid=b0c6bc4f-7001-4f83-8040-bc80f6bdee62","ios":"levelo://app?vid=b0c6bc4f-7001-4f83-8040-bc80f6bdee62"},"vehicle_type_id":"4","last_reported":1746166482,"current_range_meters":6400,"station_id":"ce4bh0p2rcd13ifvqd80","pricing_plan_id":"cebpf4jnsgd1na2vs0mg"},{"bike_id":"590c3182-b259-4323-807a-fe38f07e15f2","system_id":"levelo_inurba_marseille","lat":43.33607,"lon":5.41052,"is_reserved":false,"is_disabled":false,"rental_uris":{"android":"levelo://app?vid=590c3182-b259-4323-807a-fe38f07e15f2","ios":"levelo://app?vid=590c3182-b259-4323-807a-fe38f07e15f2"},"vehicle_type_id":"4","last_reported":1746166482,"current_range_meters":6400,"station_id":"ce4bhqh2rcd13ifvqhmg","pricing_plan_id":"cebpf4jnsgd1na2vs0mg"},{"bike_id":"fee7396b-8d6a-4ad5-8af7-947693171efd","system_id":"levelo_inurba_marseille","lat":43.27072,"lon":5.42252,"is_reserved":false,"is_disabled":false,"rental_uris":{"android":"levelo://app?vid=fee7396b-8d6a-4ad5-8af7-947693171efd","ios":"levelo://app?vid=fee7396b-8d6a-4ad5-8af7-947693171efd"},"vehicle_type_id":"4","last_reported":1746166482,"current_range_meters":6400,"station_id":"ce4bhk92rcd13ifvqgb0","pricing_plan_id":"cebpf4jnsgd1na2vs0mg"},{"bike_id":"a4ef11fd-954f-4353-833e-8a4609af8c66","system_id":"levelo_inurba_marseille","lat":43.27516,"lon":5.42446,"is_reserved":false,"is_disabled":false,"rental_uris":{"android":"levelo://app?vid=a4ef11fd-954f-4353-833e-8a4609af8c66","ios":"levelo://app?vid=a4ef11fd-954f-4353-833e-8a4609af8c66"},"vehicle_type_id":"4","last_reported":1746166482,"current_range_meters":6400,"station_id":"ce4bhn92rcd13ifvqgrg","pricing_plan_id":"cebpf4jnsgd1na2vs0mg"},{"bike_id":"6b15d6b5-32c8-479b-b0fa-db205215e893","system_id":"levelo_inurba_marseille","lat":43.30577,"lon":5.39367,"is_reserved":false,"is_disabled":false,"rental_uris":{"android":"levelo://app?vid=6b15d6b5-32c8-479b-b0fa-db205215e893","ios":"levelo://app?vid=6b15d6b5-32c8-479b-b0fa-db205215e893"},"vehicle_type_id":"4","last_reported":1746166482,"current_range_meters":6400,"station_id":"ce4bh0p2rcd13ifvqd80","pricing_plan_id":"cebpf4jnsgd1na2vs0mg"},{"bike_id":"b9f7b08f-d3b3-424e-9a1e-ae2a375d4ef0","system_id":"levelo_inurba_marseille","lat":43.28362,"lon":5.38603,"is_reserved":false,"is_disabled":false,"rental_uris":{"android":"levelo://app?vid=b9f7b08f-d3b3-424e-9a1e-ae2a375d4ef0","ios":"levelo://app?vid=b9f7b08f-d3b3-424e-9a1e-ae2a375d4ef0"},"vehicle_type_id":"4","last_reported":1746166482,"current_range_meters":6400,"station_id":"ce4bh492rcd13ifvqdvg","pricing_plan_id":"cebpf4jnsgd1na2vs0mg"},{"bike_id":"f7df82db-6d96-4829-96b0-fb0c401045f5","system_id":"levelo_inurba_marseille","lat":43.29535,"lon":5.38548,"is_reserved":false,"is_disabled":false,"rental_uris":{"android":"levelo://app?vid=f7df82db-6d96-4829-96b0-fb0c401045f5","ios":"levelo://app?vid=f7df82db-6d96-4829-96b0-fb0c401045f5"},"vehicle_type_id":"4","last_reported":1746166482,"current_range_meters":6400,"station_id":"ce4bgih2rcd13ifvqba0","pricing_plan_id":"cebpf4jnsgd1na2vs0mg"},{"bike_id":"45a897a0-8804-4925-8a62-c0e8fec569a8","system_id":"levelo_inurba_marseille","lat":43.23956,"lon":5.36623,"is_reserved":false,"is_disabled":true,"rental_uris":{"android":"levelo://app?vid=45a897a0-8804-4925-8a62-c0e8fec569a8","ios":"levelo://app?vid=45a897a0-8804-4925-8a62-c0e8fec569a8"},"vehicle_type_id":"4","last_reported":1746166482,"current_range_meters":6800,"station_id":"ce4bhi12rcd13ifvqfp0","pricing_plan_id":"cebpf4jnsgd1na2vs0mg"},{"bike_id":"8273f306-3c1f-4399-b7cd-5bd1010cf5af","system_id":"levelo_inurba_marseille","lat":43.29231,"lon":5.40919,"is_reserved":false,"is_disabled":false,"rental_uris":{"android":"levelo://app?vid=8273f306-3c1f-4399-b7cd-5bd1010cf5af","ios":"levelo://app?vid=8273f306-3c1f-4399-b7cd-5bd1010cf5af"},"vehicle_type_id":"4","last_reported":1746166482,"current_range_meters":6800,"station_id":"ce4bh192rcd13ifvqdc0","pricing_plan_id":"cebpf4jnsgd1na2vs0mg"},{"bike_id":"eed4b7a9-60c3-46ca-9733-353bb2381cd7","system_id":"levelo_inurba_marseille","lat":43.29367,"lon":5.37852,"is_reserved":false,"is_disabled":false,"rental_uris":{"android":"levelo://app?vid=eed4b7a9-60c3-46ca-9733-353bb2381cd7","ios":"levelo://app?vid=eed4b7a9-60c3-46ca-9733-353bb2381cd7"},"vehicle_type_id":"4","last_reported":1746166482,"current_range_meters":7200,"station_id":"ce4bgjh2rcd13ifvqbf0","pricing_plan_id":"cebpf4jnsgd1na2vs0mg"},{"bike_id":"f804c215-e043-4bb2-ad41-8db2e0789dea","system_id":"levelo_inurba_marseille","lat":43.30928,"lon":5.40149,"is_reserved":false,"is_disabled":false,"rental_uris":{"android":"levelo://app?vid=f804c215-e043-4bb2-ad41-8db2e0789dea","ios":"levelo://app?vid=f804c215-e043-4bb2-ad41-8db2e0789dea"},"vehicle_type_id":"4","last_reported":1746166482,"current_range_meters":7200,"station_id":"ce4bgvp2rcd13ifvqct0","pricing_plan_id":"cebpf4jnsgd1na2vs0mg"},{"bike_id":"d7d8c43c-d001-45e7-af2a-307b47c69650","system_id":"levelo_inurba_marseille","lat":43.297933,"lon":5.381177,"is_reserved":false,"is_disabled":false,"rental_uris":{"android":"levelo://app?vid=d7d8c43c-d001-45e7-af2a-307b47c69650","ios":"levelo://app?vid=d7d8c43c-d001-45e7-af2a-307b47c69650"},"vehicle_type_id":"4","last_reported":1746166482,"current_range_meters":7200,"station_id":"ce4bgip2rcd13ifvqbb0","pricing_plan_id":"cebpf4jnsgd1na2vs0mg"},{"bike_id":"f565461d-5ade-454d-95fa-3afa3312979d","system_id":"levelo_inurba_marseille","lat":43.30641,"lon":5.40083,"is_reserved":false,"is_disabled":false,"rental_uris":{"android":"levelo://app?vid=f565461d-5ade-454d-95fa-3afa3312979d","ios":"levelo://app?vid=f565461d-5ade-454d-95fa-3afa3312979d"},"vehicle_type_id":"4","last_reported":1746166482,"current_range_meters":7200,"station_id":"ce4bh112rcd13ifvqda0","pricing_plan_id":"cebpf4jnsgd1na2vs0mg"},{"bike_id":"7cf2f118-55e2-491b-8e28-9d73e3c903a4","system_id":"levelo_inurba_marseille","lat":43.27497,"lon":5.42452,"is_reserved":false,"is_disabled":false,"rental_uris":{"android":"levelo://app?vid=7cf2f118-55e2-491b-8e28-9d73e3c903a4","ios":"levelo://app?vid=7cf2f118-55e2-491b-8e28-9d73e3c903a4"},"vehicle_type_id":"4","last_reported":1746166482,"current_range_meters":7200,"station_id":"ce4bhn92rcd13ifvqgrg","pricing_plan_id":"cebpf4jnsgd1na2vs0mg"},{"bike_id":"08ae6229-5a47-4c4c-99ac-4ba6243e9cfe","system_id":"levelo_inurba_marseille","lat":43.23066,"lon":5.3551,"is_reserved":false,"is_disabled":true,"rental_uris":{"android":"levelo://app?vid=08ae6229-5a47-4c4c-99ac-4ba6243e9cfe","ios":"levelo://app?vid=08ae6229-5a47-4c4c-99ac-4ba6243e9cfe"},"vehicle_type_id":"4","last_reported":1746166482,"current_range_meters":7200,"station_id":"cpo3342slgdg3j2ifvpg","pricing_plan_id":"cebpf4jnsgd1na2vs0mg"},{"bike_id":"0314a55b-e2e5-410a-9415-9d0238882c19","system_id":"levelo_inurba_marseille","lat":43.29033,"lon":5.39977,"is_reserved":false,"is_disabled":false,"rental_uris":{"android":"levelo://app?vid=0314a55b-e2e5-410a-9415-9d0238882c19","ios":"levelo://app?vid=0314a55b-e2e5-410a-9415-9d0238882c19"},"vehicle_type_id":"4","last_reported":1746166482,"current_range_meters":8000,"station_id":"ce4bh392rcd13ifvqdm0","pricing_plan_id":"cebpf4jnsgd1na2vs0mg"},{"bike_id":"92c9c34a-2661-40c7-b42b-42a1687057dd","system_id":"levelo_inurba_marseille","lat":43.2117,"lon":5.35057,"is_reserved":false,"is_disabled":true,"rental_uris":{"android":"levelo://app?vid=92c9c34a-2661-40c7-b42b-42a1687057dd","ios":"levelo://app?vid=92c9c34a-2661-40c7-b42b-42a1687057dd"},"vehicle_type_id":"4","last_reported":1746166482,"current_range_meters":8000,"station_id":"st_cvj6sg6p6f1abm77japg","pricing_plan_id":"cebpf4jnsgd1na2vs0mg"},{"bike_id":"65a92264-a32d-4911-ad5e-307139719f38","system_id":"levelo_inurba_marseille","lat":43.30945,"lon":5.40149,"is_reserved":false,"is_disabled":false,"rental_uris":{"android":"levelo://app?vid=65a92264-a32d-4911-ad5e-307139719f38","ios":"levelo://app?vid=65a92264-a32d-4911-ad5e-307139719f38"},"vehicle_type_id":"4","last_reported":1746166482,"current_range_meters":8000,"station_id":"ce4bgvp2rcd13ifvqct0","pricing_plan_id":"cebpf4jnsgd1na2vs0mg"},{"bike_id":"51ef9827-05d4-4f72-abc3-c6fec8c5a095","system_id":"levelo_inurba_marseille","lat":43.23135,"lon":5.43738,"is_reserved":false,"is_disabled":false,"rental_uris":{"android":"levelo://app?vid=51ef9827-05d4-4f72-abc3-c6fec8c5a095","ios":"levelo://app?vid=51ef9827-05d4-4f72-abc3-c6fec8c5a095"},"vehicle_type_id":"4","last_reported":1746166482,"current_range_meters":8000,"station_id":"ce4bhmp2rcd13ifvqgog","pricing_plan_id":"cebpf4jnsgd1na2vs0mg"},{"bike_id":"d90a9f6a-dcc7-4188-90fd-9982aa485cbb","system_id":"levelo_inurba_marseille","lat":43.24395,"lon":5.37068,"is_reserved":false,"is_disabled":true,"rental_uris":{"android":"levelo://app?vid=d90a9f6a-dcc7-4188-90fd-9982aa485cbb","ios":"levelo://app?vid=d90a9f6a-dcc7-4188-90fd-9982aa485cbb"},"vehicle_type_id":"4","last_reported":1746166482,"current_range_meters":8000,"station_id":"ce4bhhh2rcd13ifvqfk0","pricing_plan_id":"cebpf4jnsgd1na2vs0mg"},{"bike_id":"8c14a9dd-9596-4c54-9b10-cae5d57b4d1b","system_id":"levelo_inurba_marseille","lat":43.32406,"lon":5.39036,"is_reserved":false,"is_disabled":true,"rental_uris":{"android":"levelo://app?vid=8c14a9dd-9596-4c54-9b10-cae5d57b4d1b","ios":"levelo://app?vid=8c14a9dd-9596-4c54-9b10-cae5d57b4d1b"},"vehicle_type_id":"4","last_reported":1746166482,"current_range_meters":8000,"station_id":"","pricing_plan_id":"cebpf4jnsgd1na2vs0mg"},{"bike_id":"44137701-96fd-466c-876b-72e95bfc3ab1","system_id":"levelo_inurba_marseille","lat":43.28151,"lon":5.42647,"is_reserved":false,"is_disabled":false,"rental_uris":{"android":"levelo://app?vid=44137701-96fd-466c-876b-72e95bfc3ab1","ios":"levelo://app?vid=44137701-96fd-466c-876b-72e95bfc3ab1"},"vehicle_type_id":"4","last_reported":1746166482,"current_range_meters":8000,"station_id":"ce4bhnh2rcd13ifvqgug","pricing_plan_id":"cebpf4jnsgd1na2vs0mg"},{"bike_id":"6bebd2da-b60f-4ee5-ad14-64df320c6eca","system_id":"levelo_inurba_marseille","lat":43.275,"lon":5.42459,"is_reserved":false,"is_disabled":false,"rental_uris":{"android":"levelo://app?vid=6bebd2da-b60f-4ee5-ad14-64df320c6eca","ios":"levelo://app?vid=6bebd2da-b60f-4ee5-ad14-64df320c6eca"},"vehicle_type_id":"4","last_reported":1746166482,"current_range_meters":8000,"station_id":"ce4bhn92rcd13ifvqgrg","pricing_plan_id":"cebpf4jnsgd1na2vs0mg"},{"bike_id":"6ec79724-695f-4466-b4f4-7a3dea399050","system_id":"levelo_inurba_marseille","lat":43.270631,"lon":5.422774,"is_reserved":false,"is_disabled":false,"rental_uris":{"android":"levelo://app?vid=6ec79724-695f-4466-b4f4-7a3dea399050","ios":"levelo://app?vid=6ec79724-695f-4466-b4f4-7a3dea399050"},"vehicle_type_id":"4","last_reported":1746166482,"current_range_meters":8000,"station_id":"ce4bhk92rcd13ifvqgb0","pricing_plan_id":"cebpf4jnsgd1na2vs0mg"},{"bike_id":"e93b949e-1738-47f2-ad13-8f512df2ffaf","system_id":"levelo_inurba_marseille","lat":43.27495,"lon":5.42451,"is_reserved":false,"is_disabled":false,"rental_uris":{"android":"levelo://app?vid=e93b949e-1738-47f2-ad13-8f512df2ffaf","ios":"levelo://app?vid=e93b949e-1738-47f2-ad13-8f512df2ffaf"},"vehicle_type_id":"4","last_reported":1746166482,"current_range_meters":8000,"station_id":"ce4bhn92rcd13ifvqgrg","pricing_plan_id":"cebpf4jnsgd1na2vs0mg"},{"bike_id":"93dad334-9f21-4a50-99cb-c86648baef08","system_id":"levelo_inurba_marseille","lat":43.31333,"lon":5.39692,"is_reserved":false,"is_disabled":false,"rental_uris":{"android":"levelo://app?vid=93dad334-9f21-4a50-99cb-c86648baef08","ios":"levelo://app?vid=93dad334-9f21-4a50-99cb-c86648baef08"},"vehicle_type_id":"4","last_reported":1746166482,"current_range_meters":8400,"station_id":"ce4bgvp2rcd13ifvqcu0","pricing_plan_id":"cebpf4jnsgd1na2vs0mg"},{"bike_id":"be456527-6b15-4d45-9584-9f70290eb771","system_id":"levelo_inurba_marseille","lat":43.30938,"lon":5.4015,"is_reserved":false,"is_disabled":false,"rental_uris":{"android":"levelo://app?vid=be456527-6b15-4d45-9584-9f70290eb771","ios":"levelo://app?vid=be456527-6b15-4d45-9584-9f70290eb771"},"vehicle_type_id":"4","last_reported":1746166482,"current_range_meters":8400,"station_id":"ce4bgvp2rcd13ifvqct0","pricing_plan_id":"cebpf4jnsgd1na2vs0mg"},{"bike_id":"0585aee3-4fd2-4100-ace9-3ab20275013d","system_id":"levelo_inurba_marseille","lat":43.28721,"lon":5.3998,"is_reserved":false,"is_disabled":false,"rental_uris":{"android":"levelo://app?vid=0585aee3-4fd2-4100-ace9-3ab20275013d","ios":"levelo://app?vid=0585aee3-4fd2-4100-ace9-3ab20275013d"},"vehicle_type_id":"4","last_reported":1746166482,"current_range_meters":8400,"station_id":"ce4bho92rcd13ifvqh3g","pricing_plan_id":"cebpf4jnsgd1na2vs0mg"},{"bike_id":"e0c69642-153a-4cdf-94dd-e50d7657b75d","system_id":"levelo_inurba_marseille","lat":43.31705,"lon":5.40468,"is_reserved":false,"is_disabled":false,"rental_uris":{"android":"levelo://app?vid=e0c69642-153a-4cdf-94dd-e50d7657b75d","ios":"levelo://app?vid=e0c69642-153a-4cdf-94dd-e50d7657b75d"},"vehicle_type_id":"4","last_reported":1746166482,"current_range_meters":8400,"station_id":"ce4bh012rcd13ifvqd00","pricing_plan_id":"cebpf4jnsgd1na2vs0mg"},{"bike_id":"d136badc-66ee-4135-a8eb-21f72bdbaeb8","system_id":"levelo_inurba_marseille","lat":43.27916,"lon":5.39581,"is_reserved":false,"is_disabled":false,"rental_uris":{"android":"levelo://app?vid=d136badc-66ee-4135-a8eb-21f72bdbaeb8","ios":"levelo://app?vid=d136badc-66ee-4135-a8eb-21f72bdbaeb8"},"vehicle_type_id":"4","last_reported":1746166482,"current_range_meters":8400,"station_id":"ce4bhf92rcd13ifvqf40","pricing_plan_id":"cebpf4jnsgd1na2vs0mg"},{"bike_id":"65d4855a-600f-4fce-b672-b6a2ca8c20bb","system_id":"levelo_inurba_marseille","lat":43.2695,"lon":5.38638,"is_reserved":false,"is_disabled":false,"rental_uris":{"android":"levelo://app?vid=65d4855a-600f-4fce-b672-b6a2ca8c20bb","ios":"levelo://app?vid=65d4855a-600f-4fce-b672-b6a2ca8c20bb"},"vehicle_type_id":"4","last_reported":1746166482,"current_range_meters":8400,"station_id":"ce4bhh92rcd13ifvqfh0","pricing_plan_id":"cebpf4jnsgd1na2vs0mg"},{"bike_id":"68d44f0d-e8f4-4c59-9647-f88c98316d16","system_id":"levelo_inurba_marseille","lat":43.30644,"lon":5.40098,"is_reserved":false,"is_disabled":false,"rental_uris":{"android":"levelo://app?vid=68d44f0d-e8f4-4c59-9647-f88c98316d16","ios":"levelo://app?vid=68d44f0d-e8f4-4c59-9647-f88c98316d16"},"vehicle_type_id":"4","last_reported":1746166482,"current_range_meters":8400,"station_id":"ce4bh112rcd13ifvqda0","pricing_plan_id":"cebpf4jnsgd1na2vs0mg"},{"bike_id":"1e63c5de-3c5a-4333-8936-ffe7ed3b92b1","system_id":"levelo_inurba_marseille","lat":43.30249,"lon":5.40063,"is_reserved":false,"is_disabled":false,"rental_uris":{"android":"levelo://app?vid=1e63c5de-3c5a-4333-8936-ffe7ed3b92b1","ios":"levelo://app?vid=1e63c5de-3c5a-4333-8936-ffe7ed3b92b1"},"vehicle_type_id":"4","last_reported":1746166482,"current_range_meters":8400,"station_id":"ce4bgvh2rcd13ifvqcs0","pricing_plan_id":"cebpf4jnsgd1na2vs0mg"},{"bike_id":"1a0e9be5-bd4f-4026-be47-4bf333aa540c","system_id":"levelo_inurba_marseille","lat":43.28437,"lon":5.39218,"is_reserved":false,"is_disabled":true,"rental_uris":{"android":"levelo://app?vid=1a0e9be5-bd4f-4026-be47-4bf333aa540c","ios":"levelo://app?vid=1a0e9be5-bd4f-4026-be47-4bf333aa540c"},"vehicle_type_id":"4","last_reported":1746166482,"current_range_meters":8400,"station_id":"ce4bhoh2rcd13ifvqh5g","pricing_plan_id":"cebpf4jnsgd1na2vs0mg"},{"bike_id":"c7d3ea31-dcc6-46ed-86ce-40d67db7f4b1","system_id":"levelo_inurba_marseille","lat":43.29292,"lon":5.38432,"is_reserved":false,"is_disabled":true,"rental_uris":{"android":"levelo://app?vid=c7d3ea31-dcc6-46ed-86ce-40d67db7f4b1","ios":"levelo://app?vid=c7d3ea31-dcc6-46ed-86ce-40d67db7f4b1"},"vehicle_type_id":"4","last_reported":1746166482,"current_range_meters":8800,"station_id":"ce4bh692rcd13ifvqea0","pricing_plan_id":"cebpf4jnsgd1na2vs0mg"},{"bike_id":"ec15cf0c-8146-4bc1-844a-6eb9757e3d6b","system_id":"levelo_inurba_marseille","lat":43.29274,"lon":5.40169,"is_reserved":false,"is_disabled":false,"rental_uris":{"android":"levelo://app?vid=ec15cf0c-8146-4bc1-844a-6eb9757e3d6b","ios":"levelo://app?vid=ec15cf0c-8146-4bc1-844a-6eb9757e3d6b"},"vehicle_type_id":"4","last_reported":1746166482,"current_range_meters":8800,"station_id":"ce4bh312rcd13ifvqdk0","pricing_plan_id":"cebpf4jnsgd1na2vs0mg"},{"bike_id":"2df3c7e7-6f24-4b35-8876-4ea421331109","system_id":"levelo_inurba_marseille","lat":43.25114,"lon":5.40334,"is_reserved":false,"is_disabled":true,"rental_uris":{"android":"levelo://app?vid=2df3c7e7-6f24-4b35-8876-4ea421331109","ios":"levelo://app?vid=2df3c7e7-6f24-4b35-8876-4ea421331109"},"vehicle_type_id":"4","last_reported":1746166482,"current_range_meters":8800,"station_id":"ce4bhlh2rcd13ifvqgig","pricing_plan_id":"cebpf4jnsgd1na2vs0mg"},{"bike_id":"7971fe93-5f1d-4a59-8508-b415e64fcb18","system_id":"levelo_inurba_marseille","lat":43.30938,"lon":5.3738,"is_reserved":false,"is_disabled":false,"rental_uris":{"android":"levelo://app?vid=7971fe93-5f1d-4a59-8508-b415e64fcb18","ios":"levelo://app?vid=7971fe93-5f1d-4a59-8508-b415e64fcb18"},"vehicle_type_id":"4","last_reported":1746166482,"current_range_meters":8800,"station_id":"","pricing_plan_id":"cebpf4jnsgd1na2vs0mg"},{"bike_id":"050a2450-c485-4e12-8c11-e6df9701dce1","system_id":"levelo_inurba_marseille","lat":43.31531,"lon":5.38027,"is_reserved":false,"is_disabled":false,"rental_uris":{"android":"levelo://app?vid=050a2450-c485-4e12-8c11-e6df9701dce1","ios":"levelo://app?vid=050a2450-c485-4e12-8c11-e6df9701dce1"},"vehicle_type_id":"4","last_reported":1746166482,"current_range_meters":9200,"station_id":"ce4bhsp2rcd13ifvqi50","pricing_plan_id":"cebpf4jnsgd1na2vs0mg"},{"bike_id":"f86d1595-bc23-43f0-b70b-4aabc8d8fddc","system_id":"levelo_inurba_marseille","lat":43.336047,"lon":5.410319,"is_reserved":false,"is_disabled":false,"rental_uris":{"android":"levelo://app?vid=f86d1595-bc23-43f0-b70b-4aabc8d8fddc","ios":"levelo://app?vid=f86d1595-bc23-43f0-b70b-4aabc8d8fddc"},"vehicle_type_id":"4","last_reported":1746166482,"current_range_meters":9200,"station_id":"ce4bhqh2rcd13ifvqhmg","pricing_plan_id":"cebpf4jnsgd1na2vs0mg"},{"bike_id":"4a6851f9-34fb-48f6-8387-4b9c13325bed","system_id":"levelo_inurba_marseille","lat":43.32088,"lon":5.36789,"is_reserved":false,"is_disabled":false,"rental_uris":{"android":"levelo://app?vid=4a6851f9-34fb-48f6-8387-4b9c13325bed","ios":"levelo://app?vid=4a6851f9-34fb-48f6-8387-4b9c13325bed"},"vehicle_type_id":"4","last_reported":1746166482,"current_range_meters":9200,"station_id":"ce4bhrh2rcd13ifvqhug","pricing_plan_id":"cebpf4jnsgd1na2vs0mg"},{"bike_id":"32a5b9b2-5177-4b5f-91eb-6f7b00e0f325","system_id":"levelo_inurba_marseille","lat":43.26243,"lon":5.38772,"is_reserved":false,"is_disabled":false,"rental_uris":{"android":"levelo://app?vid=32a5b9b2-5177-4b5f-91eb-6f7b00e0f325","ios":"levelo://app?vid=32a5b9b2-5177-4b5f-91eb-6f7b00e0f325"},"vehicle_type_id":"4","last_reported":1746166482,"current_range_meters":9200,"station_id":"","pricing_plan_id":"cebpf4jnsgd1na2vs0mg"},{"bike_id":"4e06d3e6-2b20-4e7b-aea6-0ad1ac5e1edf","system_id":"levelo_inurba_marseille","lat":43.32525,"lon":5.41441,"is_reserved":false,"is_disabled":false,"rental_uris":{"android":"levelo://app?vid=4e06d3e6-2b20-4e7b-aea6-0ad1ac5e1edf","ios":"levelo://app?vid=4e06d3e6-2b20-4e7b-aea6-0ad1ac5e1edf"},"vehicle_type_id":"4","last_reported":1746166482,"current_range_meters":9200,"station_id":"ce4bhq12rcd13ifvqhhg","pricing_plan_id":"cebpf4jnsgd1na2vs0mg"},{"bike_id":"f3d36354-fb65-4d90-83eb-303e5363ade6","system_id":"levelo_inurba_marseille","lat":43.31288,"lon":5.40188,"is_reserved":false,"is_disabled":false,"rental_uris":{"android":"levelo://app?vid=f3d36354-fb65-4d90-83eb-303e5363ade6","ios":"levelo://app?vid=f3d36354-fb65-4d90-83eb-303e5363ade6"},"vehicle_type_id":"4","last_reported":1746166482,"current_range_meters":9200,"station_id":"ce4bh092rcd13ifvqd30","pricing_plan_id":"cebpf4jnsgd1na2vs0mg"},{"bike_id":"d2fd2180-e73e-4220-869a-026232ab3e8c","system_id":"levelo_inurba_marseille","lat":43.29277,"lon":5.40151,"is_reserved":false,"is_disabled":false,"rental_uris":{"android":"levelo://app?vid=d2fd2180-e73e-4220-869a-026232ab3e8c","ios":"levelo://app?vid=d2fd2180-e73e-4220-869a-026232ab3e8c"},"vehicle_type_id":"4","last_reported":1746166482,"current_range_meters":9200,"station_id":"ce4bh312rcd13ifvqdk0","pricing_plan_id":"cebpf4jnsgd1na2vs0mg"},{"bike_id":"c0a5ee56-6f43-441c-97c4-100fe7548229","system_id":"levelo_inurba_marseille","lat":43.31359,"lon":5.38508,"is_reserved":false,"is_disabled":true,"rental_uris":{"android":"levelo://app?vid=c0a5ee56-6f43-441c-97c4-100fe7548229","ios":"levelo://app?vid=c0a5ee56-6f43-441c-97c4-100fe7548229"},"vehicle_type_id":"4","last_reported":1746166482,"current_range_meters":9200,"station_id":"ce4bgt92rcd13ifvqcf0","pricing_plan_id":"cebpf4jnsgd1na2vs0mg"},{"bike_id":"20677bec-f723-4a98-9582-28d71c43bf6e","system_id":"levelo_inurba_marseille","lat":43.23154,"lon":5.43703,"is_reserved":false,"is_disabled":false,"rental_uris":{"android":"levelo://app?vid=20677bec-f723-4a98-9582-28d71c43bf6e","ios":"levelo://app?vid=20677bec-f723-4a98-9582-28d71c43bf6e"},"vehicle_type_id":"4","last_reported":1746166482,"current_range_meters":9200,"station_id":"ce4bhmp2rcd13ifvqgog","pricing_plan_id":"cebpf4jnsgd1na2vs0mg"},{"bike_id":"5dfff884-afb2-498f-8cf3-92d2423e101f","system_id":"levelo_inurba_marseille","lat":43.30654,"lon":5.40085,"is_reserved":false,"is_disabled":false,"rental_uris":{"android":"levelo://app?vid=5dfff884-afb2-498f-8cf3-92d2423e101f","ios":"levelo://app?vid=5dfff884-afb2-498f-8cf3-92d2423e101f"},"vehicle_type_id":"4","last_reported":1746166482,"current_range_meters":9200,"station_id":"ce4bh112rcd13ifvqda0","pricing_plan_id":"cebpf4jnsgd1na2vs0mg"},{"bike_id":"0275921f-ce6e-42c6-b9cc-724455ffabca","system_id":"levelo_inurba_marseille","lat":43.25681,"lon":5.41128,"is_reserved":false,"is_disabled":false,"rental_uris":{"android":"levelo://app?vid=0275921f-ce6e-42c6-b9cc-724455ffabca","ios":"levelo://app?vid=0275921f-ce6e-42c6-b9cc-724455ffabca"},"vehicle_type_id":"4","last_reported":1746166482,"current_range_meters":9200,"station_id":"ce4bhkp2rcd13ifvqgd0","pricing_plan_id":"cebpf4jnsgd1na2vs0mg"},{"bike_id":"6408a017-cb1d-4e23-9508-f49121914cfc","system_id":"levelo_inurba_marseille","lat":43.287064,"lon":5.399787,"is_reserved":false,"is_disabled":false,"rental_uris":{"android":"levelo://app?vid=6408a017-cb1d-4e23-9508-f49121914cfc","ios":"levelo://app?vid=6408a017-cb1d-4e23-9508-f49121914cfc"},"vehicle_type_id":"4","last_reported":1746166482,"current_range_meters":9600,"station_id":"ce4bho92rcd13ifvqh3g","pricing_plan_id":"cebpf4jnsgd1na2vs0mg"},{"bike_id":"189354fc-4e14-4f72-9a49-3e5986f1bf33","system_id":"levelo_inurba_marseille","lat":43.29043,"lon":5.39986,"is_reserved":false,"is_disabled":false,"rental_uris":{"android":"levelo://app?vid=189354fc-4e14-4f72-9a49-3e5986f1bf33","ios":"levelo://app?vid=189354fc-4e14-4f72-9a49-3e5986f1bf33"},"vehicle_type_id":"4","last_reported":1746166482,"current_range_meters":9600,"station_id":"ce4bh392rcd13ifvqdm0","pricing_plan_id":"cebpf4jnsgd1na2vs0mg"},{"bike_id":"e62363b8-be2f-4501-8f4e-10e208c9dcc9","system_id":"levelo_inurba_marseille","lat":43.28706,"lon":5.39978,"is_reserved":false,"is_disabled":false,"rental_uris":{"android":"levelo://app?vid=e62363b8-be2f-4501-8f4e-10e208c9dcc9","ios":"levelo://app?vid=e62363b8-be2f-4501-8f4e-10e208c9dcc9"},"vehicle_type_id":"4","last_reported":1746166482,"current_range_meters":9600,"station_id":"ce4bho92rcd13ifvqh3g","pricing_plan_id":"cebpf4jnsgd1na2vs0mg"},{"bike_id":"de8c7cb1-f846-43b7-b55f-d09a21bc10a1","system_id":"levelo_inurba_marseille","lat":43.25825,"lon":5.39436,"is_reserved":false,"is_disabled":false,"rental_uris":{"android":"levelo://app?vid=de8c7cb1-f846-43b7-b55f-d09a21bc10a1","ios":"levelo://app?vid=de8c7cb1-f846-43b7-b55f-d09a21bc10a1"},"vehicle_type_id":"4","last_reported":1746166482,"current_range_meters":9200,"station_id":"ce4bhip2rcd13ifvqft0","pricing_plan_id":"cebpf4jnsgd1na2vs0mg"},{"bike_id":"524f7467-769e-4410-8fc7-3efaac62101e","system_id":"levelo_inurba_marseille","lat":43.29036,"lon":5.37458,"is_reserved":false,"is_disabled":false,"rental_uris":{"android":"levelo://app?vid=524f7467-769e-4410-8fc7-3efaac62101e","ios":"levelo://app?vid=524f7467-769e-4410-8fc7-3efaac62101e"},"vehicle_type_id":"4","last_reported":1746166482,"current_range_meters":9600,"station_id":"","pricing_plan_id":"cebpf4jnsgd1na2vs0mg"},{"bike_id":"73de5af1-bf79-433a-a20c-6899488a09e7","system_id":"levelo_inurba_marseille","lat":43.29321,"lon":5.37183,"is_reserved":false,"is_disabled":true,"rental_uris":{"android":"levelo://app?vid=73de5af1-bf79-433a-a20c-6899488a09e7","ios":"levelo://app?vid=73de5af1-bf79-433a-a20c-6899488a09e7"},"vehicle_type_id":"4","last_reported":1746166482,"current_range_meters":9600,"station_id":"ce4bgh92rcd13ifvqb40","pricing_plan_id":"cebpf4jnsgd1na2vs0mg"},{"bike_id":"bf0ded13-567f-4376-9241-fab3660dc401","system_id":"levelo_inurba_marseille","lat":43.2315,"lon":5.43711,"is_reserved":false,"is_disabled":false,"rental_uris":{"android":"levelo://app?vid=bf0ded13-567f-4376-9241-fab3660dc401","ios":"levelo://app?vid=bf0ded13-567f-4376-9241-fab3660dc401"},"vehicle_type_id":"4","last_reported":1746166482,"current_range_meters":9600,"station_id":"ce4bhmp2rcd13ifvqgog","pricing_plan_id":"cebpf4jnsgd1na2vs0mg"},{"bike_id":"ecb45e66-a08a-425c-9c9a-9ab19d70594d","system_id":"levelo_inurba_marseille","lat":43.282531,"lon":5.402594,"is_reserved":false,"is_disabled":false,"rental_uris":{"android":"levelo://app?vid=ecb45e66-a08a-425c-9c9a-9ab19d70594d","ios":"levelo://app?vid=ecb45e66-a08a-425c-9c9a-9ab19d70594d"},"vehicle_type_id":"4","last_reported":1746166482,"current_range_meters":9600,"station_id":"ce4bhnp2rcd13ifvqh0g","pricing_plan_id":"cebpf4jnsgd1na2vs0mg"},{"bike_id":"5ce5a92f-2072-4e8c-8483-5f453ebe476a","system_id":"levelo_inurba_marseille","lat":43.2316,"lon":5.437,"is_reserved":false,"is_disabled":false,"rental_uris":{"android":"levelo://app?vid=5ce5a92f-2072-4e8c-8483-5f453ebe476a","ios":"levelo://app?vid=5ce5a92f-2072-4e8c-8483-5f453ebe476a"},"vehicle_type_id":"4","last_reported":1746166482,"current_range_meters":10000,"station_id":"ce4bhmp2rcd13ifvqgog","pricing_plan_id":"cebpf4jnsgd1na2vs0mg"},{"bike_id":"ea13f143-8947-499f-b3f2-1548136f7d88","system_id":"levelo_inurba_marseille","lat":43.29603,"lon":5.38096,"is_reserved":false,"is_disabled":false,"rental_uris":{"android":"levelo://app?vid=ea13f143-8947-499f-b3f2-1548136f7d88","ios":"levelo://app?vid=ea13f143-8947-499f-b3f2-1548136f7d88"},"vehicle_type_id":"4","last_reported":1746166482,"current_range_meters":10000,"station_id":"ce4bgl12rcd13ifvqbo0","pricing_plan_id":"cebpf4jnsgd1na2vs0mg"},{"bike_id":"fd07a340-a32b-44cc-824b-9474cc171177","system_id":"levelo_inurba_marseille","lat":43.2815,"lon":5.42646,"is_reserved":false,"is_disabled":false,"rental_uris":{"android":"levelo://app?vid=fd07a340-a32b-44cc-824b-9474cc171177","ios":"levelo://app?vid=fd07a340-a32b-44cc-824b-9474cc171177"},"vehicle_type_id":"4","last_reported":1746166482,"current_range_meters":10000,"station_id":"ce4bhnh2rcd13ifvqgug","pricing_plan_id":"cebpf4jnsgd1na2vs0mg"},{"bike_id":"cba93bf4-d818-454b-925b-1e93ec515284","system_id":"levelo_inurba_marseille","lat":43.29281,"lon":5.40145,"is_reserved":false,"is_disabled":false,"rental_uris":{"android":"levelo://app?vid=cba93bf4-d818-454b-925b-1e93ec515284","ios":"levelo://app?vid=cba93bf4-d818-454b-925b-1e93ec515284"},"vehicle_type_id":"4","last_reported":1746166482,"current_range_meters":10000,"station_id":"ce4bh312rcd13ifvqdk0","pricing_plan_id":"cebpf4jnsgd1na2vs0mg"},{"bike_id":"5e783dca-e9bd-4f97-a67f-f3c52ee23fb9","system_id":"levelo_inurba_marseille","lat":43.296214,"lon":5.377067,"is_reserved":false,"is_disabled":true,"rental_uris":{"android":"levelo://app?vid=5e783dca-e9bd-4f97-a67f-f3c52ee23fb9","ios":"levelo://app?vid=5e783dca-e9bd-4f97-a67f-f3c52ee23fb9"},"vehicle_type_id":"4","last_reported":1746166482,"current_range_meters":10800,"station_id":"","pricing_plan_id":"cebpf4jnsgd1na2vs0mg"},{"bike_id":"c7c7a92b-c148-41bb-b985-b3d124e5c071","system_id":"levelo_inurba_marseille","lat":43.24813,"lon":5.37462,"is_reserved":false,"is_disabled":true,"rental_uris":{"android":"levelo://app?vid=c7c7a92b-c148-41bb-b985-b3d124e5c071","ios":"levelo://app?vid=c7c7a92b-c148-41bb-b985-b3d124e5c071"},"vehicle_type_id":"4","last_reported":1746166482,"current_range_meters":10800,"station_id":"ce4bhgh2rcd13ifvqfb0","pricing_plan_id":"cebpf4jnsgd1na2vs0mg"},{"bike_id":"d2917865-c7ed-418c-8e76-6cf228a7e046","system_id":"levelo_inurba_marseille","lat":43.30254,"lon":5.40076,"is_reserved":false,"is_disabled":false,"rental_uris":{"android":"levelo://app?vid=d2917865-c7ed-418c-8e76-6cf228a7e046","ios":"levelo://app?vid=d2917865-c7ed-418c-8e76-6cf228a7e046"},"vehicle_type_id":"4","last_reported":1746166482,"current_range_meters":10800,"station_id":"ce4bgvh2rcd13ifvqcs0","pricing_plan_id":"cebpf4jnsgd1na2vs0mg"},{"bike_id":"3f8bea75-f1b7-42a9-9ff5-4986c0552272","system_id":"levelo_inurba_marseille","lat":43.21744,"lon":5.34641,"is_reserved":false,"is_disabled":true,"rental_uris":{"android":"levelo://app?vid=3f8bea75-f1b7-42a9-9ff5-4986c0552272","ios":"levelo://app?vid=3f8bea75-f1b7-42a9-9ff5-4986c0552272"},"vehicle_type_id":"4","last_reported":1746166482,"current_range_meters":10800,"station_id":"st_cvj6r9ubvosntc0bgbag","pricing_plan_id":"cebpf4jnsgd1na2vs0mg"},{"bike_id":"045b2767-67d3-41b7-8618-6d27646a5585","system_id":"levelo_inurba_marseille","lat":43.315868,"lon":5.387778,"is_reserved":false,"is_disabled":false,"rental_uris":{"android":"levelo://app?vid=045b2767-67d3-41b7-8618-6d27646a5585","ios":"levelo://app?vid=045b2767-67d3-41b7-8618-6d27646a5585"},"vehicle_type_id":"4","last_reported":1746166482,"current_range_meters":10800,"station_id":"","pricing_plan_id":"cebpf4jnsgd1na2vs0mg"},{"bike_id":"f3e55666-84ea-41ab-b9d9-befa4b693d2e","system_id":"levelo_inurba_marseille","lat":43.29048,"lon":5.39957,"is_reserved":false,"is_disabled":false,"rental_uris":{"android":"levelo://app?vid=f3e55666-84ea-41ab-b9d9-befa4b693d2e","ios":"levelo://app?vid=f3e55666-84ea-41ab-b9d9-befa4b693d2e"},"vehicle_type_id":"4","last_reported":1746166482,"current_range_meters":10800,"station_id":"ce4bh392rcd13ifvqdm0","pricing_plan_id":"cebpf4jnsgd1na2vs0mg"},{"bike_id":"c48cdea9-4e80-41e2-9278-4d9d78b225fd","system_id":"levelo_inurba_marseille","lat":43.30153,"lon":5.38084,"is_reserved":false,"is_disabled":false,"rental_uris":{"android":"levelo://app?vid=c48cdea9-4e80-41e2-9278-4d9d78b225fd","ios":"levelo://app?vid=c48cdea9-4e80-41e2-9278-4d9d78b225fd"},"vehicle_type_id":"4","last_reported":1746166482,"current_range_meters":10800,"station_id":"ce4bgjp2rcd13ifvqbh0","pricing_plan_id":"cebpf4jnsgd1na2vs0mg"},{"bike_id":"078dc027-d27a-456b-b8c2-bc9c93737522","system_id":"levelo_inurba_marseille","lat":43.26957,"lon":5.38633,"is_reserved":false,"is_disabled":false,"rental_uris":{"android":"levelo://app?vid=078dc027-d27a-456b-b8c2-bc9c93737522","ios":"levelo://app?vid=078dc027-d27a-456b-b8c2-bc9c93737522"},"vehicle_type_id":"4","last_reported":1746166482,"current_range_meters":10000,"station_id":"ce4bhh92rcd13ifvqfh0","pricing_plan_id":"cebpf4jnsgd1na2vs0mg"},{"bike_id":"f6ce1be5-9a29-4140-80b4-f99b98a9e900","system_id":"levelo_inurba_marseille","lat":43.26058,"lon":5.39399,"is_reserved":false,"is_disabled":false,"rental_uris":{"android":"levelo://app?vid=f6ce1be5-9a29-4140-80b4-f99b98a9e900","ios":"levelo://app?vid=f6ce1be5-9a29-4140-80b4-f99b98a9e900"},"vehicle_type_id":"4","last_reported":1746166482,"current_range_meters":11200,"station_id":"ce4bhh92rcd13ifvqfj0","pricing_plan_id":"cebpf4jnsgd1na2vs0mg"},{"bike_id":"da5a36f0-8d52-4541-85f3-26c6b42665cd","system_id":"levelo_inurba_marseille","lat":43.28996,"lon":5.35613,"is_reserved":false,"is_disabled":false,"rental_uris":{"android":"levelo://app?vid=da5a36f0-8d52-4541-85f3-26c6b42665cd","ios":"levelo://app?vid=da5a36f0-8d52-4541-85f3-26c6b42665cd"},"vehicle_type_id":"4","last_reported":1746166482,"current_range_meters":14000,"station_id":"ce4bhb92rcd13ifvqen0","pricing_plan_id":"cebpf4jnsgd1na2vs0mg"},{"bike_id":"38e62329-8f43-492e-bced-5ab22100ad58","system_id":"levelo_inurba_marseille","lat":43.289774,"lon":5.378399,"is_reserved":false,"is_disabled":false,"rental_uris":{"android":"levelo://app?vid=38e62329-8f43-492e-bced-5ab22100ad58","ios":"levelo://app?vid=38e62329-8f43-492e-bced-5ab22100ad58"},"vehicle_type_id":"4","last_reported":1746166482,"current_range_meters":10800,"station_id":"ce4bh9p2rcd13ifvqed0","pricing_plan_id":"cebpf4jnsgd1na2vs0mg"},{"bike_id":"ed588de7-3c51-4bb5-82b3-f015eda13ec2","system_id":"levelo_inurba_marseille","lat":43.29542,"lon":5.37506,"is_reserved":false,"is_disabled":false,"rental_uris":{"android":"levelo://app?vid=ed588de7-3c51-4bb5-82b3-f015eda13ec2","ios":"levelo://app?vid=ed588de7-3c51-4bb5-82b3-f015eda13ec2"},"vehicle_type_id":"4","last_reported":1746166482,"current_range_meters":9200,"station_id":"ce4bgkp2rcd13ifvqbmg","pricing_plan_id":"cebpf4jnsgd1na2vs0mg"},{"bike_id":"c3e3fb16-e78b-4c92-ac45-9b12ee09bd02","system_id":"levelo_inurba_marseille","lat":43.31505,"lon":5.37316,"is_reserved":false,"is_disabled":false,"rental_uris":{"android":"levelo://app?vid=c3e3fb16-e78b-4c92-ac45-9b12ee09bd02","ios":"levelo://app?vid=c3e3fb16-e78b-4c92-ac45-9b12ee09bd02"},"vehicle_type_id":"4","last_reported":1746166482,"current_range_meters":11200,"station_id":"ce4bgt12rcd13ifvqcd0","pricing_plan_id":"cebpf4jnsgd1na2vs0mg"},{"bike_id":"df869c6e-30aa-4a10-bddb-7cd36ccc4eae","system_id":"levelo_inurba_marseille","lat":43.29889,"lon":5.43676,"is_reserved":false,"is_disabled":false,"rental_uris":{"android":"levelo://app?vid=df869c6e-30aa-4a10-bddb-7cd36ccc4eae","ios":"levelo://app?vid=df869c6e-30aa-4a10-bddb-7cd36ccc4eae"},"vehicle_type_id":"4","last_reported":1746166482,"current_range_meters":11600,"station_id":"ce4bhpp2rcd13ifvqhfg","pricing_plan_id":"cebpf4jnsgd1na2vs0mg"},{"bike_id":"56f543c3-cb38-4272-a4e5-cab053dcc3e0","system_id":"levelo_inurba_marseille","lat":43.291966,"lon":5.392961,"is_reserved":false,"is_disabled":true,"rental_uris":{"android":"levelo://app?vid=56f543c3-cb38-4272-a4e5-cab053dcc3e0","ios":"levelo://app?vid=56f543c3-cb38-4272-a4e5-cab053dcc3e0"},"vehicle_type_id":"4","last_reported":1746166482,"current_range_meters":11600,"station_id":"ce4bhbh2rcd13ifvqeo0","pricing_plan_id":"cebpf4jnsgd1na2vs0mg"},{"bike_id":"70343d1e-ded8-4525-8972-02514fdf5b15","system_id":"levelo_inurba_marseille","lat":43.27497,"lon":5.42448,"is_reserved":false,"is_disabled":false,"rental_uris":{"android":"levelo://app?vid=70343d1e-ded8-4525-8972-02514fdf5b15","ios":"levelo://app?vid=70343d1e-ded8-4525-8972-02514fdf5b15"},"vehicle_type_id":"4","last_reported":1746166482,"current_range_meters":11600,"station_id":"ce4bhn92rcd13ifvqgrg","pricing_plan_id":"cebpf4jnsgd1na2vs0mg"},{"bike_id":"4cc2b011-81f2-4910-af9d-0052ec928815","system_id":"levelo_inurba_marseille","lat":43.30365,"lon":5.424947,"is_reserved":false,"is_disabled":false,"rental_uris":{"android":"levelo://app?vid=4cc2b011-81f2-4910-af9d-0052ec928815","ios":"levelo://app?vid=4cc2b011-81f2-4910-af9d-0052ec928815"},"vehicle_type_id":"4","last_reported":1746166482,"current_range_meters":11600,"station_id":"ce4bhoh2rcd13ifvqh6g","pricing_plan_id":"cebpf4jnsgd1na2vs0mg"},{"bike_id":"828ac081-687f-4462-aebb-2816cd0cf2ac","system_id":"levelo_inurba_marseille","lat":43.29805,"lon":5.381,"is_reserved":false,"is_disabled":false,"rental_uris":{"android":"levelo://app?vid=828ac081-687f-4462-aebb-2816cd0cf2ac","ios":"levelo://app?vid=828ac081-687f-4462-aebb-2816cd0cf2ac"},"vehicle_type_id":"4","last_reported":1746166482,"current_range_meters":11600,"station_id":"ce4bgip2rcd13ifvqbb0","pricing_plan_id":"cebpf4jnsgd1na2vs0mg"},{"bike_id":"fa09a71f-673d-4c1a-a11e-336f86ed1d37","system_id":"levelo_inurba_marseille","lat":43.30148,"lon":5.38082,"is_reserved":false,"is_disabled":false,"rental_uris":{"android":"levelo://app?vid=fa09a71f-673d-4c1a-a11e-336f86ed1d37","ios":"levelo://app?vid=fa09a71f-673d-4c1a-a11e-336f86ed1d37"},"vehicle_type_id":"4","last_reported":1746166482,"current_range_meters":12000,"station_id":"ce4bgjp2rcd13ifvqbh0","pricing_plan_id":"cebpf4jnsgd1na2vs0mg"},{"bike_id":"23181420-c8a4-49bc-b258-38b56e6e3b47","system_id":"levelo_inurba_marseille","lat":43.26223,"lon":5.3744,"is_reserved":false,"is_disabled":false,"rental_uris":{"android":"levelo://app?vid=23181420-c8a4-49bc-b258-38b56e6e3b47","ios":"levelo://app?vid=23181420-c8a4-49bc-b258-38b56e6e3b47"},"vehicle_type_id":"4","last_reported":1746166482,"current_range_meters":12000,"station_id":"ce4bhgp2rcd13ifvqfc0","pricing_plan_id":"cebpf4jnsgd1na2vs0mg"},{"bike_id":"10c80c04-2a16-4acf-b639-131e747e5f9c","system_id":"levelo_inurba_marseille","lat":43.30464,"lon":5.37914,"is_reserved":false,"is_disabled":false,"rental_uris":{"android":"levelo://app?vid=10c80c04-2a16-4acf-b639-131e747e5f9c","ios":"levelo://app?vid=10c80c04-2a16-4acf-b639-131e747e5f9c"},"vehicle_type_id":"4","last_reported":1746166482,"current_range_meters":12000,"station_id":"ce4bgup2rcd13ifvqcn0","pricing_plan_id":"cebpf4jnsgd1na2vs0mg"},{"bike_id":"8d41bcc1-fd90-4d07-b17f-72e82dcb47f7","system_id":"levelo_inurba_marseille","lat":43.31492,"lon":5.37309,"is_reserved":false,"is_disabled":false,"rental_uris":{"android":"levelo://app?vid=8d41bcc1-fd90-4d07-b17f-72e82dcb47f7","ios":"levelo://app?vid=8d41bcc1-fd90-4d07-b17f-72e82dcb47f7"},"vehicle_type_id":"4","last_reported":1746166482,"current_range_meters":11600,"station_id":"ce4bgt12rcd13ifvqcd0","pricing_plan_id":"cebpf4jnsgd1na2vs0mg"},{"bike_id":"0c9a8767-a71f-4ef0-b390-c3b7e9c632a8","system_id":"levelo_inurba_marseille","lat":43.21189,"lon":5.35082,"is_reserved":false,"is_disabled":true,"rental_uris":{"android":"levelo://app?vid=0c9a8767-a71f-4ef0-b390-c3b7e9c632a8","ios":"levelo://app?vid=0c9a8767-a71f-4ef0-b390-c3b7e9c632a8"},"vehicle_type_id":"4","last_reported":1746166482,"current_range_meters":12400,"station_id":"st_cvj6sg6p6f1abm77japg","pricing_plan_id":"cebpf4jnsgd1na2vs0mg"},{"bike_id":"f0db5fa2-ee3c-4f34-b509-0ff042a196f7","system_id":"levelo_inurba_marseille","lat":43.29289,"lon":5.40151,"is_reserved":false,"is_disabled":false,"rental_uris":{"android":"levelo://app?vid=f0db5fa2-ee3c-4f34-b509-0ff042a196f7","ios":"levelo://app?vid=f0db5fa2-ee3c-4f34-b509-0ff042a196f7"},"vehicle_type_id":"4","last_reported":1746166482,"current_range_meters":12400,"station_id":"ce4bh312rcd13ifvqdk0","pricing_plan_id":"cebpf4jnsgd1na2vs0mg"},{"bike_id":"5a9ab008-1ae1-479b-85b3-f6c2c295a313","system_id":"levelo_inurba_marseille","lat":43.32479,"lon":5.36567,"is_reserved":false,"is_disabled":false,"rental_uris":{"android":"levelo://app?vid=5a9ab008-1ae1-479b-85b3-f6c2c295a313","ios":"levelo://app?vid=5a9ab008-1ae1-479b-85b3-f6c2c295a313"},"vehicle_type_id":"4","last_reported":1746166482,"current_range_meters":12400,"station_id":"ce4bhs12rcd13ifvqhvg","pricing_plan_id":"cebpf4jnsgd1na2vs0mg"},{"bike_id":"469b865a-862f-4903-ab73-cf01e7bc02bb","system_id":"levelo_inurba_marseille","lat":43.315315,"lon":5.380299,"is_reserved":false,"is_disabled":false,"rental_uris":{"android":"levelo://app?vid=469b865a-862f-4903-ab73-cf01e7bc02bb","ios":"levelo://app?vid=469b865a-862f-4903-ab73-cf01e7bc02bb"},"vehicle_type_id":"4","last_reported":1746166482,"current_range_meters":12400,"station_id":"ce4bhsp2rcd13ifvqi50","pricing_plan_id":"cebpf4jnsgd1na2vs0mg"},{"bike_id":"8ea74d16-e915-49df-84ed-2a228ad7c6de","system_id":"levelo_inurba_marseille","lat":43.315353,"lon":5.380718,"is_reserved":false,"is_disabled":false,"rental_uris":{"android":"levelo://app?vid=8ea74d16-e915-49df-84ed-2a228ad7c6de","ios":"levelo://app?vid=8ea74d16-e915-49df-84ed-2a228ad7c6de"},"vehicle_type_id":"4","last_reported":1746166482,"current_range_meters":12800,"station_id":"ce4bhsp2rcd13ifvqi50","pricing_plan_id":"cebpf4jnsgd1na2vs0mg"},{"bike_id":"27ae44ab-4467-45ef-b0d1-8bfc33f0de73","system_id":"levelo_inurba_marseille","lat":43.28698,"lon":5.40014,"is_reserved":false,"is_disabled":false,"rental_uris":{"android":"levelo://app?vid=27ae44ab-4467-45ef-b0d1-8bfc33f0de73","ios":"levelo://app?vid=27ae44ab-4467-45ef-b0d1-8bfc33f0de73"},"vehicle_type_id":"4","last_reported":1746166482,"current_range_meters":12800,"station_id":"ce4bho92rcd13ifvqh3g","pricing_plan_id":"cebpf4jnsgd1na2vs0mg"},{"bike_id":"f9eae9cb-3e30-4f98-9b5d-ec7d6955b1e9","system_id":"levelo_inurba_marseille","lat":43.31681,"lon":5.40459,"is_reserved":false,"is_disabled":false,"rental_uris":{"android":"levelo://app?vid=f9eae9cb-3e30-4f98-9b5d-ec7d6955b1e9","ios":"levelo://app?vid=f9eae9cb-3e30-4f98-9b5d-ec7d6955b1e9"},"vehicle_type_id":"4","last_reported":1746166482,"current_range_meters":12800,"station_id":"ce4bh012rcd13ifvqd00","pricing_plan_id":"cebpf4jnsgd1na2vs0mg"},{"bike_id":"8a0058ae-d47a-4696-afcc-53a66a14ba3f","system_id":"levelo_inurba_marseille","lat":43.298999,"lon":5.436622,"is_reserved":false,"is_disabled":false,"rental_uris":{"android":"levelo://app?vid=8a0058ae-d47a-4696-afcc-53a66a14ba3f","ios":"levelo://app?vid=8a0058ae-d47a-4696-afcc-53a66a14ba3f"},"vehicle_type_id":"4","last_reported":1746166482,"current_range_meters":13600,"station_id":"ce4bhpp2rcd13ifvqhfg","pricing_plan_id":"cebpf4jnsgd1na2vs0mg"},{"bike_id":"c47d8af0-6608-459a-ae32-46349610263f","system_id":"levelo_inurba_marseille","lat":43.31884,"lon":5.40736,"is_reserved":false,"is_disabled":false,"rental_uris":{"android":"levelo://app?vid=c47d8af0-6608-459a-ae32-46349610263f","ios":"levelo://app?vid=c47d8af0-6608-459a-ae32-46349610263f"},"vehicle_type_id":"4","last_reported":1746166482,"current_range_meters":12800,"station_id":"ce4bhq12rcd13ifvqhig","pricing_plan_id":"cebpf4jnsgd1na2vs0mg"},{"bike_id":"4c355f31-bbab-40c6-a093-ac50f3e75f95","system_id":"levelo_inurba_marseille","lat":43.26227,"lon":5.4047,"is_reserved":false,"is_disabled":false,"rental_uris":{"android":"levelo://app?vid=4c355f31-bbab-40c6-a093-ac50f3e75f95","ios":"levelo://app?vid=4c355f31-bbab-40c6-a093-ac50f3e75f95"},"vehicle_type_id":"4","last_reported":1746166482,"current_range_meters":13600,"station_id":"ce4bhmh2rcd13ifvqgmg","pricing_plan_id":"cebpf4jnsgd1na2vs0mg"},{"bike_id":"43995cdf-c28e-4b62-a0fd-7dc1279d8a31","system_id":"levelo_inurba_marseille","lat":43.29958,"lon":5.41322,"is_reserved":false,"is_disabled":false,"rental_uris":{"android":"levelo://app?vid=43995cdf-c28e-4b62-a0fd-7dc1279d8a31","ios":"levelo://app?vid=43995cdf-c28e-4b62-a0fd-7dc1279d8a31"},"vehicle_type_id":"4","last_reported":1746166482,"current_range_meters":13600,"station_id":"ce4bhp12rcd13ifvqh9g","pricing_plan_id":"cebpf4jnsgd1na2vs0mg"},{"bike_id":"aaa7361e-2aed-4ab5-b86b-b5d18c767d33","system_id":"levelo_inurba_marseille","lat":43.29952,"lon":5.39502,"is_reserved":false,"is_disabled":true,"rental_uris":{"android":"levelo://app?vid=aaa7361e-2aed-4ab5-b86b-b5d18c767d33","ios":"levelo://app?vid=aaa7361e-2aed-4ab5-b86b-b5d18c767d33"},"vehicle_type_id":"4","last_reported":1746166482,"current_range_meters":13600,"station_id":"","pricing_plan_id":"cebpf4jnsgd1na2vs0mg"},{"bike_id":"da3ee00c-3f7f-4bad-b705-5388aa7cc9be","system_id":"levelo_inurba_marseille","lat":43.29617,"lon":5.38103,"is_reserved":false,"is_disabled":false,"rental_uris":{"android":"levelo://app?vid=da3ee00c-3f7f-4bad-b705-5388aa7cc9be","ios":"levelo://app?vid=da3ee00c-3f7f-4bad-b705-5388aa7cc9be"},"vehicle_type_id":"4","last_reported":1746166482,"current_range_meters":13600,"station_id":"ce4bgl12rcd13ifvqbo0","pricing_plan_id":"cebpf4jnsgd1na2vs0mg"},{"bike_id":"67058a6a-1199-4119-a8f8-bd3080f44de1","system_id":"levelo_inurba_marseille","lat":43.30246,"lon":5.40071,"is_reserved":false,"is_disabled":false,"rental_uris":{"android":"levelo://app?vid=67058a6a-1199-4119-a8f8-bd3080f44de1","ios":"levelo://app?vid=67058a6a-1199-4119-a8f8-bd3080f44de1"},"vehicle_type_id":"4","last_reported":1746166482,"current_range_meters":13600,"station_id":"ce4bgvh2rcd13ifvqcs0","pricing_plan_id":"cebpf4jnsgd1na2vs0mg"},{"bike_id":"7bd7c79e-5190-4568-b102-e02604e33904","system_id":"levelo_inurba_marseille","lat":43.30214,"lon":5.40531,"is_reserved":false,"is_disabled":false,"rental_uris":{"android":"levelo://app?vid=7bd7c79e-5190-4568-b102-e02604e33904","ios":"levelo://app?vid=7bd7c79e-5190-4568-b102-e02604e33904"},"vehicle_type_id":"4","last_reported":1746166482,"current_range_meters":13600,"station_id":"","pricing_plan_id":"cebpf4jnsgd1na2vs0mg"},{"bike_id":"130c59fd-cc81-47af-8c42-101e36d54750","system_id":"levelo_inurba_marseille","lat":43.25822,"lon":5.39439,"is_reserved":false,"is_disabled":false,"rental_uris":{"android":"levelo://app?vid=130c59fd-cc81-47af-8c42-101e36d54750","ios":"levelo://app?vid=130c59fd-cc81-47af-8c42-101e36d54750"},"vehicle_type_id":"4","last_reported":1746166482,"current_range_meters":13600,"station_id":"ce4bhip2rcd13ifvqft0","pricing_plan_id":"cebpf4jnsgd1na2vs0mg"},{"bike_id":"3c376cd3-a6e1-4153-b98d-ae36ec38c259","system_id":"levelo_inurba_marseille","lat":43.28701,"lon":5.39977,"is_reserved":false,"is_disabled":false,"rental_uris":{"android":"levelo://app?vid=3c376cd3-a6e1-4153-b98d-ae36ec38c259","ios":"levelo://app?vid=3c376cd3-a6e1-4153-b98d-ae36ec38c259"},"vehicle_type_id":"4","last_reported":1746166482,"current_range_meters":13600,"station_id":"ce4bho92rcd13ifvqh3g","pricing_plan_id":"cebpf4jnsgd1na2vs0mg"},{"bike_id":"fa458b78-5d1d-448f-8957-9784f4e9ac1a","system_id":"levelo_inurba_marseille","lat":43.30593,"lon":5.39383,"is_reserved":false,"is_disabled":false,"rental_uris":{"android":"levelo://app?vid=fa458b78-5d1d-448f-8957-9784f4e9ac1a","ios":"levelo://app?vid=fa458b78-5d1d-448f-8957-9784f4e9ac1a"},"vehicle_type_id":"4","last_reported":1746166482,"current_range_meters":13600,"station_id":"ce4bh0p2rcd13ifvqd80","pricing_plan_id":"cebpf4jnsgd1na2vs0mg"},{"bike_id":"e70e6937-93f0-4736-a2bd-2815ca5c0c90","system_id":"levelo_inurba_marseille","lat":43.29309,"lon":5.37174,"is_reserved":false,"is_disabled":true,"rental_uris":{"android":"levelo://app?vid=e70e6937-93f0-4736-a2bd-2815ca5c0c90","ios":"levelo://app?vid=e70e6937-93f0-4736-a2bd-2815ca5c0c90"},"vehicle_type_id":"4","last_reported":1746166482,"current_range_meters":14000,"station_id":"ce4bgh92rcd13ifvqb40","pricing_plan_id":"cebpf4jnsgd1na2vs0mg"},{"bike_id":"ac132c29-f819-4d62-974c-5c055342f4f0","system_id":"levelo_inurba_marseille","lat":43.21754,"lon":5.34605,"is_reserved":false,"is_disabled":true,"rental_uris":{"android":"levelo://app?vid=ac132c29-f819-4d62-974c-5c055342f4f0","ios":"levelo://app?vid=ac132c29-f819-4d62-974c-5c055342f4f0"},"vehicle_type_id":"4","last_reported":1746166482,"current_range_meters":14000,"station_id":"st_cvj6r9ubvosntc0bgbag","pricing_plan_id":"cebpf4jnsgd1na2vs0mg"},{"bike_id":"03f5b910-d1d5-49c8-a7a4-67a333daaa2e","system_id":"levelo_inurba_marseille","lat":43.32531,"lon":5.41465,"is_reserved":false,"is_disabled":false,"rental_uris":{"android":"levelo://app?vid=03f5b910-d1d5-49c8-a7a4-67a333daaa2e","ios":"levelo://app?vid=03f5b910-d1d5-49c8-a7a4-67a333daaa2e"},"vehicle_type_id":"4","last_reported":1746166482,"current_range_meters":14000,"station_id":"ce4bhq12rcd13ifvqhhg","pricing_plan_id":"cebpf4jnsgd1na2vs0mg"},{"bike_id":"bd637518-3dca-49d4-8568-13280348053b","system_id":"levelo_inurba_marseille","lat":43.29804,"lon":5.38096,"is_reserved":false,"is_disabled":false,"rental_uris":{"android":"levelo://app?vid=bd637518-3dca-49d4-8568-13280348053b","ios":"levelo://app?vid=bd637518-3dca-49d4-8568-13280348053b"},"vehicle_type_id":"4","last_reported":1746166482,"current_range_meters":14000,"station_id":"ce4bgip2rcd13ifvqbb0","pricing_plan_id":"cebpf4jnsgd1na2vs0mg"},{"bike_id":"d5e606c7-7350-4ee8-bb19-4231e65af68a","system_id":"levelo_inurba_marseille","lat":43.2706,"lon":5.40261,"is_reserved":false,"is_disabled":false,"rental_uris":{"android":"levelo://app?vid=d5e606c7-7350-4ee8-bb19-4231e65af68a","ios":"levelo://app?vid=d5e606c7-7350-4ee8-bb19-4231e65af68a"},"vehicle_type_id":"4","last_reported":1746166482,"current_range_meters":14000,"station_id":"ce4bhk92rcd13ifvqgc0","pricing_plan_id":"cebpf4jnsgd1na2vs0mg"},{"bike_id":"6ca88b8d-a671-43ed-966a-07b7e6d6703d","system_id":"levelo_inurba_marseille","lat":43.308873,"lon":5.371953,"is_reserved":false,"is_disabled":false,"rental_uris":{"android":"levelo://app?vid=6ca88b8d-a671-43ed-966a-07b7e6d6703d","ios":"levelo://app?vid=6ca88b8d-a671-43ed-966a-07b7e6d6703d"},"vehicle_type_id":"4","last_reported":1746166482,"current_range_meters":13600,"station_id":"ce4bguh2rcd13ifvqckg","pricing_plan_id":"cebpf4jnsgd1na2vs0mg"},{"bike_id":"58ab4ed0-a69d-4f56-9f56-2c2bfa67cab2","system_id":"levelo_inurba_marseille","lat":43.2813,"lon":5.42679,"is_reserved":false,"is_disabled":false,"rental_uris":{"android":"levelo://app?vid=58ab4ed0-a69d-4f56-9f56-2c2bfa67cab2","ios":"levelo://app?vid=58ab4ed0-a69d-4f56-9f56-2c2bfa67cab2"},"vehicle_type_id":"4","last_reported":1746166482,"current_range_meters":14400,"station_id":"ce4bhnh2rcd13ifvqgug","pricing_plan_id":"cebpf4jnsgd1na2vs0mg"},{"bike_id":"8a53bf42-acb8-4be5-ad1b-38650f6ba791","system_id":"levelo_inurba_marseille","lat":43.29953,"lon":5.365567,"is_reserved":false,"is_disabled":true,"rental_uris":{"android":"levelo://app?vid=8a53bf42-acb8-4be5-ad1b-38650f6ba791","ios":"levelo://app?vid=8a53bf42-acb8-4be5-ad1b-38650f6ba791"},"vehicle_type_id":"4","last_reported":1746166482,"current_range_meters":14400,"station_id":"ce4bgm92rcd13ifvqbr0","pricing_plan_id":"cebpf4jnsgd1na2vs0mg"},{"bike_id":"8a98d962-578d-444b-a5bb-91a62b69d98d","system_id":"levelo_inurba_marseille","lat":43.21195,"lon":5.3507,"is_reserved":false,"is_disabled":true,"rental_uris":{"android":"levelo://app?vid=8a98d962-578d-444b-a5bb-91a62b69d98d","ios":"levelo://app?vid=8a98d962-578d-444b-a5bb-91a62b69d98d"},"vehicle_type_id":"4","last_reported":1746166482,"current_range_meters":14400,"station_id":"st_cvj6sg6p6f1abm77japg","pricing_plan_id":"cebpf4jnsgd1na2vs0mg"},{"bike_id":"06dd7e7d-686f-42c5-8431-9372b0f48ce7","system_id":"levelo_inurba_marseille","lat":43.28427,"lon":5.37499,"is_reserved":false,"is_disabled":false,"rental_uris":{"android":"levelo://app?vid=06dd7e7d-686f-42c5-8431-9372b0f48ce7","ios":"levelo://app?vid=06dd7e7d-686f-42c5-8431-9372b0f48ce7"},"vehicle_type_id":"4","last_reported":1746166482,"current_range_meters":14400,"station_id":"ce4bh412rcd13ifvqds0","pricing_plan_id":"cebpf4jnsgd1na2vs0mg"},{"bike_id":"cdffe8fb-5e87-4eea-9d91-cbcec8c875bd","system_id":"levelo_inurba_marseille","lat":43.27497,"lon":5.42456,"is_reserved":false,"is_disabled":true,"rental_uris":{"android":"levelo://app?vid=cdffe8fb-5e87-4eea-9d91-cbcec8c875bd","ios":"levelo://app?vid=cdffe8fb-5e87-4eea-9d91-cbcec8c875bd"},"vehicle_type_id":"4","last_reported":1746166482,"current_range_meters":14400,"station_id":"ce4bhn92rcd13ifvqgrg","pricing_plan_id":"cebpf4jnsgd1na2vs0mg"},{"bike_id":"1529b10f-a6a1-4980-9717-bb1a2ccbec38","system_id":"levelo_inurba_marseille","lat":43.29277,"lon":5.37631,"is_reserved":false,"is_disabled":false,"rental_uris":{"android":"levelo://app?vid=1529b10f-a6a1-4980-9717-bb1a2ccbec38","ios":"levelo://app?vid=1529b10f-a6a1-4980-9717-bb1a2ccbec38"},"vehicle_type_id":"4","last_reported":1746166482,"current_range_meters":14400,"station_id":"ce4bgi12rcd13ifvqb80","pricing_plan_id":"cebpf4jnsgd1na2vs0mg"},{"bike_id":"7fd80a67-7a4b-4131-aa61-22a40255ad15","system_id":"levelo_inurba_marseille","lat":43.31682,"lon":5.37744,"is_reserved":false,"is_disabled":true,"rental_uris":{"android":"levelo://app?vid=7fd80a67-7a4b-4131-aa61-22a40255ad15","ios":"levelo://app?vid=7fd80a67-7a4b-4131-aa61-22a40255ad15"},"vehicle_type_id":"4","last_reported":1746166482,"current_range_meters":14800,"station_id":"ce4bgth2rcd13ifvqch0","pricing_plan_id":"cebpf4jnsgd1na2vs0mg"},{"bike_id":"6623491d-b23e-494a-b8f5-05f0c8a0d399","system_id":"levelo_inurba_marseille","lat":43.303244,"lon":5.404488,"is_reserved":false,"is_disabled":false,"rental_uris":{"android":"levelo://app?vid=6623491d-b23e-494a-b8f5-05f0c8a0d399","ios":"levelo://app?vid=6623491d-b23e-494a-b8f5-05f0c8a0d399"},"vehicle_type_id":"4","last_reported":1746166482,"current_range_meters":14800,"station_id":"ce4bh012rcd13ifvqd10","pricing_plan_id":"cebpf4jnsgd1na2vs0mg"},{"bike_id":"3481d71a-e6e0-43a6-95f9-0e8e315a647b","system_id":"levelo_inurba_marseille","lat":43.32483,"lon":5.36568,"is_reserved":false,"is_disabled":false,"rental_uris":{"android":"levelo://app?vid=3481d71a-e6e0-43a6-95f9-0e8e315a647b","ios":"levelo://app?vid=3481d71a-e6e0-43a6-95f9-0e8e315a647b"},"vehicle_type_id":"4","last_reported":1746166482,"current_range_meters":14400,"station_id":"ce4bhs12rcd13ifvqhvg","pricing_plan_id":"cebpf4jnsgd1na2vs0mg"},{"bike_id":"a441347f-6d3e-4ecb-8bf6-73429dab05ee","system_id":"levelo_inurba_marseille","lat":43.30933,"lon":5.40157,"is_reserved":false,"is_disabled":false,"rental_uris":{"android":"levelo://app?vid=a441347f-6d3e-4ecb-8bf6-73429dab05ee","ios":"levelo://app?vid=a441347f-6d3e-4ecb-8bf6-73429dab05ee"},"vehicle_type_id":"4","last_reported":1746166482,"current_range_meters":14800,"station_id":"ce4bgvp2rcd13ifvqct0","pricing_plan_id":"cebpf4jnsgd1na2vs0mg"},{"bike_id":"63980e88-f0bd-4c4a-a988-f3b794abe1d1","system_id":"levelo_inurba_marseille","lat":43.30537,"lon":5.3654,"is_reserved":false,"is_disabled":false,"rental_uris":{"android":"levelo://app?vid=63980e88-f0bd-4c4a-a988-f3b794abe1d1","ios":"levelo://app?vid=63980e88-f0bd-4c4a-a988-f3b794abe1d1"},"vehicle_type_id":"4","last_reported":1746166482,"current_range_meters":15200,"station_id":"ce4bgs12rcd13ifvqcag","pricing_plan_id":"cebpf4jnsgd1na2vs0mg"},{"bike_id":"924ebe6f-d3da-412d-b51d-9e4065478efe","system_id":"levelo_inurba_marseille","lat":43.32548,"lon":5.41429,"is_reserved":false,"is_disabled":false,"rental_uris":{"android":"levelo://app?vid=924ebe6f-d3da-412d-b51d-9e4065478efe","ios":"levelo://app?vid=924ebe6f-d3da-412d-b51d-9e4065478efe"},"vehicle_type_id":"4","last_reported":1746166482,"current_range_meters":15200,"station_id":"ce4bhq12rcd13ifvqhhg","pricing_plan_id":"cebpf4jnsgd1na2vs0mg"},{"bike_id":"43570242-c8cc-43fc-a26a-28bd415865fa","system_id":"levelo_inurba_marseille","lat":43.32474,"lon":5.3658,"is_reserved":false,"is_disabled":false,"rental_uris":{"android":"levelo://app?vid=43570242-c8cc-43fc-a26a-28bd415865fa","ios":"levelo://app?vid=43570242-c8cc-43fc-a26a-28bd415865fa"},"vehicle_type_id":"4","last_reported":1746166482,"current_range_meters":15200,"station_id":"ce4bhs12rcd13ifvqhvg","pricing_plan_id":"cebpf4jnsgd1na2vs0mg"},{"bike_id":"e8a357e0-5a54-4848-a171-21a2f6487c52","system_id":"levelo_inurba_marseille","lat":43.32543,"lon":5.41425,"is_reserved":false,"is_disabled":false,"rental_uris":{"android":"levelo://app?vid=e8a357e0-5a54-4848-a171-21a2f6487c52","ios":"levelo://app?vid=e8a357e0-5a54-4848-a171-21a2f6487c52"},"vehicle_type_id":"4","last_reported":1746166482,"current_range_meters":15200,"station_id":"ce4bhq12rcd13ifvqhhg","pricing_plan_id":"cebpf4jnsgd1na2vs0mg"},{"bike_id":"3e5618a7-9812-4c8c-882c-160a9d6d2dbe","system_id":"levelo_inurba_marseille","lat":43.32482,"lon":5.36559,"is_reserved":false,"is_disabled":false,"rental_uris":{"android":"levelo://app?vid=3e5618a7-9812-4c8c-882c-160a9d6d2dbe","ios":"levelo://app?vid=3e5618a7-9812-4c8c-882c-160a9d6d2dbe"},"vehicle_type_id":"4","last_reported":1746166482,"current_range_meters":15200,"station_id":"ce4bhs12rcd13ifvqhvg","pricing_plan_id":"cebpf4jnsgd1na2vs0mg"},{"bike_id":"4fe5e9bb-c9df-4b3d-a524-a47ad4d8fb3a","system_id":"levelo_inurba_marseille","lat":43.29075,"lon":5.39978,"is_reserved":false,"is_disabled":false,"rental_uris":{"android":"levelo://app?vid=4fe5e9bb-c9df-4b3d-a524-a47ad4d8fb3a","ios":"levelo://app?vid=4fe5e9bb-c9df-4b3d-a524-a47ad4d8fb3a"},"vehicle_type_id":"4","last_reported":1746166482,"current_range_meters":18000,"station_id":"ce4bh392rcd13ifvqdm0","pricing_plan_id":"cebpf4jnsgd1na2vs0mg"},{"bike_id":"9066c029-08a1-42ef-86d3-02d58dc5e505","system_id":"levelo_inurba_marseille","lat":43.29601,"lon":5.38095,"is_reserved":false,"is_disabled":false,"rental_uris":{"android":"levelo://app?vid=9066c029-08a1-42ef-86d3-02d58dc5e505","ios":"levelo://app?vid=9066c029-08a1-42ef-86d3-02d58dc5e505"},"vehicle_type_id":"4","last_reported":1746166482,"current_range_meters":16000,"station_id":"ce4bgl12rcd13ifvqbo0","pricing_plan_id":"cebpf4jnsgd1na2vs0mg"},{"bike_id":"fea90467-7b9b-451d-849d-003674ab8347","system_id":"levelo_inurba_marseille","lat":43.27227,"lon":5.39193,"is_reserved":false,"is_disabled":true,"rental_uris":{"android":"levelo://app?vid=fea90467-7b9b-451d-849d-003674ab8347","ios":"levelo://app?vid=fea90467-7b9b-451d-849d-003674ab8347"},"vehicle_type_id":"4","last_reported":1746166482,"current_range_meters":16000,"station_id":"ce4bhhp2rcd13ifvqfm0","pricing_plan_id":"cebpf4jnsgd1na2vs0mg"},{"bike_id":"b5f431d2-6627-435a-971a-a344e82f47c9","system_id":"levelo_inurba_marseille","lat":43.30943,"lon":5.40142,"is_reserved":false,"is_disabled":false,"rental_uris":{"android":"levelo://app?vid=b5f431d2-6627-435a-971a-a344e82f47c9","ios":"levelo://app?vid=b5f431d2-6627-435a-971a-a344e82f47c9"},"vehicle_type_id":"4","last_reported":1746166482,"current_range_meters":16000,"station_id":"ce4bgvp2rcd13ifvqct0","pricing_plan_id":"cebpf4jnsgd1na2vs0mg"},{"bike_id":"5df0f82b-f3fc-4428-8539-f9699aeaf67f","system_id":"levelo_inurba_marseille","lat":43.29244,"lon":5.40183,"is_reserved":false,"is_disabled":false,"rental_uris":{"android":"levelo://app?vid=5df0f82b-f3fc-4428-8539-f9699aeaf67f","ios":"levelo://app?vid=5df0f82b-f3fc-4428-8539-f9699aeaf67f"},"vehicle_type_id":"4","last_reported":1746166482,"current_range_meters":16000,"station_id":"","pricing_plan_id":"cebpf4jnsgd1na2vs0mg"},{"bike_id":"68921982-9440-4ed6-a9fd-a5361982dcf6","system_id":"levelo_inurba_marseille","lat":43.26558,"lon":5.39053,"is_reserved":false,"is_disabled":true,"rental_uris":{"android":"levelo://app?vid=68921982-9440-4ed6-a9fd-a5361982dcf6","ios":"levelo://app?vid=68921982-9440-4ed6-a9fd-a5361982dcf6"},"vehicle_type_id":"4","last_reported":1746166482,"current_range_meters":16400,"station_id":"ce4bhe12rcd13ifvqf30","pricing_plan_id":"cebpf4jnsgd1na2vs0mg"},{"bike_id":"da658829-0fa2-41f3-ad48-9d30aae08333","system_id":"levelo_inurba_marseille","lat":43.3058,"lon":5.39912,"is_reserved":false,"is_disabled":false,"rental_uris":{"android":"levelo://app?vid=da658829-0fa2-41f3-ad48-9d30aae08333","ios":"levelo://app?vid=da658829-0fa2-41f3-ad48-9d30aae08333"},"vehicle_type_id":"4","last_reported":1746166482,"current_range_meters":16400,"station_id":"","pricing_plan_id":"cebpf4jnsgd1na2vs0mg"},{"bike_id":"8b3ec479-d8ee-41d6-be01-673e6894d710","system_id":"levelo_inurba_marseille","lat":43.2904,"lon":5.3998,"is_reserved":false,"is_disabled":false,"rental_uris":{"android":"levelo://app?vid=8b3ec479-d8ee-41d6-be01-673e6894d710","ios":"levelo://app?vid=8b3ec479-d8ee-41d6-be01-673e6894d710"},"vehicle_type_id":"4","last_reported":1746166482,"current_range_meters":16400,"station_id":"ce4bh392rcd13ifvqdm0","pricing_plan_id":"cebpf4jnsgd1na2vs0mg"},{"bike_id":"fc4c4e12-8bd1-4978-b004-eee184fc087d","system_id":"levelo_inurba_marseille","lat":43.31726,"lon":5.40442,"is_reserved":false,"is_disabled":false,"rental_uris":{"android":"levelo://app?vid=fc4c4e12-8bd1-4978-b004-eee184fc087d","ios":"levelo://app?vid=fc4c4e12-8bd1-4978-b004-eee184fc087d"},"vehicle_type_id":"4","last_reported":1746166482,"current_range_meters":16400,"station_id":"","pricing_plan_id":"cebpf4jnsgd1na2vs0mg"},{"bike_id":"2bc95b1b-bdcb-40d6-b304-8b84fb2bac92","system_id":"levelo_inurba_marseille","lat":43.30637,"lon":5.40077,"is_reserved":false,"is_disabled":false,"rental_uris":{"android":"levelo://app?vid=2bc95b1b-bdcb-40d6-b304-8b84fb2bac92","ios":"levelo://app?vid=2bc95b1b-bdcb-40d6-b304-8b84fb2bac92"},"vehicle_type_id":"4","last_reported":1746166482,"current_range_meters":16400,"station_id":"ce4bh112rcd13ifvqda0","pricing_plan_id":"cebpf4jnsgd1na2vs0mg"},{"bike_id":"8718cec8-a12b-446a-91cc-5f58d497e6e3","system_id":"levelo_inurba_marseille","lat":43.31491,"lon":5.37304,"is_reserved":false,"is_disabled":false,"rental_uris":{"android":"levelo://app?vid=8718cec8-a12b-446a-91cc-5f58d497e6e3","ios":"levelo://app?vid=8718cec8-a12b-446a-91cc-5f58d497e6e3"},"vehicle_type_id":"4","last_reported":1746166482,"current_range_meters":16800,"station_id":"ce4bgt12rcd13ifvqcd0","pricing_plan_id":"cebpf4jnsgd1na2vs0mg"},{"bike_id":"2df5fd02-87ab-45e1-835c-dba4ad09927e","system_id":"levelo_inurba_marseille","lat":43.28665,"lon":5.39999,"is_reserved":false,"is_disabled":false,"rental_uris":{"android":"levelo://app?vid=2df5fd02-87ab-45e1-835c-dba4ad09927e","ios":"levelo://app?vid=2df5fd02-87ab-45e1-835c-dba4ad09927e"},"vehicle_type_id":"4","last_reported":1746166482,"current_range_meters":16800,"station_id":"","pricing_plan_id":"cebpf4jnsgd1na2vs0mg"},{"bike_id":"4b2069b6-a1e2-411d-a04c-bc77d00af722","system_id":"levelo_inurba_marseille","lat":43.2856,"lon":5.39494,"is_reserved":false,"is_disabled":false,"rental_uris":{"android":"levelo://app?vid=4b2069b6-a1e2-411d-a04c-bc77d00af722","ios":"levelo://app?vid=4b2069b6-a1e2-411d-a04c-bc77d00af722"},"vehicle_type_id":"4","last_reported":1746166482,"current_range_meters":16800,"station_id":"ce4bh292rcd13ifvqdg0","pricing_plan_id":"cebpf4jnsgd1na2vs0mg"},{"bike_id":"16642b6d-02c6-46a2-a97a-2c5e5b9950e1","system_id":"levelo_inurba_marseille","lat":43.265661,"lon":5.39006,"is_reserved":false,"is_disabled":false,"rental_uris":{"android":"levelo://app?vid=16642b6d-02c6-46a2-a97a-2c5e5b9950e1","ios":"levelo://app?vid=16642b6d-02c6-46a2-a97a-2c5e5b9950e1"},"vehicle_type_id":"4","last_reported":1746166482,"current_range_meters":16800,"station_id":"ce4bhe12rcd13ifvqf30","pricing_plan_id":"cebpf4jnsgd1na2vs0mg"},{"bike_id":"408d0f78-822b-459f-b640-c83ccd645bfe","system_id":"levelo_inurba_marseille","lat":43.31503,"lon":5.37302,"is_reserved":false,"is_disabled":false,"rental_uris":{"android":"levelo://app?vid=408d0f78-822b-459f-b640-c83ccd645bfe","ios":"levelo://app?vid=408d0f78-822b-459f-b640-c83ccd645bfe"},"vehicle_type_id":"4","last_reported":1746166482,"current_range_meters":16800,"station_id":"ce4bgt12rcd13ifvqcd0","pricing_plan_id":"cebpf4jnsgd1na2vs0mg"},{"bike_id":"14498fc5-0949-4dab-96dd-86f8d2d8b6ad","system_id":"levelo_inurba_marseille","lat":43.31076,"lon":5.42441,"is_reserved":false,"is_disabled":true,"rental_uris":{"android":"levelo://app?vid=14498fc5-0949-4dab-96dd-86f8d2d8b6ad","ios":"levelo://app?vid=14498fc5-0949-4dab-96dd-86f8d2d8b6ad"},"vehicle_type_id":"4","last_reported":1746166482,"current_range_meters":16800,"station_id":"ce4bhp92rcd13ifvqhag","pricing_plan_id":"cebpf4jnsgd1na2vs0mg"},{"bike_id":"da178549-fec5-41e6-a279-aab50a87d02c","system_id":"levelo_inurba_marseille","lat":43.30602,"lon":5.37166,"is_reserved":false,"is_disabled":true,"rental_uris":{"android":"levelo://app?vid=da178549-fec5-41e6-a279-aab50a87d02c","ios":"levelo://app?vid=da178549-fec5-41e6-a279-aab50a87d02c"},"vehicle_type_id":"4","last_reported":1746166482,"current_range_meters":17200,"station_id":"ce4bgqh2rcd13ifvqc4g","pricing_plan_id":"cebpf4jnsgd1na2vs0mg"},{"bike_id":"5fd15870-1b92-4efa-95ea-745f6d882214","system_id":"levelo_inurba_marseille","lat":43.32537,"lon":5.41462,"is_reserved":false,"is_disabled":false,"rental_uris":{"android":"levelo://app?vid=5fd15870-1b92-4efa-95ea-745f6d882214","ios":"levelo://app?vid=5fd15870-1b92-4efa-95ea-745f6d882214"},"vehicle_type_id":"4","last_reported":1746166482,"current_range_meters":17200,"station_id":"ce4bhq12rcd13ifvqhhg","pricing_plan_id":"cebpf4jnsgd1na2vs0mg"},{"bike_id":"4526adce-2134-4817-a529-d9f7213d9762","system_id":"levelo_inurba_marseille","lat":43.33615,"lon":5.41033,"is_reserved":false,"is_disabled":false,"rental_uris":{"android":"levelo://app?vid=4526adce-2134-4817-a529-d9f7213d9762","ios":"levelo://app?vid=4526adce-2134-4817-a529-d9f7213d9762"},"vehicle_type_id":"4","last_reported":1746166482,"current_range_meters":20000,"station_id":"ce4bhqh2rcd13ifvqhmg","pricing_plan_id":"cebpf4jnsgd1na2vs0mg"},{"bike_id":"0af6d107-ab0a-468c-b778-73e1d61e7dff","system_id":"levelo_inurba_marseille","lat":43.32544,"lon":5.41461,"is_reserved":false,"is_disabled":false,"rental_uris":{"android":"levelo://app?vid=0af6d107-ab0a-468c-b778-73e1d61e7dff","ios":"levelo://app?vid=0af6d107-ab0a-468c-b778-73e1d61e7dff"},"vehicle_type_id":"4","last_reported":1746166482,"current_range_meters":17600,"station_id":"ce4bhq12rcd13ifvqhhg","pricing_plan_id":"cebpf4jnsgd1na2vs0mg"},{"bike_id":"b1a4767d-deb2-426b-93fc-660a6b9fbdc0","system_id":"levelo_inurba_marseille","lat":43.2928,"lon":5.40121,"is_reserved":false,"is_disabled":false,"rental_uris":{"android":"levelo://app?vid=b1a4767d-deb2-426b-93fc-660a6b9fbdc0","ios":"levelo://app?vid=b1a4767d-deb2-426b-93fc-660a6b9fbdc0"},"vehicle_type_id":"4","last_reported":1746166482,"current_range_meters":17600,"station_id":"ce4bh312rcd13ifvqdk0","pricing_plan_id":"cebpf4jnsgd1na2vs0mg"},{"bike_id":"a8b5e1b0-8a30-461f-a24b-b1f174dc7f1b","system_id":"levelo_inurba_marseille","lat":43.24071,"lon":5.37766,"is_reserved":false,"is_disabled":false,"rental_uris":{"android":"levelo://app?vid=a8b5e1b0-8a30-461f-a24b-b1f174dc7f1b","ios":"levelo://app?vid=a8b5e1b0-8a30-461f-a24b-b1f174dc7f1b"},"vehicle_type_id":"4","last_reported":1746166482,"current_range_meters":18000,"station_id":"ce4bhnp2rcd13ifvqgvg","pricing_plan_id":"cebpf4jnsgd1na2vs0mg"},{"bike_id":"e1061f71-22a7-4dbe-a2ea-a7600fb29f7c","system_id":"levelo_inurba_marseille","lat":43.27514,"lon":5.42453,"is_reserved":false,"is_disabled":false,"rental_uris":{"android":"levelo://app?vid=e1061f71-22a7-4dbe-a2ea-a7600fb29f7c","ios":"levelo://app?vid=e1061f71-22a7-4dbe-a2ea-a7600fb29f7c"},"vehicle_type_id":"4","last_reported":1746166482,"current_range_meters":18000,"station_id":"ce4bhn92rcd13ifvqgrg","pricing_plan_id":"cebpf4jnsgd1na2vs0mg"},{"bike_id":"9231ece3-bec7-46c9-97fb-445d703e34e4","system_id":"levelo_inurba_marseille","lat":43.3013,"lon":5.38792,"is_reserved":false,"is_disabled":true,"rental_uris":{"android":"levelo://app?vid=9231ece3-bec7-46c9-97fb-445d703e34e4","ios":"levelo://app?vid=9231ece3-bec7-46c9-97fb-445d703e34e4"},"vehicle_type_id":"4","last_reported":1746166482,"current_range_meters":18000,"station_id":"ce4bghh2rcd13ifvqb60","pricing_plan_id":"cebpf4jnsgd1na2vs0mg"},{"bike_id":"257a3c78-b9d0-47f4-b131-12078df227b4","system_id":"levelo_inurba_marseille","lat":43.30493,"lon":5.37914,"is_reserved":false,"is_disabled":false,"rental_uris":{"android":"levelo://app?vid=257a3c78-b9d0-47f4-b131-12078df227b4","ios":"levelo://app?vid=257a3c78-b9d0-47f4-b131-12078df227b4"},"vehicle_type_id":"4","last_reported":1746166482,"current_range_meters":18000,"station_id":"ce4bgup2rcd13ifvqcn0","pricing_plan_id":"cebpf4jnsgd1na2vs0mg"},{"bike_id":"474c785d-c06e-44f7-8565-44010492b06c","system_id":"levelo_inurba_marseille","lat":43.33768,"lon":5.37444,"is_reserved":false,"is_disabled":false,"rental_uris":{"android":"levelo://app?vid=474c785d-c06e-44f7-8565-44010492b06c","ios":"levelo://app?vid=474c785d-c06e-44f7-8565-44010492b06c"},"vehicle_type_id":"4","last_reported":1746166482,"current_range_meters":18000,"station_id":"","pricing_plan_id":"cebpf4jnsgd1na2vs0mg"},{"bike_id":"bce70e28-5d5b-41b5-9bc1-36069ca69124","system_id":"levelo_inurba_marseille","lat":43.31746,"lon":5.39032,"is_reserved":false,"is_disabled":true,"rental_uris":{"android":"levelo://app?vid=bce70e28-5d5b-41b5-9bc1-36069ca69124","ios":"levelo://app?vid=bce70e28-5d5b-41b5-9bc1-36069ca69124"},"vehicle_type_id":"4","last_reported":1746166482,"current_range_meters":18000,"station_id":"ce4bhqp2rcd13ifvqhng","pricing_plan_id":"cebpf4jnsgd1na2vs0mg"},{"bike_id":"121322ff-1b29-4a85-88c0-1ab0c6c2dfb6","system_id":"levelo_inurba_marseille","lat":43.32467,"lon":5.36585,"is_reserved":false,"is_disabled":false,"rental_uris":{"android":"levelo://app?vid=121322ff-1b29-4a85-88c0-1ab0c6c2dfb6","ios":"levelo://app?vid=121322ff-1b29-4a85-88c0-1ab0c6c2dfb6"},"vehicle_type_id":"4","last_reported":1746166482,"current_range_meters":18000,"station_id":"ce4bhs12rcd13ifvqhvg","pricing_plan_id":"cebpf4jnsgd1na2vs0mg"},{"bike_id":"2aebf381-c0c2-4592-913d-c629f718b4cf","system_id":"levelo_inurba_marseille","lat":43.29927,"lon":5.36527,"is_reserved":false,"is_disabled":false,"rental_uris":{"android":"levelo://app?vid=2aebf381-c0c2-4592-913d-c629f718b4cf","ios":"levelo://app?vid=2aebf381-c0c2-4592-913d-c629f718b4cf"},"vehicle_type_id":"4","last_reported":1746166482,"current_range_meters":18800,"station_id":"ce4bgm92rcd13ifvqbr0","pricing_plan_id":"cebpf4jnsgd1na2vs0mg"},{"bike_id":"7ad6e8e8-4d18-486c-a162-b3a23d49866e","system_id":"levelo_inurba_marseille","lat":43.28944,"lon":5.39621,"is_reserved":false,"is_disabled":false,"rental_uris":{"android":"levelo://app?vid=7ad6e8e8-4d18-486c-a162-b3a23d49866e","ios":"levelo://app?vid=7ad6e8e8-4d18-486c-a162-b3a23d49866e"},"vehicle_type_id":"4","last_reported":1746166482,"current_range_meters":18800,"station_id":"ce4bh3h2rcd13ifvqdn0","pricing_plan_id":"cebpf4jnsgd1na2vs0mg"},{"bike_id":"8c27b8ae-76fb-4a34-9566-9536d4e5935e","system_id":"levelo_inurba_marseille","lat":43.29253,"lon":5.40172,"is_reserved":false,"is_disabled":false,"rental_uris":{"android":"levelo://app?vid=8c27b8ae-76fb-4a34-9566-9536d4e5935e","ios":"levelo://app?vid=8c27b8ae-76fb-4a34-9566-9536d4e5935e"},"vehicle_type_id":"4","last_reported":1746166482,"current_range_meters":18800,"station_id":"ce4bh312rcd13ifvqdk0","pricing_plan_id":"cebpf4jnsgd1na2vs0mg"},{"bike_id":"fb970dc0-2974-4aad-b2a9-f4298230f16a","system_id":"levelo_inurba_marseille","lat":43.23148,"lon":5.43707,"is_reserved":false,"is_disabled":false,"rental_uris":{"android":"levelo://app?vid=fb970dc0-2974-4aad-b2a9-f4298230f16a","ios":"levelo://app?vid=fb970dc0-2974-4aad-b2a9-f4298230f16a"},"vehicle_type_id":"4","last_reported":1746166482,"current_range_meters":18800,"station_id":"ce4bhmp2rcd13ifvqgog","pricing_plan_id":"cebpf4jnsgd1na2vs0mg"},{"bike_id":"1e9b1932-8f22-41de-b983-df6139cd61d4","system_id":"levelo_inurba_marseille","lat":43.29639,"lon":5.40601,"is_reserved":false,"is_disabled":false,"rental_uris":{"android":"levelo://app?vid=1e9b1932-8f22-41de-b983-df6139cd61d4","ios":"levelo://app?vid=1e9b1932-8f22-41de-b983-df6139cd61d4"},"vehicle_type_id":"4","last_reported":1746166482,"current_range_meters":18800,"station_id":"ce4bh0h2rcd13ifvqd60","pricing_plan_id":"cebpf4jnsgd1na2vs0mg"},{"bike_id":"93649171-4459-4782-b5fe-da9af4a333dc","system_id":"levelo_inurba_marseille","lat":43.23593,"lon":5.40341,"is_reserved":false,"is_disabled":false,"rental_uris":{"android":"levelo://app?vid=93649171-4459-4782-b5fe-da9af4a333dc","ios":"levelo://app?vid=93649171-4459-4782-b5fe-da9af4a333dc"},"vehicle_type_id":"4","last_reported":1746166482,"current_range_meters":18800,"station_id":"","pricing_plan_id":"cebpf4jnsgd1na2vs0mg"},{"bike_id":"743e0db9-95cb-4331-8456-7fabac10b62b","system_id":"levelo_inurba_marseille","lat":43.314781,"lon":5.373029,"is_reserved":false,"is_disabled":false,"rental_uris":{"android":"levelo://app?vid=743e0db9-95cb-4331-8456-7fabac10b62b","ios":"levelo://app?vid=743e0db9-95cb-4331-8456-7fabac10b62b"},"vehicle_type_id":"4","last_reported":1746166482,"current_range_meters":19200,"station_id":"ce4bgt12rcd13ifvqcd0","pricing_plan_id":"cebpf4jnsgd1na2vs0mg"},{"bike_id":"3895ea6f-f5b9-4e07-adaa-8691e8bafbb8","system_id":"levelo_inurba_marseille","lat":43.24813,"lon":5.37464,"is_reserved":false,"is_disabled":true,"rental_uris":{"android":"levelo://app?vid=3895ea6f-f5b9-4e07-adaa-8691e8bafbb8","ios":"levelo://app?vid=3895ea6f-f5b9-4e07-adaa-8691e8bafbb8"},"vehicle_type_id":"4","last_reported":1746166482,"current_range_meters":18800,"station_id":"ce4bhgh2rcd13ifvqfb0","pricing_plan_id":"cebpf4jnsgd1na2vs0mg"},{"bike_id":"dddaff1d-b6b1-490a-a5fc-ed212f3d28d3","system_id":"levelo_inurba_marseille","lat":43.2997,"lon":5.38492,"is_reserved":false,"is_disabled":false,"rental_uris":{"android":"levelo://app?vid=dddaff1d-b6b1-490a-a5fc-ed212f3d28d3","ios":"levelo://app?vid=dddaff1d-b6b1-490a-a5fc-ed212f3d28d3"},"vehicle_type_id":"4","last_reported":1746166482,"current_range_meters":18800,"station_id":"ce4bgj92rcd13ifvqbd0","pricing_plan_id":"cebpf4jnsgd1na2vs0mg"},{"bike_id":"151b1ba6-ab04-456b-bdc2-2937e6c9b5d9","system_id":"levelo_inurba_marseille","lat":43.28931,"lon":5.38404,"is_reserved":false,"is_disabled":false,"rental_uris":{"android":"levelo://app?vid=151b1ba6-ab04-456b-bdc2-2937e6c9b5d9","ios":"levelo://app?vid=151b1ba6-ab04-456b-bdc2-2937e6c9b5d9"},"vehicle_type_id":"4","last_reported":1746166482,"current_range_meters":18000,"station_id":"ce4bh612rcd13ifvqe6g","pricing_plan_id":"cebpf4jnsgd1na2vs0mg"},{"bike_id":"d3e08c48-9dd8-4404-ba19-6205d6466313","system_id":"levelo_inurba_marseille","lat":43.30252,"lon":5.39977,"is_reserved":false,"is_disabled":false,"rental_uris":{"android":"levelo://app?vid=d3e08c48-9dd8-4404-ba19-6205d6466313","ios":"levelo://app?vid=d3e08c48-9dd8-4404-ba19-6205d6466313"},"vehicle_type_id":"4","last_reported":1746166482,"current_range_meters":19200,"station_id":"","pricing_plan_id":"cebpf4jnsgd1na2vs0mg"},{"bike_id":"fe631124-26fc-4686-891a-f0a3f167d58e","system_id":"levelo_inurba_marseille","lat":43.308917,"lon":5.371963,"is_reserved":false,"is_disabled":false,"rental_uris":{"android":"levelo://app?vid=fe631124-26fc-4686-891a-f0a3f167d58e","ios":"levelo://app?vid=fe631124-26fc-4686-891a-f0a3f167d58e"},"vehicle_type_id":"4","last_reported":1746166482,"current_range_meters":19200,"station_id":"ce4bguh2rcd13ifvqckg","pricing_plan_id":"cebpf4jnsgd1na2vs0mg"},{"bike_id":"efaf1b5c-26d3-40d3-92e9-7f3883b8db84","system_id":"levelo_inurba_marseille","lat":43.31724,"lon":5.37689,"is_reserved":false,"is_disabled":false,"rental_uris":{"android":"levelo://app?vid=efaf1b5c-26d3-40d3-92e9-7f3883b8db84","ios":"levelo://app?vid=efaf1b5c-26d3-40d3-92e9-7f3883b8db84"},"vehicle_type_id":"4","last_reported":1746166482,"current_range_meters":19200,"station_id":"ce4bgth2rcd13ifvqch0","pricing_plan_id":"cebpf4jnsgd1na2vs0mg"},{"bike_id":"062763ac-59eb-4dfb-aa76-de9f18d6d07c","system_id":"levelo_inurba_marseille","lat":43.32354,"lon":5.40615,"is_reserved":false,"is_disabled":false,"rental_uris":{"android":"levelo://app?vid=062763ac-59eb-4dfb-aa76-de9f18d6d07c","ios":"levelo://app?vid=062763ac-59eb-4dfb-aa76-de9f18d6d07c"},"vehicle_type_id":"4","last_reported":1746166482,"current_range_meters":19200,"station_id":"ce4bhq92rcd13ifvqhjg","pricing_plan_id":"cebpf4jnsgd1na2vs0mg"},{"bike_id":"a97173ea-2c39-436e-884c-030bcf03370b","system_id":"levelo_inurba_marseille","lat":43.28576,"lon":5.39536,"is_reserved":false,"is_disabled":false,"rental_uris":{"android":"levelo://app?vid=a97173ea-2c39-436e-884c-030bcf03370b","ios":"levelo://app?vid=a97173ea-2c39-436e-884c-030bcf03370b"},"vehicle_type_id":"4","last_reported":1746166482,"current_range_meters":19600,"station_id":"ce4bh292rcd13ifvqdg0","pricing_plan_id":"cebpf4jnsgd1na2vs0mg"},{"bike_id":"0510f0ab-7860-43ee-822e-f76534683a17","system_id":"levelo_inurba_marseille","lat":43.30668,"lon":5.40078,"is_reserved":false,"is_disabled":false,"rental_uris":{"android":"levelo://app?vid=0510f0ab-7860-43ee-822e-f76534683a17","ios":"levelo://app?vid=0510f0ab-7860-43ee-822e-f76534683a17"},"vehicle_type_id":"4","last_reported":1746166482,"current_range_meters":19600,"station_id":"ce4bh112rcd13ifvqda0","pricing_plan_id":"cebpf4jnsgd1na2vs0mg"},{"bike_id":"47d9f31c-5c6c-4f42-aca8-d6d8dc9c50c6","system_id":"levelo_inurba_marseille","lat":43.27495,"lon":5.42455,"is_reserved":false,"is_disabled":false,"rental_uris":{"android":"levelo://app?vid=47d9f31c-5c6c-4f42-aca8-d6d8dc9c50c6","ios":"levelo://app?vid=47d9f31c-5c6c-4f42-aca8-d6d8dc9c50c6"},"vehicle_type_id":"4","last_reported":1746166482,"current_range_meters":19600,"station_id":"ce4bhn92rcd13ifvqgrg","pricing_plan_id":"cebpf4jnsgd1na2vs0mg"},{"bike_id":"8351fa19-aa0e-4318-b95b-f1fb285920d9","system_id":"levelo_inurba_marseille","lat":43.22923,"lon":5.35384,"is_reserved":false,"is_disabled":true,"rental_uris":{"android":"levelo://app?vid=8351fa19-aa0e-4318-b95b-f1fb285920d9","ios":"levelo://app?vid=8351fa19-aa0e-4318-b95b-f1fb285920d9"},"vehicle_type_id":"4","last_reported":1746166482,"current_range_meters":19600,"station_id":"cpo3532slgdg3j2ikp40","pricing_plan_id":"cebpf4jnsgd1na2vs0mg"},{"bike_id":"0a906cd2-32e4-4888-9c0b-021fc20d3732","system_id":"levelo_inurba_marseille","lat":43.26935,"lon":5.38651,"is_reserved":false,"is_disabled":false,"rental_uris":{"android":"levelo://app?vid=0a906cd2-32e4-4888-9c0b-021fc20d3732","ios":"levelo://app?vid=0a906cd2-32e4-4888-9c0b-021fc20d3732"},"vehicle_type_id":"4","last_reported":1746166482,"current_range_meters":19600,"station_id":"ce4bhh92rcd13ifvqfh0","pricing_plan_id":"cebpf4jnsgd1na2vs0mg"},{"bike_id":"a0831a68-3f09-452c-88ec-8673b0f2f7c5","system_id":"levelo_inurba_marseille","lat":43.29266,"lon":5.40149,"is_reserved":false,"is_disabled":false,"rental_uris":{"android":"levelo://app?vid=a0831a68-3f09-452c-88ec-8673b0f2f7c5","ios":"levelo://app?vid=a0831a68-3f09-452c-88ec-8673b0f2f7c5"},"vehicle_type_id":"4","last_reported":1746166482,"current_range_meters":19600,"station_id":"ce4bh312rcd13ifvqdk0","pricing_plan_id":"cebpf4jnsgd1na2vs0mg"},{"bike_id":"cac8f2c4-237e-4ad0-bc63-eea260a5f4cb","system_id":"levelo_inurba_marseille","lat":43.30589,"lon":5.39349,"is_reserved":false,"is_disabled":false,"rental_uris":{"android":"levelo://app?vid=cac8f2c4-237e-4ad0-bc63-eea260a5f4cb","ios":"levelo://app?vid=cac8f2c4-237e-4ad0-bc63-eea260a5f4cb"},"vehicle_type_id":"4","last_reported":1746166482,"current_range_meters":19600,"station_id":"ce4bh0p2rcd13ifvqd80","pricing_plan_id":"cebpf4jnsgd1na2vs0mg"},{"bike_id":"cf480f4c-1d3b-40e3-9184-e4e306746abe","system_id":"levelo_inurba_marseille","lat":43.26055,"lon":5.39391,"is_reserved":false,"is_disabled":false,"rental_uris":{"android":"levelo://app?vid=cf480f4c-1d3b-40e3-9184-e4e306746abe","ios":"levelo://app?vid=cf480f4c-1d3b-40e3-9184-e4e306746abe"},"vehicle_type_id":"4","last_reported":1746166482,"current_range_meters":19600,"station_id":"ce4bhh92rcd13ifvqfj0","pricing_plan_id":"cebpf4jnsgd1na2vs0mg"},{"bike_id":"2309f533-31e8-4876-908e-f017d496d5e6","system_id":"levelo_inurba_marseille","lat":43.24073,"lon":5.37749,"is_reserved":false,"is_disabled":false,"rental_uris":{"android":"levelo://app?vid=2309f533-31e8-4876-908e-f017d496d5e6","ios":"levelo://app?vid=2309f533-31e8-4876-908e-f017d496d5e6"},"vehicle_type_id":"4","last_reported":1746166482,"current_range_meters":19600,"station_id":"ce4bhnp2rcd13ifvqgvg","pricing_plan_id":"cebpf4jnsgd1na2vs0mg"},{"bike_id":"c11bfbb4-fc52-46eb-97e4-8279ca5cdec9","system_id":"levelo_inurba_marseille","lat":43.29627,"lon":5.38107,"is_reserved":false,"is_disabled":false,"rental_uris":{"android":"levelo://app?vid=c11bfbb4-fc52-46eb-97e4-8279ca5cdec9","ios":"levelo://app?vid=c11bfbb4-fc52-46eb-97e4-8279ca5cdec9"},"vehicle_type_id":"4","last_reported":1746166482,"current_range_meters":20000,"station_id":"ce4bgl12rcd13ifvqbo0","pricing_plan_id":"cebpf4jnsgd1na2vs0mg"},{"bike_id":"32eabf7c-04fb-483b-919f-88fd6158f4da","system_id":"levelo_inurba_marseille","lat":43.3133,"lon":5.39747,"is_reserved":false,"is_disabled":false,"rental_uris":{"android":"levelo://app?vid=32eabf7c-04fb-483b-919f-88fd6158f4da","ios":"levelo://app?vid=32eabf7c-04fb-483b-919f-88fd6158f4da"},"vehicle_type_id":"4","last_reported":1746166482,"current_range_meters":20000,"station_id":"","pricing_plan_id":"cebpf4jnsgd1na2vs0mg"},{"bike_id":"c27137da-9fac-4f5b-9d19-80ac6fedb0b9","system_id":"levelo_inurba_marseille","lat":43.26554,"lon":5.39008,"is_reserved":false,"is_disabled":false,"rental_uris":{"android":"levelo://app?vid=c27137da-9fac-4f5b-9d19-80ac6fedb0b9","ios":"levelo://app?vid=c27137da-9fac-4f5b-9d19-80ac6fedb0b9"},"vehicle_type_id":"4","last_reported":1746166482,"current_range_meters":20000,"station_id":"ce4bhe12rcd13ifvqf30","pricing_plan_id":"cebpf4jnsgd1na2vs0mg"},{"bike_id":"03d83779-ce08-4060-964c-a30847c37961","system_id":"levelo_inurba_marseille","lat":43.302105,"lon":5.39474,"is_reserved":false,"is_disabled":false,"rental_uris":{"android":"levelo://app?vid=03d83779-ce08-4060-964c-a30847c37961","ios":"levelo://app?vid=03d83779-ce08-4060-964c-a30847c37961"},"vehicle_type_id":"4","last_reported":1746166482,"current_range_meters":20000,"station_id":"ce4bh0p2rcd13ifvqd70","pricing_plan_id":"cebpf4jnsgd1na2vs0mg"},{"bike_id":"5cb0cd53-fd00-410e-8d48-8332efef234d","system_id":"levelo_inurba_marseille","lat":43.30911,"lon":5.36839,"is_reserved":false,"is_disabled":false,"rental_uris":{"android":"levelo://app?vid=5cb0cd53-fd00-410e-8d48-8332efef234d","ios":"levelo://app?vid=5cb0cd53-fd00-410e-8d48-8332efef234d"},"vehicle_type_id":"4","last_reported":1746166482,"current_range_meters":22000,"station_id":"ce4bgn92rcd13ifvqbvg","pricing_plan_id":"cebpf4jnsgd1na2vs0mg"},{"bike_id":"f6ab6464-a0ac-4697-941b-9137b62cbc47","system_id":"levelo_inurba_marseille","lat":43.29801,"lon":5.38101,"is_reserved":false,"is_disabled":false,"rental_uris":{"android":"levelo://app?vid=f6ab6464-a0ac-4697-941b-9137b62cbc47","ios":"levelo://app?vid=f6ab6464-a0ac-4697-941b-9137b62cbc47"},"vehicle_type_id":"4","last_reported":1746166482,"current_range_meters":20400,"station_id":"ce4bgip2rcd13ifvqbb0","pricing_plan_id":"cebpf4jnsgd1na2vs0mg"},{"bike_id":"0698fe93-2927-45ee-87b0-0eca040b221e","system_id":"levelo_inurba_marseille","lat":43.28943,"lon":5.36656,"is_reserved":false,"is_disabled":false,"rental_uris":{"android":"levelo://app?vid=0698fe93-2927-45ee-87b0-0eca040b221e","ios":"levelo://app?vid=0698fe93-2927-45ee-87b0-0eca040b221e"},"vehicle_type_id":"4","last_reported":1746166482,"current_range_meters":20000,"station_id":"ce4bhap2rcd13ifvqek0","pricing_plan_id":"cebpf4jnsgd1na2vs0mg"},{"bike_id":"d3534cd5-a64e-46c6-87d8-9849db256567","system_id":"levelo_inurba_marseille","lat":43.28411,"lon":5.37543,"is_reserved":false,"is_disabled":true,"rental_uris":{"android":"levelo://app?vid=d3534cd5-a64e-46c6-87d8-9849db256567","ios":"levelo://app?vid=d3534cd5-a64e-46c6-87d8-9849db256567"},"vehicle_type_id":"4","last_reported":1746166482,"current_range_meters":20400,"station_id":"ce4bh412rcd13ifvqds0","pricing_plan_id":"cebpf4jnsgd1na2vs0mg"},{"bike_id":"13a42e04-6481-4c46-a478-44486a9233b1","system_id":"levelo_inurba_marseille","lat":43.31476,"lon":5.37301,"is_reserved":false,"is_disabled":false,"rental_uris":{"android":"levelo://app?vid=13a42e04-6481-4c46-a478-44486a9233b1","ios":"levelo://app?vid=13a42e04-6481-4c46-a478-44486a9233b1"},"vehicle_type_id":"4","last_reported":1746166482,"current_range_meters":20400,"station_id":"ce4bgt12rcd13ifvqcd0","pricing_plan_id":"cebpf4jnsgd1na2vs0mg"},{"bike_id":"bc9b10eb-a079-4f0d-857a-d487abb50ec2","system_id":"levelo_inurba_marseille","lat":43.27609,"lon":5.36111,"is_reserved":false,"is_disabled":true,"rental_uris":{"android":"levelo://app?vid=bc9b10eb-a079-4f0d-857a-d487abb50ec2","ios":"levelo://app?vid=bc9b10eb-a079-4f0d-857a-d487abb50ec2"},"vehicle_type_id":"4","last_reported":1746166482,"current_range_meters":20800,"station_id":"ce4bgj92rcd13ifvqbe0","pricing_plan_id":"cebpf4jnsgd1na2vs0mg"},{"bike_id":"25323b1c-f8f2-4192-bf12-970d5039eb74","system_id":"levelo_inurba_marseille","lat":43.299378,"lon":5.385212,"is_reserved":false,"is_disabled":false,"rental_uris":{"android":"levelo://app?vid=25323b1c-f8f2-4192-bf12-970d5039eb74","ios":"levelo://app?vid=25323b1c-f8f2-4192-bf12-970d5039eb74"},"vehicle_type_id":"4","last_reported":1746166482,"current_range_meters":20400,"station_id":"ce4bgip2rcd13ifvqbb0","pricing_plan_id":"cebpf4jnsgd1na2vs0mg"},{"bike_id":"d4b8171c-3ac3-4d8c-b553-ffb62a2a0d8f","system_id":"levelo_inurba_marseille","lat":43.30931,"lon":5.40154,"is_reserved":false,"is_disabled":false,"rental_uris":{"android":"levelo://app?vid=d4b8171c-3ac3-4d8c-b553-ffb62a2a0d8f","ios":"levelo://app?vid=d4b8171c-3ac3-4d8c-b553-ffb62a2a0d8f"},"vehicle_type_id":"4","last_reported":1746166482,"current_range_meters":20800,"station_id":"ce4bgvp2rcd13ifvqct0","pricing_plan_id":"cebpf4jnsgd1na2vs0mg"},{"bike_id":"39076b67-439c-4600-bb36-021882825aef","system_id":"levelo_inurba_marseille","lat":43.30481,"lon":5.37909,"is_reserved":false,"is_disabled":false,"rental_uris":{"android":"levelo://app?vid=39076b67-439c-4600-bb36-021882825aef","ios":"levelo://app?vid=39076b67-439c-4600-bb36-021882825aef"},"vehicle_type_id":"4","last_reported":1746166482,"current_range_meters":20800,"station_id":"ce4bgup2rcd13ifvqcn0","pricing_plan_id":"cebpf4jnsgd1na2vs0mg"},{"bike_id":"330ba59d-3684-4168-baba-be1c494cb6d6","system_id":"levelo_inurba_marseille","lat":43.27494,"lon":5.42489,"is_reserved":false,"is_disabled":false,"rental_uris":{"android":"levelo://app?vid=330ba59d-3684-4168-baba-be1c494cb6d6","ios":"levelo://app?vid=330ba59d-3684-4168-baba-be1c494cb6d6"},