{"last_updated":1777449550,"ttl":60,"version":"2.2","data":{"bikes":[{"bike_id":"c3e1eb3b-ce0d-4c5a-882d-61b4a2662f9b","system_id":"levelo_inurba_marseille","lat":43.28684,"lon":5.38673,"is_reserved":false,"is_disabled":false,"rental_uris":{"android":"levelo://app?vid=c3e1eb3b-ce0d-4c5a-882d-61b4a2662f9b","ios":"levelo://app?vid=c3e1eb3b-ce0d-4c5a-882d-61b4a2662f9b"},"vehicle_type_id":"4","last_reported":1777449550,"current_range_meters":2800,"station_id":"ce4bh492rcd13ifvqdug","pricing_plan_id":"cebpf4jnsgd1na2vs0mg"},{"bike_id":"e2243172-8b97-4ad6-a3c5-06df07c82e76","system_id":"levelo_inurba_marseille","lat":43.2656,"lon":5.39016,"is_reserved":false,"is_disabled":false,"rental_uris":{"android":"levelo://app?vid=e2243172-8b97-4ad6-a3c5-06df07c82e76","ios":"levelo://app?vid=e2243172-8b97-4ad6-a3c5-06df07c82e76"},"vehicle_type_id":"4","last_reported":1777449550,"current_range_meters":2800,"station_id":"ce4bhe12rcd13ifvqf30","pricing_plan_id":"cebpf4jnsgd1na2vs0mg"},{"bike_id":"e8e310c2-92ce-41a9-84bc-ea8fa6b99f1a","system_id":"levelo_inurba_marseille","lat":43.32097,"lon":5.36774,"is_reserved":false,"is_disabled":false,"rental_uris":{"android":"levelo://app?vid=e8e310c2-92ce-41a9-84bc-ea8fa6b99f1a","ios":"levelo://app?vid=e8e310c2-92ce-41a9-84bc-ea8fa6b99f1a"},"vehicle_type_id":"4","last_reported":1777449550,"current_range_meters":2800,"station_id":"ce4bhrh2rcd13ifvqhug","pricing_plan_id":"cebpf4jnsgd1na2vs0mg"},{"bike_id":"b212ffb9-9e93-4c07-b099-2d4258d9c4b2","system_id":"levelo_inurba_marseille","lat":43.29521,"lon":5.39041,"is_reserved":false,"is_disabled":false,"rental_uris":{"android":"levelo://app?vid=b212ffb9-9e93-4c07-b099-2d4258d9c4b2","ios":"levelo://app?vid=b212ffb9-9e93-4c07-b099-2d4258d9c4b2"},"vehicle_type_id":"4","last_reported":1777449550,"current_range_meters":2800,"station_id":"ce4bh3p2rcd13ifvqdp0","pricing_plan_id":"cebpf4jnsgd1na2vs0mg"},{"bike_id":"4189a4e5-e32d-4ace-ba57-e9194861ce03","system_id":"levelo_inurba_marseille","lat":43.25572,"lon":5.38228,"is_reserved":false,"is_disabled":false,"rental_uris":{"android":"levelo://app?vid=4189a4e5-e32d-4ace-ba57-e9194861ce03","ios":"levelo://app?vid=4189a4e5-e32d-4ace-ba57-e9194861ce03"},"vehicle_type_id":"4","last_reported":1777449550,"current_range_meters":2800,"station_id":"ce4bhih2rcd13ifvqfs0","pricing_plan_id":"cebpf4jnsgd1na2vs0mg"},{"bike_id":"dc4f256b-dad1-4b0e-b0aa-70815278bacb","system_id":"levelo_inurba_marseille","lat":43.28967,"lon":5.39318,"is_reserved":false,"is_disabled":false,"rental_uris":{"android":"levelo://app?vid=dc4f256b-dad1-4b0e-b0aa-70815278bacb","ios":"levelo://app?vid=dc4f256b-dad1-4b0e-b0aa-70815278bacb"},"vehicle_type_id":"4","last_reported":1777449550,"current_range_meters":2800,"station_id":"","pricing_plan_id":"cebpf4jnsgd1na2vs0mg"},{"bike_id":"ae987c10-ec52-4089-8ab4-892c787c36e9","system_id":"levelo_inurba_marseille","lat":43.26214,"lon":5.38771,"is_reserved":false,"is_disabled":true,"rental_uris":{"android":"levelo://app?vid=ae987c10-ec52-4089-8ab4-892c787c36e9","ios":"levelo://app?vid=ae987c10-ec52-4089-8ab4-892c787c36e9"},"vehicle_type_id":"4","last_reported":1777449550,"current_range_meters":2800,"station_id":"","pricing_plan_id":"cebpf4jnsgd1na2vs0mg"},{"bike_id":"18cd8e51-dd4a-4686-a624-b5605e8c1286","system_id":"levelo_inurba_marseille","lat":43.2958,"lon":5.36728,"is_reserved":false,"is_disabled":false,"rental_uris":{"android":"levelo://app?vid=18cd8e51-dd4a-4686-a624-b5605e8c1286","ios":"levelo://app?vid=18cd8e51-dd4a-4686-a624-b5605e8c1286"},"vehicle_type_id":"4","last_reported":1777449550,"current_range_meters":3200,"station_id":"ce4bgph2rcd13ifvqc2g","pricing_plan_id":"cebpf4jnsgd1na2vs0mg"},{"bike_id":"2653d3c2-d0b1-4606-b75e-1fedc340b734","system_id":"levelo_inurba_marseille","lat":43.25936,"lon":5.40902,"is_reserved":false,"is_disabled":false,"rental_uris":{"android":"levelo://app?vid=2653d3c2-d0b1-4606-b75e-1fedc340b734","ios":"levelo://app?vid=2653d3c2-d0b1-4606-b75e-1fedc340b734"},"vehicle_type_id":"4","last_reported":1777449550,"current_range_meters":3200,"station_id":"ce4bhm92rcd13ifvqglg","pricing_plan_id":"cebpf4jnsgd1na2vs0mg"},{"bike_id":"5673a5d7-9dbc-42a3-b25f-57743f4c1f61","system_id":"levelo_inurba_marseille","lat":43.26679,"lon":5.38261,"is_reserved":false,"is_disabled":false,"rental_uris":{"android":"levelo://app?vid=5673a5d7-9dbc-42a3-b25f-57743f4c1f61","ios":"levelo://app?vid=5673a5d7-9dbc-42a3-b25f-57743f4c1f61"},"vehicle_type_id":"4","last_reported":1777449550,"current_range_meters":3200,"station_id":"ce4bhg92rcd13ifvqf90","pricing_plan_id":"cebpf4jnsgd1na2vs0mg"},{"bike_id":"79bab31a-b962-4862-9a1c-45274a395c6d","system_id":"levelo_inurba_marseille","lat":43.24076,"lon":5.37749,"is_reserved":false,"is_disabled":false,"rental_uris":{"android":"levelo://app?vid=79bab31a-b962-4862-9a1c-45274a395c6d","ios":"levelo://app?vid=79bab31a-b962-4862-9a1c-45274a395c6d"},"vehicle_type_id":"4","last_reported":1777449550,"current_range_meters":3200,"station_id":"ce4bhnp2rcd13ifvqgvg","pricing_plan_id":"cebpf4jnsgd1na2vs0mg"},{"bike_id":"9842e676-41f5-4cc8-bc52-d882871671f8","system_id":"levelo_inurba_marseille","lat":43.31704,"lon":5.43683,"is_reserved":false,"is_disabled":false,"rental_uris":{"android":"levelo://app?vid=9842e676-41f5-4cc8-bc52-d882871671f8","ios":"levelo://app?vid=9842e676-41f5-4cc8-bc52-d882871671f8"},"vehicle_type_id":"4","last_reported":1777449550,"current_range_meters":3200,"station_id":"ce4bhp92rcd13ifvqhcg","pricing_plan_id":"cebpf4jnsgd1na2vs0mg"},{"bike_id":"afde96ac-1493-4085-af72-e5da568a87fd","system_id":"levelo_inurba_marseille","lat":43.28462,"lon":5.48424,"is_reserved":false,"is_disabled":false,"rental_uris":{"android":"levelo://app?vid=afde96ac-1493-4085-af72-e5da568a87fd","ios":"levelo://app?vid=afde96ac-1493-4085-af72-e5da568a87fd"},"vehicle_type_id":"4","last_reported":1777449550,"current_range_meters":3200,"station_id":"st_d3svhcjqgbts73a3dn0g","pricing_plan_id":"cebpf4jnsgd1na2vs0mg"},{"bike_id":"94b1d427-102e-4c64-aa76-0c93e226150f","system_id":"levelo_inurba_marseille","lat":43.28476,"lon":5.48401,"is_reserved":false,"is_disabled":false,"rental_uris":{"android":"levelo://app?vid=94b1d427-102e-4c64-aa76-0c93e226150f","ios":"levelo://app?vid=94b1d427-102e-4c64-aa76-0c93e226150f"},"vehicle_type_id":"4","last_reported":1777449550,"current_range_meters":3600,"station_id":"st_d3svhcjqgbts73a3dn0g","pricing_plan_id":"cebpf4jnsgd1na2vs0mg"},{"bike_id":"d2276d1c-4dd8-4805-b674-72347073e05f","system_id":"levelo_inurba_marseille","lat":43.28863,"lon":5.4252,"is_reserved":false,"is_disabled":false,"rental_uris":{"android":"levelo://app?vid=d2276d1c-4dd8-4805-b674-72347073e05f","ios":"levelo://app?vid=d2276d1c-4dd8-4805-b674-72347073e05f"},"vehicle_type_id":"4","last_reported":1777449550,"current_range_meters":3600,"station_id":"st_d3b462108ojc7389ooeg","pricing_plan_id":"cebpf4jnsgd1na2vs0mg"},{"bike_id":"987eda33-b3ad-4fac-a63c-0e3ff496e921","system_id":"levelo_inurba_marseille","lat":43.32366,"lon":5.36784,"is_reserved":false,"is_disabled":false,"rental_uris":{"android":"levelo://app?vid=987eda33-b3ad-4fac-a63c-0e3ff496e921","ios":"levelo://app?vid=987eda33-b3ad-4fac-a63c-0e3ff496e921"},"vehicle_type_id":"4","last_reported":1777449550,"current_range_meters":3600,"station_id":"ce4bhsh2rcd13ifvqi2g","pricing_plan_id":"cebpf4jnsgd1na2vs0mg"},{"bike_id":"92b0e79d-5118-4cdc-a154-ad1d52d847b8","system_id":"levelo_inurba_marseille","lat":43.29608,"lon":5.36065,"is_reserved":false,"is_disabled":false,"rental_uris":{"android":"levelo://app?vid=92b0e79d-5118-4cdc-a154-ad1d52d847b8","ios":"levelo://app?vid=92b0e79d-5118-4cdc-a154-ad1d52d847b8"},"vehicle_type_id":"4","last_reported":1777449550,"current_range_meters":3600,"station_id":"","pricing_plan_id":"cebpf4jnsgd1na2vs0mg"},{"bike_id":"f00b1e18-b6b8-41f9-aaef-ac3ee9a775d3","system_id":"levelo_inurba_marseille","lat":43.26693,"lon":5.38255,"is_reserved":false,"is_disabled":false,"rental_uris":{"android":"levelo://app?vid=f00b1e18-b6b8-41f9-aaef-ac3ee9a775d3","ios":"levelo://app?vid=f00b1e18-b6b8-41f9-aaef-ac3ee9a775d3"},"vehicle_type_id":"4","last_reported":1777449550,"current_range_meters":3600,"station_id":"ce4bhg92rcd13ifvqf90","pricing_plan_id":"cebpf4jnsgd1na2vs0mg"},{"bike_id":"cb5fadec-fedd-4ad3-9963-bb31a2e6a27a","system_id":"levelo_inurba_marseille","lat":43.24392,"lon":5.37073,"is_reserved":false,"is_disabled":false,"rental_uris":{"android":"levelo://app?vid=cb5fadec-fedd-4ad3-9963-bb31a2e6a27a","ios":"levelo://app?vid=cb5fadec-fedd-4ad3-9963-bb31a2e6a27a"},"vehicle_type_id":"4","last_reported":1777449550,"current_range_meters":3600,"station_id":"ce4bhhh2rcd13ifvqfk0","pricing_plan_id":"cebpf4jnsgd1na2vs0mg"},{"bike_id":"6e5bcd42-44b6-4e0a-b44f-75ed2a7e875c","system_id":"levelo_inurba_marseille","lat":43.31329,"lon":5.3969,"is_reserved":false,"is_disabled":false,"rental_uris":{"android":"levelo://app?vid=6e5bcd42-44b6-4e0a-b44f-75ed2a7e875c","ios":"levelo://app?vid=6e5bcd42-44b6-4e0a-b44f-75ed2a7e875c"},"vehicle_type_id":"4","last_reported":1777449550,"current_range_meters":4000,"station_id":"ce4bgvp2rcd13ifvqcu0","pricing_plan_id":"cebpf4jnsgd1na2vs0mg"},{"bike_id":"cda7b0b0-ed21-4147-b607-dcdf239fcdd4","system_id":"levelo_inurba_marseille","lat":43.29716,"lon":5.37671,"is_reserved":false,"is_disabled":false,"rental_uris":{"android":"levelo://app?vid=cda7b0b0-ed21-4147-b607-dcdf239fcdd4","ios":"levelo://app?vid=cda7b0b0-ed21-4147-b607-dcdf239fcdd4"},"vehicle_type_id":"4","last_reported":1777449550,"current_range_meters":4000,"station_id":"ce4bgkh2rcd13ifvqbl0","pricing_plan_id":"cebpf4jnsgd1na2vs0mg"},{"bike_id":"f13c1412-9987-4b53-aa5c-79a6ecb2ba2d","system_id":"levelo_inurba_marseille","lat":43.32352,"lon":5.3674,"is_reserved":false,"is_disabled":false,"rental_uris":{"android":"levelo://app?vid=f13c1412-9987-4b53-aa5c-79a6ecb2ba2d","ios":"levelo://app?vid=f13c1412-9987-4b53-aa5c-79a6ecb2ba2d"},"vehicle_type_id":"4","last_reported":1777449550,"current_range_meters":4000,"station_id":"ce4bhsh2rcd13ifvqi2g","pricing_plan_id":"cebpf4jnsgd1na2vs0mg"},{"bike_id":"eec401be-82ad-4f63-b0db-33abd6b577d0","system_id":"levelo_inurba_marseille","lat":43.30127,"lon":5.43106,"is_reserved":false,"is_disabled":false,"rental_uris":{"android":"levelo://app?vid=eec401be-82ad-4f63-b0db-33abd6b577d0","ios":"levelo://app?vid=eec401be-82ad-4f63-b0db-33abd6b577d0"},"vehicle_type_id":"4","last_reported":1777449550,"current_range_meters":4000,"station_id":"st_d3js3co5814s73ftftug","pricing_plan_id":"cebpf4jnsgd1na2vs0mg"},{"bike_id":"8b4e6bd3-1e82-4277-a45a-3a8abaa4e3ab","system_id":"levelo_inurba_marseille","lat":43.28479,"lon":5.48397,"is_reserved":false,"is_disabled":false,"rental_uris":{"android":"levelo://app?vid=8b4e6bd3-1e82-4277-a45a-3a8abaa4e3ab","ios":"levelo://app?vid=8b4e6bd3-1e82-4277-a45a-3a8abaa4e3ab"},"vehicle_type_id":"4","last_reported":1777449550,"current_range_meters":4000,"station_id":"","pricing_plan_id":"cebpf4jnsgd1na2vs0mg"},{"bike_id":"c1fdc55c-a85b-4b94-b56b-911a03a5712c","system_id":"levelo_inurba_marseille","lat":43.27413,"lon":5.3942,"is_reserved":false,"is_disabled":true,"rental_uris":{"android":"levelo://app?vid=c1fdc55c-a85b-4b94-b56b-911a03a5712c","ios":"levelo://app?vid=c1fdc55c-a85b-4b94-b56b-911a03a5712c"},"vehicle_type_id":"4","last_reported":1777449550,"current_range_meters":4400,"station_id":"ce4bhdp2rcd13ifvqf20","pricing_plan_id":"cebpf4jnsgd1na2vs0mg"},{"bike_id":"bcd67e65-43b0-4b23-bb5c-0bdd7484ac57","system_id":"levelo_inurba_marseille","lat":43.33173,"lon":5.37785,"is_reserved":false,"is_disabled":false,"rental_uris":{"android":"levelo://app?vid=bcd67e65-43b0-4b23-bb5c-0bdd7484ac57","ios":"levelo://app?vid=bcd67e65-43b0-4b23-bb5c-0bdd7484ac57"},"vehicle_type_id":"4","last_reported":1777449550,"current_range_meters":4400,"station_id":"","pricing_plan_id":"cebpf4jnsgd1na2vs0mg"},{"bike_id":"4541a58b-5803-4873-8531-8182c7674429","system_id":"levelo_inurba_marseille","lat":43.28485,"lon":5.48425,"is_reserved":false,"is_disabled":false,"rental_uris":{"android":"levelo://app?vid=4541a58b-5803-4873-8531-8182c7674429","ios":"levelo://app?vid=4541a58b-5803-4873-8531-8182c7674429"},"vehicle_type_id":"4","last_reported":1777449550,"current_range_meters":4400,"station_id":"st_d3svhcjqgbts73a3dn0g","pricing_plan_id":"cebpf4jnsgd1na2vs0mg"},{"bike_id":"1bf6bc57-f8be-4912-882e-8fb7d21ff70a","system_id":"levelo_inurba_marseille","lat":43.28933,"lon":5.38388,"is_reserved":false,"is_disabled":true,"rental_uris":{"android":"levelo://app?vid=1bf6bc57-f8be-4912-882e-8fb7d21ff70a","ios":"levelo://app?vid=1bf6bc57-f8be-4912-882e-8fb7d21ff70a"},"vehicle_type_id":"4","last_reported":1777449550,"current_range_meters":4400,"station_id":"ce4bh612rcd13ifvqe6g","pricing_plan_id":"cebpf4jnsgd1na2vs0mg"},{"bike_id":"3d9aa5d3-c09e-43e4-8222-fe8d267fa584","system_id":"levelo_inurba_marseille","lat":43.27494,"lon":5.4245,"is_reserved":false,"is_disabled":false,"rental_uris":{"android":"levelo://app?vid=3d9aa5d3-c09e-43e4-8222-fe8d267fa584","ios":"levelo://app?vid=3d9aa5d3-c09e-43e4-8222-fe8d267fa584"},"vehicle_type_id":"4","last_reported":1777449550,"current_range_meters":4400,"station_id":"ce4bhn92rcd13ifvqgrg","pricing_plan_id":"cebpf4jnsgd1na2vs0mg"},{"bike_id":"76907408-a8ff-4688-9cbf-66e48bb415e8","system_id":"levelo_inurba_marseille","lat":43.28698,"lon":5.4668,"is_reserved":false,"is_disabled":false,"rental_uris":{"android":"levelo://app?vid=76907408-a8ff-4688-9cbf-66e48bb415e8","ios":"levelo://app?vid=76907408-a8ff-4688-9cbf-66e48bb415e8"},"vehicle_type_id":"4","last_reported":1777449550,"current_range_meters":4400,"station_id":"st_d6tc3vkotcvc738tfjhg","pricing_plan_id":"cebpf4jnsgd1na2vs0mg"},{"bike_id":"1e50c851-896e-44dc-a13c-da834270707c","system_id":"levelo_inurba_marseille","lat":43.2772,"lon":5.38937,"is_reserved":false,"is_disabled":true,"rental_uris":{"android":"levelo://app?vid=1e50c851-896e-44dc-a13c-da834270707c","ios":"levelo://app?vid=1e50c851-896e-44dc-a13c-da834270707c"},"vehicle_type_id":"4","last_reported":1777449550,"current_range_meters":4400,"station_id":"","pricing_plan_id":"cebpf4jnsgd1na2vs0mg"},{"bike_id":"b1b02246-22ea-48ef-bf03-02ba7ea06573","system_id":"levelo_inurba_marseille","lat":43.25817,"lon":5.39432,"is_reserved":false,"is_disabled":false,"rental_uris":{"android":"levelo://app?vid=b1b02246-22ea-48ef-bf03-02ba7ea06573","ios":"levelo://app?vid=b1b02246-22ea-48ef-bf03-02ba7ea06573"},"vehicle_type_id":"4","last_reported":1777449550,"current_range_meters":4400,"station_id":"ce4bhip2rcd13ifvqft0","pricing_plan_id":"cebpf4jnsgd1na2vs0mg"},{"bike_id":"975be63a-d29d-49ba-bbf4-c0400cc300f3","system_id":"levelo_inurba_marseille","lat":43.26594,"lon":5.39027,"is_reserved":false,"is_disabled":false,"rental_uris":{"android":"levelo://app?vid=975be63a-d29d-49ba-bbf4-c0400cc300f3","ios":"levelo://app?vid=975be63a-d29d-49ba-bbf4-c0400cc300f3"},"vehicle_type_id":"4","last_reported":1777449550,"current_range_meters":4400,"station_id":"ce4bhe12rcd13ifvqf30","pricing_plan_id":"cebpf4jnsgd1na2vs0mg"},{"bike_id":"870cf028-d317-4365-88b3-cfc8b2733cc6","system_id":"levelo_inurba_marseille","lat":43.28699,"lon":5.46681,"is_reserved":false,"is_disabled":false,"rental_uris":{"android":"levelo://app?vid=870cf028-d317-4365-88b3-cfc8b2733cc6","ios":"levelo://app?vid=870cf028-d317-4365-88b3-cfc8b2733cc6"},"vehicle_type_id":"4","last_reported":1777449550,"current_range_meters":4800,"station_id":"st_d6tc3vkotcvc738tfjhg","pricing_plan_id":"cebpf4jnsgd1na2vs0mg"},{"bike_id":"0ddb8284-2bde-4584-86e6-775b661de8b3","system_id":"levelo_inurba_marseille","lat":43.240796,"lon":5.37745,"is_reserved":false,"is_disabled":false,"rental_uris":{"android":"levelo://app?vid=0ddb8284-2bde-4584-86e6-775b661de8b3","ios":"levelo://app?vid=0ddb8284-2bde-4584-86e6-775b661de8b3"},"vehicle_type_id":"4","last_reported":1777449550,"current_range_meters":4800,"station_id":"ce4bhnp2rcd13ifvqgvg","pricing_plan_id":"cebpf4jnsgd1na2vs0mg"},{"bike_id":"e4a270f8-1b30-4210-b9af-92daf87dbcf1","system_id":"levelo_inurba_marseille","lat":43.28363,"lon":5.38626,"is_reserved":false,"is_disabled":false,"rental_uris":{"android":"levelo://app?vid=e4a270f8-1b30-4210-b9af-92daf87dbcf1","ios":"levelo://app?vid=e4a270f8-1b30-4210-b9af-92daf87dbcf1"},"vehicle_type_id":"4","last_reported":1777449550,"current_range_meters":4800,"station_id":"ce4bh492rcd13ifvqdvg","pricing_plan_id":"cebpf4jnsgd1na2vs0mg"},{"bike_id":"e03a9553-f014-4591-84d1-bb481db182e5","system_id":"levelo_inurba_marseille","lat":43.28698,"lon":5.46693,"is_reserved":false,"is_disabled":false,"rental_uris":{"android":"levelo://app?vid=e03a9553-f014-4591-84d1-bb481db182e5","ios":"levelo://app?vid=e03a9553-f014-4591-84d1-bb481db182e5"},"vehicle_type_id":"4","last_reported":1777449550,"current_range_meters":4800,"station_id":"st_d6tc3vkotcvc738tfjhg","pricing_plan_id":"cebpf4jnsgd1na2vs0mg"},{"bike_id":"f120cac2-a9bc-479e-b4f5-1ed41f54da0c","system_id":"levelo_inurba_marseille","lat":43.29967,"lon":5.38493,"is_reserved":false,"is_disabled":false,"rental_uris":{"android":"levelo://app?vid=f120cac2-a9bc-479e-b4f5-1ed41f54da0c","ios":"levelo://app?vid=f120cac2-a9bc-479e-b4f5-1ed41f54da0c"},"vehicle_type_id":"4","last_reported":1777449550,"current_range_meters":4800,"station_id":"ce4bgj92rcd13ifvqbd0","pricing_plan_id":"cebpf4jnsgd1na2vs0mg"},{"bike_id":"7d1e5e87-d5c3-470e-9139-27b574b248ca","system_id":"levelo_inurba_marseille","lat":43.30555,"lon":5.36536,"is_reserved":false,"is_disabled":false,"rental_uris":{"android":"levelo://app?vid=7d1e5e87-d5c3-470e-9139-27b574b248ca","ios":"levelo://app?vid=7d1e5e87-d5c3-470e-9139-27b574b248ca"},"vehicle_type_id":"4","last_reported":1777449550,"current_range_meters":4800,"station_id":"ce4bgs12rcd13ifvqcag","pricing_plan_id":"cebpf4jnsgd1na2vs0mg"},{"bike_id":"12d363a3-b8e3-43b8-90f7-065c7e41b0d9","system_id":"levelo_inurba_marseille","lat":43.24079,"lon":5.37747,"is_reserved":false,"is_disabled":false,"rental_uris":{"android":"levelo://app?vid=12d363a3-b8e3-43b8-90f7-065c7e41b0d9","ios":"levelo://app?vid=12d363a3-b8e3-43b8-90f7-065c7e41b0d9"},"vehicle_type_id":"4","last_reported":1777449550,"current_range_meters":4800,"station_id":"ce4bhnp2rcd13ifvqgvg","pricing_plan_id":"cebpf4jnsgd1na2vs0mg"},{"bike_id":"f074caaf-2cfe-4289-8708-d6da5880b4ed","system_id":"levelo_inurba_marseille","lat":43.2403,"lon":5.37713,"is_reserved":false,"is_disabled":false,"rental_uris":{"android":"levelo://app?vid=f074caaf-2cfe-4289-8708-d6da5880b4ed","ios":"levelo://app?vid=f074caaf-2cfe-4289-8708-d6da5880b4ed"},"vehicle_type_id":"4","last_reported":1777449550,"current_range_meters":4800,"station_id":"","pricing_plan_id":"cebpf4jnsgd1na2vs0mg"},{"bike_id":"02c77359-e587-4b70-aefe-44cb7d7ab9b5","system_id":"levelo_inurba_marseille","lat":43.313534,"lon":5.367179,"is_reserved":false,"is_disabled":false,"rental_uris":{"android":"levelo://app?vid=02c77359-e587-4b70-aefe-44cb7d7ab9b5","ios":"levelo://app?vid=02c77359-e587-4b70-aefe-44cb7d7ab9b5"},"vehicle_type_id":"4","last_reported":1777449550,"current_range_meters":4800,"station_id":"ce4bgjp2rcd13ifvqbh0","pricing_plan_id":"cebpf4jnsgd1na2vs0mg"},{"bike_id":"4d7a5e67-45bd-4aa9-a338-043eb3245912","system_id":"levelo_inurba_marseille","lat":43.30256,"lon":5.40045,"is_reserved":false,"is_disabled":false,"rental_uris":{"android":"levelo://app?vid=4d7a5e67-45bd-4aa9-a338-043eb3245912","ios":"levelo://app?vid=4d7a5e67-45bd-4aa9-a338-043eb3245912"},"vehicle_type_id":"4","last_reported":1777449550,"current_range_meters":4800,"station_id":"ce4bgvh2rcd13ifvqcs0","pricing_plan_id":"cebpf4jnsgd1na2vs0mg"},{"bike_id":"5367fafd-42a5-4c52-bd35-5d85953af91c","system_id":"levelo_inurba_marseille","lat":43.3145,"lon":5.37379,"is_reserved":false,"is_disabled":true,"rental_uris":{"android":"levelo://app?vid=5367fafd-42a5-4c52-bd35-5d85953af91c","ios":"levelo://app?vid=5367fafd-42a5-4c52-bd35-5d85953af91c"},"vehicle_type_id":"4","last_reported":1777449550,"current_range_meters":5600,"station_id":"","pricing_plan_id":"cebpf4jnsgd1na2vs0mg"},{"bike_id":"e116e98a-e7c1-4e2d-9ae3-1a759c33b548","system_id":"levelo_inurba_marseille","lat":43.337444,"lon":5.374475,"is_reserved":false,"is_disabled":false,"rental_uris":{"android":"levelo://app?vid=e116e98a-e7c1-4e2d-9ae3-1a759c33b548","ios":"levelo://app?vid=e116e98a-e7c1-4e2d-9ae3-1a759c33b548"},"vehicle_type_id":"4","last_reported":1777449550,"current_range_meters":5600,"station_id":"ce4bgop2rcd13ifvqc1g","pricing_plan_id":"cebpf4jnsgd1na2vs0mg"},{"bike_id":"f4757363-3176-47ca-9457-6049590051cf","system_id":"levelo_inurba_marseille","lat":43.30133,"lon":5.37421,"is_reserved":false,"is_disabled":false,"rental_uris":{"android":"levelo://app?vid=f4757363-3176-47ca-9457-6049590051cf","ios":"levelo://app?vid=f4757363-3176-47ca-9457-6049590051cf"},"vehicle_type_id":"4","last_reported":1777449550,"current_range_meters":5600,"station_id":"ce4bgs92rcd13ifvqcc0","pricing_plan_id":"cebpf4jnsgd1na2vs0mg"},{"bike_id":"dabc5e28-b9df-4b1a-affa-f2e365a8b45b","system_id":"levelo_inurba_marseille","lat":43.32111,"lon":5.36768,"is_reserved":false,"is_disabled":false,"rental_uris":{"android":"levelo://app?vid=dabc5e28-b9df-4b1a-affa-f2e365a8b45b","ios":"levelo://app?vid=dabc5e28-b9df-4b1a-affa-f2e365a8b45b"},"vehicle_type_id":"4","last_reported":1777449550,"current_range_meters":5600,"station_id":"ce4bhrh2rcd13ifvqhug","pricing_plan_id":"cebpf4jnsgd1na2vs0mg"},{"bike_id":"27cbbdc8-76be-4943-abdc-2247bea40f15","system_id":"levelo_inurba_marseille","lat":43.28406,"lon":5.34972,"is_reserved":false,"is_disabled":false,"rental_uris":{"android":"levelo://app?vid=27cbbdc8-76be-4943-abdc-2247bea40f15","ios":"levelo://app?vid=27cbbdc8-76be-4943-abdc-2247bea40f15"},"vehicle_type_id":"4","last_reported":1777449550,"current_range_meters":5600,"station_id":"ce4bhbh2rcd13ifvqepg","pricing_plan_id":"cebpf4jnsgd1na2vs0mg"},{"bike_id":"e2605e88-9f7b-49cc-8a63-119a038d9512","system_id":"levelo_inurba_marseille","lat":43.25626,"lon":5.38553,"is_reserved":false,"is_disabled":false,"rental_uris":{"android":"levelo://app?vid=e2605e88-9f7b-49cc-8a63-119a038d9512","ios":"levelo://app?vid=e2605e88-9f7b-49cc-8a63-119a038d9512"},"vehicle_type_id":"4","last_reported":1777449550,"current_range_meters":5600,"station_id":"","pricing_plan_id":"cebpf4jnsgd1na2vs0mg"},{"bike_id":"cb3d1984-3370-4402-9172-889783d03757","system_id":"levelo_inurba_marseille","lat":43.28227,"lon":5.39068,"is_reserved":false,"is_disabled":false,"rental_uris":{"android":"levelo://app?vid=cb3d1984-3370-4402-9172-889783d03757","ios":"levelo://app?vid=cb3d1984-3370-4402-9172-889783d03757"},"vehicle_type_id":"4","last_reported":1777449550,"current_range_meters":5600,"station_id":"ce4bhn92rcd13ifvqgsg","pricing_plan_id":"cebpf4jnsgd1na2vs0mg"},{"bike_id":"8ddf78e6-7053-4f51-a052-cbf410efa6bf","system_id":"levelo_inurba_marseille","lat":43.31204,"lon":5.36849,"is_reserved":false,"is_disabled":false,"rental_uris":{"android":"levelo://app?vid=8ddf78e6-7053-4f51-a052-cbf410efa6bf","ios":"levelo://app?vid=8ddf78e6-7053-4f51-a052-cbf410efa6bf"},"vehicle_type_id":"4","last_reported":1777449550,"current_range_meters":5600,"station_id":"ce4bgl92rcd13ifvqbq0","pricing_plan_id":"cebpf4jnsgd1na2vs0mg"},{"bike_id":"b8f15b86-b017-44d7-b593-261ba868919c","system_id":"levelo_inurba_marseille","lat":43.29534,"lon":5.38534,"is_reserved":false,"is_disabled":false,"rental_uris":{"android":"levelo://app?vid=b8f15b86-b017-44d7-b593-261ba868919c","ios":"levelo://app?vid=b8f15b86-b017-44d7-b593-261ba868919c"},"vehicle_type_id":"4","last_reported":1777449550,"current_range_meters":5600,"station_id":"ce4bgih2rcd13ifvqba0","pricing_plan_id":"cebpf4jnsgd1na2vs0mg"},{"bike_id":"fadbd9a5-2a49-4734-8db0-528994d97e40","system_id":"levelo_inurba_marseille","lat":43.29272,"lon":5.38362,"is_reserved":false,"is_disabled":false,"rental_uris":{"android":"levelo://app?vid=fadbd9a5-2a49-4734-8db0-528994d97e40","ios":"levelo://app?vid=fadbd9a5-2a49-4734-8db0-528994d97e40"},"vehicle_type_id":"4","last_reported":1777449550,"current_range_meters":5600,"station_id":"","pricing_plan_id":"cebpf4jnsgd1na2vs0mg"},{"bike_id":"b94ff63d-7543-4e33-96a4-515421c88125","system_id":"levelo_inurba_marseille","lat":43.30945,"lon":5.39011,"is_reserved":false,"is_disabled":false,"rental_uris":{"android":"levelo://app?vid=b94ff63d-7543-4e33-96a4-515421c88125","ios":"levelo://app?vid=b94ff63d-7543-4e33-96a4-515421c88125"},"vehicle_type_id":"4","last_reported":1777449550,"current_range_meters":5600,"station_id":"ce4bgup2rcd13ifvqco0","pricing_plan_id":"cebpf4jnsgd1na2vs0mg"},{"bike_id":"d4a1637e-a775-45af-b60d-a5684440f967","system_id":"levelo_inurba_marseille","lat":43.31267,"lon":5.40179,"is_reserved":false,"is_disabled":false,"rental_uris":{"android":"levelo://app?vid=d4a1637e-a775-45af-b60d-a5684440f967","ios":"levelo://app?vid=d4a1637e-a775-45af-b60d-a5684440f967"},"vehicle_type_id":"4","last_reported":1777449550,"current_range_meters":5600,"station_id":"ce4bh092rcd13ifvqd30","pricing_plan_id":"cebpf4jnsgd1na2vs0mg"},{"bike_id":"9019aea9-9102-4ebf-994e-f65667993005","system_id":"levelo_inurba_marseille","lat":43.30947,"lon":5.39044,"is_reserved":false,"is_disabled":false,"rental_uris":{"android":"levelo://app?vid=9019aea9-9102-4ebf-994e-f65667993005","ios":"levelo://app?vid=9019aea9-9102-4ebf-994e-f65667993005"},"vehicle_type_id":"4","last_reported":1777449550,"current_range_meters":6000,"station_id":"ce4bgup2rcd13ifvqco0","pricing_plan_id":"cebpf4jnsgd1na2vs0mg"},{"bike_id":"b9c0ca4a-61af-4a0b-994f-7b554a71a91c","system_id":"levelo_inurba_marseille","lat":43.32353,"lon":5.36737,"is_reserved":false,"is_disabled":false,"rental_uris":{"android":"levelo://app?vid=b9c0ca4a-61af-4a0b-994f-7b554a71a91c","ios":"levelo://app?vid=b9c0ca4a-61af-4a0b-994f-7b554a71a91c"},"vehicle_type_id":"4","last_reported":1777449550,"current_range_meters":6400,"station_id":"ce4bhsh2rcd13ifvqi2g","pricing_plan_id":"cebpf4jnsgd1na2vs0mg"},{"bike_id":"21fa33d0-28a0-4e0a-9999-8d9d767ac49c","system_id":"levelo_inurba_marseille","lat":43.2703,"lon":5.38637,"is_reserved":false,"is_disabled":false,"rental_uris":{"android":"levelo://app?vid=21fa33d0-28a0-4e0a-9999-8d9d767ac49c","ios":"levelo://app?vid=21fa33d0-28a0-4e0a-9999-8d9d767ac49c"},"vehicle_type_id":"4","last_reported":1777449550,"current_range_meters":6400,"station_id":"","pricing_plan_id":"cebpf4jnsgd1na2vs0mg"},{"bike_id":"22f14fb4-4534-48ab-a634-5e564ce11591","system_id":"levelo_inurba_marseille","lat":43.289705,"lon":5.378328,"is_reserved":false,"is_disabled":false,"rental_uris":{"android":"levelo://app?vid=22f14fb4-4534-48ab-a634-5e564ce11591","ios":"levelo://app?vid=22f14fb4-4534-48ab-a634-5e564ce11591"},"vehicle_type_id":"4","last_reported":1777449550,"current_range_meters":6400,"station_id":"ce4bh9p2rcd13ifvqed0","pricing_plan_id":"cebpf4jnsgd1na2vs0mg"},{"bike_id":"5cf5cac4-304b-4407-a8e5-357d3ab6bc0b","system_id":"levelo_inurba_marseille","lat":43.23897,"lon":5.37469,"is_reserved":false,"is_disabled":true,"rental_uris":{"android":"levelo://app?vid=5cf5cac4-304b-4407-a8e5-357d3ab6bc0b","ios":"levelo://app?vid=5cf5cac4-304b-4407-a8e5-357d3ab6bc0b"},"vehicle_type_id":"4","last_reported":1777449550,"current_range_meters":6400,"station_id":"st_d6sm7csbq4hs73f8fpjg","pricing_plan_id":"cebpf4jnsgd1na2vs0mg"},{"bike_id":"9d60c47e-93a9-4c80-bdb7-b6819442bd0f","system_id":"levelo_inurba_marseille","lat":43.26057,"lon":5.39396,"is_reserved":false,"is_disabled":false,"rental_uris":{"android":"levelo://app?vid=9d60c47e-93a9-4c80-bdb7-b6819442bd0f","ios":"levelo://app?vid=9d60c47e-93a9-4c80-bdb7-b6819442bd0f"},"vehicle_type_id":"4","last_reported":1777449550,"current_range_meters":6400,"station_id":"ce4bhh92rcd13ifvqfj0","pricing_plan_id":"cebpf4jnsgd1na2vs0mg"},{"bike_id":"d3764724-4dd6-4bc7-832e-458886c7d071","system_id":"levelo_inurba_marseille","lat":43.24082,"lon":5.37747,"is_reserved":false,"is_disabled":false,"rental_uris":{"android":"levelo://app?vid=d3764724-4dd6-4bc7-832e-458886c7d071","ios":"levelo://app?vid=d3764724-4dd6-4bc7-832e-458886c7d071"},"vehicle_type_id":"4","last_reported":1777449550,"current_range_meters":6400,"station_id":"ce4bhnp2rcd13ifvqgvg","pricing_plan_id":"cebpf4jnsgd1na2vs0mg"},{"bike_id":"4847a989-91cf-490e-b3d4-50f9a915a840","system_id":"levelo_inurba_marseille","lat":43.29043,"lon":5.39962,"is_reserved":false,"is_disabled":false,"rental_uris":{"android":"levelo://app?vid=4847a989-91cf-490e-b3d4-50f9a915a840","ios":"levelo://app?vid=4847a989-91cf-490e-b3d4-50f9a915a840"},"vehicle_type_id":"4","last_reported":1777449550,"current_range_meters":6400,"station_id":"ce4bh392rcd13ifvqdm0","pricing_plan_id":"cebpf4jnsgd1na2vs0mg"},{"bike_id":"ccc64b12-fba8-4953-9e4c-789c15629674","system_id":"levelo_inurba_marseille","lat":43.2322,"lon":5.35084,"is_reserved":false,"is_disabled":false,"rental_uris":{"android":"levelo://app?vid=ccc64b12-fba8-4953-9e4c-789c15629674","ios":"levelo://app?vid=ccc64b12-fba8-4953-9e4c-789c15629674"},"vehicle_type_id":"4","last_reported":1777449550,"current_range_meters":6400,"station_id":"","pricing_plan_id":"cebpf4jnsgd1na2vs0mg"},{"bike_id":"57f90bd9-fa9d-42c1-93a4-bc60e7acd42f","system_id":"levelo_inurba_marseille","lat":43.26606,"lon":5.37272,"is_reserved":false,"is_disabled":false,"rental_uris":{"android":"levelo://app?vid=57f90bd9-fa9d-42c1-93a4-bc60e7acd42f","ios":"levelo://app?vid=57f90bd9-fa9d-42c1-93a4-bc60e7acd42f"},"vehicle_type_id":"4","last_reported":1777449550,"current_range_meters":6400,"station_id":"ce4bhg12rcd13ifvqf70","pricing_plan_id":"cebpf4jnsgd1na2vs0mg"},{"bike_id":"6481dac4-5e1c-4b2f-acc7-2ee1b32657a9","system_id":"levelo_inurba_marseille","lat":43.28609,"lon":5.35101,"is_reserved":false,"is_disabled":false,"rental_uris":{"android":"levelo://app?vid=6481dac4-5e1c-4b2f-acc7-2ee1b32657a9","ios":"levelo://app?vid=6481dac4-5e1c-4b2f-acc7-2ee1b32657a9"},"vehicle_type_id":"4","last_reported":1777449550,"current_range_meters":6400,"station_id":"ce4bhch2rcd13ifvqeug","pricing_plan_id":"cebpf4jnsgd1na2vs0mg"},{"bike_id":"0aa77637-d7e3-499b-846d-09967e25c470","system_id":"levelo_inurba_marseille","lat":43.26202,"lon":5.37944,"is_reserved":false,"is_disabled":false,"rental_uris":{"android":"levelo://app?vid=0aa77637-d7e3-499b-846d-09967e25c470","ios":"levelo://app?vid=0aa77637-d7e3-499b-846d-09967e25c470"},"vehicle_type_id":"4","last_reported":1777449550,"current_range_meters":6400,"station_id":"ce4bhjp2rcd13ifvqg90","pricing_plan_id":"cebpf4jnsgd1na2vs0mg"},{"bike_id":"133d2a37-58ff-480d-b39f-409c28a28885","system_id":"levelo_inurba_marseille","lat":43.240781,"lon":5.377365,"is_reserved":false,"is_disabled":false,"rental_uris":{"android":"levelo://app?vid=133d2a37-58ff-480d-b39f-409c28a28885","ios":"levelo://app?vid=133d2a37-58ff-480d-b39f-409c28a28885"},"vehicle_type_id":"4","last_reported":1777449550,"current_range_meters":6400,"station_id":"ce4bhnp2rcd13ifvqgvg","pricing_plan_id":"cebpf4jnsgd1na2vs0mg"},{"bike_id":"f876cb19-0749-40f4-8bd3-e18d1d5c19e4","system_id":"levelo_inurba_marseille","lat":43.31264,"lon":5.40152,"is_reserved":false,"is_disabled":false,"rental_uris":{"android":"levelo://app?vid=f876cb19-0749-40f4-8bd3-e18d1d5c19e4","ios":"levelo://app?vid=f876cb19-0749-40f4-8bd3-e18d1d5c19e4"},"vehicle_type_id":"4","last_reported":1777449550,"current_range_meters":6800,"station_id":"ce4bh092rcd13ifvqd30","pricing_plan_id":"cebpf4jnsgd1na2vs0mg"},{"bike_id":"006ac7cb-3897-4bb5-af18-37c45ecbf388","system_id":"levelo_inurba_marseille","lat":43.30164,"lon":5.38065,"is_reserved":false,"is_disabled":false,"rental_uris":{"android":"levelo://app?vid=006ac7cb-3897-4bb5-af18-37c45ecbf388","ios":"levelo://app?vid=006ac7cb-3897-4bb5-af18-37c45ecbf388"},"vehicle_type_id":"4","last_reported":1777449550,"current_range_meters":6800,"station_id":"ce4bgjp2rcd13ifvqbh0","pricing_plan_id":"cebpf4jnsgd1na2vs0mg"},{"bike_id":"64caf656-9c5b-4754-be7e-5471268d2436","system_id":"levelo_inurba_marseille","lat":43.29037,"lon":5.38644,"is_reserved":false,"is_disabled":true,"rental_uris":{"android":"levelo://app?vid=64caf656-9c5b-4754-be7e-5471268d2436","ios":"levelo://app?vid=64caf656-9c5b-4754-be7e-5471268d2436"},"vehicle_type_id":"4","last_reported":1777449550,"current_range_meters":6800,"station_id":"ce4bh4p2rcd13ifvqe0g","pricing_plan_id":"cebpf4jnsgd1na2vs0mg"},{"bike_id":"e0727292-2b83-4e0b-9255-8c05784dfc71","system_id":"levelo_inurba_marseille","lat":43.29283,"lon":5.3743,"is_reserved":false,"is_disabled":false,"rental_uris":{"android":"levelo://app?vid=e0727292-2b83-4e0b-9255-8c05784dfc71","ios":"levelo://app?vid=e0727292-2b83-4e0b-9255-8c05784dfc71"},"vehicle_type_id":"4","last_reported":1777449550,"current_range_meters":6800,"station_id":"ce4bgi12rcd13ifvqb70","pricing_plan_id":"cebpf4jnsgd1na2vs0mg"},{"bike_id":"0c1ef474-5562-44d3-8a3f-561b637a8a0a","system_id":"levelo_inurba_marseille","lat":43.30451,"lon":5.37913,"is_reserved":false,"is_disabled":false,"rental_uris":{"android":"levelo://app?vid=0c1ef474-5562-44d3-8a3f-561b637a8a0a","ios":"levelo://app?vid=0c1ef474-5562-44d3-8a3f-561b637a8a0a"},"vehicle_type_id":"4","last_reported":1777449550,"current_range_meters":6800,"station_id":"ce4bgup2rcd13ifvqcn0","pricing_plan_id":"cebpf4jnsgd1na2vs0mg"},{"bike_id":"29d3d6ae-0685-4895-a5de-b3c2bebaefcb","system_id":"levelo_inurba_marseille","lat":43.30178,"lon":5.3662,"is_reserved":false,"is_disabled":false,"rental_uris":{"android":"levelo://app?vid=29d3d6ae-0685-4895-a5de-b3c2bebaefcb","ios":"levelo://app?vid=29d3d6ae-0685-4895-a5de-b3c2bebaefcb"},"vehicle_type_id":"4","last_reported":1777449550,"current_range_meters":6800,"station_id":"ce4bgrh2rcd13ifvqc8g","pricing_plan_id":"cebpf4jnsgd1na2vs0mg"},{"bike_id":"ea26fbb8-1fe9-45fd-86a8-020ce9ce5f0e","system_id":"levelo_inurba_marseille","lat":43.27103,"lon":5.3912,"is_reserved":false,"is_disabled":false,"rental_uris":{"android":"levelo://app?vid=ea26fbb8-1fe9-45fd-86a8-020ce9ce5f0e","ios":"levelo://app?vid=ea26fbb8-1fe9-45fd-86a8-020ce9ce5f0e"},"vehicle_type_id":"4","last_reported":1777449550,"current_range_meters":6800,"station_id":"","pricing_plan_id":"cebpf4jnsgd1na2vs0mg"},{"bike_id":"f11e3633-986d-40f4-8b5f-6b5e41220dfc","system_id":"levelo_inurba_marseille","lat":43.31892,"lon":5.36813,"is_reserved":false,"is_disabled":false,"rental_uris":{"android":"levelo://app?vid=f11e3633-986d-40f4-8b5f-6b5e41220dfc","ios":"levelo://app?vid=f11e3633-986d-40f4-8b5f-6b5e41220dfc"},"vehicle_type_id":"4","last_reported":1777449550,"current_range_meters":6800,"station_id":"st_d6o2h0d0559c73evc1b0","pricing_plan_id":"cebpf4jnsgd1na2vs0mg"},{"bike_id":"5a082d0b-9dcd-4b27-b749-e7a082c3a4b6","system_id":"levelo_inurba_marseille","lat":43.25147,"lon":5.40456,"is_reserved":false,"is_disabled":true,"rental_uris":{"android":"levelo://app?vid=5a082d0b-9dcd-4b27-b749-e7a082c3a4b6","ios":"levelo://app?vid=5a082d0b-9dcd-4b27-b749-e7a082c3a4b6"},"vehicle_type_id":"4","last_reported":1777449550,"current_range_meters":6800,"station_id":"","pricing_plan_id":"cebpf4jnsgd1na2vs0mg"},{"bike_id":"ef3a68ef-5b94-411a-921f-f7cda00ffdfc","system_id":"levelo_inurba_marseille","lat":43.29466,"lon":5.39016,"is_reserved":false,"is_disabled":false,"rental_uris":{"android":"levelo://app?vid=ef3a68ef-5b94-411a-921f-f7cda00ffdfc","ios":"levelo://app?vid=ef3a68ef-5b94-411a-921f-f7cda00ffdfc"},"vehicle_type_id":"4","last_reported":1777449550,"current_range_meters":6800,"station_id":"","pricing_plan_id":"cebpf4jnsgd1na2vs0mg"},{"bike_id":"fb5b2842-948a-4196-812d-aad25dd5904b","system_id":"levelo_inurba_marseille","lat":43.27318,"lon":5.39078,"is_reserved":false,"is_disabled":false,"rental_uris":{"android":"levelo://app?vid=fb5b2842-948a-4196-812d-aad25dd5904b","ios":"levelo://app?vid=fb5b2842-948a-4196-812d-aad25dd5904b"},"vehicle_type_id":"4","last_reported":1777449550,"current_range_meters":6800,"station_id":"ce4bhgp2rcd13ifvqfe0","pricing_plan_id":"cebpf4jnsgd1na2vs0mg"},{"bike_id":"49e25a56-3bda-447a-a4b7-9438ef084ff6","system_id":"levelo_inurba_marseille","lat":43.24051,"lon":5.37769,"is_reserved":false,"is_disabled":false,"rental_uris":{"android":"levelo://app?vid=49e25a56-3bda-447a-a4b7-9438ef084ff6","ios":"levelo://app?vid=49e25a56-3bda-447a-a4b7-9438ef084ff6"},"vehicle_type_id":"4","last_reported":1777449550,"current_range_meters":6800,"station_id":"ce4bhnp2rcd13ifvqgvg","pricing_plan_id":"cebpf4jnsgd1na2vs0mg"},{"bike_id":"9351c854-e8c2-4ae8-8e28-690e9df02ab1","system_id":"levelo_inurba_marseille","lat":43.29022,"lon":5.35595,"is_reserved":false,"is_disabled":true,"rental_uris":{"android":"levelo://app?vid=9351c854-e8c2-4ae8-8e28-690e9df02ab1","ios":"levelo://app?vid=9351c854-e8c2-4ae8-8e28-690e9df02ab1"},"vehicle_type_id":"4","last_reported":1777449550,"current_range_meters":7200,"station_id":"ce4bhb92rcd13ifvqen0","pricing_plan_id":"cebpf4jnsgd1na2vs0mg"},{"bike_id":"fb43f649-6bc3-47a7-98ab-0656859ca406","system_id":"levelo_inurba_marseille","lat":43.29728,"lon":5.37673,"is_reserved":false,"is_disabled":false,"rental_uris":{"android":"levelo://app?vid=fb43f649-6bc3-47a7-98ab-0656859ca406","ios":"levelo://app?vid=fb43f649-6bc3-47a7-98ab-0656859ca406"},"vehicle_type_id":"4","last_reported":1777449550,"current_range_meters":7200,"station_id":"ce4bgkh2rcd13ifvqbl0","pricing_plan_id":"cebpf4jnsgd1na2vs0mg"},{"bike_id":"d4d191c1-1e42-44ce-acaa-f4fdd3a7ce8e","system_id":"levelo_inurba_marseille","lat":43.28494,"lon":5.38514,"is_reserved":false,"is_disabled":false,"rental_uris":{"android":"levelo://app?vid=d4d191c1-1e42-44ce-acaa-f4fdd3a7ce8e","ios":"levelo://app?vid=d4d191c1-1e42-44ce-acaa-f4fdd3a7ce8e"},"vehicle_type_id":"4","last_reported":1777449550,"current_range_meters":7200,"station_id":"ce4bh8p2rcd13ifvqeb0","pricing_plan_id":"cebpf4jnsgd1na2vs0mg"},{"bike_id":"826311b3-740f-4e0d-b6af-4732fe58004b","system_id":"levelo_inurba_marseille","lat":43.23383,"lon":5.41233,"is_reserved":false,"is_disabled":false,"rental_uris":{"android":"levelo://app?vid=826311b3-740f-4e0d-b6af-4732fe58004b","ios":"levelo://app?vid=826311b3-740f-4e0d-b6af-4732fe58004b"},"vehicle_type_id":"4","last_reported":1777449550,"current_range_meters":7200,"station_id":"st_d75pvndhf9lc73cqq3eg","pricing_plan_id":"cebpf4jnsgd1na2vs0mg"},{"bike_id":"97d623ec-720e-4c3b-9d89-449e8e557c63","system_id":"levelo_inurba_marseille","lat":43.276736,"lon":5.388692,"is_reserved":false,"is_disabled":false,"rental_uris":{"android":"levelo://app?vid=97d623ec-720e-4c3b-9d89-449e8e557c63","ios":"levelo://app?vid=97d623ec-720e-4c3b-9d89-449e8e557c63"},"vehicle_type_id":"4","last_reported":1777449550,"current_range_meters":7200,"station_id":"ce4bhi12rcd13ifvqfo0","pricing_plan_id":"cebpf4jnsgd1na2vs0mg"},{"bike_id":"c7df940b-ef97-43b9-bb28-852f685d07cc","system_id":"levelo_inurba_marseille","lat":43.2907,"lon":5.37146,"is_reserved":false,"is_disabled":false,"rental_uris":{"android":"levelo://app?vid=c7df940b-ef97-43b9-bb28-852f685d07cc","ios":"levelo://app?vid=c7df940b-ef97-43b9-bb28-852f685d07cc"},"vehicle_type_id":"4","last_reported":1777449550,"current_range_meters":7200,"station_id":"ce4bh5p2rcd13ifvqe4g","pricing_plan_id":"cebpf4jnsgd1na2vs0mg"},{"bike_id":"a08922d2-462b-4db9-a9bf-da2172fd1117","system_id":"levelo_inurba_marseille","lat":43.31238,"lon":5.3688,"is_reserved":false,"is_disabled":false,"rental_uris":{"android":"levelo://app?vid=a08922d2-462b-4db9-a9bf-da2172fd1117","ios":"levelo://app?vid=a08922d2-462b-4db9-a9bf-da2172fd1117"},"vehicle_type_id":"4","last_reported":1777449550,"current_range_meters":7200,"station_id":"ce4bgl92rcd13ifvqbq0","pricing_plan_id":"cebpf4jnsgd1na2vs0mg"},{"bike_id":"94de3b3e-ce80-46a6-a82f-99c2fc04a394","system_id":"levelo_inurba_marseille","lat":43.30127,"lon":5.381,"is_reserved":false,"is_disabled":false,"rental_uris":{"android":"levelo://app?vid=94de3b3e-ce80-46a6-a82f-99c2fc04a394","ios":"levelo://app?vid=94de3b3e-ce80-46a6-a82f-99c2fc04a394"},"vehicle_type_id":"4","last_reported":1777449550,"current_range_meters":7200,"station_id":"ce4bgjp2rcd13ifvqbh0","pricing_plan_id":"cebpf4jnsgd1na2vs0mg"},{"bike_id":"ee5bca21-2a39-4c24-aced-c94d2451e251","system_id":"levelo_inurba_marseille","lat":43.27983,"lon":5.41664,"is_reserved":false,"is_disabled":false,"rental_uris":{"android":"levelo://app?vid=ee5bca21-2a39-4c24-aced-c94d2451e251","ios":"levelo://app?vid=ee5bca21-2a39-4c24-aced-c94d2451e251"},"vehicle_type_id":"4","last_reported":1777449550,"current_range_meters":7200,"station_id":"ce4bho12rcd13ifvqh1g","pricing_plan_id":"cebpf4jnsgd1na2vs0mg"},{"bike_id":"0d6bee39-a89a-4ec0-9177-4472f47e91e1","system_id":"levelo_inurba_marseille","lat":43.26782,"lon":5.39413,"is_reserved":false,"is_disabled":false,"rental_uris":{"android":"levelo://app?vid=0d6bee39-a89a-4ec0-9177-4472f47e91e1","ios":"levelo://app?vid=0d6bee39-a89a-4ec0-9177-4472f47e91e1"},"vehicle_type_id":"4","last_reported":1777449550,"current_range_meters":7200,"station_id":"ce4bhh12rcd13ifvqfg0","pricing_plan_id":"cebpf4jnsgd1na2vs0mg"},{"bike_id":"007bdae8-b143-425f-a1a7-c03b3544c030","system_id":"levelo_inurba_marseille","lat":43.31318,"lon":5.36704,"is_reserved":false,"is_disabled":false,"rental_uris":{"android":"levelo://app?vid=007bdae8-b143-425f-a1a7-c03b3544c030","ios":"levelo://app?vid=007bdae8-b143-425f-a1a7-c03b3544c030"},"vehicle_type_id":"4","last_reported":1777449550,"current_range_meters":7200,"station_id":"ce4bgr92rcd13ifvqc6g","pricing_plan_id":"cebpf4jnsgd1na2vs0mg"},{"bike_id":"469bbb0a-6457-4290-a976-55742311e2fe","system_id":"levelo_inurba_marseille","lat":43.25951,"lon":5.40902,"is_reserved":false,"is_disabled":false,"rental_uris":{"android":"levelo://app?vid=469bbb0a-6457-4290-a976-55742311e2fe","ios":"levelo://app?vid=469bbb0a-6457-4290-a976-55742311e2fe"},"vehicle_type_id":"4","last_reported":1777449550,"current_range_meters":7200,"station_id":"ce4bhm92rcd13ifvqglg","pricing_plan_id":"cebpf4jnsgd1na2vs0mg"},{"bike_id":"c46d8a22-772b-40f4-a01d-512476bc1bbf","system_id":"levelo_inurba_marseille","lat":43.24945,"lon":5.40498,"is_reserved":false,"is_disabled":false,"rental_uris":{"android":"levelo://app?vid=c46d8a22-772b-40f4-a01d-512476bc1bbf","ios":"levelo://app?vid=c46d8a22-772b-40f4-a01d-512476bc1bbf"},"vehicle_type_id":"4","last_reported":1777449550,"current_range_meters":7200,"station_id":"st_d2ngiaodas8pm72gd1h0","pricing_plan_id":"cebpf4jnsgd1na2vs0mg"},{"bike_id":"97101e97-9dc1-46b9-aa51-c662f292853d","system_id":"levelo_inurba_marseille","lat":43.28145,"lon":5.42646,"is_reserved":false,"is_disabled":false,"rental_uris":{"android":"levelo://app?vid=97101e97-9dc1-46b9-aa51-c662f292853d","ios":"levelo://app?vid=97101e97-9dc1-46b9-aa51-c662f292853d"},"vehicle_type_id":"4","last_reported":1777449550,"current_range_meters":7200,"station_id":"ce4bhnh2rcd13ifvqgug","pricing_plan_id":"cebpf4jnsgd1na2vs0mg"},{"bike_id":"0256971e-927a-4136-bafd-665aafac7fc7","system_id":"levelo_inurba_marseille","lat":43.21754,"lon":5.34611,"is_reserved":false,"is_disabled":false,"rental_uris":{"android":"levelo://app?vid=0256971e-927a-4136-bafd-665aafac7fc7","ios":"levelo://app?vid=0256971e-927a-4136-bafd-665aafac7fc7"},"vehicle_type_id":"4","last_reported":1777449550,"current_range_meters":7200,"station_id":"st_cvj6r9ubvosntc0bgbag","pricing_plan_id":"cebpf4jnsgd1na2vs0mg"},{"bike_id":"550b61bf-024e-4f9e-9492-2a8f7afeae1e","system_id":"levelo_inurba_marseille","lat":43.30839,"lon":5.40465,"is_reserved":false,"is_disabled":false,"rental_uris":{"android":"levelo://app?vid=550b61bf-024e-4f9e-9492-2a8f7afeae1e","ios":"levelo://app?vid=550b61bf-024e-4f9e-9492-2a8f7afeae1e"},"vehicle_type_id":"4","last_reported":1777449550,"current_range_meters":7200,"station_id":"","pricing_plan_id":"cebpf4jnsgd1na2vs0mg"},{"bike_id":"b29a16db-8bd0-4541-a731-051b044146be","system_id":"levelo_inurba_marseille","lat":43.2495,"lon":5.40525,"is_reserved":false,"is_disabled":false,"rental_uris":{"android":"levelo://app?vid=b29a16db-8bd0-4541-a731-051b044146be","ios":"levelo://app?vid=b29a16db-8bd0-4541-a731-051b044146be"},"vehicle_type_id":"4","last_reported":1777449550,"current_range_meters":7200,"station_id":"st_d2ngiaodas8pm72gd1h0","pricing_plan_id":"cebpf4jnsgd1na2vs0mg"},{"bike_id":"95a87095-ed73-4033-90c0-f05bd7e440a0","system_id":"levelo_inurba_marseille","lat":43.25721,"lon":5.41114,"is_reserved":false,"is_disabled":false,"rental_uris":{"android":"levelo://app?vid=95a87095-ed73-4033-90c0-f05bd7e440a0","ios":"levelo://app?vid=95a87095-ed73-4033-90c0-f05bd7e440a0"},"vehicle_type_id":"4","last_reported":1777449550,"current_range_meters":7200,"station_id":"ce4bhkp2rcd13ifvqgd0","pricing_plan_id":"cebpf4jnsgd1na2vs0mg"},{"bike_id":"4c4fd5bf-edd1-4e64-bbba-8e4e3d30b47b","system_id":"levelo_inurba_marseille","lat":43.29528,"lon":5.43274,"is_reserved":false,"is_disabled":false,"rental_uris":{"android":"levelo://app?vid=4c4fd5bf-edd1-4e64-bbba-8e4e3d30b47b","ios":"levelo://app?vid=4c4fd5bf-edd1-4e64-bbba-8e4e3d30b47b"},"vehicle_type_id":"4","last_reported":1777449550,"current_range_meters":7200,"station_id":"st_d3j5ugp08ojc73fj9d10","pricing_plan_id":"cebpf4jnsgd1na2vs0mg"},{"bike_id":"e851bbf3-e946-454f-aa0f-d25235b954e1","system_id":"levelo_inurba_marseille","lat":43.28665,"lon":5.38659,"is_reserved":false,"is_disabled":false,"rental_uris":{"android":"levelo://app?vid=e851bbf3-e946-454f-aa0f-d25235b954e1","ios":"levelo://app?vid=e851bbf3-e946-454f-aa0f-d25235b954e1"},"vehicle_type_id":"4","last_reported":1777449550,"current_range_meters":7200,"station_id":"ce4bh492rcd13ifvqdug","pricing_plan_id":"cebpf4jnsgd1na2vs0mg"},{"bike_id":"ea36c9e8-58b8-4f79-a3ce-b396281d3b24","system_id":"levelo_inurba_marseille","lat":43.305074,"lon":5.380769,"is_reserved":false,"is_disabled":false,"rental_uris":{"android":"levelo://app?vid=ea36c9e8-58b8-4f79-a3ce-b396281d3b24","ios":"levelo://app?vid=ea36c9e8-58b8-4f79-a3ce-b396281d3b24"},"vehicle_type_id":"4","last_reported":1777449550,"current_range_meters":7200,"station_id":"","pricing_plan_id":"cebpf4jnsgd1na2vs0mg"},{"bike_id":"b8168952-f269-47f9-9954-c00269338960","system_id":"levelo_inurba_marseille","lat":43.23906,"lon":5.37447,"is_reserved":false,"is_disabled":false,"rental_uris":{"android":"levelo://app?vid=b8168952-f269-47f9-9954-c00269338960","ios":"levelo://app?vid=b8168952-f269-47f9-9954-c00269338960"},"vehicle_type_id":"4","last_reported":1777449550,"current_range_meters":8000,"station_id":"st_d6sm7csbq4hs73f8fpjg","pricing_plan_id":"cebpf4jnsgd1na2vs0mg"},{"bike_id":"520b0305-48d7-4734-97bb-d7eb73e5dc09","system_id":"levelo_inurba_marseille","lat":43.26544,"lon":5.37287,"is_reserved":false,"is_disabled":true,"rental_uris":{"android":"levelo://app?vid=520b0305-48d7-4734-97bb-d7eb73e5dc09","ios":"levelo://app?vid=520b0305-48d7-4734-97bb-d7eb73e5dc09"},"vehicle_type_id":"4","last_reported":1777449550,"current_range_meters":8000,"station_id":"ce4bhg12rcd13ifvqf70","pricing_plan_id":"cebpf4jnsgd1na2vs0mg"},{"bike_id":"e1d26622-7491-4fdf-a6f0-77cbc7cac2ef","system_id":"levelo_inurba_marseille","lat":43.24166,"lon":5.3641,"is_reserved":false,"is_disabled":false,"rental_uris":{"android":"levelo://app?vid=e1d26622-7491-4fdf-a6f0-77cbc7cac2ef","ios":"levelo://app?vid=e1d26622-7491-4fdf-a6f0-77cbc7cac2ef"},"vehicle_type_id":"4","last_reported":1777449550,"current_range_meters":8000,"station_id":"cpo36qri1sfpv3e86is0","pricing_plan_id":"cebpf4jnsgd1na2vs0mg"},{"bike_id":"c5d87c94-f8c8-47f4-ae84-ea0b6e6ae165","system_id":"levelo_inurba_marseille","lat":43.26269,"lon":5.38948,"is_reserved":false,"is_disabled":false,"rental_uris":{"android":"levelo://app?vid=c5d87c94-f8c8-47f4-ae84-ea0b6e6ae165","ios":"levelo://app?vid=c5d87c94-f8c8-47f4-ae84-ea0b6e6ae165"},"vehicle_type_id":"4","last_reported":1777449550,"current_range_meters":8000,"station_id":"","pricing_plan_id":"cebpf4jnsgd1na2vs0mg"},{"bike_id":"acb63e31-28e9-458b-bd3d-23462617804d","system_id":"levelo_inurba_marseille","lat":43.30309,"lon":5.36906,"is_reserved":false,"is_disabled":false,"rental_uris":{"android":"levelo://app?vid=acb63e31-28e9-458b-bd3d-23462617804d","ios":"levelo://app?vid=acb63e31-28e9-458b-bd3d-23462617804d"},"vehicle_type_id":"4","last_reported":1777449550,"current_range_meters":8000,"station_id":"ce4bgqh2rcd13ifvqc5g","pricing_plan_id":"cebpf4jnsgd1na2vs0mg"},{"bike_id":"19156f03-ab0b-41c7-9a42-bb1ae8fd0140","system_id":"levelo_inurba_marseille","lat":43.31327,"lon":5.39746,"is_reserved":false,"is_disabled":false,"rental_uris":{"android":"levelo://app?vid=19156f03-ab0b-41c7-9a42-bb1ae8fd0140","ios":"levelo://app?vid=19156f03-ab0b-41c7-9a42-bb1ae8fd0140"},"vehicle_type_id":"4","last_reported":1777449550,"current_range_meters":8000,"station_id":"","pricing_plan_id":"cebpf4jnsgd1na2vs0mg"},{"bike_id":"7fa714a6-0721-4150-83f5-9e100c4e6b70","system_id":"levelo_inurba_marseille","lat":43.3136,"lon":5.36727,"is_reserved":false,"is_disabled":false,"rental_uris":{"android":"levelo://app?vid=7fa714a6-0721-4150-83f5-9e100c4e6b70","ios":"levelo://app?vid=7fa714a6-0721-4150-83f5-9e100c4e6b70"},"vehicle_type_id":"4","last_reported":1777449550,"current_range_meters":8000,"station_id":"ce4bgr92rcd13ifvqc6g","pricing_plan_id":"cebpf4jnsgd1na2vs0mg"},{"bike_id":"1bb8344f-1db0-45ef-ad3e-3af45d1f5a9f","system_id":"levelo_inurba_marseille","lat":43.25735,"lon":5.38716,"is_reserved":false,"is_disabled":false,"rental_uris":{"android":"levelo://app?vid=1bb8344f-1db0-45ef-ad3e-3af45d1f5a9f","ios":"levelo://app?vid=1bb8344f-1db0-45ef-ad3e-3af45d1f5a9f"},"vehicle_type_id":"4","last_reported":1777449550,"current_range_meters":8000,"station_id":"","pricing_plan_id":"cebpf4jnsgd1na2vs0mg"},{"bike_id":"2a9f517f-dc7e-442a-8a6e-b3ad6200cb4e","system_id":"levelo_inurba_marseille","lat":43.33539,"lon":5.37465,"is_reserved":false,"is_disabled":false,"rental_uris":{"android":"levelo://app?vid=2a9f517f-dc7e-442a-8a6e-b3ad6200cb4e","ios":"levelo://app?vid=2a9f517f-dc7e-442a-8a6e-b3ad6200cb4e"},"vehicle_type_id":"4","last_reported":1777449550,"current_range_meters":8000,"station_id":"st_d46tts09ee8s73dlu43g","pricing_plan_id":"cebpf4jnsgd1na2vs0mg"},{"bike_id":"8718ce7a-cd4a-4f41-b8d9-2f799a823b40","system_id":"levelo_inurba_marseille","lat":43.26702,"lon":5.38258,"is_reserved":false,"is_disabled":false,"rental_uris":{"android":"levelo://app?vid=8718ce7a-cd4a-4f41-b8d9-2f799a823b40","ios":"levelo://app?vid=8718ce7a-cd4a-4f41-b8d9-2f799a823b40"},"vehicle_type_id":"4","last_reported":1777449550,"current_range_meters":8000,"station_id":"ce4bhg92rcd13ifvqf90","pricing_plan_id":"cebpf4jnsgd1na2vs0mg"},{"bike_id":"eb5e53f4-a003-4387-9fb9-a6673523de67","system_id":"levelo_inurba_marseille","lat":43.25517,"lon":5.37664,"is_reserved":false,"is_disabled":true,"rental_uris":{"android":"levelo://app?vid=eb5e53f4-a003-4387-9fb9-a6673523de67","ios":"levelo://app?vid=eb5e53f4-a003-4387-9fb9-a6673523de67"},"vehicle_type_id":"4","last_reported":1777449550,"current_range_meters":8000,"station_id":"ce4bhh12rcd13ifvqff0","pricing_plan_id":"cebpf4jnsgd1na2vs0mg"},{"bike_id":"55bac593-352e-4642-8639-19fe2b8d6c00","system_id":"levelo_inurba_marseille","lat":43.27647,"lon":5.35841,"is_reserved":false,"is_disabled":false,"rental_uris":{"android":"levelo://app?vid=55bac593-352e-4642-8639-19fe2b8d6c00","ios":"levelo://app?vid=55bac593-352e-4642-8639-19fe2b8d6c00"},"vehicle_type_id":"4","last_reported":1777449550,"current_range_meters":8000,"station_id":"","pricing_plan_id":"cebpf4jnsgd1na2vs0mg"},{"bike_id":"37f4bcd8-243a-41a0-a906-b1104f908b74","system_id":"levelo_inurba_marseille","lat":43.29038,"lon":5.39966,"is_reserved":false,"is_disabled":false,"rental_uris":{"android":"levelo://app?vid=37f4bcd8-243a-41a0-a906-b1104f908b74","ios":"levelo://app?vid=37f4bcd8-243a-41a0-a906-b1104f908b74"},"vehicle_type_id":"4","last_reported":1777449550,"current_range_meters":8000,"station_id":"ce4bh392rcd13ifvqdm0","pricing_plan_id":"cebpf4jnsgd1na2vs0mg"},{"bike_id":"9f543810-4dfb-4951-9c10-acd2d2940820","system_id":"levelo_inurba_marseille","lat":43.28569,"lon":5.39505,"is_reserved":false,"is_disabled":true,"rental_uris":{"android":"levelo://app?vid=9f543810-4dfb-4951-9c10-acd2d2940820","ios":"levelo://app?vid=9f543810-4dfb-4951-9c10-acd2d2940820"},"vehicle_type_id":"4","last_reported":1777449550,"current_range_meters":8000,"station_id":"ce4bh292rcd13ifvqdg0","pricing_plan_id":"cebpf4jnsgd1na2vs0mg"},{"bike_id":"3a7820e2-a165-4751-bd1a-970dda749c39","system_id":"levelo_inurba_marseille","lat":43.30142,"lon":5.38088,"is_reserved":false,"is_disabled":false,"rental_uris":{"android":"levelo://app?vid=3a7820e2-a165-4751-bd1a-970dda749c39","ios":"levelo://app?vid=3a7820e2-a165-4751-bd1a-970dda749c39"},"vehicle_type_id":"4","last_reported":1777449550,"current_range_meters":8000,"station_id":"ce4bgjp2rcd13ifvqbh0","pricing_plan_id":"cebpf4jnsgd1na2vs0mg"},{"bike_id":"07baa9f5-a623-4a2e-86f5-d0c8354720a9","system_id":"levelo_inurba_marseille","lat":43.27839,"lon":5.39206,"is_reserved":false,"is_disabled":false,"rental_uris":{"android":"levelo://app?vid=07baa9f5-a623-4a2e-86f5-d0c8354720a9","ios":"levelo://app?vid=07baa9f5-a623-4a2e-86f5-d0c8354720a9"},"vehicle_type_id":"4","last_reported":1777449550,"current_range_meters":8000,"station_id":"ce4bhjp2rcd13ifvqga0","pricing_plan_id":"cebpf4jnsgd1na2vs0mg"},{"bike_id":"fb48eb95-a721-45e3-a917-4c0e5102e02d","system_id":"levelo_inurba_marseille","lat":43.23205,"lon":5.35532,"is_reserved":false,"is_disabled":false,"rental_uris":{"android":"levelo://app?vid=fb48eb95-a721-45e3-a917-4c0e5102e02d","ios":"levelo://app?vid=fb48eb95-a721-45e3-a917-4c0e5102e02d"},"vehicle_type_id":"4","last_reported":1777449550,"current_range_meters":8000,"station_id":"ce4bhu92rcd13ifvqi70","pricing_plan_id":"cebpf4jnsgd1na2vs0mg"},{"bike_id":"e86fde7f-f309-4c5c-9613-864f1a66fd8e","system_id":"levelo_inurba_marseille","lat":43.2886,"lon":5.42521,"is_reserved":false,"is_disabled":false,"rental_uris":{"android":"levelo://app?vid=e86fde7f-f309-4c5c-9613-864f1a66fd8e","ios":"levelo://app?vid=e86fde7f-f309-4c5c-9613-864f1a66fd8e"},"vehicle_type_id":"4","last_reported":1777449550,"current_range_meters":8000,"station_id":"st_d3b462108ojc7389ooeg","pricing_plan_id":"cebpf4jnsgd1na2vs0mg"},{"bike_id":"a6a7e439-2b8e-40ed-81ca-7f49b40dc9a0","system_id":"levelo_inurba_marseille","lat":43.2657,"lon":5.39014,"is_reserved":false,"is_disabled":false,"rental_uris":{"android":"levelo://app?vid=a6a7e439-2b8e-40ed-81ca-7f49b40dc9a0","ios":"levelo://app?vid=a6a7e439-2b8e-40ed-81ca-7f49b40dc9a0"},"vehicle_type_id":"4","last_reported":1777449550,"current_range_meters":8400,"station_id":"ce4bhe12rcd13ifvqf30","pricing_plan_id":"cebpf4jnsgd1na2vs0mg"},{"bike_id":"2aac5e51-6561-466f-8ce3-b3b2b88fe4ad","system_id":"levelo_inurba_marseille","lat":43.30535,"lon":5.36683,"is_reserved":false,"is_disabled":false,"rental_uris":{"android":"levelo://app?vid=2aac5e51-6561-466f-8ce3-b3b2b88fe4ad","ios":"levelo://app?vid=2aac5e51-6561-466f-8ce3-b3b2b88fe4ad"},"vehicle_type_id":"4","last_reported":1777449550,"current_range_meters":8400,"station_id":"ce4bgrp2rcd13ifvqc9g","pricing_plan_id":"cebpf4jnsgd1na2vs0mg"},{"bike_id":"4dbe00ec-feb8-4193-848e-b5324775416c","system_id":"levelo_inurba_marseille","lat":43.28406,"lon":5.34977,"is_reserved":false,"is_disabled":false,"rental_uris":{"android":"levelo://app?vid=4dbe00ec-feb8-4193-848e-b5324775416c","ios":"levelo://app?vid=4dbe00ec-feb8-4193-848e-b5324775416c"},"vehicle_type_id":"4","last_reported":1777449550,"current_range_meters":8400,"station_id":"ce4bhbh2rcd13ifvqepg","pricing_plan_id":"cebpf4jnsgd1na2vs0mg"},{"bike_id":"49e88e6d-5f73-46ea-849d-dafbd12f5b57","system_id":"levelo_inurba_marseille","lat":43.31698,"lon":5.40442,"is_reserved":false,"is_disabled":false,"rental_uris":{"android":"levelo://app?vid=49e88e6d-5f73-46ea-849d-dafbd12f5b57","ios":"levelo://app?vid=49e88e6d-5f73-46ea-849d-dafbd12f5b57"},"vehicle_type_id":"4","last_reported":1777449550,"current_range_meters":8400,"station_id":"ce4bh012rcd13ifvqd00","pricing_plan_id":"cebpf4jnsgd1na2vs0mg"},{"bike_id":"8e895859-042e-47e7-9ca8-83e0c06497e4","system_id":"levelo_inurba_marseille","lat":43.30323,"lon":5.36913,"is_reserved":false,"is_disabled":true,"rental_uris":{"android":"levelo://app?vid=8e895859-042e-47e7-9ca8-83e0c06497e4","ios":"levelo://app?vid=8e895859-042e-47e7-9ca8-83e0c06497e4"},"vehicle_type_id":"4","last_reported":1777449550,"current_range_meters":8400,"station_id":"ce4bgqh2rcd13ifvqc5g","pricing_plan_id":"cebpf4jnsgd1na2vs0mg"},{"bike_id":"d2ff302a-3be9-42b6-9eb6-2d6a779ca762","system_id":"levelo_inurba_marseille","lat":43.31356,"lon":5.36712,"is_reserved":false,"is_disabled":false,"rental_uris":{"android":"levelo://app?vid=d2ff302a-3be9-42b6-9eb6-2d6a779ca762","ios":"levelo://app?vid=d2ff302a-3be9-42b6-9eb6-2d6a779ca762"},"vehicle_type_id":"4","last_reported":1777449550,"current_range_meters":8400,"station_id":"ce4bgr92rcd13ifvqc6g","pricing_plan_id":"cebpf4jnsgd1na2vs0mg"},{"bike_id":"93fe4f05-d894-4b02-907f-d0755baa9f76","system_id":"levelo_inurba_marseille","lat":43.3015,"lon":5.38078,"is_reserved":false,"is_disabled":false,"rental_uris":{"android":"levelo://app?vid=93fe4f05-d894-4b02-907f-d0755baa9f76","ios":"levelo://app?vid=93fe4f05-d894-4b02-907f-d0755baa9f76"},"vehicle_type_id":"4","last_reported":1777449550,"current_range_meters":8400,"station_id":"ce4bgjp2rcd13ifvqbh0","pricing_plan_id":"cebpf4jnsgd1na2vs0mg"},{"bike_id":"8c2ebc41-7bef-4c6d-91ac-124371586248","system_id":"levelo_inurba_marseille","lat":43.25561,"lon":5.38236,"is_reserved":false,"is_disabled":false,"rental_uris":{"android":"levelo://app?vid=8c2ebc41-7bef-4c6d-91ac-124371586248","ios":"levelo://app?vid=8c2ebc41-7bef-4c6d-91ac-124371586248"},"vehicle_type_id":"4","last_reported":1777449550,"current_range_meters":8400,"station_id":"ce4bhih2rcd13ifvqfs0","pricing_plan_id":"cebpf4jnsgd1na2vs0mg"},{"bike_id":"aa1c53b3-e875-48f6-8f11-5585989ab701","system_id":"levelo_inurba_marseille","lat":43.29193,"lon":5.39299,"is_reserved":false,"is_disabled":true,"rental_uris":{"android":"levelo://app?vid=aa1c53b3-e875-48f6-8f11-5585989ab701","ios":"levelo://app?vid=aa1c53b3-e875-48f6-8f11-5585989ab701"},"vehicle_type_id":"4","last_reported":1777449550,"current_range_meters":8400,"station_id":"ce4bh192rcd13ifvqdd0","pricing_plan_id":"cebpf4jnsgd1na2vs0mg"},{"bike_id":"bafe7f5e-9ccc-4fc9-b495-711f5023462f","system_id":"levelo_inurba_marseille","lat":43.33602,"lon":5.40983,"is_reserved":false,"is_disabled":false,"rental_uris":{"android":"levelo://app?vid=bafe7f5e-9ccc-4fc9-b495-711f5023462f","ios":"levelo://app?vid=bafe7f5e-9ccc-4fc9-b495-711f5023462f"},"vehicle_type_id":"4","last_reported":1777449550,"current_range_meters":8400,"station_id":"ce4bhqh2rcd13ifvqhmg","pricing_plan_id":"cebpf4jnsgd1na2vs0mg"},{"bike_id":"b91f4f99-7987-40ea-afbb-1e1af65ec675","system_id":"levelo_inurba_marseille","lat":43.2943,"lon":5.40907,"is_reserved":false,"is_disabled":false,"rental_uris":{"android":"levelo://app?vid=b91f4f99-7987-40ea-afbb-1e1af65ec675","ios":"levelo://app?vid=b91f4f99-7987-40ea-afbb-1e1af65ec675"},"vehicle_type_id":"4","last_reported":1777449550,"current_range_meters":8400,"station_id":"","pricing_plan_id":"cebpf4jnsgd1na2vs0mg"},{"bike_id":"3680afe8-5d50-4d8b-9093-526f74beb700","system_id":"levelo_inurba_marseille","lat":43.30468,"lon":5.3791,"is_reserved":false,"is_disabled":false,"rental_uris":{"android":"levelo://app?vid=3680afe8-5d50-4d8b-9093-526f74beb700","ios":"levelo://app?vid=3680afe8-5d50-4d8b-9093-526f74beb700"},"vehicle_type_id":"4","last_reported":1777449550,"current_range_meters":8400,"station_id":"ce4bgup2rcd13ifvqcn0","pricing_plan_id":"cebpf4jnsgd1na2vs0mg"},{"bike_id":"28119ca7-2788-44de-96bd-34d0891073e7","system_id":"levelo_inurba_marseille","lat":43.31361,"lon":5.36688,"is_reserved":false,"is_disabled":false,"rental_uris":{"android":"levelo://app?vid=28119ca7-2788-44de-96bd-34d0891073e7","ios":"levelo://app?vid=28119ca7-2788-44de-96bd-34d0891073e7"},"vehicle_type_id":"4","last_reported":1777449550,"current_range_meters":8400,"station_id":"ce4bgr92rcd13ifvqc6g","pricing_plan_id":"cebpf4jnsgd1na2vs0mg"},{"bike_id":"b5592bc3-7c5d-4ba9-b1ae-b173928aef8c","system_id":"levelo_inurba_marseille","lat":43.28485,"lon":5.48395,"is_reserved":false,"is_disabled":false,"rental_uris":{"android":"levelo://app?vid=b5592bc3-7c5d-4ba9-b1ae-b173928aef8c","ios":"levelo://app?vid=b5592bc3-7c5d-4ba9-b1ae-b173928aef8c"},"vehicle_type_id":"4","last_reported":1777449550,"current_range_meters":8800,"station_id":"","pricing_plan_id":"cebpf4jnsgd1na2vs0mg"},{"bike_id":"2c52d523-ab3a-40ac-8478-f53a031f4160","system_id":"levelo_inurba_marseille","lat":43.29039,"lon":5.39954,"is_reserved":false,"is_disabled":false,"rental_uris":{"android":"levelo://app?vid=2c52d523-ab3a-40ac-8478-f53a031f4160","ios":"levelo://app?vid=2c52d523-ab3a-40ac-8478-f53a031f4160"},"vehicle_type_id":"4","last_reported":1777449550,"current_range_meters":8800,"station_id":"ce4bh392rcd13ifvqdm0","pricing_plan_id":"cebpf4jnsgd1na2vs0mg"},{"bike_id":"29a3de73-7d62-466c-ba20-23025d78a4d9","system_id":"levelo_inurba_marseille","lat":43.24072,"lon":5.37757,"is_reserved":false,"is_disabled":false,"rental_uris":{"android":"levelo://app?vid=29a3de73-7d62-466c-ba20-23025d78a4d9","ios":"levelo://app?vid=29a3de73-7d62-466c-ba20-23025d78a4d9"},"vehicle_type_id":"4","last_reported":1777449550,"current_range_meters":8800,"station_id":"ce4bhnp2rcd13ifvqgvg","pricing_plan_id":"cebpf4jnsgd1na2vs0mg"},{"bike_id":"b731ae6d-c728-4875-b456-353966799434","system_id":"levelo_inurba_marseille","lat":43.3152,"lon":5.3805,"is_reserved":false,"is_disabled":false,"rental_uris":{"android":"levelo://app?vid=b731ae6d-c728-4875-b456-353966799434","ios":"levelo://app?vid=b731ae6d-c728-4875-b456-353966799434"},"vehicle_type_id":"4","last_reported":1777449550,"current_range_meters":8800,"station_id":"ce4bhsp2rcd13ifvqi50","pricing_plan_id":"cebpf4jnsgd1na2vs0mg"},{"bike_id":"bbc2f778-ecf6-4419-b9a7-78a6f4492f95","system_id":"levelo_inurba_marseille","lat":43.292273,"lon":5.360653,"is_reserved":false,"is_disabled":false,"rental_uris":{"android":"levelo://app?vid=bbc2f778-ecf6-4419-b9a7-78a6f4492f95","ios":"levelo://app?vid=bbc2f778-ecf6-4419-b9a7-78a6f4492f95"},"vehicle_type_id":"4","last_reported":1777449550,"current_range_meters":8800,"station_id":"ce4bhbh2rcd13ifvqeqg","pricing_plan_id":"cebpf4jnsgd1na2vs0mg"},{"bike_id":"146883f7-ce79-4e13-8aa4-fa49231b74ec","system_id":"levelo_inurba_marseille","lat":43.28443,"lon":5.39186,"is_reserved":false,"is_disabled":false,"rental_uris":{"android":"levelo://app?vid=146883f7-ce79-4e13-8aa4-fa49231b74ec","ios":"levelo://app?vid=146883f7-ce79-4e13-8aa4-fa49231b74ec"},"vehicle_type_id":"4","last_reported":1777449550,"current_range_meters":8800,"station_id":"ce4bhoh2rcd13ifvqh5g","pricing_plan_id":"cebpf4jnsgd1na2vs0mg"},{"bike_id":"c91b70d8-a700-45b7-b674-7eb236c9741e","system_id":"levelo_inurba_marseille","lat":43.30309,"lon":5.36898,"is_reserved":false,"is_disabled":false,"rental_uris":{"android":"levelo://app?vid=c91b70d8-a700-45b7-b674-7eb236c9741e","ios":"levelo://app?vid=c91b70d8-a700-45b7-b674-7eb236c9741e"},"vehicle_type_id":"4","last_reported":1777449550,"current_range_meters":8800,"station_id":"ce4bgqh2rcd13ifvqc5g","pricing_plan_id":"cebpf4jnsgd1na2vs0mg"},{"bike_id":"acc57406-75de-43a2-a6ec-d941193f0be0","system_id":"levelo_inurba_marseille","lat":43.32354,"lon":5.36755,"is_reserved":false,"is_disabled":false,"rental_uris":{"android":"levelo://app?vid=acc57406-75de-43a2-a6ec-d941193f0be0","ios":"levelo://app?vid=acc57406-75de-43a2-a6ec-d941193f0be0"},"vehicle_type_id":"4","last_reported":1777449550,"current_range_meters":8800,"station_id":"ce4bhsh2rcd13ifvqi2g","pricing_plan_id":"cebpf4jnsgd1na2vs0mg"},{"bike_id":"1d6d59ce-b99b-4c93-9eb0-a893b79f8432","system_id":"levelo_inurba_marseille","lat":43.31177,"lon":5.36851,"is_reserved":false,"is_disabled":false,"rental_uris":{"android":"levelo://app?vid=1d6d59ce-b99b-4c93-9eb0-a893b79f8432","ios":"levelo://app?vid=1d6d59ce-b99b-4c93-9eb0-a893b79f8432"},"vehicle_type_id":"4","last_reported":1777449550,"current_range_meters":8800,"station_id":"ce4bgl92rcd13ifvqbq0","pricing_plan_id":"cebpf4jnsgd1na2vs0mg"},{"bike_id":"ec7bdd96-b068-4a4f-80ff-7ac70675f388","system_id":"levelo_inurba_marseille","lat":43.28848,"lon":5.39317,"is_reserved":false,"is_disabled":false,"rental_uris":{"android":"levelo://app?vid=ec7bdd96-b068-4a4f-80ff-7ac70675f388","ios":"levelo://app?vid=ec7bdd96-b068-4a4f-80ff-7ac70675f388"},"vehicle_type_id":"4","last_reported":1777449550,"current_range_meters":8800,"station_id":"ce4bh2p2rcd13ifvqdi0","pricing_plan_id":"cebpf4jnsgd1na2vs0mg"},{"bike_id":"6eaae871-0a05-412a-9bc2-1e7ae31c884a","system_id":"levelo_inurba_marseille","lat":43.26222,"lon":5.37956,"is_reserved":false,"is_disabled":false,"rental_uris":{"android":"levelo://app?vid=6eaae871-0a05-412a-9bc2-1e7ae31c884a","ios":"levelo://app?vid=6eaae871-0a05-412a-9bc2-1e7ae31c884a"},"vehicle_type_id":"4","last_reported":1777449550,"current_range_meters":8800,"station_id":"ce4bhjp2rcd13ifvqg90","pricing_plan_id":"cebpf4jnsgd1na2vs0mg"},{"bike_id":"a496669f-42ea-4ec8-b909-b71bb128370f","system_id":"levelo_inurba_marseille","lat":43.33538,"lon":5.37466,"is_reserved":false,"is_disabled":false,"rental_uris":{"android":"levelo://app?vid=a496669f-42ea-4ec8-b909-b71bb128370f","ios":"levelo://app?vid=a496669f-42ea-4ec8-b909-b71bb128370f"},"vehicle_type_id":"4","last_reported":1777449550,"current_range_meters":8800,"station_id":"st_d46tts09ee8s73dlu43g","pricing_plan_id":"cebpf4jnsgd1na2vs0mg"},{"bike_id":"a6f69edd-7f92-46ec-b19d-2c3242dfd28a","system_id":"levelo_inurba_marseille","lat":43.30364,"lon":5.41878,"is_reserved":false,"is_disabled":true,"rental_uris":{"android":"levelo://app?vid=a6f69edd-7f92-46ec-b19d-2c3242dfd28a","ios":"levelo://app?vid=a6f69edd-7f92-46ec-b19d-2c3242dfd28a"},"vehicle_type_id":"4","last_reported":1777449550,"current_range_meters":8800,"station_id":"ce4bhop2rcd13ifvqh7g","pricing_plan_id":"cebpf4jnsgd1na2vs0mg"},{"bike_id":"6f2719a6-e990-4c38-a5fb-6fe88070ce3b","system_id":"levelo_inurba_marseille","lat":43.302,"lon":5.36605,"is_reserved":false,"is_disabled":false,"rental_uris":{"android":"levelo://app?vid=6f2719a6-e990-4c38-a5fb-6fe88070ce3b","ios":"levelo://app?vid=6f2719a6-e990-4c38-a5fb-6fe88070ce3b"},"vehicle_type_id":"4","last_reported":1777449550,"current_range_meters":8800,"station_id":"ce4bgrh2rcd13ifvqc8g","pricing_plan_id":"cebpf4jnsgd1na2vs0mg"},{"bike_id":"e5f9afbb-eeaa-4f62-871a-cf997b5d0fb4","system_id":"levelo_inurba_marseille","lat":43.29778,"lon":5.39347,"is_reserved":false,"is_disabled":false,"rental_uris":{"android":"levelo://app?vid=e5f9afbb-eeaa-4f62-871a-cf997b5d0fb4","ios":"levelo://app?vid=e5f9afbb-eeaa-4f62-871a-cf997b5d0fb4"},"vehicle_type_id":"4","last_reported":1777449550,"current_range_meters":8800,"station_id":"chh1huq6cuj3fo74tm60","pricing_plan_id":"cebpf4jnsgd1na2vs0mg"},{"bike_id":"2ca43f54-bbdb-461d-882b-46d781b57eab","system_id":"levelo_inurba_marseille","lat":43.31355,"lon":5.36708,"is_reserved":false,"is_disabled":false,"rental_uris":{"android":"levelo://app?vid=2ca43f54-bbdb-461d-882b-46d781b57eab","ios":"levelo://app?vid=2ca43f54-bbdb-461d-882b-46d781b57eab"},"vehicle_type_id":"4","last_reported":1777449550,"current_range_meters":8800,"station_id":"ce4bgr92rcd13ifvqc6g","pricing_plan_id":"cebpf4jnsgd1na2vs0mg"},{"bike_id":"196939d7-8120-4fa4-8a8f-be34c3561853","system_id":"levelo_inurba_marseille","lat":43.31874,"lon":5.36837,"is_reserved":false,"is_disabled":false,"rental_uris":{"android":"levelo://app?vid=196939d7-8120-4fa4-8a8f-be34c3561853","ios":"levelo://app?vid=196939d7-8120-4fa4-8a8f-be34c3561853"},"vehicle_type_id":"4","last_reported":1777449550,"current_range_meters":8800,"station_id":"st_d6o2h0d0559c73evc1b0","pricing_plan_id":"cebpf4jnsgd1na2vs0mg"},{"bike_id":"9c7a340b-c4a0-4b3f-8d30-fcc5fa069138","system_id":"levelo_inurba_marseille","lat":43.24075,"lon":5.37752,"is_reserved":false,"is_disabled":false,"rental_uris":{"android":"levelo://app?vid=9c7a340b-c4a0-4b3f-8d30-fcc5fa069138","ios":"levelo://app?vid=9c7a340b-c4a0-4b3f-8d30-fcc5fa069138"},"vehicle_type_id":"4","last_reported":1777449550,"current_range_meters":8800,"station_id":"ce4bhnp2rcd13ifvqgvg","pricing_plan_id":"cebpf4jnsgd1na2vs0mg"},{"bike_id":"55639282-a0ac-4253-9e10-97105dc58bb9","system_id":"levelo_inurba_marseille","lat":43.23149,"lon":5.43718,"is_reserved":false,"is_disabled":false,"rental_uris":{"android":"levelo://app?vid=55639282-a0ac-4253-9e10-97105dc58bb9","ios":"levelo://app?vid=55639282-a0ac-4253-9e10-97105dc58bb9"},"vehicle_type_id":"4","last_reported":1777449550,"current_range_meters":8800,"station_id":"ce4bhmp2rcd13ifvqgog","pricing_plan_id":"cebpf4jnsgd1na2vs0mg"},{"bike_id":"b4a497ea-222e-419c-a826-4feb72e6ade8","system_id":"levelo_inurba_marseille","lat":43.28706,"lon":5.46679,"is_reserved":false,"is_disabled":false,"rental_uris":{"android":"levelo://app?vid=b4a497ea-222e-419c-a826-4feb72e6ade8","ios":"levelo://app?vid=b4a497ea-222e-419c-a826-4feb72e6ade8"},"vehicle_type_id":"4","last_reported":1777449550,"current_range_meters":9200,"station_id":"st_d6tc3vkotcvc738tfjhg","pricing_plan_id":"cebpf4jnsgd1na2vs0mg"},{"bike_id":"c62dd68e-1420-4f1f-9f98-ec3aebe502eb","system_id":"levelo_inurba_marseille","lat":43.31819,"lon":5.38496,"is_reserved":false,"is_disabled":false,"rental_uris":{"android":"levelo://app?vid=c62dd68e-1420-4f1f-9f98-ec3aebe502eb","ios":"levelo://app?vid=c62dd68e-1420-4f1f-9f98-ec3aebe502eb"},"vehicle_type_id":"4","last_reported":1777449550,"current_range_meters":9200,"station_id":"","pricing_plan_id":"cebpf4jnsgd1na2vs0mg"},{"bike_id":"93b13b9e-0842-4649-88de-644dbf6c103a","system_id":"levelo_inurba_marseille","lat":43.26455,"lon":5.42071,"is_reserved":false,"is_disabled":false,"rental_uris":{"android":"levelo://app?vid=93b13b9e-0842-4649-88de-644dbf6c103a","ios":"levelo://app?vid=93b13b9e-0842-4649-88de-644dbf6c103a"},"vehicle_type_id":"4","last_reported":1777449550,"current_range_meters":9200,"station_id":"","pricing_plan_id":"cebpf4jnsgd1na2vs0mg"},{"bike_id":"0438d68d-b4c6-4b23-a7e1-82657231ebe9","system_id":"levelo_inurba_marseille","lat":43.28488,"lon":5.48387,"is_reserved":false,"is_disabled":false,"rental_uris":{"android":"levelo://app?vid=0438d68d-b4c6-4b23-a7e1-82657231ebe9","ios":"levelo://app?vid=0438d68d-b4c6-4b23-a7e1-82657231ebe9"},"vehicle_type_id":"4","last_reported":1777449550,"current_range_meters":9200,"station_id":"","pricing_plan_id":"cebpf4jnsgd1na2vs0mg"},{"bike_id":"0f683579-894c-42cb-98b8-9180a95dd1f2","system_id":"levelo_inurba_marseille","lat":43.31678,"lon":5.40476,"is_reserved":false,"is_disabled":false,"rental_uris":{"android":"levelo://app?vid=0f683579-894c-42cb-98b8-9180a95dd1f2","ios":"levelo://app?vid=0f683579-894c-42cb-98b8-9180a95dd1f2"},"vehicle_type_id":"4","last_reported":1777449550,"current_range_meters":9200,"station_id":"ce4bh012rcd13ifvqd00","pricing_plan_id":"cebpf4jnsgd1na2vs0mg"},{"bike_id":"a8725ac2-9ac9-4bb1-b76b-eda7dfc664e2","system_id":"levelo_inurba_marseille","lat":43.31208,"lon":5.36876,"is_reserved":false,"is_disabled":false,"rental_uris":{"android":"levelo://app?vid=a8725ac2-9ac9-4bb1-b76b-eda7dfc664e2","ios":"levelo://app?vid=a8725ac2-9ac9-4bb1-b76b-eda7dfc664e2"},"vehicle_type_id":"4","last_reported":1777449550,"current_range_meters":9200,"station_id":"ce4bgl92rcd13ifvqbq0","pricing_plan_id":"cebpf4jnsgd1na2vs0mg"},{"bike_id":"7585ebf4-1481-4770-a888-a211fa567653","system_id":"levelo_inurba_marseille","lat":43.29577,"lon":5.37508,"is_reserved":false,"is_disabled":false,"rental_uris":{"android":"levelo://app?vid=7585ebf4-1481-4770-a888-a211fa567653","ios":"levelo://app?vid=7585ebf4-1481-4770-a888-a211fa567653"},"vehicle_type_id":"4","last_reported":1777449550,"current_range_meters":9200,"station_id":"ce4bgh92rcd13ifvqb50","pricing_plan_id":"cebpf4jnsgd1na2vs0mg"},{"bike_id":"21d95eb3-e7a7-42da-89cd-8c34dd2eb598","system_id":"levelo_inurba_marseille","lat":43.2655,"lon":5.37291,"is_reserved":false,"is_disabled":false,"rental_uris":{"android":"levelo://app?vid=21d95eb3-e7a7-42da-89cd-8c34dd2eb598","ios":"levelo://app?vid=21d95eb3-e7a7-42da-89cd-8c34dd2eb598"},"vehicle_type_id":"4","last_reported":1777449550,"current_range_meters":9200,"station_id":"ce4bhg12rcd13ifvqf70","pricing_plan_id":"cebpf4jnsgd1na2vs0mg"},{"bike_id":"67570d38-86a9-4844-b055-c858e2500379","system_id":"levelo_inurba_marseille","lat":43.26243,"lon":5.40433,"is_reserved":false,"is_disabled":false,"rental_uris":{"android":"levelo://app?vid=67570d38-86a9-4844-b055-c858e2500379","ios":"levelo://app?vid=67570d38-86a9-4844-b055-c858e2500379"},"vehicle_type_id":"4","last_reported":1777449550,"current_range_meters":9200,"station_id":"ce4bhmh2rcd13ifvqgmg","pricing_plan_id":"cebpf4jnsgd1na2vs0mg"},{"bike_id":"907b975e-fb54-4198-ad71-0a6fda3075d0","system_id":"levelo_inurba_marseille","lat":43.29892,"lon":5.39739,"is_reserved":false,"is_disabled":true,"rental_uris":{"android":"levelo://app?vid=907b975e-fb54-4198-ad71-0a6fda3075d0","ios":"levelo://app?vid=907b975e-fb54-4198-ad71-0a6fda3075d0"},"vehicle_type_id":"4","last_reported":1777449550,"current_range_meters":9200,"station_id":"ce4bh0h2rcd13ifvqd50","pricing_plan_id":"cebpf4jnsgd1na2vs0mg"},{"bike_id":"a72f8052-d72f-437c-b451-5ce4d6526675","system_id":"levelo_inurba_marseille","lat":43.28928,"lon":5.3964,"is_reserved":false,"is_disabled":false,"rental_uris":{"android":"levelo://app?vid=a72f8052-d72f-437c-b451-5ce4d6526675","ios":"levelo://app?vid=a72f8052-d72f-437c-b451-5ce4d6526675"},"vehicle_type_id":"4","last_reported":1777449550,"current_range_meters":9200,"station_id":"ce4bh3h2rcd13ifvqdn0","pricing_plan_id":"cebpf4jnsgd1na2vs0mg"},{"bike_id":"557fb6c8-fcd1-4be6-b4e8-a9d8ed965ac6","system_id":"levelo_inurba_marseille","lat":43.27061,"lon":5.38303,"is_reserved":false,"is_disabled":false,"rental_uris":{"android":"levelo://app?vid=557fb6c8-fcd1-4be6-b4e8-a9d8ed965ac6","ios":"levelo://app?vid=557fb6c8-fcd1-4be6-b4e8-a9d8ed965ac6"},"vehicle_type_id":"4","last_reported":1777449550,"current_range_meters":9200,"station_id":"st_d3n2fo6cfp8s73cte1j0","pricing_plan_id":"cebpf4jnsgd1na2vs0mg"},{"bike_id":"809dbee3-b28b-45fa-8543-de3ebcdde081","system_id":"levelo_inurba_marseille","lat":43.29759,"lon":5.38117,"is_reserved":false,"is_disabled":false,"rental_uris":{"android":"levelo://app?vid=809dbee3-b28b-45fa-8543-de3ebcdde081","ios":"levelo://app?vid=809dbee3-b28b-45fa-8543-de3ebcdde081"},"vehicle_type_id":"4","last_reported":1777449550,"current_range_meters":9200,"station_id":"","pricing_plan_id":"cebpf4jnsgd1na2vs0mg"},{"bike_id":"f3bb3b17-b5e5-427f-8763-3698f07ddc46","system_id":"levelo_inurba_marseille","lat":43.29685,"lon":5.37308,"is_reserved":false,"is_disabled":false,"rental_uris":{"android":"levelo://app?vid=f3bb3b17-b5e5-427f-8763-3698f07ddc46","ios":"levelo://app?vid=f3bb3b17-b5e5-427f-8763-3698f07ddc46"},"vehicle_type_id":"4","last_reported":1777449550,"current_range_meters":9200,"station_id":"ce4bgk12rcd13ifvqbj0","pricing_plan_id":"cebpf4jnsgd1na2vs0mg"},{"bike_id":"14015fc9-b839-4138-b4d5-9a2f5afbe521","system_id":"levelo_inurba_marseille","lat":43.29196,"lon":5.42653,"is_reserved":false,"is_disabled":false,"rental_uris":{"android":"levelo://app?vid=14015fc9-b839-4138-b4d5-9a2f5afbe521","ios":"levelo://app?vid=14015fc9-b839-4138-b4d5-9a2f5afbe521"},"vehicle_type_id":"4","last_reported":1777449550,"current_range_meters":9200,"station_id":"","pricing_plan_id":"cebpf4jnsgd1na2vs0mg"},{"bike_id":"152e4c91-362b-4a1d-bd6d-9c1a91c824f6","system_id":"levelo_inurba_marseille","lat":43.24067,"lon":5.37754,"is_reserved":false,"is_disabled":false,"rental_uris":{"android":"levelo://app?vid=152e4c91-362b-4a1d-bd6d-9c1a91c824f6","ios":"levelo://app?vid=152e4c91-362b-4a1d-bd6d-9c1a91c824f6"},"vehicle_type_id":"4","last_reported":1777449550,"current_range_meters":9200,"station_id":"ce4bhnp2rcd13ifvqgvg","pricing_plan_id":"cebpf4jnsgd1na2vs0mg"},{"bike_id":"93a0d6f1-1d8b-457b-a3f8-1bf6305572bd","system_id":"levelo_inurba_marseille","lat":43.31354,"lon":5.36674,"is_reserved":false,"is_disabled":false,"rental_uris":{"android":"levelo://app?vid=93a0d6f1-1d8b-457b-a3f8-1bf6305572bd","ios":"levelo://app?vid=93a0d6f1-1d8b-457b-a3f8-1bf6305572bd"},"vehicle_type_id":"4","last_reported":1777449550,"current_range_meters":9200,"station_id":"ce4bgr92rcd13ifvqc6g","pricing_plan_id":"cebpf4jnsgd1na2vs0mg"},{"bike_id":"077fd9d6-fd31-4538-9468-c9995c699e08","system_id":"levelo_inurba_marseille","lat":43.29814,"lon":5.39152,"is_reserved":false,"is_disabled":false,"rental_uris":{"android":"levelo://app?vid=077fd9d6-fd31-4538-9468-c9995c699e08","ios":"levelo://app?vid=077fd9d6-fd31-4538-9468-c9995c699e08"},"vehicle_type_id":"4","last_reported":1777449550,"current_range_meters":9200,"station_id":"","pricing_plan_id":"cebpf4jnsgd1na2vs0mg"},{"bike_id":"33e88081-6b06-412e-90dd-26dec2803b81","system_id":"levelo_inurba_marseille","lat":43.24072,"lon":5.37752,"is_reserved":false,"is_disabled":false,"rental_uris":{"android":"levelo://app?vid=33e88081-6b06-412e-90dd-26dec2803b81","ios":"levelo://app?vid=33e88081-6b06-412e-90dd-26dec2803b81"},"vehicle_type_id":"4","last_reported":1777449550,"current_range_meters":9200,"station_id":"ce4bhnp2rcd13ifvqgvg","pricing_plan_id":"cebpf4jnsgd1na2vs0mg"},{"bike_id":"fdeb54a4-cf54-40db-a01a-bf21ba0aea96","system_id":"levelo_inurba_marseille","lat":43.31271,"lon":5.40155,"is_reserved":false,"is_disabled":false,"rental_uris":{"android":"levelo://app?vid=fdeb54a4-cf54-40db-a01a-bf21ba0aea96","ios":"levelo://app?vid=fdeb54a4-cf54-40db-a01a-bf21ba0aea96"},"vehicle_type_id":"4","last_reported":1777449550,"current_range_meters":9600,"station_id":"ce4bh092rcd13ifvqd30","pricing_plan_id":"cebpf4jnsgd1na2vs0mg"},{"bike_id":"700e9ac8-2abc-424e-9e74-e38ad1f3ac54","system_id":"levelo_inurba_marseille","lat":43.28165,"lon":5.42665,"is_reserved":false,"is_disabled":false,"rental_uris":{"android":"levelo://app?vid=700e9ac8-2abc-424e-9e74-e38ad1f3ac54","ios":"levelo://app?vid=700e9ac8-2abc-424e-9e74-e38ad1f3ac54"},"vehicle_type_id":"4","last_reported":1777449550,"current_range_meters":9600,"station_id":"ce4bhnh2rcd13ifvqgug","pricing_plan_id":"cebpf4jnsgd1na2vs0mg"},{"bike_id":"6c12a1b9-1b12-4f78-bdfb-97f2a8fa7c51","system_id":"levelo_inurba_marseille","lat":43.28488,"lon":5.38435,"is_reserved":false,"is_disabled":false,"rental_uris":{"android":"levelo://app?vid=6c12a1b9-1b12-4f78-bdfb-97f2a8fa7c51","ios":"levelo://app?vid=6c12a1b9-1b12-4f78-bdfb-97f2a8fa7c51"},"vehicle_type_id":"4","last_reported":1777449550,"current_range_meters":9600,"station_id":"ce4bh512rcd13ifvqe3g","pricing_plan_id":"cebpf4jnsgd1na2vs0mg"},{"bike_id":"217ccbaa-db84-4214-b335-5aa00ca8c9e9","system_id":"levelo_inurba_marseille","lat":43.25932,"lon":5.40909,"is_reserved":false,"is_disabled":false,"rental_uris":{"android":"levelo://app?vid=217ccbaa-db84-4214-b335-5aa00ca8c9e9","ios":"levelo://app?vid=217ccbaa-db84-4214-b335-5aa00ca8c9e9"},"vehicle_type_id":"4","last_reported":1777449550,"current_range_meters":9600,"station_id":"ce4bhm92rcd13ifvqglg","pricing_plan_id":"cebpf4jnsgd1na2vs0mg"},{"bike_id":"262fc285-b6eb-4eda-9ac1-639b6caaacc5","system_id":"levelo_inurba_marseille","lat":43.32351,"lon":5.36736,"is_reserved":false,"is_disabled":false,"rental_uris":{"android":"levelo://app?vid=262fc285-b6eb-4eda-9ac1-639b6caaacc5","ios":"levelo://app?vid=262fc285-b6eb-4eda-9ac1-639b6caaacc5"},"vehicle_type_id":"4","last_reported":1777449550,"current_range_meters":9600,"station_id":"ce4bhsh2rcd13ifvqi2g","pricing_plan_id":"cebpf4jnsgd1na2vs0mg"},{"bike_id":"603df54c-d359-4e00-8712-7158e41daceb","system_id":"levelo_inurba_marseille","lat":43.31184,"lon":5.36841,"is_reserved":false,"is_disabled":false,"rental_uris":{"android":"levelo://app?vid=603df54c-d359-4e00-8712-7158e41daceb","ios":"levelo://app?vid=603df54c-d359-4e00-8712-7158e41daceb"},"vehicle_type_id":"4","last_reported":1777449550,"current_range_meters":9600,"station_id":"ce4bgl92rcd13ifvqbq0","pricing_plan_id":"cebpf4jnsgd1na2vs0mg"},{"bike_id":"1f8f2900-3b21-46c3-b4e6-d4e20a24d45c","system_id":"levelo_inurba_marseille","lat":43.27493,"lon":5.42454,"is_reserved":false,"is_disabled":false,"rental_uris":{"android":"levelo://app?vid=1f8f2900-3b21-46c3-b4e6-d4e20a24d45c","ios":"levelo://app?vid=1f8f2900-3b21-46c3-b4e6-d4e20a24d45c"},"vehicle_type_id":"4","last_reported":1777449550,"current_range_meters":9600,"station_id":"ce4bhn92rcd13ifvqgrg","pricing_plan_id":"cebpf4jnsgd1na2vs0mg"},{"bike_id":"a3e842f1-0f26-49ab-8d5c-e3cbfe1aef9d","system_id":"levelo_inurba_marseille","lat":43.23897,"lon":5.3746,"is_reserved":false,"is_disabled":false,"rental_uris":{"android":"levelo://app?vid=a3e842f1-0f26-49ab-8d5c-e3cbfe1aef9d","ios":"levelo://app?vid=a3e842f1-0f26-49ab-8d5c-e3cbfe1aef9d"},"vehicle_type_id":"4","last_reported":1777449550,"current_range_meters":9600,"station_id":"st_d6sm7csbq4hs73f8fpjg","pricing_plan_id":"cebpf4jnsgd1na2vs0mg"},{"bike_id":"565a8ac0-2b20-423c-a683-e409c051d1eb","system_id":"levelo_inurba_marseille","lat":43.31226,"lon":5.36895,"is_reserved":false,"is_disabled":false,"rental_uris":{"android":"levelo://app?vid=565a8ac0-2b20-423c-a683-e409c051d1eb","ios":"levelo://app?vid=565a8ac0-2b20-423c-a683-e409c051d1eb"},"vehicle_type_id":"4","last_reported":1777449550,"current_range_meters":9600,"station_id":"ce4bgl92rcd13ifvqbq0","pricing_plan_id":"cebpf4jnsgd1na2vs0mg"},{"bike_id":"d3bd480c-f6ce-4231-a1d5-20e54cb8851a","system_id":"levelo_inurba_marseille","lat":43.29631,"lon":5.37154,"is_reserved":false,"is_disabled":true,"rental_uris":{"android":"levelo://app?vid=d3bd480c-f6ce-4231-a1d5-20e54cb8851a","ios":"levelo://app?vid=d3bd480c-f6ce-4231-a1d5-20e54cb8851a"},"vehicle_type_id":"4","last_reported":1777449550,"current_range_meters":9600,"station_id":"ce4bgnh2rcd13ifvqc0g","pricing_plan_id":"cebpf4jnsgd1na2vs0mg"},{"bike_id":"eb8542ba-b1aa-4e62-a573-f2b50a99d2db","system_id":"levelo_inurba_marseille","lat":43.26935,"lon":5.40257,"is_reserved":false,"is_disabled":false,"rental_uris":{"android":"levelo://app?vid=eb8542ba-b1aa-4e62-a573-f2b50a99d2db","ios":"levelo://app?vid=eb8542ba-b1aa-4e62-a573-f2b50a99d2db"},"vehicle_type_id":"4","last_reported":1777449550,"current_range_meters":9600,"station_id":"cjm6bp8fraef2m0cb0m0","pricing_plan_id":"cebpf4jnsgd1na2vs0mg"},{"bike_id":"f81c4ece-79e6-4472-ac97-4a711aba901e","system_id":"levelo_inurba_marseille","lat":43.30947,"lon":5.39036,"is_reserved":false,"is_disabled":false,"rental_uris":{"android":"levelo://app?vid=f81c4ece-79e6-4472-ac97-4a711aba901e","ios":"levelo://app?vid=f81c4ece-79e6-4472-ac97-4a711aba901e"},"vehicle_type_id":"4","last_reported":1777449550,"current_range_meters":9600,"station_id":"ce4bgup2rcd13ifvqco0","pricing_plan_id":"cebpf4jnsgd1na2vs0mg"},{"bike_id":"d6376065-a7e2-41e8-99d5-29ecd7b8ac56","system_id":"levelo_inurba_marseille","lat":43.2671,"lon":5.38233,"is_reserved":false,"is_disabled":false,"rental_uris":{"android":"levelo://app?vid=d6376065-a7e2-41e8-99d5-29ecd7b8ac56","ios":"levelo://app?vid=d6376065-a7e2-41e8-99d5-29ecd7b8ac56"},"vehicle_type_id":"4","last_reported":1777449550,"current_range_meters":9600,"station_id":"ce4bhg92rcd13ifvqf90","pricing_plan_id":"cebpf4jnsgd1na2vs0mg"},{"bike_id":"c008f131-f718-4a1e-a468-bcc7245ec87d","system_id":"levelo_inurba_marseille","lat":43.33024,"lon":5.37046,"is_reserved":false,"is_disabled":false,"rental_uris":{"android":"levelo://app?vid=c008f131-f718-4a1e-a468-bcc7245ec87d","ios":"levelo://app?vid=c008f131-f718-4a1e-a468-bcc7245ec87d"},"vehicle_type_id":"4","last_reported":1777449550,"current_range_meters":9600,"station_id":"","pricing_plan_id":"cebpf4jnsgd1na2vs0mg"},{"bike_id":"f2e5fcdb-d356-4458-9981-130f1b657660","system_id":"levelo_inurba_marseille","lat":43.24947,"lon":5.40487,"is_reserved":false,"is_disabled":false,"rental_uris":{"android":"levelo://app?vid=f2e5fcdb-d356-4458-9981-130f1b657660","ios":"levelo://app?vid=f2e5fcdb-d356-4458-9981-130f1b657660"},"vehicle_type_id":"4","last_reported":1777449550,"current_range_meters":9600,"station_id":"st_d2ngiaodas8pm72gd1h0","pricing_plan_id":"cebpf4jnsgd1na2vs0mg"},{"bike_id":"72e5bb5d-486f-4ca3-b871-8f1bc8ed5aa8","system_id":"levelo_inurba_marseille","lat":43.23159,"lon":5.437,"is_reserved":false,"is_disabled":false,"rental_uris":{"android":"levelo://app?vid=72e5bb5d-486f-4ca3-b871-8f1bc8ed5aa8","ios":"levelo://app?vid=72e5bb5d-486f-4ca3-b871-8f1bc8ed5aa8"},"vehicle_type_id":"4","last_reported":1777449550,"current_range_meters":9600,"station_id":"ce4bhmp2rcd13ifvqgog","pricing_plan_id":"cebpf4jnsgd1na2vs0mg"},{"bike_id":"f8b08a99-be2e-4ade-8fb0-3e565e1cc6af","system_id":"levelo_inurba_marseille","lat":43.30908,"lon":5.36851,"is_reserved":false,"is_disabled":false,"rental_uris":{"android":"levelo://app?vid=f8b08a99-be2e-4ade-8fb0-3e565e1cc6af","ios":"levelo://app?vid=f8b08a99-be2e-4ade-8fb0-3e565e1cc6af"},"vehicle_type_id":"4","last_reported":1777449550,"current_range_meters":9600,"station_id":"ce4bgn92rcd13ifvqbvg","pricing_plan_id":"cebpf4jnsgd1na2vs0mg"},{"bike_id":"a13cf09e-4dc6-4122-934a-08e5a4ad06bd","system_id":"levelo_inurba_marseille","lat":43.26547,"lon":5.3729,"is_reserved":false,"is_disabled":true,"rental_uris":{"android":"levelo://app?vid=a13cf09e-4dc6-4122-934a-08e5a4ad06bd","ios":"levelo://app?vid=a13cf09e-4dc6-4122-934a-08e5a4ad06bd"},"vehicle_type_id":"4","last_reported":1777449550,"current_range_meters":9600,"station_id":"ce4bhg12rcd13ifvqf70","pricing_plan_id":"cebpf4jnsgd1na2vs0mg"},{"bike_id":"232ef4e6-6777-4f5f-9c9d-0700625eb4eb","system_id":"levelo_inurba_marseille","lat":43.31703,"lon":5.40423,"is_reserved":false,"is_disabled":false,"rental_uris":{"android":"levelo://app?vid=232ef4e6-6777-4f5f-9c9d-0700625eb4eb","ios":"levelo://app?vid=232ef4e6-6777-4f5f-9c9d-0700625eb4eb"},"vehicle_type_id":"4","last_reported":1777449550,"current_range_meters":9600,"station_id":"ce4bh012rcd13ifvqd00","pricing_plan_id":"cebpf4jnsgd1na2vs0mg"},{"bike_id":"3fda5cf7-22d8-49d7-96e2-58ae8c7eee6a","system_id":"levelo_inurba_marseille","lat":43.28974,"lon":5.37829,"is_reserved":false,"is_disabled":false,"rental_uris":{"android":"levelo://app?vid=3fda5cf7-22d8-49d7-96e2-58ae8c7eee6a","ios":"levelo://app?vid=3fda5cf7-22d8-49d7-96e2-58ae8c7eee6a"},"vehicle_type_id":"4","last_reported":1777449550,"current_range_meters":10000,"station_id":"ce4bh9p2rcd13ifvqed0","pricing_plan_id":"cebpf4jnsgd1na2vs0mg"},{"bike_id":"16dc7d07-446b-4d1f-851e-af071ffdfcb2","system_id":"levelo_inurba_marseille","lat":43.30115,"lon":5.3743,"is_reserved":false,"is_disabled":false,"rental_uris":{"android":"levelo://app?vid=16dc7d07-446b-4d1f-851e-af071ffdfcb2","ios":"levelo://app?vid=16dc7d07-446b-4d1f-851e-af071ffdfcb2"},"vehicle_type_id":"4","last_reported":1777449550,"current_range_meters":10000,"station_id":"ce4bgs92rcd13ifvqcc0","pricing_plan_id":"cebpf4jnsgd1na2vs0mg"},{"bike_id":"82a8043e-804e-4dc9-b426-b4d299449f67","system_id":"levelo_inurba_marseille","lat":43.31057,"lon":5.37181,"is_reserved":false,"is_disabled":false,"rental_uris":{"android":"levelo://app?vid=82a8043e-804e-4dc9-b426-b4d299449f67","ios":"levelo://app?vid=82a8043e-804e-4dc9-b426-b4d299449f67"},"vehicle_type_id":"4","last_reported":1777449550,"current_range_meters":10000,"station_id":"st_d4kl2rp97mjs73e7tdfg","pricing_plan_id":"cebpf4jnsgd1na2vs0mg"},{"bike_id":"d97ed6ed-9254-4b2c-9752-a3aaf3378900","system_id":"levelo_inurba_marseille","lat":43.33541,"lon":5.37462,"is_reserved":false,"is_disabled":false,"rental_uris":{"android":"levelo://app?vid=d97ed6ed-9254-4b2c-9752-a3aaf3378900","ios":"levelo://app?vid=d97ed6ed-9254-4b2c-9752-a3aaf3378900"},"vehicle_type_id":"4","last_reported":1777449550,"current_range_meters":10000,"station_id":"st_d46tts09ee8s73dlu43g","pricing_plan_id":"cebpf4jnsgd1na2vs0mg"},{"bike_id":"7264384a-c7fd-4e3b-9c96-ac62192c7a31","system_id":"levelo_inurba_marseille","lat":43.288663,"lon":5.383008,"is_reserved":false,"is_disabled":false,"rental_uris":{"android":"levelo://app?vid=7264384a-c7fd-4e3b-9c96-ac62192c7a31","ios":"levelo://app?vid=7264384a-c7fd-4e3b-9c96-ac62192c7a31"},"vehicle_type_id":"4","last_reported":1777449550,"current_range_meters":10000,"station_id":"ce4bh512rcd13ifvqe2g","pricing_plan_id":"cebpf4jnsgd1na2vs0mg"},{"bike_id":"2484e104-a6b0-424e-8eff-a4bcba40aa2a","system_id":"levelo_inurba_marseille","lat":43.30459,"lon":5.37915,"is_reserved":false,"is_disabled":false,"rental_uris":{"android":"levelo://app?vid=2484e104-a6b0-424e-8eff-a4bcba40aa2a","ios":"levelo://app?vid=2484e104-a6b0-424e-8eff-a4bcba40aa2a"},"vehicle_type_id":"4","last_reported":1777449550,"current_range_meters":10000,"station_id":"ce4bgup2rcd13ifvqcn0","pricing_plan_id":"cebpf4jnsgd1na2vs0mg"},{"bike_id":"b385e7a9-7aa6-4ef4-8c76-344e13ae8a0f","system_id":"levelo_inurba_marseille","lat":43.26669,"lon":5.38267,"is_reserved":false,"is_disabled":false,"rental_uris":{"android":"levelo://app?vid=b385e7a9-7aa6-4ef4-8c76-344e13ae8a0f","ios":"levelo://app?vid=b385e7a9-7aa6-4ef4-8c76-344e13ae8a0f"},"vehicle_type_id":"4","last_reported":1777449550,"current_range_meters":10000,"station_id":"ce4bhg92rcd13ifvqf90","pricing_plan_id":"cebpf4jnsgd1na2vs0mg"},{"bike_id":"a2a694ab-bd57-45a8-a651-048e4cefae01","system_id":"levelo_inurba_marseille","lat":43.28706,"lon":5.46709,"is_reserved":false,"is_disabled":false,"rental_uris":{"android":"levelo://app?vid=a2a694ab-bd57-45a8-a651-048e4cefae01","ios":"levelo://app?vid=a2a694ab-bd57-45a8-a651-048e4cefae01"},"vehicle_type_id":"4","last_reported":1777449550,"current_range_meters":10000,"station_id":"st_d6tc3vkotcvc738tfjhg","pricing_plan_id":"cebpf4jnsgd1na2vs0mg"},{"bike_id":"cffcc474-2ce1-43a9-811e-30f04614f857","system_id":"levelo_inurba_marseille","lat":43.25122,"lon":5.42628,"is_reserved":false,"is_disabled":false,"rental_uris":{"android":"levelo://app?vid=cffcc474-2ce1-43a9-811e-30f04614f857","ios":"levelo://app?vid=cffcc474-2ce1-43a9-811e-30f04614f857"},"vehicle_type_id":"4","last_reported":1777449550,"current_range_meters":10000,"station_id":"","pricing_plan_id":"cebpf4jnsgd1na2vs0mg"},{"bike_id":"811a86b2-632e-4ad4-8d6e-384d2411573f","system_id":"levelo_inurba_marseille","lat":43.264978,"lon":5.395358,"is_reserved":false,"is_disabled":false,"rental_uris":{"android":"levelo://app?vid=811a86b2-632e-4ad4-8d6e-384d2411573f","ios":"levelo://app?vid=811a86b2-632e-4ad4-8d6e-384d2411573f"},"vehicle_type_id":"4","last_reported":1777449550,"current_range_meters":10000,"station_id":"ce4bhi12rcd13ifvqfq0","pricing_plan_id":"cebpf4jnsgd1na2vs0mg"},{"bike_id":"60d77da4-6419-429b-9e7a-b2cf161a2f69","system_id":"levelo_inurba_marseille","lat":43.32642,"lon":5.39497,"is_reserved":false,"is_disabled":false,"rental_uris":{"android":"levelo://app?vid=60d77da4-6419-429b-9e7a-b2cf161a2f69","ios":"levelo://app?vid=60d77da4-6419-429b-9e7a-b2cf161a2f69"},"vehicle_type_id":"4","last_reported":1777449550,"current_range_meters":10000,"station_id":"","pricing_plan_id":"cebpf4jnsgd1na2vs0mg"},{"bike_id":"105f32f6-c368-4de0-8ad5-1075cdf8978e","system_id":"levelo_inurba_marseille","lat":43.24116,"lon":5.36481,"is_reserved":false,"is_disabled":false,"rental_uris":{"android":"levelo://app?vid=105f32f6-c368-4de0-8ad5-1075cdf8978e","ios":"levelo://app?vid=105f32f6-c368-4de0-8ad5-1075cdf8978e"},"vehicle_type_id":"4","last_reported":1777449550,"current_range_meters":10000,"station_id":"","pricing_plan_id":"cebpf4jnsgd1na2vs0mg"},{"bike_id":"8829f460-aa5f-4233-9846-cd6731fc4acd","system_id":"levelo_inurba_marseille","lat":43.26983,"lon":5.40434,"is_reserved":false,"is_disabled":false,"rental_uris":{"android":"levelo://app?vid=8829f460-aa5f-4233-9846-cd6731fc4acd","ios":"levelo://app?vid=8829f460-aa5f-4233-9846-cd6731fc4acd"},"vehicle_type_id":"4","last_reported":1777449550,"current_range_meters":10800,"station_id":"","pricing_plan_id":"cebpf4jnsgd1na2vs0mg"},{"bike_id":"67094ed5-cba3-43bb-ab91-fbcfb4077ccb","system_id":"levelo_inurba_marseille","lat":43.29619,"lon":5.37713,"is_reserved":false,"is_disabled":false,"rental_uris":{"android":"levelo://app?vid=67094ed5-cba3-43bb-ab91-fbcfb4077ccb","ios":"levelo://app?vid=67094ed5-cba3-43bb-ab91-fbcfb4077ccb"},"vehicle_type_id":"4","last_reported":1777449550,"current_range_meters":10800,"station_id":"ce4bgi92rcd13ifvqb90","pricing_plan_id":"cebpf4jnsgd1na2vs0mg"},{"bike_id":"7ff7704e-48dd-4ab8-a079-cb01dcc1a1fc","system_id":"levelo_inurba_marseille","lat":43.29846,"lon":5.36275,"is_reserved":false,"is_disabled":false,"rental_uris":{"android":"levelo://app?vid=7ff7704e-48dd-4ab8-a079-cb01dcc1a1fc","ios":"levelo://app?vid=7ff7704e-48dd-4ab8-a079-cb01dcc1a1fc"},"vehicle_type_id":"4","last_reported":1777449550,"current_range_meters":10800,"station_id":"ce4bgpp2rcd13ifvqc3g","pricing_plan_id":"cebpf4jnsgd1na2vs0mg"},{"bike_id":"dabb6558-388e-43f3-9124-582e742ee3c8","system_id":"levelo_inurba_marseille","lat":43.31892,"lon":5.36824,"is_reserved":false,"is_disabled":false,"rental_uris":{"android":"levelo://app?vid=dabb6558-388e-43f3-9124-582e742ee3c8","ios":"levelo://app?vid=dabb6558-388e-43f3-9124-582e742ee3c8"},"vehicle_type_id":"4","last_reported":1777449550,"current_range_meters":10800,"station_id":"st_d6o2h0d0559c73evc1b0","pricing_plan_id":"cebpf4jnsgd1na2vs0mg"},{"bike_id":"8c869f02-aae3-47f4-8f13-4875b1795536","system_id":"levelo_inurba_marseille","lat":43.26196,"lon":5.3793,"is_reserved":false,"is_disabled":false,"rental_uris":{"android":"levelo://app?vid=8c869f02-aae3-47f4-8f13-4875b1795536","ios":"levelo://app?vid=8c869f02-aae3-47f4-8f13-4875b1795536"},"vehicle_type_id":"4","last_reported":1777449550,"current_range_meters":10800,"station_id":"ce4bhjp2rcd13ifvqg90","pricing_plan_id":"cebpf4jnsgd1na2vs0mg"},{"bike_id":"987afc8d-fc4c-4f1a-acc9-30e0fa196b69","system_id":"levelo_inurba_marseille","lat":43.282007,"lon":5.34989,"is_reserved":false,"is_disabled":false,"rental_uris":{"android":"levelo://app?vid=987afc8d-fc4c-4f1a-acc9-30e0fa196b69","ios":"levelo://app?vid=987afc8d-fc4c-4f1a-acc9-30e0fa196b69"},"vehicle_type_id":"4","last_reported":1777449550,"current_range_meters":10800,"station_id":"","pricing_plan_id":"cebpf4jnsgd1na2vs0mg"},{"bike_id":"99810ec9-2ec9-4afd-857d-e341e9ecb097","system_id":"levelo_inurba_marseille","lat":43.31355,"lon":5.36698,"is_reserved":false,"is_disabled":false,"rental_uris":{"android":"levelo://app?vid=99810ec9-2ec9-4afd-857d-e341e9ecb097","ios":"levelo://app?vid=99810ec9-2ec9-4afd-857d-e341e9ecb097"},"vehicle_type_id":"4","last_reported":1777449550,"current_range_meters":10800,"station_id":"ce4bgr92rcd13ifvqc6g","pricing_plan_id":"cebpf4jnsgd1na2vs0mg"},{"bike_id":"95f47514-1d7f-4013-95fe-a0916f7cc45a","system_id":"levelo_inurba_marseille","lat":43.33524,"lon":5.37456,"is_reserved":false,"is_disabled":false,"rental_uris":{"android":"levelo://app?vid=95f47514-1d7f-4013-95fe-a0916f7cc45a","ios":"levelo://app?vid=95f47514-1d7f-4013-95fe-a0916f7cc45a"},"vehicle_type_id":"4","last_reported":1777449550,"current_range_meters":10800,"station_id":"st_d46tts09ee8s73dlu43g","pricing_plan_id":"cebpf4jnsgd1na2vs0mg"},{"bike_id":"67770120-bd85-4b15-af1e-f85ca14859f3","system_id":"levelo_inurba_marseille","lat":43.28864,"lon":5.42521,"is_reserved":false,"is_disabled":false,"rental_uris":{"android":"levelo://app?vid=67770120-bd85-4b15-af1e-f85ca14859f3","ios":"levelo://app?vid=67770120-bd85-4b15-af1e-f85ca14859f3"},"vehicle_type_id":"4","last_reported":1777449550,"current_range_meters":10800,"station_id":"st_d3b462108ojc7389ooeg","pricing_plan_id":"cebpf4jnsgd1na2vs0mg"},{"bike_id":"7a551979-534d-4ed9-bacc-42cf108e0dbb","system_id":"levelo_inurba_marseille","lat":43.3212,"lon":5.36762,"is_reserved":false,"is_disabled":false,"rental_uris":{"android":"levelo://app?vid=7a551979-534d-4ed9-bacc-42cf108e0dbb","ios":"levelo://app?vid=7a551979-534d-4ed9-bacc-42cf108e0dbb"},"vehicle_type_id":"4","last_reported":1777449550,"current_range_meters":10800,"station_id":"ce4bhrh2rcd13ifvqhug","pricing_plan_id":"cebpf4jnsgd1na2vs0mg"},{"bike_id":"e81022dd-19c8-4204-a3cc-bd5e81a601c4","system_id":"levelo_inurba_marseille","lat":43.24945,"lon":5.40488,"is_reserved":false,"is_disabled":false,"rental_uris":{"android":"levelo://app?vid=e81022dd-19c8-4204-a3cc-bd5e81a601c4","ios":"levelo://app?vid=e81022dd-19c8-4204-a3cc-bd5e81a601c4"},"vehicle_type_id":"4","last_reported":1777449550,"current_range_meters":10800,"station_id":"st_d2ngiaodas8pm72gd1h0","pricing_plan_id":"cebpf4jnsgd1na2vs0mg"},{"bike_id":"7be06c3a-8473-4b45-a3f6-aea060cfe576","system_id":"levelo_inurba_marseille","lat":43.2557,"lon":5.38233,"is_reserved":false,"is_disabled":false,"rental_uris":{"android":"levelo://app?vid=7be06c3a-8473-4b45-a3f6-aea060cfe576","ios":"levelo://app?vid=7be06c3a-8473-4b45-a3f6-aea060cfe576"},"vehicle_type_id":"4","last_reported":1777449550,"current_range_meters":10800,"station_id":"ce4bhih2rcd13ifvqfs0","pricing_plan_id":"cebpf4jnsgd1na2vs0mg"},{"bike_id":"1366d3cd-34a1-403c-84f8-8cd1b14cd5b0","system_id":"levelo_inurba_marseille","lat":43.25579,"lon":5.38227,"is_reserved":false,"is_disabled":false,"rental_uris":{"android":"levelo://app?vid=1366d3cd-34a1-403c-84f8-8cd1b14cd5b0","ios":"levelo://app?vid=1366d3cd-34a1-403c-84f8-8cd1b14cd5b0"},"vehicle_type_id":"4","last_reported":1777449550,"current_range_meters":10800,"station_id":"ce4bhih2rcd13ifvqfs0","pricing_plan_id":"cebpf4jnsgd1na2vs0mg"},{"bike_id":"7f2dea88-205f-4739-a3ab-525ae7670615","system_id":"levelo_inurba_marseille","lat":43.29265,"lon":5.40911,"is_reserved":false,"is_disabled":true,"rental_uris":{"android":"levelo://app?vid=7f2dea88-205f-4739-a3ab-525ae7670615","ios":"levelo://app?vid=7f2dea88-205f-4739-a3ab-525ae7670615"},"vehicle_type_id":"4","last_reported":1777449550,"current_range_meters":10800,"station_id":"ce4bh192rcd13ifvqdc0","pricing_plan_id":"cebpf4jnsgd1na2vs0mg"},{"bike_id":"5487bf28-031a-4b6d-a3fe-b8ead5289d51","system_id":"levelo_inurba_marseille","lat":43.32499,"lon":5.38289,"is_reserved":false,"is_disabled":false,"rental_uris":{"android":"levelo://app?vid=5487bf28-031a-4b6d-a3fe-b8ead5289d51","ios":"levelo://app?vid=5487bf28-031a-4b6d-a3fe-b8ead5289d51"},"vehicle_type_id":"4","last_reported":1777449550,"current_range_meters":10800,"station_id":"st_d4asgbiv49dc73anf9m0","pricing_plan_id":"cebpf4jnsgd1na2vs0mg"},{"bike_id":"88323d48-a48f-4858-a32c-d64b2a61ee7d","system_id":"levelo_inurba_marseille","lat":43.24948,"lon":5.40485,"is_reserved":false,"is_disabled":false,"rental_uris":{"android":"levelo://app?vid=88323d48-a48f-4858-a32c-d64b2a61ee7d","ios":"levelo://app?vid=88323d48-a48f-4858-a32c-d64b2a61ee7d"},"vehicle_type_id":"4","last_reported":1777449550,"current_range_meters":10800,"station_id":"st_d2ngiaodas8pm72gd1h0","pricing_plan_id":"cebpf4jnsgd1na2vs0mg"},{"bike_id":"65b41c9f-21dd-430c-a4a3-f51aed8b6f1e","system_id":"levelo_inurba_marseille","lat":43.30151,"lon":5.38092,"is_reserved":false,"is_disabled":false,"rental_uris":{"android":"levelo://app?vid=65b41c9f-21dd-430c-a4a3-f51aed8b6f1e","ios":"levelo://app?vid=65b41c9f-21dd-430c-a4a3-f51aed8b6f1e"},"vehicle_type_id":"4","last_reported":1777449550,"current_range_meters":10800,"station_id":"ce4bgjp2rcd13ifvqbh0","pricing_plan_id":"cebpf4jnsgd1na2vs0mg"},{"bike_id":"94e3e6f6-fe60-427b-ae52-e1ace34a0263","system_id":"levelo_inurba_marseille","lat":43.2731,"lon":5.39067,"is_reserved":false,"is_disabled":false,"rental_uris":{"android":"levelo://app?vid=94e3e6f6-fe60-427b-ae52-e1ace34a0263","ios":"levelo://app?vid=94e3e6f6-fe60-427b-ae52-e1ace34a0263"},"vehicle_type_id":"4","last_reported":1777449550,"current_range_meters":10800,"station_id":"ce4bhgp2rcd13ifvqfe0","pricing_plan_id":"cebpf4jnsgd1na2vs0mg"},{"bike_id":"428278d2-1f93-4bd3-acf6-fc485ed01fc3","system_id":"levelo_inurba_marseille","lat":43.26213,"lon":5.37923,"is_reserved":false,"is_disabled":false,"rental_uris":{"android":"levelo://app?vid=428278d2-1f93-4bd3-acf6-fc485ed01fc3","ios":"levelo://app?vid=428278d2-1f93-4bd3-acf6-fc485ed01fc3"},"vehicle_type_id":"4","last_reported":1777449550,"current_range_meters":10800,"station_id":"ce4bhjp2rcd13ifvqg90","pricing_plan_id":"cebpf4jnsgd1na2vs0mg"},