{"last_updated":1774886332,"ttl":60,"version":"2.2","data":{"bikes":[{"bike_id":"84c713b7-0b63-4bb8-a6ee-a50270e8a2cc","system_id":"levelo_inurba_marseille","lat":43.29531,"lon":5.38666,"is_reserved":false,"is_disabled":false,"rental_uris":{"android":"levelo://app?vid=84c713b7-0b63-4bb8-a6ee-a50270e8a2cc","ios":"levelo://app?vid=84c713b7-0b63-4bb8-a6ee-a50270e8a2cc"},"vehicle_type_id":"4","last_reported":1774886332,"current_range_meters":2800,"station_id":"","pricing_plan_id":"cebpf4jnsgd1na2vs0mg"},{"bike_id":"7c3947db-8a77-40bf-8c06-3b7ae01247d2","system_id":"levelo_inurba_marseille","lat":43.28608,"lon":5.39885,"is_reserved":false,"is_disabled":false,"rental_uris":{"android":"levelo://app?vid=7c3947db-8a77-40bf-8c06-3b7ae01247d2","ios":"levelo://app?vid=7c3947db-8a77-40bf-8c06-3b7ae01247d2"},"vehicle_type_id":"4","last_reported":1774886332,"current_range_meters":2800,"station_id":"st_d4a7ka997mjs738ck50g","pricing_plan_id":"cebpf4jnsgd1na2vs0mg"},{"bike_id":"172803f2-09bc-4b50-8460-4442ac3a6063","system_id":"levelo_inurba_marseille","lat":43.29817,"lon":5.4407,"is_reserved":false,"is_disabled":false,"rental_uris":{"android":"levelo://app?vid=172803f2-09bc-4b50-8460-4442ac3a6063","ios":"levelo://app?vid=172803f2-09bc-4b50-8460-4442ac3a6063"},"vehicle_type_id":"4","last_reported":1774886332,"current_range_meters":2800,"station_id":"st_d3jp68qikq2c7381ktn0","pricing_plan_id":"cebpf4jnsgd1na2vs0mg"},{"bike_id":"969f8c3e-cb7a-4b8a-b9d1-68be499e471f","system_id":"levelo_inurba_marseille","lat":43.30794,"lon":5.37655,"is_reserved":false,"is_disabled":false,"rental_uris":{"android":"levelo://app?vid=969f8c3e-cb7a-4b8a-b9d1-68be499e471f","ios":"levelo://app?vid=969f8c3e-cb7a-4b8a-b9d1-68be499e471f"},"vehicle_type_id":"4","last_reported":1774886332,"current_range_meters":2800,"station_id":"ce4bgv92rcd13ifvqcq0","pricing_plan_id":"cebpf4jnsgd1na2vs0mg"},{"bike_id":"1b53ca04-2915-4392-bfd7-41e754b1dc49","system_id":"levelo_inurba_marseille","lat":43.28709,"lon":5.37389,"is_reserved":false,"is_disabled":false,"rental_uris":{"android":"levelo://app?vid=1b53ca04-2915-4392-bfd7-41e754b1dc49","ios":"levelo://app?vid=1b53ca04-2915-4392-bfd7-41e754b1dc49"},"vehicle_type_id":"4","last_reported":1774886332,"current_range_meters":2800,"station_id":"ce4bh3p2rcd13ifvqdq0","pricing_plan_id":"cebpf4jnsgd1na2vs0mg"},{"bike_id":"4e7f29d2-357a-487f-8923-aaf06a756027","system_id":"levelo_inurba_marseille","lat":43.28484,"lon":5.48409,"is_reserved":false,"is_disabled":false,"rental_uris":{"android":"levelo://app?vid=4e7f29d2-357a-487f-8923-aaf06a756027","ios":"levelo://app?vid=4e7f29d2-357a-487f-8923-aaf06a756027"},"vehicle_type_id":"4","last_reported":1774886332,"current_range_meters":2800,"station_id":"","pricing_plan_id":"cebpf4jnsgd1na2vs0mg"},{"bike_id":"0ff0e0b3-6da5-4b04-a7b1-1f2a88e41774","system_id":"levelo_inurba_marseille","lat":43.24174,"lon":5.3641,"is_reserved":false,"is_disabled":false,"rental_uris":{"android":"levelo://app?vid=0ff0e0b3-6da5-4b04-a7b1-1f2a88e41774","ios":"levelo://app?vid=0ff0e0b3-6da5-4b04-a7b1-1f2a88e41774"},"vehicle_type_id":"4","last_reported":1774886332,"current_range_meters":2800,"station_id":"cpo36qri1sfpv3e86is0","pricing_plan_id":"cebpf4jnsgd1na2vs0mg"},{"bike_id":"803f4719-04a4-494d-919f-f0c60480260b","system_id":"levelo_inurba_marseille","lat":43.24813,"lon":5.37454,"is_reserved":false,"is_disabled":false,"rental_uris":{"android":"levelo://app?vid=803f4719-04a4-494d-919f-f0c60480260b","ios":"levelo://app?vid=803f4719-04a4-494d-919f-f0c60480260b"},"vehicle_type_id":"4","last_reported":1774886332,"current_range_meters":3200,"station_id":"ce4bhgh2rcd13ifvqfb0","pricing_plan_id":"cebpf4jnsgd1na2vs0mg"},{"bike_id":"4b5f950d-4674-46b6-b4ff-3f077f8ced7c","system_id":"levelo_inurba_marseille","lat":43.279903,"lon":5.400035,"is_reserved":false,"is_disabled":false,"rental_uris":{"android":"levelo://app?vid=4b5f950d-4674-46b6-b4ff-3f077f8ced7c","ios":"levelo://app?vid=4b5f950d-4674-46b6-b4ff-3f077f8ced7c"},"vehicle_type_id":"4","last_reported":1774886332,"current_range_meters":3200,"station_id":"ce4bho92rcd13ifvqh4g","pricing_plan_id":"cebpf4jnsgd1na2vs0mg"},{"bike_id":"14076cce-3995-4c91-95e9-47aea769d88a","system_id":"levelo_inurba_marseille","lat":43.286044,"lon":5.393478,"is_reserved":false,"is_disabled":false,"rental_uris":{"android":"levelo://app?vid=14076cce-3995-4c91-95e9-47aea769d88a","ios":"levelo://app?vid=14076cce-3995-4c91-95e9-47aea769d88a"},"vehicle_type_id":"4","last_reported":1774886332,"current_range_meters":3200,"station_id":"ce4bh292rcd13ifvqdg0","pricing_plan_id":"cebpf4jnsgd1na2vs0mg"},{"bike_id":"0a7651e9-2471-4025-825d-57f9e0b67e68","system_id":"levelo_inurba_marseille","lat":43.284814,"lon":5.384164,"is_reserved":false,"is_disabled":false,"rental_uris":{"android":"levelo://app?vid=0a7651e9-2471-4025-825d-57f9e0b67e68","ios":"levelo://app?vid=0a7651e9-2471-4025-825d-57f9e0b67e68"},"vehicle_type_id":"4","last_reported":1774886332,"current_range_meters":3200,"station_id":"ce4bh512rcd13ifvqe3g","pricing_plan_id":"cebpf4jnsgd1na2vs0mg"},{"bike_id":"e4956c66-fba0-45d5-a7d2-90ca01f34637","system_id":"levelo_inurba_marseille","lat":43.21752,"lon":5.346,"is_reserved":false,"is_disabled":false,"rental_uris":{"android":"levelo://app?vid=e4956c66-fba0-45d5-a7d2-90ca01f34637","ios":"levelo://app?vid=e4956c66-fba0-45d5-a7d2-90ca01f34637"},"vehicle_type_id":"4","last_reported":1774886332,"current_range_meters":3200,"station_id":"st_cvj6r9ubvosntc0bgbag","pricing_plan_id":"cebpf4jnsgd1na2vs0mg"},{"bike_id":"9a1e331d-1d6d-423e-90aa-210c6d33f5be","system_id":"levelo_inurba_marseille","lat":43.33269,"lon":5.37919,"is_reserved":false,"is_disabled":false,"rental_uris":{"android":"levelo://app?vid=9a1e331d-1d6d-423e-90aa-210c6d33f5be","ios":"levelo://app?vid=9a1e331d-1d6d-423e-90aa-210c6d33f5be"},"vehicle_type_id":"4","last_reported":1774886332,"current_range_meters":3200,"station_id":"","pricing_plan_id":"cebpf4jnsgd1na2vs0mg"},{"bike_id":"4518d333-ae46-4f3f-82be-3d499b7bb7d5","system_id":"levelo_inurba_marseille","lat":43.23385,"lon":5.41279,"is_reserved":false,"is_disabled":true,"rental_uris":{"android":"levelo://app?vid=4518d333-ae46-4f3f-82be-3d499b7bb7d5","ios":"levelo://app?vid=4518d333-ae46-4f3f-82be-3d499b7bb7d5"},"vehicle_type_id":"4","last_reported":1774886332,"current_range_meters":3200,"station_id":"","pricing_plan_id":"cebpf4jnsgd1na2vs0mg"},{"bike_id":"4b985fea-c816-4d3d-b65f-b4c8d51fd468","system_id":"levelo_inurba_marseille","lat":43.30597,"lon":5.37197,"is_reserved":false,"is_disabled":false,"rental_uris":{"android":"levelo://app?vid=4b985fea-c816-4d3d-b65f-b4c8d51fd468","ios":"levelo://app?vid=4b985fea-c816-4d3d-b65f-b4c8d51fd468"},"vehicle_type_id":"4","last_reported":1774886332,"current_range_meters":3200,"station_id":"ce4bgqh2rcd13ifvqc4g","pricing_plan_id":"cebpf4jnsgd1na2vs0mg"},{"bike_id":"7c66d377-a1b8-44cf-8a08-0f678128a19a","system_id":"levelo_inurba_marseille","lat":43.27377,"lon":5.36257,"is_reserved":false,"is_disabled":false,"rental_uris":{"android":"levelo://app?vid=7c66d377-a1b8-44cf-8a08-0f678128a19a","ios":"levelo://app?vid=7c66d377-a1b8-44cf-8a08-0f678128a19a"},"vehicle_type_id":"4","last_reported":1774886332,"current_range_meters":3200,"station_id":"ce4bhbh2rcd13ifvqeo0","pricing_plan_id":"cebpf4jnsgd1na2vs0mg"},{"bike_id":"b8ec0b9a-6353-4141-ad88-1aae2c10ae31","system_id":"levelo_inurba_marseille","lat":43.29077,"lon":5.43088,"is_reserved":false,"is_disabled":false,"rental_uris":{"android":"levelo://app?vid=b8ec0b9a-6353-4141-ad88-1aae2c10ae31","ios":"levelo://app?vid=b8ec0b9a-6353-4141-ad88-1aae2c10ae31"},"vehicle_type_id":"4","last_reported":1774886332,"current_range_meters":3200,"station_id":"","pricing_plan_id":"cebpf4jnsgd1na2vs0mg"},{"bike_id":"28af8d2b-5bac-433a-894a-9e17123ae234","system_id":"levelo_inurba_marseille","lat":43.28534,"lon":5.44114,"is_reserved":false,"is_disabled":false,"rental_uris":{"android":"levelo://app?vid=28af8d2b-5bac-433a-894a-9e17123ae234","ios":"levelo://app?vid=28af8d2b-5bac-433a-894a-9e17123ae234"},"vehicle_type_id":"4","last_reported":1774886332,"current_range_meters":3200,"station_id":"st_d3j3df2ikq2c7380ej80","pricing_plan_id":"cebpf4jnsgd1na2vs0mg"},{"bike_id":"7a2b56a7-f555-4392-aa36-707d0509abdc","system_id":"levelo_inurba_marseille","lat":43.25175,"lon":5.41964,"is_reserved":false,"is_disabled":false,"rental_uris":{"android":"levelo://app?vid=7a2b56a7-f555-4392-aa36-707d0509abdc","ios":"levelo://app?vid=7a2b56a7-f555-4392-aa36-707d0509abdc"},"vehicle_type_id":"4","last_reported":1774886332,"current_range_meters":3200,"station_id":"","pricing_plan_id":"cebpf4jnsgd1na2vs0mg"},{"bike_id":"883c794f-d68e-4d52-948a-e0e4d264c091","system_id":"levelo_inurba_marseille","lat":43.25594,"lon":5.38221,"is_reserved":false,"is_disabled":false,"rental_uris":{"android":"levelo://app?vid=883c794f-d68e-4d52-948a-e0e4d264c091","ios":"levelo://app?vid=883c794f-d68e-4d52-948a-e0e4d264c091"},"vehicle_type_id":"4","last_reported":1774886332,"current_range_meters":3600,"station_id":"ce4bhih2rcd13ifvqfs0","pricing_plan_id":"cebpf4jnsgd1na2vs0mg"},{"bike_id":"0591f605-a0ae-4cce-abd7-7be05ada57fc","system_id":"levelo_inurba_marseille","lat":43.2961,"lon":5.38102,"is_reserved":false,"is_disabled":false,"rental_uris":{"android":"levelo://app?vid=0591f605-a0ae-4cce-abd7-7be05ada57fc","ios":"levelo://app?vid=0591f605-a0ae-4cce-abd7-7be05ada57fc"},"vehicle_type_id":"4","last_reported":1774886332,"current_range_meters":3600,"station_id":"ce4bgl12rcd13ifvqbo0","pricing_plan_id":"cebpf4jnsgd1na2vs0mg"},{"bike_id":"ce7a3b24-907c-4d1b-affa-a23d750b357b","system_id":"levelo_inurba_marseille","lat":43.28475,"lon":5.48394,"is_reserved":false,"is_disabled":false,"rental_uris":{"android":"levelo://app?vid=ce7a3b24-907c-4d1b-affa-a23d750b357b","ios":"levelo://app?vid=ce7a3b24-907c-4d1b-affa-a23d750b357b"},"vehicle_type_id":"4","last_reported":1774886332,"current_range_meters":3600,"station_id":"","pricing_plan_id":"cebpf4jnsgd1na2vs0mg"},{"bike_id":"64ac9f96-b56e-4d2a-b677-8d920133e407","system_id":"levelo_inurba_marseille","lat":43.24816,"lon":5.37461,"is_reserved":false,"is_disabled":false,"rental_uris":{"android":"levelo://app?vid=64ac9f96-b56e-4d2a-b677-8d920133e407","ios":"levelo://app?vid=64ac9f96-b56e-4d2a-b677-8d920133e407"},"vehicle_type_id":"4","last_reported":1774886332,"current_range_meters":3600,"station_id":"ce4bhgh2rcd13ifvqfb0","pricing_plan_id":"cebpf4jnsgd1na2vs0mg"},{"bike_id":"e8cb18d8-1065-49ec-b1d9-217635f90878","system_id":"levelo_inurba_marseille","lat":43.32514,"lon":5.36608,"is_reserved":false,"is_disabled":false,"rental_uris":{"android":"levelo://app?vid=e8cb18d8-1065-49ec-b1d9-217635f90878","ios":"levelo://app?vid=e8cb18d8-1065-49ec-b1d9-217635f90878"},"vehicle_type_id":"4","last_reported":1774886332,"current_range_meters":3600,"station_id":"","pricing_plan_id":"cebpf4jnsgd1na2vs0mg"},{"bike_id":"0beeb1a7-3c04-43a2-a7f8-69beb8048854","system_id":"levelo_inurba_marseille","lat":43.2468,"lon":5.38183,"is_reserved":false,"is_disabled":false,"rental_uris":{"android":"levelo://app?vid=0beeb1a7-3c04-43a2-a7f8-69beb8048854","ios":"levelo://app?vid=0beeb1a7-3c04-43a2-a7f8-69beb8048854"},"vehicle_type_id":"4","last_reported":1774886332,"current_range_meters":3600,"station_id":"ce4bhih2rcd13ifvqfr0","pricing_plan_id":"cebpf4jnsgd1na2vs0mg"},{"bike_id":"f49642d7-0c88-4377-92f6-f3b93aee0876","system_id":"levelo_inurba_marseille","lat":43.29621,"lon":5.38086,"is_reserved":false,"is_disabled":true,"rental_uris":{"android":"levelo://app?vid=f49642d7-0c88-4377-92f6-f3b93aee0876","ios":"levelo://app?vid=f49642d7-0c88-4377-92f6-f3b93aee0876"},"vehicle_type_id":"4","last_reported":1774886332,"current_range_meters":3600,"station_id":"ce4bgl12rcd13ifvqbo0","pricing_plan_id":"cebpf4jnsgd1na2vs0mg"},{"bike_id":"2e2f6f92-a6a4-45c0-97c3-957e3d8f2b5d","system_id":"levelo_inurba_marseille","lat":43.29358,"lon":5.38309,"is_reserved":false,"is_disabled":false,"rental_uris":{"android":"levelo://app?vid=2e2f6f92-a6a4-45c0-97c3-957e3d8f2b5d","ios":"levelo://app?vid=2e2f6f92-a6a4-45c0-97c3-957e3d8f2b5d"},"vehicle_type_id":"4","last_reported":1774886332,"current_range_meters":4000,"station_id":"","pricing_plan_id":"cebpf4jnsgd1na2vs0mg"},{"bike_id":"99f2a292-7c6f-4050-bef6-583252512b04","system_id":"levelo_inurba_marseille","lat":43.29039,"lon":5.37565,"is_reserved":false,"is_disabled":false,"rental_uris":{"android":"levelo://app?vid=99f2a292-7c6f-4050-bef6-583252512b04","ios":"levelo://app?vid=99f2a292-7c6f-4050-bef6-583252512b04"},"vehicle_type_id":"4","last_reported":1774886332,"current_range_meters":4000,"station_id":"ce4bh692rcd13ifvqe90","pricing_plan_id":"cebpf4jnsgd1na2vs0mg"},{"bike_id":"e4ac35e4-8859-436b-9a81-4c436fcedcff","system_id":"levelo_inurba_marseille","lat":43.28556,"lon":5.44141,"is_reserved":false,"is_disabled":false,"rental_uris":{"android":"levelo://app?vid=e4ac35e4-8859-436b-9a81-4c436fcedcff","ios":"levelo://app?vid=e4ac35e4-8859-436b-9a81-4c436fcedcff"},"vehicle_type_id":"4","last_reported":1774886332,"current_range_meters":4000,"station_id":"st_d3j3df2ikq2c7380ej80","pricing_plan_id":"cebpf4jnsgd1na2vs0mg"},{"bike_id":"5f95b65e-d716-4b38-8190-e6dc057b7ee7","system_id":"levelo_inurba_marseille","lat":43.24678,"lon":5.38148,"is_reserved":false,"is_disabled":false,"rental_uris":{"android":"levelo://app?vid=5f95b65e-d716-4b38-8190-e6dc057b7ee7","ios":"levelo://app?vid=5f95b65e-d716-4b38-8190-e6dc057b7ee7"},"vehicle_type_id":"4","last_reported":1774886332,"current_range_meters":4000,"station_id":"ce4bhih2rcd13ifvqfr0","pricing_plan_id":"cebpf4jnsgd1na2vs0mg"},{"bike_id":"d0688594-5180-441a-bbed-d94c30e2886b","system_id":"levelo_inurba_marseille","lat":43.279036,"lon":5.380112,"is_reserved":false,"is_disabled":false,"rental_uris":{"android":"levelo://app?vid=d0688594-5180-441a-bbed-d94c30e2886b","ios":"levelo://app?vid=d0688594-5180-441a-bbed-d94c30e2886b"},"vehicle_type_id":"4","last_reported":1774886332,"current_range_meters":4000,"station_id":"ce4bhf92rcd13ifvqf50","pricing_plan_id":"cebpf4jnsgd1na2vs0mg"},{"bike_id":"6c501d7b-8ca3-44e4-9191-a831e9a5112c","system_id":"levelo_inurba_marseille","lat":43.29536,"lon":5.394,"is_reserved":false,"is_disabled":false,"rental_uris":{"android":"levelo://app?vid=6c501d7b-8ca3-44e4-9191-a831e9a5112c","ios":"levelo://app?vid=6c501d7b-8ca3-44e4-9191-a831e9a5112c"},"vehicle_type_id":"4","last_reported":1774886332,"current_range_meters":4000,"station_id":"ce4bh292rcd13ifvqdf0","pricing_plan_id":"cebpf4jnsgd1na2vs0mg"},{"bike_id":"cee9b460-3960-4431-84b1-f885e5c227d3","system_id":"levelo_inurba_marseille","lat":43.26604,"lon":5.39017,"is_reserved":false,"is_disabled":false,"rental_uris":{"android":"levelo://app?vid=cee9b460-3960-4431-84b1-f885e5c227d3","ios":"levelo://app?vid=cee9b460-3960-4431-84b1-f885e5c227d3"},"vehicle_type_id":"4","last_reported":1774886332,"current_range_meters":4400,"station_id":"","pricing_plan_id":"cebpf4jnsgd1na2vs0mg"},{"bike_id":"dbc917c4-91bc-4425-9406-e24d33c16284","system_id":"levelo_inurba_marseille","lat":43.33576,"lon":5.37623,"is_reserved":false,"is_disabled":false,"rental_uris":{"android":"levelo://app?vid=dbc917c4-91bc-4425-9406-e24d33c16284","ios":"levelo://app?vid=dbc917c4-91bc-4425-9406-e24d33c16284"},"vehicle_type_id":"4","last_reported":1774886332,"current_range_meters":4400,"station_id":"","pricing_plan_id":"cebpf4jnsgd1na2vs0mg"},{"bike_id":"52485819-0f8f-42c3-8337-95aab8536eab","system_id":"levelo_inurba_marseille","lat":43.28704,"lon":5.37382,"is_reserved":false,"is_disabled":false,"rental_uris":{"android":"levelo://app?vid=52485819-0f8f-42c3-8337-95aab8536eab","ios":"levelo://app?vid=52485819-0f8f-42c3-8337-95aab8536eab"},"vehicle_type_id":"4","last_reported":1774886332,"current_range_meters":4400,"station_id":"ce4bh3p2rcd13ifvqdq0","pricing_plan_id":"cebpf4jnsgd1na2vs0mg"},{"bike_id":"22356209-ba70-4e9d-93af-e6ffdbd74cc7","system_id":"levelo_inurba_marseille","lat":43.28349,"lon":5.38104,"is_reserved":false,"is_disabled":false,"rental_uris":{"android":"levelo://app?vid=22356209-ba70-4e9d-93af-e6ffdbd74cc7","ios":"levelo://app?vid=22356209-ba70-4e9d-93af-e6ffdbd74cc7"},"vehicle_type_id":"4","last_reported":1774886332,"current_range_meters":4400,"station_id":"ce4bh412rcd13ifvqdr0","pricing_plan_id":"cebpf4jnsgd1na2vs0mg"},{"bike_id":"96b45d31-bef5-4eeb-8979-9268c25a6fe7","system_id":"levelo_inurba_marseille","lat":43.31232,"lon":5.36859,"is_reserved":false,"is_disabled":false,"rental_uris":{"android":"levelo://app?vid=96b45d31-bef5-4eeb-8979-9268c25a6fe7","ios":"levelo://app?vid=96b45d31-bef5-4eeb-8979-9268c25a6fe7"},"vehicle_type_id":"4","last_reported":1774886332,"current_range_meters":4400,"station_id":"ce4bgl92rcd13ifvqbq0","pricing_plan_id":"cebpf4jnsgd1na2vs0mg"},{"bike_id":"3e86744e-c66a-4ea7-85ad-946d60b38d9b","system_id":"levelo_inurba_marseille","lat":43.24167,"lon":5.36411,"is_reserved":false,"is_disabled":false,"rental_uris":{"android":"levelo://app?vid=3e86744e-c66a-4ea7-85ad-946d60b38d9b","ios":"levelo://app?vid=3e86744e-c66a-4ea7-85ad-946d60b38d9b"},"vehicle_type_id":"4","last_reported":1774886332,"current_range_meters":4400,"station_id":"cpo36qri1sfpv3e86is0","pricing_plan_id":"cebpf4jnsgd1na2vs0mg"},{"bike_id":"3c440b3b-bcaf-4ce0-978a-6afff20cc55d","system_id":"levelo_inurba_marseille","lat":43.30484,"lon":5.3792,"is_reserved":false,"is_disabled":false,"rental_uris":{"android":"levelo://app?vid=3c440b3b-bcaf-4ce0-978a-6afff20cc55d","ios":"levelo://app?vid=3c440b3b-bcaf-4ce0-978a-6afff20cc55d"},"vehicle_type_id":"4","last_reported":1774886332,"current_range_meters":4400,"station_id":"ce4bgup2rcd13ifvqcn0","pricing_plan_id":"cebpf4jnsgd1na2vs0mg"},{"bike_id":"e734a3bb-59b0-4237-8f87-541581bd4f21","system_id":"levelo_inurba_marseille","lat":43.318866,"lon":5.407389,"is_reserved":false,"is_disabled":false,"rental_uris":{"android":"levelo://app?vid=e734a3bb-59b0-4237-8f87-541581bd4f21","ios":"levelo://app?vid=e734a3bb-59b0-4237-8f87-541581bd4f21"},"vehicle_type_id":"4","last_reported":1774886332,"current_range_meters":4400,"station_id":"ce4bhq12rcd13ifvqhig","pricing_plan_id":"cebpf4jnsgd1na2vs0mg"},{"bike_id":"ceb41b00-c2c0-443f-a60a-c1393af9423e","system_id":"levelo_inurba_marseille","lat":43.28045,"lon":5.3695,"is_reserved":false,"is_disabled":false,"rental_uris":{"android":"levelo://app?vid=ceb41b00-c2c0-443f-a60a-c1393af9423e","ios":"levelo://app?vid=ceb41b00-c2c0-443f-a60a-c1393af9423e"},"vehicle_type_id":"4","last_reported":1774886332,"current_range_meters":4400,"station_id":"ce4bha12rcd13ifvqef0","pricing_plan_id":"cebpf4jnsgd1na2vs0mg"},{"bike_id":"dc79fefa-d554-4ea7-b0f6-dfb50b76419c","system_id":"levelo_inurba_marseille","lat":43.2584,"lon":5.39439,"is_reserved":false,"is_disabled":false,"rental_uris":{"android":"levelo://app?vid=dc79fefa-d554-4ea7-b0f6-dfb50b76419c","ios":"levelo://app?vid=dc79fefa-d554-4ea7-b0f6-dfb50b76419c"},"vehicle_type_id":"4","last_reported":1774886332,"current_range_meters":4400,"station_id":"ce4bhip2rcd13ifvqft0","pricing_plan_id":"cebpf4jnsgd1na2vs0mg"},{"bike_id":"96386c80-3369-4abb-b3c0-88123ad0f476","system_id":"levelo_inurba_marseille","lat":43.29568,"lon":5.39968,"is_reserved":false,"is_disabled":false,"rental_uris":{"android":"levelo://app?vid=96386c80-3369-4abb-b3c0-88123ad0f476","ios":"levelo://app?vid=96386c80-3369-4abb-b3c0-88123ad0f476"},"vehicle_type_id":"4","last_reported":1774886332,"current_range_meters":4400,"station_id":"ce4bh312rcd13ifvqdj0","pricing_plan_id":"cebpf4jnsgd1na2vs0mg"},{"bike_id":"7ff5e948-0e94-496d-8b12-67c7c2774e67","system_id":"levelo_inurba_marseille","lat":43.28537,"lon":5.44096,"is_reserved":false,"is_disabled":false,"rental_uris":{"android":"levelo://app?vid=7ff5e948-0e94-496d-8b12-67c7c2774e67","ios":"levelo://app?vid=7ff5e948-0e94-496d-8b12-67c7c2774e67"},"vehicle_type_id":"4","last_reported":1774886332,"current_range_meters":4800,"station_id":"st_d3j3df2ikq2c7380ej80","pricing_plan_id":"cebpf4jnsgd1na2vs0mg"},{"bike_id":"88900821-ac79-4ee5-8fc9-e889474b5abd","system_id":"levelo_inurba_marseille","lat":43.28627,"lon":5.3507,"is_reserved":false,"is_disabled":false,"rental_uris":{"android":"levelo://app?vid=88900821-ac79-4ee5-8fc9-e889474b5abd","ios":"levelo://app?vid=88900821-ac79-4ee5-8fc9-e889474b5abd"},"vehicle_type_id":"4","last_reported":1774886332,"current_range_meters":4800,"station_id":"ce4bhch2rcd13ifvqeug","pricing_plan_id":"cebpf4jnsgd1na2vs0mg"},{"bike_id":"e027651c-1b58-49be-8465-35e7c80537f6","system_id":"levelo_inurba_marseille","lat":43.28623,"lon":5.35103,"is_reserved":false,"is_disabled":false,"rental_uris":{"android":"levelo://app?vid=e027651c-1b58-49be-8465-35e7c80537f6","ios":"levelo://app?vid=e027651c-1b58-49be-8465-35e7c80537f6"},"vehicle_type_id":"4","last_reported":1774886332,"current_range_meters":4800,"station_id":"ce4bhch2rcd13ifvqeug","pricing_plan_id":"cebpf4jnsgd1na2vs0mg"},{"bike_id":"25935fd8-662d-438b-8a78-ddcbba487562","system_id":"levelo_inurba_marseille","lat":43.2961,"lon":5.37756,"is_reserved":false,"is_disabled":false,"rental_uris":{"android":"levelo://app?vid=25935fd8-662d-438b-8a78-ddcbba487562","ios":"levelo://app?vid=25935fd8-662d-438b-8a78-ddcbba487562"},"vehicle_type_id":"4","last_reported":1774886332,"current_range_meters":4800,"station_id":"ce4bgi92rcd13ifvqb90","pricing_plan_id":"cebpf4jnsgd1na2vs0mg"},{"bike_id":"91eafa08-026f-40c5-b5de-6910a52e733d","system_id":"levelo_inurba_marseille","lat":43.24455,"lon":5.42543,"is_reserved":false,"is_disabled":false,"rental_uris":{"android":"levelo://app?vid=91eafa08-026f-40c5-b5de-6910a52e733d","ios":"levelo://app?vid=91eafa08-026f-40c5-b5de-6910a52e733d"},"vehicle_type_id":"4","last_reported":1774886332,"current_range_meters":4800,"station_id":"st_d4a3vfp97mjs738cd8kg","pricing_plan_id":"cebpf4jnsgd1na2vs0mg"},{"bike_id":"5bbb2a73-11b5-4f9d-a5b1-5b51513103cb","system_id":"levelo_inurba_marseille","lat":43.28616,"lon":5.35104,"is_reserved":false,"is_disabled":false,"rental_uris":{"android":"levelo://app?vid=5bbb2a73-11b5-4f9d-a5b1-5b51513103cb","ios":"levelo://app?vid=5bbb2a73-11b5-4f9d-a5b1-5b51513103cb"},"vehicle_type_id":"4","last_reported":1774886332,"current_range_meters":4800,"station_id":"ce4bhch2rcd13ifvqeug","pricing_plan_id":"cebpf4jnsgd1na2vs0mg"},{"bike_id":"db79bdc0-42a2-4d3f-ac03-79af3bfeadec","system_id":"levelo_inurba_marseille","lat":43.30772,"lon":5.37653,"is_reserved":false,"is_disabled":false,"rental_uris":{"android":"levelo://app?vid=db79bdc0-42a2-4d3f-ac03-79af3bfeadec","ios":"levelo://app?vid=db79bdc0-42a2-4d3f-ac03-79af3bfeadec"},"vehicle_type_id":"4","last_reported":1774886332,"current_range_meters":4800,"station_id":"ce4bgv92rcd13ifvqcq0","pricing_plan_id":"cebpf4jnsgd1na2vs0mg"},{"bike_id":"663b4e8b-7c43-4c87-a722-7c9d6f7f3289","system_id":"levelo_inurba_marseille","lat":43.28984,"lon":5.37841,"is_reserved":false,"is_disabled":false,"rental_uris":{"android":"levelo://app?vid=663b4e8b-7c43-4c87-a722-7c9d6f7f3289","ios":"levelo://app?vid=663b4e8b-7c43-4c87-a722-7c9d6f7f3289"},"vehicle_type_id":"4","last_reported":1774886332,"current_range_meters":4800,"station_id":"ce4bh9p2rcd13ifvqed0","pricing_plan_id":"cebpf4jnsgd1na2vs0mg"},{"bike_id":"0de43968-7246-4420-93f7-80894c73463c","system_id":"levelo_inurba_marseille","lat":43.28701,"lon":5.37391,"is_reserved":false,"is_disabled":false,"rental_uris":{"android":"levelo://app?vid=0de43968-7246-4420-93f7-80894c73463c","ios":"levelo://app?vid=0de43968-7246-4420-93f7-80894c73463c"},"vehicle_type_id":"4","last_reported":1774886332,"current_range_meters":4800,"station_id":"ce4bh3p2rcd13ifvqdq0","pricing_plan_id":"cebpf4jnsgd1na2vs0mg"},{"bike_id":"b4efab25-af4c-478e-b232-5762f6e0e945","system_id":"levelo_inurba_marseille","lat":43.29787,"lon":5.39344,"is_reserved":false,"is_disabled":false,"rental_uris":{"android":"levelo://app?vid=b4efab25-af4c-478e-b232-5762f6e0e945","ios":"levelo://app?vid=b4efab25-af4c-478e-b232-5762f6e0e945"},"vehicle_type_id":"4","last_reported":1774886332,"current_range_meters":4800,"station_id":"chh1huq6cuj3fo74tm60","pricing_plan_id":"cebpf4jnsgd1na2vs0mg"},{"bike_id":"3611cc3b-cdb0-43b8-908e-2bec5a09ca76","system_id":"levelo_inurba_marseille","lat":43.282711,"lon":5.350597,"is_reserved":false,"is_disabled":false,"rental_uris":{"android":"levelo://app?vid=3611cc3b-cdb0-43b8-908e-2bec5a09ca76","ios":"levelo://app?vid=3611cc3b-cdb0-43b8-908e-2bec5a09ca76"},"vehicle_type_id":"4","last_reported":1774886332,"current_range_meters":4800,"station_id":"ce4bgg92rcd13ifvqb30","pricing_plan_id":"cebpf4jnsgd1na2vs0mg"},{"bike_id":"1faa5505-633d-42e0-8f1b-8299dbd5fe13","system_id":"levelo_inurba_marseille","lat":43.30546,"lon":5.36708,"is_reserved":false,"is_disabled":false,"rental_uris":{"android":"levelo://app?vid=1faa5505-633d-42e0-8f1b-8299dbd5fe13","ios":"levelo://app?vid=1faa5505-633d-42e0-8f1b-8299dbd5fe13"},"vehicle_type_id":"4","last_reported":1774886332,"current_range_meters":5600,"station_id":"ce4bgrp2rcd13ifvqc9g","pricing_plan_id":"cebpf4jnsgd1na2vs0mg"},{"bike_id":"0f21b971-f11a-49fc-b8bc-1c0e1b19361b","system_id":"levelo_inurba_marseille","lat":43.288502,"lon":5.39321,"is_reserved":false,"is_disabled":false,"rental_uris":{"android":"levelo://app?vid=0f21b971-f11a-49fc-b8bc-1c0e1b19361b","ios":"levelo://app?vid=0f21b971-f11a-49fc-b8bc-1c0e1b19361b"},"vehicle_type_id":"4","last_reported":1774886332,"current_range_meters":5600,"station_id":"","pricing_plan_id":"cebpf4jnsgd1na2vs0mg"},{"bike_id":"e50bf14d-d7f9-4615-8370-cf65f34b2c93","system_id":"levelo_inurba_marseille","lat":43.26029,"lon":5.37549,"is_reserved":false,"is_disabled":false,"rental_uris":{"android":"levelo://app?vid=e50bf14d-d7f9-4615-8370-cf65f34b2c93","ios":"levelo://app?vid=e50bf14d-d7f9-4615-8370-cf65f34b2c93"},"vehicle_type_id":"4","last_reported":1774886332,"current_range_meters":5600,"station_id":"ce4bhgh2rcd13ifvqfa0","pricing_plan_id":"cebpf4jnsgd1na2vs0mg"},{"bike_id":"2e473b1d-39dc-4686-a52e-6eb05e99392b","system_id":"levelo_inurba_marseille","lat":43.28419,"lon":5.35,"is_reserved":false,"is_disabled":false,"rental_uris":{"android":"levelo://app?vid=2e473b1d-39dc-4686-a52e-6eb05e99392b","ios":"levelo://app?vid=2e473b1d-39dc-4686-a52e-6eb05e99392b"},"vehicle_type_id":"4","last_reported":1774886332,"current_range_meters":5600,"station_id":"ce4bhbh2rcd13ifvqepg","pricing_plan_id":"cebpf4jnsgd1na2vs0mg"},{"bike_id":"5e9530b6-e24d-4c25-8f1d-f87b9a146ea5","system_id":"levelo_inurba_marseille","lat":43.297203,"lon":5.368702,"is_reserved":false,"is_disabled":false,"rental_uris":{"android":"levelo://app?vid=5e9530b6-e24d-4c25-8f1d-f87b9a146ea5","ios":"levelo://app?vid=5e9530b6-e24d-4c25-8f1d-f87b9a146ea5"},"vehicle_type_id":"4","last_reported":1774886332,"current_range_meters":5600,"station_id":"ce4bgn12rcd13ifvqbt0","pricing_plan_id":"cebpf4jnsgd1na2vs0mg"},{"bike_id":"c86d845d-a9a1-4000-acdd-408b4f74bb9d","system_id":"levelo_inurba_marseille","lat":43.3136,"lon":5.36712,"is_reserved":false,"is_disabled":false,"rental_uris":{"android":"levelo://app?vid=c86d845d-a9a1-4000-acdd-408b4f74bb9d","ios":"levelo://app?vid=c86d845d-a9a1-4000-acdd-408b4f74bb9d"},"vehicle_type_id":"4","last_reported":1774886332,"current_range_meters":5600,"station_id":"ce4bgr92rcd13ifvqc6g","pricing_plan_id":"cebpf4jnsgd1na2vs0mg"},{"bike_id":"e514b04b-9f50-4119-bfb2-7f19c4fc4c24","system_id":"levelo_inurba_marseille","lat":43.27152,"lon":5.40581,"is_reserved":false,"is_disabled":false,"rental_uris":{"android":"levelo://app?vid=e514b04b-9f50-4119-bfb2-7f19c4fc4c24","ios":"levelo://app?vid=e514b04b-9f50-4119-bfb2-7f19c4fc4c24"},"vehicle_type_id":"4","last_reported":1774886332,"current_range_meters":5600,"station_id":"","pricing_plan_id":"cebpf4jnsgd1na2vs0mg"},{"bike_id":"010bf32e-cc19-4e06-8c2c-56182f905b80","system_id":"levelo_inurba_marseille","lat":43.26211,"lon":5.37437,"is_reserved":false,"is_disabled":false,"rental_uris":{"android":"levelo://app?vid=010bf32e-cc19-4e06-8c2c-56182f905b80","ios":"levelo://app?vid=010bf32e-cc19-4e06-8c2c-56182f905b80"},"vehicle_type_id":"4","last_reported":1774886332,"current_range_meters":5600,"station_id":"ce4bhgp2rcd13ifvqfc0","pricing_plan_id":"cebpf4jnsgd1na2vs0mg"},{"bike_id":"976b0837-858d-49b8-8bb1-6a4b9d308b37","system_id":"levelo_inurba_marseille","lat":43.31043,"lon":5.39371,"is_reserved":false,"is_disabled":false,"rental_uris":{"android":"levelo://app?vid=976b0837-858d-49b8-8bb1-6a4b9d308b37","ios":"levelo://app?vid=976b0837-858d-49b8-8bb1-6a4b9d308b37"},"vehicle_type_id":"4","last_reported":1774886332,"current_range_meters":5600,"station_id":"","pricing_plan_id":"cebpf4jnsgd1na2vs0mg"},{"bike_id":"722178ea-9ec4-4a61-a4f3-4a88327f65c6","system_id":"levelo_inurba_marseille","lat":43.32368,"lon":5.36752,"is_reserved":false,"is_disabled":false,"rental_uris":{"android":"levelo://app?vid=722178ea-9ec4-4a61-a4f3-4a88327f65c6","ios":"levelo://app?vid=722178ea-9ec4-4a61-a4f3-4a88327f65c6"},"vehicle_type_id":"4","last_reported":1774886332,"current_range_meters":5600,"station_id":"ce4bhsh2rcd13ifvqi2g","pricing_plan_id":"cebpf4jnsgd1na2vs0mg"},{"bike_id":"9b029fa6-890f-4b45-9718-e1befd3a9dfd","system_id":"levelo_inurba_marseille","lat":43.26492,"lon":5.39541,"is_reserved":false,"is_disabled":false,"rental_uris":{"android":"levelo://app?vid=9b029fa6-890f-4b45-9718-e1befd3a9dfd","ios":"levelo://app?vid=9b029fa6-890f-4b45-9718-e1befd3a9dfd"},"vehicle_type_id":"4","last_reported":1774886332,"current_range_meters":5600,"station_id":"ce4bhi12rcd13ifvqfq0","pricing_plan_id":"cebpf4jnsgd1na2vs0mg"},{"bike_id":"f16b920d-4760-44fd-92f5-b6cf293c8515","system_id":"levelo_inurba_marseille","lat":43.23203,"lon":5.35545,"is_reserved":false,"is_disabled":false,"rental_uris":{"android":"levelo://app?vid=f16b920d-4760-44fd-92f5-b6cf293c8515","ios":"levelo://app?vid=f16b920d-4760-44fd-92f5-b6cf293c8515"},"vehicle_type_id":"4","last_reported":1774886332,"current_range_meters":5600,"station_id":"ce4bhu92rcd13ifvqi70","pricing_plan_id":"cebpf4jnsgd1na2vs0mg"},{"bike_id":"67a5d5c7-3521-4623-a1ce-e8cf1f7867be","system_id":"levelo_inurba_marseille","lat":43.24462,"lon":5.42545,"is_reserved":false,"is_disabled":false,"rental_uris":{"android":"levelo://app?vid=67a5d5c7-3521-4623-a1ce-e8cf1f7867be","ios":"levelo://app?vid=67a5d5c7-3521-4623-a1ce-e8cf1f7867be"},"vehicle_type_id":"4","last_reported":1774886332,"current_range_meters":5600,"station_id":"st_d4a3vfp97mjs738cd8kg","pricing_plan_id":"cebpf4jnsgd1na2vs0mg"},{"bike_id":"daea2055-a377-4e35-a78d-49e3b29be649","system_id":"levelo_inurba_marseille","lat":43.25822,"lon":5.39429,"is_reserved":false,"is_disabled":false,"rental_uris":{"android":"levelo://app?vid=daea2055-a377-4e35-a78d-49e3b29be649","ios":"levelo://app?vid=daea2055-a377-4e35-a78d-49e3b29be649"},"vehicle_type_id":"4","last_reported":1774886332,"current_range_meters":5600,"station_id":"ce4bhip2rcd13ifvqft0","pricing_plan_id":"cebpf4jnsgd1na2vs0mg"},{"bike_id":"fe6a12c1-cf8d-496e-b371-dddcb52201b6","system_id":"levelo_inurba_marseille","lat":43.25885,"lon":5.39893,"is_reserved":false,"is_disabled":false,"rental_uris":{"android":"levelo://app?vid=fe6a12c1-cf8d-496e-b371-dddcb52201b6","ios":"levelo://app?vid=fe6a12c1-cf8d-496e-b371-dddcb52201b6"},"vehicle_type_id":"4","last_reported":1774886332,"current_range_meters":5600,"station_id":"ce4bhl92rcd13ifvqghg","pricing_plan_id":"cebpf4jnsgd1na2vs0mg"},{"bike_id":"8489331d-8f95-4b36-a026-08bb56c1991f","system_id":"levelo_inurba_marseille","lat":43.23824,"lon":5.3662,"is_reserved":false,"is_disabled":false,"rental_uris":{"android":"levelo://app?vid=8489331d-8f95-4b36-a026-08bb56c1991f","ios":"levelo://app?vid=8489331d-8f95-4b36-a026-08bb56c1991f"},"vehicle_type_id":"4","last_reported":1774886332,"current_range_meters":5600,"station_id":"","pricing_plan_id":"cebpf4jnsgd1na2vs0mg"},{"bike_id":"c0e82aab-5b9f-4094-a295-793a38cc1e88","system_id":"levelo_inurba_marseille","lat":43.297861,"lon":5.371052,"is_reserved":false,"is_disabled":false,"rental_uris":{"android":"levelo://app?vid=c0e82aab-5b9f-4094-a295-793a38cc1e88","ios":"levelo://app?vid=c0e82aab-5b9f-4094-a295-793a38cc1e88"},"vehicle_type_id":"4","last_reported":1774886332,"current_range_meters":5600,"station_id":"ce4bgop2rcd13ifvqc1g","pricing_plan_id":"cebpf4jnsgd1na2vs0mg"},{"bike_id":"609a3f51-95d7-4bff-9fb9-07e7f142b6aa","system_id":"levelo_inurba_marseille","lat":43.29729,"lon":5.37031,"is_reserved":false,"is_disabled":false,"rental_uris":{"android":"levelo://app?vid=609a3f51-95d7-4bff-9fb9-07e7f142b6aa","ios":"levelo://app?vid=609a3f51-95d7-4bff-9fb9-07e7f142b6aa"},"vehicle_type_id":"4","last_reported":1774886332,"current_range_meters":5600,"station_id":"","pricing_plan_id":"cebpf4jnsgd1na2vs0mg"},{"bike_id":"6bf2f77d-8f33-4b61-a21d-730e410e658a","system_id":"levelo_inurba_marseille","lat":43.23189,"lon":5.35562,"is_reserved":false,"is_disabled":false,"rental_uris":{"android":"levelo://app?vid=6bf2f77d-8f33-4b61-a21d-730e410e658a","ios":"levelo://app?vid=6bf2f77d-8f33-4b61-a21d-730e410e658a"},"vehicle_type_id":"4","last_reported":1774886332,"current_range_meters":5600,"station_id":"ce4bhu92rcd13ifvqi70","pricing_plan_id":"cebpf4jnsgd1na2vs0mg"},{"bike_id":"1f7507c0-1d57-4435-a922-7c4f891a00c7","system_id":"levelo_inurba_marseille","lat":43.28792,"lon":5.35994,"is_reserved":false,"is_disabled":false,"rental_uris":{"android":"levelo://app?vid=1f7507c0-1d57-4435-a922-7c4f891a00c7","ios":"levelo://app?vid=1f7507c0-1d57-4435-a922-7c4f891a00c7"},"vehicle_type_id":"4","last_reported":1774886332,"current_range_meters":5600,"station_id":"","pricing_plan_id":"cebpf4jnsgd1na2vs0mg"},{"bike_id":"053b79a5-7eb1-4b8b-8918-0b5613892845","system_id":"levelo_inurba_marseille","lat":43.26383,"lon":5.41086,"is_reserved":false,"is_disabled":false,"rental_uris":{"android":"levelo://app?vid=053b79a5-7eb1-4b8b-8918-0b5613892845","ios":"levelo://app?vid=053b79a5-7eb1-4b8b-8918-0b5613892845"},"vehicle_type_id":"4","last_reported":1774886332,"current_range_meters":5600,"station_id":"st_d4e5ca6na9uc73bfl5fg","pricing_plan_id":"cebpf4jnsgd1na2vs0mg"},{"bike_id":"fc32dc7e-6e7a-49b4-bf5c-5e107dd0a161","system_id":"levelo_inurba_marseille","lat":43.25404,"lon":5.41906,"is_reserved":false,"is_disabled":false,"rental_uris":{"android":"levelo://app?vid=fc32dc7e-6e7a-49b4-bf5c-5e107dd0a161","ios":"levelo://app?vid=fc32dc7e-6e7a-49b4-bf5c-5e107dd0a161"},"vehicle_type_id":"4","last_reported":1774886332,"current_range_meters":5600,"station_id":"","pricing_plan_id":"cebpf4jnsgd1na2vs0mg"},{"bike_id":"0541ebc0-1547-4b47-bf2d-8ef5aabd3eb7","system_id":"levelo_inurba_marseille","lat":43.29469,"lon":5.38657,"is_reserved":false,"is_disabled":false,"rental_uris":{"android":"levelo://app?vid=0541ebc0-1547-4b47-bf2d-8ef5aabd3eb7","ios":"levelo://app?vid=0541ebc0-1547-4b47-bf2d-8ef5aabd3eb7"},"vehicle_type_id":"4","last_reported":1774886332,"current_range_meters":5600,"station_id":"","pricing_plan_id":"cebpf4jnsgd1na2vs0mg"},{"bike_id":"34f528ae-d358-4eff-85c8-f2efd8d77151","system_id":"levelo_inurba_marseille","lat":43.23898,"lon":5.37448,"is_reserved":false,"is_disabled":false,"rental_uris":{"android":"levelo://app?vid=34f528ae-d358-4eff-85c8-f2efd8d77151","ios":"levelo://app?vid=34f528ae-d358-4eff-85c8-f2efd8d77151"},"vehicle_type_id":"4","last_reported":1774886332,"current_range_meters":5600,"station_id":"st_d6sm7csbq4hs73f8fpjg","pricing_plan_id":"cebpf4jnsgd1na2vs0mg"},{"bike_id":"af5a7a48-c090-4231-9c1d-d3c469ae99de","system_id":"levelo_inurba_marseille","lat":43.31238,"lon":5.36863,"is_reserved":false,"is_disabled":false,"rental_uris":{"android":"levelo://app?vid=af5a7a48-c090-4231-9c1d-d3c469ae99de","ios":"levelo://app?vid=af5a7a48-c090-4231-9c1d-d3c469ae99de"},"vehicle_type_id":"4","last_reported":1774886332,"current_range_meters":6000,"station_id":"ce4bgl92rcd13ifvqbq0","pricing_plan_id":"cebpf4jnsgd1na2vs0mg"},{"bike_id":"3054983a-1a1c-4947-aa35-bcfaa4fa8110","system_id":"levelo_inurba_marseille","lat":43.25336,"lon":5.42182,"is_reserved":false,"is_disabled":false,"rental_uris":{"android":"levelo://app?vid=3054983a-1a1c-4947-aa35-bcfaa4fa8110","ios":"levelo://app?vid=3054983a-1a1c-4947-aa35-bcfaa4fa8110"},"vehicle_type_id":"4","last_reported":1774886332,"current_range_meters":6000,"station_id":"st_d2m65c5bi1j21697t3ng","pricing_plan_id":"cebpf4jnsgd1na2vs0mg"},{"bike_id":"53f142a0-3955-4808-b4c6-e1524bc3e079","system_id":"levelo_inurba_marseille","lat":43.21196,"lon":5.35081,"is_reserved":false,"is_disabled":false,"rental_uris":{"android":"levelo://app?vid=53f142a0-3955-4808-b4c6-e1524bc3e079","ios":"levelo://app?vid=53f142a0-3955-4808-b4c6-e1524bc3e079"},"vehicle_type_id":"4","last_reported":1774886332,"current_range_meters":6000,"station_id":"st_cvj6sg6p6f1abm77japg","pricing_plan_id":"cebpf4jnsgd1na2vs0mg"},{"bike_id":"085c38b5-98f5-41a6-a385-8b6d28bfb2c1","system_id":"levelo_inurba_marseille","lat":43.22535,"lon":5.34828,"is_reserved":false,"is_disabled":false,"rental_uris":{"android":"levelo://app?vid=085c38b5-98f5-41a6-a385-8b6d28bfb2c1","ios":"levelo://app?vid=085c38b5-98f5-41a6-a385-8b6d28bfb2c1"},"vehicle_type_id":"4","last_reported":1774886332,"current_range_meters":6000,"station_id":"st_cvj5dfep6f1abm77gieg","pricing_plan_id":"cebpf4jnsgd1na2vs0mg"},{"bike_id":"b90caad3-7060-4253-981e-42cd0d5fd64b","system_id":"levelo_inurba_marseille","lat":43.28477,"lon":5.48403,"is_reserved":false,"is_disabled":false,"rental_uris":{"android":"levelo://app?vid=b90caad3-7060-4253-981e-42cd0d5fd64b","ios":"levelo://app?vid=b90caad3-7060-4253-981e-42cd0d5fd64b"},"vehicle_type_id":"4","last_reported":1774886332,"current_range_meters":6000,"station_id":"st_d3svhcjqgbts73a3dn0g","pricing_plan_id":"cebpf4jnsgd1na2vs0mg"},{"bike_id":"69741b22-b2f7-46c8-bfdf-aed4ae395e1c","system_id":"levelo_inurba_marseille","lat":43.27074,"lon":5.42281,"is_reserved":false,"is_disabled":false,"rental_uris":{"android":"levelo://app?vid=69741b22-b2f7-46c8-bfdf-aed4ae395e1c","ios":"levelo://app?vid=69741b22-b2f7-46c8-bfdf-aed4ae395e1c"},"vehicle_type_id":"4","last_reported":1774886332,"current_range_meters":6000,"station_id":"ce4bhk92rcd13ifvqgb0","pricing_plan_id":"cebpf4jnsgd1na2vs0mg"},{"bike_id":"fe448dd6-41e6-4316-8322-1ef9307a87c2","system_id":"levelo_inurba_marseille","lat":43.23882,"lon":5.37487,"is_reserved":false,"is_disabled":true,"rental_uris":{"android":"levelo://app?vid=fe448dd6-41e6-4316-8322-1ef9307a87c2","ios":"levelo://app?vid=fe448dd6-41e6-4316-8322-1ef9307a87c2"},"vehicle_type_id":"4","last_reported":1774886332,"current_range_meters":6000,"station_id":"st_d6sm7csbq4hs73f8fpjg","pricing_plan_id":"cebpf4jnsgd1na2vs0mg"},{"bike_id":"3aae17fa-7bc6-455a-960a-4ceda4265238","system_id":"levelo_inurba_marseille","lat":43.32351,"lon":5.36731,"is_reserved":false,"is_disabled":false,"rental_uris":{"android":"levelo://app?vid=3aae17fa-7bc6-455a-960a-4ceda4265238","ios":"levelo://app?vid=3aae17fa-7bc6-455a-960a-4ceda4265238"},"vehicle_type_id":"4","last_reported":1774886332,"current_range_meters":6000,"station_id":"ce4bhsh2rcd13ifvqi2g","pricing_plan_id":"cebpf4jnsgd1na2vs0mg"},{"bike_id":"d702f9f6-8c8f-4dee-8b59-b578a0195d00","system_id":"levelo_inurba_marseille","lat":43.31219,"lon":5.36882,"is_reserved":false,"is_disabled":false,"rental_uris":{"android":"levelo://app?vid=d702f9f6-8c8f-4dee-8b59-b578a0195d00","ios":"levelo://app?vid=d702f9f6-8c8f-4dee-8b59-b578a0195d00"},"vehicle_type_id":"4","last_reported":1774886332,"current_range_meters":6000,"station_id":"ce4bgl92rcd13ifvqbq0","pricing_plan_id":"cebpf4jnsgd1na2vs0mg"},{"bike_id":"c65f7cfd-8a23-4398-8054-cc4c9bfe0b68","system_id":"levelo_inurba_marseille","lat":43.25119,"lon":5.40325,"is_reserved":false,"is_disabled":false,"rental_uris":{"android":"levelo://app?vid=c65f7cfd-8a23-4398-8054-cc4c9bfe0b68","ios":"levelo://app?vid=c65f7cfd-8a23-4398-8054-cc4c9bfe0b68"},"vehicle_type_id":"4","last_reported":1774886332,"current_range_meters":6400,"station_id":"ce4bhlh2rcd13ifvqgig","pricing_plan_id":"cebpf4jnsgd1na2vs0mg"},{"bike_id":"e35b24d5-c149-4340-9c14-7bd9a49f88da","system_id":"levelo_inurba_marseille","lat":43.26578,"lon":5.3901,"is_reserved":false,"is_disabled":false,"rental_uris":{"android":"levelo://app?vid=e35b24d5-c149-4340-9c14-7bd9a49f88da","ios":"levelo://app?vid=e35b24d5-c149-4340-9c14-7bd9a49f88da"},"vehicle_type_id":"4","last_reported":1774886332,"current_range_meters":6400,"station_id":"ce4bhe12rcd13ifvqf30","pricing_plan_id":"cebpf4jnsgd1na2vs0mg"},{"bike_id":"93858380-8afb-453d-8daf-0bf96d8ee1f3","system_id":"levelo_inurba_marseille","lat":43.23797,"lon":5.36637,"is_reserved":false,"is_disabled":false,"rental_uris":{"android":"levelo://app?vid=93858380-8afb-453d-8daf-0bf96d8ee1f3","ios":"levelo://app?vid=93858380-8afb-453d-8daf-0bf96d8ee1f3"},"vehicle_type_id":"4","last_reported":1774886332,"current_range_meters":6400,"station_id":"st_d3nk18o9ro0c73en2l3g","pricing_plan_id":"cebpf4jnsgd1na2vs0mg"},{"bike_id":"3e56278a-47c3-4d27-b2a7-b0223efdc25d","system_id":"levelo_inurba_marseille","lat":43.28411,"lon":5.34983,"is_reserved":false,"is_disabled":false,"rental_uris":{"android":"levelo://app?vid=3e56278a-47c3-4d27-b2a7-b0223efdc25d","ios":"levelo://app?vid=3e56278a-47c3-4d27-b2a7-b0223efdc25d"},"vehicle_type_id":"4","last_reported":1774886332,"current_range_meters":6400,"station_id":"ce4bhbh2rcd13ifvqepg","pricing_plan_id":"cebpf4jnsgd1na2vs0mg"},{"bike_id":"bdba0113-b085-4477-ae3d-8c0ba0dfc437","system_id":"levelo_inurba_marseille","lat":43.29225,"lon":5.36074,"is_reserved":false,"is_disabled":false,"rental_uris":{"android":"levelo://app?vid=bdba0113-b085-4477-ae3d-8c0ba0dfc437","ios":"levelo://app?vid=bdba0113-b085-4477-ae3d-8c0ba0dfc437"},"vehicle_type_id":"4","last_reported":1774886332,"current_range_meters":6400,"station_id":"ce4bhbh2rcd13ifvqeqg","pricing_plan_id":"cebpf4jnsgd1na2vs0mg"},{"bike_id":"29049f9a-cda2-426d-9e6c-1d886e0b8215","system_id":"levelo_inurba_marseille","lat":43.29174,"lon":5.42755,"is_reserved":false,"is_disabled":false,"rental_uris":{"android":"levelo://app?vid=29049f9a-cda2-426d-9e6c-1d886e0b8215","ios":"levelo://app?vid=29049f9a-cda2-426d-9e6c-1d886e0b8215"},"vehicle_type_id":"4","last_reported":1774886332,"current_range_meters":6400,"station_id":"","pricing_plan_id":"cebpf4jnsgd1na2vs0mg"},{"bike_id":"bed085cd-e643-4cf8-a83c-4e3f37218df7","system_id":"levelo_inurba_marseille","lat":43.23117,"lon":5.40239,"is_reserved":false,"is_disabled":false,"rental_uris":{"android":"levelo://app?vid=bed085cd-e643-4cf8-a83c-4e3f37218df7","ios":"levelo://app?vid=bed085cd-e643-4cf8-a83c-4e3f37218df7"},"vehicle_type_id":"4","last_reported":1774886332,"current_range_meters":6400,"station_id":"","pricing_plan_id":"cebpf4jnsgd1na2vs0mg"},{"bike_id":"86db0319-41a7-4493-adee-c184becfe762","system_id":"levelo_inurba_marseille","lat":43.28923,"lon":5.45668,"is_reserved":false,"is_disabled":false,"rental_uris":{"android":"levelo://app?vid=86db0319-41a7-4493-adee-c184becfe762","ios":"levelo://app?vid=86db0319-41a7-4493-adee-c184becfe762"},"vehicle_type_id":"4","last_reported":1774886332,"current_range_meters":6400,"station_id":"","pricing_plan_id":"cebpf4jnsgd1na2vs0mg"},{"bike_id":"b7331a2e-c9d2-44de-ab1b-acd5ee316a32","system_id":"levelo_inurba_marseille","lat":43.30246,"lon":5.40068,"is_reserved":false,"is_disabled":false,"rental_uris":{"android":"levelo://app?vid=b7331a2e-c9d2-44de-ab1b-acd5ee316a32","ios":"levelo://app?vid=b7331a2e-c9d2-44de-ab1b-acd5ee316a32"},"vehicle_type_id":"4","last_reported":1774886332,"current_range_meters":6800,"station_id":"ce4bgvh2rcd13ifvqcs0","pricing_plan_id":"cebpf4jnsgd1na2vs0mg"},{"bike_id":"9d9ed871-829e-4bf9-a447-33660f65cafd","system_id":"levelo_inurba_marseille","lat":43.30523,"lon":5.36545,"is_reserved":false,"is_disabled":false,"rental_uris":{"android":"levelo://app?vid=9d9ed871-829e-4bf9-a447-33660f65cafd","ios":"levelo://app?vid=9d9ed871-829e-4bf9-a447-33660f65cafd"},"vehicle_type_id":"4","last_reported":1774886332,"current_range_meters":6800,"station_id":"ce4bgs12rcd13ifvqcag","pricing_plan_id":"cebpf4jnsgd1na2vs0mg"},{"bike_id":"c7686f7e-b5e1-4c8a-b91c-cf38c3111ad1","system_id":"levelo_inurba_marseille","lat":43.28716,"lon":5.37394,"is_reserved":false,"is_disabled":false,"rental_uris":{"android":"levelo://app?vid=c7686f7e-b5e1-4c8a-b91c-cf38c3111ad1","ios":"levelo://app?vid=c7686f7e-b5e1-4c8a-b91c-cf38c3111ad1"},"vehicle_type_id":"4","last_reported":1774886332,"current_range_meters":6800,"station_id":"ce4bh3p2rcd13ifvqdq0","pricing_plan_id":"cebpf4jnsgd1na2vs0mg"},{"bike_id":"7ea68384-f694-4a28-85a7-1a4829b38dc5","system_id":"levelo_inurba_marseille","lat":43.28542,"lon":5.44098,"is_reserved":false,"is_disabled":false,"rental_uris":{"android":"levelo://app?vid=7ea68384-f694-4a28-85a7-1a4829b38dc5","ios":"levelo://app?vid=7ea68384-f694-4a28-85a7-1a4829b38dc5"},"vehicle_type_id":"4","last_reported":1774886332,"current_range_meters":6800,"station_id":"st_d3j3df2ikq2c7380ej80","pricing_plan_id":"cebpf4jnsgd1na2vs0mg"},{"bike_id":"57239cfd-9cf0-4ecb-b61f-b52beab6afab","system_id":"levelo_inurba_marseille","lat":43.21758,"lon":5.34603,"is_reserved":false,"is_disabled":false,"rental_uris":{"android":"levelo://app?vid=57239cfd-9cf0-4ecb-b61f-b52beab6afab","ios":"levelo://app?vid=57239cfd-9cf0-4ecb-b61f-b52beab6afab"},"vehicle_type_id":"4","last_reported":1774886332,"current_range_meters":6800,"station_id":"st_cvj6r9ubvosntc0bgbag","pricing_plan_id":"cebpf4jnsgd1na2vs0mg"},{"bike_id":"131a88d5-b5b2-4532-b511-14fa6f230522","system_id":"levelo_inurba_marseille","lat":43.33737,"lon":5.39201,"is_reserved":false,"is_disabled":false,"rental_uris":{"android":"levelo://app?vid=131a88d5-b5b2-4532-b511-14fa6f230522","ios":"levelo://app?vid=131a88d5-b5b2-4532-b511-14fa6f230522"},"vehicle_type_id":"4","last_reported":1774886332,"current_range_meters":6800,"station_id":"ce4bhr92rcd13ifvqhsg","pricing_plan_id":"cebpf4jnsgd1na2vs0mg"},{"bike_id":"1227dc61-c55b-43f3-83a0-014c73aacab8","system_id":"levelo_inurba_marseille","lat":43.23964,"lon":5.36649,"is_reserved":false,"is_disabled":false,"rental_uris":{"android":"levelo://app?vid=1227dc61-c55b-43f3-83a0-014c73aacab8","ios":"levelo://app?vid=1227dc61-c55b-43f3-83a0-014c73aacab8"},"vehicle_type_id":"4","last_reported":1774886332,"current_range_meters":6800,"station_id":"ce4bhi12rcd13ifvqfp0","pricing_plan_id":"cebpf4jnsgd1na2vs0mg"},{"bike_id":"53ab5b1d-cae9-45a1-acf9-cea4f7b6ff95","system_id":"levelo_inurba_marseille","lat":43.23068,"lon":5.35607,"is_reserved":false,"is_disabled":false,"rental_uris":{"android":"levelo://app?vid=53ab5b1d-cae9-45a1-acf9-cea4f7b6ff95","ios":"levelo://app?vid=53ab5b1d-cae9-45a1-acf9-cea4f7b6ff95"},"vehicle_type_id":"4","last_reported":1774886332,"current_range_meters":6800,"station_id":"","pricing_plan_id":"cebpf4jnsgd1na2vs0mg"},{"bike_id":"187ecafa-1999-412c-be1f-8e743a576d74","system_id":"levelo_inurba_marseille","lat":43.3266,"lon":5.41004,"is_reserved":false,"is_disabled":false,"rental_uris":{"android":"levelo://app?vid=187ecafa-1999-412c-be1f-8e743a576d74","ios":"levelo://app?vid=187ecafa-1999-412c-be1f-8e743a576d74"},"vehicle_type_id":"4","last_reported":1774886332,"current_range_meters":6800,"station_id":"ce4bhpp2rcd13ifvqhgg","pricing_plan_id":"cebpf4jnsgd1na2vs0mg"},{"bike_id":"04dd597f-e458-493a-8c7d-19778853129a","system_id":"levelo_inurba_marseille","lat":43.30877,"lon":5.37198,"is_reserved":false,"is_disabled":false,"rental_uris":{"android":"levelo://app?vid=04dd597f-e458-493a-8c7d-19778853129a","ios":"levelo://app?vid=04dd597f-e458-493a-8c7d-19778853129a"},"vehicle_type_id":"4","last_reported":1774886332,"current_range_meters":6800,"station_id":"ce4bguh2rcd13ifvqckg","pricing_plan_id":"cebpf4jnsgd1na2vs0mg"},{"bike_id":"a0012753-6ed9-4bdc-8e0a-58b009b5e5ce","system_id":"levelo_inurba_marseille","lat":43.23183,"lon":5.39987,"is_reserved":false,"is_disabled":false,"rental_uris":{"android":"levelo://app?vid=a0012753-6ed9-4bdc-8e0a-58b009b5e5ce","ios":"levelo://app?vid=a0012753-6ed9-4bdc-8e0a-58b009b5e5ce"},"vehicle_type_id":"4","last_reported":1774886332,"current_range_meters":6800,"station_id":"ce4bhn12rcd13ifvqgqg","pricing_plan_id":"cebpf4jnsgd1na2vs0mg"},{"bike_id":"ab522d30-5766-4611-a97d-00872251f91b","system_id":"levelo_inurba_marseille","lat":43.29799,"lon":5.39338,"is_reserved":false,"is_disabled":false,"rental_uris":{"android":"levelo://app?vid=ab522d30-5766-4611-a97d-00872251f91b","ios":"levelo://app?vid=ab522d30-5766-4611-a97d-00872251f91b"},"vehicle_type_id":"4","last_reported":1774886332,"current_range_meters":6800,"station_id":"chh1huq6cuj3fo74tm60","pricing_plan_id":"cebpf4jnsgd1na2vs0mg"},{"bike_id":"c0d049d2-9884-47fd-b25d-2edd239d3046","system_id":"levelo_inurba_marseille","lat":43.28543,"lon":5.44136,"is_reserved":false,"is_disabled":false,"rental_uris":{"android":"levelo://app?vid=c0d049d2-9884-47fd-b25d-2edd239d3046","ios":"levelo://app?vid=c0d049d2-9884-47fd-b25d-2edd239d3046"},"vehicle_type_id":"4","last_reported":1774886332,"current_range_meters":6800,"station_id":"st_d3j3df2ikq2c7380ej80","pricing_plan_id":"cebpf4jnsgd1na2vs0mg"},{"bike_id":"de3208ad-e0aa-43cf-b3d0-9b02dc8b1328","system_id":"levelo_inurba_marseille","lat":43.24167,"lon":5.36389,"is_reserved":false,"is_disabled":false,"rental_uris":{"android":"levelo://app?vid=de3208ad-e0aa-43cf-b3d0-9b02dc8b1328","ios":"levelo://app?vid=de3208ad-e0aa-43cf-b3d0-9b02dc8b1328"},"vehicle_type_id":"4","last_reported":1774886332,"current_range_meters":6800,"station_id":"cpo36qri1sfpv3e86is0","pricing_plan_id":"cebpf4jnsgd1na2vs0mg"},{"bike_id":"aba4a31a-18d2-4cad-bb8c-30bd606f5c4c","system_id":"levelo_inurba_marseille","lat":43.24169,"lon":5.36411,"is_reserved":false,"is_disabled":false,"rental_uris":{"android":"levelo://app?vid=aba4a31a-18d2-4cad-bb8c-30bd606f5c4c","ios":"levelo://app?vid=aba4a31a-18d2-4cad-bb8c-30bd606f5c4c"},"vehicle_type_id":"4","last_reported":1774886332,"current_range_meters":6800,"station_id":"cpo36qri1sfpv3e86is0","pricing_plan_id":"cebpf4jnsgd1na2vs0mg"},{"bike_id":"602b4b7b-8dc9-4891-9a25-26fd34b63857","system_id":"levelo_inurba_marseille","lat":43.24393,"lon":5.37045,"is_reserved":false,"is_disabled":false,"rental_uris":{"android":"levelo://app?vid=602b4b7b-8dc9-4891-9a25-26fd34b63857","ios":"levelo://app?vid=602b4b7b-8dc9-4891-9a25-26fd34b63857"},"vehicle_type_id":"4","last_reported":1774886332,"current_range_meters":6800,"station_id":"ce4bhhh2rcd13ifvqfk0","pricing_plan_id":"cebpf4jnsgd1na2vs0mg"},{"bike_id":"c0eec902-074b-4a18-af47-ff048b653a5e","system_id":"levelo_inurba_marseille","lat":43.28472,"lon":5.4839,"is_reserved":false,"is_disabled":false,"rental_uris":{"android":"levelo://app?vid=c0eec902-074b-4a18-af47-ff048b653a5e","ios":"levelo://app?vid=c0eec902-074b-4a18-af47-ff048b653a5e"},"vehicle_type_id":"4","last_reported":1774886332,"current_range_meters":7200,"station_id":"","pricing_plan_id":"cebpf4jnsgd1na2vs0mg"},{"bike_id":"de0c85eb-5c5e-4072-bc4f-1e30932adaae","system_id":"levelo_inurba_marseille","lat":43.29784,"lon":5.37106,"is_reserved":false,"is_disabled":false,"rental_uris":{"android":"levelo://app?vid=de0c85eb-5c5e-4072-bc4f-1e30932adaae","ios":"levelo://app?vid=de0c85eb-5c5e-4072-bc4f-1e30932adaae"},"vehicle_type_id":"4","last_reported":1774886332,"current_range_meters":7200,"station_id":"ce4bgop2rcd13ifvqc1g","pricing_plan_id":"cebpf4jnsgd1na2vs0mg"},{"bike_id":"132e7de0-1c60-4e16-8ba9-01efee9304af","system_id":"levelo_inurba_marseille","lat":43.32369,"lon":5.36749,"is_reserved":false,"is_disabled":false,"rental_uris":{"android":"levelo://app?vid=132e7de0-1c60-4e16-8ba9-01efee9304af","ios":"levelo://app?vid=132e7de0-1c60-4e16-8ba9-01efee9304af"},"vehicle_type_id":"4","last_reported":1774886332,"current_range_meters":7200,"station_id":"ce4bhsh2rcd13ifvqi2g","pricing_plan_id":"cebpf4jnsgd1na2vs0mg"},{"bike_id":"c6f0bfb9-609a-4cc4-9c64-edb005bc49da","system_id":"levelo_inurba_marseille","lat":43.28413,"lon":5.35072,"is_reserved":false,"is_disabled":false,"rental_uris":{"android":"levelo://app?vid=c6f0bfb9-609a-4cc4-9c64-edb005bc49da","ios":"levelo://app?vid=c6f0bfb9-609a-4cc4-9c64-edb005bc49da"},"vehicle_type_id":"4","last_reported":1774886332,"current_range_meters":7200,"station_id":"","pricing_plan_id":"cebpf4jnsgd1na2vs0mg"},{"bike_id":"9aaf8231-70bd-4c0f-9334-e020b4227cf4","system_id":"levelo_inurba_marseille","lat":43.24648,"lon":5.38957,"is_reserved":false,"is_disabled":false,"rental_uris":{"android":"levelo://app?vid=9aaf8231-70bd-4c0f-9334-e020b4227cf4","ios":"levelo://app?vid=9aaf8231-70bd-4c0f-9334-e020b4227cf4"},"vehicle_type_id":"4","last_reported":1774886332,"current_range_meters":7200,"station_id":"ce4bhg12rcd13ifvqf60","pricing_plan_id":"cebpf4jnsgd1na2vs0mg"},{"bike_id":"b6cc933c-6bc2-4eef-9a7c-4e6a85131db4","system_id":"levelo_inurba_marseille","lat":43.24172,"lon":5.36385,"is_reserved":false,"is_disabled":false,"rental_uris":{"android":"levelo://app?vid=b6cc933c-6bc2-4eef-9a7c-4e6a85131db4","ios":"levelo://app?vid=b6cc933c-6bc2-4eef-9a7c-4e6a85131db4"},"vehicle_type_id":"4","last_reported":1774886332,"current_range_meters":7200,"station_id":"cpo36qri1sfpv3e86is0","pricing_plan_id":"cebpf4jnsgd1na2vs0mg"},{"bike_id":"ccf225b1-f4e7-468c-b7be-f7e3965c10ed","system_id":"levelo_inurba_marseille","lat":43.26207,"lon":5.37931,"is_reserved":false,"is_disabled":false,"rental_uris":{"android":"levelo://app?vid=ccf225b1-f4e7-468c-b7be-f7e3965c10ed","ios":"levelo://app?vid=ccf225b1-f4e7-468c-b7be-f7e3965c10ed"},"vehicle_type_id":"4","last_reported":1774886332,"current_range_meters":7200,"station_id":"ce4bhjp2rcd13ifvqg90","pricing_plan_id":"cebpf4jnsgd1na2vs0mg"},{"bike_id":"0dff1657-701a-46a5-aa66-060096e7915a","system_id":"levelo_inurba_marseille","lat":43.27374,"lon":5.36253,"is_reserved":false,"is_disabled":false,"rental_uris":{"android":"levelo://app?vid=0dff1657-701a-46a5-aa66-060096e7915a","ios":"levelo://app?vid=0dff1657-701a-46a5-aa66-060096e7915a"},"vehicle_type_id":"4","last_reported":1774886332,"current_range_meters":7200,"station_id":"ce4bhbh2rcd13ifvqeo0","pricing_plan_id":"cebpf4jnsgd1na2vs0mg"},{"bike_id":"989bebe7-8615-4cd7-aeef-fec5c5f64679","system_id":"levelo_inurba_marseille","lat":43.244,"lon":5.37054,"is_reserved":false,"is_disabled":false,"rental_uris":{"android":"levelo://app?vid=989bebe7-8615-4cd7-aeef-fec5c5f64679","ios":"levelo://app?vid=989bebe7-8615-4cd7-aeef-fec5c5f64679"},"vehicle_type_id":"4","last_reported":1774886332,"current_range_meters":7200,"station_id":"ce4bhhh2rcd13ifvqfk0","pricing_plan_id":"cebpf4jnsgd1na2vs0mg"},{"bike_id":"fa2139d7-56b5-4664-870b-94753042ac1d","system_id":"levelo_inurba_marseille","lat":43.21205,"lon":5.35069,"is_reserved":false,"is_disabled":false,"rental_uris":{"android":"levelo://app?vid=fa2139d7-56b5-4664-870b-94753042ac1d","ios":"levelo://app?vid=fa2139d7-56b5-4664-870b-94753042ac1d"},"vehicle_type_id":"4","last_reported":1774886332,"current_range_meters":7200,"station_id":"st_cvj6sg6p6f1abm77japg","pricing_plan_id":"cebpf4jnsgd1na2vs0mg"},{"bike_id":"0f20fa83-5694-4393-a47b-7caf9e918801","system_id":"levelo_inurba_marseille","lat":43.29152,"lon":5.42604,"is_reserved":false,"is_disabled":false,"rental_uris":{"android":"levelo://app?vid=0f20fa83-5694-4393-a47b-7caf9e918801","ios":"levelo://app?vid=0f20fa83-5694-4393-a47b-7caf9e918801"},"vehicle_type_id":"4","last_reported":1774886332,"current_range_meters":7200,"station_id":"","pricing_plan_id":"cebpf4jnsgd1na2vs0mg"},{"bike_id":"5bcf64b9-1b8a-4f2f-b7c5-6bae08cb8b47","system_id":"levelo_inurba_marseille","lat":43.29044,"lon":5.38632,"is_reserved":false,"is_disabled":false,"rental_uris":{"android":"levelo://app?vid=5bcf64b9-1b8a-4f2f-b7c5-6bae08cb8b47","ios":"levelo://app?vid=5bcf64b9-1b8a-4f2f-b7c5-6bae08cb8b47"},"vehicle_type_id":"4","last_reported":1774886332,"current_range_meters":7200,"station_id":"ce4bh4p2rcd13ifvqe0g","pricing_plan_id":"cebpf4jnsgd1na2vs0mg"},{"bike_id":"97ce69f1-7181-466d-9bc2-d076363b5f27","system_id":"levelo_inurba_marseille","lat":43.24165,"lon":5.36398,"is_reserved":false,"is_disabled":false,"rental_uris":{"android":"levelo://app?vid=97ce69f1-7181-466d-9bc2-d076363b5f27","ios":"levelo://app?vid=97ce69f1-7181-466d-9bc2-d076363b5f27"},"vehicle_type_id":"4","last_reported":1774886332,"current_range_meters":7200,"station_id":"cpo36qri1sfpv3e86is0","pricing_plan_id":"cebpf4jnsgd1na2vs0mg"},{"bike_id":"90c5083d-61d7-4212-893f-2dfc58168774","system_id":"levelo_inurba_marseille","lat":43.24185,"lon":5.36408,"is_reserved":false,"is_disabled":false,"rental_uris":{"android":"levelo://app?vid=90c5083d-61d7-4212-893f-2dfc58168774","ios":"levelo://app?vid=90c5083d-61d7-4212-893f-2dfc58168774"},"vehicle_type_id":"4","last_reported":1774886332,"current_range_meters":7200,"station_id":"cpo36qri1sfpv3e86is0","pricing_plan_id":"cebpf4jnsgd1na2vs0mg"},{"bike_id":"3ac0129c-9c97-4af6-b6ad-c66c14a5c227","system_id":"levelo_inurba_marseille","lat":43.2847,"lon":5.48409,"is_reserved":false,"is_disabled":false,"rental_uris":{"android":"levelo://app?vid=3ac0129c-9c97-4af6-b6ad-c66c14a5c227","ios":"levelo://app?vid=3ac0129c-9c97-4af6-b6ad-c66c14a5c227"},"vehicle_type_id":"4","last_reported":1774886332,"current_range_meters":7200,"station_id":"","pricing_plan_id":"cebpf4jnsgd1na2vs0mg"},{"bike_id":"f7d02767-52da-4db2-b403-e11366b9f9bf","system_id":"levelo_inurba_marseille","lat":43.28661,"lon":5.35135,"is_reserved":false,"is_disabled":false,"rental_uris":{"android":"levelo://app?vid=f7d02767-52da-4db2-b403-e11366b9f9bf","ios":"levelo://app?vid=f7d02767-52da-4db2-b403-e11366b9f9bf"},"vehicle_type_id":"4","last_reported":1774886332,"current_range_meters":7200,"station_id":"ce4bhch2rcd13ifvqeug","pricing_plan_id":"cebpf4jnsgd1na2vs0mg"},{"bike_id":"94b33aff-14db-4efd-bce0-4d1fd5957f6e","system_id":"levelo_inurba_marseille","lat":43.26208,"lon":5.37951,"is_reserved":false,"is_disabled":false,"rental_uris":{"android":"levelo://app?vid=94b33aff-14db-4efd-bce0-4d1fd5957f6e","ios":"levelo://app?vid=94b33aff-14db-4efd-bce0-4d1fd5957f6e"},"vehicle_type_id":"4","last_reported":1774886332,"current_range_meters":7200,"station_id":"ce4bhjp2rcd13ifvqg90","pricing_plan_id":"cebpf4jnsgd1na2vs0mg"},{"bike_id":"1f8b06bb-3f91-46ec-ae05-36fb92f0336b","system_id":"levelo_inurba_marseille","lat":43.26407,"lon":5.39876,"is_reserved":false,"is_disabled":false,"rental_uris":{"android":"levelo://app?vid=1f8b06bb-3f91-46ec-ae05-36fb92f0336b","ios":"levelo://app?vid=1f8b06bb-3f91-46ec-ae05-36fb92f0336b"},"vehicle_type_id":"4","last_reported":1774886332,"current_range_meters":7200,"station_id":"","pricing_plan_id":"cebpf4jnsgd1na2vs0mg"},{"bike_id":"71983624-569c-45d9-9fb5-891a7993a82a","system_id":"levelo_inurba_marseille","lat":43.28406,"lon":5.34993,"is_reserved":false,"is_disabled":false,"rental_uris":{"android":"levelo://app?vid=71983624-569c-45d9-9fb5-891a7993a82a","ios":"levelo://app?vid=71983624-569c-45d9-9fb5-891a7993a82a"},"vehicle_type_id":"4","last_reported":1774886332,"current_range_meters":7200,"station_id":"ce4bhbh2rcd13ifvqepg","pricing_plan_id":"cebpf4jnsgd1na2vs0mg"},{"bike_id":"321b3eaa-1069-4b90-8621-c923db7c2f03","system_id":"levelo_inurba_marseille","lat":43.28401,"lon":5.3929,"is_reserved":false,"is_disabled":false,"rental_uris":{"android":"levelo://app?vid=321b3eaa-1069-4b90-8621-c923db7c2f03","ios":"levelo://app?vid=321b3eaa-1069-4b90-8621-c923db7c2f03"},"vehicle_type_id":"4","last_reported":1774886332,"current_range_meters":8000,"station_id":"","pricing_plan_id":"cebpf4jnsgd1na2vs0mg"},{"bike_id":"8429f855-c4a0-4803-9ce7-0d1fb93dbfe8","system_id":"levelo_inurba_marseille","lat":43.28348,"lon":5.48752,"is_reserved":false,"is_disabled":false,"rental_uris":{"android":"levelo://app?vid=8429f855-c4a0-4803-9ce7-0d1fb93dbfe8","ios":"levelo://app?vid=8429f855-c4a0-4803-9ce7-0d1fb93dbfe8"},"vehicle_type_id":"4","last_reported":1774886332,"current_range_meters":8000,"station_id":"","pricing_plan_id":"cebpf4jnsgd1na2vs0mg"},{"bike_id":"1f50d665-ad56-4564-8bce-5cff2a4e2b4f","system_id":"levelo_inurba_marseille","lat":43.24198,"lon":5.39728,"is_reserved":false,"is_disabled":false,"rental_uris":{"android":"levelo://app?vid=1f50d665-ad56-4564-8bce-5cff2a4e2b4f","ios":"levelo://app?vid=1f50d665-ad56-4564-8bce-5cff2a4e2b4f"},"vehicle_type_id":"4","last_reported":1774886332,"current_range_meters":8000,"station_id":"ce4bhn12rcd13ifvqgpg","pricing_plan_id":"cebpf4jnsgd1na2vs0mg"},{"bike_id":"046881a8-ab16-4490-bda4-767f874d1bc8","system_id":"levelo_inurba_marseille","lat":43.287178,"lon":5.360977,"is_reserved":false,"is_disabled":false,"rental_uris":{"android":"levelo://app?vid=046881a8-ab16-4490-bda4-767f874d1bc8","ios":"levelo://app?vid=046881a8-ab16-4490-bda4-767f874d1bc8"},"vehicle_type_id":"4","last_reported":1774886332,"current_range_meters":8000,"station_id":"","pricing_plan_id":"cebpf4jnsgd1na2vs0mg"},{"bike_id":"3a6cd128-2bd9-4487-82c3-2d64dde17ac7","system_id":"levelo_inurba_marseille","lat":43.31183,"lon":5.39049,"is_reserved":false,"is_disabled":false,"rental_uris":{"android":"levelo://app?vid=3a6cd128-2bd9-4487-82c3-2d64dde17ac7","ios":"levelo://app?vid=3a6cd128-2bd9-4487-82c3-2d64dde17ac7"},"vehicle_type_id":"4","last_reported":1774886332,"current_range_meters":8000,"station_id":"","pricing_plan_id":"cebpf4jnsgd1na2vs0mg"},{"bike_id":"d653ed05-f213-45fd-84c6-b781deb83672","system_id":"levelo_inurba_marseille","lat":43.22555,"lon":5.41633,"is_reserved":false,"is_disabled":false,"rental_uris":{"android":"levelo://app?vid=d653ed05-f213-45fd-84c6-b781deb83672","ios":"levelo://app?vid=d653ed05-f213-45fd-84c6-b781deb83672"},"vehicle_type_id":"4","last_reported":1774886332,"current_range_meters":8000,"station_id":"st_d2o4gvlbi1j2169b742g","pricing_plan_id":"cebpf4jnsgd1na2vs0mg"},{"bike_id":"c67c5d5c-6a86-4840-bc88-5726340ce24f","system_id":"levelo_inurba_marseille","lat":43.23898,"lon":5.37465,"is_reserved":false,"is_disabled":false,"rental_uris":{"android":"levelo://app?vid=c67c5d5c-6a86-4840-bc88-5726340ce24f","ios":"levelo://app?vid=c67c5d5c-6a86-4840-bc88-5726340ce24f"},"vehicle_type_id":"4","last_reported":1774886332,"current_range_meters":8000,"station_id":"st_d6sm7csbq4hs73f8fpjg","pricing_plan_id":"cebpf4jnsgd1na2vs0mg"},{"bike_id":"ccb4a9c4-3dcf-4760-a40f-88641a1476d6","system_id":"levelo_inurba_marseille","lat":43.29903,"lon":5.3975,"is_reserved":false,"is_disabled":false,"rental_uris":{"android":"levelo://app?vid=ccb4a9c4-3dcf-4760-a40f-88641a1476d6","ios":"levelo://app?vid=ccb4a9c4-3dcf-4760-a40f-88641a1476d6"},"vehicle_type_id":"4","last_reported":1774886332,"current_range_meters":8000,"station_id":"ce4bh0h2rcd13ifvqd50","pricing_plan_id":"cebpf4jnsgd1na2vs0mg"},{"bike_id":"e2491530-7c3b-41df-80e0-1a5c4af36aa4","system_id":"levelo_inurba_marseille","lat":43.2379,"lon":5.36631,"is_reserved":false,"is_disabled":false,"rental_uris":{"android":"levelo://app?vid=e2491530-7c3b-41df-80e0-1a5c4af36aa4","ios":"levelo://app?vid=e2491530-7c3b-41df-80e0-1a5c4af36aa4"},"vehicle_type_id":"4","last_reported":1774886332,"current_range_meters":8000,"station_id":"st_d3nk18o9ro0c73en2l3g","pricing_plan_id":"cebpf4jnsgd1na2vs0mg"},{"bike_id":"97c39884-24ca-43ee-b263-5b5f3c69e1a7","system_id":"levelo_inurba_marseille","lat":43.29943,"lon":5.36536,"is_reserved":false,"is_disabled":false,"rental_uris":{"android":"levelo://app?vid=97c39884-24ca-43ee-b263-5b5f3c69e1a7","ios":"levelo://app?vid=97c39884-24ca-43ee-b263-5b5f3c69e1a7"},"vehicle_type_id":"4","last_reported":1774886332,"current_range_meters":8000,"station_id":"ce4bgm92rcd13ifvqbr0","pricing_plan_id":"cebpf4jnsgd1na2vs0mg"},{"bike_id":"c721812c-80dd-4654-9394-ffcd33591218","system_id":"levelo_inurba_marseille","lat":43.31169,"lon":5.387,"is_reserved":false,"is_disabled":false,"rental_uris":{"android":"levelo://app?vid=c721812c-80dd-4654-9394-ffcd33591218","ios":"levelo://app?vid=c721812c-80dd-4654-9394-ffcd33591218"},"vehicle_type_id":"4","last_reported":1774886332,"current_range_meters":8000,"station_id":"ce4bgv12rcd13ifvqcp0","pricing_plan_id":"cebpf4jnsgd1na2vs0mg"},{"bike_id":"4c0ad3b2-eaa3-4ff7-aeac-f17179188f8e","system_id":"levelo_inurba_marseille","lat":43.3256,"lon":5.41058,"is_reserved":false,"is_disabled":false,"rental_uris":{"android":"levelo://app?vid=4c0ad3b2-eaa3-4ff7-aeac-f17179188f8e","ios":"levelo://app?vid=4c0ad3b2-eaa3-4ff7-aeac-f17179188f8e"},"vehicle_type_id":"4","last_reported":1774886332,"current_range_meters":8000,"station_id":"","pricing_plan_id":"cebpf4jnsgd1na2vs0mg"},{"bike_id":"cace6a75-41af-4909-a80a-68d60c5c1a04","system_id":"levelo_inurba_marseille","lat":43.28443,"lon":5.35007,"is_reserved":false,"is_disabled":false,"rental_uris":{"android":"levelo://app?vid=cace6a75-41af-4909-a80a-68d60c5c1a04","ios":"levelo://app?vid=cace6a75-41af-4909-a80a-68d60c5c1a04"},"vehicle_type_id":"4","last_reported":1774886332,"current_range_meters":8000,"station_id":"ce4bhbh2rcd13ifvqepg","pricing_plan_id":"cebpf4jnsgd1na2vs0mg"},{"bike_id":"fbb8d1ee-af97-443e-a94c-eaf376f4d550","system_id":"levelo_inurba_marseille","lat":43.29961,"lon":5.3668,"is_reserved":false,"is_disabled":false,"rental_uris":{"android":"levelo://app?vid=fbb8d1ee-af97-443e-a94c-eaf376f4d550","ios":"levelo://app?vid=fbb8d1ee-af97-443e-a94c-eaf376f4d550"},"vehicle_type_id":"4","last_reported":1774886332,"current_range_meters":8000,"station_id":"","pricing_plan_id":"cebpf4jnsgd1na2vs0mg"},{"bike_id":"182e075d-ac2b-4774-97f5-f55c222064d3","system_id":"levelo_inurba_marseille","lat":43.25109,"lon":5.40322,"is_reserved":false,"is_disabled":false,"rental_uris":{"android":"levelo://app?vid=182e075d-ac2b-4774-97f5-f55c222064d3","ios":"levelo://app?vid=182e075d-ac2b-4774-97f5-f55c222064d3"},"vehicle_type_id":"4","last_reported":1774886332,"current_range_meters":8000,"station_id":"ce4bhlh2rcd13ifvqgig","pricing_plan_id":"cebpf4jnsgd1na2vs0mg"},{"bike_id":"8b4108a6-c7e2-4043-b547-cb1e59a8963a","system_id":"levelo_inurba_marseille","lat":43.24336,"lon":5.40847,"is_reserved":false,"is_disabled":false,"rental_uris":{"android":"levelo://app?vid=8b4108a6-c7e2-4043-b547-cb1e59a8963a","ios":"levelo://app?vid=8b4108a6-c7e2-4043-b547-cb1e59a8963a"},"vehicle_type_id":"4","last_reported":1774886332,"current_range_meters":8000,"station_id":"","pricing_plan_id":"cebpf4jnsgd1na2vs0mg"},{"bike_id":"03ec0070-1d93-4ac5-87d3-21d47edad7cd","system_id":"levelo_inurba_marseille","lat":43.23786,"lon":5.36633,"is_reserved":false,"is_disabled":false,"rental_uris":{"android":"levelo://app?vid=03ec0070-1d93-4ac5-87d3-21d47edad7cd","ios":"levelo://app?vid=03ec0070-1d93-4ac5-87d3-21d47edad7cd"},"vehicle_type_id":"4","last_reported":1774886332,"current_range_meters":8400,"station_id":"st_d3nk18o9ro0c73en2l3g","pricing_plan_id":"cebpf4jnsgd1na2vs0mg"},{"bike_id":"815b682f-ef7e-45f5-ab90-7392d98720d6","system_id":"levelo_inurba_marseille","lat":43.26021,"lon":5.39414,"is_reserved":false,"is_disabled":false,"rental_uris":{"android":"levelo://app?vid=815b682f-ef7e-45f5-ab90-7392d98720d6","ios":"levelo://app?vid=815b682f-ef7e-45f5-ab90-7392d98720d6"},"vehicle_type_id":"4","last_reported":1774886332,"current_range_meters":8400,"station_id":"","pricing_plan_id":"cebpf4jnsgd1na2vs0mg"},{"bike_id":"4977f95e-718a-4120-8926-2364059fe1a3","system_id":"levelo_inurba_marseille","lat":43.26684,"lon":5.38267,"is_reserved":false,"is_disabled":false,"rental_uris":{"android":"levelo://app?vid=4977f95e-718a-4120-8926-2364059fe1a3","ios":"levelo://app?vid=4977f95e-718a-4120-8926-2364059fe1a3"},"vehicle_type_id":"4","last_reported":1774886332,"current_range_meters":8400,"station_id":"","pricing_plan_id":"cebpf4jnsgd1na2vs0mg"},{"bike_id":"7cefc45d-38f5-45cf-a99c-dfb4be1018fe","system_id":"levelo_inurba_marseille","lat":43.24473,"lon":5.42529,"is_reserved":false,"is_disabled":false,"rental_uris":{"android":"levelo://app?vid=7cefc45d-38f5-45cf-a99c-dfb4be1018fe","ios":"levelo://app?vid=7cefc45d-38f5-45cf-a99c-dfb4be1018fe"},"vehicle_type_id":"4","last_reported":1774886332,"current_range_meters":8400,"station_id":"st_d4a3vfp97mjs738cd8kg","pricing_plan_id":"cebpf4jnsgd1na2vs0mg"},{"bike_id":"4f488350-bf22-4088-b8f9-952fe1596512","system_id":"levelo_inurba_marseille","lat":43.30656,"lon":5.40099,"is_reserved":false,"is_disabled":false,"rental_uris":{"android":"levelo://app?vid=4f488350-bf22-4088-b8f9-952fe1596512","ios":"levelo://app?vid=4f488350-bf22-4088-b8f9-952fe1596512"},"vehicle_type_id":"4","last_reported":1774886332,"current_range_meters":8400,"station_id":"ce4bh112rcd13ifvqda0","pricing_plan_id":"cebpf4jnsgd1na2vs0mg"},{"bike_id":"bbea286a-6e48-49d8-bcfc-d69bfefa013e","system_id":"levelo_inurba_marseille","lat":43.28651,"lon":5.35127,"is_reserved":false,"is_disabled":false,"rental_uris":{"android":"levelo://app?vid=bbea286a-6e48-49d8-bcfc-d69bfefa013e","ios":"levelo://app?vid=bbea286a-6e48-49d8-bcfc-d69bfefa013e"},"vehicle_type_id":"4","last_reported":1774886332,"current_range_meters":8400,"station_id":"ce4bhch2rcd13ifvqeug","pricing_plan_id":"cebpf4jnsgd1na2vs0mg"},{"bike_id":"b2fedf6b-2cd3-4ea3-9573-b48aa9b36329","system_id":"levelo_inurba_marseille","lat":43.2863,"lon":5.351,"is_reserved":false,"is_disabled":false,"rental_uris":{"android":"levelo://app?vid=b2fedf6b-2cd3-4ea3-9573-b48aa9b36329","ios":"levelo://app?vid=b2fedf6b-2cd3-4ea3-9573-b48aa9b36329"},"vehicle_type_id":"4","last_reported":1774886332,"current_range_meters":8400,"station_id":"ce4bhch2rcd13ifvqeug","pricing_plan_id":"cebpf4jnsgd1na2vs0mg"},{"bike_id":"9805c95b-690f-4ff4-a83b-12c9a47aff25","system_id":"levelo_inurba_marseille","lat":43.31319,"lon":5.40171,"is_reserved":false,"is_disabled":false,"rental_uris":{"android":"levelo://app?vid=9805c95b-690f-4ff4-a83b-12c9a47aff25","ios":"levelo://app?vid=9805c95b-690f-4ff4-a83b-12c9a47aff25"},"vehicle_type_id":"4","last_reported":1774886332,"current_range_meters":8400,"station_id":"","pricing_plan_id":"cebpf4jnsgd1na2vs0mg"},{"bike_id":"207e8c9b-9c50-4b3d-bb43-61e2268b0559","system_id":"levelo_inurba_marseille","lat":43.29874,"lon":5.38897,"is_reserved":false,"is_disabled":false,"rental_uris":{"android":"levelo://app?vid=207e8c9b-9c50-4b3d-bb43-61e2268b0559","ios":"levelo://app?vid=207e8c9b-9c50-4b3d-bb43-61e2268b0559"},"vehicle_type_id":"4","last_reported":1774886332,"current_range_meters":8400,"station_id":"ce4bh392rcd13ifvqdl0","pricing_plan_id":"cebpf4jnsgd1na2vs0mg"},{"bike_id":"94ebd6be-fb80-4ec3-8693-d1f514f30182","system_id":"levelo_inurba_marseille","lat":43.30531,"lon":5.36695,"is_reserved":false,"is_disabled":false,"rental_uris":{"android":"levelo://app?vid=94ebd6be-fb80-4ec3-8693-d1f514f30182","ios":"levelo://app?vid=94ebd6be-fb80-4ec3-8693-d1f514f30182"},"vehicle_type_id":"4","last_reported":1774886332,"current_range_meters":8400,"station_id":"ce4bgrp2rcd13ifvqc9g","pricing_plan_id":"cebpf4jnsgd1na2vs0mg"},{"bike_id":"fe2c2d4e-ad0a-4ad1-b727-7e9a7d4ef824","system_id":"levelo_inurba_marseille","lat":43.28485,"lon":5.48397,"is_reserved":false,"is_disabled":false,"rental_uris":{"android":"levelo://app?vid=fe2c2d4e-ad0a-4ad1-b727-7e9a7d4ef824","ios":"levelo://app?vid=fe2c2d4e-ad0a-4ad1-b727-7e9a7d4ef824"},"vehicle_type_id":"4","last_reported":1774886332,"current_range_meters":8400,"station_id":"","pricing_plan_id":"cebpf4jnsgd1na2vs0mg"},{"bike_id":"bd22810e-4e9c-45ac-8057-6360dc8fe6a3","system_id":"levelo_inurba_marseille","lat":43.24166,"lon":5.364,"is_reserved":false,"is_disabled":false,"rental_uris":{"android":"levelo://app?vid=bd22810e-4e9c-45ac-8057-6360dc8fe6a3","ios":"levelo://app?vid=bd22810e-4e9c-45ac-8057-6360dc8fe6a3"},"vehicle_type_id":"4","last_reported":1774886332,"current_range_meters":8400,"station_id":"cpo36qri1sfpv3e86is0","pricing_plan_id":"cebpf4jnsgd1na2vs0mg"},{"bike_id":"8d26c30b-3847-405c-8066-75bf15658130","system_id":"levelo_inurba_marseille","lat":43.2983,"lon":5.36452,"is_reserved":false,"is_disabled":false,"rental_uris":{"android":"levelo://app?vid=8d26c30b-3847-405c-8066-75bf15658130","ios":"levelo://app?vid=8d26c30b-3847-405c-8066-75bf15658130"},"vehicle_type_id":"4","last_reported":1774886332,"current_range_meters":8400,"station_id":"","pricing_plan_id":"cebpf4jnsgd1na2vs0mg"},{"bike_id":"6cb80350-a12f-414d-8a45-edb4d9decdf0","system_id":"levelo_inurba_marseille","lat":43.28533,"lon":5.44102,"is_reserved":false,"is_disabled":false,"rental_uris":{"android":"levelo://app?vid=6cb80350-a12f-414d-8a45-edb4d9decdf0","ios":"levelo://app?vid=6cb80350-a12f-414d-8a45-edb4d9decdf0"},"vehicle_type_id":"4","last_reported":1774886332,"current_range_meters":8400,"station_id":"st_d3j3df2ikq2c7380ej80","pricing_plan_id":"cebpf4jnsgd1na2vs0mg"},{"bike_id":"4cec07fc-4add-43f1-a93c-f872df363239","system_id":"levelo_inurba_marseille","lat":43.3054,"lon":5.38429,"is_reserved":false,"is_disabled":false,"rental_uris":{"android":"levelo://app?vid=4cec07fc-4add-43f1-a93c-f872df363239","ios":"levelo://app?vid=4cec07fc-4add-43f1-a93c-f872df363239"},"vehicle_type_id":"4","last_reported":1774886332,"current_range_meters":8400,"station_id":"ce4bgg92rcd13ifvqb30","pricing_plan_id":"cebpf4jnsgd1na2vs0mg"},{"bike_id":"a5b0a470-48eb-462f-b31f-f84556d208b5","system_id":"levelo_inurba_marseille","lat":43.25033,"lon":5.37545,"is_reserved":false,"is_disabled":false,"rental_uris":{"android":"levelo://app?vid=a5b0a470-48eb-462f-b31f-f84556d208b5","ios":"levelo://app?vid=a5b0a470-48eb-462f-b31f-f84556d208b5"},"vehicle_type_id":"4","last_reported":1774886332,"current_range_meters":8400,"station_id":"","pricing_plan_id":"cebpf4jnsgd1na2vs0mg"},{"bike_id":"cb88b7c0-158f-47d6-b62a-c3ee88f004a1","system_id":"levelo_inurba_marseille","lat":43.24465,"lon":5.42553,"is_reserved":false,"is_disabled":false,"rental_uris":{"android":"levelo://app?vid=cb88b7c0-158f-47d6-b62a-c3ee88f004a1","ios":"levelo://app?vid=cb88b7c0-158f-47d6-b62a-c3ee88f004a1"},"vehicle_type_id":"4","last_reported":1774886332,"current_range_meters":8400,"station_id":"st_d4a3vfp97mjs738cd8kg","pricing_plan_id":"cebpf4jnsgd1na2vs0mg"},{"bike_id":"227cc43c-6fb3-476a-abb2-74c924061fb2","system_id":"levelo_inurba_marseille","lat":43.22571,"lon":5.41624,"is_reserved":false,"is_disabled":false,"rental_uris":{"android":"levelo://app?vid=227cc43c-6fb3-476a-abb2-74c924061fb2","ios":"levelo://app?vid=227cc43c-6fb3-476a-abb2-74c924061fb2"},"vehicle_type_id":"4","last_reported":1774886332,"current_range_meters":8400,"station_id":"st_d2o4gvlbi1j2169b742g","pricing_plan_id":"cebpf4jnsgd1na2vs0mg"},{"bike_id":"f54bfc49-c52e-433a-9661-97eeb8e5a586","system_id":"levelo_inurba_marseille","lat":43.23804,"lon":5.36631,"is_reserved":false,"is_disabled":false,"rental_uris":{"android":"levelo://app?vid=f54bfc49-c52e-433a-9661-97eeb8e5a586","ios":"levelo://app?vid=f54bfc49-c52e-433a-9661-97eeb8e5a586"},"vehicle_type_id":"4","last_reported":1774886332,"current_range_meters":8400,"station_id":"st_d3nk18o9ro0c73en2l3g","pricing_plan_id":"cebpf4jnsgd1na2vs0mg"},{"bike_id":"100a69e6-c6ac-4d44-b106-6a5d91893219","system_id":"levelo_inurba_marseille","lat":43.3128,"lon":5.40172,"is_reserved":false,"is_disabled":false,"rental_uris":{"android":"levelo://app?vid=100a69e6-c6ac-4d44-b106-6a5d91893219","ios":"levelo://app?vid=100a69e6-c6ac-4d44-b106-6a5d91893219"},"vehicle_type_id":"4","last_reported":1774886332,"current_range_meters":8400,"station_id":"ce4bh092rcd13ifvqd30","pricing_plan_id":"cebpf4jnsgd1na2vs0mg"},{"bike_id":"d175c754-8563-4b72-ba16-a3e037f90e46","system_id":"levelo_inurba_marseille","lat":43.27116,"lon":5.39168,"is_reserved":false,"is_disabled":false,"rental_uris":{"android":"levelo://app?vid=d175c754-8563-4b72-ba16-a3e037f90e46","ios":"levelo://app?vid=d175c754-8563-4b72-ba16-a3e037f90e46"},"vehicle_type_id":"4","last_reported":1774886332,"current_range_meters":8400,"station_id":"","pricing_plan_id":"cebpf4jnsgd1na2vs0mg"},{"bike_id":"cde37b3d-5bf8-45ad-ae5c-441c1680e201","system_id":"levelo_inurba_marseille","lat":43.27887,"lon":5.39095,"is_reserved":false,"is_disabled":false,"rental_uris":{"android":"levelo://app?vid=cde37b3d-5bf8-45ad-ae5c-441c1680e201","ios":"levelo://app?vid=cde37b3d-5bf8-45ad-ae5c-441c1680e201"},"vehicle_type_id":"4","last_reported":1774886332,"current_range_meters":8800,"station_id":"","pricing_plan_id":"cebpf4jnsgd1na2vs0mg"},{"bike_id":"ebc5a8f2-adee-43cf-a918-532422fc9668","system_id":"levelo_inurba_marseille","lat":43.28695,"lon":5.37382,"is_reserved":false,"is_disabled":false,"rental_uris":{"android":"levelo://app?vid=ebc5a8f2-adee-43cf-a918-532422fc9668","ios":"levelo://app?vid=ebc5a8f2-adee-43cf-a918-532422fc9668"},"vehicle_type_id":"4","last_reported":1774886332,"current_range_meters":8800,"station_id":"ce4bh3p2rcd13ifvqdq0","pricing_plan_id":"cebpf4jnsgd1na2vs0mg"},{"bike_id":"eac6a123-5f69-4eb4-aa4b-cdeaecf10b56","system_id":"levelo_inurba_marseille","lat":43.30538,"lon":5.36512,"is_reserved":false,"is_disabled":false,"rental_uris":{"android":"levelo://app?vid=eac6a123-5f69-4eb4-aa4b-cdeaecf10b56","ios":"levelo://app?vid=eac6a123-5f69-4eb4-aa4b-cdeaecf10b56"},"vehicle_type_id":"4","last_reported":1774886332,"current_range_meters":8800,"station_id":"ce4bgs12rcd13ifvqcag","pricing_plan_id":"cebpf4jnsgd1na2vs0mg"},{"bike_id":"bc3010fd-324d-462f-af52-7c15e845c71f","system_id":"levelo_inurba_marseille","lat":43.28725,"lon":5.36101,"is_reserved":false,"is_disabled":false,"rental_uris":{"android":"levelo://app?vid=bc3010fd-324d-462f-af52-7c15e845c71f","ios":"levelo://app?vid=bc3010fd-324d-462f-af52-7c15e845c71f"},"vehicle_type_id":"4","last_reported":1774886332,"current_range_meters":8800,"station_id":"cki0cbj6b192h4jlfktg","pricing_plan_id":"cebpf4jnsgd1na2vs0mg"},{"bike_id":"f2ac8faa-b8e8-4025-bb6d-4e45873c4422","system_id":"levelo_inurba_marseille","lat":43.23147,"lon":5.43716,"is_reserved":false,"is_disabled":false,"rental_uris":{"android":"levelo://app?vid=f2ac8faa-b8e8-4025-bb6d-4e45873c4422","ios":"levelo://app?vid=f2ac8faa-b8e8-4025-bb6d-4e45873c4422"},"vehicle_type_id":"4","last_reported":1774886332,"current_range_meters":8800,"station_id":"ce4bhmp2rcd13ifvqgog","pricing_plan_id":"cebpf4jnsgd1na2vs0mg"},{"bike_id":"4f8d975b-01a7-4bc0-9e91-639037603ca8","system_id":"levelo_inurba_marseille","lat":43.29578,"lon":5.37508,"is_reserved":false,"is_disabled":false,"rental_uris":{"android":"levelo://app?vid=4f8d975b-01a7-4bc0-9e91-639037603ca8","ios":"levelo://app?vid=4f8d975b-01a7-4bc0-9e91-639037603ca8"},"vehicle_type_id":"4","last_reported":1774886332,"current_range_meters":8800,"station_id":"ce4bgh92rcd13ifvqb50","pricing_plan_id":"cebpf4jnsgd1na2vs0mg"},{"bike_id":"5684472c-9240-40f5-bb62-222a3e6d6ccc","system_id":"levelo_inurba_marseille","lat":43.29787,"lon":5.3934,"is_reserved":false,"is_disabled":false,"rental_uris":{"android":"levelo://app?vid=5684472c-9240-40f5-bb62-222a3e6d6ccc","ios":"levelo://app?vid=5684472c-9240-40f5-bb62-222a3e6d6ccc"},"vehicle_type_id":"4","last_reported":1774886332,"current_range_meters":8800,"station_id":"chh1huq6cuj3fo74tm60","pricing_plan_id":"cebpf4jnsgd1na2vs0mg"},{"bike_id":"7c5f5fb4-b144-4c26-8e1b-2e09d5957a1b","system_id":"levelo_inurba_marseille","lat":43.29628,"lon":5.37734,"is_reserved":false,"is_disabled":false,"rental_uris":{"android":"levelo://app?vid=7c5f5fb4-b144-4c26-8e1b-2e09d5957a1b","ios":"levelo://app?vid=7c5f5fb4-b144-4c26-8e1b-2e09d5957a1b"},"vehicle_type_id":"4","last_reported":1774886332,"current_range_meters":8800,"station_id":"ce4bgi92rcd13ifvqb90","pricing_plan_id":"cebpf4jnsgd1na2vs0mg"},{"bike_id":"25ae6a55-5d09-4313-9508-83cc6c6339b8","system_id":"levelo_inurba_marseille","lat":43.28482,"lon":5.48397,"is_reserved":false,"is_disabled":false,"rental_uris":{"android":"levelo://app?vid=25ae6a55-5d09-4313-9508-83cc6c6339b8","ios":"levelo://app?vid=25ae6a55-5d09-4313-9508-83cc6c6339b8"},"vehicle_type_id":"4","last_reported":1774886332,"current_range_meters":8800,"station_id":"","pricing_plan_id":"cebpf4jnsgd1na2vs0mg"},{"bike_id":"27a1b1fb-84f9-4e50-a2f4-3bdf93b48162","system_id":"levelo_inurba_marseille","lat":43.30098,"lon":5.38758,"is_reserved":false,"is_disabled":false,"rental_uris":{"android":"levelo://app?vid=27a1b1fb-84f9-4e50-a2f4-3bdf93b48162","ios":"levelo://app?vid=27a1b1fb-84f9-4e50-a2f4-3bdf93b48162"},"vehicle_type_id":"4","last_reported":1774886332,"current_range_meters":8800,"station_id":"ce4bghh2rcd13ifvqb60","pricing_plan_id":"cebpf4jnsgd1na2vs0mg"},{"bike_id":"5ae1cde3-c020-448f-8cff-83f80611c531","system_id":"levelo_inurba_marseille","lat":43.24457,"lon":5.42565,"is_reserved":false,"is_disabled":false,"rental_uris":{"android":"levelo://app?vid=5ae1cde3-c020-448f-8cff-83f80611c531","ios":"levelo://app?vid=5ae1cde3-c020-448f-8cff-83f80611c531"},"vehicle_type_id":"4","last_reported":1774886332,"current_range_meters":8800,"station_id":"st_d4a3vfp97mjs738cd8kg","pricing_plan_id":"cebpf4jnsgd1na2vs0mg"},{"bike_id":"7807e959-548b-4573-9349-6f8ad219a4a5","system_id":"levelo_inurba_marseille","lat":43.24172,"lon":5.36392,"is_reserved":false,"is_disabled":false,"rental_uris":{"android":"levelo://app?vid=7807e959-548b-4573-9349-6f8ad219a4a5","ios":"levelo://app?vid=7807e959-548b-4573-9349-6f8ad219a4a5"},"vehicle_type_id":"4","last_reported":1774886332,"current_range_meters":8800,"station_id":"cpo36qri1sfpv3e86is0","pricing_plan_id":"cebpf4jnsgd1na2vs0mg"},{"bike_id":"fdf384b1-6467-496f-bd45-355d27fe884e","system_id":"levelo_inurba_marseille","lat":43.30519,"lon":5.36527,"is_reserved":false,"is_disabled":false,"rental_uris":{"android":"levelo://app?vid=fdf384b1-6467-496f-bd45-355d27fe884e","ios":"levelo://app?vid=fdf384b1-6467-496f-bd45-355d27fe884e"},"vehicle_type_id":"4","last_reported":1774886332,"current_range_meters":8800,"station_id":"ce4bgs12rcd13ifvqcag","pricing_plan_id":"cebpf4jnsgd1na2vs0mg"},{"bike_id":"9a78ad5f-6570-4c77-9776-f19bf3497a9d","system_id":"levelo_inurba_marseille","lat":43.26211,"lon":5.37442,"is_reserved":false,"is_disabled":false,"rental_uris":{"android":"levelo://app?vid=9a78ad5f-6570-4c77-9776-f19bf3497a9d","ios":"levelo://app?vid=9a78ad5f-6570-4c77-9776-f19bf3497a9d"},"vehicle_type_id":"4","last_reported":1774886332,"current_range_meters":8800,"station_id":"ce4bhgp2rcd13ifvqfc0","pricing_plan_id":"cebpf4jnsgd1na2vs0mg"},{"bike_id":"8a1f00fe-baa7-466d-896d-1d3a6b1e9478","system_id":"levelo_inurba_marseille","lat":43.31044,"lon":5.39359,"is_reserved":false,"is_disabled":false,"rental_uris":{"android":"levelo://app?vid=8a1f00fe-baa7-466d-896d-1d3a6b1e9478","ios":"levelo://app?vid=8a1f00fe-baa7-466d-896d-1d3a6b1e9478"},"vehicle_type_id":"4","last_reported":1774886332,"current_range_meters":8800,"station_id":"","pricing_plan_id":"cebpf4jnsgd1na2vs0mg"},{"bike_id":"ead3007a-584a-406f-9553-549135a653dd","system_id":"levelo_inurba_marseille","lat":43.26062,"lon":5.39364,"is_reserved":false,"is_disabled":false,"rental_uris":{"android":"levelo://app?vid=ead3007a-584a-406f-9553-549135a653dd","ios":"levelo://app?vid=ead3007a-584a-406f-9553-549135a653dd"},"vehicle_type_id":"4","last_reported":1774886332,"current_range_meters":8800,"station_id":"ce4bhh92rcd13ifvqfj0","pricing_plan_id":"cebpf4jnsgd1na2vs0mg"},{"bike_id":"c0f606fe-baa5-492a-85a1-9ee65c00252f","system_id":"levelo_inurba_marseille","lat":43.23199,"lon":5.35561,"is_reserved":false,"is_disabled":false,"rental_uris":{"android":"levelo://app?vid=c0f606fe-baa5-492a-85a1-9ee65c00252f","ios":"levelo://app?vid=c0f606fe-baa5-492a-85a1-9ee65c00252f"},"vehicle_type_id":"4","last_reported":1774886332,"current_range_meters":8800,"station_id":"ce4bhu92rcd13ifvqi70","pricing_plan_id":"cebpf4jnsgd1na2vs0mg"},{"bike_id":"145da0be-3016-4be6-8263-0e24c3e5d1fa","system_id":"levelo_inurba_marseille","lat":43.23958,"lon":5.36626,"is_reserved":false,"is_disabled":false,"rental_uris":{"android":"levelo://app?vid=145da0be-3016-4be6-8263-0e24c3e5d1fa","ios":"levelo://app?vid=145da0be-3016-4be6-8263-0e24c3e5d1fa"},"vehicle_type_id":"4","last_reported":1774886332,"current_range_meters":8800,"station_id":"ce4bhi12rcd13ifvqfp0","pricing_plan_id":"cebpf4jnsgd1na2vs0mg"},{"bike_id":"287ab833-25ca-42ea-8baa-ec02f1c9b2ea","system_id":"levelo_inurba_marseille","lat":43.29934,"lon":5.36533,"is_reserved":false,"is_disabled":false,"rental_uris":{"android":"levelo://app?vid=287ab833-25ca-42ea-8baa-ec02f1c9b2ea","ios":"levelo://app?vid=287ab833-25ca-42ea-8baa-ec02f1c9b2ea"},"vehicle_type_id":"4","last_reported":1774886332,"current_range_meters":8800,"station_id":"ce4bgm92rcd13ifvqbr0","pricing_plan_id":"cebpf4jnsgd1na2vs0mg"},{"bike_id":"c4b95ebd-7f1d-45da-a00b-69d6d7c574e4","system_id":"levelo_inurba_marseille","lat":43.24401,"lon":5.3706,"is_reserved":false,"is_disabled":false,"rental_uris":{"android":"levelo://app?vid=c4b95ebd-7f1d-45da-a00b-69d6d7c574e4","ios":"levelo://app?vid=c4b95ebd-7f1d-45da-a00b-69d6d7c574e4"},"vehicle_type_id":"4","last_reported":1774886332,"current_range_meters":8800,"station_id":"ce4bhhh2rcd13ifvqfk0","pricing_plan_id":"cebpf4jnsgd1na2vs0mg"},{"bike_id":"8224fee4-1d52-4b11-b16a-70c5a6603dd7","system_id":"levelo_inurba_marseille","lat":43.28482,"lon":5.48401,"is_reserved":false,"is_disabled":false,"rental_uris":{"android":"levelo://app?vid=8224fee4-1d52-4b11-b16a-70c5a6603dd7","ios":"levelo://app?vid=8224fee4-1d52-4b11-b16a-70c5a6603dd7"},"vehicle_type_id":"4","last_reported":1774886332,"current_range_meters":8800,"station_id":"","pricing_plan_id":"cebpf4jnsgd1na2vs0mg"},{"bike_id":"4086b2ca-54f4-468c-a9c4-93b3edb1a625","system_id":"levelo_inurba_marseille","lat":43.29825,"lon":5.37111,"is_reserved":false,"is_disabled":false,"rental_uris":{"android":"levelo://app?vid=4086b2ca-54f4-468c-a9c4-93b3edb1a625","ios":"levelo://app?vid=4086b2ca-54f4-468c-a9c4-93b3edb1a625"},"vehicle_type_id":"4","last_reported":1774886332,"current_range_meters":9200,"station_id":"ce4bgop2rcd13ifvqc1g","pricing_plan_id":"cebpf4jnsgd1na2vs0mg"},{"bike_id":"3a922081-a991-4b97-906e-7f7dba00403a","system_id":"levelo_inurba_marseille","lat":43.32354,"lon":5.36746,"is_reserved":false,"is_disabled":false,"rental_uris":{"android":"levelo://app?vid=3a922081-a991-4b97-906e-7f7dba00403a","ios":"levelo://app?vid=3a922081-a991-4b97-906e-7f7dba00403a"},"vehicle_type_id":"4","last_reported":1774886332,"current_range_meters":9200,"station_id":"ce4bhsh2rcd13ifvqi2g","pricing_plan_id":"cebpf4jnsgd1na2vs0mg"},{"bike_id":"10063e3f-8609-45d7-a82d-682af1ae1436","system_id":"levelo_inurba_marseille","lat":43.29099,"lon":5.42894,"is_reserved":false,"is_disabled":false,"rental_uris":{"android":"levelo://app?vid=10063e3f-8609-45d7-a82d-682af1ae1436","ios":"levelo://app?vid=10063e3f-8609-45d7-a82d-682af1ae1436"},"vehicle_type_id":"4","last_reported":1774886332,"current_range_meters":9200,"station_id":"","pricing_plan_id":"cebpf4jnsgd1na2vs0mg"},{"bike_id":"405bedfb-9935-4390-a8a3-f9ddcf9a97e8","system_id":"levelo_inurba_marseille","lat":43.22539,"lon":5.34827,"is_reserved":false,"is_disabled":false,"rental_uris":{"android":"levelo://app?vid=405bedfb-9935-4390-a8a3-f9ddcf9a97e8","ios":"levelo://app?vid=405bedfb-9935-4390-a8a3-f9ddcf9a97e8"},"vehicle_type_id":"4","last_reported":1774886332,"current_range_meters":9200,"station_id":"","pricing_plan_id":"cebpf4jnsgd1na2vs0mg"},{"bike_id":"2f4d7dc2-1f45-47d2-9aa6-0704800973ee","system_id":"levelo_inurba_marseille","lat":43.28705,"lon":5.46686,"is_reserved":false,"is_disabled":false,"rental_uris":{"android":"levelo://app?vid=2f4d7dc2-1f45-47d2-9aa6-0704800973ee","ios":"levelo://app?vid=2f4d7dc2-1f45-47d2-9aa6-0704800973ee"},"vehicle_type_id":"4","last_reported":1774886332,"current_range_meters":9200,"station_id":"st_d6tc3vkotcvc738tfjhg","pricing_plan_id":"cebpf4jnsgd1na2vs0mg"},{"bike_id":"aff3ff3f-6b67-4330-8619-cb367673fc13","system_id":"levelo_inurba_marseille","lat":43.24398,"lon":5.37079,"is_reserved":false,"is_disabled":false,"rental_uris":{"android":"levelo://app?vid=aff3ff3f-6b67-4330-8619-cb367673fc13","ios":"levelo://app?vid=aff3ff3f-6b67-4330-8619-cb367673fc13"},"vehicle_type_id":"4","last_reported":1774886332,"current_range_meters":9200,"station_id":"ce4bhhh2rcd13ifvqfk0","pricing_plan_id":"cebpf4jnsgd1na2vs0mg"},{"bike_id":"9c1440ce-c955-43db-9800-7794805da744","system_id":"levelo_inurba_marseille","lat":43.23965,"lon":5.36633,"is_reserved":false,"is_disabled":false,"rental_uris":{"android":"levelo://app?vid=9c1440ce-c955-43db-9800-7794805da744","ios":"levelo://app?vid=9c1440ce-c955-43db-9800-7794805da744"},"vehicle_type_id":"4","last_reported":1774886332,"current_range_meters":9200,"station_id":"ce4bhi12rcd13ifvqfp0","pricing_plan_id":"cebpf4jnsgd1na2vs0mg"},{"bike_id":"f7bbba91-ee9a-4abe-bd88-c64afed9737f","system_id":"levelo_inurba_marseille","lat":43.23189,"lon":5.35543,"is_reserved":false,"is_disabled":false,"rental_uris":{"android":"levelo://app?vid=f7bbba91-ee9a-4abe-bd88-c64afed9737f","ios":"levelo://app?vid=f7bbba91-ee9a-4abe-bd88-c64afed9737f"},"vehicle_type_id":"4","last_reported":1774886332,"current_range_meters":9200,"station_id":"ce4bhu92rcd13ifvqi70","pricing_plan_id":"cebpf4jnsgd1na2vs0mg"},{"bike_id":"df222e19-2a08-43ea-a37e-7bbfc665166a","system_id":"levelo_inurba_marseille","lat":43.29829,"lon":5.44078,"is_reserved":false,"is_disabled":false,"rental_uris":{"android":"levelo://app?vid=df222e19-2a08-43ea-a37e-7bbfc665166a","ios":"levelo://app?vid=df222e19-2a08-43ea-a37e-7bbfc665166a"},"vehicle_type_id":"4","last_reported":1774886332,"current_range_meters":9200,"station_id":"","pricing_plan_id":"cebpf4jnsgd1na2vs0mg"},{"bike_id":"b69b7ee0-eb68-4e40-9110-6ed5a17a58dc","system_id":"levelo_inurba_marseille","lat":43.28438,"lon":5.34991,"is_reserved":false,"is_disabled":false,"rental_uris":{"android":"levelo://app?vid=b69b7ee0-eb68-4e40-9110-6ed5a17a58dc","ios":"levelo://app?vid=b69b7ee0-eb68-4e40-9110-6ed5a17a58dc"},"vehicle_type_id":"4","last_reported":1774886332,"current_range_meters":9200,"station_id":"ce4bhbh2rcd13ifvqepg","pricing_plan_id":"cebpf4jnsgd1na2vs0mg"},{"bike_id":"0f2aaab1-6172-4bc1-9a4f-2fb906580fc3","system_id":"levelo_inurba_marseille","lat":43.2495,"lon":5.40491,"is_reserved":false,"is_disabled":false,"rental_uris":{"android":"levelo://app?vid=0f2aaab1-6172-4bc1-9a4f-2fb906580fc3","ios":"levelo://app?vid=0f2aaab1-6172-4bc1-9a4f-2fb906580fc3"},"vehicle_type_id":"4","last_reported":1774886332,"current_range_meters":9200,"station_id":"st_d2ngiaodas8pm72gd1h0","pricing_plan_id":"cebpf4jnsgd1na2vs0mg"},{"bike_id":"cf039980-8909-4a03-aa52-b426c9efd4e8","system_id":"levelo_inurba_marseille","lat":43.21753,"lon":5.34616,"is_reserved":false,"is_disabled":false,"rental_uris":{"android":"levelo://app?vid=cf039980-8909-4a03-aa52-b426c9efd4e8","ios":"levelo://app?vid=cf039980-8909-4a03-aa52-b426c9efd4e8"},"vehicle_type_id":"4","last_reported":1774886332,"current_range_meters":9200,"station_id":"st_cvj6r9ubvosntc0bgbag","pricing_plan_id":"cebpf4jnsgd1na2vs0mg"},{"bike_id":"0062d036-5566-4324-a07f-70c3293fe630","system_id":"levelo_inurba_marseille","lat":43.30251,"lon":5.40071,"is_reserved":false,"is_disabled":false,"rental_uris":{"android":"levelo://app?vid=0062d036-5566-4324-a07f-70c3293fe630","ios":"levelo://app?vid=0062d036-5566-4324-a07f-70c3293fe630"},"vehicle_type_id":"4","last_reported":1774886332,"current_range_meters":9200,"station_id":"ce4bgvh2rcd13ifvqcs0","pricing_plan_id":"cebpf4jnsgd1na2vs0mg"},{"bike_id":"8289ea9c-9f3c-47cc-ae82-8027b0a738ac","system_id":"levelo_inurba_marseille","lat":43.31927,"lon":5.36734,"is_reserved":false,"is_disabled":false,"rental_uris":{"android":"levelo://app?vid=8289ea9c-9f3c-47cc-ae82-8027b0a738ac","ios":"levelo://app?vid=8289ea9c-9f3c-47cc-ae82-8027b0a738ac"},"vehicle_type_id":"4","last_reported":1774886332,"current_range_meters":9200,"station_id":"","pricing_plan_id":"cebpf4jnsgd1na2vs0mg"},{"bike_id":"5324f073-a80f-4b44-b3a4-717613026589","system_id":"levelo_inurba_marseille","lat":43.2419,"lon":5.39744,"is_reserved":false,"is_disabled":false,"rental_uris":{"android":"levelo://app?vid=5324f073-a80f-4b44-b3a4-717613026589","ios":"levelo://app?vid=5324f073-a80f-4b44-b3a4-717613026589"},"vehicle_type_id":"4","last_reported":1774886332,"current_range_meters":9200,"station_id":"ce4bhn12rcd13ifvqgpg","pricing_plan_id":"cebpf4jnsgd1na2vs0mg"},{"bike_id":"e61a3b02-8828-47a8-8796-a0480c283119","system_id":"levelo_inurba_marseille","lat":43.22934,"lon":5.35397,"is_reserved":false,"is_disabled":false,"rental_uris":{"android":"levelo://app?vid=e61a3b02-8828-47a8-8796-a0480c283119","ios":"levelo://app?vid=e61a3b02-8828-47a8-8796-a0480c283119"},"vehicle_type_id":"4","last_reported":1774886332,"current_range_meters":9200,"station_id":"cpo3532slgdg3j2ikp40","pricing_plan_id":"cebpf4jnsgd1na2vs0mg"},{"bike_id":"c4675eed-191a-4ce5-8dbe-fb317d99c56d","system_id":"levelo_inurba_marseille","lat":43.29795,"lon":5.3934,"is_reserved":false,"is_disabled":false,"rental_uris":{"android":"levelo://app?vid=c4675eed-191a-4ce5-8dbe-fb317d99c56d","ios":"levelo://app?vid=c4675eed-191a-4ce5-8dbe-fb317d99c56d"},"vehicle_type_id":"4","last_reported":1774886332,"current_range_meters":9200,"station_id":"chh1huq6cuj3fo74tm60","pricing_plan_id":"cebpf4jnsgd1na2vs0mg"},{"bike_id":"bb9c9ce8-7ad8-4c58-9c75-429d43a3d175","system_id":"levelo_inurba_marseille","lat":43.24046,"lon":5.36242,"is_reserved":false,"is_disabled":false,"rental_uris":{"android":"levelo://app?vid=bb9c9ce8-7ad8-4c58-9c75-429d43a3d175","ios":"levelo://app?vid=bb9c9ce8-7ad8-4c58-9c75-429d43a3d175"},"vehicle_type_id":"4","last_reported":1774886332,"current_range_meters":9200,"station_id":"","pricing_plan_id":"cebpf4jnsgd1na2vs0mg"},{"bike_id":"ec52103d-26b0-4685-a8eb-0419c706d772","system_id":"levelo_inurba_marseille","lat":43.2868,"lon":5.38652,"is_reserved":false,"is_disabled":false,"rental_uris":{"android":"levelo://app?vid=ec52103d-26b0-4685-a8eb-0419c706d772","ios":"levelo://app?vid=ec52103d-26b0-4685-a8eb-0419c706d772"},"vehicle_type_id":"4","last_reported":1774886332,"current_range_meters":9200,"station_id":"ce4bh492rcd13ifvqdug","pricing_plan_id":"cebpf4jnsgd1na2vs0mg"},{"bike_id":"2b60a3e4-b6b4-4662-a366-339d46c82180","system_id":"levelo_inurba_marseille","lat":43.25092,"lon":5.39527,"is_reserved":false,"is_disabled":false,"rental_uris":{"android":"levelo://app?vid=2b60a3e4-b6b4-4662-a366-339d46c82180","ios":"levelo://app?vid=2b60a3e4-b6b4-4662-a366-339d46c82180"},"vehicle_type_id":"4","last_reported":1774886332,"current_range_meters":9200,"station_id":"ce4bhm12rcd13ifvqgkg","pricing_plan_id":"cebpf4jnsgd1na2vs0mg"},{"bike_id":"eb2e1b52-474c-40a6-9826-bca4e5f5a69a","system_id":"levelo_inurba_marseille","lat":43.30423,"lon":5.41279,"is_reserved":false,"is_disabled":false,"rental_uris":{"android":"levelo://app?vid=eb2e1b52-474c-40a6-9826-bca4e5f5a69a","ios":"levelo://app?vid=eb2e1b52-474c-40a6-9826-bca4e5f5a69a"},"vehicle_type_id":"4","last_reported":1774886332,"current_range_meters":9200,"station_id":"ce4bhop2rcd13ifvqh8g","pricing_plan_id":"cebpf4jnsgd1na2vs0mg"},{"bike_id":"99357e4e-0fd2-4bed-b022-406a548cc7c5","system_id":"levelo_inurba_marseille","lat":43.23964,"lon":5.36588,"is_reserved":false,"is_disabled":false,"rental_uris":{"android":"levelo://app?vid=99357e4e-0fd2-4bed-b022-406a548cc7c5","ios":"levelo://app?vid=99357e4e-0fd2-4bed-b022-406a548cc7c5"},"vehicle_type_id":"4","last_reported":1774886332,"current_range_meters":9200,"station_id":"ce4bhi12rcd13ifvqfp0","pricing_plan_id":"cebpf4jnsgd1na2vs0mg"},{"bike_id":"a2df5bbc-915e-4be4-8861-be4d46ce41c0","system_id":"levelo_inurba_marseille","lat":43.28483,"lon":5.48404,"is_reserved":false,"is_disabled":false,"rental_uris":{"android":"levelo://app?vid=a2df5bbc-915e-4be4-8861-be4d46ce41c0","ios":"levelo://app?vid=a2df5bbc-915e-4be4-8861-be4d46ce41c0"},"vehicle_type_id":"4","last_reported":1774886332,"current_range_meters":9600,"station_id":"","pricing_plan_id":"cebpf4jnsgd1na2vs0mg"},{"bike_id":"009f8997-4f79-465b-b21c-0644f6ddb47e","system_id":"levelo_inurba_marseille","lat":43.31152,"lon":5.36829,"is_reserved":false,"is_disabled":false,"rental_uris":{"android":"levelo://app?vid=009f8997-4f79-465b-b21c-0644f6ddb47e","ios":"levelo://app?vid=009f8997-4f79-465b-b21c-0644f6ddb47e"},"vehicle_type_id":"4","last_reported":1774886332,"current_range_meters":9600,"station_id":"ce4bgl92rcd13ifvqbq0","pricing_plan_id":"cebpf4jnsgd1na2vs0mg"},{"bike_id":"816d1509-b6a4-4401-86a1-6ea0eb371364","system_id":"levelo_inurba_marseille","lat":43.23789,"lon":5.36612,"is_reserved":false,"is_disabled":false,"rental_uris":{"android":"levelo://app?vid=816d1509-b6a4-4401-86a1-6ea0eb371364","ios":"levelo://app?vid=816d1509-b6a4-4401-86a1-6ea0eb371364"},"vehicle_type_id":"4","last_reported":1774886332,"current_range_meters":9600,"station_id":"st_d3nk18o9ro0c73en2l3g","pricing_plan_id":"cebpf4jnsgd1na2vs0mg"},{"bike_id":"fd745f09-592b-49b5-9d4e-27d3dcf85721","system_id":"levelo_inurba_marseille","lat":43.30935,"lon":5.3686,"is_reserved":false,"is_disabled":false,"rental_uris":{"android":"levelo://app?vid=fd745f09-592b-49b5-9d4e-27d3dcf85721","ios":"levelo://app?vid=fd745f09-592b-49b5-9d4e-27d3dcf85721"},"vehicle_type_id":"4","last_reported":1774886332,"current_range_meters":9600,"station_id":"ce4bgn92rcd13ifvqbvg","pricing_plan_id":"cebpf4jnsgd1na2vs0mg"},{"bike_id":"e72f4c7b-240a-4bc5-b383-6a5f011f272e","system_id":"levelo_inurba_marseille","lat":43.2322,"lon":5.35568,"is_reserved":false,"is_disabled":false,"rental_uris":{"android":"levelo://app?vid=e72f4c7b-240a-4bc5-b383-6a5f011f272e","ios":"levelo://app?vid=e72f4c7b-240a-4bc5-b383-6a5f011f272e"},"vehicle_type_id":"4","last_reported":1774886332,"current_range_meters":9600,"station_id":"ce4bhu92rcd13ifvqi70","pricing_plan_id":"cebpf4jnsgd1na2vs0mg"},{"bike_id":"6a07290c-4d96-493c-bece-412d5cabc671","system_id":"levelo_inurba_marseille","lat":43.28616,"lon":5.35108,"is_reserved":false,"is_disabled":false,"rental_uris":{"android":"levelo://app?vid=6a07290c-4d96-493c-bece-412d5cabc671","ios":"levelo://app?vid=6a07290c-4d96-493c-bece-412d5cabc671"},"vehicle_type_id":"4","last_reported":1774886332,"current_range_meters":9600,"station_id":"ce4bhch2rcd13ifvqeug","pricing_plan_id":"cebpf4jnsgd1na2vs0mg"},{"bike_id":"7169a8b5-42ef-4bf6-95c2-c1cc4c9caa2a","system_id":"levelo_inurba_marseille","lat":43.287,"lon":5.37389,"is_reserved":false,"is_disabled":false,"rental_uris":{"android":"levelo://app?vid=7169a8b5-42ef-4bf6-95c2-c1cc4c9caa2a","ios":"levelo://app?vid=7169a8b5-42ef-4bf6-95c2-c1cc4c9caa2a"},"vehicle_type_id":"4","last_reported":1774886332,"current_range_meters":9600,"station_id":"ce4bh3p2rcd13ifvqdq0","pricing_plan_id":"cebpf4jnsgd1na2vs0mg"},{"bike_id":"f1c7cedb-7ca6-425d-bb6e-eba3f64564e5","system_id":"levelo_inurba_marseille","lat":43.24168,"lon":5.39742,"is_reserved":false,"is_disabled":false,"rental_uris":{"android":"levelo://app?vid=f1c7cedb-7ca6-425d-bb6e-eba3f64564e5","ios":"levelo://app?vid=f1c7cedb-7ca6-425d-bb6e-eba3f64564e5"},"vehicle_type_id":"4","last_reported":1774886332,"current_range_meters":9600,"station_id":"ce4bhn12rcd13ifvqgpg","pricing_plan_id":"cebpf4jnsgd1na2vs0mg"},{"bike_id":"fc230a14-954a-4d36-be5c-8f8498288ae5","system_id":"levelo_inurba_marseille","lat":43.28303,"lon":5.35064,"is_reserved":false,"is_disabled":false,"rental_uris":{"android":"levelo://app?vid=fc230a14-954a-4d36-be5c-8f8498288ae5","ios":"levelo://app?vid=fc230a14-954a-4d36-be5c-8f8498288ae5"},"vehicle_type_id":"4","last_reported":1774886332,"current_range_meters":9600,"station_id":"ce4bhbp2rcd13ifvqerg","pricing_plan_id":"cebpf4jnsgd1na2vs0mg"},{"bike_id":"71402cb6-01ee-4f5a-9551-b1e9fe6371e2","system_id":"levelo_inurba_marseille","lat":43.28944,"lon":5.4322,"is_reserved":false,"is_disabled":false,"rental_uris":{"android":"levelo://app?vid=71402cb6-01ee-4f5a-9551-b1e9fe6371e2","ios":"levelo://app?vid=71402cb6-01ee-4f5a-9551-b1e9fe6371e2"},"vehicle_type_id":"4","last_reported":1774886332,"current_range_meters":9600,"station_id":"","pricing_plan_id":"cebpf4jnsgd1na2vs0mg"},{"bike_id":"09539600-14ea-4e2f-93d7-9a7f6205363e","system_id":"levelo_inurba_marseille","lat":43.27928,"lon":5.39546,"is_reserved":false,"is_disabled":true,"rental_uris":{"android":"levelo://app?vid=09539600-14ea-4e2f-93d7-9a7f6205363e","ios":"levelo://app?vid=09539600-14ea-4e2f-93d7-9a7f6205363e"},"vehicle_type_id":"4","last_reported":1774886332,"current_range_meters":9600,"station_id":"ce4bhf92rcd13ifvqf40","pricing_plan_id":"cebpf4jnsgd1na2vs0mg"},