{"last_updated":1706825226,"ttl":30,"version":"2.2","data":{"bikes":[{"bike_id":"d0480a8f-80c7-4528-952c-57aa86b18d9f","system_id":"levelo_inurba_marseille","lat":43.31234,"lon":5.36865,"is_reserved":false,"is_disabled":false,"rental_uris":{"android":"levelo://app?vid=d0480a8f-80c7-4528-952c-57aa86b18d9f","ios":"levelo://app?vid=d0480a8f-80c7-4528-952c-57aa86b18d9f"},"vehicle_type_id":"4","last_reported":1706825226,"current_range_meters":0,"station_id":"ce4bgl92rcd13ifvqbq0","pricing_plan_id":"free"},{"bike_id":"3a7f311c-a7ef-4019-b708-5ba935abfbfc","system_id":"levelo_inurba_marseille","lat":43.31306,"lon":5.37258,"is_reserved":false,"is_disabled":false,"rental_uris":{"android":"levelo://app?vid=3a7f311c-a7ef-4019-b708-5ba935abfbfc","ios":"levelo://app?vid=3a7f311c-a7ef-4019-b708-5ba935abfbfc"},"vehicle_type_id":"4","last_reported":1706825226,"current_range_meters":17600,"station_id":"","pricing_plan_id":"free"},{"bike_id":"9cf7be41-e77a-41a2-806c-4df62a13853e","system_id":"levelo_inurba_marseille","lat":43.309039,"lon":5.371797,"is_reserved":false,"is_disabled":false,"rental_uris":{"android":"levelo://app?vid=9cf7be41-e77a-41a2-806c-4df62a13853e","ios":"levelo://app?vid=9cf7be41-e77a-41a2-806c-4df62a13853e"},"vehicle_type_id":"4","last_reported":1706825226,"current_range_meters":20000,"station_id":"ce4bguh2rcd13ifvqckg","pricing_plan_id":"free"},{"bike_id":"33ad758e-857e-4527-9136-7424c67f1be3","system_id":"levelo_inurba_marseille","lat":43.309034,"lon":5.371783,"is_reserved":false,"is_disabled":false,"rental_uris":{"android":"levelo://app?vid=33ad758e-857e-4527-9136-7424c67f1be3","ios":"levelo://app?vid=33ad758e-857e-4527-9136-7424c67f1be3"},"vehicle_type_id":"4","last_reported":1706825226,"current_range_meters":15600,"station_id":"ce4bguh2rcd13ifvqckg","pricing_plan_id":"free"},{"bike_id":"415525b4-76fe-4f47-a34d-731d474f8ff0","system_id":"levelo_inurba_marseille","lat":43.308884,"lon":5.372029,"is_reserved":false,"is_disabled":false,"rental_uris":{"android":"levelo://app?vid=415525b4-76fe-4f47-a34d-731d474f8ff0","ios":"levelo://app?vid=415525b4-76fe-4f47-a34d-731d474f8ff0"},"vehicle_type_id":"4","last_reported":1706825226,"current_range_meters":19600,"station_id":"","pricing_plan_id":"free"},{"bike_id":"077e2198-386a-4b0a-b050-34aacc5e0bc7","system_id":"levelo_inurba_marseille","lat":43.305567,"lon":5.366969,"is_reserved":false,"is_disabled":false,"rental_uris":{"android":"levelo://app?vid=077e2198-386a-4b0a-b050-34aacc5e0bc7","ios":"levelo://app?vid=077e2198-386a-4b0a-b050-34aacc5e0bc7"},"vehicle_type_id":"4","last_reported":1706825226,"current_range_meters":20400,"station_id":"ce4bgrp2rcd13ifvqc9g","pricing_plan_id":"free"},{"bike_id":"1e2d9b78-459b-4af5-8b66-e03b0dde964a","system_id":"levelo_inurba_marseille","lat":43.305517,"lon":5.365361,"is_reserved":false,"is_disabled":false,"rental_uris":{"android":"levelo://app?vid=1e2d9b78-459b-4af5-8b66-e03b0dde964a","ios":"levelo://app?vid=1e2d9b78-459b-4af5-8b66-e03b0dde964a"},"vehicle_type_id":"4","last_reported":1706825226,"current_range_meters":0,"station_id":"ce4bgs12rcd13ifvqcag","pricing_plan_id":"free"},{"bike_id":"29a21b05-a250-49de-bbc6-df7579d7998c","system_id":"levelo_inurba_marseille","lat":43.305989,"lon":5.37225,"is_reserved":false,"is_disabled":false,"rental_uris":{"android":"levelo://app?vid=29a21b05-a250-49de-bbc6-df7579d7998c","ios":"levelo://app?vid=29a21b05-a250-49de-bbc6-df7579d7998c"},"vehicle_type_id":"4","last_reported":1706825226,"current_range_meters":11600,"station_id":"ce4bgqh2rcd13ifvqc4g","pricing_plan_id":"free"},{"bike_id":"5a9e06c8-1b00-4683-919e-eca436f3130a","system_id":"levelo_inurba_marseille","lat":43.305989,"lon":5.37225,"is_reserved":false,"is_disabled":false,"rental_uris":{"android":"levelo://app?vid=5a9e06c8-1b00-4683-919e-eca436f3130a","ios":"levelo://app?vid=5a9e06c8-1b00-4683-919e-eca436f3130a"},"vehicle_type_id":"4","last_reported":1706825226,"current_range_meters":1600,"station_id":"ce4bgqh2rcd13ifvqc4g","pricing_plan_id":"free"},{"bike_id":"8de5100e-bda5-4804-82db-456bb8263325","system_id":"levelo_inurba_marseille","lat":43.305989,"lon":5.37225,"is_reserved":false,"is_disabled":false,"rental_uris":{"android":"levelo://app?vid=8de5100e-bda5-4804-82db-456bb8263325","ios":"levelo://app?vid=8de5100e-bda5-4804-82db-456bb8263325"},"vehicle_type_id":"4","last_reported":1706825226,"current_range_meters":23600,"station_id":"ce4bgqh2rcd13ifvqc4g","pricing_plan_id":"free"},{"bike_id":"26692364-d5c6-4d1e-8f1e-ec9dbc6d2716","system_id":"levelo_inurba_marseille","lat":43.305989,"lon":5.37225,"is_reserved":false,"is_disabled":false,"rental_uris":{"android":"levelo://app?vid=26692364-d5c6-4d1e-8f1e-ec9dbc6d2716","ios":"levelo://app?vid=26692364-d5c6-4d1e-8f1e-ec9dbc6d2716"},"vehicle_type_id":"4","last_reported":1706825226,"current_range_meters":1600,"station_id":"ce4bgqh2rcd13ifvqc4g","pricing_plan_id":"free"},{"bike_id":"142e367f-b864-41c3-8721-059900607636","system_id":"levelo_inurba_marseille","lat":43.31116,"lon":5.37762,"is_reserved":false,"is_disabled":false,"rental_uris":{"android":"levelo://app?vid=142e367f-b864-41c3-8721-059900607636","ios":"levelo://app?vid=142e367f-b864-41c3-8721-059900607636"},"vehicle_type_id":"4","last_reported":1706825226,"current_range_meters":6000,"station_id":"ce4bgt92rcd13ifvqcg0","pricing_plan_id":"free"},{"bike_id":"ef871d11-49c1-4b2f-b217-6f98230d178d","system_id":"levelo_inurba_marseille","lat":43.3111,"lon":5.37769,"is_reserved":false,"is_disabled":false,"rental_uris":{"android":"levelo://app?vid=ef871d11-49c1-4b2f-b217-6f98230d178d","ios":"levelo://app?vid=ef871d11-49c1-4b2f-b217-6f98230d178d"},"vehicle_type_id":"4","last_reported":1706825226,"current_range_meters":1600,"station_id":"ce4bgt92rcd13ifvqcg0","pricing_plan_id":"free"},{"bike_id":"7a98c378-2a87-4b04-a26b-c370b35c75de","system_id":"levelo_inurba_marseille","lat":43.311125,"lon":5.377624,"is_reserved":false,"is_disabled":false,"rental_uris":{"android":"levelo://app?vid=7a98c378-2a87-4b04-a26b-c370b35c75de","ios":"levelo://app?vid=7a98c378-2a87-4b04-a26b-c370b35c75de"},"vehicle_type_id":"4","last_reported":1706825226,"current_range_meters":19600,"station_id":"ce4bgt92rcd13ifvqcg0","pricing_plan_id":"free"},{"bike_id":"ac182a0b-07b5-49c6-a8d3-51d81d6b7592","system_id":"levelo_inurba_marseille","lat":43.317075,"lon":5.377367,"is_reserved":false,"is_disabled":false,"rental_uris":{"android":"levelo://app?vid=ac182a0b-07b5-49c6-a8d3-51d81d6b7592","ios":"levelo://app?vid=ac182a0b-07b5-49c6-a8d3-51d81d6b7592"},"vehicle_type_id":"4","last_reported":1706825226,"current_range_meters":24800,"station_id":"ce4bgth2rcd13ifvqch0","pricing_plan_id":"free"},{"bike_id":"b21f5c34-98e9-40a4-9595-318511423343","system_id":"levelo_inurba_marseille","lat":43.317075,"lon":5.377367,"is_reserved":false,"is_disabled":false,"rental_uris":{"android":"levelo://app?vid=b21f5c34-98e9-40a4-9595-318511423343","ios":"levelo://app?vid=b21f5c34-98e9-40a4-9595-318511423343"},"vehicle_type_id":"4","last_reported":1706825226,"current_range_meters":27600,"station_id":"ce4bgth2rcd13ifvqch0","pricing_plan_id":"free"},{"bike_id":"c62e3e81-210d-4ee5-8823-b1d4000636ac","system_id":"levelo_inurba_marseille","lat":43.303046,"lon":5.368981,"is_reserved":false,"is_disabled":false,"rental_uris":{"android":"levelo://app?vid=c62e3e81-210d-4ee5-8823-b1d4000636ac","ios":"levelo://app?vid=c62e3e81-210d-4ee5-8823-b1d4000636ac"},"vehicle_type_id":"4","last_reported":1706825226,"current_range_meters":800,"station_id":"ce4bgqh2rcd13ifvqc5g","pricing_plan_id":"free"},{"bike_id":"9f5909e8-a7c5-4a01-a251-513619078bcd","system_id":"levelo_inurba_marseille","lat":43.30304,"lon":5.368987,"is_reserved":false,"is_disabled":false,"rental_uris":{"android":"levelo://app?vid=9f5909e8-a7c5-4a01-a251-513619078bcd","ios":"levelo://app?vid=9f5909e8-a7c5-4a01-a251-513619078bcd"},"vehicle_type_id":"4","last_reported":1706825226,"current_range_meters":10400,"station_id":"ce4bgqh2rcd13ifvqc5g","pricing_plan_id":"free"},{"bike_id":"36cafc18-9312-47f8-8743-fadef2794582","system_id":"levelo_inurba_marseille","lat":43.301939,"lon":5.366286,"is_reserved":false,"is_disabled":false,"rental_uris":{"android":"levelo://app?vid=36cafc18-9312-47f8-8743-fadef2794582","ios":"levelo://app?vid=36cafc18-9312-47f8-8743-fadef2794582"},"vehicle_type_id":"4","last_reported":1706825226,"current_range_meters":0,"station_id":"ce4bgrh2rcd13ifvqc8g","pricing_plan_id":"free"},{"bike_id":"bd0ca69d-1b99-4558-bafa-8f6e1e453c5f","system_id":"levelo_inurba_marseille","lat":43.308012,"lon":5.381511,"is_reserved":false,"is_disabled":false,"rental_uris":{"android":"levelo://app?vid=bd0ca69d-1b99-4558-bafa-8f6e1e453c5f","ios":"levelo://app?vid=bd0ca69d-1b99-4558-bafa-8f6e1e453c5f"},"vehicle_type_id":"4","last_reported":1706825226,"current_range_meters":6800,"station_id":"ce4bgt12rcd13ifvqce0","pricing_plan_id":"free"},{"bike_id":"29f24877-7619-4e2d-af6c-e93f034130c4","system_id":"levelo_inurba_marseille","lat":43.308012,"lon":5.381511,"is_reserved":false,"is_disabled":false,"rental_uris":{"android":"levelo://app?vid=29f24877-7619-4e2d-af6c-e93f034130c4","ios":"levelo://app?vid=29f24877-7619-4e2d-af6c-e93f034130c4"},"vehicle_type_id":"4","last_reported":1706825226,"current_range_meters":14000,"station_id":"ce4bgt12rcd13ifvqce0","pricing_plan_id":"free"},{"bike_id":"41ea9c01-ecd4-4388-8a24-d0339ea2b974","system_id":"levelo_inurba_marseille","lat":43.30464,"lon":5.37902,"is_reserved":false,"is_disabled":false,"rental_uris":{"android":"levelo://app?vid=41ea9c01-ecd4-4388-8a24-d0339ea2b974","ios":"levelo://app?vid=41ea9c01-ecd4-4388-8a24-d0339ea2b974"},"vehicle_type_id":"4","last_reported":1706825226,"current_range_meters":0,"station_id":"ce4bgup2rcd13ifvqcn0","pricing_plan_id":"free"},{"bike_id":"913b59fd-c2f1-4722-8693-c3993314d595","system_id":"levelo_inurba_marseille","lat":43.31341,"lon":5.367098,"is_reserved":false,"is_disabled":false,"rental_uris":{"android":"levelo://app?vid=913b59fd-c2f1-4722-8693-c3993314d595","ios":"levelo://app?vid=913b59fd-c2f1-4722-8693-c3993314d595"},"vehicle_type_id":"4","last_reported":1706825226,"current_range_meters":24000,"station_id":"ce4bgr92rcd13ifvqc6g","pricing_plan_id":"free"},{"bike_id":"3bbbff6f-b69d-450b-bf7b-8216851221b3","system_id":"levelo_inurba_marseille","lat":43.30453,"lon":5.37912,"is_reserved":false,"is_disabled":false,"rental_uris":{"android":"levelo://app?vid=3bbbff6f-b69d-450b-bf7b-8216851221b3","ios":"levelo://app?vid=3bbbff6f-b69d-450b-bf7b-8216851221b3"},"vehicle_type_id":"4","last_reported":1706825226,"current_range_meters":0,"station_id":"ce4bgup2rcd13ifvqcn0","pricing_plan_id":"free"},{"bike_id":"b29aff8a-d845-486d-9610-4eb264c2c178","system_id":"levelo_inurba_marseille","lat":43.30139,"lon":5.37408,"is_reserved":false,"is_disabled":false,"rental_uris":{"android":"levelo://app?vid=b29aff8a-d845-486d-9610-4eb264c2c178","ios":"levelo://app?vid=b29aff8a-d845-486d-9610-4eb264c2c178"},"vehicle_type_id":"4","last_reported":1706825226,"current_range_meters":0,"station_id":"ce4bgs92rcd13ifvqcc0","pricing_plan_id":"free"},{"bike_id":"e97ff011-067e-4aed-8fd5-a4d9d392434e","system_id":"levelo_inurba_marseille","lat":43.30143,"lon":5.37413,"is_reserved":false,"is_disabled":false,"rental_uris":{"android":"levelo://app?vid=e97ff011-067e-4aed-8fd5-a4d9d392434e","ios":"levelo://app?vid=e97ff011-067e-4aed-8fd5-a4d9d392434e"},"vehicle_type_id":"4","last_reported":1706825226,"current_range_meters":19200,"station_id":"ce4bgs92rcd13ifvqcc0","pricing_plan_id":"free"},{"bike_id":"750ede20-1a92-4656-b5f3-684b58e12ed0","system_id":"levelo_inurba_marseille","lat":43.319935,"lon":5.381699,"is_reserved":false,"is_disabled":false,"rental_uris":{"android":"levelo://app?vid=750ede20-1a92-4656-b5f3-684b58e12ed0","ios":"levelo://app?vid=750ede20-1a92-4656-b5f3-684b58e12ed0"},"vehicle_type_id":"4","last_reported":1706825226,"current_range_meters":1200,"station_id":"ce4bhr12rcd13ifvqhpg","pricing_plan_id":"free"},{"bike_id":"33aa6591-fee3-4190-8337-a93734a2451e","system_id":"levelo_inurba_marseille","lat":43.319935,"lon":5.381699,"is_reserved":false,"is_disabled":false,"rental_uris":{"android":"levelo://app?vid=33aa6591-fee3-4190-8337-a93734a2451e","ios":"levelo://app?vid=33aa6591-fee3-4190-8337-a93734a2451e"},"vehicle_type_id":"4","last_reported":1706825226,"current_range_meters":26000,"station_id":"ce4bhr12rcd13ifvqhpg","pricing_plan_id":"free"},{"bike_id":"d44ce61f-67ef-4d51-b216-d9251b48baa0","system_id":"levelo_inurba_marseille","lat":43.319935,"lon":5.381699,"is_reserved":false,"is_disabled":false,"rental_uris":{"android":"levelo://app?vid=d44ce61f-67ef-4d51-b216-d9251b48baa0","ios":"levelo://app?vid=d44ce61f-67ef-4d51-b216-d9251b48baa0"},"vehicle_type_id":"4","last_reported":1706825226,"current_range_meters":14000,"station_id":"ce4bhr12rcd13ifvqhpg","pricing_plan_id":"free"},{"bike_id":"64d78273-fffd-4887-a48e-68932349843e","system_id":"levelo_inurba_marseille","lat":43.319939,"lon":5.381525,"is_reserved":false,"is_disabled":false,"rental_uris":{"android":"levelo://app?vid=64d78273-fffd-4887-a48e-68932349843e","ios":"levelo://app?vid=64d78273-fffd-4887-a48e-68932349843e"},"vehicle_type_id":"4","last_reported":1706825226,"current_range_meters":25600,"station_id":"","pricing_plan_id":"free"},{"bike_id":"0a431524-38b9-4c1b-956e-85b95de4b027","system_id":"levelo_inurba_marseille","lat":43.319935,"lon":5.381699,"is_reserved":false,"is_disabled":false,"rental_uris":{"android":"levelo://app?vid=0a431524-38b9-4c1b-956e-85b95de4b027","ios":"levelo://app?vid=0a431524-38b9-4c1b-956e-85b95de4b027"},"vehicle_type_id":"4","last_reported":1706825226,"current_range_meters":0,"station_id":"ce4bhr12rcd13ifvqhpg","pricing_plan_id":"free"},{"bike_id":"5d1f62cd-175b-4219-aa13-aee81343a1e5","system_id":"levelo_inurba_marseille","lat":43.319935,"lon":5.381699,"is_reserved":false,"is_disabled":false,"rental_uris":{"android":"levelo://app?vid=5d1f62cd-175b-4219-aa13-aee81343a1e5","ios":"levelo://app?vid=5d1f62cd-175b-4219-aa13-aee81343a1e5"},"vehicle_type_id":"4","last_reported":1706825226,"current_range_meters":17200,"station_id":"ce4bhr12rcd13ifvqhpg","pricing_plan_id":"free"},{"bike_id":"3e04b292-4be5-4324-a463-08aafe923a96","system_id":"levelo_inurba_marseille","lat":43.283502,"lon":5.386471,"is_reserved":false,"is_disabled":false,"rental_uris":{"android":"levelo://app?vid=3e04b292-4be5-4324-a463-08aafe923a96","ios":"levelo://app?vid=3e04b292-4be5-4324-a463-08aafe923a96"},"vehicle_type_id":"4","last_reported":1706825226,"current_range_meters":22400,"station_id":"ce4bh492rcd13ifvqdvg","pricing_plan_id":"free"},{"bike_id":"894b44a7-54f7-41b4-bb98-30de2e4f98db","system_id":"levelo_inurba_marseille","lat":43.31374,"lon":5.38482,"is_reserved":false,"is_disabled":false,"rental_uris":{"android":"levelo://app?vid=894b44a7-54f7-41b4-bb98-30de2e4f98db","ios":"levelo://app?vid=894b44a7-54f7-41b4-bb98-30de2e4f98db"},"vehicle_type_id":"4","last_reported":1706825226,"current_range_meters":17600,"station_id":"ce4bgt92rcd13ifvqcf0","pricing_plan_id":"free"},{"bike_id":"46c5fcf0-2722-4bbe-a99d-0958e8038721","system_id":"levelo_inurba_marseille","lat":43.31365,"lon":5.384958,"is_reserved":false,"is_disabled":false,"rental_uris":{"android":"levelo://app?vid=46c5fcf0-2722-4bbe-a99d-0958e8038721","ios":"levelo://app?vid=46c5fcf0-2722-4bbe-a99d-0958e8038721"},"vehicle_type_id":"4","last_reported":1706825226,"current_range_meters":0,"station_id":"ce4bgt92rcd13ifvqcf0","pricing_plan_id":"free"},{"bike_id":"2ae4f3e9-3cd4-4107-91e9-ddf77a9d90ff","system_id":"levelo_inurba_marseille","lat":43.299222,"lon":5.365554,"is_reserved":false,"is_disabled":false,"rental_uris":{"android":"levelo://app?vid=2ae4f3e9-3cd4-4107-91e9-ddf77a9d90ff","ios":"levelo://app?vid=2ae4f3e9-3cd4-4107-91e9-ddf77a9d90ff"},"vehicle_type_id":"4","last_reported":1706825226,"current_range_meters":800,"station_id":"ce4bgm92rcd13ifvqbr0","pricing_plan_id":"free"},{"bike_id":"771ce5f7-0d2f-4cba-9bb3-ed0cb9dd8265","system_id":"levelo_inurba_marseille","lat":43.299222,"lon":5.365554,"is_reserved":false,"is_disabled":false,"rental_uris":{"android":"levelo://app?vid=771ce5f7-0d2f-4cba-9bb3-ed0cb9dd8265","ios":"levelo://app?vid=771ce5f7-0d2f-4cba-9bb3-ed0cb9dd8265"},"vehicle_type_id":"4","last_reported":1706825226,"current_range_meters":4400,"station_id":"ce4bgm92rcd13ifvqbr0","pricing_plan_id":"free"},{"bike_id":"a91fb37f-56bf-4c02-a962-dcd811da7a4b","system_id":"levelo_inurba_marseille","lat":43.299222,"lon":5.365554,"is_reserved":false,"is_disabled":false,"rental_uris":{"android":"levelo://app?vid=a91fb37f-56bf-4c02-a962-dcd811da7a4b","ios":"levelo://app?vid=a91fb37f-56bf-4c02-a962-dcd811da7a4b"},"vehicle_type_id":"4","last_reported":1706825226,"current_range_meters":4800,"station_id":"ce4bgm92rcd13ifvqbr0","pricing_plan_id":"free"},{"bike_id":"59f1934d-8127-4da6-9679-ebeb8f487f96","system_id":"levelo_inurba_marseille","lat":43.299222,"lon":5.365554,"is_reserved":false,"is_disabled":false,"rental_uris":{"android":"levelo://app?vid=59f1934d-8127-4da6-9679-ebeb8f487f96","ios":"levelo://app?vid=59f1934d-8127-4da6-9679-ebeb8f487f96"},"vehicle_type_id":"4","last_reported":1706825226,"current_range_meters":18000,"station_id":"ce4bgm92rcd13ifvqbr0","pricing_plan_id":"free"},{"bike_id":"940d5c25-c278-4d1e-927b-fe7584a80c69","system_id":"levelo_inurba_marseille","lat":43.311722,"lon":5.387247,"is_reserved":false,"is_disabled":false,"rental_uris":{"android":"levelo://app?vid=940d5c25-c278-4d1e-927b-fe7584a80c69","ios":"levelo://app?vid=940d5c25-c278-4d1e-927b-fe7584a80c69"},"vehicle_type_id":"4","last_reported":1706825226,"current_range_meters":22400,"station_id":"ce4bgv12rcd13ifvqcp0","pricing_plan_id":"free"},{"bike_id":"f95541eb-976b-4f38-ad83-d526dec7c030","system_id":"levelo_inurba_marseille","lat":43.311722,"lon":5.387247,"is_reserved":false,"is_disabled":false,"rental_uris":{"android":"levelo://app?vid=f95541eb-976b-4f38-ad83-d526dec7c030","ios":"levelo://app?vid=f95541eb-976b-4f38-ad83-d526dec7c030"},"vehicle_type_id":"4","last_reported":1706825226,"current_range_meters":1200,"station_id":"ce4bgv12rcd13ifvqcp0","pricing_plan_id":"free"},{"bike_id":"ef52ae47-c31c-40ff-91aa-28863c796ca1","system_id":"levelo_inurba_marseille","lat":43.311722,"lon":5.387247,"is_reserved":false,"is_disabled":false,"rental_uris":{"android":"levelo://app?vid=ef52ae47-c31c-40ff-91aa-28863c796ca1","ios":"levelo://app?vid=ef52ae47-c31c-40ff-91aa-28863c796ca1"},"vehicle_type_id":"4","last_reported":1706825226,"current_range_meters":19200,"station_id":"ce4bgv12rcd13ifvqcp0","pricing_plan_id":"free"},{"bike_id":"1ee319aa-4037-484f-a455-a561c1c9a4f6","system_id":"levelo_inurba_marseille","lat":43.311722,"lon":5.387247,"is_reserved":false,"is_disabled":false,"rental_uris":{"android":"levelo://app?vid=1ee319aa-4037-484f-a455-a561c1c9a4f6","ios":"levelo://app?vid=1ee319aa-4037-484f-a455-a561c1c9a4f6"},"vehicle_type_id":"4","last_reported":1706825226,"current_range_meters":14800,"station_id":"ce4bgv12rcd13ifvqcp0","pricing_plan_id":"free"},{"bike_id":"ef757f39-e2a9-410f-85f4-cc4eb4b4442c","system_id":"levelo_inurba_marseille","lat":43.311722,"lon":5.387247,"is_reserved":false,"is_disabled":false,"rental_uris":{"android":"levelo://app?vid=ef757f39-e2a9-410f-85f4-cc4eb4b4442c","ios":"levelo://app?vid=ef757f39-e2a9-410f-85f4-cc4eb4b4442c"},"vehicle_type_id":"4","last_reported":1706825226,"current_range_meters":20800,"station_id":"ce4bgv12rcd13ifvqcp0","pricing_plan_id":"free"},{"bike_id":"4ebcb99c-5a57-4879-8e16-8899834b87cf","system_id":"levelo_inurba_marseille","lat":43.311722,"lon":5.387247,"is_reserved":false,"is_disabled":false,"rental_uris":{"android":"levelo://app?vid=4ebcb99c-5a57-4879-8e16-8899834b87cf","ios":"levelo://app?vid=4ebcb99c-5a57-4879-8e16-8899834b87cf"},"vehicle_type_id":"4","last_reported":1706825226,"current_range_meters":12400,"station_id":"ce4bgv12rcd13ifvqcp0","pricing_plan_id":"free"},{"bike_id":"c28b7c8c-b66b-4d56-90e4-eb4b9db2697c","system_id":"levelo_inurba_marseille","lat":43.311722,"lon":5.387247,"is_reserved":false,"is_disabled":false,"rental_uris":{"android":"levelo://app?vid=c28b7c8c-b66b-4d56-90e4-eb4b9db2697c","ios":"levelo://app?vid=c28b7c8c-b66b-4d56-90e4-eb4b9db2697c"},"vehicle_type_id":"4","last_reported":1706825226,"current_range_meters":12000,"station_id":"ce4bgv12rcd13ifvqcp0","pricing_plan_id":"free"},{"bike_id":"a916cbfb-9a35-49f2-a04c-e25ea80805cf","system_id":"levelo_inurba_marseille","lat":43.311722,"lon":5.387247,"is_reserved":false,"is_disabled":false,"rental_uris":{"android":"levelo://app?vid=a916cbfb-9a35-49f2-a04c-e25ea80805cf","ios":"levelo://app?vid=a916cbfb-9a35-49f2-a04c-e25ea80805cf"},"vehicle_type_id":"4","last_reported":1706825226,"current_range_meters":9600,"station_id":"ce4bgv12rcd13ifvqcp0","pricing_plan_id":"free"},{"bike_id":"5432b4d5-6f3f-4046-a600-0c38ec8ae75f","system_id":"levelo_inurba_marseille","lat":43.311722,"lon":5.387247,"is_reserved":false,"is_disabled":false,"rental_uris":{"android":"levelo://app?vid=5432b4d5-6f3f-4046-a600-0c38ec8ae75f","ios":"levelo://app?vid=5432b4d5-6f3f-4046-a600-0c38ec8ae75f"},"vehicle_type_id":"4","last_reported":1706825226,"current_range_meters":19200,"station_id":"ce4bgv12rcd13ifvqcp0","pricing_plan_id":"free"},{"bike_id":"a2b8a8fa-c75d-4bb8-b5fd-4d9ba488990e","system_id":"levelo_inurba_marseille","lat":43.311722,"lon":5.387247,"is_reserved":false,"is_disabled":false,"rental_uris":{"android":"levelo://app?vid=a2b8a8fa-c75d-4bb8-b5fd-4d9ba488990e","ios":"levelo://app?vid=a2b8a8fa-c75d-4bb8-b5fd-4d9ba488990e"},"vehicle_type_id":"4","last_reported":1706825226,"current_range_meters":11600,"station_id":"ce4bgv12rcd13ifvqcp0","pricing_plan_id":"free"},{"bike_id":"ababc665-0323-4196-966a-430eb84efd6d","system_id":"levelo_inurba_marseille","lat":43.322872,"lon":5.382756,"is_reserved":false,"is_disabled":false,"rental_uris":{"android":"levelo://app?vid=ababc665-0323-4196-966a-430eb84efd6d","ios":"levelo://app?vid=ababc665-0323-4196-966a-430eb84efd6d"},"vehicle_type_id":"4","last_reported":1706825226,"current_range_meters":3200,"station_id":"ce4bhr12rcd13ifvqhqg","pricing_plan_id":"free"},{"bike_id":"b43645aa-f2e5-486d-a2fa-bf46e0a03dc2","system_id":"levelo_inurba_marseille","lat":43.322872,"lon":5.382756,"is_reserved":false,"is_disabled":false,"rental_uris":{"android":"levelo://app?vid=b43645aa-f2e5-486d-a2fa-bf46e0a03dc2","ios":"levelo://app?vid=b43645aa-f2e5-486d-a2fa-bf46e0a03dc2"},"vehicle_type_id":"4","last_reported":1706825226,"current_range_meters":13600,"station_id":"ce4bhr12rcd13ifvqhqg","pricing_plan_id":"free"},{"bike_id":"b069e964-d710-4a2f-993a-1ab0b01ca06a","system_id":"levelo_inurba_marseille","lat":43.322872,"lon":5.382756,"is_reserved":false,"is_disabled":false,"rental_uris":{"android":"levelo://app?vid=b069e964-d710-4a2f-993a-1ab0b01ca06a","ios":"levelo://app?vid=b069e964-d710-4a2f-993a-1ab0b01ca06a"},"vehicle_type_id":"4","last_reported":1706825226,"current_range_meters":7600,"station_id":"ce4bhr12rcd13ifvqhqg","pricing_plan_id":"free"},{"bike_id":"c5d0d7d5-9b16-4eb0-a7f6-5fa1faf28471","system_id":"levelo_inurba_marseille","lat":43.322872,"lon":5.382756,"is_reserved":false,"is_disabled":false,"rental_uris":{"android":"levelo://app?vid=c5d0d7d5-9b16-4eb0-a7f6-5fa1faf28471","ios":"levelo://app?vid=c5d0d7d5-9b16-4eb0-a7f6-5fa1faf28471"},"vehicle_type_id":"4","last_reported":1706825226,"current_range_meters":6000,"station_id":"ce4bhr12rcd13ifvqhqg","pricing_plan_id":"free"},{"bike_id":"2f814de7-ab89-4e81-bd56-ab00af80498f","system_id":"levelo_inurba_marseille","lat":43.322872,"lon":5.382756,"is_reserved":false,"is_disabled":false,"rental_uris":{"android":"levelo://app?vid=2f814de7-ab89-4e81-bd56-ab00af80498f","ios":"levelo://app?vid=2f814de7-ab89-4e81-bd56-ab00af80498f"},"vehicle_type_id":"4","last_reported":1706825226,"current_range_meters":18800,"station_id":"ce4bhr12rcd13ifvqhqg","pricing_plan_id":"free"},{"bike_id":"b667764d-fe48-4325-becc-a4e6eea43d1a","system_id":"levelo_inurba_marseille","lat":43.322872,"lon":5.382756,"is_reserved":false,"is_disabled":false,"rental_uris":{"android":"levelo://app?vid=b667764d-fe48-4325-becc-a4e6eea43d1a","ios":"levelo://app?vid=b667764d-fe48-4325-becc-a4e6eea43d1a"},"vehicle_type_id":"4","last_reported":1706825226,"current_range_meters":400,"station_id":"ce4bhr12rcd13ifvqhqg","pricing_plan_id":"free"},{"bike_id":"6268e9ea-d457-41cb-b090-f7f91ef35cfb","system_id":"levelo_inurba_marseille","lat":43.322872,"lon":5.382756,"is_reserved":false,"is_disabled":false,"rental_uris":{"android":"levelo://app?vid=6268e9ea-d457-41cb-b090-f7f91ef35cfb","ios":"levelo://app?vid=6268e9ea-d457-41cb-b090-f7f91ef35cfb"},"vehicle_type_id":"4","last_reported":1706825226,"current_range_meters":31200,"station_id":"ce4bhr12rcd13ifvqhqg","pricing_plan_id":"free"},{"bike_id":"9781ebb3-155f-4467-bcb9-a79d2aadab6e","system_id":"levelo_inurba_marseille","lat":43.322872,"lon":5.382756,"is_reserved":false,"is_disabled":false,"rental_uris":{"android":"levelo://app?vid=9781ebb3-155f-4467-bcb9-a79d2aadab6e","ios":"levelo://app?vid=9781ebb3-155f-4467-bcb9-a79d2aadab6e"},"vehicle_type_id":"4","last_reported":1706825226,"current_range_meters":3600,"station_id":"ce4bhr12rcd13ifvqhqg","pricing_plan_id":"free"},{"bike_id":"04133053-7e22-49fe-9a8e-cfae27a54d05","system_id":"levelo_inurba_marseille","lat":43.322872,"lon":5.382756,"is_reserved":false,"is_disabled":false,"rental_uris":{"android":"levelo://app?vid=04133053-7e22-49fe-9a8e-cfae27a54d05","ios":"levelo://app?vid=04133053-7e22-49fe-9a8e-cfae27a54d05"},"vehicle_type_id":"4","last_reported":1706825226,"current_range_meters":10400,"station_id":"ce4bhr12rcd13ifvqhqg","pricing_plan_id":"free"},{"bike_id":"9efb79d0-e2ba-456d-ba9a-99a10d4c7b7e","system_id":"levelo_inurba_marseille","lat":43.328371,"lon":5.366909,"is_reserved":false,"is_disabled":false,"rental_uris":{"android":"levelo://app?vid=9efb79d0-e2ba-456d-ba9a-99a10d4c7b7e","ios":"levelo://app?vid=9efb79d0-e2ba-456d-ba9a-99a10d4c7b7e"},"vehicle_type_id":"4","last_reported":1706825226,"current_range_meters":18800,"station_id":"ce4bhs92rcd13ifvqi0g","pricing_plan_id":"free"},{"bike_id":"54d2e451-9cd4-400a-bfa8-eb46cefbc970","system_id":"levelo_inurba_marseille","lat":43.328371,"lon":5.366909,"is_reserved":false,"is_disabled":false,"rental_uris":{"android":"levelo://app?vid=54d2e451-9cd4-400a-bfa8-eb46cefbc970","ios":"levelo://app?vid=54d2e451-9cd4-400a-bfa8-eb46cefbc970"},"vehicle_type_id":"4","last_reported":1706825226,"current_range_meters":30400,"station_id":"ce4bhs92rcd13ifvqi0g","pricing_plan_id":"free"},{"bike_id":"9f123490-797c-48bf-b0fe-6381975956a5","system_id":"levelo_inurba_marseille","lat":43.31751,"lon":5.38907,"is_reserved":false,"is_disabled":false,"rental_uris":{"android":"levelo://app?vid=9f123490-797c-48bf-b0fe-6381975956a5","ios":"levelo://app?vid=9f123490-797c-48bf-b0fe-6381975956a5"},"vehicle_type_id":"4","last_reported":1706825226,"current_range_meters":22400,"station_id":"","pricing_plan_id":"free"},{"bike_id":"47690a69-798c-408a-863a-a8bd41c08d4f","system_id":"levelo_inurba_marseille","lat":43.309589,"lon":5.390258,"is_reserved":false,"is_disabled":false,"rental_uris":{"android":"levelo://app?vid=47690a69-798c-408a-863a-a8bd41c08d4f","ios":"levelo://app?vid=47690a69-798c-408a-863a-a8bd41c08d4f"},"vehicle_type_id":"4","last_reported":1706825226,"current_range_meters":8000,"station_id":"ce4bgup2rcd13ifvqco0","pricing_plan_id":"free"},{"bike_id":"092ee037-3ee9-4d9f-afc8-68626649107d","system_id":"levelo_inurba_marseille","lat":43.297114,"lon":5.377067,"is_reserved":false,"is_disabled":false,"rental_uris":{"android":"levelo://app?vid=092ee037-3ee9-4d9f-afc8-68626649107d","ios":"levelo://app?vid=092ee037-3ee9-4d9f-afc8-68626649107d"},"vehicle_type_id":"4","last_reported":1706825226,"current_range_meters":4800,"station_id":"ce4bgkh2rcd13ifvqbl0","pricing_plan_id":"free"},{"bike_id":"d21fc585-85c4-4169-a659-5a9bbe555387","system_id":"levelo_inurba_marseille","lat":43.309589,"lon":5.390258,"is_reserved":false,"is_disabled":false,"rental_uris":{"android":"levelo://app?vid=d21fc585-85c4-4169-a659-5a9bbe555387","ios":"levelo://app?vid=d21fc585-85c4-4169-a659-5a9bbe555387"},"vehicle_type_id":"4","last_reported":1706825226,"current_range_meters":13600,"station_id":"ce4bgup2rcd13ifvqco0","pricing_plan_id":"free"},{"bike_id":"fba8f1ce-1af3-4c2e-b41f-531c50a370ee","system_id":"levelo_inurba_marseille","lat":43.317557,"lon":5.390173,"is_reserved":false,"is_disabled":false,"rental_uris":{"android":"levelo://app?vid=fba8f1ce-1af3-4c2e-b41f-531c50a370ee","ios":"levelo://app?vid=fba8f1ce-1af3-4c2e-b41f-531c50a370ee"},"vehicle_type_id":"4","last_reported":1706825226,"current_range_meters":3600,"station_id":"ce4bhqp2rcd13ifvqhng","pricing_plan_id":"free"},{"bike_id":"e4c2a1d8-9cdf-46e8-8829-03ab00272a79","system_id":"levelo_inurba_marseille","lat":43.317557,"lon":5.390173,"is_reserved":false,"is_disabled":false,"rental_uris":{"android":"levelo://app?vid=e4c2a1d8-9cdf-46e8-8829-03ab00272a79","ios":"levelo://app?vid=e4c2a1d8-9cdf-46e8-8829-03ab00272a79"},"vehicle_type_id":"4","last_reported":1706825226,"current_range_meters":6800,"station_id":"ce4bhqp2rcd13ifvqhng","pricing_plan_id":"free"},{"bike_id":"646447d3-b90a-4c79-80bc-61cfee8e1fb0","system_id":"levelo_inurba_marseille","lat":43.317557,"lon":5.390173,"is_reserved":false,"is_disabled":false,"rental_uris":{"android":"levelo://app?vid=646447d3-b90a-4c79-80bc-61cfee8e1fb0","ios":"levelo://app?vid=646447d3-b90a-4c79-80bc-61cfee8e1fb0"},"vehicle_type_id":"4","last_reported":1706825226,"current_range_meters":0,"station_id":"ce4bhqp2rcd13ifvqhng","pricing_plan_id":"free"},{"bike_id":"ae8f0e56-9237-4255-b933-26929014c570","system_id":"levelo_inurba_marseille","lat":43.317557,"lon":5.390173,"is_reserved":false,"is_disabled":false,"rental_uris":{"android":"levelo://app?vid=ae8f0e56-9237-4255-b933-26929014c570","ios":"levelo://app?vid=ae8f0e56-9237-4255-b933-26929014c570"},"vehicle_type_id":"4","last_reported":1706825226,"current_range_meters":16800,"station_id":"ce4bhqp2rcd13ifvqhng","pricing_plan_id":"free"},{"bike_id":"3fecf167-fccf-451d-8a9a-2c9fc14b9ce3","system_id":"levelo_inurba_marseille","lat":43.317557,"lon":5.390173,"is_reserved":false,"is_disabled":false,"rental_uris":{"android":"levelo://app?vid=3fecf167-fccf-451d-8a9a-2c9fc14b9ce3","ios":"levelo://app?vid=3fecf167-fccf-451d-8a9a-2c9fc14b9ce3"},"vehicle_type_id":"4","last_reported":1706825226,"current_range_meters":23200,"station_id":"ce4bhqp2rcd13ifvqhng","pricing_plan_id":"free"},{"bike_id":"bfdced9e-4c76-488a-8d10-91fdf9bb3f88","system_id":"levelo_inurba_marseille","lat":43.304274,"lon":5.388873,"is_reserved":false,"is_disabled":false,"rental_uris":{"android":"levelo://app?vid=bfdced9e-4c76-488a-8d10-91fdf9bb3f88","ios":"levelo://app?vid=bfdced9e-4c76-488a-8d10-91fdf9bb3f88"},"vehicle_type_id":"4","last_reported":1706825226,"current_range_meters":6400,"station_id":"ce4bgk12rcd13ifvqbi0","pricing_plan_id":"free"},{"bike_id":"aa663c48-37b4-4ba5-b319-6ef7e3057f9d","system_id":"levelo_inurba_marseille","lat":43.304278,"lon":5.388868,"is_reserved":false,"is_disabled":false,"rental_uris":{"android":"levelo://app?vid=aa663c48-37b4-4ba5-b319-6ef7e3057f9d","ios":"levelo://app?vid=aa663c48-37b4-4ba5-b319-6ef7e3057f9d"},"vehicle_type_id":"4","last_reported":1706825226,"current_range_meters":0,"station_id":"ce4bgk12rcd13ifvqbi0","pricing_plan_id":"free"},{"bike_id":"2c67e6a0-a66a-43ce-b7f9-4e9ab72877ee","system_id":"levelo_inurba_marseille","lat":43.304278,"lon":5.388868,"is_reserved":false,"is_disabled":false,"rental_uris":{"android":"levelo://app?vid=2c67e6a0-a66a-43ce-b7f9-4e9ab72877ee","ios":"levelo://app?vid=2c67e6a0-a66a-43ce-b7f9-4e9ab72877ee"},"vehicle_type_id":"4","last_reported":1706825226,"current_range_meters":400,"station_id":"ce4bgk12rcd13ifvqbi0","pricing_plan_id":"free"},{"bike_id":"3c52475b-642c-4f7d-979c-7f37eaa462b9","system_id":"levelo_inurba_marseille","lat":43.304278,"lon":5.388868,"is_reserved":false,"is_disabled":false,"rental_uris":{"android":"levelo://app?vid=3c52475b-642c-4f7d-979c-7f37eaa462b9","ios":"levelo://app?vid=3c52475b-642c-4f7d-979c-7f37eaa462b9"},"vehicle_type_id":"4","last_reported":1706825226,"current_range_meters":19600,"station_id":"ce4bgk12rcd13ifvqbi0","pricing_plan_id":"free"},{"bike_id":"80d0ab08-a96a-452c-9fba-c4a6ac067f58","system_id":"levelo_inurba_marseille","lat":43.297687,"lon":5.38115,"is_reserved":false,"is_disabled":false,"rental_uris":{"android":"levelo://app?vid=80d0ab08-a96a-452c-9fba-c4a6ac067f58","ios":"levelo://app?vid=80d0ab08-a96a-452c-9fba-c4a6ac067f58"},"vehicle_type_id":"4","last_reported":1706825226,"current_range_meters":25600,"station_id":"ce4bgip2rcd13ifvqbb0","pricing_plan_id":"free"},{"bike_id":"67272d4c-5d0c-4edf-a12e-1790b8a03d98","system_id":"levelo_inurba_marseille","lat":43.31459,"lon":5.392105,"is_reserved":false,"is_disabled":false,"rental_uris":{"android":"levelo://app?vid=67272d4c-5d0c-4edf-a12e-1790b8a03d98","ios":"levelo://app?vid=67272d4c-5d0c-4edf-a12e-1790b8a03d98"},"vehicle_type_id":"4","last_reported":1706825226,"current_range_meters":15600,"station_id":"","pricing_plan_id":"free"},{"bike_id":"f733ded9-ad8e-4290-b735-293a40c46ef8","system_id":"levelo_inurba_marseille","lat":43.29523,"lon":5.37499,"is_reserved":false,"is_disabled":false,"rental_uris":{"android":"levelo://app?vid=f733ded9-ad8e-4290-b735-293a40c46ef8","ios":"levelo://app?vid=f733ded9-ad8e-4290-b735-293a40c46ef8"},"vehicle_type_id":"4","last_reported":1706825226,"current_range_meters":0,"station_id":"ce4bgkp2rcd13ifvqbmg","pricing_plan_id":"free"},{"bike_id":"2a37d63c-d71d-4e9b-a9b7-8c3c2525a16f","system_id":"levelo_inurba_marseille","lat":43.32367,"lon":5.388836,"is_reserved":false,"is_disabled":false,"rental_uris":{"android":"levelo://app?vid=2a37d63c-d71d-4e9b-a9b7-8c3c2525a16f","ios":"levelo://app?vid=2a37d63c-d71d-4e9b-a9b7-8c3c2525a16f"},"vehicle_type_id":"4","last_reported":1706825226,"current_range_meters":5200,"station_id":"ce4bhqp2rcd13ifvqhog","pricing_plan_id":"free"},{"bike_id":"7ab581a0-3933-4376-b965-8072a9b2dd64","system_id":"levelo_inurba_marseille","lat":43.32367,"lon":5.388836,"is_reserved":false,"is_disabled":false,"rental_uris":{"android":"levelo://app?vid=7ab581a0-3933-4376-b965-8072a9b2dd64","ios":"levelo://app?vid=7ab581a0-3933-4376-b965-8072a9b2dd64"},"vehicle_type_id":"4","last_reported":1706825226,"current_range_meters":3600,"station_id":"ce4bhqp2rcd13ifvqhog","pricing_plan_id":"free"},{"bike_id":"df49dca8-eff4-4fb6-b5ec-7abf9e25044f","system_id":"levelo_inurba_marseille","lat":43.32367,"lon":5.388836,"is_reserved":false,"is_disabled":false,"rental_uris":{"android":"levelo://app?vid=df49dca8-eff4-4fb6-b5ec-7abf9e25044f","ios":"levelo://app?vid=df49dca8-eff4-4fb6-b5ec-7abf9e25044f"},"vehicle_type_id":"4","last_reported":1706825226,"current_range_meters":13600,"station_id":"ce4bhqp2rcd13ifvqhog","pricing_plan_id":"free"},{"bike_id":"50e7ecc8-37e3-4fdf-8029-d6592c9bdba6","system_id":"levelo_inurba_marseille","lat":43.32367,"lon":5.388836,"is_reserved":false,"is_disabled":false,"rental_uris":{"android":"levelo://app?vid=50e7ecc8-37e3-4fdf-8029-d6592c9bdba6","ios":"levelo://app?vid=50e7ecc8-37e3-4fdf-8029-d6592c9bdba6"},"vehicle_type_id":"4","last_reported":1706825226,"current_range_meters":9200,"station_id":"ce4bhqp2rcd13ifvqhog","pricing_plan_id":"free"},{"bike_id":"d245749e-1cc3-4f73-8b63-addd261ec499","system_id":"levelo_inurba_marseille","lat":43.32367,"lon":5.388836,"is_reserved":false,"is_disabled":false,"rental_uris":{"android":"levelo://app?vid=d245749e-1cc3-4f73-8b63-addd261ec499","ios":"levelo://app?vid=d245749e-1cc3-4f73-8b63-addd261ec499"},"vehicle_type_id":"4","last_reported":1706825226,"current_range_meters":4800,"station_id":"ce4bhqp2rcd13ifvqhog","pricing_plan_id":"free"},{"bike_id":"ba6df169-e42e-41e1-9099-8133b958ca2c","system_id":"levelo_inurba_marseille","lat":43.32367,"lon":5.388836,"is_reserved":false,"is_disabled":false,"rental_uris":{"android":"levelo://app?vid=ba6df169-e42e-41e1-9099-8133b958ca2c","ios":"levelo://app?vid=ba6df169-e42e-41e1-9099-8133b958ca2c"},"vehicle_type_id":"4","last_reported":1706825226,"current_range_meters":4400,"station_id":"ce4bhqp2rcd13ifvqhog","pricing_plan_id":"free"},{"bike_id":"5118de90-c727-4c12-bf98-99f5b63d7830","system_id":"levelo_inurba_marseille","lat":43.32367,"lon":5.388836,"is_reserved":false,"is_disabled":false,"rental_uris":{"android":"levelo://app?vid=5118de90-c727-4c12-bf98-99f5b63d7830","ios":"levelo://app?vid=5118de90-c727-4c12-bf98-99f5b63d7830"},"vehicle_type_id":"4","last_reported":1706825226,"current_range_meters":4800,"station_id":"ce4bhqp2rcd13ifvqhog","pricing_plan_id":"free"},{"bike_id":"efa6bd51-c94f-4107-9e97-437d3697b8cb","system_id":"levelo_inurba_marseille","lat":43.32367,"lon":5.388836,"is_reserved":false,"is_disabled":false,"rental_uris":{"android":"levelo://app?vid=efa6bd51-c94f-4107-9e97-437d3697b8cb","ios":"levelo://app?vid=efa6bd51-c94f-4107-9e97-437d3697b8cb"},"vehicle_type_id":"4","last_reported":1706825226,"current_range_meters":5200,"station_id":"ce4bhqp2rcd13ifvqhog","pricing_plan_id":"free"},{"bike_id":"8a95fa2d-22e9-49e9-b83e-c425ecfb1916","system_id":"levelo_inurba_marseille","lat":43.32371,"lon":5.388821,"is_reserved":false,"is_disabled":false,"rental_uris":{"android":"levelo://app?vid=8a95fa2d-22e9-49e9-b83e-c425ecfb1916","ios":"levelo://app?vid=8a95fa2d-22e9-49e9-b83e-c425ecfb1916"},"vehicle_type_id":"4","last_reported":1706825226,"current_range_meters":26000,"station_id":"ce4bhqp2rcd13ifvqhog","pricing_plan_id":"free"},{"bike_id":"78e54708-26d6-4641-ba3a-56fab91b7e0e","system_id":"levelo_inurba_marseille","lat":43.29601,"lon":5.381084,"is_reserved":false,"is_disabled":false,"rental_uris":{"android":"levelo://app?vid=78e54708-26d6-4641-ba3a-56fab91b7e0e","ios":"levelo://app?vid=78e54708-26d6-4641-ba3a-56fab91b7e0e"},"vehicle_type_id":"4","last_reported":1706825226,"current_range_meters":0,"station_id":"ce4bgl12rcd13ifvqbo0","pricing_plan_id":"free"},{"bike_id":"ce65d65d-0811-486a-a293-ea2aa489aaab","system_id":"levelo_inurba_marseille","lat":43.29597,"lon":5.38088,"is_reserved":false,"is_disabled":false,"rental_uris":{"android":"levelo://app?vid=ce65d65d-0811-486a-a293-ea2aa489aaab","ios":"levelo://app?vid=ce65d65d-0811-486a-a293-ea2aa489aaab"},"vehicle_type_id":"4","last_reported":1706825226,"current_range_meters":0,"station_id":"ce4bgl12rcd13ifvqbo0","pricing_plan_id":"free"},{"bike_id":"7ec023d8-344e-4098-b35f-d434cfb9c3fa","system_id":"levelo_inurba_marseille","lat":43.32367,"lon":5.388836,"is_reserved":false,"is_disabled":false,"rental_uris":{"android":"levelo://app?vid=7ec023d8-344e-4098-b35f-d434cfb9c3fa","ios":"levelo://app?vid=7ec023d8-344e-4098-b35f-d434cfb9c3fa"},"vehicle_type_id":"4","last_reported":1706825226,"current_range_meters":15600,"station_id":"ce4bhqp2rcd13ifvqhog","pricing_plan_id":"free"},{"bike_id":"9c3723f9-a95c-446f-b4f2-6095c4fc7d4d","system_id":"levelo_inurba_marseille","lat":43.292749,"lon":5.368402,"is_reserved":false,"is_disabled":false,"rental_uris":{"android":"levelo://app?vid=9c3723f9-a95c-446f-b4f2-6095c4fc7d4d","ios":"levelo://app?vid=9c3723f9-a95c-446f-b4f2-6095c4fc7d4d"},"vehicle_type_id":"4","last_reported":1706825226,"current_range_meters":10000,"station_id":"ce4bhbp2rcd13ifvqesg","pricing_plan_id":"free"},{"bike_id":"46ce8125-9a91-43e2-8ea4-9a1c7b4a6327","system_id":"levelo_inurba_marseille","lat":43.294162,"lon":5.386292,"is_reserved":false,"is_disabled":false,"rental_uris":{"android":"levelo://app?vid=46ce8125-9a91-43e2-8ea4-9a1c7b4a6327","ios":"levelo://app?vid=46ce8125-9a91-43e2-8ea4-9a1c7b4a6327"},"vehicle_type_id":"4","last_reported":1706825226,"current_range_meters":15200,"station_id":"ce4bh2h2rcd13ifvqdh0","pricing_plan_id":"free"},{"bike_id":"237b1e42-478c-4370-b1ca-0dcb89e5b62b","system_id":"levelo_inurba_marseille","lat":43.292749,"lon":5.368402,"is_reserved":false,"is_disabled":false,"rental_uris":{"android":"levelo://app?vid=237b1e42-478c-4370-b1ca-0dcb89e5b62b","ios":"levelo://app?vid=237b1e42-478c-4370-b1ca-0dcb89e5b62b"},"vehicle_type_id":"4","last_reported":1706825226,"current_range_meters":0,"station_id":"ce4bhbp2rcd13ifvqesg","pricing_plan_id":"free"},{"bike_id":"5535d129-8743-400a-bd2c-5f51d3a0807c","system_id":"levelo_inurba_marseille","lat":43.29268,"lon":5.3684,"is_reserved":false,"is_disabled":false,"rental_uris":{"android":"levelo://app?vid=5535d129-8743-400a-bd2c-5f51d3a0807c","ios":"levelo://app?vid=5535d129-8743-400a-bd2c-5f51d3a0807c"},"vehicle_type_id":"4","last_reported":1706825226,"current_range_meters":22800,"station_id":"ce4bhbp2rcd13ifvqesg","pricing_plan_id":"free"},{"bike_id":"8cf46eff-a068-4f15-81e3-a2c9c1291c7c","system_id":"levelo_inurba_marseille","lat":43.29267,"lon":5.36842,"is_reserved":false,"is_disabled":false,"rental_uris":{"android":"levelo://app?vid=8cf46eff-a068-4f15-81e3-a2c9c1291c7c","ios":"levelo://app?vid=8cf46eff-a068-4f15-81e3-a2c9c1291c7c"},"vehicle_type_id":"4","last_reported":1706825226,"current_range_meters":9200,"station_id":"ce4bhbp2rcd13ifvqesg","pricing_plan_id":"free"},{"bike_id":"594c3abe-02dc-4cca-95f4-15432c0d7b68","system_id":"levelo_inurba_marseille","lat":43.300852,"lon":5.390859,"is_reserved":false,"is_disabled":false,"rental_uris":{"android":"levelo://app?vid=594c3abe-02dc-4cca-95f4-15432c0d7b68","ios":"levelo://app?vid=594c3abe-02dc-4cca-95f4-15432c0d7b68"},"vehicle_type_id":"4","last_reported":1706825226,"current_range_meters":11600,"station_id":"ce4bh192rcd13ifvqdb0","pricing_plan_id":"free"},{"bike_id":"33d48000-61d8-4717-bc64-ed83eb8a7251","system_id":"levelo_inurba_marseille","lat":43.30085,"lon":5.390856,"is_reserved":false,"is_disabled":false,"rental_uris":{"android":"levelo://app?vid=33d48000-61d8-4717-bc64-ed83eb8a7251","ios":"levelo://app?vid=33d48000-61d8-4717-bc64-ed83eb8a7251"},"vehicle_type_id":"4","last_reported":1706825226,"current_range_meters":19600,"station_id":"ce4bh192rcd13ifvqdb0","pricing_plan_id":"free"},{"bike_id":"246d8dbf-59ba-460d-bc5f-cab8e44423ff","system_id":"levelo_inurba_marseille","lat":43.298764,"lon":5.388973,"is_reserved":false,"is_disabled":false,"rental_uris":{"android":"levelo://app?vid=246d8dbf-59ba-460d-bc5f-cab8e44423ff","ios":"levelo://app?vid=246d8dbf-59ba-460d-bc5f-cab8e44423ff"},"vehicle_type_id":"4","last_reported":1706825226,"current_range_meters":25200,"station_id":"ce4bh392rcd13ifvqdl0","pricing_plan_id":"free"},{"bike_id":"3cb84d99-a630-4d0d-b151-4386949045dd","system_id":"levelo_inurba_marseille","lat":43.298764,"lon":5.388973,"is_reserved":false,"is_disabled":false,"rental_uris":{"android":"levelo://app?vid=3cb84d99-a630-4d0d-b151-4386949045dd","ios":"levelo://app?vid=3cb84d99-a630-4d0d-b151-4386949045dd"},"vehicle_type_id":"4","last_reported":1706825226,"current_range_meters":3600,"station_id":"ce4bh392rcd13ifvqdl0","pricing_plan_id":"free"},{"bike_id":"fd1ccdb4-b72e-4037-9e33-7d5f31ad140c","system_id":"levelo_inurba_marseille","lat":43.313215,"lon":5.396853,"is_reserved":false,"is_disabled":false,"rental_uris":{"android":"levelo://app?vid=fd1ccdb4-b72e-4037-9e33-7d5f31ad140c","ios":"levelo://app?vid=fd1ccdb4-b72e-4037-9e33-7d5f31ad140c"},"vehicle_type_id":"4","last_reported":1706825226,"current_range_meters":14400,"station_id":"ce4bgvp2rcd13ifvqcu0","pricing_plan_id":"free"},{"bike_id":"8bbf5a05-d181-4735-a693-3f896fa63df7","system_id":"levelo_inurba_marseille","lat":43.291994,"lon":5.357886,"is_reserved":false,"is_disabled":false,"rental_uris":{"android":"levelo://app?vid=8bbf5a05-d181-4735-a693-3f896fa63df7","ios":"levelo://app?vid=8bbf5a05-d181-4735-a693-3f896fa63df7"},"vehicle_type_id":"4","last_reported":1706825226,"current_range_meters":11200,"station_id":"ce4bhb12rcd13ifvqel0","pricing_plan_id":"free"},{"bike_id":"3b9dd3a2-44b0-42b0-bc41-7c67164478b9","system_id":"levelo_inurba_marseille","lat":43.313203,"lon":5.396873,"is_reserved":false,"is_disabled":false,"rental_uris":{"android":"levelo://app?vid=3b9dd3a2-44b0-42b0-bc41-7c67164478b9","ios":"levelo://app?vid=3b9dd3a2-44b0-42b0-bc41-7c67164478b9"},"vehicle_type_id":"4","last_reported":1706825226,"current_range_meters":0,"station_id":"ce4bgvp2rcd13ifvqcu0","pricing_plan_id":"free"},{"bike_id":"7890cfde-8d4e-449d-ba19-8d40b6428c90","system_id":"levelo_inurba_marseille","lat":43.31327,"lon":5.39688,"is_reserved":false,"is_disabled":false,"rental_uris":{"android":"levelo://app?vid=7890cfde-8d4e-449d-ba19-8d40b6428c90","ios":"levelo://app?vid=7890cfde-8d4e-449d-ba19-8d40b6428c90"},"vehicle_type_id":"4","last_reported":1706825226,"current_range_meters":6800,"station_id":"ce4bgvp2rcd13ifvqcu0","pricing_plan_id":"free"},{"bike_id":"87727315-b2e8-4741-8513-c6fa9f41bf10","system_id":"levelo_inurba_marseille","lat":43.31328,"lon":5.39688,"is_reserved":false,"is_disabled":false,"rental_uris":{"android":"levelo://app?vid=87727315-b2e8-4741-8513-c6fa9f41bf10","ios":"levelo://app?vid=87727315-b2e8-4741-8513-c6fa9f41bf10"},"vehicle_type_id":"4","last_reported":1706825226,"current_range_meters":6800,"station_id":"ce4bgvp2rcd13ifvqcu0","pricing_plan_id":"free"},{"bike_id":"f448e916-3647-423b-a728-5f525867e401","system_id":"levelo_inurba_marseille","lat":43.31335,"lon":5.39688,"is_reserved":false,"is_disabled":false,"rental_uris":{"android":"levelo://app?vid=f448e916-3647-423b-a728-5f525867e401","ios":"levelo://app?vid=f448e916-3647-423b-a728-5f525867e401"},"vehicle_type_id":"4","last_reported":1706825226,"current_range_meters":5600,"station_id":"ce4bgvp2rcd13ifvqcu0","pricing_plan_id":"free"},{"bike_id":"7f911037-81fc-42db-a46e-20ae80ece393","system_id":"levelo_inurba_marseille","lat":43.3133,"lon":5.39689,"is_reserved":false,"is_disabled":false,"rental_uris":{"android":"levelo://app?vid=7f911037-81fc-42db-a46e-20ae80ece393","ios":"levelo://app?vid=7f911037-81fc-42db-a46e-20ae80ece393"},"vehicle_type_id":"4","last_reported":1706825226,"current_range_meters":5200,"station_id":"ce4bgvp2rcd13ifvqcu0","pricing_plan_id":"free"},{"bike_id":"aafdb0b4-4077-4c4c-aec9-9ec5ca1fc30b","system_id":"levelo_inurba_marseille","lat":43.31322,"lon":5.3969,"is_reserved":false,"is_disabled":false,"rental_uris":{"android":"levelo://app?vid=aafdb0b4-4077-4c4c-aec9-9ec5ca1fc30b","ios":"levelo://app?vid=aafdb0b4-4077-4c4c-aec9-9ec5ca1fc30b"},"vehicle_type_id":"4","last_reported":1706825226,"current_range_meters":400,"station_id":"ce4bgvp2rcd13ifvqcu0","pricing_plan_id":"free"},{"bike_id":"9bca7773-0269-4da2-84e2-2245ac834de6","system_id":"levelo_inurba_marseille","lat":43.31325,"lon":5.39691,"is_reserved":false,"is_disabled":false,"rental_uris":{"android":"levelo://app?vid=9bca7773-0269-4da2-84e2-2245ac834de6","ios":"levelo://app?vid=9bca7773-0269-4da2-84e2-2245ac834de6"},"vehicle_type_id":"4","last_reported":1706825226,"current_range_meters":2800,"station_id":"ce4bgvp2rcd13ifvqcu0","pricing_plan_id":"free"},{"bike_id":"eb402e66-ea55-41c3-88f1-8afbe8afb56e","system_id":"levelo_inurba_marseille","lat":43.31325,"lon":5.39692,"is_reserved":false,"is_disabled":false,"rental_uris":{"android":"levelo://app?vid=eb402e66-ea55-41c3-88f1-8afbe8afb56e","ios":"levelo://app?vid=eb402e66-ea55-41c3-88f1-8afbe8afb56e"},"vehicle_type_id":"4","last_reported":1706825226,"current_range_meters":2400,"station_id":"ce4bgvp2rcd13ifvqcu0","pricing_plan_id":"free"},{"bike_id":"a78cc2da-28af-4a67-adfa-a375f706f786","system_id":"levelo_inurba_marseille","lat":43.291994,"lon":5.357886,"is_reserved":false,"is_disabled":false,"rental_uris":{"android":"levelo://app?vid=a78cc2da-28af-4a67-adfa-a375f706f786","ios":"levelo://app?vid=a78cc2da-28af-4a67-adfa-a375f706f786"},"vehicle_type_id":"4","last_reported":1706825226,"current_range_meters":0,"station_id":"ce4bhb12rcd13ifvqel0","pricing_plan_id":"free"},{"bike_id":"4e4365e4-a262-4917-9c3a-1ce9d4fd8b13","system_id":"levelo_inurba_marseille","lat":43.31359,"lon":5.39693,"is_reserved":false,"is_disabled":false,"rental_uris":{"android":"levelo://app?vid=4e4365e4-a262-4917-9c3a-1ce9d4fd8b13","ios":"levelo://app?vid=4e4365e4-a262-4917-9c3a-1ce9d4fd8b13"},"vehicle_type_id":"4","last_reported":1706825226,"current_range_meters":4400,"station_id":"ce4bgvp2rcd13ifvqcu0","pricing_plan_id":"free"},{"bike_id":"b67d32b6-d53a-4bc3-ac8e-4086407151f4","system_id":"levelo_inurba_marseille","lat":43.313258,"lon":5.396946,"is_reserved":false,"is_disabled":false,"rental_uris":{"android":"levelo://app?vid=b67d32b6-d53a-4bc3-ac8e-4086407151f4","ios":"levelo://app?vid=b67d32b6-d53a-4bc3-ac8e-4086407151f4"},"vehicle_type_id":"4","last_reported":1706825226,"current_range_meters":2800,"station_id":"ce4bgvp2rcd13ifvqcu0","pricing_plan_id":"free"},{"bike_id":"da7ac8f2-882f-498e-82b3-621fabfbfcc3","system_id":"levelo_inurba_marseille","lat":43.309038,"lon":5.396546,"is_reserved":false,"is_disabled":false,"rental_uris":{"android":"levelo://app?vid=da7ac8f2-882f-498e-82b3-621fabfbfcc3","ios":"levelo://app?vid=da7ac8f2-882f-498e-82b3-621fabfbfcc3"},"vehicle_type_id":"4","last_reported":1706825226,"current_range_meters":12800,"station_id":"ce4bh012rcd13ifvqcv0","pricing_plan_id":"free"},{"bike_id":"6c89bae1-942b-48ad-b5ba-aace7c5ee035","system_id":"levelo_inurba_marseille","lat":43.309047,"lon":5.396551,"is_reserved":false,"is_disabled":false,"rental_uris":{"android":"levelo://app?vid=6c89bae1-942b-48ad-b5ba-aace7c5ee035","ios":"levelo://app?vid=6c89bae1-942b-48ad-b5ba-aace7c5ee035"},"vehicle_type_id":"4","last_reported":1706825226,"current_range_meters":16000,"station_id":"ce4bh012rcd13ifvqcv0","pricing_plan_id":"free"},{"bike_id":"b64ad6af-0121-4082-bd0f-850233b40b7e","system_id":"levelo_inurba_marseille","lat":43.309038,"lon":5.396546,"is_reserved":false,"is_disabled":false,"rental_uris":{"android":"levelo://app?vid=b64ad6af-0121-4082-bd0f-850233b40b7e","ios":"levelo://app?vid=b64ad6af-0121-4082-bd0f-850233b40b7e"},"vehicle_type_id":"4","last_reported":1706825226,"current_range_meters":14400,"station_id":"ce4bh012rcd13ifvqcv0","pricing_plan_id":"free"},{"bike_id":"87989443-7fa3-4b52-a83a-15f62c484860","system_id":"levelo_inurba_marseille","lat":43.31326,"lon":5.397,"is_reserved":false,"is_disabled":false,"rental_uris":{"android":"levelo://app?vid=87989443-7fa3-4b52-a83a-15f62c484860","ios":"levelo://app?vid=87989443-7fa3-4b52-a83a-15f62c484860"},"vehicle_type_id":"4","last_reported":1706825226,"current_range_meters":29600,"station_id":"ce4bgvp2rcd13ifvqcu0","pricing_plan_id":"free"},{"bike_id":"7ef4f39b-f01e-4e5a-ad48-2d3c0afda74b","system_id":"levelo_inurba_marseille","lat":43.30884,"lon":5.39656,"is_reserved":false,"is_disabled":false,"rental_uris":{"android":"levelo://app?vid=7ef4f39b-f01e-4e5a-ad48-2d3c0afda74b","ios":"levelo://app?vid=7ef4f39b-f01e-4e5a-ad48-2d3c0afda74b"},"vehicle_type_id":"4","last_reported":1706825226,"current_range_meters":0,"station_id":"ce4bh012rcd13ifvqcv0","pricing_plan_id":"free"},{"bike_id":"87f346ed-bfc3-40a8-995b-0c1363fb1aaa","system_id":"levelo_inurba_marseille","lat":43.29539,"lon":5.38544,"is_reserved":false,"is_disabled":false,"rental_uris":{"android":"levelo://app?vid=87f346ed-bfc3-40a8-995b-0c1363fb1aaa","ios":"levelo://app?vid=87f346ed-bfc3-40a8-995b-0c1363fb1aaa"},"vehicle_type_id":"4","last_reported":1706825226,"current_range_meters":0,"station_id":"ce4bgih2rcd13ifvqba0","pricing_plan_id":"free"},{"bike_id":"887a27a1-93b0-4848-a96b-af153398c608","system_id":"levelo_inurba_marseille","lat":43.2952,"lon":5.38544,"is_reserved":false,"is_disabled":false,"rental_uris":{"android":"levelo://app?vid=887a27a1-93b0-4848-a96b-af153398c608","ios":"levelo://app?vid=887a27a1-93b0-4848-a96b-af153398c608"},"vehicle_type_id":"4","last_reported":1706825226,"current_range_meters":0,"station_id":"ce4bgih2rcd13ifvqba0","pricing_plan_id":"free"},{"bike_id":"74b381b2-4847-47b5-a503-bf2ec563a87d","system_id":"levelo_inurba_marseille","lat":43.290624,"lon":5.359245,"is_reserved":false,"is_disabled":false,"rental_uris":{"android":"levelo://app?vid=74b381b2-4847-47b5-a503-bf2ec563a87d","ios":"levelo://app?vid=74b381b2-4847-47b5-a503-bf2ec563a87d"},"vehicle_type_id":"4","last_reported":1706825226,"current_range_meters":15600,"station_id":"ce4bha92rcd13ifvqeg0","pricing_plan_id":"free"},{"bike_id":"b4b16144-62c4-466d-a1bc-60ceadfcc9a6","system_id":"levelo_inurba_marseille","lat":43.32921,"lon":5.388507,"is_reserved":false,"is_disabled":false,"rental_uris":{"android":"levelo://app?vid=b4b16144-62c4-466d-a1bc-60ceadfcc9a6","ios":"levelo://app?vid=b4b16144-62c4-466d-a1bc-60ceadfcc9a6"},"vehicle_type_id":"4","last_reported":1706825226,"current_range_meters":18800,"station_id":"","pricing_plan_id":"free"},{"bike_id":"51979d1f-ec71-4eaf-939a-a4c322f0a4d2","system_id":"levelo_inurba_marseille","lat":43.30215,"lon":5.39467,"is_reserved":false,"is_disabled":false,"rental_uris":{"android":"levelo://app?vid=51979d1f-ec71-4eaf-939a-a4c322f0a4d2","ios":"levelo://app?vid=51979d1f-ec71-4eaf-939a-a4c322f0a4d2"},"vehicle_type_id":"4","last_reported":1706825226,"current_range_meters":0,"station_id":"ce4bh0p2rcd13ifvqd70","pricing_plan_id":"free"},{"bike_id":"0d0aa71d-13e3-4847-b4f1-03b40cdcccfe","system_id":"levelo_inurba_marseille","lat":43.290624,"lon":5.359245,"is_reserved":false,"is_disabled":false,"rental_uris":{"android":"levelo://app?vid=0d0aa71d-13e3-4847-b4f1-03b40cdcccfe","ios":"levelo://app?vid=0d0aa71d-13e3-4847-b4f1-03b40cdcccfe"},"vehicle_type_id":"4","last_reported":1706825226,"current_range_meters":0,"station_id":"ce4bha92rcd13ifvqeg0","pricing_plan_id":"free"},{"bike_id":"6c7be141-7772-461f-b145-baabdf0c1f24","system_id":"levelo_inurba_marseille","lat":43.290631,"lon":5.359244,"is_reserved":false,"is_disabled":false,"rental_uris":{"android":"levelo://app?vid=6c7be141-7772-461f-b145-baabdf0c1f24","ios":"levelo://app?vid=6c7be141-7772-461f-b145-baabdf0c1f24"},"vehicle_type_id":"4","last_reported":1706825226,"current_range_meters":18000,"station_id":"ce4bha92rcd13ifvqeg0","pricing_plan_id":"free"},{"bike_id":"5cccaa3a-8b18-4508-a20f-13b822480392","system_id":"levelo_inurba_marseille","lat":43.290624,"lon":5.359245,"is_reserved":false,"is_disabled":false,"rental_uris":{"android":"levelo://app?vid=5cccaa3a-8b18-4508-a20f-13b822480392","ios":"levelo://app?vid=5cccaa3a-8b18-4508-a20f-13b822480392"},"vehicle_type_id":"4","last_reported":1706825226,"current_range_meters":24800,"station_id":"ce4bha92rcd13ifvqeg0","pricing_plan_id":"free"},{"bike_id":"2c1e47ad-3478-424c-8c66-23a600b1f0dc","system_id":"levelo_inurba_marseille","lat":43.290441,"lon":5.359123,"is_reserved":false,"is_disabled":false,"rental_uris":{"android":"levelo://app?vid=2c1e47ad-3478-424c-8c66-23a600b1f0dc","ios":"levelo://app?vid=2c1e47ad-3478-424c-8c66-23a600b1f0dc"},"vehicle_type_id":"4","last_reported":1706825226,"current_range_meters":8800,"station_id":"","pricing_plan_id":"free"},{"bike_id":"93552d75-c273-4764-a055-d32d1e1042ec","system_id":"levelo_inurba_marseille","lat":43.290319,"lon":5.375732,"is_reserved":false,"is_disabled":false,"rental_uris":{"android":"levelo://app?vid=93552d75-c273-4764-a055-d32d1e1042ec","ios":"levelo://app?vid=93552d75-c273-4764-a055-d32d1e1042ec"},"vehicle_type_id":"4","last_reported":1706825226,"current_range_meters":0,"station_id":"ce4bh692rcd13ifvqe90","pricing_plan_id":"free"},{"bike_id":"0e3a1878-b629-4fc6-955d-51c9eb313e72","system_id":"levelo_inurba_marseille","lat":43.290327,"lon":5.375711,"is_reserved":false,"is_disabled":false,"rental_uris":{"android":"levelo://app?vid=0e3a1878-b629-4fc6-955d-51c9eb313e72","ios":"levelo://app?vid=0e3a1878-b629-4fc6-955d-51c9eb313e72"},"vehicle_type_id":"4","last_reported":1706825226,"current_range_meters":2800,"station_id":"ce4bh692rcd13ifvqe90","pricing_plan_id":"free"},{"bike_id":"aa0e1393-0984-410a-9404-e334d86c20cc","system_id":"levelo_inurba_marseille","lat":43.29416,"lon":5.38625,"is_reserved":false,"is_disabled":false,"rental_uris":{"android":"levelo://app?vid=aa0e1393-0984-410a-9404-e334d86c20cc","ios":"levelo://app?vid=aa0e1393-0984-410a-9404-e334d86c20cc"},"vehicle_type_id":"4","last_reported":1706825226,"current_range_meters":0,"station_id":"ce4bh2h2rcd13ifvqdh0","pricing_plan_id":"free"},{"bike_id":"67fe4afa-5a13-478d-9ca2-c203ca2214b0","system_id":"levelo_inurba_marseille","lat":43.289184,"lon":5.366408,"is_reserved":false,"is_disabled":false,"rental_uris":{"android":"levelo://app?vid=67fe4afa-5a13-478d-9ca2-c203ca2214b0","ios":"levelo://app?vid=67fe4afa-5a13-478d-9ca2-c203ca2214b0"},"vehicle_type_id":"4","last_reported":1706825226,"current_range_meters":0,"station_id":"ce4bhap2rcd13ifvqek0","pricing_plan_id":"free"},{"bike_id":"d0b61783-3ed3-4e27-905c-351ee1c04d7d","system_id":"levelo_inurba_marseille","lat":43.289184,"lon":5.366408,"is_reserved":false,"is_disabled":false,"rental_uris":{"android":"levelo://app?vid=d0b61783-3ed3-4e27-905c-351ee1c04d7d","ios":"levelo://app?vid=d0b61783-3ed3-4e27-905c-351ee1c04d7d"},"vehicle_type_id":"4","last_reported":1706825226,"current_range_meters":31200,"station_id":"ce4bhap2rcd13ifvqek0","pricing_plan_id":"free"},{"bike_id":"39a5b2fc-1160-473c-a9ce-f66035edb8b9","system_id":"levelo_inurba_marseille","lat":43.289184,"lon":5.366408,"is_reserved":false,"is_disabled":false,"rental_uris":{"android":"levelo://app?vid=39a5b2fc-1160-473c-a9ce-f66035edb8b9","ios":"levelo://app?vid=39a5b2fc-1160-473c-a9ce-f66035edb8b9"},"vehicle_type_id":"4","last_reported":1706825226,"current_range_meters":27600,"station_id":"ce4bhap2rcd13ifvqek0","pricing_plan_id":"free"},{"bike_id":"085bdf6f-153c-45a1-9172-8645df5a4860","system_id":"levelo_inurba_marseille","lat":43.295169,"lon":5.390426,"is_reserved":false,"is_disabled":false,"rental_uris":{"android":"levelo://app?vid=085bdf6f-153c-45a1-9172-8645df5a4860","ios":"levelo://app?vid=085bdf6f-153c-45a1-9172-8645df5a4860"},"vehicle_type_id":"4","last_reported":1706825226,"current_range_meters":0,"station_id":"ce4bh3p2rcd13ifvqdp0","pricing_plan_id":"free"},{"bike_id":"b0c58f94-81dd-4919-aef7-11df3eedefa1","system_id":"levelo_inurba_marseille","lat":43.289436,"lon":5.36397,"is_reserved":false,"is_disabled":false,"rental_uris":{"android":"levelo://app?vid=b0c58f94-81dd-4919-aef7-11df3eedefa1","ios":"levelo://app?vid=b0c58f94-81dd-4919-aef7-11df3eedefa1"},"vehicle_type_id":"4","last_reported":1706825226,"current_range_meters":0,"station_id":"ce4bhc92rcd13ifvqetg","pricing_plan_id":"free"},{"bike_id":"2bfde91a-d68f-4ae7-99ce-7e2414dfbf22","system_id":"levelo_inurba_marseille","lat":43.289184,"lon":5.366408,"is_reserved":false,"is_disabled":false,"rental_uris":{"android":"levelo://app?vid=2bfde91a-d68f-4ae7-99ce-7e2414dfbf22","ios":"levelo://app?vid=2bfde91a-d68f-4ae7-99ce-7e2414dfbf22"},"vehicle_type_id":"4","last_reported":1706825226,"current_range_meters":12000,"station_id":"ce4bhap2rcd13ifvqek0","pricing_plan_id":"free"},{"bike_id":"2f12ef4e-92f0-45c3-8d3f-38161ca29894","system_id":"levelo_inurba_marseille","lat":43.289421,"lon":5.364008,"is_reserved":false,"is_disabled":false,"rental_uris":{"android":"levelo://app?vid=2f12ef4e-92f0-45c3-8d3f-38161ca29894","ios":"levelo://app?vid=2f12ef4e-92f0-45c3-8d3f-38161ca29894"},"vehicle_type_id":"4","last_reported":1706825226,"current_range_meters":8800,"station_id":"ce4bhc92rcd13ifvqetg","pricing_plan_id":"free"},{"bike_id":"4e847c92-dde1-4833-b56a-d8b501af1d17","system_id":"levelo_inurba_marseille","lat":43.28923,"lon":5.36637,"is_reserved":false,"is_disabled":false,"rental_uris":{"android":"levelo://app?vid=4e847c92-dde1-4833-b56a-d8b501af1d17","ios":"levelo://app?vid=4e847c92-dde1-4833-b56a-d8b501af1d17"},"vehicle_type_id":"4","last_reported":1706825226,"current_range_meters":0,"station_id":"ce4bhap2rcd13ifvqek0","pricing_plan_id":"free"},{"bike_id":"beb09975-085a-462b-b6d7-1287d8e03ebe","system_id":"levelo_inurba_marseille","lat":43.304296,"lon":5.397513,"is_reserved":false,"is_disabled":false,"rental_uris":{"android":"levelo://app?vid=beb09975-085a-462b-b6d7-1287d8e03ebe","ios":"levelo://app?vid=beb09975-085a-462b-b6d7-1287d8e03ebe"},"vehicle_type_id":"4","last_reported":1706825226,"current_range_meters":13200,"station_id":"ce4bh092rcd13ifvqd20","pricing_plan_id":"free"},{"bike_id":"53494036-26a1-474d-a7c9-6ea425d3786b","system_id":"levelo_inurba_marseille","lat":43.292694,"lon":5.384421,"is_reserved":false,"is_disabled":false,"rental_uris":{"android":"levelo://app?vid=53494036-26a1-474d-a7c9-6ea425d3786b","ios":"levelo://app?vid=53494036-26a1-474d-a7c9-6ea425d3786b"},"vehicle_type_id":"4","last_reported":1706825226,"current_range_meters":0,"station_id":"ce4bh692rcd13ifvqea0","pricing_plan_id":"free"},{"bike_id":"75b6e8e6-efda-4bc9-95f5-ee09429214f5","system_id":"levelo_inurba_marseille","lat":43.304296,"lon":5.397513,"is_reserved":false,"is_disabled":false,"rental_uris":{"android":"levelo://app?vid=75b6e8e6-efda-4bc9-95f5-ee09429214f5","ios":"levelo://app?vid=75b6e8e6-efda-4bc9-95f5-ee09429214f5"},"vehicle_type_id":"4","last_reported":1706825226,"current_range_meters":28400,"station_id":"ce4bh092rcd13ifvqd20","pricing_plan_id":"free"},{"bike_id":"c60d0624-7a1b-4ddf-b1c1-c573dd039bbe","system_id":"levelo_inurba_marseille","lat":43.304296,"lon":5.397513,"is_reserved":false,"is_disabled":false,"rental_uris":{"android":"levelo://app?vid=c60d0624-7a1b-4ddf-b1c1-c573dd039bbe","ios":"levelo://app?vid=c60d0624-7a1b-4ddf-b1c1-c573dd039bbe"},"vehicle_type_id":"4","last_reported":1706825226,"current_range_meters":8400,"station_id":"ce4bh092rcd13ifvqd20","pricing_plan_id":"free"},{"bike_id":"afafbc31-1976-4f5a-95a3-0c85527eaa23","system_id":"levelo_inurba_marseille","lat":43.29261,"lon":5.38441,"is_reserved":false,"is_disabled":false,"rental_uris":{"android":"levelo://app?vid=afafbc31-1976-4f5a-95a3-0c85527eaa23","ios":"levelo://app?vid=afafbc31-1976-4f5a-95a3-0c85527eaa23"},"vehicle_type_id":"4","last_reported":1706825226,"current_range_meters":13200,"station_id":"ce4bh692rcd13ifvqea0","pricing_plan_id":"free"},{"bike_id":"93ade44b-2a51-4c8a-b182-b427ac53a566","system_id":"levelo_inurba_marseille","lat":43.29259,"lon":5.384453,"is_reserved":false,"is_disabled":false,"rental_uris":{"android":"levelo://app?vid=93ade44b-2a51-4c8a-b182-b427ac53a566","ios":"levelo://app?vid=93ade44b-2a51-4c8a-b182-b427ac53a566"},"vehicle_type_id":"4","last_reported":1706825226,"current_range_meters":0,"station_id":"ce4bh692rcd13ifvqea0","pricing_plan_id":"free"},{"bike_id":"f428f3c6-40e3-4e98-8836-14d6d973f610","system_id":"levelo_inurba_marseille","lat":43.290104,"lon":5.356111,"is_reserved":false,"is_disabled":false,"rental_uris":{"android":"levelo://app?vid=f428f3c6-40e3-4e98-8836-14d6d973f610","ios":"levelo://app?vid=f428f3c6-40e3-4e98-8836-14d6d973f610"},"vehicle_type_id":"4","last_reported":1706825226,"current_range_meters":22000,"station_id":"ce4bhb92rcd13ifvqen0","pricing_plan_id":"free"},{"bike_id":"049eaf35-90b8-4949-9dcf-a418dd118f7e","system_id":"levelo_inurba_marseille","lat":43.290103,"lon":5.356114,"is_reserved":false,"is_disabled":false,"rental_uris":{"android":"levelo://app?vid=049eaf35-90b8-4949-9dcf-a418dd118f7e","ios":"levelo://app?vid=049eaf35-90b8-4949-9dcf-a418dd118f7e"},"vehicle_type_id":"4","last_reported":1706825226,"current_range_meters":26400,"station_id":"ce4bhb92rcd13ifvqen0","pricing_plan_id":"free"},{"bike_id":"d1a3919a-4d91-4936-8746-5abf0e22cb8b","system_id":"levelo_inurba_marseille","lat":43.29092,"lon":5.3814,"is_reserved":false,"is_disabled":false,"rental_uris":{"android":"levelo://app?vid=d1a3919a-4d91-4936-8746-5abf0e22cb8b","ios":"levelo://app?vid=d1a3919a-4d91-4936-8746-5abf0e22cb8b"},"vehicle_type_id":"4","last_reported":1706825226,"current_range_meters":12400,"station_id":"ce4bh512rcd13ifvqe2g","pricing_plan_id":"free"},{"bike_id":"c8ea41b1-2fcc-4b84-b101-414f5e6af527","system_id":"levelo_inurba_marseille","lat":43.29092,"lon":5.3815,"is_reserved":false,"is_disabled":false,"rental_uris":{"android":"levelo://app?vid=c8ea41b1-2fcc-4b84-b101-414f5e6af527","ios":"levelo://app?vid=c8ea41b1-2fcc-4b84-b101-414f5e6af527"},"vehicle_type_id":"4","last_reported":1706825226,"current_range_meters":0,"station_id":"ce4bh512rcd13ifvqe2g","pricing_plan_id":"free"},{"bike_id":"0ce10028-6c98-4cc5-b377-3092755d25e6","system_id":"levelo_inurba_marseille","lat":43.297815,"lon":5.393548,"is_reserved":false,"is_disabled":false,"rental_uris":{"android":"levelo://app?vid=0ce10028-6c98-4cc5-b377-3092755d25e6","ios":"levelo://app?vid=0ce10028-6c98-4cc5-b377-3092755d25e6"},"vehicle_type_id":"4","last_reported":1706825226,"current_range_meters":5200,"station_id":"chh1huq6cuj3fo74tm60","pricing_plan_id":"free"},{"bike_id":"340e413c-433b-4b84-9618-83595c94d952","system_id":"levelo_inurba_marseille","lat":43.29787,"lon":5.393375,"is_reserved":false,"is_disabled":false,"rental_uris":{"android":"levelo://app?vid=340e413c-433b-4b84-9618-83595c94d952","ios":"levelo://app?vid=340e413c-433b-4b84-9618-83595c94d952"},"vehicle_type_id":"4","last_reported":1706825226,"current_range_meters":0,"station_id":"chh1huq6cuj3fo74tm60","pricing_plan_id":"free"},{"bike_id":"de0b2a19-a75b-4f1a-a843-bb85cf004731","system_id":"levelo_inurba_marseille","lat":43.29791,"lon":5.39342,"is_reserved":false,"is_disabled":false,"rental_uris":{"android":"levelo://app?vid=de0b2a19-a75b-4f1a-a843-bb85cf004731","ios":"levelo://app?vid=de0b2a19-a75b-4f1a-a843-bb85cf004731"},"vehicle_type_id":"4","last_reported":1706825226,"current_range_meters":19600,"station_id":"chh1huq6cuj3fo74tm60","pricing_plan_id":"free"},{"bike_id":"23f6a94a-d21d-4102-bf4f-330f762b5382","system_id":"levelo_inurba_marseille","lat":43.297815,"lon":5.393548,"is_reserved":false,"is_disabled":false,"rental_uris":{"android":"levelo://app?vid=23f6a94a-d21d-4102-bf4f-330f762b5382","ios":"levelo://app?vid=23f6a94a-d21d-4102-bf4f-330f762b5382"},"vehicle_type_id":"4","last_reported":1706825226,"current_range_meters":18000,"station_id":"chh1huq6cuj3fo74tm60","pricing_plan_id":"free"},{"bike_id":"5ef6c031-a2da-411e-ac46-bc5c9a72bb40","system_id":"levelo_inurba_marseille","lat":43.295247,"lon":5.390311,"is_reserved":false,"is_disabled":false,"rental_uris":{"android":"levelo://app?vid=5ef6c031-a2da-411e-ac46-bc5c9a72bb40","ios":"levelo://app?vid=5ef6c031-a2da-411e-ac46-bc5c9a72bb40"},"vehicle_type_id":"4","last_reported":1706825226,"current_range_meters":0,"station_id":"ce4bh3p2rcd13ifvqdp0","pricing_plan_id":"free"},{"bike_id":"129114f2-a34b-4a60-a3a4-89d0867f63f9","system_id":"levelo_inurba_marseille","lat":43.330442,"lon":5.389148,"is_reserved":false,"is_disabled":false,"rental_uris":{"android":"levelo://app?vid=129114f2-a34b-4a60-a3a4-89d0867f63f9","ios":"levelo://app?vid=129114f2-a34b-4a60-a3a4-89d0867f63f9"},"vehicle_type_id":"4","last_reported":1706825226,"current_range_meters":14000,"station_id":"ce4bhr92rcd13ifvqhrg","pricing_plan_id":"free"},{"bike_id":"4f3e8428-a987-4219-8d81-7eaf62aa4307","system_id":"levelo_inurba_marseille","lat":43.289743,"lon":5.378304,"is_reserved":false,"is_disabled":false,"rental_uris":{"android":"levelo://app?vid=4f3e8428-a987-4219-8d81-7eaf62aa4307","ios":"levelo://app?vid=4f3e8428-a987-4219-8d81-7eaf62aa4307"},"vehicle_type_id":"4","last_reported":1706825226,"current_range_meters":0,"station_id":"ce4bh9p2rcd13ifvqed0","pricing_plan_id":"free"},{"bike_id":"1b26e9c4-7fc6-49aa-9499-cf686af3f3aa","system_id":"levelo_inurba_marseille","lat":43.330442,"lon":5.389148,"is_reserved":false,"is_disabled":false,"rental_uris":{"android":"levelo://app?vid=1b26e9c4-7fc6-49aa-9499-cf686af3f3aa","ios":"levelo://app?vid=1b26e9c4-7fc6-49aa-9499-cf686af3f3aa"},"vehicle_type_id":"4","last_reported":1706825226,"current_range_meters":13200,"station_id":"ce4bhr92rcd13ifvqhrg","pricing_plan_id":"free"},{"bike_id":"3e5ca33c-5186-4dc3-aaba-f5d855ed2856","system_id":"levelo_inurba_marseille","lat":43.29526,"lon":5.39051,"is_reserved":false,"is_disabled":false,"rental_uris":{"android":"levelo://app?vid=3e5ca33c-5186-4dc3-aaba-f5d855ed2856","ios":"levelo://app?vid=3e5ca33c-5186-4dc3-aaba-f5d855ed2856"},"vehicle_type_id":"4","last_reported":1706825226,"current_range_meters":16000,"station_id":"ce4bh3p2rcd13ifvqdp0","pricing_plan_id":"free"},{"bike_id":"89a34f14-d13f-45aa-9f4f-7e98d36393f3","system_id":"levelo_inurba_marseille","lat":43.290094,"lon":5.381264,"is_reserved":false,"is_disabled":false,"rental_uris":{"android":"levelo://app?vid=89a34f14-d13f-45aa-9f4f-7e98d36393f3","ios":"levelo://app?vid=89a34f14-d13f-45aa-9f4f-7e98d36393f3"},"vehicle_type_id":"4","last_reported":1706825226,"current_range_meters":2800,"station_id":"ce4bh4p2rcd13ifvqe1g","pricing_plan_id":"free"},{"bike_id":"fc5e1abd-c6a8-49fe-a177-bd96f74a41e2","system_id":"levelo_inurba_marseille","lat":43.28856,"lon":5.358371,"is_reserved":false,"is_disabled":false,"rental_uris":{"android":"levelo://app?vid=fc5e1abd-c6a8-49fe-a177-bd96f74a41e2","ios":"levelo://app?vid=fc5e1abd-c6a8-49fe-a177-bd96f74a41e2"},"vehicle_type_id":"4","last_reported":1706825226,"current_range_meters":26000,"station_id":"ce4bhb12rcd13ifvqem0","pricing_plan_id":"free"},{"bike_id":"a2e4e29f-beda-4e41-9300-983cd9874ac9","system_id":"levelo_inurba_marseille","lat":43.288552,"lon":5.358674,"is_reserved":false,"is_disabled":false,"rental_uris":{"android":"levelo://app?vid=a2e4e29f-beda-4e41-9300-983cd9874ac9","ios":"levelo://app?vid=a2e4e29f-beda-4e41-9300-983cd9874ac9"},"vehicle_type_id":"4","last_reported":1706825226,"current_range_meters":17200,"station_id":"ce4bhb12rcd13ifvqem0","pricing_plan_id":"free"},{"bike_id":"74f792d7-04d3-4cc0-bbf9-4fbb7cac9085","system_id":"levelo_inurba_marseille","lat":43.28861,"lon":5.35834,"is_reserved":false,"is_disabled":false,"rental_uris":{"android":"levelo://app?vid=74f792d7-04d3-4cc0-bbf9-4fbb7cac9085","ios":"levelo://app?vid=74f792d7-04d3-4cc0-bbf9-4fbb7cac9085"},"vehicle_type_id":"4","last_reported":1706825226,"current_range_meters":0,"station_id":"ce4bhb12rcd13ifvqem0","pricing_plan_id":"free"},{"bike_id":"02bbcf94-f878-4daa-83e1-66167daadfe4","system_id":"levelo_inurba_marseille","lat":43.28856,"lon":5.358371,"is_reserved":false,"is_disabled":false,"rental_uris":{"android":"levelo://app?vid=02bbcf94-f878-4daa-83e1-66167daadfe4","ios":"levelo://app?vid=02bbcf94-f878-4daa-83e1-66167daadfe4"},"vehicle_type_id":"4","last_reported":1706825226,"current_range_meters":24800,"station_id":"ce4bhb12rcd13ifvqem0","pricing_plan_id":"free"},{"bike_id":"9a163306-55f4-452b-abb8-1fc8b6192e5f","system_id":"levelo_inurba_marseille","lat":43.28856,"lon":5.358371,"is_reserved":false,"is_disabled":false,"rental_uris":{"android":"levelo://app?vid=9a163306-55f4-452b-abb8-1fc8b6192e5f","ios":"levelo://app?vid=9a163306-55f4-452b-abb8-1fc8b6192e5f"},"vehicle_type_id":"4","last_reported":1706825226,"current_range_meters":1600,"station_id":"ce4bhb12rcd13ifvqem0","pricing_plan_id":"free"},{"bike_id":"4dea2505-7482-4166-a6c1-d47027e35e33","system_id":"levelo_inurba_marseille","lat":43.28856,"lon":5.358371,"is_reserved":false,"is_disabled":false,"rental_uris":{"android":"levelo://app?vid=4dea2505-7482-4166-a6c1-d47027e35e33","ios":"levelo://app?vid=4dea2505-7482-4166-a6c1-d47027e35e33"},"vehicle_type_id":"4","last_reported":1706825226,"current_range_meters":7600,"station_id":"ce4bhb12rcd13ifvqem0","pricing_plan_id":"free"},{"bike_id":"1cbc8e9d-ab9c-4be4-9b26-a6c070d68bed","system_id":"levelo_inurba_marseille","lat":43.28856,"lon":5.358371,"is_reserved":false,"is_disabled":false,"rental_uris":{"android":"levelo://app?vid=1cbc8e9d-ab9c-4be4-9b26-a6c070d68bed","ios":"levelo://app?vid=1cbc8e9d-ab9c-4be4-9b26-a6c070d68bed"},"vehicle_type_id":"4","last_reported":1706825226,"current_range_meters":0,"station_id":"ce4bhb12rcd13ifvqem0","pricing_plan_id":"free"},{"bike_id":"bede50d0-ab0b-47ad-9924-8d7d57bfd46b","system_id":"levelo_inurba_marseille","lat":43.28852,"lon":5.35841,"is_reserved":false,"is_disabled":false,"rental_uris":{"android":"levelo://app?vid=bede50d0-ab0b-47ad-9924-8d7d57bfd46b","ios":"levelo://app?vid=bede50d0-ab0b-47ad-9924-8d7d57bfd46b"},"vehicle_type_id":"4","last_reported":1706825226,"current_range_meters":20000,"station_id":"ce4bhb12rcd13ifvqem0","pricing_plan_id":"free"},{"bike_id":"722fda1d-1e67-4f7a-9f23-691f54699f10","system_id":"levelo_inurba_marseille","lat":43.28856,"lon":5.358371,"is_reserved":false,"is_disabled":false,"rental_uris":{"android":"levelo://app?vid=722fda1d-1e67-4f7a-9f23-691f54699f10","ios":"levelo://app?vid=722fda1d-1e67-4f7a-9f23-691f54699f10"},"vehicle_type_id":"4","last_reported":1706825226,"current_range_meters":18800,"station_id":"ce4bhb12rcd13ifvqem0","pricing_plan_id":"free"},{"bike_id":"de734ec6-a23d-4969-8a7b-84a4306e2792","system_id":"levelo_inurba_marseille","lat":43.28856,"lon":5.358371,"is_reserved":false,"is_disabled":false,"rental_uris":{"android":"levelo://app?vid=de734ec6-a23d-4969-8a7b-84a4306e2792","ios":"levelo://app?vid=de734ec6-a23d-4969-8a7b-84a4306e2792"},"vehicle_type_id":"4","last_reported":1706825226,"current_range_meters":2800,"station_id":"ce4bhb12rcd13ifvqem0","pricing_plan_id":"free"},{"bike_id":"7a1b413f-69ad-42d8-b859-a87b3362e77e","system_id":"levelo_inurba_marseille","lat":43.28856,"lon":5.358371,"is_reserved":false,"is_disabled":false,"rental_uris":{"android":"levelo://app?vid=7a1b413f-69ad-42d8-b859-a87b3362e77e","ios":"levelo://app?vid=7a1b413f-69ad-42d8-b859-a87b3362e77e"},"vehicle_type_id":"4","last_reported":1706825226,"current_range_meters":23200,"station_id":"ce4bhb12rcd13ifvqem0","pricing_plan_id":"free"},{"bike_id":"5e529af9-c9b1-40aa-91f3-25d6c3ef02dc","system_id":"levelo_inurba_marseille","lat":43.28856,"lon":5.358371,"is_reserved":false,"is_disabled":false,"rental_uris":{"android":"levelo://app?vid=5e529af9-c9b1-40aa-91f3-25d6c3ef02dc","ios":"levelo://app?vid=5e529af9-c9b1-40aa-91f3-25d6c3ef02dc"},"vehicle_type_id":"4","last_reported":1706825226,"current_range_meters":0,"station_id":"ce4bhb12rcd13ifvqem0","pricing_plan_id":"free"},{"bike_id":"cfe68aef-9e8a-4093-bde9-feb1bf368a18","system_id":"levelo_inurba_marseille","lat":43.312609,"lon":5.401662,"is_reserved":false,"is_disabled":false,"rental_uris":{"android":"levelo://app?vid=cfe68aef-9e8a-4093-bde9-feb1bf368a18","ios":"levelo://app?vid=cfe68aef-9e8a-4093-bde9-feb1bf368a18"},"vehicle_type_id":"4","last_reported":1706825226,"current_range_meters":9200,"station_id":"ce4bh092rcd13ifvqd30","pricing_plan_id":"free"},{"bike_id":"7d8d1491-6e9a-4ad6-9a04-e543ec0a6c16","system_id":"levelo_inurba_marseille","lat":43.312609,"lon":5.401662,"is_reserved":false,"is_disabled":false,"rental_uris":{"android":"levelo://app?vid=7d8d1491-6e9a-4ad6-9a04-e543ec0a6c16","ios":"levelo://app?vid=7d8d1491-6e9a-4ad6-9a04-e543ec0a6c16"},"vehicle_type_id":"4","last_reported":1706825226,"current_range_meters":21200,"station_id":"ce4bh092rcd13ifvqd30","pricing_plan_id":"free"},{"bike_id":"0806c7ab-e343-4f0d-bf12-8a7646a48ddb","system_id":"levelo_inurba_marseille","lat":43.312609,"lon":5.401662,"is_reserved":false,"is_disabled":false,"rental_uris":{"android":"levelo://app?vid=0806c7ab-e343-4f0d-bf12-8a7646a48ddb","ios":"levelo://app?vid=0806c7ab-e343-4f0d-bf12-8a7646a48ddb"},"vehicle_type_id":"4","last_reported":1706825226,"current_range_meters":4800,"station_id":"ce4bh092rcd13ifvqd30","pricing_plan_id":"free"},{"bike_id":"c43c9ef4-4191-46f5-8e1b-94ff38a10d88","system_id":"levelo_inurba_marseille","lat":43.309371,"lon":5.401449,"is_reserved":false,"is_disabled":false,"rental_uris":{"android":"levelo://app?vid=c43c9ef4-4191-46f5-8e1b-94ff38a10d88","ios":"levelo://app?vid=c43c9ef4-4191-46f5-8e1b-94ff38a10d88"},"vehicle_type_id":"4","last_reported":1706825226,"current_range_meters":0,"station_id":"ce4bgvp2rcd13ifvqct0","pricing_plan_id":"free"},{"bike_id":"de84a527-5310-4b43-bea5-8cc73f2f9355","system_id":"levelo_inurba_marseille","lat":43.309371,"lon":5.401449,"is_reserved":false,"is_disabled":false,"rental_uris":{"android":"levelo://app?vid=de84a527-5310-4b43-bea5-8cc73f2f9355","ios":"levelo://app?vid=de84a527-5310-4b43-bea5-8cc73f2f9355"},"vehicle_type_id":"4","last_reported":1706825226,"current_range_meters":1600,"station_id":"ce4bgvp2rcd13ifvqct0","pricing_plan_id":"free"},{"bike_id":"26456c7c-5d0b-4894-a510-e216a4412c52","system_id":"levelo_inurba_marseille","lat":43.312609,"lon":5.401662,"is_reserved":false,"is_disabled":false,"rental_uris":{"android":"levelo://app?vid=26456c7c-5d0b-4894-a510-e216a4412c52","ios":"levelo://app?vid=26456c7c-5d0b-4894-a510-e216a4412c52"},"vehicle_type_id":"4","last_reported":1706825226,"current_range_meters":8000,"station_id":"ce4bh092rcd13ifvqd30","pricing_plan_id":"free"},{"bike_id":"40d1ca95-1e4a-48b9-9e54-0b2ec248c00d","system_id":"levelo_inurba_marseille","lat":43.30647,"lon":5.40073,"is_reserved":false,"is_disabled":false,"rental_uris":{"android":"levelo://app?vid=40d1ca95-1e4a-48b9-9e54-0b2ec248c00d","ios":"levelo://app?vid=40d1ca95-1e4a-48b9-9e54-0b2ec248c00d"},"vehicle_type_id":"4","last_reported":1706825226,"current_range_meters":15200,"station_id":"ce4bh112rcd13ifvqda0","pricing_plan_id":"free"},{"bike_id":"5940b910-f299-4b9d-a844-4f9fcfd5e40f","system_id":"levelo_inurba_marseille","lat":43.306497,"lon":5.40079,"is_reserved":false,"is_disabled":false,"rental_uris":{"android":"levelo://app?vid=5940b910-f299-4b9d-a844-4f9fcfd5e40f","ios":"levelo://app?vid=5940b910-f299-4b9d-a844-4f9fcfd5e40f"},"vehicle_type_id":"4","last_reported":1706825226,"current_range_meters":800,"station_id":"ce4bh112rcd13ifvqda0","pricing_plan_id":"free"},{"bike_id":"d25567c5-ef1d-47c2-b416-8280a92e12c9","system_id":"levelo_inurba_marseille","lat":43.309371,"lon":5.401449,"is_reserved":false,"is_disabled":false,"rental_uris":{"android":"levelo://app?vid=d25567c5-ef1d-47c2-b416-8280a92e12c9","ios":"levelo://app?vid=d25567c5-ef1d-47c2-b416-8280a92e12c9"},"vehicle_type_id":"4","last_reported":1706825226,"current_range_meters":19200,"station_id":"ce4bgvp2rcd13ifvqct0","pricing_plan_id":"free"},{"bike_id":"c7720c7e-0225-4c8f-be49-99a373c49946","system_id":"levelo_inurba_marseille","lat":43.30642,"lon":5.401031,"is_reserved":false,"is_disabled":false,"rental_uris":{"android":"levelo://app?vid=c7720c7e-0225-4c8f-be49-99a373c49946","ios":"levelo://app?vid=c7720c7e-0225-4c8f-be49-99a373c49946"},"vehicle_type_id":"4","last_reported":1706825226,"current_range_meters":2000,"station_id":"ce4bh112rcd13ifvqda0","pricing_plan_id":"free"},{"bike_id":"9ec79026-71bb-4e84-a7d8-8fa7f30794b2","system_id":"levelo_inurba_marseille","lat":43.30638,"lon":5.40081,"is_reserved":false,"is_disabled":false,"rental_uris":{"android":"levelo://app?vid=9ec79026-71bb-4e84-a7d8-8fa7f30794b2","ios":"levelo://app?vid=9ec79026-71bb-4e84-a7d8-8fa7f30794b2"},"vehicle_type_id":"4","last_reported":1706825226,"current_range_meters":6800,"station_id":"ce4bh112rcd13ifvqda0","pricing_plan_id":"free"},{"bike_id":"7a930378-2683-418e-a48a-7ed23e46582a","system_id":"levelo_inurba_marseille","lat":43.30642,"lon":5.401031,"is_reserved":false,"is_disabled":false,"rental_uris":{"android":"levelo://app?vid=7a930378-2683-418e-a48a-7ed23e46582a","ios":"levelo://app?vid=7a930378-2683-418e-a48a-7ed23e46582a"},"vehicle_type_id":"4","last_reported":1706825226,"current_range_meters":16400,"station_id":"ce4bh112rcd13ifvqda0","pricing_plan_id":"free"},{"bike_id":"73f479a7-67d4-428c-815f-fa6bd899bfd0","system_id":"levelo_inurba_marseille","lat":43.30638,"lon":5.40084,"is_reserved":false,"is_disabled":false,"rental_uris":{"android":"levelo://app?vid=73f479a7-67d4-428c-815f-fa6bd899bfd0","ios":"levelo://app?vid=73f479a7-67d4-428c-815f-fa6bd899bfd0"},"vehicle_type_id":"4","last_reported":1706825226,"current_range_meters":800,"station_id":"ce4bh112rcd13ifvqda0","pricing_plan_id":"free"},{"bike_id":"a92fecb2-cce1-45fa-a6c6-174b16ca62fa","system_id":"levelo_inurba_marseille","lat":43.337834,"lon":5.374506,"is_reserved":false,"is_disabled":false,"rental_uris":{"android":"levelo://app?vid=a92fecb2-cce1-45fa-a6c6-174b16ca62fa","ios":"levelo://app?vid=a92fecb2-cce1-45fa-a6c6-174b16ca62fa"},"vehicle_type_id":"4","last_reported":1706825226,"current_range_meters":28400,"station_id":"","pricing_plan_id":"free"},{"bike_id":"59eeee2f-1750-4c3e-ab06-5237ceb666d6","system_id":"levelo_inurba_marseille","lat":43.309371,"lon":5.401449,"is_reserved":false,"is_disabled":false,"rental_uris":{"android":"levelo://app?vid=59eeee2f-1750-4c3e-ab06-5237ceb666d6","ios":"levelo://app?vid=59eeee2f-1750-4c3e-ab06-5237ceb666d6"},"vehicle_type_id":"4","last_reported":1706825226,"current_range_meters":3200,"station_id":"ce4bgvp2rcd13ifvqct0","pricing_plan_id":"free"},{"bike_id":"b8e4c813-1137-42a6-8e45-8e8d354fe41a","system_id":"levelo_inurba_marseille","lat":43.301117,"lon":5.398795,"is_reserved":false,"is_disabled":false,"rental_uris":{"android":"levelo://app?vid=b8e4c813-1137-42a6-8e45-8e8d354fe41a","ios":"levelo://app?vid=b8e4c813-1137-42a6-8e45-8e8d354fe41a"},"vehicle_type_id":"4","last_reported":1706825226,"current_range_meters":9200,"station_id":"ce4bh0h2rcd13ifvqd40","pricing_plan_id":"free"},{"bike_id":"8e01ce0f-96e2-4704-87fb-2035dd478f82","system_id":"levelo_inurba_marseille","lat":43.301117,"lon":5.398795,"is_reserved":false,"is_disabled":false,"rental_uris":{"android":"levelo://app?vid=8e01ce0f-96e2-4704-87fb-2035dd478f82","ios":"levelo://app?vid=8e01ce0f-96e2-4704-87fb-2035dd478f82"},"vehicle_type_id":"4","last_reported":1706825226,"current_range_meters":0,"station_id":"ce4bh0h2rcd13ifvqd40","pricing_plan_id":"free"},{"bike_id":"b664ef4d-4d0e-40d0-92a0-ecf760b3dc95","system_id":"levelo_inurba_marseille","lat":43.30456,"lon":5.40059,"is_reserved":false,"is_disabled":false,"rental_uris":{"android":"levelo://app?vid=b664ef4d-4d0e-40d0-92a0-ecf760b3dc95","ios":"levelo://app?vid=b664ef4d-4d0e-40d0-92a0-ecf760b3dc95"},"vehicle_type_id":"4","last_reported":1706825226,"current_range_meters":21600,"station_id":"","pricing_plan_id":"free"},{"bike_id":"951e8b96-1ca4-46c8-a504-0f47907d59d0","system_id":"levelo_inurba_marseille","lat":43.28727,"lon":5.36078,"is_reserved":false,"is_disabled":false,"rental_uris":{"android":"levelo://app?vid=951e8b96-1ca4-46c8-a504-0f47907d59d0","ios":"levelo://app?vid=951e8b96-1ca4-46c8-a504-0f47907d59d0"},"vehicle_type_id":"4","last_reported":1706825226,"current_range_meters":0,"station_id":"cki0cbj6b192h4jlfktg","pricing_plan_id":"free"},{"bike_id":"11292ed4-7f89-4a31-80de-9eac6b278d46","system_id":"levelo_inurba_marseille","lat":43.28727,"lon":5.36078,"is_reserved":false,"is_disabled":false,"rental_uris":{"android":"levelo://app?vid=11292ed4-7f89-4a31-80de-9eac6b278d46","ios":"levelo://app?vid=11292ed4-7f89-4a31-80de-9eac6b278d46"},"vehicle_type_id":"4","last_reported":1706825226,"current_range_meters":14800,"station_id":"cki0cbj6b192h4jlfktg","pricing_plan_id":"free"},{"bike_id":"933cb5fc-c3ed-4083-8134-4784226a658d","system_id":"levelo_inurba_marseille","lat":43.286961,"lon":5.373785,"is_reserved":false,"is_disabled":false,"rental_uris":{"android":"levelo://app?vid=933cb5fc-c3ed-4083-8134-4784226a658d","ios":"levelo://app?vid=933cb5fc-c3ed-4083-8134-4784226a658d"},"vehicle_type_id":"4","last_reported":1706825226,"current_range_meters":9600,"station_id":"ce4bh3p2rcd13ifvqdq0","pricing_plan_id":"free"},{"bike_id":"d5848666-ce70-49ba-98f2-2c71c9090c5c","system_id":"levelo_inurba_marseille","lat":43.286961,"lon":5.373785,"is_reserved":false,"is_disabled":false,"rental_uris":{"android":"levelo://app?vid=d5848666-ce70-49ba-98f2-2c71c9090c5c","ios":"levelo://app?vid=d5848666-ce70-49ba-98f2-2c71c9090c5c"},"vehicle_type_id":"4","last_reported":1706825226,"current_range_meters":3200,"station_id":"ce4bh3p2rcd13ifvqdq0","pricing_plan_id":"free"},{"bike_id":"d3b0ed5a-298c-40f2-8089-d8c72a92f4a4","system_id":"levelo_inurba_marseille","lat":43.286961,"lon":5.373785,"is_reserved":false,"is_disabled":false,"rental_uris":{"android":"levelo://app?vid=d3b0ed5a-298c-40f2-8089-d8c72a92f4a4","ios":"levelo://app?vid=d3b0ed5a-298c-40f2-8089-d8c72a92f4a4"},"vehicle_type_id":"4","last_reported":1706825226,"current_range_meters":25200,"station_id":"ce4bh3p2rcd13ifvqdq0","pricing_plan_id":"free"},{"bike_id":"c89dfdb3-aad4-4086-9438-ed982e83ef35","system_id":"levelo_inurba_marseille","lat":43.286591,"lon":5.363346,"is_reserved":false,"is_disabled":false,"rental_uris":{"android":"levelo://app?vid=c89dfdb3-aad4-4086-9438-ed982e83ef35","ios":"levelo://app?vid=c89dfdb3-aad4-4086-9438-ed982e83ef35"},"vehicle_type_id":"4","last_reported":1706825226,"current_range_meters":15200,"station_id":"ce4bhah2rcd13ifvqej0","pricing_plan_id":"free"},{"bike_id":"6aa1c462-6224-4954-ad0f-0cb5af058707","system_id":"levelo_inurba_marseille","lat":43.286591,"lon":5.363346,"is_reserved":false,"is_disabled":false,"rental_uris":{"android":"levelo://app?vid=6aa1c462-6224-4954-ad0f-0cb5af058707","ios":"levelo://app?vid=6aa1c462-6224-4954-ad0f-0cb5af058707"},"vehicle_type_id":"4","last_reported":1706825226,"current_range_meters":26000,"station_id":"ce4bhah2rcd13ifvqej0","pricing_plan_id":"free"},{"bike_id":"f09aede6-3e51-49c9-9f76-15994d27bc28","system_id":"levelo_inurba_marseille","lat":43.286591,"lon":5.363346,"is_reserved":false,"is_disabled":false,"rental_uris":{"android":"levelo://app?vid=f09aede6-3e51-49c9-9f76-15994d27bc28","ios":"levelo://app?vid=f09aede6-3e51-49c9-9f76-15994d27bc28"},"vehicle_type_id":"4","last_reported":1706825226,"current_range_meters":1200,"station_id":"ce4bhah2rcd13ifvqej0","pricing_plan_id":"free"},{"bike_id":"3bdfb648-d51c-4211-bb47-d93f0ab1066e","system_id":"levelo_inurba_marseille","lat":43.298681,"lon":5.397225,"is_reserved":false,"is_disabled":false,"rental_uris":{"android":"levelo://app?vid=3bdfb648-d51c-4211-bb47-d93f0ab1066e","ios":"levelo://app?vid=3bdfb648-d51c-4211-bb47-d93f0ab1066e"},"vehicle_type_id":"4","last_reported":1706825226,"current_range_meters":2000,"station_id":"ce4bh0h2rcd13ifvqd50","pricing_plan_id":"free"},{"bike_id":"d1356dcf-4e9d-4d32-afa5-f7cd3762fb39","system_id":"levelo_inurba_marseille","lat":43.286593,"lon":5.363346,"is_reserved":false,"is_disabled":false,"rental_uris":{"android":"levelo://app?vid=d1356dcf-4e9d-4d32-afa5-f7cd3762fb39","ios":"levelo://app?vid=d1356dcf-4e9d-4d32-afa5-f7cd3762fb39"},"vehicle_type_id":"4","last_reported":1706825226,"current_range_meters":20800,"station_id":"ce4bhah2rcd13ifvqej0","pricing_plan_id":"free"},{"bike_id":"7643e1be-20fa-4a0d-842d-6324b7c8ba1d","system_id":"levelo_inurba_marseille","lat":43.298681,"lon":5.397225,"is_reserved":false,"is_disabled":false,"rental_uris":{"android":"levelo://app?vid=7643e1be-20fa-4a0d-842d-6324b7c8ba1d","ios":"levelo://app?vid=7643e1be-20fa-4a0d-842d-6324b7c8ba1d"},"vehicle_type_id":"4","last_reported":1706825226,"current_range_meters":25200,"station_id":"ce4bh0h2rcd13ifvqd50","pricing_plan_id":"free"},{"bike_id":"f459c6b7-7a40-43d6-b268-6106de14d15d","system_id":"levelo_inurba_marseille","lat":43.286961,"lon":5.373785,"is_reserved":false,"is_disabled":false,"rental_uris":{"android":"levelo://app?vid=f459c6b7-7a40-43d6-b268-6106de14d15d","ios":"levelo://app?vid=f459c6b7-7a40-43d6-b268-6106de14d15d"},"vehicle_type_id":"4","last_reported":1706825226,"current_range_meters":25200,"station_id":"ce4bh3p2rcd13ifvqdq0","pricing_plan_id":"free"},{"bike_id":"c80c5067-6603-4a43-90a7-122b74ffe261","system_id":"levelo_inurba_marseille","lat":43.286961,"lon":5.373785,"is_reserved":false,"is_disabled":false,"rental_uris":{"android":"levelo://app?vid=c80c5067-6603-4a43-90a7-122b74ffe261","ios":"levelo://app?vid=c80c5067-6603-4a43-90a7-122b74ffe261"},"vehicle_type_id":"4","last_reported":1706825226,"current_range_meters":11600,"station_id":"ce4bh3p2rcd13ifvqdq0","pricing_plan_id":"free"},{"bike_id":"c1840086-dddf-4009-8bbc-1978f3a63e63","system_id":"levelo_inurba_marseille","lat":43.286591,"lon":5.363346,"is_reserved":false,"is_disabled":false,"rental_uris":{"android":"levelo://app?vid=c1840086-dddf-4009-8bbc-1978f3a63e63","ios":"levelo://app?vid=c1840086-dddf-4009-8bbc-1978f3a63e63"},"vehicle_type_id":"4","last_reported":1706825226,"current_range_meters":15200,"station_id":"ce4bhah2rcd13ifvqej0","pricing_plan_id":"free"},{"bike_id":"7f03f483-bf2d-4abf-8fe4-70fb921ac507","system_id":"levelo_inurba_marseille","lat":43.286593,"lon":5.363346,"is_reserved":false,"is_disabled":false,"rental_uris":{"android":"levelo://app?vid=7f03f483-bf2d-4abf-8fe4-70fb921ac507","ios":"levelo://app?vid=7f03f483-bf2d-4abf-8fe4-70fb921ac507"},"vehicle_type_id":"4","last_reported":1706825226,"current_range_meters":17200,"station_id":"ce4bhah2rcd13ifvqej0","pricing_plan_id":"free"},{"bike_id":"9b729787-0727-4ed9-b611-a3545ff00eef","system_id":"levelo_inurba_marseille","lat":43.295196,"lon":5.39397,"is_reserved":false,"is_disabled":false,"rental_uris":{"android":"levelo://app?vid=9b729787-0727-4ed9-b611-a3545ff00eef","ios":"levelo://app?vid=9b729787-0727-4ed9-b611-a3545ff00eef"},"vehicle_type_id":"4","last_reported":1706825226,"current_range_meters":18800,"station_id":"ce4bh292rcd13ifvqdf0","pricing_plan_id":"free"},{"bike_id":"7b117be2-bb1d-44a7-8f5f-49b02c23723a","system_id":"levelo_inurba_marseille","lat":43.298681,"lon":5.397225,"is_reserved":false,"is_disabled":false,"rental_uris":{"android":"levelo://app?vid=7b117be2-bb1d-44a7-8f5f-49b02c23723a","ios":"levelo://app?vid=7b117be2-bb1d-44a7-8f5f-49b02c23723a"},"vehicle_type_id":"4","last_reported":1706825226,"current_range_meters":14800,"station_id":"ce4bh0h2rcd13ifvqd50","pricing_plan_id":"free"},{"bike_id":"4ab761a5-0e9b-4698-b31a-d10de518478a","system_id":"levelo_inurba_marseille","lat":43.29877,"lon":5.39747,"is_reserved":false,"is_disabled":false,"rental_uris":{"android":"levelo://app?vid=4ab761a5-0e9b-4698-b31a-d10de518478a","ios":"levelo://app?vid=4ab761a5-0e9b-4698-b31a-d10de518478a"},"vehicle_type_id":"4","last_reported":1706825226,"current_range_meters":0,"station_id":"","pricing_plan_id":"free"},{"bike_id":"b374120e-cd8c-4837-b67e-34fcca50032e","system_id":"levelo_inurba_marseille","lat":43.286961,"lon":5.373785,"is_reserved":false,"is_disabled":false,"rental_uris":{"android":"levelo://app?vid=b374120e-cd8c-4837-b67e-34fcca50032e","ios":"levelo://app?vid=b374120e-cd8c-4837-b67e-34fcca50032e"},"vehicle_type_id":"4","last_reported":1706825226,"current_range_meters":3600,"station_id":"ce4bh3p2rcd13ifvqdq0","pricing_plan_id":"free"},{"bike_id":"63f80ce5-99c8-4806-b400-bfb2a956cd13","system_id":"levelo_inurba_marseille","lat":43.298681,"lon":5.397225,"is_reserved":false,"is_disabled":false,"rental_uris":{"android":"levelo://app?vid=63f80ce5-99c8-4806-b400-bfb2a956cd13","ios":"levelo://app?vid=63f80ce5-99c8-4806-b400-bfb2a956cd13"},"vehicle_type_id":"4","last_reported":1706825226,"current_range_meters":31200,"station_id":"ce4bh0h2rcd13ifvqd50","pricing_plan_id":"free"},{"bike_id":"56874da9-430d-4b85-8b37-c54cadb7615b","system_id":"levelo_inurba_marseille","lat":43.286593,"lon":5.363346,"is_reserved":false,"is_disabled":false,"rental_uris":{"android":"levelo://app?vid=56874da9-430d-4b85-8b37-c54cadb7615b","ios":"levelo://app?vid=56874da9-430d-4b85-8b37-c54cadb7615b"},"vehicle_type_id":"4","last_reported":1706825226,"current_range_meters":2000,"station_id":"ce4bhah2rcd13ifvqej0","pricing_plan_id":"free"},{"bike_id":"d454e7e4-9c15-4926-b778-b0bdc6275a1d","system_id":"levelo_inurba_marseille","lat":43.286961,"lon":5.373785,"is_reserved":false,"is_disabled":false,"rental_uris":{"android":"levelo://app?vid=d454e7e4-9c15-4926-b778-b0bdc6275a1d","ios":"levelo://app?vid=d454e7e4-9c15-4926-b778-b0bdc6275a1d"},"vehicle_type_id":"4","last_reported":1706825226,"current_range_meters":19200,"station_id":"ce4bh3p2rcd13ifvqdq0","pricing_plan_id":"free"},{"bike_id":"8de04d51-727e-455f-909b-5d79ad5caff8","system_id":"levelo_inurba_marseille","lat":43.295194,"lon":5.39397,"is_reserved":false,"is_disabled":false,"rental_uris":{"android":"levelo://app?vid=8de04d51-727e-455f-909b-5d79ad5caff8","ios":"levelo://app?vid=8de04d51-727e-455f-909b-5d79ad5caff8"},"vehicle_type_id":"4","last_reported":1706825226,"current_range_meters":5200,"station_id":"ce4bh292rcd13ifvqdf0","pricing_plan_id":"free"},{"bike_id":"c60ae08e-204b-4cd4-99f5-0a7c2b7373fb","system_id":"levelo_inurba_marseille","lat":43.295194,"lon":5.39397,"is_reserved":false,"is_disabled":false,"rental_uris":{"android":"levelo://app?vid=c60ae08e-204b-4cd4-99f5-0a7c2b7373fb","ios":"levelo://app?vid=c60ae08e-204b-4cd4-99f5-0a7c2b7373fb"},"vehicle_type_id":"4","last_reported":1706825226,"current_range_meters":16800,"station_id":"ce4bh292rcd13ifvqdf0","pricing_plan_id":"free"},{"bike_id":"d0aa25a5-aa1b-49f0-a39a-4f68f245dc60","system_id":"levelo_inurba_marseille","lat":43.302759,"lon":5.400793,"is_reserved":false,"is_disabled":false,"rental_uris":{"android":"levelo://app?vid=d0aa25a5-aa1b-49f0-a39a-4f68f245dc60","ios":"levelo://app?vid=d0aa25a5-aa1b-49f0-a39a-4f68f245dc60"},"vehicle_type_id":"4","last_reported":1706825226,"current_range_meters":18400,"station_id":"ce4bgvh2rcd13ifvqcs0","pricing_plan_id":"free"},{"bike_id":"494b69e4-cf3f-4681-b0ad-3b17356ca5b5","system_id":"levelo_inurba_marseille","lat":43.302759,"lon":5.400793,"is_reserved":false,"is_disabled":false,"rental_uris":{"android":"levelo://app?vid=494b69e4-cf3f-4681-b0ad-3b17356ca5b5","ios":"levelo://app?vid=494b69e4-cf3f-4681-b0ad-3b17356ca5b5"},"vehicle_type_id":"4","last_reported":1706825226,"current_range_meters":0,"station_id":"ce4bgvh2rcd13ifvqcs0","pricing_plan_id":"free"},{"bike_id":"574540e7-f324-468d-bd23-84ccdb904342","system_id":"levelo_inurba_marseille","lat":43.302759,"lon":5.400793,"is_reserved":false,"is_disabled":false,"rental_uris":{"android":"levelo://app?vid=574540e7-f324-468d-bd23-84ccdb904342","ios":"levelo://app?vid=574540e7-f324-468d-bd23-84ccdb904342"},"vehicle_type_id":"4","last_reported":1706825226,"current_range_meters":2000,"station_id":"ce4bgvh2rcd13ifvqcs0","pricing_plan_id":"free"},{"bike_id":"25c2842e-89e9-43d4-ab58-1b5821cf1014","system_id":"levelo_inurba_marseille","lat":43.30245,"lon":5.4008,"is_reserved":false,"is_disabled":false,"rental_uris":{"android":"levelo://app?vid=25c2842e-89e9-43d4-ab58-1b5821cf1014","ios":"levelo://app?vid=25c2842e-89e9-43d4-ab58-1b5821cf1014"},"vehicle_type_id":"4","last_reported":1706825226,"current_range_meters":10000,"station_id":"ce4bgvh2rcd13ifvqcs0","pricing_plan_id":"free"},{"bike_id":"7aca912d-1267-43c7-b278-e25f3e404434","system_id":"levelo_inurba_marseille","lat":43.28611,"lon":5.37067,"is_reserved":false,"is_disabled":false,"rental_uris":{"android":"levelo://app?vid=7aca912d-1267-43c7-b278-e25f3e404434","ios":"levelo://app?vid=7aca912d-1267-43c7-b278-e25f3e404434"},"vehicle_type_id":"4","last_reported":1706825226,"current_range_meters":21600,"station_id":"ce4bht12rcd13ifvqi60","pricing_plan_id":"free"},{"bike_id":"f0350bb6-383c-4f22-958e-ff413896c382","system_id":"levelo_inurba_marseille","lat":43.286039,"lon":5.370679,"is_reserved":false,"is_disabled":false,"rental_uris":{"android":"levelo://app?vid=f0350bb6-383c-4f22-958e-ff413896c382","ios":"levelo://app?vid=f0350bb6-383c-4f22-958e-ff413896c382"},"vehicle_type_id":"4","last_reported":1706825226,"current_range_meters":30800,"station_id":"ce4bht12rcd13ifvqi60","pricing_plan_id":"free"},{"bike_id":"54d34a8a-4286-4222-8fd6-05098b07e7d1","system_id":"levelo_inurba_marseille","lat":43.286039,"lon":5.370679,"is_reserved":false,"is_disabled":false,"rental_uris":{"android":"levelo://app?vid=54d34a8a-4286-4222-8fd6-05098b07e7d1","ios":"levelo://app?vid=54d34a8a-4286-4222-8fd6-05098b07e7d1"},"vehicle_type_id":"4","last_reported":1706825226,"current_range_meters":14400,"station_id":"ce4bht12rcd13ifvqi60","pricing_plan_id":"free"},{"bike_id":"69da0570-b0bb-4f28-9eaf-fd0d04136201","system_id":"levelo_inurba_marseille","lat":43.287185,"lon":5.379373,"is_reserved":false,"is_disabled":false,"rental_uris":{"android":"levelo://app?vid=69da0570-b0bb-4f28-9eaf-fd0d04136201","ios":"levelo://app?vid=69da0570-b0bb-4f28-9eaf-fd0d04136201"},"vehicle_type_id":"4","last_reported":1706825226,"current_range_meters":13600,"station_id":"ce4bh9p2rcd13ifvqec0","pricing_plan_id":"free"},{"bike_id":"4d409fc0-e687-429a-a491-734f39aca188","system_id":"levelo_inurba_marseille","lat":43.28713,"lon":5.37951,"is_reserved":false,"is_disabled":false,"rental_uris":{"android":"levelo://app?vid=4d409fc0-e687-429a-a491-734f39aca188","ios":"levelo://app?vid=4d409fc0-e687-429a-a491-734f39aca188"},"vehicle_type_id":"4","last_reported":1706825226,"current_range_meters":0,"station_id":"ce4bh9p2rcd13ifvqec0","pricing_plan_id":"free"},{"bike_id":"edede79b-5942-4f60-a05f-ba1aa6400a73","system_id":"levelo_inurba_marseille","lat":43.292056,"lon":5.393133,"is_reserved":false,"is_disabled":false,"rental_uris":{"android":"levelo://app?vid=edede79b-5942-4f60-a05f-ba1aa6400a73","ios":"levelo://app?vid=edede79b-5942-4f60-a05f-ba1aa6400a73"},"vehicle_type_id":"4","last_reported":1706825226,"current_range_meters":24400,"station_id":"ce4bh192rcd13ifvqdd0","pricing_plan_id":"free"},{"bike_id":"a38a0690-9443-45f0-94e7-37b20e062170","system_id":"levelo_inurba_marseille","lat":43.29207,"lon":5.39321,"is_reserved":false,"is_disabled":false,"rental_uris":{"android":"levelo://app?vid=a38a0690-9443-45f0-94e7-37b20e062170","ios":"levelo://app?vid=a38a0690-9443-45f0-94e7-37b20e062170"},"vehicle_type_id":"4","last_reported":1706825226,"current_range_meters":12000,"station_id":"ce4bh192rcd13ifvqdd0","pricing_plan_id":"free"},{"bike_id":"098a8917-5311-402a-beb4-95a9a7423675","system_id":"levelo_inurba_marseille","lat":43.29198,"lon":5.39312,"is_reserved":false,"is_disabled":false,"rental_uris":{"android":"levelo://app?vid=098a8917-5311-402a-beb4-95a9a7423675","ios":"levelo://app?vid=098a8917-5311-402a-beb4-95a9a7423675"},"vehicle_type_id":"4","last_reported":1706825226,"current_range_meters":22000,"station_id":"ce4bh192rcd13ifvqdd0","pricing_plan_id":"free"},{"bike_id":"7fae2fe1-fff3-402f-bd5c-aaeaa7431a01","system_id":"levelo_inurba_marseille","lat":43.29199,"lon":5.39317,"is_reserved":false,"is_disabled":false,"rental_uris":{"android":"levelo://app?vid=7fae2fe1-fff3-402f-bd5c-aaeaa7431a01","ios":"levelo://app?vid=7fae2fe1-fff3-402f-bd5c-aaeaa7431a01"},"vehicle_type_id":"4","last_reported":1706825226,"current_range_meters":27600,"station_id":"ce4bh192rcd13ifvqdd0","pricing_plan_id":"free"},{"bike_id":"ccd37c63-9aa6-438e-b7d9-95a0948a5bb0","system_id":"levelo_inurba_marseille","lat":43.291994,"lon":5.392907,"is_reserved":false,"is_disabled":false,"rental_uris":{"android":"levelo://app?vid=ccd37c63-9aa6-438e-b7d9-95a0948a5bb0","ios":"levelo://app?vid=ccd37c63-9aa6-438e-b7d9-95a0948a5bb0"},"vehicle_type_id":"4","last_reported":1706825226,"current_range_meters":28800,"station_id":"ce4bh192rcd13ifvqdd0","pricing_plan_id":"free"},{"bike_id":"45e5d7bb-72f3-4f43-8fbe-27c6569f8c95","system_id":"levelo_inurba_marseille","lat":43.291994,"lon":5.392907,"is_reserved":false,"is_disabled":false,"rental_uris":{"android":"levelo://app?vid=45e5d7bb-72f3-4f43-8fbe-27c6569f8c95","ios":"levelo://app?vid=45e5d7bb-72f3-4f43-8fbe-27c6569f8c95"},"vehicle_type_id":"4","last_reported":1706825226,"current_range_meters":16000,"station_id":"ce4bh192rcd13ifvqdd0","pricing_plan_id":"free"},{"bike_id":"22179987-eaef-43bb-bde7-caec100299a1","system_id":"levelo_inurba_marseille","lat":43.291994,"lon":5.392907,"is_reserved":false,"is_disabled":false,"rental_uris":{"android":"levelo://app?vid=22179987-eaef-43bb-bde7-caec100299a1","ios":"levelo://app?vid=22179987-eaef-43bb-bde7-caec100299a1"},"vehicle_type_id":"4","last_reported":1706825226,"current_range_meters":25600,"station_id":"ce4bh192rcd13ifvqdd0","pricing_plan_id":"free"},{"bike_id":"b4fbbb88-b96a-429f-a238-01b1b1cb636e","system_id":"levelo_inurba_marseille","lat":43.291994,"lon":5.392907,"is_reserved":false,"is_disabled":false,"rental_uris":{"android":"levelo://app?vid=b4fbbb88-b96a-429f-a238-01b1b1cb636e","ios":"levelo://app?vid=b4fbbb88-b96a-429f-a238-01b1b1cb636e"},"vehicle_type_id":"4","last_reported":1706825226,"current_range_meters":28800,"station_id":"ce4bh192rcd13ifvqdd0","pricing_plan_id":"free"},{"bike_id":"ab4776df-ff59-425b-84bb-ad156b973aa2","system_id":"levelo_inurba_marseille","lat":43.291994,"lon":5.392907,"is_reserved":false,"is_disabled":false,"rental_uris":{"android":"levelo://app?vid=ab4776df-ff59-425b-84bb-ad156b973aa2","ios":"levelo://app?vid=ab4776df-ff59-425b-84bb-ad156b973aa2"},