{"last_updated":1729544915,"ttl":60,"version":"2.2","data":{"bikes":[{"bike_id":"ddbdcd22-9bd1-491a-aac3-aff9b5287cb0","system_id":"levelo_inurba_marseille","lat":43.23176,"lon":5.39981,"is_reserved":false,"is_disabled":false,"rental_uris":{"android":"levelo://app?vid=ddbdcd22-9bd1-491a-aac3-aff9b5287cb0","ios":"levelo://app?vid=ddbdcd22-9bd1-491a-aac3-aff9b5287cb0"},"vehicle_type_id":"4","last_reported":1729544915,"current_range_meters":3600,"station_id":"ce4bhn12rcd13ifvqgqg","pricing_plan_id":"cebpf4jnsgd1na2vs0mg"},{"bike_id":"79f4a7ed-a12f-4ecd-9744-df7d81e740b6","system_id":"levelo_inurba_marseille","lat":43.24806,"lon":5.37462,"is_reserved":false,"is_disabled":false,"rental_uris":{"android":"levelo://app?vid=79f4a7ed-a12f-4ecd-9744-df7d81e740b6","ios":"levelo://app?vid=79f4a7ed-a12f-4ecd-9744-df7d81e740b6"},"vehicle_type_id":"4","last_reported":1729544915,"current_range_meters":36800,"station_id":"ce4bhgh2rcd13ifvqfb0","pricing_plan_id":"cebpf4jnsgd1na2vs0mg"},{"bike_id":"93fa3798-63dd-4a89-934e-9dcbd5bc93a8","system_id":"levelo_inurba_marseille","lat":43.30898,"lon":5.39638,"is_reserved":false,"is_disabled":false,"rental_uris":{"android":"levelo://app?vid=93fa3798-63dd-4a89-934e-9dcbd5bc93a8","ios":"levelo://app?vid=93fa3798-63dd-4a89-934e-9dcbd5bc93a8"},"vehicle_type_id":"4","last_reported":1729544915,"current_range_meters":38800,"station_id":"ce4bh012rcd13ifvqcv0","pricing_plan_id":"cebpf4jnsgd1na2vs0mg"},{"bike_id":"faa7e7cd-15e9-4ba1-aba2-11bbf3e08543","system_id":"levelo_inurba_marseille","lat":43.28726,"lon":5.36078,"is_reserved":false,"is_disabled":false,"rental_uris":{"android":"levelo://app?vid=faa7e7cd-15e9-4ba1-aba2-11bbf3e08543","ios":"levelo://app?vid=faa7e7cd-15e9-4ba1-aba2-11bbf3e08543"},"vehicle_type_id":"4","last_reported":1729544915,"current_range_meters":28800,"station_id":"cki0cbj6b192h4jlfktg","pricing_plan_id":"cebpf4jnsgd1na2vs0mg"},{"bike_id":"6f89f3d4-f30c-4d39-b334-73a777b52f66","system_id":"levelo_inurba_marseille","lat":43.28834,"lon":5.39311,"is_reserved":false,"is_disabled":false,"rental_uris":{"android":"levelo://app?vid=6f89f3d4-f30c-4d39-b334-73a777b52f66","ios":"levelo://app?vid=6f89f3d4-f30c-4d39-b334-73a777b52f66"},"vehicle_type_id":"4","last_reported":1729544915,"current_range_meters":34800,"station_id":"ce4bh2p2rcd13ifvqdi0","pricing_plan_id":"cebpf4jnsgd1na2vs0mg"},{"bike_id":"db21b9b6-ffa5-4209-856b-c3959b135717","system_id":"levelo_inurba_marseille","lat":43.31706,"lon":5.3775,"is_reserved":false,"is_disabled":false,"rental_uris":{"android":"levelo://app?vid=db21b9b6-ffa5-4209-856b-c3959b135717","ios":"levelo://app?vid=db21b9b6-ffa5-4209-856b-c3959b135717"},"vehicle_type_id":"4","last_reported":1729544915,"current_range_meters":3200,"station_id":"ce4bgth2rcd13ifvqch0","pricing_plan_id":"cebpf4jnsgd1na2vs0mg"},{"bike_id":"5bf940ea-cb5a-42f2-89e2-0725ad3ca5e9","system_id":"levelo_inurba_marseille","lat":43.28682,"lon":5.37434,"is_reserved":false,"is_disabled":false,"rental_uris":{"android":"levelo://app?vid=5bf940ea-cb5a-42f2-89e2-0725ad3ca5e9","ios":"levelo://app?vid=5bf940ea-cb5a-42f2-89e2-0725ad3ca5e9"},"vehicle_type_id":"4","last_reported":1729544915,"current_range_meters":3600,"station_id":"ce4bh3p2rcd13ifvqdq0","pricing_plan_id":"cebpf4jnsgd1na2vs0mg"},{"bike_id":"056124ee-b6f9-468d-94ef-5fa46e18bd36","system_id":"levelo_inurba_marseille","lat":43.33608,"lon":5.41037,"is_reserved":false,"is_disabled":false,"rental_uris":{"android":"levelo://app?vid=056124ee-b6f9-468d-94ef-5fa46e18bd36","ios":"levelo://app?vid=056124ee-b6f9-468d-94ef-5fa46e18bd36"},"vehicle_type_id":"4","last_reported":1729544915,"current_range_meters":36000,"station_id":"ce4bhqh2rcd13ifvqhmg","pricing_plan_id":"cebpf4jnsgd1na2vs0mg"},{"bike_id":"9b1487a2-da53-4fbd-9677-1d244e024493","system_id":"levelo_inurba_marseille","lat":43.29982,"lon":5.37179,"is_reserved":false,"is_disabled":false,"rental_uris":{"android":"levelo://app?vid=9b1487a2-da53-4fbd-9677-1d244e024493","ios":"levelo://app?vid=9b1487a2-da53-4fbd-9677-1d244e024493"},"vehicle_type_id":"4","last_reported":1729544915,"current_range_meters":38800,"station_id":"ce4bgr92rcd13ifvqc7g","pricing_plan_id":"cebpf4jnsgd1na2vs0mg"},{"bike_id":"dda2d351-1eab-421c-b87f-4111e4062a04","system_id":"levelo_inurba_marseille","lat":43.3229,"lon":5.3827,"is_reserved":false,"is_disabled":false,"rental_uris":{"android":"levelo://app?vid=dda2d351-1eab-421c-b87f-4111e4062a04","ios":"levelo://app?vid=dda2d351-1eab-421c-b87f-4111e4062a04"},"vehicle_type_id":"4","last_reported":1729544915,"current_range_meters":16400,"station_id":"ce4bhr12rcd13ifvqhqg","pricing_plan_id":"cebpf4jnsgd1na2vs0mg"},{"bike_id":"b4b2d704-222c-4e36-9adb-31881090ecc1","system_id":"levelo_inurba_marseille","lat":43.29569,"lon":5.39979,"is_reserved":false,"is_disabled":false,"rental_uris":{"android":"levelo://app?vid=b4b2d704-222c-4e36-9adb-31881090ecc1","ios":"levelo://app?vid=b4b2d704-222c-4e36-9adb-31881090ecc1"},"vehicle_type_id":"4","last_reported":1729544915,"current_range_meters":11200,"station_id":"ce4bh312rcd13ifvqdj0","pricing_plan_id":"cebpf4jnsgd1na2vs0mg"},{"bike_id":"e2f32c24-c928-4a8d-b66e-7262f920a2b4","system_id":"levelo_inurba_marseille","lat":43.31535,"lon":5.38038,"is_reserved":false,"is_disabled":false,"rental_uris":{"android":"levelo://app?vid=e2f32c24-c928-4a8d-b66e-7262f920a2b4","ios":"levelo://app?vid=e2f32c24-c928-4a8d-b66e-7262f920a2b4"},"vehicle_type_id":"4","last_reported":1729544915,"current_range_meters":16000,"station_id":"ce4bhsp2rcd13ifvqi50","pricing_plan_id":"cebpf4jnsgd1na2vs0mg"},{"bike_id":"38f6b8b7-d4d9-40d0-8ab3-ab44d2d3a0d6","system_id":"levelo_inurba_marseille","lat":43.27618,"lon":5.36115,"is_reserved":false,"is_disabled":false,"rental_uris":{"android":"levelo://app?vid=38f6b8b7-d4d9-40d0-8ab3-ab44d2d3a0d6","ios":"levelo://app?vid=38f6b8b7-d4d9-40d0-8ab3-ab44d2d3a0d6"},"vehicle_type_id":"4","last_reported":1729544915,"current_range_meters":38800,"station_id":"ce4bgj92rcd13ifvqbe0","pricing_plan_id":"cebpf4jnsgd1na2vs0mg"},{"bike_id":"b43308bb-7c20-4692-b35d-b74472836822","system_id":"levelo_inurba_marseille","lat":43.30437,"lon":5.38887,"is_reserved":false,"is_disabled":false,"rental_uris":{"android":"levelo://app?vid=b43308bb-7c20-4692-b35d-b74472836822","ios":"levelo://app?vid=b43308bb-7c20-4692-b35d-b74472836822"},"vehicle_type_id":"4","last_reported":1729544915,"current_range_meters":38000,"station_id":"ce4bgk12rcd13ifvqbi0","pricing_plan_id":"cebpf4jnsgd1na2vs0mg"},{"bike_id":"eb69d266-7f9f-4bad-bf4b-cb0a701a9511","system_id":"levelo_inurba_marseille","lat":43.27932,"lon":5.41761,"is_reserved":false,"is_disabled":false,"rental_uris":{"android":"levelo://app?vid=eb69d266-7f9f-4bad-bf4b-cb0a701a9511","ios":"levelo://app?vid=eb69d266-7f9f-4bad-bf4b-cb0a701a9511"},"vehicle_type_id":"4","last_reported":1729544915,"current_range_meters":8000,"station_id":"","pricing_plan_id":"cebpf4jnsgd1na2vs0mg"},{"bike_id":"5700ca7b-4b04-4654-9ace-208c9e150bc3","system_id":"levelo_inurba_marseille","lat":43.23966,"lon":5.36622,"is_reserved":false,"is_disabled":false,"rental_uris":{"android":"levelo://app?vid=5700ca7b-4b04-4654-9ace-208c9e150bc3","ios":"levelo://app?vid=5700ca7b-4b04-4654-9ace-208c9e150bc3"},"vehicle_type_id":"4","last_reported":1729544915,"current_range_meters":36800,"station_id":"ce4bhi12rcd13ifvqfp0","pricing_plan_id":"cebpf4jnsgd1na2vs0mg"},{"bike_id":"4b19648d-fc61-4687-a460-ebaf89ea0e69","system_id":"levelo_inurba_marseille","lat":43.28273,"lon":5.35076,"is_reserved":false,"is_disabled":false,"rental_uris":{"android":"levelo://app?vid=4b19648d-fc61-4687-a460-ebaf89ea0e69","ios":"levelo://app?vid=4b19648d-fc61-4687-a460-ebaf89ea0e69"},"vehicle_type_id":"4","last_reported":1729544915,"current_range_meters":21600,"station_id":"ce4bhbp2rcd13ifvqerg","pricing_plan_id":"cebpf4jnsgd1na2vs0mg"},{"bike_id":"f792edc2-f37f-4f87-8f69-b580882ca5b4","system_id":"levelo_inurba_marseille","lat":43.2738,"lon":5.36247,"is_reserved":false,"is_disabled":false,"rental_uris":{"android":"levelo://app?vid=f792edc2-f37f-4f87-8f69-b580882ca5b4","ios":"levelo://app?vid=f792edc2-f37f-4f87-8f69-b580882ca5b4"},"vehicle_type_id":"4","last_reported":1729544915,"current_range_meters":38800,"station_id":"ce4bhbh2rcd13ifvqeo0","pricing_plan_id":"cebpf4jnsgd1na2vs0mg"},{"bike_id":"6cdd3cb5-ba15-4e85-8896-0ce16f3566f8","system_id":"levelo_inurba_marseille","lat":43.24071,"lon":5.3776,"is_reserved":false,"is_disabled":false,"rental_uris":{"android":"levelo://app?vid=6cdd3cb5-ba15-4e85-8896-0ce16f3566f8","ios":"levelo://app?vid=6cdd3cb5-ba15-4e85-8896-0ce16f3566f8"},"vehicle_type_id":"4","last_reported":1729544915,"current_range_meters":38800,"station_id":"ce4bhnp2rcd13ifvqgvg","pricing_plan_id":"cebpf4jnsgd1na2vs0mg"},{"bike_id":"1c35994b-cece-4553-a8a1-4af08476c849","system_id":"levelo_inurba_marseille","lat":43.32367,"lon":5.38885,"is_reserved":false,"is_disabled":false,"rental_uris":{"android":"levelo://app?vid=1c35994b-cece-4553-a8a1-4af08476c849","ios":"levelo://app?vid=1c35994b-cece-4553-a8a1-4af08476c849"},"vehicle_type_id":"4","last_reported":1729544915,"current_range_meters":37600,"station_id":"ce4bhqp2rcd13ifvqhog","pricing_plan_id":"cebpf4jnsgd1na2vs0mg"},{"bike_id":"35511628-b114-4f76-99b9-e8810ba711ef","system_id":"levelo_inurba_marseille","lat":43.25867,"lon":5.39897,"is_reserved":false,"is_disabled":false,"rental_uris":{"android":"levelo://app?vid=35511628-b114-4f76-99b9-e8810ba711ef","ios":"levelo://app?vid=35511628-b114-4f76-99b9-e8810ba711ef"},"vehicle_type_id":"4","last_reported":1729544915,"current_range_meters":37600,"station_id":"ce4bhl92rcd13ifvqghg","pricing_plan_id":"cebpf4jnsgd1na2vs0mg"},{"bike_id":"5ac46d42-8aa2-4caa-9c5a-08e414651d02","system_id":"levelo_inurba_marseille","lat":43.24807,"lon":5.3746,"is_reserved":false,"is_disabled":false,"rental_uris":{"android":"levelo://app?vid=5ac46d42-8aa2-4caa-9c5a-08e414651d02","ios":"levelo://app?vid=5ac46d42-8aa2-4caa-9c5a-08e414651d02"},"vehicle_type_id":"4","last_reported":1729544915,"current_range_meters":37600,"station_id":"ce4bhgh2rcd13ifvqfb0","pricing_plan_id":"cebpf4jnsgd1na2vs0mg"},{"bike_id":"d446a555-49be-49be-a11a-13447f0374cb","system_id":"levelo_inurba_marseille","lat":43.24071,"lon":5.37756,"is_reserved":false,"is_disabled":false,"rental_uris":{"android":"levelo://app?vid=d446a555-49be-49be-a11a-13447f0374cb","ios":"levelo://app?vid=d446a555-49be-49be-a11a-13447f0374cb"},"vehicle_type_id":"4","last_reported":1729544915,"current_range_meters":16400,"station_id":"ce4bhnp2rcd13ifvqgvg","pricing_plan_id":"cebpf4jnsgd1na2vs0mg"},{"bike_id":"6627fef9-f35d-409d-8306-0c58199b9ac3","system_id":"levelo_inurba_marseille","lat":43.30792,"lon":5.38154,"is_reserved":false,"is_disabled":false,"rental_uris":{"android":"levelo://app?vid=6627fef9-f35d-409d-8306-0c58199b9ac3","ios":"levelo://app?vid=6627fef9-f35d-409d-8306-0c58199b9ac3"},"vehicle_type_id":"4","last_reported":1729544915,"current_range_meters":38400,"station_id":"ce4bgt12rcd13ifvqce0","pricing_plan_id":"cebpf4jnsgd1na2vs0mg"},{"bike_id":"d8fcc4fa-ed39-4df3-8a67-0231297479c5","system_id":"levelo_inurba_marseille","lat":43.32662,"lon":5.40996,"is_reserved":false,"is_disabled":false,"rental_uris":{"android":"levelo://app?vid=d8fcc4fa-ed39-4df3-8a67-0231297479c5","ios":"levelo://app?vid=d8fcc4fa-ed39-4df3-8a67-0231297479c5"},"vehicle_type_id":"4","last_reported":1729544915,"current_range_meters":8400,"station_id":"ce4bhpp2rcd13ifvqhgg","pricing_plan_id":"cebpf4jnsgd1na2vs0mg"},{"bike_id":"23acbf0b-699f-40d3-a4a6-d8601945efad","system_id":"levelo_inurba_marseille","lat":43.27493,"lon":5.42448,"is_reserved":false,"is_disabled":false,"rental_uris":{"android":"levelo://app?vid=23acbf0b-699f-40d3-a4a6-d8601945efad","ios":"levelo://app?vid=23acbf0b-699f-40d3-a4a6-d8601945efad"},"vehicle_type_id":"4","last_reported":1729544915,"current_range_meters":32800,"station_id":"ce4bhn92rcd13ifvqgrg","pricing_plan_id":"cebpf4jnsgd1na2vs0mg"},{"bike_id":"05d04691-0647-48e4-a798-8b38d7e23e65","system_id":"levelo_inurba_marseille","lat":43.308888,"lon":5.371911,"is_reserved":false,"is_disabled":false,"rental_uris":{"android":"levelo://app?vid=05d04691-0647-48e4-a798-8b38d7e23e65","ios":"levelo://app?vid=05d04691-0647-48e4-a798-8b38d7e23e65"},"vehicle_type_id":"4","last_reported":1729544915,"current_range_meters":18000,"station_id":"ce4bguh2rcd13ifvqckg","pricing_plan_id":"cebpf4jnsgd1na2vs0mg"},{"bike_id":"cba2af9b-3719-4b16-aa61-d05fec60a0ee","system_id":"levelo_inurba_marseille","lat":43.31716,"lon":5.43709,"is_reserved":false,"is_disabled":false,"rental_uris":{"android":"levelo://app?vid=cba2af9b-3719-4b16-aa61-d05fec60a0ee","ios":"levelo://app?vid=cba2af9b-3719-4b16-aa61-d05fec60a0ee"},"vehicle_type_id":"4","last_reported":1729544915,"current_range_meters":38800,"station_id":"ce4bhp92rcd13ifvqhcg","pricing_plan_id":"cebpf4jnsgd1na2vs0mg"},{"bike_id":"66937148-7b7c-4caa-93c1-988c4cf945a9","system_id":"levelo_inurba_marseille","lat":43.30217,"lon":5.3947,"is_reserved":false,"is_disabled":false,"rental_uris":{"android":"levelo://app?vid=66937148-7b7c-4caa-93c1-988c4cf945a9","ios":"levelo://app?vid=66937148-7b7c-4caa-93c1-988c4cf945a9"},"vehicle_type_id":"4","last_reported":1729544915,"current_range_meters":27600,"station_id":"ce4bh0p2rcd13ifvqd70","pricing_plan_id":"cebpf4jnsgd1na2vs0mg"},{"bike_id":"abe658d4-12a8-41db-b6b3-738fdbd608a2","system_id":"levelo_inurba_marseille","lat":43.23196,"lon":5.35553,"is_reserved":false,"is_disabled":false,"rental_uris":{"android":"levelo://app?vid=abe658d4-12a8-41db-b6b3-738fdbd608a2","ios":"levelo://app?vid=abe658d4-12a8-41db-b6b3-738fdbd608a2"},"vehicle_type_id":"4","last_reported":1729544915,"current_range_meters":36400,"station_id":"ce4bhu92rcd13ifvqi70","pricing_plan_id":"cebpf4jnsgd1na2vs0mg"},{"bike_id":"fcde1605-ea98-4318-b804-12d50326119e","system_id":"levelo_inurba_marseille","lat":43.25119,"lon":5.40317,"is_reserved":false,"is_disabled":false,"rental_uris":{"android":"levelo://app?vid=fcde1605-ea98-4318-b804-12d50326119e","ios":"levelo://app?vid=fcde1605-ea98-4318-b804-12d50326119e"},"vehicle_type_id":"4","last_reported":1729544915,"current_range_meters":10000,"station_id":"ce4bhlh2rcd13ifvqgig","pricing_plan_id":"cebpf4jnsgd1na2vs0mg"},{"bike_id":"583f7146-4d0c-474b-abcb-843001f0bb42","system_id":"levelo_inurba_marseille","lat":43.30218,"lon":5.3947,"is_reserved":false,"is_disabled":false,"rental_uris":{"android":"levelo://app?vid=583f7146-4d0c-474b-abcb-843001f0bb42","ios":"levelo://app?vid=583f7146-4d0c-474b-abcb-843001f0bb42"},"vehicle_type_id":"4","last_reported":1729544915,"current_range_meters":38800,"station_id":"ce4bh0p2rcd13ifvqd70","pricing_plan_id":"cebpf4jnsgd1na2vs0mg"},{"bike_id":"8f033525-bc8f-42c4-9121-468701b80638","system_id":"levelo_inurba_marseille","lat":43.25013,"lon":5.38919,"is_reserved":false,"is_disabled":false,"rental_uris":{"android":"levelo://app?vid=8f033525-bc8f-42c4-9121-468701b80638","ios":"levelo://app?vid=8f033525-bc8f-42c4-9121-468701b80638"},"vehicle_type_id":"4","last_reported":1729544915,"current_range_meters":38800,"station_id":"ce4bhgp2rcd13ifvqfd0","pricing_plan_id":"cebpf4jnsgd1na2vs0mg"},{"bike_id":"27436add-a26d-44df-8506-9f86a55efe32","system_id":"levelo_inurba_marseille","lat":43.31376,"lon":5.3851,"is_reserved":false,"is_disabled":false,"rental_uris":{"android":"levelo://app?vid=27436add-a26d-44df-8506-9f86a55efe32","ios":"levelo://app?vid=27436add-a26d-44df-8506-9f86a55efe32"},"vehicle_type_id":"4","last_reported":1729544915,"current_range_meters":16000,"station_id":"ce4bgt92rcd13ifvqcf0","pricing_plan_id":"cebpf4jnsgd1na2vs0mg"},{"bike_id":"eb484d41-20e8-4df8-85a7-30b26d69ab7d","system_id":"levelo_inurba_marseille","lat":43.2873,"lon":5.37933,"is_reserved":false,"is_disabled":false,"rental_uris":{"android":"levelo://app?vid=eb484d41-20e8-4df8-85a7-30b26d69ab7d","ios":"levelo://app?vid=eb484d41-20e8-4df8-85a7-30b26d69ab7d"},"vehicle_type_id":"4","last_reported":1729544915,"current_range_meters":38000,"station_id":"ce4bh9p2rcd13ifvqec0","pricing_plan_id":"cebpf4jnsgd1na2vs0mg"},{"bike_id":"1ec16de5-9ac0-497e-b627-148b746fa226","system_id":"levelo_inurba_marseille","lat":43.28458,"lon":5.35893,"is_reserved":false,"is_disabled":false,"rental_uris":{"android":"levelo://app?vid=1ec16de5-9ac0-497e-b627-148b746fa226","ios":"levelo://app?vid=1ec16de5-9ac0-497e-b627-148b746fa226"},"vehicle_type_id":"4","last_reported":1729544915,"current_range_meters":30400,"station_id":"ce4bhah2rcd13ifvqei0","pricing_plan_id":"cebpf4jnsgd1na2vs0mg"},{"bike_id":"f8d4fc2f-6c65-4577-a483-2bded2a41922","system_id":"levelo_inurba_marseille","lat":43.30588,"lon":5.39358,"is_reserved":false,"is_disabled":false,"rental_uris":{"android":"levelo://app?vid=f8d4fc2f-6c65-4577-a483-2bded2a41922","ios":"levelo://app?vid=f8d4fc2f-6c65-4577-a483-2bded2a41922"},"vehicle_type_id":"4","last_reported":1729544915,"current_range_meters":40000,"station_id":"ce4bh0p2rcd13ifvqd80","pricing_plan_id":"cebpf4jnsgd1na2vs0mg"},{"bike_id":"03956cf4-b4c9-4328-a552-f6930328cd66","system_id":"levelo_inurba_marseille","lat":43.30094,"lon":5.39079,"is_reserved":false,"is_disabled":false,"rental_uris":{"android":"levelo://app?vid=03956cf4-b4c9-4328-a552-f6930328cd66","ios":"levelo://app?vid=03956cf4-b4c9-4328-a552-f6930328cd66"},"vehicle_type_id":"4","last_reported":1729544915,"current_range_meters":38000,"station_id":"ce4bh192rcd13ifvqdb0","pricing_plan_id":"cebpf4jnsgd1na2vs0mg"},{"bike_id":"825120c1-0038-4916-b709-08b76beaded5","system_id":"levelo_inurba_marseille","lat":43.31327,"lon":5.39693,"is_reserved":false,"is_disabled":false,"rental_uris":{"android":"levelo://app?vid=825120c1-0038-4916-b709-08b76beaded5","ios":"levelo://app?vid=825120c1-0038-4916-b709-08b76beaded5"},"vehicle_type_id":"4","last_reported":1729544915,"current_range_meters":10000,"station_id":"ce4bgvp2rcd13ifvqcu0","pricing_plan_id":"cebpf4jnsgd1na2vs0mg"},{"bike_id":"c27a890c-84e4-4f93-bebf-71b4c7582227","system_id":"levelo_inurba_marseille","lat":43.27933,"lon":5.41479,"is_reserved":false,"is_disabled":false,"rental_uris":{"android":"levelo://app?vid=c27a890c-84e4-4f93-bebf-71b4c7582227","ios":"levelo://app?vid=c27a890c-84e4-4f93-bebf-71b4c7582227"},"vehicle_type_id":"4","last_reported":1729544915,"current_range_meters":32800,"station_id":"ce4bhnh2rcd13ifvqgug","pricing_plan_id":"cebpf4jnsgd1na2vs0mg"},{"bike_id":"0d9fea0d-5188-4ebc-a956-c466b2766e8c","system_id":"levelo_inurba_marseille","lat":43.27491,"lon":5.42457,"is_reserved":false,"is_disabled":false,"rental_uris":{"android":"levelo://app?vid=0d9fea0d-5188-4ebc-a956-c466b2766e8c","ios":"levelo://app?vid=0d9fea0d-5188-4ebc-a956-c466b2766e8c"},"vehicle_type_id":"4","last_reported":1729544915,"current_range_meters":6000,"station_id":"ce4bhn92rcd13ifvqgrg","pricing_plan_id":"cebpf4jnsgd1na2vs0mg"},{"bike_id":"3c2e9290-6792-4e2d-b00d-712b965be0bd","system_id":"levelo_inurba_marseille","lat":43.26423,"lon":5.38686,"is_reserved":false,"is_disabled":false,"rental_uris":{"android":"levelo://app?vid=3c2e9290-6792-4e2d-b00d-712b965be0bd","ios":"levelo://app?vid=3c2e9290-6792-4e2d-b00d-712b965be0bd"},"vehicle_type_id":"4","last_reported":1729544915,"current_range_meters":11200,"station_id":"","pricing_plan_id":"cebpf4jnsgd1na2vs0mg"},{"bike_id":"b8eb8c89-8773-4616-9dde-180f90e97972","system_id":"levelo_inurba_marseille","lat":43.30941,"lon":5.40146,"is_reserved":false,"is_disabled":false,"rental_uris":{"android":"levelo://app?vid=b8eb8c89-8773-4616-9dde-180f90e97972","ios":"levelo://app?vid=b8eb8c89-8773-4616-9dde-180f90e97972"},"vehicle_type_id":"4","last_reported":1729544915,"current_range_meters":28800,"station_id":"ce4bgvp2rcd13ifvqct0","pricing_plan_id":"cebpf4jnsgd1na2vs0mg"},{"bike_id":"409bbc28-ad74-4be7-a8b6-a4d47820f2fb","system_id":"levelo_inurba_marseille","lat":43.30795,"lon":5.38141,"is_reserved":false,"is_disabled":false,"rental_uris":{"android":"levelo://app?vid=409bbc28-ad74-4be7-a8b6-a4d47820f2fb","ios":"levelo://app?vid=409bbc28-ad74-4be7-a8b6-a4d47820f2fb"},"vehicle_type_id":"4","last_reported":1729544915,"current_range_meters":36800,"station_id":"ce4bgt12rcd13ifvqce0","pricing_plan_id":"cebpf4jnsgd1na2vs0mg"},{"bike_id":"514c9d28-3d0f-453b-b257-9d254e83685c","system_id":"levelo_inurba_marseille","lat":43.29684,"lon":5.37295,"is_reserved":false,"is_disabled":false,"rental_uris":{"android":"levelo://app?vid=514c9d28-3d0f-453b-b257-9d254e83685c","ios":"levelo://app?vid=514c9d28-3d0f-453b-b257-9d254e83685c"},"vehicle_type_id":"4","last_reported":1729544915,"current_range_meters":39200,"station_id":"ce4bgk12rcd13ifvqbj0","pricing_plan_id":"cebpf4jnsgd1na2vs0mg"},{"bike_id":"566ef3cd-3e87-4087-a6aa-32a145c590e2","system_id":"levelo_inurba_marseille","lat":43.25577,"lon":5.38248,"is_reserved":false,"is_disabled":false,"rental_uris":{"android":"levelo://app?vid=566ef3cd-3e87-4087-a6aa-32a145c590e2","ios":"levelo://app?vid=566ef3cd-3e87-4087-a6aa-32a145c590e2"},"vehicle_type_id":"4","last_reported":1729544915,"current_range_meters":16800,"station_id":"ce4bhih2rcd13ifvqfs0","pricing_plan_id":"cebpf4jnsgd1na2vs0mg"},{"bike_id":"e73397ec-41ef-401f-966f-7b0b12ace5aa","system_id":"levelo_inurba_marseille","lat":43.23195,"lon":5.35554,"is_reserved":false,"is_disabled":false,"rental_uris":{"android":"levelo://app?vid=e73397ec-41ef-401f-966f-7b0b12ace5aa","ios":"levelo://app?vid=e73397ec-41ef-401f-966f-7b0b12ace5aa"},"vehicle_type_id":"4","last_reported":1729544915,"current_range_meters":8800,"station_id":"ce4bhu92rcd13ifvqi70","pricing_plan_id":"cebpf4jnsgd1na2vs0mg"},{"bike_id":"8d716763-2d1c-4074-b18b-e7392f675dd8","system_id":"levelo_inurba_marseille","lat":43.27838,"lon":5.39208,"is_reserved":false,"is_disabled":false,"rental_uris":{"android":"levelo://app?vid=8d716763-2d1c-4074-b18b-e7392f675dd8","ios":"levelo://app?vid=8d716763-2d1c-4074-b18b-e7392f675dd8"},"vehicle_type_id":"4","last_reported":1729544915,"current_range_meters":22000,"station_id":"ce4bhjp2rcd13ifvqga0","pricing_plan_id":"cebpf4jnsgd1na2vs0mg"},{"bike_id":"d587daae-0a71-435c-957b-ace6ff74f13a","system_id":"levelo_inurba_marseille","lat":43.23958,"lon":5.36644,"is_reserved":false,"is_disabled":false,"rental_uris":{"android":"levelo://app?vid=d587daae-0a71-435c-957b-ace6ff74f13a","ios":"levelo://app?vid=d587daae-0a71-435c-957b-ace6ff74f13a"},"vehicle_type_id":"4","last_reported":1729544915,"current_range_meters":14400,"station_id":"ce4bhi12rcd13ifvqfp0","pricing_plan_id":"cebpf4jnsgd1na2vs0mg"},{"bike_id":"901365ff-7b6b-436a-9095-aa58ad88ba2e","system_id":"levelo_inurba_marseille","lat":43.30551,"lon":5.36696,"is_reserved":false,"is_disabled":false,"rental_uris":{"android":"levelo://app?vid=901365ff-7b6b-436a-9095-aa58ad88ba2e","ios":"levelo://app?vid=901365ff-7b6b-436a-9095-aa58ad88ba2e"},"vehicle_type_id":"4","last_reported":1729544915,"current_range_meters":8000,"station_id":"ce4bgrp2rcd13ifvqc9g","pricing_plan_id":"cebpf4jnsgd1na2vs0mg"},{"bike_id":"327f4b76-6a0f-4ae4-91db-2808524b7993","system_id":"levelo_inurba_marseille","lat":43.30137,"lon":5.39869,"is_reserved":false,"is_disabled":false,"rental_uris":{"android":"levelo://app?vid=327f4b76-6a0f-4ae4-91db-2808524b7993","ios":"levelo://app?vid=327f4b76-6a0f-4ae4-91db-2808524b7993"},"vehicle_type_id":"4","last_reported":1729544915,"current_range_meters":3200,"station_id":"ce4bh0h2rcd13ifvqd40","pricing_plan_id":"cebpf4jnsgd1na2vs0mg"},{"bike_id":"924730cc-e564-4942-8934-ee82ec56b122","system_id":"levelo_inurba_marseille","lat":43.29277,"lon":5.4011,"is_reserved":false,"is_disabled":false,"rental_uris":{"android":"levelo://app?vid=924730cc-e564-4942-8934-ee82ec56b122","ios":"levelo://app?vid=924730cc-e564-4942-8934-ee82ec56b122"},"vehicle_type_id":"4","last_reported":1729544915,"current_range_meters":31200,"station_id":"ce4bh312rcd13ifvqdk0","pricing_plan_id":"cebpf4jnsgd1na2vs0mg"},{"bike_id":"6500c164-02c8-4d61-bd40-ecb76f51559e","system_id":"levelo_inurba_marseille","lat":43.31326,"lon":5.39695,"is_reserved":false,"is_disabled":false,"rental_uris":{"android":"levelo://app?vid=6500c164-02c8-4d61-bd40-ecb76f51559e","ios":"levelo://app?vid=6500c164-02c8-4d61-bd40-ecb76f51559e"},"vehicle_type_id":"4","last_reported":1729544915,"current_range_meters":30400,"station_id":"ce4bgvp2rcd13ifvqcu0","pricing_plan_id":"cebpf4jnsgd1na2vs0mg"},{"bike_id":"4046278f-5000-43df-8de9-6e3d6b5ed51c","system_id":"levelo_inurba_marseille","lat":43.28699,"lon":5.39979,"is_reserved":false,"is_disabled":false,"rental_uris":{"android":"levelo://app?vid=4046278f-5000-43df-8de9-6e3d6b5ed51c","ios":"levelo://app?vid=4046278f-5000-43df-8de9-6e3d6b5ed51c"},"vehicle_type_id":"4","last_reported":1729544915,"current_range_meters":38800,"station_id":"ce4bho92rcd13ifvqh3g","pricing_plan_id":"cebpf4jnsgd1na2vs0mg"},{"bike_id":"0542018d-404c-4931-92ac-7d497686214b","system_id":"levelo_inurba_marseille","lat":43.29555,"lon":5.42282,"is_reserved":false,"is_disabled":false,"rental_uris":{"android":"levelo://app?vid=0542018d-404c-4931-92ac-7d497686214b","ios":"levelo://app?vid=0542018d-404c-4931-92ac-7d497686214b"},"vehicle_type_id":"4","last_reported":1729544915,"current_range_meters":18800,"station_id":"ce4bhph2rcd13ifvqhdg","pricing_plan_id":"cebpf4jnsgd1na2vs0mg"},{"bike_id":"7c5fc33a-ebd7-472e-87f4-d251e1b74bfb","system_id":"levelo_inurba_marseille","lat":43.29273,"lon":5.40122,"is_reserved":false,"is_disabled":false,"rental_uris":{"android":"levelo://app?vid=7c5fc33a-ebd7-472e-87f4-d251e1b74bfb","ios":"levelo://app?vid=7c5fc33a-ebd7-472e-87f4-d251e1b74bfb"},"vehicle_type_id":"4","last_reported":1729544915,"current_range_meters":35600,"station_id":"ce4bh312rcd13ifvqdk0","pricing_plan_id":"cebpf4jnsgd1na2vs0mg"},{"bike_id":"bc1c4b65-b2ef-458a-9377-0e29b328aa0e","system_id":"levelo_inurba_marseille","lat":43.30357,"lon":5.4188,"is_reserved":false,"is_disabled":false,"rental_uris":{"android":"levelo://app?vid=bc1c4b65-b2ef-458a-9377-0e29b328aa0e","ios":"levelo://app?vid=bc1c4b65-b2ef-458a-9377-0e29b328aa0e"},"vehicle_type_id":"4","last_reported":1729544915,"current_range_meters":38800,"station_id":"ce4bhop2rcd13ifvqh7g","pricing_plan_id":"cebpf4jnsgd1na2vs0mg"},{"bike_id":"c50c36bc-ffdd-4757-a33b-4cc74935f3ba","system_id":"levelo_inurba_marseille","lat":43.29715,"lon":5.3662,"is_reserved":false,"is_disabled":false,"rental_uris":{"android":"levelo://app?vid=c50c36bc-ffdd-4757-a33b-4cc74935f3ba","ios":"levelo://app?vid=c50c36bc-ffdd-4757-a33b-4cc74935f3ba"},"vehicle_type_id":"4","last_reported":1729544915,"current_range_meters":8400,"station_id":"ce4bgn12rcd13ifvqbt0","pricing_plan_id":"cebpf4jnsgd1na2vs0mg"},{"bike_id":"fe2a8dea-e15c-4b37-acda-a8e3b708d9cf","system_id":"levelo_inurba_marseille","lat":43.28667,"lon":5.36355,"is_reserved":false,"is_disabled":false,"rental_uris":{"android":"levelo://app?vid=fe2a8dea-e15c-4b37-acda-a8e3b708d9cf","ios":"levelo://app?vid=fe2a8dea-e15c-4b37-acda-a8e3b708d9cf"},"vehicle_type_id":"4","last_reported":1729544915,"current_range_meters":19200,"station_id":"ce4bhah2rcd13ifvqej0","pricing_plan_id":"cebpf4jnsgd1na2vs0mg"},{"bike_id":"cca31693-1eff-4bbb-b7be-63e458a94e24","system_id":"levelo_inurba_marseille","lat":43.28937,"lon":5.36637,"is_reserved":false,"is_disabled":false,"rental_uris":{"android":"levelo://app?vid=cca31693-1eff-4bbb-b7be-63e458a94e24","ios":"levelo://app?vid=cca31693-1eff-4bbb-b7be-63e458a94e24"},"vehicle_type_id":"4","last_reported":1729544915,"current_range_meters":8800,"station_id":"ce4bhap2rcd13ifvqek0","pricing_plan_id":"cebpf4jnsgd1na2vs0mg"},{"bike_id":"39ee9764-c305-469f-9d9c-27c097ea855c","system_id":"levelo_inurba_marseille","lat":43.2397,"lon":5.36627,"is_reserved":false,"is_disabled":false,"rental_uris":{"android":"levelo://app?vid=39ee9764-c305-469f-9d9c-27c097ea855c","ios":"levelo://app?vid=39ee9764-c305-469f-9d9c-27c097ea855c"},"vehicle_type_id":"4","last_reported":1729544915,"current_range_meters":34800,"station_id":"ce4bhi12rcd13ifvqfp0","pricing_plan_id":"cebpf4jnsgd1na2vs0mg"},{"bike_id":"a1ab696a-38f8-4124-8ecd-382e878da187","system_id":"levelo_inurba_marseille","lat":43.30434,"lon":5.38893,"is_reserved":false,"is_disabled":false,"rental_uris":{"android":"levelo://app?vid=a1ab696a-38f8-4124-8ecd-382e878da187","ios":"levelo://app?vid=a1ab696a-38f8-4124-8ecd-382e878da187"},"vehicle_type_id":"4","last_reported":1729544915,"current_range_meters":32400,"station_id":"ce4bgk12rcd13ifvqbi0","pricing_plan_id":"cebpf4jnsgd1na2vs0mg"},{"bike_id":"18431119-24c9-45a6-9531-47169e7975f0","system_id":"levelo_inurba_marseille","lat":43.28156,"lon":5.42643,"is_reserved":false,"is_disabled":false,"rental_uris":{"android":"levelo://app?vid=18431119-24c9-45a6-9531-47169e7975f0","ios":"levelo://app?vid=18431119-24c9-45a6-9531-47169e7975f0"},"vehicle_type_id":"4","last_reported":1729544915,"current_range_meters":10000,"station_id":"ce4bhnh2rcd13ifvqgug","pricing_plan_id":"cebpf4jnsgd1na2vs0mg"},{"bike_id":"aeca248f-ee97-4c43-9a77-12fec853d98a","system_id":"levelo_inurba_marseille","lat":43.32659,"lon":5.40989,"is_reserved":false,"is_disabled":false,"rental_uris":{"android":"levelo://app?vid=aeca248f-ee97-4c43-9a77-12fec853d98a","ios":"levelo://app?vid=aeca248f-ee97-4c43-9a77-12fec853d98a"},"vehicle_type_id":"4","last_reported":1729544915,"current_range_meters":11200,"station_id":"ce4bhpp2rcd13ifvqhgg","pricing_plan_id":"cebpf4jnsgd1na2vs0mg"},{"bike_id":"4db6f0fb-f309-41ad-b7f3-12a5f754ef7c","system_id":"levelo_inurba_marseille","lat":43.29582,"lon":5.36743,"is_reserved":false,"is_disabled":false,"rental_uris":{"android":"levelo://app?vid=4db6f0fb-f309-41ad-b7f3-12a5f754ef7c","ios":"levelo://app?vid=4db6f0fb-f309-41ad-b7f3-12a5f754ef7c"},"vehicle_type_id":"4","last_reported":1729544915,"current_range_meters":38000,"station_id":"ce4bgph2rcd13ifvqc2g","pricing_plan_id":"cebpf4jnsgd1na2vs0mg"},{"bike_id":"cb1f5b68-1056-4fae-b9dc-c0f0c6b03ec1","system_id":"levelo_inurba_marseille","lat":43.24548,"lon":5.39522,"is_reserved":false,"is_disabled":false,"rental_uris":{"android":"levelo://app?vid=cb1f5b68-1056-4fae-b9dc-c0f0c6b03ec1","ios":"levelo://app?vid=cb1f5b68-1056-4fae-b9dc-c0f0c6b03ec1"},"vehicle_type_id":"4","last_reported":1729544915,"current_range_meters":24800,"station_id":"ce4bhlp2rcd13ifvqgjg","pricing_plan_id":"cebpf4jnsgd1na2vs0mg"},{"bike_id":"9eb1a5f7-26a2-4236-9784-8acf029dcd3d","system_id":"levelo_inurba_marseille","lat":43.28109,"lon":5.37835,"is_reserved":false,"is_disabled":false,"rental_uris":{"android":"levelo://app?vid=9eb1a5f7-26a2-4236-9784-8acf029dcd3d","ios":"levelo://app?vid=9eb1a5f7-26a2-4236-9784-8acf029dcd3d"},"vehicle_type_id":"4","last_reported":1729544915,"current_range_meters":27600,"station_id":"ce4bha12rcd13ifvqee0","pricing_plan_id":"cebpf4jnsgd1na2vs0mg"},{"bike_id":"d67659aa-1879-49ff-9e21-343007f69c6c","system_id":"levelo_inurba_marseille","lat":43.30805,"lon":5.43524,"is_reserved":false,"is_disabled":false,"rental_uris":{"android":"levelo://app?vid=d67659aa-1879-49ff-9e21-343007f69c6c","ios":"levelo://app?vid=d67659aa-1879-49ff-9e21-343007f69c6c"},"vehicle_type_id":"4","last_reported":1729544915,"current_range_meters":30000,"station_id":"ce4bhph2rcd13ifvqheg","pricing_plan_id":"cebpf4jnsgd1na2vs0mg"},{"bike_id":"22f0e9f1-4795-468e-91c9-9da47019dc8a","system_id":"levelo_inurba_marseille","lat":43.25083,"lon":5.39515,"is_reserved":false,"is_disabled":false,"rental_uris":{"android":"levelo://app?vid=22f0e9f1-4795-468e-91c9-9da47019dc8a","ios":"levelo://app?vid=22f0e9f1-4795-468e-91c9-9da47019dc8a"},"vehicle_type_id":"4","last_reported":1729544915,"current_range_meters":30800,"station_id":"ce4bhm12rcd13ifvqgkg","pricing_plan_id":"cebpf4jnsgd1na2vs0mg"},{"bike_id":"fca5ef4a-640b-4926-b58c-ead23c70f9d3","system_id":"levelo_inurba_marseille","lat":43.26552,"lon":5.372912,"is_reserved":false,"is_disabled":false,"rental_uris":{"android":"levelo://app?vid=fca5ef4a-640b-4926-b58c-ead23c70f9d3","ios":"levelo://app?vid=fca5ef4a-640b-4926-b58c-ead23c70f9d3"},"vehicle_type_id":"4","last_reported":1729544915,"current_range_meters":38800,"station_id":"ce4bhg12rcd13ifvqf70","pricing_plan_id":"cebpf4jnsgd1na2vs0mg"},{"bike_id":"3f93d603-921b-4a4e-befa-30d9d8a80713","system_id":"levelo_inurba_marseille","lat":43.31075,"lon":5.38349,"is_reserved":false,"is_disabled":false,"rental_uris":{"android":"levelo://app?vid=3f93d603-921b-4a4e-befa-30d9d8a80713","ios":"levelo://app?vid=3f93d603-921b-4a4e-befa-30d9d8a80713"},"vehicle_type_id":"4","last_reported":1729544915,"current_range_meters":37600,"station_id":"ce4bgv92rcd13ifvqcr0","pricing_plan_id":"cebpf4jnsgd1na2vs0mg"},{"bike_id":"fc0c144a-a517-46d7-afc7-73ccb9f83d82","system_id":"levelo_inurba_marseille","lat":43.29255,"lon":5.4091,"is_reserved":false,"is_disabled":false,"rental_uris":{"android":"levelo://app?vid=fc0c144a-a517-46d7-afc7-73ccb9f83d82","ios":"levelo://app?vid=fc0c144a-a517-46d7-afc7-73ccb9f83d82"},"vehicle_type_id":"4","last_reported":1729544915,"current_range_meters":32000,"station_id":"ce4bh192rcd13ifvqdc0","pricing_plan_id":"cebpf4jnsgd1na2vs0mg"},{"bike_id":"3edcc9de-82f8-488a-80ec-7f7f41bf5d14","system_id":"levelo_inurba_marseille","lat":43.32339,"lon":5.40625,"is_reserved":false,"is_disabled":false,"rental_uris":{"android":"levelo://app?vid=3edcc9de-82f8-488a-80ec-7f7f41bf5d14","ios":"levelo://app?vid=3edcc9de-82f8-488a-80ec-7f7f41bf5d14"},"vehicle_type_id":"4","last_reported":1729544915,"current_range_meters":7200,"station_id":"ce4bhq92rcd13ifvqhjg","pricing_plan_id":"cebpf4jnsgd1na2vs0mg"},{"bike_id":"61ae898d-f1f6-434c-bc0c-89d662f972e9","system_id":"levelo_inurba_marseille","lat":43.29572,"lon":5.39985,"is_reserved":false,"is_disabled":false,"rental_uris":{"android":"levelo://app?vid=61ae898d-f1f6-434c-bc0c-89d662f972e9","ios":"levelo://app?vid=61ae898d-f1f6-434c-bc0c-89d662f972e9"},"vehicle_type_id":"4","last_reported":1729544915,"current_range_meters":36400,"station_id":"ce4bh312rcd13ifvqdj0","pricing_plan_id":"cebpf4jnsgd1na2vs0mg"},{"bike_id":"7bc8993f-b69f-4b96-8190-8b6682b7d70f","system_id":"levelo_inurba_marseille","lat":43.33724,"lon":5.39183,"is_reserved":false,"is_disabled":false,"rental_uris":{"android":"levelo://app?vid=7bc8993f-b69f-4b96-8190-8b6682b7d70f","ios":"levelo://app?vid=7bc8993f-b69f-4b96-8190-8b6682b7d70f"},"vehicle_type_id":"4","last_reported":1729544915,"current_range_meters":17200,"station_id":"ce4bhr92rcd13ifvqhsg","pricing_plan_id":"cebpf4jnsgd1na2vs0mg"},{"bike_id":"864575c1-85b8-4008-92ba-391073d4ed51","system_id":"levelo_inurba_marseille","lat":43.23196,"lon":5.35549,"is_reserved":false,"is_disabled":false,"rental_uris":{"android":"levelo://app?vid=864575c1-85b8-4008-92ba-391073d4ed51","ios":"levelo://app?vid=864575c1-85b8-4008-92ba-391073d4ed51"},"vehicle_type_id":"4","last_reported":1729544915,"current_range_meters":27600,"station_id":"ce4bhu92rcd13ifvqi70","pricing_plan_id":"cebpf4jnsgd1na2vs0mg"},{"bike_id":"7d8aca0e-587d-4f56-9100-5267c022ff19","system_id":"levelo_inurba_marseille","lat":43.27616,"lon":5.36116,"is_reserved":false,"is_disabled":false,"rental_uris":{"android":"levelo://app?vid=7d8aca0e-587d-4f56-9100-5267c022ff19","ios":"levelo://app?vid=7d8aca0e-587d-4f56-9100-5267c022ff19"},"vehicle_type_id":"4","last_reported":1729544915,"current_range_meters":7200,"station_id":"ce4bgj92rcd13ifvqbe0","pricing_plan_id":"cebpf4jnsgd1na2vs0mg"},{"bike_id":"dfd33d42-13ef-40e4-b3a7-47aff436e16c","system_id":"levelo_inurba_marseille","lat":43.33489,"lon":5.40795,"is_reserved":false,"is_disabled":false,"rental_uris":{"android":"levelo://app?vid=dfd33d42-13ef-40e4-b3a7-47aff436e16c","ios":"levelo://app?vid=dfd33d42-13ef-40e4-b3a7-47aff436e16c"},"vehicle_type_id":"4","last_reported":1729544915,"current_range_meters":12000,"station_id":"","pricing_plan_id":"cebpf4jnsgd1na2vs0mg"},{"bike_id":"9d89d63e-cd4d-4ed5-81e5-1dca3a7b87ce","system_id":"levelo_inurba_marseille","lat":43.27426,"lon":5.39415,"is_reserved":false,"is_disabled":false,"rental_uris":{"android":"levelo://app?vid=9d89d63e-cd4d-4ed5-81e5-1dca3a7b87ce","ios":"levelo://app?vid=9d89d63e-cd4d-4ed5-81e5-1dca3a7b87ce"},"vehicle_type_id":"4","last_reported":1729544915,"current_range_meters":26800,"station_id":"ce4bhdp2rcd13ifvqf20","pricing_plan_id":"cebpf4jnsgd1na2vs0mg"},{"bike_id":"0728974d-1ad5-4181-91f2-6035aab7157d","system_id":"levelo_inurba_marseille","lat":43.2319,"lon":5.35547,"is_reserved":false,"is_disabled":false,"rental_uris":{"android":"levelo://app?vid=0728974d-1ad5-4181-91f2-6035aab7157d","ios":"levelo://app?vid=0728974d-1ad5-4181-91f2-6035aab7157d"},"vehicle_type_id":"4","last_reported":1729544915,"current_range_meters":38800,"station_id":"ce4bhu92rcd13ifvqi70","pricing_plan_id":"cebpf4jnsgd1na2vs0mg"},{"bike_id":"40789e63-bb12-414a-9e11-b14620ea6085","system_id":"levelo_inurba_marseille","lat":43.31712,"lon":5.37758,"is_reserved":false,"is_disabled":false,"rental_uris":{"android":"levelo://app?vid=40789e63-bb12-414a-9e11-b14620ea6085","ios":"levelo://app?vid=40789e63-bb12-414a-9e11-b14620ea6085"},"vehicle_type_id":"4","last_reported":1729544915,"current_range_meters":17600,"station_id":"ce4bgth2rcd13ifvqch0","pricing_plan_id":"cebpf4jnsgd1na2vs0mg"},{"bike_id":"2c2f3718-7209-4389-9d1d-d985a7daaef2","system_id":"levelo_inurba_marseille","lat":43.31677,"lon":5.37534,"is_reserved":false,"is_disabled":false,"rental_uris":{"android":"levelo://app?vid=2c2f3718-7209-4389-9d1d-d985a7daaef2","ios":"levelo://app?vid=2c2f3718-7209-4389-9d1d-d985a7daaef2"},"vehicle_type_id":"4","last_reported":1729544915,"current_range_meters":13600,"station_id":"","pricing_plan_id":"cebpf4jnsgd1na2vs0mg"},{"bike_id":"579f0cff-5ce7-4199-aee1-cd5577056a07","system_id":"levelo_inurba_marseille","lat":43.26194,"lon":5.37447,"is_reserved":false,"is_disabled":false,"rental_uris":{"android":"levelo://app?vid=579f0cff-5ce7-4199-aee1-cd5577056a07","ios":"levelo://app?vid=579f0cff-5ce7-4199-aee1-cd5577056a07"},"vehicle_type_id":"4","last_reported":1729544915,"current_range_meters":9200,"station_id":"ce4bhgp2rcd13ifvqfc0","pricing_plan_id":"cebpf4jnsgd1na2vs0mg"},{"bike_id":"a7f80de7-a396-441c-acc3-f366d505c8c9","system_id":"levelo_inurba_marseille","lat":43.30435,"lon":5.38888,"is_reserved":false,"is_disabled":false,"rental_uris":{"android":"levelo://app?vid=a7f80de7-a396-441c-acc3-f366d505c8c9","ios":"levelo://app?vid=a7f80de7-a396-441c-acc3-f366d505c8c9"},"vehicle_type_id":"4","last_reported":1729544915,"current_range_meters":38800,"station_id":"ce4bgk12rcd13ifvqbi0","pricing_plan_id":"cebpf4jnsgd1na2vs0mg"},{"bike_id":"0cb8351a-4d23-4c96-9dcb-4d5b5412ea87","system_id":"levelo_inurba_marseille","lat":43.30251,"lon":5.40054,"is_reserved":false,"is_disabled":false,"rental_uris":{"android":"levelo://app?vid=0cb8351a-4d23-4c96-9dcb-4d5b5412ea87","ios":"levelo://app?vid=0cb8351a-4d23-4c96-9dcb-4d5b5412ea87"},"vehicle_type_id":"4","last_reported":1729544915,"current_range_meters":24800,"station_id":"ce4bgvh2rcd13ifvqcs0","pricing_plan_id":"cebpf4jnsgd1na2vs0mg"},{"bike_id":"fa20a991-1dea-48fc-afbb-63c05d1ec025","system_id":"levelo_inurba_marseille","lat":43.29785,"lon":5.37108,"is_reserved":false,"is_disabled":false,"rental_uris":{"android":"levelo://app?vid=fa20a991-1dea-48fc-afbb-63c05d1ec025","ios":"levelo://app?vid=fa20a991-1dea-48fc-afbb-63c05d1ec025"},"vehicle_type_id":"4","last_reported":1729544915,"current_range_meters":38800,"station_id":"ce4bgop2rcd13ifvqc1g","pricing_plan_id":"cebpf4jnsgd1na2vs0mg"},{"bike_id":"e62a894f-aa91-43a8-a8db-f23b8737397d","system_id":"levelo_inurba_marseille","lat":43.31491,"lon":5.37315,"is_reserved":false,"is_disabled":false,"rental_uris":{"android":"levelo://app?vid=e62a894f-aa91-43a8-a8db-f23b8737397d","ios":"levelo://app?vid=e62a894f-aa91-43a8-a8db-f23b8737397d"},"vehicle_type_id":"4","last_reported":1729544915,"current_range_meters":31200,"station_id":"ce4bgt12rcd13ifvqcd0","pricing_plan_id":"cebpf4jnsgd1na2vs0mg"},{"bike_id":"33ceddba-4cde-4193-9e1a-0e1fdb0a2205","system_id":"levelo_inurba_marseille","lat":43.31279,"lon":5.40137,"is_reserved":false,"is_disabled":false,"rental_uris":{"android":"levelo://app?vid=33ceddba-4cde-4193-9e1a-0e1fdb0a2205","ios":"levelo://app?vid=33ceddba-4cde-4193-9e1a-0e1fdb0a2205"},"vehicle_type_id":"4","last_reported":1729544915,"current_range_meters":38800,"station_id":"ce4bh092rcd13ifvqd30","pricing_plan_id":"cebpf4jnsgd1na2vs0mg"},{"bike_id":"a83c7b68-cf4e-46de-88aa-de72078f7bcd","system_id":"levelo_inurba_marseille","lat":43.31176,"lon":5.38714,"is_reserved":false,"is_disabled":false,"rental_uris":{"android":"levelo://app?vid=a83c7b68-cf4e-46de-88aa-de72078f7bcd","ios":"levelo://app?vid=a83c7b68-cf4e-46de-88aa-de72078f7bcd"},"vehicle_type_id":"4","last_reported":1729544915,"current_range_meters":36400,"station_id":"ce4bgv12rcd13ifvqcp0","pricing_plan_id":"cebpf4jnsgd1na2vs0mg"},{"bike_id":"79a1e020-318b-42a1-a8c0-a424b1daf69e","system_id":"levelo_inurba_marseille","lat":43.296,"lon":5.36142,"is_reserved":false,"is_disabled":false,"rental_uris":{"android":"levelo://app?vid=79a1e020-318b-42a1-a8c0-a424b1daf69e","ios":"levelo://app?vid=79a1e020-318b-42a1-a8c0-a424b1daf69e"},"vehicle_type_id":"4","last_reported":1729544915,"current_range_meters":8800,"station_id":"","pricing_plan_id":"cebpf4jnsgd1na2vs0mg"},{"bike_id":"93d37b3c-68af-4d6b-8c3b-1b14a8c56809","system_id":"levelo_inurba_marseille","lat":43.30643,"lon":5.40087,"is_reserved":false,"is_disabled":false,"rental_uris":{"android":"levelo://app?vid=93d37b3c-68af-4d6b-8c3b-1b14a8c56809","ios":"levelo://app?vid=93d37b3c-68af-4d6b-8c3b-1b14a8c56809"},"vehicle_type_id":"4","last_reported":1729544915,"current_range_meters":38800,"station_id":"ce4bh112rcd13ifvqda0","pricing_plan_id":"cebpf4jnsgd1na2vs0mg"},{"bike_id":"8fac5f5e-a414-4d3a-8ecf-5a0e9456b29e","system_id":"levelo_inurba_marseille","lat":43.30884,"lon":5.39653,"is_reserved":false,"is_disabled":false,"rental_uris":{"android":"levelo://app?vid=8fac5f5e-a414-4d3a-8ecf-5a0e9456b29e","ios":"levelo://app?vid=8fac5f5e-a414-4d3a-8ecf-5a0e9456b29e"},"vehicle_type_id":"4","last_reported":1729544915,"current_range_meters":26800,"station_id":"ce4bh012rcd13ifvqcv0","pricing_plan_id":"cebpf4jnsgd1na2vs0mg"},{"bike_id":"9bf9a108-7d5c-4517-b690-aa3ce06ef443","system_id":"levelo_inurba_marseille","lat":43.30355,"lon":5.41877,"is_reserved":false,"is_disabled":false,"rental_uris":{"android":"levelo://app?vid=9bf9a108-7d5c-4517-b690-aa3ce06ef443","ios":"levelo://app?vid=9bf9a108-7d5c-4517-b690-aa3ce06ef443"},"vehicle_type_id":"4","last_reported":1729544915,"current_range_meters":37600,"station_id":"ce4bhop2rcd13ifvqh7g","pricing_plan_id":"cebpf4jnsgd1na2vs0mg"},{"bike_id":"ab02ee1d-787b-471c-94b6-63687d804895","system_id":"levelo_inurba_marseille","lat":43.28616,"lon":5.35105,"is_reserved":false,"is_disabled":false,"rental_uris":{"android":"levelo://app?vid=ab02ee1d-787b-471c-94b6-63687d804895","ios":"levelo://app?vid=ab02ee1d-787b-471c-94b6-63687d804895"},"vehicle_type_id":"4","last_reported":1729544915,"current_range_meters":11600,"station_id":"ce4bhch2rcd13ifvqeug","pricing_plan_id":"cebpf4jnsgd1na2vs0mg"},{"bike_id":"a380b183-7537-4fff-8060-8ec31643c6dd","system_id":"levelo_inurba_marseille","lat":43.2511,"lon":5.40323,"is_reserved":false,"is_disabled":false,"rental_uris":{"android":"levelo://app?vid=a380b183-7537-4fff-8060-8ec31643c6dd","ios":"levelo://app?vid=a380b183-7537-4fff-8060-8ec31643c6dd"},"vehicle_type_id":"4","last_reported":1729544915,"current_range_meters":36400,"station_id":"ce4bhlh2rcd13ifvqgig","pricing_plan_id":"cebpf4jnsgd1na2vs0mg"},{"bike_id":"bf6cb37d-0a66-4fd9-9d8e-e5daa4e46a73","system_id":"levelo_inurba_marseille","lat":43.2892,"lon":5.38371,"is_reserved":false,"is_disabled":false,"rental_uris":{"android":"levelo://app?vid=bf6cb37d-0a66-4fd9-9d8e-e5daa4e46a73","ios":"levelo://app?vid=bf6cb37d-0a66-4fd9-9d8e-e5daa4e46a73"},"vehicle_type_id":"4","last_reported":1729544915,"current_range_meters":11200,"station_id":"","pricing_plan_id":"cebpf4jnsgd1na2vs0mg"},{"bike_id":"7adf842b-4b8c-4356-a23f-1be0cbaf4d21","system_id":"levelo_inurba_marseille","lat":43.231983,"lon":5.355548,"is_reserved":false,"is_disabled":false,"rental_uris":{"android":"levelo://app?vid=7adf842b-4b8c-4356-a23f-1be0cbaf4d21","ios":"levelo://app?vid=7adf842b-4b8c-4356-a23f-1be0cbaf4d21"},"vehicle_type_id":"4","last_reported":1729544915,"current_range_meters":14000,"station_id":"ce4bhu92rcd13ifvqi70","pricing_plan_id":"cebpf4jnsgd1na2vs0mg"},{"bike_id":"0691c9ea-cc86-4686-83e3-4a7423d18f10","system_id":"levelo_inurba_marseille","lat":43.30146,"lon":5.39893,"is_reserved":false,"is_disabled":false,"rental_uris":{"android":"levelo://app?vid=0691c9ea-cc86-4686-83e3-4a7423d18f10","ios":"levelo://app?vid=0691c9ea-cc86-4686-83e3-4a7423d18f10"},"vehicle_type_id":"4","last_reported":1729544915,"current_range_meters":38800,"station_id":"ce4bh0h2rcd13ifvqd40","pricing_plan_id":"cebpf4jnsgd1na2vs0mg"},{"bike_id":"3fbb21dc-457c-4028-8cc7-8a7ddebb915c","system_id":"levelo_inurba_marseille","lat":43.23191,"lon":5.35541,"is_reserved":false,"is_disabled":false,"rental_uris":{"android":"levelo://app?vid=3fbb21dc-457c-4028-8cc7-8a7ddebb915c","ios":"levelo://app?vid=3fbb21dc-457c-4028-8cc7-8a7ddebb915c"},"vehicle_type_id":"4","last_reported":1729544915,"current_range_meters":38800,"station_id":"ce4bhu92rcd13ifvqi70","pricing_plan_id":"cebpf4jnsgd1na2vs0mg"},{"bike_id":"8d66234d-ed10-4a56-b9bf-7024ed1a6c9c","system_id":"levelo_inurba_marseille","lat":43.32286,"lon":5.3827,"is_reserved":false,"is_disabled":false,"rental_uris":{"android":"levelo://app?vid=8d66234d-ed10-4a56-b9bf-7024ed1a6c9c","ios":"levelo://app?vid=8d66234d-ed10-4a56-b9bf-7024ed1a6c9c"},"vehicle_type_id":"4","last_reported":1729544915,"current_range_meters":8400,"station_id":"ce4bhr12rcd13ifvqhqg","pricing_plan_id":"cebpf4jnsgd1na2vs0mg"},{"bike_id":"c9596d43-eeee-4e9d-85ab-26dca0438156","system_id":"levelo_inurba_marseille","lat":43.26806,"lon":5.40276,"is_reserved":false,"is_disabled":false,"rental_uris":{"android":"levelo://app?vid=c9596d43-eeee-4e9d-85ab-26dca0438156","ios":"levelo://app?vid=c9596d43-eeee-4e9d-85ab-26dca0438156"},"vehicle_type_id":"4","last_reported":1729544915,"current_range_meters":27200,"station_id":"ce501612rcd8frsf0b60","pricing_plan_id":"cebpf4jnsgd1na2vs0mg"},{"bike_id":"8636b94d-2fa5-4494-9366-9ee15c62850a","system_id":"levelo_inurba_marseille","lat":43.28036,"lon":5.36947,"is_reserved":false,"is_disabled":false,"rental_uris":{"android":"levelo://app?vid=8636b94d-2fa5-4494-9366-9ee15c62850a","ios":"levelo://app?vid=8636b94d-2fa5-4494-9366-9ee15c62850a"},"vehicle_type_id":"4","last_reported":1729544915,"current_range_meters":38800,"station_id":"ce4bha12rcd13ifvqef0","pricing_plan_id":"cebpf4jnsgd1na2vs0mg"},{"bike_id":"355f1dc2-3476-4496-8420-f36b2652912a","system_id":"levelo_inurba_marseille","lat":43.31325,"lon":5.39683,"is_reserved":false,"is_disabled":false,"rental_uris":{"android":"levelo://app?vid=355f1dc2-3476-4496-8420-f36b2652912a","ios":"levelo://app?vid=355f1dc2-3476-4496-8420-f36b2652912a"},"vehicle_type_id":"4","last_reported":1729544915,"current_range_meters":16800,"station_id":"ce4bgvp2rcd13ifvqcu0","pricing_plan_id":"cebpf4jnsgd1na2vs0mg"},{"bike_id":"2e7e341d-6647-47b6-9b4f-10b43bf22d61","system_id":"levelo_inurba_marseille","lat":43.30422,"lon":5.41284,"is_reserved":false,"is_disabled":false,"rental_uris":{"android":"levelo://app?vid=2e7e341d-6647-47b6-9b4f-10b43bf22d61","ios":"levelo://app?vid=2e7e341d-6647-47b6-9b4f-10b43bf22d61"},"vehicle_type_id":"4","last_reported":1729544915,"current_range_meters":32800,"station_id":"ce4bhop2rcd13ifvqh8g","pricing_plan_id":"cebpf4jnsgd1na2vs0mg"},{"bike_id":"96a05e9e-0c51-4463-85bd-0d9eb7916e1e","system_id":"levelo_inurba_marseille","lat":43.29269,"lon":5.36843,"is_reserved":false,"is_disabled":false,"rental_uris":{"android":"levelo://app?vid=96a05e9e-0c51-4463-85bd-0d9eb7916e1e","ios":"levelo://app?vid=96a05e9e-0c51-4463-85bd-0d9eb7916e1e"},"vehicle_type_id":"4","last_reported":1729544915,"current_range_meters":20000,"station_id":"ce4bhbp2rcd13ifvqesg","pricing_plan_id":"cebpf4jnsgd1na2vs0mg"},{"bike_id":"9926919b-200e-4ea0-a4a8-95ae624636d3","system_id":"levelo_inurba_marseille","lat":43.25087,"lon":5.39523,"is_reserved":false,"is_disabled":false,"rental_uris":{"android":"levelo://app?vid=9926919b-200e-4ea0-a4a8-95ae624636d3","ios":"levelo://app?vid=9926919b-200e-4ea0-a4a8-95ae624636d3"},"vehicle_type_id":"4","last_reported":1729544915,"current_range_meters":30000,"station_id":"ce4bhm12rcd13ifvqgkg","pricing_plan_id":"cebpf4jnsgd1na2vs0mg"},{"bike_id":"e34fdb2e-8644-451c-8069-b133a92de5fd","system_id":"levelo_inurba_marseille","lat":43.2738,"lon":5.36253,"is_reserved":false,"is_disabled":false,"rental_uris":{"android":"levelo://app?vid=e34fdb2e-8644-451c-8069-b133a92de5fd","ios":"levelo://app?vid=e34fdb2e-8644-451c-8069-b133a92de5fd"},"vehicle_type_id":"4","last_reported":1729544915,"current_range_meters":38800,"station_id":"ce4bhbh2rcd13ifvqeo0","pricing_plan_id":"cebpf4jnsgd1na2vs0mg"},{"bike_id":"79ebeac6-41fd-4460-a402-858d87924da2","system_id":"levelo_inurba_marseille","lat":43.28969,"lon":5.37819,"is_reserved":false,"is_disabled":false,"rental_uris":{"android":"levelo://app?vid=79ebeac6-41fd-4460-a402-858d87924da2","ios":"levelo://app?vid=79ebeac6-41fd-4460-a402-858d87924da2"},"vehicle_type_id":"4","last_reported":1729544915,"current_range_meters":38000,"station_id":"ce4bh9p2rcd13ifvqed0","pricing_plan_id":"cebpf4jnsgd1na2vs0mg"},{"bike_id":"b3104e33-9459-48f1-a6de-d63ef857c18a","system_id":"levelo_inurba_marseille","lat":43.3266,"lon":5.4099,"is_reserved":false,"is_disabled":false,"rental_uris":{"android":"levelo://app?vid=b3104e33-9459-48f1-a6de-d63ef857c18a","ios":"levelo://app?vid=b3104e33-9459-48f1-a6de-d63ef857c18a"},"vehicle_type_id":"4","last_reported":1729544915,"current_range_meters":33200,"station_id":"ce4bhpp2rcd13ifvqhgg","pricing_plan_id":"cebpf4jnsgd1na2vs0mg"},{"bike_id":"effaaa36-be46-4f3d-b58c-ca2717c9f68a","system_id":"levelo_inurba_marseille","lat":43.27426,"lon":5.39426,"is_reserved":false,"is_disabled":false,"rental_uris":{"android":"levelo://app?vid=effaaa36-be46-4f3d-b58c-ca2717c9f68a","ios":"levelo://app?vid=effaaa36-be46-4f3d-b58c-ca2717c9f68a"},"vehicle_type_id":"4","last_reported":1729544915,"current_range_meters":35600,"station_id":"ce4bhdp2rcd13ifvqf20","pricing_plan_id":"cebpf4jnsgd1na2vs0mg"},{"bike_id":"a54cc215-8ad8-4ec0-8dea-3982f6a14318","system_id":"levelo_inurba_marseille","lat":43.29968,"lon":5.38493,"is_reserved":false,"is_disabled":false,"rental_uris":{"android":"levelo://app?vid=a54cc215-8ad8-4ec0-8dea-3982f6a14318","ios":"levelo://app?vid=a54cc215-8ad8-4ec0-8dea-3982f6a14318"},"vehicle_type_id":"4","last_reported":1729544915,"current_range_meters":12000,"station_id":"ce4bgj92rcd13ifvqbd0","pricing_plan_id":"cebpf4jnsgd1na2vs0mg"},{"bike_id":"a28221e9-a1a9-4fdb-abf6-3e4386cfaae2","system_id":"levelo_inurba_marseille","lat":43.31177,"lon":5.38709,"is_reserved":false,"is_disabled":false,"rental_uris":{"android":"levelo://app?vid=a28221e9-a1a9-4fdb-abf6-3e4386cfaae2","ios":"levelo://app?vid=a28221e9-a1a9-4fdb-abf6-3e4386cfaae2"},"vehicle_type_id":"4","last_reported":1729544915,"current_range_meters":36400,"station_id":"ce4bgv12rcd13ifvqcp0","pricing_plan_id":"cebpf4jnsgd1na2vs0mg"},{"bike_id":"d35aead5-74d9-4a00-baad-d7d1ed435177","system_id":"levelo_inurba_marseille","lat":43.24071,"lon":5.37757,"is_reserved":false,"is_disabled":false,"rental_uris":{"android":"levelo://app?vid=d35aead5-74d9-4a00-baad-d7d1ed435177","ios":"levelo://app?vid=d35aead5-74d9-4a00-baad-d7d1ed435177"},"vehicle_type_id":"4","last_reported":1729544915,"current_range_meters":38800,"station_id":"ce4bhnp2rcd13ifvqgvg","pricing_plan_id":"cebpf4jnsgd1na2vs0mg"},{"bike_id":"773428ac-f2af-48e2-8731-75abfd73f78c","system_id":"levelo_inurba_marseille","lat":43.31176,"lon":5.38716,"is_reserved":false,"is_disabled":false,"rental_uris":{"android":"levelo://app?vid=773428ac-f2af-48e2-8731-75abfd73f78c","ios":"levelo://app?vid=773428ac-f2af-48e2-8731-75abfd73f78c"},"vehicle_type_id":"4","last_reported":1729544915,"current_range_meters":36400,"station_id":"ce4bgv12rcd13ifvqcp0","pricing_plan_id":"cebpf4jnsgd1na2vs0mg"},{"bike_id":"51ea97ec-a75d-4d05-83e0-77fb4ac58724","system_id":"levelo_inurba_marseille","lat":43.269524,"lon":5.386302,"is_reserved":false,"is_disabled":false,"rental_uris":{"android":"levelo://app?vid=51ea97ec-a75d-4d05-83e0-77fb4ac58724","ios":"levelo://app?vid=51ea97ec-a75d-4d05-83e0-77fb4ac58724"},"vehicle_type_id":"4","last_reported":1729544915,"current_range_meters":35200,"station_id":"ce4bhh92rcd13ifvqfh0","pricing_plan_id":"cebpf4jnsgd1na2vs0mg"},{"bike_id":"3b14897a-daf5-4d7e-8b82-86c5bdae4669","system_id":"levelo_inurba_marseille","lat":43.28608,"lon":5.37072,"is_reserved":false,"is_disabled":false,"rental_uris":{"android":"levelo://app?vid=3b14897a-daf5-4d7e-8b82-86c5bdae4669","ios":"levelo://app?vid=3b14897a-daf5-4d7e-8b82-86c5bdae4669"},"vehicle_type_id":"4","last_reported":1729544915,"current_range_meters":28400,"station_id":"ce4bht12rcd13ifvqi60","pricing_plan_id":"cebpf4jnsgd1na2vs0mg"},{"bike_id":"8862cc52-98fd-42d3-8253-50356a0e7b4b","system_id":"levelo_inurba_marseille","lat":43.26031,"lon":5.3755,"is_reserved":false,"is_disabled":false,"rental_uris":{"android":"levelo://app?vid=8862cc52-98fd-42d3-8253-50356a0e7b4b","ios":"levelo://app?vid=8862cc52-98fd-42d3-8253-50356a0e7b4b"},"vehicle_type_id":"4","last_reported":1729544915,"current_range_meters":28000,"station_id":"ce4bhgh2rcd13ifvqfa0","pricing_plan_id":"cebpf4jnsgd1na2vs0mg"},{"bike_id":"c3945b60-e38d-4106-8f18-92c7f436cc4f","system_id":"levelo_inurba_marseille","lat":43.33757,"lon":5.37448,"is_reserved":false,"is_disabled":false,"rental_uris":{"android":"levelo://app?vid=c3945b60-e38d-4106-8f18-92c7f436cc4f","ios":"levelo://app?vid=c3945b60-e38d-4106-8f18-92c7f436cc4f"},"vehicle_type_id":"4","last_reported":1729544915,"current_range_meters":34800,"station_id":"","pricing_plan_id":"cebpf4jnsgd1na2vs0mg"},{"bike_id":"f16eeefd-f959-41fd-8bf9-dcd366725465","system_id":"levelo_inurba_marseille","lat":43.29697,"lon":5.37307,"is_reserved":false,"is_disabled":false,"rental_uris":{"android":"levelo://app?vid=f16eeefd-f959-41fd-8bf9-dcd366725465","ios":"levelo://app?vid=f16eeefd-f959-41fd-8bf9-dcd366725465"},"vehicle_type_id":"4","last_reported":1729544915,"current_range_meters":38800,"station_id":"ce4bgk12rcd13ifvqbj0","pricing_plan_id":"cebpf4jnsgd1na2vs0mg"},{"bike_id":"de1ff86d-3061-40a1-be1e-8be446e6115e","system_id":"levelo_inurba_marseille","lat":43.29588,"lon":5.38157,"is_reserved":false,"is_disabled":false,"rental_uris":{"android":"levelo://app?vid=de1ff86d-3061-40a1-be1e-8be446e6115e","ios":"levelo://app?vid=de1ff86d-3061-40a1-be1e-8be446e6115e"},"vehicle_type_id":"4","last_reported":1729544915,"current_range_meters":17600,"station_id":"ce4bgl12rcd13ifvqbo0","pricing_plan_id":"cebpf4jnsgd1na2vs0mg"},{"bike_id":"d4f78131-9ff8-46cf-a2ee-5bc67ac59958","system_id":"levelo_inurba_marseille","lat":43.27377,"lon":5.3626,"is_reserved":false,"is_disabled":false,"rental_uris":{"android":"levelo://app?vid=d4f78131-9ff8-46cf-a2ee-5bc67ac59958","ios":"levelo://app?vid=d4f78131-9ff8-46cf-a2ee-5bc67ac59958"},"vehicle_type_id":"4","last_reported":1729544915,"current_range_meters":38800,"station_id":"ce4bhbh2rcd13ifvqeo0","pricing_plan_id":"cebpf4jnsgd1na2vs0mg"},{"bike_id":"804059e5-aaa7-42e0-98ea-49434fd7bf0c","system_id":"levelo_inurba_marseille","lat":43.30192,"lon":5.36621,"is_reserved":false,"is_disabled":false,"rental_uris":{"android":"levelo://app?vid=804059e5-aaa7-42e0-98ea-49434fd7bf0c","ios":"levelo://app?vid=804059e5-aaa7-42e0-98ea-49434fd7bf0c"},"vehicle_type_id":"4","last_reported":1729544915,"current_range_meters":26800,"station_id":"ce4bgrh2rcd13ifvqc8g","pricing_plan_id":"cebpf4jnsgd1na2vs0mg"},{"bike_id":"187768a6-b7a7-4705-b7cd-5ddf89bff83c","system_id":"levelo_inurba_marseille","lat":43.30883,"lon":5.39652,"is_reserved":false,"is_disabled":false,"rental_uris":{"android":"levelo://app?vid=187768a6-b7a7-4705-b7cd-5ddf89bff83c","ios":"levelo://app?vid=187768a6-b7a7-4705-b7cd-5ddf89bff83c"},"vehicle_type_id":"4","last_reported":1729544915,"current_range_meters":31200,"station_id":"ce4bh012rcd13ifvqcv0","pricing_plan_id":"cebpf4jnsgd1na2vs0mg"},{"bike_id":"4f464c23-4399-4563-a81a-9ce8a43a65d6","system_id":"levelo_inurba_marseille","lat":43.28359,"lon":5.38105,"is_reserved":false,"is_disabled":false,"rental_uris":{"android":"levelo://app?vid=4f464c23-4399-4563-a81a-9ce8a43a65d6","ios":"levelo://app?vid=4f464c23-4399-4563-a81a-9ce8a43a65d6"},"vehicle_type_id":"4","last_reported":1729544915,"current_range_meters":4400,"station_id":"ce4bh412rcd13ifvqdr0","pricing_plan_id":"cebpf4jnsgd1na2vs0mg"},{"bike_id":"14e7d692-0ab9-40d6-8124-440d2cc5d039","system_id":"levelo_inurba_marseille","lat":43.28108,"lon":5.37841,"is_reserved":false,"is_disabled":false,"rental_uris":{"android":"levelo://app?vid=14e7d692-0ab9-40d6-8124-440d2cc5d039","ios":"levelo://app?vid=14e7d692-0ab9-40d6-8124-440d2cc5d039"},"vehicle_type_id":"4","last_reported":1729544915,"current_range_meters":27200,"station_id":"ce4bha12rcd13ifvqee0","pricing_plan_id":"cebpf4jnsgd1na2vs0mg"},{"bike_id":"1cc8c524-3a72-465f-8ebe-e4c35d504abb","system_id":"levelo_inurba_marseille","lat":43.24068,"lon":5.37762,"is_reserved":false,"is_disabled":false,"rental_uris":{"android":"levelo://app?vid=1cc8c524-3a72-465f-8ebe-e4c35d504abb","ios":"levelo://app?vid=1cc8c524-3a72-465f-8ebe-e4c35d504abb"},"vehicle_type_id":"4","last_reported":1729544915,"current_range_meters":24000,"station_id":"ce4bhnp2rcd13ifvqgvg","pricing_plan_id":"cebpf4jnsgd1na2vs0mg"},{"bike_id":"d6302fba-4a4b-48e2-955d-c7fff95e7dbf","system_id":"levelo_inurba_marseille","lat":43.31276,"lon":5.40164,"is_reserved":false,"is_disabled":false,"rental_uris":{"android":"levelo://app?vid=d6302fba-4a4b-48e2-955d-c7fff95e7dbf","ios":"levelo://app?vid=d6302fba-4a4b-48e2-955d-c7fff95e7dbf"},"vehicle_type_id":"4","last_reported":1729544915,"current_range_meters":6800,"station_id":"ce4bh092rcd13ifvqd30","pricing_plan_id":"cebpf4jnsgd1na2vs0mg"},{"bike_id":"b98c53b4-846d-4a89-a172-20ae0f114d2d","system_id":"levelo_inurba_marseille","lat":43.30638,"lon":5.40087,"is_reserved":false,"is_disabled":false,"rental_uris":{"android":"levelo://app?vid=b98c53b4-846d-4a89-a172-20ae0f114d2d","ios":"levelo://app?vid=b98c53b4-846d-4a89-a172-20ae0f114d2d"},"vehicle_type_id":"4","last_reported":1729544915,"current_range_meters":28800,"station_id":"ce4bh112rcd13ifvqda0","pricing_plan_id":"cebpf4jnsgd1na2vs0mg"},{"bike_id":"2f337acb-59ad-4ffb-8ac7-70f08c699b4c","system_id":"levelo_inurba_marseille","lat":43.29887,"lon":5.38903,"is_reserved":false,"is_disabled":false,"rental_uris":{"android":"levelo://app?vid=2f337acb-59ad-4ffb-8ac7-70f08c699b4c","ios":"levelo://app?vid=2f337acb-59ad-4ffb-8ac7-70f08c699b4c"},"vehicle_type_id":"4","last_reported":1729544915,"current_range_meters":36000,"station_id":"ce4bh392rcd13ifvqdl0","pricing_plan_id":"cebpf4jnsgd1na2vs0mg"},{"bike_id":"fa5e29a6-0e56-4e82-8832-c53e4b1a95ab","system_id":"levelo_inurba_marseille","lat":43.249597,"lon":5.389602,"is_reserved":false,"is_disabled":false,"rental_uris":{"android":"levelo://app?vid=fa5e29a6-0e56-4e82-8832-c53e4b1a95ab","ios":"levelo://app?vid=fa5e29a6-0e56-4e82-8832-c53e4b1a95ab"},"vehicle_type_id":"4","last_reported":1729544915,"current_range_meters":38800,"station_id":"ce4bhgp2rcd13ifvqfd0","pricing_plan_id":"cebpf4jnsgd1na2vs0mg"},{"bike_id":"ab4867db-7662-4a17-9204-8cf9e78260e5","system_id":"levelo_inurba_marseille","lat":43.27625,"lon":5.36104,"is_reserved":false,"is_disabled":false,"rental_uris":{"android":"levelo://app?vid=ab4867db-7662-4a17-9204-8cf9e78260e5","ios":"levelo://app?vid=ab4867db-7662-4a17-9204-8cf9e78260e5"},"vehicle_type_id":"4","last_reported":1729544915,"current_range_meters":39200,"station_id":"ce4bgj92rcd13ifvqbe0","pricing_plan_id":"cebpf4jnsgd1na2vs0mg"},{"bike_id":"588c6f94-63a1-426d-953d-b7bc8db3f709","system_id":"levelo_inurba_marseille","lat":43.27923,"lon":5.3801,"is_reserved":false,"is_disabled":false,"rental_uris":{"android":"levelo://app?vid=588c6f94-63a1-426d-953d-b7bc8db3f709","ios":"levelo://app?vid=588c6f94-63a1-426d-953d-b7bc8db3f709"},"vehicle_type_id":"4","last_reported":1729544915,"current_range_meters":2800,"station_id":"ce4bhf92rcd13ifvqf50","pricing_plan_id":"cebpf4jnsgd1na2vs0mg"},{"bike_id":"83a27295-b54e-41e4-a664-e929b29facf5","system_id":"levelo_inurba_marseille","lat":43.29773,"lon":5.371,"is_reserved":false,"is_disabled":false,"rental_uris":{"android":"levelo://app?vid=83a27295-b54e-41e4-a664-e929b29facf5","ios":"levelo://app?vid=83a27295-b54e-41e4-a664-e929b29facf5"},"vehicle_type_id":"4","last_reported":1729544915,"current_range_meters":17200,"station_id":"ce4bgop2rcd13ifvqc1g","pricing_plan_id":"cebpf4jnsgd1na2vs0mg"},{"bike_id":"72f63983-e112-4b56-a265-24560ff50b47","system_id":"levelo_inurba_marseille","lat":43.31065,"lon":5.38347,"is_reserved":false,"is_disabled":false,"rental_uris":{"android":"levelo://app?vid=72f63983-e112-4b56-a265-24560ff50b47","ios":"levelo://app?vid=72f63983-e112-4b56-a265-24560ff50b47"},"vehicle_type_id":"4","last_reported":1729544915,"current_range_meters":30000,"station_id":"ce4bgv92rcd13ifvqcr0","pricing_plan_id":"cebpf4jnsgd1na2vs0mg"},{"bike_id":"97b6dd41-f6a5-4063-ab96-61be62bf84f9","system_id":"levelo_inurba_marseille","lat":43.30954,"lon":5.39054,"is_reserved":false,"is_disabled":false,"rental_uris":{"android":"levelo://app?vid=97b6dd41-f6a5-4063-ab96-61be62bf84f9","ios":"levelo://app?vid=97b6dd41-f6a5-4063-ab96-61be62bf84f9"},"vehicle_type_id":"4","last_reported":1729544915,"current_range_meters":31200,"station_id":"ce4bgup2rcd13ifvqco0","pricing_plan_id":"cebpf4jnsgd1na2vs0mg"},{"bike_id":"fc173ade-800e-46df-a64c-19fbb4304a28","system_id":"levelo_inurba_marseille","lat":43.28722,"lon":5.36081,"is_reserved":false,"is_disabled":false,"rental_uris":{"android":"levelo://app?vid=fc173ade-800e-46df-a64c-19fbb4304a28","ios":"levelo://app?vid=fc173ade-800e-46df-a64c-19fbb4304a28"},"vehicle_type_id":"4","last_reported":1729544915,"current_range_meters":18000,"station_id":"cki0cbj6b192h4jlfktg","pricing_plan_id":"cebpf4jnsgd1na2vs0mg"},{"bike_id":"c4bd4984-7993-47cd-a212-6b533f74abb4","system_id":"levelo_inurba_marseille","lat":43.311768,"lon":5.3871,"is_reserved":false,"is_disabled":false,"rental_uris":{"android":"levelo://app?vid=c4bd4984-7993-47cd-a212-6b533f74abb4","ios":"levelo://app?vid=c4bd4984-7993-47cd-a212-6b533f74abb4"},"vehicle_type_id":"4","last_reported":1729544915,"current_range_meters":24000,"station_id":"ce4bgv12rcd13ifvqcp0","pricing_plan_id":"cebpf4jnsgd1na2vs0mg"},{"bike_id":"5f7d4f90-4785-4f38-85ff-282113d1a444","system_id":"levelo_inurba_marseille","lat":43.29793,"lon":5.39344,"is_reserved":false,"is_disabled":false,"rental_uris":{"android":"levelo://app?vid=5f7d4f90-4785-4f38-85ff-282113d1a444","ios":"levelo://app?vid=5f7d4f90-4785-4f38-85ff-282113d1a444"},"vehicle_type_id":"4","last_reported":1729544915,"current_range_meters":38800,"station_id":"chh1huq6cuj3fo74tm60","pricing_plan_id":"cebpf4jnsgd1na2vs0mg"},{"bike_id":"bfb6332f-96eb-45c4-966b-356eea76da84","system_id":"levelo_inurba_marseille","lat":43.31479,"lon":5.37309,"is_reserved":false,"is_disabled":false,"rental_uris":{"android":"levelo://app?vid=bfb6332f-96eb-45c4-966b-356eea76da84","ios":"levelo://app?vid=bfb6332f-96eb-45c4-966b-356eea76da84"},"vehicle_type_id":"4","last_reported":1729544915,"current_range_meters":34000,"station_id":"ce4bgt12rcd13ifvqcd0","pricing_plan_id":"cebpf4jnsgd1na2vs0mg"},{"bike_id":"838134ea-11b7-4776-aad5-c9292871a849","system_id":"levelo_inurba_marseille","lat":43.3176,"lon":5.39016,"is_reserved":false,"is_disabled":false,"rental_uris":{"android":"levelo://app?vid=838134ea-11b7-4776-aad5-c9292871a849","ios":"levelo://app?vid=838134ea-11b7-4776-aad5-c9292871a849"},"vehicle_type_id":"4","last_reported":1729544915,"current_range_meters":38800,"station_id":"ce4bhqp2rcd13ifvqhng","pricing_plan_id":"cebpf4jnsgd1na2vs0mg"},{"bike_id":"3ea09a10-f162-4757-ba76-6a9d27859e6e","system_id":"levelo_inurba_marseille","lat":43.27666,"lon":5.38882,"is_reserved":false,"is_disabled":false,"rental_uris":{"android":"levelo://app?vid=3ea09a10-f162-4757-ba76-6a9d27859e6e","ios":"levelo://app?vid=3ea09a10-f162-4757-ba76-6a9d27859e6e"},"vehicle_type_id":"4","last_reported":1729544915,"current_range_meters":9600,"station_id":"ce4bhi12rcd13ifvqfo0","pricing_plan_id":"cebpf4jnsgd1na2vs0mg"},{"bike_id":"ce85f31d-b0bf-4e97-9943-52c3fe6ab74e","system_id":"levelo_inurba_marseille","lat":43.307904,"lon":5.376505,"is_reserved":false,"is_disabled":false,"rental_uris":{"android":"levelo://app?vid=ce85f31d-b0bf-4e97-9943-52c3fe6ab74e","ios":"levelo://app?vid=ce85f31d-b0bf-4e97-9943-52c3fe6ab74e"},"vehicle_type_id":"4","last_reported":1729544915,"current_range_meters":37600,"station_id":"ce4bgv92rcd13ifvqcq0","pricing_plan_id":"cebpf4jnsgd1na2vs0mg"},{"bike_id":"ca832f59-a618-411e-bcce-5749cfbe6484","system_id":"levelo_inurba_marseille","lat":43.27808,"lon":5.40708,"is_reserved":false,"is_disabled":false,"rental_uris":{"android":"levelo://app?vid=ca832f59-a618-411e-bcce-5749cfbe6484","ios":"levelo://app?vid=ca832f59-a618-411e-bcce-5749cfbe6484"},"vehicle_type_id":"4","last_reported":1729544915,"current_range_meters":32000,"station_id":"ce4bhnh2rcd13ifvqgtg","pricing_plan_id":"cebpf4jnsgd1na2vs0mg"},{"bike_id":"8913b4e4-7c4d-48af-ba57-e2c3579843d0","system_id":"levelo_inurba_marseille","lat":43.27614,"lon":5.3611,"is_reserved":false,"is_disabled":false,"rental_uris":{"android":"levelo://app?vid=8913b4e4-7c4d-48af-ba57-e2c3579843d0","ios":"levelo://app?vid=8913b4e4-7c4d-48af-ba57-e2c3579843d0"},"vehicle_type_id":"4","last_reported":1729544915,"current_range_meters":5600,"station_id":"ce4bgj92rcd13ifvqbe0","pricing_plan_id":"cebpf4jnsgd1na2vs0mg"},{"bike_id":"f3b8dab0-6f3a-4568-8501-97e463a66763","system_id":"levelo_inurba_marseille","lat":43.29204,"lon":5.393175,"is_reserved":false,"is_disabled":false,"rental_uris":{"android":"levelo://app?vid=f3b8dab0-6f3a-4568-8501-97e463a66763","ios":"levelo://app?vid=f3b8dab0-6f3a-4568-8501-97e463a66763"},"vehicle_type_id":"4","last_reported":1729544915,"current_range_meters":35200,"station_id":"ce4bh192rcd13ifvqdd0","pricing_plan_id":"cebpf4jnsgd1na2vs0mg"},{"bike_id":"304d7e02-912c-4907-96d9-2ac2500c1d4a","system_id":"levelo_inurba_marseille","lat":43.31399,"lon":5.38081,"is_reserved":false,"is_disabled":false,"rental_uris":{"android":"levelo://app?vid=304d7e02-912c-4907-96d9-2ac2500c1d4a","ios":"levelo://app?vid=304d7e02-912c-4907-96d9-2ac2500c1d4a"},"vehicle_type_id":"4","last_reported":1729544915,"current_range_meters":14400,"station_id":"","pricing_plan_id":"cebpf4jnsgd1na2vs0mg"},{"bike_id":"dc05d92d-106b-4f33-a138-b3eced1ad12e","system_id":"levelo_inurba_marseille","lat":43.31079,"lon":5.38347,"is_reserved":false,"is_disabled":false,"rental_uris":{"android":"levelo://app?vid=dc05d92d-106b-4f33-a138-b3eced1ad12e","ios":"levelo://app?vid=dc05d92d-106b-4f33-a138-b3eced1ad12e"},"vehicle_type_id":"4","last_reported":1729544915,"current_range_meters":30800,"station_id":"ce4bgv92rcd13ifvqcr0","pricing_plan_id":"cebpf4jnsgd1na2vs0mg"},{"bike_id":"0705f38a-5e3d-4526-8d8f-b375c831f19b","system_id":"levelo_inurba_marseille","lat":43.295172,"lon":5.394048,"is_reserved":false,"is_disabled":false,"rental_uris":{"android":"levelo://app?vid=0705f38a-5e3d-4526-8d8f-b375c831f19b","ios":"levelo://app?vid=0705f38a-5e3d-4526-8d8f-b375c831f19b"},"vehicle_type_id":"4","last_reported":1729544915,"current_range_meters":28800,"station_id":"ce4bh292rcd13ifvqdf0","pricing_plan_id":"cebpf4jnsgd1na2vs0mg"},{"bike_id":"849934f4-23f9-44e2-a115-a17824dd7215","system_id":"levelo_inurba_marseille","lat":43.31756,"lon":5.39015,"is_reserved":false,"is_disabled":false,"rental_uris":{"android":"levelo://app?vid=849934f4-23f9-44e2-a115-a17824dd7215","ios":"levelo://app?vid=849934f4-23f9-44e2-a115-a17824dd7215"},"vehicle_type_id":"4","last_reported":1729544915,"current_range_meters":16000,"station_id":"ce4bhqp2rcd13ifvqhng","pricing_plan_id":"cebpf4jnsgd1na2vs0mg"},{"bike_id":"0ce6a187-cd9b-4f08-b247-e6d5d0d87fc5","system_id":"levelo_inurba_marseille","lat":43.31166,"lon":5.38717,"is_reserved":false,"is_disabled":false,"rental_uris":{"android":"levelo://app?vid=0ce6a187-cd9b-4f08-b247-e6d5d0d87fc5","ios":"levelo://app?vid=0ce6a187-cd9b-4f08-b247-e6d5d0d87fc5"},"vehicle_type_id":"4","last_reported":1729544915,"current_range_meters":32400,"station_id":"ce4bgv12rcd13ifvqcp0","pricing_plan_id":"cebpf4jnsgd1na2vs0mg"},{"bike_id":"90c3a7c5-e4e7-4ce2-bfab-27e6176af8a4","system_id":"levelo_inurba_marseille","lat":43.28573,"lon":5.39502,"is_reserved":false,"is_disabled":false,"rental_uris":{"android":"levelo://app?vid=90c3a7c5-e4e7-4ce2-bfab-27e6176af8a4","ios":"levelo://app?vid=90c3a7c5-e4e7-4ce2-bfab-27e6176af8a4"},"vehicle_type_id":"4","last_reported":1729544915,"current_range_meters":38800,"station_id":"ce4bh292rcd13ifvqdg0","pricing_plan_id":"cebpf4jnsgd1na2vs0mg"},{"bike_id":"8273f07f-4a55-425c-8610-6e9ec4f94b46","system_id":"levelo_inurba_marseille","lat":43.33024,"lon":5.3904,"is_reserved":false,"is_disabled":false,"rental_uris":{"android":"levelo://app?vid=8273f07f-4a55-425c-8610-6e9ec4f94b46","ios":"levelo://app?vid=8273f07f-4a55-425c-8610-6e9ec4f94b46"},"vehicle_type_id":"4","last_reported":1729544915,"current_range_meters":33200,"station_id":"ce4bhr92rcd13ifvqhrg","pricing_plan_id":"cebpf4jnsgd1na2vs0mg"},{"bike_id":"815dd284-1bd2-4bb9-992a-b2116e2485bc","system_id":"levelo_inurba_marseille","lat":43.32783,"lon":5.36156,"is_reserved":false,"is_disabled":false,"rental_uris":{"android":"levelo://app?vid=815dd284-1bd2-4bb9-992a-b2116e2485bc","ios":"levelo://app?vid=815dd284-1bd2-4bb9-992a-b2116e2485bc"},"vehicle_type_id":"4","last_reported":1729544915,"current_range_meters":36000,"station_id":"","pricing_plan_id":"cebpf4jnsgd1na2vs0mg"},{"bike_id":"3788abb5-477f-4c60-a2ba-813f159876ac","system_id":"levelo_inurba_marseille","lat":43.278228,"lon":5.407377,"is_reserved":false,"is_disabled":false,"rental_uris":{"android":"levelo://app?vid=3788abb5-477f-4c60-a2ba-813f159876ac","ios":"levelo://app?vid=3788abb5-477f-4c60-a2ba-813f159876ac"},"vehicle_type_id":"4","last_reported":1729544915,"current_range_meters":20400,"station_id":"ce4bhnh2rcd13ifvqgtg","pricing_plan_id":"cebpf4jnsgd1na2vs0mg"},{"bike_id":"a6becff1-00d3-47fa-8898-3ba6d7221fbe","system_id":"levelo_inurba_marseille","lat":43.23191,"lon":5.35548,"is_reserved":false,"is_disabled":false,"rental_uris":{"android":"levelo://app?vid=a6becff1-00d3-47fa-8898-3ba6d7221fbe","ios":"levelo://app?vid=a6becff1-00d3-47fa-8898-3ba6d7221fbe"},"vehicle_type_id":"4","last_reported":1729544915,"current_range_meters":38800,"station_id":"ce4bhu92rcd13ifvqi70","pricing_plan_id":"cebpf4jnsgd1na2vs0mg"},{"bike_id":"44e284fb-9223-4f66-b311-c83be2e9a988","system_id":"levelo_inurba_marseille","lat":43.24649,"lon":5.38896,"is_reserved":false,"is_disabled":false,"rental_uris":{"android":"levelo://app?vid=44e284fb-9223-4f66-b311-c83be2e9a988","ios":"levelo://app?vid=44e284fb-9223-4f66-b311-c83be2e9a988"},"vehicle_type_id":"4","last_reported":1729544915,"current_range_meters":22800,"station_id":"ce4bhg12rcd13ifvqf60","pricing_plan_id":"cebpf4jnsgd1na2vs0mg"},{"bike_id":"a6a76372-51ee-4950-8069-2ddb6d34537b","system_id":"levelo_inurba_marseille","lat":43.30609,"lon":5.3723,"is_reserved":false,"is_disabled":false,"rental_uris":{"android":"levelo://app?vid=a6a76372-51ee-4950-8069-2ddb6d34537b","ios":"levelo://app?vid=a6a76372-51ee-4950-8069-2ddb6d34537b"},"vehicle_type_id":"4","last_reported":1729544915,"current_range_meters":14000,"station_id":"ce4bgqh2rcd13ifvqc4g","pricing_plan_id":"cebpf4jnsgd1na2vs0mg"},{"bike_id":"2b884fb0-97a2-4d3d-bedb-051530b2ea5d","system_id":"levelo_inurba_marseille","lat":43.286652,"lon":5.363489,"is_reserved":false,"is_disabled":false,"rental_uris":{"android":"levelo://app?vid=2b884fb0-97a2-4d3d-bedb-051530b2ea5d","ios":"levelo://app?vid=2b884fb0-97a2-4d3d-bedb-051530b2ea5d"},"vehicle_type_id":"4","last_reported":1729544915,"current_range_meters":37600,"station_id":"ce4bhah2rcd13ifvqej0","pricing_plan_id":"cebpf4jnsgd1na2vs0mg"},{"bike_id":"63789488-69ca-4cfc-ab5a-7ccb9e54e62c","system_id":"levelo_inurba_marseille","lat":43.30184,"lon":5.36603,"is_reserved":false,"is_disabled":false,"rental_uris":{"android":"levelo://app?vid=63789488-69ca-4cfc-ab5a-7ccb9e54e62c","ios":"levelo://app?vid=63789488-69ca-4cfc-ab5a-7ccb9e54e62c"},"vehicle_type_id":"4","last_reported":1729544915,"current_range_meters":14400,"station_id":"ce4bgrh2rcd13ifvqc8g","pricing_plan_id":"cebpf4jnsgd1na2vs0mg"},{"bike_id":"2c1fae55-921d-4a72-86b0-19b559b438c8","system_id":"levelo_inurba_marseille","lat":43.31718,"lon":5.42405,"is_reserved":false,"is_disabled":false,"rental_uris":{"android":"levelo://app?vid=2c1fae55-921d-4a72-86b0-19b559b438c8","ios":"levelo://app?vid=2c1fae55-921d-4a72-86b0-19b559b438c8"},"vehicle_type_id":"4","last_reported":1729544915,"current_range_meters":40000,"station_id":"ce4bhp92rcd13ifvqhbg","pricing_plan_id":"cebpf4jnsgd1na2vs0mg"},{"bike_id":"7d0dca22-54ac-4aec-9ef8-730e60c415ca","system_id":"levelo_inurba_marseille","lat":43.27495,"lon":5.42463,"is_reserved":false,"is_disabled":false,"rental_uris":{"android":"levelo://app?vid=7d0dca22-54ac-4aec-9ef8-730e60c415ca","ios":"levelo://app?vid=7d0dca22-54ac-4aec-9ef8-730e60c415ca"},"vehicle_type_id":"4","last_reported":1729544915,"current_range_meters":38800,"station_id":"ce4bhn92rcd13ifvqgrg","pricing_plan_id":"cebpf4jnsgd1na2vs0mg"},{"bike_id":"666519c5-e683-4df2-878e-89184480474b","system_id":"levelo_inurba_marseille","lat":43.28573,"lon":5.39497,"is_reserved":false,"is_disabled":false,"rental_uris":{"android":"levelo://app?vid=666519c5-e683-4df2-878e-89184480474b","ios":"levelo://app?vid=666519c5-e683-4df2-878e-89184480474b"},"vehicle_type_id":"4","last_reported":1729544915,"current_range_meters":38800,"station_id":"ce4bh292rcd13ifvqdg0","pricing_plan_id":"cebpf4jnsgd1na2vs0mg"},{"bike_id":"1aa14e46-d046-4cdd-b86b-2ba1e9f61538","system_id":"levelo_inurba_marseille","lat":43.28841,"lon":5.35853,"is_reserved":false,"is_disabled":false,"rental_uris":{"android":"levelo://app?vid=1aa14e46-d046-4cdd-b86b-2ba1e9f61538","ios":"levelo://app?vid=1aa14e46-d046-4cdd-b86b-2ba1e9f61538"},"vehicle_type_id":"4","last_reported":1729544915,"current_range_meters":20800,"station_id":"ce4bhb12rcd13ifvqem0","pricing_plan_id":"cebpf4jnsgd1na2vs0mg"},{"bike_id":"629f20cc-dfa1-43ee-b781-b6b2b0f7726e","system_id":"levelo_inurba_marseille","lat":43.25118,"lon":5.40317,"is_reserved":false,"is_disabled":false,"rental_uris":{"android":"levelo://app?vid=629f20cc-dfa1-43ee-b781-b6b2b0f7726e","ios":"levelo://app?vid=629f20cc-dfa1-43ee-b781-b6b2b0f7726e"},"vehicle_type_id":"4","last_reported":1729544915,"current_range_meters":16800,"station_id":"ce4bhlh2rcd13ifvqgig","pricing_plan_id":"cebpf4jnsgd1na2vs0mg"},{"bike_id":"f91cd0e2-7fe1-48d9-8e04-1ed2d04f7c33","system_id":"levelo_inurba_marseille","lat":43.30889,"lon":5.39633,"is_reserved":false,"is_disabled":false,"rental_uris":{"android":"levelo://app?vid=f91cd0e2-7fe1-48d9-8e04-1ed2d04f7c33","ios":"levelo://app?vid=f91cd0e2-7fe1-48d9-8e04-1ed2d04f7c33"},"vehicle_type_id":"4","last_reported":1729544915,"current_range_meters":26000,"station_id":"ce4bh012rcd13ifvqcv0","pricing_plan_id":"cebpf4jnsgd1na2vs0mg"},{"bike_id":"44b2505f-d298-45bb-ac9a-ed4a09cbbda2","system_id":"levelo_inurba_marseille","lat":43.31173,"lon":5.38717,"is_reserved":false,"is_disabled":false,"rental_uris":{"android":"levelo://app?vid=44b2505f-d298-45bb-ac9a-ed4a09cbbda2","ios":"levelo://app?vid=44b2505f-d298-45bb-ac9a-ed4a09cbbda2"},"vehicle_type_id":"4","last_reported":1729544915,"current_range_meters":29600,"station_id":"ce4bgv12rcd13ifvqcp0","pricing_plan_id":"cebpf4jnsgd1na2vs0mg"},{"bike_id":"480400dc-e3f6-417e-aa86-020754f281f9","system_id":"levelo_inurba_marseille","lat":43.30094,"lon":5.39089,"is_reserved":false,"is_disabled":false,"rental_uris":{"android":"levelo://app?vid=480400dc-e3f6-417e-aa86-020754f281f9","ios":"levelo://app?vid=480400dc-e3f6-417e-aa86-020754f281f9"},"vehicle_type_id":"4","last_reported":1729544915,"current_range_meters":36800,"station_id":"ce4bh192rcd13ifvqdb0","pricing_plan_id":"cebpf4jnsgd1na2vs0mg"},{"bike_id":"4fa46629-26b5-47a9-98a9-bc741508e7fa","system_id":"levelo_inurba_marseille","lat":43.245375,"lon":5.395043,"is_reserved":false,"is_disabled":false,"rental_uris":{"android":"levelo://app?vid=4fa46629-26b5-47a9-98a9-bc741508e7fa","ios":"levelo://app?vid=4fa46629-26b5-47a9-98a9-bc741508e7fa"},"vehicle_type_id":"4","last_reported":1729544915,"current_range_meters":38800,"station_id":"ce4bhlp2rcd13ifvqgjg","pricing_plan_id":"cebpf4jnsgd1na2vs0mg"},{"bike_id":"44d195bb-cfb4-4f79-a98c-1e55ff1748d3","system_id":"levelo_inurba_marseille","lat":43.3171,"lon":5.43708,"is_reserved":false,"is_disabled":false,"rental_uris":{"android":"levelo://app?vid=44d195bb-cfb4-4f79-a98c-1e55ff1748d3","ios":"levelo://app?vid=44d195bb-cfb4-4f79-a98c-1e55ff1748d3"},"vehicle_type_id":"4","last_reported":1729544915,"current_range_meters":38800,"station_id":"ce4bhp92rcd13ifvqhcg","pricing_plan_id":"cebpf4jnsgd1na2vs0mg"},{"bike_id":"f85dec27-df63-4a18-926e-66f10af2c426","system_id":"levelo_inurba_marseille","lat":43.301941,"lon":5.366161,"is_reserved":false,"is_disabled":false,"rental_uris":{"android":"levelo://app?vid=f85dec27-df63-4a18-926e-66f10af2c426","ios":"levelo://app?vid=f85dec27-df63-4a18-926e-66f10af2c426"},"vehicle_type_id":"4","last_reported":1729544915,"current_range_meters":14400,"station_id":"ce4bgrh2rcd13ifvqc8g","pricing_plan_id":"cebpf4jnsgd1na2vs0mg"},{"bike_id":"14b132de-19fe-4829-9e1a-1b2248bbbc44","system_id":"levelo_inurba_marseille","lat":43.23956,"lon":5.36634,"is_reserved":false,"is_disabled":false,"rental_uris":{"android":"levelo://app?vid=14b132de-19fe-4829-9e1a-1b2248bbbc44","ios":"levelo://app?vid=14b132de-19fe-4829-9e1a-1b2248bbbc44"},"vehicle_type_id":"4","last_reported":1729544915,"current_range_meters":38000,"station_id":"ce4bhi12rcd13ifvqfp0","pricing_plan_id":"cebpf4jnsgd1na2vs0mg"},{"bike_id":"b397cf4c-0834-4200-8969-aa488d0876a7","system_id":"levelo_inurba_marseille","lat":43.28424,"lon":5.37526,"is_reserved":false,"is_disabled":false,"rental_uris":{"android":"levelo://app?vid=b397cf4c-0834-4200-8969-aa488d0876a7","ios":"levelo://app?vid=b397cf4c-0834-4200-8969-aa488d0876a7"},"vehicle_type_id":"4","last_reported":1729544915,"current_range_meters":37600,"station_id":"ce4bh412rcd13ifvqds0","pricing_plan_id":"cebpf4jnsgd1na2vs0mg"},{"bike_id":"ae3fcb04-be9a-4eda-86cc-c69683243e47","system_id":"levelo_inurba_marseille","lat":43.23965,"lon":5.36637,"is_reserved":false,"is_disabled":false,"rental_uris":{"android":"levelo://app?vid=ae3fcb04-be9a-4eda-86cc-c69683243e47","ios":"levelo://app?vid=ae3fcb04-be9a-4eda-86cc-c69683243e47"},"vehicle_type_id":"4","last_reported":1729544915,"current_range_meters":38800,"station_id":"ce4bhi12rcd13ifvqfp0","pricing_plan_id":"cebpf4jnsgd1na2vs0mg"},{"bike_id":"e01af3fb-a46a-472a-a9ce-4d0d6e75d0db","system_id":"levelo_inurba_marseille","lat":43.28469,"lon":5.35886,"is_reserved":false,"is_disabled":false,"rental_uris":{"android":"levelo://app?vid=e01af3fb-a46a-472a-a9ce-4d0d6e75d0db","ios":"levelo://app?vid=e01af3fb-a46a-472a-a9ce-4d0d6e75d0db"},"vehicle_type_id":"4","last_reported":1729544915,"current_range_meters":38800,"station_id":"ce4bhah2rcd13ifvqei0","pricing_plan_id":"cebpf4jnsgd1na2vs0mg"},{"bike_id":"79d1c28e-5008-47b1-b89b-2a5f5d8adf90","system_id":"levelo_inurba_marseille","lat":43.30315,"lon":5.36906,"is_reserved":false,"is_disabled":false,"rental_uris":{"android":"levelo://app?vid=79d1c28e-5008-47b1-b89b-2a5f5d8adf90","ios":"levelo://app?vid=79d1c28e-5008-47b1-b89b-2a5f5d8adf90"},"vehicle_type_id":"4","last_reported":1729544915,"current_range_meters":30800,"station_id":"ce4bgqh2rcd13ifvqc5g","pricing_plan_id":"cebpf4jnsgd1na2vs0mg"},{"bike_id":"2cc0c306-d896-448c-9f2a-e204e9a87d9d","system_id":"levelo_inurba_marseille","lat":43.27975,"lon":5.38743,"is_reserved":false,"is_disabled":false,"rental_uris":{"android":"levelo://app?vid=2cc0c306-d896-448c-9f2a-e204e9a87d9d","ios":"levelo://app?vid=2cc0c306-d896-448c-9f2a-e204e9a87d9d"},"vehicle_type_id":"4","last_reported":1729544915,"current_range_meters":8800,"station_id":"ce4bhg12rcd13ifvqf80","pricing_plan_id":"cebpf4jnsgd1na2vs0mg"},{"bike_id":"bd9d84ae-e192-4e8b-ac42-1ba8570a72d5","system_id":"levelo_inurba_marseille","lat":43.30211,"lon":5.39466,"is_reserved":false,"is_disabled":false,"rental_uris":{"android":"levelo://app?vid=bd9d84ae-e192-4e8b-ac42-1ba8570a72d5","ios":"levelo://app?vid=bd9d84ae-e192-4e8b-ac42-1ba8570a72d5"},"vehicle_type_id":"4","last_reported":1729544915,"current_range_meters":33600,"station_id":"ce4bh0p2rcd13ifvqd70","pricing_plan_id":"cebpf4jnsgd1na2vs0mg"},{"bike_id":"1f568f62-7910-45fc-bf42-9e1be550d85c","system_id":"levelo_inurba_marseille","lat":43.30913,"lon":5.36847,"is_reserved":false,"is_disabled":false,"rental_uris":{"android":"levelo://app?vid=1f568f62-7910-45fc-bf42-9e1be550d85c","ios":"levelo://app?vid=1f568f62-7910-45fc-bf42-9e1be550d85c"},"vehicle_type_id":"4","last_reported":1729544915,"current_range_meters":35600,"station_id":"ce4bgn92rcd13ifvqbvg","pricing_plan_id":"cebpf4jnsgd1na2vs0mg"},{"bike_id":"04cb62a5-5f75-4225-94b3-209307e681d1","system_id":"levelo_inurba_marseille","lat":43.28562,"lon":5.39497,"is_reserved":false,"is_disabled":false,"rental_uris":{"android":"levelo://app?vid=04cb62a5-5f75-4225-94b3-209307e681d1","ios":"levelo://app?vid=04cb62a5-5f75-4225-94b3-209307e681d1"},"vehicle_type_id":"4","last_reported":1729544915,"current_range_meters":20400,"station_id":"ce4bh292rcd13ifvqdg0","pricing_plan_id":"cebpf4jnsgd1na2vs0mg"},{"bike_id":"e7b170f7-1a10-4029-971a-cccd271075f8","system_id":"levelo_inurba_marseille","lat":43.30917,"lon":5.36853,"is_reserved":false,"is_disabled":false,"rental_uris":{"android":"levelo://app?vid=e7b170f7-1a10-4029-971a-cccd271075f8","ios":"levelo://app?vid=e7b170f7-1a10-4029-971a-cccd271075f8"},"vehicle_type_id":"4","last_reported":1729544915,"current_range_meters":34000,"station_id":"ce4bgn92rcd13ifvqbvg","pricing_plan_id":"cebpf4jnsgd1na2vs0mg"},{"bike_id":"b6d3ee1b-dd46-42bc-ad40-96db8e46ace6","system_id":"levelo_inurba_marseille","lat":43.28039,"lon":5.36947,"is_reserved":false,"is_disabled":false,"rental_uris":{"android":"levelo://app?vid=b6d3ee1b-dd46-42bc-ad40-96db8e46ace6","ios":"levelo://app?vid=b6d3ee1b-dd46-42bc-ad40-96db8e46ace6"},"vehicle_type_id":"4","last_reported":1729544915,"current_range_meters":38800,"station_id":"ce4bha12rcd13ifvqef0","pricing_plan_id":"cebpf4jnsgd1na2vs0mg"},{"bike_id":"1997c5ee-82e9-48ff-847a-9a81d3053fae","system_id":"levelo_inurba_marseille","lat":43.28572,"lon":5.39493,"is_reserved":false,"is_disabled":false,"rental_uris":{"android":"levelo://app?vid=1997c5ee-82e9-48ff-847a-9a81d3053fae","ios":"levelo://app?vid=1997c5ee-82e9-48ff-847a-9a81d3053fae"},"vehicle_type_id":"4","last_reported":1729544915,"current_range_meters":37600,"station_id":"ce4bh292rcd13ifvqdg0","pricing_plan_id":"cebpf4jnsgd1na2vs0mg"},{"bike_id":"53b423a0-b1eb-4c9f-a0b3-273c634cb5a9","system_id":"levelo_inurba_marseille","lat":43.24647,"lon":5.38894,"is_reserved":false,"is_disabled":false,"rental_uris":{"android":"levelo://app?vid=53b423a0-b1eb-4c9f-a0b3-273c634cb5a9","ios":"levelo://app?vid=53b423a0-b1eb-4c9f-a0b3-273c634cb5a9"},"vehicle_type_id":"4","last_reported":1729544915,"current_range_meters":38800,"station_id":"ce4bhg12rcd13ifvqf60","pricing_plan_id":"cebpf4jnsgd1na2vs0mg"},{"bike_id":"c3d8c5f8-b3d2-4acd-80b2-268d0bec6afe","system_id":"levelo_inurba_marseille","lat":43.2318,"lon":5.39989,"is_reserved":false,"is_disabled":false,"rental_uris":{"android":"levelo://app?vid=c3d8c5f8-b3d2-4acd-80b2-268d0bec6afe","ios":"levelo://app?vid=c3d8c5f8-b3d2-4acd-80b2-268d0bec6afe"},"vehicle_type_id":"4","last_reported":1729544915,"current_range_meters":4000,"station_id":"ce4bhn12rcd13ifvqgqg","pricing_plan_id":"cebpf4jnsgd1na2vs0mg"},{"bike_id":"36505273-afd0-4914-8de2-d26a7afd6aa0","system_id":"levelo_inurba_marseille","lat":43.31538,"lon":5.38029,"is_reserved":false,"is_disabled":false,"rental_uris":{"android":"levelo://app?vid=36505273-afd0-4914-8de2-d26a7afd6aa0","ios":"levelo://app?vid=36505273-afd0-4914-8de2-d26a7afd6aa0"},"vehicle_type_id":"4","last_reported":1729544915,"current_range_meters":27200,"station_id":"ce4bhsp2rcd13ifvqi50","pricing_plan_id":"cebpf4jnsgd1na2vs0mg"},{"bike_id":"fbe2d7d4-db9e-4884-8492-0044b8a902e8","system_id":"levelo_inurba_marseille","lat":43.30218,"lon":5.39463,"is_reserved":false,"is_disabled":false,"rental_uris":{"android":"levelo://app?vid=fbe2d7d4-db9e-4884-8492-0044b8a902e8","ios":"levelo://app?vid=fbe2d7d4-db9e-4884-8492-0044b8a902e8"},"vehicle_type_id":"4","last_reported":1729544915,"current_range_meters":32000,"station_id":"ce4bh0p2rcd13ifvqd70","pricing_plan_id":"cebpf4jnsgd1na2vs0mg"},{"bike_id":"b4f510f1-98d9-44c0-b54e-b975fb74bd35","system_id":"levelo_inurba_marseille","lat":43.26207,"lon":5.37441,"is_reserved":false,"is_disabled":false,"rental_uris":{"android":"levelo://app?vid=b4f510f1-98d9-44c0-b54e-b975fb74bd35","ios":"levelo://app?vid=b4f510f1-98d9-44c0-b54e-b975fb74bd35"},"vehicle_type_id":"4","last_reported":1729544915,"current_range_meters":32800,"station_id":"ce4bhgp2rcd13ifvqfc0","pricing_plan_id":"cebpf4jnsgd1na2vs0mg"},{"bike_id":"e17ecf0b-85b2-48d7-bb63-8e122a2dee3f","system_id":"levelo_inurba_marseille","lat":43.28479,"lon":5.38406,"is_reserved":false,"is_disabled":false,"rental_uris":{"android":"levelo://app?vid=e17ecf0b-85b2-48d7-bb63-8e122a2dee3f","ios":"levelo://app?vid=e17ecf0b-85b2-48d7-bb63-8e122a2dee3f"},"vehicle_type_id":"4","last_reported":1729544915,"current_range_meters":8000,"station_id":"ce4bh512rcd13ifvqe3g","pricing_plan_id":"cebpf4jnsgd1na2vs0mg"},{"bike_id":"4e6816b2-25af-4bcb-8671-9a709dcdb5dd","system_id":"levelo_inurba_marseille","lat":43.3089,"lon":5.39645,"is_reserved":false,"is_disabled":false,"rental_uris":{"android":"levelo://app?vid=4e6816b2-25af-4bcb-8671-9a709dcdb5dd","ios":"levelo://app?vid=4e6816b2-25af-4bcb-8671-9a709dcdb5dd"},"vehicle_type_id":"4","last_reported":1729544915,"current_range_meters":16400,"station_id":"ce4bh012rcd13ifvqcv0","pricing_plan_id":"cebpf4jnsgd1na2vs0mg"},{"bike_id":"af0c6c58-1eba-46d4-bd76-ab1824e9f9de","system_id":"levelo_inurba_marseille","lat":43.26554,"lon":5.37284,"is_reserved":false,"is_disabled":false,"rental_uris":{"android":"levelo://app?vid=af0c6c58-1eba-46d4-bd76-ab1824e9f9de","ios":"levelo://app?vid=af0c6c58-1eba-46d4-bd76-ab1824e9f9de"},"vehicle_type_id":"4","last_reported":1729544915,"current_range_meters":24400,"station_id":"ce4bhg12rcd13ifvqf70","pricing_plan_id":"cebpf4jnsgd1na2vs0mg"},{"bike_id":"ea2087a3-c32a-4158-91ea-aedbc76597e2","system_id":"levelo_inurba_marseille","lat":43.31392,"lon":5.38502,"is_reserved":false,"is_disabled":false,"rental_uris":{"android":"levelo://app?vid=ea2087a3-c32a-4158-91ea-aedbc76597e2","ios":"levelo://app?vid=ea2087a3-c32a-4158-91ea-aedbc76597e2"},"vehicle_type_id":"4","last_reported":1729544915,"current_range_meters":8800,"station_id":"ce4bgt92rcd13ifvqcf0","pricing_plan_id":"cebpf4jnsgd1na2vs0mg"},{"bike_id":"32f165e7-f8c0-4f35-9dc7-1c7070dc68a0","system_id":"levelo_inurba_marseille","lat":43.25088,"lon":5.39525,"is_reserved":false,"is_disabled":false,"rental_uris":{"android":"levelo://app?vid=32f165e7-f8c0-4f35-9dc7-1c7070dc68a0","ios":"levelo://app?vid=32f165e7-f8c0-4f35-9dc7-1c7070dc68a0"},"vehicle_type_id":"4","last_reported":1729544915,"current_range_meters":14400,"station_id":"ce4bhm12rcd13ifvqgkg","pricing_plan_id":"cebpf4jnsgd1na2vs0mg"},{"bike_id":"81e4488d-b9df-4764-b508-9fca2a6674ff","system_id":"levelo_inurba_marseille","lat":43.23194,"lon":5.35545,"is_reserved":false,"is_disabled":false,"rental_uris":{"android":"levelo://app?vid=81e4488d-b9df-4764-b508-9fca2a6674ff","ios":"levelo://app?vid=81e4488d-b9df-4764-b508-9fca2a6674ff"},"vehicle_type_id":"4","last_reported":1729544915,"current_range_meters":38800,"station_id":"ce4bhu92rcd13ifvqi70","pricing_plan_id":"cebpf4jnsgd1na2vs0mg"},{"bike_id":"b46d47ab-445b-4c1a-9990-0d8f872f9743","system_id":"levelo_inurba_marseille","lat":43.3093,"lon":5.40142,"is_reserved":false,"is_disabled":false,"rental_uris":{"android":"levelo://app?vid=b46d47ab-445b-4c1a-9990-0d8f872f9743","ios":"levelo://app?vid=b46d47ab-445b-4c1a-9990-0d8f872f9743"},"vehicle_type_id":"4","last_reported":1729544915,"current_range_meters":28000,"station_id":"ce4bgvp2rcd13ifvqct0","pricing_plan_id":"cebpf4jnsgd1na2vs0mg"},{"bike_id":"b894b3a8-6e2a-4efa-8099-357feb0fe150","system_id":"levelo_inurba_marseille","lat":43.28278,"lon":5.35069,"is_reserved":false,"is_disabled":false,"rental_uris":{"android":"levelo://app?vid=b894b3a8-6e2a-4efa-8099-357feb0fe150","ios":"levelo://app?vid=b894b3a8-6e2a-4efa-8099-357feb0fe150"},"vehicle_type_id":"4","last_reported":1729544915,"current_range_meters":13600,"station_id":"ce4bhbp2rcd13ifvqerg","pricing_plan_id":"cebpf4jnsgd1na2vs0mg"},{"bike_id":"ed460f66-d5e6-445f-a1a7-7e6a59e16199","system_id":"levelo_inurba_marseille","lat":43.29926,"lon":5.37481,"is_reserved":false,"is_disabled":false,"rental_uris":{"android":"levelo://app?vid=ed460f66-d5e6-445f-a1a7-7e6a59e16199","ios":"levelo://app?vid=ed460f66-d5e6-445f-a1a7-7e6a59e16199"},"vehicle_type_id":"4","last_reported":1729544915,"current_range_meters":38400,"station_id":"ce4bgjh2rcd13ifvqbg0","pricing_plan_id":"cebpf4jnsgd1na2vs0mg"},{"bike_id":"4b321f9c-d240-4200-bb60-7b70406f810a","system_id":"levelo_inurba_marseille","lat":43.25083,"lon":5.39523,"is_reserved":false,"is_disabled":false,"rental_uris":{"android":"levelo://app?vid=4b321f9c-d240-4200-bb60-7b70406f810a","ios":"levelo://app?vid=4b321f9c-d240-4200-bb60-7b70406f810a"},"vehicle_type_id":"4","last_reported":1729544915,"current_range_meters":16400,"station_id":"ce4bhm12rcd13ifvqgkg","pricing_plan_id":"cebpf4jnsgd1na2vs0mg"},{"bike_id":"a9002a5d-a535-42b5-88b4-26d81fd5238e","system_id":"levelo_inurba_marseille","lat":43.32337,"lon":5.40617,"is_reserved":false,"is_disabled":false,"rental_uris":{"android":"levelo://app?vid=a9002a5d-a535-42b5-88b4-26d81fd5238e","ios":"levelo://app?vid=a9002a5d-a535-42b5-88b4-26d81fd5238e"},"vehicle_type_id":"4","last_reported":1729544915,"current_range_meters":8800,"station_id":"ce4bhq92rcd13ifvqhjg","pricing_plan_id":"cebpf4jnsgd1na2vs0mg"},{"bike_id":"cccce7dc-07fc-4917-a83f-dc2f7561e477","system_id":"levelo_inurba_marseille","lat":43.31984,"lon":5.41302,"is_reserved":false,"is_disabled":false,"rental_uris":{"android":"levelo://app?vid=cccce7dc-07fc-4917-a83f-dc2f7561e477","ios":"levelo://app?vid=cccce7dc-07fc-4917-a83f-dc2f7561e477"},"vehicle_type_id":"4","last_reported":1729544915,"current_range_meters":38800,"station_id":"ce4bhq92rcd13ifvqhkg","pricing_plan_id":"cebpf4jnsgd1na2vs0mg"},{"bike_id":"b832b1ba-71c3-41fb-8ede-14eac9d4a090","system_id":"levelo_inurba_marseille","lat":43.30917,"lon":5.3686,"is_reserved":false,"is_disabled":false,"rental_uris":{"android":"levelo://app?vid=b832b1ba-71c3-41fb-8ede-14eac9d4a090","ios":"levelo://app?vid=b832b1ba-71c3-41fb-8ede-14eac9d4a090"},"vehicle_type_id":"4","last_reported":1729544915,"current_range_meters":38800,"station_id":"ce4bgn92rcd13ifvqbvg","pricing_plan_id":"cebpf4jnsgd1na2vs0mg"},{"bike_id":"0cf9ad16-1e68-46e9-8857-98fa3ea75071","system_id":"levelo_inurba_marseille","lat":43.29785,"lon":5.39376,"is_reserved":false,"is_disabled":false,"rental_uris":{"android":"levelo://app?vid=0cf9ad16-1e68-46e9-8857-98fa3ea75071","ios":"levelo://app?vid=0cf9ad16-1e68-46e9-8857-98fa3ea75071"},"vehicle_type_id":"4","last_reported":1729544915,"current_range_meters":22000,"station_id":"chh1huq6cuj3fo74tm60","pricing_plan_id":"cebpf4jnsgd1na2vs0mg"},{"bike_id":"1a4055fa-f792-4be2-a545-13404d5ad208","system_id":"levelo_inurba_marseille","lat":43.2762,"lon":5.36109,"is_reserved":false,"is_disabled":false,"rental_uris":{"android":"levelo://app?vid=1a4055fa-f792-4be2-a545-13404d5ad208","ios":"levelo://app?vid=1a4055fa-f792-4be2-a545-13404d5ad208"},"vehicle_type_id":"4","last_reported":1729544915,"current_range_meters":38800,"station_id":"ce4bgj92rcd13ifvqbe0","pricing_plan_id":"cebpf4jnsgd1na2vs0mg"},{"bike_id":"2adaa7e6-e7e4-4c71-94a8-6b6dda34ebf9","system_id":"levelo_inurba_marseille","lat":43.30301,"lon":5.39225,"is_reserved":false,"is_disabled":false,"rental_uris":{"android":"levelo://app?vid=2adaa7e6-e7e4-4c71-94a8-6b6dda34ebf9","ios":"levelo://app?vid=2adaa7e6-e7e4-4c71-94a8-6b6dda34ebf9"},"vehicle_type_id":"4","last_reported":1729544915,"current_range_meters":30000,"station_id":"","pricing_plan_id":"cebpf4jnsgd1na2vs0mg"},{"bike_id":"07a06f29-95a6-4e03-b330-ac0d52fc59a2","system_id":"levelo_inurba_marseille","lat":43.32487,"lon":5.36573,"is_reserved":false,"is_disabled":false,"rental_uris":{"android":"levelo://app?vid=07a06f29-95a6-4e03-b330-ac0d52fc59a2","ios":"levelo://app?vid=07a06f29-95a6-4e03-b330-ac0d52fc59a2"},"vehicle_type_id":"4","last_reported":1729544915,"current_range_meters":22800,"station_id":"ce4bhs12rcd13ifvqhvg","pricing_plan_id":"cebpf4jnsgd1na2vs0mg"},{"bike_id":"2b6d7389-3f0f-4763-9fef-35d7bb3b5124","system_id":"levelo_inurba_marseille","lat":43.29179,"lon":5.37153,"is_reserved":false,"is_disabled":false,"rental_uris":{"android":"levelo://app?vid=2b6d7389-3f0f-4763-9fef-35d7bb3b5124","ios":"levelo://app?vid=2b6d7389-3f0f-4763-9fef-35d7bb3b5124"},"vehicle_type_id":"4","last_reported":1729544915,"current_range_meters":37600,"station_id":"ce4bha92rcd13ifvqeh0","pricing_plan_id":"cebpf4jnsgd1na2vs0mg"},{"bike_id":"c222ecdf-c704-4ada-9a17-3ff47379126f","system_id":"levelo_inurba_marseille","lat":43.2846,"lon":5.3588,"is_reserved":false,"is_disabled":false,"rental_uris":{"android":"levelo://app?vid=c222ecdf-c704-4ada-9a17-3ff47379126f","ios":"levelo://app?vid=c222ecdf-c704-4ada-9a17-3ff47379126f"},"vehicle_type_id":"4","last_reported":1729544915,"current_range_meters":29600,"station_id":"ce4bhah2rcd13ifvqei0","pricing_plan_id":"cebpf4jnsgd1na2vs0mg"},{"bike_id":"1ab83269-2bc4-44e8-be8b-dfcbd57bdbf5","system_id":"levelo_inurba_marseille","lat":43.24389,"lon":5.37057,"is_reserved":false,"is_disabled":false,"rental_uris":{"android":"levelo://app?vid=1ab83269-2bc4-44e8-be8b-dfcbd57bdbf5","ios":"levelo://app?vid=1ab83269-2bc4-44e8-be8b-dfcbd57bdbf5"},"vehicle_type_id":"4","last_reported":1729544915,"current_range_meters":27200,"station_id":"ce4bhhh2rcd13ifvqfk0","pricing_plan_id":"cebpf4jnsgd1na2vs0mg"},{"bike_id":"8e8c1152-0d97-40bb-b78b-175b82389400","system_id":"levelo_inurba_marseille","lat":43.23961,"lon":5.3664,"is_reserved":false,"is_disabled":false,"rental_uris":{"android":"levelo://app?vid=8e8c1152-0d97-40bb-b78b-175b82389400","ios":"levelo://app?vid=8e8c1152-0d97-40bb-b78b-175b82389400"},"vehicle_type_id":"4","last_reported":1729544915,"current_range_meters":16400,"station_id":"ce4bhi12rcd13ifvqfp0","pricing_plan_id":"cebpf4jnsgd1na2vs0mg"},{"bike_id":"44034aed-59d3-4bb9-a078-9684442d4d7f","system_id":"levelo_inurba_marseille","lat":43.279,"lon":5.38004,"is_reserved":false,"is_disabled":false,"rental_uris":{"android":"levelo://app?vid=44034aed-59d3-4bb9-a078-9684442d4d7f","ios":"levelo://app?vid=44034aed-59d3-4bb9-a078-9684442d4d7f"},"vehicle_type_id":"4","last_reported":1729544915,"current_range_meters":14400,"station_id":"ce4bhf92rcd13ifvqf50","pricing_plan_id":"cebpf4jnsgd1na2vs0mg"},{"bike_id":"99a81a77-a01c-48b2-8d11-1a3b07b75b14","system_id":"levelo_inurba_marseille","lat":43.2737,"lon":5.36263,"is_reserved":false,"is_disabled":false,"rental_uris":{"android":"levelo://app?vid=99a81a77-a01c-48b2-8d11-1a3b07b75b14","ios":"levelo://app?vid=99a81a77-a01c-48b2-8d11-1a3b07b75b14"},"vehicle_type_id":"4","last_reported":1729544915,"current_range_meters":38800,"station_id":"ce4bhbh2rcd13ifvqeo0","pricing_plan_id":"cebpf4jnsgd1na2vs0mg"},{"bike_id":"3c22c1a4-538a-4723-b2ed-f12538739d73","system_id":"levelo_inurba_marseille","lat":43.28471,"lon":5.35881,"is_reserved":false,"is_disabled":false,"rental_uris":{"android":"levelo://app?vid=3c22c1a4-538a-4723-b2ed-f12538739d73","ios":"levelo://app?vid=3c22c1a4-538a-4723-b2ed-f12538739d73"},"vehicle_type_id":"4","last_reported":1729544915,"current_range_meters":36000,"station_id":"ce4bhah2rcd13ifvqei0","pricing_plan_id":"cebpf4jnsgd1na2vs0mg"},{"bike_id":"36e42f28-0a3b-4b6c-a984-8eedf4b3cfb9","system_id":"levelo_inurba_marseille","lat":43.30642,"lon":5.40091,"is_reserved":false,"is_disabled":false,"rental_uris":{"android":"levelo://app?vid=36e42f28-0a3b-4b6c-a984-8eedf4b3cfb9","ios":"levelo://app?vid=36e42f28-0a3b-4b6c-a984-8eedf4b3cfb9"},"vehicle_type_id":"4","last_reported":1729544915,"current_range_meters":12400,"station_id":"ce4bh112rcd13ifvqda0","pricing_plan_id":"cebpf4jnsgd1na2vs0mg"},{"bike_id":"a828ccdc-bbd0-47c4-8c31-edaa5e1fcbb4","system_id":"levelo_inurba_marseille","lat":43.23184,"lon":5.39977,"is_reserved":false,"is_disabled":false,"rental_uris":{"android":"levelo://app?vid=a828ccdc-bbd0-47c4-8c31-edaa5e1fcbb4","ios":"levelo://app?vid=a828ccdc-bbd0-47c4-8c31-edaa5e1fcbb4"},"vehicle_type_id":"4","last_reported":1729544915,"current_range_meters":24000,"station_id":"ce4bhn12rcd13ifvqgqg","pricing_plan_id":"cebpf4jnsgd1na2vs0mg"},{"bike_id":"fa8a1249-f80c-4466-8480-05d078dfe176","system_id":"levelo_inurba_marseille","lat":43.28571,"lon":5.39493,"is_reserved":false,"is_disabled":false,"rental_uris":{"android":"levelo://app?vid=fa8a1249-f80c-4466-8480-05d078dfe176","ios":"levelo://app?vid=fa8a1249-f80c-4466-8480-05d078dfe176"},"vehicle_type_id":"4","last_reported":1729544915,"current_range_meters":6000,"station_id":"ce4bh292rcd13ifvqdg0","pricing_plan_id":"cebpf4jnsgd1na2vs0mg"},{"bike_id":"4541ca2b-92f6-4ec6-9698-2e923f3f612a","system_id":"levelo_inurba_marseille","lat":43.22926,"lon":5.35381,"is_reserved":false,"is_disabled":false,"rental_uris":{"android":"levelo://app?vid=4541ca2b-92f6-4ec6-9698-2e923f3f612a","ios":"levelo://app?vid=4541ca2b-92f6-4ec6-9698-2e923f3f612a"},"vehicle_type_id":"4","last_reported":1729544915,"current_range_meters":38800,"station_id":"cpo3532slgdg3j2ikp40","pricing_plan_id":"cebpf4jnsgd1na2vs0mg"},{"bike_id":"e7d68fae-d108-45a1-be6e-c52380d88f5b","system_id":"levelo_inurba_marseille","lat":43.30137,"lon":5.37408,"is_reserved":false,"is_disabled":false,"rental_uris":{"android":"levelo://app?vid=e7d68fae-d108-45a1-be6e-c52380d88f5b","ios":"levelo://app?vid=e7d68fae-d108-45a1-be6e-c52380d88f5b"},"vehicle_type_id":"4","last_reported":1729544915,"current_range_meters":25600,"station_id":"ce4bgs92rcd13ifvqcc0","pricing_plan_id":"cebpf4jnsgd1na2vs0mg"},{"bike_id":"a67875f0-2cb6-41f0-b60e-c58bfe7ba023","system_id":"levelo_inurba_marseille","lat":43.29802,"lon":5.40404,"is_reserved":false,"is_disabled":false,"rental_uris":{"android":"levelo://app?vid=a67875f0-2cb6-41f0-b60e-c58bfe7ba023","ios":"levelo://app?vid=a67875f0-2cb6-41f0-b60e-c58bfe7ba023"},"vehicle_type_id":"4","last_reported":1729544915,"current_range_meters":30000,"station_id":"ce4bh112rcd13ifvqd90","pricing_plan_id":"cebpf4jnsgd1na2vs0mg"},{"bike_id":"7cfeb973-2c45-478c-8f05-90dbbb5bf70a","system_id":"levelo_inurba_marseille","lat":43.28461,"lon":5.35882,"is_reserved":false,"is_disabled":false,"rental_uris":{"android":"levelo://app?vid=7cfeb973-2c45-478c-8f05-90dbbb5bf70a","ios":"levelo://app?vid=7cfeb973-2c45-478c-8f05-90dbbb5bf70a"},"vehicle_type_id":"4","last_reported":1729544915,"current_range_meters":38800,"station_id":"ce4bhah2rcd13ifvqei0","pricing_plan_id":"cebpf4jnsgd1na2vs0mg"},{"bike_id":"901e5492-56fe-4e15-98af-77f3e936c5e7","system_id":"levelo_inurba_marseille","lat":43.31329,"lon":5.3969,"is_reserved":false,"is_disabled":false,"rental_uris":{"android":"levelo://app?vid=901e5492-56fe-4e15-98af-77f3e936c5e7","ios":"levelo://app?vid=901e5492-56fe-4e15-98af-77f3e936c5e7"},"vehicle_type_id":"4","last_reported":1729544915,"current_range_meters":11600,"station_id":"ce4bgvp2rcd13ifvqcu0","pricing_plan_id":"cebpf4jnsgd1na2vs0mg"},