{"last_updated":1684011904,"ttl":30,"version":"2.2","data":{"bikes":[{"bike_id":"75d35cf8-7fd7-40c4-9bff-55093b0d624d","system_id":"levelo_inurba_marseille","lat":43.31341,"lon":5.367098,"is_reserved":false,"is_disabled":false,"rental_uris":{"android":"levelo://app?vid=75d35cf8-7fd7-40c4-9bff-55093b0d624d","ios":"levelo://app?vid=75d35cf8-7fd7-40c4-9bff-55093b0d624d"},"vehicle_type_id":"4","last_reported":1684011905,"current_range_meters":12800,"station_id":"ce4bgr92rcd13ifvqc6g","pricing_plan_id":"free"},{"bike_id":"ad235490-207b-4b98-be1f-467855270c8f","system_id":"levelo_inurba_marseille","lat":43.312239,"lon":5.368562,"is_reserved":false,"is_disabled":false,"rental_uris":{"android":"levelo://app?vid=ad235490-207b-4b98-be1f-467855270c8f","ios":"levelo://app?vid=ad235490-207b-4b98-be1f-467855270c8f"},"vehicle_type_id":"4","last_reported":1684011905,"current_range_meters":16400,"station_id":"ce4bgl92rcd13ifvqbq0","pricing_plan_id":"free"},{"bike_id":"e7eee1c3-c349-48b6-8474-6eaafc63332d","system_id":"levelo_inurba_marseille","lat":43.312239,"lon":5.368562,"is_reserved":false,"is_disabled":false,"rental_uris":{"android":"levelo://app?vid=e7eee1c3-c349-48b6-8474-6eaafc63332d","ios":"levelo://app?vid=e7eee1c3-c349-48b6-8474-6eaafc63332d"},"vehicle_type_id":"4","last_reported":1684011905,"current_range_meters":20800,"station_id":"ce4bgl92rcd13ifvqbq0","pricing_plan_id":"free"},{"bike_id":"ce104777-0705-4903-85ce-e98ec2a552ee","system_id":"levelo_inurba_marseille","lat":43.312239,"lon":5.368562,"is_reserved":false,"is_disabled":false,"rental_uris":{"android":"levelo://app?vid=ce104777-0705-4903-85ce-e98ec2a552ee","ios":"levelo://app?vid=ce104777-0705-4903-85ce-e98ec2a552ee"},"vehicle_type_id":"4","last_reported":1684011905,"current_range_meters":22800,"station_id":"ce4bgl92rcd13ifvqbq0","pricing_plan_id":"free"},{"bike_id":"87aefd7e-812f-4570-99a1-39cc81768804","system_id":"levelo_inurba_marseille","lat":43.312239,"lon":5.368562,"is_reserved":false,"is_disabled":false,"rental_uris":{"android":"levelo://app?vid=87aefd7e-812f-4570-99a1-39cc81768804","ios":"levelo://app?vid=87aefd7e-812f-4570-99a1-39cc81768804"},"vehicle_type_id":"4","last_reported":1684011905,"current_range_meters":8400,"station_id":"ce4bgl92rcd13ifvqbq0","pricing_plan_id":"free"},{"bike_id":"f44527d7-870e-429d-a1ec-63b31c586545","system_id":"levelo_inurba_marseille","lat":43.312239,"lon":5.368562,"is_reserved":false,"is_disabled":false,"rental_uris":{"android":"levelo://app?vid=f44527d7-870e-429d-a1ec-63b31c586545","ios":"levelo://app?vid=f44527d7-870e-429d-a1ec-63b31c586545"},"vehicle_type_id":"4","last_reported":1684011905,"current_range_meters":17600,"station_id":"ce4bgl92rcd13ifvqbq0","pricing_plan_id":"free"},{"bike_id":"031602e4-c90a-4524-adbf-8443a778ffb4","system_id":"levelo_inurba_marseille","lat":43.309076,"lon":5.368465,"is_reserved":false,"is_disabled":false,"rental_uris":{"android":"levelo://app?vid=031602e4-c90a-4524-adbf-8443a778ffb4","ios":"levelo://app?vid=031602e4-c90a-4524-adbf-8443a778ffb4"},"vehicle_type_id":"4","last_reported":1684011905,"current_range_meters":0,"station_id":"ce4bgn92rcd13ifvqbvg","pricing_plan_id":"free"},{"bike_id":"ef49ef7e-a738-4db4-80fd-9aa2dd4225d7","system_id":"levelo_inurba_marseille","lat":43.314811,"lon":5.373103,"is_reserved":false,"is_disabled":false,"rental_uris":{"android":"levelo://app?vid=ef49ef7e-a738-4db4-80fd-9aa2dd4225d7","ios":"levelo://app?vid=ef49ef7e-a738-4db4-80fd-9aa2dd4225d7"},"vehicle_type_id":"4","last_reported":1684011905,"current_range_meters":25600,"station_id":"ce4bgt12rcd13ifvqcd0","pricing_plan_id":"free"},{"bike_id":"49688296-0a6e-4240-b35b-1f53e18f31cf","system_id":"levelo_inurba_marseille","lat":43.314811,"lon":5.373104,"is_reserved":false,"is_disabled":false,"rental_uris":{"android":"levelo://app?vid=49688296-0a6e-4240-b35b-1f53e18f31cf","ios":"levelo://app?vid=49688296-0a6e-4240-b35b-1f53e18f31cf"},"vehicle_type_id":"4","last_reported":1684011905,"current_range_meters":22400,"station_id":"ce4bgt12rcd13ifvqcd0","pricing_plan_id":"free"},{"bike_id":"8ef964a4-4196-49da-9746-a7e5f6817248","system_id":"levelo_inurba_marseille","lat":43.314811,"lon":5.373104,"is_reserved":false,"is_disabled":false,"rental_uris":{"android":"levelo://app?vid=8ef964a4-4196-49da-9746-a7e5f6817248","ios":"levelo://app?vid=8ef964a4-4196-49da-9746-a7e5f6817248"},"vehicle_type_id":"4","last_reported":1684011905,"current_range_meters":5200,"station_id":"ce4bgt12rcd13ifvqcd0","pricing_plan_id":"free"},{"bike_id":"58119dd9-efcc-4db3-9757-e8eccdf90c8b","system_id":"levelo_inurba_marseille","lat":43.308614,"lon":5.372098,"is_reserved":false,"is_disabled":false,"rental_uris":{"android":"levelo://app?vid=58119dd9-efcc-4db3-9757-e8eccdf90c8b","ios":"levelo://app?vid=58119dd9-efcc-4db3-9757-e8eccdf90c8b"},"vehicle_type_id":"4","last_reported":1684011905,"current_range_meters":15600,"station_id":"ce4bguh2rcd13ifvqckg","pricing_plan_id":"free"},{"bike_id":"ef42665b-7a58-430a-a09b-24ad7325a98d","system_id":"levelo_inurba_marseille","lat":43.30588,"lon":5.36563,"is_reserved":false,"is_disabled":false,"rental_uris":{"android":"levelo://app?vid=ef42665b-7a58-430a-a09b-24ad7325a98d","ios":"levelo://app?vid=ef42665b-7a58-430a-a09b-24ad7325a98d"},"vehicle_type_id":"4","last_reported":1684011905,"current_range_meters":15200,"station_id":"ce4bgs12rcd13ifvqcag","pricing_plan_id":"free"},{"bike_id":"f1838113-d802-4111-a94d-33a5cf1d1e4a","system_id":"levelo_inurba_marseille","lat":43.305714,"lon":5.365633,"is_reserved":false,"is_disabled":false,"rental_uris":{"android":"levelo://app?vid=f1838113-d802-4111-a94d-33a5cf1d1e4a","ios":"levelo://app?vid=f1838113-d802-4111-a94d-33a5cf1d1e4a"},"vehicle_type_id":"4","last_reported":1684011905,"current_range_meters":15200,"station_id":"ce4bgs12rcd13ifvqcag","pricing_plan_id":"free"},{"bike_id":"151d50bc-3aee-48d5-9527-783274464e00","system_id":"levelo_inurba_marseille","lat":43.31182,"lon":5.37771,"is_reserved":false,"is_disabled":false,"rental_uris":{"android":"levelo://app?vid=151d50bc-3aee-48d5-9527-783274464e00","ios":"levelo://app?vid=151d50bc-3aee-48d5-9527-783274464e00"},"vehicle_type_id":"4","last_reported":1684011905,"current_range_meters":11600,"station_id":"","pricing_plan_id":"free"},{"bike_id":"57898b4c-e0ac-4e26-a1bf-66227f90fb05","system_id":"levelo_inurba_marseille","lat":43.311131,"lon":5.377651,"is_reserved":false,"is_disabled":false,"rental_uris":{"android":"levelo://app?vid=57898b4c-e0ac-4e26-a1bf-66227f90fb05","ios":"levelo://app?vid=57898b4c-e0ac-4e26-a1bf-66227f90fb05"},"vehicle_type_id":"4","last_reported":1684011905,"current_range_meters":4000,"station_id":"ce4bgt92rcd13ifvqcg0","pricing_plan_id":"free"},{"bike_id":"8044e41e-22aa-4ea6-9418-644987361e14","system_id":"levelo_inurba_marseille","lat":43.317075,"lon":5.377367,"is_reserved":false,"is_disabled":false,"rental_uris":{"android":"levelo://app?vid=8044e41e-22aa-4ea6-9418-644987361e14","ios":"levelo://app?vid=8044e41e-22aa-4ea6-9418-644987361e14"},"vehicle_type_id":"4","last_reported":1684011905,"current_range_meters":31600,"station_id":"ce4bgth2rcd13ifvqch0","pricing_plan_id":"free"},{"bike_id":"6eb02654-3c4f-4608-ac7a-546c5a906af9","system_id":"levelo_inurba_marseille","lat":43.31712,"lon":5.37755,"is_reserved":false,"is_disabled":false,"rental_uris":{"android":"levelo://app?vid=6eb02654-3c4f-4608-ac7a-546c5a906af9","ios":"levelo://app?vid=6eb02654-3c4f-4608-ac7a-546c5a906af9"},"vehicle_type_id":"4","last_reported":1684011905,"current_range_meters":30000,"station_id":"ce4bgth2rcd13ifvqch0","pricing_plan_id":"free"},{"bike_id":"3082c4bb-4794-4319-ab51-7648c34067cc","system_id":"levelo_inurba_marseille","lat":43.315289,"lon":5.380349,"is_reserved":false,"is_disabled":false,"rental_uris":{"android":"levelo://app?vid=3082c4bb-4794-4319-ab51-7648c34067cc","ios":"levelo://app?vid=3082c4bb-4794-4319-ab51-7648c34067cc"},"vehicle_type_id":"4","last_reported":1684011905,"current_range_meters":14400,"station_id":"ce4bhsp2rcd13ifvqi50","pricing_plan_id":"free"},{"bike_id":"01d0523f-2f6e-4ac3-b2da-aa9465aa1910","system_id":"levelo_inurba_marseille","lat":43.315289,"lon":5.380349,"is_reserved":false,"is_disabled":false,"rental_uris":{"android":"levelo://app?vid=01d0523f-2f6e-4ac3-b2da-aa9465aa1910","ios":"levelo://app?vid=01d0523f-2f6e-4ac3-b2da-aa9465aa1910"},"vehicle_type_id":"4","last_reported":1684011905,"current_range_meters":24400,"station_id":"ce4bhsp2rcd13ifvqi50","pricing_plan_id":"free"},{"bike_id":"7b66cccb-161e-497e-9fd2-c8c438685d8d","system_id":"levelo_inurba_marseille","lat":43.315293,"lon":5.380349,"is_reserved":false,"is_disabled":false,"rental_uris":{"android":"levelo://app?vid=7b66cccb-161e-497e-9fd2-c8c438685d8d","ios":"levelo://app?vid=7b66cccb-161e-497e-9fd2-c8c438685d8d"},"vehicle_type_id":"4","last_reported":1684011905,"current_range_meters":10400,"station_id":"ce4bhsp2rcd13ifvqi50","pricing_plan_id":"free"},{"bike_id":"ed4448f9-af34-407f-81f1-a691b84f4314","system_id":"levelo_inurba_marseille","lat":43.315289,"lon":5.380349,"is_reserved":false,"is_disabled":false,"rental_uris":{"android":"levelo://app?vid=ed4448f9-af34-407f-81f1-a691b84f4314","ios":"levelo://app?vid=ed4448f9-af34-407f-81f1-a691b84f4314"},"vehicle_type_id":"4","last_reported":1684011905,"current_range_meters":0,"station_id":"ce4bhsp2rcd13ifvqi50","pricing_plan_id":"free"},{"bike_id":"5938ecdf-ceab-4bc7-aa5f-cd419c765653","system_id":"levelo_inurba_marseille","lat":43.315293,"lon":5.380349,"is_reserved":false,"is_disabled":false,"rental_uris":{"android":"levelo://app?vid=5938ecdf-ceab-4bc7-aa5f-cd419c765653","ios":"levelo://app?vid=5938ecdf-ceab-4bc7-aa5f-cd419c765653"},"vehicle_type_id":"4","last_reported":1684011905,"current_range_meters":19600,"station_id":"ce4bhsp2rcd13ifvqi50","pricing_plan_id":"free"},{"bike_id":"0f9d07f8-5202-4e57-b2ef-3acdbb81610d","system_id":"levelo_inurba_marseille","lat":43.31528,"lon":5.38035,"is_reserved":false,"is_disabled":false,"rental_uris":{"android":"levelo://app?vid=0f9d07f8-5202-4e57-b2ef-3acdbb81610d","ios":"levelo://app?vid=0f9d07f8-5202-4e57-b2ef-3acdbb81610d"},"vehicle_type_id":"4","last_reported":1684011905,"current_range_meters":29200,"station_id":"ce4bhsp2rcd13ifvqi50","pricing_plan_id":"free"},{"bike_id":"e2575018-86e6-40b4-ad64-fbef4336d341","system_id":"levelo_inurba_marseille","lat":43.315293,"lon":5.380349,"is_reserved":false,"is_disabled":false,"rental_uris":{"android":"levelo://app?vid=e2575018-86e6-40b4-ad64-fbef4336d341","ios":"levelo://app?vid=e2575018-86e6-40b4-ad64-fbef4336d341"},"vehicle_type_id":"4","last_reported":1684011905,"current_range_meters":27600,"station_id":"ce4bhsp2rcd13ifvqi50","pricing_plan_id":"free"},{"bike_id":"2beb39fd-250d-4402-9b51-8a350f87a745","system_id":"levelo_inurba_marseille","lat":43.315293,"lon":5.380349,"is_reserved":false,"is_disabled":false,"rental_uris":{"android":"levelo://app?vid=2beb39fd-250d-4402-9b51-8a350f87a745","ios":"levelo://app?vid=2beb39fd-250d-4402-9b51-8a350f87a745"},"vehicle_type_id":"4","last_reported":1684011905,"current_range_meters":15600,"station_id":"ce4bhsp2rcd13ifvqi50","pricing_plan_id":"free"},{"bike_id":"cb67c46d-d77e-47c5-bef7-97e6dd4106aa","system_id":"levelo_inurba_marseille","lat":43.315293,"lon":5.380349,"is_reserved":false,"is_disabled":false,"rental_uris":{"android":"levelo://app?vid=cb67c46d-d77e-47c5-bef7-97e6dd4106aa","ios":"levelo://app?vid=cb67c46d-d77e-47c5-bef7-97e6dd4106aa"},"vehicle_type_id":"4","last_reported":1684011905,"current_range_meters":24800,"station_id":"ce4bhsp2rcd13ifvqi50","pricing_plan_id":"free"},{"bike_id":"d187db7e-99c7-4275-bac8-3cb91006f6a9","system_id":"levelo_inurba_marseille","lat":43.315289,"lon":5.380349,"is_reserved":false,"is_disabled":false,"rental_uris":{"android":"levelo://app?vid=d187db7e-99c7-4275-bac8-3cb91006f6a9","ios":"levelo://app?vid=d187db7e-99c7-4275-bac8-3cb91006f6a9"},"vehicle_type_id":"4","last_reported":1684011905,"current_range_meters":19200,"station_id":"ce4bhsp2rcd13ifvqi50","pricing_plan_id":"free"},{"bike_id":"eb6604f5-7467-4dfd-a9ce-32f23fdf45f9","system_id":"levelo_inurba_marseille","lat":43.315293,"lon":5.380349,"is_reserved":false,"is_disabled":false,"rental_uris":{"android":"levelo://app?vid=eb6604f5-7467-4dfd-a9ce-32f23fdf45f9","ios":"levelo://app?vid=eb6604f5-7467-4dfd-a9ce-32f23fdf45f9"},"vehicle_type_id":"4","last_reported":1684011905,"current_range_meters":28400,"station_id":"ce4bhsp2rcd13ifvqi50","pricing_plan_id":"free"},{"bike_id":"acd7c800-8a9d-4ccc-bd25-d0e9aa5d22c6","system_id":"levelo_inurba_marseille","lat":43.315293,"lon":5.380349,"is_reserved":false,"is_disabled":false,"rental_uris":{"android":"levelo://app?vid=acd7c800-8a9d-4ccc-bd25-d0e9aa5d22c6","ios":"levelo://app?vid=acd7c800-8a9d-4ccc-bd25-d0e9aa5d22c6"},"vehicle_type_id":"4","last_reported":1684011905,"current_range_meters":21200,"station_id":"ce4bhsp2rcd13ifvqi50","pricing_plan_id":"free"},{"bike_id":"8f5d4e93-9929-4817-b4ae-869889c791b8","system_id":"levelo_inurba_marseille","lat":43.315293,"lon":5.380349,"is_reserved":false,"is_disabled":false,"rental_uris":{"android":"levelo://app?vid=8f5d4e93-9929-4817-b4ae-869889c791b8","ios":"levelo://app?vid=8f5d4e93-9929-4817-b4ae-869889c791b8"},"vehicle_type_id":"4","last_reported":1684011905,"current_range_meters":28800,"station_id":"ce4bhsp2rcd13ifvqi50","pricing_plan_id":"free"},{"bike_id":"4f771b04-864c-4e16-9678-f9511e13d0df","system_id":"levelo_inurba_marseille","lat":43.30232,"lon":5.3695,"is_reserved":false,"is_disabled":false,"rental_uris":{"android":"levelo://app?vid=4f771b04-864c-4e16-9678-f9511e13d0df","ios":"levelo://app?vid=4f771b04-864c-4e16-9678-f9511e13d0df"},"vehicle_type_id":"4","last_reported":1684011905,"current_range_meters":24400,"station_id":"","pricing_plan_id":"free"},{"bike_id":"c7c3f0e2-5e8c-4d91-9ef2-659fc24fea05","system_id":"levelo_inurba_marseille","lat":43.308012,"lon":5.381511,"is_reserved":false,"is_disabled":false,"rental_uris":{"android":"levelo://app?vid=c7c3f0e2-5e8c-4d91-9ef2-659fc24fea05","ios":"levelo://app?vid=c7c3f0e2-5e8c-4d91-9ef2-659fc24fea05"},"vehicle_type_id":"4","last_reported":1684011905,"current_range_meters":27600,"station_id":"ce4bgt12rcd13ifvqce0","pricing_plan_id":"free"},{"bike_id":"5aa9fa73-afd7-47a6-9e80-493b19ad8e81","system_id":"levelo_inurba_marseille","lat":43.308012,"lon":5.381511,"is_reserved":false,"is_disabled":false,"rental_uris":{"android":"levelo://app?vid=5aa9fa73-afd7-47a6-9e80-493b19ad8e81","ios":"levelo://app?vid=5aa9fa73-afd7-47a6-9e80-493b19ad8e81"},"vehicle_type_id":"4","last_reported":1684011905,"current_range_meters":26000,"station_id":"ce4bgt12rcd13ifvqce0","pricing_plan_id":"free"},{"bike_id":"e026ec93-6f63-4c22-86e8-3d7a6b84fbe8","system_id":"levelo_inurba_marseille","lat":43.308012,"lon":5.381511,"is_reserved":false,"is_disabled":false,"rental_uris":{"android":"levelo://app?vid=e026ec93-6f63-4c22-86e8-3d7a6b84fbe8","ios":"levelo://app?vid=e026ec93-6f63-4c22-86e8-3d7a6b84fbe8"},"vehicle_type_id":"4","last_reported":1684011905,"current_range_meters":23200,"station_id":"ce4bgt12rcd13ifvqce0","pricing_plan_id":"free"},{"bike_id":"464b36af-754a-40d7-b48f-ae755a1c49f0","system_id":"levelo_inurba_marseille","lat":43.308012,"lon":5.381511,"is_reserved":false,"is_disabled":false,"rental_uris":{"android":"levelo://app?vid=464b36af-754a-40d7-b48f-ae755a1c49f0","ios":"levelo://app?vid=464b36af-754a-40d7-b48f-ae755a1c49f0"},"vehicle_type_id":"4","last_reported":1684011905,"current_range_meters":13200,"station_id":"ce4bgt12rcd13ifvqce0","pricing_plan_id":"free"},{"bike_id":"91eda569-cc3e-4bfe-a2fe-df05448a1933","system_id":"levelo_inurba_marseille","lat":43.308012,"lon":5.381511,"is_reserved":false,"is_disabled":false,"rental_uris":{"android":"levelo://app?vid=91eda569-cc3e-4bfe-a2fe-df05448a1933","ios":"levelo://app?vid=91eda569-cc3e-4bfe-a2fe-df05448a1933"},"vehicle_type_id":"4","last_reported":1684011905,"current_range_meters":23200,"station_id":"ce4bgt12rcd13ifvqce0","pricing_plan_id":"free"},{"bike_id":"89039b71-f67b-438b-bfe1-c963c72edbde","system_id":"levelo_inurba_marseille","lat":43.308012,"lon":5.381511,"is_reserved":false,"is_disabled":false,"rental_uris":{"android":"levelo://app?vid=89039b71-f67b-438b-bfe1-c963c72edbde","ios":"levelo://app?vid=89039b71-f67b-438b-bfe1-c963c72edbde"},"vehicle_type_id":"4","last_reported":1684011905,"current_range_meters":24000,"station_id":"ce4bgt12rcd13ifvqce0","pricing_plan_id":"free"},{"bike_id":"76263837-09b4-4ec6-946d-9733bb9a13fb","system_id":"levelo_inurba_marseille","lat":43.308012,"lon":5.381511,"is_reserved":false,"is_disabled":false,"rental_uris":{"android":"levelo://app?vid=76263837-09b4-4ec6-946d-9733bb9a13fb","ios":"levelo://app?vid=76263837-09b4-4ec6-946d-9733bb9a13fb"},"vehicle_type_id":"4","last_reported":1684011905,"current_range_meters":31200,"station_id":"ce4bgt12rcd13ifvqce0","pricing_plan_id":"free"},{"bike_id":"32c65638-d1ad-476e-9755-1b62e34dcfb8","system_id":"levelo_inurba_marseille","lat":43.30141,"lon":5.37422,"is_reserved":false,"is_disabled":false,"rental_uris":{"android":"levelo://app?vid=32c65638-d1ad-476e-9755-1b62e34dcfb8","ios":"levelo://app?vid=32c65638-d1ad-476e-9755-1b62e34dcfb8"},"vehicle_type_id":"4","last_reported":1684011905,"current_range_meters":28800,"station_id":"ce4bgs92rcd13ifvqcc0","pricing_plan_id":"free"},{"bike_id":"e85c97ff-0bb4-4d12-8d75-e8160f1084e7","system_id":"levelo_inurba_marseille","lat":43.30134,"lon":5.37425,"is_reserved":false,"is_disabled":false,"rental_uris":{"android":"levelo://app?vid=e85c97ff-0bb4-4d12-8d75-e8160f1084e7","ios":"levelo://app?vid=e85c97ff-0bb4-4d12-8d75-e8160f1084e7"},"vehicle_type_id":"4","last_reported":1684011905,"current_range_meters":30400,"station_id":"ce4bgs92rcd13ifvqcc0","pricing_plan_id":"free"},{"bike_id":"725f5a8c-35e6-44bc-b844-b883eedc2de5","system_id":"levelo_inurba_marseille","lat":43.3137,"lon":5.38484,"is_reserved":false,"is_disabled":false,"rental_uris":{"android":"levelo://app?vid=725f5a8c-35e6-44bc-b844-b883eedc2de5","ios":"levelo://app?vid=725f5a8c-35e6-44bc-b844-b883eedc2de5"},"vehicle_type_id":"4","last_reported":1684011905,"current_range_meters":22400,"station_id":"ce4bgt92rcd13ifvqcf0","pricing_plan_id":"free"},{"bike_id":"67b4b933-414d-4205-aaed-275c7efc1981","system_id":"levelo_inurba_marseille","lat":43.313571,"lon":5.384829,"is_reserved":false,"is_disabled":false,"rental_uris":{"android":"levelo://app?vid=67b4b933-414d-4205-aaed-275c7efc1981","ios":"levelo://app?vid=67b4b933-414d-4205-aaed-275c7efc1981"},"vehicle_type_id":"4","last_reported":1684011905,"current_range_meters":21600,"station_id":"ce4bgt92rcd13ifvqcf0","pricing_plan_id":"free"},{"bike_id":"79ceebf7-ff39-47d4-8062-fd24e812e3a7","system_id":"levelo_inurba_marseille","lat":43.29963,"lon":5.36756,"is_reserved":false,"is_disabled":false,"rental_uris":{"android":"levelo://app?vid=79ceebf7-ff39-47d4-8062-fd24e812e3a7","ios":"levelo://app?vid=79ceebf7-ff39-47d4-8062-fd24e812e3a7"},"vehicle_type_id":"4","last_reported":1684011905,"current_range_meters":27200,"station_id":"","pricing_plan_id":"free"},{"bike_id":"2baaabc1-9e57-4f05-b177-5537e509b745","system_id":"levelo_inurba_marseille","lat":43.31351,"lon":5.38503,"is_reserved":false,"is_disabled":false,"rental_uris":{"android":"levelo://app?vid=2baaabc1-9e57-4f05-b177-5537e509b745","ios":"levelo://app?vid=2baaabc1-9e57-4f05-b177-5537e509b745"},"vehicle_type_id":"4","last_reported":1684011905,"current_range_meters":12000,"station_id":"ce4bgt92rcd13ifvqcf0","pricing_plan_id":"free"},{"bike_id":"abeab40b-b066-4100-b445-8c2fc78da1ff","system_id":"levelo_inurba_marseille","lat":43.313571,"lon":5.384829,"is_reserved":false,"is_disabled":false,"rental_uris":{"android":"levelo://app?vid=abeab40b-b066-4100-b445-8c2fc78da1ff","ios":"levelo://app?vid=abeab40b-b066-4100-b445-8c2fc78da1ff"},"vehicle_type_id":"4","last_reported":1684011905,"current_range_meters":16400,"station_id":"ce4bgt92rcd13ifvqcf0","pricing_plan_id":"free"},{"bike_id":"e7525755-7224-4f62-991d-8132a9f74452","system_id":"levelo_inurba_marseille","lat":43.30075,"lon":5.37546,"is_reserved":false,"is_disabled":false,"rental_uris":{"android":"levelo://app?vid=e7525755-7224-4f62-991d-8132a9f74452","ios":"levelo://app?vid=e7525755-7224-4f62-991d-8132a9f74452"},"vehicle_type_id":"4","last_reported":1684011905,"current_range_meters":400,"station_id":"","pricing_plan_id":"free"},{"bike_id":"ac9dc532-8da5-4041-a138-14a53a0bde14","system_id":"levelo_inurba_marseille","lat":43.298433,"lon":5.362774,"is_reserved":false,"is_disabled":false,"rental_uris":{"android":"levelo://app?vid=ac9dc532-8da5-4041-a138-14a53a0bde14","ios":"levelo://app?vid=ac9dc532-8da5-4041-a138-14a53a0bde14"},"vehicle_type_id":"4","last_reported":1684011905,"current_range_meters":31600,"station_id":"ce4bgpp2rcd13ifvqc3g","pricing_plan_id":"free"},{"bike_id":"8956992c-8295-4482-84f3-948bce7cac85","system_id":"levelo_inurba_marseille","lat":43.305364,"lon":5.384119,"is_reserved":false,"is_disabled":false,"rental_uris":{"android":"levelo://app?vid=8956992c-8295-4482-84f3-948bce7cac85","ios":"levelo://app?vid=8956992c-8295-4482-84f3-948bce7cac85"},"vehicle_type_id":"4","last_reported":1684011905,"current_range_meters":10400,"station_id":"ce4bgg92rcd13ifvqb30","pricing_plan_id":"free"},{"bike_id":"1fa17ab7-5c51-469b-8d82-221722b73b2c","system_id":"levelo_inurba_marseille","lat":43.298433,"lon":5.362774,"is_reserved":false,"is_disabled":false,"rental_uris":{"android":"levelo://app?vid=1fa17ab7-5c51-469b-8d82-221722b73b2c","ios":"levelo://app?vid=1fa17ab7-5c51-469b-8d82-221722b73b2c"},"vehicle_type_id":"4","last_reported":1684011905,"current_range_meters":20000,"station_id":"ce4bgpp2rcd13ifvqc3g","pricing_plan_id":"free"},{"bike_id":"8a58ba79-876b-4248-89b2-97d354a1dc41","system_id":"levelo_inurba_marseille","lat":43.305364,"lon":5.384119,"is_reserved":false,"is_disabled":false,"rental_uris":{"android":"levelo://app?vid=8a58ba79-876b-4248-89b2-97d354a1dc41","ios":"levelo://app?vid=8a58ba79-876b-4248-89b2-97d354a1dc41"},"vehicle_type_id":"4","last_reported":1684011905,"current_range_meters":2400,"station_id":"ce4bgg92rcd13ifvqb30","pricing_plan_id":"free"},{"bike_id":"fc09eba1-6e43-43f5-93f3-dfc1aff8f44e","system_id":"levelo_inurba_marseille","lat":43.298433,"lon":5.362774,"is_reserved":false,"is_disabled":false,"rental_uris":{"android":"levelo://app?vid=fc09eba1-6e43-43f5-93f3-dfc1aff8f44e","ios":"levelo://app?vid=fc09eba1-6e43-43f5-93f3-dfc1aff8f44e"},"vehicle_type_id":"4","last_reported":1684011905,"current_range_meters":23200,"station_id":"ce4bgpp2rcd13ifvqc3g","pricing_plan_id":"free"},{"bike_id":"71a5e396-af49-46f9-9fa5-4ce0fe0f27eb","system_id":"levelo_inurba_marseille","lat":43.29921,"lon":5.3747,"is_reserved":false,"is_disabled":false,"rental_uris":{"android":"levelo://app?vid=71a5e396-af49-46f9-9fa5-4ce0fe0f27eb","ios":"levelo://app?vid=71a5e396-af49-46f9-9fa5-4ce0fe0f27eb"},"vehicle_type_id":"4","last_reported":1684011905,"current_range_meters":23600,"station_id":"ce4bgjh2rcd13ifvqbg0","pricing_plan_id":"free"},{"bike_id":"3ec3db1e-214b-4163-96bd-e6a4bded5b8c","system_id":"levelo_inurba_marseille","lat":43.299243,"lon":5.37481,"is_reserved":false,"is_disabled":false,"rental_uris":{"android":"levelo://app?vid=3ec3db1e-214b-4163-96bd-e6a4bded5b8c","ios":"levelo://app?vid=3ec3db1e-214b-4163-96bd-e6a4bded5b8c"},"vehicle_type_id":"4","last_reported":1684011905,"current_range_meters":26400,"station_id":"ce4bgjh2rcd13ifvqbg0","pricing_plan_id":"free"},{"bike_id":"95006294-38a6-4147-8ebb-bcd0fa1f26b5","system_id":"levelo_inurba_marseille","lat":43.299243,"lon":5.374807,"is_reserved":false,"is_disabled":false,"rental_uris":{"android":"levelo://app?vid=95006294-38a6-4147-8ebb-bcd0fa1f26b5","ios":"levelo://app?vid=95006294-38a6-4147-8ebb-bcd0fa1f26b5"},"vehicle_type_id":"4","last_reported":1684011905,"current_range_meters":31200,"station_id":"ce4bgjh2rcd13ifvqbg0","pricing_plan_id":"free"},{"bike_id":"a2ec1561-251e-41e1-8e34-78d9eb054c46","system_id":"levelo_inurba_marseille","lat":43.299243,"lon":5.37481,"is_reserved":false,"is_disabled":false,"rental_uris":{"android":"levelo://app?vid=a2ec1561-251e-41e1-8e34-78d9eb054c46","ios":"levelo://app?vid=a2ec1561-251e-41e1-8e34-78d9eb054c46"},"vehicle_type_id":"4","last_reported":1684011905,"current_range_meters":17600,"station_id":"ce4bgjh2rcd13ifvqbg0","pricing_plan_id":"free"},{"bike_id":"2c1e11ed-02f8-41fa-aa6b-9ef3a61ef112","system_id":"levelo_inurba_marseille","lat":43.311722,"lon":5.387247,"is_reserved":false,"is_disabled":false,"rental_uris":{"android":"levelo://app?vid=2c1e11ed-02f8-41fa-aa6b-9ef3a61ef112","ios":"levelo://app?vid=2c1e11ed-02f8-41fa-aa6b-9ef3a61ef112"},"vehicle_type_id":"4","last_reported":1684011905,"current_range_meters":9200,"station_id":"ce4bgv12rcd13ifvqcp0","pricing_plan_id":"free"},{"bike_id":"2f96f4b7-d3f1-4b87-b98f-caf50ba6d13d","system_id":"levelo_inurba_marseille","lat":43.32769,"lon":5.36689,"is_reserved":false,"is_disabled":false,"rental_uris":{"android":"levelo://app?vid=2f96f4b7-d3f1-4b87-b98f-caf50ba6d13d","ios":"levelo://app?vid=2f96f4b7-d3f1-4b87-b98f-caf50ba6d13d"},"vehicle_type_id":"4","last_reported":1684011905,"current_range_meters":10400,"station_id":"","pricing_plan_id":"free"},{"bike_id":"9bc8904b-c149-4a35-af2f-e3f59e3a4aff","system_id":"levelo_inurba_marseille","lat":43.297774,"lon":5.370875,"is_reserved":false,"is_disabled":false,"rental_uris":{"android":"levelo://app?vid=9bc8904b-c149-4a35-af2f-e3f59e3a4aff","ios":"levelo://app?vid=9bc8904b-c149-4a35-af2f-e3f59e3a4aff"},"vehicle_type_id":"4","last_reported":1684011905,"current_range_meters":30400,"station_id":"ce4bgop2rcd13ifvqc1g","pricing_plan_id":"free"},{"bike_id":"88a4ddff-ad04-4c49-bfdf-b2e35c714f52","system_id":"levelo_inurba_marseille","lat":43.297794,"lon":5.370888,"is_reserved":false,"is_disabled":false,"rental_uris":{"android":"levelo://app?vid=88a4ddff-ad04-4c49-bfdf-b2e35c714f52","ios":"levelo://app?vid=88a4ddff-ad04-4c49-bfdf-b2e35c714f52"},"vehicle_type_id":"4","last_reported":1684011905,"current_range_meters":30400,"station_id":"ce4bgop2rcd13ifvqc1g","pricing_plan_id":"free"},{"bike_id":"68ad9f41-f51c-4e02-90d5-540350338c30","system_id":"levelo_inurba_marseille","lat":43.297774,"lon":5.370875,"is_reserved":false,"is_disabled":false,"rental_uris":{"android":"levelo://app?vid=68ad9f41-f51c-4e02-90d5-540350338c30","ios":"levelo://app?vid=68ad9f41-f51c-4e02-90d5-540350338c30"},"vehicle_type_id":"4","last_reported":1684011905,"current_range_meters":10400,"station_id":"ce4bgop2rcd13ifvqc1g","pricing_plan_id":"free"},{"bike_id":"8b551262-3438-4831-9812-be7a47f77893","system_id":"levelo_inurba_marseille","lat":43.328371,"lon":5.366912,"is_reserved":false,"is_disabled":false,"rental_uris":{"android":"levelo://app?vid=8b551262-3438-4831-9812-be7a47f77893","ios":"levelo://app?vid=8b551262-3438-4831-9812-be7a47f77893"},"vehicle_type_id":"4","last_reported":1684011905,"current_range_meters":6000,"station_id":"ce4bhs92rcd13ifvqi0g","pricing_plan_id":"free"},{"bike_id":"ad50fbdc-6818-49a3-976a-84468e8cc53b","system_id":"levelo_inurba_marseille","lat":43.328371,"lon":5.366912,"is_reserved":false,"is_disabled":false,"rental_uris":{"android":"levelo://app?vid=ad50fbdc-6818-49a3-976a-84468e8cc53b","ios":"levelo://app?vid=ad50fbdc-6818-49a3-976a-84468e8cc53b"},"vehicle_type_id":"4","last_reported":1684011905,"current_range_meters":5600,"station_id":"ce4bhs92rcd13ifvqi0g","pricing_plan_id":"free"},{"bike_id":"31034e26-b800-4802-9bd3-f01527e58b07","system_id":"levelo_inurba_marseille","lat":43.328371,"lon":5.366912,"is_reserved":false,"is_disabled":false,"rental_uris":{"android":"levelo://app?vid=31034e26-b800-4802-9bd3-f01527e58b07","ios":"levelo://app?vid=31034e26-b800-4802-9bd3-f01527e58b07"},"vehicle_type_id":"4","last_reported":1684011905,"current_range_meters":11600,"station_id":"ce4bhs92rcd13ifvqi0g","pricing_plan_id":"free"},{"bike_id":"0f041c41-f55f-4f15-93d4-19e5c806f334","system_id":"levelo_inurba_marseille","lat":43.328371,"lon":5.366912,"is_reserved":false,"is_disabled":false,"rental_uris":{"android":"levelo://app?vid=0f041c41-f55f-4f15-93d4-19e5c806f334","ios":"levelo://app?vid=0f041c41-f55f-4f15-93d4-19e5c806f334"},"vehicle_type_id":"4","last_reported":1684011905,"current_range_meters":20800,"station_id":"ce4bhs92rcd13ifvqi0g","pricing_plan_id":"free"},{"bike_id":"b10b8a4e-a347-4d49-a722-bb3c9af7fe91","system_id":"levelo_inurba_marseille","lat":43.32827,"lon":5.36678,"is_reserved":false,"is_disabled":false,"rental_uris":{"android":"levelo://app?vid=b10b8a4e-a347-4d49-a722-bb3c9af7fe91","ios":"levelo://app?vid=b10b8a4e-a347-4d49-a722-bb3c9af7fe91"},"vehicle_type_id":"4","last_reported":1684011905,"current_range_meters":18400,"station_id":"ce4bhs92rcd13ifvqi0g","pricing_plan_id":"free"},{"bike_id":"216acc05-cd3c-4a35-b67b-82ab6e8e46bc","system_id":"levelo_inurba_marseille","lat":43.32829,"lon":5.36682,"is_reserved":false,"is_disabled":false,"rental_uris":{"android":"levelo://app?vid=216acc05-cd3c-4a35-b67b-82ab6e8e46bc","ios":"levelo://app?vid=216acc05-cd3c-4a35-b67b-82ab6e8e46bc"},"vehicle_type_id":"4","last_reported":1684011905,"current_range_meters":18400,"station_id":"ce4bhs92rcd13ifvqi0g","pricing_plan_id":"free"},{"bike_id":"e1b7270c-c690-4136-acf1-04f06180c8d3","system_id":"levelo_inurba_marseille","lat":43.328371,"lon":5.366909,"is_reserved":false,"is_disabled":false,"rental_uris":{"android":"levelo://app?vid=e1b7270c-c690-4136-acf1-04f06180c8d3","ios":"levelo://app?vid=e1b7270c-c690-4136-acf1-04f06180c8d3"},"vehicle_type_id":"4","last_reported":1684011905,"current_range_meters":13200,"station_id":"ce4bhs92rcd13ifvqi0g","pricing_plan_id":"free"},{"bike_id":"aaca5fdf-1dee-4b81-aa4f-2d7102ec2d0c","system_id":"levelo_inurba_marseille","lat":43.328371,"lon":5.366912,"is_reserved":false,"is_disabled":false,"rental_uris":{"android":"levelo://app?vid=aaca5fdf-1dee-4b81-aa4f-2d7102ec2d0c","ios":"levelo://app?vid=aaca5fdf-1dee-4b81-aa4f-2d7102ec2d0c"},"vehicle_type_id":"4","last_reported":1684011905,"current_range_meters":21200,"station_id":"ce4bhs92rcd13ifvqi0g","pricing_plan_id":"free"},{"bike_id":"a5ac9af5-9767-4dce-829a-03e15dea54e1","system_id":"levelo_inurba_marseille","lat":43.3283,"lon":5.36676,"is_reserved":false,"is_disabled":false,"rental_uris":{"android":"levelo://app?vid=a5ac9af5-9767-4dce-829a-03e15dea54e1","ios":"levelo://app?vid=a5ac9af5-9767-4dce-829a-03e15dea54e1"},"vehicle_type_id":"4","last_reported":1684011905,"current_range_meters":3200,"station_id":"ce4bhs92rcd13ifvqi0g","pricing_plan_id":"free"},{"bike_id":"e3146790-20de-4865-ae88-e3a075ac7ea5","system_id":"levelo_inurba_marseille","lat":43.29715,"lon":5.36612,"is_reserved":false,"is_disabled":false,"rental_uris":{"android":"levelo://app?vid=e3146790-20de-4865-ae88-e3a075ac7ea5","ios":"levelo://app?vid=e3146790-20de-4865-ae88-e3a075ac7ea5"},"vehicle_type_id":"4","last_reported":1684011905,"current_range_meters":16800,"station_id":"","pricing_plan_id":"free"},{"bike_id":"05dd3660-fb8d-4649-b95f-77a48f876534","system_id":"levelo_inurba_marseille","lat":43.32835,"lon":5.36681,"is_reserved":false,"is_disabled":false,"rental_uris":{"android":"levelo://app?vid=05dd3660-fb8d-4649-b95f-77a48f876534","ios":"levelo://app?vid=05dd3660-fb8d-4649-b95f-77a48f876534"},"vehicle_type_id":"4","last_reported":1684011905,"current_range_meters":1200,"station_id":"ce4bhs92rcd13ifvqi0g","pricing_plan_id":"free"},{"bike_id":"03e8eabd-238b-45b9-8067-e7a8ad5a56f3","system_id":"levelo_inurba_marseille","lat":43.29713,"lon":5.36611,"is_reserved":false,"is_disabled":false,"rental_uris":{"android":"levelo://app?vid=03e8eabd-238b-45b9-8067-e7a8ad5a56f3","ios":"levelo://app?vid=03e8eabd-238b-45b9-8067-e7a8ad5a56f3"},"vehicle_type_id":"4","last_reported":1684011905,"current_range_meters":6000,"station_id":"","pricing_plan_id":"free"},{"bike_id":"135a77c6-b799-4a73-98fb-720395d34647","system_id":"levelo_inurba_marseille","lat":43.29712,"lon":5.36612,"is_reserved":false,"is_disabled":false,"rental_uris":{"android":"levelo://app?vid=135a77c6-b799-4a73-98fb-720395d34647","ios":"levelo://app?vid=135a77c6-b799-4a73-98fb-720395d34647"},"vehicle_type_id":"4","last_reported":1684011905,"current_range_meters":0,"station_id":"","pricing_plan_id":"free"},{"bike_id":"9138a0fa-fcdc-4a5a-8829-d9a64104a1e4","system_id":"levelo_inurba_marseille","lat":43.2971,"lon":5.36604,"is_reserved":false,"is_disabled":false,"rental_uris":{"android":"levelo://app?vid=9138a0fa-fcdc-4a5a-8829-d9a64104a1e4","ios":"levelo://app?vid=9138a0fa-fcdc-4a5a-8829-d9a64104a1e4"},"vehicle_type_id":"4","last_reported":1684011905,"current_range_meters":24000,"station_id":"","pricing_plan_id":"free"},{"bike_id":"0a6b5759-1b71-4745-baeb-a938873452ee","system_id":"levelo_inurba_marseille","lat":43.2968,"lon":5.37291,"is_reserved":false,"is_disabled":false,"rental_uris":{"android":"levelo://app?vid=0a6b5759-1b71-4745-baeb-a938873452ee","ios":"levelo://app?vid=0a6b5759-1b71-4745-baeb-a938873452ee"},"vehicle_type_id":"4","last_reported":1684011905,"current_range_meters":5600,"station_id":"ce4bgk12rcd13ifvqbj0","pricing_plan_id":"free"},{"bike_id":"491e7efe-81f3-443c-8c95-a6164163374c","system_id":"levelo_inurba_marseille","lat":43.29573,"lon":5.367355,"is_reserved":false,"is_disabled":false,"rental_uris":{"android":"levelo://app?vid=491e7efe-81f3-443c-8c95-a6164163374c","ios":"levelo://app?vid=491e7efe-81f3-443c-8c95-a6164163374c"},"vehicle_type_id":"4","last_reported":1684011905,"current_range_meters":31600,"station_id":"ce4bgph2rcd13ifvqc2g","pricing_plan_id":"free"},{"bike_id":"ef1d7277-116c-464d-a760-b81b82f2d16c","system_id":"levelo_inurba_marseille","lat":43.29573,"lon":5.367355,"is_reserved":false,"is_disabled":false,"rental_uris":{"android":"levelo://app?vid=ef1d7277-116c-464d-a760-b81b82f2d16c","ios":"levelo://app?vid=ef1d7277-116c-464d-a760-b81b82f2d16c"},"vehicle_type_id":"4","last_reported":1684011905,"current_range_meters":19600,"station_id":"ce4bgph2rcd13ifvqc2g","pricing_plan_id":"free"},{"bike_id":"c3694361-6f69-40b8-b7a9-013a5ed9be79","system_id":"levelo_inurba_marseille","lat":43.296129,"lon":5.370777,"is_reserved":false,"is_disabled":false,"rental_uris":{"android":"levelo://app?vid=c3694361-6f69-40b8-b7a9-013a5ed9be79","ios":"levelo://app?vid=c3694361-6f69-40b8-b7a9-013a5ed9be79"},"vehicle_type_id":"4","last_reported":1684011905,"current_range_meters":30000,"station_id":"ce4bgnh2rcd13ifvqc0g","pricing_plan_id":"free"},{"bike_id":"64f9e19d-27e8-409e-8b4f-d74198280294","system_id":"levelo_inurba_marseille","lat":43.29573,"lon":5.367355,"is_reserved":false,"is_disabled":false,"rental_uris":{"android":"levelo://app?vid=64f9e19d-27e8-409e-8b4f-d74198280294","ios":"levelo://app?vid=64f9e19d-27e8-409e-8b4f-d74198280294"},"vehicle_type_id":"4","last_reported":1684011905,"current_range_meters":23600,"station_id":"ce4bgph2rcd13ifvqc2g","pricing_plan_id":"free"},{"bike_id":"e62a4019-15e5-4aa8-ac87-39c5d1aaa8ba","system_id":"levelo_inurba_marseille","lat":43.30009,"lon":5.38286,"is_reserved":false,"is_disabled":false,"rental_uris":{"android":"levelo://app?vid=e62a4019-15e5-4aa8-ac87-39c5d1aaa8ba","ios":"levelo://app?vid=e62a4019-15e5-4aa8-ac87-39c5d1aaa8ba"},"vehicle_type_id":"4","last_reported":1684011905,"current_range_meters":0,"station_id":"","pricing_plan_id":"free"},{"bike_id":"e50dc615-3905-4d18-9444-97ff0679d8e9","system_id":"levelo_inurba_marseille","lat":43.2971,"lon":5.37703,"is_reserved":false,"is_disabled":false,"rental_uris":{"android":"levelo://app?vid=e50dc615-3905-4d18-9444-97ff0679d8e9","ios":"levelo://app?vid=e50dc615-3905-4d18-9444-97ff0679d8e9"},"vehicle_type_id":"4","last_reported":1684011905,"current_range_meters":2800,"station_id":"","pricing_plan_id":"free"},{"bike_id":"557c60ac-5039-4527-926b-7c0ca0f6fe79","system_id":"levelo_inurba_marseille","lat":43.29706,"lon":5.37701,"is_reserved":false,"is_disabled":false,"rental_uris":{"android":"levelo://app?vid=557c60ac-5039-4527-926b-7c0ca0f6fe79","ios":"levelo://app?vid=557c60ac-5039-4527-926b-7c0ca0f6fe79"},"vehicle_type_id":"4","last_reported":1684011905,"current_range_meters":13200,"station_id":"","pricing_plan_id":"free"},{"bike_id":"2e4072c4-97ae-412f-891d-364f103e5e6c","system_id":"levelo_inurba_marseille","lat":43.31755,"lon":5.39013,"is_reserved":false,"is_disabled":false,"rental_uris":{"android":"levelo://app?vid=2e4072c4-97ae-412f-891d-364f103e5e6c","ios":"levelo://app?vid=2e4072c4-97ae-412f-891d-364f103e5e6c"},"vehicle_type_id":"4","last_reported":1684011905,"current_range_meters":17200,"station_id":"ce4bhqp2rcd13ifvqhng","pricing_plan_id":"free"},{"bike_id":"eb214527-8203-4410-a520-f2f2d1c67bb7","system_id":"levelo_inurba_marseille","lat":43.317557,"lon":5.390173,"is_reserved":false,"is_disabled":false,"rental_uris":{"android":"levelo://app?vid=eb214527-8203-4410-a520-f2f2d1c67bb7","ios":"levelo://app?vid=eb214527-8203-4410-a520-f2f2d1c67bb7"},"vehicle_type_id":"4","last_reported":1684011905,"current_range_meters":10400,"station_id":"ce4bhqp2rcd13ifvqhng","pricing_plan_id":"free"},{"bike_id":"46fe8492-485e-4b45-949b-3fd957712adc","system_id":"levelo_inurba_marseille","lat":43.3176,"lon":5.39015,"is_reserved":false,"is_disabled":false,"rental_uris":{"android":"levelo://app?vid=46fe8492-485e-4b45-949b-3fd957712adc","ios":"levelo://app?vid=46fe8492-485e-4b45-949b-3fd957712adc"},"vehicle_type_id":"4","last_reported":1684011905,"current_range_meters":13200,"station_id":"ce4bhqp2rcd13ifvqhng","pricing_plan_id":"free"},{"bike_id":"7e101d88-7926-4513-a08a-b2a6fdb92c65","system_id":"levelo_inurba_marseille","lat":43.31756,"lon":5.3902,"is_reserved":false,"is_disabled":false,"rental_uris":{"android":"levelo://app?vid=7e101d88-7926-4513-a08a-b2a6fdb92c65","ios":"levelo://app?vid=7e101d88-7926-4513-a08a-b2a6fdb92c65"},"vehicle_type_id":"4","last_reported":1684011905,"current_range_meters":28000,"station_id":"ce4bhqp2rcd13ifvqhng","pricing_plan_id":"free"},{"bike_id":"01208a13-824a-4a94-be8d-2a48a5b6b683","system_id":"levelo_inurba_marseille","lat":43.31751,"lon":5.39023,"is_reserved":false,"is_disabled":false,"rental_uris":{"android":"levelo://app?vid=01208a13-824a-4a94-be8d-2a48a5b6b683","ios":"levelo://app?vid=01208a13-824a-4a94-be8d-2a48a5b6b683"},"vehicle_type_id":"4","last_reported":1684011905,"current_range_meters":29200,"station_id":"ce4bhqp2rcd13ifvqhng","pricing_plan_id":"free"},{"bike_id":"8d249c4e-5841-43df-a8c1-1ee71a14ff90","system_id":"levelo_inurba_marseille","lat":43.31757,"lon":5.39021,"is_reserved":false,"is_disabled":false,"rental_uris":{"android":"levelo://app?vid=8d249c4e-5841-43df-a8c1-1ee71a14ff90","ios":"levelo://app?vid=8d249c4e-5841-43df-a8c1-1ee71a14ff90"},"vehicle_type_id":"4","last_reported":1684011905,"current_range_meters":28000,"station_id":"ce4bhqp2rcd13ifvqhng","pricing_plan_id":"free"},{"bike_id":"1b8e8455-d974-44bb-9a4e-7e7867c76231","system_id":"levelo_inurba_marseille","lat":43.31758,"lon":5.39022,"is_reserved":false,"is_disabled":false,"rental_uris":{"android":"levelo://app?vid=1b8e8455-d974-44bb-9a4e-7e7867c76231","ios":"levelo://app?vid=1b8e8455-d974-44bb-9a4e-7e7867c76231"},"vehicle_type_id":"4","last_reported":1684011905,"current_range_meters":16400,"station_id":"ce4bhqp2rcd13ifvqhng","pricing_plan_id":"free"},{"bike_id":"80b60f6f-28ee-4635-a30c-377c46bb9c86","system_id":"levelo_inurba_marseille","lat":43.317557,"lon":5.390173,"is_reserved":false,"is_disabled":false,"rental_uris":{"android":"levelo://app?vid=80b60f6f-28ee-4635-a30c-377c46bb9c86","ios":"levelo://app?vid=80b60f6f-28ee-4635-a30c-377c46bb9c86"},"vehicle_type_id":"4","last_reported":1684011905,"current_range_meters":15600,"station_id":"ce4bhqp2rcd13ifvqhng","pricing_plan_id":"free"},{"bike_id":"1df61873-6882-4ef6-8855-bf643552bbdb","system_id":"levelo_inurba_marseille","lat":43.317557,"lon":5.390173,"is_reserved":false,"is_disabled":false,"rental_uris":{"android":"levelo://app?vid=1df61873-6882-4ef6-8855-bf643552bbdb","ios":"levelo://app?vid=1df61873-6882-4ef6-8855-bf643552bbdb"},"vehicle_type_id":"4","last_reported":1684011905,"current_range_meters":6800,"station_id":"ce4bhqp2rcd13ifvqhng","pricing_plan_id":"free"},{"bike_id":"42d8b4b4-4b22-436c-9091-e050f9cbecef","system_id":"levelo_inurba_marseille","lat":43.298037,"lon":5.381066,"is_reserved":false,"is_disabled":false,"rental_uris":{"android":"levelo://app?vid=42d8b4b4-4b22-436c-9091-e050f9cbecef","ios":"levelo://app?vid=42d8b4b4-4b22-436c-9091-e050f9cbecef"},"vehicle_type_id":"4","last_reported":1684011905,"current_range_meters":31600,"station_id":"ce4bgip2rcd13ifvqbb0","pricing_plan_id":"free"},{"bike_id":"20a2eaf2-d903-42bf-a458-830654981519","system_id":"levelo_inurba_marseille","lat":43.298037,"lon":5.381066,"is_reserved":false,"is_disabled":false,"rental_uris":{"android":"levelo://app?vid=20a2eaf2-d903-42bf-a458-830654981519","ios":"levelo://app?vid=20a2eaf2-d903-42bf-a458-830654981519"},"vehicle_type_id":"4","last_reported":1684011905,"current_range_meters":30400,"station_id":"ce4bgip2rcd13ifvqbb0","pricing_plan_id":"free"},{"bike_id":"18204498-1e71-4810-b416-12164d73afe3","system_id":"levelo_inurba_marseille","lat":43.29529,"lon":5.385581,"is_reserved":false,"is_disabled":false,"rental_uris":{"android":"levelo://app?vid=18204498-1e71-4810-b416-12164d73afe3","ios":"levelo://app?vid=18204498-1e71-4810-b416-12164d73afe3"},"vehicle_type_id":"4","last_reported":1684011905,"current_range_meters":16800,"station_id":"ce4bgih2rcd13ifvqba0","pricing_plan_id":"free"},{"bike_id":"bd6f6b0b-b841-46c5-8834-21f4fe764d63","system_id":"levelo_inurba_marseille","lat":43.299707,"lon":5.384859,"is_reserved":false,"is_disabled":false,"rental_uris":{"android":"levelo://app?vid=bd6f6b0b-b841-46c5-8834-21f4fe764d63","ios":"levelo://app?vid=bd6f6b0b-b841-46c5-8834-21f4fe764d63"},"vehicle_type_id":"4","last_reported":1684011905,"current_range_meters":18800,"station_id":"ce4bgj92rcd13ifvqbd0","pricing_plan_id":"free"},{"bike_id":"9a008f26-4b67-4480-a0cc-ebb91becb971","system_id":"levelo_inurba_marseille","lat":43.299707,"lon":5.384859,"is_reserved":false,"is_disabled":false,"rental_uris":{"android":"levelo://app?vid=9a008f26-4b67-4480-a0cc-ebb91becb971","ios":"levelo://app?vid=9a008f26-4b67-4480-a0cc-ebb91becb971"},"vehicle_type_id":"4","last_reported":1684011905,"current_range_meters":19200,"station_id":"ce4bgj92rcd13ifvqbd0","pricing_plan_id":"free"},{"bike_id":"d393efa6-6a26-4421-8167-4b6710df7309","system_id":"levelo_inurba_marseille","lat":43.29969,"lon":5.38491,"is_reserved":false,"is_disabled":false,"rental_uris":{"android":"levelo://app?vid=d393efa6-6a26-4421-8167-4b6710df7309","ios":"levelo://app?vid=d393efa6-6a26-4421-8167-4b6710df7309"},"vehicle_type_id":"4","last_reported":1684011905,"current_range_meters":30400,"station_id":"ce4bgj92rcd13ifvqbd0","pricing_plan_id":"free"},{"bike_id":"a510a17e-5548-477a-b423-0b2a99fe1d68","system_id":"levelo_inurba_marseille","lat":43.29962,"lon":5.38491,"is_reserved":false,"is_disabled":false,"rental_uris":{"android":"levelo://app?vid=a510a17e-5548-477a-b423-0b2a99fe1d68","ios":"levelo://app?vid=a510a17e-5548-477a-b423-0b2a99fe1d68"},"vehicle_type_id":"4","last_reported":1684011905,"current_range_meters":800,"station_id":"ce4bgj92rcd13ifvqbd0","pricing_plan_id":"free"},{"bike_id":"e70e5573-3e30-453f-9156-15c6ed3d4c58","system_id":"levelo_inurba_marseille","lat":43.29964,"lon":5.38494,"is_reserved":false,"is_disabled":false,"rental_uris":{"android":"levelo://app?vid=e70e5573-3e30-453f-9156-15c6ed3d4c58","ios":"levelo://app?vid=e70e5573-3e30-453f-9156-15c6ed3d4c58"},"vehicle_type_id":"4","last_reported":1684011905,"current_range_meters":24400,"station_id":"ce4bgj92rcd13ifvqbd0","pricing_plan_id":"free"},{"bike_id":"d9e7316d-8ed7-480a-91f6-4d40a0d0406f","system_id":"levelo_inurba_marseille","lat":43.29969,"lon":5.38501,"is_reserved":false,"is_disabled":false,"rental_uris":{"android":"levelo://app?vid=d9e7316d-8ed7-480a-91f6-4d40a0d0406f","ios":"levelo://app?vid=d9e7316d-8ed7-480a-91f6-4d40a0d0406f"},"vehicle_type_id":"4","last_reported":1684011905,"current_range_meters":22000,"station_id":"ce4bgj92rcd13ifvqbd0","pricing_plan_id":"free"},{"bike_id":"98d43089-ff1e-40ee-a123-f18e174ce1c4","system_id":"levelo_inurba_marseille","lat":43.31447,"lon":5.39273,"is_reserved":false,"is_disabled":false,"rental_uris":{"android":"levelo://app?vid=98d43089-ff1e-40ee-a123-f18e174ce1c4","ios":"levelo://app?vid=98d43089-ff1e-40ee-a123-f18e174ce1c4"},"vehicle_type_id":"4","last_reported":1684011905,"current_range_meters":2400,"station_id":"","pricing_plan_id":"free"},{"bike_id":"eb83a46e-c9e6-46da-927a-551d5d9ca2cb","system_id":"levelo_inurba_marseille","lat":43.29572,"lon":5.37819,"is_reserved":false,"is_disabled":false,"rental_uris":{"android":"levelo://app?vid=eb83a46e-c9e6-46da-927a-551d5d9ca2cb","ios":"levelo://app?vid=eb83a46e-c9e6-46da-927a-551d5d9ca2cb"},"vehicle_type_id":"4","last_reported":1684011905,"current_range_meters":28400,"station_id":"","pricing_plan_id":"free"},{"bike_id":"6f6b02ce-a50b-443a-a31d-aed834771e7b","system_id":"levelo_inurba_marseille","lat":43.31451,"lon":5.39286,"is_reserved":false,"is_disabled":false,"rental_uris":{"android":"levelo://app?vid=6f6b02ce-a50b-443a-a31d-aed834771e7b","ios":"levelo://app?vid=6f6b02ce-a50b-443a-a31d-aed834771e7b"},"vehicle_type_id":"4","last_reported":1684011905,"current_range_meters":4800,"station_id":"","pricing_plan_id":"free"},{"bike_id":"26a13052-0bf8-42cc-abb1-fb95fcb7c877","system_id":"levelo_inurba_marseille","lat":43.31443,"lon":5.393,"is_reserved":false,"is_disabled":false,"rental_uris":{"android":"levelo://app?vid=26a13052-0bf8-42cc-abb1-fb95fcb7c877","ios":"levelo://app?vid=26a13052-0bf8-42cc-abb1-fb95fcb7c877"},"vehicle_type_id":"4","last_reported":1684011905,"current_range_meters":16400,"station_id":"","pricing_plan_id":"free"},{"bike_id":"d37b0ade-d8c6-462a-a74c-f9fb22992ecd","system_id":"levelo_inurba_marseille","lat":43.302008,"lon":5.394694,"is_reserved":false,"is_disabled":false,"rental_uris":{"android":"levelo://app?vid=d37b0ade-d8c6-462a-a74c-f9fb22992ecd","ios":"levelo://app?vid=d37b0ade-d8c6-462a-a74c-f9fb22992ecd"},"vehicle_type_id":"4","last_reported":1684011905,"current_range_meters":20800,"station_id":"ce4bh0p2rcd13ifvqd70","pricing_plan_id":"free"},{"bike_id":"a9473d40-0575-485a-9602-b5cc1a5eaff5","system_id":"levelo_inurba_marseille","lat":43.29601,"lon":5.381084,"is_reserved":false,"is_disabled":false,"rental_uris":{"android":"levelo://app?vid=a9473d40-0575-485a-9602-b5cc1a5eaff5","ios":"levelo://app?vid=a9473d40-0575-485a-9602-b5cc1a5eaff5"},"vehicle_type_id":"4","last_reported":1684011905,"current_range_meters":20800,"station_id":"ce4bgl12rcd13ifvqbo0","pricing_plan_id":"free"},{"bike_id":"d901d5c7-c9d6-4d73-90c3-ef6b7841da08","system_id":"levelo_inurba_marseille","lat":43.29506,"lon":5.37867,"is_reserved":false,"is_disabled":false,"rental_uris":{"android":"levelo://app?vid=d901d5c7-c9d6-4d73-90c3-ef6b7841da08","ios":"levelo://app?vid=d901d5c7-c9d6-4d73-90c3-ef6b7841da08"},"vehicle_type_id":"4","last_reported":1684011905,"current_range_meters":23600,"station_id":"","pricing_plan_id":"free"},{"bike_id":"dc84744e-71c6-4c61-8bbb-74acee0063db","system_id":"levelo_inurba_marseille","lat":43.29601,"lon":5.381084,"is_reserved":false,"is_disabled":false,"rental_uris":{"android":"levelo://app?vid=dc84744e-71c6-4c61-8bbb-74acee0063db","ios":"levelo://app?vid=dc84744e-71c6-4c61-8bbb-74acee0063db"},"vehicle_type_id":"4","last_reported":1684011905,"current_range_meters":21200,"station_id":"ce4bgl12rcd13ifvqbo0","pricing_plan_id":"free"},{"bike_id":"96876b81-db9f-45c8-b972-6d4894f3b62a","system_id":"levelo_inurba_marseille","lat":43.29602,"lon":5.381084,"is_reserved":false,"is_disabled":false,"rental_uris":{"android":"levelo://app?vid=96876b81-db9f-45c8-b972-6d4894f3b62a","ios":"levelo://app?vid=96876b81-db9f-45c8-b972-6d4894f3b62a"},"vehicle_type_id":"4","last_reported":1684011905,"current_range_meters":16400,"station_id":"ce4bgl12rcd13ifvqbo0","pricing_plan_id":"free"},{"bike_id":"970e9077-2c6c-46ea-9239-a3c245d1b39b","system_id":"levelo_inurba_marseille","lat":43.29311,"lon":5.37163,"is_reserved":false,"is_disabled":false,"rental_uris":{"android":"levelo://app?vid=970e9077-2c6c-46ea-9239-a3c245d1b39b","ios":"levelo://app?vid=970e9077-2c6c-46ea-9239-a3c245d1b39b"},"vehicle_type_id":"4","last_reported":1684011905,"current_range_meters":22400,"station_id":"ce4bgh92rcd13ifvqb40","pricing_plan_id":"free"},{"bike_id":"f955772f-d4df-4898-aa68-920dd7f9d92e","system_id":"levelo_inurba_marseille","lat":43.29308,"lon":5.37165,"is_reserved":false,"is_disabled":false,"rental_uris":{"android":"levelo://app?vid=f955772f-d4df-4898-aa68-920dd7f9d92e","ios":"levelo://app?vid=f955772f-d4df-4898-aa68-920dd7f9d92e"},"vehicle_type_id":"4","last_reported":1684011905,"current_range_meters":27200,"station_id":"ce4bgh92rcd13ifvqb40","pricing_plan_id":"free"},{"bike_id":"76c7c060-8cf3-4bf6-887d-505e758af501","system_id":"levelo_inurba_marseille","lat":43.292749,"lon":5.368402,"is_reserved":false,"is_disabled":false,"rental_uris":{"android":"levelo://app?vid=76c7c060-8cf3-4bf6-887d-505e758af501","ios":"levelo://app?vid=76c7c060-8cf3-4bf6-887d-505e758af501"},"vehicle_type_id":"4","last_reported":1684011905,"current_range_meters":8000,"station_id":"ce4bhbp2rcd13ifvqesg","pricing_plan_id":"free"},{"bike_id":"b9e8e97d-fec1-4ea6-a471-4d617aafc41f","system_id":"levelo_inurba_marseille","lat":43.292749,"lon":5.368398,"is_reserved":false,"is_disabled":false,"rental_uris":{"android":"levelo://app?vid=b9e8e97d-fec1-4ea6-a471-4d617aafc41f","ios":"levelo://app?vid=b9e8e97d-fec1-4ea6-a471-4d617aafc41f"},"vehicle_type_id":"4","last_reported":1684011905,"current_range_meters":11600,"station_id":"ce4bhbp2rcd13ifvqesg","pricing_plan_id":"free"},{"bike_id":"7c4a727e-d4b4-497b-a5ee-73dae1f87a43","system_id":"levelo_inurba_marseille","lat":43.292749,"lon":5.368398,"is_reserved":false,"is_disabled":false,"rental_uris":{"android":"levelo://app?vid=7c4a727e-d4b4-497b-a5ee-73dae1f87a43","ios":"levelo://app?vid=7c4a727e-d4b4-497b-a5ee-73dae1f87a43"},"vehicle_type_id":"4","last_reported":1684011905,"current_range_meters":21200,"station_id":"ce4bhbp2rcd13ifvqesg","pricing_plan_id":"free"},{"bike_id":"dd39adee-df2a-4f49-87da-42063d45a714","system_id":"levelo_inurba_marseille","lat":43.29304,"lon":5.37453,"is_reserved":false,"is_disabled":false,"rental_uris":{"android":"levelo://app?vid=dd39adee-df2a-4f49-87da-42063d45a714","ios":"levelo://app?vid=dd39adee-df2a-4f49-87da-42063d45a714"},"vehicle_type_id":"4","last_reported":1684011905,"current_range_meters":22000,"station_id":"ce4bgi12rcd13ifvqb70","pricing_plan_id":"free"},{"bike_id":"f8a30a6d-97a9-4521-a1e4-e4e8037445d6","system_id":"levelo_inurba_marseille","lat":43.29303,"lon":5.37452,"is_reserved":false,"is_disabled":false,"rental_uris":{"android":"levelo://app?vid=f8a30a6d-97a9-4521-a1e4-e4e8037445d6","ios":"levelo://app?vid=f8a30a6d-97a9-4521-a1e4-e4e8037445d6"},"vehicle_type_id":"4","last_reported":1684011905,"current_range_meters":24400,"station_id":"ce4bgi12rcd13ifvqb70","pricing_plan_id":"free"},{"bike_id":"9f5cb91a-c5cc-4975-a05a-ec6e5706945b","system_id":"levelo_inurba_marseille","lat":43.29302,"lon":5.37454,"is_reserved":false,"is_disabled":false,"rental_uris":{"android":"levelo://app?vid=9f5cb91a-c5cc-4975-a05a-ec6e5706945b","ios":"levelo://app?vid=9f5cb91a-c5cc-4975-a05a-ec6e5706945b"},"vehicle_type_id":"4","last_reported":1684011905,"current_range_meters":17600,"station_id":"ce4bgi12rcd13ifvqb70","pricing_plan_id":"free"},{"bike_id":"85bc8781-cac2-4758-91d9-0c8599b372e4","system_id":"levelo_inurba_marseille","lat":43.29302,"lon":5.37455,"is_reserved":false,"is_disabled":false,"rental_uris":{"android":"levelo://app?vid=85bc8781-cac2-4758-91d9-0c8599b372e4","ios":"levelo://app?vid=85bc8781-cac2-4758-91d9-0c8599b372e4"},"vehicle_type_id":"4","last_reported":1684011905,"current_range_meters":26800,"station_id":"ce4bgi12rcd13ifvqb70","pricing_plan_id":"free"},{"bike_id":"ca725914-0e31-4bc9-a4bc-43d0d39240cd","system_id":"levelo_inurba_marseille","lat":43.293009,"lon":5.374584,"is_reserved":false,"is_disabled":false,"rental_uris":{"android":"levelo://app?vid=ca725914-0e31-4bc9-a4bc-43d0d39240cd","ios":"levelo://app?vid=ca725914-0e31-4bc9-a4bc-43d0d39240cd"},"vehicle_type_id":"4","last_reported":1684011905,"current_range_meters":14000,"station_id":"ce4bgi12rcd13ifvqb70","pricing_plan_id":"free"},{"bike_id":"739e06f5-bd65-4aff-b1d6-09d6c46dd2c5","system_id":"levelo_inurba_marseille","lat":43.293009,"lon":5.374584,"is_reserved":false,"is_disabled":false,"rental_uris":{"android":"levelo://app?vid=739e06f5-bd65-4aff-b1d6-09d6c46dd2c5","ios":"levelo://app?vid=739e06f5-bd65-4aff-b1d6-09d6c46dd2c5"},"vehicle_type_id":"4","last_reported":1684011905,"current_range_meters":31200,"station_id":"ce4bgi12rcd13ifvqb70","pricing_plan_id":"free"},{"bike_id":"d80ca3aa-138b-40e5-bf23-d2b538a91c35","system_id":"levelo_inurba_marseille","lat":43.293009,"lon":5.374584,"is_reserved":false,"is_disabled":false,"rental_uris":{"android":"levelo://app?vid=d80ca3aa-138b-40e5-bf23-d2b538a91c35","ios":"levelo://app?vid=d80ca3aa-138b-40e5-bf23-d2b538a91c35"},"vehicle_type_id":"4","last_reported":1684011905,"current_range_meters":31600,"station_id":"ce4bgi12rcd13ifvqb70","pricing_plan_id":"free"},{"bike_id":"992024c8-8324-45fd-89bb-8bc37c506385","system_id":"levelo_inurba_marseille","lat":43.293009,"lon":5.374584,"is_reserved":false,"is_disabled":false,"rental_uris":{"android":"levelo://app?vid=992024c8-8324-45fd-89bb-8bc37c506385","ios":"levelo://app?vid=992024c8-8324-45fd-89bb-8bc37c506385"},"vehicle_type_id":"4","last_reported":1684011905,"current_range_meters":26400,"station_id":"ce4bgi12rcd13ifvqb70","pricing_plan_id":"free"},{"bike_id":"45caf0d6-5f38-41d4-a21d-ad36c54fc67f","system_id":"levelo_inurba_marseille","lat":43.29298,"lon":5.37463,"is_reserved":false,"is_disabled":false,"rental_uris":{"android":"levelo://app?vid=45caf0d6-5f38-41d4-a21d-ad36c54fc67f","ios":"levelo://app?vid=45caf0d6-5f38-41d4-a21d-ad36c54fc67f"},"vehicle_type_id":"4","last_reported":1684011905,"current_range_meters":10400,"station_id":"ce4bgi12rcd13ifvqb70","pricing_plan_id":"free"},{"bike_id":"177b6e29-b75d-4118-a371-9de2a6449796","system_id":"levelo_inurba_marseille","lat":43.305994,"lon":5.393687,"is_reserved":false,"is_disabled":false,"rental_uris":{"android":"levelo://app?vid=177b6e29-b75d-4118-a371-9de2a6449796","ios":"levelo://app?vid=177b6e29-b75d-4118-a371-9de2a6449796"},"vehicle_type_id":"4","last_reported":1684011905,"current_range_meters":15600,"station_id":"ce4bh0p2rcd13ifvqd80","pricing_plan_id":"free"},{"bike_id":"c44421d4-c8e0-4c13-8250-0259075be054","system_id":"levelo_inurba_marseille","lat":43.293009,"lon":5.374584,"is_reserved":false,"is_disabled":false,"rental_uris":{"android":"levelo://app?vid=c44421d4-c8e0-4c13-8250-0259075be054","ios":"levelo://app?vid=c44421d4-c8e0-4c13-8250-0259075be054"},"vehicle_type_id":"4","last_reported":1684011905,"current_range_meters":20800,"station_id":"ce4bgi12rcd13ifvqb70","pricing_plan_id":"free"},{"bike_id":"5bb37cd7-559c-4f5a-8495-ca48690e76b4","system_id":"levelo_inurba_marseille","lat":43.293009,"lon":5.374584,"is_reserved":false,"is_disabled":false,"rental_uris":{"android":"levelo://app?vid=5bb37cd7-559c-4f5a-8495-ca48690e76b4","ios":"levelo://app?vid=5bb37cd7-559c-4f5a-8495-ca48690e76b4"},"vehicle_type_id":"4","last_reported":1684011905,"current_range_meters":12800,"station_id":"ce4bgi12rcd13ifvqb70","pricing_plan_id":"free"},{"bike_id":"5c28b0ec-4991-4bd8-a72e-35a542d0abe0","system_id":"levelo_inurba_marseille","lat":43.305994,"lon":5.393687,"is_reserved":false,"is_disabled":false,"rental_uris":{"android":"levelo://app?vid=5c28b0ec-4991-4bd8-a72e-35a542d0abe0","ios":"levelo://app?vid=5c28b0ec-4991-4bd8-a72e-35a542d0abe0"},"vehicle_type_id":"4","last_reported":1684011905,"current_range_meters":30000,"station_id":"ce4bh0p2rcd13ifvqd80","pricing_plan_id":"free"},{"bike_id":"79daa727-1824-4590-a390-7bfe0a07cc9a","system_id":"levelo_inurba_marseille","lat":43.293009,"lon":5.374584,"is_reserved":false,"is_disabled":false,"rental_uris":{"android":"levelo://app?vid=79daa727-1824-4590-a390-7bfe0a07cc9a","ios":"levelo://app?vid=79daa727-1824-4590-a390-7bfe0a07cc9a"},"vehicle_type_id":"4","last_reported":1684011905,"current_range_meters":8000,"station_id":"ce4bgi12rcd13ifvqb70","pricing_plan_id":"free"},{"bike_id":"51833108-9121-4aaf-911d-4bb850097e12","system_id":"levelo_inurba_marseille","lat":43.305994,"lon":5.393687,"is_reserved":false,"is_disabled":false,"rental_uris":{"android":"levelo://app?vid=51833108-9121-4aaf-911d-4bb850097e12","ios":"levelo://app?vid=51833108-9121-4aaf-911d-4bb850097e12"},"vehicle_type_id":"4","last_reported":1684011905,"current_range_meters":25200,"station_id":"ce4bh0p2rcd13ifvqd80","pricing_plan_id":"free"},{"bike_id":"0b9dfc3a-ce37-4abd-a980-b0a10624589e","system_id":"levelo_inurba_marseille","lat":43.305994,"lon":5.393687,"is_reserved":false,"is_disabled":false,"rental_uris":{"android":"levelo://app?vid=0b9dfc3a-ce37-4abd-a980-b0a10624589e","ios":"levelo://app?vid=0b9dfc3a-ce37-4abd-a980-b0a10624589e"},"vehicle_type_id":"4","last_reported":1684011905,"current_range_meters":26800,"station_id":"ce4bh0p2rcd13ifvqd80","pricing_plan_id":"free"},{"bike_id":"dba1abe2-c5cc-496e-82e6-5936bb3ae0fa","system_id":"levelo_inurba_marseille","lat":43.2929,"lon":5.37472,"is_reserved":false,"is_disabled":false,"rental_uris":{"android":"levelo://app?vid=dba1abe2-c5cc-496e-82e6-5936bb3ae0fa","ios":"levelo://app?vid=dba1abe2-c5cc-496e-82e6-5936bb3ae0fa"},"vehicle_type_id":"4","last_reported":1684011905,"current_range_meters":2400,"station_id":"ce4bgi12rcd13ifvqb70","pricing_plan_id":"free"},{"bike_id":"b257806a-9a32-47f7-8049-ab5e96100ec0","system_id":"levelo_inurba_marseille","lat":43.302992,"lon":5.392136,"is_reserved":false,"is_disabled":false,"rental_uris":{"android":"levelo://app?vid=b257806a-9a32-47f7-8049-ab5e96100ec0","ios":"levelo://app?vid=b257806a-9a32-47f7-8049-ab5e96100ec0"},"vehicle_type_id":"4","last_reported":1684011905,"current_range_meters":2000,"station_id":"ce4bgkh2rcd13ifvqbk0","pricing_plan_id":"free"},{"bike_id":"1d94c353-263f-4a6e-97a1-0d7d69970ef1","system_id":"levelo_inurba_marseille","lat":43.302992,"lon":5.392136,"is_reserved":false,"is_disabled":false,"rental_uris":{"android":"levelo://app?vid=1d94c353-263f-4a6e-97a1-0d7d69970ef1","ios":"levelo://app?vid=1d94c353-263f-4a6e-97a1-0d7d69970ef1"},"vehicle_type_id":"4","last_reported":1684011905,"current_range_meters":25600,"station_id":"ce4bgkh2rcd13ifvqbk0","pricing_plan_id":"free"},{"bike_id":"9dce71f6-d7f0-4628-86ce-8be5dcfe91a8","system_id":"levelo_inurba_marseille","lat":43.2936,"lon":5.37835,"is_reserved":false,"is_disabled":false,"rental_uris":{"android":"levelo://app?vid=9dce71f6-d7f0-4628-86ce-8be5dcfe91a8","ios":"levelo://app?vid=9dce71f6-d7f0-4628-86ce-8be5dcfe91a8"},"vehicle_type_id":"4","last_reported":1684011905,"current_range_meters":28800,"station_id":"ce4bgjh2rcd13ifvqbf0","pricing_plan_id":"free"},{"bike_id":"bd4992d5-8168-4ec2-8973-ce4b101262d6","system_id":"levelo_inurba_marseille","lat":43.302992,"lon":5.392136,"is_reserved":false,"is_disabled":false,"rental_uris":{"android":"levelo://app?vid=bd4992d5-8168-4ec2-8973-ce4b101262d6","ios":"levelo://app?vid=bd4992d5-8168-4ec2-8973-ce4b101262d6"},"vehicle_type_id":"4","last_reported":1684011905,"current_range_meters":4800,"station_id":"ce4bgkh2rcd13ifvqbk0","pricing_plan_id":"free"},{"bike_id":"d050ef45-79a9-4625-95ba-924fc273ebdb","system_id":"levelo_inurba_marseille","lat":43.302992,"lon":5.392136,"is_reserved":false,"is_disabled":false,"rental_uris":{"android":"levelo://app?vid=d050ef45-79a9-4625-95ba-924fc273ebdb","ios":"levelo://app?vid=d050ef45-79a9-4625-95ba-924fc273ebdb"},"vehicle_type_id":"4","last_reported":1684011905,"current_range_meters":16000,"station_id":"ce4bgkh2rcd13ifvqbk0","pricing_plan_id":"free"},{"bike_id":"a7ca4a1a-4402-4bf2-bc54-43d6d198a640","system_id":"levelo_inurba_marseille","lat":43.2936,"lon":5.37835,"is_reserved":false,"is_disabled":false,"rental_uris":{"android":"levelo://app?vid=a7ca4a1a-4402-4bf2-bc54-43d6d198a640","ios":"levelo://app?vid=a7ca4a1a-4402-4bf2-bc54-43d6d198a640"},"vehicle_type_id":"4","last_reported":1684011905,"current_range_meters":27600,"station_id":"ce4bgjh2rcd13ifvqbf0","pricing_plan_id":"free"},{"bike_id":"486816ab-4c81-4af7-ab1e-fde55cc7b744","system_id":"levelo_inurba_marseille","lat":43.29219,"lon":5.36061,"is_reserved":false,"is_disabled":false,"rental_uris":{"android":"levelo://app?vid=486816ab-4c81-4af7-ab1e-fde55cc7b744","ios":"levelo://app?vid=486816ab-4c81-4af7-ab1e-fde55cc7b744"},"vehicle_type_id":"4","last_reported":1684011905,"current_range_meters":16000,"station_id":"ce4bhbh2rcd13ifvqeqg","pricing_plan_id":"free"},{"bike_id":"68da6d6a-d0cb-4466-b2e0-dd1b933823ba","system_id":"levelo_inurba_marseille","lat":43.2921,"lon":5.36056,"is_reserved":false,"is_disabled":false,"rental_uris":{"android":"levelo://app?vid=68da6d6a-d0cb-4466-b2e0-dd1b933823ba","ios":"levelo://app?vid=68da6d6a-d0cb-4466-b2e0-dd1b933823ba"},"vehicle_type_id":"4","last_reported":1684011905,"current_range_meters":20000,"station_id":"","pricing_plan_id":"free"},{"bike_id":"bf127a54-90c6-4ad7-8f5b-81a6de1fe18d","system_id":"levelo_inurba_marseille","lat":43.292663,"lon":5.376389,"is_reserved":false,"is_disabled":false,"rental_uris":{"android":"levelo://app?vid=bf127a54-90c6-4ad7-8f5b-81a6de1fe18d","ios":"levelo://app?vid=bf127a54-90c6-4ad7-8f5b-81a6de1fe18d"},"vehicle_type_id":"4","last_reported":1684011905,"current_range_meters":0,"station_id":"ce4bgi12rcd13ifvqb80","pricing_plan_id":"free"},{"bike_id":"78c0f3c9-873f-46aa-accf-a05f4a49355e","system_id":"levelo_inurba_marseille","lat":43.292663,"lon":5.376394,"is_reserved":false,"is_disabled":false,"rental_uris":{"android":"levelo://app?vid=78c0f3c9-873f-46aa-accf-a05f4a49355e","ios":"levelo://app?vid=78c0f3c9-873f-46aa-accf-a05f4a49355e"},"vehicle_type_id":"4","last_reported":1684011905,"current_range_meters":26800,"station_id":"ce4bgi12rcd13ifvqb80","pricing_plan_id":"free"},{"bike_id":"eb2b00b8-3673-45a1-a9fa-8caa62fe6e69","system_id":"levelo_inurba_marseille","lat":43.292663,"lon":5.376394,"is_reserved":false,"is_disabled":false,"rental_uris":{"android":"levelo://app?vid=eb2b00b8-3673-45a1-a9fa-8caa62fe6e69","ios":"levelo://app?vid=eb2b00b8-3673-45a1-a9fa-8caa62fe6e69"},"vehicle_type_id":"4","last_reported":1684011905,"current_range_meters":20400,"station_id":"ce4bgi12rcd13ifvqb80","pricing_plan_id":"free"},{"bike_id":"70f0a27b-82b3-4cd3-82f8-c3fcf6a60d94","system_id":"levelo_inurba_marseille","lat":43.29167,"lon":5.37155,"is_reserved":false,"is_disabled":false,"rental_uris":{"android":"levelo://app?vid=70f0a27b-82b3-4cd3-82f8-c3fcf6a60d94","ios":"levelo://app?vid=70f0a27b-82b3-4cd3-82f8-c3fcf6a60d94"},"vehicle_type_id":"4","last_reported":1684011905,"current_range_meters":5200,"station_id":"ce4bha92rcd13ifvqeh0","pricing_plan_id":"free"},{"bike_id":"5bb02504-98a1-4a2d-b0c4-ce0389c6831e","system_id":"levelo_inurba_marseille","lat":43.291671,"lon":5.371575,"is_reserved":false,"is_disabled":false,"rental_uris":{"android":"levelo://app?vid=5bb02504-98a1-4a2d-b0c4-ce0389c6831e","ios":"levelo://app?vid=5bb02504-98a1-4a2d-b0c4-ce0389c6831e"},"vehicle_type_id":"4","last_reported":1684011905,"current_range_meters":16400,"station_id":"ce4bha92rcd13ifvqeh0","pricing_plan_id":"free"},{"bike_id":"7f0ed129-d56d-4db3-8e92-eb5bfe1d44d5","system_id":"levelo_inurba_marseille","lat":43.29165,"lon":5.37155,"is_reserved":false,"is_disabled":false,"rental_uris":{"android":"levelo://app?vid=7f0ed129-d56d-4db3-8e92-eb5bfe1d44d5","ios":"levelo://app?vid=7f0ed129-d56d-4db3-8e92-eb5bfe1d44d5"},"vehicle_type_id":"4","last_reported":1684011905,"current_range_meters":10000,"station_id":"ce4bha92rcd13ifvqeh0","pricing_plan_id":"free"},{"bike_id":"c4db155a-9213-4e3c-bf5c-0e8fa9eafd49","system_id":"levelo_inurba_marseille","lat":43.29166,"lon":5.37171,"is_reserved":false,"is_disabled":false,"rental_uris":{"android":"levelo://app?vid=c4db155a-9213-4e3c-bf5c-0e8fa9eafd49","ios":"levelo://app?vid=c4db155a-9213-4e3c-bf5c-0e8fa9eafd49"},"vehicle_type_id":"4","last_reported":1684011905,"current_range_meters":6800,"station_id":"ce4bha92rcd13ifvqeh0","pricing_plan_id":"free"},{"bike_id":"d50f3bbe-c278-407b-b417-397286f1f47b","system_id":"levelo_inurba_marseille","lat":43.298764,"lon":5.388973,"is_reserved":false,"is_disabled":false,"rental_uris":{"android":"levelo://app?vid=d50f3bbe-c278-407b-b417-397286f1f47b","ios":"levelo://app?vid=d50f3bbe-c278-407b-b417-397286f1f47b"},"vehicle_type_id":"4","last_reported":1684011905,"current_range_meters":12000,"station_id":"ce4bh392rcd13ifvqdl0","pricing_plan_id":"free"},{"bike_id":"30b28ab3-7173-41ac-a85f-b075ecd9d66c","system_id":"levelo_inurba_marseille","lat":43.298764,"lon":5.388973,"is_reserved":false,"is_disabled":false,"rental_uris":{"android":"levelo://app?vid=30b28ab3-7173-41ac-a85f-b075ecd9d66c","ios":"levelo://app?vid=30b28ab3-7173-41ac-a85f-b075ecd9d66c"},"vehicle_type_id":"4","last_reported":1684011905,"current_range_meters":2000,"station_id":"ce4bh392rcd13ifvqdl0","pricing_plan_id":"free"},{"bike_id":"8fb4f7d8-856c-462d-be16-ce46c14da3dd","system_id":"levelo_inurba_marseille","lat":43.29597,"lon":5.38555,"is_reserved":false,"is_disabled":false,"rental_uris":{"android":"levelo://app?vid=8fb4f7d8-856c-462d-be16-ce46c14da3dd","ios":"levelo://app?vid=8fb4f7d8-856c-462d-be16-ce46c14da3dd"},"vehicle_type_id":"4","last_reported":1684011905,"current_range_meters":22000,"station_id":"","pricing_plan_id":"free"},{"bike_id":"bb459314-17f6-417f-93dd-1cdb5c32a679","system_id":"levelo_inurba_marseille","lat":43.313291,"lon":5.396838,"is_reserved":false,"is_disabled":false,"rental_uris":{"android":"levelo://app?vid=bb459314-17f6-417f-93dd-1cdb5c32a679","ios":"levelo://app?vid=bb459314-17f6-417f-93dd-1cdb5c32a679"},"vehicle_type_id":"4","last_reported":1684011905,"current_range_meters":2800,"station_id":"ce4bgvp2rcd13ifvqcu0","pricing_plan_id":"free"},{"bike_id":"ee7cc366-943d-41cb-8c8e-f0290758f4cc","system_id":"levelo_inurba_marseille","lat":43.313291,"lon":5.396838,"is_reserved":false,"is_disabled":false,"rental_uris":{"android":"levelo://app?vid=ee7cc366-943d-41cb-8c8e-f0290758f4cc","ios":"levelo://app?vid=ee7cc366-943d-41cb-8c8e-f0290758f4cc"},"vehicle_type_id":"4","last_reported":1684011905,"current_range_meters":16800,"station_id":"ce4bgvp2rcd13ifvqcu0","pricing_plan_id":"free"},{"bike_id":"5f065ca9-3ba2-4c59-888c-7c829bc79e91","system_id":"levelo_inurba_marseille","lat":43.309038,"lon":5.396546,"is_reserved":false,"is_disabled":false,"rental_uris":{"android":"levelo://app?vid=5f065ca9-3ba2-4c59-888c-7c829bc79e91","ios":"levelo://app?vid=5f065ca9-3ba2-4c59-888c-7c829bc79e91"},"vehicle_type_id":"4","last_reported":1684011905,"current_range_meters":16400,"station_id":"ce4bh012rcd13ifvqcv0","pricing_plan_id":"free"},{"bike_id":"fd8a474f-abc0-48b5-b983-7c01a4ad657a","system_id":"levelo_inurba_marseille","lat":43.29188,"lon":5.35807,"is_reserved":false,"is_disabled":false,"rental_uris":{"android":"levelo://app?vid=fd8a474f-abc0-48b5-b983-7c01a4ad657a","ios":"levelo://app?vid=fd8a474f-abc0-48b5-b983-7c01a4ad657a"},"vehicle_type_id":"4","last_reported":1684011905,"current_range_meters":29600,"station_id":"","pricing_plan_id":"free"},{"bike_id":"c79cb25f-1e23-409f-94a6-d9859742c672","system_id":"levelo_inurba_marseille","lat":43.309038,"lon":5.396546,"is_reserved":false,"is_disabled":false,"rental_uris":{"android":"levelo://app?vid=c79cb25f-1e23-409f-94a6-d9859742c672","ios":"levelo://app?vid=c79cb25f-1e23-409f-94a6-d9859742c672"},"vehicle_type_id":"4","last_reported":1684011905,"current_range_meters":17600,"station_id":"ce4bh012rcd13ifvqcv0","pricing_plan_id":"free"},{"bike_id":"91ed464f-615c-4904-b034-737aa0c61b5f","system_id":"levelo_inurba_marseille","lat":43.29187,"lon":5.35799,"is_reserved":false,"is_disabled":false,"rental_uris":{"android":"levelo://app?vid=91ed464f-615c-4904-b034-737aa0c61b5f","ios":"levelo://app?vid=91ed464f-615c-4904-b034-737aa0c61b5f"},"vehicle_type_id":"4","last_reported":1684011905,"current_range_meters":27600,"station_id":"","pricing_plan_id":"free"},{"bike_id":"287cb7b1-13a8-45b2-b282-e4e69f16cbdb","system_id":"levelo_inurba_marseille","lat":43.309038,"lon":5.396546,"is_reserved":false,"is_disabled":false,"rental_uris":{"android":"levelo://app?vid=287cb7b1-13a8-45b2-b282-e4e69f16cbdb","ios":"levelo://app?vid=287cb7b1-13a8-45b2-b282-e4e69f16cbdb"},"vehicle_type_id":"4","last_reported":1684011905,"current_range_meters":13200,"station_id":"ce4bh012rcd13ifvqcv0","pricing_plan_id":"free"},{"bike_id":"7090cc86-5854-4608-921d-5fe769a825bb","system_id":"levelo_inurba_marseille","lat":43.313291,"lon":5.396838,"is_reserved":false,"is_disabled":false,"rental_uris":{"android":"levelo://app?vid=7090cc86-5854-4608-921d-5fe769a825bb","ios":"levelo://app?vid=7090cc86-5854-4608-921d-5fe769a825bb"},"vehicle_type_id":"4","last_reported":1684011905,"current_range_meters":18000,"station_id":"ce4bgvp2rcd13ifvqcu0","pricing_plan_id":"free"},{"bike_id":"487b2ea9-ed76-4e79-9cce-3779d19d50d1","system_id":"levelo_inurba_marseille","lat":43.29183,"lon":5.35806,"is_reserved":false,"is_disabled":false,"rental_uris":{"android":"levelo://app?vid=487b2ea9-ed76-4e79-9cce-3779d19d50d1","ios":"levelo://app?vid=487b2ea9-ed76-4e79-9cce-3779d19d50d1"},"vehicle_type_id":"4","last_reported":1684011905,"current_range_meters":17200,"station_id":"","pricing_plan_id":"free"},{"bike_id":"e45f9ceb-d7cf-44ac-ac01-ed8ef1fde44f","system_id":"levelo_inurba_marseille","lat":43.313291,"lon":5.396838,"is_reserved":false,"is_disabled":false,"rental_uris":{"android":"levelo://app?vid=e45f9ceb-d7cf-44ac-ac01-ed8ef1fde44f","ios":"levelo://app?vid=e45f9ceb-d7cf-44ac-ac01-ed8ef1fde44f"},"vehicle_type_id":"4","last_reported":1684011905,"current_range_meters":23200,"station_id":"ce4bgvp2rcd13ifvqcu0","pricing_plan_id":"free"},{"bike_id":"a1cbd7f1-b1d6-46ee-8d7a-e685f12f07db","system_id":"levelo_inurba_marseille","lat":43.313291,"lon":5.396838,"is_reserved":false,"is_disabled":false,"rental_uris":{"android":"levelo://app?vid=a1cbd7f1-b1d6-46ee-8d7a-e685f12f07db","ios":"levelo://app?vid=a1cbd7f1-b1d6-46ee-8d7a-e685f12f07db"},"vehicle_type_id":"4","last_reported":1684011905,"current_range_meters":24000,"station_id":"ce4bgvp2rcd13ifvqcu0","pricing_plan_id":"free"},{"bike_id":"d1ff789b-db74-4af0-bd6f-5a70c8e6b131","system_id":"levelo_inurba_marseille","lat":43.29529,"lon":5.385581,"is_reserved":false,"is_disabled":false,"rental_uris":{"android":"levelo://app?vid=d1ff789b-db74-4af0-bd6f-5a70c8e6b131","ios":"levelo://app?vid=d1ff789b-db74-4af0-bd6f-5a70c8e6b131"},"vehicle_type_id":"4","last_reported":1684011905,"current_range_meters":26800,"station_id":"ce4bgih2rcd13ifvqba0","pricing_plan_id":"free"},{"bike_id":"f2e8ca4f-6901-4dde-aa11-4ee6fe759344","system_id":"levelo_inurba_marseille","lat":43.29529,"lon":5.385581,"is_reserved":false,"is_disabled":false,"rental_uris":{"android":"levelo://app?vid=f2e8ca4f-6901-4dde-aa11-4ee6fe759344","ios":"levelo://app?vid=f2e8ca4f-6901-4dde-aa11-4ee6fe759344"},"vehicle_type_id":"4","last_reported":1684011905,"current_range_meters":5200,"station_id":"ce4bgih2rcd13ifvqba0","pricing_plan_id":"free"},{"bike_id":"81d30197-47ff-470d-ab9e-055492a23655","system_id":"levelo_inurba_marseille","lat":43.29529,"lon":5.385581,"is_reserved":false,"is_disabled":false,"rental_uris":{"android":"levelo://app?vid=81d30197-47ff-470d-ab9e-055492a23655","ios":"levelo://app?vid=81d30197-47ff-470d-ab9e-055492a23655"},"vehicle_type_id":"4","last_reported":1684011905,"current_range_meters":22000,"station_id":"ce4bgih2rcd13ifvqba0","pricing_plan_id":"free"},{"bike_id":"2d5516d8-eb99-48a8-98f4-3561c8dc14d8","system_id":"levelo_inurba_marseille","lat":43.29529,"lon":5.385581,"is_reserved":false,"is_disabled":false,"rental_uris":{"android":"levelo://app?vid=2d5516d8-eb99-48a8-98f4-3561c8dc14d8","ios":"levelo://app?vid=2d5516d8-eb99-48a8-98f4-3561c8dc14d8"},"vehicle_type_id":"4","last_reported":1684011905,"current_range_meters":19600,"station_id":"ce4bgih2rcd13ifvqba0","pricing_plan_id":"free"},{"bike_id":"cd103f73-33d8-48b0-bcde-472a132cb688","system_id":"levelo_inurba_marseille","lat":43.29529,"lon":5.385581,"is_reserved":false,"is_disabled":false,"rental_uris":{"android":"levelo://app?vid=cd103f73-33d8-48b0-bcde-472a132cb688","ios":"levelo://app?vid=cd103f73-33d8-48b0-bcde-472a132cb688"},"vehicle_type_id":"4","last_reported":1684011905,"current_range_meters":30400,"station_id":"ce4bgih2rcd13ifvqba0","pricing_plan_id":"free"},{"bike_id":"6e3b2842-f989-4563-b5aa-cbf51cc70e0b","system_id":"levelo_inurba_marseille","lat":43.29529,"lon":5.385581,"is_reserved":false,"is_disabled":false,"rental_uris":{"android":"levelo://app?vid=6e3b2842-f989-4563-b5aa-cbf51cc70e0b","ios":"levelo://app?vid=6e3b2842-f989-4563-b5aa-cbf51cc70e0b"},"vehicle_type_id":"4","last_reported":1684011905,"current_range_meters":14400,"station_id":"ce4bgih2rcd13ifvqba0","pricing_plan_id":"free"},{"bike_id":"81194d55-0495-4f63-9b89-7d4e56373705","system_id":"levelo_inurba_marseille","lat":43.29529,"lon":5.385581,"is_reserved":false,"is_disabled":false,"rental_uris":{"android":"levelo://app?vid=81194d55-0495-4f63-9b89-7d4e56373705","ios":"levelo://app?vid=81194d55-0495-4f63-9b89-7d4e56373705"},"vehicle_type_id":"4","last_reported":1684011905,"current_range_meters":22400,"station_id":"ce4bgih2rcd13ifvqba0","pricing_plan_id":"free"},{"bike_id":"7d519c82-ebaa-40e9-9d6b-197decb4cef3","system_id":"levelo_inurba_marseille","lat":43.29529,"lon":5.385581,"is_reserved":false,"is_disabled":false,"rental_uris":{"android":"levelo://app?vid=7d519c82-ebaa-40e9-9d6b-197decb4cef3","ios":"levelo://app?vid=7d519c82-ebaa-40e9-9d6b-197decb4cef3"},"vehicle_type_id":"4","last_reported":1684011905,"current_range_meters":31600,"station_id":"ce4bgih2rcd13ifvqba0","pricing_plan_id":"free"},{"bike_id":"26a390ca-1d7e-4de8-a18c-b86d568c39cb","system_id":"levelo_inurba_marseille","lat":43.29529,"lon":5.385581,"is_reserved":false,"is_disabled":false,"rental_uris":{"android":"levelo://app?vid=26a390ca-1d7e-4de8-a18c-b86d568c39cb","ios":"levelo://app?vid=26a390ca-1d7e-4de8-a18c-b86d568c39cb"},"vehicle_type_id":"4","last_reported":1684011905,"current_range_meters":16400,"station_id":"ce4bgih2rcd13ifvqba0","pricing_plan_id":"free"},{"bike_id":"e26ec686-81d6-49cd-81e7-529d5eeb0c2b","system_id":"levelo_inurba_marseille","lat":43.29529,"lon":5.385581,"is_reserved":false,"is_disabled":false,"rental_uris":{"android":"levelo://app?vid=e26ec686-81d6-49cd-81e7-529d5eeb0c2b","ios":"levelo://app?vid=e26ec686-81d6-49cd-81e7-529d5eeb0c2b"},"vehicle_type_id":"4","last_reported":1684011905,"current_range_meters":23200,"station_id":"ce4bgih2rcd13ifvqba0","pricing_plan_id":"free"},{"bike_id":"7795b106-3f7b-4b4c-bc3a-f39dab143db2","system_id":"levelo_inurba_marseille","lat":43.29529,"lon":5.385581,"is_reserved":false,"is_disabled":false,"rental_uris":{"android":"levelo://app?vid=7795b106-3f7b-4b4c-bc3a-f39dab143db2","ios":"levelo://app?vid=7795b106-3f7b-4b4c-bc3a-f39dab143db2"},"vehicle_type_id":"4","last_reported":1684011905,"current_range_meters":31200,"station_id":"ce4bgih2rcd13ifvqba0","pricing_plan_id":"free"},{"bike_id":"014acb20-37ec-4186-bf8c-7639b9ea98a4","system_id":"levelo_inurba_marseille","lat":43.29529,"lon":5.385581,"is_reserved":false,"is_disabled":false,"rental_uris":{"android":"levelo://app?vid=014acb20-37ec-4186-bf8c-7639b9ea98a4","ios":"levelo://app?vid=014acb20-37ec-4186-bf8c-7639b9ea98a4"},"vehicle_type_id":"4","last_reported":1684011905,"current_range_meters":9600,"station_id":"ce4bgih2rcd13ifvqba0","pricing_plan_id":"free"},{"bike_id":"3bde295a-bf2f-4906-8265-18103c5b5396","system_id":"levelo_inurba_marseille","lat":43.29529,"lon":5.385581,"is_reserved":false,"is_disabled":false,"rental_uris":{"android":"levelo://app?vid=3bde295a-bf2f-4906-8265-18103c5b5396","ios":"levelo://app?vid=3bde295a-bf2f-4906-8265-18103c5b5396"},"vehicle_type_id":"4","last_reported":1684011905,"current_range_meters":15200,"station_id":"ce4bgih2rcd13ifvqba0","pricing_plan_id":"free"},{"bike_id":"65c01632-0011-4d13-9001-512d039538ec","system_id":"levelo_inurba_marseille","lat":43.29529,"lon":5.385581,"is_reserved":false,"is_disabled":false,"rental_uris":{"android":"levelo://app?vid=65c01632-0011-4d13-9001-512d039538ec","ios":"levelo://app?vid=65c01632-0011-4d13-9001-512d039538ec"},"vehicle_type_id":"4","last_reported":1684011905,"current_range_meters":23200,"station_id":"ce4bgih2rcd13ifvqba0","pricing_plan_id":"free"},{"bike_id":"92c5792e-bd2e-425a-a0ca-d10939093212","system_id":"levelo_inurba_marseille","lat":43.29529,"lon":5.385581,"is_reserved":false,"is_disabled":false,"rental_uris":{"android":"levelo://app?vid=92c5792e-bd2e-425a-a0ca-d10939093212","ios":"levelo://app?vid=92c5792e-bd2e-425a-a0ca-d10939093212"},"vehicle_type_id":"4","last_reported":1684011905,"current_range_meters":16400,"station_id":"ce4bgih2rcd13ifvqba0","pricing_plan_id":"free"},{"bike_id":"39241da3-3d39-4dd0-8172-1b7be0e6064c","system_id":"levelo_inurba_marseille","lat":43.29529,"lon":5.385581,"is_reserved":false,"is_disabled":false,"rental_uris":{"android":"levelo://app?vid=39241da3-3d39-4dd0-8172-1b7be0e6064c","ios":"levelo://app?vid=39241da3-3d39-4dd0-8172-1b7be0e6064c"},"vehicle_type_id":"4","last_reported":1684011905,"current_range_meters":30800,"station_id":"ce4bgih2rcd13ifvqba0","pricing_plan_id":"free"},{"bike_id":"a4a82f40-a53b-47b2-9432-942441336c04","system_id":"levelo_inurba_marseille","lat":43.29529,"lon":5.385581,"is_reserved":false,"is_disabled":false,"rental_uris":{"android":"levelo://app?vid=a4a82f40-a53b-47b2-9432-942441336c04","ios":"levelo://app?vid=a4a82f40-a53b-47b2-9432-942441336c04"},"vehicle_type_id":"4","last_reported":1684011905,"current_range_meters":31600,"station_id":"ce4bgih2rcd13ifvqba0","pricing_plan_id":"free"},{"bike_id":"c1bd8ea8-66e3-4eb9-89c0-1fab02e1bf0b","system_id":"levelo_inurba_marseille","lat":43.29529,"lon":5.385581,"is_reserved":false,"is_disabled":false,"rental_uris":{"android":"levelo://app?vid=c1bd8ea8-66e3-4eb9-89c0-1fab02e1bf0b","ios":"levelo://app?vid=c1bd8ea8-66e3-4eb9-89c0-1fab02e1bf0b"},"vehicle_type_id":"4","last_reported":1684011905,"current_range_meters":0,"station_id":"ce4bgih2rcd13ifvqba0","pricing_plan_id":"free"},{"bike_id":"5f5e2abf-a62c-4607-b28c-cf00b3960288","system_id":"levelo_inurba_marseille","lat":43.29529,"lon":5.385581,"is_reserved":false,"is_disabled":false,"rental_uris":{"android":"levelo://app?vid=5f5e2abf-a62c-4607-b28c-cf00b3960288","ios":"levelo://app?vid=5f5e2abf-a62c-4607-b28c-cf00b3960288"},"vehicle_type_id":"4","last_reported":1684011905,"current_range_meters":6800,"station_id":"ce4bgih2rcd13ifvqba0","pricing_plan_id":"free"},{"bike_id":"ca8985c8-9634-47c4-8714-bf02cc04682e","system_id":"levelo_inurba_marseille","lat":43.29529,"lon":5.385581,"is_reserved":false,"is_disabled":false,"rental_uris":{"android":"levelo://app?vid=ca8985c8-9634-47c4-8714-bf02cc04682e","ios":"levelo://app?vid=ca8985c8-9634-47c4-8714-bf02cc04682e"},"vehicle_type_id":"4","last_reported":1684011905,"current_range_meters":24800,"station_id":"ce4bgih2rcd13ifvqba0","pricing_plan_id":"free"},{"bike_id":"bdaa21c8-140a-4a48-9d26-e1cb8f9858df","system_id":"levelo_inurba_marseille","lat":43.29529,"lon":5.385581,"is_reserved":false,"is_disabled":false,"rental_uris":{"android":"levelo://app?vid=bdaa21c8-140a-4a48-9d26-e1cb8f9858df","ios":"levelo://app?vid=bdaa21c8-140a-4a48-9d26-e1cb8f9858df"},"vehicle_type_id":"4","last_reported":1684011905,"current_range_meters":20000,"station_id":"ce4bgih2rcd13ifvqba0","pricing_plan_id":"free"},{"bike_id":"e34efa06-9077-47c8-9103-5c0e047dfe56","system_id":"levelo_inurba_marseille","lat":43.29529,"lon":5.385581,"is_reserved":false,"is_disabled":false,"rental_uris":{"android":"levelo://app?vid=e34efa06-9077-47c8-9103-5c0e047dfe56","ios":"levelo://app?vid=e34efa06-9077-47c8-9103-5c0e047dfe56"},"vehicle_type_id":"4","last_reported":1684011905,"current_range_meters":30400,"station_id":"ce4bgih2rcd13ifvqba0","pricing_plan_id":"free"},{"bike_id":"7f322542-1dde-44a2-8f91-b93a17a8209b","system_id":"levelo_inurba_marseille","lat":43.29529,"lon":5.385581,"is_reserved":false,"is_disabled":false,"rental_uris":{"android":"levelo://app?vid=7f322542-1dde-44a2-8f91-b93a17a8209b","ios":"levelo://app?vid=7f322542-1dde-44a2-8f91-b93a17a8209b"},"vehicle_type_id":"4","last_reported":1684011905,"current_range_meters":20400,"station_id":"ce4bgih2rcd13ifvqba0","pricing_plan_id":"free"},{"bike_id":"33f817ad-ce33-42b4-9fcf-4a12f90fcb8f","system_id":"levelo_inurba_marseille","lat":43.29529,"lon":5.385581,"is_reserved":false,"is_disabled":false,"rental_uris":{"android":"levelo://app?vid=33f817ad-ce33-42b4-9fcf-4a12f90fcb8f","ios":"levelo://app?vid=33f817ad-ce33-42b4-9fcf-4a12f90fcb8f"},"vehicle_type_id":"4","last_reported":1684011905,"current_range_meters":1200,"station_id":"ce4bgih2rcd13ifvqba0","pricing_plan_id":"free"},{"bike_id":"4f2e467b-c60c-4801-b754-648d75f40097","system_id":"levelo_inurba_marseille","lat":43.29529,"lon":5.385581,"is_reserved":false,"is_disabled":false,"rental_uris":{"android":"levelo://app?vid=4f2e467b-c60c-4801-b754-648d75f40097","ios":"levelo://app?vid=4f2e467b-c60c-4801-b754-648d75f40097"},"vehicle_type_id":"4","last_reported":1684011905,"current_range_meters":12800,"station_id":"ce4bgih2rcd13ifvqba0","pricing_plan_id":"free"},{"bike_id":"1b4dc9f0-c01f-4537-a3cf-19135a5f610b","system_id":"levelo_inurba_marseille","lat":43.29075,"lon":5.37161,"is_reserved":false,"is_disabled":false,"rental_uris":{"android":"levelo://app?vid=1b4dc9f0-c01f-4537-a3cf-19135a5f610b","ios":"levelo://app?vid=1b4dc9f0-c01f-4537-a3cf-19135a5f610b"},"vehicle_type_id":"4","last_reported":1684011905,"current_range_meters":28400,"station_id":"ce4bh5p2rcd13ifvqe4g","pricing_plan_id":"free"},{"bike_id":"8ea093b2-6fa7-40c0-b563-201230136f95","system_id":"levelo_inurba_marseille","lat":43.29062,"lon":5.37189,"is_reserved":false,"is_disabled":false,"rental_uris":{"android":"levelo://app?vid=8ea093b2-6fa7-40c0-b563-201230136f95","ios":"levelo://app?vid=8ea093b2-6fa7-40c0-b563-201230136f95"},"vehicle_type_id":"4","last_reported":1684011905,"current_range_meters":3200,"station_id":"","pricing_plan_id":"free"},{"bike_id":"9acc8213-1ac6-4893-bd63-b85036a3c162","system_id":"levelo_inurba_marseille","lat":43.29055,"lon":5.3717,"is_reserved":false,"is_disabled":false,"rental_uris":{"android":"levelo://app?vid=9acc8213-1ac6-4893-bd63-b85036a3c162","ios":"levelo://app?vid=9acc8213-1ac6-4893-bd63-b85036a3c162"},"vehicle_type_id":"4","last_reported":1684011905,"current_range_meters":29200,"station_id":"","pricing_plan_id":"free"},{"bike_id":"5e3bc081-eeb7-48eb-ae27-5cc9dc1ee0b1","system_id":"levelo_inurba_marseille","lat":43.290624,"lon":5.359245,"is_reserved":false,"is_disabled":false,"rental_uris":{"android":"levelo://app?vid=5e3bc081-eeb7-48eb-ae27-5cc9dc1ee0b1","ios":"levelo://app?vid=5e3bc081-eeb7-48eb-ae27-5cc9dc1ee0b1"},"vehicle_type_id":"4","last_reported":1684011905,"current_range_meters":20000,"station_id":"ce4bha92rcd13ifvqeg0","pricing_plan_id":"free"},{"bike_id":"28850f6e-0aab-421b-8ac9-a7af86af8859","system_id":"levelo_inurba_marseille","lat":43.290624,"lon":5.359245,"is_reserved":false,"is_disabled":false,"rental_uris":{"android":"levelo://app?vid=28850f6e-0aab-421b-8ac9-a7af86af8859","ios":"levelo://app?vid=28850f6e-0aab-421b-8ac9-a7af86af8859"},"vehicle_type_id":"4","last_reported":1684011905,"current_range_meters":26800,"station_id":"ce4bha92rcd13ifvqeg0","pricing_plan_id":"free"},{"bike_id":"175ea326-1da2-4607-a3fa-d5d3aa4ae8a1","system_id":"levelo_inurba_marseille","lat":43.29037,"lon":5.35922,"is_reserved":false,"is_disabled":false,"rental_uris":{"android":"levelo://app?vid=175ea326-1da2-4607-a3fa-d5d3aa4ae8a1","ios":"levelo://app?vid=175ea326-1da2-4607-a3fa-d5d3aa4ae8a1"},"vehicle_type_id":"4","last_reported":1684011905,"current_range_meters":1600,"station_id":"","pricing_plan_id":"free"},{"bike_id":"551afc14-e875-46af-a1f8-b7622c1f5008","system_id":"levelo_inurba_marseille","lat":43.29031,"lon":5.35923,"is_reserved":false,"is_disabled":false,"rental_uris":{"android":"levelo://app?vid=551afc14-e875-46af-a1f8-b7622c1f5008","ios":"levelo://app?vid=551afc14-e875-46af-a1f8-b7622c1f5008"},"vehicle_type_id":"4","last_reported":1684011905,"current_range_meters":27200,"station_id":"","pricing_plan_id":"free"},{"bike_id":"c6f4b0a3-d99b-4b79-89e3-cafa6f7cabcb","system_id":"levelo_inurba_marseille","lat":43.29425,"lon":5.38614,"is_reserved":false,"is_disabled":false,"rental_uris":{"android":"levelo://app?vid=c6f4b0a3-d99b-4b79-89e3-cafa6f7cabcb","ios":"levelo://app?vid=c6f4b0a3-d99b-4b79-89e3-cafa6f7cabcb"},"vehicle_type_id":"4","last_reported":1684011905,"current_range_meters":31200,"station_id":"ce4bh2h2rcd13ifvqdh0","pricing_plan_id":"free"},{"bike_id":"1558fa20-337f-4c36-ba4d-784a4cfdb927","system_id":"levelo_inurba_marseille","lat":43.294153,"lon":5.386305,"is_reserved":false,"is_disabled":false,"rental_uris":{"android":"levelo://app?vid=1558fa20-337f-4c36-ba4d-784a4cfdb927","ios":"levelo://app?vid=1558fa20-337f-4c36-ba4d-784a4cfdb927"},"vehicle_type_id":"4","last_reported":1684011905,"current_range_meters":17600,"station_id":"ce4bh2h2rcd13ifvqdh0","pricing_plan_id":"free"},{"bike_id":"bfc422a3-2bfc-4655-946a-b373feaa893b","system_id":"levelo_inurba_marseille","lat":43.29421,"lon":5.38619,"is_reserved":false,"is_disabled":false,"rental_uris":{"android":"levelo://app?vid=bfc422a3-2bfc-4655-946a-b373feaa893b","ios":"levelo://app?vid=bfc422a3-2bfc-4655-946a-b373feaa893b"},"vehicle_type_id":"4","last_reported":1684011905,"current_range_meters":31200,"station_id":"ce4bh2h2rcd13ifvqdh0","pricing_plan_id":"free"},{"bike_id":"b5b59518-211e-428d-aeaf-43495d57a0a8","system_id":"levelo_inurba_marseille","lat":43.29421,"lon":5.38624,"is_reserved":false,"is_disabled":false,"rental_uris":{"android":"levelo://app?vid=b5b59518-211e-428d-aeaf-43495d57a0a8","ios":"levelo://app?vid=b5b59518-211e-428d-aeaf-43495d57a0a8"},"vehicle_type_id":"4","last_reported":1684011905,"current_range_meters":6800,"station_id":"ce4bh2h2rcd13ifvqdh0","pricing_plan_id":"free"},{"bike_id":"79200243-b3e9-42cc-81f3-b7eb7b7d6946","system_id":"levelo_inurba_marseille","lat":43.294162,"lon":5.386292,"is_reserved":false,"is_disabled":false,"rental_uris":{"android":"levelo://app?vid=79200243-b3e9-42cc-81f3-b7eb7b7d6946","ios":"levelo://app?vid=79200243-b3e9-42cc-81f3-b7eb7b7d6946"},"vehicle_type_id":"4","last_reported":1684011905,"current_range_meters":12400,"station_id":"ce4bh2h2rcd13ifvqdh0","pricing_plan_id":"free"},{"bike_id":"bedee10e-5dfc-450e-8b51-ca83bf1109a6","system_id":"levelo_inurba_marseille","lat":43.30489,"lon":5.39702,"is_reserved":false,"is_disabled":false,"rental_uris":{"android":"levelo://app?vid=bedee10e-5dfc-450e-8b51-ca83bf1109a6","ios":"levelo://app?vid=bedee10e-5dfc-450e-8b51-ca83bf1109a6"},"vehicle_type_id":"4","last_reported":1684011905,"current_range_meters":1600,"station_id":"","pricing_plan_id":"free"},{"bike_id":"a54344ca-32ed-4e32-af93-bdf6cf2990cd","system_id":"levelo_inurba_marseille","lat":43.294162,"lon":5.386292,"is_reserved":false,"is_disabled":false,"rental_uris":{"android":"levelo://app?vid=a54344ca-32ed-4e32-af93-bdf6cf2990cd","ios":"levelo://app?vid=a54344ca-32ed-4e32-af93-bdf6cf2990cd"},"vehicle_type_id":"4","last_reported":1684011905,"current_range_meters":9600,"station_id":"ce4bh2h2rcd13ifvqdh0","pricing_plan_id":"free"},{"bike_id":"acd38374-6471-4ff9-8f8f-7b9adf3df58e","system_id":"levelo_inurba_marseille","lat":43.29418,"lon":5.3862,"is_reserved":false,"is_disabled":false,"rental_uris":{"android":"levelo://app?vid=acd38374-6471-4ff9-8f8f-7b9adf3df58e","ios":"levelo://app?vid=acd38374-6471-4ff9-8f8f-7b9adf3df58e"},"vehicle_type_id":"4","last_reported":1684011905,"current_range_meters":20000,"station_id":"ce4bh2h2rcd13ifvqdh0","pricing_plan_id":"free"},{"bike_id":"9f129774-36e1-42f1-8229-a7c2be11d89e","system_id":"levelo_inurba_marseille","lat":43.30481,"lon":5.39699,"is_reserved":false,"is_disabled":false,"rental_uris":{"android":"levelo://app?vid=9f129774-36e1-42f1-8229-a7c2be11d89e","ios":"levelo://app?vid=9f129774-36e1-42f1-8229-a7c2be11d89e"},"vehicle_type_id":"4","last_reported":1684011905,"current_range_meters":18400,"station_id":"","pricing_plan_id":"free"},{"bike_id":"89b53d81-b852-416d-94fd-ff868f6e1ff7","system_id":"levelo_inurba_marseille","lat":43.29417,"lon":5.38621,"is_reserved":false,"is_disabled":false,"rental_uris":{"android":"levelo://app?vid=89b53d81-b852-416d-94fd-ff868f6e1ff7","ios":"levelo://app?vid=89b53d81-b852-416d-94fd-ff868f6e1ff7"},"vehicle_type_id":"4","last_reported":1684011905,"current_range_meters":31200,"station_id":"ce4bh2h2rcd13ifvqdh0","pricing_plan_id":"free"},{"bike_id":"82f603f6-3dd0-4e24-a574-826a86d056a1","system_id":"levelo_inurba_marseille","lat":43.294162,"lon":5.386292,"is_reserved":false,"is_disabled":false,"rental_uris":{"android":"levelo://app?vid=82f603f6-3dd0-4e24-a574-826a86d056a1","ios":"levelo://app?vid=82f603f6-3dd0-4e24-a574-826a86d056a1"},"vehicle_type_id":"4","last_reported":1684011905,"current_range_meters":25200,"station_id":"ce4bh2h2rcd13ifvqdh0","pricing_plan_id":"free"},{"bike_id":"ac0e4e5b-105f-4462-8e54-1d5a68d4eb47","system_id":"levelo_inurba_marseille","lat":43.294162,"lon":5.386292,"is_reserved":false,"is_disabled":false,"rental_uris":{"android":"levelo://app?vid=ac0e4e5b-105f-4462-8e54-1d5a68d4eb47","ios":"levelo://app?vid=ac0e4e5b-105f-4462-8e54-1d5a68d4eb47"},"vehicle_type_id":"4","last_reported":1684011905,"current_range_meters":3600,"station_id":"ce4bh2h2rcd13ifvqdh0","pricing_plan_id":"free"},{"bike_id":"cd0a9999-5063-4524-9d63-9f0fd24ad5b4","system_id":"levelo_inurba_marseille","lat":43.29417,"lon":5.38624,"is_reserved":false,"is_disabled":false,"rental_uris":{"android":"levelo://app?vid=cd0a9999-5063-4524-9d63-9f0fd24ad5b4","ios":"levelo://app?vid=cd0a9999-5063-4524-9d63-9f0fd24ad5b4"},"vehicle_type_id":"4","last_reported":1684011905,"current_range_meters":16400,"station_id":"ce4bh2h2rcd13ifvqdh0","pricing_plan_id":"free"},{"bike_id":"6b31f33f-b9d8-4a09-a078-2300163b5ac3","system_id":"levelo_inurba_marseille","lat":43.294162,"lon":5.386292,"is_reserved":false,"is_disabled":false,"rental_uris":{"android":"levelo://app?vid=6b31f33f-b9d8-4a09-a078-2300163b5ac3","ios":"levelo://app?vid=6b31f33f-b9d8-4a09-a078-2300163b5ac3"},"vehicle_type_id":"4","last_reported":1684011905,"current_range_meters":9200,"station_id":"ce4bh2h2rcd13ifvqdh0","pricing_plan_id":"free"},{"bike_id":"cc3070ff-b361-4302-a3ad-248f6262c2b6","system_id":"levelo_inurba_marseille","lat":43.294162,"lon":5.386292,"is_reserved":false,"is_disabled":false,"rental_uris":{"android":"levelo://app?vid=cc3070ff-b361-4302-a3ad-248f6262c2b6","ios":"levelo://app?vid=cc3070ff-b361-4302-a3ad-248f6262c2b6"},"vehicle_type_id":"4","last_reported":1684011905,"current_range_meters":8000,"station_id":"ce4bh2h2rcd13ifvqdh0","pricing_plan_id":"free"},{"bike_id":"c1f6bde5-049e-4a5c-9eb7-6d50198d4e2f","system_id":"levelo_inurba_marseille","lat":43.294162,"lon":5.386292,"is_reserved":false,"is_disabled":false,"rental_uris":{"android":"levelo://app?vid=c1f6bde5-049e-4a5c-9eb7-6d50198d4e2f","ios":"levelo://app?vid=c1f6bde5-049e-4a5c-9eb7-6d50198d4e2f"},"vehicle_type_id":"4","last_reported":1684011905,"current_range_meters":19600,"station_id":"ce4bh2h2rcd13ifvqdh0","pricing_plan_id":"free"},{"bike_id":"31172937-c065-4d58-ae2f-1c7acc2e422b","system_id":"levelo_inurba_marseille","lat":43.2903,"lon":5.37562,"is_reserved":false,"is_disabled":false,"rental_uris":{"android":"levelo://app?vid=31172937-c065-4d58-ae2f-1c7acc2e422b","ios":"levelo://app?vid=31172937-c065-4d58-ae2f-1c7acc2e422b"},"vehicle_type_id":"4","last_reported":1684011905,"current_range_meters":10400,"station_id":"ce4bh692rcd13ifvqe90","pricing_plan_id":"free"},{"bike_id":"c2602ad4-7d49-40c4-8fab-34511fddb429","system_id":"levelo_inurba_marseille","lat":43.294162,"lon":5.386292,"is_reserved":false,"is_disabled":false,"rental_uris":{"android":"levelo://app?vid=c2602ad4-7d49-40c4-8fab-34511fddb429","ios":"levelo://app?vid=c2602ad4-7d49-40c4-8fab-34511fddb429"},"vehicle_type_id":"4","last_reported":1684011905,"current_range_meters":26000,"station_id":"ce4bh2h2rcd13ifvqdh0","pricing_plan_id":"free"},{"bike_id":"5dc3936d-a1b1-4979-ac13-fad60725c4d9","system_id":"levelo_inurba_marseille","lat":43.294162,"lon":5.386292,"is_reserved":false,"is_disabled":false,"rental_uris":{"android":"levelo://app?vid=5dc3936d-a1b1-4979-ac13-fad60725c4d9","ios":"levelo://app?vid=5dc3936d-a1b1-4979-ac13-fad60725c4d9"},"vehicle_type_id":"4","last_reported":1684011905,"current_range_meters":31200,"station_id":"ce4bh2h2rcd13ifvqdh0","pricing_plan_id":"free"},{"bike_id":"9e1edc10-ee2c-4eb9-a028-ddfaf4a13ce4","system_id":"levelo_inurba_marseille","lat":43.294162,"lon":5.386292,"is_reserved":false,"is_disabled":false,"rental_uris":{"android":"levelo://app?vid=9e1edc10-ee2c-4eb9-a028-ddfaf4a13ce4","ios":"levelo://app?vid=9e1edc10-ee2c-4eb9-a028-ddfaf4a13ce4"},"vehicle_type_id":"4","last_reported":1684011905,"current_range_meters":30800,"station_id":"ce4bh2h2rcd13ifvqdh0","pricing_plan_id":"free"},{"bike_id":"b4832e00-3951-4e16-a9b0-5c4069d72580","system_id":"levelo_inurba_marseille","lat":43.289184,"lon":5.366408,"is_reserved":false,"is_disabled":false,"rental_uris":{"android":"levelo://app?vid=b4832e00-3951-4e16-a9b0-5c4069d72580","ios":"levelo://app?vid=b4832e00-3951-4e16-a9b0-5c4069d72580"},"vehicle_type_id":"4","last_reported":1684011905,"current_range_meters":16800,"station_id":"ce4bhap2rcd13ifvqek0","pricing_plan_id":"free"},{"bike_id":"6000dda6-07a5-421d-83a7-5fd9448f4e10","system_id":"levelo_inurba_marseille","lat":43.290319,"lon":5.375732,"is_reserved":false,"is_disabled":false,"rental_uris":{"android":"levelo://app?vid=6000dda6-07a5-421d-83a7-5fd9448f4e10","ios":"levelo://app?vid=6000dda6-07a5-421d-83a7-5fd9448f4e10"},"vehicle_type_id":"4","last_reported":1684011905,"current_range_meters":23200,"station_id":"ce4bh692rcd13ifvqe90","pricing_plan_id":"free"},{"bike_id":"0e39fe04-367b-4cc4-9624-abc78a6d9424","system_id":"levelo_inurba_marseille","lat":43.294162,"lon":5.386292,"is_reserved":false,"is_disabled":false,"rental_uris":{"android":"levelo://app?vid=0e39fe04-367b-4cc4-9624-abc78a6d9424","ios":"levelo://app?vid=0e39fe04-367b-4cc4-9624-abc78a6d9424"},"vehicle_type_id":"4","last_reported":1684011905,"current_range_meters":10000,"station_id":"ce4bh2h2rcd13ifvqdh0","pricing_plan_id":"free"},{"bike_id":"6a2d9428-dd07-4fb3-b815-4694c6cd6706","system_id":"levelo_inurba_marseille","lat":43.289184,"lon":5.366408,"is_reserved":false,"is_disabled":false,"rental_uris":{"android":"levelo://app?vid=6a2d9428-dd07-4fb3-b815-4694c6cd6706","ios":"levelo://app?vid=6a2d9428-dd07-4fb3-b815-4694c6cd6706"},"vehicle_type_id":"4","last_reported":1684011905,"current_range_meters":17600,"station_id":"ce4bhap2rcd13ifvqek0","pricing_plan_id":"free"},{"bike_id":"4d3d6549-cb00-43bb-aa76-65446b4ba48b","system_id":"levelo_inurba_marseille","lat":43.289184,"lon":5.366408,"is_reserved":false,"is_disabled":false,"rental_uris":{"android":"levelo://app?vid=4d3d6549-cb00-43bb-aa76-65446b4ba48b","ios":"levelo://app?vid=4d3d6549-cb00-43bb-aa76-65446b4ba48b"},"vehicle_type_id":"4","last_reported":1684011905,"current_range_meters":29600,"station_id":"ce4bhap2rcd13ifvqek0","pricing_plan_id":"free"},{"bike_id":"75fbb963-85e9-4ca5-85c8-5d18abbee1b6","system_id":"levelo_inurba_marseille","lat":43.29414,"lon":5.38634,"is_reserved":false,"is_disabled":false,"rental_uris":{"android":"levelo://app?vid=75fbb963-85e9-4ca5-85c8-5d18abbee1b6","ios":"levelo://app?vid=75fbb963-85e9-4ca5-85c8-5d18abbee1b6"},"vehicle_type_id":"4","last_reported":1684011905,"current_range_meters":22400,"station_id":"ce4bh2h2rcd13ifvqdh0","pricing_plan_id":"free"},{"bike_id":"f363973e-f635-42aa-91ff-93c05993388a","system_id":"levelo_inurba_marseille","lat":43.294162,"lon":5.386292,"is_reserved":false,"is_disabled":false,"rental_uris":{"android":"levelo://app?vid=f363973e-f635-42aa-91ff-93c05993388a","ios":"levelo://app?vid=f363973e-f635-42aa-91ff-93c05993388a"},"vehicle_type_id":"4","last_reported":1684011905,"current_range_meters":26400,"station_id":"ce4bh2h2rcd13ifvqdh0","pricing_plan_id":"free"},{"bike_id":"f906b118-798c-4e6c-b3bd-d0a8467c55fc","system_id":"levelo_inurba_marseille","lat":43.289184,"lon":5.366408,"is_reserved":false,"is_disabled":false,"rental_uris":{"android":"levelo://app?vid=f906b118-798c-4e6c-b3bd-d0a8467c55fc","ios":"levelo://app?vid=f906b118-798c-4e6c-b3bd-d0a8467c55fc"},"vehicle_type_id":"4","last_reported":1684011905,"current_range_meters":24000,"station_id":"ce4bhap2rcd13ifvqek0","pricing_plan_id":"free"},{"bike_id":"55fd25a4-75c1-4c8f-85ff-18846b7cbbd4","system_id":"levelo_inurba_marseille","lat":43.28938,"lon":5.3664,"is_reserved":false,"is_disabled":false,"rental_uris":{"android":"levelo://app?vid=55fd25a4-75c1-4c8f-85ff-18846b7cbbd4","ios":"levelo://app?vid=55fd25a4-75c1-4c8f-85ff-18846b7cbbd4"},"vehicle_type_id":"4","last_reported":1684011905,"current_range_meters":17200,"station_id":"ce4bhap2rcd13ifvqek0","pricing_plan_id":"free"},{"bike_id":"bd70291b-5ba6-4b01-9a53-a19482a2caec","system_id":"levelo_inurba_marseille","lat":43.28938,"lon":5.36634,"is_reserved":false,"is_disabled":false,"rental_uris":{"android":"levelo://app?vid=bd70291b-5ba6-4b01-9a53-a19482a2caec","ios":"levelo://app?vid=bd70291b-5ba6-4b01-9a53-a19482a2caec"},"vehicle_type_id":"4","last_reported":1684011905,"current_range_meters":0,"station_id":"ce4bhap2rcd13ifvqek0","pricing_plan_id":"free"},{"bike_id":"fba2569b-6de7-423e-8c17-5595e0e507b0","system_id":"levelo_inurba_marseille","lat":43.294162,"lon":5.386292,"is_reserved":false,"is_disabled":false,"rental_uris":{"android":"levelo://app?vid=fba2569b-6de7-423e-8c17-5595e0e507b0","ios":"levelo://app?vid=fba2569b-6de7-423e-8c17-5595e0e507b0"},"vehicle_type_id":"4","last_reported":1684011905,"current_range_meters":9200,"station_id":"ce4bh2h2rcd13ifvqdh0","pricing_plan_id":"free"},{"bike_id":"530f5c7f-a941-4c38-8762-a9bfaac1c227","system_id":"levelo_inurba_marseille","lat":43.2893,"lon":5.36634,"is_reserved":false,"is_disabled":false,"rental_uris":{"android":"levelo://app?vid=530f5c7f-a941-4c38-8762-a9bfaac1c227","ios":"levelo://app?vid=530f5c7f-a941-4c38-8762-a9bfaac1c227"},"vehicle_type_id":"4","last_reported":1684011905,"current_range_meters":0,"station_id":"ce4bhap2rcd13ifvqek0","pricing_plan_id":"free"},{"bike_id":"585ebceb-6c58-4366-b09b-b84deb8bd9f1","system_id":"levelo_inurba_marseille","lat":43.29269,"lon":5.38437,"is_reserved":false,"is_disabled":false,"rental_uris":{"android":"levelo://app?vid=585ebceb-6c58-4366-b09b-b84deb8bd9f1","ios":"levelo://app?vid=585ebceb-6c58-4366-b09b-b84deb8bd9f1"},"vehicle_type_id":"4","last_reported":1684011905,"current_range_meters":8800,"station_id":"ce4bh692rcd13ifvqea0","pricing_plan_id":"free"},{"bike_id":"1296cffb-252a-498e-a29d-a3233abb4f82","system_id":"levelo_inurba_marseille","lat":43.29262,"lon":5.38431,"is_reserved":false,"is_disabled":false,"rental_uris":{"android":"levelo://app?vid=1296cffb-252a-498e-a29d-a3233abb4f82","ios":"levelo://app?vid=1296cffb-252a-498e-a29d-a3233abb4f82"},"vehicle_type_id":"4","last_reported":1684011905,"current_range_meters":9600,"station_id":"ce4bh692rcd13ifvqea0","pricing_plan_id":"free"},{"bike_id":"50db4e58-c8e6-4732-aff9-6941be805593","system_id":"levelo_inurba_marseille","lat":43.29256,"lon":5.38437,"is_reserved":false,"is_disabled":false,"rental_uris":{"android":"levelo://app?vid=50db4e58-c8e6-4732-aff9-6941be805593","ios":"levelo://app?vid=50db4e58-c8e6-4732-aff9-6941be805593"},"vehicle_type_id":"4","last_reported":1684011905,"current_range_meters":17200,"station_id":"ce4bh692rcd13ifvqea0","pricing_plan_id":"free"},