{"last_updated":1756224760,"ttl":60,"version":"2.2","data":{"bikes":[{"bike_id":"8b0daaf2-f1e5-454f-a3af-4e7e52e6bca3","system_id":"levelo_inurba_marseille","lat":43.286682,"lon":5.363474,"is_reserved":false,"is_disabled":false,"rental_uris":{"android":"levelo://app?vid=8b0daaf2-f1e5-454f-a3af-4e7e52e6bca3","ios":"levelo://app?vid=8b0daaf2-f1e5-454f-a3af-4e7e52e6bca3"},"vehicle_type_id":"4","last_reported":1756224760,"current_range_meters":1600,"station_id":"ce4bhah2rcd13ifvqej0","pricing_plan_id":"cebpf4jnsgd1na2vs0mg"},{"bike_id":"4edb4a63-b270-4544-85dc-355fa085068f","system_id":"levelo_inurba_marseille","lat":43.303,"lon":5.39215,"is_reserved":false,"is_disabled":false,"rental_uris":{"android":"levelo://app?vid=4edb4a63-b270-4544-85dc-355fa085068f","ios":"levelo://app?vid=4edb4a63-b270-4544-85dc-355fa085068f"},"vehicle_type_id":"4","last_reported":1756224760,"current_range_meters":2800,"station_id":"ce4bgkh2rcd13ifvqbk0","pricing_plan_id":"cebpf4jnsgd1na2vs0mg"},{"bike_id":"46c28713-bb2b-45d5-98fc-8d5e885d13cf","system_id":"levelo_inurba_marseille","lat":43.21201,"lon":5.35081,"is_reserved":false,"is_disabled":false,"rental_uris":{"android":"levelo://app?vid=46c28713-bb2b-45d5-98fc-8d5e885d13cf","ios":"levelo://app?vid=46c28713-bb2b-45d5-98fc-8d5e885d13cf"},"vehicle_type_id":"4","last_reported":1756224760,"current_range_meters":2800,"station_id":"st_cvj6sg6p6f1abm77japg","pricing_plan_id":"cebpf4jnsgd1na2vs0mg"},{"bike_id":"d451be23-bfcb-495d-8259-874f20774133","system_id":"levelo_inurba_marseille","lat":43.273716,"lon":5.362614,"is_reserved":false,"is_disabled":false,"rental_uris":{"android":"levelo://app?vid=d451be23-bfcb-495d-8259-874f20774133","ios":"levelo://app?vid=d451be23-bfcb-495d-8259-874f20774133"},"vehicle_type_id":"4","last_reported":1756224760,"current_range_meters":2800,"station_id":"ce4bhbh2rcd13ifvqeo0","pricing_plan_id":"cebpf4jnsgd1na2vs0mg"},{"bike_id":"eeda19a5-e865-4d94-bbc0-b540b5f261fa","system_id":"levelo_inurba_marseille","lat":43.29001,"lon":5.3561,"is_reserved":false,"is_disabled":false,"rental_uris":{"android":"levelo://app?vid=eeda19a5-e865-4d94-bbc0-b540b5f261fa","ios":"levelo://app?vid=eeda19a5-e865-4d94-bbc0-b540b5f261fa"},"vehicle_type_id":"4","last_reported":1756224760,"current_range_meters":2800,"station_id":"ce4bhb92rcd13ifvqen0","pricing_plan_id":"cebpf4jnsgd1na2vs0mg"},{"bike_id":"8278d03d-5584-48a8-a86a-7847a162c713","system_id":"levelo_inurba_marseille","lat":43.30923,"lon":5.38126,"is_reserved":false,"is_disabled":false,"rental_uris":{"android":"levelo://app?vid=8278d03d-5584-48a8-a86a-7847a162c713","ios":"levelo://app?vid=8278d03d-5584-48a8-a86a-7847a162c713"},"vehicle_type_id":"4","last_reported":1756224760,"current_range_meters":2800,"station_id":"","pricing_plan_id":"cebpf4jnsgd1na2vs0mg"},{"bike_id":"40f2c289-ab4d-4b45-80c8-5e305434b790","system_id":"levelo_inurba_marseille","lat":43.259298,"lon":5.394095,"is_reserved":false,"is_disabled":false,"rental_uris":{"android":"levelo://app?vid=40f2c289-ab4d-4b45-80c8-5e305434b790","ios":"levelo://app?vid=40f2c289-ab4d-4b45-80c8-5e305434b790"},"vehicle_type_id":"4","last_reported":1756224760,"current_range_meters":2800,"station_id":"ce4bhip2rcd13ifvqft0","pricing_plan_id":"cebpf4jnsgd1na2vs0mg"},{"bike_id":"338040d3-0a48-4a7a-9bb1-572aa6f6f7a3","system_id":"levelo_inurba_marseille","lat":43.292694,"lon":5.384343,"is_reserved":false,"is_disabled":false,"rental_uris":{"android":"levelo://app?vid=338040d3-0a48-4a7a-9bb1-572aa6f6f7a3","ios":"levelo://app?vid=338040d3-0a48-4a7a-9bb1-572aa6f6f7a3"},"vehicle_type_id":"4","last_reported":1756224760,"current_range_meters":2800,"station_id":"ce4bh692rcd13ifvqea0","pricing_plan_id":"cebpf4jnsgd1na2vs0mg"},{"bike_id":"63236404-8533-4001-bab3-e0439bffb150","system_id":"levelo_inurba_marseille","lat":43.21756,"lon":5.34593,"is_reserved":false,"is_disabled":false,"rental_uris":{"android":"levelo://app?vid=63236404-8533-4001-bab3-e0439bffb150","ios":"levelo://app?vid=63236404-8533-4001-bab3-e0439bffb150"},"vehicle_type_id":"4","last_reported":1756224760,"current_range_meters":3200,"station_id":"st_cvj6r9ubvosntc0bgbag","pricing_plan_id":"cebpf4jnsgd1na2vs0mg"},{"bike_id":"a0f3b177-20a2-4139-8976-b2d7909fc79f","system_id":"levelo_inurba_marseille","lat":43.2407,"lon":5.37764,"is_reserved":false,"is_disabled":false,"rental_uris":{"android":"levelo://app?vid=a0f3b177-20a2-4139-8976-b2d7909fc79f","ios":"levelo://app?vid=a0f3b177-20a2-4139-8976-b2d7909fc79f"},"vehicle_type_id":"4","last_reported":1756224760,"current_range_meters":3200,"station_id":"ce4bhnp2rcd13ifvqgvg","pricing_plan_id":"cebpf4jnsgd1na2vs0mg"},{"bike_id":"3d46399d-e2d9-4176-8db2-39990d4cba92","system_id":"levelo_inurba_marseille","lat":43.30787,"lon":5.37648,"is_reserved":false,"is_disabled":false,"rental_uris":{"android":"levelo://app?vid=3d46399d-e2d9-4176-8db2-39990d4cba92","ios":"levelo://app?vid=3d46399d-e2d9-4176-8db2-39990d4cba92"},"vehicle_type_id":"4","last_reported":1756224760,"current_range_meters":3600,"station_id":"ce4bgv92rcd13ifvqcq0","pricing_plan_id":"cebpf4jnsgd1na2vs0mg"},{"bike_id":"993e070d-6ceb-4265-b351-f434a22c1846","system_id":"levelo_inurba_marseille","lat":43.27372,"lon":5.362625,"is_reserved":false,"is_disabled":false,"rental_uris":{"android":"levelo://app?vid=993e070d-6ceb-4265-b351-f434a22c1846","ios":"levelo://app?vid=993e070d-6ceb-4265-b351-f434a22c1846"},"vehicle_type_id":"4","last_reported":1756224760,"current_range_meters":3600,"station_id":"ce4bhbh2rcd13ifvqeo0","pricing_plan_id":"cebpf4jnsgd1na2vs0mg"},{"bike_id":"108e33ad-ebe8-40c6-b462-433d3b25a2d9","system_id":"levelo_inurba_marseille","lat":43.29196,"lon":5.35796,"is_reserved":false,"is_disabled":false,"rental_uris":{"android":"levelo://app?vid=108e33ad-ebe8-40c6-b462-433d3b25a2d9","ios":"levelo://app?vid=108e33ad-ebe8-40c6-b462-433d3b25a2d9"},"vehicle_type_id":"4","last_reported":1756224760,"current_range_meters":3600,"station_id":"ce4bhb12rcd13ifvqel0","pricing_plan_id":"cebpf4jnsgd1na2vs0mg"},{"bike_id":"3ae5cb74-4001-4f85-845e-9cdbea10f094","system_id":"levelo_inurba_marseille","lat":43.28439,"lon":5.39207,"is_reserved":false,"is_disabled":false,"rental_uris":{"android":"levelo://app?vid=3ae5cb74-4001-4f85-845e-9cdbea10f094","ios":"levelo://app?vid=3ae5cb74-4001-4f85-845e-9cdbea10f094"},"vehicle_type_id":"4","last_reported":1756224760,"current_range_meters":3600,"station_id":"ce4bhoh2rcd13ifvqh5g","pricing_plan_id":"cebpf4jnsgd1na2vs0mg"},{"bike_id":"18cadd98-ca5b-4518-98d8-bbb26e647823","system_id":"levelo_inurba_marseille","lat":43.21189,"lon":5.35068,"is_reserved":false,"is_disabled":false,"rental_uris":{"android":"levelo://app?vid=18cadd98-ca5b-4518-98d8-bbb26e647823","ios":"levelo://app?vid=18cadd98-ca5b-4518-98d8-bbb26e647823"},"vehicle_type_id":"4","last_reported":1756224760,"current_range_meters":3600,"station_id":"st_cvj6sg6p6f1abm77japg","pricing_plan_id":"cebpf4jnsgd1na2vs0mg"},{"bike_id":"3df0cb14-c24b-46c6-926a-d52308326745","system_id":"levelo_inurba_marseille","lat":43.29357,"lon":5.37833,"is_reserved":false,"is_disabled":false,"rental_uris":{"android":"levelo://app?vid=3df0cb14-c24b-46c6-926a-d52308326745","ios":"levelo://app?vid=3df0cb14-c24b-46c6-926a-d52308326745"},"vehicle_type_id":"4","last_reported":1756224760,"current_range_meters":3600,"station_id":"ce4bgjh2rcd13ifvqbf0","pricing_plan_id":"cebpf4jnsgd1na2vs0mg"},{"bike_id":"ae6e7466-f79a-43dd-ba01-51043638613b","system_id":"levelo_inurba_marseille","lat":43.25407,"lon":5.39396,"is_reserved":false,"is_disabled":false,"rental_uris":{"android":"levelo://app?vid=ae6e7466-f79a-43dd-ba01-51043638613b","ios":"levelo://app?vid=ae6e7466-f79a-43dd-ba01-51043638613b"},"vehicle_type_id":"4","last_reported":1756224760,"current_range_meters":3600,"station_id":"","pricing_plan_id":"cebpf4jnsgd1na2vs0mg"},{"bike_id":"a52c79ef-89bc-4634-b1df-9b5b9498c18a","system_id":"levelo_inurba_marseille","lat":43.29274,"lon":5.36849,"is_reserved":false,"is_disabled":false,"rental_uris":{"android":"levelo://app?vid=a52c79ef-89bc-4634-b1df-9b5b9498c18a","ios":"levelo://app?vid=a52c79ef-89bc-4634-b1df-9b5b9498c18a"},"vehicle_type_id":"4","last_reported":1756224760,"current_range_meters":3600,"station_id":"ce4bhbp2rcd13ifvqesg","pricing_plan_id":"cebpf4jnsgd1na2vs0mg"},{"bike_id":"11e60af3-7ad1-4ee8-b0bd-d3d7f18075a6","system_id":"levelo_inurba_marseille","lat":43.29905,"lon":5.38138,"is_reserved":false,"is_disabled":false,"rental_uris":{"android":"levelo://app?vid=11e60af3-7ad1-4ee8-b0bd-d3d7f18075a6","ios":"levelo://app?vid=11e60af3-7ad1-4ee8-b0bd-d3d7f18075a6"},"vehicle_type_id":"4","last_reported":1756224760,"current_range_meters":3600,"station_id":"ce4bgj12rcd13ifvqbc0","pricing_plan_id":"cebpf4jnsgd1na2vs0mg"},{"bike_id":"1ebc68ef-f386-4544-9281-3d73d2bc984e","system_id":"levelo_inurba_marseille","lat":43.23961,"lon":5.36629,"is_reserved":false,"is_disabled":false,"rental_uris":{"android":"levelo://app?vid=1ebc68ef-f386-4544-9281-3d73d2bc984e","ios":"levelo://app?vid=1ebc68ef-f386-4544-9281-3d73d2bc984e"},"vehicle_type_id":"4","last_reported":1756224760,"current_range_meters":4000,"station_id":"ce4bhi12rcd13ifvqfp0","pricing_plan_id":"cebpf4jnsgd1na2vs0mg"},{"bike_id":"c7e59988-755c-4edc-8964-11fb51f3e15d","system_id":"levelo_inurba_marseille","lat":43.295288,"lon":5.385419,"is_reserved":false,"is_disabled":false,"rental_uris":{"android":"levelo://app?vid=c7e59988-755c-4edc-8964-11fb51f3e15d","ios":"levelo://app?vid=c7e59988-755c-4edc-8964-11fb51f3e15d"},"vehicle_type_id":"4","last_reported":1756224760,"current_range_meters":6800,"station_id":"ce4bgih2rcd13ifvqba0","pricing_plan_id":"cebpf4jnsgd1na2vs0mg"},{"bike_id":"bea334f8-0175-4293-8483-04f0b39e68da","system_id":"levelo_inurba_marseille","lat":43.28104,"lon":5.37814,"is_reserved":false,"is_disabled":false,"rental_uris":{"android":"levelo://app?vid=bea334f8-0175-4293-8483-04f0b39e68da","ios":"levelo://app?vid=bea334f8-0175-4293-8483-04f0b39e68da"},"vehicle_type_id":"4","last_reported":1756224760,"current_range_meters":4400,"station_id":"ce4bha12rcd13ifvqee0","pricing_plan_id":"cebpf4jnsgd1na2vs0mg"},{"bike_id":"9b9a8832-bdc6-43de-a93d-ce18e91564a2","system_id":"levelo_inurba_marseille","lat":43.267893,"lon":5.394139,"is_reserved":false,"is_disabled":false,"rental_uris":{"android":"levelo://app?vid=9b9a8832-bdc6-43de-a93d-ce18e91564a2","ios":"levelo://app?vid=9b9a8832-bdc6-43de-a93d-ce18e91564a2"},"vehicle_type_id":"4","last_reported":1756224760,"current_range_meters":4000,"station_id":"ce4bhh12rcd13ifvqfg0","pricing_plan_id":"cebpf4jnsgd1na2vs0mg"},{"bike_id":"765c0b94-6d14-4622-88c8-6bd84fdf5328","system_id":"levelo_inurba_marseille","lat":43.28939,"lon":5.39631,"is_reserved":false,"is_disabled":false,"rental_uris":{"android":"levelo://app?vid=765c0b94-6d14-4622-88c8-6bd84fdf5328","ios":"levelo://app?vid=765c0b94-6d14-4622-88c8-6bd84fdf5328"},"vehicle_type_id":"4","last_reported":1756224760,"current_range_meters":4000,"station_id":"ce4bh3h2rcd13ifvqdn0","pricing_plan_id":"cebpf4jnsgd1na2vs0mg"},{"bike_id":"4c44d573-6030-4a04-bf36-f16169e8e452","system_id":"levelo_inurba_marseille","lat":43.239655,"lon":5.366371,"is_reserved":false,"is_disabled":false,"rental_uris":{"android":"levelo://app?vid=4c44d573-6030-4a04-bf36-f16169e8e452","ios":"levelo://app?vid=4c44d573-6030-4a04-bf36-f16169e8e452"},"vehicle_type_id":"4","last_reported":1756224760,"current_range_meters":4400,"station_id":"ce4bhi12rcd13ifvqfp0","pricing_plan_id":"cebpf4jnsgd1na2vs0mg"},{"bike_id":"30e80a26-a0af-4d54-ab30-a8689714069f","system_id":"levelo_inurba_marseille","lat":43.28948,"lon":5.36392,"is_reserved":false,"is_disabled":false,"rental_uris":{"android":"levelo://app?vid=30e80a26-a0af-4d54-ab30-a8689714069f","ios":"levelo://app?vid=30e80a26-a0af-4d54-ab30-a8689714069f"},"vehicle_type_id":"4","last_reported":1756224760,"current_range_meters":4400,"station_id":"ce4bhc92rcd13ifvqetg","pricing_plan_id":"cebpf4jnsgd1na2vs0mg"},{"bike_id":"c4ccc10f-8ccd-44be-a00a-f6ebdc6ec159","system_id":"levelo_inurba_marseille","lat":43.30415,"lon":5.43467,"is_reserved":false,"is_disabled":false,"rental_uris":{"android":"levelo://app?vid=c4ccc10f-8ccd-44be-a00a-f6ebdc6ec159","ios":"levelo://app?vid=c4ccc10f-8ccd-44be-a00a-f6ebdc6ec159"},"vehicle_type_id":"4","last_reported":1756224760,"current_range_meters":4800,"station_id":"","pricing_plan_id":"cebpf4jnsgd1na2vs0mg"},{"bike_id":"d6ff681a-29c6-432e-9eaa-3f44379a75ee","system_id":"levelo_inurba_marseille","lat":43.2944,"lon":5.39748,"is_reserved":false,"is_disabled":false,"rental_uris":{"android":"levelo://app?vid=d6ff681a-29c6-432e-9eaa-3f44379a75ee","ios":"levelo://app?vid=d6ff681a-29c6-432e-9eaa-3f44379a75ee"},"vehicle_type_id":"4","last_reported":1756224760,"current_range_meters":4800,"station_id":"ce4bh3h2rcd13ifvqdo0","pricing_plan_id":"cebpf4jnsgd1na2vs0mg"},{"bike_id":"fb0ecd7c-2c0f-42f1-9e73-9448c9893367","system_id":"levelo_inurba_marseille","lat":43.26494,"lon":5.3702,"is_reserved":false,"is_disabled":false,"rental_uris":{"android":"levelo://app?vid=fb0ecd7c-2c0f-42f1-9e73-9448c9893367","ios":"levelo://app?vid=fb0ecd7c-2c0f-42f1-9e73-9448c9893367"},"vehicle_type_id":"4","last_reported":1756224760,"current_range_meters":4800,"station_id":"","pricing_plan_id":"cebpf4jnsgd1na2vs0mg"},{"bike_id":"5df7bd1f-928b-4cb5-9c52-860d045f1495","system_id":"levelo_inurba_marseille","lat":43.28202,"lon":5.39052,"is_reserved":false,"is_disabled":false,"rental_uris":{"android":"levelo://app?vid=5df7bd1f-928b-4cb5-9c52-860d045f1495","ios":"levelo://app?vid=5df7bd1f-928b-4cb5-9c52-860d045f1495"},"vehicle_type_id":"4","last_reported":1756224760,"current_range_meters":5600,"station_id":"ce4bhn92rcd13ifvqgsg","pricing_plan_id":"cebpf4jnsgd1na2vs0mg"},{"bike_id":"ed1e23e5-0074-482f-b18e-e76569f06518","system_id":"levelo_inurba_marseille","lat":43.28847,"lon":5.3586,"is_reserved":false,"is_disabled":false,"rental_uris":{"android":"levelo://app?vid=ed1e23e5-0074-482f-b18e-e76569f06518","ios":"levelo://app?vid=ed1e23e5-0074-482f-b18e-e76569f06518"},"vehicle_type_id":"4","last_reported":1756224760,"current_range_meters":5600,"station_id":"ce4bhb12rcd13ifvqem0","pricing_plan_id":"cebpf4jnsgd1na2vs0mg"},{"bike_id":"e7ce8570-1707-448e-b6ff-b3b750711863","system_id":"levelo_inurba_marseille","lat":43.28223,"lon":5.39077,"is_reserved":false,"is_disabled":false,"rental_uris":{"android":"levelo://app?vid=e7ce8570-1707-448e-b6ff-b3b750711863","ios":"levelo://app?vid=e7ce8570-1707-448e-b6ff-b3b750711863"},"vehicle_type_id":"4","last_reported":1756224760,"current_range_meters":5600,"station_id":"ce4bhn92rcd13ifvqgsg","pricing_plan_id":"cebpf4jnsgd1na2vs0mg"},{"bike_id":"9b26e17d-156c-4cf7-b236-860d93161d87","system_id":"levelo_inurba_marseille","lat":43.30131,"lon":5.38788,"is_reserved":false,"is_disabled":false,"rental_uris":{"android":"levelo://app?vid=9b26e17d-156c-4cf7-b236-860d93161d87","ios":"levelo://app?vid=9b26e17d-156c-4cf7-b236-860d93161d87"},"vehicle_type_id":"4","last_reported":1756224760,"current_range_meters":4800,"station_id":"ce4bghh2rcd13ifvqb60","pricing_plan_id":"cebpf4jnsgd1na2vs0mg"},{"bike_id":"db2a46d4-6404-443f-9134-61704d341688","system_id":"levelo_inurba_marseille","lat":43.25863,"lon":5.39896,"is_reserved":false,"is_disabled":false,"rental_uris":{"android":"levelo://app?vid=db2a46d4-6404-443f-9134-61704d341688","ios":"levelo://app?vid=db2a46d4-6404-443f-9134-61704d341688"},"vehicle_type_id":"4","last_reported":1756224760,"current_range_meters":6000,"station_id":"ce4bhl92rcd13ifvqghg","pricing_plan_id":"cebpf4jnsgd1na2vs0mg"},{"bike_id":"50af81ba-de13-4986-8ef8-c14fb695e6d2","system_id":"levelo_inurba_marseille","lat":43.32896,"lon":5.37982,"is_reserved":false,"is_disabled":false,"rental_uris":{"android":"levelo://app?vid=50af81ba-de13-4986-8ef8-c14fb695e6d2","ios":"levelo://app?vid=50af81ba-de13-4986-8ef8-c14fb695e6d2"},"vehicle_type_id":"4","last_reported":1756224760,"current_range_meters":6000,"station_id":"","pricing_plan_id":"cebpf4jnsgd1na2vs0mg"},{"bike_id":"f0c9445b-42d4-44b1-a2e0-ee399a23952d","system_id":"levelo_inurba_marseille","lat":43.30093,"lon":5.3908,"is_reserved":false,"is_disabled":false,"rental_uris":{"android":"levelo://app?vid=f0c9445b-42d4-44b1-a2e0-ee399a23952d","ios":"levelo://app?vid=f0c9445b-42d4-44b1-a2e0-ee399a23952d"},"vehicle_type_id":"4","last_reported":1756224760,"current_range_meters":5600,"station_id":"ce4bh192rcd13ifvqdb0","pricing_plan_id":"cebpf4jnsgd1na2vs0mg"},{"bike_id":"ff3d3d57-c609-4a35-a7da-bd3505dda780","system_id":"levelo_inurba_marseille","lat":43.28462,"lon":5.35893,"is_reserved":false,"is_disabled":false,"rental_uris":{"android":"levelo://app?vid=ff3d3d57-c609-4a35-a7da-bd3505dda780","ios":"levelo://app?vid=ff3d3d57-c609-4a35-a7da-bd3505dda780"},"vehicle_type_id":"4","last_reported":1756224760,"current_range_meters":6800,"station_id":"ce4bhah2rcd13ifvqei0","pricing_plan_id":"cebpf4jnsgd1na2vs0mg"},{"bike_id":"02017619-5238-450d-b2c9-1edb4c08d0ca","system_id":"levelo_inurba_marseille","lat":43.28408,"lon":5.34977,"is_reserved":false,"is_disabled":false,"rental_uris":{"android":"levelo://app?vid=02017619-5238-450d-b2c9-1edb4c08d0ca","ios":"levelo://app?vid=02017619-5238-450d-b2c9-1edb4c08d0ca"},"vehicle_type_id":"4","last_reported":1756224760,"current_range_meters":6800,"station_id":"ce4bhbh2rcd13ifvqepg","pricing_plan_id":"cebpf4jnsgd1na2vs0mg"},{"bike_id":"78628fb5-2c45-4c73-941b-7e4641e86497","system_id":"levelo_inurba_marseille","lat":43.313294,"lon":5.39708,"is_reserved":false,"is_disabled":false,"rental_uris":{"android":"levelo://app?vid=78628fb5-2c45-4c73-941b-7e4641e86497","ios":"levelo://app?vid=78628fb5-2c45-4c73-941b-7e4641e86497"},"vehicle_type_id":"4","last_reported":1756224760,"current_range_meters":6800,"station_id":"ce4bgvp2rcd13ifvqcu0","pricing_plan_id":"cebpf4jnsgd1na2vs0mg"},{"bike_id":"edf8679d-09be-4eaa-8b9e-03c2d985a2cf","system_id":"levelo_inurba_marseille","lat":43.292584,"lon":5.376208,"is_reserved":false,"is_disabled":false,"rental_uris":{"android":"levelo://app?vid=edf8679d-09be-4eaa-8b9e-03c2d985a2cf","ios":"levelo://app?vid=edf8679d-09be-4eaa-8b9e-03c2d985a2cf"},"vehicle_type_id":"4","last_reported":1756224760,"current_range_meters":6800,"station_id":"ce4bgi12rcd13ifvqb80","pricing_plan_id":"cebpf4jnsgd1na2vs0mg"},{"bike_id":"8faa6bde-8fb3-4fa1-a82f-60382383545f","system_id":"levelo_inurba_marseille","lat":43.28446,"lon":5.39202,"is_reserved":false,"is_disabled":false,"rental_uris":{"android":"levelo://app?vid=8faa6bde-8fb3-4fa1-a82f-60382383545f","ios":"levelo://app?vid=8faa6bde-8fb3-4fa1-a82f-60382383545f"},"vehicle_type_id":"4","last_reported":1756224760,"current_range_meters":6800,"station_id":"ce4bhoh2rcd13ifvqh5g","pricing_plan_id":"cebpf4jnsgd1na2vs0mg"},{"bike_id":"c9a1e2f5-9ea7-4dc5-af99-4282e671d3b5","system_id":"levelo_inurba_marseille","lat":43.262,"lon":5.37442,"is_reserved":false,"is_disabled":true,"rental_uris":{"android":"levelo://app?vid=c9a1e2f5-9ea7-4dc5-af99-4282e671d3b5","ios":"levelo://app?vid=c9a1e2f5-9ea7-4dc5-af99-4282e671d3b5"},"vehicle_type_id":"4","last_reported":1756224760,"current_range_meters":6800,"station_id":"ce4bhgp2rcd13ifvqfc0","pricing_plan_id":"cebpf4jnsgd1na2vs0mg"},{"bike_id":"2a70335d-e374-4ee9-89fd-02f180a335f6","system_id":"levelo_inurba_marseille","lat":43.28573,"lon":5.39501,"is_reserved":false,"is_disabled":false,"rental_uris":{"android":"levelo://app?vid=2a70335d-e374-4ee9-89fd-02f180a335f6","ios":"levelo://app?vid=2a70335d-e374-4ee9-89fd-02f180a335f6"},"vehicle_type_id":"4","last_reported":1756224760,"current_range_meters":6800,"station_id":"ce4bh292rcd13ifvqdg0","pricing_plan_id":"cebpf4jnsgd1na2vs0mg"},{"bike_id":"f6bd5b86-eb54-487c-8a4e-3da908b177ef","system_id":"levelo_inurba_marseille","lat":43.29568,"lon":5.37527,"is_reserved":false,"is_disabled":true,"rental_uris":{"android":"levelo://app?vid=f6bd5b86-eb54-487c-8a4e-3da908b177ef","ios":"levelo://app?vid=f6bd5b86-eb54-487c-8a4e-3da908b177ef"},"vehicle_type_id":"4","last_reported":1756224760,"current_range_meters":7200,"station_id":"","pricing_plan_id":"cebpf4jnsgd1na2vs0mg"},{"bike_id":"07dc94f1-eeff-4c89-b26c-eb261358c57d","system_id":"levelo_inurba_marseille","lat":43.29966,"lon":5.37173,"is_reserved":false,"is_disabled":false,"rental_uris":{"android":"levelo://app?vid=07dc94f1-eeff-4c89-b26c-eb261358c57d","ios":"levelo://app?vid=07dc94f1-eeff-4c89-b26c-eb261358c57d"},"vehicle_type_id":"4","last_reported":1756224760,"current_range_meters":8000,"station_id":"ce4bgr92rcd13ifvqc7g","pricing_plan_id":"cebpf4jnsgd1na2vs0mg"},{"bike_id":"910a2fe9-c763-44c1-8de4-85789a7f1606","system_id":"levelo_inurba_marseille","lat":43.274186,"lon":5.394191,"is_reserved":false,"is_disabled":true,"rental_uris":{"android":"levelo://app?vid=910a2fe9-c763-44c1-8de4-85789a7f1606","ios":"levelo://app?vid=910a2fe9-c763-44c1-8de4-85789a7f1606"},"vehicle_type_id":"4","last_reported":1756224760,"current_range_meters":8000,"station_id":"ce4bhdp2rcd13ifvqf20","pricing_plan_id":"cebpf4jnsgd1na2vs0mg"},{"bike_id":"b72ddfe3-c483-48b6-a880-a138054f95e8","system_id":"levelo_inurba_marseille","lat":43.21171,"lon":5.35002,"is_reserved":false,"is_disabled":false,"rental_uris":{"android":"levelo://app?vid=b72ddfe3-c483-48b6-a880-a138054f95e8","ios":"levelo://app?vid=b72ddfe3-c483-48b6-a880-a138054f95e8"},"vehicle_type_id":"4","last_reported":1756224760,"current_range_meters":8000,"station_id":"","pricing_plan_id":"cebpf4jnsgd1na2vs0mg"},{"bike_id":"236f1a17-bd84-4b8e-977f-7df7d8cf402c","system_id":"levelo_inurba_marseille","lat":43.30797,"lon":5.435,"is_reserved":false,"is_disabled":true,"rental_uris":{"android":"levelo://app?vid=236f1a17-bd84-4b8e-977f-7df7d8cf402c","ios":"levelo://app?vid=236f1a17-bd84-4b8e-977f-7df7d8cf402c"},"vehicle_type_id":"4","last_reported":1756224760,"current_range_meters":8000,"station_id":"ce4bhph2rcd13ifvqheg","pricing_plan_id":"cebpf4jnsgd1na2vs0mg"},{"bike_id":"b8868868-cae1-41f7-9021-f5db70a8881e","system_id":"levelo_inurba_marseille","lat":43.30605,"lon":5.372319,"is_reserved":false,"is_disabled":false,"rental_uris":{"android":"levelo://app?vid=b8868868-cae1-41f7-9021-f5db70a8881e","ios":"levelo://app?vid=b8868868-cae1-41f7-9021-f5db70a8881e"},"vehicle_type_id":"4","last_reported":1756224760,"current_range_meters":8000,"station_id":"ce4bgqh2rcd13ifvqc4g","pricing_plan_id":"cebpf4jnsgd1na2vs0mg"},{"bike_id":"46528b96-dec0-41a4-b7fa-128c4d24149a","system_id":"levelo_inurba_marseille","lat":43.28937,"lon":5.36637,"is_reserved":false,"is_disabled":false,"rental_uris":{"android":"levelo://app?vid=46528b96-dec0-41a4-b7fa-128c4d24149a","ios":"levelo://app?vid=46528b96-dec0-41a4-b7fa-128c4d24149a"},"vehicle_type_id":"4","last_reported":1756224760,"current_range_meters":8000,"station_id":"ce4bhap2rcd13ifvqek0","pricing_plan_id":"cebpf4jnsgd1na2vs0mg"},{"bike_id":"b3c7077e-48eb-4203-9247-bedf8e086b36","system_id":"levelo_inurba_marseille","lat":43.2926,"lon":5.38446,"is_reserved":false,"is_disabled":false,"rental_uris":{"android":"levelo://app?vid=b3c7077e-48eb-4203-9247-bedf8e086b36","ios":"levelo://app?vid=b3c7077e-48eb-4203-9247-bedf8e086b36"},"vehicle_type_id":"4","last_reported":1756224760,"current_range_meters":8400,"station_id":"ce4bh692rcd13ifvqea0","pricing_plan_id":"cebpf4jnsgd1na2vs0mg"},{"bike_id":"56b692ab-9e20-4019-947e-9ba4fe752545","system_id":"levelo_inurba_marseille","lat":43.28631,"lon":5.35086,"is_reserved":false,"is_disabled":false,"rental_uris":{"android":"levelo://app?vid=56b692ab-9e20-4019-947e-9ba4fe752545","ios":"levelo://app?vid=56b692ab-9e20-4019-947e-9ba4fe752545"},"vehicle_type_id":"4","last_reported":1756224760,"current_range_meters":5600,"station_id":"ce4bhch2rcd13ifvqeug","pricing_plan_id":"cebpf4jnsgd1na2vs0mg"},{"bike_id":"03be758f-3e6d-4c72-8876-95a4359600d6","system_id":"levelo_inurba_marseille","lat":43.33761,"lon":5.37488,"is_reserved":false,"is_disabled":false,"rental_uris":{"android":"levelo://app?vid=03be758f-3e6d-4c72-8876-95a4359600d6","ios":"levelo://app?vid=03be758f-3e6d-4c72-8876-95a4359600d6"},"vehicle_type_id":"4","last_reported":1756224760,"current_range_meters":8400,"station_id":"","pricing_plan_id":"cebpf4jnsgd1na2vs0mg"},{"bike_id":"286dee07-8db1-4bc7-bac6-96c8ff01e58d","system_id":"levelo_inurba_marseille","lat":43.3236,"lon":5.36764,"is_reserved":false,"is_disabled":false,"rental_uris":{"android":"levelo://app?vid=286dee07-8db1-4bc7-bac6-96c8ff01e58d","ios":"levelo://app?vid=286dee07-8db1-4bc7-bac6-96c8ff01e58d"},"vehicle_type_id":"4","last_reported":1756224760,"current_range_meters":8400,"station_id":"ce4bhsh2rcd13ifvqi2g","pricing_plan_id":"cebpf4jnsgd1na2vs0mg"},{"bike_id":"5cc9c6ee-570c-47c9-a7f6-0c878c187816","system_id":"levelo_inurba_marseille","lat":43.28404,"lon":5.34989,"is_reserved":false,"is_disabled":false,"rental_uris":{"android":"levelo://app?vid=5cc9c6ee-570c-47c9-a7f6-0c878c187816","ios":"levelo://app?vid=5cc9c6ee-570c-47c9-a7f6-0c878c187816"},"vehicle_type_id":"4","last_reported":1756224760,"current_range_meters":8400,"station_id":"ce4bhbh2rcd13ifvqepg","pricing_plan_id":"cebpf4jnsgd1na2vs0mg"},{"bike_id":"30717e37-a917-4a7e-af0c-6cd1ac01697f","system_id":"levelo_inurba_marseille","lat":43.28939,"lon":5.366429,"is_reserved":false,"is_disabled":false,"rental_uris":{"android":"levelo://app?vid=30717e37-a917-4a7e-af0c-6cd1ac01697f","ios":"levelo://app?vid=30717e37-a917-4a7e-af0c-6cd1ac01697f"},"vehicle_type_id":"4","last_reported":1756224760,"current_range_meters":8400,"station_id":"ce4bhch2rcd13ifvqeug","pricing_plan_id":"cebpf4jnsgd1na2vs0mg"},{"bike_id":"2fa11962-f311-47ae-98f9-0a1b6b68a490","system_id":"levelo_inurba_marseille","lat":43.26543,"lon":5.37284,"is_reserved":false,"is_disabled":false,"rental_uris":{"android":"levelo://app?vid=2fa11962-f311-47ae-98f9-0a1b6b68a490","ios":"levelo://app?vid=2fa11962-f311-47ae-98f9-0a1b6b68a490"},"vehicle_type_id":"4","last_reported":1756224760,"current_range_meters":8400,"station_id":"ce4bhg12rcd13ifvqf70","pricing_plan_id":"cebpf4jnsgd1na2vs0mg"},{"bike_id":"a3582cd1-aa95-42c2-b921-0febb41e5b2f","system_id":"levelo_inurba_marseille","lat":43.23196,"lon":5.35548,"is_reserved":false,"is_disabled":false,"rental_uris":{"android":"levelo://app?vid=a3582cd1-aa95-42c2-b921-0febb41e5b2f","ios":"levelo://app?vid=a3582cd1-aa95-42c2-b921-0febb41e5b2f"},"vehicle_type_id":"4","last_reported":1756224760,"current_range_meters":8800,"station_id":"ce4bhu92rcd13ifvqi70","pricing_plan_id":"cebpf4jnsgd1na2vs0mg"},{"bike_id":"3a69dcca-a951-4ea4-895c-81f48bb99c60","system_id":"levelo_inurba_marseille","lat":43.293731,"lon":5.378542,"is_reserved":false,"is_disabled":false,"rental_uris":{"android":"levelo://app?vid=3a69dcca-a951-4ea4-895c-81f48bb99c60","ios":"levelo://app?vid=3a69dcca-a951-4ea4-895c-81f48bb99c60"},"vehicle_type_id":"4","last_reported":1756224760,"current_range_meters":8800,"station_id":"ce4bgjh2rcd13ifvqbf0","pricing_plan_id":"cebpf4jnsgd1na2vs0mg"},{"bike_id":"48668c19-1fb0-45c0-aecc-cbecf0e34b15","system_id":"levelo_inurba_marseille","lat":43.30425,"lon":5.38887,"is_reserved":false,"is_disabled":false,"rental_uris":{"android":"levelo://app?vid=48668c19-1fb0-45c0-aecc-cbecf0e34b15","ios":"levelo://app?vid=48668c19-1fb0-45c0-aecc-cbecf0e34b15"},"vehicle_type_id":"4","last_reported":1756224760,"current_range_meters":8800,"station_id":"ce4bgk12rcd13ifvqbi0","pricing_plan_id":"cebpf4jnsgd1na2vs0mg"},{"bike_id":"df75f1fa-75ae-4074-a5b6-5911a8c1b6a8","system_id":"levelo_inurba_marseille","lat":43.307556,"lon":5.371566,"is_reserved":false,"is_disabled":false,"rental_uris":{"android":"levelo://app?vid=df75f1fa-75ae-4074-a5b6-5911a8c1b6a8","ios":"levelo://app?vid=df75f1fa-75ae-4074-a5b6-5911a8c1b6a8"},"vehicle_type_id":"4","last_reported":1756224760,"current_range_meters":8800,"station_id":"","pricing_plan_id":"cebpf4jnsgd1na2vs0mg"},{"bike_id":"ba979a9a-3936-4e25-8061-d8a105792709","system_id":"levelo_inurba_marseille","lat":43.29848,"lon":5.3629,"is_reserved":false,"is_disabled":true,"rental_uris":{"android":"levelo://app?vid=ba979a9a-3936-4e25-8061-d8a105792709","ios":"levelo://app?vid=ba979a9a-3936-4e25-8061-d8a105792709"},"vehicle_type_id":"4","last_reported":1756224760,"current_range_meters":9200,"station_id":"ce4bgpp2rcd13ifvqc3g","pricing_plan_id":"cebpf4jnsgd1na2vs0mg"},{"bike_id":"b26beab8-1f45-4042-9646-bdd9ee3da92c","system_id":"levelo_inurba_marseille","lat":43.23945,"lon":5.3665,"is_reserved":false,"is_disabled":false,"rental_uris":{"android":"levelo://app?vid=b26beab8-1f45-4042-9646-bdd9ee3da92c","ios":"levelo://app?vid=b26beab8-1f45-4042-9646-bdd9ee3da92c"},"vehicle_type_id":"4","last_reported":1756224760,"current_range_meters":9200,"station_id":"ce4bhi12rcd13ifvqfp0","pricing_plan_id":"cebpf4jnsgd1na2vs0mg"},{"bike_id":"90623dbb-a67c-4663-b781-a215c82c99a8","system_id":"levelo_inurba_marseille","lat":43.30781,"lon":5.37632,"is_reserved":false,"is_disabled":false,"rental_uris":{"android":"levelo://app?vid=90623dbb-a67c-4663-b781-a215c82c99a8","ios":"levelo://app?vid=90623dbb-a67c-4663-b781-a215c82c99a8"},"vehicle_type_id":"4","last_reported":1756224760,"current_range_meters":9200,"station_id":"ce4bgv92rcd13ifvqcq0","pricing_plan_id":"cebpf4jnsgd1na2vs0mg"},{"bike_id":"a20c015a-9e73-451e-885f-abfea756fa28","system_id":"levelo_inurba_marseille","lat":43.29526,"lon":5.38545,"is_reserved":false,"is_disabled":false,"rental_uris":{"android":"levelo://app?vid=a20c015a-9e73-451e-885f-abfea756fa28","ios":"levelo://app?vid=a20c015a-9e73-451e-885f-abfea756fa28"},"vehicle_type_id":"4","last_reported":1756224760,"current_range_meters":9200,"station_id":"ce4bgih2rcd13ifvqba0","pricing_plan_id":"cebpf4jnsgd1na2vs0mg"},{"bike_id":"c825cf53-ea8a-42a7-ad1d-eecc4e7f3d5a","system_id":"levelo_inurba_marseille","lat":43.26204,"lon":5.37924,"is_reserved":false,"is_disabled":false,"rental_uris":{"android":"levelo://app?vid=c825cf53-ea8a-42a7-ad1d-eecc4e7f3d5a","ios":"levelo://app?vid=c825cf53-ea8a-42a7-ad1d-eecc4e7f3d5a"},"vehicle_type_id":"4","last_reported":1756224760,"current_range_meters":9200,"station_id":"ce4bhjp2rcd13ifvqg90","pricing_plan_id":"cebpf4jnsgd1na2vs0mg"},{"bike_id":"138a9d1a-a914-4d0d-b559-d2ae8e4ebd48","system_id":"levelo_inurba_marseille","lat":43.27967,"lon":5.38734,"is_reserved":false,"is_disabled":false,"rental_uris":{"android":"levelo://app?vid=138a9d1a-a914-4d0d-b559-d2ae8e4ebd48","ios":"levelo://app?vid=138a9d1a-a914-4d0d-b559-d2ae8e4ebd48"},"vehicle_type_id":"4","last_reported":1756224760,"current_range_meters":9600,"station_id":"ce4bhg12rcd13ifvqf80","pricing_plan_id":"cebpf4jnsgd1na2vs0mg"},{"bike_id":"9ebbca0f-8b0f-49e0-bbc0-5934ebb0e846","system_id":"levelo_inurba_marseille","lat":43.2119,"lon":5.35062,"is_reserved":false,"is_disabled":false,"rental_uris":{"android":"levelo://app?vid=9ebbca0f-8b0f-49e0-bbc0-5934ebb0e846","ios":"levelo://app?vid=9ebbca0f-8b0f-49e0-bbc0-5934ebb0e846"},"vehicle_type_id":"4","last_reported":1756224760,"current_range_meters":9600,"station_id":"st_cvj6sg6p6f1abm77japg","pricing_plan_id":"cebpf4jnsgd1na2vs0mg"},{"bike_id":"dcbf0626-6fea-4a42-af49-8d2579212295","system_id":"levelo_inurba_marseille","lat":43.26199,"lon":5.37936,"is_reserved":false,"is_disabled":false,"rental_uris":{"android":"levelo://app?vid=dcbf0626-6fea-4a42-af49-8d2579212295","ios":"levelo://app?vid=dcbf0626-6fea-4a42-af49-8d2579212295"},"vehicle_type_id":"4","last_reported":1756224760,"current_range_meters":9600,"station_id":"ce4bhjp2rcd13ifvqg90","pricing_plan_id":"cebpf4jnsgd1na2vs0mg"},{"bike_id":"f90838ea-e7e9-40a2-8975-678438d91dfb","system_id":"levelo_inurba_marseille","lat":43.31995,"lon":5.38161,"is_reserved":false,"is_disabled":false,"rental_uris":{"android":"levelo://app?vid=f90838ea-e7e9-40a2-8975-678438d91dfb","ios":"levelo://app?vid=f90838ea-e7e9-40a2-8975-678438d91dfb"},"vehicle_type_id":"4","last_reported":1756224760,"current_range_meters":9600,"station_id":"ce4bhr12rcd13ifvqhpg","pricing_plan_id":"cebpf4jnsgd1na2vs0mg"},{"bike_id":"f781d014-afa9-4acc-b6f7-3670b0862de3","system_id":"levelo_inurba_marseille","lat":43.21215,"lon":5.35106,"is_reserved":false,"is_disabled":false,"rental_uris":{"android":"levelo://app?vid=f781d014-afa9-4acc-b6f7-3670b0862de3","ios":"levelo://app?vid=f781d014-afa9-4acc-b6f7-3670b0862de3"},"vehicle_type_id":"4","last_reported":1756224760,"current_range_meters":9600,"station_id":"st_cvj6sg6p6f1abm77japg","pricing_plan_id":"cebpf4jnsgd1na2vs0mg"},{"bike_id":"bea9b573-b0c0-471b-a983-7d2a5da760bb","system_id":"levelo_inurba_marseille","lat":43.30348,"lon":5.42484,"is_reserved":false,"is_disabled":false,"rental_uris":{"android":"levelo://app?vid=bea9b573-b0c0-471b-a983-7d2a5da760bb","ios":"levelo://app?vid=bea9b573-b0c0-471b-a983-7d2a5da760bb"},"vehicle_type_id":"4","last_reported":1756224760,"current_range_meters":10000,"station_id":"","pricing_plan_id":"cebpf4jnsgd1na2vs0mg"},{"bike_id":"44fdfd24-554b-4054-9a0c-87a08762d4ee","system_id":"levelo_inurba_marseille","lat":43.26784,"lon":5.39413,"is_reserved":false,"is_disabled":false,"rental_uris":{"android":"levelo://app?vid=44fdfd24-554b-4054-9a0c-87a08762d4ee","ios":"levelo://app?vid=44fdfd24-554b-4054-9a0c-87a08762d4ee"},"vehicle_type_id":"4","last_reported":1756224760,"current_range_meters":10000,"station_id":"ce4bhh12rcd13ifvqfg0","pricing_plan_id":"cebpf4jnsgd1na2vs0mg"},{"bike_id":"fc8c754d-0754-4058-8adf-8bda20537a40","system_id":"levelo_inurba_marseille","lat":43.28708,"lon":5.39979,"is_reserved":false,"is_disabled":false,"rental_uris":{"android":"levelo://app?vid=fc8c754d-0754-4058-8adf-8bda20537a40","ios":"levelo://app?vid=fc8c754d-0754-4058-8adf-8bda20537a40"},"vehicle_type_id":"4","last_reported":1756224760,"current_range_meters":10000,"station_id":"ce4bho92rcd13ifvqh3g","pricing_plan_id":"cebpf4jnsgd1na2vs0mg"},{"bike_id":"ed7fd988-5702-4d24-b7a8-791eba92a355","system_id":"levelo_inurba_marseille","lat":43.30781,"lon":5.37641,"is_reserved":false,"is_disabled":false,"rental_uris":{"android":"levelo://app?vid=ed7fd988-5702-4d24-b7a8-791eba92a355","ios":"levelo://app?vid=ed7fd988-5702-4d24-b7a8-791eba92a355"},"vehicle_type_id":"4","last_reported":1756224760,"current_range_meters":9600,"station_id":"ce4bgv92rcd13ifvqcq0","pricing_plan_id":"cebpf4jnsgd1na2vs0mg"},{"bike_id":"68fae903-887b-46b6-8a55-2cbd7b9c2ffb","system_id":"levelo_inurba_marseille","lat":43.2761,"lon":5.36114,"is_reserved":false,"is_disabled":false,"rental_uris":{"android":"levelo://app?vid=68fae903-887b-46b6-8a55-2cbd7b9c2ffb","ios":"levelo://app?vid=68fae903-887b-46b6-8a55-2cbd7b9c2ffb"},"vehicle_type_id":"4","last_reported":1756224760,"current_range_meters":9600,"station_id":"ce4bgj92rcd13ifvqbe0","pricing_plan_id":"cebpf4jnsgd1na2vs0mg"},{"bike_id":"0fabe91c-dae1-4fc8-8f25-5c818b79feca","system_id":"levelo_inurba_marseille","lat":43.28565,"lon":5.39497,"is_reserved":false,"is_disabled":true,"rental_uris":{"android":"levelo://app?vid=0fabe91c-dae1-4fc8-8f25-5c818b79feca","ios":"levelo://app?vid=0fabe91c-dae1-4fc8-8f25-5c818b79feca"},"vehicle_type_id":"4","last_reported":1756224760,"current_range_meters":10000,"station_id":"ce4bh292rcd13ifvqdg0","pricing_plan_id":"cebpf4jnsgd1na2vs0mg"},{"bike_id":"c8f19ab0-2650-42bf-bf99-315bb14cecb1","system_id":"levelo_inurba_marseille","lat":43.32355,"lon":5.36739,"is_reserved":false,"is_disabled":false,"rental_uris":{"android":"levelo://app?vid=c8f19ab0-2650-42bf-bf99-315bb14cecb1","ios":"levelo://app?vid=c8f19ab0-2650-42bf-bf99-315bb14cecb1"},"vehicle_type_id":"4","last_reported":1756224760,"current_range_meters":10800,"station_id":"ce4bhsh2rcd13ifvqi2g","pricing_plan_id":"cebpf4jnsgd1na2vs0mg"},{"bike_id":"79628c36-465e-4d22-bde5-7cfe40d40abd","system_id":"levelo_inurba_marseille","lat":43.2465,"lon":5.38892,"is_reserved":false,"is_disabled":false,"rental_uris":{"android":"levelo://app?vid=79628c36-465e-4d22-bde5-7cfe40d40abd","ios":"levelo://app?vid=79628c36-465e-4d22-bde5-7cfe40d40abd"},"vehicle_type_id":"4","last_reported":1756224760,"current_range_meters":10800,"station_id":"ce4bhg12rcd13ifvqf60","pricing_plan_id":"cebpf4jnsgd1na2vs0mg"},{"bike_id":"ec29798e-6d5b-4b85-9666-63cffaec154b","system_id":"levelo_inurba_marseille","lat":43.26565,"lon":5.39005,"is_reserved":false,"is_disabled":false,"rental_uris":{"android":"levelo://app?vid=ec29798e-6d5b-4b85-9666-63cffaec154b","ios":"levelo://app?vid=ec29798e-6d5b-4b85-9666-63cffaec154b"},"vehicle_type_id":"4","last_reported":1756224760,"current_range_meters":10800,"station_id":"ce4bhe12rcd13ifvqf30","pricing_plan_id":"cebpf4jnsgd1na2vs0mg"},{"bike_id":"99132422-e89e-4121-847d-7eb264f731a2","system_id":"levelo_inurba_marseille","lat":43.30243,"lon":5.40077,"is_reserved":false,"is_disabled":true,"rental_uris":{"android":"levelo://app?vid=99132422-e89e-4121-847d-7eb264f731a2","ios":"levelo://app?vid=99132422-e89e-4121-847d-7eb264f731a2"},"vehicle_type_id":"4","last_reported":1756224760,"current_range_meters":11200,"station_id":"ce4bgvh2rcd13ifvqcs0","pricing_plan_id":"cebpf4jnsgd1na2vs0mg"},{"bike_id":"dd30350e-747d-4562-b0b7-2b7ddd6b7ce3","system_id":"levelo_inurba_marseille","lat":43.29869,"lon":5.39733,"is_reserved":false,"is_disabled":false,"rental_uris":{"android":"levelo://app?vid=dd30350e-747d-4562-b0b7-2b7ddd6b7ce3","ios":"levelo://app?vid=dd30350e-747d-4562-b0b7-2b7ddd6b7ce3"},"vehicle_type_id":"4","last_reported":1756224760,"current_range_meters":11200,"station_id":"ce4bh0h2rcd13ifvqd50","pricing_plan_id":"cebpf4jnsgd1na2vs0mg"},{"bike_id":"d69bccb6-d1a9-4eab-b0ac-330c872de087","system_id":"levelo_inurba_marseille","lat":43.316833,"lon":5.404736,"is_reserved":false,"is_disabled":false,"rental_uris":{"android":"levelo://app?vid=d69bccb6-d1a9-4eab-b0ac-330c872de087","ios":"levelo://app?vid=d69bccb6-d1a9-4eab-b0ac-330c872de087"},"vehicle_type_id":"4","last_reported":1756224760,"current_range_meters":11200,"station_id":"ce4bh012rcd13ifvqd00","pricing_plan_id":"cebpf4jnsgd1na2vs0mg"},{"bike_id":"3e130ff4-87da-4c51-a264-44d1f277fd66","system_id":"levelo_inurba_marseille","lat":43.32077,"lon":5.36785,"is_reserved":false,"is_disabled":false,"rental_uris":{"android":"levelo://app?vid=3e130ff4-87da-4c51-a264-44d1f277fd66","ios":"levelo://app?vid=3e130ff4-87da-4c51-a264-44d1f277fd66"},"vehicle_type_id":"4","last_reported":1756224760,"current_range_meters":11200,"station_id":"ce4bhrh2rcd13ifvqhug","pricing_plan_id":"cebpf4jnsgd1na2vs0mg"},{"bike_id":"38918b86-e645-4cef-ba0c-b8bf07026c3e","system_id":"levelo_inurba_marseille","lat":43.28459,"lon":5.35892,"is_reserved":false,"is_disabled":false,"rental_uris":{"android":"levelo://app?vid=38918b86-e645-4cef-ba0c-b8bf07026c3e","ios":"levelo://app?vid=38918b86-e645-4cef-ba0c-b8bf07026c3e"},"vehicle_type_id":"4","last_reported":1756224760,"current_range_meters":11200,"station_id":"ce4bhah2rcd13ifvqei0","pricing_plan_id":"cebpf4jnsgd1na2vs0mg"},{"bike_id":"b2df2400-aed0-4f7d-8ce4-c8baf0598cef","system_id":"levelo_inurba_marseille","lat":43.30416,"lon":5.41285,"is_reserved":false,"is_disabled":false,"rental_uris":{"android":"levelo://app?vid=b2df2400-aed0-4f7d-8ce4-c8baf0598cef","ios":"levelo://app?vid=b2df2400-aed0-4f7d-8ce4-c8baf0598cef"},"vehicle_type_id":"4","last_reported":1756224760,"current_range_meters":11200,"station_id":"ce4bhop2rcd13ifvqh8g","pricing_plan_id":"cebpf4jnsgd1na2vs0mg"},{"bike_id":"47c72c85-64e7-43b8-ada4-0f17a3d10859","system_id":"levelo_inurba_marseille","lat":43.21751,"lon":5.34593,"is_reserved":false,"is_disabled":true,"rental_uris":{"android":"levelo://app?vid=47c72c85-64e7-43b8-ada4-0f17a3d10859","ios":"levelo://app?vid=47c72c85-64e7-43b8-ada4-0f17a3d10859"},"vehicle_type_id":"4","last_reported":1756224760,"current_range_meters":11200,"station_id":"st_cvj6r9ubvosntc0bgbag","pricing_plan_id":"cebpf4jnsgd1na2vs0mg"},{"bike_id":"e2b0f307-cfe9-4ad5-b104-d661fcb0d809","system_id":"levelo_inurba_marseille","lat":43.229296,"lon":5.353736,"is_reserved":false,"is_disabled":false,"rental_uris":{"android":"levelo://app?vid=e2b0f307-cfe9-4ad5-b104-d661fcb0d809","ios":"levelo://app?vid=e2b0f307-cfe9-4ad5-b104-d661fcb0d809"},"vehicle_type_id":"4","last_reported":1756224760,"current_range_meters":11600,"station_id":"cpo3532slgdg3j2ikp40","pricing_plan_id":"cebpf4jnsgd1na2vs0mg"},{"bike_id":"c6500ff4-ee55-47e8-a054-d9ac67559b11","system_id":"levelo_inurba_marseille","lat":43.29517,"lon":5.39023,"is_reserved":false,"is_disabled":false,"rental_uris":{"android":"levelo://app?vid=c6500ff4-ee55-47e8-a054-d9ac67559b11","ios":"levelo://app?vid=c6500ff4-ee55-47e8-a054-d9ac67559b11"},"vehicle_type_id":"4","last_reported":1756224760,"current_range_meters":11600,"station_id":"ce4bh3p2rcd13ifvqdp0","pricing_plan_id":"cebpf4jnsgd1na2vs0mg"},{"bike_id":"b6fc6d02-96b2-4a16-adc5-c49870d1585d","system_id":"levelo_inurba_marseille","lat":43.3088,"lon":5.39658,"is_reserved":false,"is_disabled":false,"rental_uris":{"android":"levelo://app?vid=b6fc6d02-96b2-4a16-adc5-c49870d1585d","ios":"levelo://app?vid=b6fc6d02-96b2-4a16-adc5-c49870d1585d"},"vehicle_type_id":"4","last_reported":1756224760,"current_range_meters":11600,"station_id":"ce4bh012rcd13ifvqcv0","pricing_plan_id":"cebpf4jnsgd1na2vs0mg"},{"bike_id":"bf69c5a9-2dda-478b-a044-670a6c6ee1c5","system_id":"levelo_inurba_marseille","lat":43.27368,"lon":5.36241,"is_reserved":false,"is_disabled":false,"rental_uris":{"android":"levelo://app?vid=bf69c5a9-2dda-478b-a044-670a6c6ee1c5","ios":"levelo://app?vid=bf69c5a9-2dda-478b-a044-670a6c6ee1c5"},"vehicle_type_id":"4","last_reported":1756224760,"current_range_meters":11600,"station_id":"ce4bhbh2rcd13ifvqeo0","pricing_plan_id":"cebpf4jnsgd1na2vs0mg"},{"bike_id":"875a16a5-2d9d-4519-8e95-1580cdc1051e","system_id":"levelo_inurba_marseille","lat":43.29025,"lon":5.38641,"is_reserved":false,"is_disabled":false,"rental_uris":{"android":"levelo://app?vid=875a16a5-2d9d-4519-8e95-1580cdc1051e","ios":"levelo://app?vid=875a16a5-2d9d-4519-8e95-1580cdc1051e"},"vehicle_type_id":"4","last_reported":1756224760,"current_range_meters":11600,"station_id":"ce4bh4p2rcd13ifvqe0g","pricing_plan_id":"cebpf4jnsgd1na2vs0mg"},{"bike_id":"0d502687-08ef-4491-8893-8a03d8688be8","system_id":"levelo_inurba_marseille","lat":43.296214,"lon":5.361149,"is_reserved":false,"is_disabled":false,"rental_uris":{"android":"levelo://app?vid=0d502687-08ef-4491-8893-8a03d8688be8","ios":"levelo://app?vid=0d502687-08ef-4491-8893-8a03d8688be8"},"vehicle_type_id":"4","last_reported":1756224760,"current_range_meters":12000,"station_id":"","pricing_plan_id":"cebpf4jnsgd1na2vs0mg"},{"bike_id":"a2d76576-99ba-4402-be09-fc1ebaaa55fd","system_id":"levelo_inurba_marseille","lat":43.28611,"lon":5.35105,"is_reserved":false,"is_disabled":false,"rental_uris":{"android":"levelo://app?vid=a2d76576-99ba-4402-be09-fc1ebaaa55fd","ios":"levelo://app?vid=a2d76576-99ba-4402-be09-fc1ebaaa55fd"},"vehicle_type_id":"4","last_reported":1756224760,"current_range_meters":12000,"station_id":"ce4bhch2rcd13ifvqeug","pricing_plan_id":"cebpf4jnsgd1na2vs0mg"},{"bike_id":"49eec2c5-900f-441c-bbed-cc4391f2a50b","system_id":"levelo_inurba_marseille","lat":43.25508,"lon":5.37625,"is_reserved":false,"is_disabled":false,"rental_uris":{"android":"levelo://app?vid=49eec2c5-900f-441c-bbed-cc4391f2a50b","ios":"levelo://app?vid=49eec2c5-900f-441c-bbed-cc4391f2a50b"},"vehicle_type_id":"4","last_reported":1756224760,"current_range_meters":12000,"station_id":"ce4bhh12rcd13ifvqff0","pricing_plan_id":"cebpf4jnsgd1na2vs0mg"},{"bike_id":"24f84254-399b-4669-b8bb-b1299a038aa3","system_id":"levelo_inurba_marseille","lat":43.27817,"lon":5.40711,"is_reserved":false,"is_disabled":false,"rental_uris":{"android":"levelo://app?vid=24f84254-399b-4669-b8bb-b1299a038aa3","ios":"levelo://app?vid=24f84254-399b-4669-b8bb-b1299a038aa3"},"vehicle_type_id":"4","last_reported":1756224760,"current_range_meters":12000,"station_id":"ce4bhnh2rcd13ifvqgtg","pricing_plan_id":"cebpf4jnsgd1na2vs0mg"},{"bike_id":"184545df-fa4a-4ee6-8ffd-afc329599084","system_id":"levelo_inurba_marseille","lat":43.28268,"lon":5.35059,"is_reserved":false,"is_disabled":false,"rental_uris":{"android":"levelo://app?vid=184545df-fa4a-4ee6-8ffd-afc329599084","ios":"levelo://app?vid=184545df-fa4a-4ee6-8ffd-afc329599084"},"vehicle_type_id":"4","last_reported":1756224760,"current_range_meters":12400,"station_id":"ce4bhbp2rcd13ifvqerg","pricing_plan_id":"cebpf4jnsgd1na2vs0mg"},{"bike_id":"b375d41b-9575-4c77-a6a9-d089747042e7","system_id":"levelo_inurba_marseille","lat":43.322814,"lon":5.367758,"is_reserved":false,"is_disabled":false,"rental_uris":{"android":"levelo://app?vid=b375d41b-9575-4c77-a6a9-d089747042e7","ios":"levelo://app?vid=b375d41b-9575-4c77-a6a9-d089747042e7"},"vehicle_type_id":"4","last_reported":1756224760,"current_range_meters":12400,"station_id":"","pricing_plan_id":"cebpf4jnsgd1na2vs0mg"},{"bike_id":"5d0666ec-4f83-4245-bb88-1a9428e0dea9","system_id":"levelo_inurba_marseille","lat":43.280334,"lon":5.400434,"is_reserved":false,"is_disabled":false,"rental_uris":{"android":"levelo://app?vid=5d0666ec-4f83-4245-bb88-1a9428e0dea9","ios":"levelo://app?vid=5d0666ec-4f83-4245-bb88-1a9428e0dea9"},"vehicle_type_id":"4","last_reported":1756224760,"current_range_meters":12400,"station_id":"ce4bho92rcd13ifvqh4g","pricing_plan_id":"cebpf4jnsgd1na2vs0mg"},{"bike_id":"d9b54083-6fe4-49f3-b408-0dbb4802d84b","system_id":"levelo_inurba_marseille","lat":43.289429,"lon":5.366417,"is_reserved":false,"is_disabled":false,"rental_uris":{"android":"levelo://app?vid=d9b54083-6fe4-49f3-b408-0dbb4802d84b","ios":"levelo://app?vid=d9b54083-6fe4-49f3-b408-0dbb4802d84b"},"vehicle_type_id":"4","last_reported":1756224760,"current_range_meters":12400,"station_id":"ce4bhap2rcd13ifvqek0","pricing_plan_id":"cebpf4jnsgd1na2vs0mg"},{"bike_id":"9cf57697-06a4-457d-ba30-3e74f03297cd","system_id":"levelo_inurba_marseille","lat":43.29026,"lon":5.38641,"is_reserved":false,"is_disabled":false,"rental_uris":{"android":"levelo://app?vid=9cf57697-06a4-457d-ba30-3e74f03297cd","ios":"levelo://app?vid=9cf57697-06a4-457d-ba30-3e74f03297cd"},"vehicle_type_id":"4","last_reported":1756224760,"current_range_meters":12400,"station_id":"ce4bh4p2rcd13ifvqe0g","pricing_plan_id":"cebpf4jnsgd1na2vs0mg"},{"bike_id":"eaac1ac6-6c5d-4274-970f-7bad9d177f4b","system_id":"levelo_inurba_marseille","lat":43.33767,"lon":5.37473,"is_reserved":false,"is_disabled":false,"rental_uris":{"android":"levelo://app?vid=eaac1ac6-6c5d-4274-970f-7bad9d177f4b","ios":"levelo://app?vid=eaac1ac6-6c5d-4274-970f-7bad9d177f4b"},"vehicle_type_id":"4","last_reported":1756224760,"current_range_meters":12800,"station_id":"","pricing_plan_id":"cebpf4jnsgd1na2vs0mg"},{"bike_id":"a19585ea-c1c8-4e19-8b9d-4f1c09a4705e","system_id":"levelo_inurba_marseille","lat":43.290992,"lon":5.381243,"is_reserved":false,"is_disabled":false,"rental_uris":{"android":"levelo://app?vid=a19585ea-c1c8-4e19-8b9d-4f1c09a4705e","ios":"levelo://app?vid=a19585ea-c1c8-4e19-8b9d-4f1c09a4705e"},"vehicle_type_id":"4","last_reported":1756224760,"current_range_meters":12800,"station_id":"","pricing_plan_id":"cebpf4jnsgd1na2vs0mg"},{"bike_id":"51842e17-ef10-4624-a23e-c8a182427991","system_id":"levelo_inurba_marseille","lat":43.316138,"lon":5.382529,"is_reserved":false,"is_disabled":false,"rental_uris":{"android":"levelo://app?vid=51842e17-ef10-4624-a23e-c8a182427991","ios":"levelo://app?vid=51842e17-ef10-4624-a23e-c8a182427991"},"vehicle_type_id":"4","last_reported":1756224760,"current_range_meters":12800,"station_id":"","pricing_plan_id":"cebpf4jnsgd1na2vs0mg"},{"bike_id":"4e326991-524a-498f-8eda-9c8ae7d86a4d","system_id":"levelo_inurba_marseille","lat":43.30253,"lon":5.36874,"is_reserved":false,"is_disabled":false,"rental_uris":{"android":"levelo://app?vid=4e326991-524a-498f-8eda-9c8ae7d86a4d","ios":"levelo://app?vid=4e326991-524a-498f-8eda-9c8ae7d86a4d"},"vehicle_type_id":"4","last_reported":1756224760,"current_range_meters":13600,"station_id":"","pricing_plan_id":"cebpf4jnsgd1na2vs0mg"},{"bike_id":"a15a1c44-718b-407d-acaa-0383628c87d7","system_id":"levelo_inurba_marseille","lat":43.32687,"lon":5.3919,"is_reserved":false,"is_disabled":false,"rental_uris":{"android":"levelo://app?vid=a15a1c44-718b-407d-acaa-0383628c87d7","ios":"levelo://app?vid=a15a1c44-718b-407d-acaa-0383628c87d7"},"vehicle_type_id":"4","last_reported":1756224760,"current_range_meters":13600,"station_id":"","pricing_plan_id":"cebpf4jnsgd1na2vs0mg"},{"bike_id":"e3612e65-088a-43ae-af22-989a1f9a43ea","system_id":"levelo_inurba_marseille","lat":43.28665,"lon":5.36349,"is_reserved":false,"is_disabled":false,"rental_uris":{"android":"levelo://app?vid=e3612e65-088a-43ae-af22-989a1f9a43ea","ios":"levelo://app?vid=e3612e65-088a-43ae-af22-989a1f9a43ea"},"vehicle_type_id":"4","last_reported":1756224760,"current_range_meters":13600,"station_id":"ce4bhah2rcd13ifvqej0","pricing_plan_id":"cebpf4jnsgd1na2vs0mg"},{"bike_id":"d220b534-9437-4c99-9a63-db6a28d7ab75","system_id":"levelo_inurba_marseille","lat":43.318878,"lon":5.407382,"is_reserved":false,"is_disabled":false,"rental_uris":{"android":"levelo://app?vid=d220b534-9437-4c99-9a63-db6a28d7ab75","ios":"levelo://app?vid=d220b534-9437-4c99-9a63-db6a28d7ab75"},"vehicle_type_id":"4","last_reported":1756224760,"current_range_meters":13600,"station_id":"ce4bhq12rcd13ifvqhig","pricing_plan_id":"cebpf4jnsgd1na2vs0mg"},{"bike_id":"92a6daf4-52a3-4912-9963-677bd6223717","system_id":"levelo_inurba_marseille","lat":43.21169,"lon":5.35014,"is_reserved":false,"is_disabled":false,"rental_uris":{"android":"levelo://app?vid=92a6daf4-52a3-4912-9963-677bd6223717","ios":"levelo://app?vid=92a6daf4-52a3-4912-9963-677bd6223717"},"vehicle_type_id":"4","last_reported":1756224760,"current_range_meters":13600,"station_id":"","pricing_plan_id":"cebpf4jnsgd1na2vs0mg"},{"bike_id":"5f9365e2-60dc-4158-a2c3-0e40911a7a32","system_id":"levelo_inurba_marseille","lat":43.33416,"lon":5.4002,"is_reserved":false,"is_disabled":false,"rental_uris":{"android":"levelo://app?vid=5f9365e2-60dc-4158-a2c3-0e40911a7a32","ios":"levelo://app?vid=5f9365e2-60dc-4158-a2c3-0e40911a7a32"},"vehicle_type_id":"4","last_reported":1756224760,"current_range_meters":13600,"station_id":"","pricing_plan_id":"cebpf4jnsgd1na2vs0mg"},{"bike_id":"3638ac01-9c67-40d9-a2e6-79ccba195358","system_id":"levelo_inurba_marseille","lat":43.29296,"lon":5.37459,"is_reserved":false,"is_disabled":false,"rental_uris":{"android":"levelo://app?vid=3638ac01-9c67-40d9-a2e6-79ccba195358","ios":"levelo://app?vid=3638ac01-9c67-40d9-a2e6-79ccba195358"},"vehicle_type_id":"4","last_reported":1756224760,"current_range_meters":14000,"station_id":"ce4bgi12rcd13ifvqb70","pricing_plan_id":"cebpf4jnsgd1na2vs0mg"},{"bike_id":"8ad69d7f-6d52-4611-bf92-39c173b24a99","system_id":"levelo_inurba_marseille","lat":43.29272,"lon":5.36839,"is_reserved":false,"is_disabled":false,"rental_uris":{"android":"levelo://app?vid=8ad69d7f-6d52-4611-bf92-39c173b24a99","ios":"levelo://app?vid=8ad69d7f-6d52-4611-bf92-39c173b24a99"},"vehicle_type_id":"4","last_reported":1756224760,"current_range_meters":14000,"station_id":"ce4bhbp2rcd13ifvqesg","pricing_plan_id":"cebpf4jnsgd1na2vs0mg"},{"bike_id":"1027bb83-a668-47de-9094-84302cb909d4","system_id":"levelo_inurba_marseille","lat":43.21207,"lon":5.35048,"is_reserved":false,"is_disabled":false,"rental_uris":{"android":"levelo://app?vid=1027bb83-a668-47de-9094-84302cb909d4","ios":"levelo://app?vid=1027bb83-a668-47de-9094-84302cb909d4"},"vehicle_type_id":"4","last_reported":1756224760,"current_range_meters":14000,"station_id":"st_cvj6sg6p6f1abm77japg","pricing_plan_id":"cebpf4jnsgd1na2vs0mg"},{"bike_id":"0e256118-fe33-4307-b7cb-16c76027513c","system_id":"levelo_inurba_marseille","lat":43.24089,"lon":5.37738,"is_reserved":false,"is_disabled":false,"rental_uris":{"android":"levelo://app?vid=0e256118-fe33-4307-b7cb-16c76027513c","ios":"levelo://app?vid=0e256118-fe33-4307-b7cb-16c76027513c"},"vehicle_type_id":"4","last_reported":1756224760,"current_range_meters":14000,"station_id":"ce4bhnp2rcd13ifvqgvg","pricing_plan_id":"cebpf4jnsgd1na2vs0mg"},{"bike_id":"058e1eda-62a7-4a0e-9089-e449858ec18a","system_id":"levelo_inurba_marseille","lat":43.25006,"lon":5.389113,"is_reserved":false,"is_disabled":false,"rental_uris":{"android":"levelo://app?vid=058e1eda-62a7-4a0e-9089-e449858ec18a","ios":"levelo://app?vid=058e1eda-62a7-4a0e-9089-e449858ec18a"},"vehicle_type_id":"4","last_reported":1756224760,"current_range_meters":14000,"station_id":"","pricing_plan_id":"cebpf4jnsgd1na2vs0mg"},{"bike_id":"4e330b1f-161c-4651-9fd6-20401a194c71","system_id":"levelo_inurba_marseille","lat":43.24071,"lon":5.3775,"is_reserved":false,"is_disabled":false,"rental_uris":{"android":"levelo://app?vid=4e330b1f-161c-4651-9fd6-20401a194c71","ios":"levelo://app?vid=4e330b1f-161c-4651-9fd6-20401a194c71"},"vehicle_type_id":"4","last_reported":1756224760,"current_range_meters":14000,"station_id":"ce4bhnp2rcd13ifvqgvg","pricing_plan_id":"cebpf4jnsgd1na2vs0mg"},{"bike_id":"e01ba365-eb2e-427c-b71e-bd9c13402014","system_id":"levelo_inurba_marseille","lat":43.255783,"lon":5.382273,"is_reserved":false,"is_disabled":false,"rental_uris":{"android":"levelo://app?vid=e01ba365-eb2e-427c-b71e-bd9c13402014","ios":"levelo://app?vid=e01ba365-eb2e-427c-b71e-bd9c13402014"},"vehicle_type_id":"4","last_reported":1756224760,"current_range_meters":14400,"station_id":"ce4bhih2rcd13ifvqfs0","pricing_plan_id":"cebpf4jnsgd1na2vs0mg"},{"bike_id":"b7e4d268-96fc-4abb-8c5e-042ab3e39dc5","system_id":"levelo_inurba_marseille","lat":43.292988,"lon":5.374623,"is_reserved":false,"is_disabled":false,"rental_uris":{"android":"levelo://app?vid=b7e4d268-96fc-4abb-8c5e-042ab3e39dc5","ios":"levelo://app?vid=b7e4d268-96fc-4abb-8c5e-042ab3e39dc5"},"vehicle_type_id":"4","last_reported":1756224760,"current_range_meters":14400,"station_id":"ce4bgi12rcd13ifvqb70","pricing_plan_id":"cebpf4jnsgd1na2vs0mg"},{"bike_id":"89bb2efc-5c45-48e0-b659-b8ecb63211d5","system_id":"levelo_inurba_marseille","lat":43.297911,"lon":5.393533,"is_reserved":false,"is_disabled":false,"rental_uris":{"android":"levelo://app?vid=89bb2efc-5c45-48e0-b659-b8ecb63211d5","ios":"levelo://app?vid=89bb2efc-5c45-48e0-b659-b8ecb63211d5"},"vehicle_type_id":"4","last_reported":1756224760,"current_range_meters":14400,"station_id":"chh1huq6cuj3fo74tm60","pricing_plan_id":"cebpf4jnsgd1na2vs0mg"},{"bike_id":"71b44495-60a3-4f77-9759-605cc2be9c04","system_id":"levelo_inurba_marseille","lat":43.29964,"lon":5.38495,"is_reserved":false,"is_disabled":false,"rental_uris":{"android":"levelo://app?vid=71b44495-60a3-4f77-9759-605cc2be9c04","ios":"levelo://app?vid=71b44495-60a3-4f77-9759-605cc2be9c04"},"vehicle_type_id":"4","last_reported":1756224760,"current_range_meters":14400,"station_id":"ce4bgj92rcd13ifvqbd0","pricing_plan_id":"cebpf4jnsgd1na2vs0mg"},{"bike_id":"b4d6c33d-a0bf-42a3-9ab7-0db80b72b559","system_id":"levelo_inurba_marseille","lat":43.28933,"lon":5.36617,"is_reserved":false,"is_disabled":true,"rental_uris":{"android":"levelo://app?vid=b4d6c33d-a0bf-42a3-9ab7-0db80b72b559","ios":"levelo://app?vid=b4d6c33d-a0bf-42a3-9ab7-0db80b72b559"},"vehicle_type_id":"4","last_reported":1756224760,"current_range_meters":14400,"station_id":"ce4bhap2rcd13ifvqek0","pricing_plan_id":"cebpf4jnsgd1na2vs0mg"},{"bike_id":"2581a5de-07ce-41d4-b516-a7e525f7671e","system_id":"levelo_inurba_marseille","lat":43.26566,"lon":5.38998,"is_reserved":false,"is_disabled":false,"rental_uris":{"android":"levelo://app?vid=2581a5de-07ce-41d4-b516-a7e525f7671e","ios":"levelo://app?vid=2581a5de-07ce-41d4-b516-a7e525f7671e"},"vehicle_type_id":"4","last_reported":1756224760,"current_range_meters":14400,"station_id":"ce4bhe12rcd13ifvqf30","pricing_plan_id":"cebpf4jnsgd1na2vs0mg"},{"bike_id":"2121ec19-3fe4-4bc7-ab7f-be8ba1284bc3","system_id":"levelo_inurba_marseille","lat":43.29555,"lon":5.42283,"is_reserved":false,"is_disabled":false,"rental_uris":{"android":"levelo://app?vid=2121ec19-3fe4-4bc7-ab7f-be8ba1284bc3","ios":"levelo://app?vid=2121ec19-3fe4-4bc7-ab7f-be8ba1284bc3"},"vehicle_type_id":"4","last_reported":1756224760,"current_range_meters":14000,"station_id":"ce4bhph2rcd13ifvqhdg","pricing_plan_id":"cebpf4jnsgd1na2vs0mg"},{"bike_id":"110be762-4b69-401b-92bd-46c29ccdd915","system_id":"levelo_inurba_marseille","lat":43.28614,"lon":5.35097,"is_reserved":false,"is_disabled":false,"rental_uris":{"android":"levelo://app?vid=110be762-4b69-401b-92bd-46c29ccdd915","ios":"levelo://app?vid=110be762-4b69-401b-92bd-46c29ccdd915"},"vehicle_type_id":"4","last_reported":1756224760,"current_range_meters":14400,"station_id":"ce4bhch2rcd13ifvqeug","pricing_plan_id":"cebpf4jnsgd1na2vs0mg"},{"bike_id":"deefd4f7-347c-4e33-8340-6009c451098c","system_id":"levelo_inurba_marseille","lat":43.29729,"lon":5.3768,"is_reserved":false,"is_disabled":false,"rental_uris":{"android":"levelo://app?vid=deefd4f7-347c-4e33-8340-6009c451098c","ios":"levelo://app?vid=deefd4f7-347c-4e33-8340-6009c451098c"},"vehicle_type_id":"4","last_reported":1756224760,"current_range_meters":14400,"station_id":"ce4bgkh2rcd13ifvqbl0","pricing_plan_id":"cebpf4jnsgd1na2vs0mg"},{"bike_id":"3efbdb55-6362-498b-90bd-7d180c461d5e","system_id":"levelo_inurba_marseille","lat":43.24167,"lon":5.36393,"is_reserved":false,"is_disabled":false,"rental_uris":{"android":"levelo://app?vid=3efbdb55-6362-498b-90bd-7d180c461d5e","ios":"levelo://app?vid=3efbdb55-6362-498b-90bd-7d180c461d5e"},"vehicle_type_id":"4","last_reported":1756224760,"current_range_meters":14800,"station_id":"cpo36qri1sfpv3e86is0","pricing_plan_id":"cebpf4jnsgd1na2vs0mg"},{"bike_id":"444185a1-99b2-4724-a588-1f691746c053","system_id":"levelo_inurba_marseille","lat":43.27076,"lon":5.42265,"is_reserved":false,"is_disabled":false,"rental_uris":{"android":"levelo://app?vid=444185a1-99b2-4724-a588-1f691746c053","ios":"levelo://app?vid=444185a1-99b2-4724-a588-1f691746c053"},"vehicle_type_id":"4","last_reported":1756224760,"current_range_meters":14800,"station_id":"ce4bhk92rcd13ifvqgb0","pricing_plan_id":"cebpf4jnsgd1na2vs0mg"},{"bike_id":"a38981bd-e806-4e64-8f20-8c688e4fe06a","system_id":"levelo_inurba_marseille","lat":43.29376,"lon":5.37858,"is_reserved":false,"is_disabled":false,"rental_uris":{"android":"levelo://app?vid=a38981bd-e806-4e64-8f20-8c688e4fe06a","ios":"levelo://app?vid=a38981bd-e806-4e64-8f20-8c688e4fe06a"},"vehicle_type_id":"4","last_reported":1756224760,"current_range_meters":14800,"station_id":"ce4bgjh2rcd13ifvqbf0","pricing_plan_id":"cebpf4jnsgd1na2vs0mg"},{"bike_id":"db7d3d83-f39a-4469-8445-29697e69fec4","system_id":"levelo_inurba_marseille","lat":43.32227,"lon":5.38533,"is_reserved":false,"is_disabled":false,"rental_uris":{"android":"levelo://app?vid=db7d3d83-f39a-4469-8445-29697e69fec4","ios":"levelo://app?vid=db7d3d83-f39a-4469-8445-29697e69fec4"},"vehicle_type_id":"4","last_reported":1756224760,"current_range_meters":14800,"station_id":"","pricing_plan_id":"cebpf4jnsgd1na2vs0mg"},{"bike_id":"5bce688b-fc81-4596-8277-b66f54be87c1","system_id":"levelo_inurba_marseille","lat":43.33768,"lon":5.37438,"is_reserved":false,"is_disabled":false,"rental_uris":{"android":"levelo://app?vid=5bce688b-fc81-4596-8277-b66f54be87c1","ios":"levelo://app?vid=5bce688b-fc81-4596-8277-b66f54be87c1"},"vehicle_type_id":"4","last_reported":1756224760,"current_range_meters":15200,"station_id":"","pricing_plan_id":"cebpf4jnsgd1na2vs0mg"},{"bike_id":"e55c5166-258e-4ef1-8bb0-61c40d73cb1f","system_id":"levelo_inurba_marseille","lat":43.28422,"lon":5.34988,"is_reserved":false,"is_disabled":false,"rental_uris":{"android":"levelo://app?vid=e55c5166-258e-4ef1-8bb0-61c40d73cb1f","ios":"levelo://app?vid=e55c5166-258e-4ef1-8bb0-61c40d73cb1f"},"vehicle_type_id":"4","last_reported":1756224760,"current_range_meters":15200,"station_id":"ce4bhbh2rcd13ifvqepg","pricing_plan_id":"cebpf4jnsgd1na2vs0mg"},{"bike_id":"998e0c6f-983b-4115-8a70-92b34bc76c8b","system_id":"levelo_inurba_marseille","lat":43.295295,"lon":5.385447,"is_reserved":false,"is_disabled":false,"rental_uris":{"android":"levelo://app?vid=998e0c6f-983b-4115-8a70-92b34bc76c8b","ios":"levelo://app?vid=998e0c6f-983b-4115-8a70-92b34bc76c8b"},"vehicle_type_id":"4","last_reported":1756224760,"current_range_meters":15200,"station_id":"ce4bgih2rcd13ifvqba0","pricing_plan_id":"cebpf4jnsgd1na2vs0mg"},{"bike_id":"af732ca8-2cea-448a-9928-59e03d12656f","system_id":"levelo_inurba_marseille","lat":43.33524,"lon":5.35774,"is_reserved":false,"is_disabled":false,"rental_uris":{"android":"levelo://app?vid=af732ca8-2cea-448a-9928-59e03d12656f","ios":"levelo://app?vid=af732ca8-2cea-448a-9928-59e03d12656f"},"vehicle_type_id":"4","last_reported":1756224760,"current_range_meters":15200,"station_id":"","pricing_plan_id":"cebpf4jnsgd1na2vs0mg"},{"bike_id":"6020fc18-3977-4047-9e64-a56ae5ddb71a","system_id":"levelo_inurba_marseille","lat":43.23149,"lon":5.43723,"is_reserved":false,"is_disabled":false,"rental_uris":{"android":"levelo://app?vid=6020fc18-3977-4047-9e64-a56ae5ddb71a","ios":"levelo://app?vid=6020fc18-3977-4047-9e64-a56ae5ddb71a"},"vehicle_type_id":"4","last_reported":1756224760,"current_range_meters":15200,"station_id":"ce4bhmp2rcd13ifvqgog","pricing_plan_id":"cebpf4jnsgd1na2vs0mg"},{"bike_id":"826f9c0a-980b-43d8-bf4c-e43d77c221ed","system_id":"levelo_inurba_marseille","lat":43.23175,"lon":5.3997,"is_reserved":false,"is_disabled":false,"rental_uris":{"android":"levelo://app?vid=826f9c0a-980b-43d8-bf4c-e43d77c221ed","ios":"levelo://app?vid=826f9c0a-980b-43d8-bf4c-e43d77c221ed"},"vehicle_type_id":"4","last_reported":1756224760,"current_range_meters":16000,"station_id":"ce4bhn12rcd13ifvqgqg","pricing_plan_id":"cebpf4jnsgd1na2vs0mg"},{"bike_id":"f0400c37-c7f6-4929-b1ac-d92430ff6f2d","system_id":"levelo_inurba_marseille","lat":43.27573,"lon":5.39676,"is_reserved":false,"is_disabled":false,"rental_uris":{"android":"levelo://app?vid=f0400c37-c7f6-4929-b1ac-d92430ff6f2d","ios":"levelo://app?vid=f0400c37-c7f6-4929-b1ac-d92430ff6f2d"},"vehicle_type_id":"4","last_reported":1756224760,"current_range_meters":16000,"station_id":"","pricing_plan_id":"cebpf4jnsgd1na2vs0mg"},{"bike_id":"e8c9d0c6-3d4d-4359-b200-5972333e37d8","system_id":"levelo_inurba_marseille","lat":43.32964,"lon":5.39012,"is_reserved":false,"is_disabled":false,"rental_uris":{"android":"levelo://app?vid=e8c9d0c6-3d4d-4359-b200-5972333e37d8","ios":"levelo://app?vid=e8c9d0c6-3d4d-4359-b200-5972333e37d8"},"vehicle_type_id":"4","last_reported":1756224760,"current_range_meters":16000,"station_id":"","pricing_plan_id":"cebpf4jnsgd1na2vs0mg"},{"bike_id":"c1093c9b-5b94-4052-b559-05b27289b37f","system_id":"levelo_inurba_marseille","lat":43.29711,"lon":5.3661,"is_reserved":false,"is_disabled":false,"rental_uris":{"android":"levelo://app?vid=c1093c9b-5b94-4052-b559-05b27289b37f","ios":"levelo://app?vid=c1093c9b-5b94-4052-b559-05b27289b37f"},"vehicle_type_id":"4","last_reported":1756224760,"current_range_meters":16000,"station_id":"ce4bgn12rcd13ifvqbt0","pricing_plan_id":"cebpf4jnsgd1na2vs0mg"},{"bike_id":"777a8c83-aed8-4881-84b6-34465956e738","system_id":"levelo_inurba_marseille","lat":43.25775,"lon":5.40906,"is_reserved":false,"is_disabled":false,"rental_uris":{"android":"levelo://app?vid=777a8c83-aed8-4881-84b6-34465956e738","ios":"levelo://app?vid=777a8c83-aed8-4881-84b6-34465956e738"},"vehicle_type_id":"4","last_reported":1756224760,"current_range_meters":16000,"station_id":"","pricing_plan_id":"cebpf4jnsgd1na2vs0mg"},{"bike_id":"af744081-2681-4d1e-9525-a9843cca33d2","system_id":"levelo_inurba_marseille","lat":43.32534,"lon":5.36474,"is_reserved":false,"is_disabled":false,"rental_uris":{"android":"levelo://app?vid=af744081-2681-4d1e-9525-a9843cca33d2","ios":"levelo://app?vid=af744081-2681-4d1e-9525-a9843cca33d2"},"vehicle_type_id":"4","last_reported":1756224760,"current_range_meters":16000,"station_id":"","pricing_plan_id":"cebpf4jnsgd1na2vs0mg"},{"bike_id":"8ebccd40-d8b0-4563-aebb-ca20c80ef991","system_id":"levelo_inurba_marseille","lat":43.24068,"lon":5.37767,"is_reserved":false,"is_disabled":false,"rental_uris":{"android":"levelo://app?vid=8ebccd40-d8b0-4563-aebb-ca20c80ef991","ios":"levelo://app?vid=8ebccd40-d8b0-4563-aebb-ca20c80ef991"},"vehicle_type_id":"4","last_reported":1756224760,"current_range_meters":16000,"station_id":"ce4bhnp2rcd13ifvqgvg","pricing_plan_id":"cebpf4jnsgd1na2vs0mg"},{"bike_id":"60919e50-7a56-4f15-9e22-263a35033cb7","system_id":"levelo_inurba_marseille","lat":43.30773,"lon":5.37652,"is_reserved":false,"is_disabled":false,"rental_uris":{"android":"levelo://app?vid=60919e50-7a56-4f15-9e22-263a35033cb7","ios":"levelo://app?vid=60919e50-7a56-4f15-9e22-263a35033cb7"},"vehicle_type_id":"4","last_reported":1756224760,"current_range_meters":16000,"station_id":"ce4bgv92rcd13ifvqcq0","pricing_plan_id":"cebpf4jnsgd1na2vs0mg"},{"bike_id":"35dd852d-a54c-4caa-b4fa-375a44518b2a","system_id":"levelo_inurba_marseille","lat":43.30729,"lon":5.42443,"is_reserved":false,"is_disabled":false,"rental_uris":{"android":"levelo://app?vid=35dd852d-a54c-4caa-b4fa-375a44518b2a","ios":"levelo://app?vid=35dd852d-a54c-4caa-b4fa-375a44518b2a"},"vehicle_type_id":"4","last_reported":1756224760,"current_range_meters":16400,"station_id":"st_cvj6ca6bvosntc0bfgr0","pricing_plan_id":"cebpf4jnsgd1na2vs0mg"},{"bike_id":"79fd1713-bd0d-4fbe-8c07-18383e5646a0","system_id":"levelo_inurba_marseille","lat":43.29532,"lon":5.38543,"is_reserved":false,"is_disabled":false,"rental_uris":{"android":"levelo://app?vid=79fd1713-bd0d-4fbe-8c07-18383e5646a0","ios":"levelo://app?vid=79fd1713-bd0d-4fbe-8c07-18383e5646a0"},"vehicle_type_id":"4","last_reported":1756224760,"current_range_meters":16400,"station_id":"ce4bgih2rcd13ifvqba0","pricing_plan_id":"cebpf4jnsgd1na2vs0mg"},{"bike_id":"77d8621a-cd8d-4703-8271-d5855f2fce36","system_id":"levelo_inurba_marseille","lat":43.317617,"lon":5.390082,"is_reserved":false,"is_disabled":false,"rental_uris":{"android":"levelo://app?vid=77d8621a-cd8d-4703-8271-d5855f2fce36","ios":"levelo://app?vid=77d8621a-cd8d-4703-8271-d5855f2fce36"},"vehicle_type_id":"4","last_reported":1756224760,"current_range_meters":16400,"station_id":"ce4bhqp2rcd13ifvqhng","pricing_plan_id":"cebpf4jnsgd1na2vs0mg"},{"bike_id":"91e2f3be-19b5-4aea-8c69-4b59eaea104f","system_id":"levelo_inurba_marseille","lat":43.28609,"lon":5.35103,"is_reserved":false,"is_disabled":false,"rental_uris":{"android":"levelo://app?vid=91e2f3be-19b5-4aea-8c69-4b59eaea104f","ios":"levelo://app?vid=91e2f3be-19b5-4aea-8c69-4b59eaea104f"},"vehicle_type_id":"4","last_reported":1756224760,"current_range_meters":16400,"station_id":"ce4bhch2rcd13ifvqeug","pricing_plan_id":"cebpf4jnsgd1na2vs0mg"},{"bike_id":"d519adb8-73c5-4efa-abda-24388c4fa551","system_id":"levelo_inurba_marseille","lat":43.30882,"lon":5.39656,"is_reserved":false,"is_disabled":false,"rental_uris":{"android":"levelo://app?vid=d519adb8-73c5-4efa-abda-24388c4fa551","ios":"levelo://app?vid=d519adb8-73c5-4efa-abda-24388c4fa551"},"vehicle_type_id":"4","last_reported":1756224760,"current_range_meters":16800,"station_id":"ce4bh012rcd13ifvqcv0","pricing_plan_id":"cebpf4jnsgd1na2vs0mg"},{"bike_id":"f8d714df-0fbd-4c44-a8ff-1115ab398f4d","system_id":"levelo_inurba_marseille","lat":43.2119,"lon":5.3507,"is_reserved":false,"is_disabled":false,"rental_uris":{"android":"levelo://app?vid=f8d714df-0fbd-4c44-a8ff-1115ab398f4d","ios":"levelo://app?vid=f8d714df-0fbd-4c44-a8ff-1115ab398f4d"},"vehicle_type_id":"4","last_reported":1756224760,"current_range_meters":16800,"station_id":"st_cvj6sg6p6f1abm77japg","pricing_plan_id":"cebpf4jnsgd1na2vs0mg"},{"bike_id":"e71745a0-e1dd-46b2-b178-c77ff9f67425","system_id":"levelo_inurba_marseille","lat":43.23185,"lon":5.39956,"is_reserved":false,"is_disabled":false,"rental_uris":{"android":"levelo://app?vid=e71745a0-e1dd-46b2-b178-c77ff9f67425","ios":"levelo://app?vid=e71745a0-e1dd-46b2-b178-c77ff9f67425"},"vehicle_type_id":"4","last_reported":1756224760,"current_range_meters":16800,"station_id":"ce4bhn12rcd13ifvqgqg","pricing_plan_id":"cebpf4jnsgd1na2vs0mg"},{"bike_id":"3f3e3a28-05ec-41e2-92bf-621608db4cb0","system_id":"levelo_inurba_marseille","lat":43.2465,"lon":5.38893,"is_reserved":false,"is_disabled":false,"rental_uris":{"android":"levelo://app?vid=3f3e3a28-05ec-41e2-92bf-621608db4cb0","ios":"levelo://app?vid=3f3e3a28-05ec-41e2-92bf-621608db4cb0"},"vehicle_type_id":"4","last_reported":1756224760,"current_range_meters":16400,"station_id":"ce4bhg12rcd13ifvqf60","pricing_plan_id":"cebpf4jnsgd1na2vs0mg"},{"bike_id":"0306ba73-3d0f-4523-9d11-9a4554b2d8ff","system_id":"levelo_inurba_marseille","lat":43.21195,"lon":5.3505,"is_reserved":false,"is_disabled":false,"rental_uris":{"android":"levelo://app?vid=0306ba73-3d0f-4523-9d11-9a4554b2d8ff","ios":"levelo://app?vid=0306ba73-3d0f-4523-9d11-9a4554b2d8ff"},"vehicle_type_id":"4","last_reported":1756224760,"current_range_meters":17200,"station_id":"st_cvj6sg6p6f1abm77japg","pricing_plan_id":"cebpf4jnsgd1na2vs0mg"},{"bike_id":"7ad2097a-7ea1-460f-83ed-a57e958e7c46","system_id":"levelo_inurba_marseille","lat":43.29993,"lon":5.36772,"is_reserved":false,"is_disabled":false,"rental_uris":{"android":"levelo://app?vid=7ad2097a-7ea1-460f-83ed-a57e958e7c46","ios":"levelo://app?vid=7ad2097a-7ea1-460f-83ed-a57e958e7c46"},"vehicle_type_id":"4","last_reported":1756224760,"current_range_meters":17200,"station_id":"","pricing_plan_id":"cebpf4jnsgd1na2vs0mg"},{"bike_id":"d262369f-4201-4652-91ef-8adb9d2a4ede","system_id":"levelo_inurba_marseille","lat":43.24075,"lon":5.37762,"is_reserved":false,"is_disabled":false,"rental_uris":{"android":"levelo://app?vid=d262369f-4201-4652-91ef-8adb9d2a4ede","ios":"levelo://app?vid=d262369f-4201-4652-91ef-8adb9d2a4ede"},"vehicle_type_id":"4","last_reported":1756224760,"current_range_meters":17200,"station_id":"ce4bhnp2rcd13ifvqgvg","pricing_plan_id":"cebpf4jnsgd1na2vs0mg"},{"bike_id":"6f510222-96ff-4565-a103-c02f6a257623","system_id":"levelo_inurba_marseille","lat":43.26569,"lon":5.39003,"is_reserved":false,"is_disabled":false,"rental_uris":{"android":"levelo://app?vid=6f510222-96ff-4565-a103-c02f6a257623","ios":"levelo://app?vid=6f510222-96ff-4565-a103-c02f6a257623"},"vehicle_type_id":"4","last_reported":1756224760,"current_range_meters":17200,"station_id":"ce4bhe12rcd13ifvqf30","pricing_plan_id":"cebpf4jnsgd1na2vs0mg"},{"bike_id":"b77e04a1-24b5-4e44-9a08-0836fd235b75","system_id":"levelo_inurba_marseille","lat":43.25834,"lon":5.38375,"is_reserved":false,"is_disabled":false,"rental_uris":{"android":"levelo://app?vid=b77e04a1-24b5-4e44-9a08-0836fd235b75","ios":"levelo://app?vid=b77e04a1-24b5-4e44-9a08-0836fd235b75"},"vehicle_type_id":"4","last_reported":1756224760,"current_range_meters":17600,"station_id":"","pricing_plan_id":"cebpf4jnsgd1na2vs0mg"},{"bike_id":"40c1fb45-9550-4904-9c4b-5647cd1299ba","system_id":"levelo_inurba_marseille","lat":43.21183,"lon":5.35071,"is_reserved":false,"is_disabled":false,"rental_uris":{"android":"levelo://app?vid=40c1fb45-9550-4904-9c4b-5647cd1299ba","ios":"levelo://app?vid=40c1fb45-9550-4904-9c4b-5647cd1299ba"},"vehicle_type_id":"4","last_reported":1756224760,"current_range_meters":17600,"station_id":"st_cvj6sg6p6f1abm77japg","pricing_plan_id":"cebpf4jnsgd1na2vs0mg"},{"bike_id":"248bf14d-378d-4e2f-9999-982acfdf56f9","system_id":"levelo_inurba_marseille","lat":43.28414,"lon":5.3498,"is_reserved":false,"is_disabled":false,"rental_uris":{"android":"levelo://app?vid=248bf14d-378d-4e2f-9999-982acfdf56f9","ios":"levelo://app?vid=248bf14d-378d-4e2f-9999-982acfdf56f9"},"vehicle_type_id":"4","last_reported":1756224760,"current_range_meters":17600,"station_id":"ce4bhbh2rcd13ifvqepg","pricing_plan_id":"cebpf4jnsgd1na2vs0mg"},{"bike_id":"fbf0e9b4-0244-4455-89e8-bb336b1646cf","system_id":"levelo_inurba_marseille","lat":43.23181,"lon":5.39985,"is_reserved":false,"is_disabled":false,"rental_uris":{"android":"levelo://app?vid=fbf0e9b4-0244-4455-89e8-bb336b1646cf","ios":"levelo://app?vid=fbf0e9b4-0244-4455-89e8-bb336b1646cf"},"vehicle_type_id":"4","last_reported":1756224760,"current_range_meters":17600,"station_id":"ce4bhn12rcd13ifvqgqg","pricing_plan_id":"cebpf4jnsgd1na2vs0mg"},{"bike_id":"271d510a-567b-4e3c-a9b2-d8a1c2227cb2","system_id":"levelo_inurba_marseille","lat":43.28408,"lon":5.34984,"is_reserved":false,"is_disabled":false,"rental_uris":{"android":"levelo://app?vid=271d510a-567b-4e3c-a9b2-d8a1c2227cb2","ios":"levelo://app?vid=271d510a-567b-4e3c-a9b2-d8a1c2227cb2"},"vehicle_type_id":"4","last_reported":1756224760,"current_range_meters":17600,"station_id":"ce4bhbh2rcd13ifvqepg","pricing_plan_id":"cebpf4jnsgd1na2vs0mg"},{"bike_id":"36fd8dd5-de68-4424-8b97-86d01c6ea873","system_id":"levelo_inurba_marseille","lat":43.29028,"lon":5.38651,"is_reserved":false,"is_disabled":false,"rental_uris":{"android":"levelo://app?vid=36fd8dd5-de68-4424-8b97-86d01c6ea873","ios":"levelo://app?vid=36fd8dd5-de68-4424-8b97-86d01c6ea873"},"vehicle_type_id":"4","last_reported":1756224760,"current_range_meters":17600,"station_id":"ce4bh4p2rcd13ifvqe0g","pricing_plan_id":"cebpf4jnsgd1na2vs0mg"},{"bike_id":"d5edd176-dc20-48cc-aea0-c4b4119653a3","system_id":"levelo_inurba_marseille","lat":43.2841,"lon":5.34963,"is_reserved":false,"is_disabled":false,"rental_uris":{"android":"levelo://app?vid=d5edd176-dc20-48cc-aea0-c4b4119653a3","ios":"levelo://app?vid=d5edd176-dc20-48cc-aea0-c4b4119653a3"},"vehicle_type_id":"4","last_reported":1756224760,"current_range_meters":17600,"station_id":"ce4bhbh2rcd13ifvqepg","pricing_plan_id":"cebpf4jnsgd1na2vs0mg"},{"bike_id":"3dff11d5-3872-4ffe-8cce-b5631d6c6058","system_id":"levelo_inurba_marseille","lat":43.32668,"lon":5.39139,"is_reserved":false,"is_disabled":false,"rental_uris":{"android":"levelo://app?vid=3dff11d5-3872-4ffe-8cce-b5631d6c6058","ios":"levelo://app?vid=3dff11d5-3872-4ffe-8cce-b5631d6c6058"},"vehicle_type_id":"4","last_reported":1756224760,"current_range_meters":17600,"station_id":"","pricing_plan_id":"cebpf4jnsgd1na2vs0mg"},{"bike_id":"62066b6c-855f-4b90-a771-6121608ecd54","system_id":"levelo_inurba_marseille","lat":43.25819,"lon":5.39434,"is_reserved":false,"is_disabled":false,"rental_uris":{"android":"levelo://app?vid=62066b6c-855f-4b90-a771-6121608ecd54","ios":"levelo://app?vid=62066b6c-855f-4b90-a771-6121608ecd54"},"vehicle_type_id":"4","last_reported":1756224760,"current_range_meters":17600,"station_id":"ce4bhip2rcd13ifvqft0","pricing_plan_id":"cebpf4jnsgd1na2vs0mg"},{"bike_id":"cd822ebe-8d01-44f2-b9e8-1f0b3a981bae","system_id":"levelo_inurba_marseille","lat":43.28843,"lon":5.358441,"is_reserved":false,"is_disabled":true,"rental_uris":{"android":"levelo://app?vid=cd822ebe-8d01-44f2-b9e8-1f0b3a981bae","ios":"levelo://app?vid=cd822ebe-8d01-44f2-b9e8-1f0b3a981bae"},"vehicle_type_id":"4","last_reported":1756224760,"current_range_meters":17600,"station_id":"ce4bhb12rcd13ifvqem0","pricing_plan_id":"cebpf4jnsgd1na2vs0mg"},{"bike_id":"a78c16ad-366d-4781-aac7-605a2fd3997b","system_id":"levelo_inurba_marseille","lat":43.28413,"lon":5.34967,"is_reserved":false,"is_disabled":false,"rental_uris":{"android":"levelo://app?vid=a78c16ad-366d-4781-aac7-605a2fd3997b","ios":"levelo://app?vid=a78c16ad-366d-4781-aac7-605a2fd3997b"},"vehicle_type_id":"4","last_reported":1756224760,"current_range_meters":17600,"station_id":"ce4bhbh2rcd13ifvqepg","pricing_plan_id":"cebpf4jnsgd1na2vs0mg"},{"bike_id":"185b1a02-5653-44cd-8443-643ab519de09","system_id":"levelo_inurba_marseille","lat":43.29035,"lon":5.38654,"is_reserved":false,"is_disabled":false,"rental_uris":{"android":"levelo://app?vid=185b1a02-5653-44cd-8443-643ab519de09","ios":"levelo://app?vid=185b1a02-5653-44cd-8443-643ab519de09"},"vehicle_type_id":"4","last_reported":1756224760,"current_range_meters":18000,"station_id":"ce4bh4p2rcd13ifvqe0g","pricing_plan_id":"cebpf4jnsgd1na2vs0mg"},{"bike_id":"87bfc91a-f564-4e73-9b41-3bec726da6b3","system_id":"levelo_inurba_marseille","lat":43.27802,"lon":5.40718,"is_reserved":false,"is_disabled":false,"rental_uris":{"android":"levelo://app?vid=87bfc91a-f564-4e73-9b41-3bec726da6b3","ios":"levelo://app?vid=87bfc91a-f564-4e73-9b41-3bec726da6b3"},"vehicle_type_id":"4","last_reported":1756224760,"current_range_meters":18000,"station_id":"ce4bhnh2rcd13ifvqgtg","pricing_plan_id":"cebpf4jnsgd1na2vs0mg"},{"bike_id":"b5ae0016-67e1-4c37-91cb-4d986fbc09a4","system_id":"levelo_inurba_marseille","lat":43.24633,"lon":5.43146,"is_reserved":false,"is_disabled":false,"rental_uris":{"android":"levelo://app?vid=b5ae0016-67e1-4c37-91cb-4d986fbc09a4","ios":"levelo://app?vid=b5ae0016-67e1-4c37-91cb-4d986fbc09a4"},"vehicle_type_id":"4","last_reported":1756224760,"current_range_meters":18000,"station_id":"st_d2m6c4gdas8pm72e190g","pricing_plan_id":"cebpf4jnsgd1na2vs0mg"},{"bike_id":"abaf99ca-5823-4460-ba5c-ff01280743d0","system_id":"levelo_inurba_marseille","lat":43.27063,"lon":5.42282,"is_reserved":false,"is_disabled":false,"rental_uris":{"android":"levelo://app?vid=abaf99ca-5823-4460-ba5c-ff01280743d0","ios":"levelo://app?vid=abaf99ca-5823-4460-ba5c-ff01280743d0"},"vehicle_type_id":"4","last_reported":1756224760,"current_range_meters":18000,"station_id":"ce4bhk92rcd13ifvqgb0","pricing_plan_id":"cebpf4jnsgd1na2vs0mg"},{"bike_id":"4e0659a5-be1d-4124-8848-780f119099aa","system_id":"levelo_inurba_marseille","lat":43.28411,"lon":5.34972,"is_reserved":false,"is_disabled":false,"rental_uris":{"android":"levelo://app?vid=4e0659a5-be1d-4124-8848-780f119099aa","ios":"levelo://app?vid=4e0659a5-be1d-4124-8848-780f119099aa"},"vehicle_type_id":"4","last_reported":1756224760,"current_range_meters":18000,"station_id":"ce4bhbh2rcd13ifvqepg","pricing_plan_id":"cebpf4jnsgd1na2vs0mg"},{"bike_id":"4dd066a3-5039-4c08-96e4-92ee4cbb306d","system_id":"levelo_inurba_marseille","lat":43.23194,"lon":5.35547,"is_reserved":false,"is_disabled":false,"rental_uris":{"android":"levelo://app?vid=4dd066a3-5039-4c08-96e4-92ee4cbb306d","ios":"levelo://app?vid=4dd066a3-5039-4c08-96e4-92ee4cbb306d"},"vehicle_type_id":"4","last_reported":1756224760,"current_range_meters":18000,"station_id":"ce4bhu92rcd13ifvqi70","pricing_plan_id":"cebpf4jnsgd1na2vs0mg"},{"bike_id":"c53af31e-33ca-42bb-9a48-c48109fe6cc3","system_id":"levelo_inurba_marseille","lat":43.284,"lon":5.37517,"is_reserved":false,"is_disabled":false,"rental_uris":{"android":"levelo://app?vid=c53af31e-33ca-42bb-9a48-c48109fe6cc3","ios":"levelo://app?vid=c53af31e-33ca-42bb-9a48-c48109fe6cc3"},"vehicle_type_id":"4","last_reported":1756224760,"current_range_meters":18000,"station_id":"ce4bh412rcd13ifvqds0","pricing_plan_id":"cebpf4jnsgd1na2vs0mg"},{"bike_id":"fbfbbd76-d0d0-4dd8-8342-d526f0b3d8bf","system_id":"levelo_inurba_marseille","lat":43.304319,"lon":5.397406,"is_reserved":false,"is_disabled":false,"rental_uris":{"android":"levelo://app?vid=fbfbbd76-d0d0-4dd8-8342-d526f0b3d8bf","ios":"levelo://app?vid=fbfbbd76-d0d0-4dd8-8342-d526f0b3d8bf"},"vehicle_type_id":"4","last_reported":1756224760,"current_range_meters":18000,"station_id":"ce4bh092rcd13ifvqd20","pricing_plan_id":"cebpf4jnsgd1na2vs0mg"},{"bike_id":"3efd5b4c-544b-47ae-b771-88c8225668bb","system_id":"levelo_inurba_marseille","lat":43.24157,"lon":5.36413,"is_reserved":false,"is_disabled":false,"rental_uris":{"android":"levelo://app?vid=3efd5b4c-544b-47ae-b771-88c8225668bb","ios":"levelo://app?vid=3efd5b4c-544b-47ae-b771-88c8225668bb"},"vehicle_type_id":"4","last_reported":1756224760,"current_range_meters":18800,"station_id":"cpo36qri1sfpv3e86is0","pricing_plan_id":"cebpf4jnsgd1na2vs0mg"},{"bike_id":"685105d1-bcda-4899-9d64-d94adf158a64","system_id":"levelo_inurba_marseille","lat":43.314676,"lon":5.373608,"is_reserved":false,"is_disabled":true,"rental_uris":{"android":"levelo://app?vid=685105d1-bcda-4899-9d64-d94adf158a64","ios":"levelo://app?vid=685105d1-bcda-4899-9d64-d94adf158a64"},"vehicle_type_id":"4","last_reported":1756224760,"current_range_meters":18800,"station_id":"","pricing_plan_id":"cebpf4jnsgd1na2vs0mg"},{"bike_id":"e5eabf25-4e1c-476e-b130-9f83cdcfc80c","system_id":"levelo_inurba_marseille","lat":43.29815,"lon":5.41679,"is_reserved":false,"is_disabled":false,"rental_uris":{"android":"levelo://app?vid=e5eabf25-4e1c-476e-b130-9f83cdcfc80c","ios":"levelo://app?vid=e5eabf25-4e1c-476e-b130-9f83cdcfc80c"},"vehicle_type_id":"4","last_reported":1756224760,"current_range_meters":18800,"station_id":"","pricing_plan_id":"cebpf4jnsgd1na2vs0mg"},{"bike_id":"675ccffa-4706-44fa-bc5c-415efe92affa","system_id":"levelo_inurba_marseille","lat":43.28444,"lon":5.39208,"is_reserved":false,"is_disabled":false,"rental_uris":{"android":"levelo://app?vid=675ccffa-4706-44fa-bc5c-415efe92affa","ios":"levelo://app?vid=675ccffa-4706-44fa-bc5c-415efe92affa"},"vehicle_type_id":"4","last_reported":1756224760,"current_range_meters":18800,"station_id":"ce4bhoh2rcd13ifvqh5g","pricing_plan_id":"cebpf4jnsgd1na2vs0mg"},{"bike_id":"eaa07cf7-f341-4828-86ad-209e4e0d293c","system_id":"levelo_inurba_marseille","lat":43.31471,"lon":5.373073,"is_reserved":false,"is_disabled":false,"rental_uris":{"android":"levelo://app?vid=eaa07cf7-f341-4828-86ad-209e4e0d293c","ios":"levelo://app?vid=eaa07cf7-f341-4828-86ad-209e4e0d293c"},"vehicle_type_id":"4","last_reported":1756224760,"current_range_meters":18800,"station_id":"ce4bgt12rcd13ifvqcd0","pricing_plan_id":"cebpf4jnsgd1na2vs0mg"},{"bike_id":"7ab54042-de81-4361-b79c-e554f83908c9","system_id":"levelo_inurba_marseille","lat":43.29197,"lon":5.39324,"is_reserved":false,"is_disabled":false,"rental_uris":{"android":"levelo://app?vid=7ab54042-de81-4361-b79c-e554f83908c9","ios":"levelo://app?vid=7ab54042-de81-4361-b79c-e554f83908c9"},"vehicle_type_id":"4","last_reported":1756224760,"current_range_meters":19200,"station_id":"ce4bh192rcd13ifvqdd0","pricing_plan_id":"cebpf4jnsgd1na2vs0mg"},{"bike_id":"5c26a54e-1e97-4ad3-a16d-614ad930b130","system_id":"levelo_inurba_marseille","lat":43.32094,"lon":5.36777,"is_reserved":false,"is_disabled":false,"rental_uris":{"android":"levelo://app?vid=5c26a54e-1e97-4ad3-a16d-614ad930b130","ios":"levelo://app?vid=5c26a54e-1e97-4ad3-a16d-614ad930b130"},"vehicle_type_id":"4","last_reported":1756224760,"current_range_meters":19200,"station_id":"ce4bhrh2rcd13ifvqhug","pricing_plan_id":"cebpf4jnsgd1na2vs0mg"},{"bike_id":"dce64f74-02ff-4382-b0b2-2575a1a14e5f","system_id":"levelo_inurba_marseille","lat":43.28277,"lon":5.35059,"is_reserved":false,"is_disabled":false,"rental_uris":{"android":"levelo://app?vid=dce64f74-02ff-4382-b0b2-2575a1a14e5f","ios":"levelo://app?vid=dce64f74-02ff-4382-b0b2-2575a1a14e5f"},"vehicle_type_id":"4","last_reported":1756224760,"current_range_meters":19200,"station_id":"ce4bhbp2rcd13ifvqerg","pricing_plan_id":"cebpf4jnsgd1na2vs0mg"},{"bike_id":"f03fd8b5-820c-4428-a47c-214be68d7e64","system_id":"levelo_inurba_marseille","lat":43.2408,"lon":5.37751,"is_reserved":false,"is_disabled":false,"rental_uris":{"android":"levelo://app?vid=f03fd8b5-820c-4428-a47c-214be68d7e64","ios":"levelo://app?vid=f03fd8b5-820c-4428-a47c-214be68d7e64"},"vehicle_type_id":"4","last_reported":1756224760,"current_range_meters":19200,"station_id":"ce4bhnp2rcd13ifvqgvg","pricing_plan_id":"cebpf4jnsgd1na2vs0mg"},{"bike_id":"826435eb-6ecc-45d7-9184-a710501eeffc","system_id":"levelo_inurba_marseille","lat":43.29269,"lon":5.36855,"is_reserved":false,"is_disabled":false,"rental_uris":{"android":"levelo://app?vid=826435eb-6ecc-45d7-9184-a710501eeffc","ios":"levelo://app?vid=826435eb-6ecc-45d7-9184-a710501eeffc"},"vehicle_type_id":"4","last_reported":1756224760,"current_range_meters":19200,"station_id":"ce4bhbp2rcd13ifvqesg","pricing_plan_id":"cebpf4jnsgd1na2vs0mg"},{"bike_id":"92513039-ed08-4885-b0a8-659a6ea31224","system_id":"levelo_inurba_marseille","lat":43.30425,"lon":5.41279,"is_reserved":false,"is_disabled":false,"rental_uris":{"android":"levelo://app?vid=92513039-ed08-4885-b0a8-659a6ea31224","ios":"levelo://app?vid=92513039-ed08-4885-b0a8-659a6ea31224"},"vehicle_type_id":"4","last_reported":1756224760,"current_range_meters":19200,"station_id":"ce4bhop2rcd13ifvqh8g","pricing_plan_id":"cebpf4jnsgd1na2vs0mg"},{"bike_id":"f67c8e5e-7af8-4847-a4ce-1e12088b4291","system_id":"levelo_inurba_marseille","lat":43.32528,"lon":5.36841,"is_reserved":false,"is_disabled":false,"rental_uris":{"android":"levelo://app?vid=f67c8e5e-7af8-4847-a4ce-1e12088b4291","ios":"levelo://app?vid=f67c8e5e-7af8-4847-a4ce-1e12088b4291"},"vehicle_type_id":"4","last_reported":1756224760,"current_range_meters":19200,"station_id":"","pricing_plan_id":"cebpf4jnsgd1na2vs0mg"},{"bike_id":"182848e1-c128-499b-944e-cad0c910e9fb","system_id":"levelo_inurba_marseille","lat":43.21179,"lon":5.35082,"is_reserved":false,"is_disabled":false,"rental_uris":{"android":"levelo://app?vid=182848e1-c128-499b-944e-cad0c910e9fb","ios":"levelo://app?vid=182848e1-c128-499b-944e-cad0c910e9fb"},"vehicle_type_id":"4","last_reported":1756224760,"current_range_meters":19200,"station_id":"st_cvj6sg6p6f1abm77japg","pricing_plan_id":"cebpf4jnsgd1na2vs0mg"},{"bike_id":"c561b3be-23f4-46ed-8d38-1fc2450f503d","system_id":"levelo_inurba_marseille","lat":43.23646,"lon":5.36213,"is_reserved":false,"is_disabled":false,"rental_uris":{"android":"levelo://app?vid=c561b3be-23f4-46ed-8d38-1fc2450f503d","ios":"levelo://app?vid=c561b3be-23f4-46ed-8d38-1fc2450f503d"},"vehicle_type_id":"4","last_reported":1756224760,"current_range_meters":19200,"station_id":"","pricing_plan_id":"cebpf4jnsgd1na2vs0mg"},{"bike_id":"0839bf8a-94b0-45f3-82d6-13b9148ff647","system_id":"levelo_inurba_marseille","lat":43.28926,"lon":5.384,"is_reserved":false,"is_disabled":false,"rental_uris":{"android":"levelo://app?vid=0839bf8a-94b0-45f3-82d6-13b9148ff647","ios":"levelo://app?vid=0839bf8a-94b0-45f3-82d6-13b9148ff647"},"vehicle_type_id":"4","last_reported":1756224760,"current_range_meters":19600,"station_id":"ce4bh612rcd13ifvqe6g","pricing_plan_id":"cebpf4jnsgd1na2vs0mg"},{"bike_id":"71136ea1-3aaf-4521-8084-554abe261412","system_id":"levelo_inurba_marseille","lat":43.303037,"lon":5.369059,"is_reserved":false,"is_disabled":true,"rental_uris":{"android":"levelo://app?vid=71136ea1-3aaf-4521-8084-554abe261412","ios":"levelo://app?vid=71136ea1-3aaf-4521-8084-554abe261412"},"vehicle_type_id":"4","last_reported":1756224760,"current_range_meters":19600,"station_id":"","pricing_plan_id":"cebpf4jnsgd1na2vs0mg"},{"bike_id":"9debf4d9-b244-4d97-8654-802b3ec59894","system_id":"levelo_inurba_marseille","lat":43.23181,"lon":5.35571,"is_reserved":false,"is_disabled":false,"rental_uris":{"android":"levelo://app?vid=9debf4d9-b244-4d97-8654-802b3ec59894","ios":"levelo://app?vid=9debf4d9-b244-4d97-8654-802b3ec59894"},"vehicle_type_id":"4","last_reported":1756224760,"current_range_meters":19600,"station_id":"ce4bhu92rcd13ifvqi70","pricing_plan_id":"cebpf4jnsgd1na2vs0mg"},{"bike_id":"544321aa-6157-4a46-a19b-b887f0a53244","system_id":"levelo_inurba_marseille","lat":43.293,"lon":5.37456,"is_reserved":false,"is_disabled":false,"rental_uris":{"android":"levelo://app?vid=544321aa-6157-4a46-a19b-b887f0a53244","ios":"levelo://app?vid=544321aa-6157-4a46-a19b-b887f0a53244"},"vehicle_type_id":"4","last_reported":1756224760,"current_range_meters":19600,"station_id":"ce4bgi12rcd13ifvqb70","pricing_plan_id":"cebpf4jnsgd1na2vs0mg"},{"bike_id":"ed798192-84d8-41bd-bd88-f5622a63e44b","system_id":"levelo_inurba_marseille","lat":43.29676,"lon":5.37303,"is_reserved":false,"is_disabled":false,"rental_uris":{"android":"levelo://app?vid=ed798192-84d8-41bd-bd88-f5622a63e44b","ios":"levelo://app?vid=ed798192-84d8-41bd-bd88-f5622a63e44b"},"vehicle_type_id":"4","last_reported":1756224760,"current_range_meters":19600,"station_id":"ce4bgk12rcd13ifvqbj0","pricing_plan_id":"cebpf4jnsgd1na2vs0mg"},{"bike_id":"a9d83b21-9821-4029-bb59-40c830188146","system_id":"levelo_inurba_marseille","lat":43.32347,"lon":5.36714,"is_reserved":false,"is_disabled":false,"rental_uris":{"android":"levelo://app?vid=a9d83b21-9821-4029-bb59-40c830188146","ios":"levelo://app?vid=a9d83b21-9821-4029-bb59-40c830188146"},"vehicle_type_id":"4","last_reported":1756224760,"current_range_meters":19600,"station_id":"ce4bhsh2rcd13ifvqi2g","pricing_plan_id":"cebpf4jnsgd1na2vs0mg"},{"bike_id":"fa8a4329-4f94-452b-964c-df6ea786a868","system_id":"levelo_inurba_marseille","lat":43.28417,"lon":5.3498,"is_reserved":false,"is_disabled":false,"rental_uris":{"android":"levelo://app?vid=fa8a4329-4f94-452b-964c-df6ea786a868","ios":"levelo://app?vid=fa8a4329-4f94-452b-964c-df6ea786a868"},"vehicle_type_id":"4","last_reported":1756224760,"current_range_meters":19600,"station_id":"ce4bhbh2rcd13ifvqepg","pricing_plan_id":"cebpf4jnsgd1na2vs0mg"},{"bike_id":"f7213e16-6938-41df-b35d-3e745154b5b7","system_id":"levelo_inurba_marseille","lat":43.23959,"lon":5.36631,"is_reserved":false,"is_disabled":false,"rental_uris":{"android":"levelo://app?vid=f7213e16-6938-41df-b35d-3e745154b5b7","ios":"levelo://app?vid=f7213e16-6938-41df-b35d-3e745154b5b7"},"vehicle_type_id":"4","last_reported":1756224760,"current_range_meters":20000,"station_id":"ce4bhi12rcd13ifvqfp0","pricing_plan_id":"cebpf4jnsgd1na2vs0mg"},{"bike_id":"2973bb63-a412-4e25-bf14-062ff276284a","system_id":"levelo_inurba_marseille","lat":43.28626,"lon":5.35133,"is_reserved":false,"is_disabled":false,"rental_uris":{"android":"levelo://app?vid=2973bb63-a412-4e25-bf14-062ff276284a","ios":"levelo://app?vid=2973bb63-a412-4e25-bf14-062ff276284a"},"vehicle_type_id":"4","last_reported":1756224760,"current_range_meters":20000,"station_id":"ce4bhch2rcd13ifvqeug","pricing_plan_id":"cebpf4jnsgd1na2vs0mg"},{"bike_id":"16a5aa1e-99b9-4f8d-a9ca-ff206772facb","system_id":"levelo_inurba_marseille","lat":43.28932,"lon":5.38402,"is_reserved":false,"is_disabled":false,"rental_uris":{"android":"levelo://app?vid=16a5aa1e-99b9-4f8d-a9ca-ff206772facb","ios":"levelo://app?vid=16a5aa1e-99b9-4f8d-a9ca-ff206772facb"},"vehicle_type_id":"4","last_reported":1756224760,"current_range_meters":19600,"station_id":"ce4bh612rcd13ifvqe6g","pricing_plan_id":"cebpf4jnsgd1na2vs0mg"},{"bike_id":"0b56a93b-e284-4698-9a80-9c054c2fc3c9","system_id":"levelo_inurba_marseille","lat":43.26818,"lon":5.39054,"is_reserved":false,"is_disabled":false,"rental_uris":{"android":"levelo://app?vid=0b56a93b-e284-4698-9a80-9c054c2fc3c9","ios":"levelo://app?vid=0b56a93b-e284-4698-9a80-9c054c2fc3c9"},"vehicle_type_id":"4","last_reported":1756224760,"current_range_meters":20000,"station_id":"","pricing_plan_id":"cebpf4jnsgd1na2vs0mg"},{"bike_id":"7d047091-7f6e-425a-8c04-b1e30bfac660","system_id":"levelo_inurba_marseille","lat":43.24811,"lon":5.37456,"is_reserved":false,"is_disabled":false,"rental_uris":{"android":"levelo://app?vid=7d047091-7f6e-425a-8c04-b1e30bfac660","ios":"levelo://app?vid=7d047091-7f6e-425a-8c04-b1e30bfac660"},"vehicle_type_id":"4","last_reported":1756224760,"current_range_meters":20000,"station_id":"ce4bhgh2rcd13ifvqfb0","pricing_plan_id":"cebpf4jnsgd1na2vs0mg"},{"bike_id":"d6e6ae2d-c9ba-42eb-a3dd-34fe8f7f82d5","system_id":"levelo_inurba_marseille","lat":43.30882,"lon":5.39658,"is_reserved":false,"is_disabled":false,"rental_uris":{"android":"levelo://app?vid=d6e6ae2d-c9ba-42eb-a3dd-34fe8f7f82d5","ios":"levelo://app?vid=d6e6ae2d-c9ba-42eb-a3dd-34fe8f7f82d5"},"vehicle_type_id":"4","last_reported":1756224760,"current_range_meters":20000,"station_id":"ce4bh012rcd13ifvqcv0","pricing_plan_id":"cebpf4jnsgd1na2vs0mg"},{"bike_id":"2644dcd8-dfb8-4799-a59e-87e5abf24ca0","system_id":"levelo_inurba_marseille","lat":43.29808,"lon":5.40404,"is_reserved":false,"is_disabled":false,"rental_uris":{"android":"levelo://app?vid=2644dcd8-dfb8-4799-a59e-87e5abf24ca0","ios":"levelo://app?vid=2644dcd8-dfb8-4799-a59e-87e5abf24ca0"},"vehicle_type_id":"4","last_reported":1756224760,"current_range_meters":19600,"station_id":"ce4bh112rcd13ifvqd90","pricing_plan_id":"cebpf4jnsgd1na2vs0mg"},{"bike_id":"f84f46c8-243d-42cd-b308-2b289e4c09d3","system_id":"levelo_inurba_marseille","lat":43.33444,"lon":5.35696,"is_reserved":false,"is_disabled":false,"rental_uris":{"android":"levelo://app?vid=f84f46c8-243d-42cd-b308-2b289e4c09d3","ios":"levelo://app?vid=f84f46c8-243d-42cd-b308-2b289e4c09d3"},"vehicle_type_id":"4","last_reported":1756224760,"current_range_meters":20000,"station_id":"","pricing_plan_id":"cebpf4jnsgd1na2vs0mg"},{"bike_id":"0ab00737-4c8c-48dc-aa91-3d139923716f","system_id":"levelo_inurba_marseille","lat":43.30417,"lon":5.41293,"is_reserved":false,"is_disabled":false,"rental_uris":{"android":"levelo://app?vid=0ab00737-4c8c-48dc-aa91-3d139923716f","ios":"levelo://app?vid=0ab00737-4c8c-48dc-aa91-3d139923716f"},"vehicle_type_id":"4","last_reported":1756224760,"current_range_meters":20000,"station_id":"ce4bhop2rcd13ifvqh8g","pricing_plan_id":"cebpf4jnsgd1na2vs0mg"},{"bike_id":"bd4376ea-7d2d-4cf4-9dc1-caf98f82dced","system_id":"levelo_inurba_marseille","lat":43.33335,"lon":5.39748,"is_reserved":false,"is_disabled":false,"rental_uris":{"android":"levelo://app?vid=bd4376ea-7d2d-4cf4-9dc1-caf98f82dced","ios":"levelo://app?vid=bd4376ea-7d2d-4cf4-9dc1-caf98f82dced"},"vehicle_type_id":"4","last_reported":1756224760,"current_range_meters":20400,"station_id":"","pricing_plan_id":"cebpf4jnsgd1na2vs0mg"},{"bike_id":"108b622f-741f-46bc-a63e-f53025af3542","system_id":"levelo_inurba_marseille","lat":43.239616,"lon":5.366206,"is_reserved":false,"is_disabled":false,"rental_uris":{"android":"levelo://app?vid=108b622f-741f-46bc-a63e-f53025af3542","ios":"levelo://app?vid=108b622f-741f-46bc-a63e-f53025af3542"},"vehicle_type_id":"4","last_reported":1756224760,"current_range_meters":20400,"station_id":"ce4bhi12rcd13ifvqfp0","pricing_plan_id":"cebpf4jnsgd1na2vs0mg"},{"bike_id":"56e2397a-3a7b-4c3a-aad1-437ad960cb0d","system_id":"levelo_inurba_marseille","lat":43.29932,"lon":5.36543,"is_reserved":false,"is_disabled":false,"rental_uris":{"android":"levelo://app?vid=56e2397a-3a7b-4c3a-aad1-437ad960cb0d","ios":"levelo://app?vid=56e2397a-3a7b-4c3a-aad1-437ad960cb0d"},"vehicle_type_id":"4","last_reported":1756224760,"current_range_meters":20400,"station_id":"ce4bgm92rcd13ifvqbr0","pricing_plan_id":"cebpf4jnsgd1na2vs0mg"},{"bike_id":"d810acf0-5bd2-4bf1-848d-31cd30d105e6","system_id":"levelo_inurba_marseille","lat":43.269831,"lon":5.392782,"is_reserved":false,"is_disabled":false,"rental_uris":{"android":"levelo://app?vid=d810acf0-5bd2-4bf1-848d-31cd30d105e6","ios":"levelo://app?vid=d810acf0-5bd2-4bf1-848d-31cd30d105e6"},"vehicle_type_id":"4","last_reported":1756224760,"current_range_meters":20400,"station_id":"","pricing_plan_id":"cebpf4jnsgd1na2vs0mg"},{"bike_id":"d1ab4433-94d0-4b2e-aecd-cb94ea10bdaa","system_id":"levelo_inurba_marseille","lat":43.261926,"lon":5.374481,"is_reserved":false,"is_disabled":true,"rental_uris":{"android":"levelo://app?vid=d1ab4433-94d0-4b2e-aecd-cb94ea10bdaa","ios":"levelo://app?vid=d1ab4433-94d0-4b2e-aecd-cb94ea10bdaa"},"vehicle_type_id":"4","last_reported":1756224760,"current_range_meters":20400,"station_id":"","pricing_plan_id":"cebpf4jnsgd1na2vs0mg"},{"bike_id":"4c82beab-1cad-46f7-a8ca-eb8dcbd949ef","system_id":"levelo_inurba_marseille","lat":43.27601,"lon":5.39716,"is_reserved":false,"is_disabled":false,"rental_uris":{"android":"levelo://app?vid=4c82beab-1cad-46f7-a8ca-eb8dcbd949ef","ios":"levelo://app?vid=4c82beab-1cad-46f7-a8ca-eb8dcbd949ef"},"vehicle_type_id":"4","last_reported":1756224760,"current_range_meters":20400,"station_id":"","pricing_plan_id":"cebpf4jnsgd1na2vs0mg"},{"bike_id":"05dc65c0-2ac3-4e60-bfed-60bd26e65b89","system_id":"levelo_inurba_marseille","lat":43.27916,"lon":5.39576,"is_reserved":false,"is_disabled":false,"rental_uris":{"android":"levelo://app?vid=05dc65c0-2ac3-4e60-bfed-60bd26e65b89","ios":"levelo://app?vid=05dc65c0-2ac3-4e60-bfed-60bd26e65b89"},"vehicle_type_id":"4","last_reported":1756224760,"current_range_meters":20400,"station_id":"ce4bhf92rcd13ifvqf40","pricing_plan_id":"cebpf4jnsgd1na2vs0mg"},{"bike_id":"e564862f-31e7-4d3c-a6d9-15762769e435","system_id":"levelo_inurba_marseille","lat":43.2952,"lon":5.37534,"is_reserved":false,"is_disabled":true,"rental_uris":{"android":"levelo://app?vid=e564862f-31e7-4d3c-a6d9-15762769e435","ios":"levelo://app?vid=e564862f-31e7-4d3c-a6d9-15762769e435"},"vehicle_type_id":"4","last_reported":1756224760,"current_range_meters":20400,"station_id":"ce4bgkp2rcd13ifvqbmg","pricing_plan_id":"cebpf4jnsgd1na2vs0mg"},{"bike_id":"cfd66be3-eb77-4fcb-9808-b084ac439d43","system_id":"levelo_inurba_marseille","lat":43.30927,"lon":5.37165,"is_reserved":false,"is_disabled":false,"rental_uris":{"android":"levelo://app?vid=cfd66be3-eb77-4fcb-9808-b084ac439d43","ios":"levelo://app?vid=cfd66be3-eb77-4fcb-9808-b084ac439d43"},"vehicle_type_id":"4","last_reported":1756224760,"current_range_meters":20800,"station_id":"","pricing_plan_id":"cebpf4jnsgd1na2vs0mg"},{"bike_id":"7b7a3373-6d8f-4d8e-86b0-89f7b256eb89","system_id":"levelo_inurba_marseille","lat":43.29965,"lon":5.38488,"is_reserved":false,"is_disabled":false,"rental_uris":{"android":"levelo://app?vid=7b7a3373-6d8f-4d8e-86b0-89f7b256eb89","ios":"levelo://app?vid=7b7a3373-6d8f-4d8e-86b0-89f7b256eb89"},"vehicle_type_id":"4","last_reported":1756224760,"current_range_meters":20800,"station_id":"ce4bgj92rcd13ifvqbd0","pricing_plan_id":"cebpf4jnsgd1na2vs0mg"},{"bike_id":"7b75c196-7325-42de-87d6-947fdd43ff35","system_id":"levelo_inurba_marseille","lat":43.28409,"lon":5.34977,"is_reserved":false,"is_disabled":false,"rental_uris":{"android":"levelo://app?vid=7b75c196-7325-42de-87d6-947fdd43ff35","ios":"levelo://app?vid=7b75c196-7325-42de-87d6-947fdd43ff35"},"vehicle_type_id":"4","last_reported":1756224760,"current_range_meters":20800,"station_id":"ce4bhbh2rcd13ifvqepg","pricing_plan_id":"cebpf4jnsgd1na2vs0mg"},{"bike_id":"4c9b0317-beef-42ae-8d3c-7f477f55260d","system_id":"levelo_inurba_marseille","lat":43.28074,"lon":5.39666,"is_reserved":false,"is_disabled":false,"rental_uris":{"android":"levelo://app?vid=4c9b0317-beef-42ae-8d3c-7f477f55260d","ios":"levelo://app?vid=4c9b0317-beef-42ae-8d3c-7f477f55260d"},"vehicle_type_id":"4","last_reported":1756224760,"current_range_meters":21600,"station_id":"ce4bho12rcd13ifvqh2g","pricing_plan_id":"cebpf4jnsgd1na2vs0mg"},{"bike_id":"4e9e705b-7667-42c6-adf5-4a09a858987f","system_id":"levelo_inurba_marseille","lat":43.21187,"lon":5.3508,"is_reserved":false,"is_disabled":false,"rental_uris":{"android":"levelo://app?vid=4e9e705b-7667-42c6-adf5-4a09a858987f","ios":"levelo://app?vid=4e9e705b-7667-42c6-adf5-4a09a858987f"},"vehicle_type_id":"4","last_reported":1756224760,"current_range_meters":20800,"station_id":"st_cvj6sg6p6f1abm77japg","pricing_plan_id":"cebpf4jnsgd1na2vs0mg"},{"bike_id":"ca43582f-1faa-43b9-8bc5-434d17ea2f02","system_id":"levelo_inurba_marseille","lat":43.29222,"lon":5.36056,"is_reserved":false,"is_disabled":true,"rental_uris":{"android":"levelo://app?vid=ca43582f-1faa-43b9-8bc5-434d17ea2f02","ios":"levelo://app?vid=ca43582f-1faa-43b9-8bc5-434d17ea2f02"},"vehicle_type_id":"4","last_reported":1756224760,"current_range_meters":20800,"station_id":"ce4bhbh2rcd13ifvqeqg","pricing_plan_id":"cebpf4jnsgd1na2vs0mg"},{"bike_id":"56617e93-dfaa-4db2-9c67-a6ef24f9648e","system_id":"levelo_inurba_marseille","lat":43.23186,"lon":5.35555,"is_reserved":false,"is_disabled":false,"rental_uris":{"android":"levelo://app?vid=56617e93-dfaa-4db2-9c67-a6ef24f9648e","ios":"levelo://app?vid=56617e93-dfaa-4db2-9c67-a6ef24f9648e"},"vehicle_type_id":"4","last_reported":1756224760,"current_range_meters":20800,"station_id":"ce4bhu92rcd13ifvqi70","pricing_plan_id":"cebpf4jnsgd1na2vs0mg"},{"bike_id":"24e63a74-7558-4b79-b809-2fc3157c903c","system_id":"levelo_inurba_marseille","lat":43.30772,"lon":5.37658,"is_reserved":false,"is_disabled":false,"rental_uris":{"android":"levelo://app?vid=24e63a74-7558-4b79-b809-2fc3157c903c","ios":"levelo://app?vid=24e63a74-7558-4b79-b809-2fc3157c903c"},"vehicle_type_id":"4","last_reported":1756224760,"current_range_meters":20800,"station_id":"ce4bgv92rcd13ifvqcq0","pricing_plan_id":"cebpf4jnsgd1na2vs0mg"},{"bike_id":"66b16236-8b7a-47de-9b9e-2a5a3b36fd42","system_id":"levelo_inurba_marseille","lat":43.32355,"lon":5.36736,"is_reserved":false,"is_disabled":false,"rental_uris":{"android":"levelo://app?vid=66b16236-8b7a-47de-9b9e-2a5a3b36fd42","ios":"levelo://app?vid=66b16236-8b7a-47de-9b9e-2a5a3b36fd42"},"vehicle_type_id":"4","last_reported":1756224760,"current_range_meters":20800,"station_id":"ce4bhsh2rcd13ifvqi2g","pricing_plan_id":"cebpf4jnsgd1na2vs0mg"},