{"last_updated":1702418792,"ttl":30,"version":"2.2","data":{"bikes":[{"bike_id":"68e58824-0a5f-4e27-b6c5-7be064983acc","system_id":"levelo_inurba_marseille","lat":43.31341,"lon":5.367098,"is_reserved":false,"is_disabled":false,"rental_uris":{"android":"levelo://app?vid=68e58824-0a5f-4e27-b6c5-7be064983acc","ios":"levelo://app?vid=68e58824-0a5f-4e27-b6c5-7be064983acc"},"vehicle_type_id":"4","last_reported":1702418792,"current_range_meters":31200,"station_id":"ce4bgr92rcd13ifvqc6g","pricing_plan_id":"free"},{"bike_id":"7b3d8340-515d-4819-a5a6-566426c82313","system_id":"levelo_inurba_marseille","lat":43.31341,"lon":5.367098,"is_reserved":false,"is_disabled":false,"rental_uris":{"android":"levelo://app?vid=7b3d8340-515d-4819-a5a6-566426c82313","ios":"levelo://app?vid=7b3d8340-515d-4819-a5a6-566426c82313"},"vehicle_type_id":"4","last_reported":1702418792,"current_range_meters":30800,"station_id":"ce4bgr92rcd13ifvqc6g","pricing_plan_id":"free"},{"bike_id":"fa71a62c-8ab2-44fc-853a-b7c2085191ea","system_id":"levelo_inurba_marseille","lat":43.309039,"lon":5.371797,"is_reserved":false,"is_disabled":false,"rental_uris":{"android":"levelo://app?vid=fa71a62c-8ab2-44fc-853a-b7c2085191ea","ios":"levelo://app?vid=fa71a62c-8ab2-44fc-853a-b7c2085191ea"},"vehicle_type_id":"4","last_reported":1702418792,"current_range_meters":19200,"station_id":"ce4bguh2rcd13ifvqckg","pricing_plan_id":"free"},{"bike_id":"1dcbe0d8-be57-4513-9898-727b736e0085","system_id":"levelo_inurba_marseille","lat":43.30885,"lon":5.37196,"is_reserved":false,"is_disabled":false,"rental_uris":{"android":"levelo://app?vid=1dcbe0d8-be57-4513-9898-727b736e0085","ios":"levelo://app?vid=1dcbe0d8-be57-4513-9898-727b736e0085"},"vehicle_type_id":"4","last_reported":1702418792,"current_range_meters":18000,"station_id":"ce4bguh2rcd13ifvqckg","pricing_plan_id":"free"},{"bike_id":"01caf1e3-8a76-49dc-8d33-d2cd0baec945","system_id":"levelo_inurba_marseille","lat":43.30537,"lon":5.367345,"is_reserved":false,"is_disabled":false,"rental_uris":{"android":"levelo://app?vid=01caf1e3-8a76-49dc-8d33-d2cd0baec945","ios":"levelo://app?vid=01caf1e3-8a76-49dc-8d33-d2cd0baec945"},"vehicle_type_id":"4","last_reported":1702418792,"current_range_meters":26800,"station_id":"ce4bgrp2rcd13ifvqc9g","pricing_plan_id":"free"},{"bike_id":"955e4ab2-16e5-44e8-a986-a2f50ff96c06","system_id":"levelo_inurba_marseille","lat":43.305382,"lon":5.365389,"is_reserved":false,"is_disabled":false,"rental_uris":{"android":"levelo://app?vid=955e4ab2-16e5-44e8-a986-a2f50ff96c06","ios":"levelo://app?vid=955e4ab2-16e5-44e8-a986-a2f50ff96c06"},"vehicle_type_id":"4","last_reported":1702418792,"current_range_meters":29600,"station_id":"","pricing_plan_id":"free"},{"bike_id":"8b2ea185-8682-46f5-a485-e3eb4fea0d36","system_id":"levelo_inurba_marseille","lat":43.305989,"lon":5.37225,"is_reserved":false,"is_disabled":false,"rental_uris":{"android":"levelo://app?vid=8b2ea185-8682-46f5-a485-e3eb4fea0d36","ios":"levelo://app?vid=8b2ea185-8682-46f5-a485-e3eb4fea0d36"},"vehicle_type_id":"4","last_reported":1702418792,"current_range_meters":14800,"station_id":"ce4bgqh2rcd13ifvqc4g","pricing_plan_id":"free"},{"bike_id":"c0daaf2f-bf34-433c-9dae-2310b23dbfcd","system_id":"levelo_inurba_marseille","lat":43.305989,"lon":5.37225,"is_reserved":false,"is_disabled":false,"rental_uris":{"android":"levelo://app?vid=c0daaf2f-bf34-433c-9dae-2310b23dbfcd","ios":"levelo://app?vid=c0daaf2f-bf34-433c-9dae-2310b23dbfcd"},"vehicle_type_id":"4","last_reported":1702418792,"current_range_meters":14800,"station_id":"ce4bgqh2rcd13ifvqc4g","pricing_plan_id":"free"},{"bike_id":"dbaa009d-f8f0-47bc-868c-2af4486423e6","system_id":"levelo_inurba_marseille","lat":43.311125,"lon":5.377624,"is_reserved":false,"is_disabled":false,"rental_uris":{"android":"levelo://app?vid=dbaa009d-f8f0-47bc-868c-2af4486423e6","ios":"levelo://app?vid=dbaa009d-f8f0-47bc-868c-2af4486423e6"},"vehicle_type_id":"4","last_reported":1702418792,"current_range_meters":4800,"station_id":"ce4bgt92rcd13ifvqcg0","pricing_plan_id":"free"},{"bike_id":"db96490b-4af5-4c28-880a-12366c23cee8","system_id":"levelo_inurba_marseille","lat":43.311125,"lon":5.377624,"is_reserved":false,"is_disabled":false,"rental_uris":{"android":"levelo://app?vid=db96490b-4af5-4c28-880a-12366c23cee8","ios":"levelo://app?vid=db96490b-4af5-4c28-880a-12366c23cee8"},"vehicle_type_id":"4","last_reported":1702418792,"current_range_meters":24800,"station_id":"ce4bgt92rcd13ifvqcg0","pricing_plan_id":"free"},{"bike_id":"55335dcc-2787-4f94-854b-08734a0b5140","system_id":"levelo_inurba_marseille","lat":43.311131,"lon":5.377651,"is_reserved":false,"is_disabled":false,"rental_uris":{"android":"levelo://app?vid=55335dcc-2787-4f94-854b-08734a0b5140","ios":"levelo://app?vid=55335dcc-2787-4f94-854b-08734a0b5140"},"vehicle_type_id":"4","last_reported":1702418792,"current_range_meters":3200,"station_id":"ce4bgt92rcd13ifvqcg0","pricing_plan_id":"free"},{"bike_id":"e216e00d-36c0-4de9-a7a8-2c8b132094a9","system_id":"levelo_inurba_marseille","lat":43.31117,"lon":5.377845,"is_reserved":false,"is_disabled":false,"rental_uris":{"android":"levelo://app?vid=e216e00d-36c0-4de9-a7a8-2c8b132094a9","ios":"levelo://app?vid=e216e00d-36c0-4de9-a7a8-2c8b132094a9"},"vehicle_type_id":"4","last_reported":1702418792,"current_range_meters":6000,"station_id":"ce4bgt92rcd13ifvqcg0","pricing_plan_id":"free"},{"bike_id":"dc68debd-6203-4696-b9a5-55eea857c5a0","system_id":"levelo_inurba_marseille","lat":43.317162,"lon":5.37682,"is_reserved":false,"is_disabled":false,"rental_uris":{"android":"levelo://app?vid=dc68debd-6203-4696-b9a5-55eea857c5a0","ios":"levelo://app?vid=dc68debd-6203-4696-b9a5-55eea857c5a0"},"vehicle_type_id":"4","last_reported":1702418792,"current_range_meters":26400,"station_id":"","pricing_plan_id":"free"},{"bike_id":"375701f8-0bb1-48f2-af59-36fd76351607","system_id":"levelo_inurba_marseille","lat":43.307945,"lon":5.376487,"is_reserved":false,"is_disabled":false,"rental_uris":{"android":"levelo://app?vid=375701f8-0bb1-48f2-af59-36fd76351607","ios":"levelo://app?vid=375701f8-0bb1-48f2-af59-36fd76351607"},"vehicle_type_id":"4","last_reported":1702418792,"current_range_meters":18400,"station_id":"ce4bgv92rcd13ifvqcq0","pricing_plan_id":"free"},{"bike_id":"f0547b77-6f20-423d-98ca-ff544c3c1d23","system_id":"levelo_inurba_marseille","lat":43.317,"lon":5.37827,"is_reserved":false,"is_disabled":false,"rental_uris":{"android":"levelo://app?vid=f0547b77-6f20-423d-98ca-ff544c3c1d23","ios":"levelo://app?vid=f0547b77-6f20-423d-98ca-ff544c3c1d23"},"vehicle_type_id":"4","last_reported":1702418792,"current_range_meters":23200,"station_id":"","pricing_plan_id":"free"},{"bike_id":"8f81567e-2bb9-4924-a767-22ab3d053b21","system_id":"levelo_inurba_marseille","lat":43.30248,"lon":5.37445,"is_reserved":false,"is_disabled":false,"rental_uris":{"android":"levelo://app?vid=8f81567e-2bb9-4924-a767-22ab3d053b21","ios":"levelo://app?vid=8f81567e-2bb9-4924-a767-22ab3d053b21"},"vehicle_type_id":"4","last_reported":1702418792,"current_range_meters":0,"station_id":"","pricing_plan_id":"free"},{"bike_id":"2bef9ea6-9caa-452e-b154-4d3ae7e58bde","system_id":"levelo_inurba_marseille","lat":43.308012,"lon":5.381511,"is_reserved":false,"is_disabled":false,"rental_uris":{"android":"levelo://app?vid=2bef9ea6-9caa-452e-b154-4d3ae7e58bde","ios":"levelo://app?vid=2bef9ea6-9caa-452e-b154-4d3ae7e58bde"},"vehicle_type_id":"4","last_reported":1702418792,"current_range_meters":8000,"station_id":"ce4bgt12rcd13ifvqce0","pricing_plan_id":"free"},{"bike_id":"d65eaead-5b2a-4317-9a97-eb31a5ceb085","system_id":"levelo_inurba_marseille","lat":43.308012,"lon":5.381511,"is_reserved":false,"is_disabled":false,"rental_uris":{"android":"levelo://app?vid=d65eaead-5b2a-4317-9a97-eb31a5ceb085","ios":"levelo://app?vid=d65eaead-5b2a-4317-9a97-eb31a5ceb085"},"vehicle_type_id":"4","last_reported":1702418792,"current_range_meters":19200,"station_id":"ce4bgt12rcd13ifvqce0","pricing_plan_id":"free"},{"bike_id":"443495d3-5c95-4ec2-bf2b-82b8d38de0b4","system_id":"levelo_inurba_marseille","lat":43.32479,"lon":5.36563,"is_reserved":false,"is_disabled":false,"rental_uris":{"android":"levelo://app?vid=443495d3-5c95-4ec2-bf2b-82b8d38de0b4","ios":"levelo://app?vid=443495d3-5c95-4ec2-bf2b-82b8d38de0b4"},"vehicle_type_id":"4","last_reported":1702418792,"current_range_meters":24000,"station_id":"ce4bhs12rcd13ifvqhvg","pricing_plan_id":"free"},{"bike_id":"aa3cdc10-a2b4-4348-a58d-ea513d683fe2","system_id":"levelo_inurba_marseille","lat":43.324771,"lon":5.36557,"is_reserved":false,"is_disabled":false,"rental_uris":{"android":"levelo://app?vid=aa3cdc10-a2b4-4348-a58d-ea513d683fe2","ios":"levelo://app?vid=aa3cdc10-a2b4-4348-a58d-ea513d683fe2"},"vehicle_type_id":"4","last_reported":1702418792,"current_range_meters":25600,"station_id":"ce4bhs12rcd13ifvqhvg","pricing_plan_id":"free"},{"bike_id":"c2f3e96d-81da-4d6b-9242-aca96b660b86","system_id":"levelo_inurba_marseille","lat":43.319935,"lon":5.381699,"is_reserved":false,"is_disabled":false,"rental_uris":{"android":"levelo://app?vid=c2f3e96d-81da-4d6b-9242-aca96b660b86","ios":"levelo://app?vid=c2f3e96d-81da-4d6b-9242-aca96b660b86"},"vehicle_type_id":"4","last_reported":1702418792,"current_range_meters":16400,"station_id":"ce4bhr12rcd13ifvqhpg","pricing_plan_id":"free"},{"bike_id":"4c00249a-cd9a-43df-b751-0c54480abe52","system_id":"levelo_inurba_marseille","lat":43.31363,"lon":5.38504,"is_reserved":false,"is_disabled":false,"rental_uris":{"android":"levelo://app?vid=4c00249a-cd9a-43df-b751-0c54480abe52","ios":"levelo://app?vid=4c00249a-cd9a-43df-b751-0c54480abe52"},"vehicle_type_id":"4","last_reported":1702418792,"current_range_meters":0,"station_id":"ce4bgt92rcd13ifvqcf0","pricing_plan_id":"free"},{"bike_id":"18aea7f3-ed26-4926-b0a0-367e39ccd5ee","system_id":"levelo_inurba_marseille","lat":43.298433,"lon":5.362774,"is_reserved":false,"is_disabled":false,"rental_uris":{"android":"levelo://app?vid=18aea7f3-ed26-4926-b0a0-367e39ccd5ee","ios":"levelo://app?vid=18aea7f3-ed26-4926-b0a0-367e39ccd5ee"},"vehicle_type_id":"4","last_reported":1702418792,"current_range_meters":22400,"station_id":"ce4bgpp2rcd13ifvqc3g","pricing_plan_id":"free"},{"bike_id":"77a6c46d-d898-4e4f-8846-efa91689c7f0","system_id":"levelo_inurba_marseille","lat":43.302006,"lon":5.38065,"is_reserved":false,"is_disabled":false,"rental_uris":{"android":"levelo://app?vid=77a6c46d-d898-4e4f-8846-efa91689c7f0","ios":"levelo://app?vid=77a6c46d-d898-4e4f-8846-efa91689c7f0"},"vehicle_type_id":"4","last_reported":1702418792,"current_range_meters":0,"station_id":"","pricing_plan_id":"free"},{"bike_id":"3afbdb8c-92db-4c57-ad4e-90de64ad0150","system_id":"levelo_inurba_marseille","lat":43.31172,"lon":5.38714,"is_reserved":false,"is_disabled":false,"rental_uris":{"android":"levelo://app?vid=3afbdb8c-92db-4c57-ad4e-90de64ad0150","ios":"levelo://app?vid=3afbdb8c-92db-4c57-ad4e-90de64ad0150"},"vehicle_type_id":"4","last_reported":1702418792,"current_range_meters":0,"station_id":"ce4bgv12rcd13ifvqcp0","pricing_plan_id":"free"},{"bike_id":"ef62d099-880c-48b4-a857-30e56a94bd16","system_id":"levelo_inurba_marseille","lat":43.32284,"lon":5.38268,"is_reserved":false,"is_disabled":false,"rental_uris":{"android":"levelo://app?vid=ef62d099-880c-48b4-a857-30e56a94bd16","ios":"levelo://app?vid=ef62d099-880c-48b4-a857-30e56a94bd16"},"vehicle_type_id":"4","last_reported":1702418792,"current_range_meters":5600,"station_id":"ce4bhr12rcd13ifvqhqg","pricing_plan_id":"free"},{"bike_id":"4e6dcc4f-3405-416d-8522-8318837508c0","system_id":"levelo_inurba_marseille","lat":43.32303,"lon":5.38247,"is_reserved":false,"is_disabled":false,"rental_uris":{"android":"levelo://app?vid=4e6dcc4f-3405-416d-8522-8318837508c0","ios":"levelo://app?vid=4e6dcc4f-3405-416d-8522-8318837508c0"},"vehicle_type_id":"4","last_reported":1702418792,"current_range_meters":7200,"station_id":"ce4bhr12rcd13ifvqhqg","pricing_plan_id":"free"},{"bike_id":"7c5c6212-95e6-412b-bba0-e6e1e8f7e4ca","system_id":"levelo_inurba_marseille","lat":43.322872,"lon":5.382756,"is_reserved":false,"is_disabled":false,"rental_uris":{"android":"levelo://app?vid=7c5c6212-95e6-412b-bba0-e6e1e8f7e4ca","ios":"levelo://app?vid=7c5c6212-95e6-412b-bba0-e6e1e8f7e4ca"},"vehicle_type_id":"4","last_reported":1702418792,"current_range_meters":27200,"station_id":"ce4bhr12rcd13ifvqhqg","pricing_plan_id":"free"},{"bike_id":"fcc3a406-8219-4d19-a1b2-f9d5a2feeb13","system_id":"levelo_inurba_marseille","lat":43.322872,"lon":5.382756,"is_reserved":false,"is_disabled":false,"rental_uris":{"android":"levelo://app?vid=fcc3a406-8219-4d19-a1b2-f9d5a2feeb13","ios":"levelo://app?vid=fcc3a406-8219-4d19-a1b2-f9d5a2feeb13"},"vehicle_type_id":"4","last_reported":1702418792,"current_range_meters":28000,"station_id":"ce4bhr12rcd13ifvqhqg","pricing_plan_id":"free"},{"bike_id":"e3935d40-6844-4fe8-8a96-631442334792","system_id":"levelo_inurba_marseille","lat":43.328371,"lon":5.366909,"is_reserved":false,"is_disabled":false,"rental_uris":{"android":"levelo://app?vid=e3935d40-6844-4fe8-8a96-631442334792","ios":"levelo://app?vid=e3935d40-6844-4fe8-8a96-631442334792"},"vehicle_type_id":"4","last_reported":1702418792,"current_range_meters":1600,"station_id":"ce4bhs92rcd13ifvqi0g","pricing_plan_id":"free"},{"bike_id":"2f3bb280-052a-4468-af6b-ff1bc60be439","system_id":"levelo_inurba_marseille","lat":43.32829,"lon":5.367,"is_reserved":false,"is_disabled":false,"rental_uris":{"android":"levelo://app?vid=2f3bb280-052a-4468-af6b-ff1bc60be439","ios":"levelo://app?vid=2f3bb280-052a-4468-af6b-ff1bc60be439"},"vehicle_type_id":"4","last_reported":1702418792,"current_range_meters":20000,"station_id":"ce4bhs92rcd13ifvqi0g","pricing_plan_id":"free"},{"bike_id":"f6a62362-1831-4aa5-9227-c5f949743ee8","system_id":"levelo_inurba_marseille","lat":43.328371,"lon":5.366909,"is_reserved":false,"is_disabled":false,"rental_uris":{"android":"levelo://app?vid=f6a62362-1831-4aa5-9227-c5f949743ee8","ios":"levelo://app?vid=f6a62362-1831-4aa5-9227-c5f949743ee8"},"vehicle_type_id":"4","last_reported":1702418792,"current_range_meters":2000,"station_id":"ce4bhs92rcd13ifvqi0g","pricing_plan_id":"free"},{"bike_id":"7a878ee5-6910-45dd-b3bd-722059d35da7","system_id":"levelo_inurba_marseille","lat":43.29787,"lon":5.37679,"is_reserved":false,"is_disabled":false,"rental_uris":{"android":"levelo://app?vid=7a878ee5-6910-45dd-b3bd-722059d35da7","ios":"levelo://app?vid=7a878ee5-6910-45dd-b3bd-722059d35da7"},"vehicle_type_id":"4","last_reported":1702418792,"current_range_meters":11600,"station_id":"","pricing_plan_id":"free"},{"bike_id":"390baa6d-0434-438a-96e8-13681b119308","system_id":"levelo_inurba_marseille","lat":43.309589,"lon":5.390258,"is_reserved":false,"is_disabled":false,"rental_uris":{"android":"levelo://app?vid=390baa6d-0434-438a-96e8-13681b119308","ios":"levelo://app?vid=390baa6d-0434-438a-96e8-13681b119308"},"vehicle_type_id":"4","last_reported":1702418792,"current_range_meters":10400,"station_id":"ce4bgup2rcd13ifvqco0","pricing_plan_id":"free"},{"bike_id":"3d2384dd-84d7-4069-9c2c-74a8ae3118d3","system_id":"levelo_inurba_marseille","lat":43.296935,"lon":5.376544,"is_reserved":false,"is_disabled":false,"rental_uris":{"android":"levelo://app?vid=3d2384dd-84d7-4069-9c2c-74a8ae3118d3","ios":"levelo://app?vid=3d2384dd-84d7-4069-9c2c-74a8ae3118d3"},"vehicle_type_id":"4","last_reported":1702418792,"current_range_meters":16800,"station_id":"ce4bgkh2rcd13ifvqbl0","pricing_plan_id":"free"},{"bike_id":"344bedec-8759-43f3-ab32-9a887f76cbb6","system_id":"levelo_inurba_marseille","lat":43.309589,"lon":5.390258,"is_reserved":false,"is_disabled":false,"rental_uris":{"android":"levelo://app?vid=344bedec-8759-43f3-ab32-9a887f76cbb6","ios":"levelo://app?vid=344bedec-8759-43f3-ab32-9a887f76cbb6"},"vehicle_type_id":"4","last_reported":1702418792,"current_range_meters":4800,"station_id":"ce4bgup2rcd13ifvqco0","pricing_plan_id":"free"},{"bike_id":"12deaa88-d271-4606-aa02-2b16fcaa2cda","system_id":"levelo_inurba_marseille","lat":43.317557,"lon":5.390173,"is_reserved":false,"is_disabled":false,"rental_uris":{"android":"levelo://app?vid=12deaa88-d271-4606-aa02-2b16fcaa2cda","ios":"levelo://app?vid=12deaa88-d271-4606-aa02-2b16fcaa2cda"},"vehicle_type_id":"4","last_reported":1702418792,"current_range_meters":26000,"station_id":"ce4bhqp2rcd13ifvqhng","pricing_plan_id":"free"},{"bike_id":"53ff580a-8f26-4436-827a-6ac529f261e0","system_id":"levelo_inurba_marseille","lat":43.317557,"lon":5.390173,"is_reserved":false,"is_disabled":false,"rental_uris":{"android":"levelo://app?vid=53ff580a-8f26-4436-827a-6ac529f261e0","ios":"levelo://app?vid=53ff580a-8f26-4436-827a-6ac529f261e0"},"vehicle_type_id":"4","last_reported":1702418792,"current_range_meters":26000,"station_id":"ce4bhqp2rcd13ifvqhng","pricing_plan_id":"free"},{"bike_id":"ba7e1c4a-d6e8-4592-8004-395016cb368e","system_id":"levelo_inurba_marseille","lat":43.299724,"lon":5.384848,"is_reserved":false,"is_disabled":false,"rental_uris":{"android":"levelo://app?vid=ba7e1c4a-d6e8-4592-8004-395016cb368e","ios":"levelo://app?vid=ba7e1c4a-d6e8-4592-8004-395016cb368e"},"vehicle_type_id":"4","last_reported":1702418792,"current_range_meters":20400,"station_id":"ce4bgj92rcd13ifvqbd0","pricing_plan_id":"free"},{"bike_id":"ace0775d-9c87-4539-82b8-eaa36222f40d","system_id":"levelo_inurba_marseille","lat":43.29968,"lon":5.38497,"is_reserved":false,"is_disabled":false,"rental_uris":{"android":"levelo://app?vid=ace0775d-9c87-4539-82b8-eaa36222f40d","ios":"levelo://app?vid=ace0775d-9c87-4539-82b8-eaa36222f40d"},"vehicle_type_id":"4","last_reported":1702418792,"current_range_meters":3600,"station_id":"ce4bgj92rcd13ifvqbd0","pricing_plan_id":"free"},{"bike_id":"d03092f9-45fc-4d51-a3f6-86554dcd2643","system_id":"levelo_inurba_marseille","lat":43.32367,"lon":5.38878,"is_reserved":false,"is_disabled":false,"rental_uris":{"android":"levelo://app?vid=d03092f9-45fc-4d51-a3f6-86554dcd2643","ios":"levelo://app?vid=d03092f9-45fc-4d51-a3f6-86554dcd2643"},"vehicle_type_id":"4","last_reported":1702418792,"current_range_meters":12000,"station_id":"ce4bhqp2rcd13ifvqhog","pricing_plan_id":"free"},{"bike_id":"9fafa219-4010-46ac-a092-39e6cd5dabf7","system_id":"levelo_inurba_marseille","lat":43.32364,"lon":5.38882,"is_reserved":false,"is_disabled":false,"rental_uris":{"android":"levelo://app?vid=9fafa219-4010-46ac-a092-39e6cd5dabf7","ios":"levelo://app?vid=9fafa219-4010-46ac-a092-39e6cd5dabf7"},"vehicle_type_id":"4","last_reported":1702418792,"current_range_meters":19600,"station_id":"ce4bhqp2rcd13ifvqhog","pricing_plan_id":"free"},{"bike_id":"bff9db26-45f0-4d89-be98-df76335b799a","system_id":"levelo_inurba_marseille","lat":43.32367,"lon":5.388836,"is_reserved":false,"is_disabled":false,"rental_uris":{"android":"levelo://app?vid=bff9db26-45f0-4d89-be98-df76335b799a","ios":"levelo://app?vid=bff9db26-45f0-4d89-be98-df76335b799a"},"vehicle_type_id":"4","last_reported":1702418792,"current_range_meters":21200,"station_id":"ce4bhqp2rcd13ifvqhog","pricing_plan_id":"free"},{"bike_id":"fb0e77c2-5a18-4107-9008-29501d1a3f22","system_id":"levelo_inurba_marseille","lat":43.29633,"lon":5.38095,"is_reserved":false,"is_disabled":false,"rental_uris":{"android":"levelo://app?vid=fb0e77c2-5a18-4107-9008-29501d1a3f22","ios":"levelo://app?vid=fb0e77c2-5a18-4107-9008-29501d1a3f22"},"vehicle_type_id":"4","last_reported":1702418792,"current_range_meters":1200,"station_id":"ce4bgl12rcd13ifvqbo0","pricing_plan_id":"free"},{"bike_id":"8b9586e7-da38-4234-ac9d-36b937bb2b9f","system_id":"levelo_inurba_marseille","lat":43.30085,"lon":5.390856,"is_reserved":false,"is_disabled":false,"rental_uris":{"android":"levelo://app?vid=8b9586e7-da38-4234-ac9d-36b937bb2b9f","ios":"levelo://app?vid=8b9586e7-da38-4234-ac9d-36b937bb2b9f"},"vehicle_type_id":"4","last_reported":1702418792,"current_range_meters":12400,"station_id":"ce4bh192rcd13ifvqdb0","pricing_plan_id":"free"},{"bike_id":"85880ac5-9981-4a48-b1e5-6b575dc6a89a","system_id":"levelo_inurba_marseille","lat":43.300852,"lon":5.390859,"is_reserved":false,"is_disabled":false,"rental_uris":{"android":"levelo://app?vid=85880ac5-9981-4a48-b1e5-6b575dc6a89a","ios":"levelo://app?vid=85880ac5-9981-4a48-b1e5-6b575dc6a89a"},"vehicle_type_id":"4","last_reported":1702418792,"current_range_meters":16400,"station_id":"ce4bh192rcd13ifvqdb0","pricing_plan_id":"free"},{"bike_id":"f549a9a6-1fe4-4213-951d-0e18a49331f5","system_id":"levelo_inurba_marseille","lat":43.291646,"lon":5.371531,"is_reserved":false,"is_disabled":false,"rental_uris":{"android":"levelo://app?vid=f549a9a6-1fe4-4213-951d-0e18a49331f5","ios":"levelo://app?vid=f549a9a6-1fe4-4213-951d-0e18a49331f5"},"vehicle_type_id":"4","last_reported":1702418792,"current_range_meters":0,"station_id":"ce4bha92rcd13ifvqeh0","pricing_plan_id":"free"},{"bike_id":"c982b96f-4f85-4e73-8f7f-c9b4eb16a30b","system_id":"levelo_inurba_marseille","lat":43.309047,"lon":5.396551,"is_reserved":false,"is_disabled":false,"rental_uris":{"android":"levelo://app?vid=c982b96f-4f85-4e73-8f7f-c9b4eb16a30b","ios":"levelo://app?vid=c982b96f-4f85-4e73-8f7f-c9b4eb16a30b"},"vehicle_type_id":"4","last_reported":1702418792,"current_range_meters":29200,"station_id":"ce4bh012rcd13ifvqcv0","pricing_plan_id":"free"},{"bike_id":"e901ab6b-8f0a-43ab-aeef-0f74249bf52a","system_id":"levelo_inurba_marseille","lat":43.291994,"lon":5.357886,"is_reserved":false,"is_disabled":false,"rental_uris":{"android":"levelo://app?vid=e901ab6b-8f0a-43ab-aeef-0f74249bf52a","ios":"levelo://app?vid=e901ab6b-8f0a-43ab-aeef-0f74249bf52a"},"vehicle_type_id":"4","last_reported":1702418792,"current_range_meters":3200,"station_id":"ce4bhb12rcd13ifvqel0","pricing_plan_id":"free"},{"bike_id":"a898a4fc-576b-4e6d-8cac-90b7dfd122b0","system_id":"levelo_inurba_marseille","lat":43.30885,"lon":5.39639,"is_reserved":false,"is_disabled":false,"rental_uris":{"android":"levelo://app?vid=a898a4fc-576b-4e6d-8cac-90b7dfd122b0","ios":"levelo://app?vid=a898a4fc-576b-4e6d-8cac-90b7dfd122b0"},"vehicle_type_id":"4","last_reported":1702418792,"current_range_meters":21200,"station_id":"ce4bh012rcd13ifvqcv0","pricing_plan_id":"free"},{"bike_id":"b3e3c3ac-515d-432e-8a8b-e4e5e14bb55e","system_id":"levelo_inurba_marseille","lat":43.30888,"lon":5.3964,"is_reserved":false,"is_disabled":false,"rental_uris":{"android":"levelo://app?vid=b3e3c3ac-515d-432e-8a8b-e4e5e14bb55e","ios":"levelo://app?vid=b3e3c3ac-515d-432e-8a8b-e4e5e14bb55e"},"vehicle_type_id":"4","last_reported":1702418792,"current_range_meters":8400,"station_id":"ce4bh012rcd13ifvqcv0","pricing_plan_id":"free"},{"bike_id":"a9e4d9ba-dd2d-4106-84f5-41a9ed6966c8","system_id":"levelo_inurba_marseille","lat":43.313291,"lon":5.396838,"is_reserved":false,"is_disabled":false,"rental_uris":{"android":"levelo://app?vid=a9e4d9ba-dd2d-4106-84f5-41a9ed6966c8","ios":"levelo://app?vid=a9e4d9ba-dd2d-4106-84f5-41a9ed6966c8"},"vehicle_type_id":"4","last_reported":1702418792,"current_range_meters":20800,"station_id":"ce4bgvp2rcd13ifvqcu0","pricing_plan_id":"free"},{"bike_id":"d26174aa-83c9-4864-950d-e3c84cae543f","system_id":"levelo_inurba_marseille","lat":43.31326,"lon":5.3969,"is_reserved":false,"is_disabled":false,"rental_uris":{"android":"levelo://app?vid=d26174aa-83c9-4864-950d-e3c84cae543f","ios":"levelo://app?vid=d26174aa-83c9-4864-950d-e3c84cae543f"},"vehicle_type_id":"4","last_reported":1702418792,"current_range_meters":0,"station_id":"ce4bgvp2rcd13ifvqcu0","pricing_plan_id":"free"},{"bike_id":"ff44dcf7-31a3-4058-84b8-149be4fb727d","system_id":"levelo_inurba_marseille","lat":43.30885,"lon":5.39643,"is_reserved":false,"is_disabled":false,"rental_uris":{"android":"levelo://app?vid=ff44dcf7-31a3-4058-84b8-149be4fb727d","ios":"levelo://app?vid=ff44dcf7-31a3-4058-84b8-149be4fb727d"},"vehicle_type_id":"4","last_reported":1702418792,"current_range_meters":26400,"station_id":"ce4bh012rcd13ifvqcv0","pricing_plan_id":"free"},{"bike_id":"9c088e17-437a-4c78-8e15-490fc306b2db","system_id":"levelo_inurba_marseille","lat":43.309047,"lon":5.396551,"is_reserved":false,"is_disabled":false,"rental_uris":{"android":"levelo://app?vid=9c088e17-437a-4c78-8e15-490fc306b2db","ios":"levelo://app?vid=9c088e17-437a-4c78-8e15-490fc306b2db"},"vehicle_type_id":"4","last_reported":1702418792,"current_range_meters":30800,"station_id":"ce4bh012rcd13ifvqcv0","pricing_plan_id":"free"},{"bike_id":"23689101-b575-4066-83ec-40f7074c8e3f","system_id":"levelo_inurba_marseille","lat":43.313291,"lon":5.396838,"is_reserved":false,"is_disabled":false,"rental_uris":{"android":"levelo://app?vid=23689101-b575-4066-83ec-40f7074c8e3f","ios":"levelo://app?vid=23689101-b575-4066-83ec-40f7074c8e3f"},"vehicle_type_id":"4","last_reported":1702418792,"current_range_meters":17200,"station_id":"ce4bgvp2rcd13ifvqcu0","pricing_plan_id":"free"},{"bike_id":"b75820d6-e268-4f1b-b00d-1d709149dd40","system_id":"levelo_inurba_marseille","lat":43.309038,"lon":5.396546,"is_reserved":false,"is_disabled":false,"rental_uris":{"android":"levelo://app?vid=b75820d6-e268-4f1b-b00d-1d709149dd40","ios":"levelo://app?vid=b75820d6-e268-4f1b-b00d-1d709149dd40"},"vehicle_type_id":"4","last_reported":1702418792,"current_range_meters":26400,"station_id":"ce4bh012rcd13ifvqcv0","pricing_plan_id":"free"},{"bike_id":"9f677b5a-8f8f-4e6b-a8e8-c4f8dc3b6594","system_id":"levelo_inurba_marseille","lat":43.308906,"lon":5.396587,"is_reserved":false,"is_disabled":false,"rental_uris":{"android":"levelo://app?vid=9f677b5a-8f8f-4e6b-a8e8-c4f8dc3b6594","ios":"levelo://app?vid=9f677b5a-8f8f-4e6b-a8e8-c4f8dc3b6594"},"vehicle_type_id":"4","last_reported":1702418792,"current_range_meters":21600,"station_id":"ce4bh012rcd13ifvqcv0","pricing_plan_id":"free"},{"bike_id":"bcaea850-f686-458a-920c-623930481f03","system_id":"levelo_inurba_marseille","lat":43.29529,"lon":5.385581,"is_reserved":false,"is_disabled":false,"rental_uris":{"android":"levelo://app?vid=bcaea850-f686-458a-920c-623930481f03","ios":"levelo://app?vid=bcaea850-f686-458a-920c-623930481f03"},"vehicle_type_id":"4","last_reported":1702418792,"current_range_meters":5200,"station_id":"ce4bgih2rcd13ifvqba0","pricing_plan_id":"free"},{"bike_id":"fcc82aad-7733-4bbd-94f4-35637dfc1830","system_id":"levelo_inurba_marseille","lat":43.29529,"lon":5.385581,"is_reserved":false,"is_disabled":false,"rental_uris":{"android":"levelo://app?vid=fcc82aad-7733-4bbd-94f4-35637dfc1830","ios":"levelo://app?vid=fcc82aad-7733-4bbd-94f4-35637dfc1830"},"vehicle_type_id":"4","last_reported":1702418792,"current_range_meters":26000,"station_id":"ce4bgih2rcd13ifvqba0","pricing_plan_id":"free"},{"bike_id":"fee78461-23d7-48dc-8810-c3b8e393e033","system_id":"levelo_inurba_marseille","lat":43.289184,"lon":5.366408,"is_reserved":false,"is_disabled":false,"rental_uris":{"android":"levelo://app?vid=fee78461-23d7-48dc-8810-c3b8e393e033","ios":"levelo://app?vid=fee78461-23d7-48dc-8810-c3b8e393e033"},"vehicle_type_id":"4","last_reported":1702418792,"current_range_meters":20400,"station_id":"ce4bhap2rcd13ifvqek0","pricing_plan_id":"free"},{"bike_id":"dc52a2d0-ff5a-40bb-b482-bf367da51b96","system_id":"levelo_inurba_marseille","lat":43.304274,"lon":5.397513,"is_reserved":false,"is_disabled":false,"rental_uris":{"android":"levelo://app?vid=dc52a2d0-ff5a-40bb-b482-bf367da51b96","ios":"levelo://app?vid=dc52a2d0-ff5a-40bb-b482-bf367da51b96"},"vehicle_type_id":"4","last_reported":1702418792,"current_range_meters":12000,"station_id":"ce4bh092rcd13ifvqd20","pricing_plan_id":"free"},{"bike_id":"90212e5a-f930-4ba5-ad39-37ea8f52571a","system_id":"levelo_inurba_marseille","lat":43.330442,"lon":5.389148,"is_reserved":false,"is_disabled":false,"rental_uris":{"android":"levelo://app?vid=90212e5a-f930-4ba5-ad39-37ea8f52571a","ios":"levelo://app?vid=90212e5a-f930-4ba5-ad39-37ea8f52571a"},"vehicle_type_id":"4","last_reported":1702418792,"current_range_meters":24800,"station_id":"ce4bhr92rcd13ifvqhrg","pricing_plan_id":"free"},{"bike_id":"b759538c-75fc-4ccb-9b73-2031bf78f0fa","system_id":"levelo_inurba_marseille","lat":43.330375,"lon":5.389256,"is_reserved":false,"is_disabled":false,"rental_uris":{"android":"levelo://app?vid=b759538c-75fc-4ccb-9b73-2031bf78f0fa","ios":"levelo://app?vid=b759538c-75fc-4ccb-9b73-2031bf78f0fa"},"vehicle_type_id":"4","last_reported":1702418792,"current_range_meters":16800,"station_id":"ce4bhr92rcd13ifvqhrg","pricing_plan_id":"free"},{"bike_id":"62e94a04-2220-4204-a03b-cf7d6d909360","system_id":"levelo_inurba_marseille","lat":43.330442,"lon":5.389148,"is_reserved":false,"is_disabled":false,"rental_uris":{"android":"levelo://app?vid=62e94a04-2220-4204-a03b-cf7d6d909360","ios":"levelo://app?vid=62e94a04-2220-4204-a03b-cf7d6d909360"},"vehicle_type_id":"4","last_reported":1702418792,"current_range_meters":30400,"station_id":"ce4bhr92rcd13ifvqhrg","pricing_plan_id":"free"},{"bike_id":"60aa5299-c1d2-4dd8-9687-ba41d6871f63","system_id":"levelo_inurba_marseille","lat":43.28999,"lon":5.3561,"is_reserved":false,"is_disabled":false,"rental_uris":{"android":"levelo://app?vid=60aa5299-c1d2-4dd8-9687-ba41d6871f63","ios":"levelo://app?vid=60aa5299-c1d2-4dd8-9687-ba41d6871f63"},"vehicle_type_id":"4","last_reported":1702418792,"current_range_meters":28800,"station_id":"ce4bhb92rcd13ifvqen0","pricing_plan_id":"free"},{"bike_id":"bfee4159-10cb-4e00-90aa-274e22a4b2d8","system_id":"levelo_inurba_marseille","lat":43.29788,"lon":5.39344,"is_reserved":false,"is_disabled":false,"rental_uris":{"android":"levelo://app?vid=bfee4159-10cb-4e00-90aa-274e22a4b2d8","ios":"levelo://app?vid=bfee4159-10cb-4e00-90aa-274e22a4b2d8"},"vehicle_type_id":"4","last_reported":1702418792,"current_range_meters":15600,"station_id":"chh1huq6cuj3fo74tm60","pricing_plan_id":"free"},{"bike_id":"30e4265b-1f93-43b1-b83b-65f8a98543ae","system_id":"levelo_inurba_marseille","lat":43.29789,"lon":5.39351,"is_reserved":false,"is_disabled":false,"rental_uris":{"android":"levelo://app?vid=30e4265b-1f93-43b1-b83b-65f8a98543ae","ios":"levelo://app?vid=30e4265b-1f93-43b1-b83b-65f8a98543ae"},"vehicle_type_id":"4","last_reported":1702418792,"current_range_meters":21600,"station_id":"chh1huq6cuj3fo74tm60","pricing_plan_id":"free"},{"bike_id":"7207e72d-3c90-47a0-9f4e-99e7fb6b93a7","system_id":"levelo_inurba_marseille","lat":43.30642,"lon":5.401031,"is_reserved":false,"is_disabled":false,"rental_uris":{"android":"levelo://app?vid=7207e72d-3c90-47a0-9f4e-99e7fb6b93a7","ios":"levelo://app?vid=7207e72d-3c90-47a0-9f4e-99e7fb6b93a7"},"vehicle_type_id":"4","last_reported":1702418792,"current_range_meters":2000,"station_id":"ce4bh112rcd13ifvqda0","pricing_plan_id":"free"},{"bike_id":"67a71298-f781-4402-8d03-cdb5dd11acae","system_id":"levelo_inurba_marseille","lat":43.337423,"lon":5.374553,"is_reserved":false,"is_disabled":false,"rental_uris":{"android":"levelo://app?vid=67a71298-f781-4402-8d03-cdb5dd11acae","ios":"levelo://app?vid=67a71298-f781-4402-8d03-cdb5dd11acae"},"vehicle_type_id":"4","last_reported":1702418792,"current_range_meters":27200,"station_id":"","pricing_plan_id":"free"},{"bike_id":"bc092485-62f5-4af1-ac94-9db91679554e","system_id":"levelo_inurba_marseille","lat":43.309371,"lon":5.401449,"is_reserved":false,"is_disabled":false,"rental_uris":{"android":"levelo://app?vid=bc092485-62f5-4af1-ac94-9db91679554e","ios":"levelo://app?vid=bc092485-62f5-4af1-ac94-9db91679554e"},"vehicle_type_id":"4","last_reported":1702418792,"current_range_meters":25200,"station_id":"ce4bgvp2rcd13ifvqct0","pricing_plan_id":"free"},{"bike_id":"e87ce577-db1a-4168-8945-5d6bf99737f3","system_id":"levelo_inurba_marseille","lat":43.337687,"lon":5.374412,"is_reserved":false,"is_disabled":false,"rental_uris":{"android":"levelo://app?vid=e87ce577-db1a-4168-8945-5d6bf99737f3","ios":"levelo://app?vid=e87ce577-db1a-4168-8945-5d6bf99737f3"},"vehicle_type_id":"4","last_reported":1702418792,"current_range_meters":12800,"station_id":"","pricing_plan_id":"free"},{"bike_id":"709bebcd-7a96-4a30-894a-152bbb656aa7","system_id":"levelo_inurba_marseille","lat":43.33766,"lon":5.3747,"is_reserved":false,"is_disabled":false,"rental_uris":{"android":"levelo://app?vid=709bebcd-7a96-4a30-894a-152bbb656aa7","ios":"levelo://app?vid=709bebcd-7a96-4a30-894a-152bbb656aa7"},"vehicle_type_id":"4","last_reported":1702418792,"current_range_meters":18800,"station_id":"","pricing_plan_id":"free"},{"bike_id":"09f4979f-1abc-4aba-8fcd-efdec77dd2da","system_id":"levelo_inurba_marseille","lat":43.30642,"lon":5.401031,"is_reserved":false,"is_disabled":false,"rental_uris":{"android":"levelo://app?vid=09f4979f-1abc-4aba-8fcd-efdec77dd2da","ios":"levelo://app?vid=09f4979f-1abc-4aba-8fcd-efdec77dd2da"},"vehicle_type_id":"4","last_reported":1702418792,"current_range_meters":3600,"station_id":"ce4bh112rcd13ifvqda0","pricing_plan_id":"free"},{"bike_id":"e113e230-c3c3-49ea-a0f2-bad2a945b9f8","system_id":"levelo_inurba_marseille","lat":43.33771,"lon":5.37472,"is_reserved":false,"is_disabled":false,"rental_uris":{"android":"levelo://app?vid=e113e230-c3c3-49ea-a0f2-bad2a945b9f8","ios":"levelo://app?vid=e113e230-c3c3-49ea-a0f2-bad2a945b9f8"},"vehicle_type_id":"4","last_reported":1702418792,"current_range_meters":0,"station_id":"","pricing_plan_id":"free"},{"bike_id":"82b6bf74-a8ca-43a2-9479-e2618fb20f11","system_id":"levelo_inurba_marseille","lat":43.284534,"lon":5.358662,"is_reserved":false,"is_disabled":false,"rental_uris":{"android":"levelo://app?vid=82b6bf74-a8ca-43a2-9479-e2618fb20f11","ios":"levelo://app?vid=82b6bf74-a8ca-43a2-9479-e2618fb20f11"},"vehicle_type_id":"4","last_reported":1702418792,"current_range_meters":15200,"station_id":"ce4bhah2rcd13ifvqei0","pricing_plan_id":"free"},{"bike_id":"f0da7330-9448-478e-8c77-f1ebad0acf95","system_id":"levelo_inurba_marseille","lat":43.28727,"lon":5.36078,"is_reserved":false,"is_disabled":false,"rental_uris":{"android":"levelo://app?vid=f0da7330-9448-478e-8c77-f1ebad0acf95","ios":"levelo://app?vid=f0da7330-9448-478e-8c77-f1ebad0acf95"},"vehicle_type_id":"4","last_reported":1702418792,"current_range_meters":13600,"station_id":"cki0cbj6b192h4jlfktg","pricing_plan_id":"free"},{"bike_id":"b788ecba-a91e-4ca6-8c34-76390d8de48b","system_id":"levelo_inurba_marseille","lat":43.28727,"lon":5.36078,"is_reserved":false,"is_disabled":false,"rental_uris":{"android":"levelo://app?vid=b788ecba-a91e-4ca6-8c34-76390d8de48b","ios":"levelo://app?vid=b788ecba-a91e-4ca6-8c34-76390d8de48b"},"vehicle_type_id":"4","last_reported":1702418792,"current_range_meters":30400,"station_id":"cki0cbj6b192h4jlfktg","pricing_plan_id":"free"},{"bike_id":"e1d25342-f2cc-439d-8ae5-2c3d3b7b9958","system_id":"levelo_inurba_marseille","lat":43.28727,"lon":5.36078,"is_reserved":false,"is_disabled":false,"rental_uris":{"android":"levelo://app?vid=e1d25342-f2cc-439d-8ae5-2c3d3b7b9958","ios":"levelo://app?vid=e1d25342-f2cc-439d-8ae5-2c3d3b7b9958"},"vehicle_type_id":"4","last_reported":1702418792,"current_range_meters":400,"station_id":"cki0cbj6b192h4jlfktg","pricing_plan_id":"free"},{"bike_id":"44ba2703-0cc8-464a-906a-58da3c3fa20b","system_id":"levelo_inurba_marseille","lat":43.286593,"lon":5.363346,"is_reserved":false,"is_disabled":false,"rental_uris":{"android":"levelo://app?vid=44ba2703-0cc8-464a-906a-58da3c3fa20b","ios":"levelo://app?vid=44ba2703-0cc8-464a-906a-58da3c3fa20b"},"vehicle_type_id":"4","last_reported":1702418792,"current_range_meters":30800,"station_id":"ce4bhah2rcd13ifvqej0","pricing_plan_id":"free"},{"bike_id":"dfb5e464-9786-4a5b-9755-16245de572b3","system_id":"levelo_inurba_marseille","lat":43.286961,"lon":5.373785,"is_reserved":false,"is_disabled":false,"rental_uris":{"android":"levelo://app?vid=dfb5e464-9786-4a5b-9755-16245de572b3","ios":"levelo://app?vid=dfb5e464-9786-4a5b-9755-16245de572b3"},"vehicle_type_id":"4","last_reported":1702418792,"current_range_meters":16000,"station_id":"ce4bh3p2rcd13ifvqdq0","pricing_plan_id":"free"},{"bike_id":"322a53c4-cc1e-4a22-a671-1265027cdfb0","system_id":"levelo_inurba_marseille","lat":43.286593,"lon":5.363346,"is_reserved":false,"is_disabled":false,"rental_uris":{"android":"levelo://app?vid=322a53c4-cc1e-4a22-a671-1265027cdfb0","ios":"levelo://app?vid=322a53c4-cc1e-4a22-a671-1265027cdfb0"},"vehicle_type_id":"4","last_reported":1702418792,"current_range_meters":31200,"station_id":"ce4bhah2rcd13ifvqej0","pricing_plan_id":"free"},{"bike_id":"a6e9f8f2-2719-4e80-bee6-3cd7275820de","system_id":"levelo_inurba_marseille","lat":43.298681,"lon":5.397225,"is_reserved":false,"is_disabled":false,"rental_uris":{"android":"levelo://app?vid=a6e9f8f2-2719-4e80-bee6-3cd7275820de","ios":"levelo://app?vid=a6e9f8f2-2719-4e80-bee6-3cd7275820de"},"vehicle_type_id":"4","last_reported":1702418792,"current_range_meters":24800,"station_id":"ce4bh0h2rcd13ifvqd50","pricing_plan_id":"free"},{"bike_id":"2fddd81a-2378-4a5c-8dcf-34ac1ede1a84","system_id":"levelo_inurba_marseille","lat":43.298681,"lon":5.397225,"is_reserved":false,"is_disabled":false,"rental_uris":{"android":"levelo://app?vid=2fddd81a-2378-4a5c-8dcf-34ac1ede1a84","ios":"levelo://app?vid=2fddd81a-2378-4a5c-8dcf-34ac1ede1a84"},"vehicle_type_id":"4","last_reported":1702418792,"current_range_meters":28400,"station_id":"ce4bh0h2rcd13ifvqd50","pricing_plan_id":"free"},{"bike_id":"aa3dad3c-7be0-4247-b51a-3a6caec0bce3","system_id":"levelo_inurba_marseille","lat":43.302759,"lon":5.400793,"is_reserved":false,"is_disabled":false,"rental_uris":{"android":"levelo://app?vid=aa3dad3c-7be0-4247-b51a-3a6caec0bce3","ios":"levelo://app?vid=aa3dad3c-7be0-4247-b51a-3a6caec0bce3"},"vehicle_type_id":"4","last_reported":1702418792,"current_range_meters":5600,"station_id":"ce4bgvh2rcd13ifvqcs0","pricing_plan_id":"free"},{"bike_id":"52f46aa7-59fa-4e5e-b0e1-474daf64bcfa","system_id":"levelo_inurba_marseille","lat":43.302759,"lon":5.400793,"is_reserved":false,"is_disabled":false,"rental_uris":{"android":"levelo://app?vid=52f46aa7-59fa-4e5e-b0e1-474daf64bcfa","ios":"levelo://app?vid=52f46aa7-59fa-4e5e-b0e1-474daf64bcfa"},"vehicle_type_id":"4","last_reported":1702418792,"current_range_meters":400,"station_id":"ce4bgvh2rcd13ifvqcs0","pricing_plan_id":"free"},{"bike_id":"fb7f9f68-78db-4e95-b068-e2fd6e00ce7b","system_id":"levelo_inurba_marseille","lat":43.28921,"lon":5.384,"is_reserved":false,"is_disabled":false,"rental_uris":{"android":"levelo://app?vid=fb7f9f68-78db-4e95-b068-e2fd6e00ce7b","ios":"levelo://app?vid=fb7f9f68-78db-4e95-b068-e2fd6e00ce7b"},"vehicle_type_id":"4","last_reported":1702418792,"current_range_meters":0,"station_id":"ce4bh612rcd13ifvqe6g","pricing_plan_id":"free"},{"bike_id":"68aa0727-5ee5-460c-bfa2-5a1ee2853baa","system_id":"levelo_inurba_marseille","lat":43.290241,"lon":5.386458,"is_reserved":false,"is_disabled":false,"rental_uris":{"android":"levelo://app?vid=68aa0727-5ee5-460c-bfa2-5a1ee2853baa","ios":"levelo://app?vid=68aa0727-5ee5-460c-bfa2-5a1ee2853baa"},"vehicle_type_id":"4","last_reported":1702418792,"current_range_meters":0,"station_id":"ce4bh4p2rcd13ifvqe0g","pricing_plan_id":"free"},{"bike_id":"4b77080f-20a8-4cba-b4f5-20089a67377b","system_id":"levelo_inurba_marseille","lat":43.302759,"lon":5.400793,"is_reserved":false,"is_disabled":false,"rental_uris":{"android":"levelo://app?vid=4b77080f-20a8-4cba-b4f5-20089a67377b","ios":"levelo://app?vid=4b77080f-20a8-4cba-b4f5-20089a67377b"},"vehicle_type_id":"4","last_reported":1702418792,"current_range_meters":14400,"station_id":"ce4bgvh2rcd13ifvqcs0","pricing_plan_id":"free"},{"bike_id":"f0013a5c-508e-477c-b90f-6f197768185a","system_id":"levelo_inurba_marseille","lat":43.302759,"lon":5.400793,"is_reserved":false,"is_disabled":false,"rental_uris":{"android":"levelo://app?vid=f0013a5c-508e-477c-b90f-6f197768185a","ios":"levelo://app?vid=f0013a5c-508e-477c-b90f-6f197768185a"},"vehicle_type_id":"4","last_reported":1702418792,"current_range_meters":20800,"station_id":"ce4bgvh2rcd13ifvqcs0","pricing_plan_id":"free"},{"bike_id":"993a3689-6aad-4806-a8ee-1430526488f3","system_id":"levelo_inurba_marseille","lat":43.292053,"lon":5.39325,"is_reserved":false,"is_disabled":false,"rental_uris":{"android":"levelo://app?vid=993a3689-6aad-4806-a8ee-1430526488f3","ios":"levelo://app?vid=993a3689-6aad-4806-a8ee-1430526488f3"},"vehicle_type_id":"4","last_reported":1702418792,"current_range_meters":0,"station_id":"ce4bh192rcd13ifvqdd0","pricing_plan_id":"free"},{"bike_id":"1bb5b54d-1849-463d-a17a-6c3243dff5f0","system_id":"levelo_inurba_marseille","lat":43.323464,"lon":5.406297,"is_reserved":false,"is_disabled":false,"rental_uris":{"android":"levelo://app?vid=1bb5b54d-1849-463d-a17a-6c3243dff5f0","ios":"levelo://app?vid=1bb5b54d-1849-463d-a17a-6c3243dff5f0"},"vehicle_type_id":"4","last_reported":1702418792,"current_range_meters":21600,"station_id":"ce4bhq92rcd13ifvqhjg","pricing_plan_id":"free"},{"bike_id":"ace2f6e3-da3a-49b3-9b6a-90c11d9d5c63","system_id":"levelo_inurba_marseille","lat":43.284538,"lon":5.358657,"is_reserved":false,"is_disabled":false,"rental_uris":{"android":"levelo://app?vid=ace2f6e3-da3a-49b3-9b6a-90c11d9d5c63","ios":"levelo://app?vid=ace2f6e3-da3a-49b3-9b6a-90c11d9d5c63"},"vehicle_type_id":"4","last_reported":1702418792,"current_range_meters":16800,"station_id":"ce4bhah2rcd13ifvqei0","pricing_plan_id":"free"},{"bike_id":"b07ad7f1-0da1-4167-bbce-b8b36fba5cb3","system_id":"levelo_inurba_marseille","lat":43.284534,"lon":5.358662,"is_reserved":false,"is_disabled":false,"rental_uris":{"android":"levelo://app?vid=b07ad7f1-0da1-4167-bbce-b8b36fba5cb3","ios":"levelo://app?vid=b07ad7f1-0da1-4167-bbce-b8b36fba5cb3"},"vehicle_type_id":"4","last_reported":1702418792,"current_range_meters":31200,"station_id":"ce4bhah2rcd13ifvqei0","pricing_plan_id":"free"},{"bike_id":"c9c5ae30-311d-487f-bde8-988e82fc2d4f","system_id":"levelo_inurba_marseille","lat":43.284534,"lon":5.358662,"is_reserved":false,"is_disabled":false,"rental_uris":{"android":"levelo://app?vid=c9c5ae30-311d-487f-bde8-988e82fc2d4f","ios":"levelo://app?vid=c9c5ae30-311d-487f-bde8-988e82fc2d4f"},"vehicle_type_id":"4","last_reported":1702418792,"current_range_meters":31200,"station_id":"ce4bhah2rcd13ifvqei0","pricing_plan_id":"free"},{"bike_id":"0d5c8609-bb01-4d1f-bdf0-78bd91ea6593","system_id":"levelo_inurba_marseille","lat":43.284538,"lon":5.358657,"is_reserved":false,"is_disabled":false,"rental_uris":{"android":"levelo://app?vid=0d5c8609-bb01-4d1f-bdf0-78bd91ea6593","ios":"levelo://app?vid=0d5c8609-bb01-4d1f-bdf0-78bd91ea6593"},"vehicle_type_id":"4","last_reported":1702418792,"current_range_meters":20000,"station_id":"ce4bhah2rcd13ifvqei0","pricing_plan_id":"free"},{"bike_id":"ebcc1118-b3b9-45eb-b9f8-7456bed9b49f","system_id":"levelo_inurba_marseille","lat":43.284538,"lon":5.358657,"is_reserved":false,"is_disabled":false,"rental_uris":{"android":"levelo://app?vid=ebcc1118-b3b9-45eb-b9f8-7456bed9b49f","ios":"levelo://app?vid=ebcc1118-b3b9-45eb-b9f8-7456bed9b49f"},"vehicle_type_id":"4","last_reported":1702418792,"current_range_meters":13200,"station_id":"ce4bhah2rcd13ifvqei0","pricing_plan_id":"free"},{"bike_id":"cc4cbcc3-4e48-4685-a76e-b27f9845174b","system_id":"levelo_inurba_marseille","lat":43.284538,"lon":5.358657,"is_reserved":false,"is_disabled":false,"rental_uris":{"android":"levelo://app?vid=cc4cbcc3-4e48-4685-a76e-b27f9845174b","ios":"levelo://app?vid=cc4cbcc3-4e48-4685-a76e-b27f9845174b"},"vehicle_type_id":"4","last_reported":1702418792,"current_range_meters":19200,"station_id":"ce4bhah2rcd13ifvqei0","pricing_plan_id":"free"},{"bike_id":"f9e78213-6b52-42ac-8b27-c72d0754bdcc","system_id":"levelo_inurba_marseille","lat":43.284538,"lon":5.358657,"is_reserved":false,"is_disabled":false,"rental_uris":{"android":"levelo://app?vid=f9e78213-6b52-42ac-8b27-c72d0754bdcc","ios":"levelo://app?vid=f9e78213-6b52-42ac-8b27-c72d0754bdcc"},"vehicle_type_id":"4","last_reported":1702418792,"current_range_meters":27200,"station_id":"ce4bhah2rcd13ifvqei0","pricing_plan_id":"free"},{"bike_id":"6814ec46-eebe-48dd-8818-d96aa14a2a19","system_id":"levelo_inurba_marseille","lat":43.284538,"lon":5.358657,"is_reserved":false,"is_disabled":false,"rental_uris":{"android":"levelo://app?vid=6814ec46-eebe-48dd-8818-d96aa14a2a19","ios":"levelo://app?vid=6814ec46-eebe-48dd-8818-d96aa14a2a19"},"vehicle_type_id":"4","last_reported":1702418792,"current_range_meters":28000,"station_id":"ce4bhah2rcd13ifvqei0","pricing_plan_id":"free"},{"bike_id":"230db383-e6ae-46e1-a0d2-8ff3a3a4cff4","system_id":"levelo_inurba_marseille","lat":43.284534,"lon":5.358662,"is_reserved":false,"is_disabled":false,"rental_uris":{"android":"levelo://app?vid=230db383-e6ae-46e1-a0d2-8ff3a3a4cff4","ios":"levelo://app?vid=230db383-e6ae-46e1-a0d2-8ff3a3a4cff4"},"vehicle_type_id":"4","last_reported":1702418792,"current_range_meters":30800,"station_id":"ce4bhah2rcd13ifvqei0","pricing_plan_id":"free"},{"bike_id":"c0423800-d64a-42fc-a9ff-75b2fa178351","system_id":"levelo_inurba_marseille","lat":43.284534,"lon":5.358662,"is_reserved":false,"is_disabled":false,"rental_uris":{"android":"levelo://app?vid=c0423800-d64a-42fc-a9ff-75b2fa178351","ios":"levelo://app?vid=c0423800-d64a-42fc-a9ff-75b2fa178351"},"vehicle_type_id":"4","last_reported":1702418792,"current_range_meters":22400,"station_id":"ce4bhah2rcd13ifvqei0","pricing_plan_id":"free"},{"bike_id":"87316f12-c969-481c-9750-2fec17be1e6a","system_id":"levelo_inurba_marseille","lat":43.283998,"lon":5.375062,"is_reserved":false,"is_disabled":false,"rental_uris":{"android":"levelo://app?vid=87316f12-c969-481c-9750-2fec17be1e6a","ios":"levelo://app?vid=87316f12-c969-481c-9750-2fec17be1e6a"},"vehicle_type_id":"4","last_reported":1702418792,"current_range_meters":23600,"station_id":"ce4bh412rcd13ifvqds0","pricing_plan_id":"free"},{"bike_id":"e502510c-d346-48aa-ba3d-395600ac7571","system_id":"levelo_inurba_marseille","lat":43.319179,"lon":5.407725,"is_reserved":false,"is_disabled":false,"rental_uris":{"android":"levelo://app?vid=e502510c-d346-48aa-ba3d-395600ac7571","ios":"levelo://app?vid=e502510c-d346-48aa-ba3d-395600ac7571"},"vehicle_type_id":"4","last_reported":1702418792,"current_range_meters":22400,"station_id":"ce4bhq12rcd13ifvqhig","pricing_plan_id":"free"},{"bike_id":"ebad2cc8-d05d-49b2-b14c-a952a5f308a1","system_id":"levelo_inurba_marseille","lat":43.30371,"lon":5.40645,"is_reserved":false,"is_disabled":false,"rental_uris":{"android":"levelo://app?vid=ebad2cc8-d05d-49b2-b14c-a952a5f308a1","ios":"levelo://app?vid=ebad2cc8-d05d-49b2-b14c-a952a5f308a1"},"vehicle_type_id":"4","last_reported":1702418792,"current_range_meters":20000,"station_id":"","pricing_plan_id":"free"},{"bike_id":"cf7ca54e-9bb8-433e-bc71-ca5915cdee40","system_id":"levelo_inurba_marseille","lat":43.323464,"lon":5.406297,"is_reserved":false,"is_disabled":false,"rental_uris":{"android":"levelo://app?vid=cf7ca54e-9bb8-433e-bc71-ca5915cdee40","ios":"levelo://app?vid=cf7ca54e-9bb8-433e-bc71-ca5915cdee40"},"vehicle_type_id":"4","last_reported":1702418792,"current_range_meters":30400,"station_id":"ce4bhq92rcd13ifvqhjg","pricing_plan_id":"free"},{"bike_id":"a49c5c64-bff0-47bf-af2c-aa258506df4f","system_id":"levelo_inurba_marseille","lat":43.323464,"lon":5.406297,"is_reserved":false,"is_disabled":false,"rental_uris":{"android":"levelo://app?vid=a49c5c64-bff0-47bf-af2c-aa258506df4f","ios":"levelo://app?vid=a49c5c64-bff0-47bf-af2c-aa258506df4f"},"vehicle_type_id":"4","last_reported":1702418792,"current_range_meters":31200,"station_id":"ce4bhq92rcd13ifvqhjg","pricing_plan_id":"free"},{"bike_id":"387644c3-5109-49f9-867c-b6187f8c7043","system_id":"levelo_inurba_marseille","lat":43.323464,"lon":5.406297,"is_reserved":false,"is_disabled":false,"rental_uris":{"android":"levelo://app?vid=387644c3-5109-49f9-867c-b6187f8c7043","ios":"levelo://app?vid=387644c3-5109-49f9-867c-b6187f8c7043"},"vehicle_type_id":"4","last_reported":1702418792,"current_range_meters":29200,"station_id":"ce4bhq92rcd13ifvqhjg","pricing_plan_id":"free"},{"bike_id":"77dc3e90-46f8-492d-a91a-52a49399b398","system_id":"levelo_inurba_marseille","lat":43.323464,"lon":5.406297,"is_reserved":false,"is_disabled":false,"rental_uris":{"android":"levelo://app?vid=77dc3e90-46f8-492d-a91a-52a49399b398","ios":"levelo://app?vid=77dc3e90-46f8-492d-a91a-52a49399b398"},"vehicle_type_id":"4","last_reported":1702418792,"current_range_meters":0,"station_id":"ce4bhq92rcd13ifvqhjg","pricing_plan_id":"free"},{"bike_id":"53c7e68c-29ce-4dca-8470-131fdf98054e","system_id":"levelo_inurba_marseille","lat":43.323464,"lon":5.406297,"is_reserved":false,"is_disabled":false,"rental_uris":{"android":"levelo://app?vid=53c7e68c-29ce-4dca-8470-131fdf98054e","ios":"levelo://app?vid=53c7e68c-29ce-4dca-8470-131fdf98054e"},"vehicle_type_id":"4","last_reported":1702418792,"current_range_meters":4400,"station_id":"ce4bhq92rcd13ifvqhjg","pricing_plan_id":"free"},{"bike_id":"a5662874-899f-4699-a4a3-5bcaf10842a3","system_id":"levelo_inurba_marseille","lat":43.297946,"lon":5.404063,"is_reserved":false,"is_disabled":false,"rental_uris":{"android":"levelo://app?vid=a5662874-899f-4699-a4a3-5bcaf10842a3","ios":"levelo://app?vid=a5662874-899f-4699-a4a3-5bcaf10842a3"},"vehicle_type_id":"4","last_reported":1702418792,"current_range_meters":28400,"station_id":"ce4bh112rcd13ifvqd90","pricing_plan_id":"free"},{"bike_id":"2931331c-7f33-41f0-b26c-61e107adc9dd","system_id":"levelo_inurba_marseille","lat":43.284217,"lon":5.349697,"is_reserved":false,"is_disabled":false,"rental_uris":{"android":"levelo://app?vid=2931331c-7f33-41f0-b26c-61e107adc9dd","ios":"levelo://app?vid=2931331c-7f33-41f0-b26c-61e107adc9dd"},"vehicle_type_id":"4","last_reported":1702418792,"current_range_meters":26000,"station_id":"ce4bhbh2rcd13ifvqepg","pricing_plan_id":"free"},{"bike_id":"9f7f658c-a681-4447-b6d0-9cda8100a8c9","system_id":"levelo_inurba_marseille","lat":43.28939,"lon":5.39632,"is_reserved":false,"is_disabled":false,"rental_uris":{"android":"levelo://app?vid=9f7f658c-a681-4447-b6d0-9cda8100a8c9","ios":"levelo://app?vid=9f7f658c-a681-4447-b6d0-9cda8100a8c9"},"vehicle_type_id":"4","last_reported":1702418792,"current_range_meters":23600,"station_id":"ce4bh3h2rcd13ifvqdn0","pricing_plan_id":"free"},{"bike_id":"b39ed7b4-6d26-48d5-8125-cc589db88148","system_id":"levelo_inurba_marseille","lat":43.292724,"lon":5.401131,"is_reserved":false,"is_disabled":false,"rental_uris":{"android":"levelo://app?vid=b39ed7b4-6d26-48d5-8125-cc589db88148","ios":"levelo://app?vid=b39ed7b4-6d26-48d5-8125-cc589db88148"},"vehicle_type_id":"4","last_reported":1702418792,"current_range_meters":12000,"station_id":"ce4bh312rcd13ifvqdk0","pricing_plan_id":"free"},{"bike_id":"299863cc-d276-4b53-83fb-e45aadc08d1e","system_id":"levelo_inurba_marseille","lat":43.283502,"lon":5.386471,"is_reserved":false,"is_disabled":false,"rental_uris":{"android":"levelo://app?vid=299863cc-d276-4b53-83fb-e45aadc08d1e","ios":"levelo://app?vid=299863cc-d276-4b53-83fb-e45aadc08d1e"},"vehicle_type_id":"4","last_reported":1702418792,"current_range_meters":24000,"station_id":"ce4bh492rcd13ifvqdvg","pricing_plan_id":"free"},{"bike_id":"37d6cc14-8447-4ddc-9d0c-1dbef6bfd9e4","system_id":"levelo_inurba_marseille","lat":43.282754,"lon":5.350519,"is_reserved":false,"is_disabled":false,"rental_uris":{"android":"levelo://app?vid=37d6cc14-8447-4ddc-9d0c-1dbef6bfd9e4","ios":"levelo://app?vid=37d6cc14-8447-4ddc-9d0c-1dbef6bfd9e4"},"vehicle_type_id":"4","last_reported":1702418792,"current_range_meters":25200,"station_id":"ce4bhbp2rcd13ifvqerg","pricing_plan_id":"free"},{"bike_id":"d510e26c-9a37-4d0d-adb0-3c8b8c7f9e70","system_id":"levelo_inurba_marseille","lat":43.282744,"lon":5.350533,"is_reserved":false,"is_disabled":false,"rental_uris":{"android":"levelo://app?vid=d510e26c-9a37-4d0d-adb0-3c8b8c7f9e70","ios":"levelo://app?vid=d510e26c-9a37-4d0d-adb0-3c8b8c7f9e70"},"vehicle_type_id":"4","last_reported":1702418792,"current_range_meters":30800,"station_id":"ce4bhbp2rcd13ifvqerg","pricing_plan_id":"free"},{"bike_id":"62cfb8d1-1b28-4848-a4f8-45d559b3ac4b","system_id":"levelo_inurba_marseille","lat":43.280424,"lon":5.369492,"is_reserved":false,"is_disabled":false,"rental_uris":{"android":"levelo://app?vid=62cfb8d1-1b28-4848-a4f8-45d559b3ac4b","ios":"levelo://app?vid=62cfb8d1-1b28-4848-a4f8-45d559b3ac4b"},"vehicle_type_id":"4","last_reported":1702418792,"current_range_meters":29600,"station_id":"ce4bha12rcd13ifvqef0","pricing_plan_id":"free"},{"bike_id":"3835d326-5a9f-480b-aac3-17abfdac3aed","system_id":"levelo_inurba_marseille","lat":43.280382,"lon":5.369291,"is_reserved":false,"is_disabled":false,"rental_uris":{"android":"levelo://app?vid=3835d326-5a9f-480b-aac3-17abfdac3aed","ios":"levelo://app?vid=3835d326-5a9f-480b-aac3-17abfdac3aed"},"vehicle_type_id":"4","last_reported":1702418792,"current_range_meters":27200,"station_id":"ce4bha12rcd13ifvqef0","pricing_plan_id":"free"},{"bike_id":"af0631cd-ba31-474c-9e7e-6b0fa8ba9b9e","system_id":"levelo_inurba_marseille","lat":43.28039,"lon":5.369297,"is_reserved":false,"is_disabled":false,"rental_uris":{"android":"levelo://app?vid=af0631cd-ba31-474c-9e7e-6b0fa8ba9b9e","ios":"levelo://app?vid=af0631cd-ba31-474c-9e7e-6b0fa8ba9b9e"},"vehicle_type_id":"4","last_reported":1702418792,"current_range_meters":14400,"station_id":"ce4bha12rcd13ifvqef0","pricing_plan_id":"free"},{"bike_id":"a3b46d41-b3b3-40e3-8a06-2b35aeaba061","system_id":"levelo_inurba_marseille","lat":43.29041,"lon":5.399634,"is_reserved":false,"is_disabled":false,"rental_uris":{"android":"levelo://app?vid=a3b46d41-b3b3-40e3-8a06-2b35aeaba061","ios":"levelo://app?vid=a3b46d41-b3b3-40e3-8a06-2b35aeaba061"},"vehicle_type_id":"4","last_reported":1702418792,"current_range_meters":2400,"station_id":"ce4bh392rcd13ifvqdm0","pricing_plan_id":"free"},{"bike_id":"fe861b4a-d36f-4bc0-ae0c-5657f20ff9a8","system_id":"levelo_inurba_marseille","lat":43.296263,"lon":5.40601,"is_reserved":false,"is_disabled":false,"rental_uris":{"android":"levelo://app?vid=fe861b4a-d36f-4bc0-ae0c-5657f20ff9a8","ios":"levelo://app?vid=fe861b4a-d36f-4bc0-ae0c-5657f20ff9a8"},"vehicle_type_id":"4","last_reported":1702418792,"current_range_meters":5200,"station_id":"ce4bh0h2rcd13ifvqd60","pricing_plan_id":"free"},{"bike_id":"7f851180-ab1c-4027-b43e-91f0c037d59d","system_id":"levelo_inurba_marseille","lat":43.285742,"lon":5.395004,"is_reserved":false,"is_disabled":false,"rental_uris":{"android":"levelo://app?vid=7f851180-ab1c-4027-b43e-91f0c037d59d","ios":"levelo://app?vid=7f851180-ab1c-4027-b43e-91f0c037d59d"},"vehicle_type_id":"4","last_reported":1702418792,"current_range_meters":16400,"station_id":"ce4bh292rcd13ifvqdg0","pricing_plan_id":"free"},{"bike_id":"8284e565-c710-487b-a661-5680f880d33d","system_id":"levelo_inurba_marseille","lat":43.285742,"lon":5.395004,"is_reserved":false,"is_disabled":false,"rental_uris":{"android":"levelo://app?vid=8284e565-c710-487b-a661-5680f880d33d","ios":"levelo://app?vid=8284e565-c710-487b-a661-5680f880d33d"},"vehicle_type_id":"4","last_reported":1702418792,"current_range_meters":5600,"station_id":"ce4bh292rcd13ifvqdg0","pricing_plan_id":"free"},{"bike_id":"86289d51-7d85-4546-98f4-64f34071095a","system_id":"levelo_inurba_marseille","lat":43.285742,"lon":5.395004,"is_reserved":false,"is_disabled":false,"rental_uris":{"android":"levelo://app?vid=86289d51-7d85-4546-98f4-64f34071095a","ios":"levelo://app?vid=86289d51-7d85-4546-98f4-64f34071095a"},"vehicle_type_id":"4","last_reported":1702418792,"current_range_meters":8400,"station_id":"ce4bh292rcd13ifvqdg0","pricing_plan_id":"free"},{"bike_id":"e21ef52f-fc74-4e55-8fa5-2e4068d1c8ad","system_id":"levelo_inurba_marseille","lat":43.326605,"lon":5.409903,"is_reserved":false,"is_disabled":false,"rental_uris":{"android":"levelo://app?vid=e21ef52f-fc74-4e55-8fa5-2e4068d1c8ad","ios":"levelo://app?vid=e21ef52f-fc74-4e55-8fa5-2e4068d1c8ad"},"vehicle_type_id":"4","last_reported":1702418792,"current_range_meters":26800,"station_id":"ce4bhpp2rcd13ifvqhgg","pricing_plan_id":"free"},{"bike_id":"fc32c08d-0d03-4842-8c56-8c91b99f9e8d","system_id":"levelo_inurba_marseille","lat":43.326605,"lon":5.409903,"is_reserved":false,"is_disabled":false,"rental_uris":{"android":"levelo://app?vid=fc32c08d-0d03-4842-8c56-8c91b99f9e8d","ios":"levelo://app?vid=fc32c08d-0d03-4842-8c56-8c91b99f9e8d"},"vehicle_type_id":"4","last_reported":1702418792,"current_range_meters":25200,"station_id":"ce4bhpp2rcd13ifvqhgg","pricing_plan_id":"free"},{"bike_id":"aa696b50-ef7f-4e76-baad-1d20cd652501","system_id":"levelo_inurba_marseille","lat":43.304188,"lon":5.412904,"is_reserved":false,"is_disabled":false,"rental_uris":{"android":"levelo://app?vid=aa696b50-ef7f-4e76-baad-1d20cd652501","ios":"levelo://app?vid=aa696b50-ef7f-4e76-baad-1d20cd652501"},"vehicle_type_id":"4","last_reported":1702418792,"current_range_meters":23600,"station_id":"ce4bhop2rcd13ifvqh8g","pricing_plan_id":"free"},{"bike_id":"ee02f573-f762-4a29-a109-b0bc1fa953ba","system_id":"levelo_inurba_marseille","lat":43.287154,"lon":5.399979,"is_reserved":false,"is_disabled":false,"rental_uris":{"android":"levelo://app?vid=ee02f573-f762-4a29-a109-b0bc1fa953ba","ios":"levelo://app?vid=ee02f573-f762-4a29-a109-b0bc1fa953ba"},"vehicle_type_id":"4","last_reported":1702418792,"current_range_meters":27600,"station_id":"ce4bho92rcd13ifvqh3g","pricing_plan_id":"free"},{"bike_id":"79c1f618-80d3-4ca3-9724-b954195176e1","system_id":"levelo_inurba_marseille","lat":43.287154,"lon":5.399979,"is_reserved":false,"is_disabled":false,"rental_uris":{"android":"levelo://app?vid=79c1f618-80d3-4ca3-9724-b954195176e1","ios":"levelo://app?vid=79c1f618-80d3-4ca3-9724-b954195176e1"},"vehicle_type_id":"4","last_reported":1702418792,"current_range_meters":31600,"station_id":"ce4bho92rcd13ifvqh3g","pricing_plan_id":"free"},{"bike_id":"a41bafa4-04be-4d39-82be-abddb387000a","system_id":"levelo_inurba_marseille","lat":43.287154,"lon":5.399979,"is_reserved":false,"is_disabled":false,"rental_uris":{"android":"levelo://app?vid=a41bafa4-04be-4d39-82be-abddb387000a","ios":"levelo://app?vid=a41bafa4-04be-4d39-82be-abddb387000a"},"vehicle_type_id":"4","last_reported":1702418792,"current_range_meters":24000,"station_id":"ce4bho92rcd13ifvqh3g","pricing_plan_id":"free"},{"bike_id":"64e53a61-592c-4819-867a-f3d4542cb331","system_id":"levelo_inurba_marseille","lat":43.287154,"lon":5.399979,"is_reserved":false,"is_disabled":false,"rental_uris":{"android":"levelo://app?vid=64e53a61-592c-4819-867a-f3d4542cb331","ios":"levelo://app?vid=64e53a61-592c-4819-867a-f3d4542cb331"},"vehicle_type_id":"4","last_reported":1702418792,"current_range_meters":10800,"station_id":"ce4bho92rcd13ifvqh3g","pricing_plan_id":"free"},{"bike_id":"8da89dca-2eca-4772-89cb-5103c93c0f4d","system_id":"levelo_inurba_marseille","lat":43.279087,"lon":5.380114,"is_reserved":false,"is_disabled":false,"rental_uris":{"android":"levelo://app?vid=8da89dca-2eca-4772-89cb-5103c93c0f4d","ios":"levelo://app?vid=8da89dca-2eca-4772-89cb-5103c93c0f4d"},"vehicle_type_id":"4","last_reported":1702418792,"current_range_meters":12800,"station_id":"ce4bhf92rcd13ifvqf50","pricing_plan_id":"free"},{"bike_id":"482c09ff-c58d-455c-a6bc-b8e9c7ca0fce","system_id":"levelo_inurba_marseille","lat":43.320045,"lon":5.415048,"is_reserved":false,"is_disabled":false,"rental_uris":{"android":"levelo://app?vid=482c09ff-c58d-455c-a6bc-b8e9c7ca0fce","ios":"levelo://app?vid=482c09ff-c58d-455c-a6bc-b8e9c7ca0fce"},"vehicle_type_id":"4","last_reported":1702418792,"current_range_meters":24000,"station_id":"ce4bhq92rcd13ifvqhkg","pricing_plan_id":"free"},{"bike_id":"7c1792f3-ccc7-41ff-a04b-76ab6143be9a","system_id":"levelo_inurba_marseille","lat":43.279742,"lon":5.38744,"is_reserved":false,"is_disabled":false,"rental_uris":{"android":"levelo://app?vid=7c1792f3-ccc7-41ff-a04b-76ab6143be9a","ios":"levelo://app?vid=7c1792f3-ccc7-41ff-a04b-76ab6143be9a"},"vehicle_type_id":"4","last_reported":1702418792,"current_range_meters":6000,"station_id":"ce4bhg12rcd13ifvqf80","pricing_plan_id":"free"},{"bike_id":"01038564-94c8-41c0-a9df-2c98f3f4a9a9","system_id":"levelo_inurba_marseille","lat":43.292569,"lon":5.409107,"is_reserved":false,"is_disabled":false,"rental_uris":{"android":"levelo://app?vid=01038564-94c8-41c0-a9df-2c98f3f4a9a9","ios":"levelo://app?vid=01038564-94c8-41c0-a9df-2c98f3f4a9a9"},"vehicle_type_id":"4","last_reported":1702418792,"current_range_meters":11600,"station_id":"ce4bh192rcd13ifvqdc0","pricing_plan_id":"free"},{"bike_id":"dd25e155-3199-4e78-909d-c7fde2851763","system_id":"levelo_inurba_marseille","lat":43.292571,"lon":5.409107,"is_reserved":false,"is_disabled":false,"rental_uris":{"android":"levelo://app?vid=dd25e155-3199-4e78-909d-c7fde2851763","ios":"levelo://app?vid=dd25e155-3199-4e78-909d-c7fde2851763"},"vehicle_type_id":"4","last_reported":1702418792,"current_range_meters":27200,"station_id":"ce4bh192rcd13ifvqdc0","pricing_plan_id":"free"},{"bike_id":"6c58522e-ceac-401b-9b3f-91bf175acac3","system_id":"levelo_inurba_marseille","lat":43.292569,"lon":5.409107,"is_reserved":false,"is_disabled":false,"rental_uris":{"android":"levelo://app?vid=6c58522e-ceac-401b-9b3f-91bf175acac3","ios":"levelo://app?vid=6c58522e-ceac-401b-9b3f-91bf175acac3"},"vehicle_type_id":"4","last_reported":1702418792,"current_range_meters":12000,"station_id":"ce4bh192rcd13ifvqdc0","pricing_plan_id":"free"},{"bike_id":"271e8389-8ecb-44ed-84b0-0715784d7b6f","system_id":"levelo_inurba_marseille","lat":43.292571,"lon":5.409107,"is_reserved":false,"is_disabled":false,"rental_uris":{"android":"levelo://app?vid=271e8389-8ecb-44ed-84b0-0715784d7b6f","ios":"levelo://app?vid=271e8389-8ecb-44ed-84b0-0715784d7b6f"},"vehicle_type_id":"4","last_reported":1702418792,"current_range_meters":13600,"station_id":"ce4bh192rcd13ifvqdc0","pricing_plan_id":"free"},{"bike_id":"9907a690-021f-4a19-8f59-934a81d342b9","system_id":"levelo_inurba_marseille","lat":43.325243,"lon":5.414326,"is_reserved":false,"is_disabled":false,"rental_uris":{"android":"levelo://app?vid=9907a690-021f-4a19-8f59-934a81d342b9","ios":"levelo://app?vid=9907a690-021f-4a19-8f59-934a81d342b9"},"vehicle_type_id":"4","last_reported":1702418792,"current_range_meters":3600,"station_id":"ce4bhq12rcd13ifvqhhg","pricing_plan_id":"free"},{"bike_id":"5d9259c6-7940-4e8b-96ab-1a1c252f0c8a","system_id":"levelo_inurba_marseille","lat":43.292569,"lon":5.409107,"is_reserved":false,"is_disabled":false,"rental_uris":{"android":"levelo://app?vid=5d9259c6-7940-4e8b-96ab-1a1c252f0c8a","ios":"levelo://app?vid=5d9259c6-7940-4e8b-96ab-1a1c252f0c8a"},"vehicle_type_id":"4","last_reported":1702418792,"current_range_meters":8800,"station_id":"ce4bh192rcd13ifvqdc0","pricing_plan_id":"free"},{"bike_id":"27f15ae5-cf2c-491e-98c2-fc384fde3dc3","system_id":"levelo_inurba_marseille","lat":43.27618,"lon":5.361009,"is_reserved":false,"is_disabled":false,"rental_uris":{"android":"levelo://app?vid=27f15ae5-cf2c-491e-98c2-fc384fde3dc3","ios":"levelo://app?vid=27f15ae5-cf2c-491e-98c2-fc384fde3dc3"},"vehicle_type_id":"4","last_reported":1702418792,"current_range_meters":23600,"station_id":"ce4bgj92rcd13ifvqbe0","pricing_plan_id":"free"},{"bike_id":"81ee97aa-ae91-473a-b413-74f9ea0f4351","system_id":"levelo_inurba_marseille","lat":43.27617,"lon":5.36107,"is_reserved":false,"is_disabled":false,"rental_uris":{"android":"levelo://app?vid=81ee97aa-ae91-473a-b413-74f9ea0f4351","ios":"levelo://app?vid=81ee97aa-ae91-473a-b413-74f9ea0f4351"},"vehicle_type_id":"4","last_reported":1702418792,"current_range_meters":14000,"station_id":"ce4bgj92rcd13ifvqbe0","pricing_plan_id":"free"},{"bike_id":"ebd4b39a-ef57-416e-bbb3-81ad5226b5eb","system_id":"levelo_inurba_marseille","lat":43.2809,"lon":5.39659,"is_reserved":false,"is_disabled":false,"rental_uris":{"android":"levelo://app?vid=ebd4b39a-ef57-416e-bbb3-81ad5226b5eb","ios":"levelo://app?vid=ebd4b39a-ef57-416e-bbb3-81ad5226b5eb"},"vehicle_type_id":"4","last_reported":1702418792,"current_range_meters":0,"station_id":"ce4bho12rcd13ifvqh2g","pricing_plan_id":"free"},{"bike_id":"b1d31a80-70d5-438e-ac3b-02581ad7399e","system_id":"levelo_inurba_marseille","lat":43.303837,"lon":5.418724,"is_reserved":false,"is_disabled":false,"rental_uris":{"android":"levelo://app?vid=b1d31a80-70d5-438e-ac3b-02581ad7399e","ios":"levelo://app?vid=b1d31a80-70d5-438e-ac3b-02581ad7399e"},"vehicle_type_id":"4","last_reported":1702418792,"current_range_meters":29200,"station_id":"ce4bhop2rcd13ifvqh7g","pricing_plan_id":"free"},{"bike_id":"d5b4c0cc-6324-4b75-8084-b88c4d575351","system_id":"levelo_inurba_marseille","lat":43.278399,"lon":5.392139,"is_reserved":false,"is_disabled":false,"rental_uris":{"android":"levelo://app?vid=d5b4c0cc-6324-4b75-8084-b88c4d575351","ios":"levelo://app?vid=d5b4c0cc-6324-4b75-8084-b88c4d575351"},"vehicle_type_id":"4","last_reported":1702418792,"current_range_meters":14800,"station_id":"ce4bhjp2rcd13ifvqga0","pricing_plan_id":"free"},{"bike_id":"7efad1da-02f5-4d3a-bc1f-166af404abd3","system_id":"levelo_inurba_marseille","lat":43.303837,"lon":5.418724,"is_reserved":false,"is_disabled":false,"rental_uris":{"android":"levelo://app?vid=7efad1da-02f5-4d3a-bc1f-166af404abd3","ios":"levelo://app?vid=7efad1da-02f5-4d3a-bc1f-166af404abd3"},"vehicle_type_id":"4","last_reported":1702418792,"current_range_meters":28400,"station_id":"ce4bhop2rcd13ifvqh7g","pricing_plan_id":"free"},{"bike_id":"58d0d95c-6de5-47e7-96d5-023de245f042","system_id":"levelo_inurba_marseille","lat":43.278401,"lon":5.392152,"is_reserved":false,"is_disabled":false,"rental_uris":{"android":"levelo://app?vid=58d0d95c-6de5-47e7-96d5-023de245f042","ios":"levelo://app?vid=58d0d95c-6de5-47e7-96d5-023de245f042"},"vehicle_type_id":"4","last_reported":1702418792,"current_range_meters":25200,"station_id":"ce4bhjp2rcd13ifvqga0","pricing_plan_id":"free"},{"bike_id":"67a4892a-eefc-43e0-94e3-3f8be94468e9","system_id":"levelo_inurba_marseille","lat":43.273609,"lon":5.362708,"is_reserved":false,"is_disabled":false,"rental_uris":{"android":"levelo://app?vid=67a4892a-eefc-43e0-94e3-3f8be94468e9","ios":"levelo://app?vid=67a4892a-eefc-43e0-94e3-3f8be94468e9"},"vehicle_type_id":"4","last_reported":1702418792,"current_range_meters":26800,"station_id":"ce4bhbh2rcd13ifvqeo0","pricing_plan_id":"free"},{"bike_id":"905559d4-9eff-48bc-a681-7d0e3fd2b94a","system_id":"levelo_inurba_marseille","lat":43.275625,"lon":5.384392,"is_reserved":false,"is_disabled":false,"rental_uris":{"android":"levelo://app?vid=905559d4-9eff-48bc-a681-7d0e3fd2b94a","ios":"levelo://app?vid=905559d4-9eff-48bc-a681-7d0e3fd2b94a"},"vehicle_type_id":"4","last_reported":1702418792,"current_range_meters":26000,"station_id":"ce4bhh92rcd13ifvqfi0","pricing_plan_id":"free"},{"bike_id":"6fd19905-b6c4-4037-9478-c7fd0df2c591","system_id":"levelo_inurba_marseille","lat":43.279952,"lon":5.400085,"is_reserved":false,"is_disabled":false,"rental_uris":{"android":"levelo://app?vid=6fd19905-b6c4-4037-9478-c7fd0df2c591","ios":"levelo://app?vid=6fd19905-b6c4-4037-9478-c7fd0df2c591"},"vehicle_type_id":"4","last_reported":1702418792,"current_range_meters":0,"station_id":"ce4bho92rcd13ifvqh4g","pricing_plan_id":"free"},{"bike_id":"60d14e17-ede4-4c9e-966c-3f04c8e42a8b","system_id":"levelo_inurba_marseille","lat":43.310785,"lon":5.424305,"is_reserved":false,"is_disabled":false,"rental_uris":{"android":"levelo://app?vid=60d14e17-ede4-4c9e-966c-3f04c8e42a8b","ios":"levelo://app?vid=60d14e17-ede4-4c9e-966c-3f04c8e42a8b"},"vehicle_type_id":"4","last_reported":1702418792,"current_range_meters":8800,"station_id":"ce4bhp92rcd13ifvqhag","pricing_plan_id":"free"},{"bike_id":"1d5ae7fc-d788-4e3b-9e50-c093618912d7","system_id":"levelo_inurba_marseille","lat":43.310785,"lon":5.424305,"is_reserved":false,"is_disabled":false,"rental_uris":{"android":"levelo://app?vid=1d5ae7fc-d788-4e3b-9e50-c093618912d7","ios":"levelo://app?vid=1d5ae7fc-d788-4e3b-9e50-c093618912d7"},"vehicle_type_id":"4","last_reported":1702418792,"current_range_meters":25200,"station_id":"ce4bhp92rcd13ifvqhag","pricing_plan_id":"free"},{"bike_id":"e15fcb76-150b-4e94-ba14-1765fbabad44","system_id":"levelo_inurba_marseille","lat":43.310785,"lon":5.424305,"is_reserved":false,"is_disabled":false,"rental_uris":{"android":"levelo://app?vid=e15fcb76-150b-4e94-ba14-1765fbabad44","ios":"levelo://app?vid=e15fcb76-150b-4e94-ba14-1765fbabad44"},"vehicle_type_id":"4","last_reported":1702418792,"current_range_meters":30800,"station_id":"ce4bhp92rcd13ifvqhag","pricing_plan_id":"free"},{"bike_id":"b1c028eb-0fe1-4afa-b35c-b9783a0e9537","system_id":"levelo_inurba_marseille","lat":43.31723,"lon":5.42405,"is_reserved":false,"is_disabled":false,"rental_uris":{"android":"levelo://app?vid=b1c028eb-0fe1-4afa-b35c-b9783a0e9537","ios":"levelo://app?vid=b1c028eb-0fe1-4afa-b35c-b9783a0e9537"},"vehicle_type_id":"4","last_reported":1702418792,"current_range_meters":4400,"station_id":"ce4bhp92rcd13ifvqhbg","pricing_plan_id":"free"},{"bike_id":"d145c50f-5d8c-4b9e-8f06-2c9f5ea9473b","system_id":"levelo_inurba_marseille","lat":43.27818,"lon":5.40707,"is_reserved":false,"is_disabled":false,"rental_uris":{"android":"levelo://app?vid=d145c50f-5d8c-4b9e-8f06-2c9f5ea9473b","ios":"levelo://app?vid=d145c50f-5d8c-4b9e-8f06-2c9f5ea9473b"},"vehicle_type_id":"4","last_reported":1702418792,"current_range_meters":3600,"station_id":"ce4bhnh2rcd13ifvqgtg","pricing_plan_id":"free"},{"bike_id":"249704b1-6d4b-4c23-84d0-889b6c47dba3","system_id":"levelo_inurba_marseille","lat":43.27809,"lon":5.40705,"is_reserved":false,"is_disabled":false,"rental_uris":{"android":"levelo://app?vid=249704b1-6d4b-4c23-84d0-889b6c47dba3","ios":"levelo://app?vid=249704b1-6d4b-4c23-84d0-889b6c47dba3"},"vehicle_type_id":"4","last_reported":1702418792,"current_range_meters":17200,"station_id":"ce4bhnh2rcd13ifvqgtg","pricing_plan_id":"free"},{"bike_id":"88f6ede8-3ab4-4bc7-8cc5-327c4da929e8","system_id":"levelo_inurba_marseille","lat":43.27808,"lon":5.40714,"is_reserved":false,"is_disabled":false,"rental_uris":{"android":"levelo://app?vid=88f6ede8-3ab4-4bc7-8cc5-327c4da929e8","ios":"levelo://app?vid=88f6ede8-3ab4-4bc7-8cc5-327c4da929e8"},"vehicle_type_id":"4","last_reported":1702418792,"current_range_meters":5200,"station_id":"ce4bhnh2rcd13ifvqgtg","pricing_plan_id":"free"},{"bike_id":"33566000-1e76-439c-bafd-e73bc3e16c5f","system_id":"levelo_inurba_marseille","lat":43.27951,"lon":5.41038,"is_reserved":false,"is_disabled":false,"rental_uris":{"android":"levelo://app?vid=33566000-1e76-439c-bafd-e73bc3e16c5f","ios":"levelo://app?vid=33566000-1e76-439c-bafd-e73bc3e16c5f"},"vehicle_type_id":"4","last_reported":1702418792,"current_range_meters":0,"station_id":"ce4bhnp2rcd13ifvqh0g","pricing_plan_id":"free"},{"bike_id":"d9f863f1-e327-48c4-bbe6-77a5e3eabc98","system_id":"levelo_inurba_marseille","lat":43.265714,"lon":5.372891,"is_reserved":false,"is_disabled":false,"rental_uris":{"android":"levelo://app?vid=d9f863f1-e327-48c4-bbe6-77a5e3eabc98","ios":"levelo://app?vid=d9f863f1-e327-48c4-bbe6-77a5e3eabc98"},"vehicle_type_id":"4","last_reported":1702418792,"current_range_meters":19200,"station_id":"ce4bhg12rcd13ifvqf70","pricing_plan_id":"free"},{"bike_id":"4908ad5b-45d0-4eb9-a459-c01607c8dc65","system_id":"levelo_inurba_marseille","lat":43.26555,"lon":5.37293,"is_reserved":false,"is_disabled":false,"rental_uris":{"android":"levelo://app?vid=4908ad5b-45d0-4eb9-a459-c01607c8dc65","ios":"levelo://app?vid=4908ad5b-45d0-4eb9-a459-c01607c8dc65"},"vehicle_type_id":"4","last_reported":1702418792,"current_range_meters":5200,"station_id":"ce4bhg12rcd13ifvqf70","pricing_plan_id":"free"},{"bike_id":"f2546b13-003f-410d-85df-ae6515b962b2","system_id":"levelo_inurba_marseille","lat":43.26681,"lon":5.382694,"is_reserved":false,"is_disabled":false,"rental_uris":{"android":"levelo://app?vid=f2546b13-003f-410d-85df-ae6515b962b2","ios":"levelo://app?vid=f2546b13-003f-410d-85df-ae6515b962b2"},"vehicle_type_id":"4","last_reported":1702418792,"current_range_meters":24800,"station_id":"ce4bhg92rcd13ifvqf90","pricing_plan_id":"free"},{"bike_id":"0f8073ae-0307-4ce8-8a12-ed37ee52f3b7","system_id":"levelo_inurba_marseille","lat":43.267966,"lon":5.393976,"is_reserved":false,"is_disabled":false,"rental_uris":{"android":"levelo://app?vid=0f8073ae-0307-4ce8-8a12-ed37ee52f3b7","ios":"levelo://app?vid=0f8073ae-0307-4ce8-8a12-ed37ee52f3b7"},"vehicle_type_id":"4","last_reported":1702418792,"current_range_meters":10800,"station_id":"ce4bhh12rcd13ifvqfg0","pricing_plan_id":"free"},{"bike_id":"14bc19f9-c5ac-4814-b202-5604c65f25d1","system_id":"levelo_inurba_marseille","lat":43.307974,"lon":5.435246,"is_reserved":false,"is_disabled":false,"rental_uris":{"android":"levelo://app?vid=14bc19f9-c5ac-4814-b202-5604c65f25d1","ios":"levelo://app?vid=14bc19f9-c5ac-4814-b202-5604c65f25d1"},"vehicle_type_id":"4","last_reported":1702418792,"current_range_meters":16000,"station_id":"ce4bhph2rcd13ifvqheg","pricing_plan_id":"free"},{"bike_id":"2cba5934-661f-4f7a-988a-299dc1ffbb7b","system_id":"levelo_inurba_marseille","lat":43.265571,"lon":5.390032,"is_reserved":false,"is_disabled":false,"rental_uris":{"android":"levelo://app?vid=2cba5934-661f-4f7a-988a-299dc1ffbb7b","ios":"levelo://app?vid=2cba5934-661f-4f7a-988a-299dc1ffbb7b"},"vehicle_type_id":"4","last_reported":1702418792,"current_range_meters":12400,"station_id":"ce4bhe12rcd13ifvqf30","pricing_plan_id":"free"},{"bike_id":"dc83e0c4-6845-470e-830b-3e71e43b228f","system_id":"levelo_inurba_marseille","lat":43.308051,"lon":5.43527,"is_reserved":false,"is_disabled":false,"rental_uris":{"android":"levelo://app?vid=dc83e0c4-6845-470e-830b-3e71e43b228f","ios":"levelo://app?vid=dc83e0c4-6845-470e-830b-3e71e43b228f"},"vehicle_type_id":"4","last_reported":1702418792,"current_range_meters":29600,"station_id":"ce4bhph2rcd13ifvqheg","pricing_plan_id":"free"},{"bike_id":"1b0228c7-6de7-4940-afd5-013e4745ce75","system_id":"levelo_inurba_marseille","lat":43.265727,"lon":5.3902,"is_reserved":false,"is_disabled":false,"rental_uris":{"android":"levelo://app?vid=1b0228c7-6de7-4940-afd5-013e4745ce75","ios":"levelo://app?vid=1b0228c7-6de7-4940-afd5-013e4745ce75"},"vehicle_type_id":"4","last_reported":1702418792,"current_range_meters":25600,"station_id":"ce4bhe12rcd13ifvqf30","pricing_plan_id":"free"},{"bike_id":"323341e0-6f63-4a0a-882d-9a2f3372b137","system_id":"levelo_inurba_marseille","lat":43.30798,"lon":5.4353,"is_reserved":false,"is_disabled":false,"rental_uris":{"android":"levelo://app?vid=323341e0-6f63-4a0a-882d-9a2f3372b137","ios":"levelo://app?vid=323341e0-6f63-4a0a-882d-9a2f3372b137"},"vehicle_type_id":"4","last_reported":1702418792,"current_range_meters":15200,"station_id":"ce4bhph2rcd13ifvqheg","pricing_plan_id":"free"},{"bike_id":"8e6fe0f2-0dbf-46a8-afbc-76c7982175b3","system_id":"levelo_inurba_marseille","lat":43.26949,"lon":5.40262,"is_reserved":false,"is_disabled":false,"rental_uris":{"android":"levelo://app?vid=8e6fe0f2-0dbf-46a8-afbc-76c7982175b3","ios":"levelo://app?vid=8e6fe0f2-0dbf-46a8-afbc-76c7982175b3"},"vehicle_type_id":"4","last_reported":1702418792,"current_range_meters":11200,"station_id":"cjm6bp8fraef2m0cb0m0","pricing_plan_id":"free"},{"bike_id":"e0db643b-1d5f-423c-beb0-2cb6af2e8d8c","system_id":"levelo_inurba_marseille","lat":43.261782,"lon":5.374515,"is_reserved":false,"is_disabled":false,"rental_uris":{"android":"levelo://app?vid=e0db643b-1d5f-423c-beb0-2cb6af2e8d8c","ios":"levelo://app?vid=e0db643b-1d5f-423c-beb0-2cb6af2e8d8c"},"vehicle_type_id":"4","last_reported":1702418792,"current_range_meters":800,"station_id":"ce4bhgp2rcd13ifvqfc0","pricing_plan_id":"free"},{"bike_id":"7010811e-5d6a-4506-8f86-a2839f396acc","system_id":"levelo_inurba_marseille","lat":43.26202,"lon":5.379299,"is_reserved":false,"is_disabled":false,"rental_uris":{"android":"levelo://app?vid=7010811e-5d6a-4506-8f86-a2839f396acc","ios":"levelo://app?vid=7010811e-5d6a-4506-8f86-a2839f396acc"},"vehicle_type_id":"4","last_reported":1702418792,"current_range_meters":30000,"station_id":"ce4bhjp2rcd13ifvqg90","pricing_plan_id":"free"},{"bike_id":"04c919dd-cf3b-4de8-b939-b2c157c66fb0","system_id":"levelo_inurba_marseille","lat":43.267959,"lon":5.402685,"is_reserved":false,"is_disabled":false,"rental_uris":{"android":"levelo://app?vid=04c919dd-cf3b-4de8-b939-b2c157c66fb0","ios":"levelo://app?vid=04c919dd-cf3b-4de8-b939-b2c157c66fb0"},"vehicle_type_id":"4","last_reported":1702418792,"current_range_meters":16800,"station_id":"ce501612rcd8frsf0b60","pricing_plan_id":"free"},{"bike_id":"dbb3e7f7-0b77-47cb-9fdb-1603736f26f1","system_id":"levelo_inurba_marseille","lat":43.267959,"lon":5.402687,"is_reserved":false,"is_disabled":false,"rental_uris":{"android":"levelo://app?vid=dbb3e7f7-0b77-47cb-9fdb-1603736f26f1","ios":"levelo://app?vid=dbb3e7f7-0b77-47cb-9fdb-1603736f26f1"},"vehicle_type_id":"4","last_reported":1702418792,"current_range_meters":20800,"station_id":"ce501612rcd8frsf0b60","pricing_plan_id":"free"},{"bike_id":"0a4bb84d-ad01-4337-a2be-c07f2c6fcc01","system_id":"levelo_inurba_marseille","lat":43.267959,"lon":5.402687,"is_reserved":false,"is_disabled":false,"rental_uris":{"android":"levelo://app?vid=0a4bb84d-ad01-4337-a2be-c07f2c6fcc01","ios":"levelo://app?vid=0a4bb84d-ad01-4337-a2be-c07f2c6fcc01"},"vehicle_type_id":"4","last_reported":1702418792,"current_range_meters":21200,"station_id":"ce501612rcd8frsf0b60","pricing_plan_id":"free"},{"bike_id":"60e4e2f6-4390-4029-b71c-11414f373115","system_id":"levelo_inurba_marseille","lat":43.270895,"lon":5.409508,"is_reserved":false,"is_disabled":false,"rental_uris":{"android":"levelo://app?vid=60e4e2f6-4390-4029-b71c-11414f373115","ios":"levelo://app?vid=60e4e2f6-4390-4029-b71c-11414f373115"},"vehicle_type_id":"4","last_reported":1702418792,"current_range_meters":27600,"station_id":"","pricing_plan_id":"free"},{"bike_id":"14fb5ba6-affc-4814-9729-4e5def4dd2eb","system_id":"levelo_inurba_marseille","lat":43.298768,"lon":5.43643,"is_reserved":false,"is_disabled":false,"rental_uris":{"android":"levelo://app?vid=14fb5ba6-affc-4814-9729-4e5def4dd2eb","ios":"levelo://app?vid=14fb5ba6-affc-4814-9729-4e5def4dd2eb"},"vehicle_type_id":"4","last_reported":1702418792,"current_range_meters":11600,"station_id":"ce4bhpp2rcd13ifvqhfg","pricing_plan_id":"free"},{"bike_id":"c6fd12df-9f3a-4af6-97ac-045eea3df2d1","system_id":"levelo_inurba_marseille","lat":43.298768,"lon":5.43643,"is_reserved":false,"is_disabled":false,"rental_uris":{"android":"levelo://app?vid=c6fd12df-9f3a-4af6-97ac-045eea3df2d1","ios":"levelo://app?vid=c6fd12df-9f3a-4af6-97ac-045eea3df2d1"},"vehicle_type_id":"4","last_reported":1702418792,"current_range_meters":30000,"station_id":"ce4bhpp2rcd13ifvqhfg","pricing_plan_id":"free"},{"bike_id":"383e139c-3bb6-4daf-a45c-7a9d4e30f140","system_id":"levelo_inurba_marseille","lat":43.281548,"lon":5.42643,"is_reserved":false,"is_disabled":false,"rental_uris":{"android":"levelo://app?vid=383e139c-3bb6-4daf-a45c-7a9d4e30f140","ios":"levelo://app?vid=383e139c-3bb6-4daf-a45c-7a9d4e30f140"},"vehicle_type_id":"4","last_reported":1702418792,"current_range_meters":0,"station_id":"ce4bhnh2rcd13ifvqgug","pricing_plan_id":"free"},{"bike_id":"2a9da541-d25e-4055-b7e9-818d8dd28783","system_id":"levelo_inurba_marseille","lat":43.281548,"lon":5.42643,"is_reserved":false,"is_disabled":false,"rental_uris":{"android":"levelo://app?vid=2a9da541-d25e-4055-b7e9-818d8dd28783","ios":"levelo://app?vid=2a9da541-d25e-4055-b7e9-818d8dd28783"},"vehicle_type_id":"4","last_reported":1702418792,"current_range_meters":20800,"station_id":"ce4bhnh2rcd13ifvqgug","pricing_plan_id":"free"},{"bike_id":"28e52ee3-390e-4359-8953-9e6647d18e16","system_id":"levelo_inurba_marseille","lat":43.281548,"lon":5.42643,"is_reserved":false,"is_disabled":false,"rental_uris":{"android":"levelo://app?vid=28e52ee3-390e-4359-8953-9e6647d18e16","ios":"levelo://app?vid=28e52ee3-390e-4359-8953-9e6647d18e16"},"vehicle_type_id":"4","last_reported":1702418792,"current_range_meters":26400,"station_id":"ce4bhnh2rcd13ifvqgug","pricing_plan_id":"free"},{"bike_id":"22629fef-dcbc-451f-99d9-ae21da47c622","system_id":"levelo_inurba_marseille","lat":43.28144,"lon":5.42646,"is_reserved":false,"is_disabled":false,"rental_uris":{"android":"levelo://app?vid=22629fef-dcbc-451f-99d9-ae21da47c622","ios":"levelo://app?vid=22629fef-dcbc-451f-99d9-ae21da47c622"},"vehicle_type_id":"4","last_reported":1702418792,"current_range_meters":13600,"station_id":"ce4bhnh2rcd13ifvqgug","pricing_plan_id":"free"},{"bike_id":"d7a6c85d-a811-4fa8-800a-8c7d7fbad1e5","system_id":"levelo_inurba_marseille","lat":43.26643,"lon":5.407967,"is_reserved":false,"is_disabled":false,"rental_uris":{"android":"levelo://app?vid=d7a6c85d-a811-4fa8-800a-8c7d7fbad1e5","ios":"levelo://app?vid=d7a6c85d-a811-4fa8-800a-8c7d7fbad1e5"},"vehicle_type_id":"4","last_reported":1702418792,"current_range_meters":0,"station_id":"","pricing_plan_id":"free"},{"bike_id":"422bf428-4855-484c-a41c-d4564e3e8e7e","system_id":"levelo_inurba_marseille","lat":43.2607,"lon":5.393983,"is_reserved":false,"is_disabled":false,"rental_uris":{"android":"levelo://app?vid=422bf428-4855-484c-a41c-d4564e3e8e7e","ios":"levelo://app?vid=422bf428-4855-484c-a41c-d4564e3e8e7e"},"vehicle_type_id":"4","last_reported":1702418792,"current_range_meters":21200,"station_id":"ce4bhh92rcd13ifvqfj0","pricing_plan_id":"free"},{"bike_id":"55676f63-e2aa-41d4-a9aa-18ad58bf432e","system_id":"levelo_inurba_marseille","lat":43.275028,"lon":5.424534,"is_reserved":false,"is_disabled":false,"rental_uris":{"android":"levelo://app?vid=55676f63-e2aa-41d4-a9aa-18ad58bf432e","ios":"levelo://app?vid=55676f63-e2aa-41d4-a9aa-18ad58bf432e"},"vehicle_type_id":"4","last_reported":1702418792,"current_range_meters":30000,"station_id":"ce4bhn92rcd13ifvqgrg","pricing_plan_id":"free"},{"bike_id":"a7ddc710-538a-4add-82cf-421dcbd1b84d","system_id":"levelo_inurba_marseille","lat":43.258658,"lon":5.398935,"is_reserved":false,"is_disabled":false,"rental_uris":{"android":"levelo://app?vid=a7ddc710-538a-4add-82cf-421dcbd1b84d","ios":"levelo://app?vid=a7ddc710-538a-4add-82cf-421dcbd1b84d"},"vehicle_type_id":"4","last_reported":1702418792,"current_range_meters":22400,"station_id":"ce4bhl92rcd13ifvqghg","pricing_plan_id":"free"},{"bike_id":"8bee575f-1ce6-4207-9d3e-11062018182f","system_id":"levelo_inurba_marseille","lat":43.25928,"lon":5.40908,"is_reserved":false,"is_disabled":false,"rental_uris":{"android":"levelo://app?vid=8bee575f-1ce6-4207-9d3e-11062018182f","ios":"levelo://app?vid=8bee575f-1ce6-4207-9d3e-11062018182f"},"vehicle_type_id":"4","last_reported":1702418792,"current_range_meters":0,"station_id":"ce4bhm92rcd13ifvqglg","pricing_plan_id":"free"},{"bike_id":"05e59e65-f6b5-4f82-89dd-335e2b21d5cc","system_id":"levelo_inurba_marseille","lat":43.250009,"lon":5.389195,"is_reserved":false,"is_disabled":false,"rental_uris":{"android":"levelo://app?vid=05e59e65-f6b5-4f82-89dd-335e2b21d5cc","ios":"levelo://app?vid=05e59e65-f6b5-4f82-89dd-335e2b21d5cc"},"vehicle_type_id":"4","last_reported":1702418792,"current_range_meters":19600,"station_id":"ce4bhgp2rcd13ifvqfd0","pricing_plan_id":"free"},{"bike_id":"45d633fb-0c31-4adc-a6b2-dd2d430a36ac","system_id":"levelo_inurba_marseille","lat":43.250023,"lon":5.38919,"is_reserved":false,"is_disabled":false,"rental_uris":{"android":"levelo://app?vid=45d633fb-0c31-4adc-a6b2-dd2d430a36ac","ios":"levelo://app?vid=45d633fb-0c31-4adc-a6b2-dd2d430a36ac"},"vehicle_type_id":"4","last_reported":1702418792,"current_range_meters":9600,"station_id":"ce4bhgp2rcd13ifvqfd0","pricing_plan_id":"free"},{"bike_id":"89cd57c9-7161-4c72-96c1-ff91849bfc07","system_id":"levelo_inurba_marseille","lat":43.25084,"lon":5.39513,"is_reserved":false,"is_disabled":false,"rental_uris":{"android":"levelo://app?vid=89cd57c9-7161-4c72-96c1-ff91849bfc07","ios":"levelo://app?vid=89cd57c9-7161-4c72-96c1-ff91849bfc07"},"vehicle_type_id":"4","last_reported":1702418792,"current_range_meters":0,"station_id":"ce4bhm12rcd13ifvqgkg","pricing_plan_id":"free"},{"bike_id":"93e642cb-070d-42d2-9712-edfb4707b641","system_id":"levelo_inurba_marseille","lat":43.250966,"lon":5.395186,"is_reserved":false,"is_disabled":false,"rental_uris":{"android":"levelo://app?vid=93e642cb-070d-42d2-9712-edfb4707b641","ios":"levelo://app?vid=93e642cb-070d-42d2-9712-edfb4707b641"},"vehicle_type_id":"4","last_reported":1702418792,"current_range_meters":29200,"station_id":"ce4bhm12rcd13ifvqgkg","pricing_plan_id":"free"},{"bike_id":"5b0ba60c-8c78-4344-8b37-ce1dee3cb2f7","system_id":"levelo_inurba_marseille","lat":43.25105,"lon":5.40333,"is_reserved":false,"is_disabled":false,"rental_uris":{"android":"levelo://app?vid=5b0ba60c-8c78-4344-8b37-ce1dee3cb2f7","ios":"levelo://app?vid=5b0ba60c-8c78-4344-8b37-ce1dee3cb2f7"},"vehicle_type_id":"4","last_reported":1702418792,"current_range_meters":0,"station_id":"ce4bhlh2rcd13ifvqgig","pricing_plan_id":"free"},{"bike_id":"0f76516c-d69d-4b3d-b7b6-e7fd6a938df2","system_id":"levelo_inurba_marseille","lat":43.243884,"lon":5.370737,"is_reserved":false,"is_disabled":false,"rental_uris":{"android":"levelo://app?vid=0f76516c-d69d-4b3d-b7b6-e7fd6a938df2","ios":"levelo://app?vid=0f76516c-d69d-4b3d-b7b6-e7fd6a938df2"},"vehicle_type_id":"4","last_reported":1702418792,"current_range_meters":20400,"station_id":"ce4bhhh2rcd13ifvqfk0","pricing_plan_id":"free"},{"bike_id":"4e9ad50d-7124-4cd1-8ec9-ae65dc86a2d9","system_id":"levelo_inurba_marseille","lat":43.245581,"lon":5.395069,"is_reserved":false,"is_disabled":false,"rental_uris":{"android":"levelo://app?vid=4e9ad50d-7124-4cd1-8ec9-ae65dc86a2d9","ios":"levelo://app?vid=4e9ad50d-7124-4cd1-8ec9-ae65dc86a2d9"},"vehicle_type_id":"4","last_reported":1702418792,"current_range_meters":30000,"station_id":"ce4bhlp2rcd13ifvqgjg","pricing_plan_id":"free"},{"bike_id":"ba1c7441-5fa5-4b37-987f-28746565c5d0","system_id":"levelo_inurba_marseille","lat":43.240618,"lon":5.377636,"is_reserved":false,"is_disabled":false,"rental_uris":{"android":"levelo://app?vid=ba1c7441-5fa5-4b37-987f-28746565c5d0","ios":"levelo://app?vid=ba1c7441-5fa5-4b37-987f-28746565c5d0"},"vehicle_type_id":"4","last_reported":1702418792,"current_range_meters":18000,"station_id":"ce4bhnp2rcd13ifvqgvg","pricing_plan_id":"free"},{"bike_id":"d1f26f1c-66c7-4318-906f-15aa2b56ee47","system_id":"levelo_inurba_marseille","lat":43.24068,"lon":5.37753,"is_reserved":false,"is_disabled":false,"rental_uris":{"android":"levelo://app?vid=d1f26f1c-66c7-4318-906f-15aa2b56ee47","ios":"levelo://app?vid=d1f26f1c-66c7-4318-906f-15aa2b56ee47"},"vehicle_type_id":"4","last_reported":1702418792,"current_range_meters":6800,"station_id":"ce4bhnp2rcd13ifvqgvg","pricing_plan_id":"free"},{"bike_id":"9c22ab75-65a5-4b82-b9cb-34c34de7d97f","system_id":"levelo_inurba_marseille","lat":43.240623,"lon":5.377642,"is_reserved":false,"is_disabled":false,"rental_uris":{"android":"levelo://app?vid=9c22ab75-65a5-4b82-b9cb-34c34de7d97f","ios":"levelo://app?vid=9c22ab75-65a5-4b82-b9cb-34c34de7d97f"},"vehicle_type_id":"4","last_reported":1702418792,"current_range_meters":30000,"station_id":"ce4bhnp2rcd13ifvqgvg","pricing_plan_id":"free"},{"bike_id":"c307a3f6-8060-44ef-a231-1782aed4a72a","system_id":"levelo_inurba_marseille","lat":43.239588,"lon":5.366238,"is_reserved":false,"is_disabled":false,"rental_uris":{"android":"levelo://app?vid=c307a3f6-8060-44ef-a231-1782aed4a72a","ios":"levelo://app?vid=c307a3f6-8060-44ef-a231-1782aed4a72a"},"vehicle_type_id":"4","last_reported":1702418792,"current_range_meters":25600,"station_id":"ce4bhi12rcd13ifvqfp0","pricing_plan_id":"free"},{"bike_id":"3dc095af-a885-44c9-b900-c7749334e677","system_id":"levelo_inurba_marseille","lat":43.239588,"lon":5.366238,"is_reserved":false,"is_disabled":false,"rental_uris":{"android":"levelo://app?vid=3dc095af-a885-44c9-b900-c7749334e677","ios":"levelo://app?vid=3dc095af-a885-44c9-b900-c7749334e677"},"vehicle_type_id":"4","last_reported":1702418792,"current_range_meters":24000,"station_id":"ce4bhi12rcd13ifvqfp0","pricing_plan_id":"free"},{"bike_id":"7d787794-239b-4e3a-84f0-f6f5b80d230f","system_id":"levelo_inurba_marseille","lat":43.241782,"lon":5.397261,"is_reserved":false,"is_disabled":false,"rental_uris":{"android":"levelo://app?vid=7d787794-239b-4e3a-84f0-f6f5b80d230f","ios":"levelo://app?vid=7d787794-239b-4e3a-84f0-f6f5b80d230f"},"vehicle_type_id":"4","last_reported":1702418792,"current_range_meters":16400,"station_id":"ce4bhn12rcd13ifvqgpg","pricing_plan_id":"free"},{"bike_id":"9a98bb3c-9036-4450-ac50-69f372e3f4af","system_id":"levelo_inurba_marseille","lat":43.23196,"lon":5.355574,"is_reserved":false,"is_disabled":false,"rental_uris":{"android":"levelo://app?vid=9a98bb3c-9036-4450-ac50-69f372e3f4af","ios":"levelo://app?vid=9a98bb3c-9036-4450-ac50-69f372e3f4af"},"vehicle_type_id":"4","last_reported":1702418792,"current_range_meters":13200,"station_id":"ce4bhu92rcd13ifvqi70","pricing_plan_id":"free"},{"bike_id":"e5f8a3f9-ad33-4c96-8f80-c9bb436ceb1b","system_id":"levelo_inurba_marseille","lat":43.235828,"lon":5.41047,"is_reserved":false,"is_disabled":false,"rental_uris":{"android":"levelo://app?vid=e5f8a3f9-ad33-4c96-8f80-c9bb436ceb1b","ios":"levelo://app?vid=e5f8a3f9-ad33-4c96-8f80-c9bb436ceb1b"},"vehicle_type_id":"4","last_reported":1702418792,"current_range_meters":14000,"station_id":"","pricing_plan_id":"free"},{"bike_id":"20c0d9a4-1709-485b-9105-287bac4fabfc","system_id":"levelo_inurba_marseille","lat":43.231794,"lon":5.400052,"is_reserved":false,"is_disabled":false,"rental_uris":{"android":"levelo://app?vid=20c0d9a4-1709-485b-9105-287bac4fabfc","ios":"levelo://app?vid=20c0d9a4-1709-485b-9105-287bac4fabfc"},"vehicle_type_id":"4","last_reported":1702418792,"current_range_meters":16000,"station_id":"ce4bhn12rcd13ifvqgqg","pricing_plan_id":"free"},{"bike_id":"3b6acbeb-fcf2-4d7f-83a0-ba4dc62f4887","system_id":"levelo_inurba_marseille","lat":43.231794,"lon":5.400052,"is_reserved":false,"is_disabled":false,"rental_uris":{"android":"levelo://app?vid=3b6acbeb-fcf2-4d7f-83a0-ba4dc62f4887","ios":"levelo://app?vid=3b6acbeb-fcf2-4d7f-83a0-ba4dc62f4887"},"vehicle_type_id":"4","last_reported":1702418792,"current_range_meters":20400,"station_id":"ce4bhn12rcd13ifvqgqg","pricing_plan_id":"free"},{"bike_id":"ecc6b30e-afbb-430b-a8fd-f3e07403c9ad","system_id":"levelo_inurba_marseille","lat":43.231794,"lon":5.400052,"is_reserved":false,"is_disabled":false,"rental_uris":{"android":"levelo://app?vid=ecc6b30e-afbb-430b-a8fd-f3e07403c9ad","ios":"levelo://app?vid=ecc6b30e-afbb-430b-a8fd-f3e07403c9ad"},"vehicle_type_id":"4","last_reported":1702418792,"current_range_meters":16400,"station_id":"ce4bhn12rcd13ifvqgqg","pricing_plan_id":"free"},{"bike_id":"28a81c8f-eba8-456c-89c4-2281c172fec8","system_id":"levelo_inurba_marseille","lat":43.231794,"lon":5.400052,"is_reserved":false,"is_disabled":false,"rental_uris":{"android":"levelo://app?vid=28a81c8f-eba8-456c-89c4-2281c172fec8","ios":"levelo://app?vid=28a81c8f-eba8-456c-89c4-2281c172fec8"},"vehicle_type_id":"4","last_reported":1702418792,"current_range_meters":0,"station_id":"ce4bhn12rcd13ifvqgqg","pricing_plan_id":"free"},{"bike_id":"e6e78515-aff2-4fc4-80b5-70f36396b81a","system_id":"levelo_inurba_marseille","lat":43.231794,"lon":5.400052,"is_reserved":false,"is_disabled":false,"rental_uris":{"android":"levelo://app?vid=e6e78515-aff2-4fc4-80b5-70f36396b81a","ios":"levelo://app?vid=e6e78515-aff2-4fc4-80b5-70f36396b81a"},"vehicle_type_id":"4","last_reported":1702418792,"current_range_meters":20000,"station_id":"ce4bhn12rcd13ifvqgqg","pricing_plan_id":"free"},{"bike_id":"5b630b40-ff29-4dd6-a19d-40fab0f10db9","system_id":"levelo_inurba_marseille","lat":43.231794,"lon":5.400052,"is_reserved":false,"is_disabled":false,"rental_uris":{"android":"levelo://app?vid=5b630b40-ff29-4dd6-a19d-40fab0f10db9","ios":"levelo://app?vid=5b630b40-ff29-4dd6-a19d-40fab0f10db9"},"vehicle_type_id":"4","last_reported":1702418792,"current_range_meters":29600,"station_id":"ce4bhn12rcd13ifvqgqg","pricing_plan_id":"free"},{"bike_id":"58ad7b1b-1e96-4241-8f3b-6d49dc932f71","system_id":"levelo_inurba_marseille","lat":43.231562,"lon":5.436933,"is_reserved":false,"is_disabled":false,"rental_uris":{"android":"levelo://app?vid=58ad7b1b-1e96-4241-8f3b-6d49dc932f71","ios":"levelo://app?vid=58ad7b1b-1e96-4241-8f3b-6d49dc932f71"},"vehicle_type_id":"4","last_reported":1702418792,"current_range_meters":13600,"station_id":"ce4bhmp2rcd13ifvqgog","pricing_plan_id":"free"}]}}