{"last_updated":1744711906,"ttl":60,"version":"2.2","data":{"bikes":[{"bike_id":"60ab5c12-25ef-4e07-b085-a656d13f5834","system_id":"levelo_inurba_marseille","lat":43.2987,"lon":5.39727,"is_reserved":false,"is_disabled":false,"rental_uris":{"android":"levelo://app?vid=60ab5c12-25ef-4e07-b085-a656d13f5834","ios":"levelo://app?vid=60ab5c12-25ef-4e07-b085-a656d13f5834"},"vehicle_type_id":"4","last_reported":1744711906,"current_range_meters":2800,"station_id":"ce4bh0h2rcd13ifvqd50","pricing_plan_id":"cebpf4jnsgd1na2vs0mg"},{"bike_id":"a7f508ae-5644-48b0-b637-206531d700a2","system_id":"levelo_inurba_marseille","lat":43.25952,"lon":5.40866,"is_reserved":false,"is_disabled":false,"rental_uris":{"android":"levelo://app?vid=a7f508ae-5644-48b0-b637-206531d700a2","ios":"levelo://app?vid=a7f508ae-5644-48b0-b637-206531d700a2"},"vehicle_type_id":"4","last_reported":1744711906,"current_range_meters":3200,"station_id":"ce4bhm92rcd13ifvqglg","pricing_plan_id":"cebpf4jnsgd1na2vs0mg"},{"bike_id":"6cb8a9aa-7b54-4105-b6b3-f8a2e58769bf","system_id":"levelo_inurba_marseille","lat":43.299547,"lon":5.397275,"is_reserved":false,"is_disabled":false,"rental_uris":{"android":"levelo://app?vid=6cb8a9aa-7b54-4105-b6b3-f8a2e58769bf","ios":"levelo://app?vid=6cb8a9aa-7b54-4105-b6b3-f8a2e58769bf"},"vehicle_type_id":"4","last_reported":1744711906,"current_range_meters":3600,"station_id":"ce4bh0h2rcd13ifvqd50","pricing_plan_id":"cebpf4jnsgd1na2vs0mg"},{"bike_id":"515271b0-9b96-43f1-9b62-f663213b7c02","system_id":"levelo_inurba_marseille","lat":43.29035,"lon":5.35692,"is_reserved":false,"is_disabled":false,"rental_uris":{"android":"levelo://app?vid=515271b0-9b96-43f1-9b62-f663213b7c02","ios":"levelo://app?vid=515271b0-9b96-43f1-9b62-f663213b7c02"},"vehicle_type_id":"4","last_reported":1744711906,"current_range_meters":3200,"station_id":"","pricing_plan_id":"cebpf4jnsgd1na2vs0mg"},{"bike_id":"0fde8dc8-a1f2-4272-947e-7022b3c072ca","system_id":"levelo_inurba_marseille","lat":43.30595,"lon":5.39361,"is_reserved":false,"is_disabled":false,"rental_uris":{"android":"levelo://app?vid=0fde8dc8-a1f2-4272-947e-7022b3c072ca","ios":"levelo://app?vid=0fde8dc8-a1f2-4272-947e-7022b3c072ca"},"vehicle_type_id":"4","last_reported":1744711906,"current_range_meters":3600,"station_id":"ce4bh0p2rcd13ifvqd80","pricing_plan_id":"cebpf4jnsgd1na2vs0mg"},{"bike_id":"2ff04353-85fd-431e-bb7d-0569bb358a19","system_id":"levelo_inurba_marseille","lat":43.30537,"lon":5.3655,"is_reserved":false,"is_disabled":false,"rental_uris":{"android":"levelo://app?vid=2ff04353-85fd-431e-bb7d-0569bb358a19","ios":"levelo://app?vid=2ff04353-85fd-431e-bb7d-0569bb358a19"},"vehicle_type_id":"4","last_reported":1744711906,"current_range_meters":4000,"station_id":"ce4bgs12rcd13ifvqcag","pricing_plan_id":"cebpf4jnsgd1na2vs0mg"},{"bike_id":"f0fc8d7c-9a01-4ec6-b01b-64005efae8a5","system_id":"levelo_inurba_marseille","lat":43.28942,"lon":5.39632,"is_reserved":false,"is_disabled":false,"rental_uris":{"android":"levelo://app?vid=f0fc8d7c-9a01-4ec6-b01b-64005efae8a5","ios":"levelo://app?vid=f0fc8d7c-9a01-4ec6-b01b-64005efae8a5"},"vehicle_type_id":"4","last_reported":1744711906,"current_range_meters":4400,"station_id":"ce4bh3h2rcd13ifvqdn0","pricing_plan_id":"cebpf4jnsgd1na2vs0mg"},{"bike_id":"bc1e941d-5514-4193-a637-cfb6de114bfa","system_id":"levelo_inurba_marseille","lat":43.25581,"lon":5.38256,"is_reserved":false,"is_disabled":false,"rental_uris":{"android":"levelo://app?vid=bc1e941d-5514-4193-a637-cfb6de114bfa","ios":"levelo://app?vid=bc1e941d-5514-4193-a637-cfb6de114bfa"},"vehicle_type_id":"4","last_reported":1744711906,"current_range_meters":4800,"station_id":"ce4bhih2rcd13ifvqfs0","pricing_plan_id":"cebpf4jnsgd1na2vs0mg"},{"bike_id":"fcc2cd9f-f37e-4faa-bf17-95d287db6912","system_id":"levelo_inurba_marseille","lat":43.29023,"lon":5.38141,"is_reserved":false,"is_disabled":false,"rental_uris":{"android":"levelo://app?vid=fcc2cd9f-f37e-4faa-bf17-95d287db6912","ios":"levelo://app?vid=fcc2cd9f-f37e-4faa-bf17-95d287db6912"},"vehicle_type_id":"4","last_reported":1744711906,"current_range_meters":4800,"station_id":"ce4bh4p2rcd13ifvqe1g","pricing_plan_id":"cebpf4jnsgd1na2vs0mg"},{"bike_id":"9908db5a-c0ad-4e09-aedb-109cf7432e28","system_id":"levelo_inurba_marseille","lat":43.297949,"lon":5.380923,"is_reserved":false,"is_disabled":false,"rental_uris":{"android":"levelo://app?vid=9908db5a-c0ad-4e09-aedb-109cf7432e28","ios":"levelo://app?vid=9908db5a-c0ad-4e09-aedb-109cf7432e28"},"vehicle_type_id":"4","last_reported":1744711906,"current_range_meters":4400,"station_id":"ce4bh512rcd13ifvqe3g","pricing_plan_id":"cebpf4jnsgd1na2vs0mg"},{"bike_id":"0a7cab43-9343-46f0-9a4d-34c8fb861430","system_id":"levelo_inurba_marseille","lat":43.291729,"lon":5.399975,"is_reserved":false,"is_disabled":false,"rental_uris":{"android":"levelo://app?vid=0a7cab43-9343-46f0-9a4d-34c8fb861430","ios":"levelo://app?vid=0a7cab43-9343-46f0-9a4d-34c8fb861430"},"vehicle_type_id":"4","last_reported":1744711906,"current_range_meters":4800,"station_id":"","pricing_plan_id":"cebpf4jnsgd1na2vs0mg"},{"bike_id":"8e257129-2fc1-4b7e-9af0-0037d9dd9fc9","system_id":"levelo_inurba_marseille","lat":43.28985,"lon":5.3759,"is_reserved":false,"is_disabled":false,"rental_uris":{"android":"levelo://app?vid=8e257129-2fc1-4b7e-9af0-0037d9dd9fc9","ios":"levelo://app?vid=8e257129-2fc1-4b7e-9af0-0037d9dd9fc9"},"vehicle_type_id":"4","last_reported":1744711906,"current_range_meters":6000,"station_id":"","pricing_plan_id":"cebpf4jnsgd1na2vs0mg"},{"bike_id":"db7d16ce-c546-4a33-82e6-99d039bd6be7","system_id":"levelo_inurba_marseille","lat":43.26679,"lon":5.38264,"is_reserved":false,"is_disabled":false,"rental_uris":{"android":"levelo://app?vid=db7d16ce-c546-4a33-82e6-99d039bd6be7","ios":"levelo://app?vid=db7d16ce-c546-4a33-82e6-99d039bd6be7"},"vehicle_type_id":"4","last_reported":1744711906,"current_range_meters":6000,"station_id":"ce4bhg92rcd13ifvqf90","pricing_plan_id":"cebpf4jnsgd1na2vs0mg"},{"bike_id":"2938bc9c-a915-484e-9b02-b4a924f19077","system_id":"levelo_inurba_marseille","lat":43.24157,"lon":5.36412,"is_reserved":false,"is_disabled":false,"rental_uris":{"android":"levelo://app?vid=2938bc9c-a915-484e-9b02-b4a924f19077","ios":"levelo://app?vid=2938bc9c-a915-484e-9b02-b4a924f19077"},"vehicle_type_id":"4","last_reported":1744711906,"current_range_meters":6400,"station_id":"cpo36qri1sfpv3e86is0","pricing_plan_id":"cebpf4jnsgd1na2vs0mg"},{"bike_id":"e1ecbce2-f246-44e8-9f1a-80fd5868a4de","system_id":"levelo_inurba_marseille","lat":43.29374,"lon":5.37856,"is_reserved":false,"is_disabled":false,"rental_uris":{"android":"levelo://app?vid=e1ecbce2-f246-44e8-9f1a-80fd5868a4de","ios":"levelo://app?vid=e1ecbce2-f246-44e8-9f1a-80fd5868a4de"},"vehicle_type_id":"4","last_reported":1744711906,"current_range_meters":6400,"station_id":"ce4bgjh2rcd13ifvqbf0","pricing_plan_id":"cebpf4jnsgd1na2vs0mg"},{"bike_id":"987ce2e0-d2a0-49c9-8f78-8a92c9b7cf35","system_id":"levelo_inurba_marseille","lat":43.31886,"lon":5.40742,"is_reserved":false,"is_disabled":false,"rental_uris":{"android":"levelo://app?vid=987ce2e0-d2a0-49c9-8f78-8a92c9b7cf35","ios":"levelo://app?vid=987ce2e0-d2a0-49c9-8f78-8a92c9b7cf35"},"vehicle_type_id":"4","last_reported":1744711906,"current_range_meters":6400,"station_id":"ce4bhq12rcd13ifvqhig","pricing_plan_id":"cebpf4jnsgd1na2vs0mg"},{"bike_id":"f6151468-df2d-459f-ab57-449c0333cf42","system_id":"levelo_inurba_marseille","lat":43.24676,"lon":5.38152,"is_reserved":false,"is_disabled":false,"rental_uris":{"android":"levelo://app?vid=f6151468-df2d-459f-ab57-449c0333cf42","ios":"levelo://app?vid=f6151468-df2d-459f-ab57-449c0333cf42"},"vehicle_type_id":"4","last_reported":1744711906,"current_range_meters":6400,"station_id":"ce4bhih2rcd13ifvqfr0","pricing_plan_id":"cebpf4jnsgd1na2vs0mg"},{"bike_id":"56f963ec-566e-4452-b32e-aa739a184422","system_id":"levelo_inurba_marseille","lat":43.25925,"lon":5.40891,"is_reserved":false,"is_disabled":false,"rental_uris":{"android":"levelo://app?vid=56f963ec-566e-4452-b32e-aa739a184422","ios":"levelo://app?vid=56f963ec-566e-4452-b32e-aa739a184422"},"vehicle_type_id":"4","last_reported":1744711906,"current_range_meters":6800,"station_id":"ce4bhm92rcd13ifvqglg","pricing_plan_id":"cebpf4jnsgd1na2vs0mg"},{"bike_id":"d373ed4c-aba0-4974-b8ad-53c5cbe85936","system_id":"levelo_inurba_marseille","lat":43.29443,"lon":5.39763,"is_reserved":false,"is_disabled":true,"rental_uris":{"android":"levelo://app?vid=d373ed4c-aba0-4974-b8ad-53c5cbe85936","ios":"levelo://app?vid=d373ed4c-aba0-4974-b8ad-53c5cbe85936"},"vehicle_type_id":"4","last_reported":1744711906,"current_range_meters":6800,"station_id":"ce4bh3h2rcd13ifvqdo0","pricing_plan_id":"cebpf4jnsgd1na2vs0mg"},{"bike_id":"73f94dfc-9e48-4c4f-afae-8f6ddd639446","system_id":"levelo_inurba_marseille","lat":43.28969,"lon":5.37833,"is_reserved":false,"is_disabled":false,"rental_uris":{"android":"levelo://app?vid=73f94dfc-9e48-4c4f-afae-8f6ddd639446","ios":"levelo://app?vid=73f94dfc-9e48-4c4f-afae-8f6ddd639446"},"vehicle_type_id":"4","last_reported":1744711906,"current_range_meters":6800,"station_id":"ce4bh9p2rcd13ifvqed0","pricing_plan_id":"cebpf4jnsgd1na2vs0mg"},{"bike_id":"919cf02d-1e1a-4a64-9fa2-cd51b9a9ba56","system_id":"levelo_inurba_marseille","lat":43.28935,"lon":5.36644,"is_reserved":false,"is_disabled":false,"rental_uris":{"android":"levelo://app?vid=919cf02d-1e1a-4a64-9fa2-cd51b9a9ba56","ios":"levelo://app?vid=919cf02d-1e1a-4a64-9fa2-cd51b9a9ba56"},"vehicle_type_id":"4","last_reported":1744711906,"current_range_meters":6800,"station_id":"ce4bhap2rcd13ifvqek0","pricing_plan_id":"cebpf4jnsgd1na2vs0mg"},{"bike_id":"e9c90e38-0bc8-4a3e-aaba-82b0d20c79f1","system_id":"levelo_inurba_marseille","lat":43.25951,"lon":5.40886,"is_reserved":false,"is_disabled":false,"rental_uris":{"android":"levelo://app?vid=e9c90e38-0bc8-4a3e-aaba-82b0d20c79f1","ios":"levelo://app?vid=e9c90e38-0bc8-4a3e-aaba-82b0d20c79f1"},"vehicle_type_id":"4","last_reported":1744711906,"current_range_meters":7200,"station_id":"ce4bhm92rcd13ifvqglg","pricing_plan_id":"cebpf4jnsgd1na2vs0mg"},{"bike_id":"3499b34a-9c74-447e-aa25-db1795585b70","system_id":"levelo_inurba_marseille","lat":43.26566,"lon":5.37286,"is_reserved":false,"is_disabled":false,"rental_uris":{"android":"levelo://app?vid=3499b34a-9c74-447e-aa25-db1795585b70","ios":"levelo://app?vid=3499b34a-9c74-447e-aa25-db1795585b70"},"vehicle_type_id":"4","last_reported":1744711906,"current_range_meters":7200,"station_id":"ce4bhg12rcd13ifvqf70","pricing_plan_id":"cebpf4jnsgd1na2vs0mg"},{"bike_id":"b4b20d18-0752-4379-ab07-ba6aaec05f66","system_id":"levelo_inurba_marseille","lat":43.27996,"lon":5.40011,"is_reserved":false,"is_disabled":false,"rental_uris":{"android":"levelo://app?vid=b4b20d18-0752-4379-ab07-ba6aaec05f66","ios":"levelo://app?vid=b4b20d18-0752-4379-ab07-ba6aaec05f66"},"vehicle_type_id":"4","last_reported":1744711906,"current_range_meters":7200,"station_id":"ce4bho92rcd13ifvqh4g","pricing_plan_id":"cebpf4jnsgd1na2vs0mg"},{"bike_id":"2840dd03-7e3c-473f-8550-a29070d3bba2","system_id":"levelo_inurba_marseille","lat":43.2949,"lon":5.3829,"is_reserved":false,"is_disabled":false,"rental_uris":{"android":"levelo://app?vid=2840dd03-7e3c-473f-8550-a29070d3bba2","ios":"levelo://app?vid=2840dd03-7e3c-473f-8550-a29070d3bba2"},"vehicle_type_id":"4","last_reported":1744711906,"current_range_meters":7200,"station_id":"","pricing_plan_id":"cebpf4jnsgd1na2vs0mg"},{"bike_id":"ae8cb713-1f95-4168-994c-679a1990d2f0","system_id":"levelo_inurba_marseille","lat":43.28969,"lon":5.37829,"is_reserved":false,"is_disabled":false,"rental_uris":{"android":"levelo://app?vid=ae8cb713-1f95-4168-994c-679a1990d2f0","ios":"levelo://app?vid=ae8cb713-1f95-4168-994c-679a1990d2f0"},"vehicle_type_id":"4","last_reported":1744711906,"current_range_meters":7200,"station_id":"ce4bh9p2rcd13ifvqed0","pricing_plan_id":"cebpf4jnsgd1na2vs0mg"},{"bike_id":"b4a19ddd-ec2c-4178-96c7-9e5bf749190e","system_id":"levelo_inurba_marseille","lat":43.29891,"lon":5.43659,"is_reserved":false,"is_disabled":false,"rental_uris":{"android":"levelo://app?vid=b4a19ddd-ec2c-4178-96c7-9e5bf749190e","ios":"levelo://app?vid=b4a19ddd-ec2c-4178-96c7-9e5bf749190e"},"vehicle_type_id":"4","last_reported":1744711906,"current_range_meters":8000,"station_id":"ce4bhpp2rcd13ifvqhfg","pricing_plan_id":"cebpf4jnsgd1na2vs0mg"},{"bike_id":"8a58a04e-f069-487b-905a-c2f308a407cd","system_id":"levelo_inurba_marseille","lat":43.3303,"lon":5.39006,"is_reserved":false,"is_disabled":false,"rental_uris":{"android":"levelo://app?vid=8a58a04e-f069-487b-905a-c2f308a407cd","ios":"levelo://app?vid=8a58a04e-f069-487b-905a-c2f308a407cd"},"vehicle_type_id":"4","last_reported":1744711906,"current_range_meters":8000,"station_id":"ce4bhr92rcd13ifvqhrg","pricing_plan_id":"cebpf4jnsgd1na2vs0mg"},{"bike_id":"9267344c-08f9-4441-adbf-1cd505d59dfe","system_id":"levelo_inurba_marseille","lat":43.29528,"lon":5.3855,"is_reserved":false,"is_disabled":false,"rental_uris":{"android":"levelo://app?vid=9267344c-08f9-4441-adbf-1cd505d59dfe","ios":"levelo://app?vid=9267344c-08f9-4441-adbf-1cd505d59dfe"},"vehicle_type_id":"4","last_reported":1744711906,"current_range_meters":9200,"station_id":"ce4bgih2rcd13ifvqba0","pricing_plan_id":"cebpf4jnsgd1na2vs0mg"},{"bike_id":"f07728ba-90b2-4310-83fb-7ddced706373","system_id":"levelo_inurba_marseille","lat":43.31498,"lon":5.37277,"is_reserved":false,"is_disabled":false,"rental_uris":{"android":"levelo://app?vid=f07728ba-90b2-4310-83fb-7ddced706373","ios":"levelo://app?vid=f07728ba-90b2-4310-83fb-7ddced706373"},"vehicle_type_id":"4","last_reported":1744711906,"current_range_meters":8000,"station_id":"ce4bgt12rcd13ifvqcd0","pricing_plan_id":"cebpf4jnsgd1na2vs0mg"},{"bike_id":"c68384d5-1dbc-49d5-b131-fc74b09a4b50","system_id":"levelo_inurba_marseille","lat":43.29571,"lon":5.37527,"is_reserved":false,"is_disabled":false,"rental_uris":{"android":"levelo://app?vid=c68384d5-1dbc-49d5-b131-fc74b09a4b50","ios":"levelo://app?vid=c68384d5-1dbc-49d5-b131-fc74b09a4b50"},"vehicle_type_id":"4","last_reported":1744711906,"current_range_meters":6400,"station_id":"ce4bgh92rcd13ifvqb50","pricing_plan_id":"cebpf4jnsgd1na2vs0mg"},{"bike_id":"0029be8f-9f69-4005-aaf0-c6f3bc53409f","system_id":"levelo_inurba_marseille","lat":43.25859,"lon":5.39898,"is_reserved":false,"is_disabled":false,"rental_uris":{"android":"levelo://app?vid=0029be8f-9f69-4005-aaf0-c6f3bc53409f","ios":"levelo://app?vid=0029be8f-9f69-4005-aaf0-c6f3bc53409f"},"vehicle_type_id":"4","last_reported":1744711906,"current_range_meters":8400,"station_id":"","pricing_plan_id":"cebpf4jnsgd1na2vs0mg"},{"bike_id":"2f93173f-d02c-4e29-ab59-1fff882697d7","system_id":"levelo_inurba_marseille","lat":43.24046,"lon":5.37771,"is_reserved":false,"is_disabled":false,"rental_uris":{"android":"levelo://app?vid=2f93173f-d02c-4e29-ab59-1fff882697d7","ios":"levelo://app?vid=2f93173f-d02c-4e29-ab59-1fff882697d7"},"vehicle_type_id":"4","last_reported":1744711906,"current_range_meters":8400,"station_id":"ce4bhnp2rcd13ifvqgvg","pricing_plan_id":"cebpf4jnsgd1na2vs0mg"},{"bike_id":"51468568-4402-467a-84ce-936d643513e9","system_id":"levelo_inurba_marseille","lat":43.26556,"lon":5.37282,"is_reserved":false,"is_disabled":false,"rental_uris":{"android":"levelo://app?vid=51468568-4402-467a-84ce-936d643513e9","ios":"levelo://app?vid=51468568-4402-467a-84ce-936d643513e9"},"vehicle_type_id":"4","last_reported":1744711906,"current_range_meters":8800,"station_id":"ce4bhg12rcd13ifvqf70","pricing_plan_id":"cebpf4jnsgd1na2vs0mg"},{"bike_id":"5a6a6a86-cfb8-4d24-b27b-efbe268c3ba2","system_id":"levelo_inurba_marseille","lat":43.29261,"lon":5.37607,"is_reserved":false,"is_disabled":false,"rental_uris":{"android":"levelo://app?vid=5a6a6a86-cfb8-4d24-b27b-efbe268c3ba2","ios":"levelo://app?vid=5a6a6a86-cfb8-4d24-b27b-efbe268c3ba2"},"vehicle_type_id":"4","last_reported":1744711906,"current_range_meters":8800,"station_id":"ce4bgi12rcd13ifvqb80","pricing_plan_id":"cebpf4jnsgd1na2vs0mg"},{"bike_id":"521ff293-089c-4d75-8412-a7493db9e608","system_id":"levelo_inurba_marseille","lat":43.28124,"lon":5.37818,"is_reserved":false,"is_disabled":false,"rental_uris":{"android":"levelo://app?vid=521ff293-089c-4d75-8412-a7493db9e608","ios":"levelo://app?vid=521ff293-089c-4d75-8412-a7493db9e608"},"vehicle_type_id":"4","last_reported":1744711906,"current_range_meters":8800,"station_id":"ce4bha12rcd13ifvqee0","pricing_plan_id":"cebpf4jnsgd1na2vs0mg"},{"bike_id":"5f71bcd6-dad4-4aa7-af7a-856cdf4e712e","system_id":"levelo_inurba_marseille","lat":43.25942,"lon":5.40902,"is_reserved":false,"is_disabled":false,"rental_uris":{"android":"levelo://app?vid=5f71bcd6-dad4-4aa7-af7a-856cdf4e712e","ios":"levelo://app?vid=5f71bcd6-dad4-4aa7-af7a-856cdf4e712e"},"vehicle_type_id":"4","last_reported":1744711906,"current_range_meters":8800,"station_id":"ce4bhm92rcd13ifvqglg","pricing_plan_id":"cebpf4jnsgd1na2vs0mg"},{"bike_id":"88c56754-a4a8-4584-92b3-c71140b93004","system_id":"levelo_inurba_marseille","lat":43.29982,"lon":5.37174,"is_reserved":false,"is_disabled":false,"rental_uris":{"android":"levelo://app?vid=88c56754-a4a8-4584-92b3-c71140b93004","ios":"levelo://app?vid=88c56754-a4a8-4584-92b3-c71140b93004"},"vehicle_type_id":"4","last_reported":1744711906,"current_range_meters":8800,"station_id":"ce4bgr92rcd13ifvqc7g","pricing_plan_id":"cebpf4jnsgd1na2vs0mg"},{"bike_id":"ef734429-5e24-498b-98db-95ee16873a56","system_id":"levelo_inurba_marseille","lat":43.27072,"lon":5.42292,"is_reserved":false,"is_disabled":false,"rental_uris":{"android":"levelo://app?vid=ef734429-5e24-498b-98db-95ee16873a56","ios":"levelo://app?vid=ef734429-5e24-498b-98db-95ee16873a56"},"vehicle_type_id":"4","last_reported":1744711906,"current_range_meters":9200,"station_id":"ce4bhk92rcd13ifvqgb0","pricing_plan_id":"cebpf4jnsgd1na2vs0mg"},{"bike_id":"0d95a0a0-9a4c-4423-a59c-144156b04825","system_id":"levelo_inurba_marseille","lat":43.33605,"lon":5.4103,"is_reserved":false,"is_disabled":false,"rental_uris":{"android":"levelo://app?vid=0d95a0a0-9a4c-4423-a59c-144156b04825","ios":"levelo://app?vid=0d95a0a0-9a4c-4423-a59c-144156b04825"},"vehicle_type_id":"4","last_reported":1744711906,"current_range_meters":9200,"station_id":"ce4bhqh2rcd13ifvqhmg","pricing_plan_id":"cebpf4jnsgd1na2vs0mg"},{"bike_id":"a12a4ca1-f810-4d74-a484-47aa7a760bde","system_id":"levelo_inurba_marseille","lat":43.27079,"lon":5.42269,"is_reserved":false,"is_disabled":false,"rental_uris":{"android":"levelo://app?vid=a12a4ca1-f810-4d74-a484-47aa7a760bde","ios":"levelo://app?vid=a12a4ca1-f810-4d74-a484-47aa7a760bde"},"vehicle_type_id":"4","last_reported":1744711906,"current_range_meters":9200,"station_id":"ce4bhk92rcd13ifvqgb0","pricing_plan_id":"cebpf4jnsgd1na2vs0mg"},{"bike_id":"1a8167be-a6b0-472a-a204-133ffc2e6c50","system_id":"levelo_inurba_marseille","lat":43.27418,"lon":5.39405,"is_reserved":false,"is_disabled":false,"rental_uris":{"android":"levelo://app?vid=1a8167be-a6b0-472a-a204-133ffc2e6c50","ios":"levelo://app?vid=1a8167be-a6b0-472a-a204-133ffc2e6c50"},"vehicle_type_id":"4","last_reported":1744711906,"current_range_meters":9200,"station_id":"ce4bhdp2rcd13ifvqf20","pricing_plan_id":"cebpf4jnsgd1na2vs0mg"},{"bike_id":"660d2eb3-0dca-4724-8d5d-ef301fa8b51b","system_id":"levelo_inurba_marseille","lat":43.33027,"lon":5.39045,"is_reserved":false,"is_disabled":false,"rental_uris":{"android":"levelo://app?vid=660d2eb3-0dca-4724-8d5d-ef301fa8b51b","ios":"levelo://app?vid=660d2eb3-0dca-4724-8d5d-ef301fa8b51b"},"vehicle_type_id":"4","last_reported":1744711906,"current_range_meters":9600,"station_id":"ce4bhr92rcd13ifvqhrg","pricing_plan_id":"cebpf4jnsgd1na2vs0mg"},{"bike_id":"0e8e0d85-2932-4765-902a-4c3b14a3eac4","system_id":"levelo_inurba_marseille","lat":43.25631,"lon":5.37667,"is_reserved":false,"is_disabled":false,"rental_uris":{"android":"levelo://app?vid=0e8e0d85-2932-4765-902a-4c3b14a3eac4","ios":"levelo://app?vid=0e8e0d85-2932-4765-902a-4c3b14a3eac4"},"vehicle_type_id":"4","last_reported":1744711906,"current_range_meters":9600,"station_id":"","pricing_plan_id":"cebpf4jnsgd1na2vs0mg"},{"bike_id":"d5e9a8f9-b4cf-4ab9-be22-63ec0aa6d714","system_id":"levelo_inurba_marseille","lat":43.296383,"lon":5.405838,"is_reserved":false,"is_disabled":false,"rental_uris":{"android":"levelo://app?vid=d5e9a8f9-b4cf-4ab9-be22-63ec0aa6d714","ios":"levelo://app?vid=d5e9a8f9-b4cf-4ab9-be22-63ec0aa6d714"},"vehicle_type_id":"4","last_reported":1744711906,"current_range_meters":8000,"station_id":"ce4bh0h2rcd13ifvqd60","pricing_plan_id":"cebpf4jnsgd1na2vs0mg"},{"bike_id":"edeaab91-d22d-4a6f-8436-1a07bcb63946","system_id":"levelo_inurba_marseille","lat":43.28487,"lon":5.38417,"is_reserved":false,"is_disabled":false,"rental_uris":{"android":"levelo://app?vid=edeaab91-d22d-4a6f-8436-1a07bcb63946","ios":"levelo://app?vid=edeaab91-d22d-4a6f-8436-1a07bcb63946"},"vehicle_type_id":"4","last_reported":1744711906,"current_range_meters":10000,"station_id":"ce4bh512rcd13ifvqe3g","pricing_plan_id":"cebpf4jnsgd1na2vs0mg"},{"bike_id":"43884365-9342-4d08-8af5-5bad2a122ed4","system_id":"levelo_inurba_marseille","lat":43.29601,"lon":5.38104,"is_reserved":false,"is_disabled":false,"rental_uris":{"android":"levelo://app?vid=43884365-9342-4d08-8af5-5bad2a122ed4","ios":"levelo://app?vid=43884365-9342-4d08-8af5-5bad2a122ed4"},"vehicle_type_id":"4","last_reported":1744711906,"current_range_meters":10000,"station_id":"ce4bgl12rcd13ifvqbo0","pricing_plan_id":"cebpf4jnsgd1na2vs0mg"},{"bike_id":"36e5e970-772f-4f6c-aff2-6f8f89562603","system_id":"levelo_inurba_marseille","lat":43.30458,"lon":5.37909,"is_reserved":false,"is_disabled":false,"rental_uris":{"android":"levelo://app?vid=36e5e970-772f-4f6c-aff2-6f8f89562603","ios":"levelo://app?vid=36e5e970-772f-4f6c-aff2-6f8f89562603"},"vehicle_type_id":"4","last_reported":1744711906,"current_range_meters":10000,"station_id":"ce4bgup2rcd13ifvqcn0","pricing_plan_id":"cebpf4jnsgd1na2vs0mg"},{"bike_id":"6f403221-764e-4c53-93d0-66661d9ee93b","system_id":"levelo_inurba_marseille","lat":43.27204,"lon":5.39188,"is_reserved":false,"is_disabled":false,"rental_uris":{"android":"levelo://app?vid=6f403221-764e-4c53-93d0-66661d9ee93b","ios":"levelo://app?vid=6f403221-764e-4c53-93d0-66661d9ee93b"},"vehicle_type_id":"4","last_reported":1744711906,"current_range_meters":10000,"station_id":"ce4bhhp2rcd13ifvqfm0","pricing_plan_id":"cebpf4jnsgd1na2vs0mg"},{"bike_id":"27a55245-8dd2-4f1a-af63-95a9d7b71690","system_id":"levelo_inurba_marseille","lat":43.31067,"lon":5.37843,"is_reserved":false,"is_disabled":false,"rental_uris":{"android":"levelo://app?vid=27a55245-8dd2-4f1a-af63-95a9d7b71690","ios":"levelo://app?vid=27a55245-8dd2-4f1a-af63-95a9d7b71690"},"vehicle_type_id":"4","last_reported":1744711906,"current_range_meters":10000,"station_id":"","pricing_plan_id":"cebpf4jnsgd1na2vs0mg"},{"bike_id":"9839424c-4714-40b1-baf9-135b03e51c84","system_id":"levelo_inurba_marseille","lat":43.32371,"lon":5.38882,"is_reserved":false,"is_disabled":false,"rental_uris":{"android":"levelo://app?vid=9839424c-4714-40b1-baf9-135b03e51c84","ios":"levelo://app?vid=9839424c-4714-40b1-baf9-135b03e51c84"},"vehicle_type_id":"4","last_reported":1744711906,"current_range_meters":10000,"station_id":"ce4bhqp2rcd13ifvqhog","pricing_plan_id":"cebpf4jnsgd1na2vs0mg"},{"bike_id":"a6b4f83f-3821-43df-a2af-8379d5ea08cc","system_id":"levelo_inurba_marseille","lat":43.30309,"lon":5.36894,"is_reserved":false,"is_disabled":false,"rental_uris":{"android":"levelo://app?vid=a6b4f83f-3821-43df-a2af-8379d5ea08cc","ios":"levelo://app?vid=a6b4f83f-3821-43df-a2af-8379d5ea08cc"},"vehicle_type_id":"4","last_reported":1744711906,"current_range_meters":10800,"station_id":"ce4bgqh2rcd13ifvqc5g","pricing_plan_id":"cebpf4jnsgd1na2vs0mg"},{"bike_id":"db366f6a-4713-4b08-b623-90c23cfcb48f","system_id":"levelo_inurba_marseille","lat":43.260402,"lon":5.40745,"is_reserved":false,"is_disabled":false,"rental_uris":{"android":"levelo://app?vid=db366f6a-4713-4b08-b623-90c23cfcb48f","ios":"levelo://app?vid=db366f6a-4713-4b08-b623-90c23cfcb48f"},"vehicle_type_id":"4","last_reported":1744711906,"current_range_meters":13600,"station_id":"ce4bho12rcd13ifvqh2g","pricing_plan_id":"cebpf4jnsgd1na2vs0mg"},{"bike_id":"93676aa8-d320-4c2d-8b07-a119495392e0","system_id":"levelo_inurba_marseille","lat":43.30316,"lon":5.36888,"is_reserved":false,"is_disabled":false,"rental_uris":{"android":"levelo://app?vid=93676aa8-d320-4c2d-8b07-a119495392e0","ios":"levelo://app?vid=93676aa8-d320-4c2d-8b07-a119495392e0"},"vehicle_type_id":"4","last_reported":1744711906,"current_range_meters":11200,"station_id":"ce4bgqh2rcd13ifvqc5g","pricing_plan_id":"cebpf4jnsgd1na2vs0mg"},{"bike_id":"45152fd8-c07c-4d52-b7a7-6670add35e00","system_id":"levelo_inurba_marseille","lat":43.26112,"lon":5.42077,"is_reserved":false,"is_disabled":false,"rental_uris":{"android":"levelo://app?vid=45152fd8-c07c-4d52-b7a7-6670add35e00","ios":"levelo://app?vid=45152fd8-c07c-4d52-b7a7-6670add35e00"},"vehicle_type_id":"4","last_reported":1744711906,"current_range_meters":11200,"station_id":"","pricing_plan_id":"cebpf4jnsgd1na2vs0mg"},{"bike_id":"54d93669-ba49-4c3f-bc88-05529ed793cd","system_id":"levelo_inurba_marseille","lat":43.30537,"lon":5.36553,"is_reserved":false,"is_disabled":false,"rental_uris":{"android":"levelo://app?vid=54d93669-ba49-4c3f-bc88-05529ed793cd","ios":"levelo://app?vid=54d93669-ba49-4c3f-bc88-05529ed793cd"},"vehicle_type_id":"4","last_reported":1744711906,"current_range_meters":11200,"station_id":"ce4bgs12rcd13ifvqcag","pricing_plan_id":"cebpf4jnsgd1na2vs0mg"},{"bike_id":"d7f9283e-8d2f-4f15-8f89-1b4585b85901","system_id":"levelo_inurba_marseille","lat":43.32542,"lon":5.41444,"is_reserved":false,"is_disabled":false,"rental_uris":{"android":"levelo://app?vid=d7f9283e-8d2f-4f15-8f89-1b4585b85901","ios":"levelo://app?vid=d7f9283e-8d2f-4f15-8f89-1b4585b85901"},"vehicle_type_id":"4","last_reported":1744711906,"current_range_meters":11200,"station_id":"ce4bhq12rcd13ifvqhhg","pricing_plan_id":"cebpf4jnsgd1na2vs0mg"},{"bike_id":"784cecb1-f3a0-4e5e-abc1-8b5a5974bcac","system_id":"levelo_inurba_marseille","lat":43.25935,"lon":5.4091,"is_reserved":false,"is_disabled":false,"rental_uris":{"android":"levelo://app?vid=784cecb1-f3a0-4e5e-abc1-8b5a5974bcac","ios":"levelo://app?vid=784cecb1-f3a0-4e5e-abc1-8b5a5974bcac"},"vehicle_type_id":"4","last_reported":1744711906,"current_range_meters":11600,"station_id":"ce4bhm92rcd13ifvqglg","pricing_plan_id":"cebpf4jnsgd1na2vs0mg"},{"bike_id":"a81e5b4b-a0c6-4c9a-a2d0-0e5c4955e2ad","system_id":"levelo_inurba_marseille","lat":43.21753,"lon":5.34609,"is_reserved":false,"is_disabled":false,"rental_uris":{"android":"levelo://app?vid=a81e5b4b-a0c6-4c9a-a2d0-0e5c4955e2ad","ios":"levelo://app?vid=a81e5b4b-a0c6-4c9a-a2d0-0e5c4955e2ad"},"vehicle_type_id":"4","last_reported":1744711906,"current_range_meters":11600,"station_id":"st_cvj6r9ubvosntc0bgbag","pricing_plan_id":"cebpf4jnsgd1na2vs0mg"},{"bike_id":"4810a73d-5efd-4bc0-84ba-716d51691df5","system_id":"levelo_inurba_marseille","lat":43.24179,"lon":5.39732,"is_reserved":false,"is_disabled":false,"rental_uris":{"android":"levelo://app?vid=4810a73d-5efd-4bc0-84ba-716d51691df5","ios":"levelo://app?vid=4810a73d-5efd-4bc0-84ba-716d51691df5"},"vehicle_type_id":"4","last_reported":1744711906,"current_range_meters":12000,"station_id":"ce4bhn12rcd13ifvqgpg","pricing_plan_id":"cebpf4jnsgd1na2vs0mg"},{"bike_id":"37342bdf-d586-43ba-a25b-da22b3393da6","system_id":"levelo_inurba_marseille","lat":43.29166,"lon":5.37489,"is_reserved":false,"is_disabled":false,"rental_uris":{"android":"levelo://app?vid=37342bdf-d586-43ba-a25b-da22b3393da6","ios":"levelo://app?vid=37342bdf-d586-43ba-a25b-da22b3393da6"},"vehicle_type_id":"4","last_reported":1744711906,"current_range_meters":12000,"station_id":"","pricing_plan_id":"cebpf4jnsgd1na2vs0mg"},{"bike_id":"54a50b69-55e6-4bfa-b48f-570734facdd5","system_id":"levelo_inurba_marseille","lat":43.30949,"lon":5.39027,"is_reserved":false,"is_disabled":false,"rental_uris":{"android":"levelo://app?vid=54a50b69-55e6-4bfa-b48f-570734facdd5","ios":"levelo://app?vid=54a50b69-55e6-4bfa-b48f-570734facdd5"},"vehicle_type_id":"4","last_reported":1744711906,"current_range_meters":12000,"station_id":"ce4bgup2rcd13ifvqco0","pricing_plan_id":"cebpf4jnsgd1na2vs0mg"},{"bike_id":"5f9a6946-f635-4294-851c-00862e0833e4","system_id":"levelo_inurba_marseille","lat":43.28412,"lon":5.34977,"is_reserved":false,"is_disabled":false,"rental_uris":{"android":"levelo://app?vid=5f9a6946-f635-4294-851c-00862e0833e4","ios":"levelo://app?vid=5f9a6946-f635-4294-851c-00862e0833e4"},"vehicle_type_id":"4","last_reported":1744711906,"current_range_meters":12400,"station_id":"ce4bhbh2rcd13ifvqepg","pricing_plan_id":"cebpf4jnsgd1na2vs0mg"},{"bike_id":"e6b311f1-c989-49e2-88bf-888eaad69601","system_id":"levelo_inurba_marseille","lat":43.25873,"lon":5.39894,"is_reserved":false,"is_disabled":false,"rental_uris":{"android":"levelo://app?vid=e6b311f1-c989-49e2-88bf-888eaad69601","ios":"levelo://app?vid=e6b311f1-c989-49e2-88bf-888eaad69601"},"vehicle_type_id":"4","last_reported":1744711906,"current_range_meters":12800,"station_id":"ce4bhl92rcd13ifvqghg","pricing_plan_id":"cebpf4jnsgd1na2vs0mg"},{"bike_id":"9b58b6c4-062a-4420-9fda-f253f297e853","system_id":"levelo_inurba_marseille","lat":43.30547,"lon":5.36534,"is_reserved":false,"is_disabled":false,"rental_uris":{"android":"levelo://app?vid=9b58b6c4-062a-4420-9fda-f253f297e853","ios":"levelo://app?vid=9b58b6c4-062a-4420-9fda-f253f297e853"},"vehicle_type_id":"4","last_reported":1744711906,"current_range_meters":12800,"station_id":"ce4bgs12rcd13ifvqcag","pricing_plan_id":"cebpf4jnsgd1na2vs0mg"},{"bike_id":"129e1c37-93e9-483a-b799-a451e622173f","system_id":"levelo_inurba_marseille","lat":43.2962,"lon":5.37156,"is_reserved":false,"is_disabled":false,"rental_uris":{"android":"levelo://app?vid=129e1c37-93e9-483a-b799-a451e622173f","ios":"levelo://app?vid=129e1c37-93e9-483a-b799-a451e622173f"},"vehicle_type_id":"4","last_reported":1744711906,"current_range_meters":13600,"station_id":"ce4bgnh2rcd13ifvqc0g","pricing_plan_id":"cebpf4jnsgd1na2vs0mg"},{"bike_id":"5caef5dd-cb5f-4d35-bff4-7a59ad0d0a1c","system_id":"levelo_inurba_marseille","lat":43.2957,"lon":5.3751,"is_reserved":false,"is_disabled":true,"rental_uris":{"android":"levelo://app?vid=5caef5dd-cb5f-4d35-bff4-7a59ad0d0a1c","ios":"levelo://app?vid=5caef5dd-cb5f-4d35-bff4-7a59ad0d0a1c"},"vehicle_type_id":"4","last_reported":1744711906,"current_range_meters":13600,"station_id":"ce4bgh92rcd13ifvqb50","pricing_plan_id":"cebpf4jnsgd1na2vs0mg"},{"bike_id":"b9fc8cc3-945a-4db5-b7aa-66d235d9bf40","system_id":"levelo_inurba_marseille","lat":43.30867,"lon":5.37175,"is_reserved":false,"is_disabled":false,"rental_uris":{"android":"levelo://app?vid=b9fc8cc3-945a-4db5-b7aa-66d235d9bf40","ios":"levelo://app?vid=b9fc8cc3-945a-4db5-b7aa-66d235d9bf40"},"vehicle_type_id":"4","last_reported":1744711906,"current_range_meters":13600,"station_id":"ce4bguh2rcd13ifvqckg","pricing_plan_id":"cebpf4jnsgd1na2vs0mg"},{"bike_id":"33941653-45a7-4a37-8a83-b97caee3c9aa","system_id":"levelo_inurba_marseille","lat":43.27059,"lon":5.40262,"is_reserved":false,"is_disabled":false,"rental_uris":{"android":"levelo://app?vid=33941653-45a7-4a37-8a83-b97caee3c9aa","ios":"levelo://app?vid=33941653-45a7-4a37-8a83-b97caee3c9aa"},"vehicle_type_id":"4","last_reported":1744711906,"current_range_meters":13600,"station_id":"ce4bhk92rcd13ifvqgc0","pricing_plan_id":"cebpf4jnsgd1na2vs0mg"},{"bike_id":"d2d37f01-fa46-4fbc-a721-7789f4003663","system_id":"levelo_inurba_marseille","lat":43.24966,"lon":5.38991,"is_reserved":false,"is_disabled":false,"rental_uris":{"android":"levelo://app?vid=d2d37f01-fa46-4fbc-a721-7789f4003663","ios":"levelo://app?vid=d2d37f01-fa46-4fbc-a721-7789f4003663"},"vehicle_type_id":"4","last_reported":1744711906,"current_range_meters":14000,"station_id":"","pricing_plan_id":"cebpf4jnsgd1na2vs0mg"},{"bike_id":"2d6fe4c8-5d44-495b-85b2-9dce69368155","system_id":"levelo_inurba_marseille","lat":43.31225,"lon":5.36863,"is_reserved":false,"is_disabled":false,"rental_uris":{"android":"levelo://app?vid=2d6fe4c8-5d44-495b-85b2-9dce69368155","ios":"levelo://app?vid=2d6fe4c8-5d44-495b-85b2-9dce69368155"},"vehicle_type_id":"4","last_reported":1744711906,"current_range_meters":16000,"station_id":"ce4bgl92rcd13ifvqbq0","pricing_plan_id":"cebpf4jnsgd1na2vs0mg"},{"bike_id":"2b96c7d4-ca85-4c0c-b5d0-67d92b286b61","system_id":"levelo_inurba_marseille","lat":43.27839,"lon":5.39211,"is_reserved":false,"is_disabled":false,"rental_uris":{"android":"levelo://app?vid=2b96c7d4-ca85-4c0c-b5d0-67d92b286b61","ios":"levelo://app?vid=2b96c7d4-ca85-4c0c-b5d0-67d92b286b61"},"vehicle_type_id":"4","last_reported":1744711906,"current_range_meters":14000,"station_id":"ce4bhjp2rcd13ifvqga0","pricing_plan_id":"cebpf4jnsgd1na2vs0mg"},{"bike_id":"47a85634-40b2-4bd1-8409-1d1cf2f06bdc","system_id":"levelo_inurba_marseille","lat":43.240573,"lon":5.37782,"is_reserved":false,"is_disabled":false,"rental_uris":{"android":"levelo://app?vid=47a85634-40b2-4bd1-8409-1d1cf2f06bdc","ios":"levelo://app?vid=47a85634-40b2-4bd1-8409-1d1cf2f06bdc"},"vehicle_type_id":"4","last_reported":1744711906,"current_range_meters":14400,"station_id":"ce4bhnp2rcd13ifvqgvg","pricing_plan_id":"cebpf4jnsgd1na2vs0mg"},{"bike_id":"192632e2-2665-465c-9c1c-47eaef1fd2bb","system_id":"levelo_inurba_marseille","lat":43.33598,"lon":5.41007,"is_reserved":false,"is_disabled":false,"rental_uris":{"android":"levelo://app?vid=192632e2-2665-465c-9c1c-47eaef1fd2bb","ios":"levelo://app?vid=192632e2-2665-465c-9c1c-47eaef1fd2bb"},"vehicle_type_id":"4","last_reported":1744711906,"current_range_meters":14400,"station_id":"ce4bhqh2rcd13ifvqhmg","pricing_plan_id":"cebpf4jnsgd1na2vs0mg"},{"bike_id":"74e2eb36-43a1-4496-8066-61bdd83ac34b","system_id":"levelo_inurba_marseille","lat":43.2706,"lon":5.40261,"is_reserved":false,"is_disabled":false,"rental_uris":{"android":"levelo://app?vid=74e2eb36-43a1-4496-8066-61bdd83ac34b","ios":"levelo://app?vid=74e2eb36-43a1-4496-8066-61bdd83ac34b"},"vehicle_type_id":"4","last_reported":1744711906,"current_range_meters":14400,"station_id":"ce4bhk92rcd13ifvqgc0","pricing_plan_id":"cebpf4jnsgd1na2vs0mg"},{"bike_id":"bdbfa91d-f51b-4c92-a880-1cae845c2a5c","system_id":"levelo_inurba_marseille","lat":43.337444,"lon":5.374475,"is_reserved":false,"is_disabled":false,"rental_uris":{"android":"levelo://app?vid=bdbfa91d-f51b-4c92-a880-1cae845c2a5c","ios":"levelo://app?vid=bdbfa91d-f51b-4c92-a880-1cae845c2a5c"},"vehicle_type_id":"4","last_reported":1744711906,"current_range_meters":14800,"station_id":"","pricing_plan_id":"cebpf4jnsgd1na2vs0mg"},{"bike_id":"c9fbfbd0-ac82-410e-8a58-1795989b1898","system_id":"levelo_inurba_marseille","lat":43.30479,"lon":5.37899,"is_reserved":false,"is_disabled":false,"rental_uris":{"android":"levelo://app?vid=c9fbfbd0-ac82-410e-8a58-1795989b1898","ios":"levelo://app?vid=c9fbfbd0-ac82-410e-8a58-1795989b1898"},"vehicle_type_id":"4","last_reported":1744711906,"current_range_meters":14800,"station_id":"ce4bgup2rcd13ifvqcn0","pricing_plan_id":"cebpf4jnsgd1na2vs0mg"},{"bike_id":"e298fb17-60fe-4ee1-bc94-645f9b8b1bb4","system_id":"levelo_inurba_marseille","lat":43.28982,"lon":5.37626,"is_reserved":false,"is_disabled":false,"rental_uris":{"android":"levelo://app?vid=e298fb17-60fe-4ee1-bc94-645f9b8b1bb4","ios":"levelo://app?vid=e298fb17-60fe-4ee1-bc94-645f9b8b1bb4"},"vehicle_type_id":"4","last_reported":1744711906,"current_range_meters":14800,"station_id":"","pricing_plan_id":"cebpf4jnsgd1na2vs0mg"},{"bike_id":"5078f69c-7b8f-40ee-b319-543e77373099","system_id":"levelo_inurba_marseille","lat":43.25708,"lon":5.41105,"is_reserved":false,"is_disabled":false,"rental_uris":{"android":"levelo://app?vid=5078f69c-7b8f-40ee-b319-543e77373099","ios":"levelo://app?vid=5078f69c-7b8f-40ee-b319-543e77373099"},"vehicle_type_id":"4","last_reported":1744711906,"current_range_meters":14800,"station_id":"ce4bhkp2rcd13ifvqgd0","pricing_plan_id":"cebpf4jnsgd1na2vs0mg"},{"bike_id":"efaefade-dbf2-476e-a7e9-dbc8630315e7","system_id":"levelo_inurba_marseille","lat":43.303201,"lon":5.403052,"is_reserved":false,"is_disabled":false,"rental_uris":{"android":"levelo://app?vid=efaefade-dbf2-476e-a7e9-dbc8630315e7","ios":"levelo://app?vid=efaefade-dbf2-476e-a7e9-dbc8630315e7"},"vehicle_type_id":"4","last_reported":1744711906,"current_range_meters":15200,"station_id":"ce4bh012rcd13ifvqd10","pricing_plan_id":"cebpf4jnsgd1na2vs0mg"},{"bike_id":"fccaee15-ed38-41df-92ba-57362d80a9a2","system_id":"levelo_inurba_marseille","lat":43.30574,"lon":5.36509,"is_reserved":false,"is_disabled":false,"rental_uris":{"android":"levelo://app?vid=fccaee15-ed38-41df-92ba-57362d80a9a2","ios":"levelo://app?vid=fccaee15-ed38-41df-92ba-57362d80a9a2"},"vehicle_type_id":"4","last_reported":1744711906,"current_range_meters":15200,"station_id":"ce4bgs12rcd13ifvqcag","pricing_plan_id":"cebpf4jnsgd1na2vs0mg"},{"bike_id":"d554e03d-9412-40b8-b2f0-b47a9f259332","system_id":"levelo_inurba_marseille","lat":43.30475,"lon":5.37907,"is_reserved":false,"is_disabled":false,"rental_uris":{"android":"levelo://app?vid=d554e03d-9412-40b8-b2f0-b47a9f259332","ios":"levelo://app?vid=d554e03d-9412-40b8-b2f0-b47a9f259332"},"vehicle_type_id":"4","last_reported":1744711906,"current_range_meters":15200,"station_id":"ce4bgup2rcd13ifvqcn0","pricing_plan_id":"cebpf4jnsgd1na2vs0mg"},{"bike_id":"e33b7047-9512-4b04-862d-afc599620999","system_id":"levelo_inurba_marseille","lat":43.2706,"lon":5.40271,"is_reserved":false,"is_disabled":false,"rental_uris":{"android":"levelo://app?vid=e33b7047-9512-4b04-862d-afc599620999","ios":"levelo://app?vid=e33b7047-9512-4b04-862d-afc599620999"},"vehicle_type_id":"4","last_reported":1744711906,"current_range_meters":15200,"station_id":"ce4bhk92rcd13ifvqgc0","pricing_plan_id":"cebpf4jnsgd1na2vs0mg"},{"bike_id":"383d248a-d18c-4376-b0ab-fd793b53feca","system_id":"levelo_inurba_marseille","lat":43.31094,"lon":5.42379,"is_reserved":false,"is_disabled":false,"rental_uris":{"android":"levelo://app?vid=383d248a-d18c-4376-b0ab-fd793b53feca","ios":"levelo://app?vid=383d248a-d18c-4376-b0ab-fd793b53feca"},"vehicle_type_id":"4","last_reported":1744711906,"current_range_meters":15200,"station_id":"ce4bhp92rcd13ifvqhag","pricing_plan_id":"cebpf4jnsgd1na2vs0mg"},{"bike_id":"edeb31da-c7df-42c5-8538-462c9290a386","system_id":"levelo_inurba_marseille","lat":43.33019,"lon":5.39042,"is_reserved":false,"is_disabled":false,"rental_uris":{"android":"levelo://app?vid=edeb31da-c7df-42c5-8538-462c9290a386","ios":"levelo://app?vid=edeb31da-c7df-42c5-8538-462c9290a386"},"vehicle_type_id":"4","last_reported":1744711906,"current_range_meters":16000,"station_id":"ce4bhr92rcd13ifvqhrg","pricing_plan_id":"cebpf4jnsgd1na2vs0mg"},{"bike_id":"dfbd81c5-bab9-45ff-88b1-4ffe35412cad","system_id":"levelo_inurba_marseille","lat":43.23147,"lon":5.43717,"is_reserved":false,"is_disabled":false,"rental_uris":{"android":"levelo://app?vid=dfbd81c5-bab9-45ff-88b1-4ffe35412cad","ios":"levelo://app?vid=dfbd81c5-bab9-45ff-88b1-4ffe35412cad"},"vehicle_type_id":"4","last_reported":1744711906,"current_range_meters":16000,"station_id":"ce4bhmp2rcd13ifvqgog","pricing_plan_id":"cebpf4jnsgd1na2vs0mg"},{"bike_id":"96f67fc3-1d8d-4e0e-b60a-683312315db0","system_id":"levelo_inurba_marseille","lat":43.31352,"lon":5.36716,"is_reserved":false,"is_disabled":false,"rental_uris":{"android":"levelo://app?vid=96f67fc3-1d8d-4e0e-b60a-683312315db0","ios":"levelo://app?vid=96f67fc3-1d8d-4e0e-b60a-683312315db0"},"vehicle_type_id":"4","last_reported":1744711906,"current_range_meters":16000,"station_id":"ce4bgr92rcd13ifvqc6g","pricing_plan_id":"cebpf4jnsgd1na2vs0mg"},{"bike_id":"77037b3f-050a-4708-b85e-3feee4d6225d","system_id":"levelo_inurba_marseille","lat":43.30462,"lon":5.37888,"is_reserved":false,"is_disabled":false,"rental_uris":{"android":"levelo://app?vid=77037b3f-050a-4708-b85e-3feee4d6225d","ios":"levelo://app?vid=77037b3f-050a-4708-b85e-3feee4d6225d"},"vehicle_type_id":"4","last_reported":1744711906,"current_range_meters":16000,"station_id":"ce4bgup2rcd13ifvqcn0","pricing_plan_id":"cebpf4jnsgd1na2vs0mg"},{"bike_id":"4b3747ad-70b8-45b3-a21f-9645dba15850","system_id":"levelo_inurba_marseille","lat":43.25913,"lon":5.4089,"is_reserved":false,"is_disabled":false,"rental_uris":{"android":"levelo://app?vid=4b3747ad-70b8-45b3-a21f-9645dba15850","ios":"levelo://app?vid=4b3747ad-70b8-45b3-a21f-9645dba15850"},"vehicle_type_id":"4","last_reported":1744711906,"current_range_meters":16000,"station_id":"ce4bhm92rcd13ifvqglg","pricing_plan_id":"cebpf4jnsgd1na2vs0mg"},{"bike_id":"d37baba7-ee45-485a-a3e0-c76cb6429c84","system_id":"levelo_inurba_marseille","lat":43.30133,"lon":5.37425,"is_reserved":false,"is_disabled":false,"rental_uris":{"android":"levelo://app?vid=d37baba7-ee45-485a-a3e0-c76cb6429c84","ios":"levelo://app?vid=d37baba7-ee45-485a-a3e0-c76cb6429c84"},"vehicle_type_id":"4","last_reported":1744711906,"current_range_meters":16400,"station_id":"ce4bgs92rcd13ifvqcc0","pricing_plan_id":"cebpf4jnsgd1na2vs0mg"},{"bike_id":"415db733-f514-4806-a29d-91dddd76fe1c","system_id":"levelo_inurba_marseille","lat":43.30314,"lon":5.36896,"is_reserved":false,"is_disabled":false,"rental_uris":{"android":"levelo://app?vid=415db733-f514-4806-a29d-91dddd76fe1c","ios":"levelo://app?vid=415db733-f514-4806-a29d-91dddd76fe1c"},"vehicle_type_id":"4","last_reported":1744711906,"current_range_meters":16400,"station_id":"ce4bgqh2rcd13ifvqc5g","pricing_plan_id":"cebpf4jnsgd1na2vs0mg"},{"bike_id":"7b504d01-099b-4634-b191-543e380f75b8","system_id":"levelo_inurba_marseille","lat":43.25006,"lon":5.38918,"is_reserved":false,"is_disabled":false,"rental_uris":{"android":"levelo://app?vid=7b504d01-099b-4634-b191-543e380f75b8","ios":"levelo://app?vid=7b504d01-099b-4634-b191-543e380f75b8"},"vehicle_type_id":"4","last_reported":1744711906,"current_range_meters":16400,"station_id":"ce4bhgp2rcd13ifvqfd0","pricing_plan_id":"cebpf4jnsgd1na2vs0mg"},{"bike_id":"7eacb872-0584-4b06-8fad-feb612d3799a","system_id":"levelo_inurba_marseille","lat":43.29713,"lon":5.3814,"is_reserved":false,"is_disabled":false,"rental_uris":{"android":"levelo://app?vid=7eacb872-0584-4b06-8fad-feb612d3799a","ios":"levelo://app?vid=7eacb872-0584-4b06-8fad-feb612d3799a"},"vehicle_type_id":"4","last_reported":1744711906,"current_range_meters":16400,"station_id":"","pricing_plan_id":"cebpf4jnsgd1na2vs0mg"},{"bike_id":"6b5b8e18-66bf-409c-b1dd-ee755eb7ed4b","system_id":"levelo_inurba_marseille","lat":43.30886,"lon":5.37208,"is_reserved":false,"is_disabled":false,"rental_uris":{"android":"levelo://app?vid=6b5b8e18-66bf-409c-b1dd-ee755eb7ed4b","ios":"levelo://app?vid=6b5b8e18-66bf-409c-b1dd-ee755eb7ed4b"},"vehicle_type_id":"4","last_reported":1744711906,"current_range_meters":16400,"station_id":"ce4bguh2rcd13ifvqckg","pricing_plan_id":"cebpf4jnsgd1na2vs0mg"},{"bike_id":"2caebf1c-7dd1-4d93-97aa-8cb87eccf6d4","system_id":"levelo_inurba_marseille","lat":43.31089,"lon":5.42428,"is_reserved":false,"is_disabled":false,"rental_uris":{"android":"levelo://app?vid=2caebf1c-7dd1-4d93-97aa-8cb87eccf6d4","ios":"levelo://app?vid=2caebf1c-7dd1-4d93-97aa-8cb87eccf6d4"},"vehicle_type_id":"4","last_reported":1744711906,"current_range_meters":16400,"station_id":"ce4bhp92rcd13ifvqhag","pricing_plan_id":"cebpf4jnsgd1na2vs0mg"},{"bike_id":"4aef0fa6-a0da-4fa2-9099-9fa1ba81c16a","system_id":"levelo_inurba_marseille","lat":43.28171,"lon":5.40439,"is_reserved":false,"is_disabled":false,"rental_uris":{"android":"levelo://app?vid=4aef0fa6-a0da-4fa2-9099-9fa1ba81c16a","ios":"levelo://app?vid=4aef0fa6-a0da-4fa2-9099-9fa1ba81c16a"},"vehicle_type_id":"4","last_reported":1744711906,"current_range_meters":16800,"station_id":"","pricing_plan_id":"cebpf4jnsgd1na2vs0mg"},{"bike_id":"35639424-47db-4f67-911e-79cf9b9a8925","system_id":"levelo_inurba_marseille","lat":43.30913,"lon":5.36854,"is_reserved":false,"is_disabled":false,"rental_uris":{"android":"levelo://app?vid=35639424-47db-4f67-911e-79cf9b9a8925","ios":"levelo://app?vid=35639424-47db-4f67-911e-79cf9b9a8925"},"vehicle_type_id":"4","last_reported":1744711906,"current_range_meters":16800,"station_id":"ce4bgn92rcd13ifvqbvg","pricing_plan_id":"cebpf4jnsgd1na2vs0mg"},{"bike_id":"1cf89ce8-a397-429f-8937-c4df001cd6b1","system_id":"levelo_inurba_marseille","lat":43.27061,"lon":5.4026,"is_reserved":false,"is_disabled":false,"rental_uris":{"android":"levelo://app?vid=1cf89ce8-a397-429f-8937-c4df001cd6b1","ios":"levelo://app?vid=1cf89ce8-a397-429f-8937-c4df001cd6b1"},"vehicle_type_id":"4","last_reported":1744711906,"current_range_meters":16800,"station_id":"ce4bhk92rcd13ifvqgc0","pricing_plan_id":"cebpf4jnsgd1na2vs0mg"},{"bike_id":"1a358754-c8c1-4cd5-95c7-e8812310fd2c","system_id":"levelo_inurba_marseille","lat":43.30913,"lon":5.36856,"is_reserved":false,"is_disabled":false,"rental_uris":{"android":"levelo://app?vid=1a358754-c8c1-4cd5-95c7-e8812310fd2c","ios":"levelo://app?vid=1a358754-c8c1-4cd5-95c7-e8812310fd2c"},"vehicle_type_id":"4","last_reported":1744711906,"current_range_meters":16800,"station_id":"ce4bgn92rcd13ifvqbvg","pricing_plan_id":"cebpf4jnsgd1na2vs0mg"},{"bike_id":"2099a43f-8503-45f2-b884-0d67c8402eb0","system_id":"levelo_inurba_marseille","lat":43.29599,"lon":5.37691,"is_reserved":false,"is_disabled":true,"rental_uris":{"android":"levelo://app?vid=2099a43f-8503-45f2-b884-0d67c8402eb0","ios":"levelo://app?vid=2099a43f-8503-45f2-b884-0d67c8402eb0"},"vehicle_type_id":"4","last_reported":1744711906,"current_range_meters":16800,"station_id":"ce4bgi92rcd13ifvqb90","pricing_plan_id":"cebpf4jnsgd1na2vs0mg"},{"bike_id":"944bddab-9f41-4da7-80e2-b3e803e6b9a5","system_id":"levelo_inurba_marseille","lat":43.21192,"lon":5.350724,"is_reserved":false,"is_disabled":false,"rental_uris":{"android":"levelo://app?vid=944bddab-9f41-4da7-80e2-b3e803e6b9a5","ios":"levelo://app?vid=944bddab-9f41-4da7-80e2-b3e803e6b9a5"},"vehicle_type_id":"4","last_reported":1744711906,"current_range_meters":16800,"station_id":"st_cvj6sg6p6f1abm77japg","pricing_plan_id":"cebpf4jnsgd1na2vs0mg"},{"bike_id":"70a649a1-1bf4-49b2-bc89-1f71b8cf694e","system_id":"levelo_inurba_marseille","lat":43.30953,"lon":5.39054,"is_reserved":false,"is_disabled":false,"rental_uris":{"android":"levelo://app?vid=70a649a1-1bf4-49b2-bc89-1f71b8cf694e","ios":"levelo://app?vid=70a649a1-1bf4-49b2-bc89-1f71b8cf694e"},"vehicle_type_id":"4","last_reported":1744711906,"current_range_meters":16800,"station_id":"ce4bgup2rcd13ifvqco0","pricing_plan_id":"cebpf4jnsgd1na2vs0mg"},{"bike_id":"504cf016-be85-40ae-bd6e-21fe1e837c30","system_id":"levelo_inurba_marseille","lat":43.32485,"lon":5.36554,"is_reserved":false,"is_disabled":false,"rental_uris":{"android":"levelo://app?vid=504cf016-be85-40ae-bd6e-21fe1e837c30","ios":"levelo://app?vid=504cf016-be85-40ae-bd6e-21fe1e837c30"},"vehicle_type_id":"4","last_reported":1744711906,"current_range_meters":17200,"station_id":"ce4bhs12rcd13ifvqhvg","pricing_plan_id":"cebpf4jnsgd1na2vs0mg"},{"bike_id":"f966fa9e-557e-4bff-9f78-527b59e3dd57","system_id":"levelo_inurba_marseille","lat":43.276826,"lon":5.388578,"is_reserved":false,"is_disabled":false,"rental_uris":{"android":"levelo://app?vid=f966fa9e-557e-4bff-9f78-527b59e3dd57","ios":"levelo://app?vid=f966fa9e-557e-4bff-9f78-527b59e3dd57"},"vehicle_type_id":"4","last_reported":1744711906,"current_range_meters":17200,"station_id":"ce4bhi12rcd13ifvqfo0","pricing_plan_id":"cebpf4jnsgd1na2vs0mg"},{"bike_id":"8cbd2531-c5b2-48f4-8519-f32a3a880ece","system_id":"levelo_inurba_marseille","lat":43.30518,"lon":5.36528,"is_reserved":false,"is_disabled":false,"rental_uris":{"android":"levelo://app?vid=8cbd2531-c5b2-48f4-8519-f32a3a880ece","ios":"levelo://app?vid=8cbd2531-c5b2-48f4-8519-f32a3a880ece"},"vehicle_type_id":"4","last_reported":1744711906,"current_range_meters":17200,"station_id":"ce4bgs12rcd13ifvqcag","pricing_plan_id":"cebpf4jnsgd1na2vs0mg"},{"bike_id":"ea302315-b185-4216-9579-fbabb6fbb376","system_id":"levelo_inurba_marseille","lat":43.30149,"lon":5.38078,"is_reserved":false,"is_disabled":false,"rental_uris":{"android":"levelo://app?vid=ea302315-b185-4216-9579-fbabb6fbb376","ios":"levelo://app?vid=ea302315-b185-4216-9579-fbabb6fbb376"},"vehicle_type_id":"4","last_reported":1744711906,"current_range_meters":17200,"station_id":"ce4bgjp2rcd13ifvqbh0","pricing_plan_id":"cebpf4jnsgd1na2vs0mg"},{"bike_id":"f8a2aca9-a595-41b4-9746-786cf0fc2e07","system_id":"levelo_inurba_marseille","lat":43.29579,"lon":5.37509,"is_reserved":false,"is_disabled":true,"rental_uris":{"android":"levelo://app?vid=f8a2aca9-a595-41b4-9746-786cf0fc2e07","ios":"levelo://app?vid=f8a2aca9-a595-41b4-9746-786cf0fc2e07"},"vehicle_type_id":"4","last_reported":1744711906,"current_range_meters":17600,"station_id":"","pricing_plan_id":"cebpf4jnsgd1na2vs0mg"},{"bike_id":"5e2ae11d-9564-46eb-9b39-c44a0592de90","system_id":"levelo_inurba_marseille","lat":43.31367,"lon":5.36724,"is_reserved":false,"is_disabled":false,"rental_uris":{"android":"levelo://app?vid=5e2ae11d-9564-46eb-9b39-c44a0592de90","ios":"levelo://app?vid=5e2ae11d-9564-46eb-9b39-c44a0592de90"},"vehicle_type_id":"4","last_reported":1744711906,"current_range_meters":17600,"station_id":"ce4bgr92rcd13ifvqc6g","pricing_plan_id":"cebpf4jnsgd1na2vs0mg"},{"bike_id":"1e650399-d211-47ed-9e5f-dc08b2e60a1e","system_id":"levelo_inurba_marseille","lat":43.304749,"lon":5.37912,"is_reserved":false,"is_disabled":false,"rental_uris":{"android":"levelo://app?vid=1e650399-d211-47ed-9e5f-dc08b2e60a1e","ios":"levelo://app?vid=1e650399-d211-47ed-9e5f-dc08b2e60a1e"},"vehicle_type_id":"4","last_reported":1744711906,"current_range_meters":17600,"station_id":"ce4bgup2rcd13ifvqcn0","pricing_plan_id":"cebpf4jnsgd1na2vs0mg"},{"bike_id":"0a8cec22-a8e8-4c06-8d3f-1fe35b95ab4c","system_id":"levelo_inurba_marseille","lat":43.2175,"lon":5.34603,"is_reserved":false,"is_disabled":false,"rental_uris":{"android":"levelo://app?vid=0a8cec22-a8e8-4c06-8d3f-1fe35b95ab4c","ios":"levelo://app?vid=0a8cec22-a8e8-4c06-8d3f-1fe35b95ab4c"},"vehicle_type_id":"4","last_reported":1744711906,"current_range_meters":17600,"station_id":"st_cvj6r9ubvosntc0bgbag","pricing_plan_id":"cebpf4jnsgd1na2vs0mg"},{"bike_id":"05664e36-336b-404a-b8de-2ca42d4238f0","system_id":"levelo_inurba_marseille","lat":43.25012,"lon":5.38191,"is_reserved":false,"is_disabled":false,"rental_uris":{"android":"levelo://app?vid=05664e36-336b-404a-b8de-2ca42d4238f0","ios":"levelo://app?vid=05664e36-336b-404a-b8de-2ca42d4238f0"},"vehicle_type_id":"4","last_reported":1744711906,"current_range_meters":17600,"station_id":"","pricing_plan_id":"cebpf4jnsgd1na2vs0mg"},{"bike_id":"e337c010-7703-490d-8b58-14447452754d","system_id":"levelo_inurba_marseille","lat":43.28721,"lon":5.36093,"is_reserved":false,"is_disabled":false,"rental_uris":{"android":"levelo://app?vid=e337c010-7703-490d-8b58-14447452754d","ios":"levelo://app?vid=e337c010-7703-490d-8b58-14447452754d"},"vehicle_type_id":"4","last_reported":1744711906,"current_range_meters":18000,"station_id":"cki0cbj6b192h4jlfktg","pricing_plan_id":"cebpf4jnsgd1na2vs0mg"},{"bike_id":"ce67c467-a0e6-46ed-a339-571b2c174b85","system_id":"levelo_inurba_marseille","lat":43.30426,"lon":5.38882,"is_reserved":false,"is_disabled":false,"rental_uris":{"android":"levelo://app?vid=ce67c467-a0e6-46ed-a339-571b2c174b85","ios":"levelo://app?vid=ce67c467-a0e6-46ed-a339-571b2c174b85"},"vehicle_type_id":"4","last_reported":1744711906,"current_range_meters":20400,"station_id":"ce4bgk12rcd13ifvqbi0","pricing_plan_id":"cebpf4jnsgd1na2vs0mg"},{"bike_id":"a9c1b06d-8e98-47a8-b777-03a1fd7efe7b","system_id":"levelo_inurba_marseille","lat":43.31711,"lon":5.43704,"is_reserved":false,"is_disabled":false,"rental_uris":{"android":"levelo://app?vid=a9c1b06d-8e98-47a8-b777-03a1fd7efe7b","ios":"levelo://app?vid=a9c1b06d-8e98-47a8-b777-03a1fd7efe7b"},"vehicle_type_id":"4","last_reported":1744711906,"current_range_meters":18000,"station_id":"ce4bhp92rcd13ifvqhcg","pricing_plan_id":"cebpf4jnsgd1na2vs0mg"},{"bike_id":"ed127909-30e4-411f-b308-94e668b1315a","system_id":"levelo_inurba_marseille","lat":43.29594,"lon":5.38098,"is_reserved":false,"is_disabled":false,"rental_uris":{"android":"levelo://app?vid=ed127909-30e4-411f-b308-94e668b1315a","ios":"levelo://app?vid=ed127909-30e4-411f-b308-94e668b1315a"},"vehicle_type_id":"4","last_reported":1744711906,"current_range_meters":17600,"station_id":"ce4bgl12rcd13ifvqbo0","pricing_plan_id":"cebpf4jnsgd1na2vs0mg"},{"bike_id":"358f0816-dd87-4236-b134-3d679d804337","system_id":"levelo_inurba_marseille","lat":43.29973,"lon":5.38494,"is_reserved":false,"is_disabled":false,"rental_uris":{"android":"levelo://app?vid=358f0816-dd87-4236-b134-3d679d804337","ios":"levelo://app?vid=358f0816-dd87-4236-b134-3d679d804337"},"vehicle_type_id":"4","last_reported":1744711906,"current_range_meters":18000,"station_id":"ce4bgj92rcd13ifvqbd0","pricing_plan_id":"cebpf4jnsgd1na2vs0mg"},{"bike_id":"48f16ac1-94bd-4168-8cc7-6b8ca9cce88d","system_id":"levelo_inurba_marseille","lat":43.30952,"lon":5.390285,"is_reserved":false,"is_disabled":false,"rental_uris":{"android":"levelo://app?vid=48f16ac1-94bd-4168-8cc7-6b8ca9cce88d","ios":"levelo://app?vid=48f16ac1-94bd-4168-8cc7-6b8ca9cce88d"},"vehicle_type_id":"4","last_reported":1744711906,"current_range_meters":18000,"station_id":"ce4bgjh2rcd13ifvqbf0","pricing_plan_id":"cebpf4jnsgd1na2vs0mg"},{"bike_id":"ee549730-639a-4ee9-9085-f23017940fd6","system_id":"levelo_inurba_marseille","lat":43.30125,"lon":5.39866,"is_reserved":false,"is_disabled":false,"rental_uris":{"android":"levelo://app?vid=ee549730-639a-4ee9-9085-f23017940fd6","ios":"levelo://app?vid=ee549730-639a-4ee9-9085-f23017940fd6"},"vehicle_type_id":"4","last_reported":1744711906,"current_range_meters":18800,"station_id":"ce4bh0h2rcd13ifvqd40","pricing_plan_id":"cebpf4jnsgd1na2vs0mg"},{"bike_id":"44be248b-85b6-4c95-aac4-5dd00edc7114","system_id":"levelo_inurba_marseille","lat":43.30565,"lon":5.36513,"is_reserved":false,"is_disabled":false,"rental_uris":{"android":"levelo://app?vid=44be248b-85b6-4c95-aac4-5dd00edc7114","ios":"levelo://app?vid=44be248b-85b6-4c95-aac4-5dd00edc7114"},"vehicle_type_id":"4","last_reported":1744711906,"current_range_meters":18800,"station_id":"ce4bgs12rcd13ifvqcag","pricing_plan_id":"cebpf4jnsgd1na2vs0mg"},{"bike_id":"75da3773-350f-42a9-aa02-10de43356fcc","system_id":"levelo_inurba_marseille","lat":43.273193,"lon":5.390451,"is_reserved":false,"is_disabled":true,"rental_uris":{"android":"levelo://app?vid=75da3773-350f-42a9-aa02-10de43356fcc","ios":"levelo://app?vid=75da3773-350f-42a9-aa02-10de43356fcc"},"vehicle_type_id":"4","last_reported":1744711906,"current_range_meters":18800,"station_id":"ce4bhgp2rcd13ifvqfe0","pricing_plan_id":"cebpf4jnsgd1na2vs0mg"},{"bike_id":"8eab135f-19c1-4bf8-aead-fc6872404fdf","system_id":"levelo_inurba_marseille","lat":43.31229,"lon":5.36874,"is_reserved":false,"is_disabled":false,"rental_uris":{"android":"levelo://app?vid=8eab135f-19c1-4bf8-aead-fc6872404fdf","ios":"levelo://app?vid=8eab135f-19c1-4bf8-aead-fc6872404fdf"},"vehicle_type_id":"4","last_reported":1744711906,"current_range_meters":18800,"station_id":"ce4bgl92rcd13ifvqbq0","pricing_plan_id":"cebpf4jnsgd1na2vs0mg"},{"bike_id":"db06721d-1ee1-431c-a317-214c373163e8","system_id":"levelo_inurba_marseille","lat":43.31082,"lon":5.42445,"is_reserved":false,"is_disabled":false,"rental_uris":{"android":"levelo://app?vid=db06721d-1ee1-431c-a317-214c373163e8","ios":"levelo://app?vid=db06721d-1ee1-431c-a317-214c373163e8"},"vehicle_type_id":"4","last_reported":1744711906,"current_range_meters":18800,"station_id":"ce4bhp92rcd13ifvqhag","pricing_plan_id":"cebpf4jnsgd1na2vs0mg"},{"bike_id":"f6e3e438-27a0-4e3f-8702-2e6fc4806d4f","system_id":"levelo_inurba_marseille","lat":43.309431,"lon":5.390319,"is_reserved":false,"is_disabled":false,"rental_uris":{"android":"levelo://app?vid=f6e3e438-27a0-4e3f-8702-2e6fc4806d4f","ios":"levelo://app?vid=f6e3e438-27a0-4e3f-8702-2e6fc4806d4f"},"vehicle_type_id":"4","last_reported":1744711906,"current_range_meters":18000,"station_id":"ce4bgup2rcd13ifvqco0","pricing_plan_id":"cebpf4jnsgd1na2vs0mg"},{"bike_id":"df48cf7d-f898-49eb-87ea-51f5181e82f8","system_id":"levelo_inurba_marseille","lat":43.29258,"lon":5.376199,"is_reserved":false,"is_disabled":false,"rental_uris":{"android":"levelo://app?vid=df48cf7d-f898-49eb-87ea-51f5181e82f8","ios":"levelo://app?vid=df48cf7d-f898-49eb-87ea-51f5181e82f8"},"vehicle_type_id":"4","last_reported":1744711906,"current_range_meters":18800,"station_id":"ce4bgi12rcd13ifvqb80","pricing_plan_id":"cebpf4jnsgd1na2vs0mg"},{"bike_id":"c49a4f83-675f-4244-a56b-2ab36d6a6f86","system_id":"levelo_inurba_marseille","lat":43.32477,"lon":5.36562,"is_reserved":false,"is_disabled":false,"rental_uris":{"android":"levelo://app?vid=c49a4f83-675f-4244-a56b-2ab36d6a6f86","ios":"levelo://app?vid=c49a4f83-675f-4244-a56b-2ab36d6a6f86"},"vehicle_type_id":"4","last_reported":1744711906,"current_range_meters":18800,"station_id":"ce4bhs12rcd13ifvqhvg","pricing_plan_id":"cebpf4jnsgd1na2vs0mg"},{"bike_id":"a0ddb0a5-f7f0-4281-aa27-9e82747cc573","system_id":"levelo_inurba_marseille","lat":43.33753,"lon":5.37503,"is_reserved":false,"is_disabled":false,"rental_uris":{"android":"levelo://app?vid=a0ddb0a5-f7f0-4281-aa27-9e82747cc573","ios":"levelo://app?vid=a0ddb0a5-f7f0-4281-aa27-9e82747cc573"},"vehicle_type_id":"4","last_reported":1744711906,"current_range_meters":18800,"station_id":"","pricing_plan_id":"cebpf4jnsgd1na2vs0mg"},{"bike_id":"8422d098-67fd-4320-85a5-2bb0acedff57","system_id":"levelo_inurba_marseille","lat":43.33769,"lon":5.3743,"is_reserved":false,"is_disabled":false,"rental_uris":{"android":"levelo://app?vid=8422d098-67fd-4320-85a5-2bb0acedff57","ios":"levelo://app?vid=8422d098-67fd-4320-85a5-2bb0acedff57"},"vehicle_type_id":"4","last_reported":1744711906,"current_range_meters":19200,"station_id":"","pricing_plan_id":"cebpf4jnsgd1na2vs0mg"},{"bike_id":"4d4d0d48-2b72-44fe-b3a8-f9dca5bf8536","system_id":"levelo_inurba_marseille","lat":43.26574,"lon":5.3731,"is_reserved":false,"is_disabled":false,"rental_uris":{"android":"levelo://app?vid=4d4d0d48-2b72-44fe-b3a8-f9dca5bf8536","ios":"levelo://app?vid=4d4d0d48-2b72-44fe-b3a8-f9dca5bf8536"},"vehicle_type_id":"4","last_reported":1744711906,"current_range_meters":19200,"station_id":"ce4bhg12rcd13ifvqf70","pricing_plan_id":"cebpf4jnsgd1na2vs0mg"},{"bike_id":"ccc13620-68aa-4ed1-90a2-2c21dc212a17","system_id":"levelo_inurba_marseille","lat":43.27207,"lon":5.39175,"is_reserved":false,"is_disabled":false,"rental_uris":{"android":"levelo://app?vid=ccc13620-68aa-4ed1-90a2-2c21dc212a17","ios":"levelo://app?vid=ccc13620-68aa-4ed1-90a2-2c21dc212a17"},"vehicle_type_id":"4","last_reported":1744711906,"current_range_meters":19200,"station_id":"ce4bhhp2rcd13ifvqfm0","pricing_plan_id":"cebpf4jnsgd1na2vs0mg"},{"bike_id":"c7d3936c-7e70-4d50-8c23-ad567463d1ea","system_id":"levelo_inurba_marseille","lat":43.217499,"lon":5.346021,"is_reserved":false,"is_disabled":false,"rental_uris":{"android":"levelo://app?vid=c7d3936c-7e70-4d50-8c23-ad567463d1ea","ios":"levelo://app?vid=c7d3936c-7e70-4d50-8c23-ad567463d1ea"},"vehicle_type_id":"4","last_reported":1744711906,"current_range_meters":19200,"station_id":"st_cvj6r9ubvosntc0bgbag","pricing_plan_id":"cebpf4jnsgd1na2vs0mg"},{"bike_id":"e5755512-54cf-425e-92a3-0f530f6b5954","system_id":"levelo_inurba_marseille","lat":43.26569,"lon":5.39013,"is_reserved":false,"is_disabled":false,"rental_uris":{"android":"levelo://app?vid=e5755512-54cf-425e-92a3-0f530f6b5954","ios":"levelo://app?vid=e5755512-54cf-425e-92a3-0f530f6b5954"},"vehicle_type_id":"4","last_reported":1744711906,"current_range_meters":19200,"station_id":"ce4bhe12rcd13ifvqf30","pricing_plan_id":"cebpf4jnsgd1na2vs0mg"},{"bike_id":"f86f1dcb-3077-4a32-8bef-ec9e96809d19","system_id":"levelo_inurba_marseille","lat":43.28486,"lon":5.38425,"is_reserved":false,"is_disabled":false,"rental_uris":{"android":"levelo://app?vid=f86f1dcb-3077-4a32-8bef-ec9e96809d19","ios":"levelo://app?vid=f86f1dcb-3077-4a32-8bef-ec9e96809d19"},"vehicle_type_id":"4","last_reported":1744711906,"current_range_meters":19600,"station_id":"ce4bh512rcd13ifvqe3g","pricing_plan_id":"cebpf4jnsgd1na2vs0mg"},{"bike_id":"3ada1055-7c3e-4410-8758-882eb88ad0ba","system_id":"levelo_inurba_marseille","lat":43.26699,"lon":5.38235,"is_reserved":false,"is_disabled":false,"rental_uris":{"android":"levelo://app?vid=3ada1055-7c3e-4410-8758-882eb88ad0ba","ios":"levelo://app?vid=3ada1055-7c3e-4410-8758-882eb88ad0ba"},"vehicle_type_id":"4","last_reported":1744711906,"current_range_meters":19600,"station_id":"ce4bhg92rcd13ifvqf90","pricing_plan_id":"cebpf4jnsgd1na2vs0mg"},{"bike_id":"a8ed8bfe-e018-4ae7-b755-72caf268e29f","system_id":"levelo_inurba_marseille","lat":43.30184,"lon":5.38101,"is_reserved":false,"is_disabled":true,"rental_uris":{"android":"levelo://app?vid=a8ed8bfe-e018-4ae7-b755-72caf268e29f","ios":"levelo://app?vid=a8ed8bfe-e018-4ae7-b755-72caf268e29f"},"vehicle_type_id":"4","last_reported":1744711906,"current_range_meters":19600,"station_id":"ce4bgjp2rcd13ifvqbh0","pricing_plan_id":"cebpf4jnsgd1na2vs0mg"},{"bike_id":"22914c25-9780-48f5-8428-861b995ba68f","system_id":"levelo_inurba_marseille","lat":43.21174,"lon":5.35092,"is_reserved":false,"is_disabled":false,"rental_uris":{"android":"levelo://app?vid=22914c25-9780-48f5-8428-861b995ba68f","ios":"levelo://app?vid=22914c25-9780-48f5-8428-861b995ba68f"},"vehicle_type_id":"4","last_reported":1744711906,"current_range_meters":19600,"station_id":"st_cvj6sg6p6f1abm77japg","pricing_plan_id":"cebpf4jnsgd1na2vs0mg"},{"bike_id":"f28ab945-c9df-4b0b-be4c-c2ea61470e17","system_id":"levelo_inurba_marseille","lat":43.32482,"lon":5.3656,"is_reserved":false,"is_disabled":false,"rental_uris":{"android":"levelo://app?vid=f28ab945-c9df-4b0b-be4c-c2ea61470e17","ios":"levelo://app?vid=f28ab945-c9df-4b0b-be4c-c2ea61470e17"},"vehicle_type_id":"4","last_reported":1744711906,"current_range_meters":19600,"station_id":"ce4bhs12rcd13ifvqhvg","pricing_plan_id":"cebpf4jnsgd1na2vs0mg"},{"bike_id":"2d124366-8d1f-424d-a1d7-f459b14b7cd9","system_id":"levelo_inurba_marseille","lat":43.29593,"lon":5.3752,"is_reserved":false,"is_disabled":false,"rental_uris":{"android":"levelo://app?vid=2d124366-8d1f-424d-a1d7-f459b14b7cd9","ios":"levelo://app?vid=2d124366-8d1f-424d-a1d7-f459b14b7cd9"},"vehicle_type_id":"4","last_reported":1744711906,"current_range_meters":19600,"station_id":"ce4bgh92rcd13ifvqb50","pricing_plan_id":"cebpf4jnsgd1na2vs0mg"},{"bike_id":"cc3f3667-2607-4b5d-8bf5-eedf50add55e","system_id":"levelo_inurba_marseille","lat":43.21748,"lon":5.34605,"is_reserved":false,"is_disabled":false,"rental_uris":{"android":"levelo://app?vid=cc3f3667-2607-4b5d-8bf5-eedf50add55e","ios":"levelo://app?vid=cc3f3667-2607-4b5d-8bf5-eedf50add55e"},"vehicle_type_id":"4","last_reported":1744711906,"current_range_meters":20000,"station_id":"st_cvj6r9ubvosntc0bgbag","pricing_plan_id":"cebpf4jnsgd1na2vs0mg"},{"bike_id":"bab91fe1-4a48-44a3-9611-e83b0bcea8d5","system_id":"levelo_inurba_marseille","lat":43.26945,"lon":5.38633,"is_reserved":false,"is_disabled":false,"rental_uris":{"android":"levelo://app?vid=bab91fe1-4a48-44a3-9611-e83b0bcea8d5","ios":"levelo://app?vid=bab91fe1-4a48-44a3-9611-e83b0bcea8d5"},"vehicle_type_id":"4","last_reported":1744711906,"current_range_meters":20000,"station_id":"ce4bhh92rcd13ifvqfh0","pricing_plan_id":"cebpf4jnsgd1na2vs0mg"},{"bike_id":"834ec9e1-9d50-4bee-85ae-d1db335c55e5","system_id":"levelo_inurba_marseille","lat":43.31809,"lon":5.36815,"is_reserved":false,"is_disabled":false,"rental_uris":{"android":"levelo://app?vid=834ec9e1-9d50-4bee-85ae-d1db335c55e5","ios":"levelo://app?vid=834ec9e1-9d50-4bee-85ae-d1db335c55e5"},"vehicle_type_id":"4","last_reported":1744711906,"current_range_meters":20000,"station_id":"","pricing_plan_id":"cebpf4jnsgd1na2vs0mg"},{"bike_id":"cdfd2f80-bb6f-438e-9934-e61446d0cc78","system_id":"levelo_inurba_marseille","lat":43.29515,"lon":5.37513,"is_reserved":false,"is_disabled":false,"rental_uris":{"android":"levelo://app?vid=cdfd2f80-bb6f-438e-9934-e61446d0cc78","ios":"levelo://app?vid=cdfd2f80-bb6f-438e-9934-e61446d0cc78"},"vehicle_type_id":"4","last_reported":1744711906,"current_range_meters":20000,"station_id":"ce4bgkp2rcd13ifvqbmg","pricing_plan_id":"cebpf4jnsgd1na2vs0mg"},{"bike_id":"ddfc001f-53bf-43a0-a08e-075af0b61543","system_id":"levelo_inurba_marseille","lat":43.29214,"lon":5.36071,"is_reserved":false,"is_disabled":false,"rental_uris":{"android":"levelo://app?vid=ddfc001f-53bf-43a0-a08e-075af0b61543","ios":"levelo://app?vid=ddfc001f-53bf-43a0-a08e-075af0b61543"},"vehicle_type_id":"4","last_reported":1744711906,"current_range_meters":19600,"station_id":"ce4bhbh2rcd13ifvqeqg","pricing_plan_id":"cebpf4jnsgd1na2vs0mg"},{"bike_id":"3b61828f-71c8-4c90-8832-c613a09d651f","system_id":"levelo_inurba_marseille","lat":43.26555,"lon":5.37284,"is_reserved":false,"is_disabled":false,"rental_uris":{"android":"levelo://app?vid=3b61828f-71c8-4c90-8832-c613a09d651f","ios":"levelo://app?vid=3b61828f-71c8-4c90-8832-c613a09d651f"},"vehicle_type_id":"4","last_reported":1744711906,"current_range_meters":20000,"station_id":"ce4bhg12rcd13ifvqf70","pricing_plan_id":"cebpf4jnsgd1na2vs0mg"},{"bike_id":"fa8b5d88-c56b-4501-99c1-1b5a6dfd1f66","system_id":"levelo_inurba_marseille","lat":43.21199,"lon":5.35054,"is_reserved":false,"is_disabled":false,"rental_uris":{"android":"levelo://app?vid=fa8b5d88-c56b-4501-99c1-1b5a6dfd1f66","ios":"levelo://app?vid=fa8b5d88-c56b-4501-99c1-1b5a6dfd1f66"},"vehicle_type_id":"4","last_reported":1744711906,"current_range_meters":20000,"station_id":"st_cvj6sg6p6f1abm77japg","pricing_plan_id":"cebpf4jnsgd1na2vs0mg"},{"bike_id":"729f3ced-436b-45fb-817c-5716c04c6116","system_id":"levelo_inurba_marseille","lat":43.309028,"lon":5.368588,"is_reserved":false,"is_disabled":false,"rental_uris":{"android":"levelo://app?vid=729f3ced-436b-45fb-817c-5716c04c6116","ios":"levelo://app?vid=729f3ced-436b-45fb-817c-5716c04c6116"},"vehicle_type_id":"4","last_reported":1744711906,"current_range_meters":20400,"station_id":"ce4bgn92rcd13ifvqbvg","pricing_plan_id":"cebpf4jnsgd1na2vs0mg"},{"bike_id":"8e096209-bd81-4f38-9051-a64b362ddd14","system_id":"levelo_inurba_marseille","lat":43.25494,"lon":5.37648,"is_reserved":false,"is_disabled":false,"rental_uris":{"android":"levelo://app?vid=8e096209-bd81-4f38-9051-a64b362ddd14","ios":"levelo://app?vid=8e096209-bd81-4f38-9051-a64b362ddd14"},"vehicle_type_id":"4","last_reported":1744711906,"current_range_meters":20800,"station_id":"ce4bhh12rcd13ifvqff0","pricing_plan_id":"cebpf4jnsgd1na2vs0mg"},{"bike_id":"810942cf-4e8e-49c5-a9b0-1039f0bcecc3","system_id":"levelo_inurba_marseille","lat":43.30547,"lon":5.36538,"is_reserved":false,"is_disabled":false,"rental_uris":{"android":"levelo://app?vid=810942cf-4e8e-49c5-a9b0-1039f0bcecc3","ios":"levelo://app?vid=810942cf-4e8e-49c5-a9b0-1039f0bcecc3"},"vehicle_type_id":"4","last_reported":1744711906,"current_range_meters":20400,"station_id":"ce4bgs12rcd13ifvqcag","pricing_plan_id":"cebpf4jnsgd1na2vs0mg"},{"bike_id":"6bf5a380-400e-4cd6-bc1e-356afac9ee45","system_id":"levelo_inurba_marseille","lat":43.24167,"lon":5.36395,"is_reserved":false,"is_disabled":false,"rental_uris":{"android":"levelo://app?vid=6bf5a380-400e-4cd6-bc1e-356afac9ee45","ios":"levelo://app?vid=6bf5a380-400e-4cd6-bc1e-356afac9ee45"},"vehicle_type_id":"4","last_reported":1744711906,"current_range_meters":20400,"station_id":"cpo36qri1sfpv3e86is0","pricing_plan_id":"cebpf4jnsgd1na2vs0mg"},{"bike_id":"99466e4a-5098-45b2-9de5-b2e12687e6b1","system_id":"levelo_inurba_marseille","lat":43.28603,"lon":5.37076,"is_reserved":false,"is_disabled":false,"rental_uris":{"android":"levelo://app?vid=99466e4a-5098-45b2-9de5-b2e12687e6b1","ios":"levelo://app?vid=99466e4a-5098-45b2-9de5-b2e12687e6b1"},"vehicle_type_id":"4","last_reported":1744711906,"current_range_meters":20400,"station_id":"ce4bht12rcd13ifvqi60","pricing_plan_id":"cebpf4jnsgd1na2vs0mg"},{"bike_id":"846062da-9234-4287-9da7-b9e2f0d486c7","system_id":"levelo_inurba_marseille","lat":43.30554,"lon":5.36531,"is_reserved":false,"is_disabled":false,"rental_uris":{"android":"levelo://app?vid=846062da-9234-4287-9da7-b9e2f0d486c7","ios":"levelo://app?vid=846062da-9234-4287-9da7-b9e2f0d486c7"},"vehicle_type_id":"4","last_reported":1744711906,"current_range_meters":20400,"station_id":"ce4bgs12rcd13ifvqcag","pricing_plan_id":"cebpf4jnsgd1na2vs0mg"},{"bike_id":"aad7815f-948b-44ab-a2d7-4c843cca007f","system_id":"levelo_inurba_marseille","lat":43.22924,"lon":5.35383,"is_reserved":false,"is_disabled":false,"rental_uris":{"android":"levelo://app?vid=aad7815f-948b-44ab-a2d7-4c843cca007f","ios":"levelo://app?vid=aad7815f-948b-44ab-a2d7-4c843cca007f"},"vehicle_type_id":"4","last_reported":1744711906,"current_range_meters":20400,"station_id":"cpo3532slgdg3j2ikp40","pricing_plan_id":"cebpf4jnsgd1na2vs0mg"},{"bike_id":"7ad0bf0f-5294-442b-8825-791f1416a999","system_id":"levelo_inurba_marseille","lat":43.24174,"lon":5.39745,"is_reserved":false,"is_disabled":false,"rental_uris":{"android":"levelo://app?vid=7ad0bf0f-5294-442b-8825-791f1416a999","ios":"levelo://app?vid=7ad0bf0f-5294-442b-8825-791f1416a999"},"vehicle_type_id":"4","last_reported":1744711906,"current_range_meters":20400,"station_id":"ce4bhn12rcd13ifvqgpg","pricing_plan_id":"cebpf4jnsgd1na2vs0mg"},{"bike_id":"f06c4394-df29-478f-b606-e38b32292526","system_id":"levelo_inurba_marseille","lat":43.26684,"lon":5.38278,"is_reserved":false,"is_disabled":false,"rental_uris":{"android":"levelo://app?vid=f06c4394-df29-478f-b606-e38b32292526","ios":"levelo://app?vid=f06c4394-df29-478f-b606-e38b32292526"},"vehicle_type_id":"4","last_reported":1744711906,"current_range_meters":20800,"station_id":"ce4bhg92rcd13ifvqf90","pricing_plan_id":"cebpf4jnsgd1na2vs0mg"},{"bike_id":"33f80e18-d024-473f-ad3d-36fe4c6cb4b9","system_id":"levelo_inurba_marseille","lat":43.24645,"lon":5.38887,"is_reserved":false,"is_disabled":false,"rental_uris":{"android":"levelo://app?vid=33f80e18-d024-473f-ad3d-36fe4c6cb4b9","ios":"levelo://app?vid=33f80e18-d024-473f-ad3d-36fe4c6cb4b9"},"vehicle_type_id":"4","last_reported":1744711906,"current_range_meters":20800,"station_id":"ce4bhg12rcd13ifvqf60","pricing_plan_id":"cebpf4jnsgd1na2vs0mg"},{"bike_id":"85c84169-58ea-4013-b0e6-ef63708698ca","system_id":"levelo_inurba_marseille","lat":43.30312,"lon":5.36888,"is_reserved":false,"is_disabled":false,"rental_uris":{"android":"levelo://app?vid=85c84169-58ea-4013-b0e6-ef63708698ca","ios":"levelo://app?vid=85c84169-58ea-4013-b0e6-ef63708698ca"},"vehicle_type_id":"4","last_reported":1744711906,"current_range_meters":20800,"station_id":"ce4bgqh2rcd13ifvqc5g","pricing_plan_id":"cebpf4jnsgd1na2vs0mg"},{"bike_id":"4c0ede51-6b22-44f8-8575-b86906a20779","system_id":"levelo_inurba_marseille","lat":43.21756,"lon":5.34601,"is_reserved":false,"is_disabled":false,"rental_uris":{"android":"levelo://app?vid=4c0ede51-6b22-44f8-8575-b86906a20779","ios":"levelo://app?vid=4c0ede51-6b22-44f8-8575-b86906a20779"},"vehicle_type_id":"4","last_reported":1744711906,"current_range_meters":21600,"station_id":"st_cvj6r9ubvosntc0bgbag","pricing_plan_id":"cebpf4jnsgd1na2vs0mg"},{"bike_id":"75aeda06-bbc2-4b16-85f7-54753a374ed6","system_id":"levelo_inurba_marseille","lat":43.23611,"lon":5.40342,"is_reserved":false,"is_disabled":false,"rental_uris":{"android":"levelo://app?vid=75aeda06-bbc2-4b16-85f7-54753a374ed6","ios":"levelo://app?vid=75aeda06-bbc2-4b16-85f7-54753a374ed6"},"vehicle_type_id":"4","last_reported":1744711906,"current_range_meters":21600,"station_id":"","pricing_plan_id":"cebpf4jnsgd1na2vs0mg"},{"bike_id":"b082caf9-1aa9-41e8-8081-4da72e64e8e4","system_id":"levelo_inurba_marseille","lat":43.30919,"lon":5.40151,"is_reserved":false,"is_disabled":true,"rental_uris":{"android":"levelo://app?vid=b082caf9-1aa9-41e8-8081-4da72e64e8e4","ios":"levelo://app?vid=b082caf9-1aa9-41e8-8081-4da72e64e8e4"},"vehicle_type_id":"4","last_reported":1744711906,"current_range_meters":21600,"station_id":"ce4bgvp2rcd13ifvqct0","pricing_plan_id":"cebpf4jnsgd1na2vs0mg"},{"bike_id":"04a1d15c-08a1-4906-8e8c-a31d913fbdff","system_id":"levelo_inurba_marseille","lat":43.27839,"lon":5.39202,"is_reserved":false,"is_disabled":false,"rental_uris":{"android":"levelo://app?vid=04a1d15c-08a1-4906-8e8c-a31d913fbdff","ios":"levelo://app?vid=04a1d15c-08a1-4906-8e8c-a31d913fbdff"},"vehicle_type_id":"4","last_reported":1744711906,"current_range_meters":22000,"station_id":"ce4bhjp2rcd13ifvqga0","pricing_plan_id":"cebpf4jnsgd1na2vs0mg"},{"bike_id":"174c2c9b-2f0a-47fb-998b-9f7260f2f135","system_id":"levelo_inurba_marseille","lat":43.30738,"lon":5.42443,"is_reserved":false,"is_disabled":false,"rental_uris":{"android":"levelo://app?vid=174c2c9b-2f0a-47fb-998b-9f7260f2f135","ios":"levelo://app?vid=174c2c9b-2f0a-47fb-998b-9f7260f2f135"},"vehicle_type_id":"4","last_reported":1744711906,"current_range_meters":22000,"station_id":"st_cvj6ca6bvosntc0bfgr0","pricing_plan_id":"cebpf4jnsgd1na2vs0mg"},{"bike_id":"b240f9d8-ae13-4348-a109-0b3c39d47a69","system_id":"levelo_inurba_marseille","lat":43.26681,"lon":5.38246,"is_reserved":false,"is_disabled":false,"rental_uris":{"android":"levelo://app?vid=b240f9d8-ae13-4348-a109-0b3c39d47a69","ios":"levelo://app?vid=b240f9d8-ae13-4348-a109-0b3c39d47a69"},"vehicle_type_id":"4","last_reported":1744711906,"current_range_meters":22000,"station_id":"ce4bhg92rcd13ifvqf90","pricing_plan_id":"cebpf4jnsgd1na2vs0mg"},{"bike_id":"68fa0d46-7071-4f65-8360-b33f91ad677c","system_id":"levelo_inurba_marseille","lat":43.29532,"lon":5.42279,"is_reserved":false,"is_disabled":false,"rental_uris":{"android":"levelo://app?vid=68fa0d46-7071-4f65-8360-b33f91ad677c","ios":"levelo://app?vid=68fa0d46-7071-4f65-8360-b33f91ad677c"},"vehicle_type_id":"4","last_reported":1744711906,"current_range_meters":22400,"station_id":"ce4bhph2rcd13ifvqhdg","pricing_plan_id":"cebpf4jnsgd1na2vs0mg"},{"bike_id":"960caa4c-48e7-4e00-bca7-aeefd828a0a0","system_id":"levelo_inurba_marseille","lat":43.27996,"lon":5.40933,"is_reserved":false,"is_disabled":false,"rental_uris":{"android":"levelo://app?vid=960caa4c-48e7-4e00-bca7-aeefd828a0a0","ios":"levelo://app?vid=960caa4c-48e7-4e00-bca7-aeefd828a0a0"},"vehicle_type_id":"4","last_reported":1744711906,"current_range_meters":22400,"station_id":"","pricing_plan_id":"cebpf4jnsgd1na2vs0mg"},{"bike_id":"310292d5-bdeb-40f7-a94f-9d2b542d5222","system_id":"levelo_inurba_marseille","lat":43.24169,"lon":5.3639,"is_reserved":false,"is_disabled":false,"rental_uris":{"android":"levelo://app?vid=310292d5-bdeb-40f7-a94f-9d2b542d5222","ios":"levelo://app?vid=310292d5-bdeb-40f7-a94f-9d2b542d5222"},"vehicle_type_id":"4","last_reported":1744711906,"current_range_meters":22400,"station_id":"cpo36qri1sfpv3e86is0","pricing_plan_id":"cebpf4jnsgd1na2vs0mg"},{"bike_id":"4d331a86-a3cb-4d7d-a2e2-e0d35e11dfb8","system_id":"levelo_inurba_marseille","lat":43.31235,"lon":5.36861,"is_reserved":false,"is_disabled":false,"rental_uris":{"android":"levelo://app?vid=4d331a86-a3cb-4d7d-a2e2-e0d35e11dfb8","ios":"levelo://app?vid=4d331a86-a3cb-4d7d-a2e2-e0d35e11dfb8"},"vehicle_type_id":"4","last_reported":1744711906,"current_range_meters":22400,"station_id":"ce4bgl92rcd13ifvqbq0","pricing_plan_id":"cebpf4jnsgd1na2vs0mg"},{"bike_id":"6c103f9f-c959-46ad-a2e8-e44f9660c68e","system_id":"levelo_inurba_marseille","lat":43.21187,"lon":5.35076,"is_reserved":false,"is_disabled":false,"rental_uris":{"android":"levelo://app?vid=6c103f9f-c959-46ad-a2e8-e44f9660c68e","ios":"levelo://app?vid=6c103f9f-c959-46ad-a2e8-e44f9660c68e"},"vehicle_type_id":"4","last_reported":1744711906,"current_range_meters":22400,"station_id":"st_cvj6sg6p6f1abm77japg","pricing_plan_id":"cebpf4jnsgd1na2vs0mg"},{"bike_id":"c778a157-2990-4afa-b236-12e1f4806c37","system_id":"levelo_inurba_marseille","lat":43.29367,"lon":5.3785,"is_reserved":false,"is_disabled":false,"rental_uris":{"android":"levelo://app?vid=c778a157-2990-4afa-b236-12e1f4806c37","ios":"levelo://app?vid=c778a157-2990-4afa-b236-12e1f4806c37"},"vehicle_type_id":"4","last_reported":1744711906,"current_range_meters":22400,"station_id":"ce4bgjh2rcd13ifvqbf0","pricing_plan_id":"cebpf4jnsgd1na2vs0mg"},{"bike_id":"60ec4175-4537-435a-95f9-8e40681109c0","system_id":"levelo_inurba_marseille","lat":43.3138,"lon":5.36708,"is_reserved":false,"is_disabled":false,"rental_uris":{"android":"levelo://app?vid=60ec4175-4537-435a-95f9-8e40681109c0","ios":"levelo://app?vid=60ec4175-4537-435a-95f9-8e40681109c0"},"vehicle_type_id":"4","last_reported":1744711906,"current_range_meters":22400,"station_id":"ce4bgr92rcd13ifvqc6g","pricing_plan_id":"cebpf4jnsgd1na2vs0mg"},{"bike_id":"84dad183-6499-4fd8-9438-440989a9d6b7","system_id":"levelo_inurba_marseille","lat":43.29272,"lon":5.40113,"is_reserved":false,"is_disabled":false,"rental_uris":{"android":"levelo://app?vid=84dad183-6499-4fd8-9438-440989a9d6b7","ios":"levelo://app?vid=84dad183-6499-4fd8-9438-440989a9d6b7"},"vehicle_type_id":"4","last_reported":1744711906,"current_range_meters":22400,"station_id":"ce4bh312rcd13ifvqdk0","pricing_plan_id":"cebpf4jnsgd1na2vs0mg"},{"bike_id":"d6fee597-3293-47ae-914e-c48760e9f772","system_id":"levelo_inurba_marseille","lat":43.24054,"lon":5.37783,"is_reserved":false,"is_disabled":false,"rental_uris":{"android":"levelo://app?vid=d6fee597-3293-47ae-914e-c48760e9f772","ios":"levelo://app?vid=d6fee597-3293-47ae-914e-c48760e9f772"},"vehicle_type_id":"4","last_reported":1744711906,"current_range_meters":22400,"station_id":"ce4bhnp2rcd13ifvqgvg","pricing_plan_id":"cebpf4jnsgd1na2vs0mg"},{"bike_id":"51dcafe7-6d76-4cfb-b8e0-6acfc8f1f9b6","system_id":"levelo_inurba_marseille","lat":43.30545,"lon":5.36532,"is_reserved":false,"is_disabled":false,"rental_uris":{"android":"levelo://app?vid=51dcafe7-6d76-4cfb-b8e0-6acfc8f1f9b6","ios":"levelo://app?vid=51dcafe7-6d76-4cfb-b8e0-6acfc8f1f9b6"},"vehicle_type_id":"4","last_reported":1744711906,"current_range_meters":22800,"station_id":"ce4bgs12rcd13ifvqcag","pricing_plan_id":"cebpf4jnsgd1na2vs0mg"},{"bike_id":"a44c2a83-f7cc-4188-b9c3-535bb880b90c","system_id":"levelo_inurba_marseille","lat":43.25938,"lon":5.40874,"is_reserved":false,"is_disabled":false,"rental_uris":{"android":"levelo://app?vid=a44c2a83-f7cc-4188-b9c3-535bb880b90c","ios":"levelo://app?vid=a44c2a83-f7cc-4188-b9c3-535bb880b90c"},"vehicle_type_id":"4","last_reported":1744711906,"current_range_meters":22800,"station_id":"ce4bhm92rcd13ifvqglg","pricing_plan_id":"cebpf4jnsgd1na2vs0mg"},{"bike_id":"20eb203e-428a-4993-8dc1-5d6a1fa8a489","system_id":"levelo_inurba_marseille","lat":43.27451,"lon":5.39368,"is_reserved":false,"is_disabled":false,"rental_uris":{"android":"levelo://app?vid=20eb203e-428a-4993-8dc1-5d6a1fa8a489","ios":"levelo://app?vid=20eb203e-428a-4993-8dc1-5d6a1fa8a489"},"vehicle_type_id":"4","last_reported":1744711906,"current_range_meters":22800,"station_id":"","pricing_plan_id":"cebpf4jnsgd1na2vs0mg"},{"bike_id":"200e42cc-d34b-46de-8397-558e32579ae7","system_id":"levelo_inurba_marseille","lat":43.29628,"lon":5.37721,"is_reserved":false,"is_disabled":false,"rental_uris":{"android":"levelo://app?vid=200e42cc-d34b-46de-8397-558e32579ae7","ios":"levelo://app?vid=200e42cc-d34b-46de-8397-558e32579ae7"},"vehicle_type_id":"4","last_reported":1744711906,"current_range_meters":23200,"station_id":"ce4bgi92rcd13ifvqb90","pricing_plan_id":"cebpf4jnsgd1na2vs0mg"},{"bike_id":"567275eb-9d31-499a-a848-cc3941151c99","system_id":"levelo_inurba_marseille","lat":43.27434,"lon":5.39413,"is_reserved":false,"is_disabled":false,"rental_uris":{"android":"levelo://app?vid=567275eb-9d31-499a-a848-cc3941151c99","ios":"levelo://app?vid=567275eb-9d31-499a-a848-cc3941151c99"},"vehicle_type_id":"4","last_reported":1744711906,"current_range_meters":22800,"station_id":"","pricing_plan_id":"cebpf4jnsgd1na2vs0mg"},{"bike_id":"da4f99a3-f365-456b-92c1-13efef41cb18","system_id":"levelo_inurba_marseille","lat":43.3248,"lon":5.36557,"is_reserved":false,"is_disabled":false,"rental_uris":{"android":"levelo://app?vid=da4f99a3-f365-456b-92c1-13efef41cb18","ios":"levelo://app?vid=da4f99a3-f365-456b-92c1-13efef41cb18"},"vehicle_type_id":"4","last_reported":1744711906,"current_range_meters":22800,"station_id":"ce4bhs12rcd13ifvqhvg","pricing_plan_id":"cebpf4jnsgd1na2vs0mg"},{"bike_id":"5edb970d-3723-4d40-8f50-96e5f8fcd67b","system_id":"levelo_inurba_marseille","lat":43.29414,"lon":5.38621,"is_reserved":false,"is_disabled":false,"rental_uris":{"android":"levelo://app?vid=5edb970d-3723-4d40-8f50-96e5f8fcd67b","ios":"levelo://app?vid=5edb970d-3723-4d40-8f50-96e5f8fcd67b"},"vehicle_type_id":"4","last_reported":1744711906,"current_range_meters":22800,"station_id":"ce4bh2h2rcd13ifvqdh0","pricing_plan_id":"cebpf4jnsgd1na2vs0mg"},{"bike_id":"725a1520-7aa8-4c4d-ba0c-be5ceb4c0331","system_id":"levelo_inurba_marseille","lat":43.26504,"lon":5.39538,"is_reserved":false,"is_disabled":false,"rental_uris":{"android":"levelo://app?vid=725a1520-7aa8-4c4d-ba0c-be5ceb4c0331","ios":"levelo://app?vid=725a1520-7aa8-4c4d-ba0c-be5ceb4c0331"},"vehicle_type_id":"4","last_reported":1744711906,"current_range_meters":22800,"station_id":"ce4bhi12rcd13ifvqfq0","pricing_plan_id":"cebpf4jnsgd1na2vs0mg"},{"bike_id":"26dcc63a-ac1c-4050-9c0e-a60f4fd4f87b","system_id":"levelo_inurba_marseille","lat":43.27973,"lon":5.38734,"is_reserved":false,"is_disabled":false,"rental_uris":{"android":"levelo://app?vid=26dcc63a-ac1c-4050-9c0e-a60f4fd4f87b","ios":"levelo://app?vid=26dcc63a-ac1c-4050-9c0e-a60f4fd4f87b"},"vehicle_type_id":"4","last_reported":1744711906,"current_range_meters":23200,"station_id":"ce4bhg12rcd13ifvqf80","pricing_plan_id":"cebpf4jnsgd1na2vs0mg"},{"bike_id":"0cf6eb72-9668-456e-aec4-be91b4976fc6","system_id":"levelo_inurba_marseille","lat":43.30152,"lon":5.38069,"is_reserved":false,"is_disabled":false,"rental_uris":{"android":"levelo://app?vid=0cf6eb72-9668-456e-aec4-be91b4976fc6","ios":"levelo://app?vid=0cf6eb72-9668-456e-aec4-be91b4976fc6"},"vehicle_type_id":"4","last_reported":1744711906,"current_range_meters":23200,"station_id":"ce4bgjp2rcd13ifvqbh0","pricing_plan_id":"cebpf4jnsgd1na2vs0mg"},{"bike_id":"8e548073-2a3e-4576-99f3-c56e05e538bf","system_id":"levelo_inurba_marseille","lat":43.29297,"lon":5.37455,"is_reserved":false,"is_disabled":false,"rental_uris":{"android":"levelo://app?vid=8e548073-2a3e-4576-99f3-c56e05e538bf","ios":"levelo://app?vid=8e548073-2a3e-4576-99f3-c56e05e538bf"},"vehicle_type_id":"4","last_reported":1744711906,"current_range_meters":23200,"station_id":"ce4bgi12rcd13ifvqb70","pricing_plan_id":"cebpf4jnsgd1na2vs0mg"},{"bike_id":"f85ddc3c-5ccd-4232-bf64-6e945cd829a3","system_id":"levelo_inurba_marseille","lat":43.24174,"lon":5.39725,"is_reserved":false,"is_disabled":false,"rental_uris":{"android":"levelo://app?vid=f85ddc3c-5ccd-4232-bf64-6e945cd829a3","ios":"levelo://app?vid=f85ddc3c-5ccd-4232-bf64-6e945cd829a3"},"vehicle_type_id":"4","last_reported":1744711906,"current_range_meters":23200,"station_id":"ce4bhn12rcd13ifvqgpg","pricing_plan_id":"cebpf4jnsgd1na2vs0mg"},{"bike_id":"dc95d3d9-f409-4368-afc9-a360f6a2f30d","system_id":"levelo_inurba_marseille","lat":43.301,"lon":5.39056,"is_reserved":false,"is_disabled":false,"rental_uris":{"android":"levelo://app?vid=dc95d3d9-f409-4368-afc9-a360f6a2f30d","ios":"levelo://app?vid=dc95d3d9-f409-4368-afc9-a360f6a2f30d"},"vehicle_type_id":"4","last_reported":1744711906,"current_range_meters":23200,"station_id":"ce4bh192rcd13ifvqdb0","pricing_plan_id":"cebpf4jnsgd1na2vs0mg"},{"bike_id":"dd2fbc22-3df4-4720-a708-dd6f46ba7212","system_id":"levelo_inurba_marseille","lat":43.21207,"lon":5.3506,"is_reserved":false,"is_disabled":false,"rental_uris":{"android":"levelo://app?vid=dd2fbc22-3df4-4720-a708-dd6f46ba7212","ios":"levelo://app?vid=dd2fbc22-3df4-4720-a708-dd6f46ba7212"},"vehicle_type_id":"4","last_reported":1744711906,"current_range_meters":23200,"station_id":"st_cvj6sg6p6f1abm77japg","pricing_plan_id":"cebpf4jnsgd1na2vs0mg"},{"bike_id":"c2d444b5-2205-4b26-8106-50ad97c6f270","system_id":"levelo_inurba_marseille","lat":43.30563,"lon":5.36536,"is_reserved":false,"is_disabled":false,"rental_uris":{"android":"levelo://app?vid=c2d444b5-2205-4b26-8106-50ad97c6f270","ios":"levelo://app?vid=c2d444b5-2205-4b26-8106-50ad97c6f270"},"vehicle_type_id":"4","last_reported":1744711906,"current_range_meters":24000,"station_id":"ce4bgs12rcd13ifvqcag","pricing_plan_id":"cebpf4jnsgd1na2vs0mg"},{"bike_id":"b3dd3a53-45f7-4622-b490-1b12453e1a28","system_id":"levelo_inurba_marseille","lat":43.25114,"lon":5.40323,"is_reserved":false,"is_disabled":false,"rental_uris":{"android":"levelo://app?vid=b3dd3a53-45f7-4622-b490-1b12453e1a28","ios":"levelo://app?vid=b3dd3a53-45f7-4622-b490-1b12453e1a28"},"vehicle_type_id":"4","last_reported":1744711906,"current_range_meters":24000,"station_id":"ce4bhlh2rcd13ifvqgig","pricing_plan_id":"cebpf4jnsgd1na2vs0mg"},{"bike_id":"11dec14c-bd3c-4185-ad22-89b8c8f6af64","system_id":"levelo_inurba_marseille","lat":43.27835,"lon":5.39217,"is_reserved":false,"is_disabled":false,"rental_uris":{"android":"levelo://app?vid=11dec14c-bd3c-4185-ad22-89b8c8f6af64","ios":"levelo://app?vid=11dec14c-bd3c-4185-ad22-89b8c8f6af64"},"vehicle_type_id":"4","last_reported":1744711906,"current_range_meters":24000,"station_id":"ce4bhjp2rcd13ifvqga0","pricing_plan_id":"cebpf4jnsgd1na2vs0mg"},{"bike_id":"1682a4c4-2211-4321-a907-27935c3dc299","system_id":"levelo_inurba_marseille","lat":43.27998,"lon":5.41657,"is_reserved":false,"is_disabled":false,"rental_uris":{"android":"levelo://app?vid=1682a4c4-2211-4321-a907-27935c3dc299","ios":"levelo://app?vid=1682a4c4-2211-4321-a907-27935c3dc299"},"vehicle_type_id":"4","last_reported":1744711906,"current_range_meters":24000,"station_id":"ce4bho12rcd13ifvqh1g","pricing_plan_id":"cebpf4jnsgd1na2vs0mg"},{"bike_id":"c3bb870c-a7e6-4b46-ad78-da8dec4be5b6","system_id":"levelo_inurba_marseille","lat":43.30556,"lon":5.36688,"is_reserved":false,"is_disabled":false,"rental_uris":{"android":"levelo://app?vid=c3bb870c-a7e6-4b46-ad78-da8dec4be5b6","ios":"levelo://app?vid=c3bb870c-a7e6-4b46-ad78-da8dec4be5b6"},"vehicle_type_id":"4","last_reported":1744711906,"current_range_meters":24000,"station_id":"ce4bgrp2rcd13ifvqc9g","pricing_plan_id":"cebpf4jnsgd1na2vs0mg"},{"bike_id":"21e4c742-8138-4813-9f40-fe3bd47f6173","system_id":"levelo_inurba_marseille","lat":43.295244,"lon":5.385334,"is_reserved":false,"is_disabled":false,"rental_uris":{"android":"levelo://app?vid=21e4c742-8138-4813-9f40-fe3bd47f6173","ios":"levelo://app?vid=21e4c742-8138-4813-9f40-fe3bd47f6173"},"vehicle_type_id":"4","last_reported":1744711906,"current_range_meters":24400,"station_id":"ce4bhb12rcd13ifvqel0","pricing_plan_id":"cebpf4jnsgd1na2vs0mg"},{"bike_id":"2d03e3c2-09e4-4978-8dbc-31228f7e9fd5","system_id":"levelo_inurba_marseille","lat":43.25582,"lon":5.38232,"is_reserved":false,"is_disabled":false,"rental_uris":{"android":"levelo://app?vid=2d03e3c2-09e4-4978-8dbc-31228f7e9fd5","ios":"levelo://app?vid=2d03e3c2-09e4-4978-8dbc-31228f7e9fd5"},"vehicle_type_id":"4","last_reported":1744711906,"current_range_meters":24400,"station_id":"ce4bhih2rcd13ifvqfs0","pricing_plan_id":"cebpf4jnsgd1na2vs0mg"},{"bike_id":"28555dc8-2282-4757-8ea1-e0a3c4e92edd","system_id":"levelo_inurba_marseille","lat":43.29991,"lon":5.37155,"is_reserved":false,"is_disabled":false,"rental_uris":{"android":"levelo://app?vid=28555dc8-2282-4757-8ea1-e0a3c4e92edd","ios":"levelo://app?vid=28555dc8-2282-4757-8ea1-e0a3c4e92edd"},"vehicle_type_id":"4","last_reported":1744711906,"current_range_meters":24400,"station_id":"ce4bgr92rcd13ifvqc7g","pricing_plan_id":"cebpf4jnsgd1na2vs0mg"},{"bike_id":"f4f2a3c2-2e88-42f2-a842-4b821963dedc","system_id":"levelo_inurba_marseille","lat":43.22929,"lon":5.35378,"is_reserved":false,"is_disabled":false,"rental_uris":{"android":"levelo://app?vid=f4f2a3c2-2e88-42f2-a842-4b821963dedc","ios":"levelo://app?vid=f4f2a3c2-2e88-42f2-a842-4b821963dedc"},"vehicle_type_id":"4","last_reported":1744711906,"current_range_meters":24400,"station_id":"cpo3532slgdg3j2ikp40","pricing_plan_id":"cebpf4jnsgd1na2vs0mg"},{"bike_id":"3fd7b24c-5052-4e23-9061-70056f2472e2","system_id":"levelo_inurba_marseille","lat":43.30467,"lon":5.37901,"is_reserved":false,"is_disabled":false,"rental_uris":{"android":"levelo://app?vid=3fd7b24c-5052-4e23-9061-70056f2472e2","ios":"levelo://app?vid=3fd7b24c-5052-4e23-9061-70056f2472e2"},"vehicle_type_id":"4","last_reported":1744711906,"current_range_meters":24400,"station_id":"ce4bgup2rcd13ifvqcn0","pricing_plan_id":"cebpf4jnsgd1na2vs0mg"},{"bike_id":"6c6fd58d-d251-4fea-8c55-c0a7401c92d2","system_id":"levelo_inurba_marseille","lat":43.24174,"lon":5.39719,"is_reserved":false,"is_disabled":false,"rental_uris":{"android":"levelo://app?vid=6c6fd58d-d251-4fea-8c55-c0a7401c92d2","ios":"levelo://app?vid=6c6fd58d-d251-4fea-8c55-c0a7401c92d2"},"vehicle_type_id":"4","last_reported":1744711906,"current_range_meters":24800,"station_id":"ce4bhn12rcd13ifvqgpg","pricing_plan_id":"cebpf4jnsgd1na2vs0mg"},{"bike_id":"6ba75421-2540-4e6c-a03a-7cf0990137a4","system_id":"levelo_inurba_marseille","lat":43.24179,"lon":5.39734,"is_reserved":false,"is_disabled":false,"rental_uris":{"android":"levelo://app?vid=6ba75421-2540-4e6c-a03a-7cf0990137a4","ios":"levelo://app?vid=6ba75421-2540-4e6c-a03a-7cf0990137a4"},"vehicle_type_id":"4","last_reported":1744711906,"current_range_meters":24400,"station_id":"ce4bhn12rcd13ifvqgpg","pricing_plan_id":"cebpf4jnsgd1na2vs0mg"},{"bike_id":"1b944170-6aeb-44b0-9344-bfe4af4c2347","system_id":"levelo_inurba_marseille","lat":43.240689,"lon":5.37765,"is_reserved":false,"is_disabled":false,"rental_uris":{"android":"levelo://app?vid=1b944170-6aeb-44b0-9344-bfe4af4c2347","ios":"levelo://app?vid=1b944170-6aeb-44b0-9344-bfe4af4c2347"},"vehicle_type_id":"4","last_reported":1744711906,"current_range_meters":24400,"station_id":"ce4bhhp2rcd13ifvqfm0","pricing_plan_id":"cebpf4jnsgd1na2vs0mg"},{"bike_id":"a114d21e-c95d-4527-8bba-3ba9aab46dd6","system_id":"levelo_inurba_marseille","lat":43.30927,"lon":5.36836,"is_reserved":false,"is_disabled":false,"rental_uris":{"android":"levelo://app?vid=a114d21e-c95d-4527-8bba-3ba9aab46dd6","ios":"levelo://app?vid=a114d21e-c95d-4527-8bba-3ba9aab46dd6"},"vehicle_type_id":"4","last_reported":1744711906,"current_range_meters":24400,"station_id":"ce4bgn92rcd13ifvqbvg","pricing_plan_id":"cebpf4jnsgd1na2vs0mg"},{"bike_id":"ed277671-5069-41be-a386-38170335cdc8","system_id":"levelo_inurba_marseille","lat":43.3137,"lon":5.36705,"is_reserved":false,"is_disabled":false,"rental_uris":{"android":"levelo://app?vid=ed277671-5069-41be-a386-38170335cdc8","ios":"levelo://app?vid=ed277671-5069-41be-a386-38170335cdc8"},"vehicle_type_id":"4","last_reported":1744711906,"current_range_meters":24800,"station_id":"ce4bgr92rcd13ifvqc6g","pricing_plan_id":"cebpf4jnsgd1na2vs0mg"},{"bike_id":"6d719eaf-c88a-47c4-9523-bcb2a88c77aa","system_id":"levelo_inurba_marseille","lat":43.30085,"lon":5.39085,"is_reserved":false,"is_disabled":false,"rental_uris":{"android":"levelo://app?vid=6d719eaf-c88a-47c4-9523-bcb2a88c77aa","ios":"levelo://app?vid=6d719eaf-c88a-47c4-9523-bcb2a88c77aa"},"vehicle_type_id":"4","last_reported":1744711906,"current_range_meters":24800,"station_id":"ce4bh192rcd13ifvqdb0","pricing_plan_id":"cebpf4jnsgd1na2vs0mg"},{"bike_id":"324d1f2c-7a83-4b44-8968-9ccaebde94cb","system_id":"levelo_inurba_marseille","lat":43.29868,"lon":5.39737,"is_reserved":false,"is_disabled":false,"rental_uris":{"android":"levelo://app?vid=324d1f2c-7a83-4b44-8968-9ccaebde94cb","ios":"levelo://app?vid=324d1f2c-7a83-4b44-8968-9ccaebde94cb"},"vehicle_type_id":"4","last_reported":1744711906,"current_range_meters":24800,"station_id":"ce4bh0h2rcd13ifvqd50","pricing_plan_id":"cebpf4jnsgd1na2vs0mg"},{"bike_id":"da8b85b7-2e3a-4882-b1b1-00a4494eed2a","system_id":"levelo_inurba_marseille","lat":43.3302,"lon":5.39018,"is_reserved":false,"is_disabled":false,"rental_uris":{"android":"levelo://app?vid=da8b85b7-2e3a-4882-b1b1-00a4494eed2a","ios":"levelo://app?vid=da8b85b7-2e3a-4882-b1b1-00a4494eed2a"},"vehicle_type_id":"4","last_reported":1744711906,"current_range_meters":24800,"station_id":"ce4bhr92rcd13ifvqhrg","pricing_plan_id":"cebpf4jnsgd1na2vs0mg"},{"bike_id":"6e61d7d8-71a0-4ad4-937d-f253b9e53a66","system_id":"levelo_inurba_marseille","lat":43.272029,"lon":5.391603,"is_reserved":false,"is_disabled":false,"rental_uris":{"android":"levelo://app?vid=6e61d7d8-71a0-4ad4-937d-f253b9e53a66","ios":"levelo://app?vid=6e61d7d8-71a0-4ad4-937d-f253b9e53a66"},"vehicle_type_id":"4","last_reported":1744711906,"current_range_meters":24800,"station_id":"ce4bhhp2rcd13ifvqfm0","pricing_plan_id":"cebpf4jnsgd1na2vs0mg"},{"bike_id":"1e92cf54-5201-4b0c-930f-a8a6745b85fb","system_id":"levelo_inurba_marseille","lat":43.30877,"lon":5.39657,"is_reserved":false,"is_disabled":false,"rental_uris":{"android":"levelo://app?vid=1e92cf54-5201-4b0c-930f-a8a6745b85fb","ios":"levelo://app?vid=1e92cf54-5201-4b0c-930f-a8a6745b85fb"},"vehicle_type_id":"4","last_reported":1744711906,"current_range_meters":26000,"station_id":"ce4bh012rcd13ifvqcv0","pricing_plan_id":"cebpf4jnsgd1na2vs0mg"},{"bike_id":"2bd468fb-778c-4a97-81c5-b9b22775c579","system_id":"levelo_inurba_marseille","lat":43.290383,"lon":5.375781,"is_reserved":false,"is_disabled":false,"rental_uris":{"android":"levelo://app?vid=2bd468fb-778c-4a97-81c5-b9b22775c579","ios":"levelo://app?vid=2bd468fb-778c-4a97-81c5-b9b22775c579"},"vehicle_type_id":"4","last_reported":1744711906,"current_range_meters":24800,"station_id":"ce4bh692rcd13ifvqe90","pricing_plan_id":"cebpf4jnsgd1na2vs0mg"},{"bike_id":"02995369-6ac7-4a5a-80b1-04b1543e2c74","system_id":"levelo_inurba_marseille","lat":43.3018,"lon":5.36616,"is_reserved":false,"is_disabled":false,"rental_uris":{"android":"levelo://app?vid=02995369-6ac7-4a5a-80b1-04b1543e2c74","ios":"levelo://app?vid=02995369-6ac7-4a5a-80b1-04b1543e2c74"},"vehicle_type_id":"4","last_reported":1744711906,"current_range_meters":24800,"station_id":"ce4bgrh2rcd13ifvqc8g","pricing_plan_id":"cebpf4jnsgd1na2vs0mg"},{"bike_id":"415c8c3e-64b9-403d-a4ba-79287b8a6ccf","system_id":"levelo_inurba_marseille","lat":43.26686,"lon":5.38263,"is_reserved":false,"is_disabled":false,"rental_uris":{"android":"levelo://app?vid=415c8c3e-64b9-403d-a4ba-79287b8a6ccf","ios":"levelo://app?vid=415c8c3e-64b9-403d-a4ba-79287b8a6ccf"},"vehicle_type_id":"4","last_reported":1744711906,"current_range_meters":24800,"station_id":"ce4bhg92rcd13ifvqf90","pricing_plan_id":"cebpf4jnsgd1na2vs0mg"},{"bike_id":"4c8a0431-09e9-4f3c-88a2-0b1a27b7804e","system_id":"levelo_inurba_marseille","lat":43.26213,"lon":5.37439,"is_reserved":false,"is_disabled":false,"rental_uris":{"android":"levelo://app?vid=4c8a0431-09e9-4f3c-88a2-0b1a27b7804e","ios":"levelo://app?vid=4c8a0431-09e9-4f3c-88a2-0b1a27b7804e"},"vehicle_type_id":"4","last_reported":1744711906,"current_range_meters":24800,"station_id":"ce4bhgp2rcd13ifvqfc0","pricing_plan_id":"cebpf4jnsgd1na2vs0mg"},{"bike_id":"0885a5e3-43bb-4a39-b743-0a43e27c6f4a","system_id":"levelo_inurba_marseille","lat":43.32484,"lon":5.36543,"is_reserved":false,"is_disabled":false,"rental_uris":{"android":"levelo://app?vid=0885a5e3-43bb-4a39-b743-0a43e27c6f4a","ios":"levelo://app?vid=0885a5e3-43bb-4a39-b743-0a43e27c6f4a"},"vehicle_type_id":"4","last_reported":1744711906,"current_range_meters":25200,"station_id":"ce4bhs12rcd13ifvqhvg","pricing_plan_id":"cebpf4jnsgd1na2vs0mg"},{"bike_id":"3d9763b6-60d0-45ae-aae5-867124c3eedf","system_id":"levelo_inurba_marseille","lat":43.30553,"lon":5.3654,"is_reserved":false,"is_disabled":false,"rental_uris":{"android":"levelo://app?vid=3d9763b6-60d0-45ae-aae5-867124c3eedf","ios":"levelo://app?vid=3d9763b6-60d0-45ae-aae5-867124c3eedf"},"vehicle_type_id":"4","last_reported":1744711906,"current_range_meters":25200,"station_id":"ce4bgs12rcd13ifvqcag","pricing_plan_id":"cebpf4jnsgd1na2vs0mg"},{"bike_id":"2887673b-2fbb-493a-81d1-7e429a0238f0","system_id":"levelo_inurba_marseille","lat":43.31365,"lon":5.36711,"is_reserved":false,"is_disabled":false,"rental_uris":{"android":"levelo://app?vid=2887673b-2fbb-493a-81d1-7e429a0238f0","ios":"levelo://app?vid=2887673b-2fbb-493a-81d1-7e429a0238f0"},"vehicle_type_id":"4","last_reported":1744711906,"current_range_meters":25200,"station_id":"ce4bgr92rcd13ifvqc6g","pricing_plan_id":"cebpf4jnsgd1na2vs0mg"},{"bike_id":"5bf33091-7ddc-47f7-b310-ed5f66f1e55d","system_id":"levelo_inurba_marseille","lat":43.28243,"lon":5.38569,"is_reserved":false,"is_disabled":false,"rental_uris":{"android":"levelo://app?vid=5bf33091-7ddc-47f7-b310-ed5f66f1e55d","ios":"levelo://app?vid=5bf33091-7ddc-47f7-b310-ed5f66f1e55d"},"vehicle_type_id":"4","last_reported":1744711906,"current_range_meters":25200,"station_id":"","pricing_plan_id":"cebpf4jnsgd1na2vs0mg"},{"bike_id":"54dd660e-cc98-4659-9f11-b3908459db90","system_id":"levelo_inurba_marseille","lat":43.30883,"lon":5.372,"is_reserved":false,"is_disabled":false,"rental_uris":{"android":"levelo://app?vid=54dd660e-cc98-4659-9f11-b3908459db90","ios":"levelo://app?vid=54dd660e-cc98-4659-9f11-b3908459db90"},"vehicle_type_id":"4","last_reported":1744711906,"current_range_meters":25200,"station_id":"ce4bguh2rcd13ifvqckg","pricing_plan_id":"cebpf4jnsgd1na2vs0mg"},{"bike_id":"1b23800c-8994-466d-a561-3156eb857bdc","system_id":"levelo_inurba_marseille","lat":43.302674,"lon":5.376931,"is_reserved":false,"is_disabled":false,"rental_uris":{"android":"levelo://app?vid=1b23800c-8994-466d-a561-3156eb857bdc","ios":"levelo://app?vid=1b23800c-8994-466d-a561-3156eb857bdc"},"vehicle_type_id":"4","last_reported":1744711906,"current_range_meters":25200,"station_id":"ce4bguh2rcd13ifvqcj0","pricing_plan_id":"cebpf4jnsgd1na2vs0mg"},{"bike_id":"031a3548-037e-4dcf-b37b-81b582e83ca7","system_id":"levelo_inurba_marseille","lat":43.21726,"lon":5.34602,"is_reserved":false,"is_disabled":false,"rental_uris":{"android":"levelo://app?vid=031a3548-037e-4dcf-b37b-81b582e83ca7","ios":"levelo://app?vid=031a3548-037e-4dcf-b37b-81b582e83ca7"},"vehicle_type_id":"4","last_reported":1744711906,"current_range_meters":25200,"station_id":"st_cvj6r9ubvosntc0bgbag","pricing_plan_id":"cebpf4jnsgd1na2vs0mg"},{"bike_id":"a7c8be31-3cfe-4d21-aced-117e4953c880","system_id":"levelo_inurba_marseille","lat":43.30552,"lon":5.3653,"is_reserved":false,"is_disabled":false,"rental_uris":{"android":"levelo://app?vid=a7c8be31-3cfe-4d21-aced-117e4953c880","ios":"levelo://app?vid=a7c8be31-3cfe-4d21-aced-117e4953c880"},"vehicle_type_id":"4","last_reported":1744711906,"current_range_meters":25200,"station_id":"ce4bgs12rcd13ifvqcag","pricing_plan_id":"cebpf4jnsgd1na2vs0mg"},{"bike_id":"db89e064-32d9-42f8-ab93-3b5adfa0cb2d","system_id":"levelo_inurba_marseille","lat":43.25955,"lon":5.40897,"is_reserved":false,"is_disabled":false,"rental_uris":{"android":"levelo://app?vid=db89e064-32d9-42f8-ab93-3b5adfa0cb2d","ios":"levelo://app?vid=db89e064-32d9-42f8-ab93-3b5adfa0cb2d"},"vehicle_type_id":"4","last_reported":1744711906,"current_range_meters":25200,"station_id":"ce4bhm92rcd13ifvqglg","pricing_plan_id":"cebpf4jnsgd1na2vs0mg"},{"bike_id":"81f8cde3-ded4-43c8-9dd4-6f585862aacf","system_id":"levelo_inurba_marseille","lat":43.31079,"lon":5.42433,"is_reserved":false,"is_disabled":false,"rental_uris":{"android":"levelo://app?vid=81f8cde3-ded4-43c8-9dd4-6f585862aacf","ios":"levelo://app?vid=81f8cde3-ded4-43c8-9dd4-6f585862aacf"},"vehicle_type_id":"4","last_reported":1744711906,"current_range_meters":25200,"station_id":"ce4bhp92rcd13ifvqhag","pricing_plan_id":"cebpf4jnsgd1na2vs0mg"},{"bike_id":"401ed369-c862-4e20-ad7d-88e3115373b7","system_id":"levelo_inurba_marseille","lat":43.2418,"lon":5.39716,"is_reserved":false,"is_disabled":false,"rental_uris":{"android":"levelo://app?vid=401ed369-c862-4e20-ad7d-88e3115373b7","ios":"levelo://app?vid=401ed369-c862-4e20-ad7d-88e3115373b7"},"vehicle_type_id":"4","last_reported":1744711906,"current_range_meters":25200,"station_id":"ce4bhn12rcd13ifvqgpg","pricing_plan_id":"cebpf4jnsgd1na2vs0mg"},{"bike_id":"b2382ffc-efd0-4344-8690-7e82cb923280","system_id":"levelo_inurba_marseille","lat":43.27417,"lon":5.39399,"is_reserved":false,"is_disabled":false,"rental_uris":{"android":"levelo://app?vid=b2382ffc-efd0-4344-8690-7e82cb923280","ios":"levelo://app?vid=b2382ffc-efd0-4344-8690-7e82cb923280"},