{"last_updated":1726985499,"ttl":30,"version":"2.2","data":{"bikes":[{"bike_id":"fd84f170-c075-4570-a556-c5e617e29406","system_id":"levelo_inurba_marseille","lat":43.2833,"lon":5.40917,"is_reserved":false,"is_disabled":false,"rental_uris":{"android":"levelo://app?vid=fd84f170-c075-4570-a556-c5e617e29406","ios":"levelo://app?vid=fd84f170-c075-4570-a556-c5e617e29406"},"vehicle_type_id":"4","last_reported":1726985500,"current_range_meters":19200,"station_id":"","pricing_plan_id":"cebpf4jnsgd1na2vs0mg"},{"bike_id":"7322c998-cc22-4396-aef7-57822e9e1df6","system_id":"levelo_inurba_marseille","lat":43.27927,"lon":5.39584,"is_reserved":false,"is_disabled":false,"rental_uris":{"android":"levelo://app?vid=7322c998-cc22-4396-aef7-57822e9e1df6","ios":"levelo://app?vid=7322c998-cc22-4396-aef7-57822e9e1df6"},"vehicle_type_id":"4","last_reported":1726985500,"current_range_meters":38400,"station_id":"ce4bhf92rcd13ifvqf40","pricing_plan_id":"cebpf4jnsgd1na2vs0mg"},{"bike_id":"09ef34b6-482f-4988-9331-10658115e1c1","system_id":"levelo_inurba_marseille","lat":43.31535,"lon":5.38028,"is_reserved":false,"is_disabled":false,"rental_uris":{"android":"levelo://app?vid=09ef34b6-482f-4988-9331-10658115e1c1","ios":"levelo://app?vid=09ef34b6-482f-4988-9331-10658115e1c1"},"vehicle_type_id":"4","last_reported":1726985500,"current_range_meters":20000,"station_id":"ce4bhsp2rcd13ifvqi50","pricing_plan_id":"cebpf4jnsgd1na2vs0mg"},{"bike_id":"c15b2d77-be18-48c1-bdb5-2c76822b3967","system_id":"levelo_inurba_marseille","lat":43.29172,"lon":5.37164,"is_reserved":false,"is_disabled":false,"rental_uris":{"android":"levelo://app?vid=c15b2d77-be18-48c1-bdb5-2c76822b3967","ios":"levelo://app?vid=c15b2d77-be18-48c1-bdb5-2c76822b3967"},"vehicle_type_id":"4","last_reported":1726985500,"current_range_meters":15200,"station_id":"ce4bha92rcd13ifvqeh0","pricing_plan_id":"cebpf4jnsgd1na2vs0mg"},{"bike_id":"1b71199d-0ac4-43db-900e-6c08a8688555","system_id":"levelo_inurba_marseille","lat":43.30884,"lon":5.39635,"is_reserved":false,"is_disabled":false,"rental_uris":{"android":"levelo://app?vid=1b71199d-0ac4-43db-900e-6c08a8688555","ios":"levelo://app?vid=1b71199d-0ac4-43db-900e-6c08a8688555"},"vehicle_type_id":"4","last_reported":1726985500,"current_range_meters":39200,"station_id":"ce4bh012rcd13ifvqcv0","pricing_plan_id":"cebpf4jnsgd1na2vs0mg"},{"bike_id":"04451a75-4336-4b76-826d-a2ef905a49e2","system_id":"levelo_inurba_marseille","lat":43.30805,"lon":5.38156,"is_reserved":false,"is_disabled":false,"rental_uris":{"android":"levelo://app?vid=04451a75-4336-4b76-826d-a2ef905a49e2","ios":"levelo://app?vid=04451a75-4336-4b76-826d-a2ef905a49e2"},"vehicle_type_id":"4","last_reported":1726985500,"current_range_meters":4400,"station_id":"ce4bgt12rcd13ifvqce0","pricing_plan_id":"cebpf4jnsgd1na2vs0mg"},{"bike_id":"fa40c179-cc76-4642-bd2c-df0bf2c367b9","system_id":"levelo_inurba_marseille","lat":43.30319,"lon":5.40438,"is_reserved":false,"is_disabled":false,"rental_uris":{"android":"levelo://app?vid=fa40c179-cc76-4642-bd2c-df0bf2c367b9","ios":"levelo://app?vid=fa40c179-cc76-4642-bd2c-df0bf2c367b9"},"vehicle_type_id":"4","last_reported":1726985500,"current_range_meters":21600,"station_id":"ce4bh012rcd13ifvqd10","pricing_plan_id":"cebpf4jnsgd1na2vs0mg"},{"bike_id":"2f1c1f35-c447-42bf-b6ea-c5eed2cc7d31","system_id":"levelo_inurba_marseille","lat":43.24666,"lon":5.38163,"is_reserved":false,"is_disabled":false,"rental_uris":{"android":"levelo://app?vid=2f1c1f35-c447-42bf-b6ea-c5eed2cc7d31","ios":"levelo://app?vid=2f1c1f35-c447-42bf-b6ea-c5eed2cc7d31"},"vehicle_type_id":"4","last_reported":1726985500,"current_range_meters":8000,"station_id":"ce4bhih2rcd13ifvqfr0","pricing_plan_id":"cebpf4jnsgd1na2vs0mg"},{"bike_id":"61bcbffc-3705-45c3-a04b-e155964ae429","system_id":"levelo_inurba_marseille","lat":43.32046,"lon":5.41538,"is_reserved":false,"is_disabled":false,"rental_uris":{"android":"levelo://app?vid=61bcbffc-3705-45c3-a04b-e155964ae429","ios":"levelo://app?vid=61bcbffc-3705-45c3-a04b-e155964ae429"},"vehicle_type_id":"4","last_reported":1726985500,"current_range_meters":28800,"station_id":"ce4bhq92rcd13ifvqhkg","pricing_plan_id":"cebpf4jnsgd1na2vs0mg"},{"bike_id":"9f38294e-12e2-4aea-b025-0df1d7948b00","system_id":"levelo_inurba_marseille","lat":43.24547,"lon":5.39529,"is_reserved":false,"is_disabled":false,"rental_uris":{"android":"levelo://app?vid=9f38294e-12e2-4aea-b025-0df1d7948b00","ios":"levelo://app?vid=9f38294e-12e2-4aea-b025-0df1d7948b00"},"vehicle_type_id":"4","last_reported":1726985500,"current_range_meters":40000,"station_id":"ce4bhlp2rcd13ifvqgjg","pricing_plan_id":"cebpf4jnsgd1na2vs0mg"},{"bike_id":"3dc1f627-8a5b-4b63-a42e-7f1a9d01e173","system_id":"levelo_inurba_marseille","lat":43.30302,"lon":5.39211,"is_reserved":false,"is_disabled":false,"rental_uris":{"android":"levelo://app?vid=3dc1f627-8a5b-4b63-a42e-7f1a9d01e173","ios":"levelo://app?vid=3dc1f627-8a5b-4b63-a42e-7f1a9d01e173"},"vehicle_type_id":"4","last_reported":1726985500,"current_range_meters":35200,"station_id":"ce4bgkh2rcd13ifvqbk0","pricing_plan_id":"cebpf4jnsgd1na2vs0mg"},{"bike_id":"add3a9bb-89c0-4474-99ed-e918f5013f73","system_id":"levelo_inurba_marseille","lat":43.23966,"lon":5.36633,"is_reserved":false,"is_disabled":false,"rental_uris":{"android":"levelo://app?vid=add3a9bb-89c0-4474-99ed-e918f5013f73","ios":"levelo://app?vid=add3a9bb-89c0-4474-99ed-e918f5013f73"},"vehicle_type_id":"4","last_reported":1726985500,"current_range_meters":39200,"station_id":"ce4bhi12rcd13ifvqfp0","pricing_plan_id":"cebpf4jnsgd1na2vs0mg"},{"bike_id":"b28e87f5-e830-4cfe-a56f-42f0c061e6d5","system_id":"levelo_inurba_marseille","lat":43.24389,"lon":5.37057,"is_reserved":false,"is_disabled":false,"rental_uris":{"android":"levelo://app?vid=b28e87f5-e830-4cfe-a56f-42f0c061e6d5","ios":"levelo://app?vid=b28e87f5-e830-4cfe-a56f-42f0c061e6d5"},"vehicle_type_id":"4","last_reported":1726985500,"current_range_meters":25200,"station_id":"ce4bhhh2rcd13ifvqfk0","pricing_plan_id":"cebpf4jnsgd1na2vs0mg"},{"bike_id":"89cdcc83-7aab-4c78-8e76-aa0ccb30eb08","system_id":"levelo_inurba_marseille","lat":43.31711,"lon":5.43705,"is_reserved":false,"is_disabled":false,"rental_uris":{"android":"levelo://app?vid=89cdcc83-7aab-4c78-8e76-aa0ccb30eb08","ios":"levelo://app?vid=89cdcc83-7aab-4c78-8e76-aa0ccb30eb08"},"vehicle_type_id":"4","last_reported":1726985500,"current_range_meters":22400,"station_id":"ce4bhp92rcd13ifvqhcg","pricing_plan_id":"cebpf4jnsgd1na2vs0mg"},{"bike_id":"1b638497-666e-4076-91e4-214ae677f1e8","system_id":"levelo_inurba_marseille","lat":43.28358,"lon":5.38115,"is_reserved":false,"is_disabled":false,"rental_uris":{"android":"levelo://app?vid=1b638497-666e-4076-91e4-214ae677f1e8","ios":"levelo://app?vid=1b638497-666e-4076-91e4-214ae677f1e8"},"vehicle_type_id":"4","last_reported":1726985500,"current_range_meters":38800,"station_id":"ce4bh412rcd13ifvqdr0","pricing_plan_id":"cebpf4jnsgd1na2vs0mg"},{"bike_id":"dff3701d-b005-47ea-ace2-da2d45311a04","system_id":"levelo_inurba_marseille","lat":43.29007,"lon":5.35608,"is_reserved":false,"is_disabled":false,"rental_uris":{"android":"levelo://app?vid=dff3701d-b005-47ea-ace2-da2d45311a04","ios":"levelo://app?vid=dff3701d-b005-47ea-ace2-da2d45311a04"},"vehicle_type_id":"4","last_reported":1726985500,"current_range_meters":38000,"station_id":"ce4bhb92rcd13ifvqen0","pricing_plan_id":"cebpf4jnsgd1na2vs0mg"},{"bike_id":"bedab225-f351-4171-a869-119b3a01c5f3","system_id":"levelo_inurba_marseille","lat":43.28442,"lon":5.3918,"is_reserved":false,"is_disabled":false,"rental_uris":{"android":"levelo://app?vid=bedab225-f351-4171-a869-119b3a01c5f3","ios":"levelo://app?vid=bedab225-f351-4171-a869-119b3a01c5f3"},"vehicle_type_id":"4","last_reported":1726985500,"current_range_meters":38800,"station_id":"ce4bhoh2rcd13ifvqh5g","pricing_plan_id":"cebpf4jnsgd1na2vs0mg"},{"bike_id":"305f1fc7-cb34-4a07-a161-8cc3b8991030","system_id":"levelo_inurba_marseille","lat":43.30323,"lon":5.36896,"is_reserved":false,"is_disabled":false,"rental_uris":{"android":"levelo://app?vid=305f1fc7-cb34-4a07-a161-8cc3b8991030","ios":"levelo://app?vid=305f1fc7-cb34-4a07-a161-8cc3b8991030"},"vehicle_type_id":"4","last_reported":1726985500,"current_range_meters":30800,"station_id":"ce4bgqh2rcd13ifvqc5g","pricing_plan_id":"cebpf4jnsgd1na2vs0mg"},{"bike_id":"77e149ce-6306-410e-beb6-6d01ee452af8","system_id":"levelo_inurba_marseille","lat":43.29887,"lon":5.39737,"is_reserved":false,"is_disabled":false,"rental_uris":{"android":"levelo://app?vid=77e149ce-6306-410e-beb6-6d01ee452af8","ios":"levelo://app?vid=77e149ce-6306-410e-beb6-6d01ee452af8"},"vehicle_type_id":"4","last_reported":1726985500,"current_range_meters":39200,"station_id":"ce4bh0h2rcd13ifvqd50","pricing_plan_id":"cebpf4jnsgd1na2vs0mg"},{"bike_id":"8bffa745-3514-4e7b-9ce6-c0ab1287513e","system_id":"levelo_inurba_marseille","lat":43.27996,"lon":5.41658,"is_reserved":false,"is_disabled":false,"rental_uris":{"android":"levelo://app?vid=8bffa745-3514-4e7b-9ce6-c0ab1287513e","ios":"levelo://app?vid=8bffa745-3514-4e7b-9ce6-c0ab1287513e"},"vehicle_type_id":"4","last_reported":1726985500,"current_range_meters":30400,"station_id":"ce4bho12rcd13ifvqh1g","pricing_plan_id":"cebpf4jnsgd1na2vs0mg"},{"bike_id":"f1a1b266-38cd-4948-a071-219f89de7e58","system_id":"levelo_inurba_marseille","lat":43.28703,"lon":5.37383,"is_reserved":false,"is_disabled":false,"rental_uris":{"android":"levelo://app?vid=f1a1b266-38cd-4948-a071-219f89de7e58","ios":"levelo://app?vid=f1a1b266-38cd-4948-a071-219f89de7e58"},"vehicle_type_id":"4","last_reported":1726985500,"current_range_meters":39200,"station_id":"ce4bh3p2rcd13ifvqdq0","pricing_plan_id":"cebpf4jnsgd1na2vs0mg"},{"bike_id":"9fad6916-fb07-4adf-8dcf-0df96c90bf20","system_id":"levelo_inurba_marseille","lat":43.29199,"lon":5.35784,"is_reserved":false,"is_disabled":false,"rental_uris":{"android":"levelo://app?vid=9fad6916-fb07-4adf-8dcf-0df96c90bf20","ios":"levelo://app?vid=9fad6916-fb07-4adf-8dcf-0df96c90bf20"},"vehicle_type_id":"4","last_reported":1726985500,"current_range_meters":38800,"station_id":"ce4bhb12rcd13ifvqel0","pricing_plan_id":"cebpf4jnsgd1na2vs0mg"},{"bike_id":"29c3801a-7b4c-47aa-a6ad-d81b447de9a5","system_id":"levelo_inurba_marseille","lat":43.30423,"lon":5.41278,"is_reserved":false,"is_disabled":false,"rental_uris":{"android":"levelo://app?vid=29c3801a-7b4c-47aa-a6ad-d81b447de9a5","ios":"levelo://app?vid=29c3801a-7b4c-47aa-a6ad-d81b447de9a5"},"vehicle_type_id":"4","last_reported":1726985500,"current_range_meters":26800,"station_id":"ce4bhop2rcd13ifvqh8g","pricing_plan_id":"cebpf4jnsgd1na2vs0mg"},{"bike_id":"dd61549d-48e7-4a71-a4b7-6d238de3a967","system_id":"levelo_inurba_marseille","lat":43.28336,"lon":5.38088,"is_reserved":false,"is_disabled":false,"rental_uris":{"android":"levelo://app?vid=dd61549d-48e7-4a71-a4b7-6d238de3a967","ios":"levelo://app?vid=dd61549d-48e7-4a71-a4b7-6d238de3a967"},"vehicle_type_id":"4","last_reported":1726985500,"current_range_meters":36800,"station_id":"ce4bh412rcd13ifvqdr0","pricing_plan_id":"cebpf4jnsgd1na2vs0mg"},{"bike_id":"6fac6609-d21f-4bd4-8c53-2331f6982d3a","system_id":"levelo_inurba_marseille","lat":43.27834,"lon":5.3921,"is_reserved":false,"is_disabled":false,"rental_uris":{"android":"levelo://app?vid=6fac6609-d21f-4bd4-8c53-2331f6982d3a","ios":"levelo://app?vid=6fac6609-d21f-4bd4-8c53-2331f6982d3a"},"vehicle_type_id":"4","last_reported":1726985500,"current_range_meters":18000,"station_id":"ce4bhjp2rcd13ifvqga0","pricing_plan_id":"cebpf4jnsgd1na2vs0mg"},{"bike_id":"b9043ee7-1b51-4205-a7f8-061a93eb7c50","system_id":"levelo_inurba_marseille","lat":43.31896,"lon":5.4073,"is_reserved":false,"is_disabled":false,"rental_uris":{"android":"levelo://app?vid=b9043ee7-1b51-4205-a7f8-061a93eb7c50","ios":"levelo://app?vid=b9043ee7-1b51-4205-a7f8-061a93eb7c50"},"vehicle_type_id":"4","last_reported":1726985500,"current_range_meters":40000,"station_id":"ce4bhq12rcd13ifvqhig","pricing_plan_id":"cebpf4jnsgd1na2vs0mg"},{"bike_id":"3c168981-3815-461f-893b-90b4ce403053","system_id":"levelo_inurba_marseille","lat":43.25865,"lon":5.39896,"is_reserved":false,"is_disabled":false,"rental_uris":{"android":"levelo://app?vid=3c168981-3815-461f-893b-90b4ce403053","ios":"levelo://app?vid=3c168981-3815-461f-893b-90b4ce403053"},"vehicle_type_id":"4","last_reported":1726985500,"current_range_meters":25600,"station_id":"ce4bhl92rcd13ifvqghg","pricing_plan_id":"cebpf4jnsgd1na2vs0mg"},{"bike_id":"20a042f1-81aa-4cde-8548-4f002e395336","system_id":"levelo_inurba_marseille","lat":43.30177,"lon":5.39843,"is_reserved":false,"is_disabled":false,"rental_uris":{"android":"levelo://app?vid=20a042f1-81aa-4cde-8548-4f002e395336","ios":"levelo://app?vid=20a042f1-81aa-4cde-8548-4f002e395336"},"vehicle_type_id":"4","last_reported":1726985500,"current_range_meters":38000,"station_id":"ce4bgvp2rcd13ifvqct0","pricing_plan_id":"cebpf4jnsgd1na2vs0mg"},{"bike_id":"3f3a1968-161c-4281-9dac-b1f6f3f79cd0","system_id":"levelo_inurba_marseille","lat":43.27492,"lon":5.42456,"is_reserved":false,"is_disabled":false,"rental_uris":{"android":"levelo://app?vid=3f3a1968-161c-4281-9dac-b1f6f3f79cd0","ios":"levelo://app?vid=3f3a1968-161c-4281-9dac-b1f6f3f79cd0"},"vehicle_type_id":"4","last_reported":1726985500,"current_range_meters":17600,"station_id":"ce4bhn92rcd13ifvqgrg","pricing_plan_id":"cebpf4jnsgd1na2vs0mg"},{"bike_id":"a7cd53a2-fadf-412e-8a85-c58737bb180e","system_id":"levelo_inurba_marseille","lat":43.28465,"lon":5.358871,"is_reserved":false,"is_disabled":false,"rental_uris":{"android":"levelo://app?vid=a7cd53a2-fadf-412e-8a85-c58737bb180e","ios":"levelo://app?vid=a7cd53a2-fadf-412e-8a85-c58737bb180e"},"vehicle_type_id":"4","last_reported":1726985500,"current_range_meters":16800,"station_id":"ce4bhah2rcd13ifvqei0","pricing_plan_id":"cebpf4jnsgd1na2vs0mg"},{"bike_id":"a4ae4f79-4648-4b4c-bac6-c78ecf3d57bc","system_id":"levelo_inurba_marseille","lat":43.31083,"lon":5.42429,"is_reserved":false,"is_disabled":false,"rental_uris":{"android":"levelo://app?vid=a4ae4f79-4648-4b4c-bac6-c78ecf3d57bc","ios":"levelo://app?vid=a4ae4f79-4648-4b4c-bac6-c78ecf3d57bc"},"vehicle_type_id":"4","last_reported":1726985500,"current_range_meters":10800,"station_id":"ce4bhp92rcd13ifvqhag","pricing_plan_id":"cebpf4jnsgd1na2vs0mg"},{"bike_id":"18005f0f-cb04-4552-ac34-a83d28760a6b","system_id":"levelo_inurba_marseille","lat":43.28102,"lon":5.37828,"is_reserved":false,"is_disabled":false,"rental_uris":{"android":"levelo://app?vid=18005f0f-cb04-4552-ac34-a83d28760a6b","ios":"levelo://app?vid=18005f0f-cb04-4552-ac34-a83d28760a6b"},"vehicle_type_id":"4","last_reported":1726985500,"current_range_meters":38400,"station_id":"ce4bha12rcd13ifvqee0","pricing_plan_id":"cebpf4jnsgd1na2vs0mg"},{"bike_id":"1613dd11-4b97-4896-85a3-73470be49a6a","system_id":"levelo_inurba_marseille","lat":43.3171,"lon":5.43704,"is_reserved":false,"is_disabled":false,"rental_uris":{"android":"levelo://app?vid=1613dd11-4b97-4896-85a3-73470be49a6a","ios":"levelo://app?vid=1613dd11-4b97-4896-85a3-73470be49a6a"},"vehicle_type_id":"4","last_reported":1726985500,"current_range_meters":36800,"station_id":"ce4bhp92rcd13ifvqhcg","pricing_plan_id":"cebpf4jnsgd1na2vs0mg"},{"bike_id":"d4c3c260-b3a8-4fe5-aec9-07f42c5f5835","system_id":"levelo_inurba_marseille","lat":43.2904,"lon":5.35907,"is_reserved":false,"is_disabled":false,"rental_uris":{"android":"levelo://app?vid=d4c3c260-b3a8-4fe5-aec9-07f42c5f5835","ios":"levelo://app?vid=d4c3c260-b3a8-4fe5-aec9-07f42c5f5835"},"vehicle_type_id":"4","last_reported":1726985500,"current_range_meters":38800,"station_id":"ce4bha92rcd13ifvqeg0","pricing_plan_id":"cebpf4jnsgd1na2vs0mg"},{"bike_id":"927ddddb-836a-4508-bdd9-480e6b453d62","system_id":"levelo_inurba_marseille","lat":43.28619,"lon":5.37059,"is_reserved":false,"is_disabled":false,"rental_uris":{"android":"levelo://app?vid=927ddddb-836a-4508-bdd9-480e6b453d62","ios":"levelo://app?vid=927ddddb-836a-4508-bdd9-480e6b453d62"},"vehicle_type_id":"4","last_reported":1726985500,"current_range_meters":19600,"station_id":"ce4bht12rcd13ifvqi60","pricing_plan_id":"cebpf4jnsgd1na2vs0mg"},{"bike_id":"6eb7f0eb-b1d6-49fe-bba6-beac0362eedd","system_id":"levelo_inurba_marseille","lat":43.271667,"lon":5.40991,"is_reserved":false,"is_disabled":false,"rental_uris":{"android":"levelo://app?vid=6eb7f0eb-b1d6-49fe-bba6-beac0362eedd","ios":"levelo://app?vid=6eb7f0eb-b1d6-49fe-bba6-beac0362eedd"},"vehicle_type_id":"4","last_reported":1726985500,"current_range_meters":39200,"station_id":"ce4bhl12rcd13ifvqgf0","pricing_plan_id":"cebpf4jnsgd1na2vs0mg"},{"bike_id":"e1181a64-e0c5-44b6-a184-90a821734232","system_id":"levelo_inurba_marseille","lat":43.26493,"lon":5.39541,"is_reserved":false,"is_disabled":false,"rental_uris":{"android":"levelo://app?vid=e1181a64-e0c5-44b6-a184-90a821734232","ios":"levelo://app?vid=e1181a64-e0c5-44b6-a184-90a821734232"},"vehicle_type_id":"4","last_reported":1726985500,"current_range_meters":30000,"station_id":"ce4bhi12rcd13ifvqfq0","pricing_plan_id":"cebpf4jnsgd1na2vs0mg"},{"bike_id":"96247566-d518-4409-a232-ee6adf73b250","system_id":"levelo_inurba_marseille","lat":43.28619,"lon":5.35098,"is_reserved":false,"is_disabled":false,"rental_uris":{"android":"levelo://app?vid=96247566-d518-4409-a232-ee6adf73b250","ios":"levelo://app?vid=96247566-d518-4409-a232-ee6adf73b250"},"vehicle_type_id":"4","last_reported":1726985500,"current_range_meters":38800,"station_id":"ce4bhch2rcd13ifvqeug","pricing_plan_id":"cebpf4jnsgd1na2vs0mg"},{"bike_id":"ddef2735-203a-4460-8fe2-32d0d088e5d5","system_id":"levelo_inurba_marseille","lat":43.31237,"lon":5.37985,"is_reserved":false,"is_disabled":false,"rental_uris":{"android":"levelo://app?vid=ddef2735-203a-4460-8fe2-32d0d088e5d5","ios":"levelo://app?vid=ddef2735-203a-4460-8fe2-32d0d088e5d5"},"vehicle_type_id":"4","last_reported":1726985500,"current_range_meters":8000,"station_id":"","pricing_plan_id":"cebpf4jnsgd1na2vs0mg"},{"bike_id":"c2aeaa9f-95d3-46e1-a6df-c50d01326656","system_id":"levelo_inurba_marseille","lat":43.29534,"lon":5.40073,"is_reserved":false,"is_disabled":false,"rental_uris":{"android":"levelo://app?vid=c2aeaa9f-95d3-46e1-a6df-c50d01326656","ios":"levelo://app?vid=c2aeaa9f-95d3-46e1-a6df-c50d01326656"},"vehicle_type_id":"4","last_reported":1726985500,"current_range_meters":28400,"station_id":"ce4bh392rcd13ifvqdm0","pricing_plan_id":"cebpf4jnsgd1na2vs0mg"},{"bike_id":"765fcc44-248d-45e5-95bf-89cb71612a65","system_id":"levelo_inurba_marseille","lat":43.29252,"lon":5.40909,"is_reserved":false,"is_disabled":false,"rental_uris":{"android":"levelo://app?vid=765fcc44-248d-45e5-95bf-89cb71612a65","ios":"levelo://app?vid=765fcc44-248d-45e5-95bf-89cb71612a65"},"vehicle_type_id":"4","last_reported":1726985500,"current_range_meters":40000,"station_id":"ce4bh192rcd13ifvqdc0","pricing_plan_id":"cebpf4jnsgd1na2vs0mg"},{"bike_id":"6827b231-1d6c-4880-9e24-d675a65cf584","system_id":"levelo_inurba_marseille","lat":43.32341,"lon":5.40626,"is_reserved":false,"is_disabled":false,"rental_uris":{"android":"levelo://app?vid=6827b231-1d6c-4880-9e24-d675a65cf584","ios":"levelo://app?vid=6827b231-1d6c-4880-9e24-d675a65cf584"},"vehicle_type_id":"4","last_reported":1726985500,"current_range_meters":8800,"station_id":"ce4bhq92rcd13ifvqhjg","pricing_plan_id":"cebpf4jnsgd1na2vs0mg"},{"bike_id":"076caaf6-a9ca-4a7f-b850-0aa20b28e5e5","system_id":"levelo_inurba_marseille","lat":43.27055,"lon":5.40253,"is_reserved":false,"is_disabled":false,"rental_uris":{"android":"levelo://app?vid=076caaf6-a9ca-4a7f-b850-0aa20b28e5e5","ios":"levelo://app?vid=076caaf6-a9ca-4a7f-b850-0aa20b28e5e5"},"vehicle_type_id":"4","last_reported":1726985500,"current_range_meters":34800,"station_id":"ce4bhk92rcd13ifvqgc0","pricing_plan_id":"cebpf4jnsgd1na2vs0mg"},{"bike_id":"c720ec5e-0ab2-45a5-b25f-0a0c3d86f039","system_id":"levelo_inurba_marseille","lat":43.32659,"lon":5.40997,"is_reserved":false,"is_disabled":false,"rental_uris":{"android":"levelo://app?vid=c720ec5e-0ab2-45a5-b25f-0a0c3d86f039","ios":"levelo://app?vid=c720ec5e-0ab2-45a5-b25f-0a0c3d86f039"},"vehicle_type_id":"4","last_reported":1726985500,"current_range_meters":38400,"station_id":"ce4bhpp2rcd13ifvqhgg","pricing_plan_id":"cebpf4jnsgd1na2vs0mg"},{"bike_id":"d9b43847-3084-491f-9fba-23450114368e","system_id":"levelo_inurba_marseille","lat":43.27055,"lon":5.40258,"is_reserved":false,"is_disabled":false,"rental_uris":{"android":"levelo://app?vid=d9b43847-3084-491f-9fba-23450114368e","ios":"levelo://app?vid=d9b43847-3084-491f-9fba-23450114368e"},"vehicle_type_id":"4","last_reported":1726985500,"current_range_meters":18000,"station_id":"ce4bhk92rcd13ifvqgc0","pricing_plan_id":"cebpf4jnsgd1na2vs0mg"},{"bike_id":"c85384e8-7ffe-4c1b-b8e3-bfed30ec9d77","system_id":"levelo_inurba_marseille","lat":43.28417,"lon":5.3751,"is_reserved":false,"is_disabled":false,"rental_uris":{"android":"levelo://app?vid=c85384e8-7ffe-4c1b-b8e3-bfed30ec9d77","ios":"levelo://app?vid=c85384e8-7ffe-4c1b-b8e3-bfed30ec9d77"},"vehicle_type_id":"4","last_reported":1726985500,"current_range_meters":38800,"station_id":"ce4bh412rcd13ifvqds0","pricing_plan_id":"cebpf4jnsgd1na2vs0mg"},{"bike_id":"6419325f-76c1-4392-9dbc-8446db0b27c5","system_id":"levelo_inurba_marseille","lat":43.30275,"lon":5.38376,"is_reserved":false,"is_disabled":false,"rental_uris":{"android":"levelo://app?vid=6419325f-76c1-4392-9dbc-8446db0b27c5","ios":"levelo://app?vid=6419325f-76c1-4392-9dbc-8446db0b27c5"},"vehicle_type_id":"4","last_reported":1726985500,"current_range_meters":17200,"station_id":"","pricing_plan_id":"cebpf4jnsgd1na2vs0mg"},{"bike_id":"9b7369cf-12ea-470b-a069-bd3af48648d1","system_id":"levelo_inurba_marseille","lat":43.30891,"lon":5.36869,"is_reserved":false,"is_disabled":false,"rental_uris":{"android":"levelo://app?vid=9b7369cf-12ea-470b-a069-bd3af48648d1","ios":"levelo://app?vid=9b7369cf-12ea-470b-a069-bd3af48648d1"},"vehicle_type_id":"4","last_reported":1726985500,"current_range_meters":38800,"station_id":"ce4bgn92rcd13ifvqbvg","pricing_plan_id":"cebpf4jnsgd1na2vs0mg"},{"bike_id":"5ffd1444-1006-4454-af5f-adca8169af7a","system_id":"levelo_inurba_marseille","lat":43.23962,"lon":5.36632,"is_reserved":false,"is_disabled":false,"rental_uris":{"android":"levelo://app?vid=5ffd1444-1006-4454-af5f-adca8169af7a","ios":"levelo://app?vid=5ffd1444-1006-4454-af5f-adca8169af7a"},"vehicle_type_id":"4","last_reported":1726985500,"current_range_meters":38400,"station_id":"ce4bhi12rcd13ifvqfp0","pricing_plan_id":"cebpf4jnsgd1na2vs0mg"},{"bike_id":"1d099d82-e74e-4ae4-b59b-d86b1529ce89","system_id":"levelo_inurba_marseille","lat":43.28368,"lon":5.38628,"is_reserved":false,"is_disabled":false,"rental_uris":{"android":"levelo://app?vid=1d099d82-e74e-4ae4-b59b-d86b1529ce89","ios":"levelo://app?vid=1d099d82-e74e-4ae4-b59b-d86b1529ce89"},"vehicle_type_id":"4","last_reported":1726985500,"current_range_meters":38400,"station_id":"ce4bh492rcd13ifvqdvg","pricing_plan_id":"cebpf4jnsgd1na2vs0mg"},{"bike_id":"2abfd0da-52ff-49fd-a5cb-a8f4dd818089","system_id":"levelo_inurba_marseille","lat":43.28156,"lon":5.42651,"is_reserved":false,"is_disabled":false,"rental_uris":{"android":"levelo://app?vid=2abfd0da-52ff-49fd-a5cb-a8f4dd818089","ios":"levelo://app?vid=2abfd0da-52ff-49fd-a5cb-a8f4dd818089"},"vehicle_type_id":"4","last_reported":1726985500,"current_range_meters":38000,"station_id":"ce4bhnh2rcd13ifvqgug","pricing_plan_id":"cebpf4jnsgd1na2vs0mg"},{"bike_id":"edfb1ff5-b81b-4225-8da9-100a9115b1e3","system_id":"levelo_inurba_marseille","lat":43.29735,"lon":5.36561,"is_reserved":false,"is_disabled":false,"rental_uris":{"android":"levelo://app?vid=edfb1ff5-b81b-4225-8da9-100a9115b1e3","ios":"levelo://app?vid=edfb1ff5-b81b-4225-8da9-100a9115b1e3"},"vehicle_type_id":"4","last_reported":1726985500,"current_range_meters":4800,"station_id":"","pricing_plan_id":"cebpf4jnsgd1na2vs0mg"},{"bike_id":"f546244a-65eb-486c-a7af-0ba1eaebe8c5","system_id":"levelo_inurba_marseille","lat":43.29037,"lon":5.3997,"is_reserved":false,"is_disabled":false,"rental_uris":{"android":"levelo://app?vid=f546244a-65eb-486c-a7af-0ba1eaebe8c5","ios":"levelo://app?vid=f546244a-65eb-486c-a7af-0ba1eaebe8c5"},"vehicle_type_id":"4","last_reported":1726985500,"current_range_meters":24000,"station_id":"ce4bh392rcd13ifvqdm0","pricing_plan_id":"cebpf4jnsgd1na2vs0mg"},{"bike_id":"e183f995-1eb3-447f-981c-bd060460043d","system_id":"levelo_inurba_marseille","lat":43.28401,"lon":5.37501,"is_reserved":false,"is_disabled":false,"rental_uris":{"android":"levelo://app?vid=e183f995-1eb3-447f-981c-bd060460043d","ios":"levelo://app?vid=e183f995-1eb3-447f-981c-bd060460043d"},"vehicle_type_id":"4","last_reported":1726985500,"current_range_meters":38000,"station_id":"ce4bh412rcd13ifvqds0","pricing_plan_id":"cebpf4jnsgd1na2vs0mg"},{"bike_id":"fb6934fd-0f84-475c-a266-0c68b4eaf556","system_id":"levelo_inurba_marseille","lat":43.2841,"lon":5.37514,"is_reserved":false,"is_disabled":false,"rental_uris":{"android":"levelo://app?vid=fb6934fd-0f84-475c-a266-0c68b4eaf556","ios":"levelo://app?vid=fb6934fd-0f84-475c-a266-0c68b4eaf556"},"vehicle_type_id":"4","last_reported":1726985500,"current_range_meters":40000,"station_id":"ce4bh412rcd13ifvqds0","pricing_plan_id":"cebpf4jnsgd1na2vs0mg"},{"bike_id":"2ec63d0f-1fb9-49d0-9b49-38ec6ad1fbe0","system_id":"levelo_inurba_marseille","lat":43.30784,"lon":5.3766,"is_reserved":false,"is_disabled":false,"rental_uris":{"android":"levelo://app?vid=2ec63d0f-1fb9-49d0-9b49-38ec6ad1fbe0","ios":"levelo://app?vid=2ec63d0f-1fb9-49d0-9b49-38ec6ad1fbe0"},"vehicle_type_id":"4","last_reported":1726985500,"current_range_meters":39200,"station_id":"ce4bgv92rcd13ifvqcq0","pricing_plan_id":"cebpf4jnsgd1na2vs0mg"},{"bike_id":"c914526b-bc34-4a4c-8d27-ef89019aa801","system_id":"levelo_inurba_marseille","lat":43.29558,"lon":5.42291,"is_reserved":false,"is_disabled":false,"rental_uris":{"android":"levelo://app?vid=c914526b-bc34-4a4c-8d27-ef89019aa801","ios":"levelo://app?vid=c914526b-bc34-4a4c-8d27-ef89019aa801"},"vehicle_type_id":"4","last_reported":1726985500,"current_range_meters":16400,"station_id":"ce4bhph2rcd13ifvqhdg","pricing_plan_id":"cebpf4jnsgd1na2vs0mg"},{"bike_id":"1e36dc23-aa9d-4cac-91fc-380ccf78f185","system_id":"levelo_inurba_marseille","lat":43.29879,"lon":5.39726,"is_reserved":false,"is_disabled":false,"rental_uris":{"android":"levelo://app?vid=1e36dc23-aa9d-4cac-91fc-380ccf78f185","ios":"levelo://app?vid=1e36dc23-aa9d-4cac-91fc-380ccf78f185"},"vehicle_type_id":"4","last_reported":1726985500,"current_range_meters":39200,"station_id":"ce4bh0h2rcd13ifvqd50","pricing_plan_id":"cebpf4jnsgd1na2vs0mg"},{"bike_id":"14405408-a4af-4192-a5c2-bd91372c8ade","system_id":"levelo_inurba_marseille","lat":43.30133,"lon":5.39868,"is_reserved":false,"is_disabled":false,"rental_uris":{"android":"levelo://app?vid=14405408-a4af-4192-a5c2-bd91372c8ade","ios":"levelo://app?vid=14405408-a4af-4192-a5c2-bd91372c8ade"},"vehicle_type_id":"4","last_reported":1726985500,"current_range_meters":28400,"station_id":"ce4bh0h2rcd13ifvqd40","pricing_plan_id":"cebpf4jnsgd1na2vs0mg"},{"bike_id":"eb51972c-e901-47c9-aa4c-bb287b81e5fb","system_id":"levelo_inurba_marseille","lat":43.31756,"lon":5.39014,"is_reserved":false,"is_disabled":false,"rental_uris":{"android":"levelo://app?vid=eb51972c-e901-47c9-aa4c-bb287b81e5fb","ios":"levelo://app?vid=eb51972c-e901-47c9-aa4c-bb287b81e5fb"},"vehicle_type_id":"4","last_reported":1726985500,"current_range_meters":39200,"station_id":"ce4bhqp2rcd13ifvqhng","pricing_plan_id":"cebpf4jnsgd1na2vs0mg"},{"bike_id":"9b270c0b-276d-47a0-b1ea-db76f7a1e4e2","system_id":"levelo_inurba_marseille","lat":43.27375,"lon":5.36252,"is_reserved":false,"is_disabled":false,"rental_uris":{"android":"levelo://app?vid=9b270c0b-276d-47a0-b1ea-db76f7a1e4e2","ios":"levelo://app?vid=9b270c0b-276d-47a0-b1ea-db76f7a1e4e2"},"vehicle_type_id":"4","last_reported":1726985500,"current_range_meters":39200,"station_id":"ce4bhbh2rcd13ifvqeo0","pricing_plan_id":"cebpf4jnsgd1na2vs0mg"},{"bike_id":"03bad859-4358-4bb4-9b18-007f8463f1b5","system_id":"levelo_inurba_marseille","lat":43.23186,"lon":5.39982,"is_reserved":false,"is_disabled":false,"rental_uris":{"android":"levelo://app?vid=03bad859-4358-4bb4-9b18-007f8463f1b5","ios":"levelo://app?vid=03bad859-4358-4bb4-9b18-007f8463f1b5"},"vehicle_type_id":"4","last_reported":1726985500,"current_range_meters":39200,"station_id":"ce4bhn12rcd13ifvqgqg","pricing_plan_id":"cebpf4jnsgd1na2vs0mg"},{"bike_id":"72893abd-c62a-46e9-b638-e54ec5476bce","system_id":"levelo_inurba_marseille","lat":43.30423,"lon":5.41273,"is_reserved":false,"is_disabled":false,"rental_uris":{"android":"levelo://app?vid=72893abd-c62a-46e9-b638-e54ec5476bce","ios":"levelo://app?vid=72893abd-c62a-46e9-b638-e54ec5476bce"},"vehicle_type_id":"4","last_reported":1726985500,"current_range_meters":24800,"station_id":"ce4bhop2rcd13ifvqh8g","pricing_plan_id":"cebpf4jnsgd1na2vs0mg"},{"bike_id":"ea219450-0551-484e-bdfc-3c198bec9523","system_id":"levelo_inurba_marseille","lat":43.25866,"lon":5.39901,"is_reserved":false,"is_disabled":false,"rental_uris":{"android":"levelo://app?vid=ea219450-0551-484e-bdfc-3c198bec9523","ios":"levelo://app?vid=ea219450-0551-484e-bdfc-3c198bec9523"},"vehicle_type_id":"4","last_reported":1726985500,"current_range_meters":23200,"station_id":"ce4bhl92rcd13ifvqghg","pricing_plan_id":"cebpf4jnsgd1na2vs0mg"},{"bike_id":"be4e3a6b-ebd3-49c9-9eb8-d3f1c777207e","system_id":"levelo_inurba_marseille","lat":43.25115,"lon":5.40317,"is_reserved":false,"is_disabled":false,"rental_uris":{"android":"levelo://app?vid=be4e3a6b-ebd3-49c9-9eb8-d3f1c777207e","ios":"levelo://app?vid=be4e3a6b-ebd3-49c9-9eb8-d3f1c777207e"},"vehicle_type_id":"4","last_reported":1726985500,"current_range_meters":9200,"station_id":"ce4bhlh2rcd13ifvqgig","pricing_plan_id":"cebpf4jnsgd1na2vs0mg"},{"bike_id":"850b08d8-ed42-4ad0-b0d6-020b1b8ae309","system_id":"levelo_inurba_marseille","lat":43.29558,"lon":5.42283,"is_reserved":false,"is_disabled":false,"rental_uris":{"android":"levelo://app?vid=850b08d8-ed42-4ad0-b0d6-020b1b8ae309","ios":"levelo://app?vid=850b08d8-ed42-4ad0-b0d6-020b1b8ae309"},"vehicle_type_id":"4","last_reported":1726985500,"current_range_meters":14000,"station_id":"ce4bhph2rcd13ifvqhdg","pricing_plan_id":"cebpf4jnsgd1na2vs0mg"},{"bike_id":"bc1149f7-f94a-4856-9e54-7257453ebd01","system_id":"levelo_inurba_marseille","lat":43.27176,"lon":5.40986,"is_reserved":false,"is_disabled":false,"rental_uris":{"android":"levelo://app?vid=bc1149f7-f94a-4856-9e54-7257453ebd01","ios":"levelo://app?vid=bc1149f7-f94a-4856-9e54-7257453ebd01"},"vehicle_type_id":"4","last_reported":1726985500,"current_range_meters":39200,"station_id":"ce4bhl12rcd13ifvqgf0","pricing_plan_id":"cebpf4jnsgd1na2vs0mg"},{"bike_id":"bc604d51-e3a3-428e-a3f1-ff462b3012dc","system_id":"levelo_inurba_marseille","lat":43.26567,"lon":5.3899,"is_reserved":false,"is_disabled":false,"rental_uris":{"android":"levelo://app?vid=bc604d51-e3a3-428e-a3f1-ff462b3012dc","ios":"levelo://app?vid=bc604d51-e3a3-428e-a3f1-ff462b3012dc"},"vehicle_type_id":"4","last_reported":1726985500,"current_range_meters":10000,"station_id":"ce4bhe12rcd13ifvqf30","pricing_plan_id":"cebpf4jnsgd1na2vs0mg"},{"bike_id":"0e80655c-5b3d-43d7-a3a0-9c317c246d02","system_id":"levelo_inurba_marseille","lat":43.25119,"lon":5.40318,"is_reserved":false,"is_disabled":false,"rental_uris":{"android":"levelo://app?vid=0e80655c-5b3d-43d7-a3a0-9c317c246d02","ios":"levelo://app?vid=0e80655c-5b3d-43d7-a3a0-9c317c246d02"},"vehicle_type_id":"4","last_reported":1726985500,"current_range_meters":34000,"station_id":"ce4bhlh2rcd13ifvqgig","pricing_plan_id":"cebpf4jnsgd1na2vs0mg"},{"bike_id":"3343ef3c-e354-48de-a3b4-a56cdf0ba7de","system_id":"levelo_inurba_marseille","lat":43.28665,"lon":5.36345,"is_reserved":false,"is_disabled":false,"rental_uris":{"android":"levelo://app?vid=3343ef3c-e354-48de-a3b4-a56cdf0ba7de","ios":"levelo://app?vid=3343ef3c-e354-48de-a3b4-a56cdf0ba7de"},"vehicle_type_id":"4","last_reported":1726985500,"current_range_meters":40000,"station_id":"ce4bhah2rcd13ifvqej0","pricing_plan_id":"cebpf4jnsgd1na2vs0mg"},{"bike_id":"d73cb9a1-7fa0-40ee-a7ea-89e46c73a80a","system_id":"levelo_inurba_marseille","lat":43.29277,"lon":5.40122,"is_reserved":false,"is_disabled":false,"rental_uris":{"android":"levelo://app?vid=d73cb9a1-7fa0-40ee-a7ea-89e46c73a80a","ios":"levelo://app?vid=d73cb9a1-7fa0-40ee-a7ea-89e46c73a80a"},"vehicle_type_id":"4","last_reported":1726985500,"current_range_meters":8800,"station_id":"ce4bh312rcd13ifvqdk0","pricing_plan_id":"cebpf4jnsgd1na2vs0mg"},{"bike_id":"e4692556-7810-4950-acfd-a3c2fe535854","system_id":"levelo_inurba_marseille","lat":43.30875,"lon":5.37175,"is_reserved":false,"is_disabled":false,"rental_uris":{"android":"levelo://app?vid=e4692556-7810-4950-acfd-a3c2fe535854","ios":"levelo://app?vid=e4692556-7810-4950-acfd-a3c2fe535854"},"vehicle_type_id":"4","last_reported":1726985500,"current_range_meters":2800,"station_id":"ce4bguh2rcd13ifvqckg","pricing_plan_id":"cebpf4jnsgd1na2vs0mg"},{"bike_id":"38c4787b-3262-4750-bd86-0d940a72a75e","system_id":"levelo_inurba_marseille","lat":43.28435,"lon":5.39185,"is_reserved":false,"is_disabled":false,"rental_uris":{"android":"levelo://app?vid=38c4787b-3262-4750-bd86-0d940a72a75e","ios":"levelo://app?vid=38c4787b-3262-4750-bd86-0d940a72a75e"},"vehicle_type_id":"4","last_reported":1726985500,"current_range_meters":25600,"station_id":"ce4bhoh2rcd13ifvqh5g","pricing_plan_id":"cebpf4jnsgd1na2vs0mg"},{"bike_id":"7f6c13e6-2b1e-406a-8e3b-b6e6ea68c1f8","system_id":"levelo_inurba_marseille","lat":43.29272,"lon":5.40123,"is_reserved":false,"is_disabled":false,"rental_uris":{"android":"levelo://app?vid=7f6c13e6-2b1e-406a-8e3b-b6e6ea68c1f8","ios":"levelo://app?vid=7f6c13e6-2b1e-406a-8e3b-b6e6ea68c1f8"},"vehicle_type_id":"4","last_reported":1726985500,"current_range_meters":19600,"station_id":"ce4bh312rcd13ifvqdk0","pricing_plan_id":"cebpf4jnsgd1na2vs0mg"},{"bike_id":"54b7f973-33ed-4b77-bfc3-7847058bc7a6","system_id":"levelo_inurba_marseille","lat":43.31725,"lon":5.42406,"is_reserved":false,"is_disabled":false,"rental_uris":{"android":"levelo://app?vid=54b7f973-33ed-4b77-bfc3-7847058bc7a6","ios":"levelo://app?vid=54b7f973-33ed-4b77-bfc3-7847058bc7a6"},"vehicle_type_id":"4","last_reported":1726985500,"current_range_meters":39200,"station_id":"ce4bhp92rcd13ifvqhbg","pricing_plan_id":"cebpf4jnsgd1na2vs0mg"},{"bike_id":"324838dc-eded-4141-be86-0d69b3166d8a","system_id":"levelo_inurba_marseille","lat":43.23467,"lon":5.38104,"is_reserved":false,"is_disabled":false,"rental_uris":{"android":"levelo://app?vid=324838dc-eded-4141-be86-0d69b3166d8a","ios":"levelo://app?vid=324838dc-eded-4141-be86-0d69b3166d8a"},"vehicle_type_id":"4","last_reported":1726985500,"current_range_meters":9200,"station_id":"","pricing_plan_id":"cebpf4jnsgd1na2vs0mg"},{"bike_id":"a4d654dd-e73e-4908-8f27-3c50f49b8d76","system_id":"levelo_inurba_marseille","lat":43.27842,"lon":5.39204,"is_reserved":false,"is_disabled":false,"rental_uris":{"android":"levelo://app?vid=a4d654dd-e73e-4908-8f27-3c50f49b8d76","ios":"levelo://app?vid=a4d654dd-e73e-4908-8f27-3c50f49b8d76"},"vehicle_type_id":"4","last_reported":1726985500,"current_range_meters":40000,"station_id":"ce4bhjp2rcd13ifvqga0","pricing_plan_id":"cebpf4jnsgd1na2vs0mg"},{"bike_id":"4ea8b4f4-c76c-442f-b7c8-05eff8f0c4da","system_id":"levelo_inurba_marseille","lat":43.26946,"lon":5.40253,"is_reserved":false,"is_disabled":false,"rental_uris":{"android":"levelo://app?vid=4ea8b4f4-c76c-442f-b7c8-05eff8f0c4da","ios":"levelo://app?vid=4ea8b4f4-c76c-442f-b7c8-05eff8f0c4da"},"vehicle_type_id":"4","last_reported":1726985500,"current_range_meters":38800,"station_id":"cjm6bp8fraef2m0cb0m0","pricing_plan_id":"cebpf4jnsgd1na2vs0mg"},{"bike_id":"5419b1bf-d37c-4076-a34c-52ede101758e","system_id":"levelo_inurba_marseille","lat":43.337444,"lon":5.374475,"is_reserved":false,"is_disabled":false,"rental_uris":{"android":"levelo://app?vid=5419b1bf-d37c-4076-a34c-52ede101758e","ios":"levelo://app?vid=5419b1bf-d37c-4076-a34c-52ede101758e"},"vehicle_type_id":"4","last_reported":1726985500,"current_range_meters":29600,"station_id":"","pricing_plan_id":"cebpf4jnsgd1na2vs0mg"},{"bike_id":"013a1a54-8c71-4d7d-ad66-178705a1f09a","system_id":"levelo_inurba_marseille","lat":43.25874,"lon":5.39898,"is_reserved":false,"is_disabled":false,"rental_uris":{"android":"levelo://app?vid=013a1a54-8c71-4d7d-ad66-178705a1f09a","ios":"levelo://app?vid=013a1a54-8c71-4d7d-ad66-178705a1f09a"},"vehicle_type_id":"4","last_reported":1726985500,"current_range_meters":39200,"station_id":"ce4bhl92rcd13ifvqghg","pricing_plan_id":"cebpf4jnsgd1na2vs0mg"},{"bike_id":"3d11801b-4666-46ed-99aa-aabfb05b911e","system_id":"levelo_inurba_marseille","lat":43.31997,"lon":5.38146,"is_reserved":false,"is_disabled":false,"rental_uris":{"android":"levelo://app?vid=3d11801b-4666-46ed-99aa-aabfb05b911e","ios":"levelo://app?vid=3d11801b-4666-46ed-99aa-aabfb05b911e"},"vehicle_type_id":"4","last_reported":1726985500,"current_range_meters":40000,"station_id":"ce4bhr12rcd13ifvqhpg","pricing_plan_id":"cebpf4jnsgd1na2vs0mg"},{"bike_id":"2673b1af-9135-43a4-8271-b37cf775e47e","system_id":"levelo_inurba_marseille","lat":43.33604,"lon":5.41031,"is_reserved":false,"is_disabled":false,"rental_uris":{"android":"levelo://app?vid=2673b1af-9135-43a4-8271-b37cf775e47e","ios":"levelo://app?vid=2673b1af-9135-43a4-8271-b37cf775e47e"},"vehicle_type_id":"4","last_reported":1726985500,"current_range_meters":40000,"station_id":"ce4bhqh2rcd13ifvqhmg","pricing_plan_id":"cebpf4jnsgd1na2vs0mg"},{"bike_id":"1b037c9a-bb02-41f7-81f7-2761fe7dd92b","system_id":"levelo_inurba_marseille","lat":43.26216,"lon":5.37445,"is_reserved":false,"is_disabled":false,"rental_uris":{"android":"levelo://app?vid=1b037c9a-bb02-41f7-81f7-2761fe7dd92b","ios":"levelo://app?vid=1b037c9a-bb02-41f7-81f7-2761fe7dd92b"},"vehicle_type_id":"4","last_reported":1726985500,"current_range_meters":36400,"station_id":"ce4bhgp2rcd13ifvqfc0","pricing_plan_id":"cebpf4jnsgd1na2vs0mg"},{"bike_id":"2b2f3a34-7c59-47c3-b7b1-8d4db4b451dc","system_id":"levelo_inurba_marseille","lat":43.30323,"lon":5.40439,"is_reserved":false,"is_disabled":false,"rental_uris":{"android":"levelo://app?vid=2b2f3a34-7c59-47c3-b7b1-8d4db4b451dc","ios":"levelo://app?vid=2b2f3a34-7c59-47c3-b7b1-8d4db4b451dc"},"vehicle_type_id":"4","last_reported":1726985500,"current_range_meters":27200,"station_id":"ce4bh012rcd13ifvqd10","pricing_plan_id":"cebpf4jnsgd1na2vs0mg"},{"bike_id":"470259e3-b1c4-4a86-b9be-ae3f1006b367","system_id":"levelo_inurba_marseille","lat":43.3133,"lon":5.39695,"is_reserved":false,"is_disabled":false,"rental_uris":{"android":"levelo://app?vid=470259e3-b1c4-4a86-b9be-ae3f1006b367","ios":"levelo://app?vid=470259e3-b1c4-4a86-b9be-ae3f1006b367"},"vehicle_type_id":"4","last_reported":1726985500,"current_range_meters":38400,"station_id":"ce4bgvp2rcd13ifvqcu0","pricing_plan_id":"cebpf4jnsgd1na2vs0mg"},{"bike_id":"351c3056-37f5-4021-873d-c73dc6c19dbe","system_id":"levelo_inurba_marseille","lat":43.28576,"lon":5.39489,"is_reserved":false,"is_disabled":false,"rental_uris":{"android":"levelo://app?vid=351c3056-37f5-4021-873d-c73dc6c19dbe","ios":"levelo://app?vid=351c3056-37f5-4021-873d-c73dc6c19dbe"},"vehicle_type_id":"4","last_reported":1726985500,"current_range_meters":30400,"station_id":"ce4bh292rcd13ifvqdg0","pricing_plan_id":"cebpf4jnsgd1na2vs0mg"},{"bike_id":"d3cf01aa-0df2-4629-ab05-3889201ab5de","system_id":"levelo_inurba_marseille","lat":43.25719,"lon":5.41112,"is_reserved":false,"is_disabled":false,"rental_uris":{"android":"levelo://app?vid=d3cf01aa-0df2-4629-ab05-3889201ab5de","ios":"levelo://app?vid=d3cf01aa-0df2-4629-ab05-3889201ab5de"},"vehicle_type_id":"4","last_reported":1726985500,"current_range_meters":25600,"station_id":"ce4bhkp2rcd13ifvqgd0","pricing_plan_id":"cebpf4jnsgd1na2vs0mg"},{"bike_id":"5f970973-f4f4-4937-9fbe-7af0359838f0","system_id":"levelo_inurba_marseille","lat":43.32342,"lon":5.40617,"is_reserved":false,"is_disabled":false,"rental_uris":{"android":"levelo://app?vid=5f970973-f4f4-4937-9fbe-7af0359838f0","ios":"levelo://app?vid=5f970973-f4f4-4937-9fbe-7af0359838f0"},"vehicle_type_id":"4","last_reported":1726985500,"current_range_meters":27600,"station_id":"ce4bhq92rcd13ifvqhjg","pricing_plan_id":"cebpf4jnsgd1na2vs0mg"},{"bike_id":"f59f9f07-2020-454d-8f62-ca65292624a4","system_id":"levelo_inurba_marseille","lat":43.31322,"lon":5.39702,"is_reserved":false,"is_disabled":false,"rental_uris":{"android":"levelo://app?vid=f59f9f07-2020-454d-8f62-ca65292624a4","ios":"levelo://app?vid=f59f9f07-2020-454d-8f62-ca65292624a4"},"vehicle_type_id":"4","last_reported":1726985500,"current_range_meters":36800,"station_id":"ce4bgvp2rcd13ifvqcu0","pricing_plan_id":"cebpf4jnsgd1na2vs0mg"},{"bike_id":"4d6f1b65-a95d-4510-bfbf-2bbf8ac25c86","system_id":"levelo_inurba_marseille","lat":43.31533,"lon":5.38023,"is_reserved":false,"is_disabled":false,"rental_uris":{"android":"levelo://app?vid=4d6f1b65-a95d-4510-bfbf-2bbf8ac25c86","ios":"levelo://app?vid=4d6f1b65-a95d-4510-bfbf-2bbf8ac25c86"},"vehicle_type_id":"4","last_reported":1726985500,"current_range_meters":31200,"station_id":"ce4bhsp2rcd13ifvqi50","pricing_plan_id":"cebpf4jnsgd1na2vs0mg"},{"bike_id":"f6cc7d13-4456-4c38-8562-d14e0b0da3bc","system_id":"levelo_inurba_marseille","lat":43.29278,"lon":5.36848,"is_reserved":false,"is_disabled":false,"rental_uris":{"android":"levelo://app?vid=f6cc7d13-4456-4c38-8562-d14e0b0da3bc","ios":"levelo://app?vid=f6cc7d13-4456-4c38-8562-d14e0b0da3bc"},"vehicle_type_id":"4","last_reported":1726985500,"current_range_meters":38000,"station_id":"ce4bhbp2rcd13ifvqesg","pricing_plan_id":"cebpf4jnsgd1na2vs0mg"},{"bike_id":"e9519760-4bc9-4ccc-8913-faa65ced2e8f","system_id":"levelo_inurba_marseille","lat":43.28706,"lon":5.39974,"is_reserved":false,"is_disabled":false,"rental_uris":{"android":"levelo://app?vid=e9519760-4bc9-4ccc-8913-faa65ced2e8f","ios":"levelo://app?vid=e9519760-4bc9-4ccc-8913-faa65ced2e8f"},"vehicle_type_id":"4","last_reported":1726985500,"current_range_meters":38000,"station_id":"ce4bho92rcd13ifvqh3g","pricing_plan_id":"cebpf4jnsgd1na2vs0mg"},{"bike_id":"f196cae4-4da8-4191-8e3a-3f8fcdaa11a6","system_id":"levelo_inurba_marseille","lat":43.31074,"lon":5.3836,"is_reserved":false,"is_disabled":false,"rental_uris":{"android":"levelo://app?vid=f196cae4-4da8-4191-8e3a-3f8fcdaa11a6","ios":"levelo://app?vid=f196cae4-4da8-4191-8e3a-3f8fcdaa11a6"},"vehicle_type_id":"4","last_reported":1726985500,"current_range_meters":35200,"station_id":"ce4bgv92rcd13ifvqcr0","pricing_plan_id":"cebpf4jnsgd1na2vs0mg"},{"bike_id":"915340f7-a17f-44b0-ba7c-21f3b9d727ea","system_id":"levelo_inurba_marseille","lat":43.29556,"lon":5.42285,"is_reserved":false,"is_disabled":false,"rental_uris":{"android":"levelo://app?vid=915340f7-a17f-44b0-ba7c-21f3b9d727ea","ios":"levelo://app?vid=915340f7-a17f-44b0-ba7c-21f3b9d727ea"},"vehicle_type_id":"4","last_reported":1726985500,"current_range_meters":20800,"station_id":"ce4bhph2rcd13ifvqhdg","pricing_plan_id":"cebpf4jnsgd1na2vs0mg"},{"bike_id":"149779fc-bc45-458a-857f-33707eedaf6a","system_id":"levelo_inurba_marseille","lat":43.23193,"lon":5.35552,"is_reserved":false,"is_disabled":false,"rental_uris":{"android":"levelo://app?vid=149779fc-bc45-458a-857f-33707eedaf6a","ios":"levelo://app?vid=149779fc-bc45-458a-857f-33707eedaf6a"},"vehicle_type_id":"4","last_reported":1726985500,"current_range_meters":16800,"station_id":"ce4bhu92rcd13ifvqi70","pricing_plan_id":"cebpf4jnsgd1na2vs0mg"},{"bike_id":"adea4142-201e-4d62-8b5f-c33b95d4ba3b","system_id":"levelo_inurba_marseille","lat":43.29443,"lon":5.39752,"is_reserved":false,"is_disabled":false,"rental_uris":{"android":"levelo://app?vid=adea4142-201e-4d62-8b5f-c33b95d4ba3b","ios":"levelo://app?vid=adea4142-201e-4d62-8b5f-c33b95d4ba3b"},"vehicle_type_id":"4","last_reported":1726985500,"current_range_meters":38800,"station_id":"ce4bh3h2rcd13ifvqdo0","pricing_plan_id":"cebpf4jnsgd1na2vs0mg"},{"bike_id":"cbed4723-8d01-44bc-9575-7e32d59f63ec","system_id":"levelo_inurba_marseille","lat":43.28083,"lon":5.39652,"is_reserved":false,"is_disabled":false,"rental_uris":{"android":"levelo://app?vid=cbed4723-8d01-44bc-9575-7e32d59f63ec","ios":"levelo://app?vid=cbed4723-8d01-44bc-9575-7e32d59f63ec"},"vehicle_type_id":"4","last_reported":1726985500,"current_range_meters":39200,"station_id":"ce4bho12rcd13ifvqh2g","pricing_plan_id":"cebpf4jnsgd1na2vs0mg"},{"bike_id":"080c27f8-449d-4325-a7d5-cc9e03b11a4f","system_id":"levelo_inurba_marseille","lat":43.23185,"lon":5.39982,"is_reserved":false,"is_disabled":false,"rental_uris":{"android":"levelo://app?vid=080c27f8-449d-4325-a7d5-cc9e03b11a4f","ios":"levelo://app?vid=080c27f8-449d-4325-a7d5-cc9e03b11a4f"},"vehicle_type_id":"4","last_reported":1726985500,"current_range_meters":25600,"station_id":"ce4bhn12rcd13ifvqgqg","pricing_plan_id":"cebpf4jnsgd1na2vs0mg"},{"bike_id":"9c953aea-1601-4259-a38b-3d5e06643e05","system_id":"levelo_inurba_marseille","lat":43.27623,"lon":5.36113,"is_reserved":false,"is_disabled":false,"rental_uris":{"android":"levelo://app?vid=9c953aea-1601-4259-a38b-3d5e06643e05","ios":"levelo://app?vid=9c953aea-1601-4259-a38b-3d5e06643e05"},"vehicle_type_id":"4","last_reported":1726985500,"current_range_meters":38800,"station_id":"ce4bgj92rcd13ifvqbe0","pricing_plan_id":"cebpf4jnsgd1na2vs0mg"},{"bike_id":"bbb13e8a-5e7e-44c9-afc9-214f1554592c","system_id":"levelo_inurba_marseille","lat":43.25108,"lon":5.40321,"is_reserved":false,"is_disabled":false,"rental_uris":{"android":"levelo://app?vid=bbb13e8a-5e7e-44c9-afc9-214f1554592c","ios":"levelo://app?vid=bbb13e8a-5e7e-44c9-afc9-214f1554592c"},"vehicle_type_id":"4","last_reported":1726985500,"current_range_meters":38400,"station_id":"ce4bhlh2rcd13ifvqgig","pricing_plan_id":"cebpf4jnsgd1na2vs0mg"},{"bike_id":"7d903340-b844-4bfb-bb1e-f140d594d2c5","system_id":"levelo_inurba_marseille","lat":43.3036,"lon":5.41872,"is_reserved":false,"is_disabled":false,"rental_uris":{"android":"levelo://app?vid=7d903340-b844-4bfb-bb1e-f140d594d2c5","ios":"levelo://app?vid=7d903340-b844-4bfb-bb1e-f140d594d2c5"},"vehicle_type_id":"4","last_reported":1726985500,"current_range_meters":36000,"station_id":"ce4bhop2rcd13ifvqh7g","pricing_plan_id":"cebpf4jnsgd1na2vs0mg"},{"bike_id":"3029a821-4f09-426b-9136-c97c9c0dcd3a","system_id":"levelo_inurba_marseille","lat":43.26484,"lon":5.39547,"is_reserved":false,"is_disabled":false,"rental_uris":{"android":"levelo://app?vid=3029a821-4f09-426b-9136-c97c9c0dcd3a","ios":"levelo://app?vid=3029a821-4f09-426b-9136-c97c9c0dcd3a"},"vehicle_type_id":"4","last_reported":1726985500,"current_range_meters":38400,"station_id":"ce4bhi12rcd13ifvqfq0","pricing_plan_id":"cebpf4jnsgd1na2vs0mg"},{"bike_id":"61437227-be5e-4999-bb29-38fdb6c6fcc9","system_id":"levelo_inurba_marseille","lat":43.30464,"lon":5.37899,"is_reserved":false,"is_disabled":false,"rental_uris":{"android":"levelo://app?vid=61437227-be5e-4999-bb29-38fdb6c6fcc9","ios":"levelo://app?vid=61437227-be5e-4999-bb29-38fdb6c6fcc9"},"vehicle_type_id":"4","last_reported":1726985500,"current_range_meters":39200,"station_id":"ce4bgup2rcd13ifvqcn0","pricing_plan_id":"cebpf4jnsgd1na2vs0mg"},{"bike_id":"604c9531-be4f-4974-bfe2-bd7828d7386f","system_id":"levelo_inurba_marseille","lat":43.29899,"lon":5.43667,"is_reserved":false,"is_disabled":false,"rental_uris":{"android":"levelo://app?vid=604c9531-be4f-4974-bfe2-bd7828d7386f","ios":"levelo://app?vid=604c9531-be4f-4974-bfe2-bd7828d7386f"},"vehicle_type_id":"4","last_reported":1726985500,"current_range_meters":19200,"station_id":"ce4bhpp2rcd13ifvqhfg","pricing_plan_id":"cebpf4jnsgd1na2vs0mg"},{"bike_id":"b88026ca-20d3-433b-b445-70414b321c74","system_id":"levelo_inurba_marseille","lat":43.2999,"lon":5.37175,"is_reserved":false,"is_disabled":false,"rental_uris":{"android":"levelo://app?vid=b88026ca-20d3-433b-b445-70414b321c74","ios":"levelo://app?vid=b88026ca-20d3-433b-b445-70414b321c74"},"vehicle_type_id":"4","last_reported":1726985500,"current_range_meters":37600,"station_id":"ce4bgr92rcd13ifvqc7g","pricing_plan_id":"cebpf4jnsgd1na2vs0mg"},{"bike_id":"ac1ba890-0351-4774-b861-dd5bc4196c14","system_id":"levelo_inurba_marseille","lat":43.2657,"lon":5.39008,"is_reserved":false,"is_disabled":false,"rental_uris":{"android":"levelo://app?vid=ac1ba890-0351-4774-b861-dd5bc4196c14","ios":"levelo://app?vid=ac1ba890-0351-4774-b861-dd5bc4196c14"},"vehicle_type_id":"4","last_reported":1726985500,"current_range_meters":14400,"station_id":"ce4bhe12rcd13ifvqf30","pricing_plan_id":"cebpf4jnsgd1na2vs0mg"},{"bike_id":"dffd4f54-b346-4788-86ea-8f518e84719a","system_id":"levelo_inurba_marseille","lat":43.31894,"lon":5.40732,"is_reserved":false,"is_disabled":false,"rental_uris":{"android":"levelo://app?vid=dffd4f54-b346-4788-86ea-8f518e84719a","ios":"levelo://app?vid=dffd4f54-b346-4788-86ea-8f518e84719a"},"vehicle_type_id":"4","last_reported":1726985500,"current_range_meters":21600,"station_id":"ce4bhq12rcd13ifvqhig","pricing_plan_id":"cebpf4jnsgd1na2vs0mg"},{"bike_id":"46121cc0-436d-4cf1-9853-45960b7d4d1b","system_id":"levelo_inurba_marseille","lat":43.23968,"lon":5.36628,"is_reserved":false,"is_disabled":false,"rental_uris":{"android":"levelo://app?vid=46121cc0-436d-4cf1-9853-45960b7d4d1b","ios":"levelo://app?vid=46121cc0-436d-4cf1-9853-45960b7d4d1b"},"vehicle_type_id":"4","last_reported":1726985500,"current_range_meters":37600,"station_id":"ce4bhi12rcd13ifvqfp0","pricing_plan_id":"cebpf4jnsgd1na2vs0mg"},{"bike_id":"90d8a09e-2181-4187-81ec-24698bc4e496","system_id":"levelo_inurba_marseille","lat":43.28704,"lon":5.39975,"is_reserved":false,"is_disabled":false,"rental_uris":{"android":"levelo://app?vid=90d8a09e-2181-4187-81ec-24698bc4e496","ios":"levelo://app?vid=90d8a09e-2181-4187-81ec-24698bc4e496"},"vehicle_type_id":"4","last_reported":1726985500,"current_range_meters":40000,"station_id":"ce4bho92rcd13ifvqh3g","pricing_plan_id":"cebpf4jnsgd1na2vs0mg"},{"bike_id":"b0f14426-d827-48de-b8c2-490c54308beb","system_id":"levelo_inurba_marseille","lat":43.293915,"lon":5.386918,"is_reserved":false,"is_disabled":false,"rental_uris":{"android":"levelo://app?vid=b0f14426-d827-48de-b8c2-490c54308beb","ios":"levelo://app?vid=b0f14426-d827-48de-b8c2-490c54308beb"},"vehicle_type_id":"4","last_reported":1726985500,"current_range_meters":29600,"station_id":"ce4bh192rcd13ifvqdd0","pricing_plan_id":"cebpf4jnsgd1na2vs0mg"},{"bike_id":"226a0941-0c72-4b00-be32-622ea037304a","system_id":"levelo_inurba_marseille","lat":43.28621,"lon":5.35103,"is_reserved":false,"is_disabled":false,"rental_uris":{"android":"levelo://app?vid=226a0941-0c72-4b00-be32-622ea037304a","ios":"levelo://app?vid=226a0941-0c72-4b00-be32-622ea037304a"},"vehicle_type_id":"4","last_reported":1726985500,"current_range_meters":38800,"station_id":"ce4bhch2rcd13ifvqeug","pricing_plan_id":"cebpf4jnsgd1na2vs0mg"},{"bike_id":"7c45df27-7ef6-468e-b331-208ce3ceb575","system_id":"levelo_inurba_marseille","lat":43.28704,"lon":5.374,"is_reserved":false,"is_disabled":false,"rental_uris":{"android":"levelo://app?vid=7c45df27-7ef6-468e-b331-208ce3ceb575","ios":"levelo://app?vid=7c45df27-7ef6-468e-b331-208ce3ceb575"},"vehicle_type_id":"4","last_reported":1726985500,"current_range_meters":27200,"station_id":"ce4bh3p2rcd13ifvqdq0","pricing_plan_id":"cebpf4jnsgd1na2vs0mg"},{"bike_id":"97f3b290-84c6-4932-8cf2-83c9b90d4817","system_id":"levelo_inurba_marseille","lat":43.25001,"lon":5.3894,"is_reserved":false,"is_disabled":false,"rental_uris":{"android":"levelo://app?vid=97f3b290-84c6-4932-8cf2-83c9b90d4817","ios":"levelo://app?vid=97f3b290-84c6-4932-8cf2-83c9b90d4817"},"vehicle_type_id":"4","last_reported":1726985500,"current_range_meters":2800,"station_id":"ce4bhgp2rcd13ifvqfd0","pricing_plan_id":"cebpf4jnsgd1na2vs0mg"},{"bike_id":"c750c22f-57e5-44e7-ab11-ab84ef9a0b5e","system_id":"levelo_inurba_marseille","lat":43.23191,"lon":5.39986,"is_reserved":false,"is_disabled":false,"rental_uris":{"android":"levelo://app?vid=c750c22f-57e5-44e7-ab11-ab84ef9a0b5e","ios":"levelo://app?vid=c750c22f-57e5-44e7-ab11-ab84ef9a0b5e"},"vehicle_type_id":"4","last_reported":1726985500,"current_range_meters":15200,"station_id":"ce4bhn12rcd13ifvqgqg","pricing_plan_id":"cebpf4jnsgd1na2vs0mg"},{"bike_id":"d4cd02a2-8196-45a0-ade7-083f2b1cddee","system_id":"levelo_inurba_marseille","lat":43.24183,"lon":5.39719,"is_reserved":false,"is_disabled":false,"rental_uris":{"android":"levelo://app?vid=d4cd02a2-8196-45a0-ade7-083f2b1cddee","ios":"levelo://app?vid=d4cd02a2-8196-45a0-ade7-083f2b1cddee"},"vehicle_type_id":"4","last_reported":1726985500,"current_range_meters":38800,"station_id":"ce4bhn12rcd13ifvqgpg","pricing_plan_id":"cebpf4jnsgd1na2vs0mg"},{"bike_id":"a8d42cf3-65fd-4e73-93d7-47142c435399","system_id":"levelo_inurba_marseille","lat":43.3439,"lon":5.40852,"is_reserved":false,"is_disabled":false,"rental_uris":{"android":"levelo://app?vid=a8d42cf3-65fd-4e73-93d7-47142c435399","ios":"levelo://app?vid=a8d42cf3-65fd-4e73-93d7-47142c435399"},"vehicle_type_id":"4","last_reported":1726985500,"current_range_meters":23200,"station_id":"","pricing_plan_id":"cebpf4jnsgd1na2vs0mg"},{"bike_id":"affeab95-004c-4559-a39d-9d9c7e294ed6","system_id":"levelo_inurba_marseille","lat":43.24179,"lon":5.39735,"is_reserved":false,"is_disabled":false,"rental_uris":{"android":"levelo://app?vid=affeab95-004c-4559-a39d-9d9c7e294ed6","ios":"levelo://app?vid=affeab95-004c-4559-a39d-9d9c7e294ed6"},"vehicle_type_id":"4","last_reported":1726985500,"current_range_meters":31200,"station_id":"ce4bhn12rcd13ifvqgpg","pricing_plan_id":"cebpf4jnsgd1na2vs0mg"},{"bike_id":"ca6cfcad-1e5e-46e0-bcbd-4d4375771e42","system_id":"levelo_inurba_marseille","lat":43.29451,"lon":5.39747,"is_reserved":false,"is_disabled":false,"rental_uris":{"android":"levelo://app?vid=ca6cfcad-1e5e-46e0-bcbd-4d4375771e42","ios":"levelo://app?vid=ca6cfcad-1e5e-46e0-bcbd-4d4375771e42"},"vehicle_type_id":"4","last_reported":1726985500,"current_range_meters":40000,"station_id":"ce4bh3h2rcd13ifvqdo0","pricing_plan_id":"cebpf4jnsgd1na2vs0mg"},{"bike_id":"3232aa39-dc59-4e9f-bf92-1c3d58aff475","system_id":"levelo_inurba_marseille","lat":43.312897,"lon":5.380572,"is_reserved":false,"is_disabled":false,"rental_uris":{"android":"levelo://app?vid=3232aa39-dc59-4e9f-bf92-1c3d58aff475","ios":"levelo://app?vid=3232aa39-dc59-4e9f-bf92-1c3d58aff475"},"vehicle_type_id":"4","last_reported":1726985500,"current_range_meters":24400,"station_id":"ce4bgg92rcd13ifvqb30","pricing_plan_id":"cebpf4jnsgd1na2vs0mg"},{"bike_id":"488eab58-702a-49ef-b05e-83a9813536ca","system_id":"levelo_inurba_marseille","lat":43.28157,"lon":5.42639,"is_reserved":false,"is_disabled":false,"rental_uris":{"android":"levelo://app?vid=488eab58-702a-49ef-b05e-83a9813536ca","ios":"levelo://app?vid=488eab58-702a-49ef-b05e-83a9813536ca"},"vehicle_type_id":"4","last_reported":1726985500,"current_range_meters":36800,"station_id":"ce4bhnh2rcd13ifvqgug","pricing_plan_id":"cebpf4jnsgd1na2vs0mg"},{"bike_id":"eb0e566e-7d71-4cc0-bc76-de33a9fd73a8","system_id":"levelo_inurba_marseille","lat":43.2319,"lon":5.35543,"is_reserved":false,"is_disabled":false,"rental_uris":{"android":"levelo://app?vid=eb0e566e-7d71-4cc0-bc76-de33a9fd73a8","ios":"levelo://app?vid=eb0e566e-7d71-4cc0-bc76-de33a9fd73a8"},"vehicle_type_id":"4","last_reported":1726985500,"current_range_meters":38000,"station_id":"ce4bhu92rcd13ifvqi70","pricing_plan_id":"cebpf4jnsgd1na2vs0mg"},{"bike_id":"f361c4d2-5149-4306-b8c6-46c04eec8da1","system_id":"levelo_inurba_marseille","lat":43.276911,"lon":5.38915,"is_reserved":false,"is_disabled":false,"rental_uris":{"android":"levelo://app?vid=f361c4d2-5149-4306-b8c6-46c04eec8da1","ios":"levelo://app?vid=f361c4d2-5149-4306-b8c6-46c04eec8da1"},"vehicle_type_id":"4","last_reported":1726985500,"current_range_meters":35600,"station_id":"ce4bhi12rcd13ifvqfo0","pricing_plan_id":"cebpf4jnsgd1na2vs0mg"},{"bike_id":"ffe5547e-591f-451e-96a7-c5506be19d31","system_id":"levelo_inurba_marseille","lat":43.28662,"lon":5.36345,"is_reserved":false,"is_disabled":false,"rental_uris":{"android":"levelo://app?vid=ffe5547e-591f-451e-96a7-c5506be19d31","ios":"levelo://app?vid=ffe5547e-591f-451e-96a7-c5506be19d31"},"vehicle_type_id":"4","last_reported":1726985500,"current_range_meters":38000,"station_id":"ce4bhah2rcd13ifvqej0","pricing_plan_id":"cebpf4jnsgd1na2vs0mg"},{"bike_id":"cb8d1fc3-e2df-40b0-8354-470bb5b478f0","system_id":"levelo_inurba_marseille","lat":43.29973,"lon":5.38495,"is_reserved":false,"is_disabled":false,"rental_uris":{"android":"levelo://app?vid=cb8d1fc3-e2df-40b0-8354-470bb5b478f0","ios":"levelo://app?vid=cb8d1fc3-e2df-40b0-8354-470bb5b478f0"},"vehicle_type_id":"4","last_reported":1726985500,"current_range_meters":9200,"station_id":"ce4bgj92rcd13ifvqbd0","pricing_plan_id":"cebpf4jnsgd1na2vs0mg"},{"bike_id":"04999a37-2436-4404-8c16-cd85cf9b7a10","system_id":"levelo_inurba_marseille","lat":43.33021,"lon":5.39043,"is_reserved":false,"is_disabled":false,"rental_uris":{"android":"levelo://app?vid=04999a37-2436-4404-8c16-cd85cf9b7a10","ios":"levelo://app?vid=04999a37-2436-4404-8c16-cd85cf9b7a10"},"vehicle_type_id":"4","last_reported":1726985500,"current_range_meters":38400,"station_id":"ce4bhr92rcd13ifvqhrg","pricing_plan_id":"cebpf4jnsgd1na2vs0mg"},{"bike_id":"c90889c6-4c61-48f2-b140-89043e514d7b","system_id":"levelo_inurba_marseille","lat":43.25941,"lon":5.40904,"is_reserved":false,"is_disabled":false,"rental_uris":{"android":"levelo://app?vid=c90889c6-4c61-48f2-b140-89043e514d7b","ios":"levelo://app?vid=c90889c6-4c61-48f2-b140-89043e514d7b"},"vehicle_type_id":"4","last_reported":1726985500,"current_range_meters":2800,"station_id":"ce4bhm92rcd13ifvqglg","pricing_plan_id":"cebpf4jnsgd1na2vs0mg"},{"bike_id":"6030b138-4d5e-4345-aedc-73924c99e1f7","system_id":"levelo_inurba_marseille","lat":43.26217,"lon":5.37448,"is_reserved":false,"is_disabled":false,"rental_uris":{"android":"levelo://app?vid=6030b138-4d5e-4345-aedc-73924c99e1f7","ios":"levelo://app?vid=6030b138-4d5e-4345-aedc-73924c99e1f7"},"vehicle_type_id":"4","last_reported":1726985500,"current_range_meters":29600,"station_id":"","pricing_plan_id":"cebpf4jnsgd1na2vs0mg"},{"bike_id":"ac7aac9d-d5b2-4a0b-a4ac-3081ed6eabeb","system_id":"levelo_inurba_marseille","lat":43.29447,"lon":5.39748,"is_reserved":false,"is_disabled":false,"rental_uris":{"android":"levelo://app?vid=ac7aac9d-d5b2-4a0b-a4ac-3081ed6eabeb","ios":"levelo://app?vid=ac7aac9d-d5b2-4a0b-a4ac-3081ed6eabeb"},"vehicle_type_id":"4","last_reported":1726985500,"current_range_meters":16000,"station_id":"ce4bh3h2rcd13ifvqdo0","pricing_plan_id":"cebpf4jnsgd1na2vs0mg"},{"bike_id":"afd12134-e47a-4533-972a-e3fada79e0ff","system_id":"levelo_inurba_marseille","lat":43.28726,"lon":5.36084,"is_reserved":false,"is_disabled":false,"rental_uris":{"android":"levelo://app?vid=afd12134-e47a-4533-972a-e3fada79e0ff","ios":"levelo://app?vid=afd12134-e47a-4533-972a-e3fada79e0ff"},"vehicle_type_id":"4","last_reported":1726985500,"current_range_meters":38800,"station_id":"cki0cbj6b192h4jlfktg","pricing_plan_id":"cebpf4jnsgd1na2vs0mg"},{"bike_id":"a7a2630d-54d4-495a-8506-d0472b9b9a1a","system_id":"levelo_inurba_marseille","lat":43.29569,"lon":5.42312,"is_reserved":false,"is_disabled":false,"rental_uris":{"android":"levelo://app?vid=a7a2630d-54d4-495a-8506-d0472b9b9a1a","ios":"levelo://app?vid=a7a2630d-54d4-495a-8506-d0472b9b9a1a"},"vehicle_type_id":"4","last_reported":1726985500,"current_range_meters":38800,"station_id":"ce4bhph2rcd13ifvqhdg","pricing_plan_id":"cebpf4jnsgd1na2vs0mg"},{"bike_id":"3588ed4b-a839-4c36-8772-3fa913acb2d5","system_id":"levelo_inurba_marseille","lat":43.30325,"lon":5.40437,"is_reserved":false,"is_disabled":false,"rental_uris":{"android":"levelo://app?vid=3588ed4b-a839-4c36-8772-3fa913acb2d5","ios":"levelo://app?vid=3588ed4b-a839-4c36-8772-3fa913acb2d5"},"vehicle_type_id":"4","last_reported":1726985500,"current_range_meters":38400,"station_id":"ce4bh012rcd13ifvqd10","pricing_plan_id":"cebpf4jnsgd1na2vs0mg"},{"bike_id":"e9b7fdef-cb43-41e3-b6c7-0be3fc1935ad","system_id":"levelo_inurba_marseille","lat":43.2979,"lon":5.37102,"is_reserved":false,"is_disabled":false,"rental_uris":{"android":"levelo://app?vid=e9b7fdef-cb43-41e3-b6c7-0be3fc1935ad","ios":"levelo://app?vid=e9b7fdef-cb43-41e3-b6c7-0be3fc1935ad"},"vehicle_type_id":"4","last_reported":1726985500,"current_range_meters":33200,"station_id":"ce4bgop2rcd13ifvqc1g","pricing_plan_id":"cebpf4jnsgd1na2vs0mg"},{"bike_id":"e5a1c0e7-6dbe-4fc0-91d4-a39431861126","system_id":"levelo_inurba_marseille","lat":43.26944,"lon":5.40246,"is_reserved":false,"is_disabled":false,"rental_uris":{"android":"levelo://app?vid=e5a1c0e7-6dbe-4fc0-91d4-a39431861126","ios":"levelo://app?vid=e5a1c0e7-6dbe-4fc0-91d4-a39431861126"},"vehicle_type_id":"4","last_reported":1726985500,"current_range_meters":40000,"station_id":"cjm6bp8fraef2m0cb0m0","pricing_plan_id":"cebpf4jnsgd1na2vs0mg"},{"bike_id":"fa16a0dd-5e4d-4dbc-be80-0223948898f1","system_id":"levelo_inurba_marseille","lat":43.28942,"lon":5.39633,"is_reserved":false,"is_disabled":false,"rental_uris":{"android":"levelo://app?vid=fa16a0dd-5e4d-4dbc-be80-0223948898f1","ios":"levelo://app?vid=fa16a0dd-5e4d-4dbc-be80-0223948898f1"},"vehicle_type_id":"4","last_reported":1726985500,"current_range_meters":33200,"station_id":"ce4bh3h2rcd13ifvqdn0","pricing_plan_id":"cebpf4jnsgd1na2vs0mg"},{"bike_id":"7b9dd459-340b-4978-bfb0-6c163a5263e8","system_id":"levelo_inurba_marseille","lat":43.23193,"lon":5.35549,"is_reserved":false,"is_disabled":false,"rental_uris":{"android":"levelo://app?vid=7b9dd459-340b-4978-bfb0-6c163a5263e8","ios":"levelo://app?vid=7b9dd459-340b-4978-bfb0-6c163a5263e8"},"vehicle_type_id":"4","last_reported":1726985500,"current_range_meters":38400,"station_id":"ce4bhu92rcd13ifvqi70","pricing_plan_id":"cebpf4jnsgd1na2vs0mg"},{"bike_id":"b65a9156-3936-48dd-93de-1fe2c9f30777","system_id":"levelo_inurba_marseille","lat":43.31179,"lon":5.3872,"is_reserved":false,"is_disabled":false,"rental_uris":{"android":"levelo://app?vid=b65a9156-3936-48dd-93de-1fe2c9f30777","ios":"levelo://app?vid=b65a9156-3936-48dd-93de-1fe2c9f30777"},"vehicle_type_id":"4","last_reported":1726985500,"current_range_meters":32400,"station_id":"ce4bgv12rcd13ifvqcp0","pricing_plan_id":"cebpf4jnsgd1na2vs0mg"},{"bike_id":"9eb342ac-6683-4b0e-9068-9b33551dfa85","system_id":"levelo_inurba_marseille","lat":43.27376,"lon":5.36251,"is_reserved":false,"is_disabled":false,"rental_uris":{"android":"levelo://app?vid=9eb342ac-6683-4b0e-9068-9b33551dfa85","ios":"levelo://app?vid=9eb342ac-6683-4b0e-9068-9b33551dfa85"},"vehicle_type_id":"4","last_reported":1726985500,"current_range_meters":38800,"station_id":"ce4bhbh2rcd13ifvqeo0","pricing_plan_id":"cebpf4jnsgd1na2vs0mg"},{"bike_id":"4d0b0c31-bba7-4fcb-872f-26cec37fccb3","system_id":"levelo_inurba_marseille","lat":43.27619,"lon":5.36118,"is_reserved":false,"is_disabled":false,"rental_uris":{"android":"levelo://app?vid=4d0b0c31-bba7-4fcb-872f-26cec37fccb3","ios":"levelo://app?vid=4d0b0c31-bba7-4fcb-872f-26cec37fccb3"},"vehicle_type_id":"4","last_reported":1726985500,"current_range_meters":38400,"station_id":"ce4bgj92rcd13ifvqbe0","pricing_plan_id":"cebpf4jnsgd1na2vs0mg"},{"bike_id":"82596a06-ff6c-4fb5-be3f-fd6ac5718f7c","system_id":"levelo_inurba_marseille","lat":43.31331,"lon":5.397,"is_reserved":false,"is_disabled":false,"rental_uris":{"android":"levelo://app?vid=82596a06-ff6c-4fb5-be3f-fd6ac5718f7c","ios":"levelo://app?vid=82596a06-ff6c-4fb5-be3f-fd6ac5718f7c"},"vehicle_type_id":"4","last_reported":1726985500,"current_range_meters":20800,"station_id":"ce4bgvp2rcd13ifvqcu0","pricing_plan_id":"cebpf4jnsgd1na2vs0mg"},{"bike_id":"ddf28a51-7ad4-4373-b1c6-fb2f85aeca66","system_id":"levelo_inurba_marseille","lat":43.24075,"lon":5.37766,"is_reserved":false,"is_disabled":false,"rental_uris":{"android":"levelo://app?vid=ddf28a51-7ad4-4373-b1c6-fb2f85aeca66","ios":"levelo://app?vid=ddf28a51-7ad4-4373-b1c6-fb2f85aeca66"},"vehicle_type_id":"4","last_reported":1726985500,"current_range_meters":9600,"station_id":"ce4bhnp2rcd13ifvqgvg","pricing_plan_id":"cebpf4jnsgd1na2vs0mg"},{"bike_id":"695aecc5-47eb-42b6-b509-bb05dd03a93d","system_id":"levelo_inurba_marseille","lat":43.28342,"lon":5.38091,"is_reserved":false,"is_disabled":false,"rental_uris":{"android":"levelo://app?vid=695aecc5-47eb-42b6-b509-bb05dd03a93d","ios":"levelo://app?vid=695aecc5-47eb-42b6-b509-bb05dd03a93d"},"vehicle_type_id":"4","last_reported":1726985500,"current_range_meters":38000,"station_id":"ce4bh412rcd13ifvqdr0","pricing_plan_id":"cebpf4jnsgd1na2vs0mg"},{"bike_id":"6d70b895-731c-46a0-aa17-14e392708247","system_id":"levelo_inurba_marseille","lat":43.26684,"lon":5.3827,"is_reserved":false,"is_disabled":false,"rental_uris":{"android":"levelo://app?vid=6d70b895-731c-46a0-aa17-14e392708247","ios":"levelo://app?vid=6d70b895-731c-46a0-aa17-14e392708247"},"vehicle_type_id":"4","last_reported":1726985500,"current_range_meters":38000,"station_id":"ce4bhg92rcd13ifvqf90","pricing_plan_id":"cebpf4jnsgd1na2vs0mg"},{"bike_id":"f8c329dc-9bf7-4719-a1b1-fed65a5a2c76","system_id":"levelo_inurba_marseille","lat":43.30263,"lon":5.40084,"is_reserved":false,"is_disabled":false,"rental_uris":{"android":"levelo://app?vid=f8c329dc-9bf7-4719-a1b1-fed65a5a2c76","ios":"levelo://app?vid=f8c329dc-9bf7-4719-a1b1-fed65a5a2c76"},"vehicle_type_id":"4","last_reported":1726985500,"current_range_meters":36800,"station_id":"ce4bgvh2rcd13ifvqcs0","pricing_plan_id":"cebpf4jnsgd1na2vs0mg"},{"bike_id":"8bc46e31-4f78-49f6-bf89-70b91e5303b5","system_id":"levelo_inurba_marseille","lat":43.264893,"lon":5.395429,"is_reserved":false,"is_disabled":false,"rental_uris":{"android":"levelo://app?vid=8bc46e31-4f78-49f6-bf89-70b91e5303b5","ios":"levelo://app?vid=8bc46e31-4f78-49f6-bf89-70b91e5303b5"},"vehicle_type_id":"4","last_reported":1726985500,"current_range_meters":16400,"station_id":"ce4bhi12rcd13ifvqfq0","pricing_plan_id":"cebpf4jnsgd1na2vs0mg"},{"bike_id":"71aa8592-ddf7-4343-aed4-c00d3433340f","system_id":"levelo_inurba_marseille","lat":43.337444,"lon":5.374475,"is_reserved":false,"is_disabled":false,"rental_uris":{"android":"levelo://app?vid=71aa8592-ddf7-4343-aed4-c00d3433340f","ios":"levelo://app?vid=71aa8592-ddf7-4343-aed4-c00d3433340f"},"vehicle_type_id":"4","last_reported":1726985500,"current_range_meters":32800,"station_id":"","pricing_plan_id":"cebpf4jnsgd1na2vs0mg"},{"bike_id":"3740c6df-06cd-419b-9ae6-b8d9e5eff548","system_id":"levelo_inurba_marseille","lat":43.2753,"lon":5.40935,"is_reserved":false,"is_disabled":false,"rental_uris":{"android":"levelo://app?vid=3740c6df-06cd-419b-9ae6-b8d9e5eff548","ios":"levelo://app?vid=3740c6df-06cd-419b-9ae6-b8d9e5eff548"},"vehicle_type_id":"4","last_reported":1726985500,"current_range_meters":14400,"station_id":"","pricing_plan_id":"cebpf4jnsgd1na2vs0mg"},{"bike_id":"c416d47b-78f0-43eb-bd10-52cd2f01cf9a","system_id":"levelo_inurba_marseille","lat":43.31069,"lon":5.38361,"is_reserved":false,"is_disabled":false,"rental_uris":{"android":"levelo://app?vid=c416d47b-78f0-43eb-bd10-52cd2f01cf9a","ios":"levelo://app?vid=c416d47b-78f0-43eb-bd10-52cd2f01cf9a"},"vehicle_type_id":"4","last_reported":1726985500,"current_range_meters":10000,"station_id":"ce4bgv92rcd13ifvqcr0","pricing_plan_id":"cebpf4jnsgd1na2vs0mg"},{"bike_id":"63cb3e8e-e6da-4a66-83e4-12a4ec922468","system_id":"levelo_inurba_marseille","lat":43.26203,"lon":5.37922,"is_reserved":false,"is_disabled":false,"rental_uris":{"android":"levelo://app?vid=63cb3e8e-e6da-4a66-83e4-12a4ec922468","ios":"levelo://app?vid=63cb3e8e-e6da-4a66-83e4-12a4ec922468"},"vehicle_type_id":"4","last_reported":1726985500,"current_range_meters":6800,"station_id":"ce4bhjp2rcd13ifvqg90","pricing_plan_id":"cebpf4jnsgd1na2vs0mg"},{"bike_id":"33ef26f8-933d-4a23-a2fb-f3a05d501574","system_id":"levelo_inurba_marseille","lat":43.25086,"lon":5.39526,"is_reserved":false,"is_disabled":false,"rental_uris":{"android":"levelo://app?vid=33ef26f8-933d-4a23-a2fb-f3a05d501574","ios":"levelo://app?vid=33ef26f8-933d-4a23-a2fb-f3a05d501574"},"vehicle_type_id":"4","last_reported":1726985500,"current_range_meters":40000,"station_id":"ce4bhm12rcd13ifvqgkg","pricing_plan_id":"cebpf4jnsgd1na2vs0mg"},{"bike_id":"de474168-7d22-423b-8aa5-2f9882a9c626","system_id":"levelo_inurba_marseille","lat":43.30782,"lon":5.37653,"is_reserved":false,"is_disabled":false,"rental_uris":{"android":"levelo://app?vid=de474168-7d22-423b-8aa5-2f9882a9c626","ios":"levelo://app?vid=de474168-7d22-423b-8aa5-2f9882a9c626"},"vehicle_type_id":"4","last_reported":1726985500,"current_range_meters":40000,"station_id":"ce4bgv92rcd13ifvqcq0","pricing_plan_id":"cebpf4jnsgd1na2vs0mg"},{"bike_id":"28899bbf-43c6-44fe-bc87-11c1926b2ab8","system_id":"levelo_inurba_marseille","lat":43.26207,"lon":5.37924,"is_reserved":false,"is_disabled":false,"rental_uris":{"android":"levelo://app?vid=28899bbf-43c6-44fe-bc87-11c1926b2ab8","ios":"levelo://app?vid=28899bbf-43c6-44fe-bc87-11c1926b2ab8"},"vehicle_type_id":"4","last_reported":1726985500,"current_range_meters":38800,"station_id":"ce4bhjp2rcd13ifvqg90","pricing_plan_id":"cebpf4jnsgd1na2vs0mg"},{"bike_id":"d183a9c2-eb67-43e8-a30e-bbd1d4a9a89d","system_id":"levelo_inurba_marseille","lat":43.30146,"lon":5.38072,"is_reserved":false,"is_disabled":false,"rental_uris":{"android":"levelo://app?vid=d183a9c2-eb67-43e8-a30e-bbd1d4a9a89d","ios":"levelo://app?vid=d183a9c2-eb67-43e8-a30e-bbd1d4a9a89d"},"vehicle_type_id":"4","last_reported":1726985500,"current_range_meters":25200,"station_id":"ce4bgjp2rcd13ifvqbh0","pricing_plan_id":"cebpf4jnsgd1na2vs0mg"},{"bike_id":"461fe284-eae3-49fe-a8c9-7ed58c2e4f86","system_id":"levelo_inurba_marseille","lat":43.2811,"lon":5.37838,"is_reserved":false,"is_disabled":false,"rental_uris":{"android":"levelo://app?vid=461fe284-eae3-49fe-a8c9-7ed58c2e4f86","ios":"levelo://app?vid=461fe284-eae3-49fe-a8c9-7ed58c2e4f86"},"vehicle_type_id":"4","last_reported":1726985500,"current_range_meters":39200,"station_id":"ce4bha12rcd13ifvqee0","pricing_plan_id":"cebpf4jnsgd1na2vs0mg"},{"bike_id":"974db334-b2f1-4800-a52b-aea851b06ce0","system_id":"levelo_inurba_marseille","lat":43.29786,"lon":5.39336,"is_reserved":false,"is_disabled":false,"rental_uris":{"android":"levelo://app?vid=974db334-b2f1-4800-a52b-aea851b06ce0","ios":"levelo://app?vid=974db334-b2f1-4800-a52b-aea851b06ce0"},"vehicle_type_id":"4","last_reported":1726985500,"current_range_meters":38000,"station_id":"chh1huq6cuj3fo74tm60","pricing_plan_id":"cebpf4jnsgd1na2vs0mg"},{"bike_id":"48cc16ec-4cea-4a8c-b13e-3ac95a0df700","system_id":"levelo_inurba_marseille","lat":43.30468,"lon":5.37896,"is_reserved":false,"is_disabled":false,"rental_uris":{"android":"levelo://app?vid=48cc16ec-4cea-4a8c-b13e-3ac95a0df700","ios":"levelo://app?vid=48cc16ec-4cea-4a8c-b13e-3ac95a0df700"},"vehicle_type_id":"4","last_reported":1726985500,"current_range_meters":8000,"station_id":"ce4bgup2rcd13ifvqcn0","pricing_plan_id":"cebpf4jnsgd1na2vs0mg"},{"bike_id":"314fbbe9-5fd9-4d9d-bd10-270759356c42","system_id":"levelo_inurba_marseille","lat":43.31364,"lon":5.38491,"is_reserved":false,"is_disabled":false,"rental_uris":{"android":"levelo://app?vid=314fbbe9-5fd9-4d9d-bd10-270759356c42","ios":"levelo://app?vid=314fbbe9-5fd9-4d9d-bd10-270759356c42"},"vehicle_type_id":"4","last_reported":1726985500,"current_range_meters":36800,"station_id":"ce4bgt92rcd13ifvqcf0","pricing_plan_id":"cebpf4jnsgd1na2vs0mg"},{"bike_id":"241e2c01-a65a-410b-ab27-432829a871bc","system_id":"levelo_inurba_marseille","lat":43.28107,"lon":5.37839,"is_reserved":false,"is_disabled":false,"rental_uris":{"android":"levelo://app?vid=241e2c01-a65a-410b-ab27-432829a871bc","ios":"levelo://app?vid=241e2c01-a65a-410b-ab27-432829a871bc"},"vehicle_type_id":"4","last_reported":1726985500,"current_range_meters":25600,"station_id":"ce4bha12rcd13ifvqee0","pricing_plan_id":"cebpf4jnsgd1na2vs0mg"},{"bike_id":"c6ece7c7-4ec5-4120-b681-3c568db59171","system_id":"levelo_inurba_marseille","lat":43.30593,"lon":5.37214,"is_reserved":false,"is_disabled":false,"rental_uris":{"android":"levelo://app?vid=c6ece7c7-4ec5-4120-b681-3c568db59171","ios":"levelo://app?vid=c6ece7c7-4ec5-4120-b681-3c568db59171"},"vehicle_type_id":"4","last_reported":1726985500,"current_range_meters":38000,"station_id":"ce4bgqh2rcd13ifvqc4g","pricing_plan_id":"cebpf4jnsgd1na2vs0mg"},{"bike_id":"56ced2e3-515e-4cf9-bf86-bbf4e806869b","system_id":"levelo_inurba_marseille","lat":43.2512,"lon":5.40325,"is_reserved":false,"is_disabled":false,"rental_uris":{"android":"levelo://app?vid=56ced2e3-515e-4cf9-bf86-bbf4e806869b","ios":"levelo://app?vid=56ced2e3-515e-4cf9-bf86-bbf4e806869b"},"vehicle_type_id":"4","last_reported":1726985500,"current_range_meters":19600,"station_id":"ce4bhlh2rcd13ifvqgig","pricing_plan_id":"cebpf4jnsgd1na2vs0mg"},{"bike_id":"917f2b71-0345-49e3-a84c-969bd4b2e43b","system_id":"levelo_inurba_marseille","lat":43.26208,"lon":5.37923,"is_reserved":false,"is_disabled":false,"rental_uris":{"android":"levelo://app?vid=917f2b71-0345-49e3-a84c-969bd4b2e43b","ios":"levelo://app?vid=917f2b71-0345-49e3-a84c-969bd4b2e43b"},"vehicle_type_id":"4","last_reported":1726985500,"current_range_meters":20800,"station_id":"ce4bhjp2rcd13ifvqg90","pricing_plan_id":"cebpf4jnsgd1na2vs0mg"},{"bike_id":"02415616-385e-4f14-93d0-2ad915d17a0f","system_id":"levelo_inurba_marseille","lat":43.31325,"lon":5.39694,"is_reserved":false,"is_disabled":false,"rental_uris":{"android":"levelo://app?vid=02415616-385e-4f14-93d0-2ad915d17a0f","ios":"levelo://app?vid=02415616-385e-4f14-93d0-2ad915d17a0f"},"vehicle_type_id":"4","last_reported":1726985500,"current_range_meters":38000,"station_id":"ce4bgvp2rcd13ifvqcu0","pricing_plan_id":"cebpf4jnsgd1na2vs0mg"},{"bike_id":"40f76e9d-c4d4-4e89-b102-5cd9a5126209","system_id":"levelo_inurba_marseille","lat":43.3127,"lon":5.40177,"is_reserved":false,"is_disabled":false,"rental_uris":{"android":"levelo://app?vid=40f76e9d-c4d4-4e89-b102-5cd9a5126209","ios":"levelo://app?vid=40f76e9d-c4d4-4e89-b102-5cd9a5126209"},"vehicle_type_id":"4","last_reported":1726985500,"current_range_meters":40000,"station_id":"ce4bh092rcd13ifvqd30","pricing_plan_id":"cebpf4jnsgd1na2vs0mg"},{"bike_id":"731c50f8-e28e-42d8-9494-b731e9032ff1","system_id":"levelo_inurba_marseille","lat":43.28412,"lon":5.37509,"is_reserved":false,"is_disabled":false,"rental_uris":{"android":"levelo://app?vid=731c50f8-e28e-42d8-9494-b731e9032ff1","ios":"levelo://app?vid=731c50f8-e28e-42d8-9494-b731e9032ff1"},"vehicle_type_id":"4","last_reported":1726985500,"current_range_meters":16000,"station_id":"ce4bh412rcd13ifvqds0","pricing_plan_id":"cebpf4jnsgd1na2vs0mg"},{"bike_id":"f094b947-d825-413a-881c-bc68923ccff1","system_id":"levelo_inurba_marseille","lat":43.28697,"lon":5.39972,"is_reserved":false,"is_disabled":false,"rental_uris":{"android":"levelo://app?vid=f094b947-d825-413a-881c-bc68923ccff1","ios":"levelo://app?vid=f094b947-d825-413a-881c-bc68923ccff1"},"vehicle_type_id":"4","last_reported":1726985500,"current_range_meters":37600,"station_id":"ce4bho92rcd13ifvqh3g","pricing_plan_id":"cebpf4jnsgd1na2vs0mg"},{"bike_id":"d26775ba-4c9a-4f22-b2e3-d68384a674ad","system_id":"levelo_inurba_marseille","lat":43.29871,"lon":5.39726,"is_reserved":false,"is_disabled":false,"rental_uris":{"android":"levelo://app?vid=d26775ba-4c9a-4f22-b2e3-d68384a674ad","ios":"levelo://app?vid=d26775ba-4c9a-4f22-b2e3-d68384a674ad"},"vehicle_type_id":"4","last_reported":1726985500,"current_range_meters":3600,"station_id":"ce4bh0h2rcd13ifvqd50","pricing_plan_id":"cebpf4jnsgd1na2vs0mg"},{"bike_id":"c2a23c04-e4cb-496b-a6e8-fbbf90c6064f","system_id":"levelo_inurba_marseille","lat":43.24543,"lon":5.39524,"is_reserved":false,"is_disabled":false,"rental_uris":{"android":"levelo://app?vid=c2a23c04-e4cb-496b-a6e8-fbbf90c6064f","ios":"levelo://app?vid=c2a23c04-e4cb-496b-a6e8-fbbf90c6064f"},"vehicle_type_id":"4","last_reported":1726985500,"current_range_meters":38800,"station_id":"ce4bhlp2rcd13ifvqgjg","pricing_plan_id":"cebpf4jnsgd1na2vs0mg"},{"bike_id":"39c1d63d-7eac-47ad-904c-03b8f5e1b8df","system_id":"levelo_inurba_marseille","lat":43.30148,"lon":5.38083,"is_reserved":false,"is_disabled":false,"rental_uris":{"android":"levelo://app?vid=39c1d63d-7eac-47ad-904c-03b8f5e1b8df","ios":"levelo://app?vid=39c1d63d-7eac-47ad-904c-03b8f5e1b8df"},"vehicle_type_id":"4","last_reported":1726985500,"current_range_meters":24000,"station_id":"ce4bgjp2rcd13ifvqbh0","pricing_plan_id":"cebpf4jnsgd1na2vs0mg"},{"bike_id":"692b2245-a9fc-4357-bfcf-d9c8b2d6d6cd","system_id":"levelo_inurba_marseille","lat":43.30432,"lon":5.39754,"is_reserved":false,"is_disabled":false,"rental_uris":{"android":"levelo://app?vid=692b2245-a9fc-4357-bfcf-d9c8b2d6d6cd","ios":"levelo://app?vid=692b2245-a9fc-4357-bfcf-d9c8b2d6d6cd"},"vehicle_type_id":"4","last_reported":1726985500,"current_range_meters":39200,"station_id":"ce4bh092rcd13ifvqd20","pricing_plan_id":"cebpf4jnsgd1na2vs0mg"},{"bike_id":"bca0aa49-c7d2-4c11-88f5-f1e59b0dafbc","system_id":"levelo_inurba_marseille","lat":43.2761,"lon":5.3611,"is_reserved":false,"is_disabled":false,"rental_uris":{"android":"levelo://app?vid=bca0aa49-c7d2-4c11-88f5-f1e59b0dafbc","ios":"levelo://app?vid=bca0aa49-c7d2-4c11-88f5-f1e59b0dafbc"},"vehicle_type_id":"4","last_reported":1726985500,"current_range_meters":18800,"station_id":"ce4bgj92rcd13ifvqbe0","pricing_plan_id":"cebpf4jnsgd1na2vs0mg"},{"bike_id":"426daa47-bfc5-4503-bc56-880669d79926","system_id":"levelo_inurba_marseille","lat":43.29882,"lon":5.39734,"is_reserved":false,"is_disabled":false,"rental_uris":{"android":"levelo://app?vid=426daa47-bfc5-4503-bc56-880669d79926","ios":"levelo://app?vid=426daa47-bfc5-4503-bc56-880669d79926"},"vehicle_type_id":"4","last_reported":1726985500,"current_range_meters":39200,"station_id":"ce4bh0h2rcd13ifvqd50","pricing_plan_id":"cebpf4jnsgd1na2vs0mg"},{"bike_id":"1575e777-51f8-479e-bd95-714cef91a125","system_id":"levelo_inurba_marseille","lat":43.24185,"lon":5.39716,"is_reserved":false,"is_disabled":false,"rental_uris":{"android":"levelo://app?vid=1575e777-51f8-479e-bd95-714cef91a125","ios":"levelo://app?vid=1575e777-51f8-479e-bd95-714cef91a125"},"vehicle_type_id":"4","last_reported":1726985500,"current_range_meters":28000,"station_id":"ce4bhn12rcd13ifvqgpg","pricing_plan_id":"cebpf4jnsgd1na2vs0mg"},{"bike_id":"e9e6d9e2-3e2d-4420-a12d-dab77cbc6502","system_id":"levelo_inurba_marseille","lat":43.27616,"lon":5.36113,"is_reserved":false,"is_disabled":false,"rental_uris":{"android":"levelo://app?vid=e9e6d9e2-3e2d-4420-a12d-dab77cbc6502","ios":"levelo://app?vid=e9e6d9e2-3e2d-4420-a12d-dab77cbc6502"},"vehicle_type_id":"4","last_reported":1726985500,"current_range_meters":14000,"station_id":"ce4bgj92rcd13ifvqbe0","pricing_plan_id":"cebpf4jnsgd1na2vs0mg"},{"bike_id":"bd9f34a0-dc08-4657-9b7c-5589754bd8db","system_id":"levelo_inurba_marseille","lat":43.25,"lon":5.3892,"is_reserved":false,"is_disabled":false,"rental_uris":{"android":"levelo://app?vid=bd9f34a0-dc08-4657-9b7c-5589754bd8db","ios":"levelo://app?vid=bd9f34a0-dc08-4657-9b7c-5589754bd8db"},"vehicle_type_id":"4","last_reported":1726985500,"current_range_meters":38800,"station_id":"ce4bhgp2rcd13ifvqfd0","pricing_plan_id":"cebpf4jnsgd1na2vs0mg"},{"bike_id":"4f6cd953-65f5-4d4f-a052-70118d864e1d","system_id":"levelo_inurba_marseille","lat":43.29901,"lon":5.43668,"is_reserved":false,"is_disabled":false,"rental_uris":{"android":"levelo://app?vid=4f6cd953-65f5-4d4f-a052-70118d864e1d","ios":"levelo://app?vid=4f6cd953-65f5-4d4f-a052-70118d864e1d"},"vehicle_type_id":"4","last_reported":1726985500,"current_range_meters":4400,"station_id":"ce4bhpp2rcd13ifvqhfg","pricing_plan_id":"cebpf4jnsgd1na2vs0mg"},{"bike_id":"ab03fbd4-771e-4097-be15-28a0898ddabb","system_id":"levelo_inurba_marseille","lat":43.31894,"lon":5.40728,"is_reserved":false,"is_disabled":false,"rental_uris":{"android":"levelo://app?vid=ab03fbd4-771e-4097-be15-28a0898ddabb","ios":"levelo://app?vid=ab03fbd4-771e-4097-be15-28a0898ddabb"},"vehicle_type_id":"4","last_reported":1726985500,"current_range_meters":35600,"station_id":"ce4bhq12rcd13ifvqhig","pricing_plan_id":"cebpf4jnsgd1na2vs0mg"},{"bike_id":"776a1687-8659-4d17-8970-54743c1fad10","system_id":"levelo_inurba_marseille","lat":43.31074,"lon":5.38364,"is_reserved":false,"is_disabled":false,"rental_uris":{"android":"levelo://app?vid=776a1687-8659-4d17-8970-54743c1fad10","ios":"levelo://app?vid=776a1687-8659-4d17-8970-54743c1fad10"},"vehicle_type_id":"4","last_reported":1726985500,"current_range_meters":36000,"station_id":"ce4bgv92rcd13ifvqcr0","pricing_plan_id":"cebpf4jnsgd1na2vs0mg"},{"bike_id":"d9e213ca-e541-459d-93e9-f901cb508c67","system_id":"levelo_inurba_marseille","lat":43.31706,"lon":5.37749,"is_reserved":false,"is_disabled":false,"rental_uris":{"android":"levelo://app?vid=d9e213ca-e541-459d-93e9-f901cb508c67","ios":"levelo://app?vid=d9e213ca-e541-459d-93e9-f901cb508c67"},"vehicle_type_id":"4","last_reported":1726985500,"current_range_meters":39200,"station_id":"ce4bgth2rcd13ifvqch0","pricing_plan_id":"cebpf4jnsgd1na2vs0mg"},{"bike_id":"742fe014-1f5e-499c-bbc5-66a0cbb87904","system_id":"levelo_inurba_marseille","lat":43.23194,"lon":5.35555,"is_reserved":false,"is_disabled":false,"rental_uris":{"android":"levelo://app?vid=742fe014-1f5e-499c-bbc5-66a0cbb87904","ios":"levelo://app?vid=742fe014-1f5e-499c-bbc5-66a0cbb87904"},"vehicle_type_id":"4","last_reported":1726985500,"current_range_meters":35600,"station_id":"ce4bhu92rcd13ifvqi70","pricing_plan_id":"cebpf4jnsgd1na2vs0mg"},{"bike_id":"320a348b-312f-4667-86c9-a1598946795f","system_id":"levelo_inurba_marseille","lat":43.32363,"lon":5.38883,"is_reserved":false,"is_disabled":false,"rental_uris":{"android":"levelo://app?vid=320a348b-312f-4667-86c9-a1598946795f","ios":"levelo://app?vid=320a348b-312f-4667-86c9-a1598946795f"},"vehicle_type_id":"4","last_reported":1726985500,"current_range_meters":34000,"station_id":"ce4bhqp2rcd13ifvqhog","pricing_plan_id":"cebpf4jnsgd1na2vs0mg"},{"bike_id":"a7897914-696e-4bbf-b9af-c714e22e08a9","system_id":"levelo_inurba_marseille","lat":43.281073,"lon":5.378275,"is_reserved":false,"is_disabled":false,"rental_uris":{"android":"levelo://app?vid=a7897914-696e-4bbf-b9af-c714e22e08a9","ios":"levelo://app?vid=a7897914-696e-4bbf-b9af-c714e22e08a9"},"vehicle_type_id":"4","last_reported":1726985500,"current_range_meters":38400,"station_id":"ce4bha12rcd13ifvqee0","pricing_plan_id":"cebpf4jnsgd1na2vs0mg"},{"bike_id":"d535b7f1-2de7-4956-b510-47e203ad0753","system_id":"levelo_inurba_marseille","lat":43.29036,"lon":5.39966,"is_reserved":false,"is_disabled":false,"rental_uris":{"android":"levelo://app?vid=d535b7f1-2de7-4956-b510-47e203ad0753","ios":"levelo://app?vid=d535b7f1-2de7-4956-b510-47e203ad0753"},"vehicle_type_id":"4","last_reported":1726985500,"current_range_meters":31200,"station_id":"ce4bh392rcd13ifvqdm0","pricing_plan_id":"cebpf4jnsgd1na2vs0mg"},{"bike_id":"0d4e306b-1de7-471e-a4bc-48016630a571","system_id":"levelo_inurba_marseille","lat":43.29102,"lon":5.3814,"is_reserved":false,"is_disabled":false,"rental_uris":{"android":"levelo://app?vid=0d4e306b-1de7-471e-a4bc-48016630a571","ios":"levelo://app?vid=0d4e306b-1de7-471e-a4bc-48016630a571"},"vehicle_type_id":"4","last_reported":1726985500,"current_range_meters":36000,"station_id":"ce4bh512rcd13ifvqe2g","pricing_plan_id":"cebpf4jnsgd1na2vs0mg"},{"bike_id":"3b8b545d-d8ea-476d-80ab-67023cc4fc28","system_id":"levelo_inurba_marseille","lat":43.30316,"lon":5.36892,"is_reserved":false,"is_disabled":false,"rental_uris":{"android":"levelo://app?vid=3b8b545d-d8ea-476d-80ab-67023cc4fc28","ios":"levelo://app?vid=3b8b545d-d8ea-476d-80ab-67023cc4fc28"},"vehicle_type_id":"4","last_reported":1726985500,"current_range_meters":30400,"station_id":"ce4bgqh2rcd13ifvqc5g","pricing_plan_id":"cebpf4jnsgd1na2vs0mg"},{"bike_id":"feb42740-c719-4916-9efa-d99f861e0e6d","system_id":"levelo_inurba_marseille","lat":43.32482,"lon":5.36569,"is_reserved":false,"is_disabled":false,"rental_uris":{"android":"levelo://app?vid=feb42740-c719-4916-9efa-d99f861e0e6d","ios":"levelo://app?vid=feb42740-c719-4916-9efa-d99f861e0e6d"},"vehicle_type_id":"4","last_reported":1726985500,"current_range_meters":36800,"station_id":"ce4bhs12rcd13ifvqhvg","pricing_plan_id":"cebpf4jnsgd1na2vs0mg"},{"bike_id":"beb3335f-a034-46b7-9457-3756cdde1123","system_id":"levelo_inurba_marseille","lat":43.30471,"lon":5.37902,"is_reserved":false,"is_disabled":false,"rental_uris":{"android":"levelo://app?vid=beb3335f-a034-46b7-9457-3756cdde1123","ios":"levelo://app?vid=beb3335f-a034-46b7-9457-3756cdde1123"},"vehicle_type_id":"4","last_reported":1726985500,"current_range_meters":38000,"station_id":"ce4bgup2rcd13ifvqcn0","pricing_plan_id":"cebpf4jnsgd1na2vs0mg"},{"bike_id":"78f1b85b-6cdb-4d22-a2d2-dad3be4a7815","system_id":"levelo_inurba_marseille","lat":43.23181,"lon":5.39985,"is_reserved":false,"is_disabled":false,"rental_uris":{"android":"levelo://app?vid=78f1b85b-6cdb-4d22-a2d2-dad3be4a7815","ios":"levelo://app?vid=78f1b85b-6cdb-4d22-a2d2-dad3be4a7815"},"vehicle_type_id":"4","last_reported":1726985500,"current_range_meters":30800,"station_id":"ce4bhn12rcd13ifvqgqg","pricing_plan_id":"cebpf4jnsgd1na2vs0mg"},{"bike_id":"f33483c1-3b2c-4303-843b-6554d88a9a5f","system_id":"levelo_inurba_marseille","lat":43.24067,"lon":5.37761,"is_reserved":false,"is_disabled":false,"rental_uris":{"android":"levelo://app?vid=f33483c1-3b2c-4303-843b-6554d88a9a5f","ios":"levelo://app?vid=f33483c1-3b2c-4303-843b-6554d88a9a5f"},"vehicle_type_id":"4","last_reported":1726985500,"current_range_meters":38800,"station_id":"ce4bhnp2rcd13ifvqgvg","pricing_plan_id":"cebpf4jnsgd1na2vs0mg"},{"bike_id":"5ce6ca70-38c1-446a-8e79-d58050d35527","system_id":"levelo_inurba_marseille","lat":43.26572,"lon":5.39009,"is_reserved":false,"is_disabled":false,"rental_uris":{"android":"levelo://app?vid=5ce6ca70-38c1-446a-8e79-d58050d35527","ios":"levelo://app?vid=5ce6ca70-38c1-446a-8e79-d58050d35527"},"vehicle_type_id":"4","last_reported":1726985500,"current_range_meters":26800,"station_id":"ce4bhe12rcd13ifvqf30","pricing_plan_id":"cebpf4jnsgd1na2vs0mg"},{"bike_id":"f0a747b7-b839-4524-81e5-2e65de0e5c0c","system_id":"levelo_inurba_marseille","lat":43.24392,"lon":5.37061,"is_reserved":false,"is_disabled":false,"rental_uris":{"android":"levelo://app?vid=f0a747b7-b839-4524-81e5-2e65de0e5c0c","ios":"levelo://app?vid=f0a747b7-b839-4524-81e5-2e65de0e5c0c"},"vehicle_type_id":"4","last_reported":1726985500,"current_range_meters":8400,"station_id":"ce4bhhh2rcd13ifvqfk0","pricing_plan_id":"cebpf4jnsgd1na2vs0mg"},{"bike_id":"fce734b4-6c36-4cb6-983c-c95238702258","system_id":"levelo_inurba_marseille","lat":43.31078,"lon":5.38118,"is_reserved":false,"is_disabled":false,"rental_uris":{"android":"levelo://app?vid=fce734b4-6c36-4cb6-983c-c95238702258","ios":"levelo://app?vid=fce734b4-6c36-4cb6-983c-c95238702258"},"vehicle_type_id":"4","last_reported":1726985500,"current_range_meters":14400,"station_id":"","pricing_plan_id":"cebpf4jnsgd1na2vs0mg"},{"bike_id":"ab164393-cd31-4221-b165-f26296d40d00","system_id":"levelo_inurba_marseille","lat":43.31083,"lon":5.42439,"is_reserved":false,"is_disabled":false,"rental_uris":{"android":"levelo://app?vid=ab164393-cd31-4221-b165-f26296d40d00","ios":"levelo://app?vid=ab164393-cd31-4221-b165-f26296d40d00"},"vehicle_type_id":"4","last_reported":1726985500,"current_range_meters":11200,"station_id":"ce4bhp92rcd13ifvqhag","pricing_plan_id":"cebpf4jnsgd1na2vs0mg"},{"bike_id":"4bf9bad2-5ff0-497e-80dc-91099f373503","system_id":"levelo_inurba_marseille","lat":43.25083,"lon":5.39513,"is_reserved":false,"is_disabled":false,"rental_uris":{"android":"levelo://app?vid=4bf9bad2-5ff0-497e-80dc-91099f373503","ios":"levelo://app?vid=4bf9bad2-5ff0-497e-80dc-91099f373503"},"vehicle_type_id":"4","last_reported":1726985500,"current_range_meters":33600,"station_id":"ce4bhm12rcd13ifvqgkg","pricing_plan_id":"cebpf4jnsgd1na2vs0mg"},{"bike_id":"641f5b3a-0958-49cd-babc-8214d157118d","system_id":"levelo_inurba_marseille","lat":43.28439,"lon":5.3918,"is_reserved":false,"is_disabled":false,"rental_uris":{"android":"levelo://app?vid=641f5b3a-0958-49cd-babc-8214d157118d","ios":"levelo://app?vid=641f5b3a-0958-49cd-babc-8214d157118d"},"vehicle_type_id":"4","last_reported":1726985500,"current_range_meters":40000,"station_id":"ce4bhoh2rcd13ifvqh5g","pricing_plan_id":"cebpf4jnsgd1na2vs0mg"},{"bike_id":"b70526a8-3011-4540-af6c-b52268f4e4f6","system_id":"levelo_inurba_marseille","lat":43.30545,"lon":5.367,"is_reserved":false,"is_disabled":false,"rental_uris":{"android":"levelo://app?vid=b70526a8-3011-4540-af6c-b52268f4e4f6","ios":"levelo://app?vid=b70526a8-3011-4540-af6c-b52268f4e4f6"},"vehicle_type_id":"4","last_reported":1726985500,"current_range_meters":8400,"station_id":"ce4bgrp2rcd13ifvqc9g","pricing_plan_id":"cebpf4jnsgd1na2vs0mg"},{"bike_id":"a27dbfcf-fdb2-45f8-985f-42b146435a71","system_id":"levelo_inurba_marseille","lat":43.32338,"lon":5.40624,"is_reserved":false,"is_disabled":false,"rental_uris":{"android":"levelo://app?vid=a27dbfcf-fdb2-45f8-985f-42b146435a71","ios":"levelo://app?vid=a27dbfcf-fdb2-45f8-985f-42b146435a71"},"vehicle_type_id":"4","last_reported":1726985500,"current_range_meters":38400,"station_id":"ce4bhq92rcd13ifvqhjg","pricing_plan_id":"cebpf4jnsgd1na2vs0mg"},{"bike_id":"f74941be-f473-4ce7-9230-0799526567ae","system_id":"levelo_inurba_marseille","lat":43.23193,"lon":5.3555,"is_reserved":false,"is_disabled":false,"rental_uris":{"android":"levelo://app?vid=f74941be-f473-4ce7-9230-0799526567ae","ios":"levelo://app?vid=f74941be-f473-4ce7-9230-0799526567ae"},"vehicle_type_id":"4","last_reported":1726985500,"current_range_meters":38800,"station_id":"ce4bhu92rcd13ifvqi70","pricing_plan_id":"cebpf4jnsgd1na2vs0mg"},{"bike_id":"63d3f19d-6eb8-4e62-8413-a46a56e80fa6","system_id":"levelo_inurba_marseille","lat":43.29931,"lon":5.36545,"is_reserved":false,"is_disabled":false,"rental_uris":{"android":"levelo://app?vid=63d3f19d-6eb8-4e62-8413-a46a56e80fa6","ios":"levelo://app?vid=63d3f19d-6eb8-4e62-8413-a46a56e80fa6"},"vehicle_type_id":"4","last_reported":1726985500,"current_range_meters":32800,"station_id":"ce4bgm92rcd13ifvqbr0","pricing_plan_id":"cebpf4jnsgd1na2vs0mg"},{"bike_id":"e9dbbbde-4807-485a-a383-2e7eb4a3324b","system_id":"levelo_inurba_marseille","lat":43.30598,"lon":5.37208,"is_reserved":false,"is_disabled":false,"rental_uris":{"android":"levelo://app?vid=e9dbbbde-4807-485a-a383-2e7eb4a3324b","ios":"levelo://app?vid=e9dbbbde-4807-485a-a383-2e7eb4a3324b"},"vehicle_type_id":"4","last_reported":1726985500,"current_range_meters":38800,"station_id":"ce4bgqh2rcd13ifvqc4g","pricing_plan_id":"cebpf4jnsgd1na2vs0mg"},{"bike_id":"e2a22653-bc09-45bf-a90e-0cf5f395397e","system_id":"levelo_inurba_marseille","lat":43.30139,"lon":5.3986,"is_reserved":false,"is_disabled":false,"rental_uris":{"android":"levelo://app?vid=e2a22653-bc09-45bf-a90e-0cf5f395397e","ios":"levelo://app?vid=e2a22653-bc09-45bf-a90e-0cf5f395397e"},"vehicle_type_id":"4","last_reported":1726985500,"current_range_meters":34000,"station_id":"ce4bh0h2rcd13ifvqd40","pricing_plan_id":"cebpf4jnsgd1na2vs0mg"},{"bike_id":"1d843a13-7297-42bd-88e3-7bc313e4a30a","system_id":"levelo_inurba_marseille","lat":43.30937,"lon":5.40143,"is_reserved":false,"is_disabled":false,"rental_uris":{"android":"levelo://app?vid=1d843a13-7297-42bd-88e3-7bc313e4a30a","ios":"levelo://app?vid=1d843a13-7297-42bd-88e3-7bc313e4a30a"},"vehicle_type_id":"4","last_reported":1726985500,"current_range_meters":11600,"station_id":"ce4bgvp2rcd13ifvqct0","pricing_plan_id":"cebpf4jnsgd1na2vs0mg"},{"bike_id":"b9503bfd-a2c9-491b-b8be-4c7c0bcc5cfa","system_id":"levelo_inurba_marseille","lat":43.27326,"lon":5.39075,"is_reserved":false,"is_disabled":false,"rental_uris":{"android":"levelo://app?vid=b9503bfd-a2c9-491b-b8be-4c7c0bcc5cfa","ios":"levelo://app?vid=b9503bfd-a2c9-491b-b8be-4c7c0bcc5cfa"},"vehicle_type_id":"4","last_reported":1726985500,"current_range_meters":38000,"station_id":"ce4bhgp2rcd13ifvqfe0","pricing_plan_id":"cebpf4jnsgd1na2vs0mg"},{"bike_id":"50f6536e-e4d6-43fe-92a1-dc898ada67f8","system_id":"levelo_inurba_marseille","lat":43.29033,"lon":5.38647,"is_reserved":false,"is_disabled":false,"rental_uris":{"android":"levelo://app?vid=50f6536e-e4d6-43fe-92a1-dc898ada67f8","ios":"levelo://app?vid=50f6536e-e4d6-43fe-92a1-dc898ada67f8"},"vehicle_type_id":"4","last_reported":1726985500,"current_range_meters":6800,"station_id":"ce4bh4p2rcd13ifvqe0g","pricing_plan_id":"cebpf4jnsgd1na2vs0mg"},{"bike_id":"bc2224ad-a18e-479e-9927-fa7d79220cd4","system_id":"levelo_inurba_marseille","lat":43.32339,"lon":5.40625,"is_reserved":false,"is_disabled":false,"rental_uris":{"android":"levelo://app?vid=bc2224ad-a18e-479e-9927-fa7d79220cd4","ios":"levelo://app?vid=bc2224ad-a18e-479e-9927-fa7d79220cd4"},"vehicle_type_id":"4","last_reported":1726985500,"current_range_meters":38400,"station_id":"ce4bhq92rcd13ifvqhjg","pricing_plan_id":"cebpf4jnsgd1na2vs0mg"},{"bike_id":"4f23fe08-671a-48a9-91ae-3739d38d97c0","system_id":"levelo_inurba_marseille","lat":43.30543,"lon":5.38423,"is_reserved":false,"is_disabled":false,"rental_uris":{"android":"levelo://app?vid=4f23fe08-671a-48a9-91ae-3739d38d97c0","ios":"levelo://app?vid=4f23fe08-671a-48a9-91ae-3739d38d97c0"},"vehicle_type_id":"4","last_reported":1726985500,"current_range_meters":38800,"station_id":"ce4bgg92rcd13ifvqb30","pricing_plan_id":"cebpf4jnsgd1na2vs0mg"},{"bike_id":"4bb7a675-da9b-4975-873c-414cafad6126","system_id":"levelo_inurba_marseille","lat":43.28458,"lon":5.35887,"is_reserved":false,"is_disabled":false,"rental_uris":{"android":"levelo://app?vid=4bb7a675-da9b-4975-873c-414cafad6126","ios":"levelo://app?vid=4bb7a675-da9b-4975-873c-414cafad6126"},"vehicle_type_id":"4","last_reported":1726985500,"current_range_meters":38800,"station_id":"ce4bhah2rcd13ifvqei0","pricing_plan_id":"cebpf4jnsgd1na2vs0mg"},{"bike_id":"6a27e725-2d8c-4144-8185-44daee5ca0de","system_id":"levelo_inurba_marseille","lat":43.31761,"lon":5.39015,"is_reserved":false,"is_disabled":false,"rental_uris":{"android":"levelo://app?vid=6a27e725-2d8c-4144-8185-44daee5ca0de","ios":"levelo://app?vid=6a27e725-2d8c-4144-8185-44daee5ca0de"},"vehicle_type_id":"4","last_reported":1726985500,"current_range_meters":22400,"station_id":"ce4bhqp2rcd13ifvqhng","pricing_plan_id":"cebpf4jnsgd1na2vs0mg"},{"bike_id":"f647815e-b117-4639-8b6c-b4b4827282f1","system_id":"levelo_inurba_marseille","lat":43.2979,"lon":5.39345,"is_reserved":false,"is_disabled":false,"rental_uris":{"android":"levelo://app?vid=f647815e-b117-4639-8b6c-b4b4827282f1","ios":"levelo://app?vid=f647815e-b117-4639-8b6c-b4b4827282f1"},"vehicle_type_id":"4","last_reported":1726985500,"current_range_meters":39200,"station_id":"chh1huq6cuj3fo74tm60","pricing_plan_id":"cebpf4jnsgd1na2vs0mg"},{"bike_id":"aa18d1b9-803b-47fa-bea1-cb0edab5554a","system_id":"levelo_inurba_marseille","lat":43.28699,"lon":5.39972,"is_reserved":false,"is_disabled":false,"rental_uris":{"android":"levelo://app?vid=aa18d1b9-803b-47fa-bea1-cb0edab5554a","ios":"levelo://app?vid=aa18d1b9-803b-47fa-bea1-cb0edab5554a"},"vehicle_type_id":"4","last_reported":1726985500,"current_range_meters":30000,"station_id":"ce4bho92rcd13ifvqh3g","pricing_plan_id":"cebpf4jnsgd1na2vs0mg"},{"bike_id":"27be6f2f-1bc2-4192-a569-44eba2fb71ae","system_id":"levelo_inurba_marseille","lat":43.25942,"lon":5.409,"is_reserved":false,"is_disabled":false,"rental_uris":{"android":"levelo://app?vid=27be6f2f-1bc2-4192-a569-44eba2fb71ae","ios":"levelo://app?vid=27be6f2f-1bc2-4192-a569-44eba2fb71ae"},"vehicle_type_id":"4","last_reported":1726985500,"current_range_meters":25200,"station_id":"ce4bhm92rcd13ifvqglg","pricing_plan_id":"cebpf4jnsgd1na2vs0mg"},{"bike_id":"165b741a-2404-4624-b268-999183c6a48e","system_id":"levelo_inurba_marseille","lat":43.27492,"lon":5.42455,"is_reserved":false,"is_disabled":false,"rental_uris":{"android":"levelo://app?vid=165b741a-2404-4624-b268-999183c6a48e","ios":"levelo://app?vid=165b741a-2404-4624-b268-999183c6a48e"},"vehicle_type_id":"4","last_reported":1726985500,"current_range_meters":38000,"station_id":"ce4bhn92rcd13ifvqgrg","pricing_plan_id":"cebpf4jnsgd1na2vs0mg"},{"bike_id":"70b0f481-90c0-4753-89b9-808858bf4c44","system_id":"levelo_inurba_marseille","lat":43.28275,"lon":5.35068,"is_reserved":false,"is_disabled":false,"rental_uris":{"android":"levelo://app?vid=70b0f481-90c0-4753-89b9-808858bf4c44","ios":"levelo://app?vid=70b0f481-90c0-4753-89b9-808858bf4c44"},"vehicle_type_id":"4","last_reported":1726985500,"current_range_meters":38000,"station_id":"ce4bhbp2rcd13ifvqerg","pricing_plan_id":"cebpf4jnsgd1na2vs0mg"},{"bike_id":"84bbe5e7-26bd-40fe-98a9-4ebe555602a8","system_id":"levelo_inurba_marseille","lat":43.29882,"lon":5.39736,"is_reserved":false,"is_disabled":false,"rental_uris":{"android":"levelo://app?vid=84bbe5e7-26bd-40fe-98a9-4ebe555602a8","ios":"levelo://app?vid=84bbe5e7-26bd-40fe-98a9-4ebe555602a8"},"vehicle_type_id":"4","last_reported":1726985500,"current_range_meters":39200,"station_id":"ce4bh0h2rcd13ifvqd50","pricing_plan_id":"cebpf4jnsgd1na2vs0mg"},{"bike_id":"d1d0cbd6-84b1-4a38-b040-c98e85107e9e","system_id":"levelo_inurba_marseille","lat":43.29167,"lon":5.37163,"is_reserved":false,"is_disabled":false,"rental_uris":{"android":"levelo://app?vid=d1d0cbd6-84b1-4a38-b040-c98e85107e9e","ios":"levelo://app?vid=d1d0cbd6-84b1-4a38-b040-c98e85107e9e"},"vehicle_type_id":"4","last_reported":1726985500,"current_range_meters":12400,"station_id":"ce4bha92rcd13ifvqeh0","pricing_plan_id":"cebpf4jnsgd1na2vs0mg"},{"bike_id":"fb2b63d9-4a26-4602-9a57-d2caab531ee7","system_id":"levelo_inurba_marseille","lat":43.33718,"lon":5.39188,"is_reserved":false,"is_disabled":false,"rental_uris":{"android":"levelo://app?vid=fb2b63d9-4a26-4602-9a57-d2caab531ee7","ios":"levelo://app?vid=fb2b63d9-4a26-4602-9a57-d2caab531ee7"},"vehicle_type_id":"4","last_reported":1726985500,"current_range_meters":38400,"station_id":"ce4bhr92rcd13ifvqhsg","pricing_plan_id":"cebpf4jnsgd1na2vs0mg"},{"bike_id":"82e6fd96-a62a-435f-a86e-ecb925dd224a","system_id":"levelo_inurba_marseille","lat":43.28615,"lon":5.37068,"is_reserved":false,"is_disabled":false,"rental_uris":{"android":"levelo://app?vid=82e6fd96-a62a-435f-a86e-ecb925dd224a","ios":"levelo://app?vid=82e6fd96-a62a-435f-a86e-ecb925dd224a"},"vehicle_type_id":"4","last_reported":1726985500,"current_range_meters":38800,"station_id":"ce4bht12rcd13ifvqi60","pricing_plan_id":"cebpf4jnsgd1na2vs0mg"},{"bike_id":"7395dcca-0dd7-4f1e-aa71-567860760f7e","system_id":"levelo_inurba_marseille","lat":43.28698,"lon":5.37377,"is_reserved":false,"is_disabled":false,"rental_uris":{"android":"levelo://app?vid=7395dcca-0dd7-4f1e-aa71-567860760f7e","ios":"levelo://app?vid=7395dcca-0dd7-4f1e-aa71-567860760f7e"},"vehicle_type_id":"4","last_reported":1726985500,"current_range_meters":35200,"station_id":"ce4bh3p2rcd13ifvqdq0","pricing_plan_id":"cebpf4jnsgd1na2vs0mg"},{"bike_id":"42031087-9761-47f2-8671-c068a2bd95a1","system_id":"levelo_inurba_marseille","lat":43.23184,"lon":5.39984,"is_reserved":false,"is_disabled":false,"rental_uris":{"android":"levelo://app?vid=42031087-9761-47f2-8671-c068a2bd95a1","ios":"levelo://app?vid=42031087-9761-47f2-8671-c068a2bd95a1"},"vehicle_type_id":"4","last_reported":1726985500,"current_range_meters":38400,"station_id":"ce4bhn12rcd13ifvqgqg","pricing_plan_id":"cebpf4jnsgd1na2vs0mg"},{"bike_id":"3280316d-9dec-4116-869e-891a26425271","system_id":"levelo_inurba_marseille","lat":43.27902,"lon":5.38002,"is_reserved":false,"is_disabled":false,"rental_uris":{"android":"levelo://app?vid=3280316d-9dec-4116-869e-891a26425271","ios":"levelo://app?vid=3280316d-9dec-4116-869e-891a26425271"},"vehicle_type_id":"4","last_reported":1726985500,"current_range_meters":2000,"station_id":"ce4bhf92rcd13ifvqf50","pricing_plan_id":"cebpf4jnsgd1na2vs0mg"},{"bike_id":"e8d9fcc7-4a1f-4d96-8ebf-5d7fd0b8bb85","system_id":"levelo_inurba_marseille","lat":43.23185,"lon":5.3998,"is_reserved":false,"is_disabled":false,"rental_uris":{"android":"levelo://app?vid=e8d9fcc7-4a1f-4d96-8ebf-5d7fd0b8bb85","ios":"levelo://app?vid=e8d9fcc7-4a1f-4d96-8ebf-5d7fd0b8bb85"},"vehicle_type_id":"4","last_reported":1726985500,"current_range_meters":24400,"station_id":"ce4bhn12rcd13ifvqgqg","pricing_plan_id":"cebpf4jnsgd1na2vs0mg"},