{"last_updated":1758975483,"ttl":60,"version":"2.2","data":{"bikes":[{"bike_id":"cc5ae47f-e58f-441e-a548-c9817ba5391f","system_id":"levelo_inurba_marseille","lat":43.30419,"lon":5.40178,"is_reserved":false,"is_disabled":false,"rental_uris":{"android":"levelo://app?vid=cc5ae47f-e58f-441e-a548-c9817ba5391f","ios":"levelo://app?vid=cc5ae47f-e58f-441e-a548-c9817ba5391f"},"vehicle_type_id":"4","last_reported":1758975483,"current_range_meters":2800,"station_id":"","pricing_plan_id":"cebpf4jnsgd1na2vs0mg"},{"bike_id":"d918f0e1-9c6e-4d65-8b6c-6ab57e6f2a76","system_id":"levelo_inurba_marseille","lat":43.282642,"lon":5.350744,"is_reserved":false,"is_disabled":false,"rental_uris":{"android":"levelo://app?vid=d918f0e1-9c6e-4d65-8b6c-6ab57e6f2a76","ios":"levelo://app?vid=d918f0e1-9c6e-4d65-8b6c-6ab57e6f2a76"},"vehicle_type_id":"4","last_reported":1758975483,"current_range_meters":3200,"station_id":"","pricing_plan_id":"cebpf4jnsgd1na2vs0mg"},{"bike_id":"116bba96-53f8-4a3f-a1c8-d3966cec89d1","system_id":"levelo_inurba_marseille","lat":43.24391,"lon":5.37061,"is_reserved":false,"is_disabled":false,"rental_uris":{"android":"levelo://app?vid=116bba96-53f8-4a3f-a1c8-d3966cec89d1","ios":"levelo://app?vid=116bba96-53f8-4a3f-a1c8-d3966cec89d1"},"vehicle_type_id":"4","last_reported":1758975483,"current_range_meters":3200,"station_id":"ce4bhhh2rcd13ifvqfk0","pricing_plan_id":"cebpf4jnsgd1na2vs0mg"},{"bike_id":"588bb5c6-d90f-4edd-b1de-2d2164a39c00","system_id":"levelo_inurba_marseille","lat":43.32948,"lon":5.39046,"is_reserved":false,"is_disabled":false,"rental_uris":{"android":"levelo://app?vid=588bb5c6-d90f-4edd-b1de-2d2164a39c00","ios":"levelo://app?vid=588bb5c6-d90f-4edd-b1de-2d2164a39c00"},"vehicle_type_id":"4","last_reported":1758975483,"current_range_meters":3200,"station_id":"","pricing_plan_id":"cebpf4jnsgd1na2vs0mg"},{"bike_id":"192d9b12-98e6-4eca-bbb7-0f0018c0995b","system_id":"levelo_inurba_marseille","lat":43.2175,"lon":5.34605,"is_reserved":false,"is_disabled":false,"rental_uris":{"android":"levelo://app?vid=192d9b12-98e6-4eca-bbb7-0f0018c0995b","ios":"levelo://app?vid=192d9b12-98e6-4eca-bbb7-0f0018c0995b"},"vehicle_type_id":"4","last_reported":1758975483,"current_range_meters":3600,"station_id":"st_cvj6r9ubvosntc0bgbag","pricing_plan_id":"cebpf4jnsgd1na2vs0mg"},{"bike_id":"71ff62de-7093-4aed-b4c8-18434c1e3ab5","system_id":"levelo_inurba_marseille","lat":43.22004,"lon":5.34644,"is_reserved":false,"is_disabled":false,"rental_uris":{"android":"levelo://app?vid=71ff62de-7093-4aed-b4c8-18434c1e3ab5","ios":"levelo://app?vid=71ff62de-7093-4aed-b4c8-18434c1e3ab5"},"vehicle_type_id":"4","last_reported":1758975483,"current_range_meters":4000,"station_id":"","pricing_plan_id":"cebpf4jnsgd1na2vs0mg"},{"bike_id":"003515e8-8117-44bb-979d-5f47e8d50fda","system_id":"levelo_inurba_marseille","lat":43.30624,"lon":5.37569,"is_reserved":false,"is_disabled":false,"rental_uris":{"android":"levelo://app?vid=003515e8-8117-44bb-979d-5f47e8d50fda","ios":"levelo://app?vid=003515e8-8117-44bb-979d-5f47e8d50fda"},"vehicle_type_id":"4","last_reported":1758975483,"current_range_meters":4000,"station_id":"","pricing_plan_id":"cebpf4jnsgd1na2vs0mg"},{"bike_id":"c2207658-b923-4a8f-a2fa-281c17511191","system_id":"levelo_inurba_marseille","lat":43.324829,"lon":5.365715,"is_reserved":false,"is_disabled":false,"rental_uris":{"android":"levelo://app?vid=c2207658-b923-4a8f-a2fa-281c17511191","ios":"levelo://app?vid=c2207658-b923-4a8f-a2fa-281c17511191"},"vehicle_type_id":"4","last_reported":1758975483,"current_range_meters":4000,"station_id":"ce4bhs12rcd13ifvqhvg","pricing_plan_id":"cebpf4jnsgd1na2vs0mg"},{"bike_id":"2383ea6d-449d-41cf-981a-744d7b7e70c9","system_id":"levelo_inurba_marseille","lat":43.26193,"lon":5.37448,"is_reserved":false,"is_disabled":false,"rental_uris":{"android":"levelo://app?vid=2383ea6d-449d-41cf-981a-744d7b7e70c9","ios":"levelo://app?vid=2383ea6d-449d-41cf-981a-744d7b7e70c9"},"vehicle_type_id":"4","last_reported":1758975483,"current_range_meters":4000,"station_id":"ce4bhgp2rcd13ifvqfc0","pricing_plan_id":"cebpf4jnsgd1na2vs0mg"},{"bike_id":"aee6de86-7bb8-4af7-ada9-ed2ff95629a8","system_id":"levelo_inurba_marseille","lat":43.2175,"lon":5.34604,"is_reserved":false,"is_disabled":false,"rental_uris":{"android":"levelo://app?vid=aee6de86-7bb8-4af7-ada9-ed2ff95629a8","ios":"levelo://app?vid=aee6de86-7bb8-4af7-ada9-ed2ff95629a8"},"vehicle_type_id":"4","last_reported":1758975483,"current_range_meters":4000,"station_id":"st_cvj6r9ubvosntc0bgbag","pricing_plan_id":"cebpf4jnsgd1na2vs0mg"},{"bike_id":"5aceb32e-d156-437e-9aae-50e75c51cf02","system_id":"levelo_inurba_marseille","lat":43.27315,"lon":5.39111,"is_reserved":false,"is_disabled":false,"rental_uris":{"android":"levelo://app?vid=5aceb32e-d156-437e-9aae-50e75c51cf02","ios":"levelo://app?vid=5aceb32e-d156-437e-9aae-50e75c51cf02"},"vehicle_type_id":"4","last_reported":1758975483,"current_range_meters":4400,"station_id":"ce4bhgp2rcd13ifvqfe0","pricing_plan_id":"cebpf4jnsgd1na2vs0mg"},{"bike_id":"1bd3d4a4-39b4-4d9d-a946-079b011780d0","system_id":"levelo_inurba_marseille","lat":43.28025,"lon":5.36933,"is_reserved":false,"is_disabled":false,"rental_uris":{"android":"levelo://app?vid=1bd3d4a4-39b4-4d9d-a946-079b011780d0","ios":"levelo://app?vid=1bd3d4a4-39b4-4d9d-a946-079b011780d0"},"vehicle_type_id":"4","last_reported":1758975483,"current_range_meters":4400,"station_id":"ce4bha12rcd13ifvqef0","pricing_plan_id":"cebpf4jnsgd1na2vs0mg"},{"bike_id":"c991a87d-d023-46be-a1a4-e5a37d0200dd","system_id":"levelo_inurba_marseille","lat":43.21197,"lon":5.35072,"is_reserved":false,"is_disabled":false,"rental_uris":{"android":"levelo://app?vid=c991a87d-d023-46be-a1a4-e5a37d0200dd","ios":"levelo://app?vid=c991a87d-d023-46be-a1a4-e5a37d0200dd"},"vehicle_type_id":"4","last_reported":1758975483,"current_range_meters":4400,"station_id":"st_cvj6sg6p6f1abm77japg","pricing_plan_id":"cebpf4jnsgd1na2vs0mg"},{"bike_id":"9766dc2d-f32c-43c2-81dd-5117621fcbc8","system_id":"levelo_inurba_marseille","lat":43.305491,"lon":5.365499,"is_reserved":false,"is_disabled":false,"rental_uris":{"android":"levelo://app?vid=9766dc2d-f32c-43c2-81dd-5117621fcbc8","ios":"levelo://app?vid=9766dc2d-f32c-43c2-81dd-5117621fcbc8"},"vehicle_type_id":"4","last_reported":1758975483,"current_range_meters":4400,"station_id":"ce4bgs12rcd13ifvqcag","pricing_plan_id":"cebpf4jnsgd1na2vs0mg"},{"bike_id":"f468c910-47e2-4a89-b5ec-249fa64a5d62","system_id":"levelo_inurba_marseille","lat":43.248055,"lon":5.374532,"is_reserved":false,"is_disabled":false,"rental_uris":{"android":"levelo://app?vid=f468c910-47e2-4a89-b5ec-249fa64a5d62","ios":"levelo://app?vid=f468c910-47e2-4a89-b5ec-249fa64a5d62"},"vehicle_type_id":"4","last_reported":1758975483,"current_range_meters":4000,"station_id":"ce4bhgh2rcd13ifvqfb0","pricing_plan_id":"cebpf4jnsgd1na2vs0mg"},{"bike_id":"5c82eaf3-f257-4874-84c6-5d02ab50bdba","system_id":"levelo_inurba_marseille","lat":43.302125,"lon":5.394645,"is_reserved":false,"is_disabled":false,"rental_uris":{"android":"levelo://app?vid=5c82eaf3-f257-4874-84c6-5d02ab50bdba","ios":"levelo://app?vid=5c82eaf3-f257-4874-84c6-5d02ab50bdba"},"vehicle_type_id":"4","last_reported":1758975483,"current_range_meters":4400,"station_id":"ce4bh0p2rcd13ifvqd70","pricing_plan_id":"cebpf4jnsgd1na2vs0mg"},{"bike_id":"775dc15f-5418-4916-b083-65c08ce6a8fb","system_id":"levelo_inurba_marseille","lat":43.24997,"lon":5.38933,"is_reserved":false,"is_disabled":false,"rental_uris":{"android":"levelo://app?vid=775dc15f-5418-4916-b083-65c08ce6a8fb","ios":"levelo://app?vid=775dc15f-5418-4916-b083-65c08ce6a8fb"},"vehicle_type_id":"4","last_reported":1758975483,"current_range_meters":4400,"station_id":"ce4bhgp2rcd13ifvqfd0","pricing_plan_id":"cebpf4jnsgd1na2vs0mg"},{"bike_id":"5fa84e79-eb24-4af0-8889-7a6065136846","system_id":"levelo_inurba_marseille","lat":43.23195,"lon":5.35542,"is_reserved":false,"is_disabled":false,"rental_uris":{"android":"levelo://app?vid=5fa84e79-eb24-4af0-8889-7a6065136846","ios":"levelo://app?vid=5fa84e79-eb24-4af0-8889-7a6065136846"},"vehicle_type_id":"4","last_reported":1758975483,"current_range_meters":4800,"station_id":"ce4bhu92rcd13ifvqi70","pricing_plan_id":"cebpf4jnsgd1na2vs0mg"},{"bike_id":"f897d300-643c-4c7a-951b-f56d70ef23ca","system_id":"levelo_inurba_marseille","lat":43.30335,"lon":5.39074,"is_reserved":false,"is_disabled":false,"rental_uris":{"android":"levelo://app?vid=f897d300-643c-4c7a-951b-f56d70ef23ca","ios":"levelo://app?vid=f897d300-643c-4c7a-951b-f56d70ef23ca"},"vehicle_type_id":"4","last_reported":1758975483,"current_range_meters":4800,"station_id":"","pricing_plan_id":"cebpf4jnsgd1na2vs0mg"},{"bike_id":"b6f3f6aa-5432-4a75-9fcf-4e6d4514012d","system_id":"levelo_inurba_marseille","lat":43.224809,"lon":5.347746,"is_reserved":false,"is_disabled":false,"rental_uris":{"android":"levelo://app?vid=b6f3f6aa-5432-4a75-9fcf-4e6d4514012d","ios":"levelo://app?vid=b6f3f6aa-5432-4a75-9fcf-4e6d4514012d"},"vehicle_type_id":"4","last_reported":1758975483,"current_range_meters":4800,"station_id":"","pricing_plan_id":"cebpf4jnsgd1na2vs0mg"},{"bike_id":"1cb5bc79-4b2b-45e3-955f-d54567a59051","system_id":"levelo_inurba_marseille","lat":43.32352,"lon":5.40613,"is_reserved":false,"is_disabled":false,"rental_uris":{"android":"levelo://app?vid=1cb5bc79-4b2b-45e3-955f-d54567a59051","ios":"levelo://app?vid=1cb5bc79-4b2b-45e3-955f-d54567a59051"},"vehicle_type_id":"4","last_reported":1758975483,"current_range_meters":4800,"station_id":"ce4bhq92rcd13ifvqhjg","pricing_plan_id":"cebpf4jnsgd1na2vs0mg"},{"bike_id":"1d2dcc66-813b-4666-838a-891af7a8dd0d","system_id":"levelo_inurba_marseille","lat":43.28507,"lon":5.38463,"is_reserved":false,"is_disabled":false,"rental_uris":{"android":"levelo://app?vid=1d2dcc66-813b-4666-838a-891af7a8dd0d","ios":"levelo://app?vid=1d2dcc66-813b-4666-838a-891af7a8dd0d"},"vehicle_type_id":"4","last_reported":1758975483,"current_range_meters":5600,"station_id":"ce4bh512rcd13ifvqe3g","pricing_plan_id":"cebpf4jnsgd1na2vs0mg"},{"bike_id":"94d61d17-48e3-4e7d-8cc1-0efc7a1d6a42","system_id":"levelo_inurba_marseille","lat":43.23958,"lon":5.36641,"is_reserved":false,"is_disabled":false,"rental_uris":{"android":"levelo://app?vid=94d61d17-48e3-4e7d-8cc1-0efc7a1d6a42","ios":"levelo://app?vid=94d61d17-48e3-4e7d-8cc1-0efc7a1d6a42"},"vehicle_type_id":"4","last_reported":1758975483,"current_range_meters":5600,"station_id":"ce4bhi12rcd13ifvqfp0","pricing_plan_id":"cebpf4jnsgd1na2vs0mg"},{"bike_id":"4cb05e84-461f-4d5d-a439-4308b8ad71c5","system_id":"levelo_inurba_marseille","lat":43.28482,"lon":5.38419,"is_reserved":false,"is_disabled":false,"rental_uris":{"android":"levelo://app?vid=4cb05e84-461f-4d5d-a439-4308b8ad71c5","ios":"levelo://app?vid=4cb05e84-461f-4d5d-a439-4308b8ad71c5"},"vehicle_type_id":"4","last_reported":1758975483,"current_range_meters":5600,"station_id":"ce4bh512rcd13ifvqe3g","pricing_plan_id":"cebpf4jnsgd1na2vs0mg"},{"bike_id":"e02bf9c8-34c0-489c-9928-56497aaf2b87","system_id":"levelo_inurba_marseille","lat":43.21752,"lon":5.346,"is_reserved":false,"is_disabled":false,"rental_uris":{"android":"levelo://app?vid=e02bf9c8-34c0-489c-9928-56497aaf2b87","ios":"levelo://app?vid=e02bf9c8-34c0-489c-9928-56497aaf2b87"},"vehicle_type_id":"4","last_reported":1758975483,"current_range_meters":6000,"station_id":"st_cvj6r9ubvosntc0bgbag","pricing_plan_id":"cebpf4jnsgd1na2vs0mg"},{"bike_id":"b90b38d1-b13a-4580-abfc-8b707e48b000","system_id":"levelo_inurba_marseille","lat":43.28925,"lon":5.36637,"is_reserved":false,"is_disabled":false,"rental_uris":{"android":"levelo://app?vid=b90b38d1-b13a-4580-abfc-8b707e48b000","ios":"levelo://app?vid=b90b38d1-b13a-4580-abfc-8b707e48b000"},"vehicle_type_id":"4","last_reported":1758975483,"current_range_meters":6000,"station_id":"ce4bhap2rcd13ifvqek0","pricing_plan_id":"cebpf4jnsgd1na2vs0mg"},{"bike_id":"c7f6a08b-c655-4213-b2ba-7d02e7f382fe","system_id":"levelo_inurba_marseille","lat":43.27988,"lon":5.39483,"is_reserved":false,"is_disabled":false,"rental_uris":{"android":"levelo://app?vid=c7f6a08b-c655-4213-b2ba-7d02e7f382fe","ios":"levelo://app?vid=c7f6a08b-c655-4213-b2ba-7d02e7f382fe"},"vehicle_type_id":"4","last_reported":1758975483,"current_range_meters":6000,"station_id":"","pricing_plan_id":"cebpf4jnsgd1na2vs0mg"},{"bike_id":"aa0206bb-cb99-44e8-b6dd-1387dadd841e","system_id":"levelo_inurba_marseille","lat":43.24168,"lon":5.36394,"is_reserved":false,"is_disabled":false,"rental_uris":{"android":"levelo://app?vid=aa0206bb-cb99-44e8-b6dd-1387dadd841e","ios":"levelo://app?vid=aa0206bb-cb99-44e8-b6dd-1387dadd841e"},"vehicle_type_id":"4","last_reported":1758975483,"current_range_meters":6000,"station_id":"cpo36qri1sfpv3e86is0","pricing_plan_id":"cebpf4jnsgd1na2vs0mg"},{"bike_id":"bce3f2a9-6738-4a0a-b74f-5982f6afebab","system_id":"levelo_inurba_marseille","lat":43.28422,"lon":5.34983,"is_reserved":false,"is_disabled":false,"rental_uris":{"android":"levelo://app?vid=bce3f2a9-6738-4a0a-b74f-5982f6afebab","ios":"levelo://app?vid=bce3f2a9-6738-4a0a-b74f-5982f6afebab"},"vehicle_type_id":"4","last_reported":1758975483,"current_range_meters":6400,"station_id":"","pricing_plan_id":"cebpf4jnsgd1na2vs0mg"},{"bike_id":"1ba48560-da29-4bf1-9bcb-c0f33fb77ae2","system_id":"levelo_inurba_marseille","lat":43.21741,"lon":5.34605,"is_reserved":false,"is_disabled":false,"rental_uris":{"android":"levelo://app?vid=1ba48560-da29-4bf1-9bcb-c0f33fb77ae2","ios":"levelo://app?vid=1ba48560-da29-4bf1-9bcb-c0f33fb77ae2"},"vehicle_type_id":"4","last_reported":1758975483,"current_range_meters":6400,"station_id":"st_cvj6r9ubvosntc0bgbag","pricing_plan_id":"cebpf4jnsgd1na2vs0mg"},{"bike_id":"1028cd2b-b4fc-4d5c-9515-2844e29f4322","system_id":"levelo_inurba_marseille","lat":43.225362,"lon":5.348472,"is_reserved":false,"is_disabled":false,"rental_uris":{"android":"levelo://app?vid=1028cd2b-b4fc-4d5c-9515-2844e29f4322","ios":"levelo://app?vid=1028cd2b-b4fc-4d5c-9515-2844e29f4322"},"vehicle_type_id":"4","last_reported":1758975483,"current_range_meters":6400,"station_id":"","pricing_plan_id":"cebpf4jnsgd1na2vs0mg"},{"bike_id":"507a2ba5-b5e9-4260-90a0-76a1e21bd311","system_id":"levelo_inurba_marseille","lat":43.32659,"lon":5.40991,"is_reserved":false,"is_disabled":false,"rental_uris":{"android":"levelo://app?vid=507a2ba5-b5e9-4260-90a0-76a1e21bd311","ios":"levelo://app?vid=507a2ba5-b5e9-4260-90a0-76a1e21bd311"},"vehicle_type_id":"4","last_reported":1758975483,"current_range_meters":6400,"station_id":"ce4bhpp2rcd13ifvqhgg","pricing_plan_id":"cebpf4jnsgd1na2vs0mg"},{"bike_id":"041cd397-24ab-4e04-af23-07b961e161f4","system_id":"levelo_inurba_marseille","lat":43.337444,"lon":5.374475,"is_reserved":false,"is_disabled":false,"rental_uris":{"android":"levelo://app?vid=041cd397-24ab-4e04-af23-07b961e161f4","ios":"levelo://app?vid=041cd397-24ab-4e04-af23-07b961e161f4"},"vehicle_type_id":"4","last_reported":1758975483,"current_range_meters":6400,"station_id":"","pricing_plan_id":"cebpf4jnsgd1na2vs0mg"},{"bike_id":"050d747c-b341-470e-a4ac-dd284cada632","system_id":"levelo_inurba_marseille","lat":43.22924,"lon":5.35366,"is_reserved":false,"is_disabled":false,"rental_uris":{"android":"levelo://app?vid=050d747c-b341-470e-a4ac-dd284cada632","ios":"levelo://app?vid=050d747c-b341-470e-a4ac-dd284cada632"},"vehicle_type_id":"4","last_reported":1758975483,"current_range_meters":6800,"station_id":"","pricing_plan_id":"cebpf4jnsgd1na2vs0mg"},{"bike_id":"0b1eb747-8274-4a8a-a752-7c30d6b68dc6","system_id":"levelo_inurba_marseille","lat":43.29902,"lon":5.43676,"is_reserved":false,"is_disabled":false,"rental_uris":{"android":"levelo://app?vid=0b1eb747-8274-4a8a-a752-7c30d6b68dc6","ios":"levelo://app?vid=0b1eb747-8274-4a8a-a752-7c30d6b68dc6"},"vehicle_type_id":"4","last_reported":1758975483,"current_range_meters":6800,"station_id":"ce4bhpp2rcd13ifvqhfg","pricing_plan_id":"cebpf4jnsgd1na2vs0mg"},{"bike_id":"db9442d3-278a-4055-ad70-f7aa45cbb6e7","system_id":"levelo_inurba_marseille","lat":43.28489,"lon":5.38412,"is_reserved":false,"is_disabled":false,"rental_uris":{"android":"levelo://app?vid=db9442d3-278a-4055-ad70-f7aa45cbb6e7","ios":"levelo://app?vid=db9442d3-278a-4055-ad70-f7aa45cbb6e7"},"vehicle_type_id":"4","last_reported":1758975483,"current_range_meters":6400,"station_id":"ce4bh512rcd13ifvqe3g","pricing_plan_id":"cebpf4jnsgd1na2vs0mg"},{"bike_id":"a462cce2-9104-46a9-a432-ba7c3c35eb6a","system_id":"levelo_inurba_marseille","lat":43.27053,"lon":5.40267,"is_reserved":false,"is_disabled":true,"rental_uris":{"android":"levelo://app?vid=a462cce2-9104-46a9-a432-ba7c3c35eb6a","ios":"levelo://app?vid=a462cce2-9104-46a9-a432-ba7c3c35eb6a"},"vehicle_type_id":"4","last_reported":1758975483,"current_range_meters":6800,"station_id":"ce4bhk92rcd13ifvqgc0","pricing_plan_id":"cebpf4jnsgd1na2vs0mg"},{"bike_id":"90b16cfb-4abf-4e40-a9c7-f357958b1e71","system_id":"levelo_inurba_marseille","lat":43.21184,"lon":5.35067,"is_reserved":false,"is_disabled":false,"rental_uris":{"android":"levelo://app?vid=90b16cfb-4abf-4e40-a9c7-f357958b1e71","ios":"levelo://app?vid=90b16cfb-4abf-4e40-a9c7-f357958b1e71"},"vehicle_type_id":"4","last_reported":1758975483,"current_range_meters":6800,"station_id":"st_cvj6sg6p6f1abm77japg","pricing_plan_id":"cebpf4jnsgd1na2vs0mg"},{"bike_id":"9a819dc8-447d-4df7-8b5f-0b18332a26a7","system_id":"levelo_inurba_marseille","lat":43.33118,"lon":5.37592,"is_reserved":false,"is_disabled":false,"rental_uris":{"android":"levelo://app?vid=9a819dc8-447d-4df7-8b5f-0b18332a26a7","ios":"levelo://app?vid=9a819dc8-447d-4df7-8b5f-0b18332a26a7"},"vehicle_type_id":"4","last_reported":1758975483,"current_range_meters":6800,"station_id":"","pricing_plan_id":"cebpf4jnsgd1na2vs0mg"},{"bike_id":"75611fb7-df45-4d9f-9db0-a181136cc424","system_id":"levelo_inurba_marseille","lat":43.21741,"lon":5.3461,"is_reserved":false,"is_disabled":false,"rental_uris":{"android":"levelo://app?vid=75611fb7-df45-4d9f-9db0-a181136cc424","ios":"levelo://app?vid=75611fb7-df45-4d9f-9db0-a181136cc424"},"vehicle_type_id":"4","last_reported":1758975483,"current_range_meters":7200,"station_id":"st_cvj6r9ubvosntc0bgbag","pricing_plan_id":"cebpf4jnsgd1na2vs0mg"},{"bike_id":"69699675-8a18-4582-a1c3-6bfb6681de1d","system_id":"levelo_inurba_marseille","lat":43.21201,"lon":5.35066,"is_reserved":false,"is_disabled":false,"rental_uris":{"android":"levelo://app?vid=69699675-8a18-4582-a1c3-6bfb6681de1d","ios":"levelo://app?vid=69699675-8a18-4582-a1c3-6bfb6681de1d"},"vehicle_type_id":"4","last_reported":1758975483,"current_range_meters":7200,"station_id":"st_cvj6sg6p6f1abm77japg","pricing_plan_id":"cebpf4jnsgd1na2vs0mg"},{"bike_id":"174dfb4f-f618-4c2f-be1c-ae0d6b405e94","system_id":"levelo_inurba_marseille","lat":43.29717,"lon":5.38248,"is_reserved":false,"is_disabled":false,"rental_uris":{"android":"levelo://app?vid=174dfb4f-f618-4c2f-be1c-ae0d6b405e94","ios":"levelo://app?vid=174dfb4f-f618-4c2f-be1c-ae0d6b405e94"},"vehicle_type_id":"4","last_reported":1758975483,"current_range_meters":7200,"station_id":"","pricing_plan_id":"cebpf4jnsgd1na2vs0mg"},{"bike_id":"2b4f5177-27f5-4071-8352-fb1d74813733","system_id":"levelo_inurba_marseille","lat":43.30175,"lon":5.36611,"is_reserved":false,"is_disabled":false,"rental_uris":{"android":"levelo://app?vid=2b4f5177-27f5-4071-8352-fb1d74813733","ios":"levelo://app?vid=2b4f5177-27f5-4071-8352-fb1d74813733"},"vehicle_type_id":"4","last_reported":1758975483,"current_range_meters":6800,"station_id":"ce4bgrh2rcd13ifvqc8g","pricing_plan_id":"cebpf4jnsgd1na2vs0mg"},{"bike_id":"74c246af-130f-4149-8df8-0914d59ef8e0","system_id":"levelo_inurba_marseille","lat":43.291974,"lon":5.393172,"is_reserved":false,"is_disabled":false,"rental_uris":{"android":"levelo://app?vid=74c246af-130f-4149-8df8-0914d59ef8e0","ios":"levelo://app?vid=74c246af-130f-4149-8df8-0914d59ef8e0"},"vehicle_type_id":"4","last_reported":1758975483,"current_range_meters":7200,"station_id":"ce4bh192rcd13ifvqdd0","pricing_plan_id":"cebpf4jnsgd1na2vs0mg"},{"bike_id":"e24bd76d-9124-4690-8111-7cdeec0e9950","system_id":"levelo_inurba_marseille","lat":43.28494,"lon":5.38416,"is_reserved":false,"is_disabled":false,"rental_uris":{"android":"levelo://app?vid=e24bd76d-9124-4690-8111-7cdeec0e9950","ios":"levelo://app?vid=e24bd76d-9124-4690-8111-7cdeec0e9950"},"vehicle_type_id":"4","last_reported":1758975483,"current_range_meters":7200,"station_id":"ce4bh512rcd13ifvqe3g","pricing_plan_id":"cebpf4jnsgd1na2vs0mg"},{"bike_id":"0c0137d2-c7b2-41b5-b7ec-efc1e215b6ba","system_id":"levelo_inurba_marseille","lat":43.22936,"lon":5.35378,"is_reserved":false,"is_disabled":false,"rental_uris":{"android":"levelo://app?vid=0c0137d2-c7b2-41b5-b7ec-efc1e215b6ba","ios":"levelo://app?vid=0c0137d2-c7b2-41b5-b7ec-efc1e215b6ba"},"vehicle_type_id":"4","last_reported":1758975483,"current_range_meters":8000,"station_id":"cpo3532slgdg3j2ikp40","pricing_plan_id":"cebpf4jnsgd1na2vs0mg"},{"bike_id":"d9ec9986-9ab9-4127-b863-eb101e7c5922","system_id":"levelo_inurba_marseille","lat":43.28159,"lon":5.42643,"is_reserved":false,"is_disabled":false,"rental_uris":{"android":"levelo://app?vid=d9ec9986-9ab9-4127-b863-eb101e7c5922","ios":"levelo://app?vid=d9ec9986-9ab9-4127-b863-eb101e7c5922"},"vehicle_type_id":"4","last_reported":1758975483,"current_range_meters":7200,"station_id":"ce4bhnh2rcd13ifvqgug","pricing_plan_id":"cebpf4jnsgd1na2vs0mg"},{"bike_id":"b21c53ab-f1a4-418a-a3b8-7b36dc11dbe8","system_id":"levelo_inurba_marseille","lat":43.29558,"lon":5.42295,"is_reserved":false,"is_disabled":false,"rental_uris":{"android":"levelo://app?vid=b21c53ab-f1a4-418a-a3b8-7b36dc11dbe8","ios":"levelo://app?vid=b21c53ab-f1a4-418a-a3b8-7b36dc11dbe8"},"vehicle_type_id":"4","last_reported":1758975483,"current_range_meters":8000,"station_id":"ce4bhph2rcd13ifvqhdg","pricing_plan_id":"cebpf4jnsgd1na2vs0mg"},{"bike_id":"4744457d-c782-4559-9156-3157b5b3a955","system_id":"levelo_inurba_marseille","lat":43.29796,"lon":5.40403,"is_reserved":false,"is_disabled":false,"rental_uris":{"android":"levelo://app?vid=4744457d-c782-4559-9156-3157b5b3a955","ios":"levelo://app?vid=4744457d-c782-4559-9156-3157b5b3a955"},"vehicle_type_id":"4","last_reported":1758975483,"current_range_meters":7200,"station_id":"ce4bh112rcd13ifvqd90","pricing_plan_id":"cebpf4jnsgd1na2vs0mg"},{"bike_id":"ba5276ed-fc48-48ea-aa2f-61cfb057749f","system_id":"levelo_inurba_marseille","lat":43.29864,"lon":5.39729,"is_reserved":false,"is_disabled":false,"rental_uris":{"android":"levelo://app?vid=ba5276ed-fc48-48ea-aa2f-61cfb057749f","ios":"levelo://app?vid=ba5276ed-fc48-48ea-aa2f-61cfb057749f"},"vehicle_type_id":"4","last_reported":1758975483,"current_range_meters":7200,"station_id":"ce4bh0h2rcd13ifvqd50","pricing_plan_id":"cebpf4jnsgd1na2vs0mg"},{"bike_id":"ffc92de0-b837-4c6a-a389-1c802a91b54f","system_id":"levelo_inurba_marseille","lat":43.21192,"lon":5.35071,"is_reserved":false,"is_disabled":false,"rental_uris":{"android":"levelo://app?vid=ffc92de0-b837-4c6a-a389-1c802a91b54f","ios":"levelo://app?vid=ffc92de0-b837-4c6a-a389-1c802a91b54f"},"vehicle_type_id":"4","last_reported":1758975483,"current_range_meters":8000,"station_id":"st_cvj6sg6p6f1abm77japg","pricing_plan_id":"cebpf4jnsgd1na2vs0mg"},{"bike_id":"03173120-2e3b-4ab1-8262-1d4e2db3263e","system_id":"levelo_inurba_marseille","lat":43.28106,"lon":5.37836,"is_reserved":false,"is_disabled":false,"rental_uris":{"android":"levelo://app?vid=03173120-2e3b-4ab1-8262-1d4e2db3263e","ios":"levelo://app?vid=03173120-2e3b-4ab1-8262-1d4e2db3263e"},"vehicle_type_id":"4","last_reported":1758975483,"current_range_meters":8000,"station_id":"ce4bha12rcd13ifvqee0","pricing_plan_id":"cebpf4jnsgd1na2vs0mg"},{"bike_id":"7a19482a-c425-4555-95bc-1b61744154cc","system_id":"levelo_inurba_marseille","lat":43.29676,"lon":5.37289,"is_reserved":false,"is_disabled":false,"rental_uris":{"android":"levelo://app?vid=7a19482a-c425-4555-95bc-1b61744154cc","ios":"levelo://app?vid=7a19482a-c425-4555-95bc-1b61744154cc"},"vehicle_type_id":"4","last_reported":1758975483,"current_range_meters":8400,"station_id":"ce4bgk12rcd13ifvqbj0","pricing_plan_id":"cebpf4jnsgd1na2vs0mg"},{"bike_id":"108187a1-9975-4cde-896a-0b2a4a3abf0b","system_id":"levelo_inurba_marseille","lat":43.29867,"lon":5.39738,"is_reserved":false,"is_disabled":false,"rental_uris":{"android":"levelo://app?vid=108187a1-9975-4cde-896a-0b2a4a3abf0b","ios":"levelo://app?vid=108187a1-9975-4cde-896a-0b2a4a3abf0b"},"vehicle_type_id":"4","last_reported":1758975483,"current_range_meters":8000,"station_id":"ce4bh0h2rcd13ifvqd50","pricing_plan_id":"cebpf4jnsgd1na2vs0mg"},{"bike_id":"741795d3-e69e-4dae-b7e3-e150ab063b9f","system_id":"levelo_inurba_marseille","lat":43.27045,"lon":5.40221,"is_reserved":false,"is_disabled":false,"rental_uris":{"android":"levelo://app?vid=741795d3-e69e-4dae-b7e3-e150ab063b9f","ios":"levelo://app?vid=741795d3-e69e-4dae-b7e3-e150ab063b9f"},"vehicle_type_id":"4","last_reported":1758975483,"current_range_meters":8400,"station_id":"ce4bhk92rcd13ifvqgc0","pricing_plan_id":"cebpf4jnsgd1na2vs0mg"},{"bike_id":"d2b4ac83-91e6-46fb-9929-4b55b0b2c4f5","system_id":"levelo_inurba_marseille","lat":43.25685,"lon":5.41105,"is_reserved":false,"is_disabled":false,"rental_uris":{"android":"levelo://app?vid=d2b4ac83-91e6-46fb-9929-4b55b0b2c4f5","ios":"levelo://app?vid=d2b4ac83-91e6-46fb-9929-4b55b0b2c4f5"},"vehicle_type_id":"4","last_reported":1758975483,"current_range_meters":8400,"station_id":"ce4bhkp2rcd13ifvqgd0","pricing_plan_id":"cebpf4jnsgd1na2vs0mg"},{"bike_id":"dadd35a9-95e2-414e-9129-4e8ec529cb95","system_id":"levelo_inurba_marseille","lat":43.29686,"lon":5.37303,"is_reserved":false,"is_disabled":false,"rental_uris":{"android":"levelo://app?vid=dadd35a9-95e2-414e-9129-4e8ec529cb95","ios":"levelo://app?vid=dadd35a9-95e2-414e-9129-4e8ec529cb95"},"vehicle_type_id":"4","last_reported":1758975483,"current_range_meters":8800,"station_id":"ce4bgk12rcd13ifvqbj0","pricing_plan_id":"cebpf4jnsgd1na2vs0mg"},{"bike_id":"e581d905-1ec4-485a-bbf2-7719cb2cfe04","system_id":"levelo_inurba_marseille","lat":43.290567,"lon":5.359166,"is_reserved":false,"is_disabled":false,"rental_uris":{"android":"levelo://app?vid=e581d905-1ec4-485a-bbf2-7719cb2cfe04","ios":"levelo://app?vid=e581d905-1ec4-485a-bbf2-7719cb2cfe04"},"vehicle_type_id":"4","last_reported":1758975483,"current_range_meters":2800,"station_id":"ce4bha92rcd13ifvqeg0","pricing_plan_id":"cebpf4jnsgd1na2vs0mg"},{"bike_id":"f18b9768-5111-4dbf-a273-1fb15e369929","system_id":"levelo_inurba_marseille","lat":43.2606,"lon":5.39399,"is_reserved":false,"is_disabled":false,"rental_uris":{"android":"levelo://app?vid=f18b9768-5111-4dbf-a273-1fb15e369929","ios":"levelo://app?vid=f18b9768-5111-4dbf-a273-1fb15e369929"},"vehicle_type_id":"4","last_reported":1758975483,"current_range_meters":8800,"station_id":"ce4bhh92rcd13ifvqfj0","pricing_plan_id":"cebpf4jnsgd1na2vs0mg"},{"bike_id":"12b962dd-dab1-4da6-801e-14aa3708c3f6","system_id":"levelo_inurba_marseille","lat":43.21747,"lon":5.346,"is_reserved":false,"is_disabled":false,"rental_uris":{"android":"levelo://app?vid=12b962dd-dab1-4da6-801e-14aa3708c3f6","ios":"levelo://app?vid=12b962dd-dab1-4da6-801e-14aa3708c3f6"},"vehicle_type_id":"4","last_reported":1758975483,"current_range_meters":8800,"station_id":"st_cvj6r9ubvosntc0bgbag","pricing_plan_id":"cebpf4jnsgd1na2vs0mg"},{"bike_id":"a639c491-c436-478a-8d5d-bd2c30b918ff","system_id":"levelo_inurba_marseille","lat":43.29763,"lon":5.37214,"is_reserved":false,"is_disabled":false,"rental_uris":{"android":"levelo://app?vid=a639c491-c436-478a-8d5d-bd2c30b918ff","ios":"levelo://app?vid=a639c491-c436-478a-8d5d-bd2c30b918ff"},"vehicle_type_id":"4","last_reported":1758975483,"current_range_meters":8800,"station_id":"","pricing_plan_id":"cebpf4jnsgd1na2vs0mg"},{"bike_id":"591a2bfb-0044-465f-9a96-4668d5eb8ac9","system_id":"levelo_inurba_marseille","lat":43.28003,"lon":5.41664,"is_reserved":false,"is_disabled":false,"rental_uris":{"android":"levelo://app?vid=591a2bfb-0044-465f-9a96-4668d5eb8ac9","ios":"levelo://app?vid=591a2bfb-0044-465f-9a96-4668d5eb8ac9"},"vehicle_type_id":"4","last_reported":1758975483,"current_range_meters":9200,"station_id":"ce4bho12rcd13ifvqh1g","pricing_plan_id":"cebpf4jnsgd1na2vs0mg"},{"bike_id":"780a5f19-a115-4de3-82c9-fad7b041cb3a","system_id":"levelo_inurba_marseille","lat":43.21185,"lon":5.35074,"is_reserved":false,"is_disabled":false,"rental_uris":{"android":"levelo://app?vid=780a5f19-a115-4de3-82c9-fad7b041cb3a","ios":"levelo://app?vid=780a5f19-a115-4de3-82c9-fad7b041cb3a"},"vehicle_type_id":"4","last_reported":1758975483,"current_range_meters":9200,"station_id":"st_cvj6sg6p6f1abm77japg","pricing_plan_id":"cebpf4jnsgd1na2vs0mg"},{"bike_id":"3f51e03c-3abb-4dde-8cdd-da596aa3252f","system_id":"levelo_inurba_marseille","lat":43.27672,"lon":5.38893,"is_reserved":false,"is_disabled":true,"rental_uris":{"android":"levelo://app?vid=3f51e03c-3abb-4dde-8cdd-da596aa3252f","ios":"levelo://app?vid=3f51e03c-3abb-4dde-8cdd-da596aa3252f"},"vehicle_type_id":"4","last_reported":1758975483,"current_range_meters":9200,"station_id":"ce4bhi12rcd13ifvqfo0","pricing_plan_id":"cebpf4jnsgd1na2vs0mg"},{"bike_id":"a6bb3f7e-1291-473c-8705-9c817f65406c","system_id":"levelo_inurba_marseille","lat":43.21734,"lon":5.34606,"is_reserved":false,"is_disabled":false,"rental_uris":{"android":"levelo://app?vid=a6bb3f7e-1291-473c-8705-9c817f65406c","ios":"levelo://app?vid=a6bb3f7e-1291-473c-8705-9c817f65406c"},"vehicle_type_id":"4","last_reported":1758975483,"current_range_meters":9200,"station_id":"st_cvj6r9ubvosntc0bgbag","pricing_plan_id":"cebpf4jnsgd1na2vs0mg"},{"bike_id":"00dcbd23-ce4d-4704-b4da-fa516528e472","system_id":"levelo_inurba_marseille","lat":43.27563,"lon":5.38412,"is_reserved":false,"is_disabled":false,"rental_uris":{"android":"levelo://app?vid=00dcbd23-ce4d-4704-b4da-fa516528e472","ios":"levelo://app?vid=00dcbd23-ce4d-4704-b4da-fa516528e472"},"vehicle_type_id":"4","last_reported":1758975483,"current_range_meters":8800,"station_id":"ce4bhh92rcd13ifvqfi0","pricing_plan_id":"cebpf4jnsgd1na2vs0mg"},{"bike_id":"fd7db3b2-bf6f-47a6-a193-d9e54fb8924d","system_id":"levelo_inurba_marseille","lat":43.30491,"lon":5.36846,"is_reserved":false,"is_disabled":false,"rental_uris":{"android":"levelo://app?vid=fd7db3b2-bf6f-47a6-a193-d9e54fb8924d","ios":"levelo://app?vid=fd7db3b2-bf6f-47a6-a193-d9e54fb8924d"},"vehicle_type_id":"4","last_reported":1758975483,"current_range_meters":9200,"station_id":"","pricing_plan_id":"cebpf4jnsgd1na2vs0mg"},{"bike_id":"2907de3a-cdb7-4c49-945b-9d4546080cdd","system_id":"levelo_inurba_marseille","lat":43.29464,"lon":5.36221,"is_reserved":false,"is_disabled":false,"rental_uris":{"android":"levelo://app?vid=2907de3a-cdb7-4c49-945b-9d4546080cdd","ios":"levelo://app?vid=2907de3a-cdb7-4c49-945b-9d4546080cdd"},"vehicle_type_id":"4","last_reported":1758975483,"current_range_meters":9200,"station_id":"","pricing_plan_id":"cebpf4jnsgd1na2vs0mg"},{"bike_id":"08fe2b08-b3fa-43f8-ae73-04061f76318d","system_id":"levelo_inurba_marseille","lat":43.305552,"lon":5.365395,"is_reserved":false,"is_disabled":false,"rental_uris":{"android":"levelo://app?vid=08fe2b08-b3fa-43f8-ae73-04061f76318d","ios":"levelo://app?vid=08fe2b08-b3fa-43f8-ae73-04061f76318d"},"vehicle_type_id":"4","last_reported":1758975483,"current_range_meters":9200,"station_id":"","pricing_plan_id":"cebpf4jnsgd1na2vs0mg"},{"bike_id":"69a62fd3-0958-4f3c-b7b8-d7bc800aecff","system_id":"levelo_inurba_marseille","lat":43.21194,"lon":5.35076,"is_reserved":false,"is_disabled":false,"rental_uris":{"android":"levelo://app?vid=69a62fd3-0958-4f3c-b7b8-d7bc800aecff","ios":"levelo://app?vid=69a62fd3-0958-4f3c-b7b8-d7bc800aecff"},"vehicle_type_id":"4","last_reported":1758975483,"current_range_meters":9200,"station_id":"st_cvj6sg6p6f1abm77japg","pricing_plan_id":"cebpf4jnsgd1na2vs0mg"},{"bike_id":"3821ee70-58e2-49c9-ad4a-b6fc5878d12b","system_id":"levelo_inurba_marseille","lat":43.3095,"lon":5.40142,"is_reserved":false,"is_disabled":false,"rental_uris":{"android":"levelo://app?vid=3821ee70-58e2-49c9-ad4a-b6fc5878d12b","ios":"levelo://app?vid=3821ee70-58e2-49c9-ad4a-b6fc5878d12b"},"vehicle_type_id":"4","last_reported":1758975483,"current_range_meters":9600,"station_id":"ce4bgvp2rcd13ifvqct0","pricing_plan_id":"cebpf4jnsgd1na2vs0mg"},{"bike_id":"eeaa18cb-5fe9-4c1f-9753-4cfd440671ff","system_id":"levelo_inurba_marseille","lat":43.22921,"lon":5.35368,"is_reserved":false,"is_disabled":false,"rental_uris":{"android":"levelo://app?vid=eeaa18cb-5fe9-4c1f-9753-4cfd440671ff","ios":"levelo://app?vid=eeaa18cb-5fe9-4c1f-9753-4cfd440671ff"},"vehicle_type_id":"4","last_reported":1758975483,"current_range_meters":9600,"station_id":"cpo3532slgdg3j2ikp40","pricing_plan_id":"cebpf4jnsgd1na2vs0mg"},{"bike_id":"2c38663b-9511-4655-a0b6-899696772a96","system_id":"levelo_inurba_marseille","lat":43.28153,"lon":5.42632,"is_reserved":false,"is_disabled":false,"rental_uris":{"android":"levelo://app?vid=2c38663b-9511-4655-a0b6-899696772a96","ios":"levelo://app?vid=2c38663b-9511-4655-a0b6-899696772a96"},"vehicle_type_id":"4","last_reported":1758975483,"current_range_meters":9600,"station_id":"ce4bhnh2rcd13ifvqgug","pricing_plan_id":"cebpf4jnsgd1na2vs0mg"},{"bike_id":"9a4f92ed-e086-4038-a651-bbe0613f80bd","system_id":"levelo_inurba_marseille","lat":43.22557,"lon":5.41627,"is_reserved":false,"is_disabled":false,"rental_uris":{"android":"levelo://app?vid=9a4f92ed-e086-4038-a651-bbe0613f80bd","ios":"levelo://app?vid=9a4f92ed-e086-4038-a651-bbe0613f80bd"},"vehicle_type_id":"4","last_reported":1758975483,"current_range_meters":9600,"station_id":"st_d2o4gvlbi1j2169b742g","pricing_plan_id":"cebpf4jnsgd1na2vs0mg"},{"bike_id":"5bc54c97-1f07-4788-b787-7a7d9b38626d","system_id":"levelo_inurba_marseille","lat":43.289465,"lon":5.36387,"is_reserved":false,"is_disabled":false,"rental_uris":{"android":"levelo://app?vid=5bc54c97-1f07-4788-b787-7a7d9b38626d","ios":"levelo://app?vid=5bc54c97-1f07-4788-b787-7a7d9b38626d"},"vehicle_type_id":"4","last_reported":1758975483,"current_range_meters":9600,"station_id":"ce4bhc92rcd13ifvqetg","pricing_plan_id":"cebpf4jnsgd1na2vs0mg"},{"bike_id":"02ecd0b2-8f56-495f-b6b9-a80517360e92","system_id":"levelo_inurba_marseille","lat":43.23155,"lon":5.43716,"is_reserved":false,"is_disabled":false,"rental_uris":{"android":"levelo://app?vid=02ecd0b2-8f56-495f-b6b9-a80517360e92","ios":"levelo://app?vid=02ecd0b2-8f56-495f-b6b9-a80517360e92"},"vehicle_type_id":"4","last_reported":1758975483,"current_range_meters":9600,"station_id":"ce4bhmp2rcd13ifvqgog","pricing_plan_id":"cebpf4jnsgd1na2vs0mg"},{"bike_id":"ec074845-4250-4ba3-aa0f-3063fdc2d46a","system_id":"levelo_inurba_marseille","lat":43.29039,"lon":5.38661,"is_reserved":false,"is_disabled":false,"rental_uris":{"android":"levelo://app?vid=ec074845-4250-4ba3-aa0f-3063fdc2d46a","ios":"levelo://app?vid=ec074845-4250-4ba3-aa0f-3063fdc2d46a"},"vehicle_type_id":"4","last_reported":1758975483,"current_range_meters":9600,"station_id":"ce4bh4p2rcd13ifvqe0g","pricing_plan_id":"cebpf4jnsgd1na2vs0mg"},{"bike_id":"a003d88a-3314-4e0d-aadc-063609944f06","system_id":"levelo_inurba_marseille","lat":43.29192,"lon":5.35812,"is_reserved":false,"is_disabled":false,"rental_uris":{"android":"levelo://app?vid=a003d88a-3314-4e0d-aadc-063609944f06","ios":"levelo://app?vid=a003d88a-3314-4e0d-aadc-063609944f06"},"vehicle_type_id":"4","last_reported":1758975483,"current_range_meters":10000,"station_id":"ce4bhb12rcd13ifvqel0","pricing_plan_id":"cebpf4jnsgd1na2vs0mg"},{"bike_id":"5bfdff97-3089-4f1a-acba-1011ce8f0a3a","system_id":"levelo_inurba_marseille","lat":43.24426,"lon":5.38383,"is_reserved":false,"is_disabled":false,"rental_uris":{"android":"levelo://app?vid=5bfdff97-3089-4f1a-acba-1011ce8f0a3a","ios":"levelo://app?vid=5bfdff97-3089-4f1a-acba-1011ce8f0a3a"},"vehicle_type_id":"4","last_reported":1758975483,"current_range_meters":10000,"station_id":"","pricing_plan_id":"cebpf4jnsgd1na2vs0mg"},{"bike_id":"735b4eef-5ed2-47aa-ab59-36616a810357","system_id":"levelo_inurba_marseille","lat":43.27961,"lon":5.39188,"is_reserved":false,"is_disabled":false,"rental_uris":{"android":"levelo://app?vid=735b4eef-5ed2-47aa-ab59-36616a810357","ios":"levelo://app?vid=735b4eef-5ed2-47aa-ab59-36616a810357"},"vehicle_type_id":"4","last_reported":1758975483,"current_range_meters":10000,"station_id":"","pricing_plan_id":"cebpf4jnsgd1na2vs0mg"},{"bike_id":"4317c672-34aa-4087-9312-3474afbe5d76","system_id":"levelo_inurba_marseille","lat":43.26065,"lon":5.39391,"is_reserved":false,"is_disabled":true,"rental_uris":{"android":"levelo://app?vid=4317c672-34aa-4087-9312-3474afbe5d76","ios":"levelo://app?vid=4317c672-34aa-4087-9312-3474afbe5d76"},"vehicle_type_id":"4","last_reported":1758975483,"current_range_meters":10000,"station_id":"ce4bhh92rcd13ifvqfj0","pricing_plan_id":"cebpf4jnsgd1na2vs0mg"},{"bike_id":"cf1f282d-805b-4c96-a87d-dd3a53981f4b","system_id":"levelo_inurba_marseille","lat":43.26216,"lon":5.37436,"is_reserved":false,"is_disabled":false,"rental_uris":{"android":"levelo://app?vid=cf1f282d-805b-4c96-a87d-dd3a53981f4b","ios":"levelo://app?vid=cf1f282d-805b-4c96-a87d-dd3a53981f4b"},"vehicle_type_id":"4","last_reported":1758975483,"current_range_meters":10000,"station_id":"ce4bhgp2rcd13ifvqfc0","pricing_plan_id":"cebpf4jnsgd1na2vs0mg"},{"bike_id":"abc0c5da-fd67-4ab4-af2c-b527786fef98","system_id":"levelo_inurba_marseille","lat":43.28008,"lon":5.40009,"is_reserved":false,"is_disabled":false,"rental_uris":{"android":"levelo://app?vid=abc0c5da-fd67-4ab4-af2c-b527786fef98","ios":"levelo://app?vid=abc0c5da-fd67-4ab4-af2c-b527786fef98"},"vehicle_type_id":"4","last_reported":1758975483,"current_range_meters":10000,"station_id":"ce4bho92rcd13ifvqh4g","pricing_plan_id":"cebpf4jnsgd1na2vs0mg"},{"bike_id":"1972a84c-d8ae-4841-87ef-5b75b7b71231","system_id":"levelo_inurba_marseille","lat":43.23143,"lon":5.43684,"is_reserved":false,"is_disabled":false,"rental_uris":{"android":"levelo://app?vid=1972a84c-d8ae-4841-87ef-5b75b7b71231","ios":"levelo://app?vid=1972a84c-d8ae-4841-87ef-5b75b7b71231"},"vehicle_type_id":"4","last_reported":1758975483,"current_range_meters":10000,"station_id":"ce4bhmp2rcd13ifvqgog","pricing_plan_id":"cebpf4jnsgd1na2vs0mg"},{"bike_id":"e5b4c948-95f1-4aa8-870d-41897153487c","system_id":"levelo_inurba_marseille","lat":43.28098,"lon":5.37831,"is_reserved":false,"is_disabled":false,"rental_uris":{"android":"levelo://app?vid=e5b4c948-95f1-4aa8-870d-41897153487c","ios":"levelo://app?vid=e5b4c948-95f1-4aa8-870d-41897153487c"},"vehicle_type_id":"4","last_reported":1758975483,"current_range_meters":9600,"station_id":"ce4bha12rcd13ifvqee0","pricing_plan_id":"cebpf4jnsgd1na2vs0mg"},{"bike_id":"fee74e98-eb52-4f66-a612-109c75f34aa6","system_id":"levelo_inurba_marseille","lat":43.296216,"lon":5.379492,"is_reserved":false,"is_disabled":false,"rental_uris":{"android":"levelo://app?vid=fee74e98-eb52-4f66-a612-109c75f34aa6","ios":"levelo://app?vid=fee74e98-eb52-4f66-a612-109c75f34aa6"},"vehicle_type_id":"4","last_reported":1758975483,"current_range_meters":10000,"station_id":"","pricing_plan_id":"cebpf4jnsgd1na2vs0mg"},{"bike_id":"0b2fda4e-ac18-414b-8b05-54fcdd4fc421","system_id":"levelo_inurba_marseille","lat":43.32297,"lon":5.38263,"is_reserved":false,"is_disabled":false,"rental_uris":{"android":"levelo://app?vid=0b2fda4e-ac18-414b-8b05-54fcdd4fc421","ios":"levelo://app?vid=0b2fda4e-ac18-414b-8b05-54fcdd4fc421"},"vehicle_type_id":"4","last_reported":1758975483,"current_range_meters":10000,"station_id":"ce4bhr12rcd13ifvqhqg","pricing_plan_id":"cebpf4jnsgd1na2vs0mg"},{"bike_id":"e37c45e0-d025-4820-8730-0157e086be31","system_id":"levelo_inurba_marseille","lat":43.30998,"lon":5.40172,"is_reserved":false,"is_disabled":false,"rental_uris":{"android":"levelo://app?vid=e37c45e0-d025-4820-8730-0157e086be31","ios":"levelo://app?vid=e37c45e0-d025-4820-8730-0157e086be31"},"vehicle_type_id":"4","last_reported":1758975483,"current_range_meters":10000,"station_id":"ce4bgvp2rcd13ifvqct0","pricing_plan_id":"cebpf4jnsgd1na2vs0mg"},{"bike_id":"406c711c-3436-4e9b-b889-d0010ac7ea4a","system_id":"levelo_inurba_marseille","lat":43.24388,"lon":5.37045,"is_reserved":false,"is_disabled":false,"rental_uris":{"android":"levelo://app?vid=406c711c-3436-4e9b-b889-d0010ac7ea4a","ios":"levelo://app?vid=406c711c-3436-4e9b-b889-d0010ac7ea4a"},"vehicle_type_id":"4","last_reported":1758975483,"current_range_meters":10800,"station_id":"ce4bhhh2rcd13ifvqfk0","pricing_plan_id":"cebpf4jnsgd1na2vs0mg"},{"bike_id":"c1747171-ed58-4ea7-a8aa-16715806e3bf","system_id":"levelo_inurba_marseille","lat":43.282684,"lon":5.350607,"is_reserved":false,"is_disabled":false,"rental_uris":{"android":"levelo://app?vid=c1747171-ed58-4ea7-a8aa-16715806e3bf","ios":"levelo://app?vid=c1747171-ed58-4ea7-a8aa-16715806e3bf"},"vehicle_type_id":"4","last_reported":1758975483,"current_range_meters":10800,"station_id":"ce4bhbp2rcd13ifvqerg","pricing_plan_id":"cebpf4jnsgd1na2vs0mg"},{"bike_id":"e859f195-91c9-40fb-bd28-3162ef2c8b5c","system_id":"levelo_inurba_marseille","lat":43.301518,"lon":5.380829,"is_reserved":false,"is_disabled":false,"rental_uris":{"android":"levelo://app?vid=e859f195-91c9-40fb-bd28-3162ef2c8b5c","ios":"levelo://app?vid=e859f195-91c9-40fb-bd28-3162ef2c8b5c"},"vehicle_type_id":"4","last_reported":1758975483,"current_range_meters":10800,"station_id":"ce4bh0h2rcd13ifvqd50","pricing_plan_id":"cebpf4jnsgd1na2vs0mg"},{"bike_id":"11457b1b-7011-4ce4-a8af-6c95773ee0ac","system_id":"levelo_inurba_marseille","lat":43.24169,"lon":5.36395,"is_reserved":false,"is_disabled":false,"rental_uris":{"android":"levelo://app?vid=11457b1b-7011-4ce4-a8af-6c95773ee0ac","ios":"levelo://app?vid=11457b1b-7011-4ce4-a8af-6c95773ee0ac"},"vehicle_type_id":"4","last_reported":1758975483,"current_range_meters":10800,"station_id":"cpo36qri1sfpv3e86is0","pricing_plan_id":"cebpf4jnsgd1na2vs0mg"},{"bike_id":"6c00a6a0-3cf0-48a9-b218-0693fab11be9","system_id":"levelo_inurba_marseille","lat":43.30297,"lon":5.43516,"is_reserved":false,"is_disabled":false,"rental_uris":{"android":"levelo://app?vid=6c00a6a0-3cf0-48a9-b218-0693fab11be9","ios":"levelo://app?vid=6c00a6a0-3cf0-48a9-b218-0693fab11be9"},"vehicle_type_id":"4","last_reported":1758975483,"current_range_meters":10800,"station_id":"","pricing_plan_id":"cebpf4jnsgd1na2vs0mg"},{"bike_id":"2c9a16d8-7e00-49be-86b4-d1868b062e18","system_id":"levelo_inurba_marseille","lat":43.308015,"lon":5.381634,"is_reserved":false,"is_disabled":false,"rental_uris":{"android":"levelo://app?vid=2c9a16d8-7e00-49be-86b4-d1868b062e18","ios":"levelo://app?vid=2c9a16d8-7e00-49be-86b4-d1868b062e18"},"vehicle_type_id":"4","last_reported":1758975483,"current_range_meters":10800,"station_id":"ce4bgt12rcd13ifvqce0","pricing_plan_id":"cebpf4jnsgd1na2vs0mg"},{"bike_id":"5f20a66d-3b6e-4123-bd6f-eb1c1a31c815","system_id":"levelo_inurba_marseille","lat":43.299411,"lon":5.385201,"is_reserved":false,"is_disabled":false,"rental_uris":{"android":"levelo://app?vid=5f20a66d-3b6e-4123-bd6f-eb1c1a31c815","ios":"levelo://app?vid=5f20a66d-3b6e-4123-bd6f-eb1c1a31c815"},"vehicle_type_id":"4","last_reported":1758975483,"current_range_meters":10800,"station_id":"","pricing_plan_id":"cebpf4jnsgd1na2vs0mg"},{"bike_id":"5415beab-20cd-49aa-8ffc-7d9f380d55eb","system_id":"levelo_inurba_marseille","lat":43.28001,"lon":5.41662,"is_reserved":false,"is_disabled":false,"rental_uris":{"android":"levelo://app?vid=5415beab-20cd-49aa-8ffc-7d9f380d55eb","ios":"levelo://app?vid=5415beab-20cd-49aa-8ffc-7d9f380d55eb"},"vehicle_type_id":"4","last_reported":1758975483,"current_range_meters":10000,"station_id":"ce4bho12rcd13ifvqh1g","pricing_plan_id":"cebpf4jnsgd1na2vs0mg"},{"bike_id":"15ddde4f-188d-4839-818b-0838e76ff13f","system_id":"levelo_inurba_marseille","lat":43.22937,"lon":5.35378,"is_reserved":false,"is_disabled":false,"rental_uris":{"android":"levelo://app?vid=15ddde4f-188d-4839-818b-0838e76ff13f","ios":"levelo://app?vid=15ddde4f-188d-4839-818b-0838e76ff13f"},"vehicle_type_id":"4","last_reported":1758975483,"current_range_meters":10800,"station_id":"cpo3532slgdg3j2ikp40","pricing_plan_id":"cebpf4jnsgd1na2vs0mg"},{"bike_id":"b28678c7-cc53-45ae-b2eb-a07af1f3482a","system_id":"levelo_inurba_marseille","lat":43.21726,"lon":5.34616,"is_reserved":false,"is_disabled":false,"rental_uris":{"android":"levelo://app?vid=b28678c7-cc53-45ae-b2eb-a07af1f3482a","ios":"levelo://app?vid=b28678c7-cc53-45ae-b2eb-a07af1f3482a"},"vehicle_type_id":"4","last_reported":1758975483,"current_range_meters":10800,"station_id":"","pricing_plan_id":"cebpf4jnsgd1na2vs0mg"},{"bike_id":"ab915236-e4e0-43d4-b3d0-7dc20b4ec838","system_id":"levelo_inurba_marseille","lat":43.31334,"lon":5.36716,"is_reserved":false,"is_disabled":false,"rental_uris":{"android":"levelo://app?vid=ab915236-e4e0-43d4-b3d0-7dc20b4ec838","ios":"levelo://app?vid=ab915236-e4e0-43d4-b3d0-7dc20b4ec838"},"vehicle_type_id":"4","last_reported":1758975483,"current_range_meters":10800,"station_id":"ce4bgr92rcd13ifvqc6g","pricing_plan_id":"cebpf4jnsgd1na2vs0mg"},{"bike_id":"efab0968-5965-434b-85b4-c2a31b2d078e","system_id":"levelo_inurba_marseille","lat":43.297791,"lon":5.371059,"is_reserved":false,"is_disabled":false,"rental_uris":{"android":"levelo://app?vid=efab0968-5965-434b-85b4-c2a31b2d078e","ios":"levelo://app?vid=efab0968-5965-434b-85b4-c2a31b2d078e"},"vehicle_type_id":"4","last_reported":1758975483,"current_range_meters":10800,"station_id":"ce4bgop2rcd13ifvqc1g","pricing_plan_id":"cebpf4jnsgd1na2vs0mg"},{"bike_id":"a6187c30-1c11-4309-be70-335b3ca8c646","system_id":"levelo_inurba_marseille","lat":43.21193,"lon":5.35077,"is_reserved":false,"is_disabled":false,"rental_uris":{"android":"levelo://app?vid=a6187c30-1c11-4309-be70-335b3ca8c646","ios":"levelo://app?vid=a6187c30-1c11-4309-be70-335b3ca8c646"},"vehicle_type_id":"4","last_reported":1758975483,"current_range_meters":11200,"station_id":"","pricing_plan_id":"cebpf4jnsgd1na2vs0mg"},{"bike_id":"a0160576-cd5d-4356-813b-2c6f0bc9ebb8","system_id":"levelo_inurba_marseille","lat":43.28717,"lon":5.3611,"is_reserved":false,"is_disabled":false,"rental_uris":{"android":"levelo://app?vid=a0160576-cd5d-4356-813b-2c6f0bc9ebb8","ios":"levelo://app?vid=a0160576-cd5d-4356-813b-2c6f0bc9ebb8"},"vehicle_type_id":"4","last_reported":1758975483,"current_range_meters":10800,"station_id":"cki0cbj6b192h4jlfktg","pricing_plan_id":"cebpf4jnsgd1na2vs0mg"},{"bike_id":"fd4b5ad5-2581-44dd-90b2-f4a8fbdc2423","system_id":"levelo_inurba_marseille","lat":43.299011,"lon":5.364989,"is_reserved":false,"is_disabled":false,"rental_uris":{"android":"levelo://app?vid=fd4b5ad5-2581-44dd-90b2-f4a8fbdc2423","ios":"levelo://app?vid=fd4b5ad5-2581-44dd-90b2-f4a8fbdc2423"},"vehicle_type_id":"4","last_reported":1758975483,"current_range_meters":11200,"station_id":"","pricing_plan_id":"cebpf4jnsgd1na2vs0mg"},{"bike_id":"c4f1abaf-e783-4255-b740-31e49f59a3ed","system_id":"levelo_inurba_marseille","lat":43.30559,"lon":5.36524,"is_reserved":false,"is_disabled":false,"rental_uris":{"android":"levelo://app?vid=c4f1abaf-e783-4255-b740-31e49f59a3ed","ios":"levelo://app?vid=c4f1abaf-e783-4255-b740-31e49f59a3ed"},"vehicle_type_id":"4","last_reported":1758975483,"current_range_meters":11200,"station_id":"ce4bgs12rcd13ifvqcag","pricing_plan_id":"cebpf4jnsgd1na2vs0mg"},{"bike_id":"2a416e7a-1803-402e-9523-74bfe690bd54","system_id":"levelo_inurba_marseille","lat":43.32365,"lon":5.36767,"is_reserved":false,"is_disabled":false,"rental_uris":{"android":"levelo://app?vid=2a416e7a-1803-402e-9523-74bfe690bd54","ios":"levelo://app?vid=2a416e7a-1803-402e-9523-74bfe690bd54"},"vehicle_type_id":"4","last_reported":1758975483,"current_range_meters":11200,"station_id":"ce4bhsh2rcd13ifvqi2g","pricing_plan_id":"cebpf4jnsgd1na2vs0mg"},{"bike_id":"63d52c35-c9c9-44eb-9780-1b2f9145123b","system_id":"levelo_inurba_marseille","lat":43.29627,"lon":5.377037,"is_reserved":false,"is_disabled":false,"rental_uris":{"android":"levelo://app?vid=63d52c35-c9c9-44eb-9780-1b2f9145123b","ios":"levelo://app?vid=63d52c35-c9c9-44eb-9780-1b2f9145123b"},"vehicle_type_id":"4","last_reported":1758975483,"current_range_meters":11600,"station_id":"","pricing_plan_id":"cebpf4jnsgd1na2vs0mg"},{"bike_id":"9bb4db31-0bf9-4171-bca1-76cb045f53a3","system_id":"levelo_inurba_marseille","lat":43.26924,"lon":5.389081,"is_reserved":false,"is_disabled":false,"rental_uris":{"android":"levelo://app?vid=9bb4db31-0bf9-4171-bca1-76cb045f53a3","ios":"levelo://app?vid=9bb4db31-0bf9-4171-bca1-76cb045f53a3"},"vehicle_type_id":"4","last_reported":1758975483,"current_range_meters":11600,"station_id":"ce4bhhh2rcd13ifvqfl0","pricing_plan_id":"cebpf4jnsgd1na2vs0mg"},{"bike_id":"01bf55f2-4ac6-46f6-8504-3267bf31e1a6","system_id":"levelo_inurba_marseille","lat":43.2973,"lon":5.381787,"is_reserved":false,"is_disabled":false,"rental_uris":{"android":"levelo://app?vid=01bf55f2-4ac6-46f6-8504-3267bf31e1a6","ios":"levelo://app?vid=01bf55f2-4ac6-46f6-8504-3267bf31e1a6"},"vehicle_type_id":"4","last_reported":1758975483,"current_range_meters":11600,"station_id":"","pricing_plan_id":"cebpf4jnsgd1na2vs0mg"},{"bike_id":"b12bf4c8-499a-4a63-aa8f-f0a0bdbba76e","system_id":"levelo_inurba_marseille","lat":43.26209,"lon":5.37916,"is_reserved":false,"is_disabled":false,"rental_uris":{"android":"levelo://app?vid=b12bf4c8-499a-4a63-aa8f-f0a0bdbba76e","ios":"levelo://app?vid=b12bf4c8-499a-4a63-aa8f-f0a0bdbba76e"},"vehicle_type_id":"4","last_reported":1758975483,"current_range_meters":11600,"station_id":"ce4bhjp2rcd13ifvqg90","pricing_plan_id":"cebpf4jnsgd1na2vs0mg"},{"bike_id":"ec348589-ff91-45a4-84f8-96a0dc2abb69","system_id":"levelo_inurba_marseille","lat":43.32736,"lon":5.39253,"is_reserved":false,"is_disabled":false,"rental_uris":{"android":"levelo://app?vid=ec348589-ff91-45a4-84f8-96a0dc2abb69","ios":"levelo://app?vid=ec348589-ff91-45a4-84f8-96a0dc2abb69"},"vehicle_type_id":"4","last_reported":1758975483,"current_range_meters":11600,"station_id":"","pricing_plan_id":"cebpf4jnsgd1na2vs0mg"},{"bike_id":"cd52d724-6e36-4c8e-9efa-f35ff15b1a8b","system_id":"levelo_inurba_marseille","lat":43.31717,"lon":5.42397,"is_reserved":false,"is_disabled":false,"rental_uris":{"android":"levelo://app?vid=cd52d724-6e36-4c8e-9efa-f35ff15b1a8b","ios":"levelo://app?vid=cd52d724-6e36-4c8e-9efa-f35ff15b1a8b"},"vehicle_type_id":"4","last_reported":1758975483,"current_range_meters":11600,"station_id":"ce4bhp92rcd13ifvqhbg","pricing_plan_id":"cebpf4jnsgd1na2vs0mg"},{"bike_id":"42ca528a-85fa-475a-abe7-3eacedb896a7","system_id":"levelo_inurba_marseille","lat":43.27086,"lon":5.40239,"is_reserved":false,"is_disabled":false,"rental_uris":{"android":"levelo://app?vid=42ca528a-85fa-475a-abe7-3eacedb896a7","ios":"levelo://app?vid=42ca528a-85fa-475a-abe7-3eacedb896a7"},"vehicle_type_id":"4","last_reported":1758975483,"current_range_meters":12000,"station_id":"ce4bhk92rcd13ifvqgc0","pricing_plan_id":"cebpf4jnsgd1na2vs0mg"},{"bike_id":"f994e9ac-cad3-4ca1-ad2b-af49a93bb968","system_id":"levelo_inurba_marseille","lat":43.24996,"lon":5.38929,"is_reserved":false,"is_disabled":false,"rental_uris":{"android":"levelo://app?vid=f994e9ac-cad3-4ca1-ad2b-af49a93bb968","ios":"levelo://app?vid=f994e9ac-cad3-4ca1-ad2b-af49a93bb968"},"vehicle_type_id":"4","last_reported":1758975483,"current_range_meters":12000,"station_id":"ce4bhgp2rcd13ifvqfd0","pricing_plan_id":"cebpf4jnsgd1na2vs0mg"},{"bike_id":"0725469e-ab3e-45f9-98fe-b89f6d9f6262","system_id":"levelo_inurba_marseille","lat":43.26196,"lon":5.37916,"is_reserved":false,"is_disabled":false,"rental_uris":{"android":"levelo://app?vid=0725469e-ab3e-45f9-98fe-b89f6d9f6262","ios":"levelo://app?vid=0725469e-ab3e-45f9-98fe-b89f6d9f6262"},"vehicle_type_id":"4","last_reported":1758975483,"current_range_meters":12000,"station_id":"ce4bhjp2rcd13ifvqg90","pricing_plan_id":"cebpf4jnsgd1na2vs0mg"},{"bike_id":"80322c63-2a63-46cc-ad11-84b6ea180068","system_id":"levelo_inurba_marseille","lat":43.32045,"lon":5.41574,"is_reserved":false,"is_disabled":false,"rental_uris":{"android":"levelo://app?vid=80322c63-2a63-46cc-ad11-84b6ea180068","ios":"levelo://app?vid=80322c63-2a63-46cc-ad11-84b6ea180068"},"vehicle_type_id":"4","last_reported":1758975483,"current_range_meters":12000,"station_id":"ce4bhq92rcd13ifvqhkg","pricing_plan_id":"cebpf4jnsgd1na2vs0mg"},{"bike_id":"ea3f9388-b348-45b7-9eaf-d4689abe24fc","system_id":"levelo_inurba_marseille","lat":43.29877,"lon":5.38905,"is_reserved":false,"is_disabled":false,"rental_uris":{"android":"levelo://app?vid=ea3f9388-b348-45b7-9eaf-d4689abe24fc","ios":"levelo://app?vid=ea3f9388-b348-45b7-9eaf-d4689abe24fc"},"vehicle_type_id":"4","last_reported":1758975483,"current_range_meters":12400,"station_id":"ce4bh392rcd13ifvqdl0","pricing_plan_id":"cebpf4jnsgd1na2vs0mg"},{"bike_id":"26293089-e827-4a91-b336-c1833ecbc843","system_id":"levelo_inurba_marseille","lat":43.21754,"lon":5.34601,"is_reserved":false,"is_disabled":false,"rental_uris":{"android":"levelo://app?vid=26293089-e827-4a91-b336-c1833ecbc843","ios":"levelo://app?vid=26293089-e827-4a91-b336-c1833ecbc843"},"vehicle_type_id":"4","last_reported":1758975483,"current_range_meters":12400,"station_id":"st_cvj6r9ubvosntc0bgbag","pricing_plan_id":"cebpf4jnsgd1na2vs0mg"},{"bike_id":"10aaa4bd-7b69-46e5-9c91-cc8ea0d3aac7","system_id":"levelo_inurba_marseille","lat":43.21191,"lon":5.35079,"is_reserved":false,"is_disabled":false,"rental_uris":{"android":"levelo://app?vid=10aaa4bd-7b69-46e5-9c91-cc8ea0d3aac7","ios":"levelo://app?vid=10aaa4bd-7b69-46e5-9c91-cc8ea0d3aac7"},"vehicle_type_id":"4","last_reported":1758975483,"current_range_meters":12400,"station_id":"st_cvj6sg6p6f1abm77japg","pricing_plan_id":"cebpf4jnsgd1na2vs0mg"},{"bike_id":"1c14f608-9eb0-4b58-8221-e6e5ed28265b","system_id":"levelo_inurba_marseille","lat":43.244,"lon":5.37055,"is_reserved":false,"is_disabled":false,"rental_uris":{"android":"levelo://app?vid=1c14f608-9eb0-4b58-8221-e6e5ed28265b","ios":"levelo://app?vid=1c14f608-9eb0-4b58-8221-e6e5ed28265b"},"vehicle_type_id":"4","last_reported":1758975483,"current_range_meters":12400,"station_id":"ce4bhhh2rcd13ifvqfk0","pricing_plan_id":"cebpf4jnsgd1na2vs0mg"},{"bike_id":"80bdba63-46f3-4274-b0d9-d9711409b6a8","system_id":"levelo_inurba_marseille","lat":43.270752,"lon":5.402497,"is_reserved":false,"is_disabled":false,"rental_uris":{"android":"levelo://app?vid=80bdba63-46f3-4274-b0d9-d9711409b6a8","ios":"levelo://app?vid=80bdba63-46f3-4274-b0d9-d9711409b6a8"},"vehicle_type_id":"4","last_reported":1758975483,"current_range_meters":12400,"station_id":"","pricing_plan_id":"cebpf4jnsgd1na2vs0mg"},{"bike_id":"78664c85-f73a-4eb5-9ecf-facdd4fa05c6","system_id":"levelo_inurba_marseille","lat":43.25514,"lon":5.37656,"is_reserved":false,"is_disabled":false,"rental_uris":{"android":"levelo://app?vid=78664c85-f73a-4eb5-9ecf-facdd4fa05c6","ios":"levelo://app?vid=78664c85-f73a-4eb5-9ecf-facdd4fa05c6"},"vehicle_type_id":"4","last_reported":1758975483,"current_range_meters":12400,"station_id":"ce4bhh12rcd13ifvqff0","pricing_plan_id":"cebpf4jnsgd1na2vs0mg"},{"bike_id":"934ea1ec-b7f6-49a1-9efa-287317d4eb22","system_id":"levelo_inurba_marseille","lat":43.29048,"lon":5.35914,"is_reserved":false,"is_disabled":false,"rental_uris":{"android":"levelo://app?vid=934ea1ec-b7f6-49a1-9efa-287317d4eb22","ios":"levelo://app?vid=934ea1ec-b7f6-49a1-9efa-287317d4eb22"},"vehicle_type_id":"4","last_reported":1758975483,"current_range_meters":12800,"station_id":"","pricing_plan_id":"cebpf4jnsgd1na2vs0mg"},{"bike_id":"10214b51-40da-4f32-b4d7-c6e7f4b2f81a","system_id":"levelo_inurba_marseille","lat":43.21745,"lon":5.34604,"is_reserved":false,"is_disabled":false,"rental_uris":{"android":"levelo://app?vid=10214b51-40da-4f32-b4d7-c6e7f4b2f81a","ios":"levelo://app?vid=10214b51-40da-4f32-b4d7-c6e7f4b2f81a"},"vehicle_type_id":"4","last_reported":1758975483,"current_range_meters":12800,"station_id":"st_cvj6r9ubvosntc0bgbag","pricing_plan_id":"cebpf4jnsgd1na2vs0mg"},{"bike_id":"1fdc947b-8555-4dcd-864a-7b77632ad027","system_id":"levelo_inurba_marseille","lat":43.27921,"lon":5.39577,"is_reserved":false,"is_disabled":false,"rental_uris":{"android":"levelo://app?vid=1fdc947b-8555-4dcd-864a-7b77632ad027","ios":"levelo://app?vid=1fdc947b-8555-4dcd-864a-7b77632ad027"},"vehicle_type_id":"4","last_reported":1758975483,"current_range_meters":12800,"station_id":"ce4bhf92rcd13ifvqf40","pricing_plan_id":"cebpf4jnsgd1na2vs0mg"},{"bike_id":"052c59a7-1cc4-4bbc-97f5-180981a63118","system_id":"levelo_inurba_marseille","lat":43.24638,"lon":5.43142,"is_reserved":false,"is_disabled":false,"rental_uris":{"android":"levelo://app?vid=052c59a7-1cc4-4bbc-97f5-180981a63118","ios":"levelo://app?vid=052c59a7-1cc4-4bbc-97f5-180981a63118"},"vehicle_type_id":"4","last_reported":1758975483,"current_range_meters":12800,"station_id":"st_d2m6c4gdas8pm72e190g","pricing_plan_id":"cebpf4jnsgd1na2vs0mg"},{"bike_id":"d7720e15-3e8d-4ddf-bc70-8dce8a1e1d42","system_id":"levelo_inurba_marseille","lat":43.231932,"lon":5.355494,"is_reserved":false,"is_disabled":false,"rental_uris":{"android":"levelo://app?vid=d7720e15-3e8d-4ddf-bc70-8dce8a1e1d42","ios":"levelo://app?vid=d7720e15-3e8d-4ddf-bc70-8dce8a1e1d42"},"vehicle_type_id":"4","last_reported":1758975483,"current_range_meters":12800,"station_id":"ce4bhu92rcd13ifvqi70","pricing_plan_id":"cebpf4jnsgd1na2vs0mg"},{"bike_id":"5027d9ac-f6d8-49c5-a080-1aad280b9259","system_id":"levelo_inurba_marseille","lat":43.26209,"lon":5.374406,"is_reserved":false,"is_disabled":false,"rental_uris":{"android":"levelo://app?vid=5027d9ac-f6d8-49c5-a080-1aad280b9259","ios":"levelo://app?vid=5027d9ac-f6d8-49c5-a080-1aad280b9259"},"vehicle_type_id":"4","last_reported":1758975483,"current_range_meters":13600,"station_id":"ce4bhgp2rcd13ifvqfc0","pricing_plan_id":"cebpf4jnsgd1na2vs0mg"},{"bike_id":"7ee025ab-b4de-4381-9a7e-c68797829129","system_id":"levelo_inurba_marseille","lat":43.28936,"lon":5.36635,"is_reserved":false,"is_disabled":false,"rental_uris":{"android":"levelo://app?vid=7ee025ab-b4de-4381-9a7e-c68797829129","ios":"levelo://app?vid=7ee025ab-b4de-4381-9a7e-c68797829129"},"vehicle_type_id":"4","last_reported":1758975483,"current_range_meters":13600,"station_id":"ce4bhap2rcd13ifvqek0","pricing_plan_id":"cebpf4jnsgd1na2vs0mg"},{"bike_id":"9de5eb4a-2bba-4d94-b5d2-50807c7d8cc2","system_id":"levelo_inurba_marseille","lat":43.22534,"lon":5.34839,"is_reserved":false,"is_disabled":false,"rental_uris":{"android":"levelo://app?vid=9de5eb4a-2bba-4d94-b5d2-50807c7d8cc2","ios":"levelo://app?vid=9de5eb4a-2bba-4d94-b5d2-50807c7d8cc2"},"vehicle_type_id":"4","last_reported":1758975483,"current_range_meters":13600,"station_id":"","pricing_plan_id":"cebpf4jnsgd1na2vs0mg"},{"bike_id":"5bb42022-0e19-48bc-a5b4-218bb1d7482e","system_id":"levelo_inurba_marseille","lat":43.31207,"lon":5.37823,"is_reserved":false,"is_disabled":false,"rental_uris":{"android":"levelo://app?vid=5bb42022-0e19-48bc-a5b4-218bb1d7482e","ios":"levelo://app?vid=5bb42022-0e19-48bc-a5b4-218bb1d7482e"},"vehicle_type_id":"4","last_reported":1758975483,"current_range_meters":13600,"station_id":"","pricing_plan_id":"cebpf4jnsgd1na2vs0mg"},{"bike_id":"d63b8f85-7ec0-4464-ba17-dbdff95d3141","system_id":"levelo_inurba_marseille","lat":43.24958,"lon":5.40508,"is_reserved":false,"is_disabled":false,"rental_uris":{"android":"levelo://app?vid=d63b8f85-7ec0-4464-ba17-dbdff95d3141","ios":"levelo://app?vid=d63b8f85-7ec0-4464-ba17-dbdff95d3141"},"vehicle_type_id":"4","last_reported":1758975483,"current_range_meters":13600,"station_id":"st_d2ngiaodas8pm72gd1h0","pricing_plan_id":"cebpf4jnsgd1na2vs0mg"},{"bike_id":"e5593c50-4391-499b-b0cf-c7dbd31cb32d","system_id":"levelo_inurba_marseille","lat":43.26208,"lon":5.37933,"is_reserved":false,"is_disabled":false,"rental_uris":{"android":"levelo://app?vid=e5593c50-4391-499b-b0cf-c7dbd31cb32d","ios":"levelo://app?vid=e5593c50-4391-499b-b0cf-c7dbd31cb32d"},"vehicle_type_id":"4","last_reported":1758975483,"current_range_meters":13600,"station_id":"ce4bhjp2rcd13ifvqg90","pricing_plan_id":"cebpf4jnsgd1na2vs0mg"},{"bike_id":"03350417-1098-4d6c-b8fe-9e64358744bf","system_id":"levelo_inurba_marseille","lat":43.31076,"lon":5.37589,"is_reserved":false,"is_disabled":false,"rental_uris":{"android":"levelo://app?vid=03350417-1098-4d6c-b8fe-9e64358744bf","ios":"levelo://app?vid=03350417-1098-4d6c-b8fe-9e64358744bf"},"vehicle_type_id":"4","last_reported":1758975483,"current_range_meters":13600,"station_id":"","pricing_plan_id":"cebpf4jnsgd1na2vs0mg"},{"bike_id":"a31a235a-ab4a-49bb-a1c3-fbe7f95a0cf7","system_id":"levelo_inurba_marseille","lat":43.30605,"lon":5.37231,"is_reserved":false,"is_disabled":false,"rental_uris":{"android":"levelo://app?vid=a31a235a-ab4a-49bb-a1c3-fbe7f95a0cf7","ios":"levelo://app?vid=a31a235a-ab4a-49bb-a1c3-fbe7f95a0cf7"},"vehicle_type_id":"4","last_reported":1758975483,"current_range_meters":14000,"station_id":"ce4bgqh2rcd13ifvqc4g","pricing_plan_id":"cebpf4jnsgd1na2vs0mg"},{"bike_id":"e57bad28-f358-4f60-8fc1-1c0f072c7016","system_id":"levelo_inurba_marseille","lat":43.24408,"lon":5.37052,"is_reserved":false,"is_disabled":false,"rental_uris":{"android":"levelo://app?vid=e57bad28-f358-4f60-8fc1-1c0f072c7016","ios":"levelo://app?vid=e57bad28-f358-4f60-8fc1-1c0f072c7016"},"vehicle_type_id":"4","last_reported":1758975483,"current_range_meters":14000,"station_id":"ce4bhhh2rcd13ifvqfk0","pricing_plan_id":"cebpf4jnsgd1na2vs0mg"},{"bike_id":"5f57e231-acdd-4e4e-b64a-cfc57bb81caf","system_id":"levelo_inurba_marseille","lat":43.30497,"lon":5.36544,"is_reserved":false,"is_disabled":false,"rental_uris":{"android":"levelo://app?vid=5f57e231-acdd-4e4e-b64a-cfc57bb81caf","ios":"levelo://app?vid=5f57e231-acdd-4e4e-b64a-cfc57bb81caf"},"vehicle_type_id":"4","last_reported":1758975483,"current_range_meters":14000,"station_id":"","pricing_plan_id":"cebpf4jnsgd1na2vs0mg"},{"bike_id":"46ac5fb6-ac2e-43e8-84c9-c4e46889ea29","system_id":"levelo_inurba_marseille","lat":43.21205,"lon":5.35065,"is_reserved":false,"is_disabled":false,"rental_uris":{"android":"levelo://app?vid=46ac5fb6-ac2e-43e8-84c9-c4e46889ea29","ios":"levelo://app?vid=46ac5fb6-ac2e-43e8-84c9-c4e46889ea29"},"vehicle_type_id":"4","last_reported":1758975483,"current_range_meters":14000,"station_id":"st_cvj6sg6p6f1abm77japg","pricing_plan_id":"cebpf4jnsgd1na2vs0mg"},{"bike_id":"1647b3a5-76b9-457d-a188-1d8e95af14cc","system_id":"levelo_inurba_marseille","lat":43.21743,"lon":5.34601,"is_reserved":false,"is_disabled":false,"rental_uris":{"android":"levelo://app?vid=1647b3a5-76b9-457d-a188-1d8e95af14cc","ios":"levelo://app?vid=1647b3a5-76b9-457d-a188-1d8e95af14cc"},"vehicle_type_id":"4","last_reported":1758975483,"current_range_meters":14000,"station_id":"","pricing_plan_id":"cebpf4jnsgd1na2vs0mg"},{"bike_id":"a79771f7-9547-42c9-9edd-e8630ba14d95","system_id":"levelo_inurba_marseille","lat":43.23197,"lon":5.35554,"is_reserved":false,"is_disabled":false,"rental_uris":{"android":"levelo://app?vid=a79771f7-9547-42c9-9edd-e8630ba14d95","ios":"levelo://app?vid=a79771f7-9547-42c9-9edd-e8630ba14d95"},"vehicle_type_id":"4","last_reported":1758975483,"current_range_meters":14000,"station_id":"ce4bhu92rcd13ifvqi70","pricing_plan_id":"cebpf4jnsgd1na2vs0mg"},{"bike_id":"367cc5de-fbd0-47d1-8fa2-cb83d9fcf585","system_id":"levelo_inurba_marseille","lat":43.258307,"lon":5.394343,"is_reserved":false,"is_disabled":false,"rental_uris":{"android":"levelo://app?vid=367cc5de-fbd0-47d1-8fa2-cb83d9fcf585","ios":"levelo://app?vid=367cc5de-fbd0-47d1-8fa2-cb83d9fcf585"},"vehicle_type_id":"4","last_reported":1758975483,"current_range_meters":14000,"station_id":"ce4bhip2rcd13ifvqft0","pricing_plan_id":"cebpf4jnsgd1na2vs0mg"},{"bike_id":"dc1c2be6-b5d2-4474-8637-e5be8fc45940","system_id":"levelo_inurba_marseille","lat":43.24388,"lon":5.37055,"is_reserved":false,"is_disabled":false,"rental_uris":{"android":"levelo://app?vid=dc1c2be6-b5d2-4474-8637-e5be8fc45940","ios":"levelo://app?vid=dc1c2be6-b5d2-4474-8637-e5be8fc45940"},"vehicle_type_id":"4","last_reported":1758975483,"current_range_meters":14000,"station_id":"ce4bhhh2rcd13ifvqfk0","pricing_plan_id":"cebpf4jnsgd1na2vs0mg"},{"bike_id":"71649b2c-48f8-4b8a-b9c0-477bd83fa14b","system_id":"levelo_inurba_marseille","lat":43.28426,"lon":5.34985,"is_reserved":false,"is_disabled":false,"rental_uris":{"android":"levelo://app?vid=71649b2c-48f8-4b8a-b9c0-477bd83fa14b","ios":"levelo://app?vid=71649b2c-48f8-4b8a-b9c0-477bd83fa14b"},"vehicle_type_id":"4","last_reported":1758975483,"current_range_meters":14400,"station_id":"ce4bhbh2rcd13ifvqepg","pricing_plan_id":"cebpf4jnsgd1na2vs0mg"},{"bike_id":"9feae468-b8bd-422a-8fcb-2d68fc5ee82c","system_id":"levelo_inurba_marseille","lat":43.33389,"lon":5.42022,"is_reserved":false,"is_disabled":false,"rental_uris":{"android":"levelo://app?vid=9feae468-b8bd-422a-8fcb-2d68fc5ee82c","ios":"levelo://app?vid=9feae468-b8bd-422a-8fcb-2d68fc5ee82c"},"vehicle_type_id":"4","last_reported":1758975483,"current_range_meters":14400,"station_id":"","pricing_plan_id":"cebpf4jnsgd1na2vs0mg"},{"bike_id":"327c041e-5c9e-4b0d-a97c-a2dbaab036ae","system_id":"levelo_inurba_marseille","lat":43.32813,"lon":5.4113,"is_reserved":false,"is_disabled":false,"rental_uris":{"android":"levelo://app?vid=327c041e-5c9e-4b0d-a97c-a2dbaab036ae","ios":"levelo://app?vid=327c041e-5c9e-4b0d-a97c-a2dbaab036ae"},"vehicle_type_id":"4","last_reported":1758975483,"current_range_meters":14400,"station_id":"","pricing_plan_id":"cebpf4jnsgd1na2vs0mg"},{"bike_id":"cd119ae5-1417-41f1-a8e2-920696e70b86","system_id":"levelo_inurba_marseille","lat":43.22577,"lon":5.41624,"is_reserved":false,"is_disabled":false,"rental_uris":{"android":"levelo://app?vid=cd119ae5-1417-41f1-a8e2-920696e70b86","ios":"levelo://app?vid=cd119ae5-1417-41f1-a8e2-920696e70b86"},"vehicle_type_id":"4","last_reported":1758975483,"current_range_meters":14400,"station_id":"st_d2o4gvlbi1j2169b742g","pricing_plan_id":"cebpf4jnsgd1na2vs0mg"},{"bike_id":"01e260f5-828c-4df2-9bc4-ca80e799f979","system_id":"levelo_inurba_marseille","lat":43.21747,"lon":5.34591,"is_reserved":false,"is_disabled":true,"rental_uris":{"android":"levelo://app?vid=01e260f5-828c-4df2-9bc4-ca80e799f979","ios":"levelo://app?vid=01e260f5-828c-4df2-9bc4-ca80e799f979"},"vehicle_type_id":"4","last_reported":1758975483,"current_range_meters":14400,"station_id":"st_cvj6r9ubvosntc0bgbag","pricing_plan_id":"cebpf4jnsgd1na2vs0mg"},{"bike_id":"6ef3024a-2129-46d2-8f53-f8c4119ef86c","system_id":"levelo_inurba_marseille","lat":43.337444,"lon":5.374475,"is_reserved":false,"is_disabled":false,"rental_uris":{"android":"levelo://app?vid=6ef3024a-2129-46d2-8f53-f8c4119ef86c","ios":"levelo://app?vid=6ef3024a-2129-46d2-8f53-f8c4119ef86c"},"vehicle_type_id":"4","last_reported":1758975483,"current_range_meters":14400,"station_id":"","pricing_plan_id":"cebpf4jnsgd1na2vs0mg"},{"bike_id":"2a7adc97-2b29-41e1-8a87-0ddee422e867","system_id":"levelo_inurba_marseille","lat":43.3236,"lon":5.3674,"is_reserved":false,"is_disabled":false,"rental_uris":{"android":"levelo://app?vid=2a7adc97-2b29-41e1-8a87-0ddee422e867","ios":"levelo://app?vid=2a7adc97-2b29-41e1-8a87-0ddee422e867"},"vehicle_type_id":"4","last_reported":1758975483,"current_range_meters":14400,"station_id":"ce4bhsh2rcd13ifvqi2g","pricing_plan_id":"cebpf4jnsgd1na2vs0mg"},{"bike_id":"58c5d8d8-e7b2-499f-9416-b45356fd9694","system_id":"levelo_inurba_marseille","lat":43.24395,"lon":5.37057,"is_reserved":false,"is_disabled":false,"rental_uris":{"android":"levelo://app?vid=58c5d8d8-e7b2-499f-9416-b45356fd9694","ios":"levelo://app?vid=58c5d8d8-e7b2-499f-9416-b45356fd9694"},"vehicle_type_id":"4","last_reported":1758975483,"current_range_meters":14800,"station_id":"ce4bhhh2rcd13ifvqfk0","pricing_plan_id":"cebpf4jnsgd1na2vs0mg"},{"bike_id":"fb1f00f0-4275-4c6e-8a59-3367c7a547e7","system_id":"levelo_inurba_marseille","lat":43.24644,"lon":5.38904,"is_reserved":false,"is_disabled":false,"rental_uris":{"android":"levelo://app?vid=fb1f00f0-4275-4c6e-8a59-3367c7a547e7","ios":"levelo://app?vid=fb1f00f0-4275-4c6e-8a59-3367c7a547e7"},"vehicle_type_id":"4","last_reported":1758975483,"current_range_meters":14800,"station_id":"ce4bhg12rcd13ifvqf60","pricing_plan_id":"cebpf4jnsgd1na2vs0mg"},{"bike_id":"eb79d0b2-67eb-403d-8523-8bfe74cc5e73","system_id":"levelo_inurba_marseille","lat":43.29163,"lon":5.37173,"is_reserved":false,"is_disabled":false,"rental_uris":{"android":"levelo://app?vid=eb79d0b2-67eb-403d-8523-8bfe74cc5e73","ios":"levelo://app?vid=eb79d0b2-67eb-403d-8523-8bfe74cc5e73"},"vehicle_type_id":"4","last_reported":1758975483,"current_range_meters":14800,"station_id":"ce4bha92rcd13ifvqeh0","pricing_plan_id":"cebpf4jnsgd1na2vs0mg"},{"bike_id":"6c92dede-e164-4788-a223-c4cded1209df","system_id":"levelo_inurba_marseille","lat":43.31334,"lon":5.39697,"is_reserved":false,"is_disabled":false,"rental_uris":{"android":"levelo://app?vid=6c92dede-e164-4788-a223-c4cded1209df","ios":"levelo://app?vid=6c92dede-e164-4788-a223-c4cded1209df"},"vehicle_type_id":"4","last_reported":1758975483,"current_range_meters":14800,"station_id":"ce4bgvp2rcd13ifvqcu0","pricing_plan_id":"cebpf4jnsgd1na2vs0mg"},{"bike_id":"071bc3a5-4a03-46da-a8d6-b7aa12cea887","system_id":"levelo_inurba_marseille","lat":43.21222,"lon":5.35043,"is_reserved":false,"is_disabled":false,"rental_uris":{"android":"levelo://app?vid=071bc3a5-4a03-46da-a8d6-b7aa12cea887","ios":"levelo://app?vid=071bc3a5-4a03-46da-a8d6-b7aa12cea887"},"vehicle_type_id":"4","last_reported":1758975483,"current_range_meters":15200,"station_id":"st_cvj6sg6p6f1abm77japg","pricing_plan_id":"cebpf4jnsgd1na2vs0mg"},{"bike_id":"7e46442d-d75e-495e-88a3-8dd8c2870d38","system_id":"levelo_inurba_marseille","lat":43.31758,"lon":5.39017,"is_reserved":false,"is_disabled":false,"rental_uris":{"android":"levelo://app?vid=7e46442d-d75e-495e-88a3-8dd8c2870d38","ios":"levelo://app?vid=7e46442d-d75e-495e-88a3-8dd8c2870d38"},"vehicle_type_id":"4","last_reported":1758975483,"current_range_meters":15200,"station_id":"ce4bhqp2rcd13ifvqhng","pricing_plan_id":"cebpf4jnsgd1na2vs0mg"},{"bike_id":"a405cfbf-8080-4e69-850b-a844ac2608a9","system_id":"levelo_inurba_marseille","lat":43.29269,"lon":5.38455,"is_reserved":false,"is_disabled":false,"rental_uris":{"android":"levelo://app?vid=a405cfbf-8080-4e69-850b-a844ac2608a9","ios":"levelo://app?vid=a405cfbf-8080-4e69-850b-a844ac2608a9"},"vehicle_type_id":"4","last_reported":1758975483,"current_range_meters":15200,"station_id":"ce4bh692rcd13ifvqea0","pricing_plan_id":"cebpf4jnsgd1na2vs0mg"},{"bike_id":"d1db49c6-cbae-4652-8b38-d69646fe075b","system_id":"levelo_inurba_marseille","lat":43.27178,"lon":5.40999,"is_reserved":false,"is_disabled":false,"rental_uris":{"android":"levelo://app?vid=d1db49c6-cbae-4652-8b38-d69646fe075b","ios":"levelo://app?vid=d1db49c6-cbae-4652-8b38-d69646fe075b"},"vehicle_type_id":"4","last_reported":1758975483,"current_range_meters":15200,"station_id":"ce4bhl12rcd13ifvqgf0","pricing_plan_id":"cebpf4jnsgd1na2vs0mg"},{"bike_id":"349977c5-2efd-48ed-8dd8-9cfd0d464679","system_id":"levelo_inurba_marseille","lat":43.21187,"lon":5.35063,"is_reserved":false,"is_disabled":false,"rental_uris":{"android":"levelo://app?vid=349977c5-2efd-48ed-8dd8-9cfd0d464679","ios":"levelo://app?vid=349977c5-2efd-48ed-8dd8-9cfd0d464679"},"vehicle_type_id":"4","last_reported":1758975483,"current_range_meters":15200,"station_id":"st_cvj6sg6p6f1abm77japg","pricing_plan_id":"cebpf4jnsgd1na2vs0mg"},{"bike_id":"6d4fa21f-0f41-49ae-93a6-059b63d3c466","system_id":"levelo_inurba_marseille","lat":43.23956,"lon":5.36639,"is_reserved":false,"is_disabled":false,"rental_uris":{"android":"levelo://app?vid=6d4fa21f-0f41-49ae-93a6-059b63d3c466","ios":"levelo://app?vid=6d4fa21f-0f41-49ae-93a6-059b63d3c466"},"vehicle_type_id":"4","last_reported":1758975483,"current_range_meters":15200,"station_id":"ce4bhi12rcd13ifvqfp0","pricing_plan_id":"cebpf4jnsgd1na2vs0mg"},{"bike_id":"f35f013e-32c9-48f5-a888-a78329aa64bf","system_id":"levelo_inurba_marseille","lat":43.28474,"lon":5.38428,"is_reserved":false,"is_disabled":false,"rental_uris":{"android":"levelo://app?vid=f35f013e-32c9-48f5-a888-a78329aa64bf","ios":"levelo://app?vid=f35f013e-32c9-48f5-a888-a78329aa64bf"},"vehicle_type_id":"4","last_reported":1758975483,"current_range_meters":15200,"station_id":"ce4bh512rcd13ifvqe3g","pricing_plan_id":"cebpf4jnsgd1na2vs0mg"},{"bike_id":"49162861-f8b4-434a-83a6-914036ed0a47","system_id":"levelo_inurba_marseille","lat":43.26208,"lon":5.37443,"is_reserved":false,"is_disabled":false,"rental_uris":{"android":"levelo://app?vid=49162861-f8b4-434a-83a6-914036ed0a47","ios":"levelo://app?vid=49162861-f8b4-434a-83a6-914036ed0a47"},"vehicle_type_id":"4","last_reported":1758975483,"current_range_meters":15200,"station_id":"ce4bhgp2rcd13ifvqfc0","pricing_plan_id":"cebpf4jnsgd1na2vs0mg"},{"bike_id":"aa1ef45f-f323-4723-9180-ea0318bf8a28","system_id":"levelo_inurba_marseille","lat":43.3234,"lon":5.40621,"is_reserved":false,"is_disabled":false,"rental_uris":{"android":"levelo://app?vid=aa1ef45f-f323-4723-9180-ea0318bf8a28","ios":"levelo://app?vid=aa1ef45f-f323-4723-9180-ea0318bf8a28"},"vehicle_type_id":"4","last_reported":1758975483,"current_range_meters":16000,"station_id":"ce4bhq92rcd13ifvqhjg","pricing_plan_id":"cebpf4jnsgd1na2vs0mg"},{"bike_id":"5923183b-eadf-4bf9-98e2-a6ec4d87f917","system_id":"levelo_inurba_marseille","lat":43.28607,"lon":5.37065,"is_reserved":false,"is_disabled":false,"rental_uris":{"android":"levelo://app?vid=5923183b-eadf-4bf9-98e2-a6ec4d87f917","ios":"levelo://app?vid=5923183b-eadf-4bf9-98e2-a6ec4d87f917"},"vehicle_type_id":"4","last_reported":1758975483,"current_range_meters":16000,"station_id":"ce4bht12rcd13ifvqi60","pricing_plan_id":"cebpf4jnsgd1na2vs0mg"},{"bike_id":"85c7ac65-0172-4766-8977-f4ba34ed9c93","system_id":"levelo_inurba_marseille","lat":43.25336,"lon":5.42161,"is_reserved":false,"is_disabled":false,"rental_uris":{"android":"levelo://app?vid=85c7ac65-0172-4766-8977-f4ba34ed9c93","ios":"levelo://app?vid=85c7ac65-0172-4766-8977-f4ba34ed9c93"},"vehicle_type_id":"4","last_reported":1758975483,"current_range_meters":16000,"station_id":"st_d2m65c5bi1j21697t3ng","pricing_plan_id":"cebpf4jnsgd1na2vs0mg"},{"bike_id":"40160ca7-1c86-416c-acdd-981ef869ed29","system_id":"levelo_inurba_marseille","lat":43.23196,"lon":5.35556,"is_reserved":false,"is_disabled":false,"rental_uris":{"android":"levelo://app?vid=40160ca7-1c86-416c-acdd-981ef869ed29","ios":"levelo://app?vid=40160ca7-1c86-416c-acdd-981ef869ed29"},"vehicle_type_id":"4","last_reported":1758975483,"current_range_meters":16000,"station_id":"ce4bhu92rcd13ifvqi70","pricing_plan_id":"cebpf4jnsgd1na2vs0mg"},{"bike_id":"cb0a43cc-2f6b-482a-91bb-c383cccf5be4","system_id":"levelo_inurba_marseille","lat":43.31978,"lon":5.38004,"is_reserved":false,"is_disabled":false,"rental_uris":{"android":"levelo://app?vid=cb0a43cc-2f6b-482a-91bb-c383cccf5be4","ios":"levelo://app?vid=cb0a43cc-2f6b-482a-91bb-c383cccf5be4"},"vehicle_type_id":"4","last_reported":1758975483,"current_range_meters":16000,"station_id":"","pricing_plan_id":"cebpf4jnsgd1na2vs0mg"},{"bike_id":"4c02c545-ad59-45b1-9b9c-d3678a5922c7","system_id":"levelo_inurba_marseille","lat":43.337444,"lon":5.374475,"is_reserved":false,"is_disabled":false,"rental_uris":{"android":"levelo://app?vid=4c02c545-ad59-45b1-9b9c-d3678a5922c7","ios":"levelo://app?vid=4c02c545-ad59-45b1-9b9c-d3678a5922c7"},"vehicle_type_id":"4","last_reported":1758975483,"current_range_meters":16000,"station_id":"","pricing_plan_id":"cebpf4jnsgd1na2vs0mg"},{"bike_id":"6ea7e838-2bf7-468a-bf5e-4dca1ea96177","system_id":"levelo_inurba_marseille","lat":43.21756,"lon":5.34592,"is_reserved":false,"is_disabled":false,"rental_uris":{"android":"levelo://app?vid=6ea7e838-2bf7-468a-bf5e-4dca1ea96177","ios":"levelo://app?vid=6ea7e838-2bf7-468a-bf5e-4dca1ea96177"},"vehicle_type_id":"4","last_reported":1758975483,"current_range_meters":16000,"station_id":"st_cvj6r9ubvosntc0bgbag","pricing_plan_id":"cebpf4jnsgd1na2vs0mg"},{"bike_id":"9b2c0362-8a01-4219-9cc0-a7d9b6166838","system_id":"levelo_inurba_marseille","lat":43.23959,"lon":5.36619,"is_reserved":false,"is_disabled":false,"rental_uris":{"android":"levelo://app?vid=9b2c0362-8a01-4219-9cc0-a7d9b6166838","ios":"levelo://app?vid=9b2c0362-8a01-4219-9cc0-a7d9b6166838"},"vehicle_type_id":"4","last_reported":1758975483,"current_range_meters":16000,"station_id":"","pricing_plan_id":"cebpf4jnsgd1na2vs0mg"},{"bike_id":"096c311a-e31f-4e60-ab8c-de0b76354103","system_id":"levelo_inurba_marseille","lat":43.2721,"lon":5.40944,"is_reserved":false,"is_disabled":true,"rental_uris":{"android":"levelo://app?vid=096c311a-e31f-4e60-ab8c-de0b76354103","ios":"levelo://app?vid=096c311a-e31f-4e60-ab8c-de0b76354103"},"vehicle_type_id":"4","last_reported":1758975483,"current_range_meters":16400,"station_id":"ce4bhl12rcd13ifvqgf0","pricing_plan_id":"cebpf4jnsgd1na2vs0mg"},{"bike_id":"c0cd765a-6df3-4f05-bbc9-b026ba67ad67","system_id":"levelo_inurba_marseille","lat":43.29295,"lon":5.40123,"is_reserved":false,"is_disabled":false,"rental_uris":{"android":"levelo://app?vid=c0cd765a-6df3-4f05-bbc9-b026ba67ad67","ios":"levelo://app?vid=c0cd765a-6df3-4f05-bbc9-b026ba67ad67"},"vehicle_type_id":"4","last_reported":1758975483,"current_range_meters":16400,"station_id":"ce4bh312rcd13ifvqdk0","pricing_plan_id":"cebpf4jnsgd1na2vs0mg"},{"bike_id":"1cee225f-73f9-41f6-b8a0-afba1d6f4ceb","system_id":"levelo_inurba_marseille","lat":43.26203,"lon":5.37928,"is_reserved":false,"is_disabled":false,"rental_uris":{"android":"levelo://app?vid=1cee225f-73f9-41f6-b8a0-afba1d6f4ceb","ios":"levelo://app?vid=1cee225f-73f9-41f6-b8a0-afba1d6f4ceb"},"vehicle_type_id":"4","last_reported":1758975483,"current_range_meters":16400,"station_id":"ce4bhjp2rcd13ifvqg90","pricing_plan_id":"cebpf4jnsgd1na2vs0mg"},{"bike_id":"c097f066-7651-435e-913f-a8a7838aba88","system_id":"levelo_inurba_marseille","lat":43.33722,"lon":5.37459,"is_reserved":false,"is_disabled":false,"rental_uris":{"android":"levelo://app?vid=c097f066-7651-435e-913f-a8a7838aba88","ios":"levelo://app?vid=c097f066-7651-435e-913f-a8a7838aba88"},"vehicle_type_id":"4","last_reported":1758975483,"current_range_meters":16400,"station_id":"","pricing_plan_id":"cebpf4jnsgd1na2vs0mg"},{"bike_id":"58f3525c-f8c2-4bad-9b8b-1a3b00975e32","system_id":"levelo_inurba_marseille","lat":43.2868,"lon":5.39993,"is_reserved":false,"is_disabled":false,"rental_uris":{"android":"levelo://app?vid=58f3525c-f8c2-4bad-9b8b-1a3b00975e32","ios":"levelo://app?vid=58f3525c-f8c2-4bad-9b8b-1a3b00975e32"},"vehicle_type_id":"4","last_reported":1758975483,"current_range_meters":16400,"station_id":"ce4bho92rcd13ifvqh3g","pricing_plan_id":"cebpf4jnsgd1na2vs0mg"},{"bike_id":"976fd36e-2f5c-424c-baa8-068b37f1eb42","system_id":"levelo_inurba_marseille","lat":43.27562,"lon":5.38394,"is_reserved":false,"is_disabled":false,"rental_uris":{"android":"levelo://app?vid=976fd36e-2f5c-424c-baa8-068b37f1eb42","ios":"levelo://app?vid=976fd36e-2f5c-424c-baa8-068b37f1eb42"},"vehicle_type_id":"4","last_reported":1758975483,"current_range_meters":16800,"station_id":"ce4bhh92rcd13ifvqfi0","pricing_plan_id":"cebpf4jnsgd1na2vs0mg"},{"bike_id":"843f4427-2b31-4287-80c6-22dbe5d2810c","system_id":"levelo_inurba_marseille","lat":43.21769,"lon":5.34591,"is_reserved":false,"is_disabled":false,"rental_uris":{"android":"levelo://app?vid=843f4427-2b31-4287-80c6-22dbe5d2810c","ios":"levelo://app?vid=843f4427-2b31-4287-80c6-22dbe5d2810c"},"vehicle_type_id":"4","last_reported":1758975483,"current_range_meters":16800,"station_id":"st_cvj6r9ubvosntc0bgbag","pricing_plan_id":"cebpf4jnsgd1na2vs0mg"},{"bike_id":"dc4883ea-8f06-44d1-8b3d-6660e39a87ec","system_id":"levelo_inurba_marseille","lat":43.2174,"lon":5.34621,"is_reserved":false,"is_disabled":true,"rental_uris":{"android":"levelo://app?vid=dc4883ea-8f06-44d1-8b3d-6660e39a87ec","ios":"levelo://app?vid=dc4883ea-8f06-44d1-8b3d-6660e39a87ec"},"vehicle_type_id":"4","last_reported":1758975483,"current_range_meters":16800,"station_id":"","pricing_plan_id":"cebpf4jnsgd1na2vs0mg"},{"bike_id":"aaca723a-aa22-4b97-8fb5-50168ddb7989","system_id":"levelo_inurba_marseille","lat":43.30312,"lon":5.36892,"is_reserved":false,"is_disabled":false,"rental_uris":{"android":"levelo://app?vid=aaca723a-aa22-4b97-8fb5-50168ddb7989","ios":"levelo://app?vid=aaca723a-aa22-4b97-8fb5-50168ddb7989"},"vehicle_type_id":"4","last_reported":1758975483,"current_range_meters":16800,"station_id":"ce4bgqh2rcd13ifvqc5g","pricing_plan_id":"cebpf4jnsgd1na2vs0mg"},{"bike_id":"3221da8b-3d4d-44c4-826b-f0799e4e45d8","system_id":"levelo_inurba_marseille","lat":43.27934,"lon":5.39589,"is_reserved":false,"is_disabled":false,"rental_uris":{"android":"levelo://app?vid=3221da8b-3d4d-44c4-826b-f0799e4e45d8","ios":"levelo://app?vid=3221da8b-3d4d-44c4-826b-f0799e4e45d8"},"vehicle_type_id":"4","last_reported":1758975483,"current_range_meters":16800,"station_id":"ce4bhf92rcd13ifvqf40","pricing_plan_id":"cebpf4jnsgd1na2vs0mg"},{"bike_id":"8089c22e-2cf7-4315-b3d5-f48a8543b191","system_id":"levelo_inurba_marseille","lat":43.279149,"lon":5.380157,"is_reserved":false,"is_disabled":false,"rental_uris":{"android":"levelo://app?vid=8089c22e-2cf7-4315-b3d5-f48a8543b191","ios":"levelo://app?vid=8089c22e-2cf7-4315-b3d5-f48a8543b191"},"vehicle_type_id":"4","last_reported":1758975483,"current_range_meters":16400,"station_id":"ce4bhf92rcd13ifvqf50","pricing_plan_id":"cebpf4jnsgd1na2vs0mg"},{"bike_id":"59c100ff-e2e2-4da2-add4-ee6909457eb4","system_id":"levelo_inurba_marseille","lat":43.29569,"lon":5.37506,"is_reserved":false,"is_disabled":false,"rental_uris":{"android":"levelo://app?vid=59c100ff-e2e2-4da2-add4-ee6909457eb4","ios":"levelo://app?vid=59c100ff-e2e2-4da2-add4-ee6909457eb4"},"vehicle_type_id":"4","last_reported":1758975483,"current_range_meters":16800,"station_id":"ce4bgh92rcd13ifvqb50","pricing_plan_id":"cebpf4jnsgd1na2vs0mg"},{"bike_id":"37e231a1-f740-41d0-bbcb-ffc9f54a6c3c","system_id":"levelo_inurba_marseille","lat":43.29934,"lon":5.37471,"is_reserved":false,"is_disabled":false,"rental_uris":{"android":"levelo://app?vid=37e231a1-f740-41d0-bbcb-ffc9f54a6c3c","ios":"levelo://app?vid=37e231a1-f740-41d0-bbcb-ffc9f54a6c3c"},"vehicle_type_id":"4","last_reported":1758975483,"current_range_meters":16800,"station_id":"ce4bgjh2rcd13ifvqbg0","pricing_plan_id":"cebpf4jnsgd1na2vs0mg"},{"bike_id":"d66cd03b-dbeb-4aa4-961e-bd97aeefe4a4","system_id":"levelo_inurba_marseille","lat":43.25981,"lon":5.4138,"is_reserved":false,"is_disabled":false,"rental_uris":{"android":"levelo://app?vid=d66cd03b-dbeb-4aa4-961e-bd97aeefe4a4","ios":"levelo://app?vid=d66cd03b-dbeb-4aa4-961e-bd97aeefe4a4"},"vehicle_type_id":"4","last_reported":1758975483,"current_range_meters":16800,"station_id":"","pricing_plan_id":"cebpf4jnsgd1na2vs0mg"},{"bike_id":"7aac2627-6b70-4df7-ad8a-6082bb89c0b7","system_id":"levelo_inurba_marseille","lat":43.25108,"lon":5.40309,"is_reserved":false,"is_disabled":false,"rental_uris":{"android":"levelo://app?vid=7aac2627-6b70-4df7-ad8a-6082bb89c0b7","ios":"levelo://app?vid=7aac2627-6b70-4df7-ad8a-6082bb89c0b7"},"vehicle_type_id":"4","last_reported":1758975483,"current_range_meters":16800,"station_id":"ce4bhlh2rcd13ifvqgig","pricing_plan_id":"cebpf4jnsgd1na2vs0mg"},{"bike_id":"75a1808b-f036-45a0-9b9e-d8442cdf8f90","system_id":"levelo_inurba_marseille","lat":43.24994,"lon":5.3893,"is_reserved":false,"is_disabled":false,"rental_uris":{"android":"levelo://app?vid=75a1808b-f036-45a0-9b9e-d8442cdf8f90","ios":"levelo://app?vid=75a1808b-f036-45a0-9b9e-d8442cdf8f90"},"vehicle_type_id":"4","last_reported":1758975483,"current_range_meters":17200,"station_id":"ce4bhgp2rcd13ifvqfd0","pricing_plan_id":"cebpf4jnsgd1na2vs0mg"},{"bike_id":"e54b8c9f-4f66-4c52-b603-24745fa68456","system_id":"levelo_inurba_marseille","lat":43.25719,"lon":5.41107,"is_reserved":false,"is_disabled":false,"rental_uris":{"android":"levelo://app?vid=e54b8c9f-4f66-4c52-b603-24745fa68456","ios":"levelo://app?vid=e54b8c9f-4f66-4c52-b603-24745fa68456"},"vehicle_type_id":"4","last_reported":1758975483,"current_range_meters":17200,"station_id":"ce4bhkp2rcd13ifvqgd0","pricing_plan_id":"cebpf4jnsgd1na2vs0mg"},{"bike_id":"2243febf-ebaf-474b-8e3e-799410e4c867","system_id":"levelo_inurba_marseille","lat":43.32608,"lon":5.36342,"is_reserved":false,"is_disabled":false,"rental_uris":{"android":"levelo://app?vid=2243febf-ebaf-474b-8e3e-799410e4c867","ios":"levelo://app?vid=2243febf-ebaf-474b-8e3e-799410e4c867"},"vehicle_type_id":"4","last_reported":1758975483,"current_range_meters":17200,"station_id":"","pricing_plan_id":"cebpf4jnsgd1na2vs0mg"},{"bike_id":"f4c53ff4-73a4-4134-bb3f-bbf464878afb","system_id":"levelo_inurba_marseille","lat":43.217557,"lon":5.346083,"is_reserved":false,"is_disabled":true,"rental_uris":{"android":"levelo://app?vid=f4c53ff4-73a4-4134-bb3f-bbf464878afb","ios":"levelo://app?vid=f4c53ff4-73a4-4134-bb3f-bbf464878afb"},"vehicle_type_id":"4","last_reported":1758975483,"current_range_meters":17200,"station_id":"st_cvj6r9ubvosntc0bgbag","pricing_plan_id":"cebpf4jnsgd1na2vs0mg"},{"bike_id":"318e821c-abfc-42ef-9195-38b0128df5a4","system_id":"levelo_inurba_marseille","lat":43.28423,"lon":5.34987,"is_reserved":false,"is_disabled":false,"rental_uris":{"android":"levelo://app?vid=318e821c-abfc-42ef-9195-38b0128df5a4","ios":"levelo://app?vid=318e821c-abfc-42ef-9195-38b0128df5a4"},"vehicle_type_id":"4","last_reported":1758975483,"current_range_meters":17200,"station_id":"ce4bhbh2rcd13ifvqepg","pricing_plan_id":"cebpf4jnsgd1na2vs0mg"},{"bike_id":"1cf7437f-075f-47c4-80cb-dc59e72b15dc","system_id":"levelo_inurba_marseille","lat":43.27946,"lon":5.4105,"is_reserved":false,"is_disabled":false,"rental_uris":{"android":"levelo://app?vid=1cf7437f-075f-47c4-80cb-dc59e72b15dc","ios":"levelo://app?vid=1cf7437f-075f-47c4-80cb-dc59e72b15dc"},"vehicle_type_id":"4","last_reported":1758975483,"current_range_meters":17200,"station_id":"ce4bhnp2rcd13ifvqh0g","pricing_plan_id":"cebpf4jnsgd1na2vs0mg"},{"bike_id":"3c54057a-1b75-4772-a12e-705fa6851005","system_id":"levelo_inurba_marseille","lat":43.2799,"lon":5.41659,"is_reserved":false,"is_disabled":false,"rental_uris":{"android":"levelo://app?vid=3c54057a-1b75-4772-a12e-705fa6851005","ios":"levelo://app?vid=3c54057a-1b75-4772-a12e-705fa6851005"},"vehicle_type_id":"4","last_reported":1758975483,"current_range_meters":17200,"station_id":"ce4bho12rcd13ifvqh1g","pricing_plan_id":"cebpf4jnsgd1na2vs0mg"},{"bike_id":"a118eea7-5c87-4704-bd16-7e41a62f4a37","system_id":"levelo_inurba_marseille","lat":43.24166,"lon":5.36392,"is_reserved":false,"is_disabled":false,"rental_uris":{"android":"levelo://app?vid=a118eea7-5c87-4704-bd16-7e41a62f4a37","ios":"levelo://app?vid=a118eea7-5c87-4704-bd16-7e41a62f4a37"},"vehicle_type_id":"4","last_reported":1758975483,"current_range_meters":17200,"station_id":"cpo36qri1sfpv3e86is0","pricing_plan_id":"cebpf4jnsgd1na2vs0mg"},{"bike_id":"54fff988-c74f-45fc-a0eb-29489bfa1777","system_id":"levelo_inurba_marseille","lat":43.24671,"lon":5.38862,"is_reserved":false,"is_disabled":false,"rental_uris":{"android":"levelo://app?vid=54fff988-c74f-45fc-a0eb-29489bfa1777","ios":"levelo://app?vid=54fff988-c74f-45fc-a0eb-29489bfa1777"},"vehicle_type_id":"4","last_reported":1758975483,"current_range_meters":17200,"station_id":"ce4bhg12rcd13ifvqf60","pricing_plan_id":"cebpf4jnsgd1na2vs0mg"},{"bike_id":"510fbe5c-0a6e-4f66-b7d5-22eafa1a53fb","system_id":"levelo_inurba_marseille","lat":43.28282,"lon":5.35062,"is_reserved":false,"is_disabled":false,"rental_uris":{"android":"levelo://app?vid=510fbe5c-0a6e-4f66-b7d5-22eafa1a53fb","ios":"levelo://app?vid=510fbe5c-0a6e-4f66-b7d5-22eafa1a53fb"},"vehicle_type_id":"4","last_reported":1758975483,"current_range_meters":16800,"station_id":"ce4bhbp2rcd13ifvqerg","pricing_plan_id":"cebpf4jnsgd1na2vs0mg"},{"bike_id":"12ee56a1-e362-46a4-bbad-cf72125ae201","system_id":"levelo_inurba_marseille","lat":43.296781,"lon":5.378462,"is_reserved":false,"is_disabled":false,"rental_uris":{"android":"levelo://app?vid=12ee56a1-e362-46a4-bbad-cf72125ae201","ios":"levelo://app?vid=12ee56a1-e362-46a4-bbad-cf72125ae201"},"vehicle_type_id":"4","last_reported":1758975483,"current_range_meters":17200,"station_id":"","pricing_plan_id":"cebpf4jnsgd1na2vs0mg"},{"bike_id":"8ba5e33b-48f1-42b5-a531-76085f7229c8","system_id":"levelo_inurba_marseille","lat":43.24641,"lon":5.4314,"is_reserved":false,"is_disabled":false,"rental_uris":{"android":"levelo://app?vid=8ba5e33b-48f1-42b5-a531-76085f7229c8","ios":"levelo://app?vid=8ba5e33b-48f1-42b5-a531-76085f7229c8"},"vehicle_type_id":"4","last_reported":1758975483,"current_range_meters":17200,"station_id":"st_d2m6c4gdas8pm72e190g","pricing_plan_id":"cebpf4jnsgd1na2vs0mg"},{"bike_id":"c081d6ac-5788-49e0-94f1-f96219519e58","system_id":"levelo_inurba_marseille","lat":43.24663,"lon":5.38885,"is_reserved":false,"is_disabled":false,"rental_uris":{"android":"levelo://app?vid=c081d6ac-5788-49e0-94f1-f96219519e58","ios":"levelo://app?vid=c081d6ac-5788-49e0-94f1-f96219519e58"},"vehicle_type_id":"4","last_reported":1758975483,"current_range_meters":17200,"station_id":"ce4bhg12rcd13ifvqf60","pricing_plan_id":"cebpf4jnsgd1na2vs0mg"},{"bike_id":"61f72c81-84af-4d24-903d-9a7cb27e68a1","system_id":"levelo_inurba_marseille","lat":43.24643,"lon":5.43135,"is_reserved":false,"is_disabled":false,"rental_uris":{"android":"levelo://app?vid=61f72c81-84af-4d24-903d-9a7cb27e68a1","ios":"levelo://app?vid=61f72c81-84af-4d24-903d-9a7cb27e68a1"},"vehicle_type_id":"4","last_reported":1758975483,"current_range_meters":17200,"station_id":"st_d2m6c4gdas8pm72e190g","pricing_plan_id":"cebpf4jnsgd1na2vs0mg"},{"bike_id":"bb70a50a-3e1e-4b1f-8ba6-03eee903b8af","system_id":"levelo_inurba_marseille","lat":43.282724,"lon":5.350683,"is_reserved":false,"is_disabled":false,"rental_uris":{"android":"levelo://app?vid=bb70a50a-3e1e-4b1f-8ba6-03eee903b8af","ios":"levelo://app?vid=bb70a50a-3e1e-4b1f-8ba6-03eee903b8af"},"vehicle_type_id":"4","last_reported":1758975483,"current_range_meters":17200,"station_id":"","pricing_plan_id":"cebpf4jnsgd1na2vs0mg"},{"bike_id":"258ab053-1083-4ca9-a32a-1e85f085fc22","system_id":"levelo_inurba_marseille","lat":43.337444,"lon":5.374475,"is_reserved":false,"is_disabled":false,"rental_uris":{"android":"levelo://app?vid=258ab053-1083-4ca9-a32a-1e85f085fc22","ios":"levelo://app?vid=258ab053-1083-4ca9-a32a-1e85f085fc22"},"vehicle_type_id":"4","last_reported":1758975483,"current_range_meters":17200,"station_id":"","pricing_plan_id":"cebpf4jnsgd1na2vs0mg"},{"bike_id":"95bafeb0-6c7b-407a-a73b-a6569ff5cb66","system_id":"levelo_inurba_marseille","lat":43.3049,"lon":5.37293,"is_reserved":false,"is_disabled":false,"rental_uris":{"android":"levelo://app?vid=95bafeb0-6c7b-407a-a73b-a6569ff5cb66","ios":"levelo://app?vid=95bafeb0-6c7b-407a-a73b-a6569ff5cb66"},"vehicle_type_id":"4","last_reported":1758975483,"current_range_meters":17600,"station_id":"","pricing_plan_id":"cebpf4jnsgd1na2vs0mg"},{"bike_id":"405f3385-baee-4f59-a20f-cfe028767a66","system_id":"levelo_inurba_marseille","lat":43.28935,"lon":5.36635,"is_reserved":false,"is_disabled":false,"rental_uris":{"android":"levelo://app?vid=405f3385-baee-4f59-a20f-cfe028767a66","ios":"levelo://app?vid=405f3385-baee-4f59-a20f-cfe028767a66"},"vehicle_type_id":"4","last_reported":1758975483,"current_range_meters":17600,"station_id":"ce4bhap2rcd13ifvqek0","pricing_plan_id":"cebpf4jnsgd1na2vs0mg"},{"bike_id":"dea78190-7a14-4925-919c-270cdb315648","system_id":"levelo_inurba_marseille","lat":43.29095,"lon":5.38133,"is_reserved":false,"is_disabled":false,"rental_uris":{"android":"levelo://app?vid=dea78190-7a14-4925-919c-270cdb315648","ios":"levelo://app?vid=dea78190-7a14-4925-919c-270cdb315648"},"vehicle_type_id":"4","last_reported":1758975483,"current_range_meters":17200,"station_id":"ce4bh512rcd13ifvqe2g","pricing_plan_id":"cebpf4jnsgd1na2vs0mg"},{"bike_id":"aa6dcf2c-8d76-4320-84e6-a8f9e1b80811","system_id":"levelo_inurba_marseille","lat":43.23965,"lon":5.36622,"is_reserved":false,"is_disabled":false,"rental_uris":{"android":"levelo://app?vid=aa6dcf2c-8d76-4320-84e6-a8f9e1b80811","ios":"levelo://app?vid=aa6dcf2c-8d76-4320-84e6-a8f9e1b80811"},"vehicle_type_id":"4","last_reported":1758975483,"current_range_meters":17600,"station_id":"ce4bhi12rcd13ifvqfp0","pricing_plan_id":"cebpf4jnsgd1na2vs0mg"},{"bike_id":"85281e4f-a640-4e95-9ed3-f61c9f551e60","system_id":"levelo_inurba_marseille","lat":43.22565,"lon":5.41632,"is_reserved":false,"is_disabled":false,"rental_uris":{"android":"levelo://app?vid=85281e4f-a640-4e95-9ed3-f61c9f551e60","ios":"levelo://app?vid=85281e4f-a640-4e95-9ed3-f61c9f551e60"},"vehicle_type_id":"4","last_reported":1758975483,"current_range_meters":17600,"station_id":"st_d2o4gvlbi1j2169b742g","pricing_plan_id":"cebpf4jnsgd1na2vs0mg"},{"bike_id":"04ef41f1-0bc6-430b-b573-5b01990c0161","system_id":"levelo_inurba_marseille","lat":43.32001,"lon":5.38145,"is_reserved":false,"is_disabled":false,"rental_uris":{"android":"levelo://app?vid=04ef41f1-0bc6-430b-b573-5b01990c0161","ios":"levelo://app?vid=04ef41f1-0bc6-430b-b573-5b01990c0161"},"vehicle_type_id":"4","last_reported":1758975483,"current_range_meters":17600,"station_id":"ce4bhr12rcd13ifvqhpg","pricing_plan_id":"cebpf4jnsgd1na2vs0mg"},{"bike_id":"47d30fe3-9901-48e6-b2c2-67fe4423c65d","system_id":"levelo_inurba_marseille","lat":43.29716,"lon":5.37684,"is_reserved":false,"is_disabled":false,"rental_uris":{"android":"levelo://app?vid=47d30fe3-9901-48e6-b2c2-67fe4423c65d","ios":"levelo://app?vid=47d30fe3-9901-48e6-b2c2-67fe4423c65d"},"vehicle_type_id":"4","last_reported":1758975483,"current_range_meters":17600,"station_id":"ce4bgkh2rcd13ifvqbl0","pricing_plan_id":"cebpf4jnsgd1na2vs0mg"},{"bike_id":"33ac03ed-dfbb-4aa1-aee0-f01e22e067d9","system_id":"levelo_inurba_marseille","lat":43.24639,"lon":5.43131,"is_reserved":false,"is_disabled":false,"rental_uris":{"android":"levelo://app?vid=33ac03ed-dfbb-4aa1-aee0-f01e22e067d9","ios":"levelo://app?vid=33ac03ed-dfbb-4aa1-aee0-f01e22e067d9"},"vehicle_type_id":"4","last_reported":1758975483,"current_range_meters":18000,"station_id":"st_d2m6c4gdas8pm72e190g","pricing_plan_id":"cebpf4jnsgd1na2vs0mg"},{"bike_id":"d50e545b-da35-429b-aa51-40e38b86f412","system_id":"levelo_inurba_marseille","lat":43.28454,"lon":5.39207,"is_reserved":false,"is_disabled":false,"rental_uris":{"android":"levelo://app?vid=d50e545b-da35-429b-aa51-40e38b86f412","ios":"levelo://app?vid=d50e545b-da35-429b-aa51-40e38b86f412"},"vehicle_type_id":"4","last_reported":1758975483,"current_range_meters":17200,"station_id":"ce4bhoh2rcd13ifvqh5g","pricing_plan_id":"cebpf4jnsgd1na2vs0mg"},{"bike_id":"16e25168-8e51-478d-81ec-8ab80be0c075","system_id":"levelo_inurba_marseille","lat":43.29723,"lon":5.37686,"is_reserved":false,"is_disabled":false,"rental_uris":{"android":"levelo://app?vid=16e25168-8e51-478d-81ec-8ab80be0c075","ios":"levelo://app?vid=16e25168-8e51-478d-81ec-8ab80be0c075"},"vehicle_type_id":"4","last_reported":1758975483,"current_range_meters":17600,"station_id":"ce4bgkh2rcd13ifvqbl0","pricing_plan_id":"cebpf4jnsgd1na2vs0mg"},{"bike_id":"0d0352bf-f394-45c0-baef-aa15dd4a4c38","system_id":"levelo_inurba_marseille","lat":43.24632,"lon":5.43145,"is_reserved":false,"is_disabled":false,"rental_uris":{"android":"levelo://app?vid=0d0352bf-f394-45c0-baef-aa15dd4a4c38","ios":"levelo://app?vid=0d0352bf-f394-45c0-baef-aa15dd4a4c38"},"vehicle_type_id":"4","last_reported":1758975483,"current_range_meters":17600,"station_id":"st_d2m6c4gdas8pm72e190g","pricing_plan_id":"cebpf4jnsgd1na2vs0mg"},{"bike_id":"91f03681-11bd-4a24-811a-6c09a89c8efe","system_id":"levelo_inurba_marseille","lat":43.24997,"lon":5.38928,"is_reserved":false,"is_disabled":false,"rental_uris":{"android":"levelo://app?vid=91f03681-11bd-4a24-811a-6c09a89c8efe","ios":"levelo://app?vid=91f03681-11bd-4a24-811a-6c09a89c8efe"},"vehicle_type_id":"4","last_reported":1758975483,"current_range_meters":17600,"station_id":"ce4bhgp2rcd13ifvqfd0","pricing_plan_id":"cebpf4jnsgd1na2vs0mg"},{"bike_id":"99ed3704-7b22-402f-b2c4-42c5a4f8180e","system_id":"levelo_inurba_marseille","lat":43.30141,"lon":5.38775,"is_reserved":false,"is_disabled":false,"rental_uris":{"android":"levelo://app?vid=99ed3704-7b22-402f-b2c4-42c5a4f8180e","ios":"levelo://app?vid=99ed3704-7b22-402f-b2c4-42c5a4f8180e"},"vehicle_type_id":"4","last_reported":1758975483,"current_range_meters":17200,"station_id":"ce4bghh2rcd13ifvqb60","pricing_plan_id":"cebpf4jnsgd1na2vs0mg"},{"bike_id":"d02b558e-758e-4a0b-b868-d8421befd034","system_id":"levelo_inurba_marseille","lat":43.324768,"lon":5.365595,"is_reserved":false,"is_disabled":false,"rental_uris":{"android":"levelo://app?vid=d02b558e-758e-4a0b-b868-d8421befd034","ios":"levelo://app?vid=d02b558e-758e-4a0b-b868-d8421befd034"},"vehicle_type_id":"4","last_reported":1758975483,"current_range_meters":17600,"station_id":"ce4bhs12rcd13ifvqhvg","pricing_plan_id":"cebpf4jnsgd1na2vs0mg"},{"bike_id":"bc5c378c-3c14-46d9-bc40-4859910e1f7e","system_id":"levelo_inurba_marseille","lat":43.21746,"lon":5.34605,"is_reserved":false,"is_disabled":false,"rental_uris":{"android":"levelo://app?vid=bc5c378c-3c14-46d9-bc40-4859910e1f7e","ios":"levelo://app?vid=bc5c378c-3c14-46d9-bc40-4859910e1f7e"},"vehicle_type_id":"4","last_reported":1758975483,"current_range_meters":18000,"station_id":"st_cvj6r9ubvosntc0bgbag","pricing_plan_id":"cebpf4jnsgd1na2vs0mg"},{"bike_id":"f04ec19d-5fe6-4338-99ec-7befcb8aebc3","system_id":"levelo_inurba_marseille","lat":43.29011,"lon":5.38145,"is_reserved":false,"is_disabled":false,"rental_uris":{"android":"levelo://app?vid=f04ec19d-5fe6-4338-99ec-7befcb8aebc3","ios":"levelo://app?vid=f04ec19d-5fe6-4338-99ec-7befcb8aebc3"},"vehicle_type_id":"4","last_reported":1758975483,"current_range_meters":18000,"station_id":"ce4bh4p2rcd13ifvqe1g","pricing_plan_id":"cebpf4jnsgd1na2vs0mg"},{"bike_id":"2c6518be-b3f0-42d2-93c9-c1de9e54885f","system_id":"levelo_inurba_marseille","lat":43.29227,"lon":5.38219,"is_reserved":false,"is_disabled":false,"rental_uris":{"android":"levelo://app?vid=2c6518be-b3f0-42d2-93c9-c1de9e54885f","ios":"levelo://app?vid=2c6518be-b3f0-42d2-93c9-c1de9e54885f"},"vehicle_type_id":"4","last_reported":1758975483,"current_range_meters":18000,"station_id":"","pricing_plan_id":"cebpf4jnsgd1na2vs0mg"},{"bike_id":"d15ab4b0-88ac-4a2f-96b6-8adca8dc45ed","system_id":"levelo_inurba_marseille","lat":43.23203,"lon":5.4,"is_reserved":false,"is_disabled":false,"rental_uris":{"android":"levelo://app?vid=d15ab4b0-88ac-4a2f-96b6-8adca8dc45ed","ios":"levelo://app?vid=d15ab4b0-88ac-4a2f-96b6-8adca8dc45ed"},"vehicle_type_id":"4","last_reported":1758975483,"current_range_meters":18000,"station_id":"ce4bhn12rcd13ifvqgqg","pricing_plan_id":"cebpf4jnsgd1na2vs0mg"},{"bike_id":"d6ee60ca-7a9e-4cca-a7d7-8d1a194b7818","system_id":"levelo_inurba_marseille","lat":43.25827,"lon":5.39417,"is_reserved":false,"is_disabled":false,"rental_uris":{"android":"levelo://app?vid=d6ee60ca-7a9e-4cca-a7d7-8d1a194b7818","ios":"levelo://app?vid=d6ee60ca-7a9e-4cca-a7d7-8d1a194b7818"},"vehicle_type_id":"4","last_reported":1758975483,"current_range_meters":18000,"station_id":"ce4bhip2rcd13ifvqft0","pricing_plan_id":"cebpf4jnsgd1na2vs0mg"},{"bike_id":"272713eb-1ea3-4a72-81a6-6888850d27ce","system_id":"levelo_inurba_marseille","lat":43.28939,"lon":5.36632,"is_reserved":false,"is_disabled":false,"rental_uris":{"android":"levelo://app?vid=272713eb-1ea3-4a72-81a6-6888850d27ce","ios":"levelo://app?vid=272713eb-1ea3-4a72-81a6-6888850d27ce"},"vehicle_type_id":"4","last_reported":1758975483,"current_range_meters":17600,"station_id":"ce4bhap2rcd13ifvqek0","pricing_plan_id":"cebpf4jnsgd1na2vs0mg"},{"bike_id":"7ac81eae-aed2-4f3f-a100-b35f399befc9","system_id":"levelo_inurba_marseille","lat":43.25107,"lon":5.40311,"is_reserved":false,"is_disabled":false,"rental_uris":{"android":"levelo://app?vid=7ac81eae-aed2-4f3f-a100-b35f399befc9","ios":"levelo://app?vid=7ac81eae-aed2-4f3f-a100-b35f399befc9"},"vehicle_type_id":"4","last_reported":1758975483,"current_range_meters":18000,"station_id":"ce4bhlh2rcd13ifvqgig","pricing_plan_id":"cebpf4jnsgd1na2vs0mg"},{"bike_id":"ce90b0c1-6c36-4837-a050-6c45b26dd091","system_id":"levelo_inurba_marseille","lat":43.23198,"lon":5.35555,"is_reserved":false,"is_disabled":false,"rental_uris":{"android":"levelo://app?vid=ce90b0c1-6c36-4837-a050-6c45b26dd091","ios":"levelo://app?vid=ce90b0c1-6c36-4837-a050-6c45b26dd091"},