{"last_updated":1759238540,"ttl":60,"version":"2.2","data":{"bikes":[{"bike_id":"05adb675-bd24-4ed2-9f10-46e0568daf22","system_id":"levelo_inurba_marseille","lat":43.29185,"lon":5.39321,"is_reserved":false,"is_disabled":false,"rental_uris":{"android":"levelo://app?vid=05adb675-bd24-4ed2-9f10-46e0568daf22","ios":"levelo://app?vid=05adb675-bd24-4ed2-9f10-46e0568daf22"},"vehicle_type_id":"4","last_reported":1759238540,"current_range_meters":2800,"station_id":"ce4bh192rcd13ifvqdd0","pricing_plan_id":"cebpf4jnsgd1na2vs0mg"},{"bike_id":"063f7e0b-365b-4f7f-8083-3dd6263b5091","system_id":"levelo_inurba_marseille","lat":43.29197,"lon":5.39317,"is_reserved":false,"is_disabled":false,"rental_uris":{"android":"levelo://app?vid=063f7e0b-365b-4f7f-8083-3dd6263b5091","ios":"levelo://app?vid=063f7e0b-365b-4f7f-8083-3dd6263b5091"},"vehicle_type_id":"4","last_reported":1759238540,"current_range_meters":2800,"station_id":"ce4bh192rcd13ifvqdd0","pricing_plan_id":"cebpf4jnsgd1na2vs0mg"},{"bike_id":"be7dae0d-94d7-4a0d-89d8-07c528e32b57","system_id":"levelo_inurba_marseille","lat":43.32604,"lon":5.39062,"is_reserved":false,"is_disabled":false,"rental_uris":{"android":"levelo://app?vid=be7dae0d-94d7-4a0d-89d8-07c528e32b57","ios":"levelo://app?vid=be7dae0d-94d7-4a0d-89d8-07c528e32b57"},"vehicle_type_id":"4","last_reported":1759238540,"current_range_meters":2800,"station_id":"","pricing_plan_id":"cebpf4jnsgd1na2vs0mg"},{"bike_id":"ef163f94-455a-468e-8855-17df61c8bcd9","system_id":"levelo_inurba_marseille","lat":43.29003,"lon":5.35614,"is_reserved":false,"is_disabled":false,"rental_uris":{"android":"levelo://app?vid=ef163f94-455a-468e-8855-17df61c8bcd9","ios":"levelo://app?vid=ef163f94-455a-468e-8855-17df61c8bcd9"},"vehicle_type_id":"4","last_reported":1759238540,"current_range_meters":2800,"station_id":"ce4bhb92rcd13ifvqen0","pricing_plan_id":"cebpf4jnsgd1na2vs0mg"},{"bike_id":"f8058b12-7c07-446b-8ef7-70d59c3d08db","system_id":"levelo_inurba_marseille","lat":43.23147,"lon":5.43711,"is_reserved":false,"is_disabled":false,"rental_uris":{"android":"levelo://app?vid=f8058b12-7c07-446b-8ef7-70d59c3d08db","ios":"levelo://app?vid=f8058b12-7c07-446b-8ef7-70d59c3d08db"},"vehicle_type_id":"4","last_reported":1759238540,"current_range_meters":3200,"station_id":"ce4bhmp2rcd13ifvqgog","pricing_plan_id":"cebpf4jnsgd1na2vs0mg"},{"bike_id":"8125a295-585f-4533-b2cc-272d52c682af","system_id":"levelo_inurba_marseille","lat":43.29016,"lon":5.38132,"is_reserved":false,"is_disabled":false,"rental_uris":{"android":"levelo://app?vid=8125a295-585f-4533-b2cc-272d52c682af","ios":"levelo://app?vid=8125a295-585f-4533-b2cc-272d52c682af"},"vehicle_type_id":"4","last_reported":1759238540,"current_range_meters":3200,"station_id":"ce4bh4p2rcd13ifvqe1g","pricing_plan_id":"cebpf4jnsgd1na2vs0mg"},{"bike_id":"8a4a8404-2223-404b-b9d6-fda388efd3eb","system_id":"levelo_inurba_marseille","lat":43.225399,"lon":5.348524,"is_reserved":false,"is_disabled":false,"rental_uris":{"android":"levelo://app?vid=8a4a8404-2223-404b-b9d6-fda388efd3eb","ios":"levelo://app?vid=8a4a8404-2223-404b-b9d6-fda388efd3eb"},"vehicle_type_id":"4","last_reported":1759238540,"current_range_meters":3200,"station_id":"","pricing_plan_id":"cebpf4jnsgd1na2vs0mg"},{"bike_id":"13cbc190-21b4-4f17-bbc4-4dc5121c577a","system_id":"levelo_inurba_marseille","lat":43.27214,"lon":5.3918,"is_reserved":false,"is_disabled":false,"rental_uris":{"android":"levelo://app?vid=13cbc190-21b4-4f17-bbc4-4dc5121c577a","ios":"levelo://app?vid=13cbc190-21b4-4f17-bbc4-4dc5121c577a"},"vehicle_type_id":"4","last_reported":1759238540,"current_range_meters":3600,"station_id":"ce4bhhp2rcd13ifvqfm0","pricing_plan_id":"cebpf4jnsgd1na2vs0mg"},{"bike_id":"3a524aad-ecae-4893-b28d-2105fb7bda3f","system_id":"levelo_inurba_marseille","lat":43.2465,"lon":5.38895,"is_reserved":false,"is_disabled":false,"rental_uris":{"android":"levelo://app?vid=3a524aad-ecae-4893-b28d-2105fb7bda3f","ios":"levelo://app?vid=3a524aad-ecae-4893-b28d-2105fb7bda3f"},"vehicle_type_id":"4","last_reported":1759238540,"current_range_meters":3600,"station_id":"ce4bhg12rcd13ifvqf60","pricing_plan_id":"cebpf4jnsgd1na2vs0mg"},{"bike_id":"c97da7d7-f9b6-46a5-b3ac-0cc3f5d9907b","system_id":"levelo_inurba_marseille","lat":43.298743,"lon":5.397427,"is_reserved":false,"is_disabled":false,"rental_uris":{"android":"levelo://app?vid=c97da7d7-f9b6-46a5-b3ac-0cc3f5d9907b","ios":"levelo://app?vid=c97da7d7-f9b6-46a5-b3ac-0cc3f5d9907b"},"vehicle_type_id":"4","last_reported":1759238540,"current_range_meters":3600,"station_id":"ce4bh0h2rcd13ifvqd50","pricing_plan_id":"cebpf4jnsgd1na2vs0mg"},{"bike_id":"96386482-9507-4b21-bf30-44f548751d94","system_id":"levelo_inurba_marseille","lat":43.2721,"lon":5.3918,"is_reserved":false,"is_disabled":false,"rental_uris":{"android":"levelo://app?vid=96386482-9507-4b21-bf30-44f548751d94","ios":"levelo://app?vid=96386482-9507-4b21-bf30-44f548751d94"},"vehicle_type_id":"4","last_reported":1759238540,"current_range_meters":3600,"station_id":"ce4bhhp2rcd13ifvqfm0","pricing_plan_id":"cebpf4jnsgd1na2vs0mg"},{"bike_id":"258ab053-1083-4ca9-a32a-1e85f085fc22","system_id":"levelo_inurba_marseille","lat":43.337444,"lon":5.374475,"is_reserved":false,"is_disabled":false,"rental_uris":{"android":"levelo://app?vid=258ab053-1083-4ca9-a32a-1e85f085fc22","ios":"levelo://app?vid=258ab053-1083-4ca9-a32a-1e85f085fc22"},"vehicle_type_id":"4","last_reported":1759238540,"current_range_meters":3600,"station_id":"","pricing_plan_id":"cebpf4jnsgd1na2vs0mg"},{"bike_id":"8b353c9e-13c5-42ee-a76f-ccbd6269a3dc","system_id":"levelo_inurba_marseille","lat":43.30444,"lon":5.36689,"is_reserved":false,"is_disabled":false,"rental_uris":{"android":"levelo://app?vid=8b353c9e-13c5-42ee-a76f-ccbd6269a3dc","ios":"levelo://app?vid=8b353c9e-13c5-42ee-a76f-ccbd6269a3dc"},"vehicle_type_id":"4","last_reported":1759238540,"current_range_meters":4000,"station_id":"","pricing_plan_id":"cebpf4jnsgd1na2vs0mg"},{"bike_id":"6367c7b9-7012-449a-b69f-2cf54e51b4bb","system_id":"levelo_inurba_marseille","lat":43.24544,"lon":5.39534,"is_reserved":false,"is_disabled":false,"rental_uris":{"android":"levelo://app?vid=6367c7b9-7012-449a-b69f-2cf54e51b4bb","ios":"levelo://app?vid=6367c7b9-7012-449a-b69f-2cf54e51b4bb"},"vehicle_type_id":"4","last_reported":1759238540,"current_range_meters":4000,"station_id":"ce4bhlp2rcd13ifvqgjg","pricing_plan_id":"cebpf4jnsgd1na2vs0mg"},{"bike_id":"53cda1d7-47c9-4756-b726-9dd9caf96cb3","system_id":"levelo_inurba_marseille","lat":43.267792,"lon":5.394177,"is_reserved":false,"is_disabled":false,"rental_uris":{"android":"levelo://app?vid=53cda1d7-47c9-4756-b726-9dd9caf96cb3","ios":"levelo://app?vid=53cda1d7-47c9-4756-b726-9dd9caf96cb3"},"vehicle_type_id":"4","last_reported":1759238540,"current_range_meters":4000,"station_id":"ce4bhh12rcd13ifvqfg0","pricing_plan_id":"cebpf4jnsgd1na2vs0mg"},{"bike_id":"e603c824-b562-4d06-acae-2eb88fe3da87","system_id":"levelo_inurba_marseille","lat":43.300958,"lon":5.390744,"is_reserved":false,"is_disabled":false,"rental_uris":{"android":"levelo://app?vid=e603c824-b562-4d06-acae-2eb88fe3da87","ios":"levelo://app?vid=e603c824-b562-4d06-acae-2eb88fe3da87"},"vehicle_type_id":"4","last_reported":1759238540,"current_range_meters":4000,"station_id":"ce4bh192rcd13ifvqdb0","pricing_plan_id":"cebpf4jnsgd1na2vs0mg"},{"bike_id":"2c6518be-b3f0-42d2-93c9-c1de9e54885f","system_id":"levelo_inurba_marseille","lat":43.29227,"lon":5.38219,"is_reserved":false,"is_disabled":false,"rental_uris":{"android":"levelo://app?vid=2c6518be-b3f0-42d2-93c9-c1de9e54885f","ios":"levelo://app?vid=2c6518be-b3f0-42d2-93c9-c1de9e54885f"},"vehicle_type_id":"4","last_reported":1759238540,"current_range_meters":4400,"station_id":"","pricing_plan_id":"cebpf4jnsgd1na2vs0mg"},{"bike_id":"5a7993b2-dd19-4921-bd91-dee3b178ddbe","system_id":"levelo_inurba_marseille","lat":43.23153,"lon":5.43709,"is_reserved":false,"is_disabled":false,"rental_uris":{"android":"levelo://app?vid=5a7993b2-dd19-4921-bd91-dee3b178ddbe","ios":"levelo://app?vid=5a7993b2-dd19-4921-bd91-dee3b178ddbe"},"vehicle_type_id":"4","last_reported":1759238540,"current_range_meters":4400,"station_id":"ce4bhmp2rcd13ifvqgog","pricing_plan_id":"cebpf4jnsgd1na2vs0mg"},{"bike_id":"1dad2113-89e2-44fc-a0b6-ddd6a09baff1","system_id":"levelo_inurba_marseille","lat":43.337444,"lon":5.374475,"is_reserved":false,"is_disabled":false,"rental_uris":{"android":"levelo://app?vid=1dad2113-89e2-44fc-a0b6-ddd6a09baff1","ios":"levelo://app?vid=1dad2113-89e2-44fc-a0b6-ddd6a09baff1"},"vehicle_type_id":"4","last_reported":1759238540,"current_range_meters":4400,"station_id":"","pricing_plan_id":"cebpf4jnsgd1na2vs0mg"},{"bike_id":"ca660db5-13a2-4b17-89f6-c4a43f402701","system_id":"levelo_inurba_marseille","lat":43.318585,"lon":5.370658,"is_reserved":false,"is_disabled":false,"rental_uris":{"android":"levelo://app?vid=ca660db5-13a2-4b17-89f6-c4a43f402701","ios":"levelo://app?vid=ca660db5-13a2-4b17-89f6-c4a43f402701"},"vehicle_type_id":"4","last_reported":1759238540,"current_range_meters":4800,"station_id":"","pricing_plan_id":"cebpf4jnsgd1na2vs0mg"},{"bike_id":"9269e5a4-bd2b-46ef-a386-76229cf6c029","system_id":"levelo_inurba_marseille","lat":43.27675,"lon":5.38866,"is_reserved":false,"is_disabled":false,"rental_uris":{"android":"levelo://app?vid=9269e5a4-bd2b-46ef-a386-76229cf6c029","ios":"levelo://app?vid=9269e5a4-bd2b-46ef-a386-76229cf6c029"},"vehicle_type_id":"4","last_reported":1759238540,"current_range_meters":5600,"station_id":"ce4bhi12rcd13ifvqfo0","pricing_plan_id":"cebpf4jnsgd1na2vs0mg"},{"bike_id":"732d469e-cd1b-4359-82fd-bb6d00429865","system_id":"levelo_inurba_marseille","lat":43.28606,"lon":5.37061,"is_reserved":false,"is_disabled":false,"rental_uris":{"android":"levelo://app?vid=732d469e-cd1b-4359-82fd-bb6d00429865","ios":"levelo://app?vid=732d469e-cd1b-4359-82fd-bb6d00429865"},"vehicle_type_id":"4","last_reported":1759238540,"current_range_meters":5600,"station_id":"ce4bht12rcd13ifvqi60","pricing_plan_id":"cebpf4jnsgd1na2vs0mg"},{"bike_id":"e5378695-fba9-432a-9cfb-3b5b05e40fec","system_id":"levelo_inurba_marseille","lat":43.337986,"lon":5.374304,"is_reserved":false,"is_disabled":false,"rental_uris":{"android":"levelo://app?vid=e5378695-fba9-432a-9cfb-3b5b05e40fec","ios":"levelo://app?vid=e5378695-fba9-432a-9cfb-3b5b05e40fec"},"vehicle_type_id":"4","last_reported":1759238540,"current_range_meters":5600,"station_id":"","pricing_plan_id":"cebpf4jnsgd1na2vs0mg"},{"bike_id":"dc5dbc98-f4fc-4e26-bb34-c5d23ca16d12","system_id":"levelo_inurba_marseille","lat":43.27315,"lon":5.39083,"is_reserved":false,"is_disabled":false,"rental_uris":{"android":"levelo://app?vid=dc5dbc98-f4fc-4e26-bb34-c5d23ca16d12","ios":"levelo://app?vid=dc5dbc98-f4fc-4e26-bb34-c5d23ca16d12"},"vehicle_type_id":"4","last_reported":1759238540,"current_range_meters":6000,"station_id":"ce4bhgp2rcd13ifvqfe0","pricing_plan_id":"cebpf4jnsgd1na2vs0mg"},{"bike_id":"cdddcc3f-f37e-4ffb-b281-87da1fa4b92c","system_id":"levelo_inurba_marseille","lat":43.304171,"lon":5.412893,"is_reserved":false,"is_disabled":false,"rental_uris":{"android":"levelo://app?vid=cdddcc3f-f37e-4ffb-b281-87da1fa4b92c","ios":"levelo://app?vid=cdddcc3f-f37e-4ffb-b281-87da1fa4b92c"},"vehicle_type_id":"4","last_reported":1759238540,"current_range_meters":6000,"station_id":"ce4bhop2rcd13ifvqh8g","pricing_plan_id":"cebpf4jnsgd1na2vs0mg"},{"bike_id":"35e8f722-b82a-4247-beb8-7e2827829ce6","system_id":"levelo_inurba_marseille","lat":43.32405,"lon":5.3911,"is_reserved":false,"is_disabled":false,"rental_uris":{"android":"levelo://app?vid=35e8f722-b82a-4247-beb8-7e2827829ce6","ios":"levelo://app?vid=35e8f722-b82a-4247-beb8-7e2827829ce6"},"vehicle_type_id":"4","last_reported":1759238540,"current_range_meters":6000,"station_id":"","pricing_plan_id":"cebpf4jnsgd1na2vs0mg"},{"bike_id":"4dfb6bcc-7d56-439f-b62e-176b14faccbe","system_id":"levelo_inurba_marseille","lat":43.2836,"lon":5.38637,"is_reserved":false,"is_disabled":false,"rental_uris":{"android":"levelo://app?vid=4dfb6bcc-7d56-439f-b62e-176b14faccbe","ios":"levelo://app?vid=4dfb6bcc-7d56-439f-b62e-176b14faccbe"},"vehicle_type_id":"4","last_reported":1759238540,"current_range_meters":6000,"station_id":"ce4bh492rcd13ifvqdvg","pricing_plan_id":"cebpf4jnsgd1na2vs0mg"},{"bike_id":"8eba698c-1343-4776-a7ef-1194c9c853da","system_id":"levelo_inurba_marseille","lat":43.26544,"lon":5.39216,"is_reserved":false,"is_disabled":false,"rental_uris":{"android":"levelo://app?vid=8eba698c-1343-4776-a7ef-1194c9c853da","ios":"levelo://app?vid=8eba698c-1343-4776-a7ef-1194c9c853da"},"vehicle_type_id":"4","last_reported":1759238540,"current_range_meters":6400,"station_id":"","pricing_plan_id":"cebpf4jnsgd1na2vs0mg"},{"bike_id":"487d3497-cdca-45f7-bcc7-918cc993bab8","system_id":"levelo_inurba_marseille","lat":43.29969,"lon":5.38493,"is_reserved":false,"is_disabled":false,"rental_uris":{"android":"levelo://app?vid=487d3497-cdca-45f7-bcc7-918cc993bab8","ios":"levelo://app?vid=487d3497-cdca-45f7-bcc7-918cc993bab8"},"vehicle_type_id":"4","last_reported":1759238540,"current_range_meters":6400,"station_id":"ce4bgj92rcd13ifvqbd0","pricing_plan_id":"cebpf4jnsgd1na2vs0mg"},{"bike_id":"aae0fff4-79c4-4eff-a901-ce6dfad9d0e7","system_id":"levelo_inurba_marseille","lat":43.28073,"lon":5.38671,"is_reserved":false,"is_disabled":true,"rental_uris":{"android":"levelo://app?vid=aae0fff4-79c4-4eff-a901-ce6dfad9d0e7","ios":"levelo://app?vid=aae0fff4-79c4-4eff-a901-ce6dfad9d0e7"},"vehicle_type_id":"4","last_reported":1759238540,"current_range_meters":6400,"station_id":"","pricing_plan_id":"cebpf4jnsgd1na2vs0mg"},{"bike_id":"b857e686-82a0-4f48-9617-afd294395564","system_id":"levelo_inurba_marseille","lat":43.25585,"lon":5.38234,"is_reserved":false,"is_disabled":false,"rental_uris":{"android":"levelo://app?vid=b857e686-82a0-4f48-9617-afd294395564","ios":"levelo://app?vid=b857e686-82a0-4f48-9617-afd294395564"},"vehicle_type_id":"4","last_reported":1759238540,"current_range_meters":6400,"station_id":"ce4bhih2rcd13ifvqfs0","pricing_plan_id":"cebpf4jnsgd1na2vs0mg"},{"bike_id":"c50ee1bf-cd3b-4cd8-9bdb-8c8d4b88330b","system_id":"levelo_inurba_marseille","lat":43.28079,"lon":5.39665,"is_reserved":false,"is_disabled":false,"rental_uris":{"android":"levelo://app?vid=c50ee1bf-cd3b-4cd8-9bdb-8c8d4b88330b","ios":"levelo://app?vid=c50ee1bf-cd3b-4cd8-9bdb-8c8d4b88330b"},"vehicle_type_id":"4","last_reported":1759238540,"current_range_meters":6400,"station_id":"ce4bho12rcd13ifvqh2g","pricing_plan_id":"cebpf4jnsgd1na2vs0mg"},{"bike_id":"13062117-10cc-45d5-ae85-97f2cc1b8809","system_id":"levelo_inurba_marseille","lat":43.22562,"lon":5.41637,"is_reserved":false,"is_disabled":false,"rental_uris":{"android":"levelo://app?vid=13062117-10cc-45d5-ae85-97f2cc1b8809","ios":"levelo://app?vid=13062117-10cc-45d5-ae85-97f2cc1b8809"},"vehicle_type_id":"4","last_reported":1759238540,"current_range_meters":6800,"station_id":"st_d2o4gvlbi1j2169b742g","pricing_plan_id":"cebpf4jnsgd1na2vs0mg"},{"bike_id":"e8376bc6-bc50-439d-acc6-a2e6aeca9ddb","system_id":"levelo_inurba_marseille","lat":43.27968,"lon":5.38755,"is_reserved":false,"is_disabled":false,"rental_uris":{"android":"levelo://app?vid=e8376bc6-bc50-439d-acc6-a2e6aeca9ddb","ios":"levelo://app?vid=e8376bc6-bc50-439d-acc6-a2e6aeca9ddb"},"vehicle_type_id":"4","last_reported":1759238540,"current_range_meters":6800,"station_id":"ce4bhg12rcd13ifvqf80","pricing_plan_id":"cebpf4jnsgd1na2vs0mg"},{"bike_id":"7952d0c5-c3b4-4c29-bacd-f59ef155894d","system_id":"levelo_inurba_marseille","lat":43.30101,"lon":5.39099,"is_reserved":false,"is_disabled":false,"rental_uris":{"android":"levelo://app?vid=7952d0c5-c3b4-4c29-bacd-f59ef155894d","ios":"levelo://app?vid=7952d0c5-c3b4-4c29-bacd-f59ef155894d"},"vehicle_type_id":"4","last_reported":1759238540,"current_range_meters":6800,"station_id":"ce4bh192rcd13ifvqdb0","pricing_plan_id":"cebpf4jnsgd1na2vs0mg"},{"bike_id":"f3318a90-fc7b-41c4-a7f2-fcaa403ef22c","system_id":"levelo_inurba_marseille","lat":43.33717,"lon":5.39182,"is_reserved":false,"is_disabled":false,"rental_uris":{"android":"levelo://app?vid=f3318a90-fc7b-41c4-a7f2-fcaa403ef22c","ios":"levelo://app?vid=f3318a90-fc7b-41c4-a7f2-fcaa403ef22c"},"vehicle_type_id":"4","last_reported":1759238540,"current_range_meters":6800,"station_id":"ce4bhr92rcd13ifvqhsg","pricing_plan_id":"cebpf4jnsgd1na2vs0mg"},{"bike_id":"17e0140f-dff1-4f70-a503-0dfd92c9aaf4","system_id":"levelo_inurba_marseille","lat":43.27621,"lon":5.36101,"is_reserved":false,"is_disabled":false,"rental_uris":{"android":"levelo://app?vid=17e0140f-dff1-4f70-a503-0dfd92c9aaf4","ios":"levelo://app?vid=17e0140f-dff1-4f70-a503-0dfd92c9aaf4"},"vehicle_type_id":"4","last_reported":1759238540,"current_range_meters":6800,"station_id":"ce4bgj92rcd13ifvqbe0","pricing_plan_id":"cebpf4jnsgd1na2vs0mg"},{"bike_id":"1e042f14-09bc-4bdb-830c-637be1ce53e8","system_id":"levelo_inurba_marseille","lat":43.284093,"lon":5.349762,"is_reserved":false,"is_disabled":false,"rental_uris":{"android":"levelo://app?vid=1e042f14-09bc-4bdb-830c-637be1ce53e8","ios":"levelo://app?vid=1e042f14-09bc-4bdb-830c-637be1ce53e8"},"vehicle_type_id":"4","last_reported":1759238540,"current_range_meters":7200,"station_id":"ce4bhbh2rcd13ifvqepg","pricing_plan_id":"cebpf4jnsgd1na2vs0mg"},{"bike_id":"30369c8f-6895-4e24-b2df-5d317aa542ed","system_id":"levelo_inurba_marseille","lat":43.24808,"lon":5.37451,"is_reserved":false,"is_disabled":false,"rental_uris":{"android":"levelo://app?vid=30369c8f-6895-4e24-b2df-5d317aa542ed","ios":"levelo://app?vid=30369c8f-6895-4e24-b2df-5d317aa542ed"},"vehicle_type_id":"4","last_reported":1759238540,"current_range_meters":7200,"station_id":"ce4bhgh2rcd13ifvqfb0","pricing_plan_id":"cebpf4jnsgd1na2vs0mg"},{"bike_id":"29fb0313-96d0-4699-a2b9-d9bfae768dba","system_id":"levelo_inurba_marseille","lat":43.28158,"lon":5.42642,"is_reserved":false,"is_disabled":true,"rental_uris":{"android":"levelo://app?vid=29fb0313-96d0-4699-a2b9-d9bfae768dba","ios":"levelo://app?vid=29fb0313-96d0-4699-a2b9-d9bfae768dba"},"vehicle_type_id":"4","last_reported":1759238540,"current_range_meters":7200,"station_id":"ce4bhnh2rcd13ifvqgug","pricing_plan_id":"cebpf4jnsgd1na2vs0mg"},{"bike_id":"9dd34366-3fa6-4985-8e1a-6de46aae9d42","system_id":"levelo_inurba_marseille","lat":43.26944,"lon":5.40246,"is_reserved":false,"is_disabled":false,"rental_uris":{"android":"levelo://app?vid=9dd34366-3fa6-4985-8e1a-6de46aae9d42","ios":"levelo://app?vid=9dd34366-3fa6-4985-8e1a-6de46aae9d42"},"vehicle_type_id":"4","last_reported":1759238540,"current_range_meters":7200,"station_id":"cjm6bp8fraef2m0cb0m0","pricing_plan_id":"cebpf4jnsgd1na2vs0mg"},{"bike_id":"63633112-c081-4065-acbe-3af4e56b0aec","system_id":"levelo_inurba_marseille","lat":43.30423,"lon":5.41292,"is_reserved":false,"is_disabled":false,"rental_uris":{"android":"levelo://app?vid=63633112-c081-4065-acbe-3af4e56b0aec","ios":"levelo://app?vid=63633112-c081-4065-acbe-3af4e56b0aec"},"vehicle_type_id":"4","last_reported":1759238540,"current_range_meters":7200,"station_id":"ce4bhop2rcd13ifvqh8g","pricing_plan_id":"cebpf4jnsgd1na2vs0mg"},{"bike_id":"6d053646-661a-4937-90a3-34824f8442b3","system_id":"levelo_inurba_marseille","lat":43.28469,"lon":5.38531,"is_reserved":false,"is_disabled":false,"rental_uris":{"android":"levelo://app?vid=6d053646-661a-4937-90a3-34824f8442b3","ios":"levelo://app?vid=6d053646-661a-4937-90a3-34824f8442b3"},"vehicle_type_id":"4","last_reported":1759238540,"current_range_meters":7200,"station_id":"ce4bh8p2rcd13ifvqeb0","pricing_plan_id":"cebpf4jnsgd1na2vs0mg"},{"bike_id":"ea59b303-6900-42ad-9e79-5b0f95bedd6c","system_id":"levelo_inurba_marseille","lat":43.30449,"lon":5.36863,"is_reserved":false,"is_disabled":false,"rental_uris":{"android":"levelo://app?vid=ea59b303-6900-42ad-9e79-5b0f95bedd6c","ios":"levelo://app?vid=ea59b303-6900-42ad-9e79-5b0f95bedd6c"},"vehicle_type_id":"4","last_reported":1759238540,"current_range_meters":7200,"station_id":"","pricing_plan_id":"cebpf4jnsgd1na2vs0mg"},{"bike_id":"ce5e157e-4ef2-4c41-9b3b-54d3eecbfa45","system_id":"levelo_inurba_marseille","lat":43.2251,"lon":5.34839,"is_reserved":false,"is_disabled":false,"rental_uris":{"android":"levelo://app?vid=ce5e157e-4ef2-4c41-9b3b-54d3eecbfa45","ios":"levelo://app?vid=ce5e157e-4ef2-4c41-9b3b-54d3eecbfa45"},"vehicle_type_id":"4","last_reported":1759238540,"current_range_meters":7200,"station_id":"","pricing_plan_id":"cebpf4jnsgd1na2vs0mg"},{"bike_id":"a9954192-4802-4f98-b97a-ebe9ab75d705","system_id":"levelo_inurba_marseille","lat":43.34144,"lon":5.40907,"is_reserved":false,"is_disabled":false,"rental_uris":{"android":"levelo://app?vid=a9954192-4802-4f98-b97a-ebe9ab75d705","ios":"levelo://app?vid=a9954192-4802-4f98-b97a-ebe9ab75d705"},"vehicle_type_id":"4","last_reported":1759238540,"current_range_meters":8000,"station_id":"ce4bhqh2rcd13ifvqhlg","pricing_plan_id":"cebpf4jnsgd1na2vs0mg"},{"bike_id":"fe33b72c-41a8-417c-8378-dbc7fedb6778","system_id":"levelo_inurba_marseille","lat":43.27675,"lon":5.38872,"is_reserved":false,"is_disabled":false,"rental_uris":{"android":"levelo://app?vid=fe33b72c-41a8-417c-8378-dbc7fedb6778","ios":"levelo://app?vid=fe33b72c-41a8-417c-8378-dbc7fedb6778"},"vehicle_type_id":"4","last_reported":1759238540,"current_range_meters":8000,"station_id":"ce4bhi12rcd13ifvqfo0","pricing_plan_id":"cebpf4jnsgd1na2vs0mg"},{"bike_id":"83be3812-6cd8-45b3-a069-296a58bb3cd8","system_id":"levelo_inurba_marseille","lat":43.26937,"lon":5.3891,"is_reserved":false,"is_disabled":false,"rental_uris":{"android":"levelo://app?vid=83be3812-6cd8-45b3-a069-296a58bb3cd8","ios":"levelo://app?vid=83be3812-6cd8-45b3-a069-296a58bb3cd8"},"vehicle_type_id":"4","last_reported":1759238540,"current_range_meters":8000,"station_id":"ce4bhhh2rcd13ifvqfl0","pricing_plan_id":"cebpf4jnsgd1na2vs0mg"},{"bike_id":"fd525a26-6776-436c-b9ac-8ae285b5ae6e","system_id":"levelo_inurba_marseille","lat":43.28575,"lon":5.39506,"is_reserved":false,"is_disabled":false,"rental_uris":{"android":"levelo://app?vid=fd525a26-6776-436c-b9ac-8ae285b5ae6e","ios":"levelo://app?vid=fd525a26-6776-436c-b9ac-8ae285b5ae6e"},"vehicle_type_id":"4","last_reported":1759238540,"current_range_meters":8000,"station_id":"ce4bh292rcd13ifvqdg0","pricing_plan_id":"cebpf4jnsgd1na2vs0mg"},{"bike_id":"008f00ef-5d91-4678-8543-b2d7f596f40f","system_id":"levelo_inurba_marseille","lat":43.31227,"lon":5.36889,"is_reserved":false,"is_disabled":false,"rental_uris":{"android":"levelo://app?vid=008f00ef-5d91-4678-8543-b2d7f596f40f","ios":"levelo://app?vid=008f00ef-5d91-4678-8543-b2d7f596f40f"},"vehicle_type_id":"4","last_reported":1759238540,"current_range_meters":8000,"station_id":"ce4bgl92rcd13ifvqbq0","pricing_plan_id":"cebpf4jnsgd1na2vs0mg"},{"bike_id":"d49d4088-ae73-45e6-850e-3659f3a3d0e1","system_id":"levelo_inurba_marseille","lat":43.21751,"lon":5.34606,"is_reserved":false,"is_disabled":false,"rental_uris":{"android":"levelo://app?vid=d49d4088-ae73-45e6-850e-3659f3a3d0e1","ios":"levelo://app?vid=d49d4088-ae73-45e6-850e-3659f3a3d0e1"},"vehicle_type_id":"4","last_reported":1759238540,"current_range_meters":8000,"station_id":"st_cvj6r9ubvosntc0bgbag","pricing_plan_id":"cebpf4jnsgd1na2vs0mg"},{"bike_id":"ee96a502-9b76-492e-840a-498b02aefe72","system_id":"levelo_inurba_marseille","lat":43.32358,"lon":5.39224,"is_reserved":false,"is_disabled":false,"rental_uris":{"android":"levelo://app?vid=ee96a502-9b76-492e-840a-498b02aefe72","ios":"levelo://app?vid=ee96a502-9b76-492e-840a-498b02aefe72"},"vehicle_type_id":"4","last_reported":1759238540,"current_range_meters":8000,"station_id":"","pricing_plan_id":"cebpf4jnsgd1na2vs0mg"},{"bike_id":"2d347eb2-9ae9-477a-939e-521872d563d2","system_id":"levelo_inurba_marseille","lat":43.2842,"lon":5.34999,"is_reserved":false,"is_disabled":false,"rental_uris":{"android":"levelo://app?vid=2d347eb2-9ae9-477a-939e-521872d563d2","ios":"levelo://app?vid=2d347eb2-9ae9-477a-939e-521872d563d2"},"vehicle_type_id":"4","last_reported":1759238540,"current_range_meters":8000,"station_id":"ce4bhbh2rcd13ifvqepg","pricing_plan_id":"cebpf4jnsgd1na2vs0mg"},{"bike_id":"9c4235da-d3d0-4056-aa6b-c6aa6e8e7367","system_id":"levelo_inurba_marseille","lat":43.30673,"lon":5.37537,"is_reserved":false,"is_disabled":false,"rental_uris":{"android":"levelo://app?vid=9c4235da-d3d0-4056-aa6b-c6aa6e8e7367","ios":"levelo://app?vid=9c4235da-d3d0-4056-aa6b-c6aa6e8e7367"},"vehicle_type_id":"4","last_reported":1759238540,"current_range_meters":8000,"station_id":"","pricing_plan_id":"cebpf4jnsgd1na2vs0mg"},{"bike_id":"76468404-4f55-4468-97f9-6540334ac227","system_id":"levelo_inurba_marseille","lat":43.32482,"lon":5.36566,"is_reserved":false,"is_disabled":false,"rental_uris":{"android":"levelo://app?vid=76468404-4f55-4468-97f9-6540334ac227","ios":"levelo://app?vid=76468404-4f55-4468-97f9-6540334ac227"},"vehicle_type_id":"4","last_reported":1759238540,"current_range_meters":8000,"station_id":"ce4bhs12rcd13ifvqhvg","pricing_plan_id":"cebpf4jnsgd1na2vs0mg"},{"bike_id":"7466ebc7-a816-469f-9f83-d47c3e26f097","system_id":"levelo_inurba_marseille","lat":43.26553,"lon":5.37285,"is_reserved":false,"is_disabled":false,"rental_uris":{"android":"levelo://app?vid=7466ebc7-a816-469f-9f83-d47c3e26f097","ios":"levelo://app?vid=7466ebc7-a816-469f-9f83-d47c3e26f097"},"vehicle_type_id":"4","last_reported":1759238540,"current_range_meters":8400,"station_id":"ce4bhg12rcd13ifvqf70","pricing_plan_id":"cebpf4jnsgd1na2vs0mg"},{"bike_id":"2e8e4b55-0ca7-4b03-b7cf-6bb39aff6c93","system_id":"levelo_inurba_marseille","lat":43.217463,"lon":5.346021,"is_reserved":false,"is_disabled":false,"rental_uris":{"android":"levelo://app?vid=2e8e4b55-0ca7-4b03-b7cf-6bb39aff6c93","ios":"levelo://app?vid=2e8e4b55-0ca7-4b03-b7cf-6bb39aff6c93"},"vehicle_type_id":"4","last_reported":1759238540,"current_range_meters":8400,"station_id":"st_cvj6r9ubvosntc0bgbag","pricing_plan_id":"cebpf4jnsgd1na2vs0mg"},{"bike_id":"dd5e8987-9f51-4f50-bdd1-4945b8c8a574","system_id":"levelo_inurba_marseille","lat":43.25575,"lon":5.38223,"is_reserved":false,"is_disabled":false,"rental_uris":{"android":"levelo://app?vid=dd5e8987-9f51-4f50-bdd1-4945b8c8a574","ios":"levelo://app?vid=dd5e8987-9f51-4f50-bdd1-4945b8c8a574"},"vehicle_type_id":"4","last_reported":1759238540,"current_range_meters":8400,"station_id":"ce4bhih2rcd13ifvqfs0","pricing_plan_id":"cebpf4jnsgd1na2vs0mg"},{"bike_id":"c9f7c894-4df2-4643-ac68-955fcc67beeb","system_id":"levelo_inurba_marseille","lat":43.27996,"lon":5.41657,"is_reserved":false,"is_disabled":true,"rental_uris":{"android":"levelo://app?vid=c9f7c894-4df2-4643-ac68-955fcc67beeb","ios":"levelo://app?vid=c9f7c894-4df2-4643-ac68-955fcc67beeb"},"vehicle_type_id":"4","last_reported":1759238540,"current_range_meters":8400,"station_id":"ce4bho12rcd13ifvqh1g","pricing_plan_id":"cebpf4jnsgd1na2vs0mg"},{"bike_id":"d3e63642-d8e1-415a-bd6c-1227573898fc","system_id":"levelo_inurba_marseille","lat":43.31229,"lon":5.36865,"is_reserved":false,"is_disabled":false,"rental_uris":{"android":"levelo://app?vid=d3e63642-d8e1-415a-bd6c-1227573898fc","ios":"levelo://app?vid=d3e63642-d8e1-415a-bd6c-1227573898fc"},"vehicle_type_id":"4","last_reported":1759238540,"current_range_meters":8400,"station_id":"ce4bgl92rcd13ifvqbq0","pricing_plan_id":"cebpf4jnsgd1na2vs0mg"},{"bike_id":"5a5f0890-1d3b-4da9-8863-5a0f4e6253ef","system_id":"levelo_inurba_marseille","lat":43.33021,"lon":5.39043,"is_reserved":false,"is_disabled":false,"rental_uris":{"android":"levelo://app?vid=5a5f0890-1d3b-4da9-8863-5a0f4e6253ef","ios":"levelo://app?vid=5a5f0890-1d3b-4da9-8863-5a0f4e6253ef"},"vehicle_type_id":"4","last_reported":1759238540,"current_range_meters":8400,"station_id":"ce4bhr92rcd13ifvqhrg","pricing_plan_id":"cebpf4jnsgd1na2vs0mg"},{"bike_id":"a07a513e-e5a9-4481-8592-d991379bc662","system_id":"levelo_inurba_marseille","lat":43.33735,"lon":5.37481,"is_reserved":false,"is_disabled":false,"rental_uris":{"android":"levelo://app?vid=a07a513e-e5a9-4481-8592-d991379bc662","ios":"levelo://app?vid=a07a513e-e5a9-4481-8592-d991379bc662"},"vehicle_type_id":"4","last_reported":1759238540,"current_range_meters":8400,"station_id":"","pricing_plan_id":"cebpf4jnsgd1na2vs0mg"},{"bike_id":"a2411a4b-e5ef-475f-b05a-622f2fcb8ba4","system_id":"levelo_inurba_marseille","lat":43.31487,"lon":5.37277,"is_reserved":false,"is_disabled":false,"rental_uris":{"android":"levelo://app?vid=a2411a4b-e5ef-475f-b05a-622f2fcb8ba4","ios":"levelo://app?vid=a2411a4b-e5ef-475f-b05a-622f2fcb8ba4"},"vehicle_type_id":"4","last_reported":1759238540,"current_range_meters":8800,"station_id":"ce4bgt12rcd13ifvqcd0","pricing_plan_id":"cebpf4jnsgd1na2vs0mg"},{"bike_id":"09645222-f055-49e6-a916-d7c26e8ef9cf","system_id":"levelo_inurba_marseille","lat":43.27624,"lon":5.36107,"is_reserved":false,"is_disabled":false,"rental_uris":{"android":"levelo://app?vid=09645222-f055-49e6-a916-d7c26e8ef9cf","ios":"levelo://app?vid=09645222-f055-49e6-a916-d7c26e8ef9cf"},"vehicle_type_id":"4","last_reported":1759238540,"current_range_meters":8800,"station_id":"ce4bgj92rcd13ifvqbe0","pricing_plan_id":"cebpf4jnsgd1na2vs0mg"},{"bike_id":"61bfe2dd-4a13-4a67-b770-1463fc401ce3","system_id":"levelo_inurba_marseille","lat":43.31513,"lon":5.37302,"is_reserved":false,"is_disabled":false,"rental_uris":{"android":"levelo://app?vid=61bfe2dd-4a13-4a67-b770-1463fc401ce3","ios":"levelo://app?vid=61bfe2dd-4a13-4a67-b770-1463fc401ce3"},"vehicle_type_id":"4","last_reported":1759238540,"current_range_meters":8800,"station_id":"ce4bgt12rcd13ifvqcd0","pricing_plan_id":"cebpf4jnsgd1na2vs0mg"},{"bike_id":"1f0830a0-a7d8-43c2-b336-2661dae2689b","system_id":"levelo_inurba_marseille","lat":43.28255,"lon":5.35061,"is_reserved":false,"is_disabled":false,"rental_uris":{"android":"levelo://app?vid=1f0830a0-a7d8-43c2-b336-2661dae2689b","ios":"levelo://app?vid=1f0830a0-a7d8-43c2-b336-2661dae2689b"},"vehicle_type_id":"4","last_reported":1759238540,"current_range_meters":8800,"station_id":"ce4bhbp2rcd13ifvqerg","pricing_plan_id":"cebpf4jnsgd1na2vs0mg"},{"bike_id":"c627b34a-8e81-4438-af3b-4fd0aab1c160","system_id":"levelo_inurba_marseille","lat":43.29665,"lon":5.36002,"is_reserved":false,"is_disabled":false,"rental_uris":{"android":"levelo://app?vid=c627b34a-8e81-4438-af3b-4fd0aab1c160","ios":"levelo://app?vid=c627b34a-8e81-4438-af3b-4fd0aab1c160"},"vehicle_type_id":"4","last_reported":1759238540,"current_range_meters":8800,"station_id":"","pricing_plan_id":"cebpf4jnsgd1na2vs0mg"},{"bike_id":"2992408a-ee35-40a8-a2c0-b84d3e0ef1d9","system_id":"levelo_inurba_marseille","lat":43.22561,"lon":5.41627,"is_reserved":false,"is_disabled":false,"rental_uris":{"android":"levelo://app?vid=2992408a-ee35-40a8-a2c0-b84d3e0ef1d9","ios":"levelo://app?vid=2992408a-ee35-40a8-a2c0-b84d3e0ef1d9"},"vehicle_type_id":"4","last_reported":1759238540,"current_range_meters":9200,"station_id":"st_d2o4gvlbi1j2169b742g","pricing_plan_id":"cebpf4jnsgd1na2vs0mg"},{"bike_id":"b3aac7b4-0ed6-4ddc-9d19-ef755d070cd4","system_id":"levelo_inurba_marseille","lat":43.308026,"lon":5.435257,"is_reserved":false,"is_disabled":false,"rental_uris":{"android":"levelo://app?vid=b3aac7b4-0ed6-4ddc-9d19-ef755d070cd4","ios":"levelo://app?vid=b3aac7b4-0ed6-4ddc-9d19-ef755d070cd4"},"vehicle_type_id":"4","last_reported":1759238540,"current_range_meters":9200,"station_id":"ce4bhph2rcd13ifvqheg","pricing_plan_id":"cebpf4jnsgd1na2vs0mg"},{"bike_id":"0a9d89a1-c46b-489a-be3b-5dbfcba30d3c","system_id":"levelo_inurba_marseille","lat":43.29552,"lon":5.42297,"is_reserved":false,"is_disabled":false,"rental_uris":{"android":"levelo://app?vid=0a9d89a1-c46b-489a-be3b-5dbfcba30d3c","ios":"levelo://app?vid=0a9d89a1-c46b-489a-be3b-5dbfcba30d3c"},"vehicle_type_id":"4","last_reported":1759238540,"current_range_meters":9200,"station_id":"ce4bhph2rcd13ifvqhdg","pricing_plan_id":"cebpf4jnsgd1na2vs0mg"},{"bike_id":"2543cc2a-a387-4cc3-afbd-3198379af985","system_id":"levelo_inurba_marseille","lat":43.29674,"lon":5.37291,"is_reserved":false,"is_disabled":false,"rental_uris":{"android":"levelo://app?vid=2543cc2a-a387-4cc3-afbd-3198379af985","ios":"levelo://app?vid=2543cc2a-a387-4cc3-afbd-3198379af985"},"vehicle_type_id":"4","last_reported":1759238540,"current_range_meters":9600,"station_id":"ce4bgk12rcd13ifvqbj0","pricing_plan_id":"cebpf4jnsgd1na2vs0mg"},{"bike_id":"385fa573-6758-43e7-a2f4-f27be30ea572","system_id":"levelo_inurba_marseille","lat":43.32106,"lon":5.36774,"is_reserved":false,"is_disabled":false,"rental_uris":{"android":"levelo://app?vid=385fa573-6758-43e7-a2f4-f27be30ea572","ios":"levelo://app?vid=385fa573-6758-43e7-a2f4-f27be30ea572"},"vehicle_type_id":"4","last_reported":1759238540,"current_range_meters":9600,"station_id":"ce4bhrh2rcd13ifvqhug","pricing_plan_id":"cebpf4jnsgd1na2vs0mg"},{"bike_id":"89dfbd30-af52-48ec-acdc-8673f4453b12","system_id":"levelo_inurba_marseille","lat":43.28727,"lon":5.3609,"is_reserved":false,"is_disabled":false,"rental_uris":{"android":"levelo://app?vid=89dfbd30-af52-48ec-acdc-8673f4453b12","ios":"levelo://app?vid=89dfbd30-af52-48ec-acdc-8673f4453b12"},"vehicle_type_id":"4","last_reported":1759238540,"current_range_meters":9600,"station_id":"cki0cbj6b192h4jlfktg","pricing_plan_id":"cebpf4jnsgd1na2vs0mg"},{"bike_id":"e9345332-e9ea-4b8f-8157-9060ea3cb3e0","system_id":"levelo_inurba_marseille","lat":43.2902,"lon":5.38115,"is_reserved":false,"is_disabled":false,"rental_uris":{"android":"levelo://app?vid=e9345332-e9ea-4b8f-8157-9060ea3cb3e0","ios":"levelo://app?vid=e9345332-e9ea-4b8f-8157-9060ea3cb3e0"},"vehicle_type_id":"4","last_reported":1759238540,"current_range_meters":9600,"station_id":"ce4bh4p2rcd13ifvqe1g","pricing_plan_id":"cebpf4jnsgd1na2vs0mg"},{"bike_id":"0662e5ec-17b3-4da7-8ffc-903097426f9d","system_id":"levelo_inurba_marseille","lat":43.31703,"lon":5.43719,"is_reserved":false,"is_disabled":false,"rental_uris":{"android":"levelo://app?vid=0662e5ec-17b3-4da7-8ffc-903097426f9d","ios":"levelo://app?vid=0662e5ec-17b3-4da7-8ffc-903097426f9d"},"vehicle_type_id":"4","last_reported":1759238540,"current_range_meters":9600,"station_id":"ce4bhp92rcd13ifvqhcg","pricing_plan_id":"cebpf4jnsgd1na2vs0mg"},{"bike_id":"fa7b8d5d-cda7-4720-9ca3-21b0406e462a","system_id":"levelo_inurba_marseille","lat":43.295248,"lon":5.37505,"is_reserved":false,"is_disabled":false,"rental_uris":{"android":"levelo://app?vid=fa7b8d5d-cda7-4720-9ca3-21b0406e462a","ios":"levelo://app?vid=fa7b8d5d-cda7-4720-9ca3-21b0406e462a"},"vehicle_type_id":"4","last_reported":1759238540,"current_range_meters":9600,"station_id":"","pricing_plan_id":"cebpf4jnsgd1na2vs0mg"},{"bike_id":"498de633-1978-409b-aa35-b617d56ba506","system_id":"levelo_inurba_marseille","lat":43.289401,"lon":5.366452,"is_reserved":false,"is_disabled":false,"rental_uris":{"android":"levelo://app?vid=498de633-1978-409b-aa35-b617d56ba506","ios":"levelo://app?vid=498de633-1978-409b-aa35-b617d56ba506"},"vehicle_type_id":"4","last_reported":1759238540,"current_range_meters":9600,"station_id":"ce4bhap2rcd13ifvqek0","pricing_plan_id":"cebpf4jnsgd1na2vs0mg"},{"bike_id":"aa123961-c527-4db0-9350-7d548f67905a","system_id":"levelo_inurba_marseille","lat":43.27946,"lon":5.38753,"is_reserved":false,"is_disabled":false,"rental_uris":{"android":"levelo://app?vid=aa123961-c527-4db0-9350-7d548f67905a","ios":"levelo://app?vid=aa123961-c527-4db0-9350-7d548f67905a"},"vehicle_type_id":"4","last_reported":1759238540,"current_range_meters":10000,"station_id":"ce4bh492rcd13ifvqdvg","pricing_plan_id":"cebpf4jnsgd1na2vs0mg"},{"bike_id":"be8c2f82-f75d-4000-bc4f-df0b4c4eeafa","system_id":"levelo_inurba_marseille","lat":43.29986,"lon":5.37171,"is_reserved":false,"is_disabled":false,"rental_uris":{"android":"levelo://app?vid=be8c2f82-f75d-4000-bc4f-df0b4c4eeafa","ios":"levelo://app?vid=be8c2f82-f75d-4000-bc4f-df0b4c4eeafa"},"vehicle_type_id":"4","last_reported":1759238540,"current_range_meters":10000,"station_id":"ce4bgr92rcd13ifvqc7g","pricing_plan_id":"cebpf4jnsgd1na2vs0mg"},{"bike_id":"211afd9f-58b0-436e-9b6b-1acbadc34392","system_id":"levelo_inurba_marseille","lat":43.3235,"lon":5.36741,"is_reserved":false,"is_disabled":false,"rental_uris":{"android":"levelo://app?vid=211afd9f-58b0-436e-9b6b-1acbadc34392","ios":"levelo://app?vid=211afd9f-58b0-436e-9b6b-1acbadc34392"},"vehicle_type_id":"4","last_reported":1759238540,"current_range_meters":10000,"station_id":"ce4bhsh2rcd13ifvqi2g","pricing_plan_id":"cebpf4jnsgd1na2vs0mg"},{"bike_id":"95696181-31ae-4a63-a6f7-222511a0fd19","system_id":"levelo_inurba_marseille","lat":43.28417,"lon":5.34974,"is_reserved":false,"is_disabled":false,"rental_uris":{"android":"levelo://app?vid=95696181-31ae-4a63-a6f7-222511a0fd19","ios":"levelo://app?vid=95696181-31ae-4a63-a6f7-222511a0fd19"},"vehicle_type_id":"4","last_reported":1759238540,"current_range_meters":10000,"station_id":"ce4bhbh2rcd13ifvqepg","pricing_plan_id":"cebpf4jnsgd1na2vs0mg"},{"bike_id":"aebf0e68-ba27-412a-9ce2-11cc42127dee","system_id":"levelo_inurba_marseille","lat":43.337444,"lon":5.374475,"is_reserved":false,"is_disabled":false,"rental_uris":{"android":"levelo://app?vid=aebf0e68-ba27-412a-9ce2-11cc42127dee","ios":"levelo://app?vid=aebf0e68-ba27-412a-9ce2-11cc42127dee"},"vehicle_type_id":"4","last_reported":1759238540,"current_range_meters":10000,"station_id":"","pricing_plan_id":"cebpf4jnsgd1na2vs0mg"},{"bike_id":"400a13d3-2dcc-4b4f-91a1-3b839b24ea7d","system_id":"levelo_inurba_marseille","lat":43.28596,"lon":5.39145,"is_reserved":false,"is_disabled":false,"rental_uris":{"android":"levelo://app?vid=400a13d3-2dcc-4b4f-91a1-3b839b24ea7d","ios":"levelo://app?vid=400a13d3-2dcc-4b4f-91a1-3b839b24ea7d"},"vehicle_type_id":"4","last_reported":1759238540,"current_range_meters":10800,"station_id":"","pricing_plan_id":"cebpf4jnsgd1na2vs0mg"},{"bike_id":"8e4a3cbf-e0ab-488c-8c64-dc98bdb2feb1","system_id":"levelo_inurba_marseille","lat":43.30136,"lon":5.3743,"is_reserved":false,"is_disabled":false,"rental_uris":{"android":"levelo://app?vid=8e4a3cbf-e0ab-488c-8c64-dc98bdb2feb1","ios":"levelo://app?vid=8e4a3cbf-e0ab-488c-8c64-dc98bdb2feb1"},"vehicle_type_id":"4","last_reported":1759238540,"current_range_meters":10800,"station_id":"ce4bgs92rcd13ifvqcc0","pricing_plan_id":"cebpf4jnsgd1na2vs0mg"},{"bike_id":"9c2b5681-cacc-4339-9b6e-c5a7c6971210","system_id":"levelo_inurba_marseille","lat":43.28936,"lon":5.39623,"is_reserved":false,"is_disabled":false,"rental_uris":{"android":"levelo://app?vid=9c2b5681-cacc-4339-9b6e-c5a7c6971210","ios":"levelo://app?vid=9c2b5681-cacc-4339-9b6e-c5a7c6971210"},"vehicle_type_id":"4","last_reported":1759238540,"current_range_meters":10800,"station_id":"ce4bh3h2rcd13ifvqdn0","pricing_plan_id":"cebpf4jnsgd1na2vs0mg"},{"bike_id":"f3046d66-0d38-41d1-a87c-a54ec8f5a0e6","system_id":"levelo_inurba_marseille","lat":43.217538,"lon":5.346014,"is_reserved":false,"is_disabled":false,"rental_uris":{"android":"levelo://app?vid=f3046d66-0d38-41d1-a87c-a54ec8f5a0e6","ios":"levelo://app?vid=f3046d66-0d38-41d1-a87c-a54ec8f5a0e6"},"vehicle_type_id":"4","last_reported":1759238540,"current_range_meters":10800,"station_id":"st_cvj6r9ubvosntc0bgbag","pricing_plan_id":"cebpf4jnsgd1na2vs0mg"},{"bike_id":"8cbcf5e7-b804-4925-bbed-5f57e8580ccf","system_id":"levelo_inurba_marseille","lat":43.31519,"lon":5.36803,"is_reserved":false,"is_disabled":false,"rental_uris":{"android":"levelo://app?vid=8cbcf5e7-b804-4925-bbed-5f57e8580ccf","ios":"levelo://app?vid=8cbcf5e7-b804-4925-bbed-5f57e8580ccf"},"vehicle_type_id":"4","last_reported":1759238540,"current_range_meters":10800,"station_id":"","pricing_plan_id":"cebpf4jnsgd1na2vs0mg"},{"bike_id":"56d6a008-a903-4bd5-8ee3-1cec5d05c634","system_id":"levelo_inurba_marseille","lat":43.31749,"lon":5.39024,"is_reserved":false,"is_disabled":false,"rental_uris":{"android":"levelo://app?vid=56d6a008-a903-4bd5-8ee3-1cec5d05c634","ios":"levelo://app?vid=56d6a008-a903-4bd5-8ee3-1cec5d05c634"},"vehicle_type_id":"4","last_reported":1759238540,"current_range_meters":10800,"station_id":"ce4bhqp2rcd13ifvqhng","pricing_plan_id":"cebpf4jnsgd1na2vs0mg"},{"bike_id":"0e9be76e-775f-47e0-a642-306357b6e36b","system_id":"levelo_inurba_marseille","lat":43.28002,"lon":5.40015,"is_reserved":false,"is_disabled":false,"rental_uris":{"android":"levelo://app?vid=0e9be76e-775f-47e0-a642-306357b6e36b","ios":"levelo://app?vid=0e9be76e-775f-47e0-a642-306357b6e36b"},"vehicle_type_id":"4","last_reported":1759238540,"current_range_meters":10800,"station_id":"ce4bho92rcd13ifvqh4g","pricing_plan_id":"cebpf4jnsgd1na2vs0mg"},{"bike_id":"f3142c55-edab-462d-841e-c87f3478a632","system_id":"levelo_inurba_marseille","lat":43.28405,"lon":5.34973,"is_reserved":false,"is_disabled":false,"rental_uris":{"android":"levelo://app?vid=f3142c55-edab-462d-841e-c87f3478a632","ios":"levelo://app?vid=f3142c55-edab-462d-841e-c87f3478a632"},"vehicle_type_id":"4","last_reported":1759238540,"current_range_meters":10800,"station_id":"ce4bhbh2rcd13ifvqepg","pricing_plan_id":"cebpf4jnsgd1na2vs0mg"},{"bike_id":"1bfefc72-978d-44a1-bf9d-b65b5271dcae","system_id":"levelo_inurba_marseille","lat":43.28466,"lon":5.3589,"is_reserved":false,"is_disabled":false,"rental_uris":{"android":"levelo://app?vid=1bfefc72-978d-44a1-bf9d-b65b5271dcae","ios":"levelo://app?vid=1bfefc72-978d-44a1-bf9d-b65b5271dcae"},"vehicle_type_id":"4","last_reported":1759238540,"current_range_meters":11200,"station_id":"ce4bhah2rcd13ifvqei0","pricing_plan_id":"cebpf4jnsgd1na2vs0mg"},{"bike_id":"96520869-d013-4e0c-a355-f7bbd728ba84","system_id":"levelo_inurba_marseille","lat":43.32356,"lon":5.36756,"is_reserved":false,"is_disabled":false,"rental_uris":{"android":"levelo://app?vid=96520869-d013-4e0c-a355-f7bbd728ba84","ios":"levelo://app?vid=96520869-d013-4e0c-a355-f7bbd728ba84"},"vehicle_type_id":"4","last_reported":1759238540,"current_range_meters":11200,"station_id":"ce4bhsh2rcd13ifvqi2g","pricing_plan_id":"cebpf4jnsgd1na2vs0mg"},{"bike_id":"33c37912-7a5a-4cf6-bff3-9fbfe40d20dc","system_id":"levelo_inurba_marseille","lat":43.32115,"lon":5.36776,"is_reserved":false,"is_disabled":false,"rental_uris":{"android":"levelo://app?vid=33c37912-7a5a-4cf6-bff3-9fbfe40d20dc","ios":"levelo://app?vid=33c37912-7a5a-4cf6-bff3-9fbfe40d20dc"},"vehicle_type_id":"4","last_reported":1759238540,"current_range_meters":11200,"station_id":"ce4bhrh2rcd13ifvqhug","pricing_plan_id":"cebpf4jnsgd1na2vs0mg"},{"bike_id":"e72db6c0-2cd2-4763-a2c0-652764f55897","system_id":"levelo_inurba_marseille","lat":43.32005,"lon":5.3816,"is_reserved":false,"is_disabled":false,"rental_uris":{"android":"levelo://app?vid=e72db6c0-2cd2-4763-a2c0-652764f55897","ios":"levelo://app?vid=e72db6c0-2cd2-4763-a2c0-652764f55897"},"vehicle_type_id":"4","last_reported":1759238540,"current_range_meters":11200,"station_id":"ce4bhr12rcd13ifvqhpg","pricing_plan_id":"cebpf4jnsgd1na2vs0mg"},{"bike_id":"99ce2063-5dfb-4ed3-a4a6-8fc3a54c4890","system_id":"levelo_inurba_marseille","lat":43.337444,"lon":5.374475,"is_reserved":false,"is_disabled":false,"rental_uris":{"android":"levelo://app?vid=99ce2063-5dfb-4ed3-a4a6-8fc3a54c4890","ios":"levelo://app?vid=99ce2063-5dfb-4ed3-a4a6-8fc3a54c4890"},"vehicle_type_id":"4","last_reported":1759238540,"current_range_meters":11200,"station_id":"","pricing_plan_id":"cebpf4jnsgd1na2vs0mg"},{"bike_id":"9677e72a-2a08-4b0f-9d10-ee945a76c58b","system_id":"levelo_inurba_marseille","lat":43.23161,"lon":5.43697,"is_reserved":false,"is_disabled":true,"rental_uris":{"android":"levelo://app?vid=9677e72a-2a08-4b0f-9d10-ee945a76c58b","ios":"levelo://app?vid=9677e72a-2a08-4b0f-9d10-ee945a76c58b"},"vehicle_type_id":"4","last_reported":1759238540,"current_range_meters":11600,"station_id":"ce4bhmp2rcd13ifvqgog","pricing_plan_id":"cebpf4jnsgd1na2vs0mg"},{"bike_id":"5f8245c1-d6d3-4e20-af8e-6d792fdc04ce","system_id":"levelo_inurba_marseille","lat":43.29855,"lon":5.45611,"is_reserved":false,"is_disabled":false,"rental_uris":{"android":"levelo://app?vid=5f8245c1-d6d3-4e20-af8e-6d792fdc04ce","ios":"levelo://app?vid=5f8245c1-d6d3-4e20-af8e-6d792fdc04ce"},"vehicle_type_id":"4","last_reported":1759238540,"current_range_meters":11600,"station_id":"","pricing_plan_id":"cebpf4jnsgd1na2vs0mg"},{"bike_id":"cb4b9073-e436-438a-959a-5f5f4b3d56dd","system_id":"levelo_inurba_marseille","lat":43.26681,"lon":5.38264,"is_reserved":false,"is_disabled":false,"rental_uris":{"android":"levelo://app?vid=cb4b9073-e436-438a-959a-5f5f4b3d56dd","ios":"levelo://app?vid=cb4b9073-e436-438a-959a-5f5f4b3d56dd"},"vehicle_type_id":"4","last_reported":1759238540,"current_range_meters":11600,"station_id":"ce4bhg92rcd13ifvqf90","pricing_plan_id":"cebpf4jnsgd1na2vs0mg"},{"bike_id":"84ebcd11-1124-45a8-b548-64f08413c385","system_id":"levelo_inurba_marseille","lat":43.2826,"lon":5.35053,"is_reserved":false,"is_disabled":false,"rental_uris":{"android":"levelo://app?vid=84ebcd11-1124-45a8-b548-64f08413c385","ios":"levelo://app?vid=84ebcd11-1124-45a8-b548-64f08413c385"},"vehicle_type_id":"4","last_reported":1759238540,"current_range_meters":11600,"station_id":"ce4bhbp2rcd13ifvqerg","pricing_plan_id":"cebpf4jnsgd1na2vs0mg"},{"bike_id":"f8cca40a-d2da-431c-8b9a-2f0738b70513","system_id":"levelo_inurba_marseille","lat":43.28929,"lon":5.36636,"is_reserved":false,"is_disabled":false,"rental_uris":{"android":"levelo://app?vid=f8cca40a-d2da-431c-8b9a-2f0738b70513","ios":"levelo://app?vid=f8cca40a-d2da-431c-8b9a-2f0738b70513"},"vehicle_type_id":"4","last_reported":1759238540,"current_range_meters":11600,"station_id":"ce4bhap2rcd13ifvqek0","pricing_plan_id":"cebpf4jnsgd1na2vs0mg"},{"bike_id":"171eb6c7-bef7-4549-92f0-752da1f5737b","system_id":"levelo_inurba_marseille","lat":43.34166,"lon":5.40901,"is_reserved":false,"is_disabled":false,"rental_uris":{"android":"levelo://app?vid=171eb6c7-bef7-4549-92f0-752da1f5737b","ios":"levelo://app?vid=171eb6c7-bef7-4549-92f0-752da1f5737b"},"vehicle_type_id":"4","last_reported":1759238540,"current_range_meters":11600,"station_id":"ce4bhqh2rcd13ifvqhlg","pricing_plan_id":"cebpf4jnsgd1na2vs0mg"},{"bike_id":"554426a0-1a6b-4d05-86bd-05dda4224304","system_id":"levelo_inurba_marseille","lat":43.28033,"lon":5.36931,"is_reserved":false,"is_disabled":false,"rental_uris":{"android":"levelo://app?vid=554426a0-1a6b-4d05-86bd-05dda4224304","ios":"levelo://app?vid=554426a0-1a6b-4d05-86bd-05dda4224304"},"vehicle_type_id":"4","last_reported":1759238540,"current_range_meters":11600,"station_id":"ce4bha12rcd13ifvqef0","pricing_plan_id":"cebpf4jnsgd1na2vs0mg"},{"bike_id":"27d4125e-9724-437f-8a3e-01247a39dff0","system_id":"levelo_inurba_marseille","lat":43.311735,"lon":5.38718,"is_reserved":false,"is_disabled":false,"rental_uris":{"android":"levelo://app?vid=27d4125e-9724-437f-8a3e-01247a39dff0","ios":"levelo://app?vid=27d4125e-9724-437f-8a3e-01247a39dff0"},"vehicle_type_id":"4","last_reported":1759238540,"current_range_meters":11600,"station_id":"ce4bgv12rcd13ifvqcp0","pricing_plan_id":"cebpf4jnsgd1na2vs0mg"},{"bike_id":"738a51a6-02d0-4def-8f3f-9c82f6a6dd05","system_id":"levelo_inurba_marseille","lat":43.32339,"lon":5.367,"is_reserved":false,"is_disabled":false,"rental_uris":{"android":"levelo://app?vid=738a51a6-02d0-4def-8f3f-9c82f6a6dd05","ios":"levelo://app?vid=738a51a6-02d0-4def-8f3f-9c82f6a6dd05"},"vehicle_type_id":"4","last_reported":1759238540,"current_range_meters":11600,"station_id":"","pricing_plan_id":"cebpf4jnsgd1na2vs0mg"},{"bike_id":"56ca0258-bee9-4eb2-b3c5-63b5cd0b9e67","system_id":"levelo_inurba_marseille","lat":43.33737,"lon":5.37445,"is_reserved":false,"is_disabled":false,"rental_uris":{"android":"levelo://app?vid=56ca0258-bee9-4eb2-b3c5-63b5cd0b9e67","ios":"levelo://app?vid=56ca0258-bee9-4eb2-b3c5-63b5cd0b9e67"},"vehicle_type_id":"4","last_reported":1759238540,"current_range_meters":11600,"station_id":"","pricing_plan_id":"cebpf4jnsgd1na2vs0mg"},{"bike_id":"92662833-c6ac-4b02-b7df-1638b54b1972","system_id":"levelo_inurba_marseille","lat":43.33742,"lon":5.37449,"is_reserved":false,"is_disabled":false,"rental_uris":{"android":"levelo://app?vid=92662833-c6ac-4b02-b7df-1638b54b1972","ios":"levelo://app?vid=92662833-c6ac-4b02-b7df-1638b54b1972"},"vehicle_type_id":"4","last_reported":1759238540,"current_range_meters":11600,"station_id":"","pricing_plan_id":"cebpf4jnsgd1na2vs0mg"},{"bike_id":"f8d78e5f-60e1-4623-939f-49e76ff16505","system_id":"levelo_inurba_marseille","lat":43.33742,"lon":5.37448,"is_reserved":false,"is_disabled":false,"rental_uris":{"android":"levelo://app?vid=f8d78e5f-60e1-4623-939f-49e76ff16505","ios":"levelo://app?vid=f8d78e5f-60e1-4623-939f-49e76ff16505"},"vehicle_type_id":"4","last_reported":1759238540,"current_range_meters":11600,"station_id":"","pricing_plan_id":"cebpf4jnsgd1na2vs0mg"},{"bike_id":"af370371-7772-42a4-a1ab-8bbc78ef4292","system_id":"levelo_inurba_marseille","lat":43.27206,"lon":5.39181,"is_reserved":false,"is_disabled":false,"rental_uris":{"android":"levelo://app?vid=af370371-7772-42a4-a1ab-8bbc78ef4292","ios":"levelo://app?vid=af370371-7772-42a4-a1ab-8bbc78ef4292"},"vehicle_type_id":"4","last_reported":1759238540,"current_range_meters":12000,"station_id":"ce4bhhp2rcd13ifvqfm0","pricing_plan_id":"cebpf4jnsgd1na2vs0mg"},{"bike_id":"38897949-6a07-4b5f-b2a1-a68fe05c4821","system_id":"levelo_inurba_marseille","lat":43.30649,"lon":5.40098,"is_reserved":false,"is_disabled":false,"rental_uris":{"android":"levelo://app?vid=38897949-6a07-4b5f-b2a1-a68fe05c4821","ios":"levelo://app?vid=38897949-6a07-4b5f-b2a1-a68fe05c4821"},"vehicle_type_id":"4","last_reported":1759238540,"current_range_meters":12000,"station_id":"ce4bh112rcd13ifvqda0","pricing_plan_id":"cebpf4jnsgd1na2vs0mg"},{"bike_id":"f44df0c8-3c0a-4103-982e-900169d96e81","system_id":"levelo_inurba_marseille","lat":43.32104,"lon":5.36797,"is_reserved":false,"is_disabled":false,"rental_uris":{"android":"levelo://app?vid=f44df0c8-3c0a-4103-982e-900169d96e81","ios":"levelo://app?vid=f44df0c8-3c0a-4103-982e-900169d96e81"},"vehicle_type_id":"4","last_reported":1759238540,"current_range_meters":12000,"station_id":"ce4bhrh2rcd13ifvqhug","pricing_plan_id":"cebpf4jnsgd1na2vs0mg"},{"bike_id":"2375a42a-bff3-481f-b0b1-d971ce00ad8a","system_id":"levelo_inurba_marseille","lat":43.29277,"lon":5.3684,"is_reserved":false,"is_disabled":false,"rental_uris":{"android":"levelo://app?vid=2375a42a-bff3-481f-b0b1-d971ce00ad8a","ios":"levelo://app?vid=2375a42a-bff3-481f-b0b1-d971ce00ad8a"},"vehicle_type_id":"4","last_reported":1759238540,"current_range_meters":12000,"station_id":"ce4bhbp2rcd13ifvqesg","pricing_plan_id":"cebpf4jnsgd1na2vs0mg"},{"bike_id":"11acad3d-b798-4c25-a044-c3c54677d114","system_id":"levelo_inurba_marseille","lat":43.28616,"lon":5.35075,"is_reserved":false,"is_disabled":false,"rental_uris":{"android":"levelo://app?vid=11acad3d-b798-4c25-a044-c3c54677d114","ios":"levelo://app?vid=11acad3d-b798-4c25-a044-c3c54677d114"},"vehicle_type_id":"4","last_reported":1759238540,"current_range_meters":12400,"station_id":"ce4bhch2rcd13ifvqeug","pricing_plan_id":"cebpf4jnsgd1na2vs0mg"},{"bike_id":"0aba4fe3-5dca-4d79-8b9d-2fc77d6e7d70","system_id":"levelo_inurba_marseille","lat":43.28418,"lon":5.349815,"is_reserved":false,"is_disabled":false,"rental_uris":{"android":"levelo://app?vid=0aba4fe3-5dca-4d79-8b9d-2fc77d6e7d70","ios":"levelo://app?vid=0aba4fe3-5dca-4d79-8b9d-2fc77d6e7d70"},"vehicle_type_id":"4","last_reported":1759238540,"current_range_meters":12400,"station_id":"","pricing_plan_id":"cebpf4jnsgd1na2vs0mg"},{"bike_id":"8ccbc174-8967-45c5-b887-b0e6c9f2cc8d","system_id":"levelo_inurba_marseille","lat":43.30601,"lon":5.39367,"is_reserved":false,"is_disabled":false,"rental_uris":{"android":"levelo://app?vid=8ccbc174-8967-45c5-b887-b0e6c9f2cc8d","ios":"levelo://app?vid=8ccbc174-8967-45c5-b887-b0e6c9f2cc8d"},"vehicle_type_id":"4","last_reported":1759238540,"current_range_meters":12400,"station_id":"ce4bh0p2rcd13ifvqd80","pricing_plan_id":"cebpf4jnsgd1na2vs0mg"},{"bike_id":"6f3d6773-464f-4ec6-96b7-5fd121a92bf5","system_id":"levelo_inurba_marseille","lat":43.23149,"lon":5.43713,"is_reserved":false,"is_disabled":false,"rental_uris":{"android":"levelo://app?vid=6f3d6773-464f-4ec6-96b7-5fd121a92bf5","ios":"levelo://app?vid=6f3d6773-464f-4ec6-96b7-5fd121a92bf5"},"vehicle_type_id":"4","last_reported":1759238540,"current_range_meters":12800,"station_id":"ce4bhmp2rcd13ifvqgog","pricing_plan_id":"cebpf4jnsgd1na2vs0mg"},{"bike_id":"8c889c5e-dbff-42f9-9e9a-56a3d0500fe9","system_id":"levelo_inurba_marseille","lat":43.30303,"lon":5.3696,"is_reserved":false,"is_disabled":false,"rental_uris":{"android":"levelo://app?vid=8c889c5e-dbff-42f9-9e9a-56a3d0500fe9","ios":"levelo://app?vid=8c889c5e-dbff-42f9-9e9a-56a3d0500fe9"},"vehicle_type_id":"4","last_reported":1759238540,"current_range_meters":12800,"station_id":"ce4bgqh2rcd13ifvqc5g","pricing_plan_id":"cebpf4jnsgd1na2vs0mg"},{"bike_id":"daa7dcbe-b6cc-42a2-871b-ed8486bf9e77","system_id":"levelo_inurba_marseille","lat":43.30106,"lon":5.39077,"is_reserved":false,"is_disabled":false,"rental_uris":{"android":"levelo://app?vid=daa7dcbe-b6cc-42a2-871b-ed8486bf9e77","ios":"levelo://app?vid=daa7dcbe-b6cc-42a2-871b-ed8486bf9e77"},"vehicle_type_id":"4","last_reported":1759238540,"current_range_meters":12800,"station_id":"ce4bh192rcd13ifvqdb0","pricing_plan_id":"cebpf4jnsgd1na2vs0mg"},{"bike_id":"02e31a2e-e976-447f-9487-a645cf138242","system_id":"levelo_inurba_marseille","lat":43.280011,"lon":5.416649,"is_reserved":false,"is_disabled":false,"rental_uris":{"android":"levelo://app?vid=02e31a2e-e976-447f-9487-a645cf138242","ios":"levelo://app?vid=02e31a2e-e976-447f-9487-a645cf138242"},"vehicle_type_id":"4","last_reported":1759238540,"current_range_meters":12800,"station_id":"","pricing_plan_id":"cebpf4jnsgd1na2vs0mg"},{"bike_id":"a44e2506-9d76-43ad-97a0-5e9777d64441","system_id":"levelo_inurba_marseille","lat":43.24805,"lon":5.37456,"is_reserved":false,"is_disabled":false,"rental_uris":{"android":"levelo://app?vid=a44e2506-9d76-43ad-97a0-5e9777d64441","ios":"levelo://app?vid=a44e2506-9d76-43ad-97a0-5e9777d64441"},"vehicle_type_id":"4","last_reported":1759238540,"current_range_meters":12800,"station_id":"ce4bhgh2rcd13ifvqfb0","pricing_plan_id":"cebpf4jnsgd1na2vs0mg"},{"bike_id":"cba80365-dee8-470c-98bf-9afac3ba940d","system_id":"levelo_inurba_marseille","lat":43.29845,"lon":5.36275,"is_reserved":false,"is_disabled":false,"rental_uris":{"android":"levelo://app?vid=cba80365-dee8-470c-98bf-9afac3ba940d","ios":"levelo://app?vid=cba80365-dee8-470c-98bf-9afac3ba940d"},"vehicle_type_id":"4","last_reported":1759238540,"current_range_meters":12800,"station_id":"ce4bgpp2rcd13ifvqc3g","pricing_plan_id":"cebpf4jnsgd1na2vs0mg"},{"bike_id":"92183795-887f-425a-9340-96ac35f7219e","system_id":"levelo_inurba_marseille","lat":43.30929,"lon":5.40137,"is_reserved":false,"is_disabled":false,"rental_uris":{"android":"levelo://app?vid=92183795-887f-425a-9340-96ac35f7219e","ios":"levelo://app?vid=92183795-887f-425a-9340-96ac35f7219e"},"vehicle_type_id":"4","last_reported":1759238540,"current_range_meters":12800,"station_id":"ce4bgvp2rcd13ifvqct0","pricing_plan_id":"cebpf4jnsgd1na2vs0mg"},{"bike_id":"d2f46c9e-a53c-42a7-ad54-fd7c896f4565","system_id":"levelo_inurba_marseille","lat":43.33797,"lon":5.37428,"is_reserved":false,"is_disabled":false,"rental_uris":{"android":"levelo://app?vid=d2f46c9e-a53c-42a7-ad54-fd7c896f4565","ios":"levelo://app?vid=d2f46c9e-a53c-42a7-ad54-fd7c896f4565"},"vehicle_type_id":"4","last_reported":1759238540,"current_range_meters":12800,"station_id":"","pricing_plan_id":"cebpf4jnsgd1na2vs0mg"},{"bike_id":"71c54790-fd9b-4e62-ac5b-2fd4ecf2f0b4","system_id":"levelo_inurba_marseille","lat":43.250045,"lon":5.389312,"is_reserved":false,"is_disabled":false,"rental_uris":{"android":"levelo://app?vid=71c54790-fd9b-4e62-ac5b-2fd4ecf2f0b4","ios":"levelo://app?vid=71c54790-fd9b-4e62-ac5b-2fd4ecf2f0b4"},"vehicle_type_id":"4","last_reported":1759238540,"current_range_meters":13600,"station_id":"ce4bhgp2rcd13ifvqfd0","pricing_plan_id":"cebpf4jnsgd1na2vs0mg"},{"bike_id":"5626d12c-c31b-4678-a559-f7501e6d3dbb","system_id":"levelo_inurba_marseille","lat":43.24068,"lon":5.37756,"is_reserved":false,"is_disabled":false,"rental_uris":{"android":"levelo://app?vid=5626d12c-c31b-4678-a559-f7501e6d3dbb","ios":"levelo://app?vid=5626d12c-c31b-4678-a559-f7501e6d3dbb"},"vehicle_type_id":"4","last_reported":1759238540,"current_range_meters":13600,"station_id":"","pricing_plan_id":"cebpf4jnsgd1na2vs0mg"},{"bike_id":"a1b107c8-e631-4464-8246-09e462ae91e2","system_id":"levelo_inurba_marseille","lat":43.27323,"lon":5.3909,"is_reserved":false,"is_disabled":false,"rental_uris":{"android":"levelo://app?vid=a1b107c8-e631-4464-8246-09e462ae91e2","ios":"levelo://app?vid=a1b107c8-e631-4464-8246-09e462ae91e2"},"vehicle_type_id":"4","last_reported":1759238540,"current_range_meters":13600,"station_id":"ce4bhgp2rcd13ifvqfe0","pricing_plan_id":"cebpf4jnsgd1na2vs0mg"},{"bike_id":"2ab535df-4c2c-40d8-af4f-189047a67c11","system_id":"levelo_inurba_marseille","lat":43.24638,"lon":5.43114,"is_reserved":false,"is_disabled":false,"rental_uris":{"android":"levelo://app?vid=2ab535df-4c2c-40d8-af4f-189047a67c11","ios":"levelo://app?vid=2ab535df-4c2c-40d8-af4f-189047a67c11"},"vehicle_type_id":"4","last_reported":1759238540,"current_range_meters":13600,"station_id":"st_d2m6c4gdas8pm72e190g","pricing_plan_id":"cebpf4jnsgd1na2vs0mg"},{"bike_id":"d114139c-60d0-4459-ba3b-cac62be00268","system_id":"levelo_inurba_marseille","lat":43.30132,"lon":5.37418,"is_reserved":false,"is_disabled":false,"rental_uris":{"android":"levelo://app?vid=d114139c-60d0-4459-ba3b-cac62be00268","ios":"levelo://app?vid=d114139c-60d0-4459-ba3b-cac62be00268"},"vehicle_type_id":"4","last_reported":1759238540,"current_range_meters":13600,"station_id":"ce4bgs92rcd13ifvqcc0","pricing_plan_id":"cebpf4jnsgd1na2vs0mg"},{"bike_id":"f1021c6b-109e-4130-b406-eed791e57eff","system_id":"levelo_inurba_marseille","lat":43.31692,"lon":5.40457,"is_reserved":false,"is_disabled":false,"rental_uris":{"android":"levelo://app?vid=f1021c6b-109e-4130-b406-eed791e57eff","ios":"levelo://app?vid=f1021c6b-109e-4130-b406-eed791e57eff"},"vehicle_type_id":"4","last_reported":1759238540,"current_range_meters":13600,"station_id":"ce4bh012rcd13ifvqd00","pricing_plan_id":"cebpf4jnsgd1na2vs0mg"},{"bike_id":"adfbe18b-7ca7-424a-9090-23d85cce22c6","system_id":"levelo_inurba_marseille","lat":43.30046,"lon":5.4091,"is_reserved":false,"is_disabled":false,"rental_uris":{"android":"levelo://app?vid=adfbe18b-7ca7-424a-9090-23d85cce22c6","ios":"levelo://app?vid=adfbe18b-7ca7-424a-9090-23d85cce22c6"},"vehicle_type_id":"4","last_reported":1759238540,"current_range_meters":14000,"station_id":"","pricing_plan_id":"cebpf4jnsgd1na2vs0mg"},{"bike_id":"70794636-f10e-45ec-b990-278c094ff92f","system_id":"levelo_inurba_marseille","lat":43.314895,"lon":5.372932,"is_reserved":false,"is_disabled":false,"rental_uris":{"android":"levelo://app?vid=70794636-f10e-45ec-b990-278c094ff92f","ios":"levelo://app?vid=70794636-f10e-45ec-b990-278c094ff92f"},"vehicle_type_id":"4","last_reported":1759238540,"current_range_meters":14000,"station_id":"ce4bgt12rcd13ifvqcd0","pricing_plan_id":"cebpf4jnsgd1na2vs0mg"},{"bike_id":"a39daf5b-4671-4e07-800c-e951e11b40e8","system_id":"levelo_inurba_marseille","lat":43.31685,"lon":5.4047,"is_reserved":false,"is_disabled":false,"rental_uris":{"android":"levelo://app?vid=a39daf5b-4671-4e07-800c-e951e11b40e8","ios":"levelo://app?vid=a39daf5b-4671-4e07-800c-e951e11b40e8"},"vehicle_type_id":"4","last_reported":1759238540,"current_range_meters":14000,"station_id":"ce4bh012rcd13ifvqd00","pricing_plan_id":"cebpf4jnsgd1na2vs0mg"},{"bike_id":"af2f46f8-779c-4095-9ec8-4a98816c36eb","system_id":"levelo_inurba_marseille","lat":43.32049,"lon":5.41539,"is_reserved":false,"is_disabled":false,"rental_uris":{"android":"levelo://app?vid=af2f46f8-779c-4095-9ec8-4a98816c36eb","ios":"levelo://app?vid=af2f46f8-779c-4095-9ec8-4a98816c36eb"},"vehicle_type_id":"4","last_reported":1759238540,"current_range_meters":13600,"station_id":"ce4bhq92rcd13ifvqhkg","pricing_plan_id":"cebpf4jnsgd1na2vs0mg"},{"bike_id":"7015c188-55ed-45d2-a339-4fd7bee292f5","system_id":"levelo_inurba_marseille","lat":43.28471,"lon":5.38528,"is_reserved":false,"is_disabled":false,"rental_uris":{"android":"levelo://app?vid=7015c188-55ed-45d2-a339-4fd7bee292f5","ios":"levelo://app?vid=7015c188-55ed-45d2-a339-4fd7bee292f5"},"vehicle_type_id":"4","last_reported":1759238540,"current_range_meters":14000,"station_id":"ce4bh8p2rcd13ifvqeb0","pricing_plan_id":"cebpf4jnsgd1na2vs0mg"},{"bike_id":"0a006417-cd55-4c43-bf39-aa03b8c2a3a5","system_id":"levelo_inurba_marseille","lat":43.29276,"lon":5.36841,"is_reserved":false,"is_disabled":false,"rental_uris":{"android":"levelo://app?vid=0a006417-cd55-4c43-bf39-aa03b8c2a3a5","ios":"levelo://app?vid=0a006417-cd55-4c43-bf39-aa03b8c2a3a5"},"vehicle_type_id":"4","last_reported":1759238540,"current_range_meters":14000,"station_id":"ce4bhbp2rcd13ifvqesg","pricing_plan_id":"cebpf4jnsgd1na2vs0mg"},{"bike_id":"01b56f6d-fc22-4ec2-a961-6a664f800b1e","system_id":"levelo_inurba_marseille","lat":43.24063,"lon":5.37722,"is_reserved":false,"is_disabled":false,"rental_uris":{"android":"levelo://app?vid=01b56f6d-fc22-4ec2-a961-6a664f800b1e","ios":"levelo://app?vid=01b56f6d-fc22-4ec2-a961-6a664f800b1e"},"vehicle_type_id":"4","last_reported":1759238540,"current_range_meters":14000,"station_id":"ce4bhnp2rcd13ifvqgvg","pricing_plan_id":"cebpf4jnsgd1na2vs0mg"},{"bike_id":"a8205022-661b-4b9f-b567-3fd2d923e9c8","system_id":"levelo_inurba_marseille","lat":43.32286,"lon":5.38282,"is_reserved":false,"is_disabled":false,"rental_uris":{"android":"levelo://app?vid=a8205022-661b-4b9f-b567-3fd2d923e9c8","ios":"levelo://app?vid=a8205022-661b-4b9f-b567-3fd2d923e9c8"},"vehicle_type_id":"4","last_reported":1759238540,"current_range_meters":14000,"station_id":"ce4bhr12rcd13ifvqhqg","pricing_plan_id":"cebpf4jnsgd1na2vs0mg"},{"bike_id":"993b9914-9fba-4bf1-8fc7-fbc75b76aea6","system_id":"levelo_inurba_marseille","lat":43.2737,"lon":5.36229,"is_reserved":false,"is_disabled":false,"rental_uris":{"android":"levelo://app?vid=993b9914-9fba-4bf1-8fc7-fbc75b76aea6","ios":"levelo://app?vid=993b9914-9fba-4bf1-8fc7-fbc75b76aea6"},"vehicle_type_id":"4","last_reported":1759238540,"current_range_meters":14400,"station_id":"ce4bhbh2rcd13ifvqeo0","pricing_plan_id":"cebpf4jnsgd1na2vs0mg"},{"bike_id":"52ca1988-07bb-4711-99c7-3edfaf0b06ac","system_id":"levelo_inurba_marseille","lat":43.2867,"lon":5.36349,"is_reserved":false,"is_disabled":false,"rental_uris":{"android":"levelo://app?vid=52ca1988-07bb-4711-99c7-3edfaf0b06ac","ios":"levelo://app?vid=52ca1988-07bb-4711-99c7-3edfaf0b06ac"},"vehicle_type_id":"4","last_reported":1759238540,"current_range_meters":14400,"station_id":"ce4bhah2rcd13ifvqej0","pricing_plan_id":"cebpf4jnsgd1na2vs0mg"},{"bike_id":"684bf3b5-71ab-483f-98a0-128f6ab790de","system_id":"levelo_inurba_marseille","lat":43.21305,"lon":5.44346,"is_reserved":false,"is_disabled":false,"rental_uris":{"android":"levelo://app?vid=684bf3b5-71ab-483f-98a0-128f6ab790de","ios":"levelo://app?vid=684bf3b5-71ab-483f-98a0-128f6ab790de"},"vehicle_type_id":"4","last_reported":1759238540,"current_range_meters":14400,"station_id":"","pricing_plan_id":"cebpf4jnsgd1na2vs0mg"},{"bike_id":"9e417a4a-4085-41d0-bf58-2b02f5274537","system_id":"levelo_inurba_marseille","lat":43.28406,"lon":5.3498,"is_reserved":false,"is_disabled":false,"rental_uris":{"android":"levelo://app?vid=9e417a4a-4085-41d0-bf58-2b02f5274537","ios":"levelo://app?vid=9e417a4a-4085-41d0-bf58-2b02f5274537"},"vehicle_type_id":"4","last_reported":1759238540,"current_range_meters":14400,"station_id":"ce4bhbh2rcd13ifvqepg","pricing_plan_id":"cebpf4jnsgd1na2vs0mg"},{"bike_id":"cd849084-4a92-4799-b356-8384bbfffe26","system_id":"levelo_inurba_marseille","lat":43.29052,"lon":5.35909,"is_reserved":false,"is_disabled":false,"rental_uris":{"android":"levelo://app?vid=cd849084-4a92-4799-b356-8384bbfffe26","ios":"levelo://app?vid=cd849084-4a92-4799-b356-8384bbfffe26"},"vehicle_type_id":"4","last_reported":1759238540,"current_range_meters":14400,"station_id":"ce4bha92rcd13ifvqeg0","pricing_plan_id":"cebpf4jnsgd1na2vs0mg"},{"bike_id":"30cbf9c0-d8c9-49e3-afe2-ea0d70b63a10","system_id":"levelo_inurba_marseille","lat":43.28365,"lon":5.38638,"is_reserved":false,"is_disabled":true,"rental_uris":{"android":"levelo://app?vid=30cbf9c0-d8c9-49e3-afe2-ea0d70b63a10","ios":"levelo://app?vid=30cbf9c0-d8c9-49e3-afe2-ea0d70b63a10"},"vehicle_type_id":"4","last_reported":1759238540,"current_range_meters":14400,"station_id":"ce4bh492rcd13ifvqdvg","pricing_plan_id":"cebpf4jnsgd1na2vs0mg"},{"bike_id":"834bb94a-91d7-4b2a-bf17-46242c32c6f3","system_id":"levelo_inurba_marseille","lat":43.3112,"lon":5.37766,"is_reserved":false,"is_disabled":false,"rental_uris":{"android":"levelo://app?vid=834bb94a-91d7-4b2a-bf17-46242c32c6f3","ios":"levelo://app?vid=834bb94a-91d7-4b2a-bf17-46242c32c6f3"},"vehicle_type_id":"4","last_reported":1759238540,"current_range_meters":14400,"station_id":"ce4bgt92rcd13ifvqcg0","pricing_plan_id":"cebpf4jnsgd1na2vs0mg"},{"bike_id":"44631c7d-87d1-44be-96c2-2a43e54fa7d0","system_id":"levelo_inurba_marseille","lat":43.26196,"lon":5.37451,"is_reserved":false,"is_disabled":false,"rental_uris":{"android":"levelo://app?vid=44631c7d-87d1-44be-96c2-2a43e54fa7d0","ios":"levelo://app?vid=44631c7d-87d1-44be-96c2-2a43e54fa7d0"},"vehicle_type_id":"4","last_reported":1759238540,"current_range_meters":14400,"station_id":"ce4bhgp2rcd13ifvqfc0","pricing_plan_id":"cebpf4jnsgd1na2vs0mg"},{"bike_id":"9dc17d8d-1491-4161-b163-f3b8761ee256","system_id":"levelo_inurba_marseille","lat":43.24997,"lon":5.38926,"is_reserved":false,"is_disabled":false,"rental_uris":{"android":"levelo://app?vid=9dc17d8d-1491-4161-b163-f3b8761ee256","ios":"levelo://app?vid=9dc17d8d-1491-4161-b163-f3b8761ee256"},"vehicle_type_id":"4","last_reported":1759238540,"current_range_meters":14400,"station_id":"ce4bhgp2rcd13ifvqfd0","pricing_plan_id":"cebpf4jnsgd1na2vs0mg"},{"bike_id":"5116b100-82c0-4ba3-bd73-af39942db20a","system_id":"levelo_inurba_marseille","lat":43.30148,"lon":5.38087,"is_reserved":false,"is_disabled":false,"rental_uris":{"android":"levelo://app?vid=5116b100-82c0-4ba3-bd73-af39942db20a","ios":"levelo://app?vid=5116b100-82c0-4ba3-bd73-af39942db20a"},"vehicle_type_id":"4","last_reported":1759238540,"current_range_meters":14400,"station_id":"ce4bgjp2rcd13ifvqbh0","pricing_plan_id":"cebpf4jnsgd1na2vs0mg"},{"bike_id":"82d2758e-7904-4e66-9604-5a789b541b82","system_id":"levelo_inurba_marseille","lat":43.26937,"lon":5.38915,"is_reserved":false,"is_disabled":false,"rental_uris":{"android":"levelo://app?vid=82d2758e-7904-4e66-9604-5a789b541b82","ios":"levelo://app?vid=82d2758e-7904-4e66-9604-5a789b541b82"},"vehicle_type_id":"4","last_reported":1759238540,"current_range_meters":14800,"station_id":"ce4bhhh2rcd13ifvqfl0","pricing_plan_id":"cebpf4jnsgd1na2vs0mg"},{"bike_id":"87a2ef25-659a-4ad2-baa9-ec626fba8ea6","system_id":"levelo_inurba_marseille","lat":43.32039,"lon":5.4155,"is_reserved":false,"is_disabled":false,"rental_uris":{"android":"levelo://app?vid=87a2ef25-659a-4ad2-baa9-ec626fba8ea6","ios":"levelo://app?vid=87a2ef25-659a-4ad2-baa9-ec626fba8ea6"},"vehicle_type_id":"4","last_reported":1759238540,"current_range_meters":14800,"station_id":"ce4bhq92rcd13ifvqhkg","pricing_plan_id":"cebpf4jnsgd1na2vs0mg"},{"bike_id":"51f491ff-3218-4612-8c99-ba94da741ec2","system_id":"levelo_inurba_marseille","lat":43.32025,"lon":5.41577,"is_reserved":false,"is_disabled":false,"rental_uris":{"android":"levelo://app?vid=51f491ff-3218-4612-8c99-ba94da741ec2","ios":"levelo://app?vid=51f491ff-3218-4612-8c99-ba94da741ec2"},"vehicle_type_id":"4","last_reported":1759238540,"current_range_meters":14800,"station_id":"ce4bhq92rcd13ifvqhkg","pricing_plan_id":"cebpf4jnsgd1na2vs0mg"},{"bike_id":"c3b3a537-e796-40f6-8738-44c6e730c22d","system_id":"levelo_inurba_marseille","lat":43.27808,"lon":5.40709,"is_reserved":false,"is_disabled":false,"rental_uris":{"android":"levelo://app?vid=c3b3a537-e796-40f6-8738-44c6e730c22d","ios":"levelo://app?vid=c3b3a537-e796-40f6-8738-44c6e730c22d"},"vehicle_type_id":"4","last_reported":1759238540,"current_range_meters":14400,"station_id":"ce4bhnh2rcd13ifvqgtg","pricing_plan_id":"cebpf4jnsgd1na2vs0mg"},{"bike_id":"3c22474b-d4ca-4744-9f86-0c20326573d6","system_id":"levelo_inurba_marseille","lat":43.24184,"lon":5.39705,"is_reserved":false,"is_disabled":false,"rental_uris":{"android":"levelo://app?vid=3c22474b-d4ca-4744-9f86-0c20326573d6","ios":"levelo://app?vid=3c22474b-d4ca-4744-9f86-0c20326573d6"},"vehicle_type_id":"4","last_reported":1759238540,"current_range_meters":14800,"station_id":"ce4bhn12rcd13ifvqgpg","pricing_plan_id":"cebpf4jnsgd1na2vs0mg"},{"bike_id":"990e081d-5d6c-4c5d-aa67-f08f87db3e92","system_id":"levelo_inurba_marseille","lat":43.30909,"lon":5.36851,"is_reserved":false,"is_disabled":false,"rental_uris":{"android":"levelo://app?vid=990e081d-5d6c-4c5d-aa67-f08f87db3e92","ios":"levelo://app?vid=990e081d-5d6c-4c5d-aa67-f08f87db3e92"},"vehicle_type_id":"4","last_reported":1759238540,"current_range_meters":15200,"station_id":"ce4bgn92rcd13ifvqbvg","pricing_plan_id":"cebpf4jnsgd1na2vs0mg"},{"bike_id":"78004802-5134-4ec6-9c81-7248593fde0b","system_id":"levelo_inurba_marseille","lat":43.31491,"lon":5.373042,"is_reserved":false,"is_disabled":false,"rental_uris":{"android":"levelo://app?vid=78004802-5134-4ec6-9c81-7248593fde0b","ios":"levelo://app?vid=78004802-5134-4ec6-9c81-7248593fde0b"},"vehicle_type_id":"4","last_reported":1759238540,"current_range_meters":15200,"station_id":"ce4bgt12rcd13ifvqcd0","pricing_plan_id":"cebpf4jnsgd1na2vs0mg"},{"bike_id":"dec9446c-a40f-4d64-8476-2f4372230baf","system_id":"levelo_inurba_marseille","lat":43.30256,"lon":5.38135,"is_reserved":false,"is_disabled":false,"rental_uris":{"android":"levelo://app?vid=dec9446c-a40f-4d64-8476-2f4372230baf","ios":"levelo://app?vid=dec9446c-a40f-4d64-8476-2f4372230baf"},"vehicle_type_id":"4","last_reported":1759238540,"current_range_meters":15200,"station_id":"","pricing_plan_id":"cebpf4jnsgd1na2vs0mg"},{"bike_id":"1adf72d4-f2e2-443a-bd81-e3e77d2b1f3e","system_id":"levelo_inurba_marseille","lat":43.266732,"lon":5.402345,"is_reserved":false,"is_disabled":false,"rental_uris":{"android":"levelo://app?vid=1adf72d4-f2e2-443a-bd81-e3e77d2b1f3e","ios":"levelo://app?vid=1adf72d4-f2e2-443a-bd81-e3e77d2b1f3e"},"vehicle_type_id":"4","last_reported":1759238540,"current_range_meters":15200,"station_id":"","pricing_plan_id":"cebpf4jnsgd1na2vs0mg"},{"bike_id":"88106931-e7a1-4126-8ab0-306cad954481","system_id":"levelo_inurba_marseille","lat":43.24659,"lon":5.3816,"is_reserved":false,"is_disabled":false,"rental_uris":{"android":"levelo://app?vid=88106931-e7a1-4126-8ab0-306cad954481","ios":"levelo://app?vid=88106931-e7a1-4126-8ab0-306cad954481"},"vehicle_type_id":"4","last_reported":1759238540,"current_range_meters":15200,"station_id":"ce4bhih2rcd13ifvqfr0","pricing_plan_id":"cebpf4jnsgd1na2vs0mg"},{"bike_id":"627f0009-c086-4f8a-8406-c08f3975bb85","system_id":"levelo_inurba_marseille","lat":43.337914,"lon":5.374267,"is_reserved":false,"is_disabled":false,"rental_uris":{"android":"levelo://app?vid=627f0009-c086-4f8a-8406-c08f3975bb85","ios":"levelo://app?vid=627f0009-c086-4f8a-8406-c08f3975bb85"},"vehicle_type_id":"4","last_reported":1759238540,"current_range_meters":15200,"station_id":"","pricing_plan_id":"cebpf4jnsgd1na2vs0mg"},{"bike_id":"313885ed-6abb-4611-9b90-45ab382083be","system_id":"levelo_inurba_marseille","lat":43.29277,"lon":5.36852,"is_reserved":false,"is_disabled":false,"rental_uris":{"android":"levelo://app?vid=313885ed-6abb-4611-9b90-45ab382083be","ios":"levelo://app?vid=313885ed-6abb-4611-9b90-45ab382083be"},"vehicle_type_id":"4","last_reported":1759238540,"current_range_meters":16000,"station_id":"ce4bhbp2rcd13ifvqesg","pricing_plan_id":"cebpf4jnsgd1na2vs0mg"},{"bike_id":"ed72cb11-07b3-4d9e-a5e8-81f72acc58fc","system_id":"levelo_inurba_marseille","lat":43.25334,"lon":5.42174,"is_reserved":false,"is_disabled":false,"rental_uris":{"android":"levelo://app?vid=ed72cb11-07b3-4d9e-a5e8-81f72acc58fc","ios":"levelo://app?vid=ed72cb11-07b3-4d9e-a5e8-81f72acc58fc"},"vehicle_type_id":"4","last_reported":1759238540,"current_range_meters":16000,"station_id":"st_d2m65c5bi1j21697t3ng","pricing_plan_id":"cebpf4jnsgd1na2vs0mg"},{"bike_id":"7ec7ef75-703a-477f-a708-db062c75aa16","system_id":"levelo_inurba_marseille","lat":43.231826,"lon":5.399918,"is_reserved":false,"is_disabled":false,"rental_uris":{"android":"levelo://app?vid=7ec7ef75-703a-477f-a708-db062c75aa16","ios":"levelo://app?vid=7ec7ef75-703a-477f-a708-db062c75aa16"},"vehicle_type_id":"4","last_reported":1759238540,"current_range_meters":16000,"station_id":"ce4bhn12rcd13ifvqgqg","pricing_plan_id":"cebpf4jnsgd1na2vs0mg"},{"bike_id":"a850760d-f890-4818-860e-321d70e97b11","system_id":"levelo_inurba_marseille","lat":43.323544,"lon":5.367469,"is_reserved":false,"is_disabled":false,"rental_uris":{"android":"levelo://app?vid=a850760d-f890-4818-860e-321d70e97b11","ios":"levelo://app?vid=a850760d-f890-4818-860e-321d70e97b11"},"vehicle_type_id":"4","last_reported":1759238540,"current_range_meters":16000,"station_id":"ce4bhsh2rcd13ifvqi2g","pricing_plan_id":"cebpf4jnsgd1na2vs0mg"},{"bike_id":"4ff7ec88-a2b7-4650-95d9-2534bf56e47a","system_id":"levelo_inurba_marseille","lat":43.25503,"lon":5.37623,"is_reserved":false,"is_disabled":false,"rental_uris":{"android":"levelo://app?vid=4ff7ec88-a2b7-4650-95d9-2534bf56e47a","ios":"levelo://app?vid=4ff7ec88-a2b7-4650-95d9-2534bf56e47a"},"vehicle_type_id":"4","last_reported":1759238540,"current_range_meters":16000,"station_id":"ce4bhh12rcd13ifvqff0","pricing_plan_id":"cebpf4jnsgd1na2vs0mg"},{"bike_id":"f752559e-e357-41d0-b0e1-06afd32411be","system_id":"levelo_inurba_marseille","lat":43.27481,"lon":5.40798,"is_reserved":false,"is_disabled":false,"rental_uris":{"android":"levelo://app?vid=f752559e-e357-41d0-b0e1-06afd32411be","ios":"levelo://app?vid=f752559e-e357-41d0-b0e1-06afd32411be"},"vehicle_type_id":"4","last_reported":1759238540,"current_range_meters":16000,"station_id":"","pricing_plan_id":"cebpf4jnsgd1na2vs0mg"},{"bike_id":"9259d079-29af-4c38-99e0-f25e4d514b98","system_id":"levelo_inurba_marseille","lat":43.28424,"lon":5.3496,"is_reserved":false,"is_disabled":false,"rental_uris":{"android":"levelo://app?vid=9259d079-29af-4c38-99e0-f25e4d514b98","ios":"levelo://app?vid=9259d079-29af-4c38-99e0-f25e4d514b98"},"vehicle_type_id":"4","last_reported":1759238540,"current_range_meters":16000,"station_id":"ce4bhbh2rcd13ifvqepg","pricing_plan_id":"cebpf4jnsgd1na2vs0mg"},{"bike_id":"6a80563a-33ef-46e3-b795-c0e1254bcc18","system_id":"levelo_inurba_marseille","lat":43.241828,"lon":5.397342,"is_reserved":false,"is_disabled":false,"rental_uris":{"android":"levelo://app?vid=6a80563a-33ef-46e3-b795-c0e1254bcc18","ios":"levelo://app?vid=6a80563a-33ef-46e3-b795-c0e1254bcc18"},"vehicle_type_id":"4","last_reported":1759238540,"current_range_meters":16000,"station_id":"ce4bhn12rcd13ifvqgpg","pricing_plan_id":"cebpf4jnsgd1na2vs0mg"},{"bike_id":"f6112ae4-99b6-4c3e-9b05-f4184a268989","system_id":"levelo_inurba_marseille","lat":43.32043,"lon":5.41552,"is_reserved":false,"is_disabled":false,"rental_uris":{"android":"levelo://app?vid=f6112ae4-99b6-4c3e-9b05-f4184a268989","ios":"levelo://app?vid=f6112ae4-99b6-4c3e-9b05-f4184a268989"},"vehicle_type_id":"4","last_reported":1759238540,"current_range_meters":16000,"station_id":"ce4bhq92rcd13ifvqhkg","pricing_plan_id":"cebpf4jnsgd1na2vs0mg"},{"bike_id":"c55252ec-7f47-4422-a863-351e2af0586d","system_id":"levelo_inurba_marseille","lat":43.24399,"lon":5.37039,"is_reserved":false,"is_disabled":false,"rental_uris":{"android":"levelo://app?vid=c55252ec-7f47-4422-a863-351e2af0586d","ios":"levelo://app?vid=c55252ec-7f47-4422-a863-351e2af0586d"},"vehicle_type_id":"4","last_reported":1759238540,"current_range_meters":16000,"station_id":"ce4bhhh2rcd13ifvqfk0","pricing_plan_id":"cebpf4jnsgd1na2vs0mg"},{"bike_id":"8529f32e-2b7c-4b03-9b67-3802b1b158ab","system_id":"levelo_inurba_marseille","lat":43.31358,"lon":5.36703,"is_reserved":false,"is_disabled":false,"rental_uris":{"android":"levelo://app?vid=8529f32e-2b7c-4b03-9b67-3802b1b158ab","ios":"levelo://app?vid=8529f32e-2b7c-4b03-9b67-3802b1b158ab"},"vehicle_type_id":"4","last_reported":1759238540,"current_range_meters":16000,"station_id":"ce4bgr92rcd13ifvqc6g","pricing_plan_id":"cebpf4jnsgd1na2vs0mg"},{"bike_id":"66a0e74e-7f56-4e4d-a1d9-b433b748f53b","system_id":"levelo_inurba_marseille","lat":43.282616,"lon":5.350616,"is_reserved":false,"is_disabled":false,"rental_uris":{"android":"levelo://app?vid=66a0e74e-7f56-4e4d-a1d9-b433b748f53b","ios":"levelo://app?vid=66a0e74e-7f56-4e4d-a1d9-b433b748f53b"},"vehicle_type_id":"4","last_reported":1759238540,"current_range_meters":16000,"station_id":"ce4bhbp2rcd13ifvqerg","pricing_plan_id":"cebpf4jnsgd1na2vs0mg"},{"bike_id":"7ef3fee7-32d3-4acb-b5f4-d8806709e979","system_id":"levelo_inurba_marseille","lat":43.23957,"lon":5.36644,"is_reserved":false,"is_disabled":false,"rental_uris":{"android":"levelo://app?vid=7ef3fee7-32d3-4acb-b5f4-d8806709e979","ios":"levelo://app?vid=7ef3fee7-32d3-4acb-b5f4-d8806709e979"},"vehicle_type_id":"4","last_reported":1759238540,"current_range_meters":16000,"station_id":"ce4bhi12rcd13ifvqfp0","pricing_plan_id":"cebpf4jnsgd1na2vs0mg"},{"bike_id":"5f306875-9386-40a5-900a-f22790ff1557","system_id":"levelo_inurba_marseille","lat":43.24948,"lon":5.40484,"is_reserved":false,"is_disabled":false,"rental_uris":{"android":"levelo://app?vid=5f306875-9386-40a5-900a-f22790ff1557","ios":"levelo://app?vid=5f306875-9386-40a5-900a-f22790ff1557"},"vehicle_type_id":"4","last_reported":1759238540,"current_range_meters":16000,"station_id":"st_d2ngiaodas8pm72gd1h0","pricing_plan_id":"cebpf4jnsgd1na2vs0mg"},{"bike_id":"d35c82d0-6b9a-46a3-98d6-7249f63dac84","system_id":"levelo_inurba_marseille","lat":43.30421,"lon":5.3975,"is_reserved":false,"is_disabled":false,"rental_uris":{"android":"levelo://app?vid=d35c82d0-6b9a-46a3-98d6-7249f63dac84","ios":"levelo://app?vid=d35c82d0-6b9a-46a3-98d6-7249f63dac84"},"vehicle_type_id":"4","last_reported":1759238540,"current_range_meters":16000,"station_id":"ce4bh092rcd13ifvqd20","pricing_plan_id":"cebpf4jnsgd1na2vs0mg"},{"bike_id":"de465f74-b2e1-47fa-8954-0564a43f223d","system_id":"levelo_inurba_marseille","lat":43.32543,"lon":5.41464,"is_reserved":false,"is_disabled":false,"rental_uris":{"android":"levelo://app?vid=de465f74-b2e1-47fa-8954-0564a43f223d","ios":"levelo://app?vid=de465f74-b2e1-47fa-8954-0564a43f223d"},"vehicle_type_id":"4","last_reported":1759238540,"current_range_meters":16400,"station_id":"ce4bhq12rcd13ifvqhhg","pricing_plan_id":"cebpf4jnsgd1na2vs0mg"},{"bike_id":"85877f30-b8d6-4ddc-b6f6-0fa6647c818a","system_id":"levelo_inurba_marseille","lat":43.26783,"lon":5.39407,"is_reserved":false,"is_disabled":false,"rental_uris":{"android":"levelo://app?vid=85877f30-b8d6-4ddc-b6f6-0fa6647c818a","ios":"levelo://app?vid=85877f30-b8d6-4ddc-b6f6-0fa6647c818a"},"vehicle_type_id":"4","last_reported":1759238540,"current_range_meters":16400,"station_id":"ce4bhh12rcd13ifvqfg0","pricing_plan_id":"cebpf4jnsgd1na2vs0mg"},{"bike_id":"88b50ae5-a50b-4b14-bcd2-262b3fe5987b","system_id":"levelo_inurba_marseille","lat":43.23149,"lon":5.43719,"is_reserved":false,"is_disabled":false,"rental_uris":{"android":"levelo://app?vid=88b50ae5-a50b-4b14-bcd2-262b3fe5987b","ios":"levelo://app?vid=88b50ae5-a50b-4b14-bcd2-262b3fe5987b"},"vehicle_type_id":"4","last_reported":1759238540,"current_range_meters":16400,"station_id":"ce4bhmp2rcd13ifvqgog","pricing_plan_id":"cebpf4jnsgd1na2vs0mg"},{"bike_id":"cfb1ef01-ed0e-413c-bb09-20e6d021e251","system_id":"levelo_inurba_marseille","lat":43.32535,"lon":5.41446,"is_reserved":false,"is_disabled":false,"rental_uris":{"android":"levelo://app?vid=cfb1ef01-ed0e-413c-bb09-20e6d021e251","ios":"levelo://app?vid=cfb1ef01-ed0e-413c-bb09-20e6d021e251"},"vehicle_type_id":"4","last_reported":1759238540,"current_range_meters":16400,"station_id":"ce4bhq12rcd13ifvqhhg","pricing_plan_id":"cebpf4jnsgd1na2vs0mg"},{"bike_id":"c2aaca00-5fa4-446d-88d2-b47f73e6d963","system_id":"levelo_inurba_marseille","lat":43.28485,"lon":5.38419,"is_reserved":false,"is_disabled":false,"rental_uris":{"android":"levelo://app?vid=c2aaca00-5fa4-446d-88d2-b47f73e6d963","ios":"levelo://app?vid=c2aaca00-5fa4-446d-88d2-b47f73e6d963"},"vehicle_type_id":"4","last_reported":1759238540,"current_range_meters":16400,"station_id":"ce4bh512rcd13ifvqe3g","pricing_plan_id":"cebpf4jnsgd1na2vs0mg"},{"bike_id":"617dca4b-4508-4d52-9e62-d583d919ac44","system_id":"levelo_inurba_marseille","lat":43.297466,"lon":5.371086,"is_reserved":false,"is_disabled":false,"rental_uris":{"android":"levelo://app?vid=617dca4b-4508-4d52-9e62-d583d919ac44","ios":"levelo://app?vid=617dca4b-4508-4d52-9e62-d583d919ac44"},"vehicle_type_id":"4","last_reported":1759238540,"current_range_meters":16400,"station_id":"ce4bgop2rcd13ifvqc1g","pricing_plan_id":"cebpf4jnsgd1na2vs0mg"},{"bike_id":"d88e0d03-a71d-4d69-bfe0-f7906e10eef6","system_id":"levelo_inurba_marseille","lat":43.22918,"lon":5.35357,"is_reserved":false,"is_disabled":false,"rental_uris":{"android":"levelo://app?vid=d88e0d03-a71d-4d69-bfe0-f7906e10eef6","ios":"levelo://app?vid=d88e0d03-a71d-4d69-bfe0-f7906e10eef6"},"vehicle_type_id":"4","last_reported":1759238540,"current_range_meters":16400,"station_id":"cpo3532slgdg3j2ikp40","pricing_plan_id":"cebpf4jnsgd1na2vs0mg"},{"bike_id":"4c657725-3208-45ed-be1d-815a14ea9c8a","system_id":"levelo_inurba_marseille","lat":43.28936,"lon":5.36635,"is_reserved":false,"is_disabled":false,"rental_uris":{"android":"levelo://app?vid=4c657725-3208-45ed-be1d-815a14ea9c8a","ios":"levelo://app?vid=4c657725-3208-45ed-be1d-815a14ea9c8a"},"vehicle_type_id":"4","last_reported":1759238540,"current_range_meters":16400,"station_id":"ce4bhap2rcd13ifvqek0","pricing_plan_id":"cebpf4jnsgd1na2vs0mg"},{"bike_id":"50a6d9be-879d-4d99-9855-abb98fbce5b8","system_id":"levelo_inurba_marseille","lat":43.337851,"lon":5.374298,"is_reserved":false,"is_disabled":false,"rental_uris":{"android":"levelo://app?vid=50a6d9be-879d-4d99-9855-abb98fbce5b8","ios":"levelo://app?vid=50a6d9be-879d-4d99-9855-abb98fbce5b8"},"vehicle_type_id":"4","last_reported":1759238540,"current_range_meters":16400,"station_id":"","pricing_plan_id":"cebpf4jnsgd1na2vs0mg"},{"bike_id":"f389964a-c6b6-4af1-95ba-d2e996bf344e","system_id":"levelo_inurba_marseille","lat":43.28414,"lon":5.34979,"is_reserved":false,"is_disabled":false,"rental_uris":{"android":"levelo://app?vid=f389964a-c6b6-4af1-95ba-d2e996bf344e","ios":"levelo://app?vid=f389964a-c6b6-4af1-95ba-d2e996bf344e"},"vehicle_type_id":"4","last_reported":1759238540,"current_range_meters":16800,"station_id":"ce4bhbh2rcd13ifvqepg","pricing_plan_id":"cebpf4jnsgd1na2vs0mg"},{"bike_id":"64b25e14-4e01-4810-94ac-2ca7b90cf2f7","system_id":"levelo_inurba_marseille","lat":43.28406,"lon":5.34993,"is_reserved":false,"is_disabled":false,"rental_uris":{"android":"levelo://app?vid=64b25e14-4e01-4810-94ac-2ca7b90cf2f7","ios":"levelo://app?vid=64b25e14-4e01-4810-94ac-2ca7b90cf2f7"},"vehicle_type_id":"4","last_reported":1759238540,"current_range_meters":16800,"station_id":"ce4bhbh2rcd13ifvqepg","pricing_plan_id":"cebpf4jnsgd1na2vs0mg"},{"bike_id":"fa3e6782-c198-4993-bfc8-ba4949faaf19","system_id":"levelo_inurba_marseille","lat":43.21172,"lon":5.35044,"is_reserved":false,"is_disabled":true,"rental_uris":{"android":"levelo://app?vid=fa3e6782-c198-4993-bfc8-ba4949faaf19","ios":"levelo://app?vid=fa3e6782-c198-4993-bfc8-ba4949faaf19"},"vehicle_type_id":"4","last_reported":1759238540,"current_range_meters":16800,"station_id":"","pricing_plan_id":"cebpf4jnsgd1na2vs0mg"},{"bike_id":"6c2e96f0-0d94-4ada-b75d-f16e4d9045a7","system_id":"levelo_inurba_marseille","lat":43.23965,"lon":5.36637,"is_reserved":false,"is_disabled":false,"rental_uris":{"android":"levelo://app?vid=6c2e96f0-0d94-4ada-b75d-f16e4d9045a7","ios":"levelo://app?vid=6c2e96f0-0d94-4ada-b75d-f16e4d9045a7"},"vehicle_type_id":"4","last_reported":1759238540,"current_range_meters":16800,"station_id":"ce4bhi12rcd13ifvqfp0","pricing_plan_id":"cebpf4jnsgd1na2vs0mg"},{"bike_id":"7ea1dc18-4de9-4efe-90e3-7b8b1c816f30","system_id":"levelo_inurba_marseille","lat":43.24658,"lon":5.38882,"is_reserved":false,"is_disabled":false,"rental_uris":{"android":"levelo://app?vid=7ea1dc18-4de9-4efe-90e3-7b8b1c816f30","ios":"levelo://app?vid=7ea1dc18-4de9-4efe-90e3-7b8b1c816f30"},"vehicle_type_id":"4","last_reported":1759238540,"current_range_meters":16800,"station_id":"ce4bhg12rcd13ifvqf60","pricing_plan_id":"cebpf4jnsgd1na2vs0mg"},{"bike_id":"365480bc-c570-4b8e-a786-d0753041664b","system_id":"levelo_inurba_marseille","lat":43.32289,"lon":5.38252,"is_reserved":false,"is_disabled":false,"rental_uris":{"android":"levelo://app?vid=365480bc-c570-4b8e-a786-d0753041664b","ios":"levelo://app?vid=365480bc-c570-4b8e-a786-d0753041664b"},"vehicle_type_id":"4","last_reported":1759238540,"current_range_meters":16800,"station_id":"ce4bhr12rcd13ifvqhqg","pricing_plan_id":"cebpf4jnsgd1na2vs0mg"},{"bike_id":"d777c2d8-24ff-4548-936f-766a2ff00486","system_id":"levelo_inurba_marseille","lat":43.28719,"lon":5.36084,"is_reserved":false,"is_disabled":false,"rental_uris":{"android":"levelo://app?vid=d777c2d8-24ff-4548-936f-766a2ff00486","ios":"levelo://app?vid=d777c2d8-24ff-4548-936f-766a2ff00486"},"vehicle_type_id":"4","last_reported":1759238540,"current_range_meters":16800,"station_id":"cki0cbj6b192h4jlfktg","pricing_plan_id":"cebpf4jnsgd1na2vs0mg"},{"bike_id":"ee94eda5-f40b-4168-a57a-bf8989940e9c","system_id":"levelo_inurba_marseille","lat":43.32461,"lon":5.36608,"is_reserved":false,"is_disabled":false,"rental_uris":{"android":"levelo://app?vid=ee94eda5-f40b-4168-a57a-bf8989940e9c","ios":"levelo://app?vid=ee94eda5-f40b-4168-a57a-bf8989940e9c"},"vehicle_type_id":"4","last_reported":1759238540,"current_range_meters":16800,"station_id":"ce4bhs12rcd13ifvqhvg","pricing_plan_id":"cebpf4jnsgd1na2vs0mg"},{"bike_id":"0e22ced9-197b-4339-bd33-e5a8f131c1c2","system_id":"levelo_inurba_marseille","lat":43.23196,"lon":5.35545,"is_reserved":false,"is_disabled":false,"rental_uris":{"android":"levelo://app?vid=0e22ced9-197b-4339-bd33-e5a8f131c1c2","ios":"levelo://app?vid=0e22ced9-197b-4339-bd33-e5a8f131c1c2"},"vehicle_type_id":"4","last_reported":1759238540,"current_range_meters":16800,"station_id":"ce4bhu92rcd13ifvqi70","pricing_plan_id":"cebpf4jnsgd1na2vs0mg"},{"bike_id":"99fca88f-4d69-4c0c-af12-65f76f1bda78","system_id":"levelo_inurba_marseille","lat":43.29853,"lon":5.36281,"is_reserved":false,"is_disabled":false,"rental_uris":{"android":"levelo://app?vid=99fca88f-4d69-4c0c-af12-65f76f1bda78","ios":"levelo://app?vid=99fca88f-4d69-4c0c-af12-65f76f1bda78"},"vehicle_type_id":"4","last_reported":1759238540,"current_range_meters":16800,"station_id":"ce4bgpp2rcd13ifvqc3g","pricing_plan_id":"cebpf4jnsgd1na2vs0mg"},{"bike_id":"a9efa52c-4657-4cc0-bfc5-747a278bfca4","system_id":"levelo_inurba_marseille","lat":43.325587,"lon":5.414576,"is_reserved":false,"is_disabled":false,"rental_uris":{"android":"levelo://app?vid=a9efa52c-4657-4cc0-bfc5-747a278bfca4","ios":"levelo://app?vid=a9efa52c-4657-4cc0-bfc5-747a278bfca4"},"vehicle_type_id":"4","last_reported":1759238540,"current_range_meters":16800,"station_id":"ce4bhq12rcd13ifvqhhg","pricing_plan_id":"cebpf4jnsgd1na2vs0mg"},{"bike_id":"6e35eb3a-244d-446e-ba2c-c58465f51251","system_id":"levelo_inurba_marseille","lat":43.32103,"lon":5.36781,"is_reserved":false,"is_disabled":false,"rental_uris":{"android":"levelo://app?vid=6e35eb3a-244d-446e-ba2c-c58465f51251","ios":"levelo://app?vid=6e35eb3a-244d-446e-ba2c-c58465f51251"},"vehicle_type_id":"4","last_reported":1759238540,"current_range_meters":17200,"station_id":"ce4bhrh2rcd13ifvqhug","pricing_plan_id":"cebpf4jnsgd1na2vs0mg"},{"bike_id":"818e7555-4730-4f36-bc6e-d4ced40d4097","system_id":"levelo_inurba_marseille","lat":43.31101,"lon":5.37725,"is_reserved":false,"is_disabled":false,"rental_uris":{"android":"levelo://app?vid=818e7555-4730-4f36-bc6e-d4ced40d4097","ios":"levelo://app?vid=818e7555-4730-4f36-bc6e-d4ced40d4097"},"vehicle_type_id":"4","last_reported":1759238540,"current_range_meters":17200,"station_id":"ce4bgt92rcd13ifvqcg0","pricing_plan_id":"cebpf4jnsgd1na2vs0mg"},{"bike_id":"94b4a201-5b9b-42ef-90cd-56c4ea0d80e7","system_id":"levelo_inurba_marseille","lat":43.32542,"lon":5.41424,"is_reserved":false,"is_disabled":false,"rental_uris":{"android":"levelo://app?vid=94b4a201-5b9b-42ef-90cd-56c4ea0d80e7","ios":"levelo://app?vid=94b4a201-5b9b-42ef-90cd-56c4ea0d80e7"},"vehicle_type_id":"4","last_reported":1759238540,"current_range_meters":17200,"station_id":"ce4bhq12rcd13ifvqhhg","pricing_plan_id":"cebpf4jnsgd1na2vs0mg"},{"bike_id":"a58a4c94-7754-46be-b35a-a0b84fc468a5","system_id":"levelo_inurba_marseille","lat":43.29993,"lon":5.37338,"is_reserved":false,"is_disabled":false,"rental_uris":{"android":"levelo://app?vid=a58a4c94-7754-46be-b35a-a0b84fc468a5","ios":"levelo://app?vid=a58a4c94-7754-46be-b35a-a0b84fc468a5"},"vehicle_type_id":"4","last_reported":1759238540,"current_range_meters":17200,"station_id":"","pricing_plan_id":"cebpf4jnsgd1na2vs0mg"},{"bike_id":"a9f05152-e55f-436d-b3d3-ffe2c2f0b84e","system_id":"levelo_inurba_marseille","lat":43.23143,"lon":5.43698,"is_reserved":false,"is_disabled":false,"rental_uris":{"android":"levelo://app?vid=a9f05152-e55f-436d-b3d3-ffe2c2f0b84e","ios":"levelo://app?vid=a9f05152-e55f-436d-b3d3-ffe2c2f0b84e"},"vehicle_type_id":"4","last_reported":1759238540,"current_range_meters":17200,"station_id":"ce4bhmp2rcd13ifvqgog","pricing_plan_id":"cebpf4jnsgd1na2vs0mg"},{"bike_id":"db3a202b-6514-4a53-892d-e953fc1e9d26","system_id":"levelo_inurba_marseille","lat":43.225369,"lon":5.348573,"is_reserved":false,"is_disabled":false,"rental_uris":{"android":"levelo://app?vid=db3a202b-6514-4a53-892d-e953fc1e9d26","ios":"levelo://app?vid=db3a202b-6514-4a53-892d-e953fc1e9d26"},"vehicle_type_id":"4","last_reported":1759238540,"current_range_meters":17200,"station_id":"","pricing_plan_id":"cebpf4jnsgd1na2vs0mg"},{"bike_id":"aa44d07e-6268-4b5c-80fb-bdf5232877a1","system_id":"levelo_inurba_marseille","lat":43.2841,"lon":5.349765,"is_reserved":false,"is_disabled":false,"rental_uris":{"android":"levelo://app?vid=aa44d07e-6268-4b5c-80fb-bdf5232877a1","ios":"levelo://app?vid=aa44d07e-6268-4b5c-80fb-bdf5232877a1"},"vehicle_type_id":"4","last_reported":1759238540,"current_range_meters":17200,"station_id":"","pricing_plan_id":"cebpf4jnsgd1na2vs0mg"},{"bike_id":"8a15c409-c17c-4d99-a47b-f4fd521723ef","system_id":"levelo_inurba_marseille","lat":43.29945,"lon":5.365568,"is_reserved":false,"is_disabled":false,"rental_uris":{"android":"levelo://app?vid=8a15c409-c17c-4d99-a47b-f4fd521723ef","ios":"levelo://app?vid=8a15c409-c17c-4d99-a47b-f4fd521723ef"},"vehicle_type_id":"4","last_reported":1759238540,"current_range_meters":17200,"station_id":"ce4bgm92rcd13ifvqbr0","pricing_plan_id":"cebpf4jnsgd1na2vs0mg"},{"bike_id":"123e055a-692b-459b-9c4f-970a83ad75be","system_id":"levelo_inurba_marseille","lat":43.32366,"lon":5.36762,"is_reserved":false,"is_disabled":true,"rental_uris":{"android":"levelo://app?vid=123e055a-692b-459b-9c4f-970a83ad75be","ios":"levelo://app?vid=123e055a-692b-459b-9c4f-970a83ad75be"},"vehicle_type_id":"4","last_reported":1759238540,"current_range_meters":17200,"station_id":"ce4bhsh2rcd13ifvqi2g","pricing_plan_id":"cebpf4jnsgd1na2vs0mg"},{"bike_id":"a2cd528e-2b5d-4ca2-9d4e-171220d19463","system_id":"levelo_inurba_marseille","lat":43.29434,"lon":5.39746,"is_reserved":false,"is_disabled":false,"rental_uris":{"android":"levelo://app?vid=a2cd528e-2b5d-4ca2-9d4e-171220d19463","ios":"levelo://app?vid=a2cd528e-2b5d-4ca2-9d4e-171220d19463"},"vehicle_type_id":"4","last_reported":1759238540,"current_range_meters":17200,"station_id":"ce4bh3h2rcd13ifvqdo0","pricing_plan_id":"cebpf4jnsgd1na2vs0mg"},{"bike_id":"f37b9d58-bbd8-4442-9b56-88a9f53d9cbe","system_id":"levelo_inurba_marseille","lat":43.28256,"lon":5.35065,"is_reserved":false,"is_disabled":false,"rental_uris":{"android":"levelo://app?vid=f37b9d58-bbd8-4442-9b56-88a9f53d9cbe","ios":"levelo://app?vid=f37b9d58-bbd8-4442-9b56-88a9f53d9cbe"},"vehicle_type_id":"4","last_reported":1759238540,"current_range_meters":17200,"station_id":"ce4bhbp2rcd13ifvqerg","pricing_plan_id":"cebpf4jnsgd1na2vs0mg"},{"bike_id":"3f8a7425-65dd-467a-bda8-36ede2e6a269","system_id":"levelo_inurba_marseille","lat":43.26936,"lon":5.41037,"is_reserved":false,"is_disabled":false,"rental_uris":{"android":"levelo://app?vid=3f8a7425-65dd-467a-bda8-36ede2e6a269","ios":"levelo://app?vid=3f8a7425-65dd-467a-bda8-36ede2e6a269"},"vehicle_type_id":"4","last_reported":1759238540,"current_range_meters":17600,"station_id":"","pricing_plan_id":"cebpf4jnsgd1na2vs0mg"},{"bike_id":"284a0a39-8634-4794-8ee9-f93dbb66a72f","system_id":"levelo_inurba_marseille","lat":43.28262,"lon":5.35068,"is_reserved":false,"is_disabled":false,"rental_uris":{"android":"levelo://app?vid=284a0a39-8634-4794-8ee9-f93dbb66a72f","ios":"levelo://app?vid=284a0a39-8634-4794-8ee9-f93dbb66a72f"},"vehicle_type_id":"4","last_reported":1759238540,"current_range_meters":17600,"station_id":"ce4bhbp2rcd13ifvqerg","pricing_plan_id":"cebpf4jnsgd1na2vs0mg"},{"bike_id":"2410b542-4dbb-4ba2-8de7-3b722fc9a69f","system_id":"levelo_inurba_marseille","lat":43.28466,"lon":5.35872,"is_reserved":false,"is_disabled":true,"rental_uris":{"android":"levelo://app?vid=2410b542-4dbb-4ba2-8de7-3b722fc9a69f","ios":"levelo://app?vid=2410b542-4dbb-4ba2-8de7-3b722fc9a69f"},"vehicle_type_id":"4","last_reported":1759238540,"current_range_meters":17600,"station_id":"ce4bhah2rcd13ifvqei0","pricing_plan_id":"cebpf4jnsgd1na2vs0mg"},{"bike_id":"e2491370-02e0-4054-8d27-adedba250b17","system_id":"levelo_inurba_marseille","lat":43.304207,"lon":5.388926,"is_reserved":false,"is_disabled":false,"rental_uris":{"android":"levelo://app?vid=e2491370-02e0-4054-8d27-adedba250b17","ios":"levelo://app?vid=e2491370-02e0-4054-8d27-adedba250b17"},"vehicle_type_id":"4","last_reported":1759238540,"current_range_meters":17600,"station_id":"ce4bgk12rcd13ifvqbi0","pricing_plan_id":"cebpf4jnsgd1na2vs0mg"},{"bike_id":"8758711a-1ac5-4451-83b4-71cf262c01c9","system_id":"levelo_inurba_marseille","lat":43.28268,"lon":5.35052,"is_reserved":false,"is_disabled":false,"rental_uris":{"android":"levelo://app?vid=8758711a-1ac5-4451-83b4-71cf262c01c9","ios":"levelo://app?vid=8758711a-1ac5-4451-83b4-71cf262c01c9"},"vehicle_type_id":"4","last_reported":1759238540,"current_range_meters":17600,"station_id":"ce4bhbp2rcd13ifvqerg","pricing_plan_id":"cebpf4jnsgd1na2vs0mg"},{"bike_id":"700e2971-7ce2-46cc-996b-6959d72691c7","system_id":"levelo_inurba_marseille","lat":43.22575,"lon":5.41617,"is_reserved":false,"is_disabled":false,"rental_uris":{"android":"levelo://app?vid=700e2971-7ce2-46cc-996b-6959d72691c7","ios":"levelo://app?vid=700e2971-7ce2-46cc-996b-6959d72691c7"},"vehicle_type_id":"4","last_reported":1759238540,"current_range_meters":17600,"station_id":"st_d2o4gvlbi1j2169b742g","pricing_plan_id":"cebpf4jnsgd1na2vs0mg"},{"bike_id":"a8e4062f-d231-4fb9-9b8c-aa6a08efe307","system_id":"levelo_inurba_marseille","lat":43.29953,"lon":5.36432,"is_reserved":false,"is_disabled":false,"rental_uris":{"android":"levelo://app?vid=a8e4062f-d231-4fb9-9b8c-aa6a08efe307","ios":"levelo://app?vid=a8e4062f-d231-4fb9-9b8c-aa6a08efe307"},"vehicle_type_id":"4","last_reported":1759238540,"current_range_meters":17600,"station_id":"","pricing_plan_id":"cebpf4jnsgd1na2vs0mg"},{"bike_id":"212c01de-4cdb-45b7-9145-1ce458c84636","system_id":"levelo_inurba_marseille","lat":43.29279,"lon":5.36833,"is_reserved":false,"is_disabled":false,"rental_uris":{"android":"levelo://app?vid=212c01de-4cdb-45b7-9145-1ce458c84636","ios":"levelo://app?vid=212c01de-4cdb-45b7-9145-1ce458c84636"},"vehicle_type_id":"4","last_reported":1759238540,"current_range_meters":17600,"station_id":"ce4bhbp2rcd13ifvqesg","pricing_plan_id":"cebpf4jnsgd1na2vs0mg"},{"bike_id":"bb80e5da-8df2-462f-8828-7587302fcb86","system_id":"levelo_inurba_marseille","lat":43.29784,"lon":5.37666,"is_reserved":false,"is_disabled":false,"rental_uris":{"android":"levelo://app?vid=bb80e5da-8df2-462f-8828-7587302fcb86","ios":"levelo://app?vid=bb80e5da-8df2-462f-8828-7587302fcb86"},"vehicle_type_id":"4","last_reported":1759238540,"current_range_meters":17600,"station_id":"","pricing_plan_id":"cebpf4jnsgd1na2vs0mg"},{"bike_id":"450844ba-2fc2-47be-9959-8fee61f07fb6","system_id":"levelo_inurba_marseille","lat":43.317354,"lon":5.390403,"is_reserved":false,"is_disabled":false,"rental_uris":{"android":"levelo://app?vid=450844ba-2fc2-47be-9959-8fee61f07fb6","ios":"levelo://app?vid=450844ba-2fc2-47be-9959-8fee61f07fb6"},"vehicle_type_id":"4","last_reported":1759238540,"current_range_meters":18000,"station_id":"ce4bhqp2rcd13ifvqhng","pricing_plan_id":"cebpf4jnsgd1na2vs0mg"},{"bike_id":"b7cd29c1-7e6a-4750-89cf-107360408473","system_id":"levelo_inurba_marseille","lat":43.22542,"lon":5.34824,"is_reserved":false,"is_disabled":false,"rental_uris":{"android":"levelo://app?vid=b7cd29c1-7e6a-4750-89cf-107360408473","ios":"levelo://app?vid=b7cd29c1-7e6a-4750-89cf-107360408473"},"vehicle_type_id":"4","last_reported":1759238540,"current_range_meters":18000,"station_id":"","pricing_plan_id":"cebpf4jnsgd1na2vs0mg"},{"bike_id":"7cd29654-93ae-47e3-920d-13d2b16ecd14","system_id":"levelo_inurba_marseille","lat":43.29282,"lon":5.40124,"is_reserved":false,"is_disabled":false,"rental_uris":{"android":"levelo://app?vid=7cd29654-93ae-47e3-920d-13d2b16ecd14","ios":"levelo://app?vid=7cd29654-93ae-47e3-920d-13d2b16ecd14"},"vehicle_type_id":"4","last_reported":1759238540,"current_range_meters":18000,"station_id":"ce4bh312rcd13ifvqdk0","pricing_plan_id":"cebpf4jnsgd1na2vs0mg"},{"bike_id":"73e22ed6-f150-4bd5-a7c9-af939e7a8ce9","system_id":"levelo_inurba_marseille","lat":43.290507,"lon":5.419421,"is_reserved":false,"is_disabled":false,"rental_uris":{"android":"levelo://app?vid=73e22ed6-f150-4bd5-a7c9-af939e7a8ce9","ios":"levelo://app?vid=73e22ed6-f150-4bd5-a7c9-af939e7a8ce9"},"vehicle_type_id":"4","last_reported":1759238540,"current_range_meters":18000,"station_id":"","pricing_plan_id":"cebpf4jnsgd1na2vs0mg"},{"bike_id":"e8a6d609-d965-4c72-b22f-83ffb60a3d29","system_id":"levelo_inurba_marseille","lat":43.2842,"lon":5.34985,"is_reserved":false,"is_disabled":false,"rental_uris":{"android":"levelo://app?vid=e8a6d609-d965-4c72-b22f-83ffb60a3d29","ios":"levelo://app?vid=e8a6d609-d965-4c72-b22f-83ffb60a3d29"},"vehicle_type_id":"4","last_reported":1759238540,"current_range_meters":18000,"station_id":"ce4bhbh2rcd13ifvqepg","pricing_plan_id":"cebpf4jnsgd1na2vs0mg"},{"bike_id":"a3577dd7-b1db-4ad9-be15-00d58b2f8c69","system_id":"levelo_inurba_marseille","lat":43.27093,"lon":5.42278,"is_reserved":false,"is_disabled":false,"rental_uris":{"android":"levelo://app?vid=a3577dd7-b1db-4ad9-be15-00d58b2f8c69","ios":"levelo://app?vid=a3577dd7-b1db-4ad9-be15-00d58b2f8c69"},"vehicle_type_id":"4","last_reported":1759238540,"current_range_meters":18000,"station_id":"ce4bhk92rcd13ifvqgb0","pricing_plan_id":"cebpf4jnsgd1na2vs0mg"},{"bike_id":"9f344037-7aa5-4ee2-920d-740ab1273e5a","system_id":"levelo_inurba_marseille","lat":43.29603,"lon":5.37725,"is_reserved":false,"is_disabled":false,"rental_uris":{"android":"levelo://app?vid=9f344037-7aa5-4ee2-920d-740ab1273e5a","ios":"levelo://app?vid=9f344037-7aa5-4ee2-920d-740ab1273e5a"},"vehicle_type_id":"4","last_reported":1759238540,"current_range_meters":18000,"station_id":"ce4bgi92rcd13ifvqb90","pricing_plan_id":"cebpf4jnsgd1na2vs0mg"},{"bike_id":"a7d7834a-6060-4214-a66f-8338e20b7942","system_id":"levelo_inurba_marseille","lat":43.29091,"lon":5.3713,"is_reserved":false,"is_disabled":false,"rental_uris":{"android":"levelo://app?vid=a7d7834a-6060-4214-a66f-8338e20b7942","ios":"levelo://app?vid=a7d7834a-6060-4214-a66f-8338e20b7942"},"vehicle_type_id":"4","last_reported":1759238540,"current_range_meters":18000,"station_id":"","pricing_plan_id":"cebpf4jnsgd1na2vs0mg"},{"bike_id":"f45eba02-4c2c-4bf6-8566-bd0e9f140d6e","system_id":"levelo_inurba_marseille","lat":43.29844,"lon":5.36234,"is_reserved":false,"is_disabled":false,"rental_uris":{"android":"levelo://app?vid=f45eba02-4c2c-4bf6-8566-bd0e9f140d6e","ios":"levelo://app?vid=f45eba02-4c2c-4bf6-8566-bd0e9f140d6e"},