{"last_updated":1746361105,"ttl":60,"version":"2.2","data":{"bikes":[{"bike_id":"809bed10-4535-4849-82b6-9eb9b3abb1f1","system_id":"levelo_inurba_marseille","lat":43.31197,"lon":5.384698,"is_reserved":false,"is_disabled":true,"rental_uris":{"android":"levelo://app?vid=809bed10-4535-4849-82b6-9eb9b3abb1f1","ios":"levelo://app?vid=809bed10-4535-4849-82b6-9eb9b3abb1f1"},"vehicle_type_id":"4","last_reported":1746361105,"current_range_meters":0,"station_id":"","pricing_plan_id":"cebpf4jnsgd1na2vs0mg"},{"bike_id":"2d87f24b-bb92-4f5a-9c64-611905425c8d","system_id":"levelo_inurba_marseille","lat":43.23667,"lon":5.39143,"is_reserved":false,"is_disabled":true,"rental_uris":{"android":"levelo://app?vid=2d87f24b-bb92-4f5a-9c64-611905425c8d","ios":"levelo://app?vid=2d87f24b-bb92-4f5a-9c64-611905425c8d"},"vehicle_type_id":"4","last_reported":1746361105,"current_range_meters":0,"station_id":"","pricing_plan_id":"cebpf4jnsgd1na2vs0mg"},{"bike_id":"7f770ba9-2e48-47c9-8bb4-942855273bad","system_id":"levelo_inurba_marseille","lat":43.25321,"lon":5.42415,"is_reserved":false,"is_disabled":true,"rental_uris":{"android":"levelo://app?vid=7f770ba9-2e48-47c9-8bb4-942855273bad","ios":"levelo://app?vid=7f770ba9-2e48-47c9-8bb4-942855273bad"},"vehicle_type_id":"4","last_reported":1746361105,"current_range_meters":0,"station_id":"","pricing_plan_id":"cebpf4jnsgd1na2vs0mg"},{"bike_id":"f73daf93-45c7-48c0-a61a-2d28ac89db8d","system_id":"levelo_inurba_marseille","lat":43.33901,"lon":5.42048,"is_reserved":false,"is_disabled":true,"rental_uris":{"android":"levelo://app?vid=f73daf93-45c7-48c0-a61a-2d28ac89db8d","ios":"levelo://app?vid=f73daf93-45c7-48c0-a61a-2d28ac89db8d"},"vehicle_type_id":"4","last_reported":1746361105,"current_range_meters":0,"station_id":"","pricing_plan_id":"cebpf4jnsgd1na2vs0mg"},{"bike_id":"e93b949e-1738-47f2-ad13-8f512df2ffaf","system_id":"levelo_inurba_marseille","lat":43.28151,"lon":5.4434,"is_reserved":false,"is_disabled":true,"rental_uris":{"android":"levelo://app?vid=e93b949e-1738-47f2-ad13-8f512df2ffaf","ios":"levelo://app?vid=e93b949e-1738-47f2-ad13-8f512df2ffaf"},"vehicle_type_id":"4","last_reported":1746361105,"current_range_meters":0,"station_id":"","pricing_plan_id":"cebpf4jnsgd1na2vs0mg"},{"bike_id":"01e1a8e0-8291-4077-a0df-a1539c51e1b0","system_id":"levelo_inurba_marseille","lat":43.30954,"lon":5.3904,"is_reserved":false,"is_disabled":true,"rental_uris":{"android":"levelo://app?vid=01e1a8e0-8291-4077-a0df-a1539c51e1b0","ios":"levelo://app?vid=01e1a8e0-8291-4077-a0df-a1539c51e1b0"},"vehicle_type_id":"4","last_reported":1746361105,"current_range_meters":0,"station_id":"ce4bgup2rcd13ifvqco0","pricing_plan_id":"cebpf4jnsgd1na2vs0mg"},{"bike_id":"3d2ad24a-7848-4cf8-814b-389be045e367","system_id":"levelo_inurba_marseille","lat":43.28274,"lon":5.35072,"is_reserved":false,"is_disabled":true,"rental_uris":{"android":"levelo://app?vid=3d2ad24a-7848-4cf8-814b-389be045e367","ios":"levelo://app?vid=3d2ad24a-7848-4cf8-814b-389be045e367"},"vehicle_type_id":"4","last_reported":1746361105,"current_range_meters":0,"station_id":"ce4bhbp2rcd13ifvqerg","pricing_plan_id":"cebpf4jnsgd1na2vs0mg"},{"bike_id":"fc957e4a-6d17-4a74-87c3-72c3cf5ce821","system_id":"levelo_inurba_marseille","lat":43.3072,"lon":5.42442,"is_reserved":false,"is_disabled":true,"rental_uris":{"android":"levelo://app?vid=fc957e4a-6d17-4a74-87c3-72c3cf5ce821","ios":"levelo://app?vid=fc957e4a-6d17-4a74-87c3-72c3cf5ce821"},"vehicle_type_id":"4","last_reported":1746361105,"current_range_meters":0,"station_id":"st_cvj6ca6bvosntc0bfgr0","pricing_plan_id":"cebpf4jnsgd1na2vs0mg"},{"bike_id":"68a50b20-b6e2-4f88-bd93-3ae912793c5b","system_id":"levelo_inurba_marseille","lat":43.30926,"lon":5.40144,"is_reserved":false,"is_disabled":true,"rental_uris":{"android":"levelo://app?vid=68a50b20-b6e2-4f88-bd93-3ae912793c5b","ios":"levelo://app?vid=68a50b20-b6e2-4f88-bd93-3ae912793c5b"},"vehicle_type_id":"4","last_reported":1746361105,"current_range_meters":400,"station_id":"ce4bgvp2rcd13ifvqct0","pricing_plan_id":"cebpf4jnsgd1na2vs0mg"},{"bike_id":"27d60454-d085-421f-bbd0-65be0dc6f4ab","system_id":"levelo_inurba_marseille","lat":43.23206,"lon":5.39968,"is_reserved":false,"is_disabled":true,"rental_uris":{"android":"levelo://app?vid=27d60454-d085-421f-bbd0-65be0dc6f4ab","ios":"levelo://app?vid=27d60454-d085-421f-bbd0-65be0dc6f4ab"},"vehicle_type_id":"4","last_reported":1746361105,"current_range_meters":400,"station_id":"ce4bhn12rcd13ifvqgqg","pricing_plan_id":"cebpf4jnsgd1na2vs0mg"},{"bike_id":"fba2af77-dceb-4a6e-8a96-c157523b16bf","system_id":"levelo_inurba_marseille","lat":43.29004,"lon":5.35619,"is_reserved":false,"is_disabled":true,"rental_uris":{"android":"levelo://app?vid=fba2af77-dceb-4a6e-8a96-c157523b16bf","ios":"levelo://app?vid=fba2af77-dceb-4a6e-8a96-c157523b16bf"},"vehicle_type_id":"4","last_reported":1746361105,"current_range_meters":800,"station_id":"ce4bhb92rcd13ifvqen0","pricing_plan_id":"cebpf4jnsgd1na2vs0mg"},{"bike_id":"930e6ba9-cd29-419e-8932-1bbea899c87b","system_id":"levelo_inurba_marseille","lat":43.2656,"lon":5.37285,"is_reserved":false,"is_disabled":true,"rental_uris":{"android":"levelo://app?vid=930e6ba9-cd29-419e-8932-1bbea899c87b","ios":"levelo://app?vid=930e6ba9-cd29-419e-8932-1bbea899c87b"},"vehicle_type_id":"4","last_reported":1746361105,"current_range_meters":800,"station_id":"ce4bhg12rcd13ifvqf70","pricing_plan_id":"cebpf4jnsgd1na2vs0mg"},{"bike_id":"a6ee86c9-a53b-4fc6-b8d3-1200a59506ff","system_id":"levelo_inurba_marseille","lat":43.25501,"lon":5.37649,"is_reserved":false,"is_disabled":true,"rental_uris":{"android":"levelo://app?vid=a6ee86c9-a53b-4fc6-b8d3-1200a59506ff","ios":"levelo://app?vid=a6ee86c9-a53b-4fc6-b8d3-1200a59506ff"},"vehicle_type_id":"4","last_reported":1746361105,"current_range_meters":1200,"station_id":"ce4bhh12rcd13ifvqff0","pricing_plan_id":"cebpf4jnsgd1na2vs0mg"},{"bike_id":"441771cd-0001-4237-b26e-f2e1502d0768","system_id":"levelo_inurba_marseille","lat":43.23634,"lon":5.36598,"is_reserved":false,"is_disabled":false,"rental_uris":{"android":"levelo://app?vid=441771cd-0001-4237-b26e-f2e1502d0768","ios":"levelo://app?vid=441771cd-0001-4237-b26e-f2e1502d0768"},"vehicle_type_id":"4","last_reported":1746361105,"current_range_meters":1600,"station_id":"","pricing_plan_id":"cebpf4jnsgd1na2vs0mg"},{"bike_id":"20a0161f-8c97-41c6-b725-2c48f8bc5d22","system_id":"levelo_inurba_marseille","lat":43.33003,"lon":5.39445,"is_reserved":false,"is_disabled":true,"rental_uris":{"android":"levelo://app?vid=20a0161f-8c97-41c6-b725-2c48f8bc5d22","ios":"levelo://app?vid=20a0161f-8c97-41c6-b725-2c48f8bc5d22"},"vehicle_type_id":"4","last_reported":1746361105,"current_range_meters":2000,"station_id":"","pricing_plan_id":"cebpf4jnsgd1na2vs0mg"},{"bike_id":"dafbc5e3-e11c-44e0-bfa1-dfe1a9bed3c7","system_id":"levelo_inurba_marseille","lat":43.29708,"lon":5.366,"is_reserved":false,"is_disabled":true,"rental_uris":{"android":"levelo://app?vid=dafbc5e3-e11c-44e0-bfa1-dfe1a9bed3c7","ios":"levelo://app?vid=dafbc5e3-e11c-44e0-bfa1-dfe1a9bed3c7"},"vehicle_type_id":"4","last_reported":1746361105,"current_range_meters":2000,"station_id":"ce4bgn12rcd13ifvqbt0","pricing_plan_id":"cebpf4jnsgd1na2vs0mg"},{"bike_id":"5fad3039-9cb1-45b2-8a41-e1bb6fbdee6e","system_id":"levelo_inurba_marseille","lat":43.30959,"lon":5.3903,"is_reserved":false,"is_disabled":false,"rental_uris":{"android":"levelo://app?vid=5fad3039-9cb1-45b2-8a41-e1bb6fbdee6e","ios":"levelo://app?vid=5fad3039-9cb1-45b2-8a41-e1bb6fbdee6e"},"vehicle_type_id":"4","last_reported":1746361105,"current_range_meters":2800,"station_id":"ce4bgup2rcd13ifvqco0","pricing_plan_id":"cebpf4jnsgd1na2vs0mg"},{"bike_id":"d11b7274-ad1d-4343-a0b8-143798db8be1","system_id":"levelo_inurba_marseille","lat":43.22926,"lon":5.35373,"is_reserved":false,"is_disabled":false,"rental_uris":{"android":"levelo://app?vid=d11b7274-ad1d-4343-a0b8-143798db8be1","ios":"levelo://app?vid=d11b7274-ad1d-4343-a0b8-143798db8be1"},"vehicle_type_id":"4","last_reported":1746361105,"current_range_meters":2800,"station_id":"cpo3532slgdg3j2ikp40","pricing_plan_id":"cebpf4jnsgd1na2vs0mg"},{"bike_id":"2969ac2b-258e-4fd4-9343-e7c941445547","system_id":"levelo_inurba_marseille","lat":43.305348,"lon":5.365638,"is_reserved":false,"is_disabled":false,"rental_uris":{"android":"levelo://app?vid=2969ac2b-258e-4fd4-9343-e7c941445547","ios":"levelo://app?vid=2969ac2b-258e-4fd4-9343-e7c941445547"},"vehicle_type_id":"4","last_reported":1746361105,"current_range_meters":3600,"station_id":"","pricing_plan_id":"cebpf4jnsgd1na2vs0mg"},{"bike_id":"8ebfebe7-c582-46eb-a8d1-2e3e663ba08b","system_id":"levelo_inurba_marseille","lat":43.26804,"lon":5.40269,"is_reserved":false,"is_disabled":false,"rental_uris":{"android":"levelo://app?vid=8ebfebe7-c582-46eb-a8d1-2e3e663ba08b","ios":"levelo://app?vid=8ebfebe7-c582-46eb-a8d1-2e3e663ba08b"},"vehicle_type_id":"4","last_reported":1746361105,"current_range_meters":3600,"station_id":"ce501612rcd8frsf0b60","pricing_plan_id":"cebpf4jnsgd1na2vs0mg"},{"bike_id":"75c35565-89f3-4f92-b3b3-af9134ea6aba","system_id":"levelo_inurba_marseille","lat":43.3074,"lon":5.42443,"is_reserved":false,"is_disabled":false,"rental_uris":{"android":"levelo://app?vid=75c35565-89f3-4f92-b3b3-af9134ea6aba","ios":"levelo://app?vid=75c35565-89f3-4f92-b3b3-af9134ea6aba"},"vehicle_type_id":"4","last_reported":1746361105,"current_range_meters":3600,"station_id":"st_cvj6ca6bvosntc0bfgr0","pricing_plan_id":"cebpf4jnsgd1na2vs0mg"},{"bike_id":"4a697486-a0ae-46e8-b415-819b92efa3c8","system_id":"levelo_inurba_marseille","lat":43.28002,"lon":5.40013,"is_reserved":false,"is_disabled":false,"rental_uris":{"android":"levelo://app?vid=4a697486-a0ae-46e8-b415-819b92efa3c8","ios":"levelo://app?vid=4a697486-a0ae-46e8-b415-819b92efa3c8"},"vehicle_type_id":"4","last_reported":1746361105,"current_range_meters":4400,"station_id":"ce4bho92rcd13ifvqh4g","pricing_plan_id":"cebpf4jnsgd1na2vs0mg"},{"bike_id":"570b486c-50df-4f1f-97df-caa86c0d419e","system_id":"levelo_inurba_marseille","lat":43.33682,"lon":5.35583,"is_reserved":false,"is_disabled":false,"rental_uris":{"android":"levelo://app?vid=570b486c-50df-4f1f-97df-caa86c0d419e","ios":"levelo://app?vid=570b486c-50df-4f1f-97df-caa86c0d419e"},"vehicle_type_id":"4","last_reported":1746361105,"current_range_meters":4800,"station_id":"","pricing_plan_id":"cebpf4jnsgd1na2vs0mg"},{"bike_id":"909825d5-7ad2-409e-b0de-cec7d5b4fa06","system_id":"levelo_inurba_marseille","lat":43.24221,"lon":5.36736,"is_reserved":false,"is_disabled":false,"rental_uris":{"android":"levelo://app?vid=909825d5-7ad2-409e-b0de-cec7d5b4fa06","ios":"levelo://app?vid=909825d5-7ad2-409e-b0de-cec7d5b4fa06"},"vehicle_type_id":"4","last_reported":1746361105,"current_range_meters":4800,"station_id":"","pricing_plan_id":"cebpf4jnsgd1na2vs0mg"},{"bike_id":"ffc9295a-c8de-4abf-a419-3f95ebf3b246","system_id":"levelo_inurba_marseille","lat":43.31756,"lon":5.39016,"is_reserved":false,"is_disabled":false,"rental_uris":{"android":"levelo://app?vid=ffc9295a-c8de-4abf-a419-3f95ebf3b246","ios":"levelo://app?vid=ffc9295a-c8de-4abf-a419-3f95ebf3b246"},"vehicle_type_id":"4","last_reported":1746361105,"current_range_meters":4800,"station_id":"ce4bhqp2rcd13ifvqhng","pricing_plan_id":"cebpf4jnsgd1na2vs0mg"},{"bike_id":"709bf101-477d-4197-8506-db642b4629fe","system_id":"levelo_inurba_marseille","lat":43.29228,"lon":5.36051,"is_reserved":false,"is_disabled":false,"rental_uris":{"android":"levelo://app?vid=709bf101-477d-4197-8506-db642b4629fe","ios":"levelo://app?vid=709bf101-477d-4197-8506-db642b4629fe"},"vehicle_type_id":"4","last_reported":1746361105,"current_range_meters":5600,"station_id":"ce4bhbh2rcd13ifvqeqg","pricing_plan_id":"cebpf4jnsgd1na2vs0mg"},{"bike_id":"39d83911-e17e-4776-b8f2-6450602c8696","system_id":"levelo_inurba_marseille","lat":43.298998,"lon":5.436574,"is_reserved":false,"is_disabled":false,"rental_uris":{"android":"levelo://app?vid=39d83911-e17e-4776-b8f2-6450602c8696","ios":"levelo://app?vid=39d83911-e17e-4776-b8f2-6450602c8696"},"vehicle_type_id":"4","last_reported":1746361105,"current_range_meters":5600,"station_id":"ce4bhpp2rcd13ifvqhfg","pricing_plan_id":"cebpf4jnsgd1na2vs0mg"},{"bike_id":"6383d28c-861f-4103-9bab-ea806211a69c","system_id":"levelo_inurba_marseille","lat":43.27569,"lon":5.38425,"is_reserved":false,"is_disabled":false,"rental_uris":{"android":"levelo://app?vid=6383d28c-861f-4103-9bab-ea806211a69c","ios":"levelo://app?vid=6383d28c-861f-4103-9bab-ea806211a69c"},"vehicle_type_id":"4","last_reported":1746361105,"current_range_meters":6000,"station_id":"ce4bhh92rcd13ifvqfi0","pricing_plan_id":"cebpf4jnsgd1na2vs0mg"},{"bike_id":"b7351ae1-b7b6-4733-8649-24bbbdfba4ca","system_id":"levelo_inurba_marseille","lat":43.21772,"lon":5.34587,"is_reserved":false,"is_disabled":false,"rental_uris":{"android":"levelo://app?vid=b7351ae1-b7b6-4733-8649-24bbbdfba4ca","ios":"levelo://app?vid=b7351ae1-b7b6-4733-8649-24bbbdfba4ca"},"vehicle_type_id":"4","last_reported":1746361105,"current_range_meters":6000,"station_id":"st_cvj6r9ubvosntc0bgbag","pricing_plan_id":"cebpf4jnsgd1na2vs0mg"},{"bike_id":"4583f8e8-5464-4849-9e60-7cb198f92974","system_id":"levelo_inurba_marseille","lat":43.31697,"lon":5.3771,"is_reserved":false,"is_disabled":false,"rental_uris":{"android":"levelo://app?vid=4583f8e8-5464-4849-9e60-7cb198f92974","ios":"levelo://app?vid=4583f8e8-5464-4849-9e60-7cb198f92974"},"vehicle_type_id":"4","last_reported":1746361105,"current_range_meters":6400,"station_id":"ce4bgth2rcd13ifvqch0","pricing_plan_id":"cebpf4jnsgd1na2vs0mg"},{"bike_id":"6012e73f-a97d-4080-8451-31be47c04cb3","system_id":"levelo_inurba_marseille","lat":43.241637,"lon":5.397179,"is_reserved":false,"is_disabled":false,"rental_uris":{"android":"levelo://app?vid=6012e73f-a97d-4080-8451-31be47c04cb3","ios":"levelo://app?vid=6012e73f-a97d-4080-8451-31be47c04cb3"},"vehicle_type_id":"4","last_reported":1746361105,"current_range_meters":6400,"station_id":"ce4bhn12rcd13ifvqgpg","pricing_plan_id":"cebpf4jnsgd1na2vs0mg"},{"bike_id":"e27ce41e-d31e-4411-a762-387f29d91877","system_id":"levelo_inurba_marseille","lat":43.29559,"lon":5.42279,"is_reserved":false,"is_disabled":false,"rental_uris":{"android":"levelo://app?vid=e27ce41e-d31e-4411-a762-387f29d91877","ios":"levelo://app?vid=e27ce41e-d31e-4411-a762-387f29d91877"},"vehicle_type_id":"4","last_reported":1746361105,"current_range_meters":6400,"station_id":"ce4bhph2rcd13ifvqhdg","pricing_plan_id":"cebpf4jnsgd1na2vs0mg"},{"bike_id":"0174667c-1e2b-4c50-8aa5-e22d7955ad3e","system_id":"levelo_inurba_marseille","lat":43.23196,"lon":5.35548,"is_reserved":false,"is_disabled":false,"rental_uris":{"android":"levelo://app?vid=0174667c-1e2b-4c50-8aa5-e22d7955ad3e","ios":"levelo://app?vid=0174667c-1e2b-4c50-8aa5-e22d7955ad3e"},"vehicle_type_id":"4","last_reported":1746361105,"current_range_meters":6400,"station_id":"ce4bhu92rcd13ifvqi70","pricing_plan_id":"cebpf4jnsgd1na2vs0mg"},{"bike_id":"dfb3396e-96f5-457c-af11-f6f27dad33e9","system_id":"levelo_inurba_marseille","lat":43.27195,"lon":5.36472,"is_reserved":false,"is_disabled":false,"rental_uris":{"android":"levelo://app?vid=dfb3396e-96f5-457c-af11-f6f27dad33e9","ios":"levelo://app?vid=dfb3396e-96f5-457c-af11-f6f27dad33e9"},"vehicle_type_id":"4","last_reported":1746361105,"current_range_meters":6800,"station_id":"","pricing_plan_id":"cebpf4jnsgd1na2vs0mg"},{"bike_id":"8df6e310-0880-40a9-a691-cd475dfa3928","system_id":"levelo_inurba_marseille","lat":43.285876,"lon":5.442497,"is_reserved":false,"is_disabled":false,"rental_uris":{"android":"levelo://app?vid=8df6e310-0880-40a9-a691-cd475dfa3928","ios":"levelo://app?vid=8df6e310-0880-40a9-a691-cd475dfa3928"},"vehicle_type_id":"4","last_reported":1746361105,"current_range_meters":6800,"station_id":"","pricing_plan_id":"cebpf4jnsgd1na2vs0mg"},{"bike_id":"fefd08ec-5881-4aed-9781-2a8173dd5fb9","system_id":"levelo_inurba_marseille","lat":43.2944,"lon":5.38245,"is_reserved":false,"is_disabled":false,"rental_uris":{"android":"levelo://app?vid=fefd08ec-5881-4aed-9781-2a8173dd5fb9","ios":"levelo://app?vid=fefd08ec-5881-4aed-9781-2a8173dd5fb9"},"vehicle_type_id":"4","last_reported":1746361105,"current_range_meters":6800,"station_id":"","pricing_plan_id":"cebpf4jnsgd1na2vs0mg"},{"bike_id":"ada8ab0f-1b01-4903-a3dc-5bc2eb40022b","system_id":"levelo_inurba_marseille","lat":43.27362,"lon":5.36226,"is_reserved":false,"is_disabled":false,"rental_uris":{"android":"levelo://app?vid=ada8ab0f-1b01-4903-a3dc-5bc2eb40022b","ios":"levelo://app?vid=ada8ab0f-1b01-4903-a3dc-5bc2eb40022b"},"vehicle_type_id":"4","last_reported":1746361105,"current_range_meters":6800,"station_id":"ce4bhbh2rcd13ifvqeo0","pricing_plan_id":"cebpf4jnsgd1na2vs0mg"},{"bike_id":"125ca05d-5a4c-4327-ae64-e200198cedf3","system_id":"levelo_inurba_marseille","lat":43.29551,"lon":5.42278,"is_reserved":false,"is_disabled":false,"rental_uris":{"android":"levelo://app?vid=125ca05d-5a4c-4327-ae64-e200198cedf3","ios":"levelo://app?vid=125ca05d-5a4c-4327-ae64-e200198cedf3"},"vehicle_type_id":"4","last_reported":1746361105,"current_range_meters":6800,"station_id":"ce4bhph2rcd13ifvqhdg","pricing_plan_id":"cebpf4jnsgd1na2vs0mg"},{"bike_id":"8df37787-a611-4ce6-9e65-032cb168f59b","system_id":"levelo_inurba_marseille","lat":43.21172,"lon":5.35054,"is_reserved":false,"is_disabled":false,"rental_uris":{"android":"levelo://app?vid=8df37787-a611-4ce6-9e65-032cb168f59b","ios":"levelo://app?vid=8df37787-a611-4ce6-9e65-032cb168f59b"},"vehicle_type_id":"4","last_reported":1746361105,"current_range_meters":6800,"station_id":"st_cvj6sg6p6f1abm77japg","pricing_plan_id":"cebpf4jnsgd1na2vs0mg"},{"bike_id":"ee6fc684-f760-429d-b603-077f5f37f4bb","system_id":"levelo_inurba_marseille","lat":43.24387,"lon":5.37046,"is_reserved":false,"is_disabled":false,"rental_uris":{"android":"levelo://app?vid=ee6fc684-f760-429d-b603-077f5f37f4bb","ios":"levelo://app?vid=ee6fc684-f760-429d-b603-077f5f37f4bb"},"vehicle_type_id":"4","last_reported":1746361105,"current_range_meters":7200,"station_id":"ce4bhhh2rcd13ifvqfk0","pricing_plan_id":"cebpf4jnsgd1na2vs0mg"},{"bike_id":"6ae9068b-8534-47e2-832a-cb0e5255371d","system_id":"levelo_inurba_marseille","lat":43.337444,"lon":5.374475,"is_reserved":false,"is_disabled":false,"rental_uris":{"android":"levelo://app?vid=6ae9068b-8534-47e2-832a-cb0e5255371d","ios":"levelo://app?vid=6ae9068b-8534-47e2-832a-cb0e5255371d"},"vehicle_type_id":"4","last_reported":1746361105,"current_range_meters":8000,"station_id":"ce4bgvp2rcd13ifvqct0","pricing_plan_id":"cebpf4jnsgd1na2vs0mg"},{"bike_id":"781cc95c-e552-4a1c-902d-acd5c2a38e87","system_id":"levelo_inurba_marseille","lat":43.27068,"lon":5.42273,"is_reserved":false,"is_disabled":false,"rental_uris":{"android":"levelo://app?vid=781cc95c-e552-4a1c-902d-acd5c2a38e87","ios":"levelo://app?vid=781cc95c-e552-4a1c-902d-acd5c2a38e87"},"vehicle_type_id":"4","last_reported":1746361105,"current_range_meters":8000,"station_id":"ce4bhk92rcd13ifvqgb0","pricing_plan_id":"cebpf4jnsgd1na2vs0mg"},{"bike_id":"f1ffd2b9-91e9-4bf5-a319-6e95940b0de6","system_id":"levelo_inurba_marseille","lat":43.29546,"lon":5.42281,"is_reserved":false,"is_disabled":false,"rental_uris":{"android":"levelo://app?vid=f1ffd2b9-91e9-4bf5-a319-6e95940b0de6","ios":"levelo://app?vid=f1ffd2b9-91e9-4bf5-a319-6e95940b0de6"},"vehicle_type_id":"4","last_reported":1746361105,"current_range_meters":8000,"station_id":"ce4bhph2rcd13ifvqhdg","pricing_plan_id":"cebpf4jnsgd1na2vs0mg"},{"bike_id":"f0259f55-382d-4317-a5a3-c63365a0d76b","system_id":"levelo_inurba_marseille","lat":43.25536,"lon":5.41797,"is_reserved":false,"is_disabled":false,"rental_uris":{"android":"levelo://app?vid=f0259f55-382d-4317-a5a3-c63365a0d76b","ios":"levelo://app?vid=f0259f55-382d-4317-a5a3-c63365a0d76b"},"vehicle_type_id":"4","last_reported":1746361105,"current_range_meters":8400,"station_id":"","pricing_plan_id":"cebpf4jnsgd1na2vs0mg"},{"bike_id":"d29e9452-36d0-4a4a-acc2-7ded615619b3","system_id":"levelo_inurba_marseille","lat":43.31349,"lon":5.36716,"is_reserved":false,"is_disabled":false,"rental_uris":{"android":"levelo://app?vid=d29e9452-36d0-4a4a-acc2-7ded615619b3","ios":"levelo://app?vid=d29e9452-36d0-4a4a-acc2-7ded615619b3"},"vehicle_type_id":"4","last_reported":1746361105,"current_range_meters":8800,"station_id":"ce4bgr92rcd13ifvqc6g","pricing_plan_id":"cebpf4jnsgd1na2vs0mg"},{"bike_id":"4d9c785a-6a14-4f60-8bcb-eb74d56c9262","system_id":"levelo_inurba_marseille","lat":43.2707,"lon":5.42276,"is_reserved":false,"is_disabled":false,"rental_uris":{"android":"levelo://app?vid=4d9c785a-6a14-4f60-8bcb-eb74d56c9262","ios":"levelo://app?vid=4d9c785a-6a14-4f60-8bcb-eb74d56c9262"},"vehicle_type_id":"4","last_reported":1746361105,"current_range_meters":8800,"station_id":"ce4bhk92rcd13ifvqgb0","pricing_plan_id":"cebpf4jnsgd1na2vs0mg"},{"bike_id":"2f2e2422-0ca9-4635-8561-f770e540dc91","system_id":"levelo_inurba_marseille","lat":43.297777,"lon":5.369973,"is_reserved":false,"is_disabled":false,"rental_uris":{"android":"levelo://app?vid=2f2e2422-0ca9-4635-8561-f770e540dc91","ios":"levelo://app?vid=2f2e2422-0ca9-4635-8561-f770e540dc91"},"vehicle_type_id":"4","last_reported":1746361105,"current_range_meters":9200,"station_id":"","pricing_plan_id":"cebpf4jnsgd1na2vs0mg"},{"bike_id":"505cde25-b458-45d2-b3e8-2f79dd64aea7","system_id":"levelo_inurba_marseille","lat":43.30143,"lon":5.37418,"is_reserved":false,"is_disabled":false,"rental_uris":{"android":"levelo://app?vid=505cde25-b458-45d2-b3e8-2f79dd64aea7","ios":"levelo://app?vid=505cde25-b458-45d2-b3e8-2f79dd64aea7"},"vehicle_type_id":"4","last_reported":1746361105,"current_range_meters":9200,"station_id":"ce4bgs92rcd13ifvqcc0","pricing_plan_id":"cebpf4jnsgd1na2vs0mg"},{"bike_id":"5050f915-9f20-4b54-a2e8-ef6281638656","system_id":"levelo_inurba_marseille","lat":43.26556,"lon":5.37283,"is_reserved":false,"is_disabled":false,"rental_uris":{"android":"levelo://app?vid=5050f915-9f20-4b54-a2e8-ef6281638656","ios":"levelo://app?vid=5050f915-9f20-4b54-a2e8-ef6281638656"},"vehicle_type_id":"4","last_reported":1746361105,"current_range_meters":9200,"station_id":"ce4bhg12rcd13ifvqf70","pricing_plan_id":"cebpf4jnsgd1na2vs0mg"},{"bike_id":"350160e1-6e52-4680-bdc2-28526c35de6f","system_id":"levelo_inurba_marseille","lat":43.31888,"lon":5.407424,"is_reserved":false,"is_disabled":false,"rental_uris":{"android":"levelo://app?vid=350160e1-6e52-4680-bdc2-28526c35de6f","ios":"levelo://app?vid=350160e1-6e52-4680-bdc2-28526c35de6f"},"vehicle_type_id":"4","last_reported":1746361105,"current_range_meters":9200,"station_id":"ce4bhq12rcd13ifvqhig","pricing_plan_id":"cebpf4jnsgd1na2vs0mg"},{"bike_id":"fd2c3c67-23a6-4380-b7ca-8f23c8f78921","system_id":"levelo_inurba_marseille","lat":43.323639,"lon":5.367383,"is_reserved":false,"is_disabled":false,"rental_uris":{"android":"levelo://app?vid=fd2c3c67-23a6-4380-b7ca-8f23c8f78921","ios":"levelo://app?vid=fd2c3c67-23a6-4380-b7ca-8f23c8f78921"},"vehicle_type_id":"4","last_reported":1746361105,"current_range_meters":9200,"station_id":"ce4bhsh2rcd13ifvqi2g","pricing_plan_id":"cebpf4jnsgd1na2vs0mg"},{"bike_id":"7c9f302f-84ec-4062-ae0c-5788a6786ad9","system_id":"levelo_inurba_marseille","lat":43.21751,"lon":5.34596,"is_reserved":false,"is_disabled":false,"rental_uris":{"android":"levelo://app?vid=7c9f302f-84ec-4062-ae0c-5788a6786ad9","ios":"levelo://app?vid=7c9f302f-84ec-4062-ae0c-5788a6786ad9"},"vehicle_type_id":"4","last_reported":1746361105,"current_range_meters":9200,"station_id":"st_cvj6r9ubvosntc0bgbag","pricing_plan_id":"cebpf4jnsgd1na2vs0mg"},{"bike_id":"c2c5beff-ec8e-48ee-825a-e3cdf2e54b49","system_id":"levelo_inurba_marseille","lat":43.29232,"lon":5.39976,"is_reserved":false,"is_disabled":false,"rental_uris":{"android":"levelo://app?vid=c2c5beff-ec8e-48ee-825a-e3cdf2e54b49","ios":"levelo://app?vid=c2c5beff-ec8e-48ee-825a-e3cdf2e54b49"},"vehicle_type_id":"4","last_reported":1746361105,"current_range_meters":9600,"station_id":"","pricing_plan_id":"cebpf4jnsgd1na2vs0mg"},{"bike_id":"eef29f8d-c399-4244-8cda-2efd181ca390","system_id":"levelo_inurba_marseille","lat":43.29711,"lon":5.36613,"is_reserved":false,"is_disabled":false,"rental_uris":{"android":"levelo://app?vid=eef29f8d-c399-4244-8cda-2efd181ca390","ios":"levelo://app?vid=eef29f8d-c399-4244-8cda-2efd181ca390"},"vehicle_type_id":"4","last_reported":1746361105,"current_range_meters":9600,"station_id":"ce4bgn12rcd13ifvqbt0","pricing_plan_id":"cebpf4jnsgd1na2vs0mg"},{"bike_id":"2ae02182-b6ba-42c9-97ee-acef1b5d76cb","system_id":"levelo_inurba_marseille","lat":43.28927,"lon":5.38388,"is_reserved":false,"is_disabled":false,"rental_uris":{"android":"levelo://app?vid=2ae02182-b6ba-42c9-97ee-acef1b5d76cb","ios":"levelo://app?vid=2ae02182-b6ba-42c9-97ee-acef1b5d76cb"},"vehicle_type_id":"4","last_reported":1746361105,"current_range_meters":9600,"station_id":"ce4bh612rcd13ifvqe6g","pricing_plan_id":"cebpf4jnsgd1na2vs0mg"},{"bike_id":"28e611f2-6a6b-4b91-b50d-de03e92a87cc","system_id":"levelo_inurba_marseille","lat":43.28413,"lon":5.34974,"is_reserved":false,"is_disabled":false,"rental_uris":{"android":"levelo://app?vid=28e611f2-6a6b-4b91-b50d-de03e92a87cc","ios":"levelo://app?vid=28e611f2-6a6b-4b91-b50d-de03e92a87cc"},"vehicle_type_id":"4","last_reported":1746361105,"current_range_meters":9600,"station_id":"ce4bhbh2rcd13ifvqepg","pricing_plan_id":"cebpf4jnsgd1na2vs0mg"},{"bike_id":"e4856e11-0139-477e-a022-4b979369719b","system_id":"levelo_inurba_marseille","lat":43.23958,"lon":5.36643,"is_reserved":false,"is_disabled":false,"rental_uris":{"android":"levelo://app?vid=e4856e11-0139-477e-a022-4b979369719b","ios":"levelo://app?vid=e4856e11-0139-477e-a022-4b979369719b"},"vehicle_type_id":"4","last_reported":1746361105,"current_range_meters":9600,"station_id":"ce4bhi12rcd13ifvqfp0","pricing_plan_id":"cebpf4jnsgd1na2vs0mg"},{"bike_id":"6338e318-2f80-4349-ae11-615c887b4fb9","system_id":"levelo_inurba_marseille","lat":43.25931,"lon":5.40905,"is_reserved":false,"is_disabled":false,"rental_uris":{"android":"levelo://app?vid=6338e318-2f80-4349-ae11-615c887b4fb9","ios":"levelo://app?vid=6338e318-2f80-4349-ae11-615c887b4fb9"},"vehicle_type_id":"4","last_reported":1746361105,"current_range_meters":9600,"station_id":"ce4bhm92rcd13ifvqglg","pricing_plan_id":"cebpf4jnsgd1na2vs0mg"},{"bike_id":"ca7a629c-6dce-47e8-8b04-8b57930ea53a","system_id":"levelo_inurba_marseille","lat":43.24161,"lon":5.39752,"is_reserved":false,"is_disabled":false,"rental_uris":{"android":"levelo://app?vid=ca7a629c-6dce-47e8-8b04-8b57930ea53a","ios":"levelo://app?vid=ca7a629c-6dce-47e8-8b04-8b57930ea53a"},"vehicle_type_id":"4","last_reported":1746361105,"current_range_meters":9600,"station_id":"ce4bhn12rcd13ifvqgpg","pricing_plan_id":"cebpf4jnsgd1na2vs0mg"},{"bike_id":"d55c8237-2304-4efd-993e-dc727f0f1b6a","system_id":"levelo_inurba_marseille","lat":43.225007,"lon":5.347838,"is_reserved":false,"is_disabled":false,"rental_uris":{"android":"levelo://app?vid=d55c8237-2304-4efd-993e-dc727f0f1b6a","ios":"levelo://app?vid=d55c8237-2304-4efd-993e-dc727f0f1b6a"},"vehicle_type_id":"4","last_reported":1746361105,"current_range_meters":9600,"station_id":"st_cvj5dfep6f1abm77gieg","pricing_plan_id":"cebpf4jnsgd1na2vs0mg"},{"bike_id":"aedf206f-89f3-4f30-9da6-56fb7ff8915b","system_id":"levelo_inurba_marseille","lat":43.281096,"lon":5.403958,"is_reserved":false,"is_disabled":false,"rental_uris":{"android":"levelo://app?vid=aedf206f-89f3-4f30-9da6-56fb7ff8915b","ios":"levelo://app?vid=aedf206f-89f3-4f30-9da6-56fb7ff8915b"},"vehicle_type_id":"4","last_reported":1746361105,"current_range_meters":10000,"station_id":"","pricing_plan_id":"cebpf4jnsgd1na2vs0mg"},{"bike_id":"f07cfc50-1350-4568-9581-0845ede0b590","system_id":"levelo_inurba_marseille","lat":43.2707,"lon":5.4228,"is_reserved":false,"is_disabled":false,"rental_uris":{"android":"levelo://app?vid=f07cfc50-1350-4568-9581-0845ede0b590","ios":"levelo://app?vid=f07cfc50-1350-4568-9581-0845ede0b590"},"vehicle_type_id":"4","last_reported":1746361105,"current_range_meters":10800,"station_id":"ce4bhk92rcd13ifvqgb0","pricing_plan_id":"cebpf4jnsgd1na2vs0mg"},{"bike_id":"b10901bc-afb6-4657-8344-f1f4848ffd7a","system_id":"levelo_inurba_marseille","lat":43.31878,"lon":5.4074,"is_reserved":false,"is_disabled":false,"rental_uris":{"android":"levelo://app?vid=b10901bc-afb6-4657-8344-f1f4848ffd7a","ios":"levelo://app?vid=b10901bc-afb6-4657-8344-f1f4848ffd7a"},"vehicle_type_id":"4","last_reported":1746361105,"current_range_meters":10800,"station_id":"ce4bhq12rcd13ifvqhig","pricing_plan_id":"cebpf4jnsgd1na2vs0mg"},{"bike_id":"4badb9b6-3851-4c8c-a36e-7c02f91ea1d9","system_id":"levelo_inurba_marseille","lat":43.21195,"lon":5.3507,"is_reserved":false,"is_disabled":false,"rental_uris":{"android":"levelo://app?vid=4badb9b6-3851-4c8c-a36e-7c02f91ea1d9","ios":"levelo://app?vid=4badb9b6-3851-4c8c-a36e-7c02f91ea1d9"},"vehicle_type_id":"4","last_reported":1746361105,"current_range_meters":10800,"station_id":"st_cvj6sg6p6f1abm77japg","pricing_plan_id":"cebpf4jnsgd1na2vs0mg"},{"bike_id":"6e208d78-ebec-4e50-9271-ade3aec41473","system_id":"levelo_inurba_marseille","lat":43.3088,"lon":5.39657,"is_reserved":false,"is_disabled":false,"rental_uris":{"android":"levelo://app?vid=6e208d78-ebec-4e50-9271-ade3aec41473","ios":"levelo://app?vid=6e208d78-ebec-4e50-9271-ade3aec41473"},"vehicle_type_id":"4","last_reported":1746361105,"current_range_meters":11200,"station_id":"ce4bh012rcd13ifvqcv0","pricing_plan_id":"cebpf4jnsgd1na2vs0mg"},{"bike_id":"82eb3e06-9322-45a6-86ff-d0489c2071ee","system_id":"levelo_inurba_marseille","lat":43.30883,"lon":5.3965,"is_reserved":false,"is_disabled":false,"rental_uris":{"android":"levelo://app?vid=82eb3e06-9322-45a6-86ff-d0489c2071ee","ios":"levelo://app?vid=82eb3e06-9322-45a6-86ff-d0489c2071ee"},"vehicle_type_id":"4","last_reported":1746361105,"current_range_meters":11200,"station_id":"ce4bh012rcd13ifvqcv0","pricing_plan_id":"cebpf4jnsgd1na2vs0mg"},{"bike_id":"e45d9222-cac5-4cd0-a995-e5387e291fc7","system_id":"levelo_inurba_marseille","lat":43.2925,"lon":5.4091,"is_reserved":false,"is_disabled":false,"rental_uris":{"android":"levelo://app?vid=e45d9222-cac5-4cd0-a995-e5387e291fc7","ios":"levelo://app?vid=e45d9222-cac5-4cd0-a995-e5387e291fc7"},"vehicle_type_id":"4","last_reported":1746361105,"current_range_meters":11200,"station_id":"ce4bh192rcd13ifvqdc0","pricing_plan_id":"cebpf4jnsgd1na2vs0mg"},{"bike_id":"77e5fc0c-8247-4eae-976e-b65c5c479c47","system_id":"levelo_inurba_marseille","lat":43.2437,"lon":5.37069,"is_reserved":false,"is_disabled":false,"rental_uris":{"android":"levelo://app?vid=77e5fc0c-8247-4eae-976e-b65c5c479c47","ios":"levelo://app?vid=77e5fc0c-8247-4eae-976e-b65c5c479c47"},"vehicle_type_id":"4","last_reported":1746361105,"current_range_meters":11200,"station_id":"ce4bhhh2rcd13ifvqfk0","pricing_plan_id":"cebpf4jnsgd1na2vs0mg"},{"bike_id":"28466698-c79f-4060-89dc-1027503e9fc9","system_id":"levelo_inurba_marseille","lat":43.31709,"lon":5.43701,"is_reserved":false,"is_disabled":false,"rental_uris":{"android":"levelo://app?vid=28466698-c79f-4060-89dc-1027503e9fc9","ios":"levelo://app?vid=28466698-c79f-4060-89dc-1027503e9fc9"},"vehicle_type_id":"4","last_reported":1746361105,"current_range_meters":11200,"station_id":"ce4bhp92rcd13ifvqhcg","pricing_plan_id":"cebpf4jnsgd1na2vs0mg"},{"bike_id":"8f70d47c-51fe-419f-ad1e-9383a42dc1b7","system_id":"levelo_inurba_marseille","lat":43.29309,"lon":5.37461,"is_reserved":false,"is_disabled":false,"rental_uris":{"android":"levelo://app?vid=8f70d47c-51fe-419f-ad1e-9383a42dc1b7","ios":"levelo://app?vid=8f70d47c-51fe-419f-ad1e-9383a42dc1b7"},"vehicle_type_id":"4","last_reported":1746361105,"current_range_meters":12000,"station_id":"ce4bgi12rcd13ifvqb70","pricing_plan_id":"cebpf4jnsgd1na2vs0mg"},{"bike_id":"35be3322-8709-4041-afc2-ac531419750e","system_id":"levelo_inurba_marseille","lat":43.27566,"lon":5.38425,"is_reserved":false,"is_disabled":false,"rental_uris":{"android":"levelo://app?vid=35be3322-8709-4041-afc2-ac531419750e","ios":"levelo://app?vid=35be3322-8709-4041-afc2-ac531419750e"},"vehicle_type_id":"4","last_reported":1746361105,"current_range_meters":12000,"station_id":"ce4bhh92rcd13ifvqfi0","pricing_plan_id":"cebpf4jnsgd1na2vs0mg"},{"bike_id":"67581e18-04b6-4896-80f8-3350fcb149c5","system_id":"levelo_inurba_marseille","lat":43.23155,"lon":5.43722,"is_reserved":false,"is_disabled":false,"rental_uris":{"android":"levelo://app?vid=67581e18-04b6-4896-80f8-3350fcb149c5","ios":"levelo://app?vid=67581e18-04b6-4896-80f8-3350fcb149c5"},"vehicle_type_id":"4","last_reported":1746361105,"current_range_meters":12000,"station_id":"ce4bhmp2rcd13ifvqgog","pricing_plan_id":"cebpf4jnsgd1na2vs0mg"},{"bike_id":"b51e8583-0fb2-49ca-9c11-9dbce28dfa5d","system_id":"levelo_inurba_marseille","lat":43.23195,"lon":5.35533,"is_reserved":false,"is_disabled":false,"rental_uris":{"android":"levelo://app?vid=b51e8583-0fb2-49ca-9c11-9dbce28dfa5d","ios":"levelo://app?vid=b51e8583-0fb2-49ca-9c11-9dbce28dfa5d"},"vehicle_type_id":"4","last_reported":1746361105,"current_range_meters":12400,"station_id":"ce4bhu92rcd13ifvqi70","pricing_plan_id":"cebpf4jnsgd1na2vs0mg"},{"bike_id":"e2ecc61c-bf0a-439a-a2ad-12b45e527c5e","system_id":"levelo_inurba_marseille","lat":43.29849,"lon":5.36284,"is_reserved":false,"is_disabled":false,"rental_uris":{"android":"levelo://app?vid=e2ecc61c-bf0a-439a-a2ad-12b45e527c5e","ios":"levelo://app?vid=e2ecc61c-bf0a-439a-a2ad-12b45e527c5e"},"vehicle_type_id":"4","last_reported":1746361105,"current_range_meters":12800,"station_id":"ce4bgpp2rcd13ifvqc3g","pricing_plan_id":"cebpf4jnsgd1na2vs0mg"},{"bike_id":"d447b317-7fe8-4b25-a86f-02fbc65ddcfa","system_id":"levelo_inurba_marseille","lat":43.23155,"lon":5.43719,"is_reserved":false,"is_disabled":false,"rental_uris":{"android":"levelo://app?vid=d447b317-7fe8-4b25-a86f-02fbc65ddcfa","ios":"levelo://app?vid=d447b317-7fe8-4b25-a86f-02fbc65ddcfa"},"vehicle_type_id":"4","last_reported":1746361105,"current_range_meters":13600,"station_id":"ce4bhmp2rcd13ifvqgog","pricing_plan_id":"cebpf4jnsgd1na2vs0mg"},{"bike_id":"ebf14152-4738-4904-af33-5958f7398653","system_id":"levelo_inurba_marseille","lat":43.33599,"lon":5.41033,"is_reserved":false,"is_disabled":false,"rental_uris":{"android":"levelo://app?vid=ebf14152-4738-4904-af33-5958f7398653","ios":"levelo://app?vid=ebf14152-4738-4904-af33-5958f7398653"},"vehicle_type_id":"4","last_reported":1746361105,"current_range_meters":14400,"station_id":"ce4bhqh2rcd13ifvqhmg","pricing_plan_id":"cebpf4jnsgd1na2vs0mg"},{"bike_id":"bc971b3c-c979-4d8a-9dd5-09350e4d9cc5","system_id":"levelo_inurba_marseille","lat":43.30294,"lon":5.39228,"is_reserved":false,"is_disabled":false,"rental_uris":{"android":"levelo://app?vid=bc971b3c-c979-4d8a-9dd5-09350e4d9cc5","ios":"levelo://app?vid=bc971b3c-c979-4d8a-9dd5-09350e4d9cc5"},"vehicle_type_id":"4","last_reported":1746361105,"current_range_meters":14800,"station_id":"ce4bgkh2rcd13ifvqbk0","pricing_plan_id":"cebpf4jnsgd1na2vs0mg"},{"bike_id":"ce7e06eb-b040-4a1c-b1b9-b8a759460472","system_id":"levelo_inurba_marseille","lat":43.25107,"lon":5.40322,"is_reserved":false,"is_disabled":false,"rental_uris":{"android":"levelo://app?vid=ce7e06eb-b040-4a1c-b1b9-b8a759460472","ios":"levelo://app?vid=ce7e06eb-b040-4a1c-b1b9-b8a759460472"},"vehicle_type_id":"4","last_reported":1746361105,"current_range_meters":14800,"station_id":"ce4bhlh2rcd13ifvqgig","pricing_plan_id":"cebpf4jnsgd1na2vs0mg"},{"bike_id":"dfc952a4-2cb7-44a1-9e4f-683b285bd29d","system_id":"levelo_inurba_marseille","lat":43.23153,"lon":5.43718,"is_reserved":false,"is_disabled":false,"rental_uris":{"android":"levelo://app?vid=dfc952a4-2cb7-44a1-9e4f-683b285bd29d","ios":"levelo://app?vid=dfc952a4-2cb7-44a1-9e4f-683b285bd29d"},"vehicle_type_id":"4","last_reported":1746361105,"current_range_meters":14800,"station_id":"ce4bhmp2rcd13ifvqgog","pricing_plan_id":"cebpf4jnsgd1na2vs0mg"},{"bike_id":"e84eee43-7ebe-4b56-a08b-27d6e58561fd","system_id":"levelo_inurba_marseille","lat":43.241751,"lon":5.39731,"is_reserved":false,"is_disabled":false,"rental_uris":{"android":"levelo://app?vid=e84eee43-7ebe-4b56-a08b-27d6e58561fd","ios":"levelo://app?vid=e84eee43-7ebe-4b56-a08b-27d6e58561fd"},"vehicle_type_id":"4","last_reported":1746361105,"current_range_meters":14800,"station_id":"ce4bhn12rcd13ifvqgpg","pricing_plan_id":"cebpf4jnsgd1na2vs0mg"},{"bike_id":"fdef9e55-be0f-41e0-8526-8e8fa7260880","system_id":"levelo_inurba_marseille","lat":43.312838,"lon":5.374143,"is_reserved":false,"is_disabled":false,"rental_uris":{"android":"levelo://app?vid=fdef9e55-be0f-41e0-8526-8e8fa7260880","ios":"levelo://app?vid=fdef9e55-be0f-41e0-8526-8e8fa7260880"},"vehicle_type_id":"4","last_reported":1746361105,"current_range_meters":15200,"station_id":"","pricing_plan_id":"cebpf4jnsgd1na2vs0mg"},{"bike_id":"e538485e-c2b4-4439-93d6-789bda73caf7","system_id":"levelo_inurba_marseille","lat":43.31711,"lon":5.37766,"is_reserved":false,"is_disabled":false,"rental_uris":{"android":"levelo://app?vid=e538485e-c2b4-4439-93d6-789bda73caf7","ios":"levelo://app?vid=e538485e-c2b4-4439-93d6-789bda73caf7"},"vehicle_type_id":"4","last_reported":1746361105,"current_range_meters":15200,"station_id":"ce4bgth2rcd13ifvqch0","pricing_plan_id":"cebpf4jnsgd1na2vs0mg"},{"bike_id":"43f220ab-0408-46b3-abe5-60437ce3bc1e","system_id":"levelo_inurba_marseille","lat":43.231868,"lon":5.3556,"is_reserved":false,"is_disabled":false,"rental_uris":{"android":"levelo://app?vid=43f220ab-0408-46b3-abe5-60437ce3bc1e","ios":"levelo://app?vid=43f220ab-0408-46b3-abe5-60437ce3bc1e"},"vehicle_type_id":"4","last_reported":1746361105,"current_range_meters":16000,"station_id":"ce4bhu92rcd13ifvqi70","pricing_plan_id":"cebpf4jnsgd1na2vs0mg"},{"bike_id":"d94ace2f-a694-4d2b-9fa0-6d215239b455","system_id":"levelo_inurba_marseille","lat":43.2439,"lon":5.37064,"is_reserved":false,"is_disabled":false,"rental_uris":{"android":"levelo://app?vid=d94ace2f-a694-4d2b-9fa0-6d215239b455","ios":"levelo://app?vid=d94ace2f-a694-4d2b-9fa0-6d215239b455"},"vehicle_type_id":"4","last_reported":1746361105,"current_range_meters":16400,"station_id":"ce4bhhh2rcd13ifvqfk0","pricing_plan_id":"cebpf4jnsgd1na2vs0mg"},{"bike_id":"3cf456d9-6f3d-4e20-a33c-7df158071c81","system_id":"levelo_inurba_marseille","lat":43.24406,"lon":5.37056,"is_reserved":false,"is_disabled":false,"rental_uris":{"android":"levelo://app?vid=3cf456d9-6f3d-4e20-a33c-7df158071c81","ios":"levelo://app?vid=3cf456d9-6f3d-4e20-a33c-7df158071c81"},"vehicle_type_id":"4","last_reported":1746361105,"current_range_meters":16800,"station_id":"ce4bhhh2rcd13ifvqfk0","pricing_plan_id":"cebpf4jnsgd1na2vs0mg"},{"bike_id":"44a4c1aa-e659-41ae-8ef4-e3bc1e502d2a","system_id":"levelo_inurba_marseille","lat":43.32359,"lon":5.36741,"is_reserved":false,"is_disabled":false,"rental_uris":{"android":"levelo://app?vid=44a4c1aa-e659-41ae-8ef4-e3bc1e502d2a","ios":"levelo://app?vid=44a4c1aa-e659-41ae-8ef4-e3bc1e502d2a"},"vehicle_type_id":"4","last_reported":1746361105,"current_range_meters":16800,"station_id":"ce4bhsh2rcd13ifvqi2g","pricing_plan_id":"cebpf4jnsgd1na2vs0mg"},{"bike_id":"0abe7365-362a-4c2d-949a-e32faf9d4099","system_id":"levelo_inurba_marseille","lat":43.21228,"lon":5.34964,"is_reserved":false,"is_disabled":false,"rental_uris":{"android":"levelo://app?vid=0abe7365-362a-4c2d-949a-e32faf9d4099","ios":"levelo://app?vid=0abe7365-362a-4c2d-949a-e32faf9d4099"},"vehicle_type_id":"4","last_reported":1746361105,"current_range_meters":17200,"station_id":"","pricing_plan_id":"cebpf4jnsgd1na2vs0mg"},{"bike_id":"0a0ece37-539d-4aa3-b235-deb8a4daf593","system_id":"levelo_inurba_marseille","lat":43.33078,"lon":5.40844,"is_reserved":false,"is_disabled":false,"rental_uris":{"android":"levelo://app?vid=0a0ece37-539d-4aa3-b235-deb8a4daf593","ios":"levelo://app?vid=0a0ece37-539d-4aa3-b235-deb8a4daf593"},"vehicle_type_id":"4","last_reported":1746361105,"current_range_meters":17200,"station_id":"","pricing_plan_id":"cebpf4jnsgd1na2vs0mg"},{"bike_id":"dc9b1046-5c0b-4416-a2a7-d95290bde134","system_id":"levelo_inurba_marseille","lat":43.30122,"lon":5.37445,"is_reserved":false,"is_disabled":false,"rental_uris":{"android":"levelo://app?vid=dc9b1046-5c0b-4416-a2a7-d95290bde134","ios":"levelo://app?vid=dc9b1046-5c0b-4416-a2a7-d95290bde134"},"vehicle_type_id":"4","last_reported":1746361105,"current_range_meters":17200,"station_id":"ce4bgs92rcd13ifvqcc0","pricing_plan_id":"cebpf4jnsgd1na2vs0mg"},{"bike_id":"5ddba307-4dfb-40e9-9d96-cbe25df067e8","system_id":"levelo_inurba_marseille","lat":43.27376,"lon":5.36256,"is_reserved":false,"is_disabled":false,"rental_uris":{"android":"levelo://app?vid=5ddba307-4dfb-40e9-9d96-cbe25df067e8","ios":"levelo://app?vid=5ddba307-4dfb-40e9-9d96-cbe25df067e8"},"vehicle_type_id":"4","last_reported":1746361105,"current_range_meters":17200,"station_id":"ce4bhbh2rcd13ifvqeo0","pricing_plan_id":"cebpf4jnsgd1na2vs0mg"},{"bike_id":"6dd0de4b-c2dc-4b8b-afad-c6b13283bf69","system_id":"levelo_inurba_marseille","lat":43.29303,"lon":5.37459,"is_reserved":false,"is_disabled":false,"rental_uris":{"android":"levelo://app?vid=6dd0de4b-c2dc-4b8b-afad-c6b13283bf69","ios":"levelo://app?vid=6dd0de4b-c2dc-4b8b-afad-c6b13283bf69"},"vehicle_type_id":"4","last_reported":1746361105,"current_range_meters":17600,"station_id":"ce4bgi12rcd13ifvqb70","pricing_plan_id":"cebpf4jnsgd1na2vs0mg"},{"bike_id":"b5d85635-4c3c-4259-9bfb-07d3c83bab83","system_id":"levelo_inurba_marseille","lat":43.31501,"lon":5.37272,"is_reserved":false,"is_disabled":false,"rental_uris":{"android":"levelo://app?vid=b5d85635-4c3c-4259-9bfb-07d3c83bab83","ios":"levelo://app?vid=b5d85635-4c3c-4259-9bfb-07d3c83bab83"},"vehicle_type_id":"4","last_reported":1746361105,"current_range_meters":17600,"station_id":"ce4bgt12rcd13ifvqcd0","pricing_plan_id":"cebpf4jnsgd1na2vs0mg"},{"bike_id":"281d7a77-159c-48ff-9511-545fd5b930c8","system_id":"levelo_inurba_marseille","lat":43.2872,"lon":5.3794,"is_reserved":false,"is_disabled":false,"rental_uris":{"android":"levelo://app?vid=281d7a77-159c-48ff-9511-545fd5b930c8","ios":"levelo://app?vid=281d7a77-159c-48ff-9511-545fd5b930c8"},"vehicle_type_id":"4","last_reported":1746361105,"current_range_meters":18000,"station_id":"ce4bh9p2rcd13ifvqec0","pricing_plan_id":"cebpf4jnsgd1na2vs0mg"},{"bike_id":"1885e4e4-787e-4399-a182-13afb5671e8f","system_id":"levelo_inurba_marseille","lat":43.31755,"lon":5.39002,"is_reserved":false,"is_disabled":false,"rental_uris":{"android":"levelo://app?vid=1885e4e4-787e-4399-a182-13afb5671e8f","ios":"levelo://app?vid=1885e4e4-787e-4399-a182-13afb5671e8f"},"vehicle_type_id":"4","last_reported":1746361105,"current_range_meters":18000,"station_id":"ce4bhqp2rcd13ifvqhng","pricing_plan_id":"cebpf4jnsgd1na2vs0mg"},{"bike_id":"7ad04c1b-fc26-4c94-a72f-89c6e3ca5c32","system_id":"levelo_inurba_marseille","lat":43.3118,"lon":5.40781,"is_reserved":false,"is_disabled":false,"rental_uris":{"android":"levelo://app?vid=7ad04c1b-fc26-4c94-a72f-89c6e3ca5c32","ios":"levelo://app?vid=7ad04c1b-fc26-4c94-a72f-89c6e3ca5c32"},"vehicle_type_id":"4","last_reported":1746361105,"current_range_meters":18800,"station_id":"","pricing_plan_id":"cebpf4jnsgd1na2vs0mg"},{"bike_id":"b1122313-0e69-485f-9db5-ed2ae6cf7b33","system_id":"levelo_inurba_marseille","lat":43.301457,"lon":5.380921,"is_reserved":false,"is_disabled":false,"rental_uris":{"android":"levelo://app?vid=b1122313-0e69-485f-9db5-ed2ae6cf7b33","ios":"levelo://app?vid=b1122313-0e69-485f-9db5-ed2ae6cf7b33"},"vehicle_type_id":"4","last_reported":1746361105,"current_range_meters":18800,"station_id":"ce4bgjp2rcd13ifvqbh0","pricing_plan_id":"cebpf4jnsgd1na2vs0mg"},{"bike_id":"814e7c9e-803f-4723-9c2d-c60507f6f9cb","system_id":"levelo_inurba_marseille","lat":43.26793,"lon":5.39423,"is_reserved":false,"is_disabled":false,"rental_uris":{"android":"levelo://app?vid=814e7c9e-803f-4723-9c2d-c60507f6f9cb","ios":"levelo://app?vid=814e7c9e-803f-4723-9c2d-c60507f6f9cb"},"vehicle_type_id":"4","last_reported":1746361105,"current_range_meters":18800,"station_id":"ce4bhh12rcd13ifvqfg0","pricing_plan_id":"cebpf4jnsgd1na2vs0mg"},{"bike_id":"a7393548-1ca4-426f-bec8-e094325f844e","system_id":"levelo_inurba_marseille","lat":43.26305,"lon":5.37426,"is_reserved":false,"is_disabled":false,"rental_uris":{"android":"levelo://app?vid=a7393548-1ca4-426f-bec8-e094325f844e","ios":"levelo://app?vid=a7393548-1ca4-426f-bec8-e094325f844e"},"vehicle_type_id":"4","last_reported":1746361105,"current_range_meters":19200,"station_id":"","pricing_plan_id":"cebpf4jnsgd1na2vs0mg"},{"bike_id":"f0c3400d-2748-4732-896d-088fb00972d7","system_id":"levelo_inurba_marseille","lat":43.31684,"lon":5.40466,"is_reserved":false,"is_disabled":false,"rental_uris":{"android":"levelo://app?vid=f0c3400d-2748-4732-896d-088fb00972d7","ios":"levelo://app?vid=f0c3400d-2748-4732-896d-088fb00972d7"},"vehicle_type_id":"4","last_reported":1746361105,"current_range_meters":19200,"station_id":"ce4bh012rcd13ifvqd00","pricing_plan_id":"cebpf4jnsgd1na2vs0mg"},{"bike_id":"d62eceed-23eb-4f3d-a6fe-a61cd2ad4365","system_id":"levelo_inurba_marseille","lat":43.284081,"lon":5.356148,"is_reserved":false,"is_disabled":false,"rental_uris":{"android":"levelo://app?vid=d62eceed-23eb-4f3d-a6fe-a61cd2ad4365","ios":"levelo://app?vid=d62eceed-23eb-4f3d-a6fe-a61cd2ad4365"},"vehicle_type_id":"4","last_reported":1746361105,"current_range_meters":19600,"station_id":"","pricing_plan_id":"cebpf4jnsgd1na2vs0mg"},{"bike_id":"6588416d-7d54-4940-b15b-82c63e37984d","system_id":"levelo_inurba_marseille","lat":43.30139,"lon":5.37421,"is_reserved":false,"is_disabled":false,"rental_uris":{"android":"levelo://app?vid=6588416d-7d54-4940-b15b-82c63e37984d","ios":"levelo://app?vid=6588416d-7d54-4940-b15b-82c63e37984d"},"vehicle_type_id":"4","last_reported":1746361105,"current_range_meters":19600,"station_id":"ce4bgs92rcd13ifvqcc0","pricing_plan_id":"cebpf4jnsgd1na2vs0mg"},{"bike_id":"9038cc96-c69d-4f14-8ef0-e0c7b9b34240","system_id":"levelo_inurba_marseille","lat":43.31075,"lon":5.38346,"is_reserved":false,"is_disabled":false,"rental_uris":{"android":"levelo://app?vid=9038cc96-c69d-4f14-8ef0-e0c7b9b34240","ios":"levelo://app?vid=9038cc96-c69d-4f14-8ef0-e0c7b9b34240"},"vehicle_type_id":"4","last_reported":1746361105,"current_range_meters":19600,"station_id":"ce4bgv92rcd13ifvqcr0","pricing_plan_id":"cebpf4jnsgd1na2vs0mg"},{"bike_id":"32ec219e-68b2-43b8-9460-7d303a36ead6","system_id":"levelo_inurba_marseille","lat":43.28704,"lon":5.39963,"is_reserved":false,"is_disabled":false,"rental_uris":{"android":"levelo://app?vid=32ec219e-68b2-43b8-9460-7d303a36ead6","ios":"levelo://app?vid=32ec219e-68b2-43b8-9460-7d303a36ead6"},"vehicle_type_id":"4","last_reported":1746361105,"current_range_meters":19600,"station_id":"ce4bho92rcd13ifvqh3g","pricing_plan_id":"cebpf4jnsgd1na2vs0mg"},{"bike_id":"88f64703-e845-4dd4-92d0-bc3e9f57b6e4","system_id":"levelo_inurba_marseille","lat":43.30895,"lon":5.37221,"is_reserved":false,"is_disabled":false,"rental_uris":{"android":"levelo://app?vid=88f64703-e845-4dd4-92d0-bc3e9f57b6e4","ios":"levelo://app?vid=88f64703-e845-4dd4-92d0-bc3e9f57b6e4"},"vehicle_type_id":"4","last_reported":1746361105,"current_range_meters":20000,"station_id":"ce4bguh2rcd13ifvqckg","pricing_plan_id":"cebpf4jnsgd1na2vs0mg"},{"bike_id":"f0571692-83f6-4e2a-b5e2-3ceb4595335d","system_id":"levelo_inurba_marseille","lat":43.29547,"lon":5.42258,"is_reserved":false,"is_disabled":false,"rental_uris":{"android":"levelo://app?vid=f0571692-83f6-4e2a-b5e2-3ceb4595335d","ios":"levelo://app?vid=f0571692-83f6-4e2a-b5e2-3ceb4595335d"},"vehicle_type_id":"4","last_reported":1746361105,"current_range_meters":20000,"station_id":"ce4bhph2rcd13ifvqhdg","pricing_plan_id":"cebpf4jnsgd1na2vs0mg"},{"bike_id":"bbba4a42-41f1-4d4c-a0ec-15062e1d6496","system_id":"levelo_inurba_marseille","lat":43.30799,"lon":5.43516,"is_reserved":false,"is_disabled":false,"rental_uris":{"android":"levelo://app?vid=bbba4a42-41f1-4d4c-a0ec-15062e1d6496","ios":"levelo://app?vid=bbba4a42-41f1-4d4c-a0ec-15062e1d6496"},"vehicle_type_id":"4","last_reported":1746361105,"current_range_meters":20000,"station_id":"ce4bhph2rcd13ifvqheg","pricing_plan_id":"cebpf4jnsgd1na2vs0mg"},{"bike_id":"c8dd0741-d802-4cae-94ca-433f088b9d8d","system_id":"levelo_inurba_marseille","lat":43.28424,"lon":5.34993,"is_reserved":false,"is_disabled":false,"rental_uris":{"android":"levelo://app?vid=c8dd0741-d802-4cae-94ca-433f088b9d8d","ios":"levelo://app?vid=c8dd0741-d802-4cae-94ca-433f088b9d8d"},"vehicle_type_id":"4","last_reported":1746361105,"current_range_meters":20400,"station_id":"ce4bhbh2rcd13ifvqepg","pricing_plan_id":"cebpf4jnsgd1na2vs0mg"},{"bike_id":"df987d76-3692-47f1-a4e9-eb9c027c89a7","system_id":"levelo_inurba_marseille","lat":43.23193,"lon":5.39966,"is_reserved":false,"is_disabled":false,"rental_uris":{"android":"levelo://app?vid=df987d76-3692-47f1-a4e9-eb9c027c89a7","ios":"levelo://app?vid=df987d76-3692-47f1-a4e9-eb9c027c89a7"},"vehicle_type_id":"4","last_reported":1746361105,"current_range_meters":20400,"station_id":"ce4bhn12rcd13ifvqgqg","pricing_plan_id":"cebpf4jnsgd1na2vs0mg"},{"bike_id":"9e174534-0b7f-41f7-9bb7-f68172cda9ce","system_id":"levelo_inurba_marseille","lat":43.21192,"lon":5.3507,"is_reserved":false,"is_disabled":false,"rental_uris":{"android":"levelo://app?vid=9e174534-0b7f-41f7-9bb7-f68172cda9ce","ios":"levelo://app?vid=9e174534-0b7f-41f7-9bb7-f68172cda9ce"},"vehicle_type_id":"4","last_reported":1746361105,"current_range_meters":20400,"station_id":"st_cvj6sg6p6f1abm77japg","pricing_plan_id":"cebpf4jnsgd1na2vs0mg"},{"bike_id":"bcdc0033-282e-4006-acda-7c1e0fdfff9e","system_id":"levelo_inurba_marseille","lat":43.31728,"lon":5.42403,"is_reserved":false,"is_disabled":false,"rental_uris":{"android":"levelo://app?vid=bcdc0033-282e-4006-acda-7c1e0fdfff9e","ios":"levelo://app?vid=bcdc0033-282e-4006-acda-7c1e0fdfff9e"},"vehicle_type_id":"4","last_reported":1746361105,"current_range_meters":20800,"station_id":"ce4bhp92rcd13ifvqhbg","pricing_plan_id":"cebpf4jnsgd1na2vs0mg"},{"bike_id":"2dce38cf-a8d4-49cd-9fcf-ef494d90a125","system_id":"levelo_inurba_marseille","lat":43.27135,"lon":5.36355,"is_reserved":false,"is_disabled":false,"rental_uris":{"android":"levelo://app?vid=2dce38cf-a8d4-49cd-9fcf-ef494d90a125","ios":"levelo://app?vid=2dce38cf-a8d4-49cd-9fcf-ef494d90a125"},"vehicle_type_id":"4","last_reported":1746361105,"current_range_meters":21600,"station_id":"","pricing_plan_id":"cebpf4jnsgd1na2vs0mg"},{"bike_id":"71464336-d9f4-42e8-8a35-861b47248575","system_id":"levelo_inurba_marseille","lat":43.27918,"lon":5.39578,"is_reserved":false,"is_disabled":false,"rental_uris":{"android":"levelo://app?vid=71464336-d9f4-42e8-8a35-861b47248575","ios":"levelo://app?vid=71464336-d9f4-42e8-8a35-861b47248575"},"vehicle_type_id":"4","last_reported":1746361105,"current_range_meters":21600,"station_id":"ce4bhf92rcd13ifvqf40","pricing_plan_id":"cebpf4jnsgd1na2vs0mg"},{"bike_id":"1ce5faab-c057-44d0-b6f7-996b2962169c","system_id":"levelo_inurba_marseille","lat":43.32362,"lon":5.36748,"is_reserved":false,"is_disabled":false,"rental_uris":{"android":"levelo://app?vid=1ce5faab-c057-44d0-b6f7-996b2962169c","ios":"levelo://app?vid=1ce5faab-c057-44d0-b6f7-996b2962169c"},"vehicle_type_id":"4","last_reported":1746361105,"current_range_meters":21600,"station_id":"ce4bhsh2rcd13ifvqi2g","pricing_plan_id":"cebpf4jnsgd1na2vs0mg"},{"bike_id":"193f0f80-7912-4069-a5e3-ca7bf85ffd92","system_id":"levelo_inurba_marseille","lat":43.25,"lon":5.38926,"is_reserved":false,"is_disabled":false,"rental_uris":{"android":"levelo://app?vid=193f0f80-7912-4069-a5e3-ca7bf85ffd92","ios":"levelo://app?vid=193f0f80-7912-4069-a5e3-ca7bf85ffd92"},"vehicle_type_id":"4","last_reported":1746361105,"current_range_meters":22000,"station_id":"ce4bhgp2rcd13ifvqfd0","pricing_plan_id":"cebpf4jnsgd1na2vs0mg"},{"bike_id":"937f2118-40e1-42a0-8db6-dee0acc20f60","system_id":"levelo_inurba_marseille","lat":43.27067,"lon":5.42276,"is_reserved":false,"is_disabled":false,"rental_uris":{"android":"levelo://app?vid=937f2118-40e1-42a0-8db6-dee0acc20f60","ios":"levelo://app?vid=937f2118-40e1-42a0-8db6-dee0acc20f60"},"vehicle_type_id":"4","last_reported":1746361105,"current_range_meters":22000,"station_id":"ce4bhk92rcd13ifvqgb0","pricing_plan_id":"cebpf4jnsgd1na2vs0mg"},{"bike_id":"df017969-5ed4-4173-b38d-7260d3e4cc8e","system_id":"levelo_inurba_marseille","lat":43.262275,"lon":5.40455,"is_reserved":false,"is_disabled":false,"rental_uris":{"android":"levelo://app?vid=df017969-5ed4-4173-b38d-7260d3e4cc8e","ios":"levelo://app?vid=df017969-5ed4-4173-b38d-7260d3e4cc8e"},"vehicle_type_id":"4","last_reported":1746361105,"current_range_meters":22000,"station_id":"ce4bhmh2rcd13ifvqgmg","pricing_plan_id":"cebpf4jnsgd1na2vs0mg"},{"bike_id":"55e2365c-b270-4dfe-a830-699a54b79cdb","system_id":"levelo_inurba_marseille","lat":43.255781,"lon":5.421013,"is_reserved":false,"is_disabled":false,"rental_uris":{"android":"levelo://app?vid=55e2365c-b270-4dfe-a830-699a54b79cdb","ios":"levelo://app?vid=55e2365c-b270-4dfe-a830-699a54b79cdb"},"vehicle_type_id":"4","last_reported":1746361105,"current_range_meters":22400,"station_id":"","pricing_plan_id":"cebpf4jnsgd1na2vs0mg"},{"bike_id":"035f01f4-dafb-4c98-a0e6-083a221c784e","system_id":"levelo_inurba_marseille","lat":43.29035,"lon":5.37555,"is_reserved":false,"is_disabled":false,"rental_uris":{"android":"levelo://app?vid=035f01f4-dafb-4c98-a0e6-083a221c784e","ios":"levelo://app?vid=035f01f4-dafb-4c98-a0e6-083a221c784e"},"vehicle_type_id":"4","last_reported":1746361105,"current_range_meters":22400,"station_id":"ce4bh692rcd13ifvqe90","pricing_plan_id":"cebpf4jnsgd1na2vs0mg"},{"bike_id":"9d8e81c6-fdab-4860-adc7-cb5722468412","system_id":"levelo_inurba_marseille","lat":43.2705,"lon":5.40263,"is_reserved":false,"is_disabled":false,"rental_uris":{"android":"levelo://app?vid=9d8e81c6-fdab-4860-adc7-cb5722468412","ios":"levelo://app?vid=9d8e81c6-fdab-4860-adc7-cb5722468412"},"vehicle_type_id":"4","last_reported":1746361105,"current_range_meters":22400,"station_id":"ce4bhk92rcd13ifvqgc0","pricing_plan_id":"cebpf4jnsgd1na2vs0mg"},{"bike_id":"fee52c26-77d3-462b-aa1d-6fcb9b9ffd09","system_id":"levelo_inurba_marseille","lat":43.29304,"lon":5.37456,"is_reserved":false,"is_disabled":false,"rental_uris":{"android":"levelo://app?vid=fee52c26-77d3-462b-aa1d-6fcb9b9ffd09","ios":"levelo://app?vid=fee52c26-77d3-462b-aa1d-6fcb9b9ffd09"},"vehicle_type_id":"4","last_reported":1746361105,"current_range_meters":22800,"station_id":"ce4bgi12rcd13ifvqb70","pricing_plan_id":"cebpf4jnsgd1na2vs0mg"},{"bike_id":"cb18f575-9c1e-4e54-ba38-fab988ce4b38","system_id":"levelo_inurba_marseille","lat":43.29254,"lon":5.40914,"is_reserved":false,"is_disabled":false,"rental_uris":{"android":"levelo://app?vid=cb18f575-9c1e-4e54-ba38-fab988ce4b38","ios":"levelo://app?vid=cb18f575-9c1e-4e54-ba38-fab988ce4b38"},"vehicle_type_id":"4","last_reported":1746361105,"current_range_meters":22800,"station_id":"ce4bh192rcd13ifvqdc0","pricing_plan_id":"cebpf4jnsgd1na2vs0mg"},{"bike_id":"ba1a37e3-2913-4048-9b8e-3f2ca883b25c","system_id":"levelo_inurba_marseille","lat":43.243895,"lon":5.370549,"is_reserved":false,"is_disabled":false,"rental_uris":{"android":"levelo://app?vid=ba1a37e3-2913-4048-9b8e-3f2ca883b25c","ios":"levelo://app?vid=ba1a37e3-2913-4048-9b8e-3f2ca883b25c"},"vehicle_type_id":"4","last_reported":1746361105,"current_range_meters":22800,"station_id":"ce4bhhh2rcd13ifvqfk0","pricing_plan_id":"cebpf4jnsgd1na2vs0mg"},{"bike_id":"53365178-fafe-4641-abe2-1b6cdbb827d1","system_id":"levelo_inurba_marseille","lat":43.28148,"lon":5.42639,"is_reserved":false,"is_disabled":false,"rental_uris":{"android":"levelo://app?vid=53365178-fafe-4641-abe2-1b6cdbb827d1","ios":"levelo://app?vid=53365178-fafe-4641-abe2-1b6cdbb827d1"},"vehicle_type_id":"4","last_reported":1746361105,"current_range_meters":22800,"station_id":"ce4bhnh2rcd13ifvqgug","pricing_plan_id":"cebpf4jnsgd1na2vs0mg"},{"bike_id":"99caa5c9-73c6-4674-850e-ae7cd663deab","system_id":"levelo_inurba_marseille","lat":43.21194,"lon":5.35071,"is_reserved":false,"is_disabled":false,"rental_uris":{"android":"levelo://app?vid=99caa5c9-73c6-4674-850e-ae7cd663deab","ios":"levelo://app?vid=99caa5c9-73c6-4674-850e-ae7cd663deab"},"vehicle_type_id":"4","last_reported":1746361105,"current_range_meters":22800,"station_id":"st_cvj6sg6p6f1abm77japg","pricing_plan_id":"cebpf4jnsgd1na2vs0mg"},{"bike_id":"8c6f8df6-3620-4f9f-95a0-89ef081572f2","system_id":"levelo_inurba_marseille","lat":43.28619,"lon":5.35097,"is_reserved":false,"is_disabled":false,"rental_uris":{"android":"levelo://app?vid=8c6f8df6-3620-4f9f-95a0-89ef081572f2","ios":"levelo://app?vid=8c6f8df6-3620-4f9f-95a0-89ef081572f2"},"vehicle_type_id":"4","last_reported":1746361105,"current_range_meters":23200,"station_id":"ce4bhch2rcd13ifvqeug","pricing_plan_id":"cebpf4jnsgd1na2vs0mg"},{"bike_id":"b7caf696-3bac-40ff-af5c-d0af51369b42","system_id":"levelo_inurba_marseille","lat":43.27071,"lon":5.42277,"is_reserved":false,"is_disabled":false,"rental_uris":{"android":"levelo://app?vid=b7caf696-3bac-40ff-af5c-d0af51369b42","ios":"levelo://app?vid=b7caf696-3bac-40ff-af5c-d0af51369b42"},"vehicle_type_id":"4","last_reported":1746361105,"current_range_meters":23200,"station_id":"ce4bhk92rcd13ifvqgb0","pricing_plan_id":"cebpf4jnsgd1na2vs0mg"},{"bike_id":"d0bcf1fb-cbba-4142-876b-db3b580f0e4d","system_id":"levelo_inurba_marseille","lat":43.295562,"lon":5.422869,"is_reserved":false,"is_disabled":false,"rental_uris":{"android":"levelo://app?vid=d0bcf1fb-cbba-4142-876b-db3b580f0e4d","ios":"levelo://app?vid=d0bcf1fb-cbba-4142-876b-db3b580f0e4d"},"vehicle_type_id":"4","last_reported":1746361105,"current_range_meters":23200,"station_id":"ce4bhph2rcd13ifvqhdg","pricing_plan_id":"cebpf4jnsgd1na2vs0mg"},{"bike_id":"e4c0e2c1-3ec1-400b-b207-609f3d8889aa","system_id":"levelo_inurba_marseille","lat":43.23638,"lon":5.36602,"is_reserved":false,"is_disabled":false,"rental_uris":{"android":"levelo://app?vid=e4c0e2c1-3ec1-400b-b207-609f3d8889aa","ios":"levelo://app?vid=e4c0e2c1-3ec1-400b-b207-609f3d8889aa"},"vehicle_type_id":"4","last_reported":1746361105,"current_range_meters":24000,"station_id":"","pricing_plan_id":"cebpf4jnsgd1na2vs0mg"},{"bike_id":"321e8ec9-5896-4299-914b-01dee7a1fc43","system_id":"levelo_inurba_marseille","lat":43.24392,"lon":5.37057,"is_reserved":false,"is_disabled":false,"rental_uris":{"android":"levelo://app?vid=321e8ec9-5896-4299-914b-01dee7a1fc43","ios":"levelo://app?vid=321e8ec9-5896-4299-914b-01dee7a1fc43"},"vehicle_type_id":"4","last_reported":1746361105,"current_range_meters":24000,"station_id":"ce4bhhh2rcd13ifvqfk0","pricing_plan_id":"cebpf4jnsgd1na2vs0mg"},{"bike_id":"3be92d60-8f74-4422-920f-eacdb42e4b30","system_id":"levelo_inurba_marseille","lat":43.27205,"lon":5.39189,"is_reserved":false,"is_disabled":false,"rental_uris":{"android":"levelo://app?vid=3be92d60-8f74-4422-920f-eacdb42e4b30","ios":"levelo://app?vid=3be92d60-8f74-4422-920f-eacdb42e4b30"},"vehicle_type_id":"4","last_reported":1746361105,"current_range_meters":24400,"station_id":"ce4bhhp2rcd13ifvqfm0","pricing_plan_id":"cebpf4jnsgd1na2vs0mg"},{"bike_id":"83b1273f-df88-4c7d-848c-eab9a384cf75","system_id":"levelo_inurba_marseille","lat":43.25853,"lon":5.39893,"is_reserved":false,"is_disabled":false,"rental_uris":{"android":"levelo://app?vid=83b1273f-df88-4c7d-848c-eab9a384cf75","ios":"levelo://app?vid=83b1273f-df88-4c7d-848c-eab9a384cf75"},"vehicle_type_id":"4","last_reported":1746361105,"current_range_meters":24400,"station_id":"ce4bhl92rcd13ifvqghg","pricing_plan_id":"cebpf4jnsgd1na2vs0mg"},{"bike_id":"fb965ea3-bab8-46bb-830c-3fd8001d9b0a","system_id":"levelo_inurba_marseille","lat":43.211959,"lon":5.3507,"is_reserved":false,"is_disabled":false,"rental_uris":{"android":"levelo://app?vid=fb965ea3-bab8-46bb-830c-3fd8001d9b0a","ios":"levelo://app?vid=fb965ea3-bab8-46bb-830c-3fd8001d9b0a"},"vehicle_type_id":"4","last_reported":1746361105,"current_range_meters":24800,"station_id":"","pricing_plan_id":"cebpf4jnsgd1na2vs0mg"},{"bike_id":"4866809e-6692-4bb1-8cc5-75481e30a24b","system_id":"levelo_inurba_marseille","lat":43.31569,"lon":5.40945,"is_reserved":false,"is_disabled":false,"rental_uris":{"android":"levelo://app?vid=4866809e-6692-4bb1-8cc5-75481e30a24b","ios":"levelo://app?vid=4866809e-6692-4bb1-8cc5-75481e30a24b"},"vehicle_type_id":"4","last_reported":1746361105,"current_range_meters":24800,"station_id":"","pricing_plan_id":"cebpf4jnsgd1na2vs0mg"},{"bike_id":"fa1cdf8e-3571-4080-887f-363c5efbadf5","system_id":"levelo_inurba_marseille","lat":43.293,"lon":5.3746,"is_reserved":false,"is_disabled":false,"rental_uris":{"android":"levelo://app?vid=fa1cdf8e-3571-4080-887f-363c5efbadf5","ios":"levelo://app?vid=fa1cdf8e-3571-4080-887f-363c5efbadf5"},"vehicle_type_id":"4","last_reported":1746361105,"current_range_meters":24800,"station_id":"ce4bgi12rcd13ifvqb70","pricing_plan_id":"cebpf4jnsgd1na2vs0mg"},{"bike_id":"9e60bffc-4cb2-416a-9e92-41d948cecf16","system_id":"levelo_inurba_marseille","lat":43.30155,"lon":5.38095,"is_reserved":false,"is_disabled":false,"rental_uris":{"android":"levelo://app?vid=9e60bffc-4cb2-416a-9e92-41d948cecf16","ios":"levelo://app?vid=9e60bffc-4cb2-416a-9e92-41d948cecf16"},"vehicle_type_id":"4","last_reported":1746361105,"current_range_meters":24800,"station_id":"ce4bgjp2rcd13ifvqbh0","pricing_plan_id":"cebpf4jnsgd1na2vs0mg"},{"bike_id":"ee3fbbfc-5c2a-4a8e-9351-0d9427d0d7e6","system_id":"levelo_inurba_marseille","lat":43.31125,"lon":5.37757,"is_reserved":false,"is_disabled":false,"rental_uris":{"android":"levelo://app?vid=ee3fbbfc-5c2a-4a8e-9351-0d9427d0d7e6","ios":"levelo://app?vid=ee3fbbfc-5c2a-4a8e-9351-0d9427d0d7e6"},"vehicle_type_id":"4","last_reported":1746361105,"current_range_meters":24800,"station_id":"ce4bgt92rcd13ifvqcg0","pricing_plan_id":"cebpf4jnsgd1na2vs0mg"},{"bike_id":"4d9792e8-8473-4c21-9d91-a073274352fa","system_id":"levelo_inurba_marseille","lat":43.26558,"lon":5.37283,"is_reserved":false,"is_disabled":false,"rental_uris":{"android":"levelo://app?vid=4d9792e8-8473-4c21-9d91-a073274352fa","ios":"levelo://app?vid=4d9792e8-8473-4c21-9d91-a073274352fa"},"vehicle_type_id":"4","last_reported":1746361105,"current_range_meters":24800,"station_id":"ce4bhg12rcd13ifvqf70","pricing_plan_id":"cebpf4jnsgd1na2vs0mg"},{"bike_id":"830851b2-33e3-4432-9bc0-5b5e80cf9239","system_id":"levelo_inurba_marseille","lat":43.25502,"lon":5.37649,"is_reserved":false,"is_disabled":false,"rental_uris":{"android":"levelo://app?vid=830851b2-33e3-4432-9bc0-5b5e80cf9239","ios":"levelo://app?vid=830851b2-33e3-4432-9bc0-5b5e80cf9239"},"vehicle_type_id":"4","last_reported":1746361105,"current_range_meters":24800,"station_id":"ce4bhh12rcd13ifvqff0","pricing_plan_id":"cebpf4jnsgd1na2vs0mg"},{"bike_id":"48406110-a345-43b2-b145-b3298828c686","system_id":"levelo_inurba_marseille","lat":43.295364,"lon":5.422864,"is_reserved":false,"is_disabled":false,"rental_uris":{"android":"levelo://app?vid=48406110-a345-43b2-b145-b3298828c686","ios":"levelo://app?vid=48406110-a345-43b2-b145-b3298828c686"},"vehicle_type_id":"4","last_reported":1746361105,"current_range_meters":24800,"station_id":"ce4bhph2rcd13ifvqhdg","pricing_plan_id":"cebpf4jnsgd1na2vs0mg"},{"bike_id":"83b5b49f-322e-4e4f-8012-dc4e0fcf9005","system_id":"levelo_inurba_marseille","lat":43.24168,"lon":5.36394,"is_reserved":false,"is_disabled":false,"rental_uris":{"android":"levelo://app?vid=83b5b49f-322e-4e4f-8012-dc4e0fcf9005","ios":"levelo://app?vid=83b5b49f-322e-4e4f-8012-dc4e0fcf9005"},"vehicle_type_id":"4","last_reported":1746361105,"current_range_meters":24800,"station_id":"cpo36qri1sfpv3e86is0","pricing_plan_id":"cebpf4jnsgd1na2vs0mg"},{"bike_id":"788046ab-4020-4c6e-a0e2-de3aee25f874","system_id":"levelo_inurba_marseille","lat":43.21179,"lon":5.35044,"is_reserved":false,"is_disabled":false,"rental_uris":{"android":"levelo://app?vid=788046ab-4020-4c6e-a0e2-de3aee25f874","ios":"levelo://app?vid=788046ab-4020-4c6e-a0e2-de3aee25f874"},"vehicle_type_id":"4","last_reported":1746361105,"current_range_meters":24800,"station_id":"st_cvj6sg6p6f1abm77japg","pricing_plan_id":"cebpf4jnsgd1na2vs0mg"},{"bike_id":"a37b555a-e13e-4df2-bf39-1733553fc96e","system_id":"levelo_inurba_marseille","lat":43.29252,"lon":5.40911,"is_reserved":false,"is_disabled":false,"rental_uris":{"android":"levelo://app?vid=a37b555a-e13e-4df2-bf39-1733553fc96e","ios":"levelo://app?vid=a37b555a-e13e-4df2-bf39-1733553fc96e"},"vehicle_type_id":"4","last_reported":1746361105,"current_range_meters":25200,"station_id":"ce4bh192rcd13ifvqdc0","pricing_plan_id":"cebpf4jnsgd1na2vs0mg"},{"bike_id":"cf717f01-e194-40d3-a304-acda684047b0","system_id":"levelo_inurba_marseille","lat":43.29028,"lon":5.37561,"is_reserved":false,"is_disabled":false,"rental_uris":{"android":"levelo://app?vid=cf717f01-e194-40d3-a304-acda684047b0","ios":"levelo://app?vid=cf717f01-e194-40d3-a304-acda684047b0"},"vehicle_type_id":"4","last_reported":1746361105,"current_range_meters":25200,"station_id":"ce4bh692rcd13ifvqe90","pricing_plan_id":"cebpf4jnsgd1na2vs0mg"},{"bike_id":"8bcc6079-f9a5-4a43-b5fe-9b5ee9cfedd3","system_id":"levelo_inurba_marseille","lat":43.30368,"lon":5.42466,"is_reserved":false,"is_disabled":false,"rental_uris":{"android":"levelo://app?vid=8bcc6079-f9a5-4a43-b5fe-9b5ee9cfedd3","ios":"levelo://app?vid=8bcc6079-f9a5-4a43-b5fe-9b5ee9cfedd3"},"vehicle_type_id":"4","last_reported":1746361105,"current_range_meters":25200,"station_id":"ce4bhoh2rcd13ifvqh6g","pricing_plan_id":"cebpf4jnsgd1na2vs0mg"},{"bike_id":"7a96c0c7-fb79-4919-81f3-74950886850b","system_id":"levelo_inurba_marseille","lat":43.3014,"lon":5.3806,"is_reserved":false,"is_disabled":false,"rental_uris":{"android":"levelo://app?vid=7a96c0c7-fb79-4919-81f3-74950886850b","ios":"levelo://app?vid=7a96c0c7-fb79-4919-81f3-74950886850b"},"vehicle_type_id":"4","last_reported":1746361105,"current_range_meters":25600,"station_id":"ce4bgjp2rcd13ifvqbh0","pricing_plan_id":"cebpf4jnsgd1na2vs0mg"},{"bike_id":"9d4b0f70-91da-4578-b56e-168cf6d6e378","system_id":"levelo_inurba_marseille","lat":43.3054,"lon":5.36683,"is_reserved":false,"is_disabled":false,"rental_uris":{"android":"levelo://app?vid=9d4b0f70-91da-4578-b56e-168cf6d6e378","ios":"levelo://app?vid=9d4b0f70-91da-4578-b56e-168cf6d6e378"},"vehicle_type_id":"4","last_reported":1746361105,"current_range_meters":25600,"station_id":"ce4bgrp2rcd13ifvqc9g","pricing_plan_id":"cebpf4jnsgd1na2vs0mg"},{"bike_id":"69351e63-4023-4ef0-81fa-7349f561a1fb","system_id":"levelo_inurba_marseille","lat":43.24808,"lon":5.37455,"is_reserved":false,"is_disabled":false,"rental_uris":{"android":"levelo://app?vid=69351e63-4023-4ef0-81fa-7349f561a1fb","ios":"levelo://app?vid=69351e63-4023-4ef0-81fa-7349f561a1fb"},"vehicle_type_id":"4","last_reported":1746361105,"current_range_meters":25600,"station_id":"ce4bhgh2rcd13ifvqfb0","pricing_plan_id":"cebpf4jnsgd1na2vs0mg"},{"bike_id":"78359120-16cb-40b6-a039-0bed80a247f0","system_id":"levelo_inurba_marseille","lat":43.229325,"lon":5.353799,"is_reserved":false,"is_disabled":false,"rental_uris":{"android":"levelo://app?vid=78359120-16cb-40b6-a039-0bed80a247f0","ios":"levelo://app?vid=78359120-16cb-40b6-a039-0bed80a247f0"},"vehicle_type_id":"4","last_reported":1746361105,"current_range_meters":25600,"station_id":"cpo3532slgdg3j2ikp40","pricing_plan_id":"cebpf4jnsgd1na2vs0mg"},{"bike_id":"2c699219-5519-49ab-ae24-fc3b03a3ca2a","system_id":"levelo_inurba_marseille","lat":43.29298,"lon":5.37461,"is_reserved":false,"is_disabled":false,"rental_uris":{"android":"levelo://app?vid=2c699219-5519-49ab-ae24-fc3b03a3ca2a","ios":"levelo://app?vid=2c699219-5519-49ab-ae24-fc3b03a3ca2a"},"vehicle_type_id":"4","last_reported":1746361105,"current_range_meters":26000,"station_id":"ce4bgi12rcd13ifvqb70","pricing_plan_id":"cebpf4jnsgd1na2vs0mg"},{"bike_id":"0ff18444-7a08-4eca-a075-7fa4609ecba3","system_id":"levelo_inurba_marseille","lat":43.2511,"lon":5.40333,"is_reserved":false,"is_disabled":false,"rental_uris":{"android":"levelo://app?vid=0ff18444-7a08-4eca-a075-7fa4609ecba3","ios":"levelo://app?vid=0ff18444-7a08-4eca-a075-7fa4609ecba3"},"vehicle_type_id":"4","last_reported":1746361105,"current_range_meters":26000,"station_id":"ce4bhlh2rcd13ifvqgig","pricing_plan_id":"cebpf4jnsgd1na2vs0mg"},{"bike_id":"5659183f-5a1b-4a72-a657-aa0073554816","system_id":"levelo_inurba_marseille","lat":43.24153,"lon":5.39724,"is_reserved":false,"is_disabled":false,"rental_uris":{"android":"levelo://app?vid=5659183f-5a1b-4a72-a657-aa0073554816","ios":"levelo://app?vid=5659183f-5a1b-4a72-a657-aa0073554816"},"vehicle_type_id":"4","last_reported":1746361105,"current_range_meters":26000,"station_id":"ce4bhn12rcd13ifvqgpg","pricing_plan_id":"cebpf4jnsgd1na2vs0mg"},{"bike_id":"cd8ba6f1-b9f2-4b74-b560-fb21b72d46fa","system_id":"levelo_inurba_marseille","lat":43.28272,"lon":5.37425,"is_reserved":false,"is_disabled":false,"rental_uris":{"android":"levelo://app?vid=cd8ba6f1-b9f2-4b74-b560-fb21b72d46fa","ios":"levelo://app?vid=cd8ba6f1-b9f2-4b74-b560-fb21b72d46fa"},"vehicle_type_id":"4","last_reported":1746361105,"current_range_meters":26800,"station_id":"","pricing_plan_id":"cebpf4jnsgd1na2vs0mg"},{"bike_id":"faa41b97-5a49-449c-8bc6-56fc4bcc0268","system_id":"levelo_inurba_marseille","lat":43.24808,"lon":5.37458,"is_reserved":false,"is_disabled":false,"rental_uris":{"android":"levelo://app?vid=faa41b97-5a49-449c-8bc6-56fc4bcc0268","ios":"levelo://app?vid=faa41b97-5a49-449c-8bc6-56fc4bcc0268"},"vehicle_type_id":"4","last_reported":1746361105,"current_range_meters":26800,"station_id":"ce4bhgh2rcd13ifvqfb0","pricing_plan_id":"cebpf4jnsgd1na2vs0mg"},{"bike_id":"ace243df-4428-44e7-8e39-4eaf14e10d4a","system_id":"levelo_inurba_marseille","lat":43.24794,"lon":5.37456,"is_reserved":false,"is_disabled":false,"rental_uris":{"android":"levelo://app?vid=ace243df-4428-44e7-8e39-4eaf14e10d4a","ios":"levelo://app?vid=ace243df-4428-44e7-8e39-4eaf14e10d4a"},"vehicle_type_id":"4","last_reported":1746361105,"current_range_meters":26800,"station_id":"ce4bhgh2rcd13ifvqfb0","pricing_plan_id":"cebpf4jnsgd1na2vs0mg"},{"bike_id":"638d16bc-c6e8-422e-8907-cb54e849c916","system_id":"levelo_inurba_marseille","lat":43.22923,"lon":5.35369,"is_reserved":false,"is_disabled":false,"rental_uris":{"android":"levelo://app?vid=638d16bc-c6e8-422e-8907-cb54e849c916","ios":"levelo://app?vid=638d16bc-c6e8-422e-8907-cb54e849c916"},"vehicle_type_id":"4","last_reported":1746361105,"current_range_meters":26800,"station_id":"cpo3532slgdg3j2ikp40","pricing_plan_id":"cebpf4jnsgd1na2vs0mg"},{"bike_id":"70931f74-c678-47c2-b96e-6054c0a672e4","system_id":"levelo_inurba_marseille","lat":43.31269,"lon":5.40164,"is_reserved":false,"is_disabled":false,"rental_uris":{"android":"levelo://app?vid=70931f74-c678-47c2-b96e-6054c0a672e4","ios":"levelo://app?vid=70931f74-c678-47c2-b96e-6054c0a672e4"},"vehicle_type_id":"4","last_reported":1746361105,"current_range_meters":27200,"station_id":"ce4bh092rcd13ifvqd30","pricing_plan_id":"cebpf4jnsgd1na2vs0mg"},{"bike_id":"1f0accd1-bd57-40e2-b6ad-443640e57d8c","system_id":"levelo_inurba_marseille","lat":43.29039,"lon":5.37564,"is_reserved":false,"is_disabled":false,"rental_uris":{"android":"levelo://app?vid=1f0accd1-bd57-40e2-b6ad-443640e57d8c","ios":"levelo://app?vid=1f0accd1-bd57-40e2-b6ad-443640e57d8c"},"vehicle_type_id":"4","last_reported":1746361105,"current_range_meters":27200,"station_id":"ce4bh692rcd13ifvqe90","pricing_plan_id":"cebpf4jnsgd1na2vs0mg"},{"bike_id":"7213fa7f-9e2e-44db-8d66-50caaea30bd9","system_id":"levelo_inurba_marseille","lat":43.27807,"lon":5.40705,"is_reserved":false,"is_disabled":false,"rental_uris":{"android":"levelo://app?vid=7213fa7f-9e2e-44db-8d66-50caaea30bd9","ios":"levelo://app?vid=7213fa7f-9e2e-44db-8d66-50caaea30bd9"},"vehicle_type_id":"4","last_reported":1746361105,"current_range_meters":27200,"station_id":"ce4bhnh2rcd13ifvqgtg","pricing_plan_id":"cebpf4jnsgd1na2vs0mg"},{"bike_id":"17dfa222-8e0e-494c-8aa4-c8f7018cb965","system_id":"levelo_inurba_marseille","lat":43.30529,"lon":5.36707,"is_reserved":false,"is_disabled":false,"rental_uris":{"android":"levelo://app?vid=17dfa222-8e0e-494c-8aa4-c8f7018cb965","ios":"levelo://app?vid=17dfa222-8e0e-494c-8aa4-c8f7018cb965"},"vehicle_type_id":"4","last_reported":1746361105,"current_range_meters":27600,"station_id":"ce4bgrp2rcd13ifvqc9g","pricing_plan_id":"cebpf4jnsgd1na2vs0mg"},{"bike_id":"2acc1f26-5153-4e98-afe0-80d86d9d7520","system_id":"levelo_inurba_marseille","lat":43.31688,"lon":5.40476,"is_reserved":false,"is_disabled":false,"rental_uris":{"android":"levelo://app?vid=2acc1f26-5153-4e98-afe0-80d86d9d7520","ios":"levelo://app?vid=2acc1f26-5153-4e98-afe0-80d86d9d7520"},"vehicle_type_id":"4","last_reported":1746361105,"current_range_meters":27600,"station_id":"ce4bh012rcd13ifvqd00","pricing_plan_id":"cebpf4jnsgd1na2vs0mg"},{"bike_id":"9b0229f4-ec8a-4db2-b7bf-1c2c9dc924fd","system_id":"levelo_inurba_marseille","lat":43.28422,"lon":5.34989,"is_reserved":false,"is_disabled":false,"rental_uris":{"android":"levelo://app?vid=9b0229f4-ec8a-4db2-b7bf-1c2c9dc924fd","ios":"levelo://app?vid=9b0229f4-ec8a-4db2-b7bf-1c2c9dc924fd"},"vehicle_type_id":"4","last_reported":1746361105,"current_range_meters":27600,"station_id":"ce4bhbh2rcd13ifvqepg","pricing_plan_id":"cebpf4jnsgd1na2vs0mg"},{"bike_id":"4816de97-e264-468b-b3c3-74f635f7af5b","system_id":"levelo_inurba_marseille","lat":43.32203,"lon":5.38292,"is_reserved":false,"is_disabled":false,"rental_uris":{"android":"levelo://app?vid=4816de97-e264-468b-b3c3-74f635f7af5b","ios":"levelo://app?vid=4816de97-e264-468b-b3c3-74f635f7af5b"},"vehicle_type_id":"4","last_reported":1746361105,"current_range_meters":28000,"station_id":"","pricing_plan_id":"cebpf4jnsgd1na2vs0mg"},{"bike_id":"899dedbb-325f-4f5a-b6be-12430b5e2154","system_id":"levelo_inurba_marseille","lat":43.29571,"lon":5.37518,"is_reserved":false,"is_disabled":false,"rental_uris":{"android":"levelo://app?vid=899dedbb-325f-4f5a-b6be-12430b5e2154","ios":"levelo://app?vid=899dedbb-325f-4f5a-b6be-12430b5e2154"},"vehicle_type_id":"4","last_reported":1746361105,"current_range_meters":28000,"station_id":"ce4bgh92rcd13ifvqb50","pricing_plan_id":"cebpf4jnsgd1na2vs0mg"},{"bike_id":"1360ec4d-862b-4d1b-9b3a-e87032463597","system_id":"levelo_inurba_marseille","lat":43.29302,"lon":5.37458,"is_reserved":false,"is_disabled":false,"rental_uris":{"android":"levelo://app?vid=1360ec4d-862b-4d1b-9b3a-e87032463597","ios":"levelo://app?vid=1360ec4d-862b-4d1b-9b3a-e87032463597"},"vehicle_type_id":"4","last_reported":1746361105,"current_range_meters":28000,"station_id":"ce4bgi12rcd13ifvqb70","pricing_plan_id":"cebpf4jnsgd1na2vs0mg"},{"bike_id":"0f9cbbc6-1c19-4d78-9c46-5815f239d860","system_id":"levelo_inurba_marseille","lat":43.30316,"lon":5.36899,"is_reserved":false,"is_disabled":false,"rental_uris":{"android":"levelo://app?vid=0f9cbbc6-1c19-4d78-9c46-5815f239d860","ios":"levelo://app?vid=0f9cbbc6-1c19-4d78-9c46-5815f239d860"},"vehicle_type_id":"4","last_reported":1746361105,"current_range_meters":28000,"station_id":"ce4bgqh2rcd13ifvqc5g","pricing_plan_id":"cebpf4jnsgd1na2vs0mg"},{"bike_id":"d097185d-16d4-4732-ab8e-68f401a39e98","system_id":"levelo_inurba_marseille","lat":43.24548,"lon":5.3952,"is_reserved":false,"is_disabled":false,"rental_uris":{"android":"levelo://app?vid=d097185d-16d4-4732-ab8e-68f401a39e98","ios":"levelo://app?vid=d097185d-16d4-4732-ab8e-68f401a39e98"},"vehicle_type_id":"4","last_reported":1746361105,"current_range_meters":28000,"station_id":"ce4bhlp2rcd13ifvqgjg","pricing_plan_id":"cebpf4jnsgd1na2vs0mg"},{"bike_id":"fff989e9-64dd-40de-8a4c-e30222516b94","system_id":"levelo_inurba_marseille","lat":43.28159,"lon":5.42647,"is_reserved":false,"is_disabled":false,"rental_uris":{"android":"levelo://app?vid=fff989e9-64dd-40de-8a4c-e30222516b94","ios":"levelo://app?vid=fff989e9-64dd-40de-8a4c-e30222516b94"},"vehicle_type_id":"4","last_reported":1746361105,"current_range_meters":28000,"station_id":"ce4bhnh2rcd13ifvqgug","pricing_plan_id":"cebpf4jnsgd1na2vs0mg"},{"bike_id":"3a63acc5-b352-4e5e-8ce6-37badecb6507","system_id":"levelo_inurba_marseille","lat":43.29484,"lon":5.4183,"is_reserved":false,"is_disabled":false,"rental_uris":{"android":"levelo://app?vid=3a63acc5-b352-4e5e-8ce6-37badecb6507","ios":"levelo://app?vid=3a63acc5-b352-4e5e-8ce6-37badecb6507"},"vehicle_type_id":"4","last_reported":1746361105,"current_range_meters":28400,"station_id":"","pricing_plan_id":"cebpf4jnsgd1na2vs0mg"},{"bike_id":"a33eb224-530b-4af5-8f6e-ce917977a63c","system_id":"levelo_inurba_marseille","lat":43.27206,"lon":5.39206,"is_reserved":false,"is_disabled":false,"rental_uris":{"android":"levelo://app?vid=a33eb224-530b-4af5-8f6e-ce917977a63c","ios":"levelo://app?vid=a33eb224-530b-4af5-8f6e-ce917977a63c"},"vehicle_type_id":"4","last_reported":1746361105,"current_range_meters":28400,"station_id":"ce4bhhp2rcd13ifvqfm0","pricing_plan_id":"cebpf4jnsgd1na2vs0mg"},{"bike_id":"f88ffc64-2083-4f58-84ca-5979fd9cb816","system_id":"levelo_inurba_marseille","lat":43.279343,"lon":5.410343,"is_reserved":false,"is_disabled":false,"rental_uris":{"android":"levelo://app?vid=f88ffc64-2083-4f58-84ca-5979fd9cb816","ios":"levelo://app?vid=f88ffc64-2083-4f58-84ca-5979fd9cb816"},"vehicle_type_id":"4","last_reported":1746361105,"current_range_meters":28400,"station_id":"ce4bhnp2rcd13ifvqh0g","pricing_plan_id":"cebpf4jnsgd1na2vs0mg"},{"bike_id":"80ffcf1c-1e42-4a3c-9261-d4cd0ab9e410","system_id":"levelo_inurba_marseille","lat":43.310791,"lon":5.424364,"is_reserved":false,"is_disabled":false,"rental_uris":{"android":"levelo://app?vid=80ffcf1c-1e42-4a3c-9261-d4cd0ab9e410","ios":"levelo://app?vid=80ffcf1c-1e42-4a3c-9261-d4cd0ab9e410"},"vehicle_type_id":"4","last_reported":1746361105,"current_range_meters":28400,"station_id":"ce4bhp92rcd13ifvqhag","pricing_plan_id":"cebpf4jnsgd1na2vs0mg"},{"bike_id":"3c10f5ed-cab1-4907-a52a-2e157cafee5e","system_id":"levelo_inurba_marseille","lat":43.30138,"lon":5.37423,"is_reserved":false,"is_disabled":false,"rental_uris":{"android":"levelo://app?vid=3c10f5ed-cab1-4907-a52a-2e157cafee5e","ios":"levelo://app?vid=3c10f5ed-cab1-4907-a52a-2e157cafee5e"},"vehicle_type_id":"4","last_reported":1746361105,"current_range_meters":28800,"station_id":"ce4bgs92rcd13ifvqcc0","pricing_plan_id":"cebpf4jnsgd1na2vs0mg"},{"bike_id":"7bec34c0-748a-4192-95e1-c151948fccb0","system_id":"levelo_inurba_marseille","lat":43.30778,"lon":5.37656,"is_reserved":false,"is_disabled":false,"rental_uris":{"android":"levelo://app?vid=7bec34c0-748a-4192-95e1-c151948fccb0","ios":"levelo://app?vid=7bec34c0-748a-4192-95e1-c151948fccb0"},"vehicle_type_id":"4","last_reported":1746361105,"current_range_meters":28800,"station_id":"ce4bgv92rcd13ifvqcq0","pricing_plan_id":"cebpf4jnsgd1na2vs0mg"},{"bike_id":"fa0c2067-9b59-4c63-91da-8612deff2362","system_id":"levelo_inurba_marseille","lat":43.26199,"lon":5.37928,"is_reserved":false,"is_disabled":false,"rental_uris":{"android":"levelo://app?vid=fa0c2067-9b59-4c63-91da-8612deff2362","ios":"levelo://app?vid=fa0c2067-9b59-4c63-91da-8612deff2362"},"vehicle_type_id":"4","last_reported":1746361105,"current_range_meters":28800,"station_id":"ce4bhjp2rcd13ifvqg90","pricing_plan_id":"cebpf4jnsgd1na2vs0mg"},{"bike_id":"0aa5b90f-550a-4efd-9bbc-22b1b2133141","system_id":"levelo_inurba_marseille","lat":43.27076,"lon":5.42272,"is_reserved":false,"is_disabled":false,"rental_uris":{"android":"levelo://app?vid=0aa5b90f-550a-4efd-9bbc-22b1b2133141","ios":"levelo://app?vid=0aa5b90f-550a-4efd-9bbc-22b1b2133141"},"vehicle_type_id":"4","last_reported":1746361105,"current_range_meters":28800,"station_id":"ce4bhk92rcd13ifvqgb0","pricing_plan_id":"cebpf4jnsgd1na2vs0mg"},{"bike_id":"f8b0b83e-3275-4842-8279-54953a201dd7","system_id":"levelo_inurba_marseille","lat":43.26229,"lon":5.40454,"is_reserved":false,"is_disabled":false,"rental_uris":{"android":"levelo://app?vid=f8b0b83e-3275-4842-8279-54953a201dd7","ios":"levelo://app?vid=f8b0b83e-3275-4842-8279-54953a201dd7"},"vehicle_type_id":"4","last_reported":1746361105,"current_range_meters":28800,"station_id":"ce4bhmh2rcd13ifvqgmg","pricing_plan_id":"cebpf4jnsgd1na2vs0mg"},{"bike_id":"02285ad8-610b-4e10-b666-1c75a573227b","system_id":"levelo_inurba_marseille","lat":43.2418,"lon":5.39731,"is_reserved":false,"is_disabled":false,"rental_uris":{"android":"levelo://app?vid=02285ad8-610b-4e10-b666-1c75a573227b","ios":"levelo://app?vid=02285ad8-610b-4e10-b666-1c75a573227b"},"vehicle_type_id":"4","last_reported":1746361105,"current_range_meters":28800,"station_id":"ce4bhn12rcd13ifvqgpg","pricing_plan_id":"cebpf4jnsgd1na2vs0mg"},{"bike_id":"86c0b1ae-08c6-46bd-811f-facb6e9d6b9e","system_id":"levelo_inurba_marseille","lat":43.31756,"lon":5.39008,"is_reserved":false,"is_disabled":false,"rental_uris":{"android":"levelo://app?vid=86c0b1ae-08c6-46bd-811f-facb6e9d6b9e","ios":"levelo://app?vid=86c0b1ae-08c6-46bd-811f-facb6e9d6b9e"},"vehicle_type_id":"4","last_reported":1746361105,"current_range_meters":28800,"station_id":"ce4bhqp2rcd13ifvqhng","pricing_plan_id":"cebpf4jnsgd1na2vs0mg"},{"bike_id":"8ad22d1d-6b59-487a-9745-ffb069fa9bd1","system_id":"levelo_inurba_marseille","lat":43.28615,"lon":5.37054,"is_reserved":false,"is_disabled":false,"rental_uris":{"android":"levelo://app?vid=8ad22d1d-6b59-487a-9745-ffb069fa9bd1","ios":"levelo://app?vid=8ad22d1d-6b59-487a-9745-ffb069fa9bd1"},"vehicle_type_id":"4","last_reported":1746361105,"current_range_meters":28800,"station_id":"ce4bht12rcd13ifvqi60","pricing_plan_id":"cebpf4jnsgd1na2vs0mg"},{"bike_id":"ded42051-0039-4cc2-a841-aeed54376989","system_id":"levelo_inurba_marseille","lat":43.26506,"lon":5.42452,"is_reserved":false,"is_disabled":false,"rental_uris":{"android":"levelo://app?vid=ded42051-0039-4cc2-a841-aeed54376989","ios":"levelo://app?vid=ded42051-0039-4cc2-a841-aeed54376989"},"vehicle_type_id":"4","last_reported":1746361105,"current_range_meters":29600,"station_id":"","pricing_plan_id":"cebpf4jnsgd1na2vs0mg"},{"bike_id":"1bcedd05-90fb-4c2c-b71e-896ea9a48d5f","system_id":"levelo_inurba_marseille","lat":43.29339,"lon":5.43435,"is_reserved":false,"is_disabled":false,"rental_uris":{"android":"levelo://app?vid=1bcedd05-90fb-4c2c-b71e-896ea9a48d5f","ios":"levelo://app?vid=1bcedd05-90fb-4c2c-b71e-896ea9a48d5f"},"vehicle_type_id":"4","last_reported":1746361105,"current_range_meters":29600,"station_id":"","pricing_plan_id":"cebpf4jnsgd1na2vs0mg"},{"bike_id":"c2fe589d-054e-44e2-a8e8-0998b85fb812","system_id":"levelo_inurba_marseille","lat":43.28777,"lon":5.39662,"is_reserved":false,"is_disabled":false,"rental_uris":{"android":"levelo://app?vid=c2fe589d-054e-44e2-a8e8-0998b85fb812","ios":"levelo://app?vid=c2fe589d-054e-44e2-a8e8-0998b85fb812"},"vehicle_type_id":"4","last_reported":1746361105,"current_range_meters":29600,"station_id":"ce4bhc92rcd13ifvqetg","pricing_plan_id":"cebpf4jnsgd1na2vs0mg"},{"bike_id":"977f4bb4-3d44-493d-b5a1-22093907125a","system_id":"levelo_inurba_marseille","lat":43.2707,"lon":5.42284,"is_reserved":false,"is_disabled":false,"rental_uris":{"android":"levelo://app?vid=977f4bb4-3d44-493d-b5a1-22093907125a","ios":"levelo://app?vid=977f4bb4-3d44-493d-b5a1-22093907125a"},"vehicle_type_id":"4","last_reported":1746361105,"current_range_meters":29600,"station_id":"ce4bhk92rcd13ifvqgb0","pricing_plan_id":"cebpf4jnsgd1na2vs0mg"},{"bike_id":"38214a63-ce33-4893-9845-0c7338a97e1e","system_id":"levelo_inurba_marseille","lat":43.32291,"lon":5.38299,"is_reserved":false,"is_disabled":false,"rental_uris":{"android":"levelo://app?vid=38214a63-ce33-4893-9845-0c7338a97e1e","ios":"levelo://app?vid=38214a63-ce33-4893-9845-0c7338a97e1e"},"vehicle_type_id":"4","last_reported":1746361105,"current_range_meters":29600,"station_id":"ce4bhr12rcd13ifvqhqg","pricing_plan_id":"cebpf4jnsgd1na2vs0mg"},{"bike_id":"a7439b39-edf2-4f9e-b2bc-3e85da3307b5","system_id":"levelo_inurba_marseille","lat":43.30884,"lon":5.39655,"is_reserved":false,"is_disabled":false,"rental_uris":{"android":"levelo://app?vid=a7439b39-edf2-4f9e-b2bc-3e85da3307b5","ios":"levelo://app?vid=a7439b39-edf2-4f9e-b2bc-3e85da3307b5"},"vehicle_type_id":"4","last_reported":1746361105,"current_range_meters":30000,"station_id":"ce4bh012rcd13ifvqcv0","pricing_plan_id":"cebpf4jnsgd1na2vs0mg"},{"bike_id":"d919555e-c032-4529-9e6e-00f4925c6d8d","system_id":"levelo_inurba_marseille","lat":43.24389,"lon":5.37057,"is_reserved":false,"is_disabled":false,"rental_uris":{"android":"levelo://app?vid=d919555e-c032-4529-9e6e-00f4925c6d8d","ios":"levelo://app?vid=d919555e-c032-4529-9e6e-00f4925c6d8d"},"vehicle_type_id":"4","last_reported":1746361105,"current_range_meters":30000,"station_id":"ce4bhhh2rcd13ifvqfk0","pricing_plan_id":"cebpf4jnsgd1na2vs0mg"},{"bike_id":"c1979245-f6b2-4981-9b67-090cbb2dcde4","system_id":"levelo_inurba_marseille","lat":43.23959,"lon":5.36631,"is_reserved":false,"is_disabled":false,"rental_uris":{"android":"levelo://app?vid=c1979245-f6b2-4981-9b67-090cbb2dcde4","ios":"levelo://app?vid=c1979245-f6b2-4981-9b67-090cbb2dcde4"},"vehicle_type_id":"4","last_reported":1746361105,"current_range_meters":30000,"station_id":"ce4bhi12rcd13ifvqfp0","pricing_plan_id":"cebpf4jnsgd1na2vs0mg"},{"bike_id":"1ac821fd-fe21-4bd0-a0fa-eb4f0efa2175","system_id":"levelo_inurba_marseille","lat":43.287057,"lon":5.399884,"is_reserved":false,"is_disabled":false,"rental_uris":{"android":"levelo://app?vid=1ac821fd-fe21-4bd0-a0fa-eb4f0efa2175","ios":"levelo://app?vid=1ac821fd-fe21-4bd0-a0fa-eb4f0efa2175"},"vehicle_type_id":"4","last_reported":1746361105,"current_range_meters":30000,"station_id":"ce4bho92rcd13ifvqh3g","pricing_plan_id":"cebpf4jnsgd1na2vs0mg"},{"bike_id":"d59e526a-68d1-44b4-ab8d-5869c3860db5","system_id":"levelo_inurba_marseille","lat":43.30804,"lon":5.43529,"is_reserved":false,"is_disabled":false,"rental_uris":{"android":"levelo://app?vid=d59e526a-68d1-44b4-ab8d-5869c3860db5","ios":"levelo://app?vid=d59e526a-68d1-44b4-ab8d-5869c3860db5"},"vehicle_type_id":"4","last_reported":1746361105,"current_range_meters":30000,"station_id":"ce4bhph2rcd13ifvqheg","pricing_plan_id":"cebpf4jnsgd1na2vs0mg"},{"bike_id":"505c6cb0-9945-457b-8566-a850f9d80017","system_id":"levelo_inurba_marseille","lat":43.21757,"lon":5.34568,"is_reserved":false,"is_disabled":false,"rental_uris":{"android":"levelo://app?vid=505c6cb0-9945-457b-8566-a850f9d80017","ios":"levelo://app?vid=505c6cb0-9945-457b-8566-a850f9d80017"},"vehicle_type_id":"4","last_reported":1746361105,"current_range_meters":30000,"station_id":"st_cvj6r9ubvosntc0bgbag","pricing_plan_id":"cebpf4jnsgd1na2vs0mg"},{"bike_id":"c37d325d-eb9d-4b3d-84e4-566c1b5e5b84","system_id":"levelo_inurba_marseille","lat":43.29968,"lon":5.37176,"is_reserved":false,"is_disabled":false,"rental_uris":{"android":"levelo://app?vid=c37d325d-eb9d-4b3d-84e4-566c1b5e5b84","ios":"levelo://app?vid=c37d325d-eb9d-4b3d-84e4-566c1b5e5b84"},"vehicle_type_id":"4","last_reported":1746361105,"current_range_meters":30400,"station_id":"ce4bgr92rcd13ifvqc7g","pricing_plan_id":"cebpf4jnsgd1na2vs0mg"},{"bike_id":"f27a75cc-a589-4455-b93f-a97fa322ee77","system_id":"levelo_inurba_marseille","lat":43.30946,"lon":5.39034,"is_reserved":false,"is_disabled":false,"rental_uris":{"android":"levelo://app?vid=f27a75cc-a589-4455-b93f-a97fa322ee77","ios":"levelo://app?vid=f27a75cc-a589-4455-b93f-a97fa322ee77"},"vehicle_type_id":"4","last_reported":1746361105,"current_range_meters":30400,"station_id":"ce4bgup2rcd13ifvqco0","pricing_plan_id":"cebpf4jnsgd1na2vs0mg"},{"bike_id":"5b3c375b-5917-4930-beac-3ad9b887e5ed","system_id":"levelo_inurba_marseille","lat":43.307755,"lon":5.376573,"is_reserved":false,"is_disabled":false,"rental_uris":{"android":"levelo://app?vid=5b3c375b-5917-4930-beac-3ad9b887e5ed","ios":"levelo://app?vid=5b3c375b-5917-4930-beac-3ad9b887e5ed"},"vehicle_type_id":"4","last_reported":1746361105,"current_range_meters":30400,"station_id":"ce4bgv92rcd13ifvqcq0","pricing_plan_id":"cebpf4jnsgd1na2vs0mg"},{"bike_id":"4ada9ae5-1fdb-4b04-97e5-f6e979f4579d","system_id":"levelo_inurba_marseille","lat":43.31274,"lon":5.40169,"is_reserved":false,"is_disabled":false,"rental_uris":{"android":"levelo://app?vid=4ada9ae5-1fdb-4b04-97e5-f6e979f4579d","ios":"levelo://app?vid=4ada9ae5-1fdb-4b04-97e5-f6e979f4579d"},"vehicle_type_id":"4","last_reported":1746361105,"current_range_meters":30400,"station_id":"ce4bh092rcd13ifvqd30","pricing_plan_id":"cebpf4jnsgd1na2vs0mg"},{"bike_id":"2c0d7ac0-6f7f-49c3-92af-edff6540cbe3","system_id":"levelo_inurba_marseille","lat":43.25495,"lon":5.37637,"is_reserved":false,"is_disabled":false,"rental_uris":{"android":"levelo://app?vid=2c0d7ac0-6f7f-49c3-92af-edff6540cbe3","ios":"levelo://app?vid=2c0d7ac0-6f7f-49c3-92af-edff6540cbe3"},"vehicle_type_id":"4","last_reported":1746361105,"current_range_meters":30400,"station_id":"ce4bhh12rcd13ifvqff0","pricing_plan_id":"cebpf4jnsgd1na2vs0mg"},{"bike_id":"a6c10caf-dd4b-4c97-8a6b-3aab313a9015","system_id":"levelo_inurba_marseille","lat":43.28708,"lon":5.37394,"is_reserved":false,"is_disabled":false,"rental_uris":{"android":"levelo://app?vid=a6c10caf-dd4b-4c97-8a6b-3aab313a9015","ios":"levelo://app?vid=a6c10caf-dd4b-4c97-8a6b-3aab313a9015"},"vehicle_type_id":"4","last_reported":1746361105,"current_range_meters":30800,"station_id":"ce4bh3p2rcd13ifvqdq0","pricing_plan_id":"cebpf4jnsgd1na2vs0mg"},{"bike_id":"c9105de7-96c9-44b4-9aa5-fe59c849096f","system_id":"levelo_inurba_marseille","lat":43.28959,"lon":5.36404,"is_reserved":false,"is_disabled":false,"rental_uris":{"android":"levelo://app?vid=c9105de7-96c9-44b4-9aa5-fe59c849096f","ios":"levelo://app?vid=c9105de7-96c9-44b4-9aa5-fe59c849096f"},"vehicle_type_id":"4","last_reported":1746361105,"current_range_meters":30800,"station_id":"ce4bhc92rcd13ifvqetg","pricing_plan_id":"cebpf4jnsgd1na2vs0mg"},{"bike_id":"ea0897b1-5729-4678-8706-588504d3390d","system_id":"levelo_inurba_marseille","lat":43.26194,"lon":5.37448,"is_reserved":false,"is_disabled":false,"rental_uris":{"android":"levelo://app?vid=ea0897b1-5729-4678-8706-588504d3390d","ios":"levelo://app?vid=ea0897b1-5729-4678-8706-588504d3390d"},"vehicle_type_id":"4","last_reported":1746361105,"current_range_meters":30800,"station_id":"ce4bhgp2rcd13ifvqfc0","pricing_plan_id":"cebpf4jnsgd1na2vs0mg"},{"bike_id":"4fc45c9c-759e-43bb-8f90-9172c11c6dcc","system_id":"levelo_inurba_marseille","lat":43.23208,"lon":5.35555,"is_reserved":false,"is_disabled":false,"rental_uris":{"android":"levelo://app?vid=4fc45c9c-759e-43bb-8f90-9172c11c6dcc","ios":"levelo://app?vid=4fc45c9c-759e-43bb-8f90-9172c11c6dcc"},"vehicle_type_id":"4","last_reported":1746361105,"current_range_meters":31200,"station_id":"ce4bhu92rcd13ifvqi70","pricing_plan_id":"cebpf4jnsgd1na2vs0mg"},{"bike_id":"7515860d-853e-4aff-9408-85c0a7872c1e","system_id":"levelo_inurba_marseille","lat":43.34452,"lon":5.35884,"is_reserved":false,"is_disabled":false,"rental_uris":{"android":"levelo://app?vid=7515860d-853e-4aff-9408-85c0a7872c1e","ios":"levelo://app?vid=7515860d-853e-4aff-9408-85c0a7872c1e"},"vehicle_type_id":"4","last_reported":1746361105,"current_range_meters":32000,"station_id":"","pricing_plan_id":"cebpf4jnsgd1na2vs0mg"},{"bike_id":"d121b293-6364-4c3a-8874-23e8de75304d","system_id":"levelo_inurba_marseille","lat":43.24396,"lon":5.3704,"is_reserved":false,"is_disabled":false,"rental_uris":{"android":"levelo://app?vid=d121b293-6364-4c3a-8874-23e8de75304d","ios":"levelo://app?vid=d121b293-6364-4c3a-8874-23e8de75304d"},"vehicle_type_id":"4","last_reported":1746361105,"current_range_meters":32000,"station_id":"ce4bhhh2rcd13ifvqfk0","pricing_plan_id":"cebpf4jnsgd1na2vs0mg"},{"bike_id":"6bfb5e6e-7c45-42a3-be89-e3434a4f80a5","system_id":"levelo_inurba_marseille","lat":43.27807,"lon":5.40707,"is_reserved":false,"is_disabled":false,"rental_uris":{"android":"levelo://app?vid=6bfb5e6e-7c45-42a3-be89-e3434a4f80a5","ios":"levelo://app?vid=6bfb5e6e-7c45-42a3-be89-e3434a4f80a5"},"vehicle_type_id":"4","last_reported":1746361105,"current_range_meters":32000,"station_id":"ce4bhnh2rcd13ifvqgtg","pricing_plan_id":"cebpf4jnsgd1na2vs0mg"},{"bike_id":"bf8fc610-7e18-470c-96e2-8e44c831b3c7","system_id":"levelo_inurba_marseille","lat":43.32356,"lon":5.3677,"is_reserved":false,"is_disabled":false,"rental_uris":{"android":"levelo://app?vid=bf8fc610-7e18-470c-96e2-8e44c831b3c7","ios":"levelo://app?vid=bf8fc610-7e18-470c-96e2-8e44c831b3c7"},"vehicle_type_id":"4","last_reported":1746361105,"current_range_meters":32000,"station_id":"ce4bhsh2rcd13ifvqi2g","pricing_plan_id":"cebpf4jnsgd1na2vs0mg"},{"bike_id":"6f10c397-2fb9-4802-915f-b2f2dce9e14a","system_id":"levelo_inurba_marseille","lat":43.230531,"lon":5.354913,"is_reserved":false,"is_disabled":false,"rental_uris":{"android":"levelo://app?vid=6f10c397-2fb9-4802-915f-b2f2dce9e14a","ios":"levelo://app?vid=6f10c397-2fb9-4802-915f-b2f2dce9e14a"},"vehicle_type_id":"4","last_reported":1746361105,"current_range_meters":32000,"station_id":"cpo3342slgdg3j2ifvpg","pricing_plan_id":"cebpf4jnsgd1na2vs0mg"},{"bike_id":"4e305571-1530-4119-a70d-9a9b3089e206","system_id":"levelo_inurba_marseille","lat":43.29707,"lon":5.36617,"is_reserved":false,"is_disabled":false,"rental_uris":{"android":"levelo://app?vid=4e305571-1530-4119-a70d-9a9b3089e206","ios":"levelo://app?vid=4e305571-1530-4119-a70d-9a9b3089e206"},"vehicle_type_id":"4","last_reported":1746361105,"current_range_meters":32400,"station_id":"ce4bgn12rcd13ifvqbt0","pricing_plan_id":"cebpf4jnsgd1na2vs0mg"},{"bike_id":"092c822f-99ca-465a-b615-af035012614d","system_id":"levelo_inurba_marseille","lat":43.31369,"lon":5.38493,"is_reserved":false,"is_disabled":false,"rental_uris":{"android":"levelo://app?vid=092c822f-99ca-465a-b615-af035012614d","ios":"levelo://app?vid=092c822f-99ca-465a-b615-af035012614d"},"vehicle_type_id":"4","last_reported":1746361105,"current_range_meters":32400,"station_id":"ce4bgt92rcd13ifvqcf0","pricing_plan_id":"cebpf4jnsgd1na2vs0mg"},{"bike_id":"da405137-394f-4343-bf6f-fa43c24d159c","system_id":"levelo_inurba_marseille","lat":43.28627,"lon":5.37913,"is_reserved":false,"is_disabled":false,"rental_uris":{"android":"levelo://app?vid=da405137-394f-4343-bf6f-fa43c24d159c","ios":"levelo://app?vid=da405137-394f-4343-bf6f-fa43c24d159c"},"vehicle_type_id":"4","last_reported":1746361105,"current_range_meters":32400,"station_id":"ce4bh9p2rcd13ifvqec0","pricing_plan_id":"cebpf4jnsgd1na2vs0mg"},{"bike_id":"c24e91d4-c3f8-46f4-8526-164dec99391f","system_id":"levelo_inurba_marseille","lat":43.250106,"lon":5.389447,"is_reserved":false,"is_disabled":false,"rental_uris":{"android":"levelo://app?vid=c24e91d4-c3f8-46f4-8526-164dec99391f","ios":"levelo://app?vid=c24e91d4-c3f8-46f4-8526-164dec99391f"},"vehicle_type_id":"4","last_reported":1746361105,"current_range_meters":32400,"station_id":"ce4bhgp2rcd13ifvqfd0","pricing_plan_id":"cebpf4jnsgd1na2vs0mg"},{"bike_id":"c2696ae4-41a4-41e5-81d1-bcf63900f8e0","system_id":"levelo_inurba_marseille","lat":43.3018,"lon":5.36633,"is_reserved":false,"is_disabled":false,"rental_uris":{"android":"levelo://app?vid=c2696ae4-41a4-41e5-81d1-bcf63900f8e0","ios":"levelo://app?vid=c2696ae4-41a4-41e5-81d1-bcf63900f8e0"},"vehicle_type_id":"4","last_reported":1746361105,"current_range_meters":32800,"station_id":"ce4bgrh2rcd13ifvqc8g","pricing_plan_id":"cebpf4jnsgd1na2vs0mg"},{"bike_id":"c9ad762a-eee4-4026-84d4-9fe82789d08a","system_id":"levelo_inurba_marseille","lat":43.26554,"lon":5.37281,"is_reserved":false,"is_disabled":false,"rental_uris":{"android":"levelo://app?vid=c9ad762a-eee4-4026-84d4-9fe82789d08a","ios":"levelo://app?vid=c9ad762a-eee4-4026-84d4-9fe82789d08a"},"vehicle_type_id":"4","last_reported":1746361105,"current_range_meters":32800,"station_id":"ce4bhg12rcd13ifvqf70","pricing_plan_id":"cebpf4jnsgd1na2vs0mg"},{"bike_id":"2596162b-35d9-496d-8216-3b25ca95b12d","system_id":"levelo_inurba_marseille","lat":43.29569,"lon":5.42296,"is_reserved":false,"is_disabled":false,"rental_uris":{"android":"levelo://app?vid=2596162b-35d9-496d-8216-3b25ca95b12d","ios":"levelo://app?vid=2596162b-35d9-496d-8216-3b25ca95b12d"},"vehicle_type_id":"4","last_reported":1746361105,"current_range_meters":32800,"station_id":"ce4bhph2rcd13ifvqhdg","pricing_plan_id":"cebpf4jnsgd1na2vs0mg"},{"bike_id":"a6ef1a95-4d7b-4fa1-aca4-666b791716c9","system_id":"levelo_inurba_marseille","lat":43.33591,"lon":5.42803,"is_reserved":false,"is_disabled":false,"rental_uris":{"android":"levelo://app?vid=a6ef1a95-4d7b-4fa1-aca4-666b791716c9","ios":"levelo://app?vid=a6ef1a95-4d7b-4fa1-aca4-666b791716c9"},"vehicle_type_id":"4","last_reported":1746361105,"current_range_meters":33200,"station_id":"","pricing_plan_id":"cebpf4jnsgd1na2vs0mg"},{"bike_id":"641498ab-78e8-4cab-a9aa-579a89ee368b","system_id":"levelo_inurba_marseille","lat":43.30179,"lon":5.36628,"is_reserved":false,"is_disabled":false,"rental_uris":{"android":"levelo://app?vid=641498ab-78e8-4cab-a9aa-579a89ee368b","ios":"levelo://app?vid=641498ab-78e8-4cab-a9aa-579a89ee368b"},"vehicle_type_id":"4","last_reported":1746361105,"current_range_meters":33200,"station_id":"ce4bgrh2rcd13ifvqc8g","pricing_plan_id":"cebpf4jnsgd1na2vs0mg"},{"bike_id":"0760c4dd-10f4-492e-9e76-a51c5fc8f7d8","system_id":"levelo_inurba_marseille","lat":43.31493,"lon":5.37298,"is_reserved":false,"is_disabled":false,"rental_uris":{"android":"levelo://app?vid=0760c4dd-10f4-492e-9e76-a51c5fc8f7d8","ios":"levelo://app?vid=0760c4dd-10f4-492e-9e76-a51c5fc8f7d8"},"vehicle_type_id":"4","last_reported":1746361105,"current_range_meters":33200,"station_id":"ce4bgt12rcd13ifvqcd0","pricing_plan_id":"cebpf4jnsgd1na2vs0mg"},{"bike_id":"08667b3f-dcd4-4301-b0b8-78ac4022f8af","system_id":"levelo_inurba_marseille","lat":43.28699,"lon":5.37385,"is_reserved":false,"is_disabled":false,"rental_uris":{"android":"levelo://app?vid=08667b3f-dcd4-4301-b0b8-78ac4022f8af","ios":"levelo://app?vid=08667b3f-dcd4-4301-b0b8-78ac4022f8af"},"vehicle_type_id":"4","last_reported":1746361105,"current_range_meters":33200,"station_id":"ce4bh3p2rcd13ifvqdq0","pricing_plan_id":"cebpf4jnsgd1na2vs0mg"},{"bike_id":"5f56f333-de02-4f6f-a5b1-d3e56027e0b2","system_id":"levelo_inurba_marseille","lat":43.23966,"lon":5.36623,"is_reserved":false,"is_disabled":false,"rental_uris":{"android":"levelo://app?vid=5f56f333-de02-4f6f-a5b1-d3e56027e0b2","ios":"levelo://app?vid=5f56f333-de02-4f6f-a5b1-d3e56027e0b2"},"vehicle_type_id":"4","last_reported":1746361105,"current_range_meters":33200,"station_id":"ce4bhi12rcd13ifvqfp0","pricing_plan_id":"cebpf4jnsgd1na2vs0mg"},{"bike_id":"d500220f-57ee-4ecd-9bc2-89a706bd6a87","system_id":"levelo_inurba_marseille","lat":43.25089,"lon":5.39522,"is_reserved":false,"is_disabled":false,"rental_uris":{"android":"levelo://app?vid=d500220f-57ee-4ecd-9bc2-89a706bd6a87","ios":"levelo://app?vid=d500220f-57ee-4ecd-9bc2-89a706bd6a87"},"vehicle_type_id":"4","last_reported":1746361105,"current_range_meters":33200,"station_id":"ce4bhm12rcd13ifvqgkg","pricing_plan_id":"cebpf4jnsgd1na2vs0mg"},{"bike_id":"02bf946f-9ae2-4b40-b69e-bc20ce780d41","system_id":"levelo_inurba_marseille","lat":43.31894,"lon":5.40723,"is_reserved":false,"is_disabled":false,"rental_uris":{"android":"levelo://app?vid=02bf946f-9ae2-4b40-b69e-bc20ce780d41","ios":"levelo://app?vid=02bf946f-9ae2-4b40-b69e-bc20ce780d41"},"vehicle_type_id":"4","last_reported":1746361105,"current_range_meters":33200,"station_id":"ce4bhq12rcd13ifvqhig","pricing_plan_id":"cebpf4jnsgd1na2vs0mg"},{"bike_id":"8e6487aa-800f-4998-a3be-e79a975a06d5","system_id":"levelo_inurba_marseille","lat":43.34152,"lon":5.40897,"is_reserved":false,"is_disabled":false,"rental_uris":{"android":"levelo://app?vid=8e6487aa-800f-4998-a3be-e79a975a06d5","ios":"levelo://app?vid=8e6487aa-800f-4998-a3be-e79a975a06d5"},"vehicle_type_id":"4","last_reported":1746361105,"current_range_meters":33200,"station_id":"ce4bhqh2rcd13ifvqhlg","pricing_plan_id":"cebpf4jnsgd1na2vs0mg"},{"bike_id":"9b8fa0d0-8f6e-498c-b135-205d7175ac8c","system_id":"levelo_inurba_marseille","lat":43.29603,"lon":5.36292,"is_reserved":false,"is_disabled":false,"rental_uris":{"android":"levelo://app?vid=9b8fa0d0-8f6e-498c-b135-205d7175ac8c","ios":"levelo://app?vid=9b8fa0d0-8f6e-498c-b135-205d7175ac8c"},"vehicle_type_id":"4","last_reported":1746361105,"current_range_meters":33600,"station_id":"","pricing_plan_id":"cebpf4jnsgd1na2vs0mg"},