{"last_updated":1703185439,"ttl":30,"version":"2.2","data":{"bikes":[{"bike_id":"9c4bed50-4c08-46fb-9163-9ec5afa45ff6","system_id":"levelo_inurba_marseille","lat":43.31341,"lon":5.367098,"is_reserved":false,"is_disabled":false,"rental_uris":{"android":"levelo://app?vid=9c4bed50-4c08-46fb-9163-9ec5afa45ff6","ios":"levelo://app?vid=9c4bed50-4c08-46fb-9163-9ec5afa45ff6"},"vehicle_type_id":"4","last_reported":1703185439,"current_range_meters":0,"station_id":"ce4bgr92rcd13ifvqc6g","pricing_plan_id":"free"},{"bike_id":"97bcd857-7bb6-4540-9e17-566d8bbdb6fe","system_id":"levelo_inurba_marseille","lat":43.314811,"lon":5.373103,"is_reserved":false,"is_disabled":false,"rental_uris":{"android":"levelo://app?vid=97bcd857-7bb6-4540-9e17-566d8bbdb6fe","ios":"levelo://app?vid=97bcd857-7bb6-4540-9e17-566d8bbdb6fe"},"vehicle_type_id":"4","last_reported":1703185439,"current_range_meters":22000,"station_id":"ce4bgt12rcd13ifvqcd0","pricing_plan_id":"free"},{"bike_id":"834ad78b-d38f-46d2-bcf8-864e09f40567","system_id":"levelo_inurba_marseille","lat":43.314811,"lon":5.373104,"is_reserved":false,"is_disabled":false,"rental_uris":{"android":"levelo://app?vid=834ad78b-d38f-46d2-bcf8-864e09f40567","ios":"levelo://app?vid=834ad78b-d38f-46d2-bcf8-864e09f40567"},"vehicle_type_id":"4","last_reported":1703185439,"current_range_meters":30000,"station_id":"ce4bgt12rcd13ifvqcd0","pricing_plan_id":"free"},{"bike_id":"07cc452e-daaf-44dd-a3c9-fce851d1c5b2","system_id":"levelo_inurba_marseille","lat":43.31486,"lon":5.3731,"is_reserved":false,"is_disabled":false,"rental_uris":{"android":"levelo://app?vid=07cc452e-daaf-44dd-a3c9-fce851d1c5b2","ios":"levelo://app?vid=07cc452e-daaf-44dd-a3c9-fce851d1c5b2"},"vehicle_type_id":"4","last_reported":1703185439,"current_range_meters":28800,"station_id":"ce4bgt12rcd13ifvqcd0","pricing_plan_id":"free"},{"bike_id":"4e632894-9bde-406c-a4a1-594dab827730","system_id":"levelo_inurba_marseille","lat":43.314811,"lon":5.373104,"is_reserved":false,"is_disabled":false,"rental_uris":{"android":"levelo://app?vid=4e632894-9bde-406c-a4a1-594dab827730","ios":"levelo://app?vid=4e632894-9bde-406c-a4a1-594dab827730"},"vehicle_type_id":"4","last_reported":1703185439,"current_range_meters":10000,"station_id":"ce4bgt12rcd13ifvqcd0","pricing_plan_id":"free"},{"bike_id":"54fd0f51-0eaa-4b41-9049-c6571d7cfb82","system_id":"levelo_inurba_marseille","lat":43.3054,"lon":5.37271,"is_reserved":false,"is_disabled":false,"rental_uris":{"android":"levelo://app?vid=54fd0f51-0eaa-4b41-9049-c6571d7cfb82","ios":"levelo://app?vid=54fd0f51-0eaa-4b41-9049-c6571d7cfb82"},"vehicle_type_id":"4","last_reported":1703185439,"current_range_meters":0,"station_id":"","pricing_plan_id":"free"},{"bike_id":"8b5e7889-e14e-4571-85f2-b07023ace39e","system_id":"levelo_inurba_marseille","lat":43.317075,"lon":5.377367,"is_reserved":false,"is_disabled":false,"rental_uris":{"android":"levelo://app?vid=8b5e7889-e14e-4571-85f2-b07023ace39e","ios":"levelo://app?vid=8b5e7889-e14e-4571-85f2-b07023ace39e"},"vehicle_type_id":"4","last_reported":1703185439,"current_range_meters":31200,"station_id":"ce4bgth2rcd13ifvqch0","pricing_plan_id":"free"},{"bike_id":"7dc86dff-5bab-459a-b72a-161577a4ca9b","system_id":"levelo_inurba_marseille","lat":43.303046,"lon":5.368981,"is_reserved":false,"is_disabled":false,"rental_uris":{"android":"levelo://app?vid=7dc86dff-5bab-459a-b72a-161577a4ca9b","ios":"levelo://app?vid=7dc86dff-5bab-459a-b72a-161577a4ca9b"},"vehicle_type_id":"4","last_reported":1703185439,"current_range_meters":16800,"station_id":"ce4bgqh2rcd13ifvqc5g","pricing_plan_id":"free"},{"bike_id":"6c662160-2878-403e-9cb2-748204edb49f","system_id":"levelo_inurba_marseille","lat":43.315404,"lon":5.380261,"is_reserved":false,"is_disabled":false,"rental_uris":{"android":"levelo://app?vid=6c662160-2878-403e-9cb2-748204edb49f","ios":"levelo://app?vid=6c662160-2878-403e-9cb2-748204edb49f"},"vehicle_type_id":"4","last_reported":1703185439,"current_range_meters":6800,"station_id":"ce4bhsp2rcd13ifvqi50","pricing_plan_id":"free"},{"bike_id":"26e4b55d-4243-4287-9e88-fbeda384b486","system_id":"levelo_inurba_marseille","lat":43.31076,"lon":5.381903,"is_reserved":false,"is_disabled":false,"rental_uris":{"android":"levelo://app?vid=26e4b55d-4243-4287-9e88-fbeda384b486","ios":"levelo://app?vid=26e4b55d-4243-4287-9e88-fbeda384b486"},"vehicle_type_id":"4","last_reported":1703185439,"current_range_meters":13200,"station_id":"","pricing_plan_id":"free"},{"bike_id":"0f29f9fc-ade1-445d-ba8d-4631c9525c9b","system_id":"levelo_inurba_marseille","lat":43.30636,"lon":5.37995,"is_reserved":false,"is_disabled":false,"rental_uris":{"android":"levelo://app?vid=0f29f9fc-ade1-445d-ba8d-4631c9525c9b","ios":"levelo://app?vid=0f29f9fc-ade1-445d-ba8d-4631c9525c9b"},"vehicle_type_id":"4","last_reported":1703185439,"current_range_meters":0,"station_id":"","pricing_plan_id":"free"},{"bike_id":"4b0f96b0-699e-49a5-8abc-5726ab8a3e6e","system_id":"levelo_inurba_marseille","lat":43.308012,"lon":5.381511,"is_reserved":false,"is_disabled":false,"rental_uris":{"android":"levelo://app?vid=4b0f96b0-699e-49a5-8abc-5726ab8a3e6e","ios":"levelo://app?vid=4b0f96b0-699e-49a5-8abc-5726ab8a3e6e"},"vehicle_type_id":"4","last_reported":1703185439,"current_range_meters":4000,"station_id":"ce4bgt12rcd13ifvqce0","pricing_plan_id":"free"},{"bike_id":"868fca57-423f-485e-ac33-fe6381c2fcd5","system_id":"levelo_inurba_marseille","lat":43.308012,"lon":5.381511,"is_reserved":false,"is_disabled":false,"rental_uris":{"android":"levelo://app?vid=868fca57-423f-485e-ac33-fe6381c2fcd5","ios":"levelo://app?vid=868fca57-423f-485e-ac33-fe6381c2fcd5"},"vehicle_type_id":"4","last_reported":1703185439,"current_range_meters":10000,"station_id":"ce4bgt12rcd13ifvqce0","pricing_plan_id":"free"},{"bike_id":"4334f9cc-ce9d-4e8c-8677-fdf243b76fd4","system_id":"levelo_inurba_marseille","lat":43.30143,"lon":5.37413,"is_reserved":false,"is_disabled":false,"rental_uris":{"android":"levelo://app?vid=4334f9cc-ce9d-4e8c-8677-fdf243b76fd4","ios":"levelo://app?vid=4334f9cc-ce9d-4e8c-8677-fdf243b76fd4"},"vehicle_type_id":"4","last_reported":1703185439,"current_range_meters":20000,"station_id":"ce4bgs92rcd13ifvqcc0","pricing_plan_id":"free"},{"bike_id":"dc0f6af5-c02c-4610-baea-e5c6ca16f530","system_id":"levelo_inurba_marseille","lat":43.3199,"lon":5.38142,"is_reserved":false,"is_disabled":false,"rental_uris":{"android":"levelo://app?vid=dc0f6af5-c02c-4610-baea-e5c6ca16f530","ios":"levelo://app?vid=dc0f6af5-c02c-4610-baea-e5c6ca16f530"},"vehicle_type_id":"4","last_reported":1703185439,"current_range_meters":31200,"station_id":"ce4bhr12rcd13ifvqhpg","pricing_plan_id":"free"},{"bike_id":"51360f23-00df-4b8c-b369-faeb35be788d","system_id":"levelo_inurba_marseille","lat":43.319935,"lon":5.381699,"is_reserved":false,"is_disabled":false,"rental_uris":{"android":"levelo://app?vid=51360f23-00df-4b8c-b369-faeb35be788d","ios":"levelo://app?vid=51360f23-00df-4b8c-b369-faeb35be788d"},"vehicle_type_id":"4","last_reported":1703185439,"current_range_meters":30000,"station_id":"ce4bhr12rcd13ifvqhpg","pricing_plan_id":"free"},{"bike_id":"0effb7f6-23e5-4f02-a1eb-80bdf14a191a","system_id":"levelo_inurba_marseille","lat":43.319957,"lon":5.381513,"is_reserved":false,"is_disabled":false,"rental_uris":{"android":"levelo://app?vid=0effb7f6-23e5-4f02-a1eb-80bdf14a191a","ios":"levelo://app?vid=0effb7f6-23e5-4f02-a1eb-80bdf14a191a"},"vehicle_type_id":"4","last_reported":1703185439,"current_range_meters":31200,"station_id":"ce4bhr12rcd13ifvqhpg","pricing_plan_id":"free"},{"bike_id":"af0ab532-e26f-41d4-b9ce-17ae08ae4cee","system_id":"levelo_inurba_marseille","lat":43.320005,"lon":5.381601,"is_reserved":false,"is_disabled":false,"rental_uris":{"android":"levelo://app?vid=af0ab532-e26f-41d4-b9ce-17ae08ae4cee","ios":"levelo://app?vid=af0ab532-e26f-41d4-b9ce-17ae08ae4cee"},"vehicle_type_id":"4","last_reported":1703185439,"current_range_meters":9600,"station_id":"ce4bhr12rcd13ifvqhpg","pricing_plan_id":"free"},{"bike_id":"500571ea-4fba-4810-9e11-0fd87d0b12b3","system_id":"levelo_inurba_marseille","lat":43.319935,"lon":5.381699,"is_reserved":false,"is_disabled":false,"rental_uris":{"android":"levelo://app?vid=500571ea-4fba-4810-9e11-0fd87d0b12b3","ios":"levelo://app?vid=500571ea-4fba-4810-9e11-0fd87d0b12b3"},"vehicle_type_id":"4","last_reported":1703185439,"current_range_meters":29600,"station_id":"ce4bhr12rcd13ifvqhpg","pricing_plan_id":"free"},{"bike_id":"f3f07a7e-ba2b-42a6-ad00-eeb4789434fe","system_id":"levelo_inurba_marseille","lat":43.313571,"lon":5.384829,"is_reserved":false,"is_disabled":false,"rental_uris":{"android":"levelo://app?vid=f3f07a7e-ba2b-42a6-ad00-eeb4789434fe","ios":"levelo://app?vid=f3f07a7e-ba2b-42a6-ad00-eeb4789434fe"},"vehicle_type_id":"4","last_reported":1703185439,"current_range_meters":14000,"station_id":"ce4bgt92rcd13ifvqcf0","pricing_plan_id":"free"},{"bike_id":"5ea9b21a-6aee-4010-924f-7df89d6c2d9b","system_id":"levelo_inurba_marseille","lat":43.313571,"lon":5.384829,"is_reserved":false,"is_disabled":false,"rental_uris":{"android":"levelo://app?vid=5ea9b21a-6aee-4010-924f-7df89d6c2d9b","ios":"levelo://app?vid=5ea9b21a-6aee-4010-924f-7df89d6c2d9b"},"vehicle_type_id":"4","last_reported":1703185439,"current_range_meters":10000,"station_id":"ce4bgt92rcd13ifvqcf0","pricing_plan_id":"free"},{"bike_id":"c2b48dfd-0893-4d7d-a920-91924f344d2d","system_id":"levelo_inurba_marseille","lat":43.313571,"lon":5.384829,"is_reserved":false,"is_disabled":false,"rental_uris":{"android":"levelo://app?vid=c2b48dfd-0893-4d7d-a920-91924f344d2d","ios":"levelo://app?vid=c2b48dfd-0893-4d7d-a920-91924f344d2d"},"vehicle_type_id":"4","last_reported":1703185439,"current_range_meters":22000,"station_id":"ce4bgt92rcd13ifvqcf0","pricing_plan_id":"free"},{"bike_id":"091a14ca-6f20-494f-9f75-c68f992b1c89","system_id":"levelo_inurba_marseille","lat":43.313571,"lon":5.384829,"is_reserved":false,"is_disabled":false,"rental_uris":{"android":"levelo://app?vid=091a14ca-6f20-494f-9f75-c68f992b1c89","ios":"levelo://app?vid=091a14ca-6f20-494f-9f75-c68f992b1c89"},"vehicle_type_id":"4","last_reported":1703185439,"current_range_meters":18000,"station_id":"ce4bgt92rcd13ifvqcf0","pricing_plan_id":"free"},{"bike_id":"f1c0c3e9-ac08-4a1d-882e-5abea29e8414","system_id":"levelo_inurba_marseille","lat":43.298433,"lon":5.362774,"is_reserved":false,"is_disabled":false,"rental_uris":{"android":"levelo://app?vid=f1c0c3e9-ac08-4a1d-882e-5abea29e8414","ios":"levelo://app?vid=f1c0c3e9-ac08-4a1d-882e-5abea29e8414"},"vehicle_type_id":"4","last_reported":1703185439,"current_range_meters":16400,"station_id":"ce4bgpp2rcd13ifvqc3g","pricing_plan_id":"free"},{"bike_id":"dbab9fd5-b9ac-40ca-a290-eecff9a91154","system_id":"levelo_inurba_marseille","lat":43.311722,"lon":5.387247,"is_reserved":false,"is_disabled":false,"rental_uris":{"android":"levelo://app?vid=dbab9fd5-b9ac-40ca-a290-eecff9a91154","ios":"levelo://app?vid=dbab9fd5-b9ac-40ca-a290-eecff9a91154"},"vehicle_type_id":"4","last_reported":1703185439,"current_range_meters":14800,"station_id":"ce4bgv12rcd13ifvqcp0","pricing_plan_id":"free"},{"bike_id":"0cdbd0f0-d3c9-4a82-8c6d-6ffa03bfbf25","system_id":"levelo_inurba_marseille","lat":43.326937,"lon":5.373183,"is_reserved":false,"is_disabled":false,"rental_uris":{"android":"levelo://app?vid=0cdbd0f0-d3c9-4a82-8c6d-6ffa03bfbf25","ios":"levelo://app?vid=0cdbd0f0-d3c9-4a82-8c6d-6ffa03bfbf25"},"vehicle_type_id":"4","last_reported":1703185439,"current_range_meters":19200,"station_id":"","pricing_plan_id":"free"},{"bike_id":"b58c4005-ed15-40ec-b249-38d0c39e7d3b","system_id":"levelo_inurba_marseille","lat":43.322872,"lon":5.382756,"is_reserved":false,"is_disabled":false,"rental_uris":{"android":"levelo://app?vid=b58c4005-ed15-40ec-b249-38d0c39e7d3b","ios":"levelo://app?vid=b58c4005-ed15-40ec-b249-38d0c39e7d3b"},"vehicle_type_id":"4","last_reported":1703185439,"current_range_meters":12800,"station_id":"ce4bhr12rcd13ifvqhqg","pricing_plan_id":"free"},{"bike_id":"2d0ccb8c-a8f7-4ee9-8463-316526ef0ad5","system_id":"levelo_inurba_marseille","lat":43.322872,"lon":5.382756,"is_reserved":false,"is_disabled":false,"rental_uris":{"android":"levelo://app?vid=2d0ccb8c-a8f7-4ee9-8463-316526ef0ad5","ios":"levelo://app?vid=2d0ccb8c-a8f7-4ee9-8463-316526ef0ad5"},"vehicle_type_id":"4","last_reported":1703185439,"current_range_meters":31600,"station_id":"ce4bhr12rcd13ifvqhqg","pricing_plan_id":"free"},{"bike_id":"f6678c52-8fdb-46d8-969e-3297a365c131","system_id":"levelo_inurba_marseille","lat":43.322872,"lon":5.382756,"is_reserved":false,"is_disabled":false,"rental_uris":{"android":"levelo://app?vid=f6678c52-8fdb-46d8-969e-3297a365c131","ios":"levelo://app?vid=f6678c52-8fdb-46d8-969e-3297a365c131"},"vehicle_type_id":"4","last_reported":1703185439,"current_range_meters":28000,"station_id":"ce4bhr12rcd13ifvqhqg","pricing_plan_id":"free"},{"bike_id":"e299beb3-acc1-46fa-9fec-22d2fe5e6b13","system_id":"levelo_inurba_marseille","lat":43.328371,"lon":5.366912,"is_reserved":false,"is_disabled":false,"rental_uris":{"android":"levelo://app?vid=e299beb3-acc1-46fa-9fec-22d2fe5e6b13","ios":"levelo://app?vid=e299beb3-acc1-46fa-9fec-22d2fe5e6b13"},"vehicle_type_id":"4","last_reported":1703185439,"current_range_meters":21200,"station_id":"ce4bhs92rcd13ifvqi0g","pricing_plan_id":"free"},{"bike_id":"8bf0395d-c27d-407d-bf00-1fe14b7d1f01","system_id":"levelo_inurba_marseille","lat":43.328371,"lon":5.366912,"is_reserved":false,"is_disabled":false,"rental_uris":{"android":"levelo://app?vid=8bf0395d-c27d-407d-bf00-1fe14b7d1f01","ios":"levelo://app?vid=8bf0395d-c27d-407d-bf00-1fe14b7d1f01"},"vehicle_type_id":"4","last_reported":1703185439,"current_range_meters":8800,"station_id":"ce4bhs92rcd13ifvqi0g","pricing_plan_id":"free"},{"bike_id":"c5cae810-39cc-4218-86e0-83a8342df03b","system_id":"levelo_inurba_marseille","lat":43.328371,"lon":5.366909,"is_reserved":false,"is_disabled":false,"rental_uris":{"android":"levelo://app?vid=c5cae810-39cc-4218-86e0-83a8342df03b","ios":"levelo://app?vid=c5cae810-39cc-4218-86e0-83a8342df03b"},"vehicle_type_id":"4","last_reported":1703185439,"current_range_meters":12000,"station_id":"ce4bhs92rcd13ifvqi0g","pricing_plan_id":"free"},{"bike_id":"370d9ea3-3908-47d0-afdc-21b55e46585e","system_id":"levelo_inurba_marseille","lat":43.2968,"lon":5.37291,"is_reserved":false,"is_disabled":false,"rental_uris":{"android":"levelo://app?vid=370d9ea3-3908-47d0-afdc-21b55e46585e","ios":"levelo://app?vid=370d9ea3-3908-47d0-afdc-21b55e46585e"},"vehicle_type_id":"4","last_reported":1703185439,"current_range_meters":8800,"station_id":"ce4bgk12rcd13ifvqbj0","pricing_plan_id":"free"},{"bike_id":"220dbcc5-f9b9-4ec1-a000-a1e02fed0e9b","system_id":"levelo_inurba_marseille","lat":43.295933,"lon":5.367813,"is_reserved":false,"is_disabled":false,"rental_uris":{"android":"levelo://app?vid=220dbcc5-f9b9-4ec1-a000-a1e02fed0e9b","ios":"levelo://app?vid=220dbcc5-f9b9-4ec1-a000-a1e02fed0e9b"},"vehicle_type_id":"4","last_reported":1703185439,"current_range_meters":24000,"station_id":"ce4bgph2rcd13ifvqc2g","pricing_plan_id":"free"},{"bike_id":"6a4d5180-7ce1-4ea8-b3ba-4ca844cad426","system_id":"levelo_inurba_marseille","lat":43.296131,"lon":5.370791,"is_reserved":false,"is_disabled":false,"rental_uris":{"android":"levelo://app?vid=6a4d5180-7ce1-4ea8-b3ba-4ca844cad426","ios":"levelo://app?vid=6a4d5180-7ce1-4ea8-b3ba-4ca844cad426"},"vehicle_type_id":"4","last_reported":1703185439,"current_range_meters":13600,"station_id":"ce4bgnh2rcd13ifvqc0g","pricing_plan_id":"free"},{"bike_id":"21e82a2a-58fb-4ab1-a52e-e859fc88bd1c","system_id":"levelo_inurba_marseille","lat":43.296129,"lon":5.370777,"is_reserved":false,"is_disabled":false,"rental_uris":{"android":"levelo://app?vid=21e82a2a-58fb-4ab1-a52e-e859fc88bd1c","ios":"levelo://app?vid=21e82a2a-58fb-4ab1-a52e-e859fc88bd1c"},"vehicle_type_id":"4","last_reported":1703185439,"current_range_meters":11200,"station_id":"ce4bgnh2rcd13ifvqc0g","pricing_plan_id":"free"},{"bike_id":"3236765f-02c6-4312-8f32-7472f823bee6","system_id":"levelo_inurba_marseille","lat":43.309589,"lon":5.390258,"is_reserved":false,"is_disabled":false,"rental_uris":{"android":"levelo://app?vid=3236765f-02c6-4312-8f32-7472f823bee6","ios":"levelo://app?vid=3236765f-02c6-4312-8f32-7472f823bee6"},"vehicle_type_id":"4","last_reported":1703185439,"current_range_meters":0,"station_id":"ce4bgup2rcd13ifvqco0","pricing_plan_id":"free"},{"bike_id":"04ca680c-0493-4f1b-9ef8-db1e704523dd","system_id":"levelo_inurba_marseille","lat":43.31758,"lon":5.39006,"is_reserved":false,"is_disabled":false,"rental_uris":{"android":"levelo://app?vid=04ca680c-0493-4f1b-9ef8-db1e704523dd","ios":"levelo://app?vid=04ca680c-0493-4f1b-9ef8-db1e704523dd"},"vehicle_type_id":"4","last_reported":1703185439,"current_range_meters":24400,"station_id":"ce4bhqp2rcd13ifvqhng","pricing_plan_id":"free"},{"bike_id":"7b89b0ee-9ba8-4aaf-8663-348001241aa8","system_id":"levelo_inurba_marseille","lat":43.317557,"lon":5.390173,"is_reserved":false,"is_disabled":false,"rental_uris":{"android":"levelo://app?vid=7b89b0ee-9ba8-4aaf-8663-348001241aa8","ios":"levelo://app?vid=7b89b0ee-9ba8-4aaf-8663-348001241aa8"},"vehicle_type_id":"4","last_reported":1703185439,"current_range_meters":26800,"station_id":"ce4bhqp2rcd13ifvqhng","pricing_plan_id":"free"},{"bike_id":"834b9782-39e8-4602-8b8d-ea95026281ec","system_id":"levelo_inurba_marseille","lat":43.31764,"lon":5.39008,"is_reserved":false,"is_disabled":false,"rental_uris":{"android":"levelo://app?vid=834b9782-39e8-4602-8b8d-ea95026281ec","ios":"levelo://app?vid=834b9782-39e8-4602-8b8d-ea95026281ec"},"vehicle_type_id":"4","last_reported":1703185439,"current_range_meters":3200,"station_id":"ce4bhqp2rcd13ifvqhng","pricing_plan_id":"free"},{"bike_id":"53d02047-2fc2-4d30-88b2-583fd58923ab","system_id":"levelo_inurba_marseille","lat":43.317557,"lon":5.390173,"is_reserved":false,"is_disabled":false,"rental_uris":{"android":"levelo://app?vid=53d02047-2fc2-4d30-88b2-583fd58923ab","ios":"levelo://app?vid=53d02047-2fc2-4d30-88b2-583fd58923ab"},"vehicle_type_id":"4","last_reported":1703185439,"current_range_meters":17200,"station_id":"ce4bhqp2rcd13ifvqhng","pricing_plan_id":"free"},{"bike_id":"085e0075-2732-47ec-8031-4240c90cd639","system_id":"levelo_inurba_marseille","lat":43.317557,"lon":5.390173,"is_reserved":false,"is_disabled":false,"rental_uris":{"android":"levelo://app?vid=085e0075-2732-47ec-8031-4240c90cd639","ios":"levelo://app?vid=085e0075-2732-47ec-8031-4240c90cd639"},"vehicle_type_id":"4","last_reported":1703185439,"current_range_meters":28000,"station_id":"ce4bhqp2rcd13ifvqhng","pricing_plan_id":"free"},{"bike_id":"dec37b35-0dde-45c1-8f8a-471fa6363f31","system_id":"levelo_inurba_marseille","lat":43.296263,"lon":5.377094,"is_reserved":false,"is_disabled":false,"rental_uris":{"android":"levelo://app?vid=dec37b35-0dde-45c1-8f8a-471fa6363f31","ios":"levelo://app?vid=dec37b35-0dde-45c1-8f8a-471fa6363f31"},"vehicle_type_id":"4","last_reported":1703185439,"current_range_meters":4400,"station_id":"ce4bgi92rcd13ifvqb90","pricing_plan_id":"free"},{"bike_id":"2ed194e5-ee02-4f73-bff2-ecfb7878281c","system_id":"levelo_inurba_marseille","lat":43.29973,"lon":5.38493,"is_reserved":false,"is_disabled":false,"rental_uris":{"android":"levelo://app?vid=2ed194e5-ee02-4f73-bff2-ecfb7878281c","ios":"levelo://app?vid=2ed194e5-ee02-4f73-bff2-ecfb7878281c"},"vehicle_type_id":"4","last_reported":1703185439,"current_range_meters":0,"station_id":"ce4bgj92rcd13ifvqbd0","pricing_plan_id":"free"},{"bike_id":"1378810b-812d-44e5-847a-1b7aeb90e4c4","system_id":"levelo_inurba_marseille","lat":43.2965,"lon":5.37943,"is_reserved":false,"is_disabled":false,"rental_uris":{"android":"levelo://app?vid=1378810b-812d-44e5-847a-1b7aeb90e4c4","ios":"levelo://app?vid=1378810b-812d-44e5-847a-1b7aeb90e4c4"},"vehicle_type_id":"4","last_reported":1703185439,"current_range_meters":15200,"station_id":"","pricing_plan_id":"free"},{"bike_id":"4ec7f9ee-3059-4281-9f08-dc41f2a9f5d0","system_id":"levelo_inurba_marseille","lat":43.32362,"lon":5.38881,"is_reserved":false,"is_disabled":false,"rental_uris":{"android":"levelo://app?vid=4ec7f9ee-3059-4281-9f08-dc41f2a9f5d0","ios":"levelo://app?vid=4ec7f9ee-3059-4281-9f08-dc41f2a9f5d0"},"vehicle_type_id":"4","last_reported":1703185439,"current_range_meters":10000,"station_id":"ce4bhqp2rcd13ifvqhog","pricing_plan_id":"free"},{"bike_id":"7825f2e2-5dc0-48bf-9610-bf0be308ff43","system_id":"levelo_inurba_marseille","lat":43.32365,"lon":5.38884,"is_reserved":false,"is_disabled":false,"rental_uris":{"android":"levelo://app?vid=7825f2e2-5dc0-48bf-9610-bf0be308ff43","ios":"levelo://app?vid=7825f2e2-5dc0-48bf-9610-bf0be308ff43"},"vehicle_type_id":"4","last_reported":1703185439,"current_range_meters":1600,"station_id":"ce4bhqp2rcd13ifvqhog","pricing_plan_id":"free"},{"bike_id":"6bc005d8-6c9e-4ae1-b98d-409c3cb65d81","system_id":"levelo_inurba_marseille","lat":43.32367,"lon":5.388836,"is_reserved":false,"is_disabled":false,"rental_uris":{"android":"levelo://app?vid=6bc005d8-6c9e-4ae1-b98d-409c3cb65d81","ios":"levelo://app?vid=6bc005d8-6c9e-4ae1-b98d-409c3cb65d81"},"vehicle_type_id":"4","last_reported":1703185439,"current_range_meters":15600,"station_id":"ce4bhqp2rcd13ifvqhog","pricing_plan_id":"free"},{"bike_id":"7916e6e9-6f81-404e-8123-c08538fec0a4","system_id":"levelo_inurba_marseille","lat":43.29602,"lon":5.381084,"is_reserved":false,"is_disabled":false,"rental_uris":{"android":"levelo://app?vid=7916e6e9-6f81-404e-8123-c08538fec0a4","ios":"levelo://app?vid=7916e6e9-6f81-404e-8123-c08538fec0a4"},"vehicle_type_id":"4","last_reported":1703185439,"current_range_meters":26800,"station_id":"ce4bgl12rcd13ifvqbo0","pricing_plan_id":"free"},{"bike_id":"0239e59f-bcf2-4e90-b056-e2683667bb66","system_id":"levelo_inurba_marseille","lat":43.29601,"lon":5.381084,"is_reserved":false,"is_disabled":false,"rental_uris":{"android":"levelo://app?vid=0239e59f-bcf2-4e90-b056-e2683667bb66","ios":"levelo://app?vid=0239e59f-bcf2-4e90-b056-e2683667bb66"},"vehicle_type_id":"4","last_reported":1703185439,"current_range_meters":6000,"station_id":"ce4bgl12rcd13ifvqbo0","pricing_plan_id":"free"},{"bike_id":"68808904-4d93-4413-9b60-a2a165f80eef","system_id":"levelo_inurba_marseille","lat":43.293249,"lon":5.371578,"is_reserved":false,"is_disabled":false,"rental_uris":{"android":"levelo://app?vid=68808904-4d93-4413-9b60-a2a165f80eef","ios":"levelo://app?vid=68808904-4d93-4413-9b60-a2a165f80eef"},"vehicle_type_id":"4","last_reported":1703185439,"current_range_meters":4400,"station_id":"ce4bgh92rcd13ifvqb40","pricing_plan_id":"free"},{"bike_id":"75c9d556-740b-443e-a8f8-211dd8f7971f","system_id":"levelo_inurba_marseille","lat":43.292749,"lon":5.368402,"is_reserved":false,"is_disabled":false,"rental_uris":{"android":"levelo://app?vid=75c9d556-740b-443e-a8f8-211dd8f7971f","ios":"levelo://app?vid=75c9d556-740b-443e-a8f8-211dd8f7971f"},"vehicle_type_id":"4","last_reported":1703185439,"current_range_meters":26000,"station_id":"ce4bhbp2rcd13ifvqesg","pricing_plan_id":"free"},{"bike_id":"3e06fe94-f243-4863-a02b-94a2e4098a4f","system_id":"levelo_inurba_marseille","lat":43.293009,"lon":5.374584,"is_reserved":false,"is_disabled":false,"rental_uris":{"android":"levelo://app?vid=3e06fe94-f243-4863-a02b-94a2e4098a4f","ios":"levelo://app?vid=3e06fe94-f243-4863-a02b-94a2e4098a4f"},"vehicle_type_id":"4","last_reported":1703185439,"current_range_meters":3200,"station_id":"ce4bgi12rcd13ifvqb70","pricing_plan_id":"free"},{"bike_id":"d802df99-22c5-48bb-b893-98e1c9040c83","system_id":"levelo_inurba_marseille","lat":43.302992,"lon":5.392136,"is_reserved":false,"is_disabled":false,"rental_uris":{"android":"levelo://app?vid=d802df99-22c5-48bb-b893-98e1c9040c83","ios":"levelo://app?vid=d802df99-22c5-48bb-b893-98e1c9040c83"},"vehicle_type_id":"4","last_reported":1703185439,"current_range_meters":8800,"station_id":"ce4bgkh2rcd13ifvqbk0","pricing_plan_id":"free"},{"bike_id":"faeea47f-ba27-44bd-84c2-29e701f3899a","system_id":"levelo_inurba_marseille","lat":43.292311,"lon":5.360731,"is_reserved":false,"is_disabled":false,"rental_uris":{"android":"levelo://app?vid=faeea47f-ba27-44bd-84c2-29e701f3899a","ios":"levelo://app?vid=faeea47f-ba27-44bd-84c2-29e701f3899a"},"vehicle_type_id":"4","last_reported":1703185439,"current_range_meters":20400,"station_id":"ce4bhbh2rcd13ifvqeqg","pricing_plan_id":"free"},{"bike_id":"27bd29fc-1b02-4033-9aa2-e2843e4059a3","system_id":"levelo_inurba_marseille","lat":43.292311,"lon":5.360731,"is_reserved":false,"is_disabled":false,"rental_uris":{"android":"levelo://app?vid=27bd29fc-1b02-4033-9aa2-e2843e4059a3","ios":"levelo://app?vid=27bd29fc-1b02-4033-9aa2-e2843e4059a3"},"vehicle_type_id":"4","last_reported":1703185439,"current_range_meters":3200,"station_id":"ce4bhbh2rcd13ifvqeqg","pricing_plan_id":"free"},{"bike_id":"83411000-9eef-44d9-a4bd-f62f4d0cdba0","system_id":"levelo_inurba_marseille","lat":43.292311,"lon":5.360731,"is_reserved":false,"is_disabled":false,"rental_uris":{"android":"levelo://app?vid=83411000-9eef-44d9-a4bd-f62f4d0cdba0","ios":"levelo://app?vid=83411000-9eef-44d9-a4bd-f62f4d0cdba0"},"vehicle_type_id":"4","last_reported":1703185439,"current_range_meters":23600,"station_id":"ce4bhbh2rcd13ifvqeqg","pricing_plan_id":"free"},{"bike_id":"15a153ba-ba6b-4237-944f-1613178f4414","system_id":"levelo_inurba_marseille","lat":43.300852,"lon":5.390859,"is_reserved":false,"is_disabled":false,"rental_uris":{"android":"levelo://app?vid=15a153ba-ba6b-4237-944f-1613178f4414","ios":"levelo://app?vid=15a153ba-ba6b-4237-944f-1613178f4414"},"vehicle_type_id":"4","last_reported":1703185439,"current_range_meters":21600,"station_id":"ce4bh192rcd13ifvqdb0","pricing_plan_id":"free"},{"bike_id":"2c162389-ccf1-41b1-859f-2ade00cc9813","system_id":"levelo_inurba_marseille","lat":43.302992,"lon":5.392136,"is_reserved":false,"is_disabled":false,"rental_uris":{"android":"levelo://app?vid=2c162389-ccf1-41b1-859f-2ade00cc9813","ios":"levelo://app?vid=2c162389-ccf1-41b1-859f-2ade00cc9813"},"vehicle_type_id":"4","last_reported":1703185439,"current_range_meters":0,"station_id":"ce4bgkh2rcd13ifvqbk0","pricing_plan_id":"free"},{"bike_id":"b92d8c08-4834-44b1-858c-d7cabc5a10f3","system_id":"levelo_inurba_marseille","lat":43.292615,"lon":5.376197,"is_reserved":false,"is_disabled":false,"rental_uris":{"android":"levelo://app?vid=b92d8c08-4834-44b1-858c-d7cabc5a10f3","ios":"levelo://app?vid=b92d8c08-4834-44b1-858c-d7cabc5a10f3"},"vehicle_type_id":"4","last_reported":1703185439,"current_range_meters":26000,"station_id":"","pricing_plan_id":"free"},{"bike_id":"e2cd3274-80e1-44d0-b122-63a88b800651","system_id":"levelo_inurba_marseille","lat":43.29864,"lon":5.38906,"is_reserved":false,"is_disabled":false,"rental_uris":{"android":"levelo://app?vid=e2cd3274-80e1-44d0-b122-63a88b800651","ios":"levelo://app?vid=e2cd3274-80e1-44d0-b122-63a88b800651"},"vehicle_type_id":"4","last_reported":1703185439,"current_range_meters":9600,"station_id":"","pricing_plan_id":"free"},{"bike_id":"434d14e8-130f-405b-8158-613dd2934d56","system_id":"levelo_inurba_marseille","lat":43.313291,"lon":5.396838,"is_reserved":false,"is_disabled":false,"rental_uris":{"android":"levelo://app?vid=434d14e8-130f-405b-8158-613dd2934d56","ios":"levelo://app?vid=434d14e8-130f-405b-8158-613dd2934d56"},"vehicle_type_id":"4","last_reported":1703185439,"current_range_meters":18000,"station_id":"ce4bgvp2rcd13ifvqcu0","pricing_plan_id":"free"},{"bike_id":"e15180be-0f1e-4dc8-acdb-8d6edc541f43","system_id":"levelo_inurba_marseille","lat":43.313291,"lon":5.396838,"is_reserved":false,"is_disabled":false,"rental_uris":{"android":"levelo://app?vid=e15180be-0f1e-4dc8-acdb-8d6edc541f43","ios":"levelo://app?vid=e15180be-0f1e-4dc8-acdb-8d6edc541f43"},"vehicle_type_id":"4","last_reported":1703185439,"current_range_meters":19200,"station_id":"ce4bgvp2rcd13ifvqcu0","pricing_plan_id":"free"},{"bike_id":"127dfa27-f430-4a3f-b2bc-3816a71f2c0e","system_id":"levelo_inurba_marseille","lat":43.313291,"lon":5.396838,"is_reserved":false,"is_disabled":false,"rental_uris":{"android":"levelo://app?vid=127dfa27-f430-4a3f-b2bc-3816a71f2c0e","ios":"levelo://app?vid=127dfa27-f430-4a3f-b2bc-3816a71f2c0e"},"vehicle_type_id":"4","last_reported":1703185439,"current_range_meters":10000,"station_id":"ce4bgvp2rcd13ifvqcu0","pricing_plan_id":"free"},{"bike_id":"45f99cda-befa-42ee-a2ee-ea05b8e79130","system_id":"levelo_inurba_marseille","lat":43.313291,"lon":5.396838,"is_reserved":false,"is_disabled":false,"rental_uris":{"android":"levelo://app?vid=45f99cda-befa-42ee-a2ee-ea05b8e79130","ios":"levelo://app?vid=45f99cda-befa-42ee-a2ee-ea05b8e79130"},"vehicle_type_id":"4","last_reported":1703185439,"current_range_meters":13600,"station_id":"ce4bgvp2rcd13ifvqcu0","pricing_plan_id":"free"},{"bike_id":"1509a640-caa2-474c-af59-5a2373d66749","system_id":"levelo_inurba_marseille","lat":43.309047,"lon":5.396551,"is_reserved":false,"is_disabled":false,"rental_uris":{"android":"levelo://app?vid=1509a640-caa2-474c-af59-5a2373d66749","ios":"levelo://app?vid=1509a640-caa2-474c-af59-5a2373d66749"},"vehicle_type_id":"4","last_reported":1703185439,"current_range_meters":12400,"station_id":"ce4bh012rcd13ifvqcv0","pricing_plan_id":"free"},{"bike_id":"7600b465-ae55-430f-a74a-3301103ebfcf","system_id":"levelo_inurba_marseille","lat":43.313291,"lon":5.396838,"is_reserved":false,"is_disabled":false,"rental_uris":{"android":"levelo://app?vid=7600b465-ae55-430f-a74a-3301103ebfcf","ios":"levelo://app?vid=7600b465-ae55-430f-a74a-3301103ebfcf"},"vehicle_type_id":"4","last_reported":1703185439,"current_range_meters":16800,"station_id":"ce4bgvp2rcd13ifvqcu0","pricing_plan_id":"free"},{"bike_id":"569df881-44aa-4fb0-bd43-e2c14ad0998e","system_id":"levelo_inurba_marseille","lat":43.309038,"lon":5.396546,"is_reserved":false,"is_disabled":false,"rental_uris":{"android":"levelo://app?vid=569df881-44aa-4fb0-bd43-e2c14ad0998e","ios":"levelo://app?vid=569df881-44aa-4fb0-bd43-e2c14ad0998e"},"vehicle_type_id":"4","last_reported":1703185439,"current_range_meters":8400,"station_id":"ce4bh012rcd13ifvqcv0","pricing_plan_id":"free"},{"bike_id":"dadec077-0df0-4e3f-a2e2-94987a23d35f","system_id":"levelo_inurba_marseille","lat":43.313291,"lon":5.396838,"is_reserved":false,"is_disabled":false,"rental_uris":{"android":"levelo://app?vid=dadec077-0df0-4e3f-a2e2-94987a23d35f","ios":"levelo://app?vid=dadec077-0df0-4e3f-a2e2-94987a23d35f"},"vehicle_type_id":"4","last_reported":1703185439,"current_range_meters":27200,"station_id":"ce4bgvp2rcd13ifvqcu0","pricing_plan_id":"free"},{"bike_id":"1af84a73-b783-457e-92ef-e30155ecda9c","system_id":"levelo_inurba_marseille","lat":43.29529,"lon":5.385581,"is_reserved":false,"is_disabled":false,"rental_uris":{"android":"levelo://app?vid=1af84a73-b783-457e-92ef-e30155ecda9c","ios":"levelo://app?vid=1af84a73-b783-457e-92ef-e30155ecda9c"},"vehicle_type_id":"4","last_reported":1703185439,"current_range_meters":11200,"station_id":"ce4bgih2rcd13ifvqba0","pricing_plan_id":"free"},{"bike_id":"646aa426-8011-41bb-8ffb-f47708074642","system_id":"levelo_inurba_marseille","lat":43.290327,"lon":5.375711,"is_reserved":false,"is_disabled":false,"rental_uris":{"android":"levelo://app?vid=646aa426-8011-41bb-8ffb-f47708074642","ios":"levelo://app?vid=646aa426-8011-41bb-8ffb-f47708074642"},"vehicle_type_id":"4","last_reported":1703185439,"current_range_meters":7600,"station_id":"ce4bh692rcd13ifvqe90","pricing_plan_id":"free"},{"bike_id":"2c51a7d7-10e8-4270-a7c5-a48ac13c40b9","system_id":"levelo_inurba_marseille","lat":43.290779,"lon":5.371482,"is_reserved":false,"is_disabled":false,"rental_uris":{"android":"levelo://app?vid=2c51a7d7-10e8-4270-a7c5-a48ac13c40b9","ios":"levelo://app?vid=2c51a7d7-10e8-4270-a7c5-a48ac13c40b9"},"vehicle_type_id":"4","last_reported":1703185439,"current_range_meters":21600,"station_id":"ce4bh5p2rcd13ifvqe4g","pricing_plan_id":"free"},{"bike_id":"e0b733d2-1149-4b09-a7e6-851a2c15bca4","system_id":"levelo_inurba_marseille","lat":43.293515,"lon":5.383475,"is_reserved":false,"is_disabled":false,"rental_uris":{"android":"levelo://app?vid=e0b733d2-1149-4b09-a7e6-851a2c15bca4","ios":"levelo://app?vid=e0b733d2-1149-4b09-a7e6-851a2c15bca4"},"vehicle_type_id":"4","last_reported":1703185439,"current_range_meters":4000,"station_id":"","pricing_plan_id":"free"},{"bike_id":"6f7c93d2-c5a6-44bb-bb95-2061367c2b18","system_id":"levelo_inurba_marseille","lat":43.302008,"lon":5.394694,"is_reserved":false,"is_disabled":false,"rental_uris":{"android":"levelo://app?vid=6f7c93d2-c5a6-44bb-bb95-2061367c2b18","ios":"levelo://app?vid=6f7c93d2-c5a6-44bb-bb95-2061367c2b18"},"vehicle_type_id":"4","last_reported":1703185439,"current_range_meters":24000,"station_id":"ce4bh0p2rcd13ifvqd70","pricing_plan_id":"free"},{"bike_id":"e392edd0-487b-4a37-8732-76c2e32089d9","system_id":"levelo_inurba_marseille","lat":43.290327,"lon":5.375711,"is_reserved":false,"is_disabled":false,"rental_uris":{"android":"levelo://app?vid=e392edd0-487b-4a37-8732-76c2e32089d9","ios":"levelo://app?vid=e392edd0-487b-4a37-8732-76c2e32089d9"},"vehicle_type_id":"4","last_reported":1703185439,"current_range_meters":400,"station_id":"ce4bh692rcd13ifvqe90","pricing_plan_id":"free"},{"bike_id":"d4fda49b-f123-4ea3-afc8-b141b7d88259","system_id":"levelo_inurba_marseille","lat":43.290624,"lon":5.359245,"is_reserved":false,"is_disabled":false,"rental_uris":{"android":"levelo://app?vid=d4fda49b-f123-4ea3-afc8-b141b7d88259","ios":"levelo://app?vid=d4fda49b-f123-4ea3-afc8-b141b7d88259"},"vehicle_type_id":"4","last_reported":1703185439,"current_range_meters":16400,"station_id":"ce4bha92rcd13ifvqeg0","pricing_plan_id":"free"},{"bike_id":"0c9916d5-fcc3-4b7d-918c-287a16a8859c","system_id":"levelo_inurba_marseille","lat":43.290779,"lon":5.371482,"is_reserved":false,"is_disabled":false,"rental_uris":{"android":"levelo://app?vid=0c9916d5-fcc3-4b7d-918c-287a16a8859c","ios":"levelo://app?vid=0c9916d5-fcc3-4b7d-918c-287a16a8859c"},"vehicle_type_id":"4","last_reported":1703185439,"current_range_meters":400,"station_id":"ce4bh5p2rcd13ifvqe4g","pricing_plan_id":"free"},{"bike_id":"deb53a65-5fc5-45a5-8b69-417dc04f1d73","system_id":"levelo_inurba_marseille","lat":43.289184,"lon":5.366408,"is_reserved":false,"is_disabled":false,"rental_uris":{"android":"levelo://app?vid=deb53a65-5fc5-45a5-8b69-417dc04f1d73","ios":"levelo://app?vid=deb53a65-5fc5-45a5-8b69-417dc04f1d73"},"vehicle_type_id":"4","last_reported":1703185439,"current_range_meters":21200,"station_id":"ce4bhap2rcd13ifvqek0","pricing_plan_id":"free"},{"bike_id":"7c73c66a-52f3-4719-ab09-ac3f6b625aa4","system_id":"levelo_inurba_marseille","lat":43.289468,"lon":5.363719,"is_reserved":false,"is_disabled":false,"rental_uris":{"android":"levelo://app?vid=7c73c66a-52f3-4719-ab09-ac3f6b625aa4","ios":"levelo://app?vid=7c73c66a-52f3-4719-ab09-ac3f6b625aa4"},"vehicle_type_id":"4","last_reported":1703185439,"current_range_meters":6000,"station_id":"ce4bhc92rcd13ifvqetg","pricing_plan_id":"free"},{"bike_id":"e48f0a0c-1154-4e50-bd24-ab8ba67a0d55","system_id":"levelo_inurba_marseille","lat":43.289468,"lon":5.363719,"is_reserved":false,"is_disabled":false,"rental_uris":{"android":"levelo://app?vid=e48f0a0c-1154-4e50-bd24-ab8ba67a0d55","ios":"levelo://app?vid=e48f0a0c-1154-4e50-bd24-ab8ba67a0d55"},"vehicle_type_id":"4","last_reported":1703185439,"current_range_meters":20000,"station_id":"ce4bhc92rcd13ifvqetg","pricing_plan_id":"free"},{"bike_id":"8c404bac-54a1-460f-84b5-b74311771e79","system_id":"levelo_inurba_marseille","lat":43.289184,"lon":5.366408,"is_reserved":false,"is_disabled":false,"rental_uris":{"android":"levelo://app?vid=8c404bac-54a1-460f-84b5-b74311771e79","ios":"levelo://app?vid=8c404bac-54a1-460f-84b5-b74311771e79"},"vehicle_type_id":"4","last_reported":1703185439,"current_range_meters":12000,"station_id":"ce4bhap2rcd13ifvqek0","pricing_plan_id":"free"},{"bike_id":"62ec2162-47e2-4b75-8b87-70e19f088706","system_id":"levelo_inurba_marseille","lat":43.289468,"lon":5.363719,"is_reserved":false,"is_disabled":false,"rental_uris":{"android":"levelo://app?vid=62ec2162-47e2-4b75-8b87-70e19f088706","ios":"levelo://app?vid=62ec2162-47e2-4b75-8b87-70e19f088706"},"vehicle_type_id":"4","last_reported":1703185439,"current_range_meters":16400,"station_id":"ce4bhc92rcd13ifvqetg","pricing_plan_id":"free"},{"bike_id":"7997ce73-2ef7-4dca-8141-d819fdb1c652","system_id":"levelo_inurba_marseille","lat":43.292644,"lon":5.384257,"is_reserved":false,"is_disabled":false,"rental_uris":{"android":"levelo://app?vid=7997ce73-2ef7-4dca-8141-d819fdb1c652","ios":"levelo://app?vid=7997ce73-2ef7-4dca-8141-d819fdb1c652"},"vehicle_type_id":"4","last_reported":1703185439,"current_range_meters":7600,"station_id":"ce4bh692rcd13ifvqea0","pricing_plan_id":"free"},{"bike_id":"dcf54692-cb77-4cc6-a96a-e2e0bc3658f0","system_id":"levelo_inurba_marseille","lat":43.292644,"lon":5.384257,"is_reserved":false,"is_disabled":false,"rental_uris":{"android":"levelo://app?vid=dcf54692-cb77-4cc6-a96a-e2e0bc3658f0","ios":"levelo://app?vid=dcf54692-cb77-4cc6-a96a-e2e0bc3658f0"},"vehicle_type_id":"4","last_reported":1703185439,"current_range_meters":25600,"station_id":"ce4bh692rcd13ifvqea0","pricing_plan_id":"free"},{"bike_id":"aaf369e7-b0c4-4783-bce7-5c4e29d8ca47","system_id":"levelo_inurba_marseille","lat":43.292642,"lon":5.384254,"is_reserved":false,"is_disabled":false,"rental_uris":{"android":"levelo://app?vid=aaf369e7-b0c4-4783-bce7-5c4e29d8ca47","ios":"levelo://app?vid=aaf369e7-b0c4-4783-bce7-5c4e29d8ca47"},"vehicle_type_id":"4","last_reported":1703185439,"current_range_meters":0,"station_id":"ce4bh692rcd13ifvqea0","pricing_plan_id":"free"},{"bike_id":"345a7bd0-2eb9-4dbd-9c7e-44362099cdd7","system_id":"levelo_inurba_marseille","lat":43.290104,"lon":5.356111,"is_reserved":false,"is_disabled":false,"rental_uris":{"android":"levelo://app?vid=345a7bd0-2eb9-4dbd-9c7e-44362099cdd7","ios":"levelo://app?vid=345a7bd0-2eb9-4dbd-9c7e-44362099cdd7"},"vehicle_type_id":"4","last_reported":1703185439,"current_range_meters":6800,"station_id":"ce4bhb92rcd13ifvqen0","pricing_plan_id":"free"},{"bike_id":"fe04619a-837f-4215-99fb-c7797369a2b1","system_id":"levelo_inurba_marseille","lat":43.330442,"lon":5.389148,"is_reserved":false,"is_disabled":false,"rental_uris":{"android":"levelo://app?vid=fe04619a-837f-4215-99fb-c7797369a2b1","ios":"levelo://app?vid=fe04619a-837f-4215-99fb-c7797369a2b1"},"vehicle_type_id":"4","last_reported":1703185439,"current_range_meters":20800,"station_id":"ce4bhr92rcd13ifvqhrg","pricing_plan_id":"free"},{"bike_id":"ecd92225-94a1-4745-9564-b15af41113d1","system_id":"levelo_inurba_marseille","lat":43.290995,"lon":5.381361,"is_reserved":false,"is_disabled":false,"rental_uris":{"android":"levelo://app?vid=ecd92225-94a1-4745-9564-b15af41113d1","ios":"levelo://app?vid=ecd92225-94a1-4745-9564-b15af41113d1"},"vehicle_type_id":"4","last_reported":1703185439,"current_range_meters":24800,"station_id":"ce4bh512rcd13ifvqe2g","pricing_plan_id":"free"},{"bike_id":"5227440e-11f9-46cb-a231-ecfcdd196084","system_id":"levelo_inurba_marseille","lat":43.290995,"lon":5.381361,"is_reserved":false,"is_disabled":false,"rental_uris":{"android":"levelo://app?vid=5227440e-11f9-46cb-a231-ecfcdd196084","ios":"levelo://app?vid=5227440e-11f9-46cb-a231-ecfcdd196084"},"vehicle_type_id":"4","last_reported":1703185439,"current_range_meters":13200,"station_id":"ce4bh512rcd13ifvqe2g","pricing_plan_id":"free"},{"bike_id":"b6183fe8-f804-4533-b829-a7def76a2b3d","system_id":"levelo_inurba_marseille","lat":43.297815,"lon":5.393548,"is_reserved":false,"is_disabled":false,"rental_uris":{"android":"levelo://app?vid=b6183fe8-f804-4533-b829-a7def76a2b3d","ios":"levelo://app?vid=b6183fe8-f804-4533-b829-a7def76a2b3d"},"vehicle_type_id":"4","last_reported":1703185439,"current_range_meters":7600,"station_id":"chh1huq6cuj3fo74tm60","pricing_plan_id":"free"},{"bike_id":"cbe1899e-86be-41ce-99df-bb6792c76309","system_id":"levelo_inurba_marseille","lat":43.297815,"lon":5.393548,"is_reserved":false,"is_disabled":false,"rental_uris":{"android":"levelo://app?vid=cbe1899e-86be-41ce-99df-bb6792c76309","ios":"levelo://app?vid=cbe1899e-86be-41ce-99df-bb6792c76309"},"vehicle_type_id":"4","last_reported":1703185439,"current_range_meters":11600,"station_id":"chh1huq6cuj3fo74tm60","pricing_plan_id":"free"},{"bike_id":"79e4b87c-26bc-46ce-8458-2bd7d48658c1","system_id":"levelo_inurba_marseille","lat":43.297815,"lon":5.393548,"is_reserved":false,"is_disabled":false,"rental_uris":{"android":"levelo://app?vid=79e4b87c-26bc-46ce-8458-2bd7d48658c1","ios":"levelo://app?vid=79e4b87c-26bc-46ce-8458-2bd7d48658c1"},"vehicle_type_id":"4","last_reported":1703185439,"current_range_meters":7200,"station_id":"chh1huq6cuj3fo74tm60","pricing_plan_id":"free"},{"bike_id":"3250f256-f3fd-4ca3-bafc-3d1462b1fbba","system_id":"levelo_inurba_marseille","lat":43.295169,"lon":5.390426,"is_reserved":false,"is_disabled":false,"rental_uris":{"android":"levelo://app?vid=3250f256-f3fd-4ca3-bafc-3d1462b1fbba","ios":"levelo://app?vid=3250f256-f3fd-4ca3-bafc-3d1462b1fbba"},"vehicle_type_id":"4","last_reported":1703185439,"current_range_meters":14800,"station_id":"ce4bh3p2rcd13ifvqdp0","pricing_plan_id":"free"},{"bike_id":"b725e0ce-dd6c-4501-aab9-89b8b50fb190","system_id":"levelo_inurba_marseille","lat":43.289743,"lon":5.378304,"is_reserved":false,"is_disabled":false,"rental_uris":{"android":"levelo://app?vid=b725e0ce-dd6c-4501-aab9-89b8b50fb190","ios":"levelo://app?vid=b725e0ce-dd6c-4501-aab9-89b8b50fb190"},"vehicle_type_id":"4","last_reported":1703185439,"current_range_meters":16000,"station_id":"ce4bh9p2rcd13ifvqed0","pricing_plan_id":"free"},{"bike_id":"0c117c73-9b27-4175-b015-03e56caac421","system_id":"levelo_inurba_marseille","lat":43.295169,"lon":5.390426,"is_reserved":false,"is_disabled":false,"rental_uris":{"android":"levelo://app?vid=0c117c73-9b27-4175-b015-03e56caac421","ios":"levelo://app?vid=0c117c73-9b27-4175-b015-03e56caac421"},"vehicle_type_id":"4","last_reported":1703185439,"current_range_meters":0,"station_id":"ce4bh3p2rcd13ifvqdp0","pricing_plan_id":"free"},{"bike_id":"a64ac8c5-49c8-4ff2-8aba-dbc690fc5e6d","system_id":"levelo_inurba_marseille","lat":43.295169,"lon":5.390426,"is_reserved":false,"is_disabled":false,"rental_uris":{"android":"levelo://app?vid=a64ac8c5-49c8-4ff2-8aba-dbc690fc5e6d","ios":"levelo://app?vid=a64ac8c5-49c8-4ff2-8aba-dbc690fc5e6d"},"vehicle_type_id":"4","last_reported":1703185439,"current_range_meters":10000,"station_id":"ce4bh3p2rcd13ifvqdp0","pricing_plan_id":"free"},{"bike_id":"23fbaa12-52f3-46c0-b153-a464d5bbb758","system_id":"levelo_inurba_marseille","lat":43.295169,"lon":5.390426,"is_reserved":false,"is_disabled":false,"rental_uris":{"android":"levelo://app?vid=23fbaa12-52f3-46c0-b153-a464d5bbb758","ios":"levelo://app?vid=23fbaa12-52f3-46c0-b153-a464d5bbb758"},"vehicle_type_id":"4","last_reported":1703185439,"current_range_meters":12400,"station_id":"ce4bh3p2rcd13ifvqdp0","pricing_plan_id":"free"},{"bike_id":"0d2c0194-02b7-4eed-8aa6-25747b024d33","system_id":"levelo_inurba_marseille","lat":43.290094,"lon":5.381264,"is_reserved":false,"is_disabled":false,"rental_uris":{"android":"levelo://app?vid=0d2c0194-02b7-4eed-8aa6-25747b024d33","ios":"levelo://app?vid=0d2c0194-02b7-4eed-8aa6-25747b024d33"},"vehicle_type_id":"4","last_reported":1703185439,"current_range_meters":3600,"station_id":"ce4bh4p2rcd13ifvqe1g","pricing_plan_id":"free"},{"bike_id":"0758ba9b-eec1-4a13-8fa3-d200e4b83daf","system_id":"levelo_inurba_marseille","lat":43.312609,"lon":5.401662,"is_reserved":false,"is_disabled":false,"rental_uris":{"android":"levelo://app?vid=0758ba9b-eec1-4a13-8fa3-d200e4b83daf","ios":"levelo://app?vid=0758ba9b-eec1-4a13-8fa3-d200e4b83daf"},"vehicle_type_id":"4","last_reported":1703185439,"current_range_meters":19600,"station_id":"ce4bh092rcd13ifvqd30","pricing_plan_id":"free"},{"bike_id":"c56fcd11-ddc6-44b4-b77f-bffe46661ef8","system_id":"levelo_inurba_marseille","lat":43.309371,"lon":5.401449,"is_reserved":false,"is_disabled":false,"rental_uris":{"android":"levelo://app?vid=c56fcd11-ddc6-44b4-b77f-bffe46661ef8","ios":"levelo://app?vid=c56fcd11-ddc6-44b4-b77f-bffe46661ef8"},"vehicle_type_id":"4","last_reported":1703185439,"current_range_meters":16400,"station_id":"ce4bgvp2rcd13ifvqct0","pricing_plan_id":"free"},{"bike_id":"fe11a1ae-09a9-4be3-a255-98f73222b6c3","system_id":"levelo_inurba_marseille","lat":43.33751,"lon":5.37463,"is_reserved":false,"is_disabled":false,"rental_uris":{"android":"levelo://app?vid=fe11a1ae-09a9-4be3-a255-98f73222b6c3","ios":"levelo://app?vid=fe11a1ae-09a9-4be3-a255-98f73222b6c3"},"vehicle_type_id":"4","last_reported":1703185439,"current_range_meters":23600,"station_id":"","pricing_plan_id":"free"},{"bike_id":"7c460f08-bfcb-4707-8b32-419264b57ee6","system_id":"levelo_inurba_marseille","lat":43.33756,"lon":5.37438,"is_reserved":false,"is_disabled":false,"rental_uris":{"android":"levelo://app?vid=7c460f08-bfcb-4707-8b32-419264b57ee6","ios":"levelo://app?vid=7c460f08-bfcb-4707-8b32-419264b57ee6"},"vehicle_type_id":"4","last_reported":1703185439,"current_range_meters":26000,"station_id":"","pricing_plan_id":"free"},{"bike_id":"5c81a891-9f9f-45af-8799-b5e5314532fa","system_id":"levelo_inurba_marseille","lat":43.33757,"lon":5.37468,"is_reserved":false,"is_disabled":false,"rental_uris":{"android":"levelo://app?vid=5c81a891-9f9f-45af-8799-b5e5314532fa","ios":"levelo://app?vid=5c81a891-9f9f-45af-8799-b5e5314532fa"},"vehicle_type_id":"4","last_reported":1703185439,"current_range_meters":26400,"station_id":"","pricing_plan_id":"free"},{"bike_id":"337955db-d8ba-4f5e-b077-77e188f45be6","system_id":"levelo_inurba_marseille","lat":43.30652,"lon":5.40101,"is_reserved":false,"is_disabled":false,"rental_uris":{"android":"levelo://app?vid=337955db-d8ba-4f5e-b077-77e188f45be6","ios":"levelo://app?vid=337955db-d8ba-4f5e-b077-77e188f45be6"},"vehicle_type_id":"4","last_reported":1703185439,"current_range_meters":21200,"station_id":"ce4bh112rcd13ifvqda0","pricing_plan_id":"free"},{"bike_id":"3be16c03-3924-4add-b3b8-ee14479ec937","system_id":"levelo_inurba_marseille","lat":43.337682,"lon":5.374735,"is_reserved":false,"is_disabled":false,"rental_uris":{"android":"levelo://app?vid=3be16c03-3924-4add-b3b8-ee14479ec937","ios":"levelo://app?vid=3be16c03-3924-4add-b3b8-ee14479ec937"},"vehicle_type_id":"4","last_reported":1703185439,"current_range_meters":0,"station_id":"","pricing_plan_id":"free"},{"bike_id":"da2d8aa7-a29b-47b3-8b8c-1179f0e6344d","system_id":"levelo_inurba_marseille","lat":43.30642,"lon":5.40107,"is_reserved":false,"is_disabled":false,"rental_uris":{"android":"levelo://app?vid=da2d8aa7-a29b-47b3-8b8c-1179f0e6344d","ios":"levelo://app?vid=da2d8aa7-a29b-47b3-8b8c-1179f0e6344d"},"vehicle_type_id":"4","last_reported":1703185439,"current_range_meters":18800,"station_id":"ce4bh112rcd13ifvqda0","pricing_plan_id":"free"},{"bike_id":"caf667f9-6a72-46ab-9f57-9d8cb007530f","system_id":"levelo_inurba_marseille","lat":43.31234,"lon":5.40227,"is_reserved":false,"is_disabled":false,"rental_uris":{"android":"levelo://app?vid=caf667f9-6a72-46ab-9f57-9d8cb007530f","ios":"levelo://app?vid=caf667f9-6a72-46ab-9f57-9d8cb007530f"},"vehicle_type_id":"4","last_reported":1703185439,"current_range_meters":800,"station_id":"","pricing_plan_id":"free"},{"bike_id":"f282119c-8307-46d0-aa95-db3f21cc3f9d","system_id":"levelo_inurba_marseille","lat":43.30133,"lon":5.398747,"is_reserved":false,"is_disabled":false,"rental_uris":{"android":"levelo://app?vid=f282119c-8307-46d0-aa95-db3f21cc3f9d","ios":"levelo://app?vid=f282119c-8307-46d0-aa95-db3f21cc3f9d"},"vehicle_type_id":"4","last_reported":1703185439,"current_range_meters":0,"station_id":"ce4bh0h2rcd13ifvqd40","pricing_plan_id":"free"},{"bike_id":"a96b6b94-efb1-4357-a5ac-d7d9e034cee8","system_id":"levelo_inurba_marseille","lat":43.286591,"lon":5.363346,"is_reserved":false,"is_disabled":false,"rental_uris":{"android":"levelo://app?vid=a96b6b94-efb1-4357-a5ac-d7d9e034cee8","ios":"levelo://app?vid=a96b6b94-efb1-4357-a5ac-d7d9e034cee8"},"vehicle_type_id":"4","last_reported":1703185439,"current_range_meters":13200,"station_id":"ce4bhah2rcd13ifvqej0","pricing_plan_id":"free"},{"bike_id":"da35a14c-de3c-4d4b-a36f-a348e03c3847","system_id":"levelo_inurba_marseille","lat":43.286961,"lon":5.373785,"is_reserved":false,"is_disabled":false,"rental_uris":{"android":"levelo://app?vid=da35a14c-de3c-4d4b-a36f-a348e03c3847","ios":"levelo://app?vid=da35a14c-de3c-4d4b-a36f-a348e03c3847"},"vehicle_type_id":"4","last_reported":1703185439,"current_range_meters":10400,"station_id":"ce4bh3p2rcd13ifvqdq0","pricing_plan_id":"free"},{"bike_id":"d673977d-cce2-4b0b-bb5d-0fa26e42b4f0","system_id":"levelo_inurba_marseille","lat":43.286593,"lon":5.363346,"is_reserved":false,"is_disabled":false,"rental_uris":{"android":"levelo://app?vid=d673977d-cce2-4b0b-bb5d-0fa26e42b4f0","ios":"levelo://app?vid=d673977d-cce2-4b0b-bb5d-0fa26e42b4f0"},"vehicle_type_id":"4","last_reported":1703185439,"current_range_meters":5600,"station_id":"ce4bhah2rcd13ifvqej0","pricing_plan_id":"free"},{"bike_id":"290d0284-82d4-48b1-8a86-5d55b96ee39b","system_id":"levelo_inurba_marseille","lat":43.309047,"lon":5.396551,"is_reserved":false,"is_disabled":false,"rental_uris":{"android":"levelo://app?vid=290d0284-82d4-48b1-8a86-5d55b96ee39b","ios":"levelo://app?vid=290d0284-82d4-48b1-8a86-5d55b96ee39b"},"vehicle_type_id":"4","last_reported":1703185439,"current_range_meters":21600,"station_id":"ce4bh012rcd13ifvqcv0","pricing_plan_id":"free"},{"bike_id":"6aa38bdd-76d4-4047-851d-59b712722d74","system_id":"levelo_inurba_marseille","lat":43.290345,"lon":5.38646,"is_reserved":false,"is_disabled":false,"rental_uris":{"android":"levelo://app?vid=6aa38bdd-76d4-4047-851d-59b712722d74","ios":"levelo://app?vid=6aa38bdd-76d4-4047-851d-59b712722d74"},"vehicle_type_id":"4","last_reported":1703185439,"current_range_meters":18800,"station_id":"ce4bh4p2rcd13ifvqe0g","pricing_plan_id":"free"},{"bike_id":"e7390ec1-4501-4ee4-bf59-ada4c4cbdba3","system_id":"levelo_inurba_marseille","lat":43.302759,"lon":5.400793,"is_reserved":false,"is_disabled":false,"rental_uris":{"android":"levelo://app?vid=e7390ec1-4501-4ee4-bf59-ada4c4cbdba3","ios":"levelo://app?vid=e7390ec1-4501-4ee4-bf59-ada4c4cbdba3"},"vehicle_type_id":"4","last_reported":1703185439,"current_range_meters":24400,"station_id":"ce4bgvh2rcd13ifvqcs0","pricing_plan_id":"free"},{"bike_id":"747c9258-97a2-47ec-b19f-e596bb1c5561","system_id":"levelo_inurba_marseille","lat":43.302759,"lon":5.400793,"is_reserved":false,"is_disabled":false,"rental_uris":{"android":"levelo://app?vid=747c9258-97a2-47ec-b19f-e596bb1c5561","ios":"levelo://app?vid=747c9258-97a2-47ec-b19f-e596bb1c5561"},"vehicle_type_id":"4","last_reported":1703185439,"current_range_meters":3200,"station_id":"ce4bgvh2rcd13ifvqcs0","pricing_plan_id":"free"},{"bike_id":"040ea1bc-c662-4742-9648-7b868176a4c2","system_id":"levelo_inurba_marseille","lat":43.30256,"lon":5.40081,"is_reserved":false,"is_disabled":false,"rental_uris":{"android":"levelo://app?vid=040ea1bc-c662-4742-9648-7b868176a4c2","ios":"levelo://app?vid=040ea1bc-c662-4742-9648-7b868176a4c2"},"vehicle_type_id":"4","last_reported":1703185439,"current_range_meters":400,"station_id":"ce4bgvh2rcd13ifvqcs0","pricing_plan_id":"free"},{"bike_id":"4d882ab1-2188-4a1b-93c0-ea8a8c1f82e2","system_id":"levelo_inurba_marseille","lat":43.286039,"lon":5.370679,"is_reserved":false,"is_disabled":false,"rental_uris":{"android":"levelo://app?vid=4d882ab1-2188-4a1b-93c0-ea8a8c1f82e2","ios":"levelo://app?vid=4d882ab1-2188-4a1b-93c0-ea8a8c1f82e2"},"vehicle_type_id":"4","last_reported":1703185439,"current_range_meters":30400,"station_id":"ce4bht12rcd13ifvqi60","pricing_plan_id":"free"},{"bike_id":"657b4d30-11c4-4174-ae70-5f17e3ee8719","system_id":"levelo_inurba_marseille","lat":43.286039,"lon":5.370679,"is_reserved":false,"is_disabled":false,"rental_uris":{"android":"levelo://app?vid=657b4d30-11c4-4174-ae70-5f17e3ee8719","ios":"levelo://app?vid=657b4d30-11c4-4174-ae70-5f17e3ee8719"},"vehicle_type_id":"4","last_reported":1703185439,"current_range_meters":28800,"station_id":"ce4bht12rcd13ifvqi60","pricing_plan_id":"free"},{"bike_id":"983ef4bd-15ac-4651-8cde-3bd14abec0b1","system_id":"levelo_inurba_marseille","lat":43.286054,"lon":5.370669,"is_reserved":false,"is_disabled":false,"rental_uris":{"android":"levelo://app?vid=983ef4bd-15ac-4651-8cde-3bd14abec0b1","ios":"levelo://app?vid=983ef4bd-15ac-4651-8cde-3bd14abec0b1"},"vehicle_type_id":"4","last_reported":1703185439,"current_range_meters":0,"station_id":"ce4bht12rcd13ifvqi60","pricing_plan_id":"free"},{"bike_id":"b5ba4e31-c8a5-4cda-8e3b-5ca032e9d193","system_id":"levelo_inurba_marseille","lat":43.316821,"lon":5.404737,"is_reserved":false,"is_disabled":false,"rental_uris":{"android":"levelo://app?vid=b5ba4e31-c8a5-4cda-8e3b-5ca032e9d193","ios":"levelo://app?vid=b5ba4e31-c8a5-4cda-8e3b-5ca032e9d193"},"vehicle_type_id":"4","last_reported":1703185439,"current_range_meters":16000,"station_id":"ce4bh012rcd13ifvqd00","pricing_plan_id":"free"},{"bike_id":"a5cff9c3-dca3-4e69-b0ba-4774dfb2087f","system_id":"levelo_inurba_marseille","lat":43.284538,"lon":5.358657,"is_reserved":false,"is_disabled":false,"rental_uris":{"android":"levelo://app?vid=a5cff9c3-dca3-4e69-b0ba-4774dfb2087f","ios":"levelo://app?vid=a5cff9c3-dca3-4e69-b0ba-4774dfb2087f"},"vehicle_type_id":"4","last_reported":1703185439,"current_range_meters":15600,"station_id":"ce4bhah2rcd13ifvqei0","pricing_plan_id":"free"},{"bike_id":"0b4a10b2-056b-4f55-b0ea-eee93fe16f97","system_id":"levelo_inurba_marseille","lat":43.284538,"lon":5.358657,"is_reserved":false,"is_disabled":false,"rental_uris":{"android":"levelo://app?vid=0b4a10b2-056b-4f55-b0ea-eee93fe16f97","ios":"levelo://app?vid=0b4a10b2-056b-4f55-b0ea-eee93fe16f97"},"vehicle_type_id":"4","last_reported":1703185439,"current_range_meters":9600,"station_id":"ce4bhah2rcd13ifvqei0","pricing_plan_id":"free"},{"bike_id":"a482cae7-1ae3-43a6-87ee-635cd4b98d9f","system_id":"levelo_inurba_marseille","lat":43.284538,"lon":5.358657,"is_reserved":false,"is_disabled":false,"rental_uris":{"android":"levelo://app?vid=a482cae7-1ae3-43a6-87ee-635cd4b98d9f","ios":"levelo://app?vid=a482cae7-1ae3-43a6-87ee-635cd4b98d9f"},"vehicle_type_id":"4","last_reported":1703185439,"current_range_meters":16400,"station_id":"ce4bhah2rcd13ifvqei0","pricing_plan_id":"free"},{"bike_id":"7c2636e3-4942-4723-b44c-8451a7ead0ad","system_id":"levelo_inurba_marseille","lat":43.284538,"lon":5.358657,"is_reserved":false,"is_disabled":false,"rental_uris":{"android":"levelo://app?vid=7c2636e3-4942-4723-b44c-8451a7ead0ad","ios":"levelo://app?vid=7c2636e3-4942-4723-b44c-8451a7ead0ad"},"vehicle_type_id":"4","last_reported":1703185439,"current_range_meters":6800,"station_id":"ce4bhah2rcd13ifvqei0","pricing_plan_id":"free"},{"bike_id":"9382ba44-52c5-40f8-a4e8-d5c089cb2a27","system_id":"levelo_inurba_marseille","lat":43.284538,"lon":5.358657,"is_reserved":false,"is_disabled":false,"rental_uris":{"android":"levelo://app?vid=9382ba44-52c5-40f8-a4e8-d5c089cb2a27","ios":"levelo://app?vid=9382ba44-52c5-40f8-a4e8-d5c089cb2a27"},"vehicle_type_id":"4","last_reported":1703185439,"current_range_meters":1200,"station_id":"ce4bhah2rcd13ifvqei0","pricing_plan_id":"free"},{"bike_id":"c9fe4942-e334-46c2-be11-6d8bf7b20624","system_id":"levelo_inurba_marseille","lat":43.295713,"lon":5.399639,"is_reserved":false,"is_disabled":false,"rental_uris":{"android":"levelo://app?vid=c9fe4942-e334-46c2-be11-6d8bf7b20624","ios":"levelo://app?vid=c9fe4942-e334-46c2-be11-6d8bf7b20624"},"vehicle_type_id":"4","last_reported":1703185439,"current_range_meters":4400,"station_id":"ce4bh312rcd13ifvqdj0","pricing_plan_id":"free"},{"bike_id":"305af63d-f80d-4f91-a07c-6c920e2440d3","system_id":"levelo_inurba_marseille","lat":43.295713,"lon":5.399639,"is_reserved":false,"is_disabled":false,"rental_uris":{"android":"levelo://app?vid=305af63d-f80d-4f91-a07c-6c920e2440d3","ios":"levelo://app?vid=305af63d-f80d-4f91-a07c-6c920e2440d3"},"vehicle_type_id":"4","last_reported":1703185439,"current_range_meters":7600,"station_id":"ce4bh312rcd13ifvqdj0","pricing_plan_id":"free"},{"bike_id":"3739c3ae-eab7-4efa-8047-ff74ddcc2e94","system_id":"levelo_inurba_marseille","lat":43.295713,"lon":5.399639,"is_reserved":false,"is_disabled":false,"rental_uris":{"android":"levelo://app?vid=3739c3ae-eab7-4efa-8047-ff74ddcc2e94","ios":"levelo://app?vid=3739c3ae-eab7-4efa-8047-ff74ddcc2e94"},"vehicle_type_id":"4","last_reported":1703185439,"current_range_meters":5200,"station_id":"ce4bh312rcd13ifvqdj0","pricing_plan_id":"free"},{"bike_id":"8538e6dd-dbef-4a5a-a119-9a857fd021ad","system_id":"levelo_inurba_marseille","lat":43.33218,"lon":5.397067,"is_reserved":false,"is_disabled":false,"rental_uris":{"android":"levelo://app?vid=8538e6dd-dbef-4a5a-a119-9a857fd021ad","ios":"levelo://app?vid=8538e6dd-dbef-4a5a-a119-9a857fd021ad"},"vehicle_type_id":"4","last_reported":1703185439,"current_range_meters":0,"station_id":"","pricing_plan_id":"free"},{"bike_id":"7b984439-cb32-4660-92fa-ddb202f970df","system_id":"levelo_inurba_marseille","lat":43.295713,"lon":5.399639,"is_reserved":false,"is_disabled":false,"rental_uris":{"android":"levelo://app?vid=7b984439-cb32-4660-92fa-ddb202f970df","ios":"levelo://app?vid=7b984439-cb32-4660-92fa-ddb202f970df"},"vehicle_type_id":"4","last_reported":1703185439,"current_range_meters":11600,"station_id":"ce4bh312rcd13ifvqdj0","pricing_plan_id":"free"},{"bike_id":"26aab917-793c-4623-9e9d-91f27a13518a","system_id":"levelo_inurba_marseille","lat":43.295713,"lon":5.399639,"is_reserved":false,"is_disabled":false,"rental_uris":{"android":"levelo://app?vid=26aab917-793c-4623-9e9d-91f27a13518a","ios":"levelo://app?vid=26aab917-793c-4623-9e9d-91f27a13518a"},"vehicle_type_id":"4","last_reported":1703185439,"current_range_meters":0,"station_id":"ce4bh312rcd13ifvqdj0","pricing_plan_id":"free"},{"bike_id":"f6bc0734-3958-4a7e-bddf-22f9d80d010d","system_id":"levelo_inurba_marseille","lat":43.295713,"lon":5.399639,"is_reserved":false,"is_disabled":false,"rental_uris":{"android":"levelo://app?vid=f6bc0734-3958-4a7e-bddf-22f9d80d010d","ios":"levelo://app?vid=f6bc0734-3958-4a7e-bddf-22f9d80d010d"},"vehicle_type_id":"4","last_reported":1703185439,"current_range_meters":5200,"station_id":"ce4bh312rcd13ifvqdj0","pricing_plan_id":"free"},{"bike_id":"aa1bea3e-ff5f-4c49-a630-426ec3e7598d","system_id":"levelo_inurba_marseille","lat":43.323464,"lon":5.406297,"is_reserved":false,"is_disabled":false,"rental_uris":{"android":"levelo://app?vid=aa1bea3e-ff5f-4c49-a630-426ec3e7598d","ios":"levelo://app?vid=aa1bea3e-ff5f-4c49-a630-426ec3e7598d"},"vehicle_type_id":"4","last_reported":1703185439,"current_range_meters":28800,"station_id":"ce4bhq92rcd13ifvqhjg","pricing_plan_id":"free"},{"bike_id":"dfdadb00-295f-4147-bb7b-992e830130a9","system_id":"levelo_inurba_marseille","lat":43.323464,"lon":5.406297,"is_reserved":false,"is_disabled":false,"rental_uris":{"android":"levelo://app?vid=dfdadb00-295f-4147-bb7b-992e830130a9","ios":"levelo://app?vid=dfdadb00-295f-4147-bb7b-992e830130a9"},"vehicle_type_id":"4","last_reported":1703185439,"current_range_meters":32000,"station_id":"ce4bhq92rcd13ifvqhjg","pricing_plan_id":"free"},{"bike_id":"d56a2764-677e-4209-adfa-b8c19fb45def","system_id":"levelo_inurba_marseille","lat":43.32339,"lon":5.4062,"is_reserved":false,"is_disabled":false,"rental_uris":{"android":"levelo://app?vid=d56a2764-677e-4209-adfa-b8c19fb45def","ios":"levelo://app?vid=d56a2764-677e-4209-adfa-b8c19fb45def"},"vehicle_type_id":"4","last_reported":1703185439,"current_range_meters":16800,"station_id":"ce4bhq92rcd13ifvqhjg","pricing_plan_id":"free"},{"bike_id":"edb2ea80-7d1b-4902-a1f5-15cd13ef4dfe","system_id":"levelo_inurba_marseille","lat":43.283494,"lon":5.380945,"is_reserved":false,"is_disabled":false,"rental_uris":{"android":"levelo://app?vid=edb2ea80-7d1b-4902-a1f5-15cd13ef4dfe","ios":"levelo://app?vid=edb2ea80-7d1b-4902-a1f5-15cd13ef4dfe"},"vehicle_type_id":"4","last_reported":1703185439,"current_range_meters":4000,"station_id":"ce4bh412rcd13ifvqdr0","pricing_plan_id":"free"},{"bike_id":"482379c3-2c39-4646-93fd-5dddbed39bc6","system_id":"levelo_inurba_marseille","lat":43.283494,"lon":5.380945,"is_reserved":false,"is_disabled":false,"rental_uris":{"android":"levelo://app?vid=482379c3-2c39-4646-93fd-5dddbed39bc6","ios":"levelo://app?vid=482379c3-2c39-4646-93fd-5dddbed39bc6"},"vehicle_type_id":"4","last_reported":1703185439,"current_range_meters":1200,"station_id":"ce4bh412rcd13ifvqdr0","pricing_plan_id":"free"},{"bike_id":"71a93ff6-0c77-456d-8184-109878063686","system_id":"levelo_inurba_marseille","lat":43.283498,"lon":5.380948,"is_reserved":false,"is_disabled":false,"rental_uris":{"android":"levelo://app?vid=71a93ff6-0c77-456d-8184-109878063686","ios":"levelo://app?vid=71a93ff6-0c77-456d-8184-109878063686"},"vehicle_type_id":"4","last_reported":1703185439,"current_range_meters":2000,"station_id":"ce4bh412rcd13ifvqdr0","pricing_plan_id":"free"},{"bike_id":"2158a846-6c1a-421d-8c30-5f0480c00175","system_id":"levelo_inurba_marseille","lat":43.284219,"lon":5.3497,"is_reserved":false,"is_disabled":false,"rental_uris":{"android":"levelo://app?vid=2158a846-6c1a-421d-8c30-5f0480c00175","ios":"levelo://app?vid=2158a846-6c1a-421d-8c30-5f0480c00175"},"vehicle_type_id":"4","last_reported":1703185439,"current_range_meters":22400,"station_id":"ce4bhbh2rcd13ifvqepg","pricing_plan_id":"free"},{"bike_id":"0f42eedd-bd33-445f-91fc-4e7504a96eb4","system_id":"levelo_inurba_marseille","lat":43.324221,"lon":5.407074,"is_reserved":false,"is_disabled":false,"rental_uris":{"android":"levelo://app?vid=0f42eedd-bd33-445f-91fc-4e7504a96eb4","ios":"levelo://app?vid=0f42eedd-bd33-445f-91fc-4e7504a96eb4"},"vehicle_type_id":"4","last_reported":1703185439,"current_range_meters":16000,"station_id":"","pricing_plan_id":"free"},{"bike_id":"094a66f7-7c56-4d44-824c-eb1f4bed8a06","system_id":"levelo_inurba_marseille","lat":43.292724,"lon":5.401131,"is_reserved":false,"is_disabled":false,"rental_uris":{"android":"levelo://app?vid=094a66f7-7c56-4d44-824c-eb1f4bed8a06","ios":"levelo://app?vid=094a66f7-7c56-4d44-824c-eb1f4bed8a06"},"vehicle_type_id":"4","last_reported":1703185439,"current_range_meters":4400,"station_id":"ce4bh312rcd13ifvqdk0","pricing_plan_id":"free"},{"bike_id":"1dd39f99-ff83-4b4e-8cf2-421cfe7ff0b7","system_id":"levelo_inurba_marseille","lat":43.292724,"lon":5.401131,"is_reserved":false,"is_disabled":false,"rental_uris":{"android":"levelo://app?vid=1dd39f99-ff83-4b4e-8cf2-421cfe7ff0b7","ios":"levelo://app?vid=1dd39f99-ff83-4b4e-8cf2-421cfe7ff0b7"},"vehicle_type_id":"4","last_reported":1703185439,"current_range_meters":3600,"station_id":"ce4bh312rcd13ifvqdk0","pricing_plan_id":"free"},{"bike_id":"d25551c9-7b11-4a65-b680-d1eec795827c","system_id":"levelo_inurba_marseille","lat":43.282754,"lon":5.350519,"is_reserved":false,"is_disabled":false,"rental_uris":{"android":"levelo://app?vid=d25551c9-7b11-4a65-b680-d1eec795827c","ios":"levelo://app?vid=d25551c9-7b11-4a65-b680-d1eec795827c"},"vehicle_type_id":"4","last_reported":1703185439,"current_range_meters":6000,"station_id":"ce4bhbp2rcd13ifvqerg","pricing_plan_id":"free"},{"bike_id":"bdf9ab22-6118-49c2-b512-4c146bc74fd5","system_id":"levelo_inurba_marseille","lat":43.282754,"lon":5.350519,"is_reserved":false,"is_disabled":false,"rental_uris":{"android":"levelo://app?vid=bdf9ab22-6118-49c2-b512-4c146bc74fd5","ios":"levelo://app?vid=bdf9ab22-6118-49c2-b512-4c146bc74fd5"},"vehicle_type_id":"4","last_reported":1703185439,"current_range_meters":15200,"station_id":"ce4bhbp2rcd13ifvqerg","pricing_plan_id":"free"},{"bike_id":"65cc50fe-2134-4b29-bb15-9a4245357cdd","system_id":"levelo_inurba_marseille","lat":43.280382,"lon":5.369291,"is_reserved":false,"is_disabled":false,"rental_uris":{"android":"levelo://app?vid=65cc50fe-2134-4b29-bb15-9a4245357cdd","ios":"levelo://app?vid=65cc50fe-2134-4b29-bb15-9a4245357cdd"},"vehicle_type_id":"4","last_reported":1703185439,"current_range_meters":23200,"station_id":"ce4bha12rcd13ifvqef0","pricing_plan_id":"free"},{"bike_id":"bf7dfc0e-301f-4b51-a6cb-fdffbd71b980","system_id":"levelo_inurba_marseille","lat":43.28039,"lon":5.369297,"is_reserved":false,"is_disabled":false,"rental_uris":{"android":"levelo://app?vid=bf7dfc0e-301f-4b51-a6cb-fdffbd71b980","ios":"levelo://app?vid=bf7dfc0e-301f-4b51-a6cb-fdffbd71b980"},"vehicle_type_id":"4","last_reported":1703185439,"current_range_meters":21600,"station_id":"ce4bha12rcd13ifvqef0","pricing_plan_id":"free"},{"bike_id":"31c602b8-b2f4-44cc-9abd-5fcc8a98728b","system_id":"levelo_inurba_marseille","lat":43.280382,"lon":5.369291,"is_reserved":false,"is_disabled":false,"rental_uris":{"android":"levelo://app?vid=31c602b8-b2f4-44cc-9abd-5fcc8a98728b","ios":"levelo://app?vid=31c602b8-b2f4-44cc-9abd-5fcc8a98728b"},"vehicle_type_id":"4","last_reported":1703185439,"current_range_meters":9200,"station_id":"ce4bha12rcd13ifvqef0","pricing_plan_id":"free"},{"bike_id":"997a5e85-ac9b-4674-8d9c-275c5c4f1886","system_id":"levelo_inurba_marseille","lat":43.29042,"lon":5.39957,"is_reserved":false,"is_disabled":false,"rental_uris":{"android":"levelo://app?vid=997a5e85-ac9b-4674-8d9c-275c5c4f1886","ios":"levelo://app?vid=997a5e85-ac9b-4674-8d9c-275c5c4f1886"},"vehicle_type_id":"4","last_reported":1703185439,"current_range_meters":0,"station_id":"ce4bh392rcd13ifvqdm0","pricing_plan_id":"free"},{"bike_id":"4c76da63-2778-4164-96e8-ae09c0ecc1b1","system_id":"levelo_inurba_marseille","lat":43.28573,"lon":5.394992,"is_reserved":false,"is_disabled":false,"rental_uris":{"android":"levelo://app?vid=4c76da63-2778-4164-96e8-ae09c0ecc1b1","ios":"levelo://app?vid=4c76da63-2778-4164-96e8-ae09c0ecc1b1"},"vehicle_type_id":"4","last_reported":1703185439,"current_range_meters":21200,"station_id":"ce4bh292rcd13ifvqdg0","pricing_plan_id":"free"},{"bike_id":"8e916718-8e97-4602-92d8-836b75f84880","system_id":"levelo_inurba_marseille","lat":43.326605,"lon":5.409903,"is_reserved":false,"is_disabled":false,"rental_uris":{"android":"levelo://app?vid=8e916718-8e97-4602-92d8-836b75f84880","ios":"levelo://app?vid=8e916718-8e97-4602-92d8-836b75f84880"},"vehicle_type_id":"4","last_reported":1703185439,"current_range_meters":22000,"station_id":"ce4bhpp2rcd13ifvqhgg","pricing_plan_id":"free"},{"bike_id":"ea8456a8-e278-4a92-ac52-ac4efa188483","system_id":"levelo_inurba_marseille","lat":43.275625,"lon":5.384392,"is_reserved":false,"is_disabled":false,"rental_uris":{"android":"levelo://app?vid=ea8456a8-e278-4a92-ac52-ac4efa188483","ios":"levelo://app?vid=ea8456a8-e278-4a92-ac52-ac4efa188483"},"vehicle_type_id":"4","last_reported":1703185439,"current_range_meters":16800,"station_id":"ce4bhh92rcd13ifvqfi0","pricing_plan_id":"free"},{"bike_id":"f58fd3f7-cbbb-4814-9c7e-f0ac0e949866","system_id":"levelo_inurba_marseille","lat":43.304188,"lon":5.412904,"is_reserved":false,"is_disabled":false,"rental_uris":{"android":"levelo://app?vid=f58fd3f7-cbbb-4814-9c7e-f0ac0e949866","ios":"levelo://app?vid=f58fd3f7-cbbb-4814-9c7e-f0ac0e949866"},"vehicle_type_id":"4","last_reported":1703185439,"current_range_meters":25600,"station_id":"ce4bhop2rcd13ifvqh8g","pricing_plan_id":"free"},{"bike_id":"b6a180ae-e9aa-45a3-8b91-d7ec12096070","system_id":"levelo_inurba_marseille","lat":43.304188,"lon":5.412904,"is_reserved":false,"is_disabled":false,"rental_uris":{"android":"levelo://app?vid=b6a180ae-e9aa-45a3-8b91-d7ec12096070","ios":"levelo://app?vid=b6a180ae-e9aa-45a3-8b91-d7ec12096070"},"vehicle_type_id":"4","last_reported":1703185439,"current_range_meters":0,"station_id":"ce4bhop2rcd13ifvqh8g","pricing_plan_id":"free"},{"bike_id":"7f302279-6c81-430d-b83b-d444e2cd8d7d","system_id":"levelo_inurba_marseille","lat":43.279054,"lon":5.380006,"is_reserved":false,"is_disabled":false,"rental_uris":{"android":"levelo://app?vid=7f302279-6c81-430d-b83b-d444e2cd8d7d","ios":"levelo://app?vid=7f302279-6c81-430d-b83b-d444e2cd8d7d"},"vehicle_type_id":"4","last_reported":1703185439,"current_range_meters":17200,"station_id":"ce4bhf92rcd13ifvqf50","pricing_plan_id":"free"},{"bike_id":"7cea78e2-7479-4b91-822e-2103f42e34ca","system_id":"levelo_inurba_marseille","lat":43.279087,"lon":5.380114,"is_reserved":false,"is_disabled":false,"rental_uris":{"android":"levelo://app?vid=7cea78e2-7479-4b91-822e-2103f42e34ca","ios":"levelo://app?vid=7cea78e2-7479-4b91-822e-2103f42e34ca"},"vehicle_type_id":"4","last_reported":1703185439,"current_range_meters":11200,"station_id":"ce4bhf92rcd13ifvqf50","pricing_plan_id":"free"},{"bike_id":"8fdb209d-9f15-4906-b68d-e9df4a186e4b","system_id":"levelo_inurba_marseille","lat":43.279087,"lon":5.380114,"is_reserved":false,"is_disabled":false,"rental_uris":{"android":"levelo://app?vid=8fdb209d-9f15-4906-b68d-e9df4a186e4b","ios":"levelo://app?vid=8fdb209d-9f15-4906-b68d-e9df4a186e4b"},"vehicle_type_id":"4","last_reported":1703185439,"current_range_meters":5600,"station_id":"ce4bhf92rcd13ifvqf50","pricing_plan_id":"free"},{"bike_id":"4bc0ae2e-1699-40e0-bd4a-a585b853b25d","system_id":"levelo_inurba_marseille","lat":43.279742,"lon":5.38744,"is_reserved":false,"is_disabled":false,"rental_uris":{"android":"levelo://app?vid=4bc0ae2e-1699-40e0-bd4a-a585b853b25d","ios":"levelo://app?vid=4bc0ae2e-1699-40e0-bd4a-a585b853b25d"},"vehicle_type_id":"4","last_reported":1703185439,"current_range_meters":5200,"station_id":"ce4bhg12rcd13ifvqf80","pricing_plan_id":"free"},{"bike_id":"1548b644-9cb0-436c-a96d-d7f38a585ebe","system_id":"levelo_inurba_marseille","lat":43.299579,"lon":5.413255,"is_reserved":false,"is_disabled":false,"rental_uris":{"android":"levelo://app?vid=1548b644-9cb0-436c-a96d-d7f38a585ebe","ios":"levelo://app?vid=1548b644-9cb0-436c-a96d-d7f38a585ebe"},"vehicle_type_id":"4","last_reported":1703185439,"current_range_meters":19200,"station_id":"ce4bhp12rcd13ifvqh9g","pricing_plan_id":"free"},{"bike_id":"1075a7b8-7a3d-465f-bdde-babf096e2124","system_id":"levelo_inurba_marseille","lat":43.279742,"lon":5.38744,"is_reserved":false,"is_disabled":false,"rental_uris":{"android":"levelo://app?vid=1075a7b8-7a3d-465f-bdde-babf096e2124","ios":"levelo://app?vid=1075a7b8-7a3d-465f-bdde-babf096e2124"},"vehicle_type_id":"4","last_reported":1703185439,"current_range_meters":8800,"station_id":"ce4bhg12rcd13ifvqf80","pricing_plan_id":"free"},{"bike_id":"a464aa3c-b69d-44e7-aa68-f0c6782a6079","system_id":"levelo_inurba_marseille","lat":43.320045,"lon":5.415048,"is_reserved":false,"is_disabled":false,"rental_uris":{"android":"levelo://app?vid=a464aa3c-b69d-44e7-aa68-f0c6782a6079","ios":"levelo://app?vid=a464aa3c-b69d-44e7-aa68-f0c6782a6079"},"vehicle_type_id":"4","last_reported":1703185439,"current_range_meters":26800,"station_id":"ce4bhq92rcd13ifvqhkg","pricing_plan_id":"free"},{"bike_id":"2e2d110d-64be-4435-b740-6b05a7dab423","system_id":"levelo_inurba_marseille","lat":43.279742,"lon":5.38744,"is_reserved":false,"is_disabled":false,"rental_uris":{"android":"levelo://app?vid=2e2d110d-64be-4435-b740-6b05a7dab423","ios":"levelo://app?vid=2e2d110d-64be-4435-b740-6b05a7dab423"},"vehicle_type_id":"4","last_reported":1703185439,"current_range_meters":24800,"station_id":"ce4bhg12rcd13ifvqf80","pricing_plan_id":"free"},{"bike_id":"ee88ac82-98df-4964-9cac-07a7dd1ec717","system_id":"levelo_inurba_marseille","lat":43.292569,"lon":5.409107,"is_reserved":false,"is_disabled":false,"rental_uris":{"android":"levelo://app?vid=ee88ac82-98df-4964-9cac-07a7dd1ec717","ios":"levelo://app?vid=ee88ac82-98df-4964-9cac-07a7dd1ec717"},"vehicle_type_id":"4","last_reported":1703185439,"current_range_meters":800,"station_id":"ce4bh192rcd13ifvqdc0","pricing_plan_id":"free"},{"bike_id":"e1f8d130-6e5b-486e-b4cb-ffb9a7c93650","system_id":"levelo_inurba_marseille","lat":43.292569,"lon":5.409107,"is_reserved":false,"is_disabled":false,"rental_uris":{"android":"levelo://app?vid=e1f8d130-6e5b-486e-b4cb-ffb9a7c93650","ios":"levelo://app?vid=e1f8d130-6e5b-486e-b4cb-ffb9a7c93650"},"vehicle_type_id":"4","last_reported":1703185439,"current_range_meters":23600,"station_id":"ce4bh192rcd13ifvqdc0","pricing_plan_id":"free"},{"bike_id":"73a4c45f-a923-4b18-946d-c257f503290b","system_id":"levelo_inurba_marseille","lat":43.325233,"lon":5.414318,"is_reserved":false,"is_disabled":false,"rental_uris":{"android":"levelo://app?vid=73a4c45f-a923-4b18-946d-c257f503290b","ios":"levelo://app?vid=73a4c45f-a923-4b18-946d-c257f503290b"},"vehicle_type_id":"4","last_reported":1703185439,"current_range_meters":21200,"station_id":"ce4bhq12rcd13ifvqhhg","pricing_plan_id":"free"},{"bike_id":"2f683d0f-875e-4022-a9f6-4b909f5fd56d","system_id":"levelo_inurba_marseille","lat":43.280784,"lon":5.396622,"is_reserved":false,"is_disabled":false,"rental_uris":{"android":"levelo://app?vid=2f683d0f-875e-4022-a9f6-4b909f5fd56d","ios":"levelo://app?vid=2f683d0f-875e-4022-a9f6-4b909f5fd56d"},"vehicle_type_id":"4","last_reported":1703185439,"current_range_meters":15600,"station_id":"ce4bho12rcd13ifvqh2g","pricing_plan_id":"free"},{"bike_id":"000d3c34-cabd-4bb1-8e18-db23430167a5","system_id":"levelo_inurba_marseille","lat":43.280784,"lon":5.396622,"is_reserved":false,"is_disabled":false,"rental_uris":{"android":"levelo://app?vid=000d3c34-cabd-4bb1-8e18-db23430167a5","ios":"levelo://app?vid=000d3c34-cabd-4bb1-8e18-db23430167a5"},"vehicle_type_id":"4","last_reported":1703185439,"current_range_meters":13600,"station_id":"ce4bho12rcd13ifvqh2g","pricing_plan_id":"free"},{"bike_id":"94a5f2f6-47e3-4bff-926a-f0c8027edb43","system_id":"levelo_inurba_marseille","lat":43.303837,"lon":5.418724,"is_reserved":false,"is_disabled":false,"rental_uris":{"android":"levelo://app?vid=94a5f2f6-47e3-4bff-926a-f0c8027edb43","ios":"levelo://app?vid=94a5f2f6-47e3-4bff-926a-f0c8027edb43"},"vehicle_type_id":"4","last_reported":1703185439,"current_range_meters":5600,"station_id":"ce4bhop2rcd13ifvqh7g","pricing_plan_id":"free"},{"bike_id":"5dc355b4-d3d5-4543-b62e-d13182f0e2eb","system_id":"levelo_inurba_marseille","lat":43.303837,"lon":5.418724,"is_reserved":false,"is_disabled":false,"rental_uris":{"android":"levelo://app?vid=5dc355b4-d3d5-4543-b62e-d13182f0e2eb","ios":"levelo://app?vid=5dc355b4-d3d5-4543-b62e-d13182f0e2eb"},"vehicle_type_id":"4","last_reported":1703185439,"current_range_meters":24400,"station_id":"ce4bhop2rcd13ifvqh7g","pricing_plan_id":"free"},{"bike_id":"e10cc150-4041-48d5-aaa1-023406c60c29","system_id":"levelo_inurba_marseille","lat":43.273613,"lon":5.362705,"is_reserved":false,"is_disabled":false,"rental_uris":{"android":"levelo://app?vid=e10cc150-4041-48d5-aaa1-023406c60c29","ios":"levelo://app?vid=e10cc150-4041-48d5-aaa1-023406c60c29"},"vehicle_type_id":"4","last_reported":1703185439,"current_range_meters":14800,"station_id":"ce4bhbh2rcd13ifvqeo0","pricing_plan_id":"free"},{"bike_id":"abe7b8a3-3af6-4156-a136-f077a1595c56","system_id":"levelo_inurba_marseille","lat":43.273609,"lon":5.362708,"is_reserved":false,"is_disabled":false,"rental_uris":{"android":"levelo://app?vid=abe7b8a3-3af6-4156-a136-f077a1595c56","ios":"levelo://app?vid=abe7b8a3-3af6-4156-a136-f077a1595c56"},"vehicle_type_id":"4","last_reported":1703185439,"current_range_meters":27200,"station_id":"ce4bhbh2rcd13ifvqeo0","pricing_plan_id":"free"},{"bike_id":"db97d23b-b358-42c7-9b7c-756cec040fbb","system_id":"levelo_inurba_marseille","lat":43.317121,"lon":5.423936,"is_reserved":false,"is_disabled":false,"rental_uris":{"android":"levelo://app?vid=db97d23b-b358-42c7-9b7c-756cec040fbb","ios":"levelo://app?vid=db97d23b-b358-42c7-9b7c-756cec040fbb"},"vehicle_type_id":"4","last_reported":1703185439,"current_range_meters":30400,"station_id":"ce4bhp92rcd13ifvqhbg","pricing_plan_id":"free"},{"bike_id":"7ada0439-e02f-43f4-a65c-6cdbad12b2d5","system_id":"levelo_inurba_marseille","lat":43.317121,"lon":5.423936,"is_reserved":false,"is_disabled":false,"rental_uris":{"android":"levelo://app?vid=7ada0439-e02f-43f4-a65c-6cdbad12b2d5","ios":"levelo://app?vid=7ada0439-e02f-43f4-a65c-6cdbad12b2d5"},"vehicle_type_id":"4","last_reported":1703185439,"current_range_meters":28400,"station_id":"ce4bhp92rcd13ifvqhbg","pricing_plan_id":"free"},{"bike_id":"c483e64e-b4e9-4e61-8ad8-a6144ddd1290","system_id":"levelo_inurba_marseille","lat":43.273125,"lon":5.390731,"is_reserved":false,"is_disabled":false,"rental_uris":{"android":"levelo://app?vid=c483e64e-b4e9-4e61-8ad8-a6144ddd1290","ios":"levelo://app?vid=c483e64e-b4e9-4e61-8ad8-a6144ddd1290"},"vehicle_type_id":"4","last_reported":1703185439,"current_range_meters":6800,"station_id":"ce4bhgp2rcd13ifvqfe0","pricing_plan_id":"free"},{"bike_id":"99dae9dd-74e1-4422-85fd-fc757383a71f","system_id":"levelo_inurba_marseille","lat":43.274099,"lon":5.394019,"is_reserved":false,"is_disabled":false,"rental_uris":{"android":"levelo://app?vid=99dae9dd-74e1-4422-85fd-fc757383a71f","ios":"levelo://app?vid=99dae9dd-74e1-4422-85fd-fc757383a71f"},"vehicle_type_id":"4","last_reported":1703185439,"current_range_meters":26000,"station_id":"ce4bhdp2rcd13ifvqf20","pricing_plan_id":"free"},{"bike_id":"8a604acd-3aca-4f99-a6d0-5872420ff112","system_id":"levelo_inurba_marseille","lat":43.304096,"lon":5.425385,"is_reserved":false,"is_disabled":false,"rental_uris":{"android":"levelo://app?vid=8a604acd-3aca-4f99-a6d0-5872420ff112","ios":"levelo://app?vid=8a604acd-3aca-4f99-a6d0-5872420ff112"},"vehicle_type_id":"4","last_reported":1703185439,"current_range_meters":24400,"station_id":"ce4bhoh2rcd13ifvqh6g","pricing_plan_id":"free"},{"bike_id":"bc96446b-31f5-4313-822f-625edd6d0b52","system_id":"levelo_inurba_marseille","lat":43.295523,"lon":5.422926,"is_reserved":false,"is_disabled":false,"rental_uris":{"android":"levelo://app?vid=bc96446b-31f5-4313-822f-625edd6d0b52","ios":"levelo://app?vid=bc96446b-31f5-4313-822f-625edd6d0b52"},"vehicle_type_id":"4","last_reported":1703185439,"current_range_meters":27200,"station_id":"ce4bhph2rcd13ifvqhdg","pricing_plan_id":"free"},{"bike_id":"96484c65-8dd7-4167-a438-a7d837c6b7a7","system_id":"levelo_inurba_marseille","lat":43.295523,"lon":5.422926,"is_reserved":false,"is_disabled":false,"rental_uris":{"android":"levelo://app?vid=96484c65-8dd7-4167-a438-a7d837c6b7a7","ios":"levelo://app?vid=96484c65-8dd7-4167-a438-a7d837c6b7a7"},"vehicle_type_id":"4","last_reported":1703185439,"current_range_meters":31600,"station_id":"ce4bhph2rcd13ifvqhdg","pricing_plan_id":"free"},{"bike_id":"0454933a-5656-4345-852e-0e25afae89fb","system_id":"levelo_inurba_marseille","lat":43.295523,"lon":5.422926,"is_reserved":false,"is_disabled":false,"rental_uris":{"android":"levelo://app?vid=0454933a-5656-4345-852e-0e25afae89fb","ios":"levelo://app?vid=0454933a-5656-4345-852e-0e25afae89fb"},"vehicle_type_id":"4","last_reported":1703185439,"current_range_meters":30000,"station_id":"ce4bhph2rcd13ifvqhdg","pricing_plan_id":"free"},{"bike_id":"a80c78b0-54bd-4c06-a456-7ff9cb5fb92c","system_id":"levelo_inurba_marseille","lat":43.295523,"lon":5.422926,"is_reserved":false,"is_disabled":false,"rental_uris":{"android":"levelo://app?vid=a80c78b0-54bd-4c06-a456-7ff9cb5fb92c","ios":"levelo://app?vid=a80c78b0-54bd-4c06-a456-7ff9cb5fb92c"},"vehicle_type_id":"4","last_reported":1703185439,"current_range_meters":12400,"station_id":"ce4bhph2rcd13ifvqhdg","pricing_plan_id":"free"},{"bike_id":"e0e5d280-f520-4390-a9f0-9b877fedb54e","system_id":"levelo_inurba_marseille","lat":43.295523,"lon":5.422926,"is_reserved":false,"is_disabled":false,"rental_uris":{"android":"levelo://app?vid=e0e5d280-f520-4390-a9f0-9b877fedb54e","ios":"levelo://app?vid=e0e5d280-f520-4390-a9f0-9b877fedb54e"},"vehicle_type_id":"4","last_reported":1703185439,"current_range_meters":21200,"station_id":"ce4bhph2rcd13ifvqhdg","pricing_plan_id":"free"},{"bike_id":"7b50e92c-923d-47a0-98cd-9b6ef12b5315","system_id":"levelo_inurba_marseille","lat":43.295523,"lon":5.422926,"is_reserved":false,"is_disabled":false,"rental_uris":{"android":"levelo://app?vid=7b50e92c-923d-47a0-98cd-9b6ef12b5315","ios":"levelo://app?vid=7b50e92c-923d-47a0-98cd-9b6ef12b5315"},"vehicle_type_id":"4","last_reported":1703185439,"current_range_meters":26000,"station_id":"ce4bhph2rcd13ifvqhdg","pricing_plan_id":"free"},{"bike_id":"218ca4ab-a316-43a6-87cd-acfc23cd8e62","system_id":"levelo_inurba_marseille","lat":43.295523,"lon":5.422926,"is_reserved":false,"is_disabled":false,"rental_uris":{"android":"levelo://app?vid=218ca4ab-a316-43a6-87cd-acfc23cd8e62","ios":"levelo://app?vid=218ca4ab-a316-43a6-87cd-acfc23cd8e62"},"vehicle_type_id":"4","last_reported":1703185439,"current_range_meters":22000,"station_id":"ce4bhph2rcd13ifvqhdg","pricing_plan_id":"free"},{"bike_id":"9449eb80-d18a-481d-bf00-b32c1d52c065","system_id":"levelo_inurba_marseille","lat":43.295523,"lon":5.422926,"is_reserved":false,"is_disabled":false,"rental_uris":{"android":"levelo://app?vid=9449eb80-d18a-481d-bf00-b32c1d52c065","ios":"levelo://app?vid=9449eb80-d18a-481d-bf00-b32c1d52c065"},"vehicle_type_id":"4","last_reported":1703185439,"current_range_meters":6800,"station_id":"ce4bhph2rcd13ifvqhdg","pricing_plan_id":"free"},{"bike_id":"b55db1a0-b820-479b-9929-7610c21584c5","system_id":"levelo_inurba_marseille","lat":43.295511,"lon":5.422926,"is_reserved":false,"is_disabled":false,"rental_uris":{"android":"levelo://app?vid=b55db1a0-b820-479b-9929-7610c21584c5","ios":"levelo://app?vid=b55db1a0-b820-479b-9929-7610c21584c5"},"vehicle_type_id":"4","last_reported":1703185439,"current_range_meters":25600,"station_id":"ce4bhph2rcd13ifvqhdg","pricing_plan_id":"free"},{"bike_id":"7d800ac1-1b26-47dd-97c6-49cd89d9ab11","system_id":"levelo_inurba_marseille","lat":43.295511,"lon":5.422926,"is_reserved":false,"is_disabled":false,"rental_uris":{"android":"levelo://app?vid=7d800ac1-1b26-47dd-97c6-49cd89d9ab11","ios":"levelo://app?vid=7d800ac1-1b26-47dd-97c6-49cd89d9ab11"},"vehicle_type_id":"4","last_reported":1703185439,"current_range_meters":14800,"station_id":"ce4bhph2rcd13ifvqhdg","pricing_plan_id":"free"},{"bike_id":"23d13786-8601-4dce-a424-5d4a35dea444","system_id":"levelo_inurba_marseille","lat":43.295511,"lon":5.422926,"is_reserved":false,"is_disabled":false,"rental_uris":{"android":"levelo://app?vid=23d13786-8601-4dce-a424-5d4a35dea444","ios":"levelo://app?vid=23d13786-8601-4dce-a424-5d4a35dea444"},"vehicle_type_id":"4","last_reported":1703185439,"current_range_meters":18800,"station_id":"ce4bhph2rcd13ifvqhdg","pricing_plan_id":"free"},{"bike_id":"de5695fa-c307-4330-a044-54d219fe24c0","system_id":"levelo_inurba_marseille","lat":43.295511,"lon":5.422926,"is_reserved":false,"is_disabled":false,"rental_uris":{"android":"levelo://app?vid=de5695fa-c307-4330-a044-54d219fe24c0","ios":"levelo://app?vid=de5695fa-c307-4330-a044-54d219fe24c0"},"vehicle_type_id":"4","last_reported":1703185439,"current_range_meters":4400,"station_id":"ce4bhph2rcd13ifvqhdg","pricing_plan_id":"free"},{"bike_id":"724ff046-9e30-47f3-b8ff-e552f8fdca51","system_id":"levelo_inurba_marseille","lat":43.272124,"lon":5.391768,"is_reserved":false,"is_disabled":false,"rental_uris":{"android":"levelo://app?vid=724ff046-9e30-47f3-b8ff-e552f8fdca51","ios":"levelo://app?vid=724ff046-9e30-47f3-b8ff-e552f8fdca51"},"vehicle_type_id":"4","last_reported":1703185439,"current_range_meters":5200,"station_id":"ce4bhhp2rcd13ifvqfm0","pricing_plan_id":"free"},{"bike_id":"2385a3dc-ecc5-4c8e-b554-c8e4b25ef268","system_id":"levelo_inurba_marseille","lat":43.278128,"lon":5.407195,"is_reserved":false,"is_disabled":false,"rental_uris":{"android":"levelo://app?vid=2385a3dc-ecc5-4c8e-b554-c8e4b25ef268","ios":"levelo://app?vid=2385a3dc-ecc5-4c8e-b554-c8e4b25ef268"},"vehicle_type_id":"4","last_reported":1703185439,"current_range_meters":27600,"station_id":"ce4bhnh2rcd13ifvqgtg","pricing_plan_id":"free"},{"bike_id":"173b556b-cbc9-4f67-ad0d-7d9b61060395","system_id":"levelo_inurba_marseille","lat":43.278128,"lon":5.407195,"is_reserved":false,"is_disabled":false,"rental_uris":{"android":"levelo://app?vid=173b556b-cbc9-4f67-ad0d-7d9b61060395","ios":"levelo://app?vid=173b556b-cbc9-4f67-ad0d-7d9b61060395"},"vehicle_type_id":"4","last_reported":1703185439,"current_range_meters":13600,"station_id":"ce4bhnh2rcd13ifvqgtg","pricing_plan_id":"free"},{"bike_id":"67f570e3-0217-42f2-ac40-e4006dc5abfc","system_id":"levelo_inurba_marseille","lat":43.269467,"lon":5.386439,"is_reserved":false,"is_disabled":false,"rental_uris":{"android":"levelo://app?vid=67f570e3-0217-42f2-ac40-e4006dc5abfc","ios":"levelo://app?vid=67f570e3-0217-42f2-ac40-e4006dc5abfc"},"vehicle_type_id":"4","last_reported":1703185439,"current_range_meters":14000,"station_id":"ce4bhh92rcd13ifvqfh0","pricing_plan_id":"free"},{"bike_id":"72b2f34c-31f6-4eb9-823e-d44187203595","system_id":"levelo_inurba_marseille","lat":43.279465,"lon":5.410561,"is_reserved":false,"is_disabled":false,"rental_uris":{"android":"levelo://app?vid=72b2f34c-31f6-4eb9-823e-d44187203595","ios":"levelo://app?vid=72b2f34c-31f6-4eb9-823e-d44187203595"},"vehicle_type_id":"4","last_reported":1703185439,"current_range_meters":6800,"station_id":"ce4bhnp2rcd13ifvqh0g","pricing_plan_id":"free"},{"bike_id":"60ea0f00-3e75-4a2a-86b1-ad81cfe8ccb9","system_id":"levelo_inurba_marseille","lat":43.269319,"lon":5.389397,"is_reserved":false,"is_disabled":false,"rental_uris":{"android":"levelo://app?vid=60ea0f00-3e75-4a2a-86b1-ad81cfe8ccb9","ios":"levelo://app?vid=60ea0f00-3e75-4a2a-86b1-ad81cfe8ccb9"},"vehicle_type_id":"4","last_reported":1703185439,"current_range_meters":8000,"station_id":"ce4bhhh2rcd13ifvqfl0","pricing_plan_id":"free"},{"bike_id":"ddc116a7-beab-4d15-9d1e-d1d89e77aa33","system_id":"levelo_inurba_marseille","lat":43.265714,"lon":5.372891,"is_reserved":false,"is_disabled":false,"rental_uris":{"android":"levelo://app?vid=ddc116a7-beab-4d15-9d1e-d1d89e77aa33","ios":"levelo://app?vid=ddc116a7-beab-4d15-9d1e-d1d89e77aa33"},"vehicle_type_id":"4","last_reported":1703185439,"current_range_meters":5200,"station_id":"ce4bhg12rcd13ifvqf70","pricing_plan_id":"free"},{"bike_id":"1c7a302c-e002-41c6-8093-be66dea64a21","system_id":"levelo_inurba_marseille","lat":43.27996,"lon":5.416624,"is_reserved":false,"is_disabled":false,"rental_uris":{"android":"levelo://app?vid=1c7a302c-e002-41c6-8093-be66dea64a21","ios":"levelo://app?vid=1c7a302c-e002-41c6-8093-be66dea64a21"},"vehicle_type_id":"4","last_reported":1703185439,"current_range_meters":28000,"station_id":"ce4bho12rcd13ifvqh1g","pricing_plan_id":"free"},{"bike_id":"57a7d671-dfda-4301-b34c-9843199a6119","system_id":"levelo_inurba_marseille","lat":43.27991,"lon":5.41659,"is_reserved":false,"is_disabled":false,"rental_uris":{"android":"levelo://app?vid=57a7d671-dfda-4301-b34c-9843199a6119","ios":"levelo://app?vid=57a7d671-dfda-4301-b34c-9843199a6119"},"vehicle_type_id":"4","last_reported":1703185439,"current_range_meters":0,"station_id":"ce4bho12rcd13ifvqh1g","pricing_plan_id":"free"},{"bike_id":"ce0c4d09-c919-48d9-92ee-b40420eed1b4","system_id":"levelo_inurba_marseille","lat":43.27996,"lon":5.416624,"is_reserved":false,"is_disabled":false,"rental_uris":{"android":"levelo://app?vid=ce0c4d09-c919-48d9-92ee-b40420eed1b4","ios":"levelo://app?vid=ce0c4d09-c919-48d9-92ee-b40420eed1b4"},"vehicle_type_id":"4","last_reported":1703185439,"current_range_meters":1600,"station_id":"ce4bho12rcd13ifvqh1g","pricing_plan_id":"free"},{"bike_id":"73c210fb-a655-4271-85b4-334effb9941b","system_id":"levelo_inurba_marseille","lat":43.27996,"lon":5.416624,"is_reserved":false,"is_disabled":false,"rental_uris":{"android":"levelo://app?vid=73c210fb-a655-4271-85b4-334effb9941b","ios":"levelo://app?vid=73c210fb-a655-4271-85b4-334effb9941b"},"vehicle_type_id":"4","last_reported":1703185439,"current_range_meters":15600,"station_id":"ce4bho12rcd13ifvqh1g","pricing_plan_id":"free"},{"bike_id":"37dcc22b-f14d-44d2-a603-874563bb50d1","system_id":"levelo_inurba_marseille","lat":43.267966,"lon":5.393976,"is_reserved":false,"is_disabled":false,"rental_uris":{"android":"levelo://app?vid=37dcc22b-f14d-44d2-a603-874563bb50d1","ios":"levelo://app?vid=37dcc22b-f14d-44d2-a603-874563bb50d1"},"vehicle_type_id":"4","last_reported":1703185439,"current_range_meters":28000,"station_id":"ce4bhh12rcd13ifvqfg0","pricing_plan_id":"free"},{"bike_id":"efe7eb08-d298-4f01-88d9-3136abf93044","system_id":"levelo_inurba_marseille","lat":43.308,"lon":5.43531,"is_reserved":false,"is_disabled":false,"rental_uris":{"android":"levelo://app?vid=efe7eb08-d298-4f01-88d9-3136abf93044","ios":"levelo://app?vid=efe7eb08-d298-4f01-88d9-3136abf93044"},"vehicle_type_id":"4","last_reported":1703185439,"current_range_meters":0,"station_id":"ce4bhph2rcd13ifvqheg","pricing_plan_id":"free"},{"bike_id":"279a3cb3-e1b2-41b7-96ad-889bb30a2978","system_id":"levelo_inurba_marseille","lat":43.265569,"lon":5.390047,"is_reserved":false,"is_disabled":false,"rental_uris":{"android":"levelo://app?vid=279a3cb3-e1b2-41b7-96ad-889bb30a2978","ios":"levelo://app?vid=279a3cb3-e1b2-41b7-96ad-889bb30a2978"},"vehicle_type_id":"4","last_reported":1703185439,"current_range_meters":15600,"station_id":"ce4bhe12rcd13ifvqf30","pricing_plan_id":"free"},{"bike_id":"9f871375-a5fc-4ac4-8ec0-294a998d45ca","system_id":"levelo_inurba_marseille","lat":43.265569,"lon":5.390047,"is_reserved":false,"is_disabled":false,"rental_uris":{"android":"levelo://app?vid=9f871375-a5fc-4ac4-8ec0-294a998d45ca","ios":"levelo://app?vid=9f871375-a5fc-4ac4-8ec0-294a998d45ca"},"vehicle_type_id":"4","last_reported":1703185439,"current_range_meters":8000,"station_id":"ce4bhe12rcd13ifvqf30","pricing_plan_id":"free"},{"bike_id":"56874854-692d-4d9c-82a9-b6ca4904d248","system_id":"levelo_inurba_marseille","lat":43.26949,"lon":5.40262,"is_reserved":false,"is_disabled":false,"rental_uris":{"android":"levelo://app?vid=56874854-692d-4d9c-82a9-b6ca4904d248","ios":"levelo://app?vid=56874854-692d-4d9c-82a9-b6ca4904d248"},"vehicle_type_id":"4","last_reported":1703185439,"current_range_meters":0,"station_id":"cjm6bp8fraef2m0cb0m0","pricing_plan_id":"free"},{"bike_id":"821dba84-3267-4d46-a7c5-e6bc16d7ffd4","system_id":"levelo_inurba_marseille","lat":43.261782,"lon":5.374515,"is_reserved":false,"is_disabled":false,"rental_uris":{"android":"levelo://app?vid=821dba84-3267-4d46-a7c5-e6bc16d7ffd4","ios":"levelo://app?vid=821dba84-3267-4d46-a7c5-e6bc16d7ffd4"},"vehicle_type_id":"4","last_reported":1703185439,"current_range_meters":14800,"station_id":"ce4bhgp2rcd13ifvqfc0","pricing_plan_id":"free"},{"bike_id":"f9bd8812-361b-4cf8-a08f-c5df49e9a80a","system_id":"levelo_inurba_marseille","lat":43.31711,"lon":5.43705,"is_reserved":false,"is_disabled":false,"rental_uris":{"android":"levelo://app?vid=f9bd8812-361b-4cf8-a08f-c5df49e9a80a","ios":"levelo://app?vid=f9bd8812-361b-4cf8-a08f-c5df49e9a80a"},"vehicle_type_id":"4","last_reported":1703185439,"current_range_meters":18800,"station_id":"ce4bhp92rcd13ifvqhcg","pricing_plan_id":"free"},{"bike_id":"2e62984b-8771-47f8-8e36-d6a6f38059c0","system_id":"levelo_inurba_marseille","lat":43.317104,"lon":5.436818,"is_reserved":false,"is_disabled":false,"rental_uris":{"android":"levelo://app?vid=2e62984b-8771-47f8-8e36-d6a6f38059c0","ios":"levelo://app?vid=2e62984b-8771-47f8-8e36-d6a6f38059c0"},"vehicle_type_id":"4","last_reported":1703185439,"current_range_meters":28800,"station_id":"ce4bhp92rcd13ifvqhcg","pricing_plan_id":"free"},{"bike_id":"6f9b29e1-774b-45e7-abca-18d7537fa578","system_id":"levelo_inurba_marseille","lat":43.31713,"lon":5.43709,"is_reserved":false,"is_disabled":false,"rental_uris":{"android":"levelo://app?vid=6f9b29e1-774b-45e7-abca-18d7537fa578","ios":"levelo://app?vid=6f9b29e1-774b-45e7-abca-18d7537fa578"},"vehicle_type_id":"4","last_reported":1703185439,"current_range_meters":25600,"station_id":"ce4bhp92rcd13ifvqhcg","pricing_plan_id":"free"},{"bike_id":"2d6427c7-a10a-4b24-b0a5-95d867c65295","system_id":"levelo_inurba_marseille","lat":43.317104,"lon":5.436818,"is_reserved":false,"is_disabled":false,"rental_uris":{"android":"levelo://app?vid=2d6427c7-a10a-4b24-b0a5-95d867c65295","ios":"levelo://app?vid=2d6427c7-a10a-4b24-b0a5-95d867c65295"},"vehicle_type_id":"4","last_reported":1703185439,"current_range_meters":22400,"station_id":"ce4bhp92rcd13ifvqhcg","pricing_plan_id":"free"},{"bike_id":"56adf3c8-c8d4-4438-805b-e2423bf864eb","system_id":"levelo_inurba_marseille","lat":43.26202,"lon":5.379299,"is_reserved":false,"is_disabled":false,"rental_uris":{"android":"levelo://app?vid=56adf3c8-c8d4-4438-805b-e2423bf864eb","ios":"levelo://app?vid=56adf3c8-c8d4-4438-805b-e2423bf864eb"},"vehicle_type_id":"4","last_reported":1703185439,"current_range_meters":26000,"station_id":"ce4bhjp2rcd13ifvqg90","pricing_plan_id":"free"},{"bike_id":"fea80754-0ed8-4101-9df0-e35e99a4821b","system_id":"levelo_inurba_marseille","lat":43.271368,"lon":5.40928,"is_reserved":false,"is_disabled":false,"rental_uris":{"android":"levelo://app?vid=fea80754-0ed8-4101-9df0-e35e99a4821b","ios":"levelo://app?vid=fea80754-0ed8-4101-9df0-e35e99a4821b"},"vehicle_type_id":"4","last_reported":1703185439,"current_range_meters":28000,"station_id":"ce4bhl12rcd13ifvqgf0","pricing_plan_id":"free"},{"bike_id":"4d94d7e5-0d63-4bd9-95f3-644dbd9b0307","system_id":"levelo_inurba_marseille","lat":43.271388,"lon":5.409269,"is_reserved":false,"is_disabled":false,"rental_uris":{"android":"levelo://app?vid=4d94d7e5-0d63-4bd9-95f3-644dbd9b0307","ios":"levelo://app?vid=4d94d7e5-0d63-4bd9-95f3-644dbd9b0307"},"vehicle_type_id":"4","last_reported":1703185439,"current_range_meters":29600,"station_id":"ce4bhl12rcd13ifvqgf0","pricing_plan_id":"free"},{"bike_id":"a3cd795f-2534-4964-8a1c-de7b6de21cbb","system_id":"levelo_inurba_marseille","lat":43.267959,"lon":5.402687,"is_reserved":false,"is_disabled":false,"rental_uris":{"android":"levelo://app?vid=a3cd795f-2534-4964-8a1c-de7b6de21cbb","ios":"levelo://app?vid=a3cd795f-2534-4964-8a1c-de7b6de21cbb"},"vehicle_type_id":"4","last_reported":1703185439,"current_range_meters":20000,"station_id":"ce501612rcd8frsf0b60","pricing_plan_id":"free"},{"bike_id":"d6809aac-581e-42c4-875b-a9e38525a4ff","system_id":"levelo_inurba_marseille","lat":43.2651,"lon":5.39469,"is_reserved":false,"is_disabled":false,"rental_uris":{"android":"levelo://app?vid=d6809aac-581e-42c4-875b-a9e38525a4ff","ios":"levelo://app?vid=d6809aac-581e-42c4-875b-a9e38525a4ff"},"vehicle_type_id":"4","last_reported":1703185439,"current_range_meters":10000,"station_id":"ce4bhi12rcd13ifvqfq0","pricing_plan_id":"free"},{"bike_id":"26e8de97-911e-45db-9e41-44b1e3f7f663","system_id":"levelo_inurba_marseille","lat":43.2651,"lon":5.39469,"is_reserved":false,"is_disabled":false,"rental_uris":{"android":"levelo://app?vid=26e8de97-911e-45db-9e41-44b1e3f7f663","ios":"levelo://app?vid=26e8de97-911e-45db-9e41-44b1e3f7f663"},"vehicle_type_id":"4","last_reported":1703185439,"current_range_meters":9600,"station_id":"ce4bhi12rcd13ifvqfq0","pricing_plan_id":"free"},{"bike_id":"6b6c7129-48d9-4ed5-8d5a-18cea8a21166","system_id":"levelo_inurba_marseille","lat":43.2651,"lon":5.39469,"is_reserved":false,"is_disabled":false,"rental_uris":{"android":"levelo://app?vid=6b6c7129-48d9-4ed5-8d5a-18cea8a21166","ios":"levelo://app?vid=6b6c7129-48d9-4ed5-8d5a-18cea8a21166"},"vehicle_type_id":"4","last_reported":1703185439,"current_range_meters":12000,"station_id":"ce4bhi12rcd13ifvqfq0","pricing_plan_id":"free"},{"bike_id":"8202d3ab-8ece-40c4-ae8f-4debe2725aee","system_id":"levelo_inurba_marseille","lat":43.2651,"lon":5.39469,"is_reserved":false,"is_disabled":false,"rental_uris":{"android":"levelo://app?vid=8202d3ab-8ece-40c4-ae8f-4debe2725aee","ios":"levelo://app?vid=8202d3ab-8ece-40c4-ae8f-4debe2725aee"},"vehicle_type_id":"4","last_reported":1703185439,"current_range_meters":24400,"station_id":"ce4bhi12rcd13ifvqfq0","pricing_plan_id":"free"},{"bike_id":"77cc4bb4-f051-43ca-adab-d924c1cfe35b","system_id":"levelo_inurba_marseille","lat":43.2651,"lon":5.39469,"is_reserved":false,"is_disabled":false,"rental_uris":{"android":"levelo://app?vid=77cc4bb4-f051-43ca-adab-d924c1cfe35b","ios":"levelo://app?vid=77cc4bb4-f051-43ca-adab-d924c1cfe35b"},"vehicle_type_id":"4","last_reported":1703185439,"current_range_meters":23200,"station_id":"ce4bhi12rcd13ifvqfq0","pricing_plan_id":"free"},{"bike_id":"89859879-2644-4079-b6f8-de3a1c54f853","system_id":"levelo_inurba_marseille","lat":43.2651,"lon":5.39469,"is_reserved":false,"is_disabled":false,"rental_uris":{"android":"levelo://app?vid=89859879-2644-4079-b6f8-de3a1c54f853","ios":"levelo://app?vid=89859879-2644-4079-b6f8-de3a1c54f853"},"vehicle_type_id":"4","last_reported":1703185439,"current_range_meters":16000,"station_id":"ce4bhi12rcd13ifvqfq0","pricing_plan_id":"free"},{"bike_id":"9bc11cf7-d766-47fb-a2ac-1ffa731b216c","system_id":"levelo_inurba_marseille","lat":43.298768,"lon":5.43643,"is_reserved":false,"is_disabled":false,"rental_uris":{"android":"levelo://app?vid=9bc11cf7-d766-47fb-a2ac-1ffa731b216c","ios":"levelo://app?vid=9bc11cf7-d766-47fb-a2ac-1ffa731b216c"},"vehicle_type_id":"4","last_reported":1703185439,"current_range_meters":32000,"station_id":"ce4bhpp2rcd13ifvqhfg","pricing_plan_id":"free"},{"bike_id":"7410f272-74ba-4f01-a016-a1b5f00b4c40","system_id":"levelo_inurba_marseille","lat":43.298768,"lon":5.43643,"is_reserved":false,"is_disabled":false,"rental_uris":{"android":"levelo://app?vid=7410f272-74ba-4f01-a016-a1b5f00b4c40","ios":"levelo://app?vid=7410f272-74ba-4f01-a016-a1b5f00b4c40"},"vehicle_type_id":"4","last_reported":1703185439,"current_range_meters":30000,"station_id":"ce4bhpp2rcd13ifvqhfg","pricing_plan_id":"free"},{"bike_id":"d0ec43d4-ca95-4f38-8978-a530b69cbf7b","system_id":"levelo_inurba_marseille","lat":43.281548,"lon":5.42643,"is_reserved":false,"is_disabled":false,"rental_uris":{"android":"levelo://app?vid=d0ec43d4-ca95-4f38-8978-a530b69cbf7b","ios":"levelo://app?vid=d0ec43d4-ca95-4f38-8978-a530b69cbf7b"},"vehicle_type_id":"4","last_reported":1703185439,"current_range_meters":5600,"station_id":"ce4bhnh2rcd13ifvqgug","pricing_plan_id":"free"},{"bike_id":"8642978e-eb6b-4fb7-b66e-b24c69cf7eed","system_id":"levelo_inurba_marseille","lat":43.2607,"lon":5.393983,"is_reserved":false,"is_disabled":false,"rental_uris":{"android":"levelo://app?vid=8642978e-eb6b-4fb7-b66e-b24c69cf7eed","ios":"levelo://app?vid=8642978e-eb6b-4fb7-b66e-b24c69cf7eed"},"vehicle_type_id":"4","last_reported":1703185439,"current_range_meters":4400,"station_id":"ce4bhh92rcd13ifvqfj0","pricing_plan_id":"free"},{"bike_id":"46c6f447-9ad7-42c0-8c91-57cd05497973","system_id":"levelo_inurba_marseille","lat":43.2607,"lon":5.393983,"is_reserved":false,"is_disabled":false,"rental_uris":{"android":"levelo://app?vid=46c6f447-9ad7-42c0-8c91-57cd05497973","ios":"levelo://app?vid=46c6f447-9ad7-42c0-8c91-57cd05497973"},"vehicle_type_id":"4","last_reported":1703185439,"current_range_meters":3600,"station_id":"ce4bhh92rcd13ifvqfj0","pricing_plan_id":"free"},{"bike_id":"dec2afc1-cb0f-4751-8485-0988c5a5ccaa","system_id":"levelo_inurba_marseille","lat":43.26064,"lon":5.394,"is_reserved":false,"is_disabled":false,"rental_uris":{"android":"levelo://app?vid=dec2afc1-cb0f-4751-8485-0988c5a5ccaa","ios":"levelo://app?vid=dec2afc1-cb0f-4751-8485-0988c5a5ccaa"},"vehicle_type_id":"4","last_reported":1703185439,"current_range_meters":19200,"station_id":"ce4bhh92rcd13ifvqfj0","pricing_plan_id":"free"},{"bike_id":"1b03c98e-0773-4c4c-94e7-5e318ad4de69","system_id":"levelo_inurba_marseille","lat":43.2607,"lon":5.393983,"is_reserved":false,"is_disabled":false,"rental_uris":{"android":"levelo://app?vid=1b03c98e-0773-4c4c-94e7-5e318ad4de69","ios":"levelo://app?vid=1b03c98e-0773-4c4c-94e7-5e318ad4de69"},"vehicle_type_id":"4","last_reported":1703185439,"current_range_meters":18800,"station_id":"ce4bhh92rcd13ifvqfj0","pricing_plan_id":"free"},{"bike_id":"c22eec67-2f51-42d4-b562-710f7a65cdcc","system_id":"levelo_inurba_marseille","lat":43.2607,"lon":5.393983,"is_reserved":false,"is_disabled":false,"rental_uris":{"android":"levelo://app?vid=c22eec67-2f51-42d4-b562-710f7a65cdcc","ios":"levelo://app?vid=c22eec67-2f51-42d4-b562-710f7a65cdcc"},"vehicle_type_id":"4","last_reported":1703185439,"current_range_meters":31200,"station_id":"ce4bhh92rcd13ifvqfj0","pricing_plan_id":"free"},{"bike_id":"25d2fc2d-047e-4f81-a046-77f3a327c2fd","system_id":"levelo_inurba_marseille","lat":43.258234,"lon":5.394394,"is_reserved":false,"is_disabled":false,"rental_uris":{"android":"levelo://app?vid=25d2fc2d-047e-4f81-a046-77f3a327c2fd","ios":"levelo://app?vid=25d2fc2d-047e-4f81-a046-77f3a327c2fd"},