{"last_updated":1749589803,"ttl":60,"version":"2.2","data":{"bikes":[{"bike_id":"99c6cfb4-33e3-40b1-b332-3a4f0e9a9765","system_id":"levelo_inurba_marseille","lat":43.29028,"lon":5.3998,"is_reserved":false,"is_disabled":false,"rental_uris":{"android":"levelo://app?vid=99c6cfb4-33e3-40b1-b332-3a4f0e9a9765","ios":"levelo://app?vid=99c6cfb4-33e3-40b1-b332-3a4f0e9a9765"},"vehicle_type_id":"4","last_reported":1749589803,"current_range_meters":2800,"station_id":"ce4bh392rcd13ifvqdm0","pricing_plan_id":"cebpf4jnsgd1na2vs0mg"},{"bike_id":"4eba7b3a-e3dc-4d18-8f62-8373927e06cd","system_id":"levelo_inurba_marseille","lat":43.29764,"lon":5.38086,"is_reserved":false,"is_disabled":false,"rental_uris":{"android":"levelo://app?vid=4eba7b3a-e3dc-4d18-8f62-8373927e06cd","ios":"levelo://app?vid=4eba7b3a-e3dc-4d18-8f62-8373927e06cd"},"vehicle_type_id":"4","last_reported":1749589803,"current_range_meters":2800,"station_id":"ce4bgip2rcd13ifvqbb0","pricing_plan_id":"cebpf4jnsgd1na2vs0mg"},{"bike_id":"db3d96ee-95f7-4427-8a84-6b671872c551","system_id":"levelo_inurba_marseille","lat":43.308,"lon":5.38156,"is_reserved":false,"is_disabled":false,"rental_uris":{"android":"levelo://app?vid=db3d96ee-95f7-4427-8a84-6b671872c551","ios":"levelo://app?vid=db3d96ee-95f7-4427-8a84-6b671872c551"},"vehicle_type_id":"4","last_reported":1749589803,"current_range_meters":3200,"station_id":"ce4bgt12rcd13ifvqce0","pricing_plan_id":"cebpf4jnsgd1na2vs0mg"},{"bike_id":"3dd4f0dd-7389-4862-b0c7-8f3384d38e62","system_id":"levelo_inurba_marseille","lat":43.30637,"lon":5.40058,"is_reserved":false,"is_disabled":false,"rental_uris":{"android":"levelo://app?vid=3dd4f0dd-7389-4862-b0c7-8f3384d38e62","ios":"levelo://app?vid=3dd4f0dd-7389-4862-b0c7-8f3384d38e62"},"vehicle_type_id":"4","last_reported":1749589803,"current_range_meters":3200,"station_id":"ce4bh112rcd13ifvqda0","pricing_plan_id":"cebpf4jnsgd1na2vs0mg"},{"bike_id":"36fb2af6-d80a-4efe-a2e0-dbbcf52914c0","system_id":"levelo_inurba_marseille","lat":43.30429,"lon":5.38889,"is_reserved":false,"is_disabled":false,"rental_uris":{"android":"levelo://app?vid=36fb2af6-d80a-4efe-a2e0-dbbcf52914c0","ios":"levelo://app?vid=36fb2af6-d80a-4efe-a2e0-dbbcf52914c0"},"vehicle_type_id":"4","last_reported":1749589803,"current_range_meters":3200,"station_id":"ce4bgk12rcd13ifvqbi0","pricing_plan_id":"cebpf4jnsgd1na2vs0mg"},{"bike_id":"71dfd4fa-33c2-4278-ac3b-08be10f0b6e8","system_id":"levelo_inurba_marseille","lat":43.28606,"lon":5.37064,"is_reserved":false,"is_disabled":false,"rental_uris":{"android":"levelo://app?vid=71dfd4fa-33c2-4278-ac3b-08be10f0b6e8","ios":"levelo://app?vid=71dfd4fa-33c2-4278-ac3b-08be10f0b6e8"},"vehicle_type_id":"4","last_reported":1749589803,"current_range_meters":3200,"station_id":"ce4bht12rcd13ifvqi60","pricing_plan_id":"cebpf4jnsgd1na2vs0mg"},{"bike_id":"1a88690d-a02d-4e58-beb6-05bec1bff03a","system_id":"levelo_inurba_marseille","lat":43.29033,"lon":5.39954,"is_reserved":false,"is_disabled":false,"rental_uris":{"android":"levelo://app?vid=1a88690d-a02d-4e58-beb6-05bec1bff03a","ios":"levelo://app?vid=1a88690d-a02d-4e58-beb6-05bec1bff03a"},"vehicle_type_id":"4","last_reported":1749589803,"current_range_meters":3600,"station_id":"ce4bh392rcd13ifvqdm0","pricing_plan_id":"cebpf4jnsgd1na2vs0mg"},{"bike_id":"2ec47444-e10a-48d2-8598-072cf3320a77","system_id":"levelo_inurba_marseille","lat":43.31687,"lon":5.40479,"is_reserved":false,"is_disabled":false,"rental_uris":{"android":"levelo://app?vid=2ec47444-e10a-48d2-8598-072cf3320a77","ios":"levelo://app?vid=2ec47444-e10a-48d2-8598-072cf3320a77"},"vehicle_type_id":"4","last_reported":1749589803,"current_range_meters":3200,"station_id":"ce4bh012rcd13ifvqd00","pricing_plan_id":"cebpf4jnsgd1na2vs0mg"},{"bike_id":"4f6776e0-7b98-4e4a-a3e2-aa0252e76f16","system_id":"levelo_inurba_marseille","lat":43.29885,"lon":5.38138,"is_reserved":false,"is_disabled":false,"rental_uris":{"android":"levelo://app?vid=4f6776e0-7b98-4e4a-a3e2-aa0252e76f16","ios":"levelo://app?vid=4f6776e0-7b98-4e4a-a3e2-aa0252e76f16"},"vehicle_type_id":"4","last_reported":1749589803,"current_range_meters":3600,"station_id":"ce4bgj12rcd13ifvqbc0","pricing_plan_id":"cebpf4jnsgd1na2vs0mg"},{"bike_id":"d42a9ef7-0e69-4a71-8581-bd27b7538daf","system_id":"levelo_inurba_marseille","lat":43.31082,"lon":5.42438,"is_reserved":false,"is_disabled":false,"rental_uris":{"android":"levelo://app?vid=d42a9ef7-0e69-4a71-8581-bd27b7538daf","ios":"levelo://app?vid=d42a9ef7-0e69-4a71-8581-bd27b7538daf"},"vehicle_type_id":"4","last_reported":1749589803,"current_range_meters":3600,"station_id":"ce4bhp92rcd13ifvqhag","pricing_plan_id":"cebpf4jnsgd1na2vs0mg"},{"bike_id":"075bcc1c-00c9-4fd8-a40b-99e2169b60e0","system_id":"levelo_inurba_marseille","lat":43.3092,"lon":5.40139,"is_reserved":false,"is_disabled":false,"rental_uris":{"android":"levelo://app?vid=075bcc1c-00c9-4fd8-a40b-99e2169b60e0","ios":"levelo://app?vid=075bcc1c-00c9-4fd8-a40b-99e2169b60e0"},"vehicle_type_id":"4","last_reported":1749589803,"current_range_meters":3600,"station_id":"ce4bgvp2rcd13ifvqct0","pricing_plan_id":"cebpf4jnsgd1na2vs0mg"},{"bike_id":"6bddee8e-7855-4383-9432-fdedd2d41e1e","system_id":"levelo_inurba_marseille","lat":43.26838,"lon":5.37101,"is_reserved":false,"is_disabled":false,"rental_uris":{"android":"levelo://app?vid=6bddee8e-7855-4383-9432-fdedd2d41e1e","ios":"levelo://app?vid=6bddee8e-7855-4383-9432-fdedd2d41e1e"},"vehicle_type_id":"4","last_reported":1749589803,"current_range_meters":4000,"station_id":"","pricing_plan_id":"cebpf4jnsgd1na2vs0mg"},{"bike_id":"2d1f9efe-dceb-44e0-b41f-5685a14a4ecc","system_id":"levelo_inurba_marseille","lat":43.23039,"lon":5.35479,"is_reserved":false,"is_disabled":true,"rental_uris":{"android":"levelo://app?vid=2d1f9efe-dceb-44e0-b41f-5685a14a4ecc","ios":"levelo://app?vid=2d1f9efe-dceb-44e0-b41f-5685a14a4ecc"},"vehicle_type_id":"4","last_reported":1749589803,"current_range_meters":4000,"station_id":"cpo3342slgdg3j2ifvpg","pricing_plan_id":"cebpf4jnsgd1na2vs0mg"},{"bike_id":"aa30b231-0528-4ad8-8c05-8279beed0fb9","system_id":"levelo_inurba_marseille","lat":43.30793,"lon":5.38148,"is_reserved":false,"is_disabled":false,"rental_uris":{"android":"levelo://app?vid=aa30b231-0528-4ad8-8c05-8279beed0fb9","ios":"levelo://app?vid=aa30b231-0528-4ad8-8c05-8279beed0fb9"},"vehicle_type_id":"4","last_reported":1749589803,"current_range_meters":4000,"station_id":"ce4bgt12rcd13ifvqce0","pricing_plan_id":"cebpf4jnsgd1na2vs0mg"},{"bike_id":"dd67f108-95bf-4a1e-b619-4bb77e009c5b","system_id":"levelo_inurba_marseille","lat":43.290704,"lon":5.427537,"is_reserved":false,"is_disabled":false,"rental_uris":{"android":"levelo://app?vid=dd67f108-95bf-4a1e-b619-4bb77e009c5b","ios":"levelo://app?vid=dd67f108-95bf-4a1e-b619-4bb77e009c5b"},"vehicle_type_id":"4","last_reported":1749589803,"current_range_meters":4400,"station_id":"","pricing_plan_id":"cebpf4jnsgd1na2vs0mg"},{"bike_id":"b2632a65-9fe6-4a56-b8a4-f89ec3c484de","system_id":"levelo_inurba_marseille","lat":43.28735,"lon":5.36079,"is_reserved":false,"is_disabled":false,"rental_uris":{"android":"levelo://app?vid=b2632a65-9fe6-4a56-b8a4-f89ec3c484de","ios":"levelo://app?vid=b2632a65-9fe6-4a56-b8a4-f89ec3c484de"},"vehicle_type_id":"4","last_reported":1749589803,"current_range_meters":4800,"station_id":"cki0cbj6b192h4jlfktg","pricing_plan_id":"cebpf4jnsgd1na2vs0mg"},{"bike_id":"b323ce18-6ea8-4a24-8888-4341d364e764","system_id":"levelo_inurba_marseille","lat":43.28755,"lon":5.36171,"is_reserved":false,"is_disabled":false,"rental_uris":{"android":"levelo://app?vid=b323ce18-6ea8-4a24-8888-4341d364e764","ios":"levelo://app?vid=b323ce18-6ea8-4a24-8888-4341d364e764"},"vehicle_type_id":"4","last_reported":1749589803,"current_range_meters":4800,"station_id":"","pricing_plan_id":"cebpf4jnsgd1na2vs0mg"},{"bike_id":"b4012967-9d2e-4c09-904e-daa50f31b675","system_id":"levelo_inurba_marseille","lat":43.284784,"lon":5.384318,"is_reserved":false,"is_disabled":true,"rental_uris":{"android":"levelo://app?vid=b4012967-9d2e-4c09-904e-daa50f31b675","ios":"levelo://app?vid=b4012967-9d2e-4c09-904e-daa50f31b675"},"vehicle_type_id":"4","last_reported":1749589803,"current_range_meters":6000,"station_id":"ce4bh512rcd13ifvqe3g","pricing_plan_id":"cebpf4jnsgd1na2vs0mg"},{"bike_id":"0dab0640-4f37-44c9-a342-7ae6aa1ebd03","system_id":"levelo_inurba_marseille","lat":43.303837,"lon":5.418079,"is_reserved":false,"is_disabled":false,"rental_uris":{"android":"levelo://app?vid=0dab0640-4f37-44c9-a342-7ae6aa1ebd03","ios":"levelo://app?vid=0dab0640-4f37-44c9-a342-7ae6aa1ebd03"},"vehicle_type_id":"4","last_reported":1749589803,"current_range_meters":6000,"station_id":"ce4bhop2rcd13ifvqh7g","pricing_plan_id":"cebpf4jnsgd1na2vs0mg"},{"bike_id":"a5209074-b007-4550-bd8e-f1beeae485ea","system_id":"levelo_inurba_marseille","lat":43.28704,"lon":5.3999,"is_reserved":false,"is_disabled":false,"rental_uris":{"android":"levelo://app?vid=a5209074-b007-4550-bd8e-f1beeae485ea","ios":"levelo://app?vid=a5209074-b007-4550-bd8e-f1beeae485ea"},"vehicle_type_id":"4","last_reported":1749589803,"current_range_meters":6000,"station_id":"ce4bho92rcd13ifvqh3g","pricing_plan_id":"cebpf4jnsgd1na2vs0mg"},{"bike_id":"f0782932-4f65-40fc-9cee-a635f880f137","system_id":"levelo_inurba_marseille","lat":43.32308,"lon":5.36692,"is_reserved":false,"is_disabled":false,"rental_uris":{"android":"levelo://app?vid=f0782932-4f65-40fc-9cee-a635f880f137","ios":"levelo://app?vid=f0782932-4f65-40fc-9cee-a635f880f137"},"vehicle_type_id":"4","last_reported":1749589803,"current_range_meters":6400,"station_id":"ce4bhsh2rcd13ifvqi2g","pricing_plan_id":"cebpf4jnsgd1na2vs0mg"},{"bike_id":"4535a221-06e6-498b-a6c9-999fb8c9300a","system_id":"levelo_inurba_marseille","lat":43.29791,"lon":5.40395,"is_reserved":false,"is_disabled":false,"rental_uris":{"android":"levelo://app?vid=4535a221-06e6-498b-a6c9-999fb8c9300a","ios":"levelo://app?vid=4535a221-06e6-498b-a6c9-999fb8c9300a"},"vehicle_type_id":"4","last_reported":1749589803,"current_range_meters":6400,"station_id":"ce4bh112rcd13ifvqd90","pricing_plan_id":"cebpf4jnsgd1na2vs0mg"},{"bike_id":"dd93f3dd-8e10-4a88-9292-0c2e03c8f484","system_id":"levelo_inurba_marseille","lat":43.29261,"lon":5.40913,"is_reserved":false,"is_disabled":false,"rental_uris":{"android":"levelo://app?vid=dd93f3dd-8e10-4a88-9292-0c2e03c8f484","ios":"levelo://app?vid=dd93f3dd-8e10-4a88-9292-0c2e03c8f484"},"vehicle_type_id":"4","last_reported":1749589803,"current_range_meters":6400,"station_id":"ce4bh192rcd13ifvqdc0","pricing_plan_id":"cebpf4jnsgd1na2vs0mg"},{"bike_id":"f069439b-750c-424a-b619-732b0da17305","system_id":"levelo_inurba_marseille","lat":43.31307,"lon":5.37136,"is_reserved":false,"is_disabled":false,"rental_uris":{"android":"levelo://app?vid=f069439b-750c-424a-b619-732b0da17305","ios":"levelo://app?vid=f069439b-750c-424a-b619-732b0da17305"},"vehicle_type_id":"4","last_reported":1749589803,"current_range_meters":6400,"station_id":"","pricing_plan_id":"cebpf4jnsgd1na2vs0mg"},{"bike_id":"b81c8b70-8994-4582-ad19-4d9d5a175f79","system_id":"levelo_inurba_marseille","lat":43.2962,"lon":5.37042,"is_reserved":false,"is_disabled":false,"rental_uris":{"android":"levelo://app?vid=b81c8b70-8994-4582-ad19-4d9d5a175f79","ios":"levelo://app?vid=b81c8b70-8994-4582-ad19-4d9d5a175f79"},"vehicle_type_id":"4","last_reported":1749589803,"current_range_meters":6400,"station_id":"","pricing_plan_id":"cebpf4jnsgd1na2vs0mg"},{"bike_id":"af1841ec-1ac4-449e-b042-a96da6a58fec","system_id":"levelo_inurba_marseille","lat":43.28934,"lon":5.36639,"is_reserved":false,"is_disabled":false,"rental_uris":{"android":"levelo://app?vid=af1841ec-1ac4-449e-b042-a96da6a58fec","ios":"levelo://app?vid=af1841ec-1ac4-449e-b042-a96da6a58fec"},"vehicle_type_id":"4","last_reported":1749589803,"current_range_meters":6400,"station_id":"ce4bhap2rcd13ifvqek0","pricing_plan_id":"cebpf4jnsgd1na2vs0mg"},{"bike_id":"952dda3a-6e54-4771-89fc-7be3d367dd3d","system_id":"levelo_inurba_marseille","lat":43.29256,"lon":5.40908,"is_reserved":false,"is_disabled":false,"rental_uris":{"android":"levelo://app?vid=952dda3a-6e54-4771-89fc-7be3d367dd3d","ios":"levelo://app?vid=952dda3a-6e54-4771-89fc-7be3d367dd3d"},"vehicle_type_id":"4","last_reported":1749589803,"current_range_meters":6800,"station_id":"ce4bh192rcd13ifvqdc0","pricing_plan_id":"cebpf4jnsgd1na2vs0mg"},{"bike_id":"62c8e5b6-6ec4-4d11-baf5-34a806237191","system_id":"levelo_inurba_marseille","lat":43.29024,"lon":5.38651,"is_reserved":false,"is_disabled":false,"rental_uris":{"android":"levelo://app?vid=62c8e5b6-6ec4-4d11-baf5-34a806237191","ios":"levelo://app?vid=62c8e5b6-6ec4-4d11-baf5-34a806237191"},"vehicle_type_id":"4","last_reported":1749589803,"current_range_meters":6800,"station_id":"ce4bh4p2rcd13ifvqe0g","pricing_plan_id":"cebpf4jnsgd1na2vs0mg"},{"bike_id":"33e46029-55e9-44bf-9d19-d05b961e9471","system_id":"levelo_inurba_marseille","lat":43.28043,"lon":5.36939,"is_reserved":false,"is_disabled":false,"rental_uris":{"android":"levelo://app?vid=33e46029-55e9-44bf-9d19-d05b961e9471","ios":"levelo://app?vid=33e46029-55e9-44bf-9d19-d05b961e9471"},"vehicle_type_id":"4","last_reported":1749589803,"current_range_meters":6800,"station_id":"ce4bha12rcd13ifvqef0","pricing_plan_id":"cebpf4jnsgd1na2vs0mg"},{"bike_id":"88113087-f0bb-4133-ab2a-bbfce1f3d99a","system_id":"levelo_inurba_marseille","lat":43.31702,"lon":5.40441,"is_reserved":false,"is_disabled":true,"rental_uris":{"android":"levelo://app?vid=88113087-f0bb-4133-ab2a-bbfce1f3d99a","ios":"levelo://app?vid=88113087-f0bb-4133-ab2a-bbfce1f3d99a"},"vehicle_type_id":"4","last_reported":1749589803,"current_range_meters":6800,"station_id":"ce4bh012rcd13ifvqd00","pricing_plan_id":"cebpf4jnsgd1na2vs0mg"},{"bike_id":"8aaf160b-5145-4216-8d8a-dbabf43143b3","system_id":"levelo_inurba_marseille","lat":43.31164,"lon":5.3871,"is_reserved":false,"is_disabled":false,"rental_uris":{"android":"levelo://app?vid=8aaf160b-5145-4216-8d8a-dbabf43143b3","ios":"levelo://app?vid=8aaf160b-5145-4216-8d8a-dbabf43143b3"},"vehicle_type_id":"4","last_reported":1749589803,"current_range_meters":6800,"station_id":"ce4bgv12rcd13ifvqcp0","pricing_plan_id":"cebpf4jnsgd1na2vs0mg"},{"bike_id":"4bbf18c4-952a-4eb4-8649-6803f058eaa5","system_id":"levelo_inurba_marseille","lat":43.33355,"lon":5.43004,"is_reserved":false,"is_disabled":false,"rental_uris":{"android":"levelo://app?vid=4bbf18c4-952a-4eb4-8649-6803f058eaa5","ios":"levelo://app?vid=4bbf18c4-952a-4eb4-8649-6803f058eaa5"},"vehicle_type_id":"4","last_reported":1749589803,"current_range_meters":6800,"station_id":"","pricing_plan_id":"cebpf4jnsgd1na2vs0mg"},{"bike_id":"2f7cabb5-e94f-4e31-9abf-a89e23443894","system_id":"levelo_inurba_marseille","lat":43.3043,"lon":5.38884,"is_reserved":false,"is_disabled":false,"rental_uris":{"android":"levelo://app?vid=2f7cabb5-e94f-4e31-9abf-a89e23443894","ios":"levelo://app?vid=2f7cabb5-e94f-4e31-9abf-a89e23443894"},"vehicle_type_id":"4","last_reported":1749589803,"current_range_meters":7200,"station_id":"ce4bgk12rcd13ifvqbi0","pricing_plan_id":"cebpf4jnsgd1na2vs0mg"},{"bike_id":"4ffa468b-e07e-48f4-929f-c133992a33dc","system_id":"levelo_inurba_marseille","lat":43.29246,"lon":5.40165,"is_reserved":false,"is_disabled":false,"rental_uris":{"android":"levelo://app?vid=4ffa468b-e07e-48f4-929f-c133992a33dc","ios":"levelo://app?vid=4ffa468b-e07e-48f4-929f-c133992a33dc"},"vehicle_type_id":"4","last_reported":1749589803,"current_range_meters":7200,"station_id":"ce4bh312rcd13ifvqdk0","pricing_plan_id":"cebpf4jnsgd1na2vs0mg"},{"bike_id":"3c50889a-9a6c-4af0-a722-9cf082f51ee6","system_id":"levelo_inurba_marseille","lat":43.31265,"lon":5.40161,"is_reserved":false,"is_disabled":false,"rental_uris":{"android":"levelo://app?vid=3c50889a-9a6c-4af0-a722-9cf082f51ee6","ios":"levelo://app?vid=3c50889a-9a6c-4af0-a722-9cf082f51ee6"},"vehicle_type_id":"4","last_reported":1749589803,"current_range_meters":7200,"station_id":"ce4bh092rcd13ifvqd30","pricing_plan_id":"cebpf4jnsgd1na2vs0mg"},{"bike_id":"e382fed1-9c9e-4e5f-bff0-c12e87647065","system_id":"levelo_inurba_marseille","lat":43.29267,"lon":5.40121,"is_reserved":false,"is_disabled":false,"rental_uris":{"android":"levelo://app?vid=e382fed1-9c9e-4e5f-bff0-c12e87647065","ios":"levelo://app?vid=e382fed1-9c9e-4e5f-bff0-c12e87647065"},"vehicle_type_id":"4","last_reported":1749589803,"current_range_meters":7200,"station_id":"ce4bh312rcd13ifvqdk0","pricing_plan_id":"cebpf4jnsgd1na2vs0mg"},{"bike_id":"718c5527-c9ec-49ff-a32a-986c14c51d7d","system_id":"levelo_inurba_marseille","lat":43.25867,"lon":5.39896,"is_reserved":false,"is_disabled":false,"rental_uris":{"android":"levelo://app?vid=718c5527-c9ec-49ff-a32a-986c14c51d7d","ios":"levelo://app?vid=718c5527-c9ec-49ff-a32a-986c14c51d7d"},"vehicle_type_id":"4","last_reported":1749589803,"current_range_meters":7200,"station_id":"ce4bhl92rcd13ifvqghg","pricing_plan_id":"cebpf4jnsgd1na2vs0mg"},{"bike_id":"61ed2771-c5d1-4bbb-94c2-3bcd33c6ad33","system_id":"levelo_inurba_marseille","lat":43.29527,"lon":5.38536,"is_reserved":false,"is_disabled":false,"rental_uris":{"android":"levelo://app?vid=61ed2771-c5d1-4bbb-94c2-3bcd33c6ad33","ios":"levelo://app?vid=61ed2771-c5d1-4bbb-94c2-3bcd33c6ad33"},"vehicle_type_id":"4","last_reported":1749589803,"current_range_meters":8000,"station_id":"ce4bgih2rcd13ifvqba0","pricing_plan_id":"cebpf4jnsgd1na2vs0mg"},{"bike_id":"5633a011-e661-4aff-8d3a-2b4f8278605a","system_id":"levelo_inurba_marseille","lat":43.30877,"lon":5.39656,"is_reserved":false,"is_disabled":false,"rental_uris":{"android":"levelo://app?vid=5633a011-e661-4aff-8d3a-2b4f8278605a","ios":"levelo://app?vid=5633a011-e661-4aff-8d3a-2b4f8278605a"},"vehicle_type_id":"4","last_reported":1749589803,"current_range_meters":8000,"station_id":"ce4bh012rcd13ifvqcv0","pricing_plan_id":"cebpf4jnsgd1na2vs0mg"},{"bike_id":"c4e2db33-c170-448d-affa-523fc683361c","system_id":"levelo_inurba_marseille","lat":43.27899,"lon":5.38015,"is_reserved":false,"is_disabled":false,"rental_uris":{"android":"levelo://app?vid=c4e2db33-c170-448d-affa-523fc683361c","ios":"levelo://app?vid=c4e2db33-c170-448d-affa-523fc683361c"},"vehicle_type_id":"4","last_reported":1749589803,"current_range_meters":8400,"station_id":"ce4bhf92rcd13ifvqf50","pricing_plan_id":"cebpf4jnsgd1na2vs0mg"},{"bike_id":"61701c09-3233-41d0-a44d-86c19a5e7243","system_id":"levelo_inurba_marseille","lat":43.24644,"lon":5.38892,"is_reserved":false,"is_disabled":false,"rental_uris":{"android":"levelo://app?vid=61701c09-3233-41d0-a44d-86c19a5e7243","ios":"levelo://app?vid=61701c09-3233-41d0-a44d-86c19a5e7243"},"vehicle_type_id":"4","last_reported":1749589803,"current_range_meters":8400,"station_id":"ce4bhg12rcd13ifvqf60","pricing_plan_id":"cebpf4jnsgd1na2vs0mg"},{"bike_id":"c80b951c-40ca-49ec-bb96-9b23afa6204e","system_id":"levelo_inurba_marseille","lat":43.29895,"lon":5.38446,"is_reserved":false,"is_disabled":false,"rental_uris":{"android":"levelo://app?vid=c80b951c-40ca-49ec-bb96-9b23afa6204e","ios":"levelo://app?vid=c80b951c-40ca-49ec-bb96-9b23afa6204e"},"vehicle_type_id":"4","last_reported":1749589803,"current_range_meters":8400,"station_id":"","pricing_plan_id":"cebpf4jnsgd1na2vs0mg"},{"bike_id":"df0bf95e-b0d2-446e-9481-f5d66e904f86","system_id":"levelo_inurba_marseille","lat":43.30927,"lon":5.40145,"is_reserved":false,"is_disabled":false,"rental_uris":{"android":"levelo://app?vid=df0bf95e-b0d2-446e-9481-f5d66e904f86","ios":"levelo://app?vid=df0bf95e-b0d2-446e-9481-f5d66e904f86"},"vehicle_type_id":"4","last_reported":1749589803,"current_range_meters":8400,"station_id":"ce4bgvp2rcd13ifvqct0","pricing_plan_id":"cebpf4jnsgd1na2vs0mg"},{"bike_id":"b6285f6b-e9e7-470d-9b6d-1afe99ab71bf","system_id":"levelo_inurba_marseille","lat":43.26197,"lon":5.42077,"is_reserved":false,"is_disabled":false,"rental_uris":{"android":"levelo://app?vid=b6285f6b-e9e7-470d-9b6d-1afe99ab71bf","ios":"levelo://app?vid=b6285f6b-e9e7-470d-9b6d-1afe99ab71bf"},"vehicle_type_id":"4","last_reported":1749589803,"current_range_meters":8800,"station_id":"","pricing_plan_id":"cebpf4jnsgd1na2vs0mg"},{"bike_id":"11e5e8b2-7430-4d75-9f3e-94fa5534b756","system_id":"levelo_inurba_marseille","lat":43.229279,"lon":5.353753,"is_reserved":false,"is_disabled":false,"rental_uris":{"android":"levelo://app?vid=11e5e8b2-7430-4d75-9f3e-94fa5534b756","ios":"levelo://app?vid=11e5e8b2-7430-4d75-9f3e-94fa5534b756"},"vehicle_type_id":"4","last_reported":1749589803,"current_range_meters":8800,"station_id":"ce4bhc92rcd13ifvqetg","pricing_plan_id":"cebpf4jnsgd1na2vs0mg"},{"bike_id":"581a1fae-0490-4615-a024-a832337ebdd7","system_id":"levelo_inurba_marseille","lat":43.33717,"lon":5.39178,"is_reserved":false,"is_disabled":false,"rental_uris":{"android":"levelo://app?vid=581a1fae-0490-4615-a024-a832337ebdd7","ios":"levelo://app?vid=581a1fae-0490-4615-a024-a832337ebdd7"},"vehicle_type_id":"4","last_reported":1749589803,"current_range_meters":8800,"station_id":"ce4bhr92rcd13ifvqhsg","pricing_plan_id":"cebpf4jnsgd1na2vs0mg"},{"bike_id":"532fd0b1-29df-482f-be72-46707051d251","system_id":"levelo_inurba_marseille","lat":43.27425,"lon":5.39414,"is_reserved":false,"is_disabled":false,"rental_uris":{"android":"levelo://app?vid=532fd0b1-29df-482f-be72-46707051d251","ios":"levelo://app?vid=532fd0b1-29df-482f-be72-46707051d251"},"vehicle_type_id":"4","last_reported":1749589803,"current_range_meters":8800,"station_id":"ce4bhdp2rcd13ifvqf20","pricing_plan_id":"cebpf4jnsgd1na2vs0mg"},{"bike_id":"69adf9f2-3ed7-46dd-9acc-dc2d5a3814c5","system_id":"levelo_inurba_marseille","lat":43.26227,"lon":5.40445,"is_reserved":false,"is_disabled":false,"rental_uris":{"android":"levelo://app?vid=69adf9f2-3ed7-46dd-9acc-dc2d5a3814c5","ios":"levelo://app?vid=69adf9f2-3ed7-46dd-9acc-dc2d5a3814c5"},"vehicle_type_id":"4","last_reported":1749589803,"current_range_meters":8800,"station_id":"ce4bhmh2rcd13ifvqgmg","pricing_plan_id":"cebpf4jnsgd1na2vs0mg"},{"bike_id":"410775ce-576c-4273-9564-8b2f9c2a67bf","system_id":"levelo_inurba_marseille","lat":43.28338,"lon":5.38104,"is_reserved":false,"is_disabled":false,"rental_uris":{"android":"levelo://app?vid=410775ce-576c-4273-9564-8b2f9c2a67bf","ios":"levelo://app?vid=410775ce-576c-4273-9564-8b2f9c2a67bf"},"vehicle_type_id":"4","last_reported":1749589803,"current_range_meters":8800,"station_id":"ce4bh412rcd13ifvqdr0","pricing_plan_id":"cebpf4jnsgd1na2vs0mg"},{"bike_id":"89751972-2148-47e8-a9f5-6238a039cba7","system_id":"levelo_inurba_marseille","lat":43.30559,"lon":5.3655,"is_reserved":false,"is_disabled":true,"rental_uris":{"android":"levelo://app?vid=89751972-2148-47e8-a9f5-6238a039cba7","ios":"levelo://app?vid=89751972-2148-47e8-a9f5-6238a039cba7"},"vehicle_type_id":"4","last_reported":1749589803,"current_range_meters":8800,"station_id":"ce4bgs12rcd13ifvqcag","pricing_plan_id":"cebpf4jnsgd1na2vs0mg"},{"bike_id":"a28437c2-bcfd-4995-bf8c-4808bdfde55a","system_id":"levelo_inurba_marseille","lat":43.295988,"lon":5.380977,"is_reserved":false,"is_disabled":false,"rental_uris":{"android":"levelo://app?vid=a28437c2-bcfd-4995-bf8c-4808bdfde55a","ios":"levelo://app?vid=a28437c2-bcfd-4995-bf8c-4808bdfde55a"},"vehicle_type_id":"4","last_reported":1749589803,"current_range_meters":8800,"station_id":"ce4bgl12rcd13ifvqbo0","pricing_plan_id":"cebpf4jnsgd1na2vs0mg"},{"bike_id":"63b5796e-e5fa-4c08-b52b-4ffb68437406","system_id":"levelo_inurba_marseille","lat":43.31545,"lon":5.38334,"is_reserved":false,"is_disabled":false,"rental_uris":{"android":"levelo://app?vid=63b5796e-e5fa-4c08-b52b-4ffb68437406","ios":"levelo://app?vid=63b5796e-e5fa-4c08-b52b-4ffb68437406"},"vehicle_type_id":"4","last_reported":1749589803,"current_range_meters":9200,"station_id":"","pricing_plan_id":"cebpf4jnsgd1na2vs0mg"},{"bike_id":"66fac9ba-4e53-469d-8c0e-b15cb784136c","system_id":"levelo_inurba_marseille","lat":43.290654,"lon":5.37146,"is_reserved":false,"is_disabled":true,"rental_uris":{"android":"levelo://app?vid=66fac9ba-4e53-469d-8c0e-b15cb784136c","ios":"levelo://app?vid=66fac9ba-4e53-469d-8c0e-b15cb784136c"},"vehicle_type_id":"4","last_reported":1749589803,"current_range_meters":9200,"station_id":"ce4bh5p2rcd13ifvqe4g","pricing_plan_id":"cebpf4jnsgd1na2vs0mg"},{"bike_id":"3d59d2ec-b59a-43e8-abae-40ac02fdcdb8","system_id":"levelo_inurba_marseille","lat":43.29547,"lon":5.42291,"is_reserved":false,"is_disabled":false,"rental_uris":{"android":"levelo://app?vid=3d59d2ec-b59a-43e8-abae-40ac02fdcdb8","ios":"levelo://app?vid=3d59d2ec-b59a-43e8-abae-40ac02fdcdb8"},"vehicle_type_id":"4","last_reported":1749589803,"current_range_meters":9200,"station_id":"ce4bhph2rcd13ifvqhdg","pricing_plan_id":"cebpf4jnsgd1na2vs0mg"},{"bike_id":"39d32260-51d5-455a-ba53-6471389bd255","system_id":"levelo_inurba_marseille","lat":43.319819,"lon":5.376058,"is_reserved":false,"is_disabled":false,"rental_uris":{"android":"levelo://app?vid=39d32260-51d5-455a-ba53-6471389bd255","ios":"levelo://app?vid=39d32260-51d5-455a-ba53-6471389bd255"},"vehicle_type_id":"4","last_reported":1749589803,"current_range_meters":9200,"station_id":"","pricing_plan_id":"cebpf4jnsgd1na2vs0mg"},{"bike_id":"c0aeb1d2-0d83-485e-af4a-d910a4f132e5","system_id":"levelo_inurba_marseille","lat":43.28351,"lon":5.38084,"is_reserved":false,"is_disabled":false,"rental_uris":{"android":"levelo://app?vid=c0aeb1d2-0d83-485e-af4a-d910a4f132e5","ios":"levelo://app?vid=c0aeb1d2-0d83-485e-af4a-d910a4f132e5"},"vehicle_type_id":"4","last_reported":1749589803,"current_range_meters":9200,"station_id":"ce4bh412rcd13ifvqdr0","pricing_plan_id":"cebpf4jnsgd1na2vs0mg"},{"bike_id":"d0990bf4-584b-4b0a-923a-924e0f87ee3c","system_id":"levelo_inurba_marseille","lat":43.28669,"lon":5.36348,"is_reserved":false,"is_disabled":false,"rental_uris":{"android":"levelo://app?vid=d0990bf4-584b-4b0a-923a-924e0f87ee3c","ios":"levelo://app?vid=d0990bf4-584b-4b0a-923a-924e0f87ee3c"},"vehicle_type_id":"4","last_reported":1749589803,"current_range_meters":9200,"station_id":"ce4bhah2rcd13ifvqej0","pricing_plan_id":"cebpf4jnsgd1na2vs0mg"},{"bike_id":"7130eafd-58ef-49e3-8296-da23b92ff172","system_id":"levelo_inurba_marseille","lat":43.24694,"lon":5.39436,"is_reserved":false,"is_disabled":true,"rental_uris":{"android":"levelo://app?vid=7130eafd-58ef-49e3-8296-da23b92ff172","ios":"levelo://app?vid=7130eafd-58ef-49e3-8296-da23b92ff172"},"vehicle_type_id":"4","last_reported":1749589803,"current_range_meters":9600,"station_id":"","pricing_plan_id":"cebpf4jnsgd1na2vs0mg"},{"bike_id":"a02dd6d6-7290-4038-bffa-c8cad48a00b5","system_id":"levelo_inurba_marseille","lat":43.30924,"lon":5.40144,"is_reserved":false,"is_disabled":false,"rental_uris":{"android":"levelo://app?vid=a02dd6d6-7290-4038-bffa-c8cad48a00b5","ios":"levelo://app?vid=a02dd6d6-7290-4038-bffa-c8cad48a00b5"},"vehicle_type_id":"4","last_reported":1749589803,"current_range_meters":9600,"station_id":"ce4bgvp2rcd13ifvqct0","pricing_plan_id":"cebpf4jnsgd1na2vs0mg"},{"bike_id":"1b1beb17-e69e-45f4-833c-c85032cb1db7","system_id":"levelo_inurba_marseille","lat":43.2952,"lon":5.39408,"is_reserved":false,"is_disabled":false,"rental_uris":{"android":"levelo://app?vid=1b1beb17-e69e-45f4-833c-c85032cb1db7","ios":"levelo://app?vid=1b1beb17-e69e-45f4-833c-c85032cb1db7"},"vehicle_type_id":"4","last_reported":1749589803,"current_range_meters":9600,"station_id":"ce4bh292rcd13ifvqdf0","pricing_plan_id":"cebpf4jnsgd1na2vs0mg"},{"bike_id":"6890b9e2-87e1-40b6-9e0f-8af99f456400","system_id":"levelo_inurba_marseille","lat":43.29595,"lon":5.38109,"is_reserved":false,"is_disabled":true,"rental_uris":{"android":"levelo://app?vid=6890b9e2-87e1-40b6-9e0f-8af99f456400","ios":"levelo://app?vid=6890b9e2-87e1-40b6-9e0f-8af99f456400"},"vehicle_type_id":"4","last_reported":1749589803,"current_range_meters":9600,"station_id":"ce4bgl12rcd13ifvqbo0","pricing_plan_id":"cebpf4jnsgd1na2vs0mg"},{"bike_id":"955c930c-c336-417f-bb8a-3d2b0a0f3d0c","system_id":"levelo_inurba_marseille","lat":43.2783,"lon":5.39195,"is_reserved":false,"is_disabled":true,"rental_uris":{"android":"levelo://app?vid=955c930c-c336-417f-bb8a-3d2b0a0f3d0c","ios":"levelo://app?vid=955c930c-c336-417f-bb8a-3d2b0a0f3d0c"},"vehicle_type_id":"4","last_reported":1749589803,"current_range_meters":9600,"station_id":"ce4bhjp2rcd13ifvqga0","pricing_plan_id":"cebpf4jnsgd1na2vs0mg"},{"bike_id":"5e6b1e47-16fd-488b-b7eb-507767b76ee6","system_id":"levelo_inurba_marseille","lat":43.26797,"lon":5.39087,"is_reserved":false,"is_disabled":false,"rental_uris":{"android":"levelo://app?vid=5e6b1e47-16fd-488b-b7eb-507767b76ee6","ios":"levelo://app?vid=5e6b1e47-16fd-488b-b7eb-507767b76ee6"},"vehicle_type_id":"4","last_reported":1749589803,"current_range_meters":9600,"station_id":"","pricing_plan_id":"cebpf4jnsgd1na2vs0mg"},{"bike_id":"1ab048e4-d16d-4228-b804-d09de6f24b1e","system_id":"levelo_inurba_marseille","lat":43.287,"lon":5.37402,"is_reserved":false,"is_disabled":true,"rental_uris":{"android":"levelo://app?vid=1ab048e4-d16d-4228-b804-d09de6f24b1e","ios":"levelo://app?vid=1ab048e4-d16d-4228-b804-d09de6f24b1e"},"vehicle_type_id":"4","last_reported":1749589803,"current_range_meters":9600,"station_id":"ce4bh3p2rcd13ifvqdq0","pricing_plan_id":"cebpf4jnsgd1na2vs0mg"},{"bike_id":"deffc81e-6587-424c-836b-c268a30049d8","system_id":"levelo_inurba_marseille","lat":43.29961,"lon":5.4007,"is_reserved":false,"is_disabled":false,"rental_uris":{"android":"levelo://app?vid=deffc81e-6587-424c-836b-c268a30049d8","ios":"levelo://app?vid=deffc81e-6587-424c-836b-c268a30049d8"},"vehicle_type_id":"4","last_reported":1749589803,"current_range_meters":9600,"station_id":"","pricing_plan_id":"cebpf4jnsgd1na2vs0mg"},{"bike_id":"125bd855-10ed-4a56-9707-403f3a8b58a0","system_id":"levelo_inurba_marseille","lat":43.33065,"lon":5.40512,"is_reserved":false,"is_disabled":false,"rental_uris":{"android":"levelo://app?vid=125bd855-10ed-4a56-9707-403f3a8b58a0","ios":"levelo://app?vid=125bd855-10ed-4a56-9707-403f3a8b58a0"},"vehicle_type_id":"4","last_reported":1749589803,"current_range_meters":9600,"station_id":"","pricing_plan_id":"cebpf4jnsgd1na2vs0mg"},{"bike_id":"a2bcab2a-6bfc-4b2e-8edc-c0755f556489","system_id":"levelo_inurba_marseille","lat":43.28281,"lon":5.3509,"is_reserved":false,"is_disabled":true,"rental_uris":{"android":"levelo://app?vid=a2bcab2a-6bfc-4b2e-8edc-c0755f556489","ios":"levelo://app?vid=a2bcab2a-6bfc-4b2e-8edc-c0755f556489"},"vehicle_type_id":"4","last_reported":1749589803,"current_range_meters":10000,"station_id":"ce4bhbp2rcd13ifvqerg","pricing_plan_id":"cebpf4jnsgd1na2vs0mg"},{"bike_id":"092dcad3-5c24-489f-9804-9bda75f06bc8","system_id":"levelo_inurba_marseille","lat":43.30932,"lon":5.4014,"is_reserved":false,"is_disabled":false,"rental_uris":{"android":"levelo://app?vid=092dcad3-5c24-489f-9804-9bda75f06bc8","ios":"levelo://app?vid=092dcad3-5c24-489f-9804-9bda75f06bc8"},"vehicle_type_id":"4","last_reported":1749589803,"current_range_meters":10000,"station_id":"ce4bgvp2rcd13ifvqct0","pricing_plan_id":"cebpf4jnsgd1na2vs0mg"},{"bike_id":"5077581b-cebb-46fc-ba69-4fa8272d4810","system_id":"levelo_inurba_marseille","lat":43.21368,"lon":5.355159,"is_reserved":false,"is_disabled":false,"rental_uris":{"android":"levelo://app?vid=5077581b-cebb-46fc-ba69-4fa8272d4810","ios":"levelo://app?vid=5077581b-cebb-46fc-ba69-4fa8272d4810"},"vehicle_type_id":"4","last_reported":1749589803,"current_range_meters":10000,"station_id":"","pricing_plan_id":"cebpf4jnsgd1na2vs0mg"},{"bike_id":"ef555bdb-3115-4b1f-9398-9c76776e1204","system_id":"levelo_inurba_marseille","lat":43.26049,"lon":5.37403,"is_reserved":false,"is_disabled":false,"rental_uris":{"android":"levelo://app?vid=ef555bdb-3115-4b1f-9398-9c76776e1204","ios":"levelo://app?vid=ef555bdb-3115-4b1f-9398-9c76776e1204"},"vehicle_type_id":"4","last_reported":1749589803,"current_range_meters":10000,"station_id":"","pricing_plan_id":"cebpf4jnsgd1na2vs0mg"},{"bike_id":"8f41bd44-bf22-475e-a7a2-13230a4c7134","system_id":"levelo_inurba_marseille","lat":43.29276,"lon":5.40099,"is_reserved":false,"is_disabled":false,"rental_uris":{"android":"levelo://app?vid=8f41bd44-bf22-475e-a7a2-13230a4c7134","ios":"levelo://app?vid=8f41bd44-bf22-475e-a7a2-13230a4c7134"},"vehicle_type_id":"4","last_reported":1749589803,"current_range_meters":10000,"station_id":"ce4bh312rcd13ifvqdk0","pricing_plan_id":"cebpf4jnsgd1na2vs0mg"},{"bike_id":"f359c5fb-b01b-481d-822f-16e1d4d2a9ab","system_id":"levelo_inurba_marseille","lat":43.30889,"lon":5.39654,"is_reserved":false,"is_disabled":false,"rental_uris":{"android":"levelo://app?vid=f359c5fb-b01b-481d-822f-16e1d4d2a9ab","ios":"levelo://app?vid=f359c5fb-b01b-481d-822f-16e1d4d2a9ab"},"vehicle_type_id":"4","last_reported":1749589803,"current_range_meters":10000,"station_id":"ce4bh012rcd13ifvqcv0","pricing_plan_id":"cebpf4jnsgd1na2vs0mg"},{"bike_id":"570e0556-7651-43f0-b0a9-f5817a5ee683","system_id":"levelo_inurba_marseille","lat":43.29743,"lon":5.38073,"is_reserved":false,"is_disabled":false,"rental_uris":{"android":"levelo://app?vid=570e0556-7651-43f0-b0a9-f5817a5ee683","ios":"levelo://app?vid=570e0556-7651-43f0-b0a9-f5817a5ee683"},"vehicle_type_id":"4","last_reported":1749589803,"current_range_meters":10000,"station_id":"","pricing_plan_id":"cebpf4jnsgd1na2vs0mg"},{"bike_id":"c96defc4-7d86-4a0a-9944-e593e4547d0e","system_id":"levelo_inurba_marseille","lat":43.32339,"lon":5.40611,"is_reserved":false,"is_disabled":false,"rental_uris":{"android":"levelo://app?vid=c96defc4-7d86-4a0a-9944-e593e4547d0e","ios":"levelo://app?vid=c96defc4-7d86-4a0a-9944-e593e4547d0e"},"vehicle_type_id":"4","last_reported":1749589803,"current_range_meters":10000,"station_id":"ce4bhq92rcd13ifvqhjg","pricing_plan_id":"cebpf4jnsgd1na2vs0mg"},{"bike_id":"a679cb80-4242-4d18-a97e-ea4a60dc83be","system_id":"levelo_inurba_marseille","lat":43.32193,"lon":5.41317,"is_reserved":false,"is_disabled":false,"rental_uris":{"android":"levelo://app?vid=a679cb80-4242-4d18-a97e-ea4a60dc83be","ios":"levelo://app?vid=a679cb80-4242-4d18-a97e-ea4a60dc83be"},"vehicle_type_id":"4","last_reported":1749589803,"current_range_meters":10000,"station_id":"","pricing_plan_id":"cebpf4jnsgd1na2vs0mg"},{"bike_id":"79270514-cc68-488d-8a05-917d49f47732","system_id":"levelo_inurba_marseille","lat":43.30127,"lon":5.398648,"is_reserved":false,"is_disabled":false,"rental_uris":{"android":"levelo://app?vid=79270514-cc68-488d-8a05-917d49f47732","ios":"levelo://app?vid=79270514-cc68-488d-8a05-917d49f47732"},"vehicle_type_id":"4","last_reported":1749589803,"current_range_meters":10000,"station_id":"ce4bh0h2rcd13ifvqd40","pricing_plan_id":"cebpf4jnsgd1na2vs0mg"},{"bike_id":"2fb82a4e-0ee1-4839-87e1-0819fb18ed3d","system_id":"levelo_inurba_marseille","lat":43.27095,"lon":5.42257,"is_reserved":false,"is_disabled":true,"rental_uris":{"android":"levelo://app?vid=2fb82a4e-0ee1-4839-87e1-0819fb18ed3d","ios":"levelo://app?vid=2fb82a4e-0ee1-4839-87e1-0819fb18ed3d"},"vehicle_type_id":"4","last_reported":1749589803,"current_range_meters":10000,"station_id":"ce4bhk92rcd13ifvqgb0","pricing_plan_id":"cebpf4jnsgd1na2vs0mg"},{"bike_id":"ad647252-c6b2-4fff-9b18-0eee1c28aeb9","system_id":"levelo_inurba_marseille","lat":43.2903,"lon":5.38645,"is_reserved":false,"is_disabled":false,"rental_uris":{"android":"levelo://app?vid=ad647252-c6b2-4fff-9b18-0eee1c28aeb9","ios":"levelo://app?vid=ad647252-c6b2-4fff-9b18-0eee1c28aeb9"},"vehicle_type_id":"4","last_reported":1749589803,"current_range_meters":10800,"station_id":"ce4bh4p2rcd13ifvqe0g","pricing_plan_id":"cebpf4jnsgd1na2vs0mg"},{"bike_id":"d308fd5f-114d-4c8d-acf2-a21c562bff36","system_id":"levelo_inurba_marseille","lat":43.2861,"lon":5.37071,"is_reserved":false,"is_disabled":false,"rental_uris":{"android":"levelo://app?vid=d308fd5f-114d-4c8d-acf2-a21c562bff36","ios":"levelo://app?vid=d308fd5f-114d-4c8d-acf2-a21c562bff36"},"vehicle_type_id":"4","last_reported":1749589803,"current_range_meters":10800,"station_id":"ce4bht12rcd13ifvqi60","pricing_plan_id":"cebpf4jnsgd1na2vs0mg"},{"bike_id":"29453fc9-b720-4b8b-b038-78f17aac8faf","system_id":"levelo_inurba_marseille","lat":43.270586,"lon":5.402654,"is_reserved":false,"is_disabled":true,"rental_uris":{"android":"levelo://app?vid=29453fc9-b720-4b8b-b038-78f17aac8faf","ios":"levelo://app?vid=29453fc9-b720-4b8b-b038-78f17aac8faf"},"vehicle_type_id":"4","last_reported":1749589803,"current_range_meters":10800,"station_id":"ce4bhk92rcd13ifvqgc0","pricing_plan_id":"cebpf4jnsgd1na2vs0mg"},{"bike_id":"b8587449-ca16-4a68-9f2d-2feab87f62d9","system_id":"levelo_inurba_marseille","lat":43.24545,"lon":5.39524,"is_reserved":false,"is_disabled":false,"rental_uris":{"android":"levelo://app?vid=b8587449-ca16-4a68-9f2d-2feab87f62d9","ios":"levelo://app?vid=b8587449-ca16-4a68-9f2d-2feab87f62d9"},"vehicle_type_id":"4","last_reported":1749589803,"current_range_meters":10800,"station_id":"ce4bhlp2rcd13ifvqgjg","pricing_plan_id":"cebpf4jnsgd1na2vs0mg"},{"bike_id":"3b1262c7-181b-4bb5-9599-bbb39c3c326d","system_id":"levelo_inurba_marseille","lat":43.29568,"lon":5.39982,"is_reserved":false,"is_disabled":false,"rental_uris":{"android":"levelo://app?vid=3b1262c7-181b-4bb5-9599-bbb39c3c326d","ios":"levelo://app?vid=3b1262c7-181b-4bb5-9599-bbb39c3c326d"},"vehicle_type_id":"4","last_reported":1749589803,"current_range_meters":10800,"station_id":"ce4bh312rcd13ifvqdj0","pricing_plan_id":"cebpf4jnsgd1na2vs0mg"},{"bike_id":"ad1aa82e-5194-48ac-b28d-ddcc9cb6e7b6","system_id":"levelo_inurba_marseille","lat":43.26929,"lon":5.38917,"is_reserved":false,"is_disabled":false,"rental_uris":{"android":"levelo://app?vid=ad1aa82e-5194-48ac-b28d-ddcc9cb6e7b6","ios":"levelo://app?vid=ad1aa82e-5194-48ac-b28d-ddcc9cb6e7b6"},"vehicle_type_id":"4","last_reported":1749589803,"current_range_meters":10000,"station_id":"ce4bhhh2rcd13ifvqfl0","pricing_plan_id":"cebpf4jnsgd1na2vs0mg"},{"bike_id":"5a8aebc1-4b9f-40cd-af06-b2c2750a7146","system_id":"levelo_inurba_marseille","lat":43.31755,"lon":5.38998,"is_reserved":false,"is_disabled":false,"rental_uris":{"android":"levelo://app?vid=5a8aebc1-4b9f-40cd-af06-b2c2750a7146","ios":"levelo://app?vid=5a8aebc1-4b9f-40cd-af06-b2c2750a7146"},"vehicle_type_id":"4","last_reported":1749589803,"current_range_meters":10800,"station_id":"ce4bhqp2rcd13ifvqhng","pricing_plan_id":"cebpf4jnsgd1na2vs0mg"},{"bike_id":"ea3aa8cc-3da5-4c9f-b785-438f25aae8ad","system_id":"levelo_inurba_marseille","lat":43.30927,"lon":5.40139,"is_reserved":false,"is_disabled":false,"rental_uris":{"android":"levelo://app?vid=ea3aa8cc-3da5-4c9f-b785-438f25aae8ad","ios":"levelo://app?vid=ea3aa8cc-3da5-4c9f-b785-438f25aae8ad"},"vehicle_type_id":"4","last_reported":1749589803,"current_range_meters":11200,"station_id":"ce4bgvp2rcd13ifvqct0","pricing_plan_id":"cebpf4jnsgd1na2vs0mg"},{"bike_id":"5c7d7377-46ad-48a5-85ed-90e09665aa12","system_id":"levelo_inurba_marseille","lat":43.28472,"lon":5.38411,"is_reserved":false,"is_disabled":false,"rental_uris":{"android":"levelo://app?vid=5c7d7377-46ad-48a5-85ed-90e09665aa12","ios":"levelo://app?vid=5c7d7377-46ad-48a5-85ed-90e09665aa12"},"vehicle_type_id":"4","last_reported":1749589803,"current_range_meters":11200,"station_id":"ce4bh512rcd13ifvqe3g","pricing_plan_id":"cebpf4jnsgd1na2vs0mg"},{"bike_id":"70586506-6abe-4b99-8ee7-85df7e99c6b6","system_id":"levelo_inurba_marseille","lat":43.31881,"lon":5.40731,"is_reserved":false,"is_disabled":false,"rental_uris":{"android":"levelo://app?vid=70586506-6abe-4b99-8ee7-85df7e99c6b6","ios":"levelo://app?vid=70586506-6abe-4b99-8ee7-85df7e99c6b6"},"vehicle_type_id":"4","last_reported":1749589803,"current_range_meters":11200,"station_id":"ce4bhq12rcd13ifvqhig","pricing_plan_id":"cebpf4jnsgd1na2vs0mg"},{"bike_id":"57aa9531-d1f0-4915-80a4-bf4da38ba665","system_id":"levelo_inurba_marseille","lat":43.30928,"lon":5.40142,"is_reserved":false,"is_disabled":false,"rental_uris":{"android":"levelo://app?vid=57aa9531-d1f0-4915-80a4-bf4da38ba665","ios":"levelo://app?vid=57aa9531-d1f0-4915-80a4-bf4da38ba665"},"vehicle_type_id":"4","last_reported":1749589803,"current_range_meters":11200,"station_id":"ce4bgvp2rcd13ifvqct0","pricing_plan_id":"cebpf4jnsgd1na2vs0mg"},{"bike_id":"ca27e12a-1f2d-4cf2-be29-12a2b9ff1547","system_id":"levelo_inurba_marseille","lat":43.31718,"lon":5.42396,"is_reserved":false,"is_disabled":false,"rental_uris":{"android":"levelo://app?vid=ca27e12a-1f2d-4cf2-be29-12a2b9ff1547","ios":"levelo://app?vid=ca27e12a-1f2d-4cf2-be29-12a2b9ff1547"},"vehicle_type_id":"4","last_reported":1749589803,"current_range_meters":11200,"station_id":"ce4bhp92rcd13ifvqhbg","pricing_plan_id":"cebpf4jnsgd1na2vs0mg"},{"bike_id":"26d9de84-e089-4fa1-bc2a-b153abebf43a","system_id":"levelo_inurba_marseille","lat":43.29864,"lon":5.39738,"is_reserved":false,"is_disabled":false,"rental_uris":{"android":"levelo://app?vid=26d9de84-e089-4fa1-bc2a-b153abebf43a","ios":"levelo://app?vid=26d9de84-e089-4fa1-bc2a-b153abebf43a"},"vehicle_type_id":"4","last_reported":1749589803,"current_range_meters":10800,"station_id":"ce4bh0h2rcd13ifvqd50","pricing_plan_id":"cebpf4jnsgd1na2vs0mg"},{"bike_id":"8850afc3-8fdf-41c5-8f78-7218c50dc4bf","system_id":"levelo_inurba_marseille","lat":43.30299,"lon":5.36875,"is_reserved":false,"is_disabled":false,"rental_uris":{"android":"levelo://app?vid=8850afc3-8fdf-41c5-8f78-7218c50dc4bf","ios":"levelo://app?vid=8850afc3-8fdf-41c5-8f78-7218c50dc4bf"},"vehicle_type_id":"4","last_reported":1749589803,"current_range_meters":11200,"station_id":"ce4bgqh2rcd13ifvqc5g","pricing_plan_id":"cebpf4jnsgd1na2vs0mg"},{"bike_id":"59312715-509a-4757-aadb-afe9d3682d92","system_id":"levelo_inurba_marseille","lat":43.29261,"lon":5.384324,"is_reserved":false,"is_disabled":false,"rental_uris":{"android":"levelo://app?vid=59312715-509a-4757-aadb-afe9d3682d92","ios":"levelo://app?vid=59312715-509a-4757-aadb-afe9d3682d92"},"vehicle_type_id":"4","last_reported":1749589803,"current_range_meters":11200,"station_id":"","pricing_plan_id":"cebpf4jnsgd1na2vs0mg"},{"bike_id":"274d9e6e-6eae-4022-92ba-8f9d50bbdd92","system_id":"levelo_inurba_marseille","lat":43.27565,"lon":5.38419,"is_reserved":false,"is_disabled":false,"rental_uris":{"android":"levelo://app?vid=274d9e6e-6eae-4022-92ba-8f9d50bbdd92","ios":"levelo://app?vid=274d9e6e-6eae-4022-92ba-8f9d50bbdd92"},"vehicle_type_id":"4","last_reported":1749589803,"current_range_meters":11600,"station_id":"ce4bhh92rcd13ifvqfi0","pricing_plan_id":"cebpf4jnsgd1na2vs0mg"},{"bike_id":"94d713a7-87a5-4b49-abb1-7a64cea98533","system_id":"levelo_inurba_marseille","lat":43.29959,"lon":5.37016,"is_reserved":false,"is_disabled":false,"rental_uris":{"android":"levelo://app?vid=94d713a7-87a5-4b49-abb1-7a64cea98533","ios":"levelo://app?vid=94d713a7-87a5-4b49-abb1-7a64cea98533"},"vehicle_type_id":"4","last_reported":1749589803,"current_range_meters":11600,"station_id":"","pricing_plan_id":"cebpf4jnsgd1na2vs0mg"},{"bike_id":"3ee6165b-b2c0-4036-a331-ec913cfc06b4","system_id":"levelo_inurba_marseille","lat":43.27903,"lon":5.38004,"is_reserved":false,"is_disabled":false,"rental_uris":{"android":"levelo://app?vid=3ee6165b-b2c0-4036-a331-ec913cfc06b4","ios":"levelo://app?vid=3ee6165b-b2c0-4036-a331-ec913cfc06b4"},"vehicle_type_id":"4","last_reported":1749589803,"current_range_meters":11600,"station_id":"ce4bhf92rcd13ifvqf50","pricing_plan_id":"cebpf4jnsgd1na2vs0mg"},{"bike_id":"6bdd90eb-2143-4c40-ae07-43ebd50ae722","system_id":"levelo_inurba_marseille","lat":43.29508,"lon":5.39398,"is_reserved":false,"is_disabled":false,"rental_uris":{"android":"levelo://app?vid=6bdd90eb-2143-4c40-ae07-43ebd50ae722","ios":"levelo://app?vid=6bdd90eb-2143-4c40-ae07-43ebd50ae722"},"vehicle_type_id":"4","last_reported":1749589803,"current_range_meters":12000,"station_id":"ce4bh292rcd13ifvqdf0","pricing_plan_id":"cebpf4jnsgd1na2vs0mg"},{"bike_id":"f5e7b4d1-016d-4e5c-bdea-6b4bae0120ac","system_id":"levelo_inurba_marseille","lat":43.25724,"lon":5.41109,"is_reserved":false,"is_disabled":false,"rental_uris":{"android":"levelo://app?vid=f5e7b4d1-016d-4e5c-bdea-6b4bae0120ac","ios":"levelo://app?vid=f5e7b4d1-016d-4e5c-bdea-6b4bae0120ac"},"vehicle_type_id":"4","last_reported":1749589803,"current_range_meters":11600,"station_id":"ce4bhkp2rcd13ifvqgd0","pricing_plan_id":"cebpf4jnsgd1na2vs0mg"},{"bike_id":"9a6e0bfd-8a08-48d8-8290-696a41db3865","system_id":"levelo_inurba_marseille","lat":43.284118,"lon":5.375076,"is_reserved":false,"is_disabled":false,"rental_uris":{"android":"levelo://app?vid=9a6e0bfd-8a08-48d8-8290-696a41db3865","ios":"levelo://app?vid=9a6e0bfd-8a08-48d8-8290-696a41db3865"},"vehicle_type_id":"4","last_reported":1749589803,"current_range_meters":11600,"station_id":"ce4bh412rcd13ifvqds0","pricing_plan_id":"cebpf4jnsgd1na2vs0mg"},{"bike_id":"187b0a7b-e256-4c19-9794-bb250a6c5653","system_id":"levelo_inurba_marseille","lat":43.31855,"lon":5.37943,"is_reserved":false,"is_disabled":false,"rental_uris":{"android":"levelo://app?vid=187b0a7b-e256-4c19-9794-bb250a6c5653","ios":"levelo://app?vid=187b0a7b-e256-4c19-9794-bb250a6c5653"},"vehicle_type_id":"4","last_reported":1749589803,"current_range_meters":11600,"station_id":"","pricing_plan_id":"cebpf4jnsgd1na2vs0mg"},{"bike_id":"e3c8e6a5-7eed-40fe-91c3-2c556f64e106","system_id":"levelo_inurba_marseille","lat":43.30344,"lon":5.41875,"is_reserved":false,"is_disabled":false,"rental_uris":{"android":"levelo://app?vid=e3c8e6a5-7eed-40fe-91c3-2c556f64e106","ios":"levelo://app?vid=e3c8e6a5-7eed-40fe-91c3-2c556f64e106"},"vehicle_type_id":"4","last_reported":1749589803,"current_range_meters":11600,"station_id":"ce4bhop2rcd13ifvqh7g","pricing_plan_id":"cebpf4jnsgd1na2vs0mg"},{"bike_id":"357ba489-6fde-4265-a087-406fcaeb1fac","system_id":"levelo_inurba_marseille","lat":43.29279,"lon":5.40126,"is_reserved":false,"is_disabled":false,"rental_uris":{"android":"levelo://app?vid=357ba489-6fde-4265-a087-406fcaeb1fac","ios":"levelo://app?vid=357ba489-6fde-4265-a087-406fcaeb1fac"},"vehicle_type_id":"4","last_reported":1749589803,"current_range_meters":12000,"station_id":"ce4bh312rcd13ifvqdk0","pricing_plan_id":"cebpf4jnsgd1na2vs0mg"},{"bike_id":"9389908c-4837-4791-a0f3-83c797d41621","system_id":"levelo_inurba_marseille","lat":43.29699,"lon":5.36603,"is_reserved":false,"is_disabled":false,"rental_uris":{"android":"levelo://app?vid=9389908c-4837-4791-a0f3-83c797d41621","ios":"levelo://app?vid=9389908c-4837-4791-a0f3-83c797d41621"},"vehicle_type_id":"4","last_reported":1749589803,"current_range_meters":12000,"station_id":"ce4bgn12rcd13ifvqbt0","pricing_plan_id":"cebpf4jnsgd1na2vs0mg"},{"bike_id":"e24a805d-9efe-4308-a1b7-98c646a1dd41","system_id":"levelo_inurba_marseille","lat":43.2619,"lon":5.37448,"is_reserved":false,"is_disabled":false,"rental_uris":{"android":"levelo://app?vid=e24a805d-9efe-4308-a1b7-98c646a1dd41","ios":"levelo://app?vid=e24a805d-9efe-4308-a1b7-98c646a1dd41"},"vehicle_type_id":"4","last_reported":1749589803,"current_range_meters":12000,"station_id":"ce4bhgp2rcd13ifvqfc0","pricing_plan_id":"cebpf4jnsgd1na2vs0mg"},{"bike_id":"15138ce4-9850-4a09-9eb2-0da12393d0d8","system_id":"levelo_inurba_marseille","lat":43.31709,"lon":5.43697,"is_reserved":false,"is_disabled":false,"rental_uris":{"android":"levelo://app?vid=15138ce4-9850-4a09-9eb2-0da12393d0d8","ios":"levelo://app?vid=15138ce4-9850-4a09-9eb2-0da12393d0d8"},"vehicle_type_id":"4","last_reported":1749589803,"current_range_meters":12000,"station_id":"ce4bhp92rcd13ifvqhcg","pricing_plan_id":"cebpf4jnsgd1na2vs0mg"},{"bike_id":"38f50f9a-b344-4f2f-8799-90ea853fdead","system_id":"levelo_inurba_marseille","lat":43.284357,"lon":5.392027,"is_reserved":false,"is_disabled":false,"rental_uris":{"android":"levelo://app?vid=38f50f9a-b344-4f2f-8799-90ea853fdead","ios":"levelo://app?vid=38f50f9a-b344-4f2f-8799-90ea853fdead"},"vehicle_type_id":"4","last_reported":1749589803,"current_range_meters":12400,"station_id":"ce4bhoh2rcd13ifvqh5g","pricing_plan_id":"cebpf4jnsgd1na2vs0mg"},{"bike_id":"4ac55865-de56-42ff-9c2f-27be692fc73d","system_id":"levelo_inurba_marseille","lat":43.27004,"lon":5.38757,"is_reserved":false,"is_disabled":false,"rental_uris":{"android":"levelo://app?vid=4ac55865-de56-42ff-9c2f-27be692fc73d","ios":"levelo://app?vid=4ac55865-de56-42ff-9c2f-27be692fc73d"},"vehicle_type_id":"4","last_reported":1749589803,"current_range_meters":12400,"station_id":"","pricing_plan_id":"cebpf4jnsgd1na2vs0mg"},{"bike_id":"ab7d7a51-666f-49a6-99e8-6fedc2f4ae61","system_id":"levelo_inurba_marseille","lat":43.29419,"lon":5.38616,"is_reserved":false,"is_disabled":false,"rental_uris":{"android":"levelo://app?vid=ab7d7a51-666f-49a6-99e8-6fedc2f4ae61","ios":"levelo://app?vid=ab7d7a51-666f-49a6-99e8-6fedc2f4ae61"},"vehicle_type_id":"4","last_reported":1749589803,"current_range_meters":12400,"station_id":"ce4bh2h2rcd13ifvqdh0","pricing_plan_id":"cebpf4jnsgd1na2vs0mg"},{"bike_id":"53a94670-e86d-41d7-97b1-7a71aac81e4c","system_id":"levelo_inurba_marseille","lat":43.30925,"lon":5.40146,"is_reserved":false,"is_disabled":false,"rental_uris":{"android":"levelo://app?vid=53a94670-e86d-41d7-97b1-7a71aac81e4c","ios":"levelo://app?vid=53a94670-e86d-41d7-97b1-7a71aac81e4c"},"vehicle_type_id":"4","last_reported":1749589803,"current_range_meters":12400,"station_id":"ce4bgvp2rcd13ifvqct0","pricing_plan_id":"cebpf4jnsgd1na2vs0mg"},{"bike_id":"ab5d796b-6f87-4b6e-a5bd-6ac051fcacd1","system_id":"levelo_inurba_marseille","lat":43.32479,"lon":5.36574,"is_reserved":false,"is_disabled":false,"rental_uris":{"android":"levelo://app?vid=ab5d796b-6f87-4b6e-a5bd-6ac051fcacd1","ios":"levelo://app?vid=ab5d796b-6f87-4b6e-a5bd-6ac051fcacd1"},"vehicle_type_id":"4","last_reported":1749589803,"current_range_meters":12400,"station_id":"ce4bhs12rcd13ifvqhvg","pricing_plan_id":"cebpf4jnsgd1na2vs0mg"},{"bike_id":"a00c951e-8fd6-4886-ac01-8646fd9e6430","system_id":"levelo_inurba_marseille","lat":43.28702,"lon":5.37395,"is_reserved":false,"is_disabled":false,"rental_uris":{"android":"levelo://app?vid=a00c951e-8fd6-4886-ac01-8646fd9e6430","ios":"levelo://app?vid=a00c951e-8fd6-4886-ac01-8646fd9e6430"},"vehicle_type_id":"4","last_reported":1749589803,"current_range_meters":12400,"station_id":"ce4bh3p2rcd13ifvqdq0","pricing_plan_id":"cebpf4jnsgd1na2vs0mg"},{"bike_id":"f1df1c65-e71b-4122-b7f0-24e08d5b95f4","system_id":"levelo_inurba_marseille","lat":43.29898,"lon":5.38149,"is_reserved":false,"is_disabled":false,"rental_uris":{"android":"levelo://app?vid=f1df1c65-e71b-4122-b7f0-24e08d5b95f4","ios":"levelo://app?vid=f1df1c65-e71b-4122-b7f0-24e08d5b95f4"},"vehicle_type_id":"4","last_reported":1749589803,"current_range_meters":12000,"station_id":"ce4bgj12rcd13ifvqbc0","pricing_plan_id":"cebpf4jnsgd1na2vs0mg"},{"bike_id":"6181a8f6-1227-49a1-9beb-bb1c37c1ae5c","system_id":"levelo_inurba_marseille","lat":43.27999,"lon":5.416556,"is_reserved":false,"is_disabled":true,"rental_uris":{"android":"levelo://app?vid=6181a8f6-1227-49a1-9beb-bb1c37c1ae5c","ios":"levelo://app?vid=6181a8f6-1227-49a1-9beb-bb1c37c1ae5c"},"vehicle_type_id":"4","last_reported":1749589803,"current_range_meters":12800,"station_id":"ce4bho12rcd13ifvqh1g","pricing_plan_id":"cebpf4jnsgd1na2vs0mg"},{"bike_id":"ea3db42c-1bc7-40c9-b609-3062125a4bac","system_id":"levelo_inurba_marseille","lat":43.30796,"lon":5.43529,"is_reserved":false,"is_disabled":false,"rental_uris":{"android":"levelo://app?vid=ea3db42c-1bc7-40c9-b609-3062125a4bac","ios":"levelo://app?vid=ea3db42c-1bc7-40c9-b609-3062125a4bac"},"vehicle_type_id":"4","last_reported":1749589803,"current_range_meters":12800,"station_id":"ce4bhph2rcd13ifvqheg","pricing_plan_id":"cebpf4jnsgd1na2vs0mg"},{"bike_id":"09fc93df-1b5b-4565-bebf-a33c16f5f13b","system_id":"levelo_inurba_marseille","lat":43.33155,"lon":5.38159,"is_reserved":false,"is_disabled":false,"rental_uris":{"android":"levelo://app?vid=09fc93df-1b5b-4565-bebf-a33c16f5f13b","ios":"levelo://app?vid=09fc93df-1b5b-4565-bebf-a33c16f5f13b"},"vehicle_type_id":"4","last_reported":1749589803,"current_range_meters":12800,"station_id":"","pricing_plan_id":"cebpf4jnsgd1na2vs0mg"},{"bike_id":"4e58bfc6-5a7c-406a-ab51-d831d6cc8676","system_id":"levelo_inurba_marseille","lat":43.33018,"lon":5.39043,"is_reserved":false,"is_disabled":true,"rental_uris":{"android":"levelo://app?vid=4e58bfc6-5a7c-406a-ab51-d831d6cc8676","ios":"levelo://app?vid=4e58bfc6-5a7c-406a-ab51-d831d6cc8676"},"vehicle_type_id":"4","last_reported":1749589803,"current_range_meters":12800,"station_id":"ce4bhr92rcd13ifvqhrg","pricing_plan_id":"cebpf4jnsgd1na2vs0mg"},{"bike_id":"251cb8fb-42ef-41fe-b92b-53583e3aebf2","system_id":"levelo_inurba_marseille","lat":43.30891,"lon":5.39645,"is_reserved":false,"is_disabled":false,"rental_uris":{"android":"levelo://app?vid=251cb8fb-42ef-41fe-b92b-53583e3aebf2","ios":"levelo://app?vid=251cb8fb-42ef-41fe-b92b-53583e3aebf2"},"vehicle_type_id":"4","last_reported":1749589803,"current_range_meters":12800,"station_id":"ce4bh012rcd13ifvqcv0","pricing_plan_id":"cebpf4jnsgd1na2vs0mg"},{"bike_id":"ac920c9f-2692-4ded-b88a-935563d75620","system_id":"levelo_inurba_marseille","lat":43.29419,"lon":5.38633,"is_reserved":false,"is_disabled":false,"rental_uris":{"android":"levelo://app?vid=ac920c9f-2692-4ded-b88a-935563d75620","ios":"levelo://app?vid=ac920c9f-2692-4ded-b88a-935563d75620"},"vehicle_type_id":"4","last_reported":1749589803,"current_range_meters":12800,"station_id":"ce4bh2h2rcd13ifvqdh0","pricing_plan_id":"cebpf4jnsgd1na2vs0mg"},{"bike_id":"c30dbedc-c866-492b-a092-32c1ee0c1f22","system_id":"levelo_inurba_marseille","lat":43.29546,"lon":5.38539,"is_reserved":false,"is_disabled":true,"rental_uris":{"android":"levelo://app?vid=c30dbedc-c866-492b-a092-32c1ee0c1f22","ios":"levelo://app?vid=c30dbedc-c866-492b-a092-32c1ee0c1f22"},"vehicle_type_id":"4","last_reported":1749589803,"current_range_meters":12800,"station_id":"ce4bgih2rcd13ifvqba0","pricing_plan_id":"cebpf4jnsgd1na2vs0mg"},{"bike_id":"236e422e-563d-45a9-89dd-b134d86f6f50","system_id":"levelo_inurba_marseille","lat":43.29233,"lon":5.39615,"is_reserved":false,"is_disabled":false,"rental_uris":{"android":"levelo://app?vid=236e422e-563d-45a9-89dd-b134d86f6f50","ios":"levelo://app?vid=236e422e-563d-45a9-89dd-b134d86f6f50"},"vehicle_type_id":"4","last_reported":1749589803,"current_range_meters":12800,"station_id":"","pricing_plan_id":"cebpf4jnsgd1na2vs0mg"},{"bike_id":"1e20f032-0f6a-40b2-ad29-e4d2225496fa","system_id":"levelo_inurba_marseille","lat":43.30278,"lon":5.37054,"is_reserved":false,"is_disabled":false,"rental_uris":{"android":"levelo://app?vid=1e20f032-0f6a-40b2-ad29-e4d2225496fa","ios":"levelo://app?vid=1e20f032-0f6a-40b2-ad29-e4d2225496fa"},"vehicle_type_id":"4","last_reported":1749589803,"current_range_meters":12800,"station_id":"","pricing_plan_id":"cebpf4jnsgd1na2vs0mg"},{"bike_id":"095d8b81-5d6e-40fe-98ed-eab81afd15f4","system_id":"levelo_inurba_marseille","lat":43.30311,"lon":5.3689,"is_reserved":false,"is_disabled":false,"rental_uris":{"android":"levelo://app?vid=095d8b81-5d6e-40fe-98ed-eab81afd15f4","ios":"levelo://app?vid=095d8b81-5d6e-40fe-98ed-eab81afd15f4"},"vehicle_type_id":"4","last_reported":1749589803,"current_range_meters":13600,"station_id":"ce4bgqh2rcd13ifvqc5g","pricing_plan_id":"cebpf4jnsgd1na2vs0mg"},{"bike_id":"29d25e9b-0ede-4049-a215-d7b6da35e53e","system_id":"levelo_inurba_marseille","lat":43.33717,"lon":5.39179,"is_reserved":false,"is_disabled":false,"rental_uris":{"android":"levelo://app?vid=29d25e9b-0ede-4049-a215-d7b6da35e53e","ios":"levelo://app?vid=29d25e9b-0ede-4049-a215-d7b6da35e53e"},"vehicle_type_id":"4","last_reported":1749589803,"current_range_meters":13600,"station_id":"ce4bhr92rcd13ifvqhsg","pricing_plan_id":"cebpf4jnsgd1na2vs0mg"},{"bike_id":"43cc6a88-2826-453b-ad1d-8272e295bc3f","system_id":"levelo_inurba_marseille","lat":43.28726,"lon":5.37935,"is_reserved":false,"is_disabled":false,"rental_uris":{"android":"levelo://app?vid=43cc6a88-2826-453b-ad1d-8272e295bc3f","ios":"levelo://app?vid=43cc6a88-2826-453b-ad1d-8272e295bc3f"},"vehicle_type_id":"4","last_reported":1749589803,"current_range_meters":13600,"station_id":"ce4bh9p2rcd13ifvqec0","pricing_plan_id":"cebpf4jnsgd1na2vs0mg"},{"bike_id":"4c1d17d4-327b-412a-b5fe-13fda86712c4","system_id":"levelo_inurba_marseille","lat":43.27492,"lon":5.42453,"is_reserved":false,"is_disabled":false,"rental_uris":{"android":"levelo://app?vid=4c1d17d4-327b-412a-b5fe-13fda86712c4","ios":"levelo://app?vid=4c1d17d4-327b-412a-b5fe-13fda86712c4"},"vehicle_type_id":"4","last_reported":1749589803,"current_range_meters":13600,"station_id":"ce4bhn92rcd13ifvqgrg","pricing_plan_id":"cebpf4jnsgd1na2vs0mg"},{"bike_id":"ed87c04b-23ff-4c17-a5d6-de9d910a5699","system_id":"levelo_inurba_marseille","lat":43.305017,"lon":5.379907,"is_reserved":false,"is_disabled":false,"rental_uris":{"android":"levelo://app?vid=ed87c04b-23ff-4c17-a5d6-de9d910a5699","ios":"levelo://app?vid=ed87c04b-23ff-4c17-a5d6-de9d910a5699"},"vehicle_type_id":"4","last_reported":1749589803,"current_range_meters":13600,"station_id":"ce4bgup2rcd13ifvqcn0","pricing_plan_id":"cebpf4jnsgd1na2vs0mg"},{"bike_id":"4f1cefd8-4393-44dd-83d9-5d93ccfb8b69","system_id":"levelo_inurba_marseille","lat":43.29765,"lon":5.38098,"is_reserved":false,"is_disabled":false,"rental_uris":{"android":"levelo://app?vid=4f1cefd8-4393-44dd-83d9-5d93ccfb8b69","ios":"levelo://app?vid=4f1cefd8-4393-44dd-83d9-5d93ccfb8b69"},"vehicle_type_id":"4","last_reported":1749589803,"current_range_meters":14000,"station_id":"ce4bgip2rcd13ifvqbb0","pricing_plan_id":"cebpf4jnsgd1na2vs0mg"},{"bike_id":"d39e79bf-702b-4ec5-a197-a9e3cb3a81e2","system_id":"levelo_inurba_marseille","lat":43.265,"lon":5.39533,"is_reserved":false,"is_disabled":false,"rental_uris":{"android":"levelo://app?vid=d39e79bf-702b-4ec5-a197-a9e3cb3a81e2","ios":"levelo://app?vid=d39e79bf-702b-4ec5-a197-a9e3cb3a81e2"},"vehicle_type_id":"4","last_reported":1749589803,"current_range_meters":14000,"station_id":"ce4bhi12rcd13ifvqfq0","pricing_plan_id":"cebpf4jnsgd1na2vs0mg"},{"bike_id":"d7e08526-a928-4ad0-8f36-0cfabb4945ef","system_id":"levelo_inurba_marseille","lat":43.29436,"lon":5.39742,"is_reserved":false,"is_disabled":false,"rental_uris":{"android":"levelo://app?vid=d7e08526-a928-4ad0-8f36-0cfabb4945ef","ios":"levelo://app?vid=d7e08526-a928-4ad0-8f36-0cfabb4945ef"},"vehicle_type_id":"4","last_reported":1749589803,"current_range_meters":14000,"station_id":"ce4bh3h2rcd13ifvqdo0","pricing_plan_id":"cebpf4jnsgd1na2vs0mg"},{"bike_id":"51c791a7-9ff0-4c1f-ab28-bf7e9eafbec8","system_id":"levelo_inurba_marseille","lat":43.3087,"lon":5.39654,"is_reserved":false,"is_disabled":false,"rental_uris":{"android":"levelo://app?vid=51c791a7-9ff0-4c1f-ab28-bf7e9eafbec8","ios":"levelo://app?vid=51c791a7-9ff0-4c1f-ab28-bf7e9eafbec8"},"vehicle_type_id":"4","last_reported":1749589803,"current_range_meters":14000,"station_id":"ce4bh012rcd13ifvqcv0","pricing_plan_id":"cebpf4jnsgd1na2vs0mg"},{"bike_id":"262903a9-22b9-4b2d-96c2-2e5dbd155090","system_id":"levelo_inurba_marseille","lat":43.32465,"lon":5.36536,"is_reserved":false,"is_disabled":false,"rental_uris":{"android":"levelo://app?vid=262903a9-22b9-4b2d-96c2-2e5dbd155090","ios":"levelo://app?vid=262903a9-22b9-4b2d-96c2-2e5dbd155090"},"vehicle_type_id":"4","last_reported":1749589803,"current_range_meters":14400,"station_id":"ce4bhs12rcd13ifvqhvg","pricing_plan_id":"cebpf4jnsgd1na2vs0mg"},{"bike_id":"9211700e-61b0-4122-9b22-3b14629aa98b","system_id":"levelo_inurba_marseille","lat":43.31325,"lon":5.39697,"is_reserved":false,"is_disabled":false,"rental_uris":{"android":"levelo://app?vid=9211700e-61b0-4122-9b22-3b14629aa98b","ios":"levelo://app?vid=9211700e-61b0-4122-9b22-3b14629aa98b"},"vehicle_type_id":"4","last_reported":1749589803,"current_range_meters":14400,"station_id":"ce4bgvp2rcd13ifvqcu0","pricing_plan_id":"cebpf4jnsgd1na2vs0mg"},{"bike_id":"72a94b25-2fe0-4919-8521-e8b66695aa46","system_id":"levelo_inurba_marseille","lat":43.286987,"lon":5.399945,"is_reserved":false,"is_disabled":false,"rental_uris":{"android":"levelo://app?vid=72a94b25-2fe0-4919-8521-e8b66695aa46","ios":"levelo://app?vid=72a94b25-2fe0-4919-8521-e8b66695aa46"},"vehicle_type_id":"4","last_reported":1749589803,"current_range_meters":14400,"station_id":"","pricing_plan_id":"cebpf4jnsgd1na2vs0mg"},{"bike_id":"7e465627-ff3e-415d-9b80-dbdfeed5492b","system_id":"levelo_inurba_marseille","lat":43.30891,"lon":5.39629,"is_reserved":false,"is_disabled":false,"rental_uris":{"android":"levelo://app?vid=7e465627-ff3e-415d-9b80-dbdfeed5492b","ios":"levelo://app?vid=7e465627-ff3e-415d-9b80-dbdfeed5492b"},"vehicle_type_id":"4","last_reported":1749589803,"current_range_meters":14400,"station_id":"ce4bh012rcd13ifvqcv0","pricing_plan_id":"cebpf4jnsgd1na2vs0mg"},{"bike_id":"d59db2ac-bac5-4944-90e1-cdfef7914127","system_id":"levelo_inurba_marseille","lat":43.29524,"lon":5.39385,"is_reserved":false,"is_disabled":false,"rental_uris":{"android":"levelo://app?vid=d59db2ac-bac5-4944-90e1-cdfef7914127","ios":"levelo://app?vid=d59db2ac-bac5-4944-90e1-cdfef7914127"},"vehicle_type_id":"4","last_reported":1749589803,"current_range_meters":14400,"station_id":"ce4bh292rcd13ifvqdf0","pricing_plan_id":"cebpf4jnsgd1na2vs0mg"},{"bike_id":"e6d67648-0d34-4392-8e2c-f83f208c9d05","system_id":"levelo_inurba_marseille","lat":43.316824,"lon":5.404696,"is_reserved":false,"is_disabled":false,"rental_uris":{"android":"levelo://app?vid=e6d67648-0d34-4392-8e2c-f83f208c9d05","ios":"levelo://app?vid=e6d67648-0d34-4392-8e2c-f83f208c9d05"},"vehicle_type_id":"4","last_reported":1749589803,"current_range_meters":14400,"station_id":"ce4bh012rcd13ifvqd00","pricing_plan_id":"cebpf4jnsgd1na2vs0mg"},{"bike_id":"2fb77abd-3112-4fce-99a6-71b8052ec74f","system_id":"levelo_inurba_marseille","lat":43.27947,"lon":5.41026,"is_reserved":false,"is_disabled":false,"rental_uris":{"android":"levelo://app?vid=2fb77abd-3112-4fce-99a6-71b8052ec74f","ios":"levelo://app?vid=2fb77abd-3112-4fce-99a6-71b8052ec74f"},"vehicle_type_id":"4","last_reported":1749589803,"current_range_meters":14400,"station_id":"ce4bhnp2rcd13ifvqh0g","pricing_plan_id":"cebpf4jnsgd1na2vs0mg"},{"bike_id":"84f5a926-1dd6-4535-b647-2764ce0ca103","system_id":"levelo_inurba_marseille","lat":43.321174,"lon":5.367643,"is_reserved":false,"is_disabled":false,"rental_uris":{"android":"levelo://app?vid=84f5a926-1dd6-4535-b647-2764ce0ca103","ios":"levelo://app?vid=84f5a926-1dd6-4535-b647-2764ce0ca103"},"vehicle_type_id":"4","last_reported":1749589803,"current_range_meters":14400,"station_id":"ce4bhrh2rcd13ifvqhug","pricing_plan_id":"cebpf4jnsgd1na2vs0mg"},{"bike_id":"250fb058-cb56-4876-b4b4-f49f75f7a574","system_id":"levelo_inurba_marseille","lat":43.30588,"lon":5.3935,"is_reserved":false,"is_disabled":false,"rental_uris":{"android":"levelo://app?vid=250fb058-cb56-4876-b4b4-f49f75f7a574","ios":"levelo://app?vid=250fb058-cb56-4876-b4b4-f49f75f7a574"},"vehicle_type_id":"4","last_reported":1749589803,"current_range_meters":14400,"station_id":"ce4bh0p2rcd13ifvqd80","pricing_plan_id":"cebpf4jnsgd1na2vs0mg"},{"bike_id":"38f6a98b-4691-4132-ac78-8a6ef0144926","system_id":"levelo_inurba_marseille","lat":43.29263,"lon":5.37586,"is_reserved":false,"is_disabled":false,"rental_uris":{"android":"levelo://app?vid=38f6a98b-4691-4132-ac78-8a6ef0144926","ios":"levelo://app?vid=38f6a98b-4691-4132-ac78-8a6ef0144926"},"vehicle_type_id":"4","last_reported":1749589803,"current_range_meters":14400,"station_id":"ce4bgi12rcd13ifvqb80","pricing_plan_id":"cebpf4jnsgd1na2vs0mg"},{"bike_id":"f9c7be32-165b-478a-b752-d36248c41146","system_id":"levelo_inurba_marseille","lat":43.29564,"lon":5.39975,"is_reserved":false,"is_disabled":false,"rental_uris":{"android":"levelo://app?vid=f9c7be32-165b-478a-b752-d36248c41146","ios":"levelo://app?vid=f9c7be32-165b-478a-b752-d36248c41146"},"vehicle_type_id":"4","last_reported":1749589803,"current_range_meters":14400,"station_id":"ce4bh312rcd13ifvqdj0","pricing_plan_id":"cebpf4jnsgd1na2vs0mg"},{"bike_id":"6e6d2daa-a573-4fd3-96ca-4794efce5be0","system_id":"levelo_inurba_marseille","lat":43.29879,"lon":5.38912,"is_reserved":false,"is_disabled":false,"rental_uris":{"android":"levelo://app?vid=6e6d2daa-a573-4fd3-96ca-4794efce5be0","ios":"levelo://app?vid=6e6d2daa-a573-4fd3-96ca-4794efce5be0"},"vehicle_type_id":"4","last_reported":1749589803,"current_range_meters":14800,"station_id":"ce4bh392rcd13ifvqdl0","pricing_plan_id":"cebpf4jnsgd1na2vs0mg"},{"bike_id":"1022e0dd-6c07-472a-a3f0-50010484ae22","system_id":"levelo_inurba_marseille","lat":43.27996,"lon":5.41667,"is_reserved":false,"is_disabled":false,"rental_uris":{"android":"levelo://app?vid=1022e0dd-6c07-472a-a3f0-50010484ae22","ios":"levelo://app?vid=1022e0dd-6c07-472a-a3f0-50010484ae22"},"vehicle_type_id":"4","last_reported":1749589803,"current_range_meters":14800,"station_id":"ce4bho12rcd13ifvqh1g","pricing_plan_id":"cebpf4jnsgd1na2vs0mg"},{"bike_id":"002ad4e8-6140-4bdd-b14b-f38ee707447e","system_id":"levelo_inurba_marseille","lat":43.31003,"lon":5.38584,"is_reserved":false,"is_disabled":false,"rental_uris":{"android":"levelo://app?vid=002ad4e8-6140-4bdd-b14b-f38ee707447e","ios":"levelo://app?vid=002ad4e8-6140-4bdd-b14b-f38ee707447e"},"vehicle_type_id":"4","last_reported":1749589803,"current_range_meters":14800,"station_id":"","pricing_plan_id":"cebpf4jnsgd1na2vs0mg"},{"bike_id":"fd1d14a0-1a3e-4eb9-b19e-044738f5d1c3","system_id":"levelo_inurba_marseille","lat":43.28985,"lon":5.35591,"is_reserved":false,"is_disabled":true,"rental_uris":{"android":"levelo://app?vid=fd1d14a0-1a3e-4eb9-b19e-044738f5d1c3","ios":"levelo://app?vid=fd1d14a0-1a3e-4eb9-b19e-044738f5d1c3"},"vehicle_type_id":"4","last_reported":1749589803,"current_range_meters":14800,"station_id":"ce4bhb92rcd13ifvqen0","pricing_plan_id":"cebpf4jnsgd1na2vs0mg"},{"bike_id":"c9b21e58-6ba5-4034-a19f-29e6922b7b60","system_id":"levelo_inurba_marseille","lat":43.30596,"lon":5.39334,"is_reserved":false,"is_disabled":false,"rental_uris":{"android":"levelo://app?vid=c9b21e58-6ba5-4034-a19f-29e6922b7b60","ios":"levelo://app?vid=c9b21e58-6ba5-4034-a19f-29e6922b7b60"},"vehicle_type_id":"4","last_reported":1749589803,"current_range_meters":14800,"station_id":"ce4bh0p2rcd13ifvqd80","pricing_plan_id":"cebpf4jnsgd1na2vs0mg"},{"bike_id":"3ab83fea-df80-4413-887f-96261459d77c","system_id":"levelo_inurba_marseille","lat":43.30885,"lon":5.39657,"is_reserved":false,"is_disabled":false,"rental_uris":{"android":"levelo://app?vid=3ab83fea-df80-4413-887f-96261459d77c","ios":"levelo://app?vid=3ab83fea-df80-4413-887f-96261459d77c"},"vehicle_type_id":"4","last_reported":1749589803,"current_range_meters":15200,"station_id":"ce4bh012rcd13ifvqcv0","pricing_plan_id":"cebpf4jnsgd1na2vs0mg"},{"bike_id":"4727b314-3bd1-43f9-b43d-76c9166f290d","system_id":"levelo_inurba_marseille","lat":43.32337,"lon":5.40619,"is_reserved":false,"is_disabled":false,"rental_uris":{"android":"levelo://app?vid=4727b314-3bd1-43f9-b43d-76c9166f290d","ios":"levelo://app?vid=4727b314-3bd1-43f9-b43d-76c9166f290d"},"vehicle_type_id":"4","last_reported":1749589803,"current_range_meters":15200,"station_id":"ce4bhq92rcd13ifvqhjg","pricing_plan_id":"cebpf4jnsgd1na2vs0mg"},{"bike_id":"e857b26f-e98d-4e5b-a472-9489934cc3bc","system_id":"levelo_inurba_marseille","lat":43.30924,"lon":5.4015,"is_reserved":false,"is_disabled":true,"rental_uris":{"android":"levelo://app?vid=e857b26f-e98d-4e5b-a472-9489934cc3bc","ios":"levelo://app?vid=e857b26f-e98d-4e5b-a472-9489934cc3bc"},"vehicle_type_id":"4","last_reported":1749589803,"current_range_meters":15200,"station_id":"ce4bgvp2rcd13ifvqct0","pricing_plan_id":"cebpf4jnsgd1na2vs0mg"},{"bike_id":"459ca737-6f77-471f-8093-5a88355f5584","system_id":"levelo_inurba_marseille","lat":43.27479,"lon":5.42435,"is_reserved":false,"is_disabled":false,"rental_uris":{"android":"levelo://app?vid=459ca737-6f77-471f-8093-5a88355f5584","ios":"levelo://app?vid=459ca737-6f77-471f-8093-5a88355f5584"},"vehicle_type_id":"4","last_reported":1749589803,"current_range_meters":15200,"station_id":"ce4bhn92rcd13ifvqgrg","pricing_plan_id":"cebpf4jnsgd1na2vs0mg"},{"bike_id":"c68678c3-312d-4998-b80e-8f0a82be1768","system_id":"levelo_inurba_marseille","lat":43.26802,"lon":5.40261,"is_reserved":false,"is_disabled":false,"rental_uris":{"android":"levelo://app?vid=c68678c3-312d-4998-b80e-8f0a82be1768","ios":"levelo://app?vid=c68678c3-312d-4998-b80e-8f0a82be1768"},"vehicle_type_id":"4","last_reported":1749589803,"current_range_meters":15200,"station_id":"ce501612rcd8frsf0b60","pricing_plan_id":"cebpf4jnsgd1na2vs0mg"},{"bike_id":"11289f73-d1df-4cf8-b9e0-a30bca71c4d8","system_id":"levelo_inurba_marseille","lat":43.31389,"lon":5.36673,"is_reserved":false,"is_disabled":false,"rental_uris":{"android":"levelo://app?vid=11289f73-d1df-4cf8-b9e0-a30bca71c4d8","ios":"levelo://app?vid=11289f73-d1df-4cf8-b9e0-a30bca71c4d8"},"vehicle_type_id":"4","last_reported":1749589803,"current_range_meters":16000,"station_id":"ce4bgr92rcd13ifvqc6g","pricing_plan_id":"cebpf4jnsgd1na2vs0mg"},{"bike_id":"dd3dc162-2c7a-4f53-a9bb-a42251b1d267","system_id":"levelo_inurba_marseille","lat":43.28935,"lon":5.36643,"is_reserved":false,"is_disabled":false,"rental_uris":{"android":"levelo://app?vid=dd3dc162-2c7a-4f53-a9bb-a42251b1d267","ios":"levelo://app?vid=dd3dc162-2c7a-4f53-a9bb-a42251b1d267"},"vehicle_type_id":"4","last_reported":1749589803,"current_range_meters":16000,"station_id":"ce4bhap2rcd13ifvqek0","pricing_plan_id":"cebpf4jnsgd1na2vs0mg"},{"bike_id":"0aed9fba-8785-422d-965f-d158019be561","system_id":"levelo_inurba_marseille","lat":43.305769,"lon":5.375144,"is_reserved":false,"is_disabled":false,"rental_uris":{"android":"levelo://app?vid=0aed9fba-8785-422d-965f-d158019be561","ios":"levelo://app?vid=0aed9fba-8785-422d-965f-d158019be561"},"vehicle_type_id":"4","last_reported":1749589803,"current_range_meters":16000,"station_id":"ce4bguh2rcd13ifvqckg","pricing_plan_id":"cebpf4jnsgd1na2vs0mg"},{"bike_id":"4af71b73-0925-4852-8ab2-f2aab4a26d02","system_id":"levelo_inurba_marseille","lat":43.29552,"lon":5.39938,"is_reserved":false,"is_disabled":false,"rental_uris":{"android":"levelo://app?vid=4af71b73-0925-4852-8ab2-f2aab4a26d02","ios":"levelo://app?vid=4af71b73-0925-4852-8ab2-f2aab4a26d02"},"vehicle_type_id":"4","last_reported":1749589803,"current_range_meters":16000,"station_id":"ce4bh312rcd13ifvqdj0","pricing_plan_id":"cebpf4jnsgd1na2vs0mg"},{"bike_id":"fcc8b624-5e9f-42c2-af58-4a8c961c59b6","system_id":"levelo_inurba_marseille","lat":43.29276,"lon":5.40124,"is_reserved":false,"is_disabled":false,"rental_uris":{"android":"levelo://app?vid=fcc8b624-5e9f-42c2-af58-4a8c961c59b6","ios":"levelo://app?vid=fcc8b624-5e9f-42c2-af58-4a8c961c59b6"},"vehicle_type_id":"4","last_reported":1749589803,"current_range_meters":16000,"station_id":"ce4bh312rcd13ifvqdk0","pricing_plan_id":"cebpf4jnsgd1na2vs0mg"},{"bike_id":"a5e4103e-f351-4058-8d1f-d324a3a289c2","system_id":"levelo_inurba_marseille","lat":43.30299,"lon":5.39199,"is_reserved":false,"is_disabled":false,"rental_uris":{"android":"levelo://app?vid=a5e4103e-f351-4058-8d1f-d324a3a289c2","ios":"levelo://app?vid=a5e4103e-f351-4058-8d1f-d324a3a289c2"},"vehicle_type_id":"4","last_reported":1749589803,"current_range_meters":16000,"station_id":"ce4bgkh2rcd13ifvqbk0","pricing_plan_id":"cebpf4jnsgd1na2vs0mg"},{"bike_id":"b350c8e9-ed32-4415-aae6-ec1b9bd87516","system_id":"levelo_inurba_marseille","lat":43.28674,"lon":5.36319,"is_reserved":false,"is_disabled":false,"rental_uris":{"android":"levelo://app?vid=b350c8e9-ed32-4415-aae6-ec1b9bd87516","ios":"levelo://app?vid=b350c8e9-ed32-4415-aae6-ec1b9bd87516"},"vehicle_type_id":"4","last_reported":1749589803,"current_range_meters":16000,"station_id":"ce4bhah2rcd13ifvqej0","pricing_plan_id":"cebpf4jnsgd1na2vs0mg"},{"bike_id":"21c32cf0-9fff-4197-8409-5b26012f94c3","system_id":"levelo_inurba_marseille","lat":43.278267,"lon":5.407187,"is_reserved":false,"is_disabled":false,"rental_uris":{"android":"levelo://app?vid=21c32cf0-9fff-4197-8409-5b26012f94c3","ios":"levelo://app?vid=21c32cf0-9fff-4197-8409-5b26012f94c3"},"vehicle_type_id":"4","last_reported":1749589803,"current_range_meters":16000,"station_id":"ce4bhnh2rcd13ifvqgtg","pricing_plan_id":"cebpf4jnsgd1na2vs0mg"},{"bike_id":"53ad8fa1-d150-4303-9608-ed288946d58c","system_id":"levelo_inurba_marseille","lat":43.313185,"lon":5.396942,"is_reserved":false,"is_disabled":false,"rental_uris":{"android":"levelo://app?vid=53ad8fa1-d150-4303-9608-ed288946d58c","ios":"levelo://app?vid=53ad8fa1-d150-4303-9608-ed288946d58c"},"vehicle_type_id":"4","last_reported":1749589803,"current_range_meters":16000,"station_id":"ce4bgvp2rcd13ifvqcu0","pricing_plan_id":"cebpf4jnsgd1na2vs0mg"},{"bike_id":"abac1aef-dbbd-4e20-b5da-a2236e654af5","system_id":"levelo_inurba_marseille","lat":43.26935,"lon":5.40237,"is_reserved":false,"is_disabled":false,"rental_uris":{"android":"levelo://app?vid=abac1aef-dbbd-4e20-b5da-a2236e654af5","ios":"levelo://app?vid=abac1aef-dbbd-4e20-b5da-a2236e654af5"},"vehicle_type_id":"4","last_reported":1749589803,"current_range_meters":16000,"station_id":"cjm6bp8fraef2m0cb0m0","pricing_plan_id":"cebpf4jnsgd1na2vs0mg"},{"bike_id":"1acfb620-cad7-48c0-8901-d7a5b74a5b65","system_id":"levelo_inurba_marseille","lat":43.33751,"lon":5.37456,"is_reserved":false,"is_disabled":false,"rental_uris":{"android":"levelo://app?vid=1acfb620-cad7-48c0-8901-d7a5b74a5b65","ios":"levelo://app?vid=1acfb620-cad7-48c0-8901-d7a5b74a5b65"},"vehicle_type_id":"4","last_reported":1749589803,"current_range_meters":16000,"station_id":"","pricing_plan_id":"cebpf4jnsgd1na2vs0mg"},{"bike_id":"514f3ce4-4675-4352-bc6b-a6afd14c005f","system_id":"levelo_inurba_marseille","lat":43.28357,"lon":5.38618,"is_reserved":false,"is_disabled":false,"rental_uris":{"android":"levelo://app?vid=514f3ce4-4675-4352-bc6b-a6afd14c005f","ios":"levelo://app?vid=514f3ce4-4675-4352-bc6b-a6afd14c005f"},"vehicle_type_id":"4","last_reported":1749589803,"current_range_meters":16400,"station_id":"ce4bh492rcd13ifvqdvg","pricing_plan_id":"cebpf4jnsgd1na2vs0mg"},{"bike_id":"997854c7-15e3-447d-839d-4eca6b3ab90c","system_id":"levelo_inurba_marseille","lat":43.292642,"lon":5.3844,"is_reserved":false,"is_disabled":false,"rental_uris":{"android":"levelo://app?vid=997854c7-15e3-447d-839d-4eca6b3ab90c","ios":"levelo://app?vid=997854c7-15e3-447d-839d-4eca6b3ab90c"},"vehicle_type_id":"4","last_reported":1749589803,"current_range_meters":16400,"station_id":"ce4bh692rcd13ifvqea0","pricing_plan_id":"cebpf4jnsgd1na2vs0mg"},{"bike_id":"9bd6db66-5c57-43a0-819b-98c196e1424c","system_id":"levelo_inurba_marseille","lat":43.295234,"lon":5.390445,"is_reserved":false,"is_disabled":false,"rental_uris":{"android":"levelo://app?vid=9bd6db66-5c57-43a0-819b-98c196e1424c","ios":"levelo://app?vid=9bd6db66-5c57-43a0-819b-98c196e1424c"},"vehicle_type_id":"4","last_reported":1749589803,"current_range_meters":16400,"station_id":"ce4bh3p2rcd13ifvqdp0","pricing_plan_id":"cebpf4jnsgd1na2vs0mg"},{"bike_id":"aa9085db-88fc-49be-aad8-9551ff3c1877","system_id":"levelo_inurba_marseille","lat":43.27944,"lon":5.41033,"is_reserved":false,"is_disabled":false,"rental_uris":{"android":"levelo://app?vid=aa9085db-88fc-49be-aad8-9551ff3c1877","ios":"levelo://app?vid=aa9085db-88fc-49be-aad8-9551ff3c1877"},"vehicle_type_id":"4","last_reported":1749589803,"current_range_meters":16400,"station_id":"ce4bhnp2rcd13ifvqh0g","pricing_plan_id":"cebpf4jnsgd1na2vs0mg"},{"bike_id":"eadcfcfe-dcac-4ea7-abd4-2a74365dc6b7","system_id":"levelo_inurba_marseille","lat":43.27897,"lon":5.38006,"is_reserved":false,"is_disabled":false,"rental_uris":{"android":"levelo://app?vid=eadcfcfe-dcac-4ea7-abd4-2a74365dc6b7","ios":"levelo://app?vid=eadcfcfe-dcac-4ea7-abd4-2a74365dc6b7"},"vehicle_type_id":"4","last_reported":1749589803,"current_range_meters":16400,"station_id":"ce4bhf92rcd13ifvqf50","pricing_plan_id":"cebpf4jnsgd1na2vs0mg"},{"bike_id":"b9dce34d-aeb2-409b-9fbd-9266ac903aaa","system_id":"levelo_inurba_marseille","lat":43.28984,"lon":5.37826,"is_reserved":false,"is_disabled":true,"rental_uris":{"android":"levelo://app?vid=b9dce34d-aeb2-409b-9fbd-9266ac903aaa","ios":"levelo://app?vid=b9dce34d-aeb2-409b-9fbd-9266ac903aaa"},"vehicle_type_id":"4","last_reported":1749589803,"current_range_meters":16400,"station_id":"ce4bh9p2rcd13ifvqed0","pricing_plan_id":"cebpf4jnsgd1na2vs0mg"},{"bike_id":"35ef1a96-488a-4fc7-9217-a79d1b12f91d","system_id":"levelo_inurba_marseille","lat":43.28345,"lon":5.38104,"is_reserved":false,"is_disabled":false,"rental_uris":{"android":"levelo://app?vid=35ef1a96-488a-4fc7-9217-a79d1b12f91d","ios":"levelo://app?vid=35ef1a96-488a-4fc7-9217-a79d1b12f91d"},"vehicle_type_id":"4","last_reported":1749589803,"current_range_meters":16800,"station_id":"ce4bh412rcd13ifvqdr0","pricing_plan_id":"cebpf4jnsgd1na2vs0mg"},{"bike_id":"2878ca2a-d0cb-4699-9fc9-84a7ca295d5b","system_id":"levelo_inurba_marseille","lat":43.25717,"lon":5.4111,"is_reserved":false,"is_disabled":false,"rental_uris":{"android":"levelo://app?vid=2878ca2a-d0cb-4699-9fc9-84a7ca295d5b","ios":"levelo://app?vid=2878ca2a-d0cb-4699-9fc9-84a7ca295d5b"},"vehicle_type_id":"4","last_reported":1749589803,"current_range_meters":16800,"station_id":"ce4bhkp2rcd13ifvqgd0","pricing_plan_id":"cebpf4jnsgd1na2vs0mg"},{"bike_id":"136a956b-c67e-4ee7-bafc-f4953a39f893","system_id":"levelo_inurba_marseille","lat":43.2508,"lon":5.39557,"is_reserved":false,"is_disabled":false,"rental_uris":{"android":"levelo://app?vid=136a956b-c67e-4ee7-bafc-f4953a39f893","ios":"levelo://app?vid=136a956b-c67e-4ee7-bafc-f4953a39f893"},"vehicle_type_id":"4","last_reported":1749589803,"current_range_meters":16800,"station_id":"ce4bhm12rcd13ifvqgkg","pricing_plan_id":"cebpf4jnsgd1na2vs0mg"},{"bike_id":"0b0e2438-4263-43eb-819b-4dc7f21a29b4","system_id":"levelo_inurba_marseille","lat":43.30902,"lon":5.39628,"is_reserved":false,"is_disabled":false,"rental_uris":{"android":"levelo://app?vid=0b0e2438-4263-43eb-819b-4dc7f21a29b4","ios":"levelo://app?vid=0b0e2438-4263-43eb-819b-4dc7f21a29b4"},"vehicle_type_id":"4","last_reported":1749589803,"current_range_meters":16800,"station_id":"ce4bh012rcd13ifvqcv0","pricing_plan_id":"cebpf4jnsgd1na2vs0mg"},{"bike_id":"481e916d-080e-49fa-9810-b2d9daec3198","system_id":"levelo_inurba_marseille","lat":43.25101,"lon":5.40329,"is_reserved":false,"is_disabled":false,"rental_uris":{"android":"levelo://app?vid=481e916d-080e-49fa-9810-b2d9daec3198","ios":"levelo://app?vid=481e916d-080e-49fa-9810-b2d9daec3198"},"vehicle_type_id":"4","last_reported":1749589803,"current_range_meters":16800,"station_id":"ce4bhlh2rcd13ifvqgig","pricing_plan_id":"cebpf4jnsgd1na2vs0mg"},{"bike_id":"fac1df22-2152-4fba-bde9-374db0465688","system_id":"levelo_inurba_marseille","lat":43.28699,"lon":5.37395,"is_reserved":false,"is_disabled":false,"rental_uris":{"android":"levelo://app?vid=fac1df22-2152-4fba-bde9-374db0465688","ios":"levelo://app?vid=fac1df22-2152-4fba-bde9-374db0465688"},"vehicle_type_id":"4","last_reported":1749589803,"current_range_meters":16800,"station_id":"ce4bh3p2rcd13ifvqdq0","pricing_plan_id":"cebpf4jnsgd1na2vs0mg"},{"bike_id":"9231f021-d06e-4dc9-b555-e59bf1d45ecd","system_id":"levelo_inurba_marseille","lat":43.32108,"lon":5.36767,"is_reserved":false,"is_disabled":false,"rental_uris":{"android":"levelo://app?vid=9231f021-d06e-4dc9-b555-e59bf1d45ecd","ios":"levelo://app?vid=9231f021-d06e-4dc9-b555-e59bf1d45ecd"},"vehicle_type_id":"4","last_reported":1749589803,"current_range_meters":16800,"station_id":"ce4bhrh2rcd13ifvqhug","pricing_plan_id":"cebpf4jnsgd1na2vs0mg"},{"bike_id":"652dbd64-7353-4c24-a224-08a874e081ef","system_id":"levelo_inurba_marseille","lat":43.27568,"lon":5.38416,"is_reserved":false,"is_disabled":false,"rental_uris":{"android":"levelo://app?vid=652dbd64-7353-4c24-a224-08a874e081ef","ios":"levelo://app?vid=652dbd64-7353-4c24-a224-08a874e081ef"},"vehicle_type_id":"4","last_reported":1749589803,"current_range_meters":16800,"station_id":"ce4bhh92rcd13ifvqfi0","pricing_plan_id":"cebpf4jnsgd1na2vs0mg"},{"bike_id":"1f42e774-0b65-4738-b3e3-0aae7ec0e65c","system_id":"levelo_inurba_marseille","lat":43.29565,"lon":5.37536,"is_reserved":false,"is_disabled":true,"rental_uris":{"android":"levelo://app?vid=1f42e774-0b65-4738-b3e3-0aae7ec0e65c","ios":"levelo://app?vid=1f42e774-0b65-4738-b3e3-0aae7ec0e65c"},"vehicle_type_id":"4","last_reported":1749589803,"current_range_meters":16800,"station_id":"ce4bgh92rcd13ifvqb50","pricing_plan_id":"cebpf4jnsgd1na2vs0mg"},{"bike_id":"950522e5-9842-420b-a023-ada25ce94634","system_id":"levelo_inurba_marseille","lat":43.31171,"lon":5.38705,"is_reserved":false,"is_disabled":false,"rental_uris":{"android":"levelo://app?vid=950522e5-9842-420b-a023-ada25ce94634","ios":"levelo://app?vid=950522e5-9842-420b-a023-ada25ce94634"},"vehicle_type_id":"4","last_reported":1749589803,"current_range_meters":17200,"station_id":"ce4bgv12rcd13ifvqcp0","pricing_plan_id":"cebpf4jnsgd1na2vs0mg"},{"bike_id":"f1b65fa1-984c-44f0-a715-d2dc0f780629","system_id":"levelo_inurba_marseille","lat":43.30593,"lon":5.39356,"is_reserved":false,"is_disabled":false,"rental_uris":{"android":"levelo://app?vid=f1b65fa1-984c-44f0-a715-d2dc0f780629","ios":"levelo://app?vid=f1b65fa1-984c-44f0-a715-d2dc0f780629"},"vehicle_type_id":"4","last_reported":1749589803,"current_range_meters":17200,"station_id":"ce4bh0p2rcd13ifvqd80","pricing_plan_id":"cebpf4jnsgd1na2vs0mg"},{"bike_id":"26a8654e-903c-45fd-aa13-c42a2b6c81ee","system_id":"levelo_inurba_marseille","lat":43.30786,"lon":5.38152,"is_reserved":false,"is_disabled":false,"rental_uris":{"android":"levelo://app?vid=26a8654e-903c-45fd-aa13-c42a2b6c81ee","ios":"levelo://app?vid=26a8654e-903c-45fd-aa13-c42a2b6c81ee"},"vehicle_type_id":"4","last_reported":1749589803,"current_range_meters":17200,"station_id":"ce4bgt12rcd13ifvqce0","pricing_plan_id":"cebpf4jnsgd1na2vs0mg"},{"bike_id":"3f07f3c8-550a-423c-84a3-e28daf17b2b5","system_id":"levelo_inurba_marseille","lat":43.28456,"lon":5.35894,"is_reserved":false,"is_disabled":false,"rental_uris":{"android":"levelo://app?vid=3f07f3c8-550a-423c-84a3-e28daf17b2b5","ios":"levelo://app?vid=3f07f3c8-550a-423c-84a3-e28daf17b2b5"},"vehicle_type_id":"4","last_reported":1749589803,"current_range_meters":16800,"station_id":"ce4bhah2rcd13ifvqei0","pricing_plan_id":"cebpf4jnsgd1na2vs0mg"},{"bike_id":"d6515318-ac2c-47f0-b0e4-ac5ab2c5d151","system_id":"levelo_inurba_marseille","lat":43.24164,"lon":5.36393,"is_reserved":false,"is_disabled":false,"rental_uris":{"android":"levelo://app?vid=d6515318-ac2c-47f0-b0e4-ac5ab2c5d151","ios":"levelo://app?vid=d6515318-ac2c-47f0-b0e4-ac5ab2c5d151"},"vehicle_type_id":"4","last_reported":1749589803,"current_range_meters":17200,"station_id":"cpo36qri1sfpv3e86is0","pricing_plan_id":"cebpf4jnsgd1na2vs0mg"},{"bike_id":"31f915e9-559e-459d-ba01-bb6cf5b4f0a2","system_id":"levelo_inurba_marseille","lat":43.28926,"lon":5.38402,"is_reserved":false,"is_disabled":false,"rental_uris":{"android":"levelo://app?vid=31f915e9-559e-459d-ba01-bb6cf5b4f0a2","ios":"levelo://app?vid=31f915e9-559e-459d-ba01-bb6cf5b4f0a2"},"vehicle_type_id":"4","last_reported":1749589803,"current_range_meters":16800,"station_id":"ce4bh612rcd13ifvqe6g","pricing_plan_id":"cebpf4jnsgd1na2vs0mg"},{"bike_id":"65b4ff9e-3d90-4983-ac06-dc0994dce3e1","system_id":"levelo_inurba_marseille","lat":43.30796,"lon":5.43529,"is_reserved":false,"is_disabled":false,"rental_uris":{"android":"levelo://app?vid=65b4ff9e-3d90-4983-ac06-dc0994dce3e1","ios":"levelo://app?vid=65b4ff9e-3d90-4983-ac06-dc0994dce3e1"},"vehicle_type_id":"4","last_reported":1749589803,"current_range_meters":17200,"station_id":"ce4bhph2rcd13ifvqheg","pricing_plan_id":"cebpf4jnsgd1na2vs0mg"},{"bike_id":"eb141528-d7ed-4d25-93fb-bf7329c50fab","system_id":"levelo_inurba_marseille","lat":43.26675,"lon":5.38255,"is_reserved":false,"is_disabled":false,"rental_uris":{"android":"levelo://app?vid=eb141528-d7ed-4d25-93fb-bf7329c50fab","ios":"levelo://app?vid=eb141528-d7ed-4d25-93fb-bf7329c50fab"},"vehicle_type_id":"4","last_reported":1749589803,"current_range_meters":17200,"station_id":"ce4bhg92rcd13ifvqf90","pricing_plan_id":"cebpf4jnsgd1na2vs0mg"},{"bike_id":"b918f339-a33d-489c-826a-8fffafca2d2e","system_id":"levelo_inurba_marseille","lat":43.32362,"lon":5.38889,"is_reserved":false,"is_disabled":false,"rental_uris":{"android":"levelo://app?vid=b918f339-a33d-489c-826a-8fffafca2d2e","ios":"levelo://app?vid=b918f339-a33d-489c-826a-8fffafca2d2e"},"vehicle_type_id":"4","last_reported":1749589803,"current_range_meters":17200,"station_id":"ce4bhqp2rcd13ifvqhog","pricing_plan_id":"cebpf4jnsgd1na2vs0mg"},{"bike_id":"8ff811ea-f688-4c56-8b61-1084846cf6c9","system_id":"levelo_inurba_marseille","lat":43.28344,"lon":5.381018,"is_reserved":false,"is_disabled":false,"rental_uris":{"android":"levelo://app?vid=8ff811ea-f688-4c56-8b61-1084846cf6c9","ios":"levelo://app?vid=8ff811ea-f688-4c56-8b61-1084846cf6c9"},"vehicle_type_id":"4","last_reported":1749589803,"current_range_meters":17200,"station_id":"ce4bh412rcd13ifvqdr0","pricing_plan_id":"cebpf4jnsgd1na2vs0mg"},{"bike_id":"84690189-aac2-4995-a759-49db2dd7b2fa","system_id":"levelo_inurba_marseille","lat":43.279112,"lon":5.37999,"is_reserved":false,"is_disabled":false,"rental_uris":{"android":"levelo://app?vid=84690189-aac2-4995-a759-49db2dd7b2fa","ios":"levelo://app?vid=84690189-aac2-4995-a759-49db2dd7b2fa"},"vehicle_type_id":"4","last_reported":1749589803,"current_range_meters":17200,"station_id":"ce4bhf92rcd13ifvqf50","pricing_plan_id":"cebpf4jnsgd1na2vs0mg"},{"bike_id":"314bac2c-e47f-46cd-afcd-53cd84a7d142","system_id":"levelo_inurba_marseille","lat":43.27617,"lon":5.36103,"is_reserved":false,"is_disabled":true,"rental_uris":{"android":"levelo://app?vid=314bac2c-e47f-46cd-afcd-53cd84a7d142","ios":"levelo://app?vid=314bac2c-e47f-46cd-afcd-53cd84a7d142"},"vehicle_type_id":"4","last_reported":1749589803,"current_range_meters":17600,"station_id":"ce4bgj92rcd13ifvqbe0","pricing_plan_id":"cebpf4jnsgd1na2vs0mg"},{"bike_id":"d49963c9-4a74-4b7c-ae71-2e7f71f19deb","system_id":"levelo_inurba_marseille","lat":43.29586,"lon":5.3674,"is_reserved":false,"is_disabled":true,"rental_uris":{"android":"levelo://app?vid=d49963c9-4a74-4b7c-ae71-2e7f71f19deb","ios":"levelo://app?vid=d49963c9-4a74-4b7c-ae71-2e7f71f19deb"},"vehicle_type_id":"4","last_reported":1749589803,"current_range_meters":17600,"station_id":"ce4bgph2rcd13ifvqc2g","pricing_plan_id":"cebpf4jnsgd1na2vs0mg"},{"bike_id":"d1210416-9ded-4a4a-bbfe-b731179dd6ee","system_id":"levelo_inurba_marseille","lat":43.28842,"lon":5.39306,"is_reserved":false,"is_disabled":false,"rental_uris":{"android":"levelo://app?vid=d1210416-9ded-4a4a-bbfe-b731179dd6ee","ios":"levelo://app?vid=d1210416-9ded-4a4a-bbfe-b731179dd6ee"},"vehicle_type_id":"4","last_reported":1749589803,"current_range_meters":17600,"station_id":"ce4bh2p2rcd13ifvqdi0","pricing_plan_id":"cebpf4jnsgd1na2vs0mg"},{"bike_id":"dd15bbe3-f261-4616-a7c5-0080df9aa2ad","system_id":"levelo_inurba_marseille","lat":43.28452,"lon":5.35882,"is_reserved":false,"is_disabled":false,"rental_uris":{"android":"levelo://app?vid=dd15bbe3-f261-4616-a7c5-0080df9aa2ad","ios":"levelo://app?vid=dd15bbe3-f261-4616-a7c5-0080df9aa2ad"},"vehicle_type_id":"4","last_reported":1749589803,"current_range_meters":17600,"station_id":"ce4bhah2rcd13ifvqei0","pricing_plan_id":"cebpf4jnsgd1na2vs0mg"},{"bike_id":"6561ada4-4d9c-44fb-9d27-ab653c449cf8","system_id":"levelo_inurba_marseille","lat":43.30588,"lon":5.39356,"is_reserved":false,"is_disabled":false,"rental_uris":{"android":"levelo://app?vid=6561ada4-4d9c-44fb-9d27-ab653c449cf8","ios":"levelo://app?vid=6561ada4-4d9c-44fb-9d27-ab653c449cf8"},"vehicle_type_id":"4","last_reported":1749589803,"current_range_meters":17600,"station_id":"ce4bh0p2rcd13ifvqd80","pricing_plan_id":"cebpf4jnsgd1na2vs0mg"},{"bike_id":"c527f466-a0c4-4ca7-b0e1-fcf809093349","system_id":"levelo_inurba_marseille","lat":43.27801,"lon":5.4071,"is_reserved":false,"is_disabled":false,"rental_uris":{"android":"levelo://app?vid=c527f466-a0c4-4ca7-b0e1-fcf809093349","ios":"levelo://app?vid=c527f466-a0c4-4ca7-b0e1-fcf809093349"},"vehicle_type_id":"4","last_reported":1749589803,"current_range_meters":17600,"station_id":"ce4bhnh2rcd13ifvqgtg","pricing_plan_id":"cebpf4jnsgd1na2vs0mg"},{"bike_id":"03ff7327-9d80-465b-bc3e-d109526df4c5","system_id":"levelo_inurba_marseille","lat":43.26215,"lon":5.40481,"is_reserved":false,"is_disabled":false,"rental_uris":{"android":"levelo://app?vid=03ff7327-9d80-465b-bc3e-d109526df4c5","ios":"levelo://app?vid=03ff7327-9d80-465b-bc3e-d109526df4c5"},"vehicle_type_id":"4","last_reported":1749589803,"current_range_meters":17600,"station_id":"ce4bhmh2rcd13ifvqgmg","pricing_plan_id":"cebpf4jnsgd1na2vs0mg"},{"bike_id":"a0f8853e-e61e-427d-9e86-ba537c4ef61f","system_id":"levelo_inurba_marseille","lat":43.296008,"lon":5.38097,"is_reserved":false,"is_disabled":false,"rental_uris":{"android":"levelo://app?vid=a0f8853e-e61e-427d-9e86-ba537c4ef61f","ios":"levelo://app?vid=a0f8853e-e61e-427d-9e86-ba537c4ef61f"},"vehicle_type_id":"4","last_reported":1749589803,"current_range_meters":17600,"station_id":"ce4bgl12rcd13ifvqbo0","pricing_plan_id":"cebpf4jnsgd1na2vs0mg"},{"bike_id":"cb976465-c3a7-4f11-9c5d-9e186e35f0c2","system_id":"levelo_inurba_marseille","lat":43.30534,"lon":5.38425,"is_reserved":false,"is_disabled":false,"rental_uris":{"android":"levelo://app?vid=cb976465-c3a7-4f11-9c5d-9e186e35f0c2","ios":"levelo://app?vid=cb976465-c3a7-4f11-9c5d-9e186e35f0c2"},"vehicle_type_id":"4","last_reported":1749589803,"current_range_meters":17600,"station_id":"ce4bgg92rcd13ifvqb30","pricing_plan_id":"cebpf4jnsgd1na2vs0mg"},{"bike_id":"5a1d050c-2159-4454-9a9b-40cab73aa2fb","system_id":"levelo_inurba_marseille","lat":43.32332,"lon":5.40608,"is_reserved":false,"is_disabled":false,"rental_uris":{"android":"levelo://app?vid=5a1d050c-2159-4454-9a9b-40cab73aa2fb","ios":"levelo://app?vid=5a1d050c-2159-4454-9a9b-40cab73aa2fb"},"vehicle_type_id":"4","last_reported":1749589803,"current_range_meters":17600,"station_id":"ce4bhq92rcd13ifvqhjg","pricing_plan_id":"cebpf4jnsgd1na2vs0mg"},{"bike_id":"2f377509-e360-4a8a-9635-3dd05c67749e","system_id":"levelo_inurba_marseille","lat":43.29271,"lon":5.38447,"is_reserved":false,"is_disabled":false,"rental_uris":{"android":"levelo://app?vid=2f377509-e360-4a8a-9635-3dd05c67749e","ios":"levelo://app?vid=2f377509-e360-4a8a-9635-3dd05c67749e"},"vehicle_type_id":"4","last_reported":1749589803,"current_range_meters":17600,"station_id":"ce4bh692rcd13ifvqea0","pricing_plan_id":"cebpf4jnsgd1na2vs0mg"},{"bike_id":"91252cb4-db98-4cff-ba49-0337a6eacf8f","system_id":"levelo_inurba_marseille","lat":43.31985,"lon":5.38772,"is_reserved":false,"is_disabled":false,"rental_uris":{"android":"levelo://app?vid=91252cb4-db98-4cff-ba49-0337a6eacf8f","ios":"levelo://app?vid=91252cb4-db98-4cff-ba49-0337a6eacf8f"},"vehicle_type_id":"4","last_reported":1749589803,"current_range_meters":17600,"station_id":"","pricing_plan_id":"cebpf4jnsgd1na2vs0mg"},{"bike_id":"21b74d79-eaa4-4d5b-be69-19fc8a8e1db3","system_id":"levelo_inurba_marseille","lat":43.277203,"lon":5.388259,"is_reserved":false,"is_disabled":false,"rental_uris":{"android":"levelo://app?vid=21b74d79-eaa4-4d5b-be69-19fc8a8e1db3","ios":"levelo://app?vid=21b74d79-eaa4-4d5b-be69-19fc8a8e1db3"},"vehicle_type_id":"4","last_reported":1749589803,"current_range_meters":17600,"station_id":"ce4bhi12rcd13ifvqfo0","pricing_plan_id":"cebpf4jnsgd1na2vs0mg"},{"bike_id":"a2421370-e442-436f-a98a-844d44299694","system_id":"levelo_inurba_marseille","lat":43.32359,"lon":5.36764,"is_reserved":false,"is_disabled":false,"rental_uris":{"android":"levelo://app?vid=a2421370-e442-436f-a98a-844d44299694","ios":"levelo://app?vid=a2421370-e442-436f-a98a-844d44299694"},"vehicle_type_id":"4","last_reported":1749589803,"current_range_meters":18000,"station_id":"ce4bhsh2rcd13ifvqi2g","pricing_plan_id":"cebpf4jnsgd1na2vs0mg"},{"bike_id":"6eb17bcb-5317-49c9-8c51-511153a87057","system_id":"levelo_inurba_marseille","lat":43.29274,"lon":5.40129,"is_reserved":false,"is_disabled":false,"rental_uris":{"android":"levelo://app?vid=6eb17bcb-5317-49c9-8c51-511153a87057","ios":"levelo://app?vid=6eb17bcb-5317-49c9-8c51-511153a87057"},"vehicle_type_id":"4","last_reported":1749589803,"current_range_meters":18000,"station_id":"ce4bh312rcd13ifvqdk0","pricing_plan_id":"cebpf4jnsgd1na2vs0mg"},{"bike_id":"7819eaaa-3f58-4c23-a5d9-18bda87e0b16","system_id":"levelo_inurba_marseille","lat":43.31365,"lon":5.38262,"is_reserved":false,"is_disabled":false,"rental_uris":{"android":"levelo://app?vid=7819eaaa-3f58-4c23-a5d9-18bda87e0b16","ios":"levelo://app?vid=7819eaaa-3f58-4c23-a5d9-18bda87e0b16"},"vehicle_type_id":"4","last_reported":1749589803,"current_range_meters":18000,"station_id":"","pricing_plan_id":"cebpf4jnsgd1na2vs0mg"},{"bike_id":"c6d21e26-26b7-4a15-9f95-3af0bce0ea14","system_id":"levelo_inurba_marseille","lat":43.24165,"lon":5.36403,"is_reserved":false,"is_disabled":false,"rental_uris":{"android":"levelo://app?vid=c6d21e26-26b7-4a15-9f95-3af0bce0ea14","ios":"levelo://app?vid=c6d21e26-26b7-4a15-9f95-3af0bce0ea14"},"vehicle_type_id":"4","last_reported":1749589803,"current_range_meters":18000,"station_id":"cpo36qri1sfpv3e86is0","pricing_plan_id":"cebpf4jnsgd1na2vs0mg"},{"bike_id":"7d128ea0-6087-451c-abb7-f1937275794f","system_id":"levelo_inurba_marseille","lat":43.26496,"lon":5.39532,"is_reserved":false,"is_disabled":false,"rental_uris":{"android":"levelo://app?vid=7d128ea0-6087-451c-abb7-f1937275794f","ios":"levelo://app?vid=7d128ea0-6087-451c-abb7-f1937275794f"},"vehicle_type_id":"4","last_reported":1749589803,"current_range_meters":18000,"station_id":"ce4bhi12rcd13ifvqfq0","pricing_plan_id":"cebpf4jnsgd1na2vs0mg"},{"bike_id":"f10adc7e-6a3a-4a5d-9515-dc52fefe2058","system_id":"levelo_inurba_marseille","lat":43.32361,"lon":5.36766,"is_reserved":false,"is_disabled":false,"rental_uris":{"android":"levelo://app?vid=f10adc7e-6a3a-4a5d-9515-dc52fefe2058","ios":"levelo://app?vid=f10adc7e-6a3a-4a5d-9515-dc52fefe2058"},"vehicle_type_id":"4","last_reported":1749589803,"current_range_meters":18000,"station_id":"ce4bhsh2rcd13ifvqi2g","pricing_plan_id":"cebpf4jnsgd1na2vs0mg"},{"bike_id":"227f6364-f09e-47cd-a61c-9e56306f430f","system_id":"levelo_inurba_marseille","lat":43.28932,"lon":5.36642,"is_reserved":false,"is_disabled":false,"rental_uris":{"android":"levelo://app?vid=227f6364-f09e-47cd-a61c-9e56306f430f","ios":"levelo://app?vid=227f6364-f09e-47cd-a61c-9e56306f430f"},"vehicle_type_id":"4","last_reported":1749589803,"current_range_meters":18000,"station_id":"ce4bhap2rcd13ifvqek0","pricing_plan_id":"cebpf4jnsgd1na2vs0mg"},{"bike_id":"89df9e12-60f6-4a9e-a1f4-f158f81288fc","system_id":"levelo_inurba_marseille","lat":43.31721,"lon":5.42384,"is_reserved":false,"is_disabled":false,"rental_uris":{"android":"levelo://app?vid=89df9e12-60f6-4a9e-a1f4-f158f81288fc","ios":"levelo://app?vid=89df9e12-60f6-4a9e-a1f4-f158f81288fc"},"vehicle_type_id":"4","last_reported":1749589803,"current_range_meters":17600,"station_id":"ce4bhp92rcd13ifvqhbg","pricing_plan_id":"cebpf4jnsgd1na2vs0mg"},{"bike_id":"a172b0cf-62c4-4c52-a818-ce564350df02","system_id":"levelo_inurba_marseille","lat":43.211946,"lon":5.350724,"is_reserved":false,"is_disabled":false,"rental_uris":{"android":"levelo://app?vid=a172b0cf-62c4-4c52-a818-ce564350df02","ios":"levelo://app?vid=a172b0cf-62c4-4c52-a818-ce564350df02"},"vehicle_type_id":"4","last_reported":1749589803,"current_range_meters":18000,"station_id":"st_cvj6sg6p6f1abm77japg","pricing_plan_id":"cebpf4jnsgd1na2vs0mg"},{"bike_id":"65066ef9-1c39-47d6-b104-be1d784d3bad","system_id":"levelo_inurba_marseille","lat":43.26247,"lon":5.40436,"is_reserved":false,"is_disabled":false,"rental_uris":{"android":"levelo://app?vid=65066ef9-1c39-47d6-b104-be1d784d3bad","ios":"levelo://app?vid=65066ef9-1c39-47d6-b104-be1d784d3bad"},"vehicle_type_id":"4","last_reported":1749589803,"current_range_meters":18800,"station_id":"ce4bhmh2rcd13ifvqgmg","pricing_plan_id":"cebpf4jnsgd1na2vs0mg"},{"bike_id":"cf31a56d-c3cf-4a18-84a2-3db492cc4534","system_id":"levelo_inurba_marseille","lat":43.313234,"lon":5.396863,"is_reserved":false,"is_disabled":false,"rental_uris":{"android":"levelo://app?vid=cf31a56d-c3cf-4a18-84a2-3db492cc4534","ios":"levelo://app?vid=cf31a56d-c3cf-4a18-84a2-3db492cc4534"},"vehicle_type_id":"4","last_reported":1749589803,"current_range_meters":18800,"station_id":"ce4bgvp2rcd13ifvqcu0","pricing_plan_id":"cebpf4jnsgd1na2vs0mg"},{"bike_id":"d78b40c7-e032-4da9-99fc-9d345b78b8c4","system_id":"levelo_inurba_marseille","lat":43.28728,"lon":5.3608,"is_reserved":false,"is_disabled":false,"rental_uris":{"android":"levelo://app?vid=d78b40c7-e032-4da9-99fc-9d345b78b8c4","ios":"levelo://app?vid=d78b40c7-e032-4da9-99fc-9d345b78b8c4"},"vehicle_type_id":"4","last_reported":1749589803,"current_range_meters":18800,"station_id":"cki0cbj6b192h4jlfktg","pricing_plan_id":"cebpf4jnsgd1na2vs0mg"},{"bike_id":"812e4842-d011-45eb-9f3e-65d6a7b1e1f0","system_id":"levelo_inurba_marseille","lat":43.30926,"lon":5.40118,"is_reserved":false,"is_disabled":false,"rental_uris":{"android":"levelo://app?vid=812e4842-d011-45eb-9f3e-65d6a7b1e1f0","ios":"levelo://app?vid=812e4842-d011-45eb-9f3e-65d6a7b1e1f0"},"vehicle_type_id":"4","last_reported":1749589803,"current_range_meters":18800,"station_id":"ce4bgvp2rcd13ifvqct0","pricing_plan_id":"cebpf4jnsgd1na2vs0mg"},{"bike_id":"8d958922-edf3-4249-8b77-278a145ee8d6","system_id":"levelo_inurba_marseille","lat":43.32276,"lon":5.38271,"is_reserved":false,"is_disabled":false,"rental_uris":{"android":"levelo://app?vid=8d958922-edf3-4249-8b77-278a145ee8d6","ios":"levelo://app?vid=8d958922-edf3-4249-8b77-278a145ee8d6"},"vehicle_type_id":"4","last_reported":1749589803,"current_range_meters":18800,"station_id":"ce4bhr12rcd13ifvqhqg","pricing_plan_id":"cebpf4jnsgd1na2vs0mg"},{"bike_id":"e52167b8-b978-4996-b457-39e378d310f5","system_id":"levelo_inurba_marseille","lat":43.30439,"lon":5.38892,"is_reserved":false,"is_disabled":false,"rental_uris":{"android":"levelo://app?vid=e52167b8-b978-4996-b457-39e378d310f5","ios":"levelo://app?vid=e52167b8-b978-4996-b457-39e378d310f5"},"vehicle_type_id":"4","last_reported":1749589803,"current_range_meters":18800,"station_id":"ce4bgk12rcd13ifvqbi0","pricing_plan_id":"cebpf4jnsgd1na2vs0mg"},{"bike_id":"ba74330e-e7e1-47b7-aac8-f61ede63b89c","system_id":"levelo_inurba_marseille","lat":43.28149,"lon":5.4263,"is_reserved":false,"is_disabled":false,"rental_uris":{"android":"levelo://app?vid=ba74330e-e7e1-47b7-aac8-f61ede63b89c","ios":"levelo://app?vid=ba74330e-e7e1-47b7-aac8-f61ede63b89c"},"vehicle_type_id":"4","last_reported":1749589803,"current_range_meters":18800,"station_id":"ce4bhnh2rcd13ifvqgug","pricing_plan_id":"cebpf4jnsgd1na2vs0mg"},{"bike_id":"19f544dc-745d-4a6c-91a1-97c927dca4b4","system_id":"levelo_inurba_marseille","lat":43.28475,"lon":5.38399,"is_reserved":false,"is_disabled":false,"rental_uris":{"android":"levelo://app?vid=19f544dc-745d-4a6c-91a1-97c927dca4b4","ios":"levelo://app?vid=19f544dc-745d-4a6c-91a1-97c927dca4b4"},"vehicle_type_id":"4","last_reported":1749589803,"current_range_meters":18800,"station_id":"ce4bh512rcd13ifvqe3g","pricing_plan_id":"cebpf4jnsgd1na2vs0mg"},{"bike_id":"757cced2-69fc-4019-81bc-6eaad8e07fd7","system_id":"levelo_inurba_marseille","lat":43.23178,"lon":5.39991,"is_reserved":false,"is_disabled":false,"rental_uris":{"android":"levelo://app?vid=757cced2-69fc-4019-81bc-6eaad8e07fd7","ios":"levelo://app?vid=757cced2-69fc-4019-81bc-6eaad8e07fd7"},"vehicle_type_id":"4","last_reported":1749589803,"current_range_meters":16800,"station_id":"ce4bhn12rcd13ifvqgqg","pricing_plan_id":"cebpf4jnsgd1na2vs0mg"},{"bike_id":"bbb433f3-edfe-4d8c-a4c0-7841b89daf55","system_id":"levelo_inurba_marseille","lat":43.27673,"lon":5.38862,"is_reserved":false,"is_disabled":false,"rental_uris":{"android":"levelo://app?vid=bbb433f3-edfe-4d8c-a4c0-7841b89daf55","ios":"levelo://app?vid=bbb433f3-edfe-4d8c-a4c0-7841b89daf55"},"vehicle_type_id":"4","last_reported":1749589803,"current_range_meters":19200,"station_id":"ce4bhi12rcd13ifvqfo0","pricing_plan_id":"cebpf4jnsgd1na2vs0mg"},{"bike_id":"645e0d47-935a-4360-99e6-6ef38dd101d1","system_id":"levelo_inurba_marseille","lat":43.28071,"lon":5.3965,"is_reserved":false,"is_disabled":false,"rental_uris":{"android":"levelo://app?vid=645e0d47-935a-4360-99e6-6ef38dd101d1","ios":"levelo://app?vid=645e0d47-935a-4360-99e6-6ef38dd101d1"},"vehicle_type_id":"4","last_reported":1749589803,"current_range_meters":19200,"station_id":"ce4bho12rcd13ifvqh2g","pricing_plan_id":"cebpf4jnsgd1na2vs0mg"},