{"last_updated":1709409984,"ttl":30,"version":"2.2","data":{"bikes":[{"bike_id":"f61185b5-31b2-4c16-90cd-aa5d42b96eff","system_id":"levelo_inurba_marseille","lat":43.313391,"lon":5.36706,"is_reserved":false,"is_disabled":false,"rental_uris":{"android":"levelo://app?vid=f61185b5-31b2-4c16-90cd-aa5d42b96eff","ios":"levelo://app?vid=f61185b5-31b2-4c16-90cd-aa5d42b96eff"},"vehicle_type_id":"4","last_reported":1709409984,"current_range_meters":24800,"station_id":"ce4bgr92rcd13ifvqc6g","pricing_plan_id":"cebpf4jnsgd1na2vs0mg"},{"bike_id":"512be827-43a1-42da-b243-4a54ad20340a","system_id":"levelo_inurba_marseille","lat":43.31341,"lon":5.367098,"is_reserved":false,"is_disabled":false,"rental_uris":{"android":"levelo://app?vid=512be827-43a1-42da-b243-4a54ad20340a","ios":"levelo://app?vid=512be827-43a1-42da-b243-4a54ad20340a"},"vehicle_type_id":"4","last_reported":1709409984,"current_range_meters":28400,"station_id":"ce4bgr92rcd13ifvqc6g","pricing_plan_id":"cebpf4jnsgd1na2vs0mg"},{"bike_id":"dddedcdc-e92d-48ab-8c53-bc49c0d41899","system_id":"levelo_inurba_marseille","lat":43.312239,"lon":5.368562,"is_reserved":false,"is_disabled":false,"rental_uris":{"android":"levelo://app?vid=dddedcdc-e92d-48ab-8c53-bc49c0d41899","ios":"levelo://app?vid=dddedcdc-e92d-48ab-8c53-bc49c0d41899"},"vehicle_type_id":"4","last_reported":1709409984,"current_range_meters":12000,"station_id":"ce4bgl92rcd13ifvqbq0","pricing_plan_id":"cebpf4jnsgd1na2vs0mg"},{"bike_id":"ebde1ffa-23c5-4e28-9457-0814fbe841f5","system_id":"levelo_inurba_marseille","lat":43.312239,"lon":5.368562,"is_reserved":false,"is_disabled":false,"rental_uris":{"android":"levelo://app?vid=ebde1ffa-23c5-4e28-9457-0814fbe841f5","ios":"levelo://app?vid=ebde1ffa-23c5-4e28-9457-0814fbe841f5"},"vehicle_type_id":"4","last_reported":1709409984,"current_range_meters":13600,"station_id":"ce4bgl92rcd13ifvqbq0","pricing_plan_id":"cebpf4jnsgd1na2vs0mg"},{"bike_id":"56745277-4546-408e-91cf-552eed4530ed","system_id":"levelo_inurba_marseille","lat":43.312239,"lon":5.368562,"is_reserved":false,"is_disabled":false,"rental_uris":{"android":"levelo://app?vid=56745277-4546-408e-91cf-552eed4530ed","ios":"levelo://app?vid=56745277-4546-408e-91cf-552eed4530ed"},"vehicle_type_id":"4","last_reported":1709409984,"current_range_meters":5200,"station_id":"ce4bgl92rcd13ifvqbq0","pricing_plan_id":"cebpf4jnsgd1na2vs0mg"},{"bike_id":"d23146f3-398a-49ec-98a8-d90acf3564fb","system_id":"levelo_inurba_marseille","lat":43.312239,"lon":5.368562,"is_reserved":false,"is_disabled":false,"rental_uris":{"android":"levelo://app?vid=d23146f3-398a-49ec-98a8-d90acf3564fb","ios":"levelo://app?vid=d23146f3-398a-49ec-98a8-d90acf3564fb"},"vehicle_type_id":"4","last_reported":1709409984,"current_range_meters":18400,"station_id":"ce4bgl92rcd13ifvqbq0","pricing_plan_id":"cebpf4jnsgd1na2vs0mg"},{"bike_id":"10694047-1159-447b-a00c-43c8f753319b","system_id":"levelo_inurba_marseille","lat":43.31219,"lon":5.36862,"is_reserved":false,"is_disabled":false,"rental_uris":{"android":"levelo://app?vid=10694047-1159-447b-a00c-43c8f753319b","ios":"levelo://app?vid=10694047-1159-447b-a00c-43c8f753319b"},"vehicle_type_id":"4","last_reported":1709409984,"current_range_meters":5600,"station_id":"ce4bgl92rcd13ifvqbq0","pricing_plan_id":"cebpf4jnsgd1na2vs0mg"},{"bike_id":"61756035-c90e-4c0c-8aff-2256e94bf389","system_id":"levelo_inurba_marseille","lat":43.309076,"lon":5.368465,"is_reserved":false,"is_disabled":false,"rental_uris":{"android":"levelo://app?vid=61756035-c90e-4c0c-8aff-2256e94bf389","ios":"levelo://app?vid=61756035-c90e-4c0c-8aff-2256e94bf389"},"vehicle_type_id":"4","last_reported":1709409984,"current_range_meters":30800,"station_id":"ce4bgn92rcd13ifvqbvg","pricing_plan_id":"cebpf4jnsgd1na2vs0mg"},{"bike_id":"c2793912-c730-4d02-9782-13383f983afa","system_id":"levelo_inurba_marseille","lat":43.309076,"lon":5.368465,"is_reserved":false,"is_disabled":false,"rental_uris":{"android":"levelo://app?vid=c2793912-c730-4d02-9782-13383f983afa","ios":"levelo://app?vid=c2793912-c730-4d02-9782-13383f983afa"},"vehicle_type_id":"4","last_reported":1709409984,"current_range_meters":2400,"station_id":"ce4bgn92rcd13ifvqbvg","pricing_plan_id":"cebpf4jnsgd1na2vs0mg"},{"bike_id":"dca6e541-2b2f-41b4-9512-001b4432d113","system_id":"levelo_inurba_marseille","lat":43.309076,"lon":5.368465,"is_reserved":false,"is_disabled":false,"rental_uris":{"android":"levelo://app?vid=dca6e541-2b2f-41b4-9512-001b4432d113","ios":"levelo://app?vid=dca6e541-2b2f-41b4-9512-001b4432d113"},"vehicle_type_id":"4","last_reported":1709409984,"current_range_meters":24000,"station_id":"ce4bgn92rcd13ifvqbvg","pricing_plan_id":"cebpf4jnsgd1na2vs0mg"},{"bike_id":"5f6f64fe-861e-444b-bb72-6e55194b6d7f","system_id":"levelo_inurba_marseille","lat":43.309076,"lon":5.368465,"is_reserved":false,"is_disabled":false,"rental_uris":{"android":"levelo://app?vid=5f6f64fe-861e-444b-bb72-6e55194b6d7f","ios":"levelo://app?vid=5f6f64fe-861e-444b-bb72-6e55194b6d7f"},"vehicle_type_id":"4","last_reported":1709409984,"current_range_meters":6000,"station_id":"ce4bgn92rcd13ifvqbvg","pricing_plan_id":"cebpf4jnsgd1na2vs0mg"},{"bike_id":"fd0a2021-e95a-4caf-a0bc-1a5280a6f939","system_id":"levelo_inurba_marseille","lat":43.309076,"lon":5.368465,"is_reserved":false,"is_disabled":false,"rental_uris":{"android":"levelo://app?vid=fd0a2021-e95a-4caf-a0bc-1a5280a6f939","ios":"levelo://app?vid=fd0a2021-e95a-4caf-a0bc-1a5280a6f939"},"vehicle_type_id":"4","last_reported":1709409984,"current_range_meters":26400,"station_id":"ce4bgn92rcd13ifvqbvg","pricing_plan_id":"cebpf4jnsgd1na2vs0mg"},{"bike_id":"73bfe188-ed27-4dfa-b8de-bb0ad01d3f7c","system_id":"levelo_inurba_marseille","lat":43.314811,"lon":5.373104,"is_reserved":false,"is_disabled":false,"rental_uris":{"android":"levelo://app?vid=73bfe188-ed27-4dfa-b8de-bb0ad01d3f7c","ios":"levelo://app?vid=73bfe188-ed27-4dfa-b8de-bb0ad01d3f7c"},"vehicle_type_id":"4","last_reported":1709409984,"current_range_meters":8400,"station_id":"ce4bgt12rcd13ifvqcd0","pricing_plan_id":"cebpf4jnsgd1na2vs0mg"},{"bike_id":"e8445f2c-1be6-4c41-b8e8-f3929b9646d2","system_id":"levelo_inurba_marseille","lat":43.314811,"lon":5.373104,"is_reserved":false,"is_disabled":false,"rental_uris":{"android":"levelo://app?vid=e8445f2c-1be6-4c41-b8e8-f3929b9646d2","ios":"levelo://app?vid=e8445f2c-1be6-4c41-b8e8-f3929b9646d2"},"vehicle_type_id":"4","last_reported":1709409984,"current_range_meters":17600,"station_id":"ce4bgt12rcd13ifvqcd0","pricing_plan_id":"cebpf4jnsgd1na2vs0mg"},{"bike_id":"b87916bb-990a-4a3f-b265-24a7541d8c63","system_id":"levelo_inurba_marseille","lat":43.314811,"lon":5.373104,"is_reserved":false,"is_disabled":false,"rental_uris":{"android":"levelo://app?vid=b87916bb-990a-4a3f-b265-24a7541d8c63","ios":"levelo://app?vid=b87916bb-990a-4a3f-b265-24a7541d8c63"},"vehicle_type_id":"4","last_reported":1709409984,"current_range_meters":19200,"station_id":"ce4bgt12rcd13ifvqcd0","pricing_plan_id":"cebpf4jnsgd1na2vs0mg"},{"bike_id":"ae5560f0-3cda-4cb0-bc96-e80114c0acc5","system_id":"levelo_inurba_marseille","lat":43.309039,"lon":5.371797,"is_reserved":false,"is_disabled":false,"rental_uris":{"android":"levelo://app?vid=ae5560f0-3cda-4cb0-bc96-e80114c0acc5","ios":"levelo://app?vid=ae5560f0-3cda-4cb0-bc96-e80114c0acc5"},"vehicle_type_id":"4","last_reported":1709409984,"current_range_meters":31600,"station_id":"ce4bguh2rcd13ifvqckg","pricing_plan_id":"cebpf4jnsgd1na2vs0mg"},{"bike_id":"2162fd8b-015e-483f-bfce-9647250ca8c9","system_id":"levelo_inurba_marseille","lat":43.309039,"lon":5.371797,"is_reserved":false,"is_disabled":false,"rental_uris":{"android":"levelo://app?vid=2162fd8b-015e-483f-bfce-9647250ca8c9","ios":"levelo://app?vid=2162fd8b-015e-483f-bfce-9647250ca8c9"},"vehicle_type_id":"4","last_reported":1709409984,"current_range_meters":6000,"station_id":"ce4bguh2rcd13ifvqckg","pricing_plan_id":"cebpf4jnsgd1na2vs0mg"},{"bike_id":"8015f1c4-26b4-45d5-bf1d-fb89628d72df","system_id":"levelo_inurba_marseille","lat":43.309039,"lon":5.371797,"is_reserved":false,"is_disabled":false,"rental_uris":{"android":"levelo://app?vid=8015f1c4-26b4-45d5-bf1d-fb89628d72df","ios":"levelo://app?vid=8015f1c4-26b4-45d5-bf1d-fb89628d72df"},"vehicle_type_id":"4","last_reported":1709409984,"current_range_meters":16000,"station_id":"ce4bguh2rcd13ifvqckg","pricing_plan_id":"cebpf4jnsgd1na2vs0mg"},{"bike_id":"1d1f2d3a-2df9-4f82-aaeb-4a10c24140ca","system_id":"levelo_inurba_marseille","lat":43.309034,"lon":5.371783,"is_reserved":false,"is_disabled":false,"rental_uris":{"android":"levelo://app?vid=1d1f2d3a-2df9-4f82-aaeb-4a10c24140ca","ios":"levelo://app?vid=1d1f2d3a-2df9-4f82-aaeb-4a10c24140ca"},"vehicle_type_id":"4","last_reported":1709409984,"current_range_meters":25600,"station_id":"ce4bguh2rcd13ifvqckg","pricing_plan_id":"cebpf4jnsgd1na2vs0mg"},{"bike_id":"cc2408f9-f2f7-4030-b6e5-7e6e2bdfc217","system_id":"levelo_inurba_marseille","lat":43.309034,"lon":5.371783,"is_reserved":false,"is_disabled":false,"rental_uris":{"android":"levelo://app?vid=cc2408f9-f2f7-4030-b6e5-7e6e2bdfc217","ios":"levelo://app?vid=cc2408f9-f2f7-4030-b6e5-7e6e2bdfc217"},"vehicle_type_id":"4","last_reported":1709409984,"current_range_meters":28000,"station_id":"ce4bguh2rcd13ifvqckg","pricing_plan_id":"cebpf4jnsgd1na2vs0mg"},{"bike_id":"cfdb1dca-90dd-46dd-bd85-6b7c263d7f58","system_id":"levelo_inurba_marseille","lat":43.309034,"lon":5.371783,"is_reserved":false,"is_disabled":false,"rental_uris":{"android":"levelo://app?vid=cfdb1dca-90dd-46dd-bd85-6b7c263d7f58","ios":"levelo://app?vid=cfdb1dca-90dd-46dd-bd85-6b7c263d7f58"},"vehicle_type_id":"4","last_reported":1709409984,"current_range_meters":11600,"station_id":"ce4bguh2rcd13ifvqckg","pricing_plan_id":"cebpf4jnsgd1na2vs0mg"},{"bike_id":"6bad17e2-1bd5-4981-89f5-721f6914d92c","system_id":"levelo_inurba_marseille","lat":43.305706,"lon":5.365654,"is_reserved":false,"is_disabled":false,"rental_uris":{"android":"levelo://app?vid=6bad17e2-1bd5-4981-89f5-721f6914d92c","ios":"levelo://app?vid=6bad17e2-1bd5-4981-89f5-721f6914d92c"},"vehicle_type_id":"4","last_reported":1709409984,"current_range_meters":21600,"station_id":"ce4bgs12rcd13ifvqcag","pricing_plan_id":"cebpf4jnsgd1na2vs0mg"},{"bike_id":"fa5f12d4-68fc-441c-b7fb-591e5ac36026","system_id":"levelo_inurba_marseille","lat":43.305989,"lon":5.37225,"is_reserved":false,"is_disabled":false,"rental_uris":{"android":"levelo://app?vid=fa5f12d4-68fc-441c-b7fb-591e5ac36026","ios":"levelo://app?vid=fa5f12d4-68fc-441c-b7fb-591e5ac36026"},"vehicle_type_id":"4","last_reported":1709409984,"current_range_meters":19200,"station_id":"ce4bgqh2rcd13ifvqc4g","pricing_plan_id":"cebpf4jnsgd1na2vs0mg"},{"bike_id":"0e72e842-711a-4bbf-b718-2fc80bc3ee5b","system_id":"levelo_inurba_marseille","lat":43.305989,"lon":5.37225,"is_reserved":false,"is_disabled":false,"rental_uris":{"android":"levelo://app?vid=0e72e842-711a-4bbf-b718-2fc80bc3ee5b","ios":"levelo://app?vid=0e72e842-711a-4bbf-b718-2fc80bc3ee5b"},"vehicle_type_id":"4","last_reported":1709409984,"current_range_meters":29200,"station_id":"ce4bgqh2rcd13ifvqc4g","pricing_plan_id":"cebpf4jnsgd1na2vs0mg"},{"bike_id":"8c61b9ce-ede5-4057-b985-0eac92ac40b4","system_id":"levelo_inurba_marseille","lat":43.305989,"lon":5.37225,"is_reserved":false,"is_disabled":false,"rental_uris":{"android":"levelo://app?vid=8c61b9ce-ede5-4057-b985-0eac92ac40b4","ios":"levelo://app?vid=8c61b9ce-ede5-4057-b985-0eac92ac40b4"},"vehicle_type_id":"4","last_reported":1709409984,"current_range_meters":29600,"station_id":"ce4bgqh2rcd13ifvqc4g","pricing_plan_id":"cebpf4jnsgd1na2vs0mg"},{"bike_id":"0e42e62f-c0d5-443d-a020-88b72642d0e8","system_id":"levelo_inurba_marseille","lat":43.305989,"lon":5.37225,"is_reserved":false,"is_disabled":false,"rental_uris":{"android":"levelo://app?vid=0e42e62f-c0d5-443d-a020-88b72642d0e8","ios":"levelo://app?vid=0e42e62f-c0d5-443d-a020-88b72642d0e8"},"vehicle_type_id":"4","last_reported":1709409984,"current_range_meters":1600,"station_id":"ce4bgqh2rcd13ifvqc4g","pricing_plan_id":"cebpf4jnsgd1na2vs0mg"},{"bike_id":"78d80200-0b83-4b8f-afa0-af99b989da5a","system_id":"levelo_inurba_marseille","lat":43.305989,"lon":5.37225,"is_reserved":false,"is_disabled":false,"rental_uris":{"android":"levelo://app?vid=78d80200-0b83-4b8f-afa0-af99b989da5a","ios":"levelo://app?vid=78d80200-0b83-4b8f-afa0-af99b989da5a"},"vehicle_type_id":"4","last_reported":1709409984,"current_range_meters":9600,"station_id":"ce4bgqh2rcd13ifvqc4g","pricing_plan_id":"cebpf4jnsgd1na2vs0mg"},{"bike_id":"c871730b-ddb1-4c8a-a3cb-eb209da77bf4","system_id":"levelo_inurba_marseille","lat":43.305989,"lon":5.37225,"is_reserved":false,"is_disabled":false,"rental_uris":{"android":"levelo://app?vid=c871730b-ddb1-4c8a-a3cb-eb209da77bf4","ios":"levelo://app?vid=c871730b-ddb1-4c8a-a3cb-eb209da77bf4"},"vehicle_type_id":"4","last_reported":1709409984,"current_range_meters":31200,"station_id":"ce4bgqh2rcd13ifvqc4g","pricing_plan_id":"cebpf4jnsgd1na2vs0mg"},{"bike_id":"1ab0c8b9-1d4e-4e78-9ffa-6b24cc715bc5","system_id":"levelo_inurba_marseille","lat":43.305989,"lon":5.37225,"is_reserved":false,"is_disabled":false,"rental_uris":{"android":"levelo://app?vid=1ab0c8b9-1d4e-4e78-9ffa-6b24cc715bc5","ios":"levelo://app?vid=1ab0c8b9-1d4e-4e78-9ffa-6b24cc715bc5"},"vehicle_type_id":"4","last_reported":1709409984,"current_range_meters":31200,"station_id":"ce4bgqh2rcd13ifvqc4g","pricing_plan_id":"cebpf4jnsgd1na2vs0mg"},{"bike_id":"7f868253-4e17-468b-af4e-f6f4c76b8f40","system_id":"levelo_inurba_marseille","lat":43.305989,"lon":5.37225,"is_reserved":false,"is_disabled":false,"rental_uris":{"android":"levelo://app?vid=7f868253-4e17-468b-af4e-f6f4c76b8f40","ios":"levelo://app?vid=7f868253-4e17-468b-af4e-f6f4c76b8f40"},"vehicle_type_id":"4","last_reported":1709409984,"current_range_meters":31200,"station_id":"ce4bgqh2rcd13ifvqc4g","pricing_plan_id":"cebpf4jnsgd1na2vs0mg"},{"bike_id":"e7cca2cd-e3a8-49b2-9af7-51c026b801bb","system_id":"levelo_inurba_marseille","lat":43.311125,"lon":5.377624,"is_reserved":false,"is_disabled":false,"rental_uris":{"android":"levelo://app?vid=e7cca2cd-e3a8-49b2-9af7-51c026b801bb","ios":"levelo://app?vid=e7cca2cd-e3a8-49b2-9af7-51c026b801bb"},"vehicle_type_id":"4","last_reported":1709409984,"current_range_meters":20800,"station_id":"ce4bgt92rcd13ifvqcg0","pricing_plan_id":"cebpf4jnsgd1na2vs0mg"},{"bike_id":"6627ab26-cf72-43c3-a411-fcf5a6687884","system_id":"levelo_inurba_marseille","lat":43.311125,"lon":5.377624,"is_reserved":false,"is_disabled":false,"rental_uris":{"android":"levelo://app?vid=6627ab26-cf72-43c3-a411-fcf5a6687884","ios":"levelo://app?vid=6627ab26-cf72-43c3-a411-fcf5a6687884"},"vehicle_type_id":"4","last_reported":1709409984,"current_range_meters":18800,"station_id":"ce4bgt92rcd13ifvqcg0","pricing_plan_id":"cebpf4jnsgd1na2vs0mg"},{"bike_id":"7f9a2c37-88c7-4081-99d5-b579b34cae1e","system_id":"levelo_inurba_marseille","lat":43.307945,"lon":5.376487,"is_reserved":false,"is_disabled":false,"rental_uris":{"android":"levelo://app?vid=7f9a2c37-88c7-4081-99d5-b579b34cae1e","ios":"levelo://app?vid=7f9a2c37-88c7-4081-99d5-b579b34cae1e"},"vehicle_type_id":"4","last_reported":1709409984,"current_range_meters":20000,"station_id":"ce4bgv92rcd13ifvqcq0","pricing_plan_id":"cebpf4jnsgd1na2vs0mg"},{"bike_id":"1c37d425-b6f8-453c-9c9d-13aa68314c72","system_id":"levelo_inurba_marseille","lat":43.307945,"lon":5.376487,"is_reserved":false,"is_disabled":false,"rental_uris":{"android":"levelo://app?vid=1c37d425-b6f8-453c-9c9d-13aa68314c72","ios":"levelo://app?vid=1c37d425-b6f8-453c-9c9d-13aa68314c72"},"vehicle_type_id":"4","last_reported":1709409984,"current_range_meters":25200,"station_id":"ce4bgv92rcd13ifvqcq0","pricing_plan_id":"cebpf4jnsgd1na2vs0mg"},{"bike_id":"fc1cdb28-2b91-41cb-9308-2fd8f58a045e","system_id":"levelo_inurba_marseille","lat":43.307945,"lon":5.376487,"is_reserved":false,"is_disabled":false,"rental_uris":{"android":"levelo://app?vid=fc1cdb28-2b91-41cb-9308-2fd8f58a045e","ios":"levelo://app?vid=fc1cdb28-2b91-41cb-9308-2fd8f58a045e"},"vehicle_type_id":"4","last_reported":1709409984,"current_range_meters":8800,"station_id":"ce4bgv92rcd13ifvqcq0","pricing_plan_id":"cebpf4jnsgd1na2vs0mg"},{"bike_id":"b84d8c2a-d4db-40e1-94f5-156eb78ccd2c","system_id":"levelo_inurba_marseille","lat":43.307945,"lon":5.376487,"is_reserved":false,"is_disabled":false,"rental_uris":{"android":"levelo://app?vid=b84d8c2a-d4db-40e1-94f5-156eb78ccd2c","ios":"levelo://app?vid=b84d8c2a-d4db-40e1-94f5-156eb78ccd2c"},"vehicle_type_id":"4","last_reported":1709409984,"current_range_meters":7600,"station_id":"ce4bgv92rcd13ifvqcq0","pricing_plan_id":"cebpf4jnsgd1na2vs0mg"},{"bike_id":"0cfc5c29-76f5-46e4-bc60-8905c661c63d","system_id":"levelo_inurba_marseille","lat":43.307945,"lon":5.376487,"is_reserved":false,"is_disabled":false,"rental_uris":{"android":"levelo://app?vid=0cfc5c29-76f5-46e4-bc60-8905c661c63d","ios":"levelo://app?vid=0cfc5c29-76f5-46e4-bc60-8905c661c63d"},"vehicle_type_id":"4","last_reported":1709409984,"current_range_meters":31200,"station_id":"ce4bgv92rcd13ifvqcq0","pricing_plan_id":"cebpf4jnsgd1na2vs0mg"},{"bike_id":"5f223145-6d71-43cb-9fad-bd360d027774","system_id":"levelo_inurba_marseille","lat":43.307945,"lon":5.376487,"is_reserved":false,"is_disabled":false,"rental_uris":{"android":"levelo://app?vid=5f223145-6d71-43cb-9fad-bd360d027774","ios":"levelo://app?vid=5f223145-6d71-43cb-9fad-bd360d027774"},"vehicle_type_id":"4","last_reported":1709409984,"current_range_meters":2400,"station_id":"ce4bgv92rcd13ifvqcq0","pricing_plan_id":"cebpf4jnsgd1na2vs0mg"},{"bike_id":"b5b43385-212c-4296-9da1-a9b5b5e80de4","system_id":"levelo_inurba_marseille","lat":43.307945,"lon":5.376487,"is_reserved":false,"is_disabled":false,"rental_uris":{"android":"levelo://app?vid=b5b43385-212c-4296-9da1-a9b5b5e80de4","ios":"levelo://app?vid=b5b43385-212c-4296-9da1-a9b5b5e80de4"},"vehicle_type_id":"4","last_reported":1709409984,"current_range_meters":20400,"station_id":"ce4bgv92rcd13ifvqcq0","pricing_plan_id":"cebpf4jnsgd1na2vs0mg"},{"bike_id":"86f0446a-7095-4db3-b9a0-8a16f40c1078","system_id":"levelo_inurba_marseille","lat":43.307945,"lon":5.376487,"is_reserved":false,"is_disabled":false,"rental_uris":{"android":"levelo://app?vid=86f0446a-7095-4db3-b9a0-8a16f40c1078","ios":"levelo://app?vid=86f0446a-7095-4db3-b9a0-8a16f40c1078"},"vehicle_type_id":"4","last_reported":1709409984,"current_range_meters":25200,"station_id":"ce4bgv92rcd13ifvqcq0","pricing_plan_id":"cebpf4jnsgd1na2vs0mg"},{"bike_id":"72472b5c-633a-4448-9ac4-22b27b9d8504","system_id":"levelo_inurba_marseille","lat":43.317075,"lon":5.377367,"is_reserved":false,"is_disabled":false,"rental_uris":{"android":"levelo://app?vid=72472b5c-633a-4448-9ac4-22b27b9d8504","ios":"levelo://app?vid=72472b5c-633a-4448-9ac4-22b27b9d8504"},"vehicle_type_id":"4","last_reported":1709409984,"current_range_meters":28800,"station_id":"ce4bgth2rcd13ifvqch0","pricing_plan_id":"cebpf4jnsgd1na2vs0mg"},{"bike_id":"400edd89-d21b-4d2f-954a-0688d848c002","system_id":"levelo_inurba_marseille","lat":43.317075,"lon":5.377367,"is_reserved":false,"is_disabled":false,"rental_uris":{"android":"levelo://app?vid=400edd89-d21b-4d2f-954a-0688d848c002","ios":"levelo://app?vid=400edd89-d21b-4d2f-954a-0688d848c002"},"vehicle_type_id":"4","last_reported":1709409984,"current_range_meters":4000,"station_id":"ce4bgth2rcd13ifvqch0","pricing_plan_id":"cebpf4jnsgd1na2vs0mg"},{"bike_id":"66d0b7b8-4958-45c9-b9d8-d98c8f58192c","system_id":"levelo_inurba_marseille","lat":43.317075,"lon":5.377367,"is_reserved":false,"is_disabled":false,"rental_uris":{"android":"levelo://app?vid=66d0b7b8-4958-45c9-b9d8-d98c8f58192c","ios":"levelo://app?vid=66d0b7b8-4958-45c9-b9d8-d98c8f58192c"},"vehicle_type_id":"4","last_reported":1709409984,"current_range_meters":6000,"station_id":"ce4bgth2rcd13ifvqch0","pricing_plan_id":"cebpf4jnsgd1na2vs0mg"},{"bike_id":"df5b645c-258a-4924-ac62-1199d0f61083","system_id":"levelo_inurba_marseille","lat":43.317075,"lon":5.377367,"is_reserved":false,"is_disabled":false,"rental_uris":{"android":"levelo://app?vid=df5b645c-258a-4924-ac62-1199d0f61083","ios":"levelo://app?vid=df5b645c-258a-4924-ac62-1199d0f61083"},"vehicle_type_id":"4","last_reported":1709409984,"current_range_meters":8800,"station_id":"ce4bgth2rcd13ifvqch0","pricing_plan_id":"cebpf4jnsgd1na2vs0mg"},{"bike_id":"abe96b44-6de6-4d2c-a97a-a8efd2ad4d74","system_id":"levelo_inurba_marseille","lat":43.317075,"lon":5.377367,"is_reserved":false,"is_disabled":false,"rental_uris":{"android":"levelo://app?vid=abe96b44-6de6-4d2c-a97a-a8efd2ad4d74","ios":"levelo://app?vid=abe96b44-6de6-4d2c-a97a-a8efd2ad4d74"},"vehicle_type_id":"4","last_reported":1709409984,"current_range_meters":23200,"station_id":"ce4bgth2rcd13ifvqch0","pricing_plan_id":"cebpf4jnsgd1na2vs0mg"},{"bike_id":"de2eb55d-c767-45ee-a4e0-5c96ab211d6d","system_id":"levelo_inurba_marseille","lat":43.317075,"lon":5.377367,"is_reserved":false,"is_disabled":false,"rental_uris":{"android":"levelo://app?vid=de2eb55d-c767-45ee-a4e0-5c96ab211d6d","ios":"levelo://app?vid=de2eb55d-c767-45ee-a4e0-5c96ab211d6d"},"vehicle_type_id":"4","last_reported":1709409984,"current_range_meters":4400,"station_id":"ce4bgth2rcd13ifvqch0","pricing_plan_id":"cebpf4jnsgd1na2vs0mg"},{"bike_id":"fce16320-016d-46ad-b33e-d46cb83803a3","system_id":"levelo_inurba_marseille","lat":43.317075,"lon":5.377367,"is_reserved":false,"is_disabled":false,"rental_uris":{"android":"levelo://app?vid=fce16320-016d-46ad-b33e-d46cb83803a3","ios":"levelo://app?vid=fce16320-016d-46ad-b33e-d46cb83803a3"},"vehicle_type_id":"4","last_reported":1709409984,"current_range_meters":24400,"station_id":"ce4bgth2rcd13ifvqch0","pricing_plan_id":"cebpf4jnsgd1na2vs0mg"},{"bike_id":"55df35e1-45c9-4d1d-8846-d0ac95015a12","system_id":"levelo_inurba_marseille","lat":43.317075,"lon":5.377367,"is_reserved":false,"is_disabled":false,"rental_uris":{"android":"levelo://app?vid=55df35e1-45c9-4d1d-8846-d0ac95015a12","ios":"levelo://app?vid=55df35e1-45c9-4d1d-8846-d0ac95015a12"},"vehicle_type_id":"4","last_reported":1709409984,"current_range_meters":31200,"station_id":"ce4bgth2rcd13ifvqch0","pricing_plan_id":"cebpf4jnsgd1na2vs0mg"},{"bike_id":"a198ec78-dbde-4fdb-b571-4c22893c4901","system_id":"levelo_inurba_marseille","lat":43.317075,"lon":5.377367,"is_reserved":false,"is_disabled":false,"rental_uris":{"android":"levelo://app?vid=a198ec78-dbde-4fdb-b571-4c22893c4901","ios":"levelo://app?vid=a198ec78-dbde-4fdb-b571-4c22893c4901"},"vehicle_type_id":"4","last_reported":1709409984,"current_range_meters":27200,"station_id":"ce4bgth2rcd13ifvqch0","pricing_plan_id":"cebpf4jnsgd1na2vs0mg"},{"bike_id":"4edcd3c1-2e2f-494f-91ac-f6377c5c195d","system_id":"levelo_inurba_marseille","lat":43.31297,"lon":5.37928,"is_reserved":false,"is_disabled":false,"rental_uris":{"android":"levelo://app?vid=4edcd3c1-2e2f-494f-91ac-f6377c5c195d","ios":"levelo://app?vid=4edcd3c1-2e2f-494f-91ac-f6377c5c195d"},"vehicle_type_id":"4","last_reported":1709409984,"current_range_meters":22800,"station_id":"","pricing_plan_id":"cebpf4jnsgd1na2vs0mg"},{"bike_id":"69e3e024-b9f7-40b2-bab0-30bd6efdec96","system_id":"levelo_inurba_marseille","lat":43.303046,"lon":5.368981,"is_reserved":false,"is_disabled":false,"rental_uris":{"android":"levelo://app?vid=69e3e024-b9f7-40b2-bab0-30bd6efdec96","ios":"levelo://app?vid=69e3e024-b9f7-40b2-bab0-30bd6efdec96"},"vehicle_type_id":"4","last_reported":1709409984,"current_range_meters":19600,"station_id":"ce4bgqh2rcd13ifvqc5g","pricing_plan_id":"cebpf4jnsgd1na2vs0mg"},{"bike_id":"5a5f3880-6dfa-45c2-a88e-7c1b2e00b17a","system_id":"levelo_inurba_marseille","lat":43.303047,"lon":5.369027,"is_reserved":false,"is_disabled":false,"rental_uris":{"android":"levelo://app?vid=5a5f3880-6dfa-45c2-a88e-7c1b2e00b17a","ios":"levelo://app?vid=5a5f3880-6dfa-45c2-a88e-7c1b2e00b17a"},"vehicle_type_id":"4","last_reported":1709409984,"current_range_meters":23200,"station_id":"ce4bgqh2rcd13ifvqc5g","pricing_plan_id":"cebpf4jnsgd1na2vs0mg"},{"bike_id":"217e30be-f1a3-42b7-afac-f1b12d82c083","system_id":"levelo_inurba_marseille","lat":43.303046,"lon":5.368981,"is_reserved":false,"is_disabled":false,"rental_uris":{"android":"levelo://app?vid=217e30be-f1a3-42b7-afac-f1b12d82c083","ios":"levelo://app?vid=217e30be-f1a3-42b7-afac-f1b12d82c083"},"vehicle_type_id":"4","last_reported":1709409984,"current_range_meters":5200,"station_id":"ce4bgqh2rcd13ifvqc5g","pricing_plan_id":"cebpf4jnsgd1na2vs0mg"},{"bike_id":"f1a82f86-866f-44e4-b3a0-3686866671d3","system_id":"levelo_inurba_marseille","lat":43.308012,"lon":5.381511,"is_reserved":false,"is_disabled":false,"rental_uris":{"android":"levelo://app?vid=f1a82f86-866f-44e4-b3a0-3686866671d3","ios":"levelo://app?vid=f1a82f86-866f-44e4-b3a0-3686866671d3"},"vehicle_type_id":"4","last_reported":1709409984,"current_range_meters":0,"station_id":"ce4bgt12rcd13ifvqce0","pricing_plan_id":"cebpf4jnsgd1na2vs0mg"},{"bike_id":"023ab266-5546-4b55-8bca-60decdfcd2b8","system_id":"levelo_inurba_marseille","lat":43.314811,"lon":5.373103,"is_reserved":false,"is_disabled":false,"rental_uris":{"android":"levelo://app?vid=023ab266-5546-4b55-8bca-60decdfcd2b8","ios":"levelo://app?vid=023ab266-5546-4b55-8bca-60decdfcd2b8"},"vehicle_type_id":"4","last_reported":1709409984,"current_range_meters":13200,"station_id":"ce4bgt12rcd13ifvqcd0","pricing_plan_id":"cebpf4jnsgd1na2vs0mg"},{"bike_id":"346ae426-60f8-4d73-b278-e57dc2f036b4","system_id":"levelo_inurba_marseille","lat":43.308012,"lon":5.381511,"is_reserved":false,"is_disabled":false,"rental_uris":{"android":"levelo://app?vid=346ae426-60f8-4d73-b278-e57dc2f036b4","ios":"levelo://app?vid=346ae426-60f8-4d73-b278-e57dc2f036b4"},"vehicle_type_id":"4","last_reported":1709409984,"current_range_meters":8000,"station_id":"ce4bgt12rcd13ifvqce0","pricing_plan_id":"cebpf4jnsgd1na2vs0mg"},{"bike_id":"9863602f-d870-4713-ac5f-6b211b6bcfc3","system_id":"levelo_inurba_marseille","lat":43.308012,"lon":5.381511,"is_reserved":false,"is_disabled":false,"rental_uris":{"android":"levelo://app?vid=9863602f-d870-4713-ac5f-6b211b6bcfc3","ios":"levelo://app?vid=9863602f-d870-4713-ac5f-6b211b6bcfc3"},"vehicle_type_id":"4","last_reported":1709409984,"current_range_meters":12800,"station_id":"ce4bgt12rcd13ifvqce0","pricing_plan_id":"cebpf4jnsgd1na2vs0mg"},{"bike_id":"b50957bf-41d4-4387-9d95-826429d3ab1c","system_id":"levelo_inurba_marseille","lat":43.308012,"lon":5.381511,"is_reserved":false,"is_disabled":false,"rental_uris":{"android":"levelo://app?vid=b50957bf-41d4-4387-9d95-826429d3ab1c","ios":"levelo://app?vid=b50957bf-41d4-4387-9d95-826429d3ab1c"},"vehicle_type_id":"4","last_reported":1709409984,"current_range_meters":15200,"station_id":"ce4bgt12rcd13ifvqce0","pricing_plan_id":"cebpf4jnsgd1na2vs0mg"},{"bike_id":"29ca06f8-082d-4ed4-81ef-0bd3c3100c31","system_id":"levelo_inurba_marseille","lat":43.311131,"lon":5.377651,"is_reserved":false,"is_disabled":false,"rental_uris":{"android":"levelo://app?vid=29ca06f8-082d-4ed4-81ef-0bd3c3100c31","ios":"levelo://app?vid=29ca06f8-082d-4ed4-81ef-0bd3c3100c31"},"vehicle_type_id":"4","last_reported":1709409984,"current_range_meters":6000,"station_id":"ce4bgt92rcd13ifvqcg0","pricing_plan_id":"cebpf4jnsgd1na2vs0mg"},{"bike_id":"ac15e0dd-af5f-4114-afad-4dbaba2ef426","system_id":"levelo_inurba_marseille","lat":43.308012,"lon":5.381511,"is_reserved":false,"is_disabled":false,"rental_uris":{"android":"levelo://app?vid=ac15e0dd-af5f-4114-afad-4dbaba2ef426","ios":"levelo://app?vid=ac15e0dd-af5f-4114-afad-4dbaba2ef426"},"vehicle_type_id":"4","last_reported":1709409984,"current_range_meters":800,"station_id":"ce4bgt12rcd13ifvqce0","pricing_plan_id":"cebpf4jnsgd1na2vs0mg"},{"bike_id":"2d8a588b-ea66-43ae-af37-f3f31ce74313","system_id":"levelo_inurba_marseille","lat":43.304703,"lon":5.378967,"is_reserved":false,"is_disabled":false,"rental_uris":{"android":"levelo://app?vid=2d8a588b-ea66-43ae-af37-f3f31ce74313","ios":"levelo://app?vid=2d8a588b-ea66-43ae-af37-f3f31ce74313"},"vehicle_type_id":"4","last_reported":1709409984,"current_range_meters":24000,"station_id":"ce4bgup2rcd13ifvqcn0","pricing_plan_id":"cebpf4jnsgd1na2vs0mg"},{"bike_id":"c83edc67-7b6d-400b-b062-3c978a800b22","system_id":"levelo_inurba_marseille","lat":43.30472,"lon":5.379123,"is_reserved":false,"is_disabled":false,"rental_uris":{"android":"levelo://app?vid=c83edc67-7b6d-400b-b062-3c978a800b22","ios":"levelo://app?vid=c83edc67-7b6d-400b-b062-3c978a800b22"},"vehicle_type_id":"4","last_reported":1709409984,"current_range_meters":10800,"station_id":"ce4bgup2rcd13ifvqcn0","pricing_plan_id":"cebpf4jnsgd1na2vs0mg"},{"bike_id":"db16c7e8-12f4-4cdd-b89a-cd2abd4671aa","system_id":"levelo_inurba_marseille","lat":43.304606,"lon":5.379026,"is_reserved":false,"is_disabled":false,"rental_uris":{"android":"levelo://app?vid=db16c7e8-12f4-4cdd-b89a-cd2abd4671aa","ios":"levelo://app?vid=db16c7e8-12f4-4cdd-b89a-cd2abd4671aa"},"vehicle_type_id":"4","last_reported":1709409984,"current_range_meters":29600,"station_id":"ce4bgup2rcd13ifvqcn0","pricing_plan_id":"cebpf4jnsgd1na2vs0mg"},{"bike_id":"3dcbe3d2-c5f5-4584-8e88-6e03b8d27908","system_id":"levelo_inurba_marseille","lat":43.304606,"lon":5.379026,"is_reserved":false,"is_disabled":false,"rental_uris":{"android":"levelo://app?vid=3dcbe3d2-c5f5-4584-8e88-6e03b8d27908","ios":"levelo://app?vid=3dcbe3d2-c5f5-4584-8e88-6e03b8d27908"},"vehicle_type_id":"4","last_reported":1709409984,"current_range_meters":5600,"station_id":"ce4bgup2rcd13ifvqcn0","pricing_plan_id":"cebpf4jnsgd1na2vs0mg"},{"bike_id":"e954a353-926f-4195-b132-56cb43207caa","system_id":"levelo_inurba_marseille","lat":43.304606,"lon":5.379026,"is_reserved":false,"is_disabled":false,"rental_uris":{"android":"levelo://app?vid=e954a353-926f-4195-b132-56cb43207caa","ios":"levelo://app?vid=e954a353-926f-4195-b132-56cb43207caa"},"vehicle_type_id":"4","last_reported":1709409984,"current_range_meters":4400,"station_id":"ce4bgup2rcd13ifvqcn0","pricing_plan_id":"cebpf4jnsgd1na2vs0mg"},{"bike_id":"6f0ebe62-bed1-4c97-96fe-1eeeee601fa5","system_id":"levelo_inurba_marseille","lat":43.304606,"lon":5.379026,"is_reserved":false,"is_disabled":false,"rental_uris":{"android":"levelo://app?vid=6f0ebe62-bed1-4c97-96fe-1eeeee601fa5","ios":"levelo://app?vid=6f0ebe62-bed1-4c97-96fe-1eeeee601fa5"},"vehicle_type_id":"4","last_reported":1709409984,"current_range_meters":8000,"station_id":"ce4bgup2rcd13ifvqcn0","pricing_plan_id":"cebpf4jnsgd1na2vs0mg"},{"bike_id":"4a867221-9217-4bfb-a374-884bacd15f13","system_id":"levelo_inurba_marseille","lat":43.304606,"lon":5.379026,"is_reserved":false,"is_disabled":false,"rental_uris":{"android":"levelo://app?vid=4a867221-9217-4bfb-a374-884bacd15f13","ios":"levelo://app?vid=4a867221-9217-4bfb-a374-884bacd15f13"},"vehicle_type_id":"4","last_reported":1709409984,"current_range_meters":14000,"station_id":"ce4bgup2rcd13ifvqcn0","pricing_plan_id":"cebpf4jnsgd1na2vs0mg"},{"bike_id":"28232384-b8ad-4233-801d-3dff85141001","system_id":"levelo_inurba_marseille","lat":43.32476,"lon":5.36564,"is_reserved":false,"is_disabled":false,"rental_uris":{"android":"levelo://app?vid=28232384-b8ad-4233-801d-3dff85141001","ios":"levelo://app?vid=28232384-b8ad-4233-801d-3dff85141001"},"vehicle_type_id":"4","last_reported":1709409984,"current_range_meters":400,"station_id":"ce4bhs12rcd13ifvqhvg","pricing_plan_id":"cebpf4jnsgd1na2vs0mg"},{"bike_id":"877ab18f-6b64-447f-9722-bb3a6d90c916","system_id":"levelo_inurba_marseille","lat":43.324771,"lon":5.36557,"is_reserved":false,"is_disabled":false,"rental_uris":{"android":"levelo://app?vid=877ab18f-6b64-447f-9722-bb3a6d90c916","ios":"levelo://app?vid=877ab18f-6b64-447f-9722-bb3a6d90c916"},"vehicle_type_id":"4","last_reported":1709409984,"current_range_meters":18000,"station_id":"ce4bhs12rcd13ifvqhvg","pricing_plan_id":"cebpf4jnsgd1na2vs0mg"},{"bike_id":"c37a64e6-7dae-43b2-b345-38865f17122c","system_id":"levelo_inurba_marseille","lat":43.324771,"lon":5.36557,"is_reserved":false,"is_disabled":false,"rental_uris":{"android":"levelo://app?vid=c37a64e6-7dae-43b2-b345-38865f17122c","ios":"levelo://app?vid=c37a64e6-7dae-43b2-b345-38865f17122c"},"vehicle_type_id":"4","last_reported":1709409984,"current_range_meters":14800,"station_id":"ce4bhs12rcd13ifvqhvg","pricing_plan_id":"cebpf4jnsgd1na2vs0mg"},{"bike_id":"376d4ce2-b16c-4397-b7e4-23077f71175b","system_id":"levelo_inurba_marseille","lat":43.324771,"lon":5.36557,"is_reserved":false,"is_disabled":false,"rental_uris":{"android":"levelo://app?vid=376d4ce2-b16c-4397-b7e4-23077f71175b","ios":"levelo://app?vid=376d4ce2-b16c-4397-b7e4-23077f71175b"},"vehicle_type_id":"4","last_reported":1709409984,"current_range_meters":14000,"station_id":"ce4bhs12rcd13ifvqhvg","pricing_plan_id":"cebpf4jnsgd1na2vs0mg"},{"bike_id":"b36b0467-bb67-49f1-99e3-33c9745becad","system_id":"levelo_inurba_marseille","lat":43.32478,"lon":5.36575,"is_reserved":false,"is_disabled":false,"rental_uris":{"android":"levelo://app?vid=b36b0467-bb67-49f1-99e3-33c9745becad","ios":"levelo://app?vid=b36b0467-bb67-49f1-99e3-33c9745becad"},"vehicle_type_id":"4","last_reported":1709409984,"current_range_meters":1200,"station_id":"ce4bhs12rcd13ifvqhvg","pricing_plan_id":"cebpf4jnsgd1na2vs0mg"},{"bike_id":"790dd2e9-7247-4704-b137-08e2dd4e2e96","system_id":"levelo_inurba_marseille","lat":43.324771,"lon":5.36557,"is_reserved":false,"is_disabled":false,"rental_uris":{"android":"levelo://app?vid=790dd2e9-7247-4704-b137-08e2dd4e2e96","ios":"levelo://app?vid=790dd2e9-7247-4704-b137-08e2dd4e2e96"},"vehicle_type_id":"4","last_reported":1709409984,"current_range_meters":16000,"station_id":"ce4bhs12rcd13ifvqhvg","pricing_plan_id":"cebpf4jnsgd1na2vs0mg"},{"bike_id":"232bebad-b08e-460c-9080-673056206041","system_id":"levelo_inurba_marseille","lat":43.324771,"lon":5.36557,"is_reserved":false,"is_disabled":false,"rental_uris":{"android":"levelo://app?vid=232bebad-b08e-460c-9080-673056206041","ios":"levelo://app?vid=232bebad-b08e-460c-9080-673056206041"},"vehicle_type_id":"4","last_reported":1709409984,"current_range_meters":26400,"station_id":"ce4bhs12rcd13ifvqhvg","pricing_plan_id":"cebpf4jnsgd1na2vs0mg"},{"bike_id":"d55187a9-87f3-4857-9fa6-3b86de42d1e0","system_id":"levelo_inurba_marseille","lat":43.324771,"lon":5.36557,"is_reserved":false,"is_disabled":false,"rental_uris":{"android":"levelo://app?vid=d55187a9-87f3-4857-9fa6-3b86de42d1e0","ios":"levelo://app?vid=d55187a9-87f3-4857-9fa6-3b86de42d1e0"},"vehicle_type_id":"4","last_reported":1709409984,"current_range_meters":21600,"station_id":"ce4bhs12rcd13ifvqhvg","pricing_plan_id":"cebpf4jnsgd1na2vs0mg"},{"bike_id":"276cd7ba-9416-4461-b071-e2af77f0b75d","system_id":"levelo_inurba_marseille","lat":43.324771,"lon":5.36557,"is_reserved":false,"is_disabled":false,"rental_uris":{"android":"levelo://app?vid=276cd7ba-9416-4461-b071-e2af77f0b75d","ios":"levelo://app?vid=276cd7ba-9416-4461-b071-e2af77f0b75d"},"vehicle_type_id":"4","last_reported":1709409984,"current_range_meters":25600,"station_id":"ce4bhs12rcd13ifvqhvg","pricing_plan_id":"cebpf4jnsgd1na2vs0mg"},{"bike_id":"8dd9d95c-334e-461f-819d-c1fdc9f42217","system_id":"levelo_inurba_marseille","lat":43.3248,"lon":5.36576,"is_reserved":false,"is_disabled":false,"rental_uris":{"android":"levelo://app?vid=8dd9d95c-334e-461f-819d-c1fdc9f42217","ios":"levelo://app?vid=8dd9d95c-334e-461f-819d-c1fdc9f42217"},"vehicle_type_id":"4","last_reported":1709409984,"current_range_meters":21600,"station_id":"ce4bhs12rcd13ifvqhvg","pricing_plan_id":"cebpf4jnsgd1na2vs0mg"},{"bike_id":"991df356-d586-4757-91ac-45f174be49ab","system_id":"levelo_inurba_marseille","lat":43.324771,"lon":5.36557,"is_reserved":false,"is_disabled":false,"rental_uris":{"android":"levelo://app?vid=991df356-d586-4757-91ac-45f174be49ab","ios":"levelo://app?vid=991df356-d586-4757-91ac-45f174be49ab"},"vehicle_type_id":"4","last_reported":1709409984,"current_range_meters":22400,"station_id":"ce4bhs12rcd13ifvqhvg","pricing_plan_id":"cebpf4jnsgd1na2vs0mg"},{"bike_id":"d26c4504-8028-4fb3-96db-6bea15703997","system_id":"levelo_inurba_marseille","lat":43.324771,"lon":5.36557,"is_reserved":false,"is_disabled":false,"rental_uris":{"android":"levelo://app?vid=d26c4504-8028-4fb3-96db-6bea15703997","ios":"levelo://app?vid=d26c4504-8028-4fb3-96db-6bea15703997"},"vehicle_type_id":"4","last_reported":1709409984,"current_range_meters":18000,"station_id":"ce4bhs12rcd13ifvqhvg","pricing_plan_id":"cebpf4jnsgd1na2vs0mg"},{"bike_id":"e8af0e28-6d47-4929-97ab-8eaec4db3d09","system_id":"levelo_inurba_marseille","lat":43.32481,"lon":5.36564,"is_reserved":false,"is_disabled":false,"rental_uris":{"android":"levelo://app?vid=e8af0e28-6d47-4929-97ab-8eaec4db3d09","ios":"levelo://app?vid=e8af0e28-6d47-4929-97ab-8eaec4db3d09"},"vehicle_type_id":"4","last_reported":1709409984,"current_range_meters":20800,"station_id":"ce4bhs12rcd13ifvqhvg","pricing_plan_id":"cebpf4jnsgd1na2vs0mg"},{"bike_id":"1be2cb9f-3f93-41c7-819f-bec9e1ddca64","system_id":"levelo_inurba_marseille","lat":43.32483,"lon":5.36569,"is_reserved":false,"is_disabled":false,"rental_uris":{"android":"levelo://app?vid=1be2cb9f-3f93-41c7-819f-bec9e1ddca64","ios":"levelo://app?vid=1be2cb9f-3f93-41c7-819f-bec9e1ddca64"},"vehicle_type_id":"4","last_reported":1709409984,"current_range_meters":0,"station_id":"ce4bhs12rcd13ifvqhvg","pricing_plan_id":"cebpf4jnsgd1na2vs0mg"},{"bike_id":"7e859d9d-2a29-4d8d-bc76-e0e51e49e1b3","system_id":"levelo_inurba_marseille","lat":43.324771,"lon":5.36557,"is_reserved":false,"is_disabled":false,"rental_uris":{"android":"levelo://app?vid=7e859d9d-2a29-4d8d-bc76-e0e51e49e1b3","ios":"levelo://app?vid=7e859d9d-2a29-4d8d-bc76-e0e51e49e1b3"},"vehicle_type_id":"4","last_reported":1709409984,"current_range_meters":0,"station_id":"ce4bhs12rcd13ifvqhvg","pricing_plan_id":"cebpf4jnsgd1na2vs0mg"},{"bike_id":"10c09295-4320-4db4-bc75-adcfc30c7db1","system_id":"levelo_inurba_marseille","lat":43.324771,"lon":5.36557,"is_reserved":false,"is_disabled":false,"rental_uris":{"android":"levelo://app?vid=10c09295-4320-4db4-bc75-adcfc30c7db1","ios":"levelo://app?vid=10c09295-4320-4db4-bc75-adcfc30c7db1"},"vehicle_type_id":"4","last_reported":1709409984,"current_range_meters":16000,"station_id":"ce4bhs12rcd13ifvqhvg","pricing_plan_id":"cebpf4jnsgd1na2vs0mg"},{"bike_id":"b08c0654-a985-442e-8f30-4567e08eecce","system_id":"levelo_inurba_marseille","lat":43.324771,"lon":5.36557,"is_reserved":false,"is_disabled":false,"rental_uris":{"android":"levelo://app?vid=b08c0654-a985-442e-8f30-4567e08eecce","ios":"levelo://app?vid=b08c0654-a985-442e-8f30-4567e08eecce"},"vehicle_type_id":"4","last_reported":1709409984,"current_range_meters":10400,"station_id":"ce4bhs12rcd13ifvqhvg","pricing_plan_id":"cebpf4jnsgd1na2vs0mg"},{"bike_id":"511835de-2af5-4b02-8382-8963c3a5a408","system_id":"levelo_inurba_marseille","lat":43.32488,"lon":5.36565,"is_reserved":false,"is_disabled":false,"rental_uris":{"android":"levelo://app?vid=511835de-2af5-4b02-8382-8963c3a5a408","ios":"levelo://app?vid=511835de-2af5-4b02-8382-8963c3a5a408"},"vehicle_type_id":"4","last_reported":1709409984,"current_range_meters":0,"station_id":"ce4bhs12rcd13ifvqhvg","pricing_plan_id":"cebpf4jnsgd1na2vs0mg"},{"bike_id":"7a01d165-8df9-497f-b76c-7b9f9138231f","system_id":"levelo_inurba_marseille","lat":43.310804,"lon":5.38359,"is_reserved":false,"is_disabled":false,"rental_uris":{"android":"levelo://app?vid=7a01d165-8df9-497f-b76c-7b9f9138231f","ios":"levelo://app?vid=7a01d165-8df9-497f-b76c-7b9f9138231f"},"vehicle_type_id":"4","last_reported":1709409984,"current_range_meters":7600,"station_id":"ce4bgv92rcd13ifvqcr0","pricing_plan_id":"cebpf4jnsgd1na2vs0mg"},{"bike_id":"304a327e-5fdf-468f-8b6d-c48e26221517","system_id":"levelo_inurba_marseille","lat":43.310804,"lon":5.38359,"is_reserved":false,"is_disabled":false,"rental_uris":{"android":"levelo://app?vid=304a327e-5fdf-468f-8b6d-c48e26221517","ios":"levelo://app?vid=304a327e-5fdf-468f-8b6d-c48e26221517"},"vehicle_type_id":"4","last_reported":1709409984,"current_range_meters":1200,"station_id":"ce4bgv92rcd13ifvqcr0","pricing_plan_id":"cebpf4jnsgd1na2vs0mg"},{"bike_id":"e5c20ae2-0471-4d1f-9166-ed812536dbe7","system_id":"levelo_inurba_marseille","lat":43.302832,"lon":5.376971,"is_reserved":false,"is_disabled":false,"rental_uris":{"android":"levelo://app?vid=e5c20ae2-0471-4d1f-9166-ed812536dbe7","ios":"levelo://app?vid=e5c20ae2-0471-4d1f-9166-ed812536dbe7"},"vehicle_type_id":"4","last_reported":1709409984,"current_range_meters":31200,"station_id":"ce4bguh2rcd13ifvqcj0","pricing_plan_id":"cebpf4jnsgd1na2vs0mg"},{"bike_id":"1650fb8a-18c5-4e1a-93ca-ec4155139780","system_id":"levelo_inurba_marseille","lat":43.30282,"lon":5.37697,"is_reserved":false,"is_disabled":false,"rental_uris":{"android":"levelo://app?vid=1650fb8a-18c5-4e1a-93ca-ec4155139780","ios":"levelo://app?vid=1650fb8a-18c5-4e1a-93ca-ec4155139780"},"vehicle_type_id":"4","last_reported":1709409984,"current_range_meters":25600,"station_id":"ce4bhs92rcd13ifvqi0g","pricing_plan_id":"cebpf4jnsgd1na2vs0mg"},{"bike_id":"77839645-1685-40c4-85c4-f12c334ee537","system_id":"levelo_inurba_marseille","lat":43.302796,"lon":5.376976,"is_reserved":false,"is_disabled":false,"rental_uris":{"android":"levelo://app?vid=77839645-1685-40c4-85c4-f12c334ee537","ios":"levelo://app?vid=77839645-1685-40c4-85c4-f12c334ee537"},"vehicle_type_id":"4","last_reported":1709409984,"current_range_meters":12000,"station_id":"ce4bhs92rcd13ifvqi0g","pricing_plan_id":"cebpf4jnsgd1na2vs0mg"},{"bike_id":"9db0dcfd-491a-45ab-a71a-04d7fe7192bd","system_id":"levelo_inurba_marseille","lat":43.302767,"lon":5.376948,"is_reserved":false,"is_disabled":false,"rental_uris":{"android":"levelo://app?vid=9db0dcfd-491a-45ab-a71a-04d7fe7192bd","ios":"levelo://app?vid=9db0dcfd-491a-45ab-a71a-04d7fe7192bd"},"vehicle_type_id":"4","last_reported":1709409984,"current_range_meters":3200,"station_id":"ce4bhs92rcd13ifvqi0g","pricing_plan_id":"cebpf4jnsgd1na2vs0mg"},{"bike_id":"3a846f80-e31f-4bb7-9e9c-7fc8313505e3","system_id":"levelo_inurba_marseille","lat":43.30279,"lon":5.37706,"is_reserved":false,"is_disabled":false,"rental_uris":{"android":"levelo://app?vid=3a846f80-e31f-4bb7-9e9c-7fc8313505e3","ios":"levelo://app?vid=3a846f80-e31f-4bb7-9e9c-7fc8313505e3"},"vehicle_type_id":"4","last_reported":1709409984,"current_range_meters":22800,"station_id":"ce4bhs92rcd13ifvqi0g","pricing_plan_id":"cebpf4jnsgd1na2vs0mg"},{"bike_id":"fc1743bd-0a6c-4d7d-9125-838dfbb1e020","system_id":"levelo_inurba_marseille","lat":43.3028,"lon":5.37711,"is_reserved":false,"is_disabled":false,"rental_uris":{"android":"levelo://app?vid=fc1743bd-0a6c-4d7d-9125-838dfbb1e020","ios":"levelo://app?vid=fc1743bd-0a6c-4d7d-9125-838dfbb1e020"},"vehicle_type_id":"4","last_reported":1709409984,"current_range_meters":15600,"station_id":"ce4bguh2rcd13ifvqcj0","pricing_plan_id":"cebpf4jnsgd1na2vs0mg"},{"bike_id":"8880e36f-b19d-455e-a190-dc4003aa9946","system_id":"levelo_inurba_marseille","lat":43.302752,"lon":5.377023,"is_reserved":false,"is_disabled":false,"rental_uris":{"android":"levelo://app?vid=8880e36f-b19d-455e-a190-dc4003aa9946","ios":"levelo://app?vid=8880e36f-b19d-455e-a190-dc4003aa9946"},"vehicle_type_id":"4","last_reported":1709409984,"current_range_meters":15600,"station_id":"ce4bguh2rcd13ifvqcj0","pricing_plan_id":"cebpf4jnsgd1na2vs0mg"},{"bike_id":"3f8e2f14-704b-4544-81cf-3cd5b39d43f1","system_id":"levelo_inurba_marseille","lat":43.30272,"lon":5.37704,"is_reserved":false,"is_disabled":false,"rental_uris":{"android":"levelo://app?vid=3f8e2f14-704b-4544-81cf-3cd5b39d43f1","ios":"levelo://app?vid=3f8e2f14-704b-4544-81cf-3cd5b39d43f1"},"vehicle_type_id":"4","last_reported":1709409984,"current_range_meters":22000,"station_id":"ce4bhs92rcd13ifvqi0g","pricing_plan_id":"cebpf4jnsgd1na2vs0mg"},{"bike_id":"3239d129-8b4d-4b8a-abb8-402db929ed71","system_id":"levelo_inurba_marseille","lat":43.30272,"lon":5.37704,"is_reserved":false,"is_disabled":false,"rental_uris":{"android":"levelo://app?vid=3239d129-8b4d-4b8a-abb8-402db929ed71","ios":"levelo://app?vid=3239d129-8b4d-4b8a-abb8-402db929ed71"},"vehicle_type_id":"4","last_reported":1709409984,"current_range_meters":11600,"station_id":"ce4bhs92rcd13ifvqi0g","pricing_plan_id":"cebpf4jnsgd1na2vs0mg"},{"bike_id":"51a65baf-5a81-4702-bbb3-0d5478c2e6df","system_id":"levelo_inurba_marseille","lat":43.30143,"lon":5.37413,"is_reserved":false,"is_disabled":false,"rental_uris":{"android":"levelo://app?vid=51a65baf-5a81-4702-bbb3-0d5478c2e6df","ios":"levelo://app?vid=51a65baf-5a81-4702-bbb3-0d5478c2e6df"},"vehicle_type_id":"4","last_reported":1709409984,"current_range_meters":28000,"station_id":"ce4bgs92rcd13ifvqcc0","pricing_plan_id":"cebpf4jnsgd1na2vs0mg"},{"bike_id":"e76a96df-b671-4a36-8be2-5294323a4382","system_id":"levelo_inurba_marseille","lat":43.30272,"lon":5.37705,"is_reserved":false,"is_disabled":false,"rental_uris":{"android":"levelo://app?vid=e76a96df-b671-4a36-8be2-5294323a4382","ios":"levelo://app?vid=e76a96df-b671-4a36-8be2-5294323a4382"},"vehicle_type_id":"4","last_reported":1709409984,"current_range_meters":27600,"station_id":"ce4bhs92rcd13ifvqi0g","pricing_plan_id":"cebpf4jnsgd1na2vs0mg"},{"bike_id":"747a4271-cfbd-4abe-b482-1af57a5f0520","system_id":"levelo_inurba_marseille","lat":43.301429,"lon":5.37413,"is_reserved":false,"is_disabled":false,"rental_uris":{"android":"levelo://app?vid=747a4271-cfbd-4abe-b482-1af57a5f0520","ios":"levelo://app?vid=747a4271-cfbd-4abe-b482-1af57a5f0520"},"vehicle_type_id":"4","last_reported":1709409984,"current_range_meters":30000,"station_id":"ce4bgs92rcd13ifvqcc0","pricing_plan_id":"cebpf4jnsgd1na2vs0mg"},{"bike_id":"8cc09ca2-1641-44b7-b750-f217dafe7059","system_id":"levelo_inurba_marseille","lat":43.301429,"lon":5.37413,"is_reserved":false,"is_disabled":false,"rental_uris":{"android":"levelo://app?vid=8cc09ca2-1641-44b7-b750-f217dafe7059","ios":"levelo://app?vid=8cc09ca2-1641-44b7-b750-f217dafe7059"},"vehicle_type_id":"4","last_reported":1709409984,"current_range_meters":26400,"station_id":"ce4bgs92rcd13ifvqcc0","pricing_plan_id":"cebpf4jnsgd1na2vs0mg"},{"bike_id":"f0bbe6b6-2024-4b88-9896-ac64139a0147","system_id":"levelo_inurba_marseille","lat":43.30143,"lon":5.37413,"is_reserved":false,"is_disabled":false,"rental_uris":{"android":"levelo://app?vid=f0bbe6b6-2024-4b88-9896-ac64139a0147","ios":"levelo://app?vid=f0bbe6b6-2024-4b88-9896-ac64139a0147"},"vehicle_type_id":"4","last_reported":1709409984,"current_range_meters":27600,"station_id":"ce4bgs92rcd13ifvqcc0","pricing_plan_id":"cebpf4jnsgd1na2vs0mg"},{"bike_id":"e9f64ed1-ef03-49f8-ba96-5ea617ba57be","system_id":"levelo_inurba_marseille","lat":43.30276,"lon":5.37718,"is_reserved":false,"is_disabled":false,"rental_uris":{"android":"levelo://app?vid=e9f64ed1-ef03-49f8-ba96-5ea617ba57be","ios":"levelo://app?vid=e9f64ed1-ef03-49f8-ba96-5ea617ba57be"},"vehicle_type_id":"4","last_reported":1709409984,"current_range_meters":17600,"station_id":"ce4bhs92rcd13ifvqi0g","pricing_plan_id":"cebpf4jnsgd1na2vs0mg"},{"bike_id":"d50ad442-7330-4b82-b4e1-982bf7e2dca7","system_id":"levelo_inurba_marseille","lat":43.319935,"lon":5.381699,"is_reserved":false,"is_disabled":false,"rental_uris":{"android":"levelo://app?vid=d50ad442-7330-4b82-b4e1-982bf7e2dca7","ios":"levelo://app?vid=d50ad442-7330-4b82-b4e1-982bf7e2dca7"},"vehicle_type_id":"4","last_reported":1709409984,"current_range_meters":18400,"station_id":"ce4bhr12rcd13ifvqhpg","pricing_plan_id":"cebpf4jnsgd1na2vs0mg"},{"bike_id":"6ae17769-17b6-4ff4-879d-6b1f6498cfd3","system_id":"levelo_inurba_marseille","lat":43.319935,"lon":5.381699,"is_reserved":false,"is_disabled":false,"rental_uris":{"android":"levelo://app?vid=6ae17769-17b6-4ff4-879d-6b1f6498cfd3","ios":"levelo://app?vid=6ae17769-17b6-4ff4-879d-6b1f6498cfd3"},"vehicle_type_id":"4","last_reported":1709409984,"current_range_meters":17600,"station_id":"ce4bhr12rcd13ifvqhpg","pricing_plan_id":"cebpf4jnsgd1na2vs0mg"},{"bike_id":"47f07fc1-e47a-40ed-8447-fff1ee414ca2","system_id":"levelo_inurba_marseille","lat":43.319935,"lon":5.381699,"is_reserved":false,"is_disabled":false,"rental_uris":{"android":"levelo://app?vid=47f07fc1-e47a-40ed-8447-fff1ee414ca2","ios":"levelo://app?vid=47f07fc1-e47a-40ed-8447-fff1ee414ca2"},"vehicle_type_id":"4","last_reported":1709409984,"current_range_meters":22400,"station_id":"ce4bhr12rcd13ifvqhpg","pricing_plan_id":"cebpf4jnsgd1na2vs0mg"},{"bike_id":"f74cca3e-1340-4bae-8836-da39e153e1c0","system_id":"levelo_inurba_marseille","lat":43.319935,"lon":5.381699,"is_reserved":false,"is_disabled":false,"rental_uris":{"android":"levelo://app?vid=f74cca3e-1340-4bae-8836-da39e153e1c0","ios":"levelo://app?vid=f74cca3e-1340-4bae-8836-da39e153e1c0"},"vehicle_type_id":"4","last_reported":1709409984,"current_range_meters":22400,"station_id":"ce4bhr12rcd13ifvqhpg","pricing_plan_id":"cebpf4jnsgd1na2vs0mg"},{"bike_id":"40cfcd35-b036-4469-ab05-7ce790dca1ea","system_id":"levelo_inurba_marseille","lat":43.32,"lon":5.38153,"is_reserved":false,"is_disabled":false,"rental_uris":{"android":"levelo://app?vid=40cfcd35-b036-4469-ab05-7ce790dca1ea","ios":"levelo://app?vid=40cfcd35-b036-4469-ab05-7ce790dca1ea"},"vehicle_type_id":"4","last_reported":1709409984,"current_range_meters":4000,"station_id":"ce4bhr12rcd13ifvqhpg","pricing_plan_id":"cebpf4jnsgd1na2vs0mg"},{"bike_id":"f232d98e-2a8e-40be-8440-097adef91cbb","system_id":"levelo_inurba_marseille","lat":43.320088,"lon":5.381553,"is_reserved":false,"is_disabled":false,"rental_uris":{"android":"levelo://app?vid=f232d98e-2a8e-40be-8440-097adef91cbb","ios":"levelo://app?vid=f232d98e-2a8e-40be-8440-097adef91cbb"},"vehicle_type_id":"4","last_reported":1709409984,"current_range_meters":2000,"station_id":"ce4bhr12rcd13ifvqhpg","pricing_plan_id":"cebpf4jnsgd1na2vs0mg"},{"bike_id":"d78a412a-98ce-4101-8e6f-de1d305fe39d","system_id":"levelo_inurba_marseille","lat":43.320026,"lon":5.381634,"is_reserved":false,"is_disabled":false,"rental_uris":{"android":"levelo://app?vid=d78a412a-98ce-4101-8e6f-de1d305fe39d","ios":"levelo://app?vid=d78a412a-98ce-4101-8e6f-de1d305fe39d"},"vehicle_type_id":"4","last_reported":1709409984,"current_range_meters":21200,"station_id":"ce4bhr12rcd13ifvqhpg","pricing_plan_id":"cebpf4jnsgd1na2vs0mg"},{"bike_id":"bc47f862-6737-4044-b1f4-ff99b517149c","system_id":"levelo_inurba_marseille","lat":43.299222,"lon":5.365554,"is_reserved":false,"is_disabled":false,"rental_uris":{"android":"levelo://app?vid=bc47f862-6737-4044-b1f4-ff99b517149c","ios":"levelo://app?vid=bc47f862-6737-4044-b1f4-ff99b517149c"},"vehicle_type_id":"4","last_reported":1709409984,"current_range_meters":24400,"station_id":"ce4bgm92rcd13ifvqbr0","pricing_plan_id":"cebpf4jnsgd1na2vs0mg"},{"bike_id":"54ad9fc1-3d1b-49b7-8eee-070ca7119808","system_id":"levelo_inurba_marseille","lat":43.299222,"lon":5.365554,"is_reserved":false,"is_disabled":false,"rental_uris":{"android":"levelo://app?vid=54ad9fc1-3d1b-49b7-8eee-070ca7119808","ios":"levelo://app?vid=54ad9fc1-3d1b-49b7-8eee-070ca7119808"},"vehicle_type_id":"4","last_reported":1709409984,"current_range_meters":10800,"station_id":"ce4bgm92rcd13ifvqbr0","pricing_plan_id":"cebpf4jnsgd1na2vs0mg"},{"bike_id":"023bc944-20d2-4799-aac6-1f40816635e9","system_id":"levelo_inurba_marseille","lat":43.299816,"lon":5.371734,"is_reserved":false,"is_disabled":false,"rental_uris":{"android":"levelo://app?vid=023bc944-20d2-4799-aac6-1f40816635e9","ios":"levelo://app?vid=023bc944-20d2-4799-aac6-1f40816635e9"},"vehicle_type_id":"4","last_reported":1709409984,"current_range_meters":1200,"station_id":"ce4bgr92rcd13ifvqc7g","pricing_plan_id":"cebpf4jnsgd1na2vs0mg"},{"bike_id":"70dca871-4be9-4e2a-8d70-18edb85e15d4","system_id":"levelo_inurba_marseille","lat":43.299724,"lon":5.371829,"is_reserved":false,"is_disabled":false,"rental_uris":{"android":"levelo://app?vid=70dca871-4be9-4e2a-8d70-18edb85e15d4","ios":"levelo://app?vid=70dca871-4be9-4e2a-8d70-18edb85e15d4"},"vehicle_type_id":"4","last_reported":1709409984,"current_range_meters":15600,"station_id":"ce4bgr92rcd13ifvqc7g","pricing_plan_id":"cebpf4jnsgd1na2vs0mg"},{"bike_id":"b91c24b4-ec4c-4158-80d8-1185ce809427","system_id":"levelo_inurba_marseille","lat":43.299222,"lon":5.365554,"is_reserved":false,"is_disabled":false,"rental_uris":{"android":"levelo://app?vid=b91c24b4-ec4c-4158-80d8-1185ce809427","ios":"levelo://app?vid=b91c24b4-ec4c-4158-80d8-1185ce809427"},"vehicle_type_id":"4","last_reported":1709409984,"current_range_meters":15200,"station_id":"ce4bgm92rcd13ifvqbr0","pricing_plan_id":"cebpf4jnsgd1na2vs0mg"},{"bike_id":"49ebf8ca-7014-4e53-93b0-035ebf0ef8f7","system_id":"levelo_inurba_marseille","lat":43.299222,"lon":5.365554,"is_reserved":false,"is_disabled":false,"rental_uris":{"android":"levelo://app?vid=49ebf8ca-7014-4e53-93b0-035ebf0ef8f7","ios":"levelo://app?vid=49ebf8ca-7014-4e53-93b0-035ebf0ef8f7"},"vehicle_type_id":"4","last_reported":1709409984,"current_range_meters":19200,"station_id":"ce4bgm92rcd13ifvqbr0","pricing_plan_id":"cebpf4jnsgd1na2vs0mg"},{"bike_id":"d8f5ec0c-74f6-4987-a22f-6af3286dba31","system_id":"levelo_inurba_marseille","lat":43.299222,"lon":5.365554,"is_reserved":false,"is_disabled":false,"rental_uris":{"android":"levelo://app?vid=d8f5ec0c-74f6-4987-a22f-6af3286dba31","ios":"levelo://app?vid=d8f5ec0c-74f6-4987-a22f-6af3286dba31"},"vehicle_type_id":"4","last_reported":1709409984,"current_range_meters":22800,"station_id":"ce4bgm92rcd13ifvqbr0","pricing_plan_id":"cebpf4jnsgd1na2vs0mg"},{"bike_id":"99eb03a1-65cc-460d-96f2-f89831446f10","system_id":"levelo_inurba_marseille","lat":43.298433,"lon":5.362774,"is_reserved":false,"is_disabled":false,"rental_uris":{"android":"levelo://app?vid=99eb03a1-65cc-460d-96f2-f89831446f10","ios":"levelo://app?vid=99eb03a1-65cc-460d-96f2-f89831446f10"},"vehicle_type_id":"4","last_reported":1709409984,"current_range_meters":23600,"station_id":"ce4bgpp2rcd13ifvqc3g","pricing_plan_id":"cebpf4jnsgd1na2vs0mg"},{"bike_id":"957192d9-6878-44f6-9acd-a3f27880ba7d","system_id":"levelo_inurba_marseille","lat":43.298433,"lon":5.362774,"is_reserved":false,"is_disabled":false,"rental_uris":{"android":"levelo://app?vid=957192d9-6878-44f6-9acd-a3f27880ba7d","ios":"levelo://app?vid=957192d9-6878-44f6-9acd-a3f27880ba7d"},"vehicle_type_id":"4","last_reported":1709409984,"current_range_meters":21200,"station_id":"ce4bgpp2rcd13ifvqc3g","pricing_plan_id":"cebpf4jnsgd1na2vs0mg"},{"bike_id":"00cddfc3-0d3d-432d-b8c9-62a975ce9ea3","system_id":"levelo_inurba_marseille","lat":43.298433,"lon":5.362774,"is_reserved":false,"is_disabled":false,"rental_uris":{"android":"levelo://app?vid=00cddfc3-0d3d-432d-b8c9-62a975ce9ea3","ios":"levelo://app?vid=00cddfc3-0d3d-432d-b8c9-62a975ce9ea3"},"vehicle_type_id":"4","last_reported":1709409984,"current_range_meters":12400,"station_id":"ce4bgpp2rcd13ifvqc3g","pricing_plan_id":"cebpf4jnsgd1na2vs0mg"},{"bike_id":"899c8831-5032-4b35-8e3e-4385678f82ca","system_id":"levelo_inurba_marseille","lat":43.305364,"lon":5.384119,"is_reserved":false,"is_disabled":false,"rental_uris":{"android":"levelo://app?vid=899c8831-5032-4b35-8e3e-4385678f82ca","ios":"levelo://app?vid=899c8831-5032-4b35-8e3e-4385678f82ca"},"vehicle_type_id":"4","last_reported":1709409984,"current_range_meters":31200,"station_id":"ce4bgg92rcd13ifvqb30","pricing_plan_id":"cebpf4jnsgd1na2vs0mg"},{"bike_id":"0168ec61-c71a-4ee7-9653-8c28d4b25846","system_id":"levelo_inurba_marseille","lat":43.298433,"lon":5.362774,"is_reserved":false,"is_disabled":false,"rental_uris":{"android":"levelo://app?vid=0168ec61-c71a-4ee7-9653-8c28d4b25846","ios":"levelo://app?vid=0168ec61-c71a-4ee7-9653-8c28d4b25846"},"vehicle_type_id":"4","last_reported":1709409984,"current_range_meters":14000,"station_id":"ce4bgpp2rcd13ifvqc3g","pricing_plan_id":"cebpf4jnsgd1na2vs0mg"},{"bike_id":"dae23344-94aa-46ba-b730-806eba68e8fe","system_id":"levelo_inurba_marseille","lat":43.298433,"lon":5.362774,"is_reserved":false,"is_disabled":false,"rental_uris":{"android":"levelo://app?vid=dae23344-94aa-46ba-b730-806eba68e8fe","ios":"levelo://app?vid=dae23344-94aa-46ba-b730-806eba68e8fe"},"vehicle_type_id":"4","last_reported":1709409984,"current_range_meters":14000,"station_id":"ce4bgpp2rcd13ifvqc3g","pricing_plan_id":"cebpf4jnsgd1na2vs0mg"},{"bike_id":"4ef4537e-a06c-4bb2-83d5-345e6c95492f","system_id":"levelo_inurba_marseille","lat":43.30541,"lon":5.38418,"is_reserved":false,"is_disabled":false,"rental_uris":{"android":"levelo://app?vid=4ef4537e-a06c-4bb2-83d5-345e6c95492f","ios":"levelo://app?vid=4ef4537e-a06c-4bb2-83d5-345e6c95492f"},"vehicle_type_id":"4","last_reported":1709409984,"current_range_meters":9200,"station_id":"ce4bgg92rcd13ifvqb30","pricing_plan_id":"cebpf4jnsgd1na2vs0mg"},{"bike_id":"892861f3-0a66-44eb-a989-01718e0b558a","system_id":"levelo_inurba_marseille","lat":43.305457,"lon":5.384257,"is_reserved":false,"is_disabled":false,"rental_uris":{"android":"levelo://app?vid=892861f3-0a66-44eb-a989-01718e0b558a","ios":"levelo://app?vid=892861f3-0a66-44eb-a989-01718e0b558a"},"vehicle_type_id":"4","last_reported":1709409984,"current_range_meters":16000,"station_id":"ce4bgg92rcd13ifvqb30","pricing_plan_id":"cebpf4jnsgd1na2vs0mg"},{"bike_id":"64b05aee-6398-46a5-881a-0383f772a6b8","system_id":"levelo_inurba_marseille","lat":43.305364,"lon":5.384119,"is_reserved":false,"is_disabled":false,"rental_uris":{"android":"levelo://app?vid=64b05aee-6398-46a5-881a-0383f772a6b8","ios":"levelo://app?vid=64b05aee-6398-46a5-881a-0383f772a6b8"},"vehicle_type_id":"4","last_reported":1709409984,"current_range_meters":21600,"station_id":"ce4bgg92rcd13ifvqb30","pricing_plan_id":"cebpf4jnsgd1na2vs0mg"},{"bike_id":"d1933db0-8356-4fe0-9682-35660799c39f","system_id":"levelo_inurba_marseille","lat":43.305364,"lon":5.384119,"is_reserved":false,"is_disabled":false,"rental_uris":{"android":"levelo://app?vid=d1933db0-8356-4fe0-9682-35660799c39f","ios":"levelo://app?vid=d1933db0-8356-4fe0-9682-35660799c39f"},"vehicle_type_id":"4","last_reported":1709409984,"current_range_meters":26000,"station_id":"ce4bgg92rcd13ifvqb30","pricing_plan_id":"cebpf4jnsgd1na2vs0mg"},{"bike_id":"2165c600-d89d-421d-bc4f-f9f80cd0100c","system_id":"levelo_inurba_marseille","lat":43.30527,"lon":5.38414,"is_reserved":false,"is_disabled":false,"rental_uris":{"android":"levelo://app?vid=2165c600-d89d-421d-bc4f-f9f80cd0100c","ios":"levelo://app?vid=2165c600-d89d-421d-bc4f-f9f80cd0100c"},"vehicle_type_id":"4","last_reported":1709409984,"current_range_meters":9200,"station_id":"ce4bgg92rcd13ifvqb30","pricing_plan_id":"cebpf4jnsgd1na2vs0mg"},{"bike_id":"587df334-58d1-4f87-969b-443ae60d7846","system_id":"levelo_inurba_marseille","lat":43.305364,"lon":5.384119,"is_reserved":false,"is_disabled":false,"rental_uris":{"android":"levelo://app?vid=587df334-58d1-4f87-969b-443ae60d7846","ios":"levelo://app?vid=587df334-58d1-4f87-969b-443ae60d7846"},"vehicle_type_id":"4","last_reported":1709409984,"current_range_meters":30000,"station_id":"ce4bgg92rcd13ifvqb30","pricing_plan_id":"cebpf4jnsgd1na2vs0mg"},{"bike_id":"46c75b22-1105-4c9e-a7ec-e9bc6adeeef0","system_id":"levelo_inurba_marseille","lat":43.30537,"lon":5.38424,"is_reserved":false,"is_disabled":false,"rental_uris":{"android":"levelo://app?vid=46c75b22-1105-4c9e-a7ec-e9bc6adeeef0","ios":"levelo://app?vid=46c75b22-1105-4c9e-a7ec-e9bc6adeeef0"},"vehicle_type_id":"4","last_reported":1709409984,"current_range_meters":21200,"station_id":"ce4bgg92rcd13ifvqb30","pricing_plan_id":"cebpf4jnsgd1na2vs0mg"},{"bike_id":"2f8e9548-a166-49c4-8c22-d0aeff6435fe","system_id":"levelo_inurba_marseille","lat":43.29844,"lon":5.36281,"is_reserved":false,"is_disabled":false,"rental_uris":{"android":"levelo://app?vid=2f8e9548-a166-49c4-8c22-d0aeff6435fe","ios":"levelo://app?vid=2f8e9548-a166-49c4-8c22-d0aeff6435fe"},"vehicle_type_id":"4","last_reported":1709409984,"current_range_meters":12400,"station_id":"ce4bgpp2rcd13ifvqc3g","pricing_plan_id":"cebpf4jnsgd1na2vs0mg"},{"bike_id":"65476b28-2847-432e-92c2-e01f913fcfd4","system_id":"levelo_inurba_marseille","lat":43.29844,"lon":5.36274,"is_reserved":false,"is_disabled":false,"rental_uris":{"android":"levelo://app?vid=65476b28-2847-432e-92c2-e01f913fcfd4","ios":"levelo://app?vid=65476b28-2847-432e-92c2-e01f913fcfd4"},"vehicle_type_id":"4","last_reported":1709409984,"current_range_meters":8000,"station_id":"ce4bgpp2rcd13ifvqc3g","pricing_plan_id":"cebpf4jnsgd1na2vs0mg"},{"bike_id":"75d1c5da-e90f-4f03-a107-6f0f73e7dbaa","system_id":"levelo_inurba_marseille","lat":43.299133,"lon":5.374737,"is_reserved":false,"is_disabled":false,"rental_uris":{"android":"levelo://app?vid=75d1c5da-e90f-4f03-a107-6f0f73e7dbaa","ios":"levelo://app?vid=75d1c5da-e90f-4f03-a107-6f0f73e7dbaa"},"vehicle_type_id":"4","last_reported":1709409984,"current_range_meters":22000,"station_id":"ce4bgjh2rcd13ifvqbg0","pricing_plan_id":"cebpf4jnsgd1na2vs0mg"},{"bike_id":"50348824-d774-4179-8422-465f151eaa8e","system_id":"levelo_inurba_marseille","lat":43.2991,"lon":5.37471,"is_reserved":false,"is_disabled":false,"rental_uris":{"android":"levelo://app?vid=50348824-d774-4179-8422-465f151eaa8e","ios":"levelo://app?vid=50348824-d774-4179-8422-465f151eaa8e"},"vehicle_type_id":"4","last_reported":1709409984,"current_range_meters":21200,"station_id":"ce4bgjh2rcd13ifvqbg0","pricing_plan_id":"cebpf4jnsgd1na2vs0mg"},{"bike_id":"d66267cf-af09-465c-bdbd-0f38028c2746","system_id":"levelo_inurba_marseille","lat":43.299243,"lon":5.374807,"is_reserved":false,"is_disabled":false,"rental_uris":{"android":"levelo://app?vid=d66267cf-af09-465c-bdbd-0f38028c2746","ios":"levelo://app?vid=d66267cf-af09-465c-bdbd-0f38028c2746"},"vehicle_type_id":"4","last_reported":1709409984,"current_range_meters":6000,"station_id":"ce4bgjh2rcd13ifvqbg0","pricing_plan_id":"cebpf4jnsgd1na2vs0mg"},{"bike_id":"b079463a-0194-4bd5-b14b-067542b910e4","system_id":"levelo_inurba_marseille","lat":43.29529,"lon":5.385581,"is_reserved":false,"is_disabled":false,"rental_uris":{"android":"levelo://app?vid=b079463a-0194-4bd5-b14b-067542b910e4","ios":"levelo://app?vid=b079463a-0194-4bd5-b14b-067542b910e4"},"vehicle_type_id":"4","last_reported":1709409984,"current_range_meters":800,"station_id":"ce4bgih2rcd13ifvqba0","pricing_plan_id":"cebpf4jnsgd1na2vs0mg"},{"bike_id":"2828419e-21e9-4a34-b347-0decd96912d3","system_id":"levelo_inurba_marseille","lat":43.29796,"lon":5.37104,"is_reserved":false,"is_disabled":false,"rental_uris":{"android":"levelo://app?vid=2828419e-21e9-4a34-b347-0decd96912d3","ios":"levelo://app?vid=2828419e-21e9-4a34-b347-0decd96912d3"},"vehicle_type_id":"4","last_reported":1709409984,"current_range_meters":3600,"station_id":"ce4bgop2rcd13ifvqc1g","pricing_plan_id":"cebpf4jnsgd1na2vs0mg"},{"bike_id":"309f6f0a-27bc-41ba-bf76-5a255c55e381","system_id":"levelo_inurba_marseille","lat":43.297958,"lon":5.371043,"is_reserved":false,"is_disabled":false,"rental_uris":{"android":"levelo://app?vid=309f6f0a-27bc-41ba-bf76-5a255c55e381","ios":"levelo://app?vid=309f6f0a-27bc-41ba-bf76-5a255c55e381"},"vehicle_type_id":"4","last_reported":1709409984,"current_range_meters":8400,"station_id":"ce4bgop2rcd13ifvqc1g","pricing_plan_id":"cebpf4jnsgd1na2vs0mg"},{"bike_id":"d00f1806-b11e-49e8-95a4-8511fea5d3f0","system_id":"levelo_inurba_marseille","lat":43.29793,"lon":5.37102,"is_reserved":false,"is_disabled":false,"rental_uris":{"android":"levelo://app?vid=d00f1806-b11e-49e8-95a4-8511fea5d3f0","ios":"levelo://app?vid=d00f1806-b11e-49e8-95a4-8511fea5d3f0"},"vehicle_type_id":"4","last_reported":1709409984,"current_range_meters":11600,"station_id":"ce4bgop2rcd13ifvqc1g","pricing_plan_id":"cebpf4jnsgd1na2vs0mg"},{"bike_id":"abc7ff3a-a4b1-480e-bdfa-657dadfc04dc","system_id":"levelo_inurba_marseille","lat":43.297774,"lon":5.370875,"is_reserved":false,"is_disabled":false,"rental_uris":{"android":"levelo://app?vid=abc7ff3a-a4b1-480e-bdfa-657dadfc04dc","ios":"levelo://app?vid=abc7ff3a-a4b1-480e-bdfa-657dadfc04dc"},"vehicle_type_id":"4","last_reported":1709409984,"current_range_meters":20800,"station_id":"ce4bgop2rcd13ifvqc1g","pricing_plan_id":"cebpf4jnsgd1na2vs0mg"},{"bike_id":"14d4d8b4-d9aa-4c07-a0f9-0e17a8542115","system_id":"levelo_inurba_marseille","lat":43.297908,"lon":5.370962,"is_reserved":false,"is_disabled":false,"rental_uris":{"android":"levelo://app?vid=14d4d8b4-d9aa-4c07-a0f9-0e17a8542115","ios":"levelo://app?vid=14d4d8b4-d9aa-4c07-a0f9-0e17a8542115"},"vehicle_type_id":"4","last_reported":1709409984,"current_range_meters":12800,"station_id":"ce4bgop2rcd13ifvqc1g","pricing_plan_id":"cebpf4jnsgd1na2vs0mg"},{"bike_id":"47b0f6e1-af10-498f-8b48-d0ffc3d19505","system_id":"levelo_inurba_marseille","lat":43.29792,"lon":5.37106,"is_reserved":false,"is_disabled":false,"rental_uris":{"android":"levelo://app?vid=47b0f6e1-af10-498f-8b48-d0ffc3d19505","ios":"levelo://app?vid=47b0f6e1-af10-498f-8b48-d0ffc3d19505"},"vehicle_type_id":"4","last_reported":1709409984,"current_range_meters":9600,"station_id":"ce4bgop2rcd13ifvqc1g","pricing_plan_id":"cebpf4jnsgd1na2vs0mg"},{"bike_id":"ae22aad5-4239-4ef0-9f60-31836194b742","system_id":"levelo_inurba_marseille","lat":43.2979,"lon":5.37096,"is_reserved":false,"is_disabled":false,"rental_uris":{"android":"levelo://app?vid=ae22aad5-4239-4ef0-9f60-31836194b742","ios":"levelo://app?vid=ae22aad5-4239-4ef0-9f60-31836194b742"},"vehicle_type_id":"4","last_reported":1709409984,"current_range_meters":23200,"station_id":"ce4bgop2rcd13ifvqc1g","pricing_plan_id":"cebpf4jnsgd1na2vs0mg"},{"bike_id":"4198883e-4f36-4795-af0e-d46db26ecc03","system_id":"levelo_inurba_marseille","lat":43.297774,"lon":5.370875,"is_reserved":false,"is_disabled":false,"rental_uris":{"android":"levelo://app?vid=4198883e-4f36-4795-af0e-d46db26ecc03","ios":"levelo://app?vid=4198883e-4f36-4795-af0e-d46db26ecc03"},"vehicle_type_id":"4","last_reported":1709409984,"current_range_meters":20000,"station_id":"ce4bgop2rcd13ifvqc1g","pricing_plan_id":"cebpf4jnsgd1na2vs0mg"},{"bike_id":"1718f450-a705-4ed9-9549-c2a2f7798902","system_id":"levelo_inurba_marseille","lat":43.29788,"lon":5.37104,"is_reserved":false,"is_disabled":false,"rental_uris":{"android":"levelo://app?vid=1718f450-a705-4ed9-9549-c2a2f7798902","ios":"levelo://app?vid=1718f450-a705-4ed9-9549-c2a2f7798902"},"vehicle_type_id":"4","last_reported":1709409984,"current_range_meters":6800,"station_id":"ce4bgop2rcd13ifvqc1g","pricing_plan_id":"cebpf4jnsgd1na2vs0mg"},{"bike_id":"12aecac4-5806-41f8-9e8c-6d8a957bcabb","system_id":"levelo_inurba_marseille","lat":43.297774,"lon":5.370875,"is_reserved":false,"is_disabled":false,"rental_uris":{"android":"levelo://app?vid=12aecac4-5806-41f8-9e8c-6d8a957bcabb","ios":"levelo://app?vid=12aecac4-5806-41f8-9e8c-6d8a957bcabb"},"vehicle_type_id":"4","last_reported":1709409984,"current_range_meters":23200,"station_id":"ce4bgop2rcd13ifvqc1g","pricing_plan_id":"cebpf4jnsgd1na2vs0mg"},{"bike_id":"a28ec675-7783-4533-bf97-0011a0cda1cf","system_id":"levelo_inurba_marseille","lat":43.297774,"lon":5.370875,"is_reserved":false,"is_disabled":false,"rental_uris":{"android":"levelo://app?vid=a28ec675-7783-4533-bf97-0011a0cda1cf","ios":"levelo://app?vid=a28ec675-7783-4533-bf97-0011a0cda1cf"},"vehicle_type_id":"4","last_reported":1709409984,"current_range_meters":31200,"station_id":"ce4bgop2rcd13ifvqc1g","pricing_plan_id":"cebpf4jnsgd1na2vs0mg"},{"bike_id":"fb6ef723-fea5-41b5-9ab4-7c43226c3ef6","system_id":"levelo_inurba_marseille","lat":43.297774,"lon":5.370875,"is_reserved":false,"is_disabled":false,"rental_uris":{"android":"levelo://app?vid=fb6ef723-fea5-41b5-9ab4-7c43226c3ef6","ios":"levelo://app?vid=fb6ef723-fea5-41b5-9ab4-7c43226c3ef6"},"vehicle_type_id":"4","last_reported":1709409984,"current_range_meters":25600,"station_id":"ce4bgop2rcd13ifvqc1g","pricing_plan_id":"cebpf4jnsgd1na2vs0mg"},{"bike_id":"4bdd01d9-79f8-400f-80b6-94773a8cca76","system_id":"levelo_inurba_marseille","lat":43.32283,"lon":5.38262,"is_reserved":false,"is_disabled":false,"rental_uris":{"android":"levelo://app?vid=4bdd01d9-79f8-400f-80b6-94773a8cca76","ios":"levelo://app?vid=4bdd01d9-79f8-400f-80b6-94773a8cca76"},"vehicle_type_id":"4","last_reported":1709409984,"current_range_meters":3200,"station_id":"ce4bhr12rcd13ifvqhqg","pricing_plan_id":"cebpf4jnsgd1na2vs0mg"},{"bike_id":"9a45d480-1f29-45de-9a7c-5cfa497fc728","system_id":"levelo_inurba_marseille","lat":43.322872,"lon":5.382756,"is_reserved":false,"is_disabled":false,"rental_uris":{"android":"levelo://app?vid=9a45d480-1f29-45de-9a7c-5cfa497fc728","ios":"levelo://app?vid=9a45d480-1f29-45de-9a7c-5cfa497fc728"},"vehicle_type_id":"4","last_reported":1709409984,"current_range_meters":19600,"station_id":"ce4bhr12rcd13ifvqhqg","pricing_plan_id":"cebpf4jnsgd1na2vs0mg"},{"bike_id":"b067c3a4-4678-4244-8e1f-c865a57533b1","system_id":"levelo_inurba_marseille","lat":43.322872,"lon":5.382756,"is_reserved":false,"is_disabled":false,"rental_uris":{"android":"levelo://app?vid=b067c3a4-4678-4244-8e1f-c865a57533b1","ios":"levelo://app?vid=b067c3a4-4678-4244-8e1f-c865a57533b1"},"vehicle_type_id":"4","last_reported":1709409984,"current_range_meters":16800,"station_id":"ce4bhr12rcd13ifvqhqg","pricing_plan_id":"cebpf4jnsgd1na2vs0mg"},{"bike_id":"853ca0f4-4a58-4b4b-ba07-6243e95e78d0","system_id":"levelo_inurba_marseille","lat":43.322872,"lon":5.382756,"is_reserved":false,"is_disabled":false,"rental_uris":{"android":"levelo://app?vid=853ca0f4-4a58-4b4b-ba07-6243e95e78d0","ios":"levelo://app?vid=853ca0f4-4a58-4b4b-ba07-6243e95e78d0"},"vehicle_type_id":"4","last_reported":1709409984,"current_range_meters":21600,"station_id":"ce4bhr12rcd13ifvqhqg","pricing_plan_id":"cebpf4jnsgd1na2vs0mg"},{"bike_id":"e10ef9ae-bb92-4ec1-9d02-570df8818bb4","system_id":"levelo_inurba_marseille","lat":43.322872,"lon":5.382756,"is_reserved":false,"is_disabled":false,"rental_uris":{"android":"levelo://app?vid=e10ef9ae-bb92-4ec1-9d02-570df8818bb4","ios":"levelo://app?vid=e10ef9ae-bb92-4ec1-9d02-570df8818bb4"},"vehicle_type_id":"4","last_reported":1709409984,"current_range_meters":24400,"station_id":"ce4bhr12rcd13ifvqhqg","pricing_plan_id":"cebpf4jnsgd1na2vs0mg"},{"bike_id":"a8f48a97-067d-4f0f-9307-27a36e33fa26","system_id":"levelo_inurba_marseille","lat":43.322872,"lon":5.382756,"is_reserved":false,"is_disabled":false,"rental_uris":{"android":"levelo://app?vid=a8f48a97-067d-4f0f-9307-27a36e33fa26","ios":"levelo://app?vid=a8f48a97-067d-4f0f-9307-27a36e33fa26"},"vehicle_type_id":"4","last_reported":1709409984,"current_range_meters":31600,"station_id":"ce4bhr12rcd13ifvqhqg","pricing_plan_id":"cebpf4jnsgd1na2vs0mg"},{"bike_id":"f9b6c946-0b87-469a-a114-8f70928df78b","system_id":"levelo_inurba_marseille","lat":43.322872,"lon":5.382756,"is_reserved":false,"is_disabled":false,"rental_uris":{"android":"levelo://app?vid=f9b6c946-0b87-469a-a114-8f70928df78b","ios":"levelo://app?vid=f9b6c946-0b87-469a-a114-8f70928df78b"},"vehicle_type_id":"4","last_reported":1709409984,"current_range_meters":28000,"station_id":"ce4bhr12rcd13ifvqhqg","pricing_plan_id":"cebpf4jnsgd1na2vs0mg"},{"bike_id":"a2727efe-358d-46fc-a0be-37017cc741d1","system_id":"levelo_inurba_marseille","lat":43.322872,"lon":5.382756,"is_reserved":false,"is_disabled":false,"rental_uris":{"android":"levelo://app?vid=a2727efe-358d-46fc-a0be-37017cc741d1","ios":"levelo://app?vid=a2727efe-358d-46fc-a0be-37017cc741d1"},"vehicle_type_id":"4","last_reported":1709409984,"current_range_meters":30000,"station_id":"ce4bhr12rcd13ifvqhqg","pricing_plan_id":"cebpf4jnsgd1na2vs0mg"},{"bike_id":"9707b068-dfa4-4c09-a592-cbd80e1e3158","system_id":"levelo_inurba_marseille","lat":43.322872,"lon":5.382756,"is_reserved":false,"is_disabled":false,"rental_uris":{"android":"levelo://app?vid=9707b068-dfa4-4c09-a592-cbd80e1e3158","ios":"levelo://app?vid=9707b068-dfa4-4c09-a592-cbd80e1e3158"},"vehicle_type_id":"4","last_reported":1709409984,"current_range_meters":31200,"station_id":"ce4bhr12rcd13ifvqhqg","pricing_plan_id":"cebpf4jnsgd1na2vs0mg"},{"bike_id":"5241f851-e668-420d-9cc9-699a403a2513","system_id":"levelo_inurba_marseille","lat":43.322872,"lon":5.382756,"is_reserved":false,"is_disabled":false,"rental_uris":{"android":"levelo://app?vid=5241f851-e668-420d-9cc9-699a403a2513","ios":"levelo://app?vid=5241f851-e668-420d-9cc9-699a403a2513"},"vehicle_type_id":"4","last_reported":1709409984,"current_range_meters":25200,"station_id":"ce4bhr12rcd13ifvqhqg","pricing_plan_id":"cebpf4jnsgd1na2vs0mg"},{"bike_id":"9ec51e3c-44c6-46eb-b270-e394216ae1f2","system_id":"levelo_inurba_marseille","lat":43.322872,"lon":5.382756,"is_reserved":false,"is_disabled":false,"rental_uris":{"android":"levelo://app?vid=9ec51e3c-44c6-46eb-b270-e394216ae1f2","ios":"levelo://app?vid=9ec51e3c-44c6-46eb-b270-e394216ae1f2"},"vehicle_type_id":"4","last_reported":1709409984,"current_range_meters":8000,"station_id":"ce4bhr12rcd13ifvqhqg","pricing_plan_id":"cebpf4jnsgd1na2vs0mg"},{"bike_id":"a752968a-1148-4b7b-9e7d-a758e8431cb4","system_id":"levelo_inurba_marseille","lat":43.322872,"lon":5.382756,"is_reserved":false,"is_disabled":false,"rental_uris":{"android":"levelo://app?vid=a752968a-1148-4b7b-9e7d-a758e8431cb4","ios":"levelo://app?vid=a752968a-1148-4b7b-9e7d-a758e8431cb4"},"vehicle_type_id":"4","last_reported":1709409984,"current_range_meters":31200,"station_id":"ce4bhr12rcd13ifvqhqg","pricing_plan_id":"cebpf4jnsgd1na2vs0mg"},{"bike_id":"56cef155-9f9a-44f4-a85e-85b6b370068f","system_id":"levelo_inurba_marseille","lat":43.2968,"lon":5.37291,"is_reserved":false,"is_disabled":false,"rental_uris":{"android":"levelo://app?vid=56cef155-9f9a-44f4-a85e-85b6b370068f","ios":"levelo://app?vid=56cef155-9f9a-44f4-a85e-85b6b370068f"},"vehicle_type_id":"4","last_reported":1709409984,"current_range_meters":6000,"station_id":"ce4bgk12rcd13ifvqbj0","pricing_plan_id":"cebpf4jnsgd1na2vs0mg"},{"bike_id":"187ea9a5-2f26-4380-b817-5c905633bc72","system_id":"levelo_inurba_marseille","lat":43.296131,"lon":5.370773,"is_reserved":false,"is_disabled":false,"rental_uris":{"android":"levelo://app?vid=187ea9a5-2f26-4380-b817-5c905633bc72","ios":"levelo://app?vid=187ea9a5-2f26-4380-b817-5c905633bc72"},"vehicle_type_id":"4","last_reported":1709409984,"current_range_meters":24400,"station_id":"ce4bgnh2rcd13ifvqc0g","pricing_plan_id":"cebpf4jnsgd1na2vs0mg"},{"bike_id":"c1befb4a-96ce-47f1-b1d2-2f4243d854af","system_id":"levelo_inurba_marseille","lat":43.296129,"lon":5.370777,"is_reserved":false,"is_disabled":false,"rental_uris":{"android":"levelo://app?vid=c1befb4a-96ce-47f1-b1d2-2f4243d854af","ios":"levelo://app?vid=c1befb4a-96ce-47f1-b1d2-2f4243d854af"},"vehicle_type_id":"4","last_reported":1709409984,"current_range_meters":31200,"station_id":"ce4bgnh2rcd13ifvqc0g","pricing_plan_id":"cebpf4jnsgd1na2vs0mg"},{"bike_id":"925b1241-185e-4cf8-b3e5-ae291d4d8e20","system_id":"levelo_inurba_marseille","lat":43.29621,"lon":5.37147,"is_reserved":false,"is_disabled":false,"rental_uris":{"android":"levelo://app?vid=925b1241-185e-4cf8-b3e5-ae291d4d8e20","ios":"levelo://app?vid=925b1241-185e-4cf8-b3e5-ae291d4d8e20"},"vehicle_type_id":"4","last_reported":1709409984,"current_range_meters":28800,"station_id":"ce4bgnh2rcd13ifvqc0g","pricing_plan_id":"cebpf4jnsgd1na2vs0mg"},{"bike_id":"85297c77-35c2-4082-8843-09559f72fcf6","system_id":"levelo_inurba_marseille","lat":43.29573,"lon":5.367355,"is_reserved":false,"is_disabled":false,"rental_uris":{"android":"levelo://app?vid=85297c77-35c2-4082-8843-09559f72fcf6","ios":"levelo://app?vid=85297c77-35c2-4082-8843-09559f72fcf6"},"vehicle_type_id":"4","last_reported":1709409984,"current_range_meters":18800,"station_id":"ce4bgph2rcd13ifvqc2g","pricing_plan_id":"cebpf4jnsgd1na2vs0mg"},{"bike_id":"f0bc6101-35f9-4463-9b02-a0c08a55cd14","system_id":"levelo_inurba_marseille","lat":43.29573,"lon":5.367355,"is_reserved":false,"is_disabled":false,"rental_uris":{"android":"levelo://app?vid=f0bc6101-35f9-4463-9b02-a0c08a55cd14","ios":"levelo://app?vid=f0bc6101-35f9-4463-9b02-a0c08a55cd14"},"vehicle_type_id":"4","last_reported":1709409984,"current_range_meters":26400,"station_id":"ce4bgph2rcd13ifvqc2g","pricing_plan_id":"cebpf4jnsgd1na2vs0mg"},{"bike_id":"4fc9db65-a482-41b6-958b-77be1179fd27","system_id":"levelo_inurba_marseille","lat":43.299028,"lon":5.381509,"is_reserved":false,"is_disabled":false,"rental_uris":{"android":"levelo://app?vid=4fc9db65-a482-41b6-958b-77be1179fd27","ios":"levelo://app?vid=4fc9db65-a482-41b6-958b-77be1179fd27"},"vehicle_type_id":"4","last_reported":1709409984,"current_range_meters":6800,"station_id":"ce4bgj12rcd13ifvqbc0","pricing_plan_id":"cebpf4jnsgd1na2vs0mg"},{"bike_id":"07e10d2c-2376-4bb3-9e76-9508439167e2","system_id":"levelo_inurba_marseille","lat":43.299028,"lon":5.381509,"is_reserved":false,"is_disabled":false,"rental_uris":{"android":"levelo://app?vid=07e10d2c-2376-4bb3-9e76-9508439167e2","ios":"levelo://app?vid=07e10d2c-2376-4bb3-9e76-9508439167e2"},"vehicle_type_id":"4","last_reported":1709409984,"current_range_meters":24400,"station_id":"ce4bgj12rcd13ifvqbc0","pricing_plan_id":"cebpf4jnsgd1na2vs0mg"},{"bike_id":"59adb3a3-b0cf-4147-8471-b523e41ed210","system_id":"levelo_inurba_marseille","lat":43.299028,"lon":5.381509,"is_reserved":false,"is_disabled":false,"rental_uris":{"android":"levelo://app?vid=59adb3a3-b0cf-4147-8471-b523e41ed210","ios":"levelo://app?vid=59adb3a3-b0cf-4147-8471-b523e41ed210"},"vehicle_type_id":"4","last_reported":1709409984,"current_range_meters":23200,"station_id":"ce4bgj12rcd13ifvqbc0","pricing_plan_id":"cebpf4jnsgd1na2vs0mg"},{"bike_id":"6dd4360e-8707-42e3-8865-5edb80c7a35c","system_id":"levelo_inurba_marseille","lat":43.299028,"lon":5.381509,"is_reserved":false,"is_disabled":false,"rental_uris":{"android":"levelo://app?vid=6dd4360e-8707-42e3-8865-5edb80c7a35c","ios":"levelo://app?vid=6dd4360e-8707-42e3-8865-5edb80c7a35c"},"vehicle_type_id":"4","last_reported":1709409984,"current_range_meters":31200,"station_id":"ce4bgj12rcd13ifvqbc0","pricing_plan_id":"cebpf4jnsgd1na2vs0mg"},{"bike_id":"fbbe7309-9752-4b96-a381-aa476ac63499","system_id":"levelo_inurba_marseille","lat":43.299028,"lon":5.381509,"is_reserved":false,"is_disabled":false,"rental_uris":{"android":"levelo://app?vid=fbbe7309-9752-4b96-a381-aa476ac63499","ios":"levelo://app?vid=fbbe7309-9752-4b96-a381-aa476ac63499"},"vehicle_type_id":"4","last_reported":1709409984,"current_range_meters":20800,"station_id":"ce4bgj12rcd13ifvqbc0","pricing_plan_id":"cebpf4jnsgd1na2vs0mg"},{"bike_id":"362ad9a7-559b-4acb-ae33-6ded3ad4e3e7","system_id":"levelo_inurba_marseille","lat":43.299028,"lon":5.381509,"is_reserved":false,"is_disabled":false,"rental_uris":{"android":"levelo://app?vid=362ad9a7-559b-4acb-ae33-6ded3ad4e3e7","ios":"levelo://app?vid=362ad9a7-559b-4acb-ae33-6ded3ad4e3e7"},"vehicle_type_id":"4","last_reported":1709409984,"current_range_meters":17200,"station_id":"ce4bgj12rcd13ifvqbc0","pricing_plan_id":"cebpf4jnsgd1na2vs0mg"},{"bike_id":"6d6349fe-072d-40f3-a4e1-b410e562df74","system_id":"levelo_inurba_marseille","lat":43.299028,"lon":5.381509,"is_reserved":false,"is_disabled":false,"rental_uris":{"android":"levelo://app?vid=6d6349fe-072d-40f3-a4e1-b410e562df74","ios":"levelo://app?vid=6d6349fe-072d-40f3-a4e1-b410e562df74"},"vehicle_type_id":"4","last_reported":1709409984,"current_range_meters":26800,"station_id":"ce4bgj12rcd13ifvqbc0","pricing_plan_id":"cebpf4jnsgd1na2vs0mg"},{"bike_id":"64f076c2-b6b2-46c4-b2c6-ff0694ea58c0","system_id":"levelo_inurba_marseille","lat":43.299028,"lon":5.381509,"is_reserved":false,"is_disabled":false,"rental_uris":{"android":"levelo://app?vid=64f076c2-b6b2-46c4-b2c6-ff0694ea58c0","ios":"levelo://app?vid=64f076c2-b6b2-46c4-b2c6-ff0694ea58c0"},"vehicle_type_id":"4","last_reported":1709409984,"current_range_meters":14000,"station_id":"ce4bgj12rcd13ifvqbc0","pricing_plan_id":"cebpf4jnsgd1na2vs0mg"},{"bike_id":"73c77873-d8f9-4310-9502-0d5d15910a2b","system_id":"levelo_inurba_marseille","lat":43.309589,"lon":5.390258,"is_reserved":false,"is_disabled":false,"rental_uris":{"android":"levelo://app?vid=73c77873-d8f9-4310-9502-0d5d15910a2b","ios":"levelo://app?vid=73c77873-d8f9-4310-9502-0d5d15910a2b"},"vehicle_type_id":"4","last_reported":1709409984,"current_range_meters":30000,"station_id":"ce4bgup2rcd13ifvqco0","pricing_plan_id":"cebpf4jnsgd1na2vs0mg"},{"bike_id":"bd3a599e-9f74-477d-97cf-cff9d893e5e9","system_id":"levelo_inurba_marseille","lat":43.30954,"lon":5.39032,"is_reserved":false,"is_disabled":false,"rental_uris":{"android":"levelo://app?vid=bd3a599e-9f74-477d-97cf-cff9d893e5e9","ios":"levelo://app?vid=bd3a599e-9f74-477d-97cf-cff9d893e5e9"},"vehicle_type_id":"4","last_reported":1709409984,"current_range_meters":2400,"station_id":"ce4bgup2rcd13ifvqco0","pricing_plan_id":"cebpf4jnsgd1na2vs0mg"},{"bike_id":"33d59d79-43f3-40be-8c3f-e45037a4c8d5","system_id":"levelo_inurba_marseille","lat":43.30951,"lon":5.39033,"is_reserved":false,"is_disabled":false,"rental_uris":{"android":"levelo://app?vid=33d59d79-43f3-40be-8c3f-e45037a4c8d5","ios":"levelo://app?vid=33d59d79-43f3-40be-8c3f-e45037a4c8d5"},"vehicle_type_id":"4","last_reported":1709409984,"current_range_meters":27600,"station_id":"ce4bgup2rcd13ifvqco0","pricing_plan_id":"cebpf4jnsgd1na2vs0mg"},{"bike_id":"970a810f-b950-46d4-8a83-534d5f0afc06","system_id":"levelo_inurba_marseille","lat":43.299028,"lon":5.381509,"is_reserved":false,"is_disabled":false,"rental_uris":{"android":"levelo://app?vid=970a810f-b950-46d4-8a83-534d5f0afc06","ios":"levelo://app?vid=970a810f-b950-46d4-8a83-534d5f0afc06"},"vehicle_type_id":"4","last_reported":1709409984,"current_range_meters":29600,"station_id":"ce4bgj12rcd13ifvqbc0","pricing_plan_id":"cebpf4jnsgd1na2vs0mg"},{"bike_id":"b2f15adf-b69d-4062-a324-a16edeba62df","system_id":"levelo_inurba_marseille","lat":43.309589,"lon":5.390258,"is_reserved":false,"is_disabled":false,"rental_uris":{"android":"levelo://app?vid=b2f15adf-b69d-4062-a324-a16edeba62df","ios":"levelo://app?vid=b2f15adf-b69d-4062-a324-a16edeba62df"},"vehicle_type_id":"4","last_reported":1709409984,"current_range_meters":26800,"station_id":"ce4bgup2rcd13ifvqco0","pricing_plan_id":"cebpf4jnsgd1na2vs0mg"},{"bike_id":"23fb5c8f-ad9d-43cc-b717-071c788ea0c2","system_id":"levelo_inurba_marseille","lat":43.30948,"lon":5.390333,"is_reserved":false,"is_disabled":false,"rental_uris":{"android":"levelo://app?vid=23fb5c8f-ad9d-43cc-b717-071c788ea0c2","ios":"levelo://app?vid=23fb5c8f-ad9d-43cc-b717-071c788ea0c2"},"vehicle_type_id":"4","last_reported":1709409984,"current_range_meters":5600,"station_id":"ce4bgup2rcd13ifvqco0","pricing_plan_id":"cebpf4jnsgd1na2vs0mg"},{"bike_id":"75573cf5-cf61-4189-bca6-8ed0be712919","system_id":"levelo_inurba_marseille","lat":43.30953,"lon":5.39035,"is_reserved":false,"is_disabled":false,"rental_uris":{"android":"levelo://app?vid=75573cf5-cf61-4189-bca6-8ed0be712919","ios":"levelo://app?vid=75573cf5-cf61-4189-bca6-8ed0be712919"},"vehicle_type_id":"4","last_reported":1709409984,"current_range_meters":4000,"station_id":"ce4bgup2rcd13ifvqco0","pricing_plan_id":"cebpf4jnsgd1na2vs0mg"},{"bike_id":"dce1fc91-e6e1-4b9d-a0f2-eadf61a872a7","system_id":"levelo_inurba_marseille","lat":43.30956,"lon":5.39038,"is_reserved":false,"is_disabled":false,"rental_uris":{"android":"levelo://app?vid=dce1fc91-e6e1-4b9d-a0f2-eadf61a872a7","ios":"levelo://app?vid=dce1fc91-e6e1-4b9d-a0f2-eadf61a872a7"},"vehicle_type_id":"4","last_reported":1709409984,"current_range_meters":13200,"station_id":"ce4bgup2rcd13ifvqco0","pricing_plan_id":"cebpf4jnsgd1na2vs0mg"},{"bike_id":"989af887-3e45-47cb-bca4-39841c74cbd9","system_id":"levelo_inurba_marseille","lat":43.309538,"lon":5.390384,"is_reserved":false,"is_disabled":false,"rental_uris":{"android":"levelo://app?vid=989af887-3e45-47cb-bca4-39841c74cbd9","ios":"levelo://app?vid=989af887-3e45-47cb-bca4-39841c74cbd9"},"vehicle_type_id":"4","last_reported":1709409984,"current_range_meters":8000,"station_id":"ce4bgup2rcd13ifvqco0","pricing_plan_id":"cebpf4jnsgd1na2vs0mg"},{"bike_id":"44a6f286-b39d-4345-a568-45ec4fb602a5","system_id":"levelo_inurba_marseille","lat":43.30954,"lon":5.3904,"is_reserved":false,"is_disabled":false,"rental_uris":{"android":"levelo://app?vid=44a6f286-b39d-4345-a568-45ec4fb602a5","ios":"levelo://app?vid=44a6f286-b39d-4345-a568-45ec4fb602a5"},"vehicle_type_id":"4","last_reported":1709409984,"current_range_meters":1200,"station_id":"ce4bgup2rcd13ifvqco0","pricing_plan_id":"cebpf4jnsgd1na2vs0mg"},{"bike_id":"d8d4a9f7-9686-44a2-9968-c0a1f19e4397","system_id":"levelo_inurba_marseille","lat":43.309538,"lon":5.390413,"is_reserved":false,"is_disabled":false,"rental_uris":{"android":"levelo://app?vid=d8d4a9f7-9686-44a2-9968-c0a1f19e4397","ios":"levelo://app?vid=d8d4a9f7-9686-44a2-9968-c0a1f19e4397"},"vehicle_type_id":"4","last_reported":1709409984,"current_range_meters":18000,"station_id":"ce4bgup2rcd13ifvqco0","pricing_plan_id":"cebpf4jnsgd1na2vs0mg"},{"bike_id":"8b38b19c-8bc5-4bc5-b325-1d43718800d4","system_id":"levelo_inurba_marseille","lat":43.30951,"lon":5.39041,"is_reserved":false,"is_disabled":false,"rental_uris":{"android":"levelo://app?vid=8b38b19c-8bc5-4bc5-b325-1d43718800d4","ios":"levelo://app?vid=8b38b19c-8bc5-4bc5-b325-1d43718800d4"},"vehicle_type_id":"4","last_reported":1709409984,"current_range_meters":24400,"station_id":"ce4bgup2rcd13ifvqco0","pricing_plan_id":"cebpf4jnsgd1na2vs0mg"},{"bike_id":"0eccd796-5bd5-40a2-9f70-d69c767f0551","system_id":"levelo_inurba_marseille","lat":43.309589,"lon":5.390258,"is_reserved":false,"is_disabled":false,"rental_uris":{"android":"levelo://app?vid=0eccd796-5bd5-40a2-9f70-d69c767f0551","ios":"levelo://app?vid=0eccd796-5bd5-40a2-9f70-d69c767f0551"},"vehicle_type_id":"4","last_reported":1709409984,"current_range_meters":21600,"station_id":"ce4bgup2rcd13ifvqco0","pricing_plan_id":"cebpf4jnsgd1na2vs0mg"},{"bike_id":"792bae2c-31b9-40b5-af47-da259144cbf1","system_id":"levelo_inurba_marseille","lat":43.31757,"lon":5.39014,"is_reserved":false,"is_disabled":false,"rental_uris":{"android":"levelo://app?vid=792bae2c-31b9-40b5-af47-da259144cbf1","ios":"levelo://app?vid=792bae2c-31b9-40b5-af47-da259144cbf1"},"vehicle_type_id":"4","last_reported":1709409984,"current_range_meters":24800,"station_id":"ce4bhqp2rcd13ifvqhng","pricing_plan_id":"cebpf4jnsgd1na2vs0mg"},{"bike_id":"a7b41f66-00d0-41c0-891d-17f2d936c020","system_id":"levelo_inurba_marseille","lat":43.317557,"lon":5.390173,"is_reserved":false,"is_disabled":false,"rental_uris":{"android":"levelo://app?vid=a7b41f66-00d0-41c0-891d-17f2d936c020","ios":"levelo://app?vid=a7b41f66-00d0-41c0-891d-17f2d936c020"},"vehicle_type_id":"4","last_reported":1709409984,"current_range_meters":21600,"station_id":"ce4bhqp2rcd13ifvqhng","pricing_plan_id":"cebpf4jnsgd1na2vs0mg"},{"bike_id":"645d0e8e-5e72-411e-af6f-675d468ac449","system_id":"levelo_inurba_marseille","lat":43.317557,"lon":5.390173,"is_reserved":false,"is_disabled":false,"rental_uris":{"android":"levelo://app?vid=645d0e8e-5e72-411e-af6f-675d468ac449","ios":"levelo://app?vid=645d0e8e-5e72-411e-af6f-675d468ac449"},"vehicle_type_id":"4","last_reported":1709409984,"current_range_meters":0,"station_id":"ce4bhqp2rcd13ifvqhng","pricing_plan_id":"cebpf4jnsgd1na2vs0mg"},{"bike_id":"6525cfdd-d50f-41f0-945e-463e9b52d34f","system_id":"levelo_inurba_marseille","lat":43.300286,"lon":5.384057,"is_reserved":false,"is_disabled":false,"rental_uris":{"android":"levelo://app?vid=6525cfdd-d50f-41f0-945e-463e9b52d34f","ios":"levelo://app?vid=6525cfdd-d50f-41f0-945e-463e9b52d34f"},"vehicle_type_id":"4","last_reported":1709409984,"current_range_meters":17600,"station_id":"","pricing_plan_id":"cebpf4jnsgd1na2vs0mg"},{"bike_id":"68f7b45e-d765-469f-a571-01b1233d4720","system_id":"levelo_inurba_marseille","lat":43.298037,"lon":5.381066,"is_reserved":false,"is_disabled":false,"rental_uris":{"android":"levelo://app?vid=68f7b45e-d765-469f-a571-01b1233d4720","ios":"levelo://app?vid=68f7b45e-d765-469f-a571-01b1233d4720"},"vehicle_type_id":"4","last_reported":1709409984,"current_range_meters":28800,"station_id":"ce4bgip2rcd13ifvqbb0","pricing_plan_id":"cebpf4jnsgd1na2vs0mg"},{"bike_id":"673e83fa-0bba-4349-90d6-cbde40c99d22","system_id":"levelo_inurba_marseille","lat":43.298037,"lon":5.381066,"is_reserved":false,"is_disabled":false,"rental_uris":{"android":"levelo://app?vid=673e83fa-0bba-4349-90d6-cbde40c99d22","ios":"levelo://app?vid=673e83fa-0bba-4349-90d6-cbde40c99d22"},"vehicle_type_id":"4","last_reported":1709409984,"current_range_meters":24000,"station_id":"ce4bgip2rcd13ifvqbb0","pricing_plan_id":"cebpf4jnsgd1na2vs0mg"},{"bike_id":"f0d052bb-3a7f-4eb4-b1ab-2595b6ffd7c2","system_id":"levelo_inurba_marseille","lat":43.298037,"lon":5.381066,"is_reserved":false,"is_disabled":false,"rental_uris":{"android":"levelo://app?vid=f0d052bb-3a7f-4eb4-b1ab-2595b6ffd7c2","ios":"levelo://app?vid=f0d052bb-3a7f-4eb4-b1ab-2595b6ffd7c2"},"vehicle_type_id":"4","last_reported":1709409984,"current_range_meters":14400,"station_id":"ce4bgip2rcd13ifvqbb0","pricing_plan_id":"cebpf4jnsgd1na2vs0mg"},{"bike_id":"89b6e96f-aec7-49b1-91e5-083e7de27a65","system_id":"levelo_inurba_marseille","lat":43.295748,"lon":5.37522,"is_reserved":false,"is_disabled":false,"rental_uris":{"android":"levelo://app?vid=89b6e96f-aec7-49b1-91e5-083e7de27a65","ios":"levelo://app?vid=89b6e96f-aec7-49b1-91e5-083e7de27a65"},"vehicle_type_id":"4","last_reported":1709409984,"current_range_meters":18400,"station_id":"ce4bgh92rcd13ifvqb50","pricing_plan_id":"cebpf4jnsgd1na2vs0mg"},{"bike_id":"09f12163-c632-4388-ab90-ec5cc6e92e4f","system_id":"levelo_inurba_marseille","lat":43.298037,"lon":5.381066,"is_reserved":false,"is_disabled":false,"rental_uris":{"android":"levelo://app?vid=09f12163-c632-4388-ab90-ec5cc6e92e4f","ios":"levelo://app?vid=09f12163-c632-4388-ab90-ec5cc6e92e4f"},"vehicle_type_id":"4","last_reported":1709409984,"current_range_meters":17600,"station_id":"ce4bgip2rcd13ifvqbb0","pricing_plan_id":"cebpf4jnsgd1na2vs0mg"},{"bike_id":"2aa0f956-5a11-43c0-a2ee-932f12265c9d","system_id":"levelo_inurba_marseille","lat":43.295748,"lon":5.37522,"is_reserved":false,"is_disabled":false,"rental_uris":{"android":"levelo://app?vid=2aa0f956-5a11-43c0-a2ee-932f12265c9d","ios":"levelo://app?vid=2aa0f956-5a11-43c0-a2ee-932f12265c9d"},"vehicle_type_id":"4","last_reported":1709409984,"current_range_meters":29600,"station_id":"ce4bgh92rcd13ifvqb50","pricing_plan_id":"cebpf4jnsgd1na2vs0mg"},{"bike_id":"076c538f-07dc-4366-99e8-1249a83e3446","system_id":"levelo_inurba_marseille","lat":43.295748,"lon":5.37522,"is_reserved":false,"is_disabled":false,"rental_uris":{"android":"levelo://app?vid=076c538f-07dc-4366-99e8-1249a83e3446","ios":"levelo://app?vid=076c538f-07dc-4366-99e8-1249a83e3446"},"vehicle_type_id":"4","last_reported":1709409984,"current_range_meters":18000,"station_id":"ce4bgh92rcd13ifvqb50","pricing_plan_id":"cebpf4jnsgd1na2vs0mg"},{"bike_id":"2e2bdbee-bc63-4290-b515-3dc313cfbd91","system_id":"levelo_inurba_marseille","lat":43.295748,"lon":5.37522,"is_reserved":false,"is_disabled":false,"rental_uris":{"android":"levelo://app?vid=2e2bdbee-bc63-4290-b515-3dc313cfbd91","ios":"levelo://app?vid=2e2bdbee-bc63-4290-b515-3dc313cfbd91"},"vehicle_type_id":"4","last_reported":1709409984,"current_range_meters":12000,"station_id":"ce4bgh92rcd13ifvqb50","pricing_plan_id":"cebpf4jnsgd1na2vs0mg"},{"bike_id":"fee431ae-e64b-4635-8e36-283d6da6d55e","system_id":"levelo_inurba_marseille","lat":43.295748,"lon":5.37522,"is_reserved":false,"is_disabled":false,"rental_uris":{"android":"levelo://app?vid=fee431ae-e64b-4635-8e36-283d6da6d55e","ios":"levelo://app?vid=fee431ae-e64b-4635-8e36-283d6da6d55e"},"vehicle_type_id":"4","last_reported":1709409984,"current_range_meters":22000,"station_id":"ce4bgh92rcd13ifvqb50","pricing_plan_id":"cebpf4jnsgd1na2vs0mg"},{"bike_id":"17a0d452-e283-4889-8eb5-12383d673b52","system_id":"levelo_inurba_marseille","lat":43.295748,"lon":5.37522,"is_reserved":false,"is_disabled":false,"rental_uris":{"android":"levelo://app?vid=17a0d452-e283-4889-8eb5-12383d673b52","ios":"levelo://app?vid=17a0d452-e283-4889-8eb5-12383d673b52"},"vehicle_type_id":"4","last_reported":1709409984,"current_range_meters":29200,"station_id":"ce4bgh92rcd13ifvqb50","pricing_plan_id":"cebpf4jnsgd1na2vs0mg"},{"bike_id":"64a24217-3620-4c3b-9863-6c9fba71043d","system_id":"levelo_inurba_marseille","lat":43.298037,"lon":5.381066,"is_reserved":false,"is_disabled":false,"rental_uris":{"android":"levelo://app?vid=64a24217-3620-4c3b-9863-6c9fba71043d","ios":"levelo://app?vid=64a24217-3620-4c3b-9863-6c9fba71043d"},"vehicle_type_id":"4","last_reported":1709409984,"current_range_meters":25200,"station_id":"ce4bgip2rcd13ifvqbb0","pricing_plan_id":"cebpf4jnsgd1na2vs0mg"},{"bike_id":"ec05374b-2076-4175-9025-1b1b80a95d13","system_id":"levelo_inurba_marseille","lat":43.296277,"lon":5.377108,"is_reserved":false,"is_disabled":false,"rental_uris":{"android":"levelo://app?vid=ec05374b-2076-4175-9025-1b1b80a95d13","ios":"levelo://app?vid=ec05374b-2076-4175-9025-1b1b80a95d13"},"vehicle_type_id":"4","last_reported":1709409984,"current_range_meters":3200,"station_id":"ce4bgi92rcd13ifvqb90","pricing_plan_id":"cebpf4jnsgd1na2vs0mg"},{"bike_id":"4430104d-a1fa-4f98-a5ad-62aede2c1f7b","system_id":"levelo_inurba_marseille","lat":43.295748,"lon":5.37522,"is_reserved":false,"is_disabled":false,"rental_uris":{"android":"levelo://app?vid=4430104d-a1fa-4f98-a5ad-62aede2c1f7b","ios":"levelo://app?vid=4430104d-a1fa-4f98-a5ad-62aede2c1f7b"},"vehicle_type_id":"4","last_reported":1709409984,"current_range_meters":27600,"station_id":"ce4bgh92rcd13ifvqb50","pricing_plan_id":"cebpf4jnsgd1na2vs0mg"},{"bike_id":"85ba465f-ba09-41ff-af38-258e3944db1c","system_id":"levelo_inurba_marseille","lat":43.296277,"lon":5.377108,"is_reserved":false,"is_disabled":false,"rental_uris":{"android":"levelo://app?vid=85ba465f-ba09-41ff-af38-258e3944db1c","ios":"levelo://app?vid=85ba465f-ba09-41ff-af38-258e3944db1c"},"vehicle_type_id":"4","last_reported":1709409984,"current_range_meters":23600,"station_id":"ce4bgi92rcd13ifvqb90","pricing_plan_id":"cebpf4jnsgd1na2vs0mg"},{"bike_id":"c36800ac-98f5-4905-af12-2448e10a531f","system_id":"levelo_inurba_marseille","lat":43.295748,"lon":5.37522,"is_reserved":false,"is_disabled":false,"rental_uris":{"android":"levelo://app?vid=c36800ac-98f5-4905-af12-2448e10a531f","ios":"levelo://app?vid=c36800ac-98f5-4905-af12-2448e10a531f"},"vehicle_type_id":"4","last_reported":1709409984,"current_range_meters":5200,"station_id":"ce4bgh92rcd13ifvqb50","pricing_plan_id":"cebpf4jnsgd1na2vs0mg"},{"bike_id":"632f267a-dcaf-4751-b54e-87cf5e3a884a","system_id":"levelo_inurba_marseille","lat":43.296277,"lon":5.377108,"is_reserved":false,"is_disabled":false,"rental_uris":{"android":"levelo://app?vid=632f267a-dcaf-4751-b54e-87cf5e3a884a","ios":"levelo://app?vid=632f267a-dcaf-4751-b54e-87cf5e3a884a"},"vehicle_type_id":"4","last_reported":1709409984,"current_range_meters":9600,"station_id":"ce4bgi92rcd13ifvqb90","pricing_plan_id":"cebpf4jnsgd1na2vs0mg"},{"bike_id":"3e15fc45-f14e-4cb9-80eb-88654d0824e2","system_id":"levelo_inurba_marseille","lat":43.29627,"lon":5.37718,"is_reserved":false,"is_disabled":false,"rental_uris":{"android":"levelo://app?vid=3e15fc45-f14e-4cb9-80eb-88654d0824e2","ios":"levelo://app?vid=3e15fc45-f14e-4cb9-80eb-88654d0824e2"},"vehicle_type_id":"4","last_reported":1709409984,"current_range_meters":6800,"station_id":"ce4bgi92rcd13ifvqb90","pricing_plan_id":"cebpf4jnsgd1na2vs0mg"},{"bike_id":"f6ecbe9c-259f-480e-8cf3-50f06c5d5497","system_id":"levelo_inurba_marseille","lat":43.29626,"lon":5.37715,"is_reserved":false,"is_disabled":false,"rental_uris":{"android":"levelo://app?vid=f6ecbe9c-259f-480e-8cf3-50f06c5d5497","ios":"levelo://app?vid=f6ecbe9c-259f-480e-8cf3-50f06c5d5497"},"vehicle_type_id":"4","last_reported":1709409984,"current_range_meters":25200,"station_id":"ce4bgi92rcd13ifvqb90","pricing_plan_id":"cebpf4jnsgd1na2vs0mg"},{"bike_id":"cf1366bc-4308-4812-8c97-862cc6743b86","system_id":"levelo_inurba_marseille","lat":43.29625,"lon":5.37714,"is_reserved":false,"is_disabled":false,"rental_uris":{"android":"levelo://app?vid=cf1366bc-4308-4812-8c97-862cc6743b86","ios":"levelo://app?vid=cf1366bc-4308-4812-8c97-862cc6743b86"},"vehicle_type_id":"4","last_reported":1709409984,"current_range_meters":4800,"station_id":"ce4bgi92rcd13ifvqb90","pricing_plan_id":"cebpf4jnsgd1na2vs0mg"},{"bike_id":"9a57816b-0f87-4883-abd3-bc743c1c4d8b","system_id":"levelo_inurba_marseille","lat":43.295748,"lon":5.37522,"is_reserved":false,"is_disabled":false,"rental_uris":{"android":"levelo://app?vid=9a57816b-0f87-4883-abd3-bc743c1c4d8b","ios":"levelo://app?vid=9a57816b-0f87-4883-abd3-bc743c1c4d8b"},"vehicle_type_id":"4","last_reported":1709409984,"current_range_meters":17200,"station_id":"ce4bgh92rcd13ifvqb50","pricing_plan_id":"cebpf4jnsgd1na2vs0mg"},{"bike_id":"e1db8b50-e05a-4574-be28-7f82d91c7b05","system_id":"levelo_inurba_marseille","lat":43.295748,"lon":5.37522,"is_reserved":false,"is_disabled":false,"rental_uris":{"android":"levelo://app?vid=e1db8b50-e05a-4574-be28-7f82d91c7b05","ios":"levelo://app?vid=e1db8b50-e05a-4574-be28-7f82d91c7b05"},"vehicle_type_id":"4","last_reported":1709409984,"current_range_meters":27200,"station_id":"ce4bgh92rcd13ifvqb50","pricing_plan_id":"cebpf4jnsgd1na2vs0mg"},{"bike_id":"d7a4f4bd-8753-4520-bf8a-eaa34dc1cbe6","system_id":"levelo_inurba_marseille","lat":43.29623,"lon":5.377187,"is_reserved":false,"is_disabled":false,"rental_uris":{"android":"levelo://app?vid=d7a4f4bd-8753-4520-bf8a-eaa34dc1cbe6","ios":"levelo://app?vid=d7a4f4bd-8753-4520-bf8a-eaa34dc1cbe6"},"vehicle_type_id":"4","last_reported":1709409984,"current_range_meters":10400,"station_id":"ce4bgi92rcd13ifvqb90","pricing_plan_id":"cebpf4jnsgd1na2vs0mg"},{"bike_id":"d427e485-a5e1-4db1-8faf-5ef116497ba1","system_id":"levelo_inurba_marseille","lat":43.30434,"lon":5.388991,"is_reserved":false,"is_disabled":false,"rental_uris":{"android":"levelo://app?vid=d427e485-a5e1-4db1-8faf-5ef116497ba1","ios":"levelo://app?vid=d427e485-a5e1-4db1-8faf-5ef116497ba1"},"vehicle_type_id":"4","last_reported":1709409984,"current_range_meters":23200,"station_id":"","pricing_plan_id":"cebpf4jnsgd1na2vs0mg"},{"bike_id":"135adbd8-b600-4dab-9d60-d403c3997b03","system_id":"levelo_inurba_marseille","lat":43.296263,"lon":5.377094,"is_reserved":false,"is_disabled":false,"rental_uris":{"android":"levelo://app?vid=135adbd8-b600-4dab-9d60-d403c3997b03","ios":"levelo://app?vid=135adbd8-b600-4dab-9d60-d403c3997b03"},"vehicle_type_id":"4","last_reported":1709409984,"current_range_meters":14000,"station_id":"ce4bgi92rcd13ifvqb90","pricing_plan_id":"cebpf4jnsgd1na2vs0mg"},{"bike_id":"8054705f-e638-4671-ab8c-1719303cb61f","system_id":"levelo_inurba_marseille","lat":43.295748,"lon":5.37522,"is_reserved":false,"is_disabled":false,"rental_uris":{"android":"levelo://app?vid=8054705f-e638-4671-ab8c-1719303cb61f","ios":"levelo://app?vid=8054705f-e638-4671-ab8c-1719303cb61f"},"vehicle_type_id":"4","last_reported":1709409984,"current_range_meters":2000,"station_id":"ce4bgh92rcd13ifvqb50","pricing_plan_id":"cebpf4jnsgd1na2vs0mg"},{"bike_id":"2659f7eb-d5ba-47de-b3d2-3601e30d50d8","system_id":"levelo_inurba_marseille","lat":43.295615,"lon":5.375164,"is_reserved":false,"is_disabled":false,"rental_uris":{"android":"levelo://app?vid=2659f7eb-d5ba-47de-b3d2-3601e30d50d8","ios":"levelo://app?vid=2659f7eb-d5ba-47de-b3d2-3601e30d50d8"},"vehicle_type_id":"4","last_reported":1709409984,"current_range_meters":21200,"station_id":"","pricing_plan_id":"cebpf4jnsgd1na2vs0mg"},{"bike_id":"dce06806-5d00-44a4-882e-cceeb0d420d4","system_id":"levelo_inurba_marseille","lat":43.296277,"lon":5.377108,"is_reserved":false,"is_disabled":false,"rental_uris":{"android":"levelo://app?vid=dce06806-5d00-44a4-882e-cceeb0d420d4","ios":"levelo://app?vid=dce06806-5d00-44a4-882e-cceeb0d420d4"},"vehicle_type_id":"4","last_reported":1709409984,"current_range_meters":20800,"station_id":"ce4bgi92rcd13ifvqb90","pricing_plan_id":"cebpf4jnsgd1na2vs0mg"},{"bike_id":"e2f733d7-c55f-403f-b139-95f3c68440de","system_id":"levelo_inurba_marseille","lat":43.31462,"lon":5.391762,"is_reserved":false,"is_disabled":false,"rental_uris":{"android":"levelo://app?vid=e2f733d7-c55f-403f-b139-95f3c68440de","ios":"levelo://app?vid=e2f733d7-c55f-403f-b139-95f3c68440de"},"vehicle_type_id":"4","last_reported":1709409984,"current_range_meters":5200,"station_id":"","pricing_plan_id":"cebpf4jnsgd1na2vs0mg"},