{"last_updated":1678910896,"ttl":30,"version":"2.2","data":{"bikes":[{"bike_id":"3d103552-1b3a-4874-a82e-a95bcd3f70d7","system_id":"levelo_inurba_marseille","lat":43.314811,"lon":5.373103,"is_reserved":false,"is_disabled":false,"rental_uris":{"android":"levelo://app?vid=3d103552-1b3a-4874-a82e-a95bcd3f70d7","ios":"levelo://app?vid=3d103552-1b3a-4874-a82e-a95bcd3f70d7"},"vehicle_type_id":"4","last_reported":1678910897,"current_range_meters":4400,"station_id":"ce4bgt12rcd13ifvqcd0","pricing_plan_id":"free"},{"bike_id":"d9f4403e-e4fb-4f85-8c5a-5a145ab37d93","system_id":"levelo_inurba_marseille","lat":43.314811,"lon":5.373103,"is_reserved":false,"is_disabled":false,"rental_uris":{"android":"levelo://app?vid=d9f4403e-e4fb-4f85-8c5a-5a145ab37d93","ios":"levelo://app?vid=d9f4403e-e4fb-4f85-8c5a-5a145ab37d93"},"vehicle_type_id":"4","last_reported":1678910897,"current_range_meters":6000,"station_id":"ce4bgt12rcd13ifvqcd0","pricing_plan_id":"free"},{"bike_id":"fac3325d-fa7b-4d6a-af97-c62924171aae","system_id":"levelo_inurba_marseille","lat":43.314811,"lon":5.373103,"is_reserved":false,"is_disabled":false,"rental_uris":{"android":"levelo://app?vid=fac3325d-fa7b-4d6a-af97-c62924171aae","ios":"levelo://app?vid=fac3325d-fa7b-4d6a-af97-c62924171aae"},"vehicle_type_id":"4","last_reported":1678910897,"current_range_meters":21600,"station_id":"ce4bgt12rcd13ifvqcd0","pricing_plan_id":"free"},{"bike_id":"5629cd75-d09a-4065-b4b1-61e2e2d713f3","system_id":"levelo_inurba_marseille","lat":43.305989,"lon":5.37225,"is_reserved":false,"is_disabled":false,"rental_uris":{"android":"levelo://app?vid=5629cd75-d09a-4065-b4b1-61e2e2d713f3","ios":"levelo://app?vid=5629cd75-d09a-4065-b4b1-61e2e2d713f3"},"vehicle_type_id":"4","last_reported":1678910897,"current_range_meters":5600,"station_id":"ce4bgqh2rcd13ifvqc4g","pricing_plan_id":"free"},{"bike_id":"36d2fd97-e387-4649-8da2-1d294174ac27","system_id":"levelo_inurba_marseille","lat":43.305989,"lon":5.37225,"is_reserved":false,"is_disabled":false,"rental_uris":{"android":"levelo://app?vid=36d2fd97-e387-4649-8da2-1d294174ac27","ios":"levelo://app?vid=36d2fd97-e387-4649-8da2-1d294174ac27"},"vehicle_type_id":"4","last_reported":1678910897,"current_range_meters":20800,"station_id":"ce4bgqh2rcd13ifvqc4g","pricing_plan_id":"free"},{"bike_id":"cbff8712-8eb0-4a3d-98c1-68f6d40ed689","system_id":"levelo_inurba_marseille","lat":43.317075,"lon":5.377367,"is_reserved":false,"is_disabled":false,"rental_uris":{"android":"levelo://app?vid=cbff8712-8eb0-4a3d-98c1-68f6d40ed689","ios":"levelo://app?vid=cbff8712-8eb0-4a3d-98c1-68f6d40ed689"},"vehicle_type_id":"4","last_reported":1678910897,"current_range_meters":0,"station_id":"ce4bgth2rcd13ifvqch0","pricing_plan_id":"free"},{"bike_id":"bf6de165-ad6f-411c-b850-57eec0bad738","system_id":"levelo_inurba_marseille","lat":43.317075,"lon":5.377367,"is_reserved":false,"is_disabled":false,"rental_uris":{"android":"levelo://app?vid=bf6de165-ad6f-411c-b850-57eec0bad738","ios":"levelo://app?vid=bf6de165-ad6f-411c-b850-57eec0bad738"},"vehicle_type_id":"4","last_reported":1678910897,"current_range_meters":31600,"station_id":"ce4bgth2rcd13ifvqch0","pricing_plan_id":"free"},{"bike_id":"4127fb03-bdf9-4acb-afdf-bf12c0865c07","system_id":"levelo_inurba_marseille","lat":43.308012,"lon":5.381511,"is_reserved":false,"is_disabled":false,"rental_uris":{"android":"levelo://app?vid=4127fb03-bdf9-4acb-afdf-bf12c0865c07","ios":"levelo://app?vid=4127fb03-bdf9-4acb-afdf-bf12c0865c07"},"vehicle_type_id":"4","last_reported":1678910897,"current_range_meters":6000,"station_id":"ce4bgt12rcd13ifvqce0","pricing_plan_id":"free"},{"bike_id":"a6b2f9dd-5c1b-47b9-951f-d0bdf363bff0","system_id":"levelo_inurba_marseille","lat":43.313571,"lon":5.384829,"is_reserved":false,"is_disabled":false,"rental_uris":{"android":"levelo://app?vid=a6b2f9dd-5c1b-47b9-951f-d0bdf363bff0","ios":"levelo://app?vid=a6b2f9dd-5c1b-47b9-951f-d0bdf363bff0"},"vehicle_type_id":"4","last_reported":1678910897,"current_range_meters":1600,"station_id":"ce4bgt92rcd13ifvqcf0","pricing_plan_id":"free"},{"bike_id":"812aee92-56dd-4892-af2e-66642d1e07ea","system_id":"levelo_inurba_marseille","lat":43.313571,"lon":5.384829,"is_reserved":false,"is_disabled":false,"rental_uris":{"android":"levelo://app?vid=812aee92-56dd-4892-af2e-66642d1e07ea","ios":"levelo://app?vid=812aee92-56dd-4892-af2e-66642d1e07ea"},"vehicle_type_id":"4","last_reported":1678910897,"current_range_meters":800,"station_id":"ce4bgt92rcd13ifvqcf0","pricing_plan_id":"free"},{"bike_id":"663e21c9-1025-4a5e-a596-27525bd1831a","system_id":"levelo_inurba_marseille","lat":43.299416,"lon":5.365476,"is_reserved":false,"is_disabled":false,"rental_uris":{"android":"levelo://app?vid=663e21c9-1025-4a5e-a596-27525bd1831a","ios":"levelo://app?vid=663e21c9-1025-4a5e-a596-27525bd1831a"},"vehicle_type_id":"4","last_reported":1678910897,"current_range_meters":2000,"station_id":"","pricing_plan_id":"free"},{"bike_id":"c16cdcff-d39f-4906-97b8-73a858492a02","system_id":"levelo_inurba_marseille","lat":43.299382,"lon":5.365533,"is_reserved":false,"is_disabled":false,"rental_uris":{"android":"levelo://app?vid=c16cdcff-d39f-4906-97b8-73a858492a02","ios":"levelo://app?vid=c16cdcff-d39f-4906-97b8-73a858492a02"},"vehicle_type_id":"4","last_reported":1678910897,"current_range_meters":27200,"station_id":"ce4bgm92rcd13ifvqbr0","pricing_plan_id":"free"},{"bike_id":"de8bcea7-f2d6-4825-8393-71e97df12c2b","system_id":"levelo_inurba_marseille","lat":43.306672,"lon":5.383894,"is_reserved":false,"is_disabled":false,"rental_uris":{"android":"levelo://app?vid=de8bcea7-f2d6-4825-8393-71e97df12c2b","ios":"levelo://app?vid=de8bcea7-f2d6-4825-8393-71e97df12c2b"},"vehicle_type_id":"4","last_reported":1678910897,"current_range_meters":0,"station_id":"","pricing_plan_id":"free"},{"bike_id":"359a0f77-0a60-41f7-b72a-0214a6bf3c63","system_id":"levelo_inurba_marseille","lat":43.305393,"lon":5.383699,"is_reserved":false,"is_disabled":false,"rental_uris":{"android":"levelo://app?vid=359a0f77-0a60-41f7-b72a-0214a6bf3c63","ios":"levelo://app?vid=359a0f77-0a60-41f7-b72a-0214a6bf3c63"},"vehicle_type_id":"4","last_reported":1678910897,"current_range_meters":0,"station_id":"","pricing_plan_id":"free"},{"bike_id":"9f3219ac-2278-49c0-8ac5-4a78bce711fd","system_id":"levelo_inurba_marseille","lat":43.311722,"lon":5.387247,"is_reserved":false,"is_disabled":false,"rental_uris":{"android":"levelo://app?vid=9f3219ac-2278-49c0-8ac5-4a78bce711fd","ios":"levelo://app?vid=9f3219ac-2278-49c0-8ac5-4a78bce711fd"},"vehicle_type_id":"4","last_reported":1678910897,"current_range_meters":11600,"station_id":"ce4bgv12rcd13ifvqcp0","pricing_plan_id":"free"},{"bike_id":"31b50ec1-1c20-4b95-9946-353c3c9367e0","system_id":"levelo_inurba_marseille","lat":43.328371,"lon":5.366912,"is_reserved":false,"is_disabled":false,"rental_uris":{"android":"levelo://app?vid=31b50ec1-1c20-4b95-9946-353c3c9367e0","ios":"levelo://app?vid=31b50ec1-1c20-4b95-9946-353c3c9367e0"},"vehicle_type_id":"4","last_reported":1678910897,"current_range_meters":16400,"station_id":"ce4bhs92rcd13ifvqi0g","pricing_plan_id":"free"},{"bike_id":"f89f7ccd-5b15-4549-9c84-15ab44b7f263","system_id":"levelo_inurba_marseille","lat":43.328371,"lon":5.366912,"is_reserved":false,"is_disabled":false,"rental_uris":{"android":"levelo://app?vid=f89f7ccd-5b15-4549-9c84-15ab44b7f263","ios":"levelo://app?vid=f89f7ccd-5b15-4549-9c84-15ab44b7f263"},"vehicle_type_id":"4","last_reported":1678910897,"current_range_meters":23600,"station_id":"ce4bhs92rcd13ifvqi0g","pricing_plan_id":"free"},{"bike_id":"d894811d-ad94-44b8-89ff-52a7d770de8e","system_id":"levelo_inurba_marseille","lat":43.32827,"lon":5.3669,"is_reserved":false,"is_disabled":false,"rental_uris":{"android":"levelo://app?vid=d894811d-ad94-44b8-89ff-52a7d770de8e","ios":"levelo://app?vid=d894811d-ad94-44b8-89ff-52a7d770de8e"},"vehicle_type_id":"4","last_reported":1678910897,"current_range_meters":2000,"station_id":"","pricing_plan_id":"free"},{"bike_id":"91079053-0468-4c93-b6be-71cc35eab07a","system_id":"levelo_inurba_marseille","lat":43.328371,"lon":5.366912,"is_reserved":false,"is_disabled":false,"rental_uris":{"android":"levelo://app?vid=91079053-0468-4c93-b6be-71cc35eab07a","ios":"levelo://app?vid=91079053-0468-4c93-b6be-71cc35eab07a"},"vehicle_type_id":"4","last_reported":1678910897,"current_range_meters":5600,"station_id":"ce4bhs92rcd13ifvqi0g","pricing_plan_id":"free"},{"bike_id":"4216aef9-8a05-44f7-872d-faf21b21a2e7","system_id":"levelo_inurba_marseille","lat":43.328371,"lon":5.366912,"is_reserved":false,"is_disabled":false,"rental_uris":{"android":"levelo://app?vid=4216aef9-8a05-44f7-872d-faf21b21a2e7","ios":"levelo://app?vid=4216aef9-8a05-44f7-872d-faf21b21a2e7"},"vehicle_type_id":"4","last_reported":1678910897,"current_range_meters":4800,"station_id":"ce4bhs92rcd13ifvqi0g","pricing_plan_id":"free"},{"bike_id":"61276a3b-a248-47d7-a858-9e09345028d8","system_id":"levelo_inurba_marseille","lat":43.32829,"lon":5.36687,"is_reserved":false,"is_disabled":false,"rental_uris":{"android":"levelo://app?vid=61276a3b-a248-47d7-a858-9e09345028d8","ios":"levelo://app?vid=61276a3b-a248-47d7-a858-9e09345028d8"},"vehicle_type_id":"4","last_reported":1678910897,"current_range_meters":4800,"station_id":"","pricing_plan_id":"free"},{"bike_id":"61e87ae3-1630-4850-b4a1-3247adcaaef1","system_id":"levelo_inurba_marseille","lat":43.328298,"lon":5.366902,"is_reserved":false,"is_disabled":false,"rental_uris":{"android":"levelo://app?vid=61e87ae3-1630-4850-b4a1-3247adcaaef1","ios":"levelo://app?vid=61e87ae3-1630-4850-b4a1-3247adcaaef1"},"vehicle_type_id":"4","last_reported":1678910897,"current_range_meters":6000,"station_id":"","pricing_plan_id":"free"},{"bike_id":"3f1ecbd0-cf15-4224-9648-75f1ceebf9d1","system_id":"levelo_inurba_marseille","lat":43.328371,"lon":5.366912,"is_reserved":false,"is_disabled":false,"rental_uris":{"android":"levelo://app?vid=3f1ecbd0-cf15-4224-9648-75f1ceebf9d1","ios":"levelo://app?vid=3f1ecbd0-cf15-4224-9648-75f1ceebf9d1"},"vehicle_type_id":"4","last_reported":1678910897,"current_range_meters":1200,"station_id":"ce4bhs92rcd13ifvqi0g","pricing_plan_id":"free"},{"bike_id":"a068649e-e639-48d5-b474-32fc330f3063","system_id":"levelo_inurba_marseille","lat":43.328371,"lon":5.366912,"is_reserved":false,"is_disabled":false,"rental_uris":{"android":"levelo://app?vid=a068649e-e639-48d5-b474-32fc330f3063","ios":"levelo://app?vid=a068649e-e639-48d5-b474-32fc330f3063"},"vehicle_type_id":"4","last_reported":1678910897,"current_range_meters":31200,"station_id":"ce4bhs92rcd13ifvqi0g","pricing_plan_id":"free"},{"bike_id":"7afbabcd-7920-4b1f-b224-c6538ff79187","system_id":"levelo_inurba_marseille","lat":43.29679,"lon":5.372867,"is_reserved":false,"is_disabled":false,"rental_uris":{"android":"levelo://app?vid=7afbabcd-7920-4b1f-b224-c6538ff79187","ios":"levelo://app?vid=7afbabcd-7920-4b1f-b224-c6538ff79187"},"vehicle_type_id":"4","last_reported":1678910897,"current_range_meters":16000,"station_id":"ce4bgk12rcd13ifvqbj0","pricing_plan_id":"free"},{"bike_id":"df5698c5-cb00-4379-ac16-f6ced1f75e2c","system_id":"levelo_inurba_marseille","lat":43.296131,"lon":5.370791,"is_reserved":false,"is_disabled":false,"rental_uris":{"android":"levelo://app?vid=df5698c5-cb00-4379-ac16-f6ced1f75e2c","ios":"levelo://app?vid=df5698c5-cb00-4379-ac16-f6ced1f75e2c"},"vehicle_type_id":"4","last_reported":1678910897,"current_range_meters":0,"station_id":"ce4bgnh2rcd13ifvqc0g","pricing_plan_id":"free"},{"bike_id":"db781b33-b2df-405c-9639-6f0876b17aa8","system_id":"levelo_inurba_marseille","lat":43.29573,"lon":5.367355,"is_reserved":false,"is_disabled":false,"rental_uris":{"android":"levelo://app?vid=db781b33-b2df-405c-9639-6f0876b17aa8","ios":"levelo://app?vid=db781b33-b2df-405c-9639-6f0876b17aa8"},"vehicle_type_id":"4","last_reported":1678910897,"current_range_meters":10800,"station_id":"ce4bgph2rcd13ifvqc2g","pricing_plan_id":"free"},{"bike_id":"2ac7f542-1dae-458d-a64e-99b063875009","system_id":"levelo_inurba_marseille","lat":43.29577,"lon":5.36742,"is_reserved":false,"is_disabled":false,"rental_uris":{"android":"levelo://app?vid=2ac7f542-1dae-458d-a64e-99b063875009","ios":"levelo://app?vid=2ac7f542-1dae-458d-a64e-99b063875009"},"vehicle_type_id":"4","last_reported":1678910897,"current_range_meters":0,"station_id":"","pricing_plan_id":"free"},{"bike_id":"11df8909-f179-40b9-9c29-f81f475eed04","system_id":"levelo_inurba_marseille","lat":43.317557,"lon":5.390173,"is_reserved":false,"is_disabled":false,"rental_uris":{"android":"levelo://app?vid=11df8909-f179-40b9-9c29-f81f475eed04","ios":"levelo://app?vid=11df8909-f179-40b9-9c29-f81f475eed04"},"vehicle_type_id":"4","last_reported":1678910897,"current_range_meters":25600,"station_id":"ce4bhqp2rcd13ifvqhng","pricing_plan_id":"free"},{"bike_id":"6970df2c-958b-4d24-8685-7ac29b8a9dbd","system_id":"levelo_inurba_marseille","lat":43.317557,"lon":5.390173,"is_reserved":false,"is_disabled":false,"rental_uris":{"android":"levelo://app?vid=6970df2c-958b-4d24-8685-7ac29b8a9dbd","ios":"levelo://app?vid=6970df2c-958b-4d24-8685-7ac29b8a9dbd"},"vehicle_type_id":"4","last_reported":1678910897,"current_range_meters":0,"station_id":"ce4bhqp2rcd13ifvqhng","pricing_plan_id":"free"},{"bike_id":"7e9bc9ef-8b41-42b4-b1c1-c5eb5896f2cc","system_id":"levelo_inurba_marseille","lat":43.317557,"lon":5.390173,"is_reserved":false,"is_disabled":false,"rental_uris":{"android":"levelo://app?vid=7e9bc9ef-8b41-42b4-b1c1-c5eb5896f2cc","ios":"levelo://app?vid=7e9bc9ef-8b41-42b4-b1c1-c5eb5896f2cc"},"vehicle_type_id":"4","last_reported":1678910897,"current_range_meters":22800,"station_id":"ce4bhqp2rcd13ifvqhng","pricing_plan_id":"free"},{"bike_id":"d9b99b8c-7dad-46cb-addc-3679c296b690","system_id":"levelo_inurba_marseille","lat":43.29973,"lon":5.38506,"is_reserved":false,"is_disabled":false,"rental_uris":{"android":"levelo://app?vid=d9b99b8c-7dad-46cb-addc-3679c296b690","ios":"levelo://app?vid=d9b99b8c-7dad-46cb-addc-3679c296b690"},"vehicle_type_id":"4","last_reported":1678910897,"current_range_meters":0,"station_id":"","pricing_plan_id":"free"},{"bike_id":"f4b41708-69e3-4daf-b40d-2dc7b7d42d12","system_id":"levelo_inurba_marseille","lat":43.32367,"lon":5.388836,"is_reserved":false,"is_disabled":false,"rental_uris":{"android":"levelo://app?vid=f4b41708-69e3-4daf-b40d-2dc7b7d42d12","ios":"levelo://app?vid=f4b41708-69e3-4daf-b40d-2dc7b7d42d12"},"vehicle_type_id":"4","last_reported":1678910897,"current_range_meters":2400,"station_id":"ce4bhqp2rcd13ifvqhog","pricing_plan_id":"free"},{"bike_id":"675579d7-318f-4b6a-92d0-b675b1aa3245","system_id":"levelo_inurba_marseille","lat":43.32367,"lon":5.38882,"is_reserved":false,"is_disabled":false,"rental_uris":{"android":"levelo://app?vid=675579d7-318f-4b6a-92d0-b675b1aa3245","ios":"levelo://app?vid=675579d7-318f-4b6a-92d0-b675b1aa3245"},"vehicle_type_id":"4","last_reported":1678910897,"current_range_meters":22800,"station_id":"","pricing_plan_id":"free"},{"bike_id":"49e9f1f7-126d-4f0d-b056-ceb25964a9a1","system_id":"levelo_inurba_marseille","lat":43.32365,"lon":5.38885,"is_reserved":false,"is_disabled":false,"rental_uris":{"android":"levelo://app?vid=49e9f1f7-126d-4f0d-b056-ceb25964a9a1","ios":"levelo://app?vid=49e9f1f7-126d-4f0d-b056-ceb25964a9a1"},"vehicle_type_id":"4","last_reported":1678910897,"current_range_meters":31600,"station_id":"","pricing_plan_id":"free"},{"bike_id":"5dde24e7-a417-4401-84fd-2cc260753013","system_id":"levelo_inurba_marseille","lat":43.32367,"lon":5.388836,"is_reserved":false,"is_disabled":false,"rental_uris":{"android":"levelo://app?vid=5dde24e7-a417-4401-84fd-2cc260753013","ios":"levelo://app?vid=5dde24e7-a417-4401-84fd-2cc260753013"},"vehicle_type_id":"4","last_reported":1678910897,"current_range_meters":9600,"station_id":"ce4bhqp2rcd13ifvqhog","pricing_plan_id":"free"},{"bike_id":"9971499e-f6dc-4f03-9a75-9e9b57487b0c","system_id":"levelo_inurba_marseille","lat":43.32369,"lon":5.38882,"is_reserved":false,"is_disabled":false,"rental_uris":{"android":"levelo://app?vid=9971499e-f6dc-4f03-9a75-9e9b57487b0c","ios":"levelo://app?vid=9971499e-f6dc-4f03-9a75-9e9b57487b0c"},"vehicle_type_id":"4","last_reported":1678910897,"current_range_meters":28800,"station_id":"","pricing_plan_id":"free"},{"bike_id":"e38ef56d-2c54-4da4-9cdb-a655aa337559","system_id":"levelo_inurba_marseille","lat":43.32367,"lon":5.388836,"is_reserved":false,"is_disabled":false,"rental_uris":{"android":"levelo://app?vid=e38ef56d-2c54-4da4-9cdb-a655aa337559","ios":"levelo://app?vid=e38ef56d-2c54-4da4-9cdb-a655aa337559"},"vehicle_type_id":"4","last_reported":1678910897,"current_range_meters":5600,"station_id":"ce4bhqp2rcd13ifvqhog","pricing_plan_id":"free"},{"bike_id":"ddb58a1f-109b-4c51-ac1a-f6ce81819e83","system_id":"levelo_inurba_marseille","lat":43.32365,"lon":5.38886,"is_reserved":false,"is_disabled":false,"rental_uris":{"android":"levelo://app?vid=ddb58a1f-109b-4c51-ac1a-f6ce81819e83","ios":"levelo://app?vid=ddb58a1f-109b-4c51-ac1a-f6ce81819e83"},"vehicle_type_id":"4","last_reported":1678910897,"current_range_meters":14400,"station_id":"","pricing_plan_id":"free"},{"bike_id":"a808b8d9-6228-4724-84f4-46578b1508c9","system_id":"levelo_inurba_marseille","lat":43.32367,"lon":5.388836,"is_reserved":false,"is_disabled":false,"rental_uris":{"android":"levelo://app?vid=a808b8d9-6228-4724-84f4-46578b1508c9","ios":"levelo://app?vid=a808b8d9-6228-4724-84f4-46578b1508c9"},"vehicle_type_id":"4","last_reported":1678910897,"current_range_meters":800,"station_id":"ce4bhqp2rcd13ifvqhog","pricing_plan_id":"free"},{"bike_id":"4d5a6395-13f3-42b3-81e7-3bf6168445b4","system_id":"levelo_inurba_marseille","lat":43.32367,"lon":5.388836,"is_reserved":false,"is_disabled":false,"rental_uris":{"android":"levelo://app?vid=4d5a6395-13f3-42b3-81e7-3bf6168445b4","ios":"levelo://app?vid=4d5a6395-13f3-42b3-81e7-3bf6168445b4"},"vehicle_type_id":"4","last_reported":1678910897,"current_range_meters":0,"station_id":"ce4bhqp2rcd13ifvqhog","pricing_plan_id":"free"},{"bike_id":"b390b54b-bd09-4ac9-acb7-e1f37473b1e8","system_id":"levelo_inurba_marseille","lat":43.32367,"lon":5.388836,"is_reserved":false,"is_disabled":false,"rental_uris":{"android":"levelo://app?vid=b390b54b-bd09-4ac9-acb7-e1f37473b1e8","ios":"levelo://app?vid=b390b54b-bd09-4ac9-acb7-e1f37473b1e8"},"vehicle_type_id":"4","last_reported":1678910897,"current_range_meters":9200,"station_id":"ce4bhqp2rcd13ifvqhog","pricing_plan_id":"free"},{"bike_id":"725ea325-1ad1-4d84-acf4-72007e88a0d4","system_id":"levelo_inurba_marseille","lat":43.32367,"lon":5.38888,"is_reserved":false,"is_disabled":false,"rental_uris":{"android":"levelo://app?vid=725ea325-1ad1-4d84-acf4-72007e88a0d4","ios":"levelo://app?vid=725ea325-1ad1-4d84-acf4-72007e88a0d4"},"vehicle_type_id":"4","last_reported":1678910897,"current_range_meters":25200,"station_id":"","pricing_plan_id":"free"},{"bike_id":"4a5c32c4-90d7-43ee-8259-162648f84541","system_id":"levelo_inurba_marseille","lat":43.293249,"lon":5.371578,"is_reserved":false,"is_disabled":false,"rental_uris":{"android":"levelo://app?vid=4a5c32c4-90d7-43ee-8259-162648f84541","ios":"levelo://app?vid=4a5c32c4-90d7-43ee-8259-162648f84541"},"vehicle_type_id":"4","last_reported":1678910897,"current_range_meters":0,"station_id":"ce4bgh92rcd13ifvqb40","pricing_plan_id":"free"},{"bike_id":"cb5ab2f4-7170-4711-bc73-c25db5ba69b9","system_id":"levelo_inurba_marseille","lat":43.293249,"lon":5.371578,"is_reserved":false,"is_disabled":false,"rental_uris":{"android":"levelo://app?vid=cb5ab2f4-7170-4711-bc73-c25db5ba69b9","ios":"levelo://app?vid=cb5ab2f4-7170-4711-bc73-c25db5ba69b9"},"vehicle_type_id":"4","last_reported":1678910897,"current_range_meters":8000,"station_id":"ce4bgh92rcd13ifvqb40","pricing_plan_id":"free"},{"bike_id":"36407caf-c54b-4f47-94d7-df6af4b59020","system_id":"levelo_inurba_marseille","lat":43.293038,"lon":5.374225,"is_reserved":false,"is_disabled":false,"rental_uris":{"android":"levelo://app?vid=36407caf-c54b-4f47-94d7-df6af4b59020","ios":"levelo://app?vid=36407caf-c54b-4f47-94d7-df6af4b59020"},"vehicle_type_id":"4","last_reported":1678910897,"current_range_meters":0,"station_id":"","pricing_plan_id":"free"},{"bike_id":"1ac3b9c3-499f-40d2-be20-53c5b78f637f","system_id":"levelo_inurba_marseille","lat":43.293009,"lon":5.374584,"is_reserved":false,"is_disabled":false,"rental_uris":{"android":"levelo://app?vid=1ac3b9c3-499f-40d2-be20-53c5b78f637f","ios":"levelo://app?vid=1ac3b9c3-499f-40d2-be20-53c5b78f637f"},"vehicle_type_id":"4","last_reported":1678910897,"current_range_meters":0,"station_id":"ce4bgi12rcd13ifvqb70","pricing_plan_id":"free"},{"bike_id":"505727aa-46fb-493a-999f-72cc77df1a5a","system_id":"levelo_inurba_marseille","lat":43.30599,"lon":5.39366,"is_reserved":false,"is_disabled":false,"rental_uris":{"android":"levelo://app?vid=505727aa-46fb-493a-999f-72cc77df1a5a","ios":"levelo://app?vid=505727aa-46fb-493a-999f-72cc77df1a5a"},"vehicle_type_id":"4","last_reported":1678910897,"current_range_meters":0,"station_id":"ce4bh0p2rcd13ifvqd80","pricing_plan_id":"free"},{"bike_id":"47bed17f-fdff-4e8b-9e0f-5dd4a1e2b54c","system_id":"levelo_inurba_marseille","lat":43.3059,"lon":5.39365,"is_reserved":false,"is_disabled":false,"rental_uris":{"android":"levelo://app?vid=47bed17f-fdff-4e8b-9e0f-5dd4a1e2b54c","ios":"levelo://app?vid=47bed17f-fdff-4e8b-9e0f-5dd4a1e2b54c"},"vehicle_type_id":"4","last_reported":1678910897,"current_range_meters":10000,"station_id":"ce4bh0p2rcd13ifvqd80","pricing_plan_id":"free"},{"bike_id":"8f805ca1-2879-41e7-9eac-5bc9b9a72c89","system_id":"levelo_inurba_marseille","lat":43.292659,"lon":5.359697,"is_reserved":false,"is_disabled":false,"rental_uris":{"android":"levelo://app?vid=8f805ca1-2879-41e7-9eac-5bc9b9a72c89","ios":"levelo://app?vid=8f805ca1-2879-41e7-9eac-5bc9b9a72c89"},"vehicle_type_id":"4","last_reported":1678910897,"current_range_meters":6000,"station_id":"","pricing_plan_id":"free"},{"bike_id":"743e4568-ab91-4643-84be-17b22a38424a","system_id":"levelo_inurba_marseille","lat":43.30085,"lon":5.390856,"is_reserved":false,"is_disabled":false,"rental_uris":{"android":"levelo://app?vid=743e4568-ab91-4643-84be-17b22a38424a","ios":"levelo://app?vid=743e4568-ab91-4643-84be-17b22a38424a"},"vehicle_type_id":"4","last_reported":1678910897,"current_range_meters":4400,"station_id":"ce4bh192rcd13ifvqdb0","pricing_plan_id":"free"},{"bike_id":"62f65aae-b1b1-4b41-a420-3ed4002ba227","system_id":"levelo_inurba_marseille","lat":43.313291,"lon":5.396838,"is_reserved":false,"is_disabled":false,"rental_uris":{"android":"levelo://app?vid=62f65aae-b1b1-4b41-a420-3ed4002ba227","ios":"levelo://app?vid=62f65aae-b1b1-4b41-a420-3ed4002ba227"},"vehicle_type_id":"4","last_reported":1678910897,"current_range_meters":0,"station_id":"ce4bgvp2rcd13ifvqcu0","pricing_plan_id":"free"},{"bike_id":"52d38384-a5b4-4a29-a89b-5c782e2e133a","system_id":"levelo_inurba_marseille","lat":43.313291,"lon":5.396838,"is_reserved":false,"is_disabled":false,"rental_uris":{"android":"levelo://app?vid=52d38384-a5b4-4a29-a89b-5c782e2e133a","ios":"levelo://app?vid=52d38384-a5b4-4a29-a89b-5c782e2e133a"},"vehicle_type_id":"4","last_reported":1678910897,"current_range_meters":22000,"station_id":"ce4bgvp2rcd13ifvqcu0","pricing_plan_id":"free"},{"bike_id":"c5a27208-8cf8-465c-a8fb-0f24e7308cb1","system_id":"levelo_inurba_marseille","lat":43.313291,"lon":5.396838,"is_reserved":false,"is_disabled":false,"rental_uris":{"android":"levelo://app?vid=c5a27208-8cf8-465c-a8fb-0f24e7308cb1","ios":"levelo://app?vid=c5a27208-8cf8-465c-a8fb-0f24e7308cb1"},"vehicle_type_id":"4","last_reported":1678910897,"current_range_meters":16400,"station_id":"ce4bgvp2rcd13ifvqcu0","pricing_plan_id":"free"},{"bike_id":"ec3144fc-1874-4f8c-a438-a7ca92572ed5","system_id":"levelo_inurba_marseille","lat":43.313291,"lon":5.396838,"is_reserved":false,"is_disabled":false,"rental_uris":{"android":"levelo://app?vid=ec3144fc-1874-4f8c-a438-a7ca92572ed5","ios":"levelo://app?vid=ec3144fc-1874-4f8c-a438-a7ca92572ed5"},"vehicle_type_id":"4","last_reported":1678910897,"current_range_meters":26400,"station_id":"ce4bgvp2rcd13ifvqcu0","pricing_plan_id":"free"},{"bike_id":"a4b901d0-d17e-455c-81db-7b4bb8c9b1b5","system_id":"levelo_inurba_marseille","lat":43.313291,"lon":5.396838,"is_reserved":false,"is_disabled":false,"rental_uris":{"android":"levelo://app?vid=a4b901d0-d17e-455c-81db-7b4bb8c9b1b5","ios":"levelo://app?vid=a4b901d0-d17e-455c-81db-7b4bb8c9b1b5"},"vehicle_type_id":"4","last_reported":1678910897,"current_range_meters":27200,"station_id":"ce4bgvp2rcd13ifvqcu0","pricing_plan_id":"free"},{"bike_id":"3c00b7d5-223d-41d5-8044-d600f6f8fd45","system_id":"levelo_inurba_marseille","lat":43.313291,"lon":5.396838,"is_reserved":false,"is_disabled":false,"rental_uris":{"android":"levelo://app?vid=3c00b7d5-223d-41d5-8044-d600f6f8fd45","ios":"levelo://app?vid=3c00b7d5-223d-41d5-8044-d600f6f8fd45"},"vehicle_type_id":"4","last_reported":1678910897,"current_range_meters":30800,"station_id":"ce4bgvp2rcd13ifvqcu0","pricing_plan_id":"free"},{"bike_id":"52f4fea3-1a73-4251-b90d-8d291db4a608","system_id":"levelo_inurba_marseille","lat":43.313291,"lon":5.396838,"is_reserved":false,"is_disabled":false,"rental_uris":{"android":"levelo://app?vid=52f4fea3-1a73-4251-b90d-8d291db4a608","ios":"levelo://app?vid=52f4fea3-1a73-4251-b90d-8d291db4a608"},"vehicle_type_id":"4","last_reported":1678910897,"current_range_meters":30800,"station_id":"ce4bgvp2rcd13ifvqcu0","pricing_plan_id":"free"},{"bike_id":"144f33a7-e1ce-45d9-9269-49c51e650602","system_id":"levelo_inurba_marseille","lat":43.302008,"lon":5.394694,"is_reserved":false,"is_disabled":false,"rental_uris":{"android":"levelo://app?vid=144f33a7-e1ce-45d9-9269-49c51e650602","ios":"levelo://app?vid=144f33a7-e1ce-45d9-9269-49c51e650602"},"vehicle_type_id":"4","last_reported":1678910897,"current_range_meters":22000,"station_id":"ce4bh0p2rcd13ifvqd70","pricing_plan_id":"free"},{"bike_id":"fd199256-576a-4105-bb97-4fdbd3a45245","system_id":"levelo_inurba_marseille","lat":43.290624,"lon":5.359245,"is_reserved":false,"is_disabled":false,"rental_uris":{"android":"levelo://app?vid=fd199256-576a-4105-bb97-4fdbd3a45245","ios":"levelo://app?vid=fd199256-576a-4105-bb97-4fdbd3a45245"},"vehicle_type_id":"4","last_reported":1678910897,"current_range_meters":12000,"station_id":"ce4bha92rcd13ifvqeg0","pricing_plan_id":"free"},{"bike_id":"bb2f51ff-45ca-444b-ad70-001f84391c0a","system_id":"levelo_inurba_marseille","lat":43.29379,"lon":5.38489,"is_reserved":false,"is_disabled":false,"rental_uris":{"android":"levelo://app?vid=bb2f51ff-45ca-444b-ad70-001f84391c0a","ios":"levelo://app?vid=bb2f51ff-45ca-444b-ad70-001f84391c0a"},"vehicle_type_id":"4","last_reported":1678910897,"current_range_meters":26800,"station_id":"","pricing_plan_id":"free"},{"bike_id":"2d8a81a3-ccdf-4058-a9db-574e6395d33d","system_id":"levelo_inurba_marseille","lat":43.290319,"lon":5.375732,"is_reserved":false,"is_disabled":false,"rental_uris":{"android":"levelo://app?vid=2d8a81a3-ccdf-4058-a9db-574e6395d33d","ios":"levelo://app?vid=2d8a81a3-ccdf-4058-a9db-574e6395d33d"},"vehicle_type_id":"4","last_reported":1678910897,"current_range_meters":30000,"station_id":"ce4bh692rcd13ifvqe90","pricing_plan_id":"free"},{"bike_id":"7f9158a6-2e4e-4a0d-a46b-79545c46875a","system_id":"levelo_inurba_marseille","lat":43.294162,"lon":5.386292,"is_reserved":false,"is_disabled":false,"rental_uris":{"android":"levelo://app?vid=7f9158a6-2e4e-4a0d-a46b-79545c46875a","ios":"levelo://app?vid=7f9158a6-2e4e-4a0d-a46b-79545c46875a"},"vehicle_type_id":"4","last_reported":1678910897,"current_range_meters":18400,"station_id":"ce4bh2h2rcd13ifvqdh0","pricing_plan_id":"free"},{"bike_id":"8427a2cf-a6c2-4322-b1d1-f5d7b29a194e","system_id":"levelo_inurba_marseille","lat":43.289184,"lon":5.366408,"is_reserved":false,"is_disabled":false,"rental_uris":{"android":"levelo://app?vid=8427a2cf-a6c2-4322-b1d1-f5d7b29a194e","ios":"levelo://app?vid=8427a2cf-a6c2-4322-b1d1-f5d7b29a194e"},"vehicle_type_id":"4","last_reported":1678910897,"current_range_meters":26800,"station_id":"ce4bhap2rcd13ifvqek0","pricing_plan_id":"free"},{"bike_id":"d77a745c-32f3-4a8e-8e2e-5724e9f3fd81","system_id":"levelo_inurba_marseille","lat":43.289468,"lon":5.363719,"is_reserved":false,"is_disabled":false,"rental_uris":{"android":"levelo://app?vid=d77a745c-32f3-4a8e-8e2e-5724e9f3fd81","ios":"levelo://app?vid=d77a745c-32f3-4a8e-8e2e-5724e9f3fd81"},"vehicle_type_id":"4","last_reported":1678910897,"current_range_meters":19200,"station_id":"ce4bhc92rcd13ifvqetg","pricing_plan_id":"free"},{"bike_id":"0b96ab56-6772-4877-88ce-5f2e79cfb017","system_id":"levelo_inurba_marseille","lat":43.29267,"lon":5.3844,"is_reserved":false,"is_disabled":false,"rental_uris":{"android":"levelo://app?vid=0b96ab56-6772-4877-88ce-5f2e79cfb017","ios":"levelo://app?vid=0b96ab56-6772-4877-88ce-5f2e79cfb017"},"vehicle_type_id":"4","last_reported":1678910897,"current_range_meters":6800,"station_id":"ce4bh692rcd13ifvqea0","pricing_plan_id":"free"},{"bike_id":"d9a02d53-4f75-45ac-86c3-d882abbeb116","system_id":"levelo_inurba_marseille","lat":43.292633,"lon":5.384478,"is_reserved":false,"is_disabled":false,"rental_uris":{"android":"levelo://app?vid=d9a02d53-4f75-45ac-86c3-d882abbeb116","ios":"levelo://app?vid=d9a02d53-4f75-45ac-86c3-d882abbeb116"},"vehicle_type_id":"4","last_reported":1678910897,"current_range_meters":30400,"station_id":"ce4bh692rcd13ifvqea0","pricing_plan_id":"free"},{"bike_id":"fe8f44c7-cb72-4d5a-b8f4-3c7117932f26","system_id":"levelo_inurba_marseille","lat":43.292638,"lon":5.384491,"is_reserved":false,"is_disabled":false,"rental_uris":{"android":"levelo://app?vid=fe8f44c7-cb72-4d5a-b8f4-3c7117932f26","ios":"levelo://app?vid=fe8f44c7-cb72-4d5a-b8f4-3c7117932f26"},"vehicle_type_id":"4","last_reported":1678910897,"current_range_meters":31600,"station_id":"ce4bh692rcd13ifvqea0","pricing_plan_id":"free"},{"bike_id":"39cdeb8b-8daa-4cd1-a543-91d30aaa6359","system_id":"levelo_inurba_marseille","lat":43.30429,"lon":5.39754,"is_reserved":false,"is_disabled":false,"rental_uris":{"android":"levelo://app?vid=39cdeb8b-8daa-4cd1-a543-91d30aaa6359","ios":"levelo://app?vid=39cdeb8b-8daa-4cd1-a543-91d30aaa6359"},"vehicle_type_id":"4","last_reported":1678910897,"current_range_meters":13200,"station_id":"","pricing_plan_id":"free"},{"bike_id":"3f1f9ae0-6a4a-4c01-b5d2-e144accffd3c","system_id":"levelo_inurba_marseille","lat":43.292644,"lon":5.384257,"is_reserved":false,"is_disabled":false,"rental_uris":{"android":"levelo://app?vid=3f1f9ae0-6a4a-4c01-b5d2-e144accffd3c","ios":"levelo://app?vid=3f1f9ae0-6a4a-4c01-b5d2-e144accffd3c"},"vehicle_type_id":"4","last_reported":1678910897,"current_range_meters":7200,"station_id":"ce4bh692rcd13ifvqea0","pricing_plan_id":"free"},{"bike_id":"167a2a92-298a-4fe7-b811-01157daff52b","system_id":"levelo_inurba_marseille","lat":43.292598,"lon":5.384448,"is_reserved":false,"is_disabled":false,"rental_uris":{"android":"levelo://app?vid=167a2a92-298a-4fe7-b811-01157daff52b","ios":"levelo://app?vid=167a2a92-298a-4fe7-b811-01157daff52b"},"vehicle_type_id":"4","last_reported":1678910897,"current_range_meters":30800,"station_id":"ce4bh692rcd13ifvqea0","pricing_plan_id":"free"},{"bike_id":"5d7ba2b7-1803-43cb-bc3c-626a47154b25","system_id":"levelo_inurba_marseille","lat":43.29259,"lon":5.38445,"is_reserved":false,"is_disabled":false,"rental_uris":{"android":"levelo://app?vid=5d7ba2b7-1803-43cb-bc3c-626a47154b25","ios":"levelo://app?vid=5d7ba2b7-1803-43cb-bc3c-626a47154b25"},"vehicle_type_id":"4","last_reported":1678910897,"current_range_meters":31200,"station_id":"ce4bh692rcd13ifvqea0","pricing_plan_id":"free"},{"bike_id":"82999209-fc26-42c7-b15c-6924c01aead8","system_id":"levelo_inurba_marseille","lat":43.29006,"lon":5.35615,"is_reserved":false,"is_disabled":false,"rental_uris":{"android":"levelo://app?vid=82999209-fc26-42c7-b15c-6924c01aead8","ios":"levelo://app?vid=82999209-fc26-42c7-b15c-6924c01aead8"},"vehicle_type_id":"4","last_reported":1678910897,"current_range_meters":8000,"station_id":"","pricing_plan_id":"free"},{"bike_id":"8456a1fc-98e2-4b84-baea-2c756f4b72d2","system_id":"levelo_inurba_marseille","lat":43.330442,"lon":5.389148,"is_reserved":false,"is_disabled":false,"rental_uris":{"android":"levelo://app?vid=8456a1fc-98e2-4b84-baea-2c756f4b72d2","ios":"levelo://app?vid=8456a1fc-98e2-4b84-baea-2c756f4b72d2"},"vehicle_type_id":"4","last_reported":1678910897,"current_range_meters":21200,"station_id":"ce4bhr92rcd13ifvqhrg","pricing_plan_id":"free"},{"bike_id":"fbe10fdc-9007-4034-a68c-3345e520d40b","system_id":"levelo_inurba_marseille","lat":43.330442,"lon":5.389148,"is_reserved":false,"is_disabled":false,"rental_uris":{"android":"levelo://app?vid=fbe10fdc-9007-4034-a68c-3345e520d40b","ios":"levelo://app?vid=fbe10fdc-9007-4034-a68c-3345e520d40b"},"vehicle_type_id":"4","last_reported":1678910897,"current_range_meters":11200,"station_id":"ce4bhr92rcd13ifvqhrg","pricing_plan_id":"free"},{"bike_id":"adeba0cb-56cd-4d1d-b3f2-b0d33fc6d26b","system_id":"levelo_inurba_marseille","lat":43.330442,"lon":5.389148,"is_reserved":false,"is_disabled":false,"rental_uris":{"android":"levelo://app?vid=adeba0cb-56cd-4d1d-b3f2-b0d33fc6d26b","ios":"levelo://app?vid=adeba0cb-56cd-4d1d-b3f2-b0d33fc6d26b"},"vehicle_type_id":"4","last_reported":1678910897,"current_range_meters":0,"station_id":"ce4bhr92rcd13ifvqhrg","pricing_plan_id":"free"},{"bike_id":"e0765be8-62ec-4754-8674-f16925680ed3","system_id":"levelo_inurba_marseille","lat":43.290104,"lon":5.356111,"is_reserved":false,"is_disabled":false,"rental_uris":{"android":"levelo://app?vid=e0765be8-62ec-4754-8674-f16925680ed3","ios":"levelo://app?vid=e0765be8-62ec-4754-8674-f16925680ed3"},"vehicle_type_id":"4","last_reported":1678910897,"current_range_meters":26400,"station_id":"ce4bhb92rcd13ifvqen0","pricing_plan_id":"free"},{"bike_id":"dee1503d-11ae-4733-a648-cfdb8272a4ab","system_id":"levelo_inurba_marseille","lat":43.290104,"lon":5.356111,"is_reserved":false,"is_disabled":false,"rental_uris":{"android":"levelo://app?vid=dee1503d-11ae-4733-a648-cfdb8272a4ab","ios":"levelo://app?vid=dee1503d-11ae-4733-a648-cfdb8272a4ab"},"vehicle_type_id":"4","last_reported":1678910897,"current_range_meters":31600,"station_id":"ce4bhb92rcd13ifvqen0","pricing_plan_id":"free"},{"bike_id":"68e7848f-4bae-46a1-be32-48c8d7006705","system_id":"levelo_inurba_marseille","lat":43.29095,"lon":5.38142,"is_reserved":false,"is_disabled":false,"rental_uris":{"android":"levelo://app?vid=68e7848f-4bae-46a1-be32-48c8d7006705","ios":"levelo://app?vid=68e7848f-4bae-46a1-be32-48c8d7006705"},"vehicle_type_id":"4","last_reported":1678910897,"current_range_meters":25200,"station_id":"ce4bh512rcd13ifvqe2g","pricing_plan_id":"free"},{"bike_id":"6d5e5919-1c40-49a5-8301-6b7accd9e961","system_id":"levelo_inurba_marseille","lat":43.290995,"lon":5.381361,"is_reserved":false,"is_disabled":false,"rental_uris":{"android":"levelo://app?vid=6d5e5919-1c40-49a5-8301-6b7accd9e961","ios":"levelo://app?vid=6d5e5919-1c40-49a5-8301-6b7accd9e961"},"vehicle_type_id":"4","last_reported":1678910897,"current_range_meters":2400,"station_id":"ce4bh512rcd13ifvqe2g","pricing_plan_id":"free"},{"bike_id":"62402d89-bc8a-4e7e-9a50-61a92ae39404","system_id":"levelo_inurba_marseille","lat":43.289743,"lon":5.378304,"is_reserved":false,"is_disabled":false,"rental_uris":{"android":"levelo://app?vid=62402d89-bc8a-4e7e-9a50-61a92ae39404","ios":"levelo://app?vid=62402d89-bc8a-4e7e-9a50-61a92ae39404"},"vehicle_type_id":"4","last_reported":1678910897,"current_range_meters":26800,"station_id":"ce4bh9p2rcd13ifvqed0","pricing_plan_id":"free"},{"bike_id":"4dfd19b9-0191-429c-8b91-c6a8351386a9","system_id":"levelo_inurba_marseille","lat":43.28856,"lon":5.358371,"is_reserved":false,"is_disabled":false,"rental_uris":{"android":"levelo://app?vid=4dfd19b9-0191-429c-8b91-c6a8351386a9","ios":"levelo://app?vid=4dfd19b9-0191-429c-8b91-c6a8351386a9"},"vehicle_type_id":"4","last_reported":1678910897,"current_range_meters":6400,"station_id":"ce4bhb12rcd13ifvqem0","pricing_plan_id":"free"},{"bike_id":"d295e98f-07e5-4c73-9e2b-0da8347131d9","system_id":"levelo_inurba_marseille","lat":43.28856,"lon":5.358371,"is_reserved":false,"is_disabled":false,"rental_uris":{"android":"levelo://app?vid=d295e98f-07e5-4c73-9e2b-0da8347131d9","ios":"levelo://app?vid=d295e98f-07e5-4c73-9e2b-0da8347131d9"},"vehicle_type_id":"4","last_reported":1678910897,"current_range_meters":30400,"station_id":"ce4bhb12rcd13ifvqem0","pricing_plan_id":"free"},{"bike_id":"1e52995d-f5ec-462c-bbd9-f5007142ab36","system_id":"levelo_inurba_marseille","lat":43.28856,"lon":5.358371,"is_reserved":false,"is_disabled":false,"rental_uris":{"android":"levelo://app?vid=1e52995d-f5ec-462c-bbd9-f5007142ab36","ios":"levelo://app?vid=1e52995d-f5ec-462c-bbd9-f5007142ab36"},"vehicle_type_id":"4","last_reported":1678910897,"current_range_meters":0,"station_id":"ce4bhb12rcd13ifvqem0","pricing_plan_id":"free"},{"bike_id":"b37c9b88-5770-4d91-80e6-fcf5d1ca448f","system_id":"levelo_inurba_marseille","lat":43.337523,"lon":5.374421,"is_reserved":false,"is_disabled":false,"rental_uris":{"android":"levelo://app?vid=b37c9b88-5770-4d91-80e6-fcf5d1ca448f","ios":"levelo://app?vid=b37c9b88-5770-4d91-80e6-fcf5d1ca448f"},"vehicle_type_id":"4","last_reported":1678910897,"current_range_meters":27600,"station_id":"","pricing_plan_id":"free"},{"bike_id":"3a793daa-0e8e-411a-826a-04724927d92d","system_id":"levelo_inurba_marseille","lat":43.306412,"lon":5.401035,"is_reserved":false,"is_disabled":false,"rental_uris":{"android":"levelo://app?vid=3a793daa-0e8e-411a-826a-04724927d92d","ios":"levelo://app?vid=3a793daa-0e8e-411a-826a-04724927d92d"},"vehicle_type_id":"4","last_reported":1678910897,"current_range_meters":5600,"station_id":"ce4bh112rcd13ifvqda0","pricing_plan_id":"free"},{"bike_id":"8e1feca0-1ce3-4a7c-857e-3fae617a97cd","system_id":"levelo_inurba_marseille","lat":43.301395,"lon":5.398497,"is_reserved":false,"is_disabled":false,"rental_uris":{"android":"levelo://app?vid=8e1feca0-1ce3-4a7c-857e-3fae617a97cd","ios":"levelo://app?vid=8e1feca0-1ce3-4a7c-857e-3fae617a97cd"},"vehicle_type_id":"4","last_reported":1678910897,"current_range_meters":6400,"station_id":"","pricing_plan_id":"free"},{"bike_id":"38f7bae2-fff4-4977-b812-252c5d8b3d00","system_id":"levelo_inurba_marseille","lat":43.286593,"lon":5.363346,"is_reserved":false,"is_disabled":false,"rental_uris":{"android":"levelo://app?vid=38f7bae2-fff4-4977-b812-252c5d8b3d00","ios":"levelo://app?vid=38f7bae2-fff4-4977-b812-252c5d8b3d00"},"vehicle_type_id":"4","last_reported":1678910897,"current_range_meters":6000,"station_id":"ce4bhah2rcd13ifvqej0","pricing_plan_id":"free"},{"bike_id":"284dfa71-6642-47ac-8e75-0408bee06d4c","system_id":"levelo_inurba_marseille","lat":43.286593,"lon":5.363346,"is_reserved":false,"is_disabled":false,"rental_uris":{"android":"levelo://app?vid=284dfa71-6642-47ac-8e75-0408bee06d4c","ios":"levelo://app?vid=284dfa71-6642-47ac-8e75-0408bee06d4c"},"vehicle_type_id":"4","last_reported":1678910897,"current_range_meters":7600,"station_id":"ce4bhah2rcd13ifvqej0","pricing_plan_id":"free"},{"bike_id":"fe504fdf-ab05-481a-9798-da13079459ea","system_id":"levelo_inurba_marseille","lat":43.29521,"lon":5.39391,"is_reserved":false,"is_disabled":false,"rental_uris":{"android":"levelo://app?vid=fe504fdf-ab05-481a-9798-da13079459ea","ios":"levelo://app?vid=fe504fdf-ab05-481a-9798-da13079459ea"},"vehicle_type_id":"4","last_reported":1678910897,"current_range_meters":31600,"station_id":"ce4bh212rcd13ifvqde0","pricing_plan_id":"free"},{"bike_id":"25baed7f-8e12-4886-bbee-9bcfaa862745","system_id":"levelo_inurba_marseille","lat":43.295245,"lon":5.39397,"is_reserved":false,"is_disabled":false,"rental_uris":{"android":"levelo://app?vid=25baed7f-8e12-4886-bbee-9bcfaa862745","ios":"levelo://app?vid=25baed7f-8e12-4886-bbee-9bcfaa862745"},"vehicle_type_id":"4","last_reported":1678910897,"current_range_meters":2800,"station_id":"ce4bh212rcd13ifvqde0","pricing_plan_id":"free"},{"bike_id":"529b15c4-12b2-478a-82a5-c26afdb223f7","system_id":"levelo_inurba_marseille","lat":43.29526,"lon":5.39406,"is_reserved":false,"is_disabled":false,"rental_uris":{"android":"levelo://app?vid=529b15c4-12b2-478a-82a5-c26afdb223f7","ios":"levelo://app?vid=529b15c4-12b2-478a-82a5-c26afdb223f7"},"vehicle_type_id":"4","last_reported":1678910897,"current_range_meters":12800,"station_id":"ce4bh212rcd13ifvqde0","pricing_plan_id":"free"},{"bike_id":"c0a4a1e9-ac41-4d2e-8c80-cb182883a1a1","system_id":"levelo_inurba_marseille","lat":43.29516,"lon":5.39395,"is_reserved":false,"is_disabled":false,"rental_uris":{"android":"levelo://app?vid=c0a4a1e9-ac41-4d2e-8c80-cb182883a1a1","ios":"levelo://app?vid=c0a4a1e9-ac41-4d2e-8c80-cb182883a1a1"},"vehicle_type_id":"4","last_reported":1678910897,"current_range_meters":20400,"station_id":"ce4bh292rcd13ifvqdf0","pricing_plan_id":"free"},{"bike_id":"369ea765-e720-4e78-894a-f4383e4b2f30","system_id":"levelo_inurba_marseille","lat":43.295177,"lon":5.393997,"is_reserved":false,"is_disabled":false,"rental_uris":{"android":"levelo://app?vid=369ea765-e720-4e78-894a-f4383e4b2f30","ios":"levelo://app?vid=369ea765-e720-4e78-894a-f4383e4b2f30"},"vehicle_type_id":"4","last_reported":1678910897,"current_range_meters":0,"station_id":"ce4bh292rcd13ifvqdf0","pricing_plan_id":"free"},{"bike_id":"9991a574-7eff-460d-af65-223f414b1a0a","system_id":"levelo_inurba_marseille","lat":43.295192,"lon":5.394098,"is_reserved":false,"is_disabled":false,"rental_uris":{"android":"levelo://app?vid=9991a574-7eff-460d-af65-223f414b1a0a","ios":"levelo://app?vid=9991a574-7eff-460d-af65-223f414b1a0a"},"vehicle_type_id":"4","last_reported":1678910897,"current_range_meters":16000,"station_id":"ce4bh212rcd13ifvqde0","pricing_plan_id":"free"},{"bike_id":"015715a7-30fb-44fe-ab0a-e15c8f9e0e20","system_id":"levelo_inurba_marseille","lat":43.29519,"lon":5.39411,"is_reserved":false,"is_disabled":false,"rental_uris":{"android":"levelo://app?vid=015715a7-30fb-44fe-ab0a-e15c8f9e0e20","ios":"levelo://app?vid=015715a7-30fb-44fe-ab0a-e15c8f9e0e20"},"vehicle_type_id":"4","last_reported":1678910897,"current_range_meters":31600,"station_id":"ce4bh212rcd13ifvqde0","pricing_plan_id":"free"},{"bike_id":"804b12f3-1db3-409e-8dbf-4520efef3aed","system_id":"levelo_inurba_marseille","lat":43.2909,"lon":5.38819,"is_reserved":false,"is_disabled":false,"rental_uris":{"android":"levelo://app?vid=804b12f3-1db3-409e-8dbf-4520efef3aed","ios":"levelo://app?vid=804b12f3-1db3-409e-8dbf-4520efef3aed"},"vehicle_type_id":"4","last_reported":1678910897,"current_range_meters":15200,"station_id":"","pricing_plan_id":"free"},{"bike_id":"3ae20060-b60f-4dcb-ac2f-7c62567afb7d","system_id":"levelo_inurba_marseille","lat":43.28715,"lon":5.3793,"is_reserved":false,"is_disabled":false,"rental_uris":{"android":"levelo://app?vid=3ae20060-b60f-4dcb-ac2f-7c62567afb7d","ios":"levelo://app?vid=3ae20060-b60f-4dcb-ac2f-7c62567afb7d"},"vehicle_type_id":"4","last_reported":1678910897,"current_range_meters":0,"station_id":"ce4bh9p2rcd13ifvqec0","pricing_plan_id":"free"},{"bike_id":"8e868719-bd9d-47cd-83a3-7745510c11ac","system_id":"levelo_inurba_marseille","lat":43.316517,"lon":5.404375,"is_reserved":false,"is_disabled":false,"rental_uris":{"android":"levelo://app?vid=8e868719-bd9d-47cd-83a3-7745510c11ac","ios":"levelo://app?vid=8e868719-bd9d-47cd-83a3-7745510c11ac"},"vehicle_type_id":"4","last_reported":1678910897,"current_range_meters":20400,"station_id":"ce4bh012rcd13ifvqd00","pricing_plan_id":"free"},{"bike_id":"92c41db0-0121-4975-9f09-8b115fc896e7","system_id":"levelo_inurba_marseille","lat":43.316517,"lon":5.404375,"is_reserved":false,"is_disabled":false,"rental_uris":{"android":"levelo://app?vid=92c41db0-0121-4975-9f09-8b115fc896e7","ios":"levelo://app?vid=92c41db0-0121-4975-9f09-8b115fc896e7"},"vehicle_type_id":"4","last_reported":1678910897,"current_range_meters":19600,"station_id":"ce4bh012rcd13ifvqd00","pricing_plan_id":"free"},{"bike_id":"a9e961cf-8c8e-48e4-a078-339736b777d1","system_id":"levelo_inurba_marseille","lat":43.316517,"lon":5.404375,"is_reserved":false,"is_disabled":false,"rental_uris":{"android":"levelo://app?vid=a9e961cf-8c8e-48e4-a078-339736b777d1","ios":"levelo://app?vid=a9e961cf-8c8e-48e4-a078-339736b777d1"},"vehicle_type_id":"4","last_reported":1678910897,"current_range_meters":2400,"station_id":"ce4bh012rcd13ifvqd00","pricing_plan_id":"free"},{"bike_id":"d5054649-d38c-4a5d-a214-3d0f0f30331a","system_id":"levelo_inurba_marseille","lat":43.316517,"lon":5.404375,"is_reserved":false,"is_disabled":false,"rental_uris":{"android":"levelo://app?vid=d5054649-d38c-4a5d-a214-3d0f0f30331a","ios":"levelo://app?vid=d5054649-d38c-4a5d-a214-3d0f0f30331a"},"vehicle_type_id":"4","last_reported":1678910897,"current_range_meters":18800,"station_id":"ce4bh012rcd13ifvqd00","pricing_plan_id":"free"},{"bike_id":"38515a76-1577-4cbc-8a24-68d386a8a4c2","system_id":"levelo_inurba_marseille","lat":43.284656,"lon":5.358958,"is_reserved":false,"is_disabled":false,"rental_uris":{"android":"levelo://app?vid=38515a76-1577-4cbc-8a24-68d386a8a4c2","ios":"levelo://app?vid=38515a76-1577-4cbc-8a24-68d386a8a4c2"},"vehicle_type_id":"4","last_reported":1678910897,"current_range_meters":0,"station_id":"ce4bhah2rcd13ifvqei0","pricing_plan_id":"free"},{"bike_id":"7b6fa71b-3cfd-4322-a8d6-cb6fd8f1341b","system_id":"levelo_inurba_marseille","lat":43.284534,"lon":5.358662,"is_reserved":false,"is_disabled":false,"rental_uris":{"android":"levelo://app?vid=7b6fa71b-3cfd-4322-a8d6-cb6fd8f1341b","ios":"levelo://app?vid=7b6fa71b-3cfd-4322-a8d6-cb6fd8f1341b"},"vehicle_type_id":"4","last_reported":1678910897,"current_range_meters":24400,"station_id":"ce4bhah2rcd13ifvqei0","pricing_plan_id":"free"},{"bike_id":"6c86db45-cb62-42ba-ab47-63485ca1a647","system_id":"levelo_inurba_marseille","lat":43.284534,"lon":5.358662,"is_reserved":false,"is_disabled":false,"rental_uris":{"android":"levelo://app?vid=6c86db45-cb62-42ba-ab47-63485ca1a647","ios":"levelo://app?vid=6c86db45-cb62-42ba-ab47-63485ca1a647"},"vehicle_type_id":"4","last_reported":1678910897,"current_range_meters":19200,"station_id":"ce4bhah2rcd13ifvqei0","pricing_plan_id":"free"},{"bike_id":"6ad02cbb-083c-401d-9fe2-62b99ca5356c","system_id":"levelo_inurba_marseille","lat":43.284582,"lon":5.358984,"is_reserved":false,"is_disabled":false,"rental_uris":{"android":"levelo://app?vid=6ad02cbb-083c-401d-9fe2-62b99ca5356c","ios":"levelo://app?vid=6ad02cbb-083c-401d-9fe2-62b99ca5356c"},"vehicle_type_id":"4","last_reported":1678910897,"current_range_meters":20800,"station_id":"ce4bhah2rcd13ifvqei0","pricing_plan_id":"free"},{"bike_id":"facf2475-b1e8-4a1b-b9c4-23daf07dbc4b","system_id":"levelo_inurba_marseille","lat":43.284534,"lon":5.358662,"is_reserved":false,"is_disabled":false,"rental_uris":{"android":"levelo://app?vid=facf2475-b1e8-4a1b-b9c4-23daf07dbc4b","ios":"levelo://app?vid=facf2475-b1e8-4a1b-b9c4-23daf07dbc4b"},"vehicle_type_id":"4","last_reported":1678910897,"current_range_meters":18800,"station_id":"ce4bhah2rcd13ifvqei0","pricing_plan_id":"free"},{"bike_id":"5829f9ca-6c06-4c3f-b2a3-680568a3192e","system_id":"levelo_inurba_marseille","lat":43.284534,"lon":5.358662,"is_reserved":false,"is_disabled":false,"rental_uris":{"android":"levelo://app?vid=5829f9ca-6c06-4c3f-b2a3-680568a3192e","ios":"levelo://app?vid=5829f9ca-6c06-4c3f-b2a3-680568a3192e"},"vehicle_type_id":"4","last_reported":1678910897,"current_range_meters":18400,"station_id":"ce4bhah2rcd13ifvqei0","pricing_plan_id":"free"},{"bike_id":"540155df-12d4-4b0b-93e8-6386c91c6cb2","system_id":"levelo_inurba_marseille","lat":43.284534,"lon":5.358662,"is_reserved":false,"is_disabled":false,"rental_uris":{"android":"levelo://app?vid=540155df-12d4-4b0b-93e8-6386c91c6cb2","ios":"levelo://app?vid=540155df-12d4-4b0b-93e8-6386c91c6cb2"},"vehicle_type_id":"4","last_reported":1678910897,"current_range_meters":13200,"station_id":"ce4bhah2rcd13ifvqei0","pricing_plan_id":"free"},{"bike_id":"f602a9b4-8dfb-4aa8-a4db-6856e75b7a83","system_id":"levelo_inurba_marseille","lat":43.284534,"lon":5.358662,"is_reserved":false,"is_disabled":false,"rental_uris":{"android":"levelo://app?vid=f602a9b4-8dfb-4aa8-a4db-6856e75b7a83","ios":"levelo://app?vid=f602a9b4-8dfb-4aa8-a4db-6856e75b7a83"},"vehicle_type_id":"4","last_reported":1678910897,"current_range_meters":1200,"station_id":"ce4bhah2rcd13ifvqei0","pricing_plan_id":"free"},{"bike_id":"b0594579-eea9-4155-97a5-dc0e0c253c84","system_id":"levelo_inurba_marseille","lat":43.284534,"lon":5.358662,"is_reserved":false,"is_disabled":false,"rental_uris":{"android":"levelo://app?vid=b0594579-eea9-4155-97a5-dc0e0c253c84","ios":"levelo://app?vid=b0594579-eea9-4155-97a5-dc0e0c253c84"},"vehicle_type_id":"4","last_reported":1678910897,"current_range_meters":0,"station_id":"ce4bhah2rcd13ifvqei0","pricing_plan_id":"free"},{"bike_id":"ce0d4665-c41f-481f-8ad4-f8d6796bae07","system_id":"levelo_inurba_marseille","lat":43.284534,"lon":5.358662,"is_reserved":false,"is_disabled":false,"rental_uris":{"android":"levelo://app?vid=ce0d4665-c41f-481f-8ad4-f8d6796bae07","ios":"levelo://app?vid=ce0d4665-c41f-481f-8ad4-f8d6796bae07"},"vehicle_type_id":"4","last_reported":1678910897,"current_range_meters":14800,"station_id":"ce4bhah2rcd13ifvqei0","pricing_plan_id":"free"},{"bike_id":"7bdcf89e-def5-452b-8e0a-e3cc10b1f7ea","system_id":"levelo_inurba_marseille","lat":43.284534,"lon":5.358662,"is_reserved":false,"is_disabled":false,"rental_uris":{"android":"levelo://app?vid=7bdcf89e-def5-452b-8e0a-e3cc10b1f7ea","ios":"levelo://app?vid=7bdcf89e-def5-452b-8e0a-e3cc10b1f7ea"},"vehicle_type_id":"4","last_reported":1678910897,"current_range_meters":12000,"station_id":"ce4bhah2rcd13ifvqei0","pricing_plan_id":"free"},{"bike_id":"4f27d61f-dd85-4c98-a80b-8ee326941648","system_id":"levelo_inurba_marseille","lat":43.295713,"lon":5.399639,"is_reserved":false,"is_disabled":false,"rental_uris":{"android":"levelo://app?vid=4f27d61f-dd85-4c98-a80b-8ee326941648","ios":"levelo://app?vid=4f27d61f-dd85-4c98-a80b-8ee326941648"},"vehicle_type_id":"4","last_reported":1678910897,"current_range_meters":18800,"station_id":"ce4bh312rcd13ifvqdj0","pricing_plan_id":"free"},{"bike_id":"5ca2e7bc-c33c-41e0-9e47-235c59303c48","system_id":"levelo_inurba_marseille","lat":43.295713,"lon":5.399639,"is_reserved":false,"is_disabled":false,"rental_uris":{"android":"levelo://app?vid=5ca2e7bc-c33c-41e0-9e47-235c59303c48","ios":"levelo://app?vid=5ca2e7bc-c33c-41e0-9e47-235c59303c48"},"vehicle_type_id":"4","last_reported":1678910897,"current_range_meters":26400,"station_id":"ce4bh312rcd13ifvqdj0","pricing_plan_id":"free"},{"bike_id":"4c1a6724-c809-45af-8dc8-6f67bfb25bbf","system_id":"levelo_inurba_marseille","lat":43.295713,"lon":5.399639,"is_reserved":false,"is_disabled":false,"rental_uris":{"android":"levelo://app?vid=4c1a6724-c809-45af-8dc8-6f67bfb25bbf","ios":"levelo://app?vid=4c1a6724-c809-45af-8dc8-6f67bfb25bbf"},"vehicle_type_id":"4","last_reported":1678910897,"current_range_meters":17200,"station_id":"ce4bh312rcd13ifvqdj0","pricing_plan_id":"free"},{"bike_id":"68b7756c-7170-4ca4-8600-613d101e16b3","system_id":"levelo_inurba_marseille","lat":43.295713,"lon":5.399639,"is_reserved":false,"is_disabled":false,"rental_uris":{"android":"levelo://app?vid=68b7756c-7170-4ca4-8600-613d101e16b3","ios":"levelo://app?vid=68b7756c-7170-4ca4-8600-613d101e16b3"},"vehicle_type_id":"4","last_reported":1678910897,"current_range_meters":20800,"station_id":"ce4bh312rcd13ifvqdj0","pricing_plan_id":"free"},{"bike_id":"41c1bb69-3053-4986-b311-8b4096530f44","system_id":"levelo_inurba_marseille","lat":43.295713,"lon":5.399639,"is_reserved":false,"is_disabled":false,"rental_uris":{"android":"levelo://app?vid=41c1bb69-3053-4986-b311-8b4096530f44","ios":"levelo://app?vid=41c1bb69-3053-4986-b311-8b4096530f44"},"vehicle_type_id":"4","last_reported":1678910897,"current_range_meters":5600,"station_id":"ce4bh312rcd13ifvqdj0","pricing_plan_id":"free"},{"bike_id":"1d1a8a33-770d-4336-8667-09a531995bd8","system_id":"levelo_inurba_marseille","lat":43.286797,"lon":5.386647,"is_reserved":false,"is_disabled":false,"rental_uris":{"android":"levelo://app?vid=1d1a8a33-770d-4336-8667-09a531995bd8","ios":"levelo://app?vid=1d1a8a33-770d-4336-8667-09a531995bd8"},"vehicle_type_id":"4","last_reported":1678910897,"current_range_meters":0,"station_id":"ce4bh492rcd13ifvqdug","pricing_plan_id":"free"},{"bike_id":"60da8689-fc26-47ee-89a2-6ffb903438e1","system_id":"levelo_inurba_marseille","lat":43.286595,"lon":5.386795,"is_reserved":false,"is_disabled":false,"rental_uris":{"android":"levelo://app?vid=60da8689-fc26-47ee-89a2-6ffb903438e1","ios":"levelo://app?vid=60da8689-fc26-47ee-89a2-6ffb903438e1"},"vehicle_type_id":"4","last_reported":1678910897,"current_range_meters":2800,"station_id":"ce4bh492rcd13ifvqdug","pricing_plan_id":"free"},{"bike_id":"c949a094-1d65-4415-8559-0a6e4443c069","system_id":"levelo_inurba_marseille","lat":43.286595,"lon":5.386795,"is_reserved":false,"is_disabled":false,"rental_uris":{"android":"levelo://app?vid=c949a094-1d65-4415-8559-0a6e4443c069","ios":"levelo://app?vid=c949a094-1d65-4415-8559-0a6e4443c069"},"vehicle_type_id":"4","last_reported":1678910897,"current_range_meters":18800,"station_id":"ce4bh492rcd13ifvqdug","pricing_plan_id":"free"},{"bike_id":"67e83027-2f79-4b3d-8f8f-a61a8db40ddc","system_id":"levelo_inurba_marseille","lat":43.33717,"lon":5.391857,"is_reserved":false,"is_disabled":false,"rental_uris":{"android":"levelo://app?vid=67e83027-2f79-4b3d-8f8f-a61a8db40ddc","ios":"levelo://app?vid=67e83027-2f79-4b3d-8f8f-a61a8db40ddc"},"vehicle_type_id":"4","last_reported":1678910897,"current_range_meters":15600,"station_id":"ce4bhr92rcd13ifvqhsg","pricing_plan_id":"free"},{"bike_id":"15df1050-e905-43ff-99b8-0146d350e97e","system_id":"levelo_inurba_marseille","lat":43.33717,"lon":5.391857,"is_reserved":false,"is_disabled":false,"rental_uris":{"android":"levelo://app?vid=15df1050-e905-43ff-99b8-0146d350e97e","ios":"levelo://app?vid=15df1050-e905-43ff-99b8-0146d350e97e"},"vehicle_type_id":"4","last_reported":1678910897,"current_range_meters":26000,"station_id":"ce4bhr92rcd13ifvqhsg","pricing_plan_id":"free"},{"bike_id":"34b7b8d0-079e-43aa-9abd-0106fac3b082","system_id":"levelo_inurba_marseille","lat":43.33723,"lon":5.39182,"is_reserved":false,"is_disabled":false,"rental_uris":{"android":"levelo://app?vid=34b7b8d0-079e-43aa-9abd-0106fac3b082","ios":"levelo://app?vid=34b7b8d0-079e-43aa-9abd-0106fac3b082"},"vehicle_type_id":"4","last_reported":1678910897,"current_range_meters":31600,"station_id":"","pricing_plan_id":"free"},{"bike_id":"7602820e-a98d-42a0-90f2-9a2b257ac9e9","system_id":"levelo_inurba_marseille","lat":43.33717,"lon":5.391857,"is_reserved":false,"is_disabled":false,"rental_uris":{"android":"levelo://app?vid=7602820e-a98d-42a0-90f2-9a2b257ac9e9","ios":"levelo://app?vid=7602820e-a98d-42a0-90f2-9a2b257ac9e9"},"vehicle_type_id":"4","last_reported":1678910897,"current_range_meters":12400,"station_id":"ce4bhr92rcd13ifvqhsg","pricing_plan_id":"free"},{"bike_id":"7e527013-48c8-43b3-92b5-c0280bdc931c","system_id":"levelo_inurba_marseille","lat":43.33724,"lon":5.39185,"is_reserved":false,"is_disabled":false,"rental_uris":{"android":"levelo://app?vid=7e527013-48c8-43b3-92b5-c0280bdc931c","ios":"levelo://app?vid=7e527013-48c8-43b3-92b5-c0280bdc931c"},"vehicle_type_id":"4","last_reported":1678910897,"current_range_meters":19600,"station_id":"ce4bhr92rcd13ifvqhsg","pricing_plan_id":"free"},{"bike_id":"42896b38-34ac-492d-ad87-9574b998f595","system_id":"levelo_inurba_marseille","lat":43.32337,"lon":5.40619,"is_reserved":false,"is_disabled":false,"rental_uris":{"android":"levelo://app?vid=42896b38-34ac-492d-ad87-9574b998f595","ios":"levelo://app?vid=42896b38-34ac-492d-ad87-9574b998f595"},"vehicle_type_id":"4","last_reported":1678910897,"current_range_meters":30800,"station_id":"","pricing_plan_id":"free"},{"bike_id":"d0aa1e4c-312a-41c0-b187-587e4460478d","system_id":"levelo_inurba_marseille","lat":43.323397,"lon":5.40618,"is_reserved":false,"is_disabled":false,"rental_uris":{"android":"levelo://app?vid=d0aa1e4c-312a-41c0-b187-587e4460478d","ios":"levelo://app?vid=d0aa1e4c-312a-41c0-b187-587e4460478d"},"vehicle_type_id":"4","last_reported":1678910897,"current_range_meters":9600,"station_id":"ce4rr2p2rcd13i802rgg","pricing_plan_id":"free"},{"bike_id":"3a6f38b9-b9cc-4171-9bd6-c985d4a0ccc5","system_id":"levelo_inurba_marseille","lat":43.33717,"lon":5.391857,"is_reserved":false,"is_disabled":false,"rental_uris":{"android":"levelo://app?vid=3a6f38b9-b9cc-4171-9bd6-c985d4a0ccc5","ios":"levelo://app?vid=3a6f38b9-b9cc-4171-9bd6-c985d4a0ccc5"},"vehicle_type_id":"4","last_reported":1678910897,"current_range_meters":24800,"station_id":"ce4bhr92rcd13ifvqhsg","pricing_plan_id":"free"},{"bike_id":"dc36b888-c12e-496f-b05c-f1f98a68fb93","system_id":"levelo_inurba_marseille","lat":43.32337,"lon":5.40622,"is_reserved":false,"is_disabled":false,"rental_uris":{"android":"levelo://app?vid=dc36b888-c12e-496f-b05c-f1f98a68fb93","ios":"levelo://app?vid=dc36b888-c12e-496f-b05c-f1f98a68fb93"},"vehicle_type_id":"4","last_reported":1678910897,"current_range_meters":31600,"station_id":"","pricing_plan_id":"free"},{"bike_id":"0ca02bf8-9760-47db-8ebd-6c6e6e5c741c","system_id":"levelo_inurba_marseille","lat":43.323387,"lon":5.406213,"is_reserved":false,"is_disabled":false,"rental_uris":{"android":"levelo://app?vid=0ca02bf8-9760-47db-8ebd-6c6e6e5c741c","ios":"levelo://app?vid=0ca02bf8-9760-47db-8ebd-6c6e6e5c741c"},"vehicle_type_id":"4","last_reported":1678910897,"current_range_meters":9600,"station_id":"ce4rr2p2rcd13i802rgg","pricing_plan_id":"free"},{"bike_id":"fb475c56-a592-455f-972f-ec9c5f4dc6af","system_id":"levelo_inurba_marseille","lat":43.33728,"lon":5.39186,"is_reserved":false,"is_disabled":false,"rental_uris":{"android":"levelo://app?vid=fb475c56-a592-455f-972f-ec9c5f4dc6af","ios":"levelo://app?vid=fb475c56-a592-455f-972f-ec9c5f4dc6af"},"vehicle_type_id":"4","last_reported":1678910897,"current_range_meters":26800,"station_id":"ce4bhr92rcd13ifvqhsg","pricing_plan_id":"free"},{"bike_id":"339853a6-89f4-4b3b-9100-a20aa9d5d2ac","system_id":"levelo_inurba_marseille","lat":43.3234,"lon":5.40624,"is_reserved":false,"is_disabled":false,"rental_uris":{"android":"levelo://app?vid=339853a6-89f4-4b3b-9100-a20aa9d5d2ac","ios":"levelo://app?vid=339853a6-89f4-4b3b-9100-a20aa9d5d2ac"},"vehicle_type_id":"4","last_reported":1678910897,"current_range_meters":27200,"station_id":"","pricing_plan_id":"free"},{"bike_id":"4bd797f9-7454-4f80-aa0c-bf48d3a8d990","system_id":"levelo_inurba_marseille","lat":43.33727,"lon":5.39191,"is_reserved":false,"is_disabled":false,"rental_uris":{"android":"levelo://app?vid=4bd797f9-7454-4f80-aa0c-bf48d3a8d990","ios":"levelo://app?vid=4bd797f9-7454-4f80-aa0c-bf48d3a8d990"},"vehicle_type_id":"4","last_reported":1678910897,"current_range_meters":22000,"station_id":"ce4bhr92rcd13ifvqhsg","pricing_plan_id":"free"},{"bike_id":"c32ce35c-a207-458a-a59c-e17e51f695a3","system_id":"levelo_inurba_marseille","lat":43.33726,"lon":5.39199,"is_reserved":false,"is_disabled":false,"rental_uris":{"android":"levelo://app?vid=c32ce35c-a207-458a-a59c-e17e51f695a3","ios":"levelo://app?vid=c32ce35c-a207-458a-a59c-e17e51f695a3"},"vehicle_type_id":"4","last_reported":1678910897,"current_range_meters":20800,"station_id":"ce4bhr92rcd13ifvqhsg","pricing_plan_id":"free"},{"bike_id":"d0c7feb2-bfdc-4875-a862-7fe128d8ff4d","system_id":"levelo_inurba_marseille","lat":43.32339,"lon":5.406313,"is_reserved":false,"is_disabled":false,"rental_uris":{"android":"levelo://app?vid=d0c7feb2-bfdc-4875-a862-7fe128d8ff4d","ios":"levelo://app?vid=d0c7feb2-bfdc-4875-a862-7fe128d8ff4d"},"vehicle_type_id":"4","last_reported":1678910897,"current_range_meters":14800,"station_id":"ce4rr2p2rcd13i802rgg","pricing_plan_id":"free"},{"bike_id":"44df1229-7023-4378-904d-29223a14f352","system_id":"levelo_inurba_marseille","lat":43.288497,"lon":5.393089,"is_reserved":false,"is_disabled":false,"rental_uris":{"android":"levelo://app?vid=44df1229-7023-4378-904d-29223a14f352","ios":"levelo://app?vid=44df1229-7023-4378-904d-29223a14f352"},"vehicle_type_id":"4","last_reported":1678910897,"current_range_meters":18400,"station_id":"ce4bh2p2rcd13ifvqdi0","pricing_plan_id":"free"},{"bike_id":"17a11a64-66d2-4b19-9e7a-5d9ca54e4669","system_id":"levelo_inurba_marseille","lat":43.284219,"lon":5.3497,"is_reserved":false,"is_disabled":false,"rental_uris":{"android":"levelo://app?vid=17a11a64-66d2-4b19-9e7a-5d9ca54e4669","ios":"levelo://app?vid=17a11a64-66d2-4b19-9e7a-5d9ca54e4669"},"vehicle_type_id":"4","last_reported":1678910897,"current_range_meters":2000,"station_id":"ce4bhbh2rcd13ifvqepg","pricing_plan_id":"free"},{"bike_id":"8401fb18-1c16-4ec8-9470-ad62ba406ddb","system_id":"levelo_inurba_marseille","lat":43.284219,"lon":5.3497,"is_reserved":false,"is_disabled":false,"rental_uris":{"android":"levelo://app?vid=8401fb18-1c16-4ec8-9470-ad62ba406ddb","ios":"levelo://app?vid=8401fb18-1c16-4ec8-9470-ad62ba406ddb"},"vehicle_type_id":"4","last_reported":1678910897,"current_range_meters":19600,"station_id":"ce4bhbh2rcd13ifvqepg","pricing_plan_id":"free"},{"bike_id":"355236a6-d794-4ef3-b1a5-c760337d7ff9","system_id":"levelo_inurba_marseille","lat":43.28425,"lon":5.34995,"is_reserved":false,"is_disabled":false,"rental_uris":{"android":"levelo://app?vid=355236a6-d794-4ef3-b1a5-c760337d7ff9","ios":"levelo://app?vid=355236a6-d794-4ef3-b1a5-c760337d7ff9"},"vehicle_type_id":"4","last_reported":1678910897,"current_range_meters":26800,"station_id":"ce4bhbh2rcd13ifvqepg","pricing_plan_id":"free"},{"bike_id":"ea3e7dca-da16-441c-89ce-ed63e0bec06f","system_id":"levelo_inurba_marseille","lat":43.284219,"lon":5.3497,"is_reserved":false,"is_disabled":false,"rental_uris":{"android":"levelo://app?vid=ea3e7dca-da16-441c-89ce-ed63e0bec06f","ios":"levelo://app?vid=ea3e7dca-da16-441c-89ce-ed63e0bec06f"},"vehicle_type_id":"4","last_reported":1678910897,"current_range_meters":31600,"station_id":"ce4bhbh2rcd13ifvqepg","pricing_plan_id":"free"},{"bike_id":"419f2412-30e8-4a75-8caa-a5b53c3bde39","system_id":"levelo_inurba_marseille","lat":43.284249,"lon":5.349863,"is_reserved":false,"is_disabled":false,"rental_uris":{"android":"levelo://app?vid=419f2412-30e8-4a75-8caa-a5b53c3bde39","ios":"levelo://app?vid=419f2412-30e8-4a75-8caa-a5b53c3bde39"},"vehicle_type_id":"4","last_reported":1678910897,"current_range_meters":31600,"station_id":"ce4bhbh2rcd13ifvqepg","pricing_plan_id":"free"},{"bike_id":"8579fdb6-246d-438a-b198-b051963e2622","system_id":"levelo_inurba_marseille","lat":43.28423,"lon":5.34983,"is_reserved":false,"is_disabled":false,"rental_uris":{"android":"levelo://app?vid=8579fdb6-246d-438a-b198-b051963e2622","ios":"levelo://app?vid=8579fdb6-246d-438a-b198-b051963e2622"},"vehicle_type_id":"4","last_reported":1678910897,"current_range_meters":31600,"station_id":"ce4bhbh2rcd13ifvqepg","pricing_plan_id":"free"},{"bike_id":"5a90508c-490f-49e4-822a-d107dd19bb77","system_id":"levelo_inurba_marseille","lat":43.289363,"lon":5.396322,"is_reserved":false,"is_disabled":false,"rental_uris":{"android":"levelo://app?vid=5a90508c-490f-49e4-822a-d107dd19bb77","ios":"levelo://app?vid=5a90508c-490f-49e4-822a-d107dd19bb77"},"vehicle_type_id":"4","last_reported":1678910897,"current_range_meters":12000,"station_id":"ce4bh3h2rcd13ifvqdn0","pricing_plan_id":"free"},{"bike_id":"3cecbe24-fc01-4079-ad3a-ef3489397770","system_id":"levelo_inurba_marseille","lat":43.292724,"lon":5.401131,"is_reserved":false,"is_disabled":false,"rental_uris":{"android":"levelo://app?vid=3cecbe24-fc01-4079-ad3a-ef3489397770","ios":"levelo://app?vid=3cecbe24-fc01-4079-ad3a-ef3489397770"},"vehicle_type_id":"4","last_reported":1678910897,"current_range_meters":2400,"station_id":"ce4bh312rcd13ifvqdk0","pricing_plan_id":"free"},{"bike_id":"a62aa58f-95f8-42cc-b61f-d0fe6972b106","system_id":"levelo_inurba_marseille","lat":43.283502,"lon":5.386471,"is_reserved":false,"is_disabled":false,"rental_uris":{"android":"levelo://app?vid=a62aa58f-95f8-42cc-b61f-d0fe6972b106","ios":"levelo://app?vid=a62aa58f-95f8-42cc-b61f-d0fe6972b106"},"vehicle_type_id":"4","last_reported":1678910897,"current_range_meters":14000,"station_id":"ce4bh492rcd13ifvqdvg","pricing_plan_id":"free"},{"bike_id":"cb570bca-6fd2-4044-96b7-d0de8a896b42","system_id":"levelo_inurba_marseille","lat":43.282744,"lon":5.350533,"is_reserved":false,"is_disabled":false,"rental_uris":{"android":"levelo://app?vid=cb570bca-6fd2-4044-96b7-d0de8a896b42","ios":"levelo://app?vid=cb570bca-6fd2-4044-96b7-d0de8a896b42"},"vehicle_type_id":"4","last_reported":1678910897,"current_range_meters":15200,"station_id":"ce4bhbp2rcd13ifvqerg","pricing_plan_id":"free"},{"bike_id":"dc22176d-8fc3-41bd-9182-9e0682dbb3af","system_id":"levelo_inurba_marseille","lat":43.28039,"lon":5.369297,"is_reserved":false,"is_disabled":false,"rental_uris":{"android":"levelo://app?vid=dc22176d-8fc3-41bd-9182-9e0682dbb3af","ios":"levelo://app?vid=dc22176d-8fc3-41bd-9182-9e0682dbb3af"},"vehicle_type_id":"4","last_reported":1678910897,"current_range_meters":17200,"station_id":"ce4bha12rcd13ifvqef0","pricing_plan_id":"free"},{"bike_id":"39167eec-7341-4c70-bf5d-fd83512dec44","system_id":"levelo_inurba_marseille","lat":43.290412,"lon":5.399633,"is_reserved":false,"is_disabled":false,"rental_uris":{"android":"levelo://app?vid=39167eec-7341-4c70-bf5d-fd83512dec44","ios":"levelo://app?vid=39167eec-7341-4c70-bf5d-fd83512dec44"},"vehicle_type_id":"4","last_reported":1678910897,"current_range_meters":18800,"station_id":"ce4bh392rcd13ifvqdm0","pricing_plan_id":"free"},{"bike_id":"d42a9bb4-09aa-4e42-83ff-d0d65b0bf6e6","system_id":"levelo_inurba_marseille","lat":43.29041,"lon":5.399634,"is_reserved":false,"is_disabled":false,"rental_uris":{"android":"levelo://app?vid=d42a9bb4-09aa-4e42-83ff-d0d65b0bf6e6","ios":"levelo://app?vid=d42a9bb4-09aa-4e42-83ff-d0d65b0bf6e6"},"vehicle_type_id":"4","last_reported":1678910897,"current_range_meters":14400,"station_id":"ce4bh392rcd13ifvqdm0","pricing_plan_id":"free"},{"bike_id":"fbd81724-0b1b-4143-95dc-ca9086439d49","system_id":"levelo_inurba_marseille","lat":43.28178,"lon":5.35276,"is_reserved":false,"is_disabled":false,"rental_uris":{"android":"levelo://app?vid=fbd81724-0b1b-4143-95dc-ca9086439d49","ios":"levelo://app?vid=fbd81724-0b1b-4143-95dc-ca9086439d49"},"vehicle_type_id":"4","last_reported":1678910897,"current_range_meters":5600,"station_id":"","pricing_plan_id":"free"},{"bike_id":"505733f8-8500-4344-8088-65d9c7e40321","system_id":"levelo_inurba_marseille","lat":43.296263,"lon":5.40601,"is_reserved":false,"is_disabled":false,"rental_uris":{"android":"levelo://app?vid=505733f8-8500-4344-8088-65d9c7e40321","ios":"levelo://app?vid=505733f8-8500-4344-8088-65d9c7e40321"},"vehicle_type_id":"4","last_reported":1678910897,"current_range_meters":6000,"station_id":"ce4bh0h2rcd13ifvqd60","pricing_plan_id":"free"},{"bike_id":"edfcb606-3155-4405-b0a4-7946077969f6","system_id":"levelo_inurba_marseille","lat":43.281044,"lon":5.378308,"is_reserved":false,"is_disabled":false,"rental_uris":{"android":"levelo://app?vid=edfcb606-3155-4405-b0a4-7946077969f6","ios":"levelo://app?vid=edfcb606-3155-4405-b0a4-7946077969f6"},"vehicle_type_id":"4","last_reported":1678910897,"current_range_meters":6000,"station_id":"ce4bha12rcd13ifvqee0","pricing_plan_id":"free"},{"bike_id":"41824ba0-6d84-4f3f-80dd-090f4d7dae2e","system_id":"levelo_inurba_marseille","lat":43.281044,"lon":5.378308,"is_reserved":false,"is_disabled":false,"rental_uris":{"android":"levelo://app?vid=41824ba0-6d84-4f3f-80dd-090f4d7dae2e","ios":"levelo://app?vid=41824ba0-6d84-4f3f-80dd-090f4d7dae2e"},"vehicle_type_id":"4","last_reported":1678910897,"current_range_meters":14000,"station_id":"ce4bha12rcd13ifvqee0","pricing_plan_id":"free"},{"bike_id":"62d175db-338a-4d4a-bead-91159698825e","system_id":"levelo_inurba_marseille","lat":43.281044,"lon":5.378308,"is_reserved":false,"is_disabled":false,"rental_uris":{"android":"levelo://app?vid=62d175db-338a-4d4a-bead-91159698825e","ios":"levelo://app?vid=62d175db-338a-4d4a-bead-91159698825e"},"vehicle_type_id":"4","last_reported":1678910897,"current_range_meters":0,"station_id":"ce4bha12rcd13ifvqee0","pricing_plan_id":"free"},{"bike_id":"0be069c4-7141-469e-a29a-cdf76dc00f2a","system_id":"levelo_inurba_marseille","lat":43.280994,"lon":5.378486,"is_reserved":false,"is_disabled":false,"rental_uris":{"android":"levelo://app?vid=0be069c4-7141-469e-a29a-cdf76dc00f2a","ios":"levelo://app?vid=0be069c4-7141-469e-a29a-cdf76dc00f2a"},"vehicle_type_id":"4","last_reported":1678910897,"current_range_meters":31600,"station_id":"ce4bha12rcd13ifvqee0","pricing_plan_id":"free"},{"bike_id":"ef4007f1-ebf9-4fa4-b984-d0af2f1c6bbf","system_id":"levelo_inurba_marseille","lat":43.28337,"lon":5.38907,"is_reserved":false,"is_disabled":false,"rental_uris":{"android":"levelo://app?vid=ef4007f1-ebf9-4fa4-b984-d0af2f1c6bbf","ios":"levelo://app?vid=ef4007f1-ebf9-4fa4-b984-d0af2f1c6bbf"},"vehicle_type_id":"4","last_reported":1678910897,"current_range_meters":19600,"station_id":"","pricing_plan_id":"free"},{"bike_id":"b5104e24-da17-45d3-a6fe-0be1470a7a06","system_id":"levelo_inurba_marseille","lat":43.284462,"lon":5.392121,"is_reserved":false,"is_disabled":false,"rental_uris":{"android":"levelo://app?vid=b5104e24-da17-45d3-a6fe-0be1470a7a06","ios":"levelo://app?vid=b5104e24-da17-45d3-a6fe-0be1470a7a06"},"vehicle_type_id":"4","last_reported":1678910897,"current_range_meters":1600,"station_id":"ce4bhoh2rcd13ifvqh5g","pricing_plan_id":"free"},{"bike_id":"2b36c0b4-b1d6-491f-8a88-27647f37d9fc","system_id":"levelo_inurba_marseille","lat":43.284462,"lon":5.392121,"is_reserved":false,"is_disabled":false,"rental_uris":{"android":"levelo://app?vid=2b36c0b4-b1d6-491f-8a88-27647f37d9fc","ios":"levelo://app?vid=2b36c0b4-b1d6-491f-8a88-27647f37d9fc"},"vehicle_type_id":"4","last_reported":1678910897,"current_range_meters":6400,"station_id":"ce4bhoh2rcd13ifvqh5g","pricing_plan_id":"free"},{"bike_id":"fb7f6dfb-7f2f-4237-80c5-e442d5db35d2","system_id":"levelo_inurba_marseille","lat":43.284462,"lon":5.392121,"is_reserved":false,"is_disabled":false,"rental_uris":{"android":"levelo://app?vid=fb7f6dfb-7f2f-4237-80c5-e442d5db35d2","ios":"levelo://app?vid=fb7f6dfb-7f2f-4237-80c5-e442d5db35d2"},"vehicle_type_id":"4","last_reported":1678910897,"current_range_meters":30800,"station_id":"ce4bhoh2rcd13ifvqh5g","pricing_plan_id":"free"},{"bike_id":"5396ef79-8ff9-4708-8b1e-6eb99d54625c","system_id":"levelo_inurba_marseille","lat":43.287154,"lon":5.399979,"is_reserved":false,"is_disabled":false,"rental_uris":{"android":"levelo://app?vid=5396ef79-8ff9-4708-8b1e-6eb99d54625c","ios":"levelo://app?vid=5396ef79-8ff9-4708-8b1e-6eb99d54625c"},"vehicle_type_id":"4","last_reported":1678910897,"current_range_meters":24400,"station_id":"ce4bho92rcd13ifvqh3g","pricing_plan_id":"free"},{"bike_id":"e265f0fa-a4d6-40f3-b7b6-b454aa3267e8","system_id":"levelo_inurba_marseille","lat":43.287154,"lon":5.399979,"is_reserved":false,"is_disabled":false,"rental_uris":{"android":"levelo://app?vid=e265f0fa-a4d6-40f3-b7b6-b454aa3267e8","ios":"levelo://app?vid=e265f0fa-a4d6-40f3-b7b6-b454aa3267e8"},"vehicle_type_id":"4","last_reported":1678910897,"current_range_meters":28800,"station_id":"ce4bho92rcd13ifvqh3g","pricing_plan_id":"free"},{"bike_id":"0c466282-80b8-4aec-9c99-78a2645255a1","system_id":"levelo_inurba_marseille","lat":43.287,"lon":5.39979,"is_reserved":false,"is_disabled":false,"rental_uris":{"android":"levelo://app?vid=0c466282-80b8-4aec-9c99-78a2645255a1","ios":"levelo://app?vid=0c466282-80b8-4aec-9c99-78a2645255a1"},"vehicle_type_id":"4","last_reported":1678910897,"current_range_meters":13200,"station_id":"ce4bho92rcd13ifvqh3g","pricing_plan_id":"free"},{"bike_id":"b773f898-c2be-40ab-8878-ba3e902937f8","system_id":"levelo_inurba_marseille","lat":43.286957,"lon":5.399881,"is_reserved":false,"is_disabled":false,"rental_uris":{"android":"levelo://app?vid=b773f898-c2be-40ab-8878-ba3e902937f8","ios":"levelo://app?vid=b773f898-c2be-40ab-8878-ba3e902937f8"},"vehicle_type_id":"4","last_reported":1678910897,"current_range_meters":23200,"station_id":"ce4bho92rcd13ifvqh3g","pricing_plan_id":"free"},{"bike_id":"a9dda6fc-221a-4e7f-8eb2-7c23f4cfdefb","system_id":"levelo_inurba_marseille","lat":43.287154,"lon":5.399979,"is_reserved":false,"is_disabled":false,"rental_uris":{"android":"levelo://app?vid=a9dda6fc-221a-4e7f-8eb2-7c23f4cfdefb","ios":"levelo://app?vid=a9dda6fc-221a-4e7f-8eb2-7c23f4cfdefb"},"vehicle_type_id":"4","last_reported":1678910897,"current_range_meters":0,"station_id":"ce4bho92rcd13ifvqh3g","pricing_plan_id":"free"},{"bike_id":"aea02ae5-2f40-4e3c-827b-6fa97ac1401e","system_id":"levelo_inurba_marseille","lat":43.320045,"lon":5.415048,"is_reserved":false,"is_disabled":false,"rental_uris":{"android":"levelo://app?vid=aea02ae5-2f40-4e3c-827b-6fa97ac1401e","ios":"levelo://app?vid=aea02ae5-2f40-4e3c-827b-6fa97ac1401e"},"vehicle_type_id":"4","last_reported":1678910897,"current_range_meters":1600,"station_id":"ce4bhq92rcd13ifvqhkg","pricing_plan_id":"free"},{"bike_id":"be15fc15-611f-44bb-9e7e-a898afe4c469","system_id":"levelo_inurba_marseille","lat":43.32032,"lon":5.415401,"is_reserved":false,"is_disabled":false,"rental_uris":{"android":"levelo://app?vid=be15fc15-611f-44bb-9e7e-a898afe4c469","ios":"levelo://app?vid=be15fc15-611f-44bb-9e7e-a898afe4c469"},"vehicle_type_id":"4","last_reported":1678910897,"current_range_meters":11200,"station_id":"ce4bh012rcd13ifvqd00","pricing_plan_id":"free"},{"bike_id":"dae80b35-0655-4565-b1a1-c6f9bde81f13","system_id":"levelo_inurba_marseille","lat":43.320045,"lon":5.415048,"is_reserved":false,"is_disabled":false,"rental_uris":{"android":"levelo://app?vid=dae80b35-0655-4565-b1a1-c6f9bde81f13","ios":"levelo://app?vid=dae80b35-0655-4565-b1a1-c6f9bde81f13"},"vehicle_type_id":"4","last_reported":1678910897,"current_range_meters":400,"station_id":"ce4bhq92rcd13ifvqhkg","pricing_plan_id":"free"},{"bike_id":"3f6e911d-7e09-46dc-a02c-678a0be329b6","system_id":"levelo_inurba_marseille","lat":43.320045,"lon":5.415048,"is_reserved":false,"is_disabled":false,"rental_uris":{"android":"levelo://app?vid=3f6e911d-7e09-46dc-a02c-678a0be329b6","ios":"levelo://app?vid=3f6e911d-7e09-46dc-a02c-678a0be329b6"},"vehicle_type_id":"4","last_reported":1678910897,"current_range_meters":26800,"station_id":"ce4bhq92rcd13ifvqhkg","pricing_plan_id":"free"},{"bike_id":"2815ace8-aab8-470f-b563-d8784563dcc7","system_id":"levelo_inurba_marseille","lat":43.320045,"lon":5.415048,"is_reserved":false,"is_disabled":false,"rental_uris":{"android":"levelo://app?vid=2815ace8-aab8-470f-b563-d8784563dcc7","ios":"levelo://app?vid=2815ace8-aab8-470f-b563-d8784563dcc7"},"vehicle_type_id":"4","last_reported":1678910897,"current_range_meters":28800,"station_id":"ce4bhq92rcd13ifvqhkg","pricing_plan_id":"free"},{"bike_id":"f40dfacc-81a7-41e9-bc39-3454a7dfbc19","system_id":"levelo_inurba_marseille","lat":43.320045,"lon":5.415048,"is_reserved":false,"is_disabled":false,"rental_uris":{"android":"levelo://app?vid=f40dfacc-81a7-41e9-bc39-3454a7dfbc19","ios":"levelo://app?vid=f40dfacc-81a7-41e9-bc39-3454a7dfbc19"},"vehicle_type_id":"4","last_reported":1678910897,"current_range_meters":13200,"station_id":"ce4bhq92rcd13ifvqhkg","pricing_plan_id":"free"},{"bike_id":"3a33998f-4ac3-4348-8ef9-01a3fa4304cf","system_id":"levelo_inurba_marseille","lat":43.320045,"lon":5.415048,"is_reserved":false,"is_disabled":false,"rental_uris":{"android":"levelo://app?vid=3a33998f-4ac3-4348-8ef9-01a3fa4304cf","ios":"levelo://app?vid=3a33998f-4ac3-4348-8ef9-01a3fa4304cf"},"vehicle_type_id":"4","last_reported":1678910897,"current_range_meters":7600,"station_id":"ce4bhq92rcd13ifvqhkg","pricing_plan_id":"free"},{"bike_id":"935339e1-78c7-4ff3-97b4-d7f8e2fa9588","system_id":"levelo_inurba_marseille","lat":43.320045,"lon":5.415048,"is_reserved":false,"is_disabled":false,"rental_uris":{"android":"levelo://app?vid=935339e1-78c7-4ff3-97b4-d7f8e2fa9588","ios":"levelo://app?vid=935339e1-78c7-4ff3-97b4-d7f8e2fa9588"},"vehicle_type_id":"4","last_reported":1678910897,"current_range_meters":31200,"station_id":"ce4bhq92rcd13ifvqhkg","pricing_plan_id":"free"},{"bike_id":"18748e66-c446-4b52-820e-c6c0a5239b64","system_id":"levelo_inurba_marseille","lat":43.29986,"lon":5.41361,"is_reserved":false,"is_disabled":false,"rental_uris":{"android":"levelo://app?vid=18748e66-c446-4b52-820e-c6c0a5239b64","ios":"levelo://app?vid=18748e66-c446-4b52-820e-c6c0a5239b64"},"vehicle_type_id":"4","last_reported":1678910897,"current_range_meters":23200,"station_id":"","pricing_plan_id":"free"},{"bike_id":"173e59fd-2dd4-4bf9-9d6f-fa0e5d485123","system_id":"levelo_inurba_marseille","lat":43.292571,"lon":5.409107,"is_reserved":false,"is_disabled":false,"rental_uris":{"android":"levelo://app?vid=173e59fd-2dd4-4bf9-9d6f-fa0e5d485123","ios":"levelo://app?vid=173e59fd-2dd4-4bf9-9d6f-fa0e5d485123"},"vehicle_type_id":"4","last_reported":1678910897,"current_range_meters":19600,"station_id":"ce4bh192rcd13ifvqdc0","pricing_plan_id":"free"},{"bike_id":"469a25b0-3a5b-46da-97e9-c656ae8a6663","system_id":"levelo_inurba_marseille","lat":43.325233,"lon":5.414318,"is_reserved":false,"is_disabled":false,"rental_uris":{"android":"levelo://app?vid=469a25b0-3a5b-46da-97e9-c656ae8a6663","ios":"levelo://app?vid=469a25b0-3a5b-46da-97e9-c656ae8a6663"},"vehicle_type_id":"4","last_reported":1678910897,"current_range_meters":28800,"station_id":"ce4bhq12rcd13ifvqhhg","pricing_plan_id":"free"},{"bike_id":"7b72843c-84a2-4397-9ba7-d1635d220645","system_id":"levelo_inurba_marseille","lat":43.325233,"lon":5.414318,"is_reserved":false,"is_disabled":false,"rental_uris":{"android":"levelo://app?vid=7b72843c-84a2-4397-9ba7-d1635d220645","ios":"levelo://app?vid=7b72843c-84a2-4397-9ba7-d1635d220645"},"vehicle_type_id":"4","last_reported":1678910897,"current_range_meters":24000,"station_id":"ce4bhq12rcd13ifvqhhg","pricing_plan_id":"free"},{"bike_id":"ba90f40d-133c-4f05-8f63-fc18dc680875","system_id":"levelo_inurba_marseille","lat":43.32535,"lon":5.41438,"is_reserved":false,"is_disabled":false,"rental_uris":{"android":"levelo://app?vid=ba90f40d-133c-4f05-8f63-fc18dc680875","ios":"levelo://app?vid=ba90f40d-133c-4f05-8f63-fc18dc680875"},"vehicle_type_id":"4","last_reported":1678910897,"current_range_meters":23600,"station_id":"ce4bhq12rcd13ifvqhhg","pricing_plan_id":"free"},{"bike_id":"4710e668-322b-4cc2-82ae-e24b8e70f886","system_id":"levelo_inurba_marseille","lat":43.325243,"lon":5.414326,"is_reserved":false,"is_disabled":false,"rental_uris":{"android":"levelo://app?vid=4710e668-322b-4cc2-82ae-e24b8e70f886","ios":"levelo://app?vid=4710e668-322b-4cc2-82ae-e24b8e70f886"},"vehicle_type_id":"4","last_reported":1678910897,"current_range_meters":8400,"station_id":"ce4bhq12rcd13ifvqhhg","pricing_plan_id":"free"},{"bike_id":"ae25805e-8f76-408f-94cd-7b002108bfd5","system_id":"levelo_inurba_marseille","lat":43.280784,"lon":5.396622,"is_reserved":false,"is_disabled":false,"rental_uris":{"android":"levelo://app?vid=ae25805e-8f76-408f-94cd-7b002108bfd5","ios":"levelo://app?vid=ae25805e-8f76-408f-94cd-7b002108bfd5"},"vehicle_type_id":"4","last_reported":1678910897,"current_range_meters":4800,"station_id":"ce4bho12rcd13ifvqh2g","pricing_plan_id":"free"},{"bike_id":"1aa1ba83-fdc2-4f21-b279-c18fe7ceeaed","system_id":"levelo_inurba_marseille","lat":43.280784,"lon":5.396622,"is_reserved":false,"is_disabled":false,"rental_uris":{"android":"levelo://app?vid=1aa1ba83-fdc2-4f21-b279-c18fe7ceeaed","ios":"levelo://app?vid=1aa1ba83-fdc2-4f21-b279-c18fe7ceeaed"},"vehicle_type_id":"4","last_reported":1678910897,"current_range_meters":2000,"station_id":"ce4bho12rcd13ifvqh2g","pricing_plan_id":"free"},{"bike_id":"0d65cf68-9e3c-4f75-aa57-dd331cfc64fb","system_id":"levelo_inurba_marseille","lat":43.273613,"lon":5.362705,"is_reserved":false,"is_disabled":false,"rental_uris":{"android":"levelo://app?vid=0d65cf68-9e3c-4f75-aa57-dd331cfc64fb","ios":"levelo://app?vid=0d65cf68-9e3c-4f75-aa57-dd331cfc64fb"},"vehicle_type_id":"4","last_reported":1678910897,"current_range_meters":10400,"station_id":"ce4bhbh2rcd13ifvqeo0","pricing_plan_id":"free"},{"bike_id":"536e0f45-325d-443f-bea7-4114006c3f94","system_id":"levelo_inurba_marseille","lat":43.273613,"lon":5.362705,"is_reserved":false,"is_disabled":false,"rental_uris":{"android":"levelo://app?vid=536e0f45-325d-443f-bea7-4114006c3f94","ios":"levelo://app?vid=536e0f45-325d-443f-bea7-4114006c3f94"},"vehicle_type_id":"4","last_reported":1678910897,"current_range_meters":30800,"station_id":"ce4bhbh2rcd13ifvqeo0","pricing_plan_id":"free"},{"bike_id":"6ec05a53-8a13-4418-932e-ca3661ae3af4","system_id":"levelo_inurba_marseille","lat":43.273613,"lon":5.362705,"is_reserved":false,"is_disabled":false,"rental_uris":{"android":"levelo://app?vid=6ec05a53-8a13-4418-932e-ca3661ae3af4","ios":"levelo://app?vid=6ec05a53-8a13-4418-932e-ca3661ae3af4"},"vehicle_type_id":"4","last_reported":1678910897,"current_range_meters":29200,"station_id":"ce4bhbh2rcd13ifvqeo0","pricing_plan_id":"free"},{"bike_id":"0aa5fc87-3d2e-40bb-9e32-7b66c02088eb","system_id":"levelo_inurba_marseille","lat":43.273613,"lon":5.362705,"is_reserved":false,"is_disabled":false,"rental_uris":{"android":"levelo://app?vid=0aa5fc87-3d2e-40bb-9e32-7b66c02088eb","ios":"levelo://app?vid=0aa5fc87-3d2e-40bb-9e32-7b66c02088eb"},"vehicle_type_id":"4","last_reported":1678910897,"current_range_meters":19200,"station_id":"ce4bhbh2rcd13ifvqeo0","pricing_plan_id":"free"},{"bike_id":"fed67d13-cd19-41a8-b7c9-28172b0c2266","system_id":"levelo_inurba_marseille","lat":43.273802,"lon":5.362583,"is_reserved":false,"is_disabled":false,"rental_uris":{"android":"levelo://app?vid=fed67d13-cd19-41a8-b7c9-28172b0c2266","ios":"levelo://app?vid=fed67d13-cd19-41a8-b7c9-28172b0c2266"},"vehicle_type_id":"4","last_reported":1678910897,"current_range_meters":10000,"station_id":"","pricing_plan_id":"free"},{"bike_id":"3cb0cf11-7213-47b0-b35e-15bb3d7e4a83","system_id":"levelo_inurba_marseille","lat":43.273613,"lon":5.362705,"is_reserved":false,"is_disabled":false,"rental_uris":{"android":"levelo://app?vid=3cb0cf11-7213-47b0-b35e-15bb3d7e4a83","ios":"levelo://app?vid=3cb0cf11-7213-47b0-b35e-15bb3d7e4a83"},"vehicle_type_id":"4","last_reported":1678910897,"current_range_meters":26000,"station_id":"ce4bhbh2rcd13ifvqeo0","pricing_plan_id":"free"},{"bike_id":"923d8507-12c3-40fd-b22f-c57feba2b4fe","system_id":"levelo_inurba_marseille","lat":43.273613,"lon":5.362705,"is_reserved":false,"is_disabled":false,"rental_uris":{"android":"levelo://app?vid=923d8507-12c3-40fd-b22f-c57feba2b4fe","ios":"levelo://app?vid=923d8507-12c3-40fd-b22f-c57feba2b4fe"},"vehicle_type_id":"4","last_reported":1678910897,"current_range_meters":28400,"station_id":"ce4bhbh2rcd13ifvqeo0","pricing_plan_id":"free"},{"bike_id":"07585d5b-f490-4106-95ae-63d3ce04dd54","system_id":"levelo_inurba_marseille","lat":43.27375,"lon":5.36258,"is_reserved":false,"is_disabled":false,"rental_uris":{"android":"levelo://app?vid=07585d5b-f490-4106-95ae-63d3ce04dd54","ios":"levelo://app?vid=07585d5b-f490-4106-95ae-63d3ce04dd54"},"vehicle_type_id":"4","last_reported":1678910897,"current_range_meters":6400,"station_id":"","pricing_plan_id":"free"},{"bike_id":"8d9be07a-6be3-4aff-be6e-cb563df5f0e8","system_id":"levelo_inurba_marseille","lat":43.273613,"lon":5.362705,"is_reserved":false,"is_disabled":false,"rental_uris":{"android":"levelo://app?vid=8d9be07a-6be3-4aff-be6e-cb563df5f0e8","ios":"levelo://app?vid=8d9be07a-6be3-4aff-be6e-cb563df5f0e8"},"vehicle_type_id":"4","last_reported":1678910897,"current_range_meters":24000,"station_id":"ce4bhbh2rcd13ifvqeo0","pricing_plan_id":"free"},{"bike_id":"3b55790e-f151-4191-a081-88d3cd2696bf","system_id":"levelo_inurba_marseille","lat":43.33612,"lon":5.410321,"is_reserved":false,"is_disabled":false,"rental_uris":{"android":"levelo://app?vid=3b55790e-f151-4191-a081-88d3cd2696bf","ios":"levelo://app?vid=3b55790e-f151-4191-a081-88d3cd2696bf"},"vehicle_type_id":"4","last_reported":1678910897,"current_range_meters":6400,"station_id":"ce4bhqh2rcd13ifvqhmg","pricing_plan_id":"free"},{"bike_id":"cc5fd69f-584a-47b4-a535-ce57865fa0d6","system_id":"levelo_inurba_marseille","lat":43.273613,"lon":5.362705,"is_reserved":false,"is_disabled":false,"rental_uris":{"android":"levelo://app?vid=cc5fd69f-584a-47b4-a535-ce57865fa0d6","ios":"levelo://app?vid=cc5fd69f-584a-47b4-a535-ce57865fa0d6"},"vehicle_type_id":"4","last_reported":1678910897,"current_range_meters":24800,"station_id":"ce4bhbh2rcd13ifvqeo0","pricing_plan_id":"free"},{"bike_id":"0c15ef2e-992d-4a2e-9d72-8661971b5857","system_id":"levelo_inurba_marseille","lat":43.3361,"lon":5.4103,"is_reserved":false,"is_disabled":false,"rental_uris":{"android":"levelo://app?vid=0c15ef2e-992d-4a2e-9d72-8661971b5857","ios":"levelo://app?vid=0c15ef2e-992d-4a2e-9d72-8661971b5857"},"vehicle_type_id":"4","last_reported":1678910897,"current_range_meters":16800,"station_id":"","pricing_plan_id":"free"},{"bike_id":"ba60c7d0-88a5-467b-91b0-6fc1a46b612d","system_id":"levelo_inurba_marseille","lat":43.276673,"lon":5.389095,"is_reserved":false,"is_disabled":false,"rental_uris":{"android":"levelo://app?vid=ba60c7d0-88a5-467b-91b0-6fc1a46b612d","ios":"levelo://app?vid=ba60c7d0-88a5-467b-91b0-6fc1a46b612d"},"vehicle_type_id":"4","last_reported":1678910897,"current_range_meters":0,"station_id":"","pricing_plan_id":"free"},{"bike_id":"4de02cdf-c69d-4ca6-a020-8ecb8e0dcffd","system_id":"levelo_inurba_marseille","lat":43.317121,"lon":5.423936,"is_reserved":false,"is_disabled":false,"rental_uris":{"android":"levelo://app?vid=4de02cdf-c69d-4ca6-a020-8ecb8e0dcffd","ios":"levelo://app?vid=4de02cdf-c69d-4ca6-a020-8ecb8e0dcffd"},"vehicle_type_id":"4","last_reported":1678910897,"current_range_meters":27600,"station_id":"ce4bhp92rcd13ifvqhbg","pricing_plan_id":"free"},{"bike_id":"63dee804-3724-4c91-8499-c6b93aaeb9df","system_id":"levelo_inurba_marseille","lat":43.310785,"lon":5.424305,"is_reserved":false,"is_disabled":false,"rental_uris":{"android":"levelo://app?vid=63dee804-3724-4c91-8499-c6b93aaeb9df","ios":"levelo://app?vid=63dee804-3724-4c91-8499-c6b93aaeb9df"},"vehicle_type_id":"4","last_reported":1678910897,"current_range_meters":14400,"station_id":"ce4bhp92rcd13ifvqhag","pricing_plan_id":"free"},{"bike_id":"2f549614-523f-48aa-a274-ab72fb661e03","system_id":"levelo_inurba_marseille","lat":43.304096,"lon":5.425385,"is_reserved":false,"is_disabled":false,"rental_uris":{"android":"levelo://app?vid=2f549614-523f-48aa-a274-ab72fb661e03","ios":"levelo://app?vid=2f549614-523f-48aa-a274-ab72fb661e03"},"vehicle_type_id":"4","last_reported":1678910897,"current_range_meters":0,"station_id":"ce4bhoh2rcd13ifvqh6g","pricing_plan_id":"free"},{"bike_id":"64896969-7398-48e4-9267-ae27e722b0ab","system_id":"levelo_inurba_marseille","lat":43.295523,"lon":5.422926,"is_reserved":false,"is_disabled":false,"rental_uris":{"android":"levelo://app?vid=64896969-7398-48e4-9267-ae27e722b0ab","ios":"levelo://app?vid=64896969-7398-48e4-9267-ae27e722b0ab"},"vehicle_type_id":"4","last_reported":1678910897,"current_range_meters":0,"station_id":"ce4bhph2rcd13ifvqhdg","pricing_plan_id":"free"},{"bike_id":"b5f6d975-4102-41b3-b5cd-2137a3521ed9","system_id":"levelo_inurba_marseille","lat":43.295516,"lon":5.4228,"is_reserved":false,"is_disabled":false,"rental_uris":{"android":"levelo://app?vid=b5f6d975-4102-41b3-b5cd-2137a3521ed9","ios":"levelo://app?vid=b5f6d975-4102-41b3-b5cd-2137a3521ed9"},"vehicle_type_id":"4","last_reported":1678910897,"current_range_meters":12000,"station_id":"","pricing_plan_id":"free"},{"bike_id":"d5d264fa-7a75-47af-8e5d-cdec1091e656","system_id":"levelo_inurba_marseille","lat":43.295523,"lon":5.422926,"is_reserved":false,"is_disabled":false,"rental_uris":{"android":"levelo://app?vid=d5d264fa-7a75-47af-8e5d-cdec1091e656","ios":"levelo://app?vid=d5d264fa-7a75-47af-8e5d-cdec1091e656"},"vehicle_type_id":"4","last_reported":1678910897,"current_range_meters":6800,"station_id":"ce4bhph2rcd13ifvqhdg","pricing_plan_id":"free"},{"bike_id":"c4a62fc8-9788-4222-b455-c3b946fb86a9","system_id":"levelo_inurba_marseille","lat":43.295523,"lon":5.422926,"is_reserved":false,"is_disabled":false,"rental_uris":{"android":"levelo://app?vid=c4a62fc8-9788-4222-b455-c3b946fb86a9","ios":"levelo://app?vid=c4a62fc8-9788-4222-b455-c3b946fb86a9"},"vehicle_type_id":"4","last_reported":1678910897,"current_range_meters":11200,"station_id":"ce4bhph2rcd13ifvqhdg","pricing_plan_id":"free"},{"bike_id":"127012e4-d074-461b-a51d-934fde766372","system_id":"levelo_inurba_marseille","lat":43.272116,"lon":5.391747,"is_reserved":false,"is_disabled":false,"rental_uris":{"android":"levelo://app?vid=127012e4-d074-461b-a51d-934fde766372","ios":"levelo://app?vid=127012e4-d074-461b-a51d-934fde766372"},"vehicle_type_id":"4","last_reported":1678910897,"current_range_meters":9200,"station_id":"ce4bhhp2rcd13ifvqfm0","pricing_plan_id":"free"},{"bike_id":"b7a966c9-d93f-48c4-b909-0e08ba968dac","system_id":"levelo_inurba_marseille","lat":43.278128,"lon":5.407195,"is_reserved":false,"is_disabled":false,"rental_uris":{"android":"levelo://app?vid=b7a966c9-d93f-48c4-b909-0e08ba968dac","ios":"levelo://app?vid=b7a966c9-d93f-48c4-b909-0e08ba968dac"},"vehicle_type_id":"4","last_reported":1678910897,"current_range_meters":29200,"station_id":"ce4bhnh2rcd13ifvqgtg","pricing_plan_id":"free"},{"bike_id":"f0228e3c-d686-4bcb-821d-4040ebbb9f09","system_id":"levelo_inurba_marseille","lat":43.278128,"lon":5.407195,"is_reserved":false,"is_disabled":false,"rental_uris":{"android":"levelo://app?vid=f0228e3c-d686-4bcb-821d-4040ebbb9f09","ios":"levelo://app?vid=f0228e3c-d686-4bcb-821d-4040ebbb9f09"},"vehicle_type_id":"4","last_reported":1678910897,"current_range_meters":16400,"station_id":"ce4bhnh2rcd13ifvqgtg","pricing_plan_id":"free"},{"bike_id":"5afefb2c-1776-4fb5-9927-c7719642ec5a","system_id":"levelo_inurba_marseille","lat":43.278128,"lon":5.407195,"is_reserved":false,"is_disabled":false,"rental_uris":{"android":"levelo://app?vid=5afefb2c-1776-4fb5-9927-c7719642ec5a","ios":"levelo://app?vid=5afefb2c-1776-4fb5-9927-c7719642ec5a"},"vehicle_type_id":"4","last_reported":1678910897,"current_range_meters":20800,"station_id":"ce4bhnh2rcd13ifvqgtg","pricing_plan_id":"free"},{"bike_id":"a7fdd23b-5d53-4286-99bc-c45cf2848843","system_id":"levelo_inurba_marseille","lat":43.278128,"lon":5.407195,"is_reserved":false,"is_disabled":false,"rental_uris":{"android":"levelo://app?vid=a7fdd23b-5d53-4286-99bc-c45cf2848843","ios":"levelo://app?vid=a7fdd23b-5d53-4286-99bc-c45cf2848843"},"vehicle_type_id":"4","last_reported":1678910897,"current_range_meters":5600,"station_id":"ce4bhnh2rcd13ifvqgtg","pricing_plan_id":"free"},{"bike_id":"d76f0890-75b2-4768-ac76-a52c167d1ea6","system_id":"levelo_inurba_marseille","lat":43.265714,"lon":5.372891,"is_reserved":false,"is_disabled":false,"rental_uris":{"android":"levelo://app?vid=d76f0890-75b2-4768-ac76-a52c167d1ea6","ios":"levelo://app?vid=d76f0890-75b2-4768-ac76-a52c167d1ea6"},"vehicle_type_id":"4","last_reported":1678910897,"current_range_meters":31600,"station_id":"ce4bhg12rcd13ifvqf70","pricing_plan_id":"free"},{"bike_id":"838dd8fe-ec7c-415e-8f4c-b6b039251b6e","system_id":"levelo_inurba_marseille","lat":43.26679,"lon":5.38268,"is_reserved":false,"is_disabled":false,"rental_uris":{"android":"levelo://app?vid=838dd8fe-ec7c-415e-8f4c-b6b039251b6e","ios":"levelo://app?vid=838dd8fe-ec7c-415e-8f4c-b6b039251b6e"},"vehicle_type_id":"4","last_reported":1678910897,"current_range_meters":14000,"station_id":"","pricing_plan_id":"free"},{"bike_id":"e4cd201c-80ba-4ec1-a3e9-a6a6f74d4126","system_id":"levelo_inurba_marseille","lat":43.265714,"lon":5.372891,"is_reserved":false,"is_disabled":false,"rental_uris":{"android":"levelo://app?vid=e4cd201c-80ba-4ec1-a3e9-a6a6f74d4126","ios":"levelo://app?vid=e4cd201c-80ba-4ec1-a3e9-a6a6f74d4126"},"vehicle_type_id":"4","last_reported":1678910897,"current_range_meters":29600,"station_id":"ce4bhg12rcd13ifvqf70","pricing_plan_id":"free"},{"bike_id":"bcad4114-a88c-4e86-922e-845339c4d011","system_id":"levelo_inurba_marseille","lat":43.265714,"lon":5.372891,"is_reserved":false,"is_disabled":false,"rental_uris":{"android":"levelo://app?vid=bcad4114-a88c-4e86-922e-845339c4d011","ios":"levelo://app?vid=bcad4114-a88c-4e86-922e-845339c4d011"},"vehicle_type_id":"4","last_reported":1678910897,"current_range_meters":31600,"station_id":"ce4bhg12rcd13ifvqf70","pricing_plan_id":"free"},{"bike_id":"36aa6365-2456-41b8-9cdf-4483e857dfb7","system_id":"levelo_inurba_marseille","lat":43.27996,"lon":5.416624,"is_reserved":false,"is_disabled":false,"rental_uris":{"android":"levelo://app?vid=36aa6365-2456-41b8-9cdf-4483e857dfb7","ios":"levelo://app?vid=36aa6365-2456-41b8-9cdf-4483e857dfb7"},"vehicle_type_id":"4","last_reported":1678910897,"current_range_meters":0,"station_id":"ce4bho12rcd13ifvqh1g","pricing_plan_id":"free"},{"bike_id":"ce966a5e-784c-49f3-a959-f34b3e73f4c8","system_id":"levelo_inurba_marseille","lat":43.27997,"lon":5.4166,"is_reserved":false,"is_disabled":false,"rental_uris":{"android":"levelo://app?vid=ce966a5e-784c-49f3-a959-f34b3e73f4c8","ios":"levelo://app?vid=ce966a5e-784c-49f3-a959-f34b3e73f4c8"},"vehicle_type_id":"4","last_reported":1678910897,"current_range_meters":8000,"station_id":"","pricing_plan_id":"free"},{"bike_id":"35fcbc71-4d6e-4e31-ac69-34107d646b75","system_id":"levelo_inurba_marseille","lat":43.27995,"lon":5.41659,"is_reserved":false,"is_disabled":false,"rental_uris":{"android":"levelo://app?vid=35fcbc71-4d6e-4e31-ac69-34107d646b75","ios":"levelo://app?vid=35fcbc71-4d6e-4e31-ac69-34107d646b75"},"vehicle_type_id":"4","last_reported":1678910897,"current_range_meters":29600,"station_id":"ce4bho12rcd13ifvqh1g","pricing_plan_id":"free"},{"bike_id":"a2b1aaa2-122b-4268-93ad-4ee88667a20a","system_id":"levelo_inurba_marseille","lat":43.27993,"lon":5.416593,"is_reserved":false,"is_disabled":false,"rental_uris":{"android":"levelo://app?vid=a2b1aaa2-122b-4268-93ad-4ee88667a20a","ios":"levelo://app?vid=a2b1aaa2-122b-4268-93ad-4ee88667a20a"},"vehicle_type_id":"4","last_reported":1678910897,"current_range_meters":400,"station_id":"","pricing_plan_id":"free"},{"bike_id":"7ee3b5e8-36dd-4fee-bf2a-baa08be7adb6","system_id":"levelo_inurba_marseille","lat":43.27996,"lon":5.416624,"is_reserved":false,"is_disabled":false,"rental_uris":{"android":"levelo://app?vid=7ee3b5e8-36dd-4fee-bf2a-baa08be7adb6","ios":"levelo://app?vid=7ee3b5e8-36dd-4fee-bf2a-baa08be7adb6"},"vehicle_type_id":"4","last_reported":1678910897,"current_range_meters":4800,"station_id":"ce4bho12rcd13ifvqh1g","pricing_plan_id":"free"},{"bike_id":"6cd484e7-ae09-48c8-88fa-1e5c74a153fa","system_id":"levelo_inurba_marseille","lat":43.27996,"lon":5.416624,"is_reserved":false,"is_disabled":false,"rental_uris":{"android":"levelo://app?vid=6cd484e7-ae09-48c8-88fa-1e5c74a153fa","ios":"levelo://app?vid=6cd484e7-ae09-48c8-88fa-1e5c74a153fa"},"vehicle_type_id":"4","last_reported":1678910897,"current_range_meters":14400,"station_id":"ce4bho12rcd13ifvqh1g","pricing_plan_id":"free"},{"bike_id":"29ee4140-f05a-483a-ba14-a574596f748d","system_id":"levelo_inurba_marseille","lat":43.308051,"lon":5.43527,"is_reserved":false,"is_disabled":false,"rental_uris":{"android":"levelo://app?vid=29ee4140-f05a-483a-ba14-a574596f748d","ios":"levelo://app?vid=29ee4140-f05a-483a-ba14-a574596f748d"},"vehicle_type_id":"4","last_reported":1678910897,"current_range_meters":20400,"station_id":"ce4bhph2rcd13ifvqheg","pricing_plan_id":"free"},{"bike_id":"3a2710ca-cd01-4131-83f3-ac91d4e0887c","system_id":"levelo_inurba_marseille","lat":43.307976,"lon":5.435313,"is_reserved":false,"is_disabled":false,"rental_uris":{"android":"levelo://app?vid=3a2710ca-cd01-4131-83f3-ac91d4e0887c","ios":"levelo://app?vid=3a2710ca-cd01-4131-83f3-ac91d4e0887c"},"vehicle_type_id":"4","last_reported":1678910897,"current_range_meters":20400,"station_id":"","pricing_plan_id":"free"},{"bike_id":"897b75b6-66bd-4cbe-a687-d5f462314b53","system_id":"levelo_inurba_marseille","lat":43.317104,"lon":5.436818,"is_reserved":false,"is_disabled":false,"rental_uris":{"android":"levelo://app?vid=897b75b6-66bd-4cbe-a687-d5f462314b53","ios":"levelo://app?vid=897b75b6-66bd-4cbe-a687-d5f462314b53"},"vehicle_type_id":"4","last_reported":1678910897,"current_range_meters":17200,"station_id":"ce4bhp92rcd13ifvqhcg","pricing_plan_id":"free"},{"bike_id":"9d878540-089b-4ea8-b42d-fe003e60de0d","system_id":"levelo_inurba_marseille","lat":43.317104,"lon":5.436818,"is_reserved":false,"is_disabled":false,"rental_uris":{"android":"levelo://app?vid=9d878540-089b-4ea8-b42d-fe003e60de0d","ios":"levelo://app?vid=9d878540-089b-4ea8-b42d-fe003e60de0d"},"vehicle_type_id":"4","last_reported":1678910897,"current_range_meters":4800,"station_id":"ce4bhp92rcd13ifvqhcg","pricing_plan_id":"free"},{"bike_id":"32101b9f-c9d5-4a7a-aae6-fd496633ec0e","system_id":"levelo_inurba_marseille","lat":43.262012,"lon":5.379307,"is_reserved":false,"is_disabled":false,"rental_uris":{"android":"levelo://app?vid=32101b9f-c9d5-4a7a-aae6-fd496633ec0e","ios":"levelo://app?vid=32101b9f-c9d5-4a7a-aae6-fd496633ec0e"},"vehicle_type_id":"4","last_reported":1678910897,"current_range_meters":16400,"station_id":"ce4bhjp2rcd13ifvqg90","pricing_plan_id":"free"},{"bike_id":"16af0203-3d26-49a7-a721-a514a096a626","system_id":"levelo_inurba_marseille","lat":43.267959,"lon":5.402685,"is_reserved":false,"is_disabled":false,"rental_uris":{"android":"levelo://app?vid=16af0203-3d26-49a7-a721-a514a096a626","ios":"levelo://app?vid=16af0203-3d26-49a7-a721-a514a096a626"},"vehicle_type_id":"4","last_reported":1678910897,"current_range_meters":7600,"station_id":"ce501612rcd8frsf0b60","pricing_plan_id":"free"},{"bike_id":"df0cd450-6eef-4f2a-b2db-89f90aeb8945","system_id":"levelo_inurba_marseille","lat":43.280329,"lon":5.426002,"is_reserved":false,"is_disabled":false,"rental_uris":{"android":"levelo://app?vid=df0cd450-6eef-4f2a-b2db-89f90aeb8945","ios":"levelo://app?vid=df0cd450-6eef-4f2a-b2db-89f90aeb8945"},"vehicle_type_id":"4","last_reported":1678910897,"current_range_meters":0,"station_id":"","pricing_plan_id":"free"},{"bike_id":"092986a8-72c4-45d2-8ba0-4549dc089177","system_id":"levelo_inurba_marseille","lat":43.26062,"lon":5.39397,"is_reserved":false,"is_disabled":false,"rental_uris":{"android":"levelo://app?vid=092986a8-72c4-45d2-8ba0-4549dc089177","ios":"levelo://app?vid=092986a8-72c4-45d2-8ba0-4549dc089177"},"vehicle_type_id":"4","last_reported":1678910897,"current_range_meters":19600,"station_id":"ce4bhh92rcd13ifvqfj0","pricing_plan_id":"free"},{"bike_id":"2028fdf3-4d8c-4937-8dc9-bc4603a281e0","system_id":"levelo_inurba_marseille","lat":43.2606,"lon":5.39396,"is_reserved":false,"is_disabled":false,"rental_uris":{"android":"levelo://app?vid=2028fdf3-4d8c-4937-8dc9-bc4603a281e0","ios":"levelo://app?vid=2028fdf3-4d8c-4937-8dc9-bc4603a281e0"},"vehicle_type_id":"4","last_reported":1678910897,"current_range_meters":3200,"station_id":"ce4bhh92rcd13ifvqfj0","pricing_plan_id":"free"},{"bike_id":"7381adce-a363-4900-8877-e7263485750d","system_id":"levelo_inurba_marseille","lat":43.26089,"lon":5.39764,"is_reserved":false,"is_disabled":false,"rental_uris":{"android":"levelo://app?vid=7381adce-a363-4900-8877-e7263485750d","ios":"levelo://app?vid=7381adce-a363-4900-8877-e7263485750d"},"vehicle_type_id":"4","last_reported":1678910897,"current_range_meters":14800,"station_id":"","pricing_plan_id":"free"},{"bike_id":"be585c4d-17fd-469f-b36e-e96d78c18a86","system_id":"levelo_inurba_marseille","lat":43.260763,"lon":5.397645,"is_reserved":false,"is_disabled":false,"rental_uris":{"android":"levelo://app?vid=be585c4d-17fd-469f-b36e-e96d78c18a86","ios":"levelo://app?vid=be585c4d-17fd-469f-b36e-e96d78c18a86"},"vehicle_type_id":"4","last_reported":1678910897,"current_range_meters":0,"station_id":"ce4bhi12rcd13ifvqfq0","pricing_plan_id":"free"},{"bike_id":"92a06786-13cd-418c-b45e-5746baa03a9d","system_id":"levelo_inurba_marseille","lat":43.25572,"lon":5.37668,"is_reserved":false,"is_disabled":false,"rental_uris":{"android":"levelo://app?vid=92a06786-13cd-418c-b45e-5746baa03a9d","ios":"levelo://app?vid=92a06786-13cd-418c-b45e-5746baa03a9d"},"vehicle_type_id":"4","last_reported":1678910897,"current_range_meters":24000,"station_id":"","pricing_plan_id":"free"},