{"last_updated":1729591778,"ttl":60,"version":"2.2","data":{"bikes":[{"bike_id":"a29beb72-507c-4343-9f6b-7c76f5d39608","system_id":"levelo_inurba_marseille","lat":43.3361,"lon":5.41029,"is_reserved":false,"is_disabled":false,"rental_uris":{"android":"levelo://app?vid=a29beb72-507c-4343-9f6b-7c76f5d39608","ios":"levelo://app?vid=a29beb72-507c-4343-9f6b-7c76f5d39608"},"vehicle_type_id":"4","last_reported":1729591778,"current_range_meters":39200,"station_id":"ce4bhqh2rcd13ifvqhmg","pricing_plan_id":"cebpf4jnsgd1na2vs0mg"},{"bike_id":"9ec8987a-fa0c-407f-8d59-b748dd0f1162","system_id":"levelo_inurba_marseille","lat":43.2834,"lon":5.38102,"is_reserved":false,"is_disabled":false,"rental_uris":{"android":"levelo://app?vid=9ec8987a-fa0c-407f-8d59-b748dd0f1162","ios":"levelo://app?vid=9ec8987a-fa0c-407f-8d59-b748dd0f1162"},"vehicle_type_id":"4","last_reported":1729591778,"current_range_meters":30000,"station_id":"ce4bh412rcd13ifvqdr0","pricing_plan_id":"cebpf4jnsgd1na2vs0mg"},{"bike_id":"147bdf9f-7ee4-455f-acd7-da3fde574360","system_id":"levelo_inurba_marseille","lat":43.33761,"lon":5.37436,"is_reserved":false,"is_disabled":false,"rental_uris":{"android":"levelo://app?vid=147bdf9f-7ee4-455f-acd7-da3fde574360","ios":"levelo://app?vid=147bdf9f-7ee4-455f-acd7-da3fde574360"},"vehicle_type_id":"4","last_reported":1729591778,"current_range_meters":36800,"station_id":"","pricing_plan_id":"cebpf4jnsgd1na2vs0mg"},{"bike_id":"b8527c78-226b-4f84-9140-91873a88dd83","system_id":"levelo_inurba_marseille","lat":43.2509,"lon":5.39516,"is_reserved":false,"is_disabled":false,"rental_uris":{"android":"levelo://app?vid=b8527c78-226b-4f84-9140-91873a88dd83","ios":"levelo://app?vid=b8527c78-226b-4f84-9140-91873a88dd83"},"vehicle_type_id":"4","last_reported":1729591778,"current_range_meters":17600,"station_id":"ce4bhm12rcd13ifvqgkg","pricing_plan_id":"cebpf4jnsgd1na2vs0mg"},{"bike_id":"f6ea7288-765c-4be6-918b-74447ffffe08","system_id":"levelo_inurba_marseille","lat":43.30465,"lon":5.37899,"is_reserved":false,"is_disabled":false,"rental_uris":{"android":"levelo://app?vid=f6ea7288-765c-4be6-918b-74447ffffe08","ios":"levelo://app?vid=f6ea7288-765c-4be6-918b-74447ffffe08"},"vehicle_type_id":"4","last_reported":1729591778,"current_range_meters":38800,"station_id":"ce4bgup2rcd13ifvqcn0","pricing_plan_id":"cebpf4jnsgd1na2vs0mg"},{"bike_id":"6e55b9b9-83e0-480a-8bba-5d6b32914d25","system_id":"levelo_inurba_marseille","lat":43.30418,"lon":5.41281,"is_reserved":false,"is_disabled":false,"rental_uris":{"android":"levelo://app?vid=6e55b9b9-83e0-480a-8bba-5d6b32914d25","ios":"levelo://app?vid=6e55b9b9-83e0-480a-8bba-5d6b32914d25"},"vehicle_type_id":"4","last_reported":1729591778,"current_range_meters":28400,"station_id":"ce4bhop2rcd13ifvqh8g","pricing_plan_id":"cebpf4jnsgd1na2vs0mg"},{"bike_id":"96514785-d870-47b5-b81e-b009c40258ef","system_id":"levelo_inurba_marseille","lat":43.2439,"lon":5.37054,"is_reserved":false,"is_disabled":false,"rental_uris":{"android":"levelo://app?vid=96514785-d870-47b5-b81e-b009c40258ef","ios":"levelo://app?vid=96514785-d870-47b5-b81e-b009c40258ef"},"vehicle_type_id":"4","last_reported":1729591778,"current_range_meters":38000,"station_id":"ce4bhhh2rcd13ifvqfk0","pricing_plan_id":"cebpf4jnsgd1na2vs0mg"},{"bike_id":"353ec5cf-b58b-4354-ba57-e03f44389fe9","system_id":"levelo_inurba_marseille","lat":43.24177,"lon":5.39733,"is_reserved":false,"is_disabled":false,"rental_uris":{"android":"levelo://app?vid=353ec5cf-b58b-4354-ba57-e03f44389fe9","ios":"levelo://app?vid=353ec5cf-b58b-4354-ba57-e03f44389fe9"},"vehicle_type_id":"4","last_reported":1729591778,"current_range_meters":3200,"station_id":"ce4bhn12rcd13ifvqgpg","pricing_plan_id":"cebpf4jnsgd1na2vs0mg"},{"bike_id":"044a4d6f-08ef-415a-8151-6f98ea36a36b","system_id":"levelo_inurba_marseille","lat":43.30162,"lon":5.38073,"is_reserved":false,"is_disabled":false,"rental_uris":{"android":"levelo://app?vid=044a4d6f-08ef-415a-8151-6f98ea36a36b","ios":"levelo://app?vid=044a4d6f-08ef-415a-8151-6f98ea36a36b"},"vehicle_type_id":"4","last_reported":1729591778,"current_range_meters":38800,"station_id":"ce4bgjp2rcd13ifvqbh0","pricing_plan_id":"cebpf4jnsgd1na2vs0mg"},{"bike_id":"056124ee-b6f9-468d-94ef-5fa46e18bd36","system_id":"levelo_inurba_marseille","lat":43.3361,"lon":5.41031,"is_reserved":false,"is_disabled":false,"rental_uris":{"android":"levelo://app?vid=056124ee-b6f9-468d-94ef-5fa46e18bd36","ios":"levelo://app?vid=056124ee-b6f9-468d-94ef-5fa46e18bd36"},"vehicle_type_id":"4","last_reported":1729591778,"current_range_meters":39200,"station_id":"ce4bhqh2rcd13ifvqhmg","pricing_plan_id":"cebpf4jnsgd1na2vs0mg"},{"bike_id":"c863ab3d-1edc-4863-a6c7-73e4e0932069","system_id":"levelo_inurba_marseille","lat":43.33607,"lon":5.41015,"is_reserved":false,"is_disabled":false,"rental_uris":{"android":"levelo://app?vid=c863ab3d-1edc-4863-a6c7-73e4e0932069","ios":"levelo://app?vid=c863ab3d-1edc-4863-a6c7-73e4e0932069"},"vehicle_type_id":"4","last_reported":1729591778,"current_range_meters":4000,"station_id":"ce4bhqh2rcd13ifvqhmg","pricing_plan_id":"cebpf4jnsgd1na2vs0mg"},{"bike_id":"24779d50-42a9-4d54-86a3-43333f8ae02d","system_id":"levelo_inurba_marseille","lat":43.24391,"lon":5.37063,"is_reserved":false,"is_disabled":false,"rental_uris":{"android":"levelo://app?vid=24779d50-42a9-4d54-86a3-43333f8ae02d","ios":"levelo://app?vid=24779d50-42a9-4d54-86a3-43333f8ae02d"},"vehicle_type_id":"4","last_reported":1729591778,"current_range_meters":36400,"station_id":"ce4bhhh2rcd13ifvqfk0","pricing_plan_id":"cebpf4jnsgd1na2vs0mg"},{"bike_id":"bcf92684-f10c-4698-95a1-14de0be63710","system_id":"levelo_inurba_marseille","lat":43.29975,"lon":5.38496,"is_reserved":false,"is_disabled":false,"rental_uris":{"android":"levelo://app?vid=bcf92684-f10c-4698-95a1-14de0be63710","ios":"levelo://app?vid=bcf92684-f10c-4698-95a1-14de0be63710"},"vehicle_type_id":"4","last_reported":1729591778,"current_range_meters":37600,"station_id":"ce4bgj92rcd13ifvqbd0","pricing_plan_id":"cebpf4jnsgd1na2vs0mg"},{"bike_id":"15fdfb96-1505-4abc-b604-060c11e33693","system_id":"levelo_inurba_marseille","lat":43.29533,"lon":5.37502,"is_reserved":false,"is_disabled":false,"rental_uris":{"android":"levelo://app?vid=15fdfb96-1505-4abc-b604-060c11e33693","ios":"levelo://app?vid=15fdfb96-1505-4abc-b604-060c11e33693"},"vehicle_type_id":"4","last_reported":1729591778,"current_range_meters":11600,"station_id":"ce4bgkp2rcd13ifvqbmg","pricing_plan_id":"cebpf4jnsgd1na2vs0mg"},{"bike_id":"b8aa97cc-df5c-4052-b32f-7592ab28a1b6","system_id":"levelo_inurba_marseille","lat":43.3211,"lon":5.38821,"is_reserved":false,"is_disabled":false,"rental_uris":{"android":"levelo://app?vid=b8aa97cc-df5c-4052-b32f-7592ab28a1b6","ios":"levelo://app?vid=b8aa97cc-df5c-4052-b32f-7592ab28a1b6"},"vehicle_type_id":"4","last_reported":1729591778,"current_range_meters":28000,"station_id":"","pricing_plan_id":"cebpf4jnsgd1na2vs0mg"},{"bike_id":"18ecfac9-d5ae-40c4-9642-e33884d62ca3","system_id":"levelo_inurba_marseille","lat":43.32367,"lon":5.38884,"is_reserved":false,"is_disabled":false,"rental_uris":{"android":"levelo://app?vid=18ecfac9-d5ae-40c4-9642-e33884d62ca3","ios":"levelo://app?vid=18ecfac9-d5ae-40c4-9642-e33884d62ca3"},"vehicle_type_id":"4","last_reported":1729591778,"current_range_meters":30000,"station_id":"ce4bhqp2rcd13ifvqhog","pricing_plan_id":"cebpf4jnsgd1na2vs0mg"},{"bike_id":"0c09c7c1-866b-4761-9021-7727202fa6e6","system_id":"levelo_inurba_marseille","lat":43.29848,"lon":5.36283,"is_reserved":false,"is_disabled":false,"rental_uris":{"android":"levelo://app?vid=0c09c7c1-866b-4761-9021-7727202fa6e6","ios":"levelo://app?vid=0c09c7c1-866b-4761-9021-7727202fa6e6"},"vehicle_type_id":"4","last_reported":1729591778,"current_range_meters":28800,"station_id":"ce4bgpp2rcd13ifvqc3g","pricing_plan_id":"cebpf4jnsgd1na2vs0mg"},{"bike_id":"8b1b5549-026d-499e-8f57-a5860290ed8f","system_id":"levelo_inurba_marseille","lat":43.30545,"lon":5.36709,"is_reserved":false,"is_disabled":false,"rental_uris":{"android":"levelo://app?vid=8b1b5549-026d-499e-8f57-a5860290ed8f","ios":"levelo://app?vid=8b1b5549-026d-499e-8f57-a5860290ed8f"},"vehicle_type_id":"4","last_reported":1729591778,"current_range_meters":36000,"station_id":"ce4bgrp2rcd13ifvqc9g","pricing_plan_id":"cebpf4jnsgd1na2vs0mg"},{"bike_id":"1d387922-eb9c-43eb-bf18-f7132fc7200b","system_id":"levelo_inurba_marseille","lat":43.29955,"lon":5.41321,"is_reserved":false,"is_disabled":false,"rental_uris":{"android":"levelo://app?vid=1d387922-eb9c-43eb-bf18-f7132fc7200b","ios":"levelo://app?vid=1d387922-eb9c-43eb-bf18-f7132fc7200b"},"vehicle_type_id":"4","last_reported":1729591778,"current_range_meters":24000,"station_id":"ce4bhp12rcd13ifvqh9g","pricing_plan_id":"cebpf4jnsgd1na2vs0mg"},{"bike_id":"5c449356-4ac4-4d08-a405-c433fbe21a80","system_id":"levelo_inurba_marseille","lat":43.33759,"lon":5.3748,"is_reserved":false,"is_disabled":false,"rental_uris":{"android":"levelo://app?vid=5c449356-4ac4-4d08-a405-c433fbe21a80","ios":"levelo://app?vid=5c449356-4ac4-4d08-a405-c433fbe21a80"},"vehicle_type_id":"4","last_reported":1729591778,"current_range_meters":34800,"station_id":"","pricing_plan_id":"cebpf4jnsgd1na2vs0mg"},{"bike_id":"226c88c9-884a-4e1c-aee6-5078a01179cf","system_id":"levelo_inurba_marseille","lat":43.30599,"lon":5.37221,"is_reserved":false,"is_disabled":false,"rental_uris":{"android":"levelo://app?vid=226c88c9-884a-4e1c-aee6-5078a01179cf","ios":"levelo://app?vid=226c88c9-884a-4e1c-aee6-5078a01179cf"},"vehicle_type_id":"4","last_reported":1729591778,"current_range_meters":10800,"station_id":"ce4bgqh2rcd13ifvqc4g","pricing_plan_id":"cebpf4jnsgd1na2vs0mg"},{"bike_id":"c32831a9-e064-4d70-bbdd-66063ddbadde","system_id":"levelo_inurba_marseille","lat":43.25932,"lon":5.40903,"is_reserved":false,"is_disabled":false,"rental_uris":{"android":"levelo://app?vid=c32831a9-e064-4d70-bbdd-66063ddbadde","ios":"levelo://app?vid=c32831a9-e064-4d70-bbdd-66063ddbadde"},"vehicle_type_id":"4","last_reported":1729591778,"current_range_meters":31200,"station_id":"ce4bhm92rcd13ifvqglg","pricing_plan_id":"cebpf4jnsgd1na2vs0mg"},{"bike_id":"c436856d-2db1-4507-9cdd-c6fbaa817420","system_id":"levelo_inurba_marseille","lat":43.33754,"lon":5.37441,"is_reserved":false,"is_disabled":false,"rental_uris":{"android":"levelo://app?vid=c436856d-2db1-4507-9cdd-c6fbaa817420","ios":"levelo://app?vid=c436856d-2db1-4507-9cdd-c6fbaa817420"},"vehicle_type_id":"4","last_reported":1729591778,"current_range_meters":12000,"station_id":"","pricing_plan_id":"cebpf4jnsgd1na2vs0mg"},{"bike_id":"e6582e63-7e5d-493a-9170-f5faf28b017c","system_id":"levelo_inurba_marseille","lat":43.23963,"lon":5.36636,"is_reserved":false,"is_disabled":false,"rental_uris":{"android":"levelo://app?vid=e6582e63-7e5d-493a-9170-f5faf28b017c","ios":"levelo://app?vid=e6582e63-7e5d-493a-9170-f5faf28b017c"},"vehicle_type_id":"4","last_reported":1729591778,"current_range_meters":34000,"station_id":"ce4bhi12rcd13ifvqfp0","pricing_plan_id":"cebpf4jnsgd1na2vs0mg"},{"bike_id":"237e477a-c717-4ba3-ae26-3def930f5042","system_id":"levelo_inurba_marseille","lat":43.259766,"lon":5.40201,"is_reserved":false,"is_disabled":false,"rental_uris":{"android":"levelo://app?vid=237e477a-c717-4ba3-ae26-3def930f5042","ios":"levelo://app?vid=237e477a-c717-4ba3-ae26-3def930f5042"},"vehicle_type_id":"4","last_reported":1729591778,"current_range_meters":10800,"station_id":"ce4bhh12rcd13ifvqfg0","pricing_plan_id":"cebpf4jnsgd1na2vs0mg"},{"bike_id":"61d4562a-2b69-4ed1-a799-9e4ee8ba417d","system_id":"levelo_inurba_marseille","lat":43.26567,"lon":5.39002,"is_reserved":false,"is_disabled":false,"rental_uris":{"android":"levelo://app?vid=61d4562a-2b69-4ed1-a799-9e4ee8ba417d","ios":"levelo://app?vid=61d4562a-2b69-4ed1-a799-9e4ee8ba417d"},"vehicle_type_id":"4","last_reported":1729591778,"current_range_meters":32800,"station_id":"ce4bhe12rcd13ifvqf30","pricing_plan_id":"cebpf4jnsgd1na2vs0mg"},{"bike_id":"079957d9-760c-47bf-ae79-16e2d1ebf037","system_id":"levelo_inurba_marseille","lat":43.32478,"lon":5.36559,"is_reserved":false,"is_disabled":false,"rental_uris":{"android":"levelo://app?vid=079957d9-760c-47bf-ae79-16e2d1ebf037","ios":"levelo://app?vid=079957d9-760c-47bf-ae79-16e2d1ebf037"},"vehicle_type_id":"4","last_reported":1729591778,"current_range_meters":40000,"station_id":"ce4bhs12rcd13ifvqhvg","pricing_plan_id":"cebpf4jnsgd1na2vs0mg"},{"bike_id":"6693cd0c-fe48-434b-8c32-77dc3a0e9af8","system_id":"levelo_inurba_marseille","lat":43.33219,"lon":5.38161,"is_reserved":false,"is_disabled":false,"rental_uris":{"android":"levelo://app?vid=6693cd0c-fe48-434b-8c32-77dc3a0e9af8","ios":"levelo://app?vid=6693cd0c-fe48-434b-8c32-77dc3a0e9af8"},"vehicle_type_id":"4","last_reported":1729591778,"current_range_meters":37600,"station_id":"","pricing_plan_id":"cebpf4jnsgd1na2vs0mg"},{"bike_id":"d8fcc4fa-ed39-4df3-8a67-0231297479c5","system_id":"levelo_inurba_marseille","lat":43.32656,"lon":5.40994,"is_reserved":false,"is_disabled":false,"rental_uris":{"android":"levelo://app?vid=d8fcc4fa-ed39-4df3-8a67-0231297479c5","ios":"levelo://app?vid=d8fcc4fa-ed39-4df3-8a67-0231297479c5"},"vehicle_type_id":"4","last_reported":1729591778,"current_range_meters":4800,"station_id":"ce4bhpp2rcd13ifvqhgg","pricing_plan_id":"cebpf4jnsgd1na2vs0mg"},{"bike_id":"35029ea3-5663-494d-bcf1-311ebe1e8195","system_id":"levelo_inurba_marseille","lat":43.336033,"lon":5.410312,"is_reserved":false,"is_disabled":false,"rental_uris":{"android":"levelo://app?vid=35029ea3-5663-494d-bcf1-311ebe1e8195","ios":"levelo://app?vid=35029ea3-5663-494d-bcf1-311ebe1e8195"},"vehicle_type_id":"4","last_reported":1729591778,"current_range_meters":800,"station_id":"ce4bhqh2rcd13ifvqhmg","pricing_plan_id":"cebpf4jnsgd1na2vs0mg"},{"bike_id":"408cbf17-c781-4424-ab3f-02b6b88382fd","system_id":"levelo_inurba_marseille","lat":43.25724,"lon":5.41107,"is_reserved":false,"is_disabled":false,"rental_uris":{"android":"levelo://app?vid=408cbf17-c781-4424-ab3f-02b6b88382fd","ios":"levelo://app?vid=408cbf17-c781-4424-ab3f-02b6b88382fd"},"vehicle_type_id":"4","last_reported":1729591778,"current_range_meters":39200,"station_id":"ce4bhkp2rcd13ifvqgd0","pricing_plan_id":"cebpf4jnsgd1na2vs0mg"},{"bike_id":"4618cc2c-fba6-4556-b7a3-f469bfff64e6","system_id":"levelo_inurba_marseille","lat":43.28421,"lon":5.3498,"is_reserved":false,"is_disabled":false,"rental_uris":{"android":"levelo://app?vid=4618cc2c-fba6-4556-b7a3-f469bfff64e6","ios":"levelo://app?vid=4618cc2c-fba6-4556-b7a3-f469bfff64e6"},"vehicle_type_id":"4","last_reported":1729591778,"current_range_meters":26800,"station_id":"ce4bhbh2rcd13ifvqepg","pricing_plan_id":"cebpf4jnsgd1na2vs0mg"},{"bike_id":"f7d7e980-5c84-4432-b54b-9d2a213d76b4","system_id":"levelo_inurba_marseille","lat":43.30906,"lon":5.36852,"is_reserved":false,"is_disabled":false,"rental_uris":{"android":"levelo://app?vid=f7d7e980-5c84-4432-b54b-9d2a213d76b4","ios":"levelo://app?vid=f7d7e980-5c84-4432-b54b-9d2a213d76b4"},"vehicle_type_id":"4","last_reported":1729591778,"current_range_meters":38800,"station_id":"ce4bgn92rcd13ifvqbvg","pricing_plan_id":"cebpf4jnsgd1na2vs0mg"},{"bike_id":"abe658d4-12a8-41db-b6b3-738fdbd608a2","system_id":"levelo_inurba_marseille","lat":43.23196,"lon":5.35562,"is_reserved":false,"is_disabled":false,"rental_uris":{"android":"levelo://app?vid=abe658d4-12a8-41db-b6b3-738fdbd608a2","ios":"levelo://app?vid=abe658d4-12a8-41db-b6b3-738fdbd608a2"},"vehicle_type_id":"4","last_reported":1729591778,"current_range_meters":36400,"station_id":"ce4bhu92rcd13ifvqi70","pricing_plan_id":"cebpf4jnsgd1na2vs0mg"},{"bike_id":"ecf5aaf1-3072-45c8-bc85-9209f1480bbf","system_id":"levelo_inurba_marseille","lat":43.23155,"lon":5.43698,"is_reserved":false,"is_disabled":false,"rental_uris":{"android":"levelo://app?vid=ecf5aaf1-3072-45c8-bc85-9209f1480bbf","ios":"levelo://app?vid=ecf5aaf1-3072-45c8-bc85-9209f1480bbf"},"vehicle_type_id":"4","last_reported":1729591778,"current_range_meters":24000,"station_id":"ce4bhmp2rcd13ifvqgog","pricing_plan_id":"cebpf4jnsgd1na2vs0mg"},{"bike_id":"9a29c955-a717-4a1f-a7ee-ab07c0a9e45d","system_id":"levelo_inurba_marseille","lat":43.25931,"lon":5.40905,"is_reserved":false,"is_disabled":false,"rental_uris":{"android":"levelo://app?vid=9a29c955-a717-4a1f-a7ee-ab07c0a9e45d","ios":"levelo://app?vid=9a29c955-a717-4a1f-a7ee-ab07c0a9e45d"},"vehicle_type_id":"4","last_reported":1729591778,"current_range_meters":28000,"station_id":"ce4bhm92rcd13ifvqglg","pricing_plan_id":"cebpf4jnsgd1na2vs0mg"},{"bike_id":"f8787c88-1be1-45e0-b108-32f155ca387d","system_id":"levelo_inurba_marseille","lat":43.24183,"lon":5.39725,"is_reserved":false,"is_disabled":false,"rental_uris":{"android":"levelo://app?vid=f8787c88-1be1-45e0-b108-32f155ca387d","ios":"levelo://app?vid=f8787c88-1be1-45e0-b108-32f155ca387d"},"vehicle_type_id":"4","last_reported":1729591778,"current_range_meters":25600,"station_id":"ce4bhn12rcd13ifvqgpg","pricing_plan_id":"cebpf4jnsgd1na2vs0mg"},{"bike_id":"7e43cda1-03cb-4ed5-9609-f6d261929a60","system_id":"levelo_inurba_marseille","lat":43.30277,"lon":5.37695,"is_reserved":false,"is_disabled":false,"rental_uris":{"android":"levelo://app?vid=7e43cda1-03cb-4ed5-9609-f6d261929a60","ios":"levelo://app?vid=7e43cda1-03cb-4ed5-9609-f6d261929a60"},"vehicle_type_id":"4","last_reported":1729591778,"current_range_meters":36800,"station_id":"ce4bguh2rcd13ifvqcj0","pricing_plan_id":"cebpf4jnsgd1na2vs0mg"},{"bike_id":"60717735-8180-439d-aa16-1261afe15895","system_id":"levelo_inurba_marseille","lat":43.24179,"lon":5.39723,"is_reserved":false,"is_disabled":false,"rental_uris":{"android":"levelo://app?vid=60717735-8180-439d-aa16-1261afe15895","ios":"levelo://app?vid=60717735-8180-439d-aa16-1261afe15895"},"vehicle_type_id":"4","last_reported":1729591778,"current_range_meters":33200,"station_id":"ce4bhn12rcd13ifvqgpg","pricing_plan_id":"cebpf4jnsgd1na2vs0mg"},{"bike_id":"309bb1c3-85e0-469d-b068-2e24a723c6dc","system_id":"levelo_inurba_marseille","lat":43.25934,"lon":5.40906,"is_reserved":false,"is_disabled":false,"rental_uris":{"android":"levelo://app?vid=309bb1c3-85e0-469d-b068-2e24a723c6dc","ios":"levelo://app?vid=309bb1c3-85e0-469d-b068-2e24a723c6dc"},"vehicle_type_id":"4","last_reported":1729591778,"current_range_meters":16000,"station_id":"ce4bhm92rcd13ifvqglg","pricing_plan_id":"cebpf4jnsgd1na2vs0mg"},{"bike_id":"12a89a42-bada-49ed-bcaf-7706f7b21696","system_id":"levelo_inurba_marseille","lat":43.27068,"lon":5.42271,"is_reserved":false,"is_disabled":false,"rental_uris":{"android":"levelo://app?vid=12a89a42-bada-49ed-bcaf-7706f7b21696","ios":"levelo://app?vid=12a89a42-bada-49ed-bcaf-7706f7b21696"},"vehicle_type_id":"4","last_reported":1729591778,"current_range_meters":39200,"station_id":"ce4bhk92rcd13ifvqgb0","pricing_plan_id":"cebpf4jnsgd1na2vs0mg"},{"bike_id":"3c2e9290-6792-4e2d-b00d-712b965be0bd","system_id":"levelo_inurba_marseille","lat":43.2589,"lon":5.3845,"is_reserved":false,"is_disabled":false,"rental_uris":{"android":"levelo://app?vid=3c2e9290-6792-4e2d-b00d-712b965be0bd","ios":"levelo://app?vid=3c2e9290-6792-4e2d-b00d-712b965be0bd"},"vehicle_type_id":"4","last_reported":1729591778,"current_range_meters":9200,"station_id":"","pricing_plan_id":"cebpf4jnsgd1na2vs0mg"},{"bike_id":"4bd127d9-cd20-4445-b442-2239decbdb3f","system_id":"levelo_inurba_marseille","lat":43.29959,"lon":5.41319,"is_reserved":false,"is_disabled":false,"rental_uris":{"android":"levelo://app?vid=4bd127d9-cd20-4445-b442-2239decbdb3f","ios":"levelo://app?vid=4bd127d9-cd20-4445-b442-2239decbdb3f"},"vehicle_type_id":"4","last_reported":1729591778,"current_range_meters":28800,"station_id":"ce4bhp12rcd13ifvqh9g","pricing_plan_id":"cebpf4jnsgd1na2vs0mg"},{"bike_id":"51cde9b4-7441-4cb2-904d-4757c342232d","system_id":"levelo_inurba_marseille","lat":43.30474,"lon":5.3791,"is_reserved":false,"is_disabled":false,"rental_uris":{"android":"levelo://app?vid=51cde9b4-7441-4cb2-904d-4757c342232d","ios":"levelo://app?vid=51cde9b4-7441-4cb2-904d-4757c342232d"},"vehicle_type_id":"4","last_reported":1729591778,"current_range_meters":40000,"station_id":"ce4bgup2rcd13ifvqcn0","pricing_plan_id":"cebpf4jnsgd1na2vs0mg"},{"bike_id":"fb8410ac-6e5f-4975-8acf-a7c410c81926","system_id":"levelo_inurba_marseille","lat":43.33024,"lon":5.39042,"is_reserved":false,"is_disabled":false,"rental_uris":{"android":"levelo://app?vid=fb8410ac-6e5f-4975-8acf-a7c410c81926","ios":"levelo://app?vid=fb8410ac-6e5f-4975-8acf-a7c410c81926"},"vehicle_type_id":"4","last_reported":1729591778,"current_range_meters":8800,"station_id":"ce4bhr92rcd13ifvqhrg","pricing_plan_id":"cebpf4jnsgd1na2vs0mg"},{"bike_id":"bc669142-65d3-4c3a-ab4e-de909349606e","system_id":"levelo_inurba_marseille","lat":43.30137,"lon":5.3742,"is_reserved":false,"is_disabled":false,"rental_uris":{"android":"levelo://app?vid=bc669142-65d3-4c3a-ab4e-de909349606e","ios":"levelo://app?vid=bc669142-65d3-4c3a-ab4e-de909349606e"},"vehicle_type_id":"4","last_reported":1729591778,"current_range_meters":38800,"station_id":"ce4bgs92rcd13ifvqcc0","pricing_plan_id":"cebpf4jnsgd1na2vs0mg"},{"bike_id":"24c8485b-bd96-463b-99c8-e82a4480024c","system_id":"levelo_inurba_marseille","lat":43.30271,"lon":5.39657,"is_reserved":false,"is_disabled":false,"rental_uris":{"android":"levelo://app?vid=24c8485b-bd96-463b-99c8-e82a4480024c","ios":"levelo://app?vid=24c8485b-bd96-463b-99c8-e82a4480024c"},"vehicle_type_id":"4","last_reported":1729591778,"current_range_meters":36800,"station_id":"","pricing_plan_id":"cebpf4jnsgd1na2vs0mg"},{"bike_id":"566ef3cd-3e87-4087-a6aa-32a145c590e2","system_id":"levelo_inurba_marseille","lat":43.25573,"lon":5.38227,"is_reserved":false,"is_disabled":false,"rental_uris":{"android":"levelo://app?vid=566ef3cd-3e87-4087-a6aa-32a145c590e2","ios":"levelo://app?vid=566ef3cd-3e87-4087-a6aa-32a145c590e2"},"vehicle_type_id":"4","last_reported":1729591778,"current_range_meters":12400,"station_id":"ce4bhih2rcd13ifvqfs0","pricing_plan_id":"cebpf4jnsgd1na2vs0mg"},{"bike_id":"e73397ec-41ef-401f-966f-7b0b12ace5aa","system_id":"levelo_inurba_marseille","lat":43.23193,"lon":5.35553,"is_reserved":false,"is_disabled":false,"rental_uris":{"android":"levelo://app?vid=e73397ec-41ef-401f-966f-7b0b12ace5aa","ios":"levelo://app?vid=e73397ec-41ef-401f-966f-7b0b12ace5aa"},"vehicle_type_id":"4","last_reported":1729591778,"current_range_meters":40000,"station_id":"ce4bhu92rcd13ifvqi70","pricing_plan_id":"cebpf4jnsgd1na2vs0mg"},{"bike_id":"cb8c14be-838d-45f8-9135-305e9f32077f","system_id":"levelo_inurba_marseille","lat":43.30902,"lon":5.36855,"is_reserved":false,"is_disabled":false,"rental_uris":{"android":"levelo://app?vid=cb8c14be-838d-45f8-9135-305e9f32077f","ios":"levelo://app?vid=cb8c14be-838d-45f8-9135-305e9f32077f"},"vehicle_type_id":"4","last_reported":1729591778,"current_range_meters":40000,"station_id":"ce4bgn92rcd13ifvqbvg","pricing_plan_id":"cebpf4jnsgd1na2vs0mg"},{"bike_id":"5dda2f8f-2556-4f95-8601-07988ec79ee9","system_id":"levelo_inurba_marseille","lat":43.2481,"lon":5.37462,"is_reserved":false,"is_disabled":false,"rental_uris":{"android":"levelo://app?vid=5dda2f8f-2556-4f95-8601-07988ec79ee9","ios":"levelo://app?vid=5dda2f8f-2556-4f95-8601-07988ec79ee9"},"vehicle_type_id":"4","last_reported":1729591778,"current_range_meters":5600,"station_id":"ce4bhgh2rcd13ifvqfb0","pricing_plan_id":"cebpf4jnsgd1na2vs0mg"},{"bike_id":"e19ecf22-5188-430a-b60f-8b78af092b21","system_id":"levelo_inurba_marseille","lat":43.3054,"lon":5.36537,"is_reserved":false,"is_disabled":false,"rental_uris":{"android":"levelo://app?vid=e19ecf22-5188-430a-b60f-8b78af092b21","ios":"levelo://app?vid=e19ecf22-5188-430a-b60f-8b78af092b21"},"vehicle_type_id":"4","last_reported":1729591778,"current_range_meters":39200,"station_id":"ce4bgs12rcd13ifvqcag","pricing_plan_id":"cebpf4jnsgd1na2vs0mg"},{"bike_id":"2e834380-0591-4a5f-a7c6-ec896c58b9ae","system_id":"levelo_inurba_marseille","lat":43.31543,"lon":5.40374,"is_reserved":false,"is_disabled":false,"rental_uris":{"android":"levelo://app?vid=2e834380-0591-4a5f-a7c6-ec896c58b9ae","ios":"levelo://app?vid=2e834380-0591-4a5f-a7c6-ec896c58b9ae"},"vehicle_type_id":"4","last_reported":1729591778,"current_range_meters":28000,"station_id":"","pricing_plan_id":"cebpf4jnsgd1na2vs0mg"},{"bike_id":"7f1beb4c-9c9f-4a22-a134-c0145e031823","system_id":"levelo_inurba_marseille","lat":43.24807,"lon":5.37459,"is_reserved":false,"is_disabled":false,"rental_uris":{"android":"levelo://app?vid=7f1beb4c-9c9f-4a22-a134-c0145e031823","ios":"levelo://app?vid=7f1beb4c-9c9f-4a22-a134-c0145e031823"},"vehicle_type_id":"4","last_reported":1729591778,"current_range_meters":39200,"station_id":"ce4bhgh2rcd13ifvqfb0","pricing_plan_id":"cebpf4jnsgd1na2vs0mg"},{"bike_id":"a46224bf-1e23-44ee-9665-6762e802956f","system_id":"levelo_inurba_marseille","lat":43.25928,"lon":5.40905,"is_reserved":false,"is_disabled":false,"rental_uris":{"android":"levelo://app?vid=a46224bf-1e23-44ee-9665-6762e802956f","ios":"levelo://app?vid=a46224bf-1e23-44ee-9665-6762e802956f"},"vehicle_type_id":"4","last_reported":1729591778,"current_range_meters":34000,"station_id":"ce4bhm92rcd13ifvqglg","pricing_plan_id":"cebpf4jnsgd1na2vs0mg"},{"bike_id":"4db5f57a-1837-492d-ba97-4e606b1a8f25","system_id":"levelo_inurba_marseille","lat":43.24184,"lon":5.39725,"is_reserved":false,"is_disabled":false,"rental_uris":{"android":"levelo://app?vid=4db5f57a-1837-492d-ba97-4e606b1a8f25","ios":"levelo://app?vid=4db5f57a-1837-492d-ba97-4e606b1a8f25"},"vehicle_type_id":"4","last_reported":1729591778,"current_range_meters":37600,"station_id":"ce4bhn12rcd13ifvqgpg","pricing_plan_id":"cebpf4jnsgd1na2vs0mg"},{"bike_id":"a4bec522-c4e8-47bb-983c-2f5c3143ecc9","system_id":"levelo_inurba_marseille","lat":43.23147,"lon":5.43711,"is_reserved":false,"is_disabled":false,"rental_uris":{"android":"levelo://app?vid=a4bec522-c4e8-47bb-983c-2f5c3143ecc9","ios":"levelo://app?vid=a4bec522-c4e8-47bb-983c-2f5c3143ecc9"},"vehicle_type_id":"4","last_reported":1729591778,"current_range_meters":6800,"station_id":"ce4bhmp2rcd13ifvqgog","pricing_plan_id":"cebpf4jnsgd1na2vs0mg"},{"bike_id":"7b55bf91-35db-4d77-ba2d-32a86d96429a","system_id":"levelo_inurba_marseille","lat":43.26681,"lon":5.38267,"is_reserved":false,"is_disabled":false,"rental_uris":{"android":"levelo://app?vid=7b55bf91-35db-4d77-ba2d-32a86d96429a","ios":"levelo://app?vid=7b55bf91-35db-4d77-ba2d-32a86d96429a"},"vehicle_type_id":"4","last_reported":1729591778,"current_range_meters":39200,"station_id":"ce4bhg92rcd13ifvqf90","pricing_plan_id":"cebpf4jnsgd1na2vs0mg"},{"bike_id":"0542018d-404c-4931-92ac-7d497686214b","system_id":"levelo_inurba_marseille","lat":43.29556,"lon":5.42288,"is_reserved":false,"is_disabled":false,"rental_uris":{"android":"levelo://app?vid=0542018d-404c-4931-92ac-7d497686214b","ios":"levelo://app?vid=0542018d-404c-4931-92ac-7d497686214b"},"vehicle_type_id":"4","last_reported":1729591778,"current_range_meters":38400,"station_id":"ce4bhph2rcd13ifvqhdg","pricing_plan_id":"cebpf4jnsgd1na2vs0mg"},{"bike_id":"8d43c0e7-832d-41fe-a1fc-81ccee474e1b","system_id":"levelo_inurba_marseille","lat":43.29307,"lon":5.37466,"is_reserved":false,"is_disabled":false,"rental_uris":{"android":"levelo://app?vid=8d43c0e7-832d-41fe-a1fc-81ccee474e1b","ios":"levelo://app?vid=8d43c0e7-832d-41fe-a1fc-81ccee474e1b"},"vehicle_type_id":"4","last_reported":1729591778,"current_range_meters":36400,"station_id":"ce4bgi12rcd13ifvqb70","pricing_plan_id":"cebpf4jnsgd1na2vs0mg"},{"bike_id":"3b548d36-7d35-4608-b92d-af222af9536c","system_id":"levelo_inurba_marseille","lat":43.298,"lon":5.38104,"is_reserved":false,"is_disabled":false,"rental_uris":{"android":"levelo://app?vid=3b548d36-7d35-4608-b92d-af222af9536c","ios":"levelo://app?vid=3b548d36-7d35-4608-b92d-af222af9536c"},"vehicle_type_id":"4","last_reported":1729591778,"current_range_meters":25600,"station_id":"ce4bgip2rcd13ifvqbb0","pricing_plan_id":"cebpf4jnsgd1na2vs0mg"},{"bike_id":"67349b8d-80b3-4749-832d-07f7e424b34c","system_id":"levelo_inurba_marseille","lat":43.26678,"lon":5.38265,"is_reserved":false,"is_disabled":false,"rental_uris":{"android":"levelo://app?vid=67349b8d-80b3-4749-832d-07f7e424b34c","ios":"levelo://app?vid=67349b8d-80b3-4749-832d-07f7e424b34c"},"vehicle_type_id":"4","last_reported":1729591778,"current_range_meters":39200,"station_id":"ce4bhg92rcd13ifvqf90","pricing_plan_id":"cebpf4jnsgd1na2vs0mg"},{"bike_id":"2f8adabc-5094-4e41-833e-591be121963d","system_id":"levelo_inurba_marseille","lat":43.29576,"lon":5.3674,"is_reserved":false,"is_disabled":false,"rental_uris":{"android":"levelo://app?vid=2f8adabc-5094-4e41-833e-591be121963d","ios":"levelo://app?vid=2f8adabc-5094-4e41-833e-591be121963d"},"vehicle_type_id":"4","last_reported":1729591778,"current_range_meters":26800,"station_id":"ce4bgph2rcd13ifvqc2g","pricing_plan_id":"cebpf4jnsgd1na2vs0mg"},{"bike_id":"1bcb55a5-c74e-4a9e-956b-3b5cb07d2887","system_id":"levelo_inurba_marseille","lat":43.30907,"lon":5.36858,"is_reserved":false,"is_disabled":false,"rental_uris":{"android":"levelo://app?vid=1bcb55a5-c74e-4a9e-956b-3b5cb07d2887","ios":"levelo://app?vid=1bcb55a5-c74e-4a9e-956b-3b5cb07d2887"},"vehicle_type_id":"4","last_reported":1729591778,"current_range_meters":38000,"station_id":"ce4bgn92rcd13ifvqbvg","pricing_plan_id":"cebpf4jnsgd1na2vs0mg"},{"bike_id":"2163a0a5-3422-4c4d-af38-bb1f09e39a7b","system_id":"levelo_inurba_marseille","lat":43.30538,"lon":5.36534,"is_reserved":false,"is_disabled":false,"rental_uris":{"android":"levelo://app?vid=2163a0a5-3422-4c4d-af38-bb1f09e39a7b","ios":"levelo://app?vid=2163a0a5-3422-4c4d-af38-bb1f09e39a7b"},"vehicle_type_id":"4","last_reported":1729591778,"current_range_meters":14400,"station_id":"ce4bgs12rcd13ifvqcag","pricing_plan_id":"cebpf4jnsgd1na2vs0mg"},{"bike_id":"f068a450-9849-428b-af12-99f3c58725e3","system_id":"levelo_inurba_marseille","lat":43.28346,"lon":5.38107,"is_reserved":false,"is_disabled":false,"rental_uris":{"android":"levelo://app?vid=f068a450-9849-428b-af12-99f3c58725e3","ios":"levelo://app?vid=f068a450-9849-428b-af12-99f3c58725e3"},"vehicle_type_id":"4","last_reported":1729591778,"current_range_meters":19200,"station_id":"ce4bh412rcd13ifvqdr0","pricing_plan_id":"cebpf4jnsgd1na2vs0mg"},{"bike_id":"af99bbf6-6362-4f23-9762-0d2c0f85538f","system_id":"levelo_inurba_marseille","lat":43.31344,"lon":5.36708,"is_reserved":false,"is_disabled":false,"rental_uris":{"android":"levelo://app?vid=af99bbf6-6362-4f23-9762-0d2c0f85538f","ios":"levelo://app?vid=af99bbf6-6362-4f23-9762-0d2c0f85538f"},"vehicle_type_id":"4","last_reported":1729591778,"current_range_meters":36000,"station_id":"ce4bgr92rcd13ifvqc6g","pricing_plan_id":"cebpf4jnsgd1na2vs0mg"},{"bike_id":"4c72ed75-c17d-47e2-8bb4-e2449803bf90","system_id":"levelo_inurba_marseille","lat":43.29957,"lon":5.41323,"is_reserved":false,"is_disabled":false,"rental_uris":{"android":"levelo://app?vid=4c72ed75-c17d-47e2-8bb4-e2449803bf90","ios":"levelo://app?vid=4c72ed75-c17d-47e2-8bb4-e2449803bf90"},"vehicle_type_id":"4","last_reported":1729591778,"current_range_meters":38400,"station_id":"ce4bhp12rcd13ifvqh9g","pricing_plan_id":"cebpf4jnsgd1na2vs0mg"},{"bike_id":"804fb848-57f6-4944-985c-c6acefd10248","system_id":"levelo_inurba_marseille","lat":43.28148,"lon":5.42643,"is_reserved":false,"is_disabled":false,"rental_uris":{"android":"levelo://app?vid=804fb848-57f6-4944-985c-c6acefd10248","ios":"levelo://app?vid=804fb848-57f6-4944-985c-c6acefd10248"},"vehicle_type_id":"4","last_reported":1729591778,"current_range_meters":38800,"station_id":"ce4bhnh2rcd13ifvqgug","pricing_plan_id":"cebpf4jnsgd1na2vs0mg"},{"bike_id":"bf500020-f427-43b4-8b01-6c0c5e9c7264","system_id":"levelo_inurba_marseille","lat":43.2767,"lon":5.38877,"is_reserved":false,"is_disabled":false,"rental_uris":{"android":"levelo://app?vid=bf500020-f427-43b4-8b01-6c0c5e9c7264","ios":"levelo://app?vid=bf500020-f427-43b4-8b01-6c0c5e9c7264"},"vehicle_type_id":"4","last_reported":1729591778,"current_range_meters":20800,"station_id":"ce4bhi12rcd13ifvqfo0","pricing_plan_id":"cebpf4jnsgd1na2vs0mg"},{"bike_id":"3092cc72-6376-4a93-9a44-b7bd6dbe386d","system_id":"levelo_inurba_marseille","lat":43.29577,"lon":5.36741,"is_reserved":false,"is_disabled":false,"rental_uris":{"android":"levelo://app?vid=3092cc72-6376-4a93-9a44-b7bd6dbe386d","ios":"levelo://app?vid=3092cc72-6376-4a93-9a44-b7bd6dbe386d"},"vehicle_type_id":"4","last_reported":1729591778,"current_range_meters":35600,"station_id":"ce4bgph2rcd13ifvqc2g","pricing_plan_id":"cebpf4jnsgd1na2vs0mg"},{"bike_id":"b76bd3a5-6dac-4c65-8ee1-722a78ef6269","system_id":"levelo_inurba_marseille","lat":43.23149,"lon":5.43709,"is_reserved":false,"is_disabled":false,"rental_uris":{"android":"levelo://app?vid=b76bd3a5-6dac-4c65-8ee1-722a78ef6269","ios":"levelo://app?vid=b76bd3a5-6dac-4c65-8ee1-722a78ef6269"},"vehicle_type_id":"4","last_reported":1729591778,"current_range_meters":39200,"station_id":"ce4bhmp2rcd13ifvqgog","pricing_plan_id":"cebpf4jnsgd1na2vs0mg"},{"bike_id":"9fe99e90-9f96-4760-984f-54643ba8205f","system_id":"levelo_inurba_marseille","lat":43.33611,"lon":5.41023,"is_reserved":false,"is_disabled":false,"rental_uris":{"android":"levelo://app?vid=9fe99e90-9f96-4760-984f-54643ba8205f","ios":"levelo://app?vid=9fe99e90-9f96-4760-984f-54643ba8205f"},"vehicle_type_id":"4","last_reported":1729591778,"current_range_meters":26000,"station_id":"ce4bhqh2rcd13ifvqhmg","pricing_plan_id":"cebpf4jnsgd1na2vs0mg"},{"bike_id":"0f075d40-fcf9-47c6-9718-536382077367","system_id":"levelo_inurba_marseille","lat":43.31059,"lon":5.40085,"is_reserved":false,"is_disabled":false,"rental_uris":{"android":"levelo://app?vid=0f075d40-fcf9-47c6-9718-536382077367","ios":"levelo://app?vid=0f075d40-fcf9-47c6-9718-536382077367"},"vehicle_type_id":"4","last_reported":1729591778,"current_range_meters":22400,"station_id":"","pricing_plan_id":"cebpf4jnsgd1na2vs0mg"},{"bike_id":"0b69efd8-ad68-4722-9212-33068c10e131","system_id":"levelo_inurba_marseille","lat":43.30472,"lon":5.37908,"is_reserved":false,"is_disabled":false,"rental_uris":{"android":"levelo://app?vid=0b69efd8-ad68-4722-9212-33068c10e131","ios":"levelo://app?vid=0b69efd8-ad68-4722-9212-33068c10e131"},"vehicle_type_id":"4","last_reported":1729591778,"current_range_meters":36400,"station_id":"ce4bgup2rcd13ifvqcn0","pricing_plan_id":"cebpf4jnsgd1na2vs0mg"},{"bike_id":"d67659aa-1879-49ff-9e21-343007f69c6c","system_id":"levelo_inurba_marseille","lat":43.30807,"lon":5.43525,"is_reserved":false,"is_disabled":false,"rental_uris":{"android":"levelo://app?vid=d67659aa-1879-49ff-9e21-343007f69c6c","ios":"levelo://app?vid=d67659aa-1879-49ff-9e21-343007f69c6c"},"vehicle_type_id":"4","last_reported":1729591778,"current_range_meters":38800,"station_id":"ce4bhph2rcd13ifvqheg","pricing_plan_id":"cebpf4jnsgd1na2vs0mg"},{"bike_id":"3267d6db-7403-498c-a701-3503643929f6","system_id":"levelo_inurba_marseille","lat":43.29011,"lon":5.35605,"is_reserved":false,"is_disabled":false,"rental_uris":{"android":"levelo://app?vid=3267d6db-7403-498c-a701-3503643929f6","ios":"levelo://app?vid=3267d6db-7403-498c-a701-3503643929f6"},"vehicle_type_id":"4","last_reported":1729591778,"current_range_meters":30800,"station_id":"ce4bhb92rcd13ifvqen0","pricing_plan_id":"cebpf4jnsgd1na2vs0mg"},{"bike_id":"81c8279a-0c26-474c-b3f7-697c25b8ca1e","system_id":"levelo_inurba_marseille","lat":43.33608,"lon":5.41031,"is_reserved":false,"is_disabled":false,"rental_uris":{"android":"levelo://app?vid=81c8279a-0c26-474c-b3f7-697c25b8ca1e","ios":"levelo://app?vid=81c8279a-0c26-474c-b3f7-697c25b8ca1e"},"vehicle_type_id":"4","last_reported":1729591778,"current_range_meters":20400,"station_id":"ce4bhqh2rcd13ifvqhmg","pricing_plan_id":"cebpf4jnsgd1na2vs0mg"},{"bike_id":"e593ce27-4ac3-48d3-84cc-3aa47512f418","system_id":"levelo_inurba_marseille","lat":43.23118,"lon":5.35504,"is_reserved":false,"is_disabled":false,"rental_uris":{"android":"levelo://app?vid=e593ce27-4ac3-48d3-84cc-3aa47512f418","ios":"levelo://app?vid=e593ce27-4ac3-48d3-84cc-3aa47512f418"},"vehicle_type_id":"4","last_reported":1729591778,"current_range_meters":36000,"station_id":"","pricing_plan_id":"cebpf4jnsgd1na2vs0mg"},{"bike_id":"71dc3dd4-c57f-4280-a169-edd264e3f703","system_id":"levelo_inurba_marseille","lat":43.29261,"lon":5.409,"is_reserved":false,"is_disabled":false,"rental_uris":{"android":"levelo://app?vid=71dc3dd4-c57f-4280-a169-edd264e3f703","ios":"levelo://app?vid=71dc3dd4-c57f-4280-a169-edd264e3f703"},"vehicle_type_id":"4","last_reported":1729591778,"current_range_meters":20400,"station_id":"ce4bh192rcd13ifvqdc0","pricing_plan_id":"cebpf4jnsgd1na2vs0mg"},{"bike_id":"949c913c-f693-47f0-908b-67ced0b669f5","system_id":"levelo_inurba_marseille","lat":43.29708,"lon":5.376987,"is_reserved":false,"is_disabled":false,"rental_uris":{"android":"levelo://app?vid=949c913c-f693-47f0-908b-67ced0b669f5","ios":"levelo://app?vid=949c913c-f693-47f0-908b-67ced0b669f5"},"vehicle_type_id":"4","last_reported":1729591778,"current_range_meters":25600,"station_id":"ce4bgs92rcd13ifvqcc0","pricing_plan_id":"cebpf4jnsgd1na2vs0mg"},{"bike_id":"a9d99a07-01a7-458e-972d-4ceef2e04eda","system_id":"levelo_inurba_marseille","lat":43.32478,"lon":5.36578,"is_reserved":false,"is_disabled":false,"rental_uris":{"android":"levelo://app?vid=a9d99a07-01a7-458e-972d-4ceef2e04eda","ios":"levelo://app?vid=a9d99a07-01a7-458e-972d-4ceef2e04eda"},"vehicle_type_id":"4","last_reported":1729591778,"current_range_meters":20400,"station_id":"ce4bhs12rcd13ifvqhvg","pricing_plan_id":"cebpf4jnsgd1na2vs0mg"},{"bike_id":"864575c1-85b8-4008-92ba-391073d4ed51","system_id":"levelo_inurba_marseille","lat":43.23189,"lon":5.35541,"is_reserved":false,"is_disabled":false,"rental_uris":{"android":"levelo://app?vid=864575c1-85b8-4008-92ba-391073d4ed51","ios":"levelo://app?vid=864575c1-85b8-4008-92ba-391073d4ed51"},"vehicle_type_id":"4","last_reported":1729591778,"current_range_meters":25200,"station_id":"ce4bhu92rcd13ifvqi70","pricing_plan_id":"cebpf4jnsgd1na2vs0mg"},{"bike_id":"fef4c597-6841-4a88-9463-89cd40ef6a61","system_id":"levelo_inurba_marseille","lat":43.28356,"lon":5.38103,"is_reserved":false,"is_disabled":false,"rental_uris":{"android":"levelo://app?vid=fef4c597-6841-4a88-9463-89cd40ef6a61","ios":"levelo://app?vid=fef4c597-6841-4a88-9463-89cd40ef6a61"},"vehicle_type_id":"4","last_reported":1729591778,"current_range_meters":35200,"station_id":"ce4bh412rcd13ifvqdr0","pricing_plan_id":"cebpf4jnsgd1na2vs0mg"},{"bike_id":"52884cb7-d04b-45d5-aa44-41b9cf0febfb","system_id":"levelo_inurba_marseille","lat":43.30248,"lon":5.40041,"is_reserved":false,"is_disabled":false,"rental_uris":{"android":"levelo://app?vid=52884cb7-d04b-45d5-aa44-41b9cf0febfb","ios":"levelo://app?vid=52884cb7-d04b-45d5-aa44-41b9cf0febfb"},"vehicle_type_id":"4","last_reported":1729591778,"current_range_meters":12800,"station_id":"ce4bgvh2rcd13ifvqcs0","pricing_plan_id":"cebpf4jnsgd1na2vs0mg"},{"bike_id":"44d69bdc-29e0-4625-abf8-b95df9f37afd","system_id":"levelo_inurba_marseille","lat":43.27212,"lon":5.39186,"is_reserved":false,"is_disabled":false,"rental_uris":{"android":"levelo://app?vid=44d69bdc-29e0-4625-abf8-b95df9f37afd","ios":"levelo://app?vid=44d69bdc-29e0-4625-abf8-b95df9f37afd"},"vehicle_type_id":"4","last_reported":1729591778,"current_range_meters":39200,"station_id":"ce4bhhp2rcd13ifvqfm0","pricing_plan_id":"cebpf4jnsgd1na2vs0mg"},{"bike_id":"cc0943f8-710c-4b4a-8185-e9a2943e2c31","system_id":"levelo_inurba_marseille","lat":43.298492,"lon":5.362881,"is_reserved":false,"is_disabled":false,"rental_uris":{"android":"levelo://app?vid=cc0943f8-710c-4b4a-8185-e9a2943e2c31","ios":"levelo://app?vid=cc0943f8-710c-4b4a-8185-e9a2943e2c31"},"vehicle_type_id":"4","last_reported":1729591778,"current_range_meters":18800,"station_id":"ce4bgpp2rcd13ifvqc3g","pricing_plan_id":"cebpf4jnsgd1na2vs0mg"},{"bike_id":"0728974d-1ad5-4181-91f2-6035aab7157d","system_id":"levelo_inurba_marseille","lat":43.23187,"lon":5.35545,"is_reserved":false,"is_disabled":false,"rental_uris":{"android":"levelo://app?vid=0728974d-1ad5-4181-91f2-6035aab7157d","ios":"levelo://app?vid=0728974d-1ad5-4181-91f2-6035aab7157d"},"vehicle_type_id":"4","last_reported":1729591778,"current_range_meters":39200,"station_id":"ce4bhu92rcd13ifvqi70","pricing_plan_id":"cebpf4jnsgd1na2vs0mg"},{"bike_id":"a0e86bd5-21b4-4a46-95de-8e3257bf3958","system_id":"levelo_inurba_marseille","lat":43.29274,"lon":5.36843,"is_reserved":false,"is_disabled":false,"rental_uris":{"android":"levelo://app?vid=a0e86bd5-21b4-4a46-95de-8e3257bf3958","ios":"levelo://app?vid=a0e86bd5-21b4-4a46-95de-8e3257bf3958"},"vehicle_type_id":"4","last_reported":1729591778,"current_range_meters":24400,"station_id":"ce4bhbp2rcd13ifvqesg","pricing_plan_id":"cebpf4jnsgd1na2vs0mg"},{"bike_id":"4fbc9bcd-f983-47d0-a432-134af039f6c8","system_id":"levelo_inurba_marseille","lat":43.2314,"lon":5.43727,"is_reserved":false,"is_disabled":false,"rental_uris":{"android":"levelo://app?vid=4fbc9bcd-f983-47d0-a432-134af039f6c8","ios":"levelo://app?vid=4fbc9bcd-f983-47d0-a432-134af039f6c8"},"vehicle_type_id":"4","last_reported":1729591778,"current_range_meters":16400,"station_id":"ce4bhmp2rcd13ifvqgog","pricing_plan_id":"cebpf4jnsgd1na2vs0mg"},{"bike_id":"287bf577-ec28-476f-81dc-18f5c4d600e7","system_id":"levelo_inurba_marseille","lat":43.30542,"lon":5.36539,"is_reserved":false,"is_disabled":false,"rental_uris":{"android":"levelo://app?vid=287bf577-ec28-476f-81dc-18f5c4d600e7","ios":"levelo://app?vid=287bf577-ec28-476f-81dc-18f5c4d600e7"},"vehicle_type_id":"4","last_reported":1729591778,"current_range_meters":28000,"station_id":"ce4bgs12rcd13ifvqcag","pricing_plan_id":"cebpf4jnsgd1na2vs0mg"},{"bike_id":"c187f397-549d-49d8-97a4-0989ebdbd2c5","system_id":"levelo_inurba_marseille","lat":43.26943,"lon":5.40243,"is_reserved":false,"is_disabled":false,"rental_uris":{"android":"levelo://app?vid=c187f397-549d-49d8-97a4-0989ebdbd2c5","ios":"levelo://app?vid=c187f397-549d-49d8-97a4-0989ebdbd2c5"},"vehicle_type_id":"4","last_reported":1729591778,"current_range_meters":30400,"station_id":"cjm6bp8fraef2m0cb0m0","pricing_plan_id":"cebpf4jnsgd1na2vs0mg"},{"bike_id":"2d5adfb3-fbf6-49ea-92ee-2aa0b000d141","system_id":"levelo_inurba_marseille","lat":43.24806,"lon":5.37454,"is_reserved":false,"is_disabled":false,"rental_uris":{"android":"levelo://app?vid=2d5adfb3-fbf6-49ea-92ee-2aa0b000d141","ios":"levelo://app?vid=2d5adfb3-fbf6-49ea-92ee-2aa0b000d141"},"vehicle_type_id":"4","last_reported":1729591778,"current_range_meters":6800,"station_id":"ce4bhgh2rcd13ifvqfb0","pricing_plan_id":"cebpf4jnsgd1na2vs0mg"},{"bike_id":"fb2bdff2-bfc9-457b-9a56-543ffccc0121","system_id":"levelo_inurba_marseille","lat":43.28355,"lon":5.38097,"is_reserved":false,"is_disabled":false,"rental_uris":{"android":"levelo://app?vid=fb2bdff2-bfc9-457b-9a56-543ffccc0121","ios":"levelo://app?vid=fb2bdff2-bfc9-457b-9a56-543ffccc0121"},"vehicle_type_id":"4","last_reported":1729591778,"current_range_meters":36000,"station_id":"ce4bh412rcd13ifvqdr0","pricing_plan_id":"cebpf4jnsgd1na2vs0mg"},{"bike_id":"2fdceece-11fe-4658-aadb-f99a94505203","system_id":"levelo_inurba_marseille","lat":43.27064,"lon":5.40251,"is_reserved":false,"is_disabled":false,"rental_uris":{"android":"levelo://app?vid=2fdceece-11fe-4658-aadb-f99a94505203","ios":"levelo://app?vid=2fdceece-11fe-4658-aadb-f99a94505203"},"vehicle_type_id":"4","last_reported":1729591778,"current_range_meters":12400,"station_id":"ce4bhk92rcd13ifvqgc0","pricing_plan_id":"cebpf4jnsgd1na2vs0mg"},{"bike_id":"3502d262-242a-4f41-b46a-18e154b6d3d4","system_id":"levelo_inurba_marseille","lat":43.25937,"lon":5.40898,"is_reserved":false,"is_disabled":false,"rental_uris":{"android":"levelo://app?vid=3502d262-242a-4f41-b46a-18e154b6d3d4","ios":"levelo://app?vid=3502d262-242a-4f41-b46a-18e154b6d3d4"},"vehicle_type_id":"4","last_reported":1729591778,"current_range_meters":28800,"station_id":"ce4bhm92rcd13ifvqglg","pricing_plan_id":"cebpf4jnsgd1na2vs0mg"},{"bike_id":"b80433ac-4b37-4869-84e8-91999a3765ef","system_id":"levelo_inurba_marseille","lat":43.33606,"lon":5.41026,"is_reserved":false,"is_disabled":false,"rental_uris":{"android":"levelo://app?vid=b80433ac-4b37-4869-84e8-91999a3765ef","ios":"levelo://app?vid=b80433ac-4b37-4869-84e8-91999a3765ef"},"vehicle_type_id":"4","last_reported":1729591778,"current_range_meters":27200,"station_id":"ce4bhqh2rcd13ifvqhmg","pricing_plan_id":"cebpf4jnsgd1na2vs0mg"},{"bike_id":"79a1e020-318b-42a1-a8c0-a424b1daf69e","system_id":"levelo_inurba_marseille","lat":43.296,"lon":5.36142,"is_reserved":false,"is_disabled":false,"rental_uris":{"android":"levelo://app?vid=79a1e020-318b-42a1-a8c0-a424b1daf69e","ios":"levelo://app?vid=79a1e020-318b-42a1-a8c0-a424b1daf69e"},"vehicle_type_id":"4","last_reported":1729591778,"current_range_meters":6400,"station_id":"","pricing_plan_id":"cebpf4jnsgd1na2vs0mg"},{"bike_id":"99987743-9d69-43f7-9b2b-69358ed466d5","system_id":"levelo_inurba_marseille","lat":43.27914,"lon":5.39574,"is_reserved":false,"is_disabled":false,"rental_uris":{"android":"levelo://app?vid=99987743-9d69-43f7-9b2b-69358ed466d5","ios":"levelo://app?vid=99987743-9d69-43f7-9b2b-69358ed466d5"},"vehicle_type_id":"4","last_reported":1729591778,"current_range_meters":25200,"station_id":"ce4bhf92rcd13ifvqf40","pricing_plan_id":"cebpf4jnsgd1na2vs0mg"},{"bike_id":"6eced96a-b021-41b9-89bf-72379aa39c97","system_id":"levelo_inurba_marseille","lat":43.25929,"lon":5.40907,"is_reserved":false,"is_disabled":false,"rental_uris":{"android":"levelo://app?vid=6eced96a-b021-41b9-89bf-72379aa39c97","ios":"levelo://app?vid=6eced96a-b021-41b9-89bf-72379aa39c97"},"vehicle_type_id":"4","last_reported":1729591778,"current_range_meters":32800,"station_id":"ce4bhm92rcd13ifvqglg","pricing_plan_id":"cebpf4jnsgd1na2vs0mg"},{"bike_id":"3b146ebd-f1ca-414f-8b07-c3be71b7e9f5","system_id":"levelo_inurba_marseille","lat":43.24388,"lon":5.37061,"is_reserved":false,"is_disabled":false,"rental_uris":{"android":"levelo://app?vid=3b146ebd-f1ca-414f-8b07-c3be71b7e9f5","ios":"levelo://app?vid=3b146ebd-f1ca-414f-8b07-c3be71b7e9f5"},"vehicle_type_id":"4","last_reported":1729591778,"current_range_meters":24400,"station_id":"ce4bhhh2rcd13ifvqfk0","pricing_plan_id":"cebpf4jnsgd1na2vs0mg"},{"bike_id":"e9d9c1e1-00ea-4aff-aef8-21c445f21c8a","system_id":"levelo_inurba_marseille","lat":43.24077,"lon":5.3776,"is_reserved":false,"is_disabled":false,"rental_uris":{"android":"levelo://app?vid=e9d9c1e1-00ea-4aff-aef8-21c445f21c8a","ios":"levelo://app?vid=e9d9c1e1-00ea-4aff-aef8-21c445f21c8a"},"vehicle_type_id":"4","last_reported":1729591778,"current_range_meters":26800,"station_id":"ce4bhnp2rcd13ifvqgvg","pricing_plan_id":"cebpf4jnsgd1na2vs0mg"},{"bike_id":"2c007d7e-7810-4883-98e8-855a7dff1e01","system_id":"levelo_inurba_marseille","lat":43.28617,"lon":5.35103,"is_reserved":false,"is_disabled":false,"rental_uris":{"android":"levelo://app?vid=2c007d7e-7810-4883-98e8-855a7dff1e01","ios":"levelo://app?vid=2c007d7e-7810-4883-98e8-855a7dff1e01"},"vehicle_type_id":"4","last_reported":1729591778,"current_range_meters":8000,"station_id":"ce4bhch2rcd13ifvqeug","pricing_plan_id":"cebpf4jnsgd1na2vs0mg"},{"bike_id":"9a730649-9acd-49c7-ae5b-981c307f0906","system_id":"levelo_inurba_marseille","lat":43.2508,"lon":5.39511,"is_reserved":false,"is_disabled":false,"rental_uris":{"android":"levelo://app?vid=9a730649-9acd-49c7-ae5b-981c307f0906","ios":"levelo://app?vid=9a730649-9acd-49c7-ae5b-981c307f0906"},"vehicle_type_id":"4","last_reported":1729591778,"current_range_meters":24400,"station_id":"ce4bhm12rcd13ifvqgkg","pricing_plan_id":"cebpf4jnsgd1na2vs0mg"},{"bike_id":"7adf842b-4b8c-4356-a23f-1be0cbaf4d21","system_id":"levelo_inurba_marseille","lat":43.23194,"lon":5.35544,"is_reserved":false,"is_disabled":false,"rental_uris":{"android":"levelo://app?vid=7adf842b-4b8c-4356-a23f-1be0cbaf4d21","ios":"levelo://app?vid=7adf842b-4b8c-4356-a23f-1be0cbaf4d21"},"vehicle_type_id":"4","last_reported":1729591778,"current_range_meters":9600,"station_id":"ce4bhu92rcd13ifvqi70","pricing_plan_id":"cebpf4jnsgd1na2vs0mg"},{"bike_id":"45495d78-6579-4baf-98bd-1b602f954d3e","system_id":"levelo_inurba_marseille","lat":43.32036,"lon":5.41572,"is_reserved":false,"is_disabled":false,"rental_uris":{"android":"levelo://app?vid=45495d78-6579-4baf-98bd-1b602f954d3e","ios":"levelo://app?vid=45495d78-6579-4baf-98bd-1b602f954d3e"},"vehicle_type_id":"4","last_reported":1729591778,"current_range_meters":22800,"station_id":"ce4bhq92rcd13ifvqhkg","pricing_plan_id":"cebpf4jnsgd1na2vs0mg"},{"bike_id":"3fbb21dc-457c-4028-8cc7-8a7ddebb915c","system_id":"levelo_inurba_marseille","lat":43.23197,"lon":5.35547,"is_reserved":false,"is_disabled":false,"rental_uris":{"android":"levelo://app?vid=3fbb21dc-457c-4028-8cc7-8a7ddebb915c","ios":"levelo://app?vid=3fbb21dc-457c-4028-8cc7-8a7ddebb915c"},"vehicle_type_id":"4","last_reported":1729591778,"current_range_meters":36800,"station_id":"ce4bhu92rcd13ifvqi70","pricing_plan_id":"cebpf4jnsgd1na2vs0mg"},{"bike_id":"8d66234d-ed10-4a56-b9bf-7024ed1a6c9c","system_id":"levelo_inurba_marseille","lat":43.3257,"lon":5.37908,"is_reserved":false,"is_disabled":false,"rental_uris":{"android":"levelo://app?vid=8d66234d-ed10-4a56-b9bf-7024ed1a6c9c","ios":"levelo://app?vid=8d66234d-ed10-4a56-b9bf-7024ed1a6c9c"},"vehicle_type_id":"4","last_reported":1729591778,"current_range_meters":7200,"station_id":"","pricing_plan_id":"cebpf4jnsgd1na2vs0mg"},{"bike_id":"c6fbced7-fbc1-4b78-8501-21a4fcddb8db","system_id":"levelo_inurba_marseille","lat":43.31718,"lon":5.42393,"is_reserved":false,"is_disabled":false,"rental_uris":{"android":"levelo://app?vid=c6fbced7-fbc1-4b78-8501-21a4fcddb8db","ios":"levelo://app?vid=c6fbced7-fbc1-4b78-8501-21a4fcddb8db"},"vehicle_type_id":"4","last_reported":1729591778,"current_range_meters":12000,"station_id":"ce4bhp92rcd13ifvqhbg","pricing_plan_id":"cebpf4jnsgd1na2vs0mg"},{"bike_id":"7933aded-6259-4976-b6f7-05e90ee81aa9","system_id":"levelo_inurba_marseille","lat":43.30533,"lon":5.36543,"is_reserved":false,"is_disabled":false,"rental_uris":{"android":"levelo://app?vid=7933aded-6259-4976-b6f7-05e90ee81aa9","ios":"levelo://app?vid=7933aded-6259-4976-b6f7-05e90ee81aa9"},"vehicle_type_id":"4","last_reported":1729591778,"current_range_meters":39200,"station_id":"ce4bgs12rcd13ifvqcag","pricing_plan_id":"cebpf4jnsgd1na2vs0mg"},{"bike_id":"35a565d6-0fdf-4c4d-adba-c25dff6d340e","system_id":"levelo_inurba_marseille","lat":43.255,"lon":5.37651,"is_reserved":false,"is_disabled":false,"rental_uris":{"android":"levelo://app?vid=35a565d6-0fdf-4c4d-adba-c25dff6d340e","ios":"levelo://app?vid=35a565d6-0fdf-4c4d-adba-c25dff6d340e"},"vehicle_type_id":"4","last_reported":1729591778,"current_range_meters":12800,"station_id":"ce4bhh12rcd13ifvqff0","pricing_plan_id":"cebpf4jnsgd1na2vs0mg"},{"bike_id":"381240ae-0a2b-4391-9a6a-8aae2a77183c","system_id":"levelo_inurba_marseille","lat":43.25502,"lon":5.37645,"is_reserved":false,"is_disabled":false,"rental_uris":{"android":"levelo://app?vid=381240ae-0a2b-4391-9a6a-8aae2a77183c","ios":"levelo://app?vid=381240ae-0a2b-4391-9a6a-8aae2a77183c"},"vehicle_type_id":"4","last_reported":1729591778,"current_range_meters":38000,"station_id":"ce4bhh12rcd13ifvqff0","pricing_plan_id":"cebpf4jnsgd1na2vs0mg"},{"bike_id":"1d043a7e-e4a0-4b52-a511-dae1798912e1","system_id":"levelo_inurba_marseille","lat":43.28146,"lon":5.42635,"is_reserved":false,"is_disabled":false,"rental_uris":{"android":"levelo://app?vid=1d043a7e-e4a0-4b52-a511-dae1798912e1","ios":"levelo://app?vid=1d043a7e-e4a0-4b52-a511-dae1798912e1"},"vehicle_type_id":"4","last_reported":1729591778,"current_range_meters":37600,"station_id":"ce4bhnh2rcd13ifvqgug","pricing_plan_id":"cebpf4jnsgd1na2vs0mg"},{"bike_id":"32b886ac-1c53-4766-981e-21a100b903a4","system_id":"levelo_inurba_marseille","lat":43.23962,"lon":5.36628,"is_reserved":false,"is_disabled":false,"rental_uris":{"android":"levelo://app?vid=32b886ac-1c53-4766-981e-21a100b903a4","ios":"levelo://app?vid=32b886ac-1c53-4766-981e-21a100b903a4"},"vehicle_type_id":"4","last_reported":1729591778,"current_range_meters":20000,"station_id":"ce4bhi12rcd13ifvqfp0","pricing_plan_id":"cebpf4jnsgd1na2vs0mg"},{"bike_id":"00efb7ea-4935-4991-8e09-7c91b5acc755","system_id":"levelo_inurba_marseille","lat":43.29841,"lon":5.36257,"is_reserved":false,"is_disabled":false,"rental_uris":{"android":"levelo://app?vid=00efb7ea-4935-4991-8e09-7c91b5acc755","ios":"levelo://app?vid=00efb7ea-4935-4991-8e09-7c91b5acc755"},"vehicle_type_id":"4","last_reported":1729591778,"current_range_meters":22800,"station_id":"ce4bgpp2rcd13ifvqc3g","pricing_plan_id":"cebpf4jnsgd1na2vs0mg"},{"bike_id":"4c9cd873-b86d-45ed-8195-b76cbcf6fe83","system_id":"levelo_inurba_marseille","lat":43.25933,"lon":5.4091,"is_reserved":false,"is_disabled":false,"rental_uris":{"android":"levelo://app?vid=4c9cd873-b86d-45ed-8195-b76cbcf6fe83","ios":"levelo://app?vid=4c9cd873-b86d-45ed-8195-b76cbcf6fe83"},"vehicle_type_id":"4","last_reported":1729591778,"current_range_meters":33200,"station_id":"ce4bhm92rcd13ifvqglg","pricing_plan_id":"cebpf4jnsgd1na2vs0mg"},{"bike_id":"6cd915b7-8862-4c87-b58a-50cab51e10ad","system_id":"levelo_inurba_marseille","lat":43.29558,"lon":5.42284,"is_reserved":false,"is_disabled":false,"rental_uris":{"android":"levelo://app?vid=6cd915b7-8862-4c87-b58a-50cab51e10ad","ios":"levelo://app?vid=6cd915b7-8862-4c87-b58a-50cab51e10ad"},"vehicle_type_id":"4","last_reported":1729591778,"current_range_meters":21600,"station_id":"ce4bhph2rcd13ifvqhdg","pricing_plan_id":"cebpf4jnsgd1na2vs0mg"},{"bike_id":"8c2799b4-5713-484d-bb8e-a7c00b8f2550","system_id":"levelo_inurba_marseille","lat":43.27052,"lon":5.40254,"is_reserved":false,"is_disabled":false,"rental_uris":{"android":"levelo://app?vid=8c2799b4-5713-484d-bb8e-a7c00b8f2550","ios":"levelo://app?vid=8c2799b4-5713-484d-bb8e-a7c00b8f2550"},"vehicle_type_id":"4","last_reported":1729591778,"current_range_meters":36000,"station_id":"ce4bhk92rcd13ifvqgc0","pricing_plan_id":"cebpf4jnsgd1na2vs0mg"},{"bike_id":"f48b9292-5b23-4c1d-b443-99520d182fe9","system_id":"levelo_inurba_marseille","lat":43.31703,"lon":5.37742,"is_reserved":false,"is_disabled":false,"rental_uris":{"android":"levelo://app?vid=f48b9292-5b23-4c1d-b443-99520d182fe9","ios":"levelo://app?vid=f48b9292-5b23-4c1d-b443-99520d182fe9"},"vehicle_type_id":"4","last_reported":1729591778,"current_range_meters":13600,"station_id":"ce4bgth2rcd13ifvqch0","pricing_plan_id":"cebpf4jnsgd1na2vs0mg"},{"bike_id":"2a3e53bd-242d-4eac-9896-a49e9e39d676","system_id":"levelo_inurba_marseille","lat":43.31323,"lon":5.39691,"is_reserved":false,"is_disabled":false,"rental_uris":{"android":"levelo://app?vid=2a3e53bd-242d-4eac-9896-a49e9e39d676","ios":"levelo://app?vid=2a3e53bd-242d-4eac-9896-a49e9e39d676"},"vehicle_type_id":"4","last_reported":1729591778,"current_range_meters":8400,"station_id":"ce4bgvp2rcd13ifvqcu0","pricing_plan_id":"cebpf4jnsgd1na2vs0mg"},{"bike_id":"155517ef-0a83-4c87-b2da-fb3d8d259bc7","system_id":"levelo_inurba_marseille","lat":43.25579,"lon":5.38224,"is_reserved":false,"is_disabled":false,"rental_uris":{"android":"levelo://app?vid=155517ef-0a83-4c87-b2da-fb3d8d259bc7","ios":"levelo://app?vid=155517ef-0a83-4c87-b2da-fb3d8d259bc7"},"vehicle_type_id":"4","last_reported":1729591778,"current_range_meters":36800,"station_id":"ce4bhih2rcd13ifvqfs0","pricing_plan_id":"cebpf4jnsgd1na2vs0mg"},{"bike_id":"462fa29c-6209-4e1c-81e9-35cdeecbacb7","system_id":"levelo_inurba_marseille","lat":43.27056,"lon":5.40255,"is_reserved":false,"is_disabled":false,"rental_uris":{"android":"levelo://app?vid=462fa29c-6209-4e1c-81e9-35cdeecbacb7","ios":"levelo://app?vid=462fa29c-6209-4e1c-81e9-35cdeecbacb7"},"vehicle_type_id":"4","last_reported":1729591778,"current_range_meters":30000,"station_id":"ce4bhk92rcd13ifvqgc0","pricing_plan_id":"cebpf4jnsgd1na2vs0mg"},{"bike_id":"2a217b11-06a0-43da-b31e-e55cff6f0df1","system_id":"levelo_inurba_marseille","lat":43.30536,"lon":5.38424,"is_reserved":false,"is_disabled":false,"rental_uris":{"android":"levelo://app?vid=2a217b11-06a0-43da-b31e-e55cff6f0df1","ios":"levelo://app?vid=2a217b11-06a0-43da-b31e-e55cff6f0df1"},"vehicle_type_id":"4","last_reported":1729591778,"current_range_meters":30400,"station_id":"ce4bgg92rcd13ifvqb30","pricing_plan_id":"cebpf4jnsgd1na2vs0mg"},{"bike_id":"d35aead5-74d9-4a00-baad-d7d1ed435177","system_id":"levelo_inurba_marseille","lat":43.24073,"lon":5.37759,"is_reserved":false,"is_disabled":false,"rental_uris":{"android":"levelo://app?vid=d35aead5-74d9-4a00-baad-d7d1ed435177","ios":"levelo://app?vid=d35aead5-74d9-4a00-baad-d7d1ed435177"},"vehicle_type_id":"4","last_reported":1729591778,"current_range_meters":36000,"station_id":"ce4bhnp2rcd13ifvqgvg","pricing_plan_id":"cebpf4jnsgd1na2vs0mg"},{"bike_id":"01790058-e390-4979-aaba-8557f2c7ac9d","system_id":"levelo_inurba_marseille","lat":43.233074,"lon":5.357344,"is_reserved":false,"is_disabled":false,"rental_uris":{"android":"levelo://app?vid=01790058-e390-4979-aaba-8557f2c7ac9d","ios":"levelo://app?vid=01790058-e390-4979-aaba-8557f2c7ac9d"},"vehicle_type_id":"4","last_reported":1729591778,"current_range_meters":16800,"station_id":"","pricing_plan_id":"cebpf4jnsgd1na2vs0mg"},{"bike_id":"6b63d172-a2c8-46da-9750-2226af7381c0","system_id":"levelo_inurba_marseille","lat":43.23962,"lon":5.36641,"is_reserved":false,"is_disabled":false,"rental_uris":{"android":"levelo://app?vid=6b63d172-a2c8-46da-9750-2226af7381c0","ios":"levelo://app?vid=6b63d172-a2c8-46da-9750-2226af7381c0"},"vehicle_type_id":"4","last_reported":1729591778,"current_range_meters":38000,"station_id":"ce4bhi12rcd13ifvqfp0","pricing_plan_id":"cebpf4jnsgd1na2vs0mg"},{"bike_id":"d9e37939-a588-4efe-8580-1a5d5825e0e9","system_id":"levelo_inurba_marseille","lat":43.25497,"lon":5.37648,"is_reserved":false,"is_disabled":false,"rental_uris":{"android":"levelo://app?vid=d9e37939-a588-4efe-8580-1a5d5825e0e9","ios":"levelo://app?vid=d9e37939-a588-4efe-8580-1a5d5825e0e9"},"vehicle_type_id":"4","last_reported":1729591778,"current_range_meters":20800,"station_id":"ce4bhh12rcd13ifvqff0","pricing_plan_id":"cebpf4jnsgd1na2vs0mg"},{"bike_id":"baac8e18-d221-4a3a-ba24-305b61b8688c","system_id":"levelo_inurba_marseille","lat":43.30277,"lon":5.377,"is_reserved":false,"is_disabled":false,"rental_uris":{"android":"levelo://app?vid=baac8e18-d221-4a3a-ba24-305b61b8688c","ios":"levelo://app?vid=baac8e18-d221-4a3a-ba24-305b61b8688c"},"vehicle_type_id":"4","last_reported":1729591778,"current_range_meters":28400,"station_id":"ce4bguh2rcd13ifvqcj0","pricing_plan_id":"cebpf4jnsgd1na2vs0mg"},{"bike_id":"262d6295-809d-45c9-9768-b3b5a2cf90b7","system_id":"levelo_inurba_marseille","lat":43.31357,"lon":5.36718,"is_reserved":false,"is_disabled":false,"rental_uris":{"android":"levelo://app?vid=262d6295-809d-45c9-9768-b3b5a2cf90b7","ios":"levelo://app?vid=262d6295-809d-45c9-9768-b3b5a2cf90b7"},"vehicle_type_id":"4","last_reported":1729591778,"current_range_meters":27600,"station_id":"ce4bgr92rcd13ifvqc6g","pricing_plan_id":"cebpf4jnsgd1na2vs0mg"},{"bike_id":"c3945b60-e38d-4106-8f18-92c7f436cc4f","system_id":"levelo_inurba_marseille","lat":43.33757,"lon":5.37448,"is_reserved":false,"is_disabled":false,"rental_uris":{"android":"levelo://app?vid=c3945b60-e38d-4106-8f18-92c7f436cc4f","ios":"levelo://app?vid=c3945b60-e38d-4106-8f18-92c7f436cc4f"},"vehicle_type_id":"4","last_reported":1729591778,"current_range_meters":32400,"station_id":"","pricing_plan_id":"cebpf4jnsgd1na2vs0mg"},{"bike_id":"de1ff86d-3061-40a1-be1e-8be446e6115e","system_id":"levelo_inurba_marseille","lat":43.29586,"lon":5.3816,"is_reserved":false,"is_disabled":false,"rental_uris":{"android":"levelo://app?vid=de1ff86d-3061-40a1-be1e-8be446e6115e","ios":"levelo://app?vid=de1ff86d-3061-40a1-be1e-8be446e6115e"},"vehicle_type_id":"4","last_reported":1729591778,"current_range_meters":14800,"station_id":"ce4bgl12rcd13ifvqbo0","pricing_plan_id":"cebpf4jnsgd1na2vs0mg"},{"bike_id":"288d6a7f-d998-4597-bb7b-cda3c5ea3b38","system_id":"levelo_inurba_marseille","lat":43.30471,"lon":5.3791,"is_reserved":false,"is_disabled":false,"rental_uris":{"android":"levelo://app?vid=288d6a7f-d998-4597-bb7b-cda3c5ea3b38","ios":"levelo://app?vid=288d6a7f-d998-4597-bb7b-cda3c5ea3b38"},"vehicle_type_id":"4","last_reported":1729591778,"current_range_meters":36800,"station_id":"ce4bgup2rcd13ifvqcn0","pricing_plan_id":"cebpf4jnsgd1na2vs0mg"},{"bike_id":"c37a9f14-2d78-41b8-ba95-c64c54cc1335","system_id":"levelo_inurba_marseille","lat":43.30552,"lon":5.3653,"is_reserved":false,"is_disabled":false,"rental_uris":{"android":"levelo://app?vid=c37a9f14-2d78-41b8-ba95-c64c54cc1335","ios":"levelo://app?vid=c37a9f14-2d78-41b8-ba95-c64c54cc1335"},"vehicle_type_id":"4","last_reported":1729591778,"current_range_meters":24400,"station_id":"ce4bgs12rcd13ifvqcag","pricing_plan_id":"cebpf4jnsgd1na2vs0mg"},{"bike_id":"9819146e-6e38-4bfb-8718-b0a15928bc96","system_id":"levelo_inurba_marseille","lat":43.31344,"lon":5.36716,"is_reserved":false,"is_disabled":false,"rental_uris":{"android":"levelo://app?vid=9819146e-6e38-4bfb-8718-b0a15928bc96","ios":"levelo://app?vid=9819146e-6e38-4bfb-8718-b0a15928bc96"},"vehicle_type_id":"4","last_reported":1729591778,"current_range_meters":28400,"station_id":"ce4bgr92rcd13ifvqc6g","pricing_plan_id":"cebpf4jnsgd1na2vs0mg"},{"bike_id":"19b35d6d-73b6-45ec-8f50-082181c57988","system_id":"levelo_inurba_marseille","lat":43.31359,"lon":5.38489,"is_reserved":false,"is_disabled":false,"rental_uris":{"android":"levelo://app?vid=19b35d6d-73b6-45ec-8f50-082181c57988","ios":"levelo://app?vid=19b35d6d-73b6-45ec-8f50-082181c57988"},"vehicle_type_id":"4","last_reported":1729591778,"current_range_meters":38800,"station_id":"ce4bgt92rcd13ifvqcf0","pricing_plan_id":"cebpf4jnsgd1na2vs0mg"},{"bike_id":"1cc8c524-3a72-465f-8ebe-e4c35d504abb","system_id":"levelo_inurba_marseille","lat":43.24068,"lon":5.37765,"is_reserved":false,"is_disabled":false,"rental_uris":{"android":"levelo://app?vid=1cc8c524-3a72-465f-8ebe-e4c35d504abb","ios":"levelo://app?vid=1cc8c524-3a72-465f-8ebe-e4c35d504abb"},"vehicle_type_id":"4","last_reported":1729591778,"current_range_meters":16000,"station_id":"ce4bhnp2rcd13ifvqgvg","pricing_plan_id":"cebpf4jnsgd1na2vs0mg"},{"bike_id":"7a595fc4-4950-46ab-a286-462e41aa3097","system_id":"levelo_inurba_marseille","lat":43.29969,"lon":5.3717,"is_reserved":false,"is_disabled":false,"rental_uris":{"android":"levelo://app?vid=7a595fc4-4950-46ab-a286-462e41aa3097","ios":"levelo://app?vid=7a595fc4-4950-46ab-a286-462e41aa3097"},"vehicle_type_id":"4","last_reported":1729591778,"current_range_meters":33200,"station_id":"ce4bgr92rcd13ifvqc7g","pricing_plan_id":"cebpf4jnsgd1na2vs0mg"},{"bike_id":"c497a204-d102-4fb8-8c4f-4d71a1f981d8","system_id":"levelo_inurba_marseille","lat":43.33616,"lon":5.41025,"is_reserved":false,"is_disabled":false,"rental_uris":{"android":"levelo://app?vid=c497a204-d102-4fb8-8c4f-4d71a1f981d8","ios":"levelo://app?vid=c497a204-d102-4fb8-8c4f-4d71a1f981d8"},"vehicle_type_id":"4","last_reported":1729591778,"current_range_meters":18800,"station_id":"ce4bhqh2rcd13ifvqhmg","pricing_plan_id":"cebpf4jnsgd1na2vs0mg"},{"bike_id":"6ba1088e-f6d7-458a-a335-f0b3c3746983","system_id":"levelo_inurba_marseille","lat":43.24178,"lon":5.3973,"is_reserved":false,"is_disabled":false,"rental_uris":{"android":"levelo://app?vid=6ba1088e-f6d7-458a-a335-f0b3c3746983","ios":"levelo://app?vid=6ba1088e-f6d7-458a-a335-f0b3c3746983"},"vehicle_type_id":"4","last_reported":1729591778,"current_range_meters":38000,"station_id":"ce4bhn12rcd13ifvqgpg","pricing_plan_id":"cebpf4jnsgd1na2vs0mg"},{"bike_id":"6a606450-0244-4420-a512-c69c644c2c13","system_id":"levelo_inurba_marseille","lat":43.25491,"lon":5.37652,"is_reserved":false,"is_disabled":false,"rental_uris":{"android":"levelo://app?vid=6a606450-0244-4420-a512-c69c644c2c13","ios":"levelo://app?vid=6a606450-0244-4420-a512-c69c644c2c13"},"vehicle_type_id":"4","last_reported":1729591778,"current_range_meters":38800,"station_id":"ce4bhh12rcd13ifvqff0","pricing_plan_id":"cebpf4jnsgd1na2vs0mg"},{"bike_id":"c6514999-11a6-4cc9-8fdc-53a83e26106a","system_id":"levelo_inurba_marseille","lat":43.25083,"lon":5.39512,"is_reserved":false,"is_disabled":false,"rental_uris":{"android":"levelo://app?vid=c6514999-11a6-4cc9-8fdc-53a83e26106a","ios":"levelo://app?vid=c6514999-11a6-4cc9-8fdc-53a83e26106a"},"vehicle_type_id":"4","last_reported":1729591778,"current_range_meters":38800,"station_id":"ce4bhm12rcd13ifvqgkg","pricing_plan_id":"cebpf4jnsgd1na2vs0mg"},{"bike_id":"b4ea0177-0071-4ad9-97bf-23c28c5ab4b0","system_id":"levelo_inurba_marseille","lat":43.29416,"lon":5.38625,"is_reserved":false,"is_disabled":false,"rental_uris":{"android":"levelo://app?vid=b4ea0177-0071-4ad9-97bf-23c28c5ab4b0","ios":"levelo://app?vid=b4ea0177-0071-4ad9-97bf-23c28c5ab4b0"},"vehicle_type_id":"4","last_reported":1729591778,"current_range_meters":16000,"station_id":"ce4bh2h2rcd13ifvqdh0","pricing_plan_id":"cebpf4jnsgd1na2vs0mg"},{"bike_id":"fed181f1-bf63-44a2-8176-df50744f2b5a","system_id":"levelo_inurba_marseille","lat":43.33602,"lon":5.41029,"is_reserved":false,"is_disabled":false,"rental_uris":{"android":"levelo://app?vid=fed181f1-bf63-44a2-8176-df50744f2b5a","ios":"levelo://app?vid=fed181f1-bf63-44a2-8176-df50744f2b5a"},"vehicle_type_id":"4","last_reported":1729591778,"current_range_meters":18800,"station_id":"ce4bhqh2rcd13ifvqhmg","pricing_plan_id":"cebpf4jnsgd1na2vs0mg"},{"bike_id":"5e9e22a8-83e6-488b-b876-d74daeb25302","system_id":"levelo_inurba_marseille","lat":43.30278,"lon":5.37696,"is_reserved":false,"is_disabled":false,"rental_uris":{"android":"levelo://app?vid=5e9e22a8-83e6-488b-b876-d74daeb25302","ios":"levelo://app?vid=5e9e22a8-83e6-488b-b876-d74daeb25302"},"vehicle_type_id":"4","last_reported":1729591778,"current_range_meters":39200,"station_id":"ce4bguh2rcd13ifvqcj0","pricing_plan_id":"cebpf4jnsgd1na2vs0mg"},{"bike_id":"fa481e4e-4749-4d4b-9709-d597ee1df05b","system_id":"levelo_inurba_marseille","lat":43.29686,"lon":5.37296,"is_reserved":false,"is_disabled":false,"rental_uris":{"android":"levelo://app?vid=fa481e4e-4749-4d4b-9709-d597ee1df05b","ios":"levelo://app?vid=fa481e4e-4749-4d4b-9709-d597ee1df05b"},"vehicle_type_id":"4","last_reported":1729591778,"current_range_meters":38400,"station_id":"","pricing_plan_id":"cebpf4jnsgd1na2vs0mg"},{"bike_id":"382f8b74-5cc0-4ecc-aac3-cb7428397d32","system_id":"levelo_inurba_marseille","lat":43.31344,"lon":5.36718,"is_reserved":false,"is_disabled":false,"rental_uris":{"android":"levelo://app?vid=382f8b74-5cc0-4ecc-aac3-cb7428397d32","ios":"levelo://app?vid=382f8b74-5cc0-4ecc-aac3-cb7428397d32"},"vehicle_type_id":"4","last_reported":1729591778,"current_range_meters":22800,"station_id":"ce4bgr92rcd13ifvqc6g","pricing_plan_id":"cebpf4jnsgd1na2vs0mg"},{"bike_id":"10cd1eab-b7c4-4809-b16d-4cf4afc0b3c1","system_id":"levelo_inurba_marseille","lat":43.23153,"lon":5.43713,"is_reserved":false,"is_disabled":false,"rental_uris":{"android":"levelo://app?vid=10cd1eab-b7c4-4809-b16d-4cf4afc0b3c1","ios":"levelo://app?vid=10cd1eab-b7c4-4809-b16d-4cf4afc0b3c1"},"vehicle_type_id":"4","last_reported":1729591778,"current_range_meters":38800,"station_id":"ce4bhmp2rcd13ifvqgog","pricing_plan_id":"cebpf4jnsgd1na2vs0mg"},{"bike_id":"ec125df5-44cc-49b7-81e0-c522bd2ca48c","system_id":"levelo_inurba_marseille","lat":43.23152,"lon":5.43705,"is_reserved":false,"is_disabled":false,"rental_uris":{"android":"levelo://app?vid=ec125df5-44cc-49b7-81e0-c522bd2ca48c","ios":"levelo://app?vid=ec125df5-44cc-49b7-81e0-c522bd2ca48c"},"vehicle_type_id":"4","last_reported":1729591778,"current_range_meters":31200,"station_id":"ce4bhmp2rcd13ifvqgog","pricing_plan_id":"cebpf4jnsgd1na2vs0mg"},{"bike_id":"9ea78af1-c64b-4976-8827-3c0e92077d19","system_id":"levelo_inurba_marseille","lat":43.306217,"lon":5.393237,"is_reserved":false,"is_disabled":false,"rental_uris":{"android":"levelo://app?vid=9ea78af1-c64b-4976-8827-3c0e92077d19","ios":"levelo://app?vid=9ea78af1-c64b-4976-8827-3c0e92077d19"},"vehicle_type_id":"4","last_reported":1729591778,"current_range_meters":13600,"station_id":"ce4bgn12rcd13ifvqbt0","pricing_plan_id":"cebpf4jnsgd1na2vs0mg"},{"bike_id":"495d9b54-adef-4d33-98e0-753a1caccc4a","system_id":"levelo_inurba_marseille","lat":43.29943,"lon":5.36538,"is_reserved":false,"is_disabled":false,"rental_uris":{"android":"levelo://app?vid=495d9b54-adef-4d33-98e0-753a1caccc4a","ios":"levelo://app?vid=495d9b54-adef-4d33-98e0-753a1caccc4a"},"vehicle_type_id":"4","last_reported":1729591778,"current_range_meters":28400,"station_id":"ce4bgm92rcd13ifvqbr0","pricing_plan_id":"cebpf4jnsgd1na2vs0mg"},{"bike_id":"d8d30b00-c51f-42c1-a4bc-5be916aaba37","system_id":"levelo_inurba_marseille","lat":43.2959,"lon":5.37369,"is_reserved":false,"is_disabled":false,"rental_uris":{"android":"levelo://app?vid=d8d30b00-c51f-42c1-a4bc-5be916aaba37","ios":"levelo://app?vid=d8d30b00-c51f-42c1-a4bc-5be916aaba37"},"vehicle_type_id":"4","last_reported":1729591778,"current_range_meters":30000,"station_id":"","pricing_plan_id":"cebpf4jnsgd1na2vs0mg"},{"bike_id":"fd536803-b9cd-4b52-b966-d5ac2acd7b0a","system_id":"levelo_inurba_marseille","lat":43.25939,"lon":5.40904,"is_reserved":false,"is_disabled":false,"rental_uris":{"android":"levelo://app?vid=fd536803-b9cd-4b52-b966-d5ac2acd7b0a","ios":"levelo://app?vid=fd536803-b9cd-4b52-b966-d5ac2acd7b0a"},"vehicle_type_id":"4","last_reported":1729591778,"current_range_meters":32400,"station_id":"ce4bhm92rcd13ifvqglg","pricing_plan_id":"cebpf4jnsgd1na2vs0mg"},{"bike_id":"4a3aa950-2095-498f-87de-414e2c498191","system_id":"levelo_inurba_marseille","lat":43.28149,"lon":5.42645,"is_reserved":false,"is_disabled":false,"rental_uris":{"android":"levelo://app?vid=4a3aa950-2095-498f-87de-414e2c498191","ios":"levelo://app?vid=4a3aa950-2095-498f-87de-414e2c498191"},"vehicle_type_id":"4","last_reported":1729591778,"current_range_meters":38800,"station_id":"ce4bhnh2rcd13ifvqgug","pricing_plan_id":"cebpf4jnsgd1na2vs0mg"},{"bike_id":"f5e7b89d-e871-4da2-9801-15e210469b63","system_id":"levelo_inurba_marseille","lat":43.292012,"lon":5.357978,"is_reserved":false,"is_disabled":false,"rental_uris":{"android":"levelo://app?vid=f5e7b89d-e871-4da2-9801-15e210469b63","ios":"levelo://app?vid=f5e7b89d-e871-4da2-9801-15e210469b63"},"vehicle_type_id":"4","last_reported":1729591778,"current_range_meters":10800,"station_id":"ce4bhu92rcd13ifvqi70","pricing_plan_id":"cebpf4jnsgd1na2vs0mg"},{"bike_id":"3da57d1f-70d2-4c1c-9036-d2fbffb7ae09","system_id":"levelo_inurba_marseille","lat":43.302605,"lon":5.396287,"is_reserved":false,"is_disabled":false,"rental_uris":{"android":"levelo://app?vid=3da57d1f-70d2-4c1c-9036-d2fbffb7ae09","ios":"levelo://app?vid=3da57d1f-70d2-4c1c-9036-d2fbffb7ae09"},"vehicle_type_id":"4","last_reported":1729591778,"current_range_meters":33200,"station_id":"ce4bh0p2rcd13ifvqd70","pricing_plan_id":"cebpf4jnsgd1na2vs0mg"},{"bike_id":"05ba3d76-a880-4e08-bd5e-c88b517f9e8d","system_id":"levelo_inurba_marseille","lat":43.32483,"lon":5.3656,"is_reserved":false,"is_disabled":false,"rental_uris":{"android":"levelo://app?vid=05ba3d76-a880-4e08-bd5e-c88b517f9e8d","ios":"levelo://app?vid=05ba3d76-a880-4e08-bd5e-c88b517f9e8d"},"vehicle_type_id":"4","last_reported":1729591778,"current_range_meters":40000,"station_id":"ce4bhs12rcd13ifvqhvg","pricing_plan_id":"cebpf4jnsgd1na2vs0mg"},{"bike_id":"cba57ba3-0a8b-418b-9617-226cc2b07ef6","system_id":"levelo_inurba_marseille","lat":43.29622,"lon":5.37171,"is_reserved":false,"is_disabled":false,"rental_uris":{"android":"levelo://app?vid=cba57ba3-0a8b-418b-9617-226cc2b07ef6","ios":"levelo://app?vid=cba57ba3-0a8b-418b-9617-226cc2b07ef6"},"vehicle_type_id":"4","last_reported":1729591778,"current_range_meters":27600,"station_id":"ce4bgnh2rcd13ifvqc0g","pricing_plan_id":"cebpf4jnsgd1na2vs0mg"},{"bike_id":"f834fab5-e77d-455e-b0bc-5213d3a3aa79","system_id":"levelo_inurba_marseille","lat":43.29846,"lon":5.36272,"is_reserved":false,"is_disabled":false,"rental_uris":{"android":"levelo://app?vid=f834fab5-e77d-455e-b0bc-5213d3a3aa79","ios":"levelo://app?vid=f834fab5-e77d-455e-b0bc-5213d3a3aa79"},"vehicle_type_id":"4","last_reported":1729591778,"current_range_meters":38800,"station_id":"ce4bgpp2rcd13ifvqc3g","pricing_plan_id":"cebpf4jnsgd1na2vs0mg"},{"bike_id":"29875b3e-8ca4-446f-ac9d-aa0992919e16","system_id":"levelo_inurba_marseille","lat":43.307303,"lon":5.375583,"is_reserved":false,"is_disabled":false,"rental_uris":{"android":"levelo://app?vid=29875b3e-8ca4-446f-ac9d-aa0992919e16","ios":"levelo://app?vid=29875b3e-8ca4-446f-ac9d-aa0992919e16"},"vehicle_type_id":"4","last_reported":1729591778,"current_range_meters":29600,"station_id":"ce4bgv92rcd13ifvqcq0","pricing_plan_id":"cebpf4jnsgd1na2vs0mg"},{"bike_id":"6d42ba5b-90c9-4ab3-b333-400bff798019","system_id":"levelo_inurba_marseille","lat":43.28846,"lon":5.35878,"is_reserved":false,"is_disabled":false,"rental_uris":{"android":"levelo://app?vid=6d42ba5b-90c9-4ab3-b333-400bff798019","ios":"levelo://app?vid=6d42ba5b-90c9-4ab3-b333-400bff798019"},"vehicle_type_id":"4","last_reported":1729591778,"current_range_meters":38400,"station_id":"ce4bhb12rcd13ifvqem0","pricing_plan_id":"cebpf4jnsgd1na2vs0mg"},{"bike_id":"8273f07f-4a55-425c-8610-6e9ec4f94b46","system_id":"levelo_inurba_marseille","lat":43.33023,"lon":5.39043,"is_reserved":false,"is_disabled":false,"rental_uris":{"android":"levelo://app?vid=8273f07f-4a55-425c-8610-6e9ec4f94b46","ios":"levelo://app?vid=8273f07f-4a55-425c-8610-6e9ec4f94b46"},"vehicle_type_id":"4","last_reported":1729591778,"current_range_meters":40000,"station_id":"ce4bhr92rcd13ifvqhrg","pricing_plan_id":"cebpf4jnsgd1na2vs0mg"},{"bike_id":"815dd284-1bd2-4bb9-992a-b2116e2485bc","system_id":"levelo_inurba_marseille","lat":43.32793,"lon":5.36138,"is_reserved":false,"is_disabled":false,"rental_uris":{"android":"levelo://app?vid=815dd284-1bd2-4bb9-992a-b2116e2485bc","ios":"levelo://app?vid=815dd284-1bd2-4bb9-992a-b2116e2485bc"},"vehicle_type_id":"4","last_reported":1729591778,"current_range_meters":33600,"station_id":"","pricing_plan_id":"cebpf4jnsgd1na2vs0mg"},{"bike_id":"67da58a1-29c1-4d60-a436-0562b34da27b","system_id":"levelo_inurba_marseille","lat":43.30459,"lon":5.37906,"is_reserved":false,"is_disabled":false,"rental_uris":{"android":"levelo://app?vid=67da58a1-29c1-4d60-a436-0562b34da27b","ios":"levelo://app?vid=67da58a1-29c1-4d60-a436-0562b34da27b"},"vehicle_type_id":"4","last_reported":1729591778,"current_range_meters":35200,"station_id":"ce4bgup2rcd13ifvqcn0","pricing_plan_id":"cebpf4jnsgd1na2vs0mg"},{"bike_id":"a6becff1-00d3-47fa-8898-3ba6d7221fbe","system_id":"levelo_inurba_marseille","lat":43.23195,"lon":5.35538,"is_reserved":false,"is_disabled":false,"rental_uris":{"android":"levelo://app?vid=a6becff1-00d3-47fa-8898-3ba6d7221fbe","ios":"levelo://app?vid=a6becff1-00d3-47fa-8898-3ba6d7221fbe"},"vehicle_type_id":"4","last_reported":1729591778,"current_range_meters":36800,"station_id":"ce4bhu92rcd13ifvqi70","pricing_plan_id":"cebpf4jnsgd1na2vs0mg"},{"bike_id":"2865aa37-cd36-4fb4-8235-6e81415a1fd9","system_id":"levelo_inurba_marseille","lat":43.30904,"lon":5.36853,"is_reserved":false,"is_disabled":false,"rental_uris":{"android":"levelo://app?vid=2865aa37-cd36-4fb4-8235-6e81415a1fd9","ios":"levelo://app?vid=2865aa37-cd36-4fb4-8235-6e81415a1fd9"},"vehicle_type_id":"4","last_reported":1729591778,"current_range_meters":38800,"station_id":"ce4bgn92rcd13ifvqbvg","pricing_plan_id":"cebpf4jnsgd1na2vs0mg"},{"bike_id":"e23a88d9-b994-40d1-be86-fd5987f0d748","system_id":"levelo_inurba_marseille","lat":43.283569,"lon":5.385762,"is_reserved":false,"is_disabled":false,"rental_uris":{"android":"levelo://app?vid=e23a88d9-b994-40d1-be86-fd5987f0d748","ios":"levelo://app?vid=e23a88d9-b994-40d1-be86-fd5987f0d748"},"vehicle_type_id":"4","last_reported":1729591778,"current_range_meters":22000,"station_id":"ce4bh492rcd13ifvqdvg","pricing_plan_id":"cebpf4jnsgd1na2vs0mg"},{"bike_id":"7d540f79-b548-4745-ab9f-efc49c1e7bb6","system_id":"levelo_inurba_marseille","lat":43.30474,"lon":5.3791,"is_reserved":false,"is_disabled":false,"rental_uris":{"android":"levelo://app?vid=7d540f79-b548-4745-ab9f-efc49c1e7bb6","ios":"levelo://app?vid=7d540f79-b548-4745-ab9f-efc49c1e7bb6"},"vehicle_type_id":"4","last_reported":1729591778,"current_range_meters":16800,"station_id":"ce4bgup2rcd13ifvqcn0","pricing_plan_id":"cebpf4jnsgd1na2vs0mg"},{"bike_id":"dee0d09e-7eb5-4f6e-83a5-90719294f0fc","system_id":"levelo_inurba_marseille","lat":43.27061,"lon":5.40255,"is_reserved":false,"is_disabled":false,"rental_uris":{"android":"levelo://app?vid=dee0d09e-7eb5-4f6e-83a5-90719294f0fc","ios":"levelo://app?vid=dee0d09e-7eb5-4f6e-83a5-90719294f0fc"},"vehicle_type_id":"4","last_reported":1729591778,"current_range_meters":38400,"station_id":"ce4bhk92rcd13ifvqgc0","pricing_plan_id":"cebpf4jnsgd1na2vs0mg"},{"bike_id":"8fd5e621-75d1-49a9-a03e-d757e46c848c","system_id":"levelo_inurba_marseille","lat":43.33617,"lon":5.41027,"is_reserved":false,"is_disabled":false,"rental_uris":{"android":"levelo://app?vid=8fd5e621-75d1-49a9-a03e-d757e46c848c","ios":"levelo://app?vid=8fd5e621-75d1-49a9-a03e-d757e46c848c"},"vehicle_type_id":"4","last_reported":1729591778,"current_range_meters":32400,"station_id":"ce4bhqh2rcd13ifvqhmg","pricing_plan_id":"cebpf4jnsgd1na2vs0mg"},{"bike_id":"5a67c892-a602-4b40-977c-c1acd665d17e","system_id":"levelo_inurba_marseille","lat":43.25936,"lon":5.40913,"is_reserved":false,"is_disabled":false,"rental_uris":{"android":"levelo://app?vid=5a67c892-a602-4b40-977c-c1acd665d17e","ios":"levelo://app?vid=5a67c892-a602-4b40-977c-c1acd665d17e"},"vehicle_type_id":"4","last_reported":1729591778,"current_range_meters":22800,"station_id":"ce4bhm92rcd13ifvqglg","pricing_plan_id":"cebpf4jnsgd1na2vs0mg"},{"bike_id":"ee97773e-4ffa-41c5-817f-17d010a4f3e9","system_id":"levelo_inurba_marseille","lat":43.2549,"lon":5.37636,"is_reserved":false,"is_disabled":false,"rental_uris":{"android":"levelo://app?vid=ee97773e-4ffa-41c5-817f-17d010a4f3e9","ios":"levelo://app?vid=ee97773e-4ffa-41c5-817f-17d010a4f3e9"},"vehicle_type_id":"4","last_reported":1729591778,"current_range_meters":38800,"station_id":"ce4bhh12rcd13ifvqff0","pricing_plan_id":"cebpf4jnsgd1na2vs0mg"},{"bike_id":"1f52981c-7bb8-4af1-af37-b4a098cafcb2","system_id":"levelo_inurba_marseille","lat":43.28154,"lon":5.42647,"is_reserved":false,"is_disabled":false,"rental_uris":{"android":"levelo://app?vid=1f52981c-7bb8-4af1-af37-b4a098cafcb2","ios":"levelo://app?vid=1f52981c-7bb8-4af1-af37-b4a098cafcb2"},"vehicle_type_id":"4","last_reported":1729591778,"current_range_meters":28800,"station_id":"ce4bhnh2rcd13ifvqgug","pricing_plan_id":"cebpf4jnsgd1na2vs0mg"},{"bike_id":"284ad2fe-e49d-4450-9e4f-5e5df0983fd0","system_id":"levelo_inurba_marseille","lat":43.29912,"lon":5.37472,"is_reserved":false,"is_disabled":false,"rental_uris":{"android":"levelo://app?vid=284ad2fe-e49d-4450-9e4f-5e5df0983fd0","ios":"levelo://app?vid=284ad2fe-e49d-4450-9e4f-5e5df0983fd0"},"vehicle_type_id":"4","last_reported":1729591778,"current_range_meters":6800,"station_id":"ce4bgjh2rcd13ifvqbg0","pricing_plan_id":"cebpf4jnsgd1na2vs0mg"},{"bike_id":"bf8d0617-6bef-47ca-8c84-936cfebcc97c","system_id":"levelo_inurba_marseille","lat":43.32112,"lon":5.36771,"is_reserved":false,"is_disabled":false,"rental_uris":{"android":"levelo://app?vid=bf8d0617-6bef-47ca-8c84-936cfebcc97c","ios":"levelo://app?vid=bf8d0617-6bef-47ca-8c84-936cfebcc97c"},"vehicle_type_id":"4","last_reported":1729591778,"current_range_meters":17200,"station_id":"ce4bhrh2rcd13ifvqhug","pricing_plan_id":"cebpf4jnsgd1na2vs0mg"},{"bike_id":"247afc55-df79-4e12-90a8-3bdfdc590887","system_id":"levelo_inurba_marseille","lat":43.29839,"lon":5.36265,"is_reserved":false,"is_disabled":false,"rental_uris":{"android":"levelo://app?vid=247afc55-df79-4e12-90a8-3bdfdc590887","ios":"levelo://app?vid=247afc55-df79-4e12-90a8-3bdfdc590887"},"vehicle_type_id":"4","last_reported":1729591778,"current_range_meters":40000,"station_id":"ce4bgpp2rcd13ifvqc3g","pricing_plan_id":"cebpf4jnsgd1na2vs0mg"},{"bike_id":"462d4bda-45ef-4b27-aea0-1b3a1582d04e","system_id":"levelo_inurba_marseille","lat":43.29371,"lon":5.37858,"is_reserved":false,"is_disabled":false,"rental_uris":{"android":"levelo://app?vid=462d4bda-45ef-4b27-aea0-1b3a1582d04e","ios":"levelo://app?vid=462d4bda-45ef-4b27-aea0-1b3a1582d04e"},"vehicle_type_id":"4","last_reported":1729591778,"current_range_meters":6800,"station_id":"ce4bgjh2rcd13ifvqbf0","pricing_plan_id":"cebpf4jnsgd1na2vs0mg"},{"bike_id":"5ee2a809-6067-4e7e-bf77-993d2ceab946","system_id":"levelo_inurba_marseille","lat":43.25504,"lon":5.37646,"is_reserved":false,"is_disabled":false,"rental_uris":{"android":"levelo://app?vid=5ee2a809-6067-4e7e-bf77-993d2ceab946","ios":"levelo://app?vid=5ee2a809-6067-4e7e-bf77-993d2ceab946"},"vehicle_type_id":"4","last_reported":1729591778,"current_range_meters":39200,"station_id":"ce4bhh12rcd13ifvqff0","pricing_plan_id":"cebpf4jnsgd1na2vs0mg"},{"bike_id":"7e3cb010-b5b3-478f-8b4d-4185ab46a9f4","system_id":"levelo_inurba_marseille","lat":43.31395,"lon":5.36738,"is_reserved":false,"is_disabled":false,"rental_uris":{"android":"levelo://app?vid=7e3cb010-b5b3-478f-8b4d-4185ab46a9f4","ios":"levelo://app?vid=7e3cb010-b5b3-478f-8b4d-4185ab46a9f4"},"vehicle_type_id":"4","last_reported":1729591778,"current_range_meters":35200,"station_id":"","pricing_plan_id":"cebpf4jnsgd1na2vs0mg"},{"bike_id":"6306bed3-0d2b-49da-95c5-973170dba4a6","system_id":"levelo_inurba_marseille","lat":43.2315,"lon":5.4372,"is_reserved":false,"is_disabled":false,"rental_uris":{"android":"levelo://app?vid=6306bed3-0d2b-49da-95c5-973170dba4a6","ios":"levelo://app?vid=6306bed3-0d2b-49da-95c5-973170dba4a6"},"vehicle_type_id":"4","last_reported":1729591778,"current_range_meters":34000,"station_id":"ce4bhmp2rcd13ifvqgog","pricing_plan_id":"cebpf4jnsgd1na2vs0mg"},{"bike_id":"ee458820-4b5f-4880-a810-7e29f4e09d82","system_id":"levelo_inurba_marseille","lat":43.31363,"lon":5.36716,"is_reserved":false,"is_disabled":false,"rental_uris":{"android":"levelo://app?vid=ee458820-4b5f-4880-a810-7e29f4e09d82","ios":"levelo://app?vid=ee458820-4b5f-4880-a810-7e29f4e09d82"},"vehicle_type_id":"4","last_reported":1729591778,"current_range_meters":12400,"station_id":"ce4bgr92rcd13ifvqc6g","pricing_plan_id":"cebpf4jnsgd1na2vs0mg"},{"bike_id":"35bf996a-14d2-4d24-baf7-e5386f5f603a","system_id":"levelo_inurba_marseille","lat":43.282654,"lon":5.350588,"is_reserved":false,"is_disabled":false,"rental_uris":{"android":"levelo://app?vid=35bf996a-14d2-4d24-baf7-e5386f5f603a","ios":"levelo://app?vid=35bf996a-14d2-4d24-baf7-e5386f5f603a"},"vehicle_type_id":"4","last_reported":1729591778,"current_range_meters":16800,"station_id":"ce4bhbp2rcd13ifvqerg","pricing_plan_id":"cebpf4jnsgd1na2vs0mg"},{"bike_id":"9b2eea5a-3cff-40ce-ae1c-16e410ab238a","system_id":"levelo_inurba_marseille","lat":43.27068,"lon":5.42281,"is_reserved":false,"is_disabled":false,"rental_uris":{"android":"levelo://app?vid=9b2eea5a-3cff-40ce-ae1c-16e410ab238a","ios":"levelo://app?vid=9b2eea5a-3cff-40ce-ae1c-16e410ab238a"},"vehicle_type_id":"4","last_reported":1729591778,"current_range_meters":39200,"station_id":"ce4bhk92rcd13ifvqgb0","pricing_plan_id":"cebpf4jnsgd1na2vs0mg"},{"bike_id":"ae3fcb04-be9a-4eda-86cc-c69683243e47","system_id":"levelo_inurba_marseille","lat":43.23958,"lon":5.36633,"is_reserved":false,"is_disabled":false,"rental_uris":{"android":"levelo://app?vid=ae3fcb04-be9a-4eda-86cc-c69683243e47","ios":"levelo://app?vid=ae3fcb04-be9a-4eda-86cc-c69683243e47"},"vehicle_type_id":"4","last_reported":1729591778,"current_range_meters":38000,"station_id":"ce4bhi12rcd13ifvqfp0","pricing_plan_id":"cebpf4jnsgd1na2vs0mg"},{"bike_id":"422a3556-5806-4fe4-9e88-3d03bc9f488a","system_id":"levelo_inurba_marseille","lat":43.29036,"lon":5.3759,"is_reserved":false,"is_disabled":false,"rental_uris":{"android":"levelo://app?vid=422a3556-5806-4fe4-9e88-3d03bc9f488a","ios":"levelo://app?vid=422a3556-5806-4fe4-9e88-3d03bc9f488a"},"vehicle_type_id":"4","last_reported":1729591778,"current_range_meters":26800,"station_id":"","pricing_plan_id":"cebpf4jnsgd1na2vs0mg"},{"bike_id":"9594b9a5-c510-4f66-a6d0-493c56bc5669","system_id":"levelo_inurba_marseille","lat":43.26955,"lon":5.38633,"is_reserved":false,"is_disabled":false,"rental_uris":{"android":"levelo://app?vid=9594b9a5-c510-4f66-a6d0-493c56bc5669","ios":"levelo://app?vid=9594b9a5-c510-4f66-a6d0-493c56bc5669"},"vehicle_type_id":"4","last_reported":1729591778,"current_range_meters":28800,"station_id":"ce4bhh92rcd13ifvqfh0","pricing_plan_id":"cebpf4jnsgd1na2vs0mg"},{"bike_id":"1ba4d59d-0e05-4872-93e6-ae215330ba80","system_id":"levelo_inurba_marseille","lat":43.24183,"lon":5.39721,"is_reserved":false,"is_disabled":false,"rental_uris":{"android":"levelo://app?vid=1ba4d59d-0e05-4872-93e6-ae215330ba80","ios":"levelo://app?vid=1ba4d59d-0e05-4872-93e6-ae215330ba80"},"vehicle_type_id":"4","last_reported":1729591778,"current_range_meters":10000,"station_id":"ce4bhn12rcd13ifvqgpg","pricing_plan_id":"cebpf4jnsgd1na2vs0mg"},{"bike_id":"e38b6775-7c4a-4055-8c61-67bb18ec0d22","system_id":"levelo_inurba_marseille","lat":43.31343,"lon":5.3672,"is_reserved":false,"is_disabled":false,"rental_uris":{"android":"levelo://app?vid=e38b6775-7c4a-4055-8c61-67bb18ec0d22","ios":"levelo://app?vid=e38b6775-7c4a-4055-8c61-67bb18ec0d22"},"vehicle_type_id":"4","last_reported":1729591778,"current_range_meters":28400,"station_id":"ce4bgr92rcd13ifvqc6g","pricing_plan_id":"cebpf4jnsgd1na2vs0mg"},{"bike_id":"b8b55413-7dab-47bd-af63-9762535f48b6","system_id":"levelo_inurba_marseille","lat":43.30907,"lon":5.36851,"is_reserved":false,"is_disabled":false,"rental_uris":{"android":"levelo://app?vid=b8b55413-7dab-47bd-af63-9762535f48b6","ios":"levelo://app?vid=b8b55413-7dab-47bd-af63-9762535f48b6"},"vehicle_type_id":"4","last_reported":1729591778,"current_range_meters":39200,"station_id":"ce4bgn92rcd13ifvqbvg","pricing_plan_id":"cebpf4jnsgd1na2vs0mg"},{"bike_id":"9ac93457-c237-48af-a2e6-fc3a8235b38e","system_id":"levelo_inurba_marseille","lat":43.31352,"lon":5.38491,"is_reserved":false,"is_disabled":false,"rental_uris":{"android":"levelo://app?vid=9ac93457-c237-48af-a2e6-fc3a8235b38e","ios":"levelo://app?vid=9ac93457-c237-48af-a2e6-fc3a8235b38e"},"vehicle_type_id":"4","last_reported":1729591778,"current_range_meters":12800,"station_id":"ce4bgt92rcd13ifvqcf0","pricing_plan_id":"cebpf4jnsgd1na2vs0mg"},{"bike_id":"47dd2982-f62e-4a8b-81ff-eecc0bea71d7","system_id":"levelo_inurba_marseille","lat":43.33023,"lon":5.3904,"is_reserved":false,"is_disabled":false,"rental_uris":{"android":"levelo://app?vid=47dd2982-f62e-4a8b-81ff-eecc0bea71d7","ios":"levelo://app?vid=47dd2982-f62e-4a8b-81ff-eecc0bea71d7"},"vehicle_type_id":"4","last_reported":1729591778,"current_range_meters":36800,"station_id":"ce4bhr92rcd13ifvqhrg","pricing_plan_id":"cebpf4jnsgd1na2vs0mg"},{"bike_id":"401dd84b-7074-4ce1-8655-3ed201b2eec9","system_id":"levelo_inurba_marseille","lat":43.30545,"lon":5.36539,"is_reserved":false,"is_disabled":false,"rental_uris":{"android":"levelo://app?vid=401dd84b-7074-4ce1-8655-3ed201b2eec9","ios":"levelo://app?vid=401dd84b-7074-4ce1-8655-3ed201b2eec9"},"vehicle_type_id":"4","last_reported":1729591778,"current_range_meters":34000,"station_id":"ce4bgs12rcd13ifvqcag","pricing_plan_id":"cebpf4jnsgd1na2vs0mg"},{"bike_id":"5cc9c4f3-413c-4a57-8173-60b08ed6c02f","system_id":"levelo_inurba_marseille","lat":43.29317,"lon":5.37036,"is_reserved":false,"is_disabled":false,"rental_uris":{"android":"levelo://app?vid=5cc9c4f3-413c-4a57-8173-60b08ed6c02f","ios":"levelo://app?vid=5cc9c4f3-413c-4a57-8173-60b08ed6c02f"},"vehicle_type_id":"4","last_reported":1729591778,"current_range_meters":38800,"station_id":"ce4bgh92rcd13ifvqb40","pricing_plan_id":"cebpf4jnsgd1na2vs0mg"},{"bike_id":"c5857893-442c-48c0-8e95-134a1c912329","system_id":"levelo_inurba_marseille","lat":43.2816,"lon":5.42633,"is_reserved":false,"is_disabled":false,"rental_uris":{"android":"levelo://app?vid=c5857893-442c-48c0-8e95-134a1c912329","ios":"levelo://app?vid=c5857893-442c-48c0-8e95-134a1c912329"},"vehicle_type_id":"4","last_reported":1729591778,"current_range_meters":34800,"station_id":"ce4bhnh2rcd13ifvqgug","pricing_plan_id":"cebpf4jnsgd1na2vs0mg"},{"bike_id":"33aebf2e-693e-4bec-aa86-cd51abf77276","system_id":"levelo_inurba_marseille","lat":43.280407,"lon":5.369452,"is_reserved":false,"is_disabled":false,"rental_uris":{"android":"levelo://app?vid=33aebf2e-693e-4bec-aa86-cd51abf77276","ios":"levelo://app?vid=33aebf2e-693e-4bec-aa86-cd51abf77276"},"vehicle_type_id":"4","last_reported":1729591778,"current_range_meters":39200,"station_id":"ce4bha12rcd13ifvqef0","pricing_plan_id":"cebpf4jnsgd1na2vs0mg"},{"bike_id":"751d3382-d8f0-4f0a-a67e-10d700e93754","system_id":"levelo_inurba_marseille","lat":43.25936,"lon":5.40905,"is_reserved":false,"is_disabled":false,"rental_uris":{"android":"levelo://app?vid=751d3382-d8f0-4f0a-a67e-10d700e93754","ios":"levelo://app?vid=751d3382-d8f0-4f0a-a67e-10d700e93754"},"vehicle_type_id":"4","last_reported":1729591778,"current_range_meters":35600,"station_id":"ce4bhm92rcd13ifvqglg","pricing_plan_id":"cebpf4jnsgd1na2vs0mg"},{"bike_id":"ed73d99e-9629-4238-a3de-0f260c9ae761","system_id":"levelo_inurba_marseille","lat":43.24177,"lon":5.39732,"is_reserved":false,"is_disabled":false,"rental_uris":{"android":"levelo://app?vid=ed73d99e-9629-4238-a3de-0f260c9ae761","ios":"levelo://app?vid=ed73d99e-9629-4238-a3de-0f260c9ae761"},"vehicle_type_id":"4","last_reported":1729591778,"current_range_meters":39200,"station_id":"ce4bhn12rcd13ifvqgpg","pricing_plan_id":"cebpf4jnsgd1na2vs0mg"},{"bike_id":"f9275779-8159-45c8-9d6f-75cf25195292","system_id":"levelo_inurba_marseille","lat":43.298406,"lon":5.362531,"is_reserved":false,"is_disabled":false,"rental_uris":{"android":"levelo://app?vid=f9275779-8159-45c8-9d6f-75cf25195292","ios":"levelo://app?vid=f9275779-8159-45c8-9d6f-75cf25195292"},"vehicle_type_id":"4","last_reported":1729591778,"current_range_meters":39200,"station_id":"ce4bgpp2rcd13ifvqc3g","pricing_plan_id":"cebpf4jnsgd1na2vs0mg"},{"bike_id":"14a7b680-7840-4509-b16b-1909f5b8365d","system_id":"levelo_inurba_marseille","lat":43.30433,"lon":5.38885,"is_reserved":false,"is_disabled":false,"rental_uris":{"android":"levelo://app?vid=14a7b680-7840-4509-b16b-1909f5b8365d","ios":"levelo://app?vid=14a7b680-7840-4509-b16b-1909f5b8365d"},"vehicle_type_id":"4","last_reported":1729591778,"current_range_meters":10800,"station_id":"ce4bgk12rcd13ifvqbi0","pricing_plan_id":"cebpf4jnsgd1na2vs0mg"},{"bike_id":"b4789163-6828-4a10-a9ee-82c4d843f33d","system_id":"levelo_inurba_marseille","lat":43.28157,"lon":5.42634,"is_reserved":false,"is_disabled":false,"rental_uris":{"android":"levelo://app?vid=b4789163-6828-4a10-a9ee-82c4d843f33d","ios":"levelo://app?vid=b4789163-6828-4a10-a9ee-82c4d843f33d"},"vehicle_type_id":"4","last_reported":1729591778,"current_range_meters":40000,"station_id":"ce4bhnh2rcd13ifvqgug","pricing_plan_id":"cebpf4jnsgd1na2vs0mg"},{"bike_id":"2ed8ee6b-57ee-4844-8031-4b333905f62b","system_id":"levelo_inurba_marseille","lat":43.29266,"lon":5.38429,"is_reserved":false,"is_disabled":false,"rental_uris":{"android":"levelo://app?vid=2ed8ee6b-57ee-4844-8031-4b333905f62b","ios":"levelo://app?vid=2ed8ee6b-57ee-4844-8031-4b333905f62b"},"vehicle_type_id":"4","last_reported":1729591778,"current_range_meters":12800,"station_id":"ce4bh692rcd13ifvqea0","pricing_plan_id":"cebpf4jnsgd1na2vs0mg"},{"bike_id":"b6514299-eec4-4895-89f1-d6a2c5bf4d8f","system_id":"levelo_inurba_marseille","lat":43.22929,"lon":5.35376,"is_reserved":false,"is_disabled":false,"rental_uris":{"android":"levelo://app?vid=b6514299-eec4-4895-89f1-d6a2c5bf4d8f","ios":"levelo://app?vid=b6514299-eec4-4895-89f1-d6a2c5bf4d8f"},"vehicle_type_id":"4","last_reported":1729591778,"current_range_meters":8400,"station_id":"cpo3532slgdg3j2ikp40","pricing_plan_id":"cebpf4jnsgd1na2vs0mg"},{"bike_id":"94bf876f-db2f-4206-8944-c80cfa3e0c54","system_id":"levelo_inurba_marseille","lat":43.25714,"lon":5.41118,"is_reserved":false,"is_disabled":false,"rental_uris":{"android":"levelo://app?vid=94bf876f-db2f-4206-8944-c80cfa3e0c54","ios":"levelo://app?vid=94bf876f-db2f-4206-8944-c80cfa3e0c54"},"vehicle_type_id":"4","last_reported":1729591778,"current_range_meters":38800,"station_id":"ce4bhkp2rcd13ifvqgd0","pricing_plan_id":"cebpf4jnsgd1na2vs0mg"},{"bike_id":"1f6b71b9-691a-4b1e-9e9e-cf452f804798","system_id":"levelo_inurba_marseille","lat":43.28614,"lon":5.35101,"is_reserved":false,"is_disabled":false,"rental_uris":{"android":"levelo://app?vid=1f6b71b9-691a-4b1e-9e9e-cf452f804798","ios":"levelo://app?vid=1f6b71b9-691a-4b1e-9e9e-cf452f804798"},"vehicle_type_id":"4","last_reported":1729591778,"current_range_meters":21600,"station_id":"ce4bhch2rcd13ifvqeug","pricing_plan_id":"cebpf4jnsgd1na2vs0mg"},{"bike_id":"61c59699-008c-48be-964c-898121c2429b","system_id":"levelo_inurba_marseille","lat":43.31995,"lon":5.38165,"is_reserved":false,"is_disabled":false,"rental_uris":{"android":"levelo://app?vid=61c59699-008c-48be-964c-898121c2429b","ios":"levelo://app?vid=61c59699-008c-48be-964c-898121c2429b"},"vehicle_type_id":"4","last_reported":1729591778,"current_range_meters":30800,"station_id":"ce4bhr12rcd13ifvqhpg","pricing_plan_id":"cebpf4jnsgd1na2vs0mg"},{"bike_id":"50e963e0-105c-4264-a3f1-8e1f4496432c","system_id":"levelo_inurba_marseille","lat":43.26684,"lon":5.38268,"is_reserved":false,"is_disabled":false,"rental_uris":{"android":"levelo://app?vid=50e963e0-105c-4264-a3f1-8e1f4496432c","ios":"levelo://app?vid=50e963e0-105c-4264-a3f1-8e1f4496432c"},"vehicle_type_id":"4","last_reported":1729591778,"current_range_meters":39200,"station_id":"ce4bhg92rcd13ifvqf90","pricing_plan_id":"cebpf4jnsgd1na2vs0mg"},{"bike_id":"81e4488d-b9df-4764-b508-9fca2a6674ff","system_id":"levelo_inurba_marseille","lat":43.23191,"lon":5.3555,"is_reserved":false,"is_disabled":false,"rental_uris":{"android":"levelo://app?vid=81e4488d-b9df-4764-b508-9fca2a6674ff","ios":"levelo://app?vid=81e4488d-b9df-4764-b508-9fca2a6674ff"},"vehicle_type_id":"4","last_reported":1729591778,"current_range_meters":37600,"station_id":"ce4bhu92rcd13ifvqi70","pricing_plan_id":"cebpf4jnsgd1na2vs0mg"},{"bike_id":"44550e6e-2644-4242-b698-239c03743e5c","system_id":"levelo_inurba_marseille","lat":43.23153,"lon":5.43704,"is_reserved":false,"is_disabled":false,"rental_uris":{"android":"levelo://app?vid=44550e6e-2644-4242-b698-239c03743e5c","ios":"levelo://app?vid=44550e6e-2644-4242-b698-239c03743e5c"},"vehicle_type_id":"4","last_reported":1729591778,"current_range_meters":20000,"station_id":"ce4bhmp2rcd13ifvqgog","pricing_plan_id":"cebpf4jnsgd1na2vs0mg"},{"bike_id":"23e6ca2f-6508-428f-91df-505ca4e33c4f","system_id":"levelo_inurba_marseille","lat":43.33604,"lon":5.41036,"is_reserved":false,"is_disabled":false,"rental_uris":{"android":"levelo://app?vid=23e6ca2f-6508-428f-91df-505ca4e33c4f","ios":"levelo://app?vid=23e6ca2f-6508-428f-91df-505ca4e33c4f"},"vehicle_type_id":"4","last_reported":1729591778,"current_range_meters":24400,"station_id":"ce4bhqh2rcd13ifvqhmg","pricing_plan_id":"cebpf4jnsgd1na2vs0mg"},{"bike_id":"cc7ba531-eadc-4a76-b88a-eac33527a1c8","system_id":"levelo_inurba_marseille","lat":43.31895,"lon":5.40742,"is_reserved":false,"is_disabled":false,"rental_uris":{"android":"levelo://app?vid=cc7ba531-eadc-4a76-b88a-eac33527a1c8","ios":"levelo://app?vid=cc7ba531-eadc-4a76-b88a-eac33527a1c8"},"vehicle_type_id":"4","last_reported":1729591778,"current_range_meters":10000,"station_id":"ce4bhq12rcd13ifvqhig","pricing_plan_id":"cebpf4jnsgd1na2vs0mg"},{"bike_id":"f03f25e2-636f-4d9f-9bc3-0951cdf8abe3","system_id":"levelo_inurba_marseille","lat":43.2707,"lon":5.42279,"is_reserved":false,"is_disabled":false,"rental_uris":{"android":"levelo://app?vid=f03f25e2-636f-4d9f-9bc3-0951cdf8abe3","ios":"levelo://app?vid=f03f25e2-636f-4d9f-9bc3-0951cdf8abe3"},"vehicle_type_id":"4","last_reported":1729591778,"current_range_meters":39200,"station_id":"ce4bhk92rcd13ifvqgb0","pricing_plan_id":"cebpf4jnsgd1na2vs0mg"},{"bike_id":"49af061c-ba9a-493d-82a6-c3d2564e5efa","system_id":"levelo_inurba_marseille","lat":43.26927,"lon":5.38913,"is_reserved":false,"is_disabled":false,"rental_uris":{"android":"levelo://app?vid=49af061c-ba9a-493d-82a6-c3d2564e5efa","ios":"levelo://app?vid=49af061c-ba9a-493d-82a6-c3d2564e5efa"},"vehicle_type_id":"4","last_reported":1729591778,"current_range_meters":16400,"station_id":"ce4bhhh2rcd13ifvqfl0","pricing_plan_id":"cebpf4jnsgd1na2vs0mg"},{"bike_id":"2319f500-fb85-45bd-aa2d-c134ebde5204","system_id":"levelo_inurba_marseille","lat":43.32346,"lon":5.40615,"is_reserved":false,"is_disabled":false,"rental_uris":{"android":"levelo://app?vid=2319f500-fb85-45bd-aa2d-c134ebde5204","ios":"levelo://app?vid=2319f500-fb85-45bd-aa2d-c134ebde5204"},"vehicle_type_id":"4","last_reported":1729591778,"current_range_meters":31200,"station_id":"ce4bhr92rcd13ifvqhrg","pricing_plan_id":"cebpf4jnsgd1na2vs0mg"},{"bike_id":"aeca085a-a90b-48b3-9337-0a56131cd37c","system_id":"levelo_inurba_marseille","lat":43.31994,"lon":5.38153,"is_reserved":false,"is_disabled":false,"rental_uris":{"android":"levelo://app?vid=aeca085a-a90b-48b3-9337-0a56131cd37c","ios":"levelo://app?vid=aeca085a-a90b-48b3-9337-0a56131cd37c"},"vehicle_type_id":"4","last_reported":1729591778,"current_range_meters":39200,"station_id":"ce4bhr12rcd13ifvqhpg","pricing_plan_id":"cebpf4jnsgd1na2vs0mg"},{"bike_id":"69127697-55b2-428c-8bf6-0e269afecf3e","system_id":"levelo_inurba_marseille","lat":43.261627,"lon":5.393926,"is_reserved":false,"is_disabled":false,"rental_uris":{"android":"levelo://app?vid=69127697-55b2-428c-8bf6-0e269afecf3e","ios":"levelo://app?vid=69127697-55b2-428c-8bf6-0e269afecf3e"},"vehicle_type_id":"4","last_reported":1729591778,"current_range_meters":21600,"station_id":"ce4bhh92rcd13ifvqfj0","pricing_plan_id":"cebpf4jnsgd1na2vs0mg"},{"bike_id":"087a7bf8-4bdf-408b-a60c-b4b0ac6d7a5a","system_id":"levelo_inurba_marseille","lat":43.32481,"lon":5.36564,"is_reserved":false,"is_disabled":false,"rental_uris":{"android":"levelo://app?vid=087a7bf8-4bdf-408b-a60c-b4b0ac6d7a5a","ios":"levelo://app?vid=087a7bf8-4bdf-408b-a60c-b4b0ac6d7a5a"},"vehicle_type_id":"4","last_reported":1729591778,"current_range_meters":40000,"station_id":"ce4bhs12rcd13ifvqhvg","pricing_plan_id":"cebpf4jnsgd1na2vs0mg"},{"bike_id":"cf9cef09-fa96-4f4d-a4c3-e5dca4c180f2","system_id":"levelo_inurba_marseille","lat":43.23149,"lon":5.43717,"is_reserved":false,"is_disabled":false,"rental_uris":{"android":"levelo://app?vid=cf9cef09-fa96-4f4d-a4c3-e5dca4c180f2","ios":"levelo://app?vid=cf9cef09-fa96-4f4d-a4c3-e5dca4c180f2"},"vehicle_type_id":"4","last_reported":1729591778,"current_range_meters":17200,"station_id":"ce4bhmp2rcd13ifvqgog","pricing_plan_id":"cebpf4jnsgd1na2vs0mg"},{"bike_id":"397b3eaa-8808-436c-b8e2-3e3c7bc36b2a","system_id":"levelo_inurba_marseille","lat":43.23153,"lon":5.43707,"is_reserved":false,"is_disabled":false,"rental_uris":{"android":"levelo://app?vid=397b3eaa-8808-436c-b8e2-3e3c7bc36b2a","ios":"levelo://app?vid=397b3eaa-8808-436c-b8e2-3e3c7bc36b2a"},"vehicle_type_id":"4","last_reported":1729591778,"current_range_meters":22400,"station_id":"ce4bhmp2rcd13ifvqgog","pricing_plan_id":"cebpf4jnsgd1na2vs0mg"},{"bike_id":"c1202558-5912-4252-85d0-5ea44a1dd5e3","system_id":"levelo_inurba_marseille","lat":43.32478,"lon":5.36558,"is_reserved":false,"is_disabled":false,"rental_uris":{"android":"levelo://app?vid=c1202558-5912-4252-85d0-5ea44a1dd5e3","ios":"levelo://app?vid=c1202558-5912-4252-85d0-5ea44a1dd5e3"},"vehicle_type_id":"4","last_reported":1729591778,"current_range_meters":40000,"station_id":"ce4bhs12rcd13ifvqhvg","pricing_plan_id":"cebpf4jnsgd1na2vs0mg"},{"bike_id":"2ffcc6a3-4fc2-4849-a2ae-d9b0cdb51aa6","system_id":"levelo_inurba_marseille","lat":43.25578,"lon":5.38238,"is_reserved":false,"is_disabled":false,"rental_uris":{"android":"levelo://app?vid=2ffcc6a3-4fc2-4849-a2ae-d9b0cdb51aa6","ios":"levelo://app?vid=2ffcc6a3-4fc2-4849-a2ae-d9b0cdb51aa6"},"vehicle_type_id":"4","last_reported":1729591778,"current_range_meters":22800,"station_id":"ce4bhih2rcd13ifvqfs0","pricing_plan_id":"cebpf4jnsgd1na2vs0mg"},